{"last_updated":1752150134,"ttl":60,"version":"2.2","data":{"bikes":[{"bike_id":"cd20cfea-2f2f-444d-a882-a49b6cf370eb","system_id":"levelo_inurba_marseille","lat":43.337444,"lon":5.374475,"is_reserved":false,"is_disabled":true,"rental_uris":{"android":"levelo://app?vid=cd20cfea-2f2f-444d-a882-a49b6cf370eb","ios":"levelo://app?vid=cd20cfea-2f2f-444d-a882-a49b6cf370eb"},"vehicle_type_id":"4","last_reported":1752150135,"current_range_meters":0,"station_id":"","pricing_plan_id":"cebpf4jnsgd1na2vs0mg"},{"bike_id":"3da29fb8-fc97-44c6-b9ac-31dd456b2fd4","system_id":"levelo_inurba_marseille","lat":43.33771,"lon":5.37424,"is_reserved":false,"is_disabled":true,"rental_uris":{"android":"levelo://app?vid=3da29fb8-fc97-44c6-b9ac-31dd456b2fd4","ios":"levelo://app?vid=3da29fb8-fc97-44c6-b9ac-31dd456b2fd4"},"vehicle_type_id":"4","last_reported":1752150135,"current_range_meters":0,"station_id":"","pricing_plan_id":"cebpf4jnsgd1na2vs0mg"},{"bike_id":"01861ad8-a8d7-4be6-816e-651927c87584","system_id":"levelo_inurba_marseille","lat":43.33751,"lon":5.37456,"is_reserved":false,"is_disabled":true,"rental_uris":{"android":"levelo://app?vid=01861ad8-a8d7-4be6-816e-651927c87584","ios":"levelo://app?vid=01861ad8-a8d7-4be6-816e-651927c87584"},"vehicle_type_id":"4","last_reported":1752150135,"current_range_meters":0,"station_id":"","pricing_plan_id":"cebpf4jnsgd1na2vs0mg"},{"bike_id":"24cb9089-93ac-4b36-9d4e-b77f1a42140d","system_id":"levelo_inurba_marseille","lat":43.31339,"lon":5.36781,"is_reserved":false,"is_disabled":true,"rental_uris":{"android":"levelo://app?vid=24cb9089-93ac-4b36-9d4e-b77f1a42140d","ios":"levelo://app?vid=24cb9089-93ac-4b36-9d4e-b77f1a42140d"},"vehicle_type_id":"4","last_reported":1752150135,"current_range_meters":0,"station_id":"","pricing_plan_id":"cebpf4jnsgd1na2vs0mg"},{"bike_id":"37f2becd-23f9-4f13-a711-38b8024eeec7","system_id":"levelo_inurba_marseille","lat":43.33768,"lon":5.37516,"is_reserved":false,"is_disabled":true,"rental_uris":{"android":"levelo://app?vid=37f2becd-23f9-4f13-a711-38b8024eeec7","ios":"levelo://app?vid=37f2becd-23f9-4f13-a711-38b8024eeec7"},"vehicle_type_id":"4","last_reported":1752150135,"current_range_meters":0,"station_id":"","pricing_plan_id":"cebpf4jnsgd1na2vs0mg"},{"bike_id":"b8fcd1b8-e383-4c4c-a466-f8393a965939","system_id":"levelo_inurba_marseille","lat":43.21737,"lon":5.34572,"is_reserved":false,"is_disabled":true,"rental_uris":{"android":"levelo://app?vid=b8fcd1b8-e383-4c4c-a466-f8393a965939","ios":"levelo://app?vid=b8fcd1b8-e383-4c4c-a466-f8393a965939"},"vehicle_type_id":"4","last_reported":1752150135,"current_range_meters":0,"station_id":"","pricing_plan_id":"cebpf4jnsgd1na2vs0mg"},{"bike_id":"53b1a31e-8ada-40c0-8d64-113a81233c84","system_id":"levelo_inurba_marseille","lat":43.36358,"lon":5.31888,"is_reserved":false,"is_disabled":true,"rental_uris":{"android":"levelo://app?vid=53b1a31e-8ada-40c0-8d64-113a81233c84","ios":"levelo://app?vid=53b1a31e-8ada-40c0-8d64-113a81233c84"},"vehicle_type_id":"4","last_reported":1752150135,"current_range_meters":0,"station_id":"","pricing_plan_id":"cebpf4jnsgd1na2vs0mg"},{"bike_id":"db841109-9b56-4777-86e2-06fbf4ef1649","system_id":"levelo_inurba_marseille","lat":43.31109,"lon":5.39725,"is_reserved":false,"is_disabled":true,"rental_uris":{"android":"levelo://app?vid=db841109-9b56-4777-86e2-06fbf4ef1649","ios":"levelo://app?vid=db841109-9b56-4777-86e2-06fbf4ef1649"},"vehicle_type_id":"4","last_reported":1752150135,"current_range_meters":0,"station_id":"","pricing_plan_id":"cebpf4jnsgd1na2vs0mg"},{"bike_id":"3c7d1d94-d309-40ae-a7cb-986405b3f8ef","system_id":"levelo_inurba_marseille","lat":43.29283,"lon":5.37451,"is_reserved":false,"is_disabled":true,"rental_uris":{"android":"levelo://app?vid=3c7d1d94-d309-40ae-a7cb-986405b3f8ef","ios":"levelo://app?vid=3c7d1d94-d309-40ae-a7cb-986405b3f8ef"},"vehicle_type_id":"4","last_reported":1752150135,"current_range_meters":0,"station_id":"ce4bgi12rcd13ifvqb70","pricing_plan_id":"cebpf4jnsgd1na2vs0mg"},{"bike_id":"6437879d-4940-4b00-8958-a70b5d705f12","system_id":"levelo_inurba_marseille","lat":43.29284,"lon":5.37471,"is_reserved":false,"is_disabled":true,"rental_uris":{"android":"levelo://app?vid=6437879d-4940-4b00-8958-a70b5d705f12","ios":"levelo://app?vid=6437879d-4940-4b00-8958-a70b5d705f12"},"vehicle_type_id":"4","last_reported":1752150135,"current_range_meters":0,"station_id":"ce4bgi12rcd13ifvqb70","pricing_plan_id":"cebpf4jnsgd1na2vs0mg"},{"bike_id":"0a8bb24b-c43f-41b9-9b0b-9b7314b17334","system_id":"levelo_inurba_marseille","lat":43.28709,"lon":5.37398,"is_reserved":false,"is_disabled":true,"rental_uris":{"android":"levelo://app?vid=0a8bb24b-c43f-41b9-9b0b-9b7314b17334","ios":"levelo://app?vid=0a8bb24b-c43f-41b9-9b0b-9b7314b17334"},"vehicle_type_id":"4","last_reported":1752150135,"current_range_meters":0,"station_id":"ce4bh3p2rcd13ifvqdq0","pricing_plan_id":"cebpf4jnsgd1na2vs0mg"},{"bike_id":"43295620-c025-4cd3-9d75-138f8b6f7893","system_id":"levelo_inurba_marseille","lat":43.28152,"lon":5.42648,"is_reserved":false,"is_disabled":true,"rental_uris":{"android":"levelo://app?vid=43295620-c025-4cd3-9d75-138f8b6f7893","ios":"levelo://app?vid=43295620-c025-4cd3-9d75-138f8b6f7893"},"vehicle_type_id":"4","last_reported":1752150135,"current_range_meters":0,"station_id":"ce4bhnh2rcd13ifvqgug","pricing_plan_id":"cebpf4jnsgd1na2vs0mg"},{"bike_id":"d0afdcac-61f9-451b-b809-cdf62d609c75","system_id":"levelo_inurba_marseille","lat":43.29551,"lon":5.42275,"is_reserved":false,"is_disabled":true,"rental_uris":{"android":"levelo://app?vid=d0afdcac-61f9-451b-b809-cdf62d609c75","ios":"levelo://app?vid=d0afdcac-61f9-451b-b809-cdf62d609c75"},"vehicle_type_id":"4","last_reported":1752150135,"current_range_meters":0,"station_id":"ce4bhph2rcd13ifvqhdg","pricing_plan_id":"cebpf4jnsgd1na2vs0mg"},{"bike_id":"8c96b343-d668-4141-aee1-41d37666636e","system_id":"levelo_inurba_marseille","lat":43.32351,"lon":5.40614,"is_reserved":false,"is_disabled":true,"rental_uris":{"android":"levelo://app?vid=8c96b343-d668-4141-aee1-41d37666636e","ios":"levelo://app?vid=8c96b343-d668-4141-aee1-41d37666636e"},"vehicle_type_id":"4","last_reported":1752150135,"current_range_meters":0,"station_id":"ce4bhq92rcd13ifvqhjg","pricing_plan_id":"cebpf4jnsgd1na2vs0mg"},{"bike_id":"87fde85b-26da-48fa-a9ac-0cef21a36274","system_id":"levelo_inurba_marseille","lat":43.24163,"lon":5.36394,"is_reserved":false,"is_disabled":true,"rental_uris":{"android":"levelo://app?vid=87fde85b-26da-48fa-a9ac-0cef21a36274","ios":"levelo://app?vid=87fde85b-26da-48fa-a9ac-0cef21a36274"},"vehicle_type_id":"4","last_reported":1752150135,"current_range_meters":0,"station_id":"cpo36qri1sfpv3e86is0","pricing_plan_id":"cebpf4jnsgd1na2vs0mg"},{"bike_id":"1ea07c30-7637-4836-8280-b70950b610b5","system_id":"levelo_inurba_marseille","lat":43.225037,"lon":5.347858,"is_reserved":false,"is_disabled":true,"rental_uris":{"android":"levelo://app?vid=1ea07c30-7637-4836-8280-b70950b610b5","ios":"levelo://app?vid=1ea07c30-7637-4836-8280-b70950b610b5"},"vehicle_type_id":"4","last_reported":1752150135,"current_range_meters":0,"station_id":"st_cvj5dfep6f1abm77gieg","pricing_plan_id":"cebpf4jnsgd1na2vs0mg"},{"bike_id":"f038e6f6-97fa-4664-b9e2-b33d12a8e200","system_id":"levelo_inurba_marseille","lat":43.29297,"lon":5.37463,"is_reserved":false,"is_disabled":true,"rental_uris":{"android":"levelo://app?vid=f038e6f6-97fa-4664-b9e2-b33d12a8e200","ios":"levelo://app?vid=f038e6f6-97fa-4664-b9e2-b33d12a8e200"},"vehicle_type_id":"4","last_reported":1752150135,"current_range_meters":400,"station_id":"ce4bgi12rcd13ifvqb70","pricing_plan_id":"cebpf4jnsgd1na2vs0mg"},{"bike_id":"5ce39f79-aff1-446c-be6e-5b7a8fe0dcce","system_id":"levelo_inurba_marseille","lat":43.31472,"lon":5.38384,"is_reserved":false,"is_disabled":true,"rental_uris":{"android":"levelo://app?vid=5ce39f79-aff1-446c-be6e-5b7a8fe0dcce","ios":"levelo://app?vid=5ce39f79-aff1-446c-be6e-5b7a8fe0dcce"},"vehicle_type_id":"4","last_reported":1752150135,"current_range_meters":800,"station_id":"","pricing_plan_id":"cebpf4jnsgd1na2vs0mg"},{"bike_id":"507ebe17-b143-4d10-9f76-8de47e1b8593","system_id":"levelo_inurba_marseille","lat":43.28664,"lon":5.38655,"is_reserved":false,"is_disabled":true,"rental_uris":{"android":"levelo://app?vid=507ebe17-b143-4d10-9f76-8de47e1b8593","ios":"levelo://app?vid=507ebe17-b143-4d10-9f76-8de47e1b8593"},"vehicle_type_id":"4","last_reported":1752150135,"current_range_meters":800,"station_id":"ce4bh492rcd13ifvqdug","pricing_plan_id":"cebpf4jnsgd1na2vs0mg"},{"bike_id":"8637aaab-14e2-473e-bb8c-7f0817f7d7db","system_id":"levelo_inurba_marseille","lat":43.32487,"lon":5.36591,"is_reserved":false,"is_disabled":true,"rental_uris":{"android":"levelo://app?vid=8637aaab-14e2-473e-bb8c-7f0817f7d7db","ios":"levelo://app?vid=8637aaab-14e2-473e-bb8c-7f0817f7d7db"},"vehicle_type_id":"4","last_reported":1752150135,"current_range_meters":800,"station_id":"ce4bhs12rcd13ifvqhvg","pricing_plan_id":"cebpf4jnsgd1na2vs0mg"},{"bike_id":"95a5e5c6-01af-494c-bc02-085e2bb5eac8","system_id":"levelo_inurba_marseille","lat":43.29632,"lon":5.40592,"is_reserved":false,"is_disabled":true,"rental_uris":{"android":"levelo://app?vid=95a5e5c6-01af-494c-bc02-085e2bb5eac8","ios":"levelo://app?vid=95a5e5c6-01af-494c-bc02-085e2bb5eac8"},"vehicle_type_id":"4","last_reported":1752150135,"current_range_meters":1600,"station_id":"ce4bh0h2rcd13ifvqd60","pricing_plan_id":"cebpf4jnsgd1na2vs0mg"},{"bike_id":"c74291d0-b1a7-4640-a82d-8d4fd1b8e898","system_id":"levelo_inurba_marseille","lat":43.28615,"lon":5.35112,"is_reserved":false,"is_disabled":true,"rental_uris":{"android":"levelo://app?vid=c74291d0-b1a7-4640-a82d-8d4fd1b8e898","ios":"levelo://app?vid=c74291d0-b1a7-4640-a82d-8d4fd1b8e898"},"vehicle_type_id":"4","last_reported":1752150135,"current_range_meters":2000,"station_id":"ce4bhch2rcd13ifvqeug","pricing_plan_id":"cebpf4jnsgd1na2vs0mg"},{"bike_id":"888522e3-39b6-4ff3-ad74-ff6c6f771157","system_id":"levelo_inurba_marseille","lat":43.294936,"lon":5.402883,"is_reserved":false,"is_disabled":false,"rental_uris":{"android":"levelo://app?vid=888522e3-39b6-4ff3-ad74-ff6c6f771157","ios":"levelo://app?vid=888522e3-39b6-4ff3-ad74-ff6c6f771157"},"vehicle_type_id":"4","last_reported":1752150135,"current_range_meters":2800,"station_id":"","pricing_plan_id":"cebpf4jnsgd1na2vs0mg"},{"bike_id":"323b107d-22f0-4d8a-8cd0-c280dd2323e0","system_id":"levelo_inurba_marseille","lat":43.32316,"lon":5.3668,"is_reserved":false,"is_disabled":false,"rental_uris":{"android":"levelo://app?vid=323b107d-22f0-4d8a-8cd0-c280dd2323e0","ios":"levelo://app?vid=323b107d-22f0-4d8a-8cd0-c280dd2323e0"},"vehicle_type_id":"4","last_reported":1752150135,"current_range_meters":2800,"station_id":"","pricing_plan_id":"cebpf4jnsgd1na2vs0mg"},{"bike_id":"2ed07b92-0d4c-4bd4-99fc-f76ffc710ed1","system_id":"levelo_inurba_marseille","lat":43.262044,"lon":5.374569,"is_reserved":false,"is_disabled":false,"rental_uris":{"android":"levelo://app?vid=2ed07b92-0d4c-4bd4-99fc-f76ffc710ed1","ios":"levelo://app?vid=2ed07b92-0d4c-4bd4-99fc-f76ffc710ed1"},"vehicle_type_id":"4","last_reported":1752150135,"current_range_meters":3200,"station_id":"ce4bhgp2rcd13ifvqfc0","pricing_plan_id":"cebpf4jnsgd1na2vs0mg"},{"bike_id":"97b636d4-ce76-4469-91f2-cb71a35c75e9","system_id":"levelo_inurba_marseille","lat":43.29512,"lon":5.38681,"is_reserved":false,"is_disabled":false,"rental_uris":{"android":"levelo://app?vid=97b636d4-ce76-4469-91f2-cb71a35c75e9","ios":"levelo://app?vid=97b636d4-ce76-4469-91f2-cb71a35c75e9"},"vehicle_type_id":"4","last_reported":1752150135,"current_range_meters":3600,"station_id":"","pricing_plan_id":"cebpf4jnsgd1na2vs0mg"},{"bike_id":"2ab5f808-f1c7-4502-afc4-f61e7d5de5aa","system_id":"levelo_inurba_marseille","lat":43.23966,"lon":5.36634,"is_reserved":false,"is_disabled":false,"rental_uris":{"android":"levelo://app?vid=2ab5f808-f1c7-4502-afc4-f61e7d5de5aa","ios":"levelo://app?vid=2ab5f808-f1c7-4502-afc4-f61e7d5de5aa"},"vehicle_type_id":"4","last_reported":1752150135,"current_range_meters":4000,"station_id":"ce4bhi12rcd13ifvqfp0","pricing_plan_id":"cebpf4jnsgd1na2vs0mg"},{"bike_id":"0b5df73c-bd3e-446e-8a78-659b09117aaf","system_id":"levelo_inurba_marseille","lat":43.28409,"lon":5.34979,"is_reserved":false,"is_disabled":false,"rental_uris":{"android":"levelo://app?vid=0b5df73c-bd3e-446e-8a78-659b09117aaf","ios":"levelo://app?vid=0b5df73c-bd3e-446e-8a78-659b09117aaf"},"vehicle_type_id":"4","last_reported":1752150135,"current_range_meters":4400,"station_id":"ce4bhbh2rcd13ifvqepg","pricing_plan_id":"cebpf4jnsgd1na2vs0mg"},{"bike_id":"ff8151ce-3540-4849-9a46-302e78b2341b","system_id":"levelo_inurba_marseille","lat":43.30524,"lon":5.38426,"is_reserved":false,"is_disabled":false,"rental_uris":{"android":"levelo://app?vid=ff8151ce-3540-4849-9a46-302e78b2341b","ios":"levelo://app?vid=ff8151ce-3540-4849-9a46-302e78b2341b"},"vehicle_type_id":"4","last_reported":1752150135,"current_range_meters":6400,"station_id":"ce4bgg92rcd13ifvqb30","pricing_plan_id":"cebpf4jnsgd1na2vs0mg"},{"bike_id":"e10b65ad-808d-4244-bc0e-6a1de39c08bc","system_id":"levelo_inurba_marseille","lat":43.23144,"lon":5.43718,"is_reserved":false,"is_disabled":false,"rental_uris":{"android":"levelo://app?vid=e10b65ad-808d-4244-bc0e-6a1de39c08bc","ios":"levelo://app?vid=e10b65ad-808d-4244-bc0e-6a1de39c08bc"},"vehicle_type_id":"4","last_reported":1752150135,"current_range_meters":6400,"station_id":"ce4bhmp2rcd13ifvqgog","pricing_plan_id":"cebpf4jnsgd1na2vs0mg"},{"bike_id":"41c4827f-9f3d-416f-bbe6-ec0cf48e58f5","system_id":"levelo_inurba_marseille","lat":43.33608,"lon":5.41036,"is_reserved":false,"is_disabled":false,"rental_uris":{"android":"levelo://app?vid=41c4827f-9f3d-416f-bbe6-ec0cf48e58f5","ios":"levelo://app?vid=41c4827f-9f3d-416f-bbe6-ec0cf48e58f5"},"vehicle_type_id":"4","last_reported":1752150135,"current_range_meters":6800,"station_id":"ce4bhqh2rcd13ifvqhmg","pricing_plan_id":"cebpf4jnsgd1na2vs0mg"},{"bike_id":"6fb45b4a-01f5-4f5d-b85b-9d16785015b8","system_id":"levelo_inurba_marseille","lat":43.21761,"lon":5.34612,"is_reserved":false,"is_disabled":false,"rental_uris":{"android":"levelo://app?vid=6fb45b4a-01f5-4f5d-b85b-9d16785015b8","ios":"levelo://app?vid=6fb45b4a-01f5-4f5d-b85b-9d16785015b8"},"vehicle_type_id":"4","last_reported":1752150135,"current_range_meters":7200,"station_id":"","pricing_plan_id":"cebpf4jnsgd1na2vs0mg"},{"bike_id":"51b4cfec-2aea-4ac9-bfc2-e333ca2c9044","system_id":"levelo_inurba_marseille","lat":43.26781,"lon":5.39411,"is_reserved":false,"is_disabled":false,"rental_uris":{"android":"levelo://app?vid=51b4cfec-2aea-4ac9-bfc2-e333ca2c9044","ios":"levelo://app?vid=51b4cfec-2aea-4ac9-bfc2-e333ca2c9044"},"vehicle_type_id":"4","last_reported":1752150135,"current_range_meters":7200,"station_id":"ce4bhh12rcd13ifvqfg0","pricing_plan_id":"cebpf4jnsgd1na2vs0mg"},{"bike_id":"2354f4ca-20d1-4b1b-b469-739d1656dff6","system_id":"levelo_inurba_marseille","lat":43.290025,"lon":5.376289,"is_reserved":false,"is_disabled":false,"rental_uris":{"android":"levelo://app?vid=2354f4ca-20d1-4b1b-b469-739d1656dff6","ios":"levelo://app?vid=2354f4ca-20d1-4b1b-b469-739d1656dff6"},"vehicle_type_id":"4","last_reported":1752150135,"current_range_meters":8400,"station_id":"","pricing_plan_id":"cebpf4jnsgd1na2vs0mg"},{"bike_id":"22b53316-6aeb-4ee3-880c-302505d31c63","system_id":"levelo_inurba_marseille","lat":43.29626,"lon":5.40596,"is_reserved":false,"is_disabled":false,"rental_uris":{"android":"levelo://app?vid=22b53316-6aeb-4ee3-880c-302505d31c63","ios":"levelo://app?vid=22b53316-6aeb-4ee3-880c-302505d31c63"},"vehicle_type_id":"4","last_reported":1752150135,"current_range_meters":8400,"station_id":"ce4bh0h2rcd13ifvqd60","pricing_plan_id":"cebpf4jnsgd1na2vs0mg"},{"bike_id":"5cd59a75-8019-48c6-9ce6-43f4ec3668ce","system_id":"levelo_inurba_marseille","lat":43.29264,"lon":5.38423,"is_reserved":false,"is_disabled":false,"rental_uris":{"android":"levelo://app?vid=5cd59a75-8019-48c6-9ce6-43f4ec3668ce","ios":"levelo://app?vid=5cd59a75-8019-48c6-9ce6-43f4ec3668ce"},"vehicle_type_id":"4","last_reported":1752150135,"current_range_meters":8400,"station_id":"ce4bh692rcd13ifvqea0","pricing_plan_id":"cebpf4jnsgd1na2vs0mg"},{"bike_id":"aa43efdf-1cfe-4824-8734-b8920b246794","system_id":"levelo_inurba_marseille","lat":43.29204,"lon":5.36058,"is_reserved":false,"is_disabled":false,"rental_uris":{"android":"levelo://app?vid=aa43efdf-1cfe-4824-8734-b8920b246794","ios":"levelo://app?vid=aa43efdf-1cfe-4824-8734-b8920b246794"},"vehicle_type_id":"4","last_reported":1752150135,"current_range_meters":8800,"station_id":"ce4bhbh2rcd13ifvqeqg","pricing_plan_id":"cebpf4jnsgd1na2vs0mg"},{"bike_id":"a744e08e-16d1-4c0c-bbb8-df2bdaaf5ca0","system_id":"levelo_inurba_marseille","lat":43.23149,"lon":5.43712,"is_reserved":false,"is_disabled":false,"rental_uris":{"android":"levelo://app?vid=a744e08e-16d1-4c0c-bbb8-df2bdaaf5ca0","ios":"levelo://app?vid=a744e08e-16d1-4c0c-bbb8-df2bdaaf5ca0"},"vehicle_type_id":"4","last_reported":1752150135,"current_range_meters":8800,"station_id":"ce4bhmp2rcd13ifvqgog","pricing_plan_id":"cebpf4jnsgd1na2vs0mg"},{"bike_id":"f573a8fb-f1f8-47c4-901e-ddf2739a5cca","system_id":"levelo_inurba_marseille","lat":43.360026,"lon":5.324742,"is_reserved":false,"is_disabled":false,"rental_uris":{"android":"levelo://app?vid=f573a8fb-f1f8-47c4-901e-ddf2739a5cca","ios":"levelo://app?vid=f573a8fb-f1f8-47c4-901e-ddf2739a5cca"},"vehicle_type_id":"4","last_reported":1752150135,"current_range_meters":9200,"station_id":"","pricing_plan_id":"cebpf4jnsgd1na2vs0mg"},{"bike_id":"0617c7ef-1a53-4489-8c43-6920fdc4d59a","system_id":"levelo_inurba_marseille","lat":43.31079,"lon":5.38392,"is_reserved":false,"is_disabled":false,"rental_uris":{"android":"levelo://app?vid=0617c7ef-1a53-4489-8c43-6920fdc4d59a","ios":"levelo://app?vid=0617c7ef-1a53-4489-8c43-6920fdc4d59a"},"vehicle_type_id":"4","last_reported":1752150135,"current_range_meters":9200,"station_id":"ce4bgv92rcd13ifvqcr0","pricing_plan_id":"cebpf4jnsgd1na2vs0mg"},{"bike_id":"84e7e709-4e4f-4764-818c-af719435bfca","system_id":"levelo_inurba_marseille","lat":43.31948,"lon":5.37155,"is_reserved":false,"is_disabled":false,"rental_uris":{"android":"levelo://app?vid=84e7e709-4e4f-4764-818c-af719435bfca","ios":"levelo://app?vid=84e7e709-4e4f-4764-818c-af719435bfca"},"vehicle_type_id":"4","last_reported":1752150135,"current_range_meters":9600,"station_id":"","pricing_plan_id":"cebpf4jnsgd1na2vs0mg"},{"bike_id":"9939afd5-b00e-4a93-8bd0-17c1d84522a9","system_id":"levelo_inurba_marseille","lat":43.27361,"lon":5.36249,"is_reserved":false,"is_disabled":false,"rental_uris":{"android":"levelo://app?vid=9939afd5-b00e-4a93-8bd0-17c1d84522a9","ios":"levelo://app?vid=9939afd5-b00e-4a93-8bd0-17c1d84522a9"},"vehicle_type_id":"4","last_reported":1752150135,"current_range_meters":9600,"station_id":"ce4bhbh2rcd13ifvqeo0","pricing_plan_id":"cebpf4jnsgd1na2vs0mg"},{"bike_id":"06af77cc-e459-4e5c-a836-8e865127b458","system_id":"levelo_inurba_marseille","lat":43.25828,"lon":5.39435,"is_reserved":false,"is_disabled":false,"rental_uris":{"android":"levelo://app?vid=06af77cc-e459-4e5c-a836-8e865127b458","ios":"levelo://app?vid=06af77cc-e459-4e5c-a836-8e865127b458"},"vehicle_type_id":"4","last_reported":1752150135,"current_range_meters":9600,"station_id":"ce4bhip2rcd13ifvqft0","pricing_plan_id":"cebpf4jnsgd1na2vs0mg"},{"bike_id":"f3e2163a-2628-4f65-ba77-a54fa613447d","system_id":"levelo_inurba_marseille","lat":43.23909,"lon":5.36688,"is_reserved":false,"is_disabled":false,"rental_uris":{"android":"levelo://app?vid=f3e2163a-2628-4f65-ba77-a54fa613447d","ios":"levelo://app?vid=f3e2163a-2628-4f65-ba77-a54fa613447d"},"vehicle_type_id":"4","last_reported":1752150135,"current_range_meters":10000,"station_id":"","pricing_plan_id":"cebpf4jnsgd1na2vs0mg"},{"bike_id":"4975b22d-8c48-452f-bd19-7a9d3ed7c378","system_id":"levelo_inurba_marseille","lat":43.29676,"lon":5.37424,"is_reserved":false,"is_disabled":false,"rental_uris":{"android":"levelo://app?vid=4975b22d-8c48-452f-bd19-7a9d3ed7c378","ios":"levelo://app?vid=4975b22d-8c48-452f-bd19-7a9d3ed7c378"},"vehicle_type_id":"4","last_reported":1752150135,"current_range_meters":10000,"station_id":"","pricing_plan_id":"cebpf4jnsgd1na2vs0mg"},{"bike_id":"f5c16f07-bc6f-4121-91a7-5ad90eec4f34","system_id":"levelo_inurba_marseille","lat":43.312138,"lon":5.373221,"is_reserved":false,"is_disabled":false,"rental_uris":{"android":"levelo://app?vid=f5c16f07-bc6f-4121-91a7-5ad90eec4f34","ios":"levelo://app?vid=f5c16f07-bc6f-4121-91a7-5ad90eec4f34"},"vehicle_type_id":"4","last_reported":1752150135,"current_range_meters":10800,"station_id":"","pricing_plan_id":"cebpf4jnsgd1na2vs0mg"},{"bike_id":"8b83100c-f442-41a9-8a54-50c40df7440e","system_id":"levelo_inurba_marseille","lat":43.3091,"lon":5.36847,"is_reserved":false,"is_disabled":false,"rental_uris":{"android":"levelo://app?vid=8b83100c-f442-41a9-8a54-50c40df7440e","ios":"levelo://app?vid=8b83100c-f442-41a9-8a54-50c40df7440e"},"vehicle_type_id":"4","last_reported":1752150135,"current_range_meters":10800,"station_id":"ce4bgn92rcd13ifvqbvg","pricing_plan_id":"cebpf4jnsgd1na2vs0mg"},{"bike_id":"bd7c7544-cfec-4bae-9617-10fed0e2741d","system_id":"levelo_inurba_marseille","lat":43.27999,"lon":5.41661,"is_reserved":false,"is_disabled":false,"rental_uris":{"android":"levelo://app?vid=bd7c7544-cfec-4bae-9617-10fed0e2741d","ios":"levelo://app?vid=bd7c7544-cfec-4bae-9617-10fed0e2741d"},"vehicle_type_id":"4","last_reported":1752150135,"current_range_meters":10800,"station_id":"ce4bho12rcd13ifvqh1g","pricing_plan_id":"cebpf4jnsgd1na2vs0mg"},{"bike_id":"768c2f57-bfbc-4779-9f59-6169b7447570","system_id":"levelo_inurba_marseille","lat":43.23062,"lon":5.35491,"is_reserved":false,"is_disabled":false,"rental_uris":{"android":"levelo://app?vid=768c2f57-bfbc-4779-9f59-6169b7447570","ios":"levelo://app?vid=768c2f57-bfbc-4779-9f59-6169b7447570"},"vehicle_type_id":"4","last_reported":1752150135,"current_range_meters":10800,"station_id":"cpo3342slgdg3j2ifvpg","pricing_plan_id":"cebpf4jnsgd1na2vs0mg"},{"bike_id":"6e5c2657-ccb8-4153-8b94-2143bc427a03","system_id":"levelo_inurba_marseille","lat":43.22504,"lon":5.34794,"is_reserved":false,"is_disabled":false,"rental_uris":{"android":"levelo://app?vid=6e5c2657-ccb8-4153-8b94-2143bc427a03","ios":"levelo://app?vid=6e5c2657-ccb8-4153-8b94-2143bc427a03"},"vehicle_type_id":"4","last_reported":1752150135,"current_range_meters":10800,"station_id":"st_cvj5dfep6f1abm77gieg","pricing_plan_id":"cebpf4jnsgd1na2vs0mg"},{"bike_id":"b2caa530-bb19-4cc6-a6bd-61e3e1d7432e","system_id":"levelo_inurba_marseille","lat":43.33763,"lon":5.37461,"is_reserved":false,"is_disabled":false,"rental_uris":{"android":"levelo://app?vid=b2caa530-bb19-4cc6-a6bd-61e3e1d7432e","ios":"levelo://app?vid=b2caa530-bb19-4cc6-a6bd-61e3e1d7432e"},"vehicle_type_id":"4","last_reported":1752150135,"current_range_meters":11200,"station_id":"","pricing_plan_id":"cebpf4jnsgd1na2vs0mg"},{"bike_id":"833f97ec-e704-4051-ab3b-2e9eb58f71d0","system_id":"levelo_inurba_marseille","lat":43.30236,"lon":5.37558,"is_reserved":false,"is_disabled":false,"rental_uris":{"android":"levelo://app?vid=833f97ec-e704-4051-ab3b-2e9eb58f71d0","ios":"levelo://app?vid=833f97ec-e704-4051-ab3b-2e9eb58f71d0"},"vehicle_type_id":"4","last_reported":1752150135,"current_range_meters":11200,"station_id":"","pricing_plan_id":"cebpf4jnsgd1na2vs0mg"},{"bike_id":"b757ffbb-2b71-4330-9f60-5f8a9d46d16e","system_id":"levelo_inurba_marseille","lat":43.29642,"lon":5.37154,"is_reserved":false,"is_disabled":false,"rental_uris":{"android":"levelo://app?vid=b757ffbb-2b71-4330-9f60-5f8a9d46d16e","ios":"levelo://app?vid=b757ffbb-2b71-4330-9f60-5f8a9d46d16e"},"vehicle_type_id":"4","last_reported":1752150135,"current_range_meters":11200,"station_id":"ce4bgnh2rcd13ifvqc0g","pricing_plan_id":"cebpf4jnsgd1na2vs0mg"},{"bike_id":"6ef5f3ea-45a5-4129-a8bc-9005968550f8","system_id":"levelo_inurba_marseille","lat":43.30449,"lon":5.36845,"is_reserved":false,"is_disabled":false,"rental_uris":{"android":"levelo://app?vid=6ef5f3ea-45a5-4129-a8bc-9005968550f8","ios":"levelo://app?vid=6ef5f3ea-45a5-4129-a8bc-9005968550f8"},"vehicle_type_id":"4","last_reported":1752150135,"current_range_meters":11600,"station_id":"","pricing_plan_id":"cebpf4jnsgd1na2vs0mg"},{"bike_id":"320f2a33-deaa-4e0a-a3d5-c39ce8ad680a","system_id":"levelo_inurba_marseille","lat":43.31581,"lon":5.37429,"is_reserved":false,"is_disabled":false,"rental_uris":{"android":"levelo://app?vid=320f2a33-deaa-4e0a-a3d5-c39ce8ad680a","ios":"levelo://app?vid=320f2a33-deaa-4e0a-a3d5-c39ce8ad680a"},"vehicle_type_id":"4","last_reported":1752150135,"current_range_meters":12000,"station_id":"","pricing_plan_id":"cebpf4jnsgd1na2vs0mg"},{"bike_id":"f17e9f4d-b216-40cf-a6e4-23b51a690058","system_id":"levelo_inurba_marseille","lat":43.29241,"lon":5.40904,"is_reserved":false,"is_disabled":false,"rental_uris":{"android":"levelo://app?vid=f17e9f4d-b216-40cf-a6e4-23b51a690058","ios":"levelo://app?vid=f17e9f4d-b216-40cf-a6e4-23b51a690058"},"vehicle_type_id":"4","last_reported":1752150135,"current_range_meters":12000,"station_id":"ce4bh192rcd13ifvqdc0","pricing_plan_id":"cebpf4jnsgd1na2vs0mg"},{"bike_id":"1e88e79d-30c1-4aad-973f-9f72b17918cf","system_id":"levelo_inurba_marseille","lat":43.28411,"lon":5.35002,"is_reserved":false,"is_disabled":false,"rental_uris":{"android":"levelo://app?vid=1e88e79d-30c1-4aad-973f-9f72b17918cf","ios":"levelo://app?vid=1e88e79d-30c1-4aad-973f-9f72b17918cf"},"vehicle_type_id":"4","last_reported":1752150135,"current_range_meters":12000,"station_id":"ce4bhbh2rcd13ifvqepg","pricing_plan_id":"cebpf4jnsgd1na2vs0mg"},{"bike_id":"2a2c2ba3-f4e7-4476-b21e-559d75857b71","system_id":"levelo_inurba_marseille","lat":43.27067,"lon":5.42283,"is_reserved":false,"is_disabled":false,"rental_uris":{"android":"levelo://app?vid=2a2c2ba3-f4e7-4476-b21e-559d75857b71","ios":"levelo://app?vid=2a2c2ba3-f4e7-4476-b21e-559d75857b71"},"vehicle_type_id":"4","last_reported":1752150135,"current_range_meters":12000,"station_id":"ce4bhk92rcd13ifvqgb0","pricing_plan_id":"cebpf4jnsgd1na2vs0mg"},{"bike_id":"e75173ba-092f-4e3c-b2e1-128bf1f9d79b","system_id":"levelo_inurba_marseille","lat":43.2174,"lon":5.34627,"is_reserved":false,"is_disabled":false,"rental_uris":{"android":"levelo://app?vid=e75173ba-092f-4e3c-b2e1-128bf1f9d79b","ios":"levelo://app?vid=e75173ba-092f-4e3c-b2e1-128bf1f9d79b"},"vehicle_type_id":"4","last_reported":1752150135,"current_range_meters":12400,"station_id":"","pricing_plan_id":"cebpf4jnsgd1na2vs0mg"},{"bike_id":"56bf1b6c-8655-499b-99f8-6aaeaf4200bf","system_id":"levelo_inurba_marseille","lat":43.28663,"lon":5.3867,"is_reserved":false,"is_disabled":false,"rental_uris":{"android":"levelo://app?vid=56bf1b6c-8655-499b-99f8-6aaeaf4200bf","ios":"levelo://app?vid=56bf1b6c-8655-499b-99f8-6aaeaf4200bf"},"vehicle_type_id":"4","last_reported":1752150135,"current_range_meters":12400,"station_id":"ce4bh492rcd13ifvqdug","pricing_plan_id":"cebpf4jnsgd1na2vs0mg"},{"bike_id":"acd773d6-8ebd-4441-8ee4-ca4aec27a697","system_id":"levelo_inurba_marseille","lat":43.24809,"lon":5.37458,"is_reserved":false,"is_disabled":false,"rental_uris":{"android":"levelo://app?vid=acd773d6-8ebd-4441-8ee4-ca4aec27a697","ios":"levelo://app?vid=acd773d6-8ebd-4441-8ee4-ca4aec27a697"},"vehicle_type_id":"4","last_reported":1752150135,"current_range_meters":12400,"station_id":"ce4bhgh2rcd13ifvqfb0","pricing_plan_id":"cebpf4jnsgd1na2vs0mg"},{"bike_id":"1415985c-0e5c-40c8-8768-1cdd3a3e05d9","system_id":"levelo_inurba_marseille","lat":43.2319,"lon":5.35549,"is_reserved":false,"is_disabled":false,"rental_uris":{"android":"levelo://app?vid=1415985c-0e5c-40c8-8768-1cdd3a3e05d9","ios":"levelo://app?vid=1415985c-0e5c-40c8-8768-1cdd3a3e05d9"},"vehicle_type_id":"4","last_reported":1752150135,"current_range_meters":12400,"station_id":"ce4bhu92rcd13ifvqi70","pricing_plan_id":"cebpf4jnsgd1na2vs0mg"},{"bike_id":"95d57e90-313b-436e-b153-7607ab16e20d","system_id":"levelo_inurba_marseille","lat":43.28943,"lon":5.39634,"is_reserved":false,"is_disabled":false,"rental_uris":{"android":"levelo://app?vid=95d57e90-313b-436e-b153-7607ab16e20d","ios":"levelo://app?vid=95d57e90-313b-436e-b153-7607ab16e20d"},"vehicle_type_id":"4","last_reported":1752150135,"current_range_meters":13600,"station_id":"ce4bh3h2rcd13ifvqdn0","pricing_plan_id":"cebpf4jnsgd1na2vs0mg"},{"bike_id":"1803436d-09b4-46af-b7b8-0156a502a24f","system_id":"levelo_inurba_marseille","lat":43.265521,"lon":5.372849,"is_reserved":false,"is_disabled":false,"rental_uris":{"android":"levelo://app?vid=1803436d-09b4-46af-b7b8-0156a502a24f","ios":"levelo://app?vid=1803436d-09b4-46af-b7b8-0156a502a24f"},"vehicle_type_id":"4","last_reported":1752150135,"current_range_meters":13600,"station_id":"ce4bhg12rcd13ifvqf70","pricing_plan_id":"cebpf4jnsgd1na2vs0mg"},{"bike_id":"feaa7e3a-cbe4-4489-be11-8a12d7eec173","system_id":"levelo_inurba_marseille","lat":43.25197,"lon":5.42656,"is_reserved":false,"is_disabled":false,"rental_uris":{"android":"levelo://app?vid=feaa7e3a-cbe4-4489-be11-8a12d7eec173","ios":"levelo://app?vid=feaa7e3a-cbe4-4489-be11-8a12d7eec173"},"vehicle_type_id":"4","last_reported":1752150135,"current_range_meters":14400,"station_id":"","pricing_plan_id":"cebpf4jnsgd1na2vs0mg"},{"bike_id":"20d446e2-746d-4ef8-b5a8-53948a950ef1","system_id":"levelo_inurba_marseille","lat":43.30268,"lon":5.37721,"is_reserved":false,"is_disabled":false,"rental_uris":{"android":"levelo://app?vid=20d446e2-746d-4ef8-b5a8-53948a950ef1","ios":"levelo://app?vid=20d446e2-746d-4ef8-b5a8-53948a950ef1"},"vehicle_type_id":"4","last_reported":1752150135,"current_range_meters":14400,"station_id":"ce4bguh2rcd13ifvqcj0","pricing_plan_id":"cebpf4jnsgd1na2vs0mg"},{"bike_id":"07e23da8-1aab-44d7-8d40-309109ee0205","system_id":"levelo_inurba_marseille","lat":43.32378,"lon":5.36741,"is_reserved":false,"is_disabled":false,"rental_uris":{"android":"levelo://app?vid=07e23da8-1aab-44d7-8d40-309109ee0205","ios":"levelo://app?vid=07e23da8-1aab-44d7-8d40-309109ee0205"},"vehicle_type_id":"4","last_reported":1752150135,"current_range_meters":14400,"station_id":"ce4bhsh2rcd13ifvqi2g","pricing_plan_id":"cebpf4jnsgd1na2vs0mg"},{"bike_id":"de010bc4-5e98-41bd-aed3-9094f259cc5a","system_id":"levelo_inurba_marseille","lat":43.24165,"lon":5.363942,"is_reserved":false,"is_disabled":false,"rental_uris":{"android":"levelo://app?vid=de010bc4-5e98-41bd-aed3-9094f259cc5a","ios":"levelo://app?vid=de010bc4-5e98-41bd-aed3-9094f259cc5a"},"vehicle_type_id":"4","last_reported":1752150135,"current_range_meters":14400,"station_id":"cpo36qri1sfpv3e86is0","pricing_plan_id":"cebpf4jnsgd1na2vs0mg"},{"bike_id":"8f3b9928-653a-40fe-91c2-6fc1e56ec734","system_id":"levelo_inurba_marseille","lat":43.284332,"lon":5.385421,"is_reserved":false,"is_disabled":false,"rental_uris":{"android":"levelo://app?vid=8f3b9928-653a-40fe-91c2-6fc1e56ec734","ios":"levelo://app?vid=8f3b9928-653a-40fe-91c2-6fc1e56ec734"},"vehicle_type_id":"4","last_reported":1752150135,"current_range_meters":14800,"station_id":"","pricing_plan_id":"cebpf4jnsgd1na2vs0mg"},{"bike_id":"87d13c3c-9453-4492-8a8f-f2b4c8e828c6","system_id":"levelo_inurba_marseille","lat":43.26177,"lon":5.37049,"is_reserved":false,"is_disabled":false,"rental_uris":{"android":"levelo://app?vid=87d13c3c-9453-4492-8a8f-f2b4c8e828c6","ios":"levelo://app?vid=87d13c3c-9453-4492-8a8f-f2b4c8e828c6"},"vehicle_type_id":"4","last_reported":1752150135,"current_range_meters":14800,"station_id":"","pricing_plan_id":"cebpf4jnsgd1na2vs0mg"},{"bike_id":"d3e8264f-5e78-41b8-b5b0-557e389e6623","system_id":"levelo_inurba_marseille","lat":43.31371,"lon":5.37159,"is_reserved":false,"is_disabled":false,"rental_uris":{"android":"levelo://app?vid=d3e8264f-5e78-41b8-b5b0-557e389e6623","ios":"levelo://app?vid=d3e8264f-5e78-41b8-b5b0-557e389e6623"},"vehicle_type_id":"4","last_reported":1752150135,"current_range_meters":14800,"station_id":"","pricing_plan_id":"cebpf4jnsgd1na2vs0mg"},{"bike_id":"21835287-6e2e-497f-886b-245d4266762b","system_id":"levelo_inurba_marseille","lat":43.30142,"lon":5.38107,"is_reserved":false,"is_disabled":false,"rental_uris":{"android":"levelo://app?vid=21835287-6e2e-497f-886b-245d4266762b","ios":"levelo://app?vid=21835287-6e2e-497f-886b-245d4266762b"},"vehicle_type_id":"4","last_reported":1752150135,"current_range_meters":14800,"station_id":"ce4bgjp2rcd13ifvqbh0","pricing_plan_id":"cebpf4jnsgd1na2vs0mg"},{"bike_id":"bbf1c256-d3d0-4932-820a-1e6e44085b8f","system_id":"levelo_inurba_marseille","lat":43.28614,"lon":5.35102,"is_reserved":false,"is_disabled":false,"rental_uris":{"android":"levelo://app?vid=bbf1c256-d3d0-4932-820a-1e6e44085b8f","ios":"levelo://app?vid=bbf1c256-d3d0-4932-820a-1e6e44085b8f"},"vehicle_type_id":"4","last_reported":1752150135,"current_range_meters":14800,"station_id":"ce4bhch2rcd13ifvqeug","pricing_plan_id":"cebpf4jnsgd1na2vs0mg"},{"bike_id":"7af64c0e-bfdd-49ce-ac23-d7baf0c97d4a","system_id":"levelo_inurba_marseille","lat":43.23197,"lon":5.35573,"is_reserved":false,"is_disabled":false,"rental_uris":{"android":"levelo://app?vid=7af64c0e-bfdd-49ce-ac23-d7baf0c97d4a","ios":"levelo://app?vid=7af64c0e-bfdd-49ce-ac23-d7baf0c97d4a"},"vehicle_type_id":"4","last_reported":1752150135,"current_range_meters":14800,"station_id":"ce4bhu92rcd13ifvqi70","pricing_plan_id":"cebpf4jnsgd1na2vs0mg"},{"bike_id":"d4fef870-f3df-418c-b45a-632453acc9ad","system_id":"levelo_inurba_marseille","lat":43.22514,"lon":5.34781,"is_reserved":false,"is_disabled":false,"rental_uris":{"android":"levelo://app?vid=d4fef870-f3df-418c-b45a-632453acc9ad","ios":"levelo://app?vid=d4fef870-f3df-418c-b45a-632453acc9ad"},"vehicle_type_id":"4","last_reported":1752150135,"current_range_meters":14800,"station_id":"st_cvj5dfep6f1abm77gieg","pricing_plan_id":"cebpf4jnsgd1na2vs0mg"},{"bike_id":"73fe94e8-74f9-41f0-85e9-7d8c52adf2fc","system_id":"levelo_inurba_marseille","lat":43.21264,"lon":5.35305,"is_reserved":false,"is_disabled":false,"rental_uris":{"android":"levelo://app?vid=73fe94e8-74f9-41f0-85e9-7d8c52adf2fc","ios":"levelo://app?vid=73fe94e8-74f9-41f0-85e9-7d8c52adf2fc"},"vehicle_type_id":"4","last_reported":1752150135,"current_range_meters":15200,"station_id":"","pricing_plan_id":"cebpf4jnsgd1na2vs0mg"},{"bike_id":"e0f9000f-5c95-4545-9fcc-0d3b680f2f2b","system_id":"levelo_inurba_marseille","lat":43.303691,"lon":5.386432,"is_reserved":false,"is_disabled":false,"rental_uris":{"android":"levelo://app?vid=e0f9000f-5c95-4545-9fcc-0d3b680f2f2b","ios":"levelo://app?vid=e0f9000f-5c95-4545-9fcc-0d3b680f2f2b"},"vehicle_type_id":"4","last_reported":1752150135,"current_range_meters":15200,"station_id":"ce4bgk12rcd13ifvqbi0","pricing_plan_id":"cebpf4jnsgd1na2vs0mg"},{"bike_id":"3e62de5e-0025-4a2d-97fe-a19292c27a1b","system_id":"levelo_inurba_marseille","lat":43.296931,"lon":5.36588,"is_reserved":false,"is_disabled":false,"rental_uris":{"android":"levelo://app?vid=3e62de5e-0025-4a2d-97fe-a19292c27a1b","ios":"levelo://app?vid=3e62de5e-0025-4a2d-97fe-a19292c27a1b"},"vehicle_type_id":"4","last_reported":1752150135,"current_range_meters":15200,"station_id":"ce4bgn12rcd13ifvqbt0","pricing_plan_id":"cebpf4jnsgd1na2vs0mg"},{"bike_id":"37d24ae8-ab60-4ff1-9d36-77e365c878e4","system_id":"levelo_inurba_marseille","lat":43.29843,"lon":5.36277,"is_reserved":false,"is_disabled":false,"rental_uris":{"android":"levelo://app?vid=37d24ae8-ab60-4ff1-9d36-77e365c878e4","ios":"levelo://app?vid=37d24ae8-ab60-4ff1-9d36-77e365c878e4"},"vehicle_type_id":"4","last_reported":1752150135,"current_range_meters":15200,"station_id":"ce4bgpp2rcd13ifvqc3g","pricing_plan_id":"cebpf4jnsgd1na2vs0mg"},{"bike_id":"3a88dbda-bd46-44d6-a5cf-3a9b95a7e347","system_id":"levelo_inurba_marseille","lat":43.28265,"lon":5.35058,"is_reserved":false,"is_disabled":false,"rental_uris":{"android":"levelo://app?vid=3a88dbda-bd46-44d6-a5cf-3a9b95a7e347","ios":"levelo://app?vid=3a88dbda-bd46-44d6-a5cf-3a9b95a7e347"},"vehicle_type_id":"4","last_reported":1752150135,"current_range_meters":15200,"station_id":"ce4bhbp2rcd13ifvqerg","pricing_plan_id":"cebpf4jnsgd1na2vs0mg"},{"bike_id":"e0374d0b-6f52-4bfb-9c4a-9a9fe8e068de","system_id":"levelo_inurba_marseille","lat":43.26939,"lon":5.38634,"is_reserved":false,"is_disabled":false,"rental_uris":{"android":"levelo://app?vid=e0374d0b-6f52-4bfb-9c4a-9a9fe8e068de","ios":"levelo://app?vid=e0374d0b-6f52-4bfb-9c4a-9a9fe8e068de"},"vehicle_type_id":"4","last_reported":1752150135,"current_range_meters":15200,"station_id":"ce4bhh92rcd13ifvqfh0","pricing_plan_id":"cebpf4jnsgd1na2vs0mg"},{"bike_id":"6fd20174-bc0f-4e01-8760-aeaa17f8d560","system_id":"levelo_inurba_marseille","lat":43.27209,"lon":5.3918,"is_reserved":false,"is_disabled":false,"rental_uris":{"android":"levelo://app?vid=6fd20174-bc0f-4e01-8760-aeaa17f8d560","ios":"levelo://app?vid=6fd20174-bc0f-4e01-8760-aeaa17f8d560"},"vehicle_type_id":"4","last_reported":1752150135,"current_range_meters":15200,"station_id":"ce4bhhp2rcd13ifvqfm0","pricing_plan_id":"cebpf4jnsgd1na2vs0mg"},{"bike_id":"5ccebdbb-d6e3-4fa2-96cf-9979fe34041a","system_id":"levelo_inurba_marseille","lat":43.27966,"lon":5.41639,"is_reserved":false,"is_disabled":false,"rental_uris":{"android":"levelo://app?vid=5ccebdbb-d6e3-4fa2-96cf-9979fe34041a","ios":"levelo://app?vid=5ccebdbb-d6e3-4fa2-96cf-9979fe34041a"},"vehicle_type_id":"4","last_reported":1752150135,"current_range_meters":15200,"station_id":"ce4bho12rcd13ifvqh1g","pricing_plan_id":"cebpf4jnsgd1na2vs0mg"},{"bike_id":"f373e4a8-33e3-4f72-ae8e-e7ab386910f4","system_id":"levelo_inurba_marseille","lat":43.22518,"lon":5.34782,"is_reserved":false,"is_disabled":false,"rental_uris":{"android":"levelo://app?vid=f373e4a8-33e3-4f72-ae8e-e7ab386910f4","ios":"levelo://app?vid=f373e4a8-33e3-4f72-ae8e-e7ab386910f4"},"vehicle_type_id":"4","last_reported":1752150135,"current_range_meters":15200,"station_id":"st_cvj5dfep6f1abm77gieg","pricing_plan_id":"cebpf4jnsgd1na2vs0mg"},{"bike_id":"41efc730-0bdd-4dec-8604-f4a08bb5dc27","system_id":"levelo_inurba_marseille","lat":43.26783,"lon":5.39459,"is_reserved":false,"is_disabled":false,"rental_uris":{"android":"levelo://app?vid=41efc730-0bdd-4dec-8604-f4a08bb5dc27","ios":"levelo://app?vid=41efc730-0bdd-4dec-8604-f4a08bb5dc27"},"vehicle_type_id":"4","last_reported":1752150135,"current_range_meters":16000,"station_id":"","pricing_plan_id":"cebpf4jnsgd1na2vs0mg"},{"bike_id":"9f5e74ce-2459-4c6f-a171-f6d1e8a1ed83","system_id":"levelo_inurba_marseille","lat":43.31843,"lon":5.37555,"is_reserved":false,"is_disabled":false,"rental_uris":{"android":"levelo://app?vid=9f5e74ce-2459-4c6f-a171-f6d1e8a1ed83","ios":"levelo://app?vid=9f5e74ce-2459-4c6f-a171-f6d1e8a1ed83"},"vehicle_type_id":"4","last_reported":1752150135,"current_range_meters":16000,"station_id":"","pricing_plan_id":"cebpf4jnsgd1na2vs0mg"},{"bike_id":"55105142-3666-4ef7-8f20-17f02baa8c73","system_id":"levelo_inurba_marseille","lat":43.30878,"lon":5.36816,"is_reserved":false,"is_disabled":false,"rental_uris":{"android":"levelo://app?vid=55105142-3666-4ef7-8f20-17f02baa8c73","ios":"levelo://app?vid=55105142-3666-4ef7-8f20-17f02baa8c73"},"vehicle_type_id":"4","last_reported":1752150135,"current_range_meters":16000,"station_id":"ce4bgn92rcd13ifvqbvg","pricing_plan_id":"cebpf4jnsgd1na2vs0mg"},{"bike_id":"6fefbf99-4f45-4f7e-940e-669c1a8fa458","system_id":"levelo_inurba_marseille","lat":43.31376,"lon":5.3673,"is_reserved":false,"is_disabled":false,"rental_uris":{"android":"levelo://app?vid=6fefbf99-4f45-4f7e-940e-669c1a8fa458","ios":"levelo://app?vid=6fefbf99-4f45-4f7e-940e-669c1a8fa458"},"vehicle_type_id":"4","last_reported":1752150135,"current_range_meters":16000,"station_id":"ce4bgr92rcd13ifvqc6g","pricing_plan_id":"cebpf4jnsgd1na2vs0mg"},{"bike_id":"89fbd24e-fee9-4fc7-a296-75a164574775","system_id":"levelo_inurba_marseille","lat":43.31107,"lon":5.37779,"is_reserved":false,"is_disabled":false,"rental_uris":{"android":"levelo://app?vid=89fbd24e-fee9-4fc7-a296-75a164574775","ios":"levelo://app?vid=89fbd24e-fee9-4fc7-a296-75a164574775"},"vehicle_type_id":"4","last_reported":1752150135,"current_range_meters":16000,"station_id":"ce4bgt92rcd13ifvqcg0","pricing_plan_id":"cebpf4jnsgd1na2vs0mg"},{"bike_id":"119b7eed-1582-4766-b484-107798ee8de6","system_id":"levelo_inurba_marseille","lat":43.28412,"lon":5.34982,"is_reserved":false,"is_disabled":false,"rental_uris":{"android":"levelo://app?vid=119b7eed-1582-4766-b484-107798ee8de6","ios":"levelo://app?vid=119b7eed-1582-4766-b484-107798ee8de6"},"vehicle_type_id":"4","last_reported":1752150135,"current_range_meters":16000,"station_id":"ce4bhbh2rcd13ifvqepg","pricing_plan_id":"cebpf4jnsgd1na2vs0mg"},{"bike_id":"5fa88045-4afe-4027-b33d-bbfc29e524ca","system_id":"levelo_inurba_marseille","lat":43.28418,"lon":5.34993,"is_reserved":false,"is_disabled":false,"rental_uris":{"android":"levelo://app?vid=5fa88045-4afe-4027-b33d-bbfc29e524ca","ios":"levelo://app?vid=5fa88045-4afe-4027-b33d-bbfc29e524ca"},"vehicle_type_id":"4","last_reported":1752150135,"current_range_meters":16000,"station_id":"ce4bhbh2rcd13ifvqepg","pricing_plan_id":"cebpf4jnsgd1na2vs0mg"},{"bike_id":"4f3eeda2-8e69-4abe-8935-2d8aee993e7d","system_id":"levelo_inurba_marseille","lat":43.28608,"lon":5.35107,"is_reserved":false,"is_disabled":false,"rental_uris":{"android":"levelo://app?vid=4f3eeda2-8e69-4abe-8935-2d8aee993e7d","ios":"levelo://app?vid=4f3eeda2-8e69-4abe-8935-2d8aee993e7d"},"vehicle_type_id":"4","last_reported":1752150135,"current_range_meters":16000,"station_id":"ce4bhch2rcd13ifvqeug","pricing_plan_id":"cebpf4jnsgd1na2vs0mg"},{"bike_id":"4e209b0c-855f-4b51-8120-2faef8673853","system_id":"levelo_inurba_marseille","lat":43.30606,"lon":5.36872,"is_reserved":false,"is_disabled":false,"rental_uris":{"android":"levelo://app?vid=4e209b0c-855f-4b51-8120-2faef8673853","ios":"levelo://app?vid=4e209b0c-855f-4b51-8120-2faef8673853"},"vehicle_type_id":"4","last_reported":1752150135,"current_range_meters":16400,"station_id":"","pricing_plan_id":"cebpf4jnsgd1na2vs0mg"},{"bike_id":"8e5750ed-98f4-472a-b794-9c51dc03800b","system_id":"levelo_inurba_marseille","lat":43.29298,"lon":5.37463,"is_reserved":false,"is_disabled":false,"rental_uris":{"android":"levelo://app?vid=8e5750ed-98f4-472a-b794-9c51dc03800b","ios":"levelo://app?vid=8e5750ed-98f4-472a-b794-9c51dc03800b"},"vehicle_type_id":"4","last_reported":1752150135,"current_range_meters":16400,"station_id":"ce4bgi12rcd13ifvqb70","pricing_plan_id":"cebpf4jnsgd1na2vs0mg"},{"bike_id":"8492fbaf-4bab-4411-b1cc-1bcbd9544684","system_id":"levelo_inurba_marseille","lat":43.30163,"lon":5.380809,"is_reserved":false,"is_disabled":false,"rental_uris":{"android":"levelo://app?vid=8492fbaf-4bab-4411-b1cc-1bcbd9544684","ios":"levelo://app?vid=8492fbaf-4bab-4411-b1cc-1bcbd9544684"},"vehicle_type_id":"4","last_reported":1752150135,"current_range_meters":16400,"station_id":"ce4bgjp2rcd13ifvqbh0","pricing_plan_id":"cebpf4jnsgd1na2vs0mg"},{"bike_id":"c7741565-d264-4216-9de4-0053303ab2e1","system_id":"levelo_inurba_marseille","lat":43.28425,"lon":5.35012,"is_reserved":false,"is_disabled":false,"rental_uris":{"android":"levelo://app?vid=c7741565-d264-4216-9de4-0053303ab2e1","ios":"levelo://app?vid=c7741565-d264-4216-9de4-0053303ab2e1"},"vehicle_type_id":"4","last_reported":1752150135,"current_range_meters":16400,"station_id":"ce4bhbh2rcd13ifvqepg","pricing_plan_id":"cebpf4jnsgd1na2vs0mg"},{"bike_id":"4e9c1f87-a435-4f44-b3da-2affda0fc2b7","system_id":"levelo_inurba_marseille","lat":43.2418,"lon":5.36406,"is_reserved":false,"is_disabled":false,"rental_uris":{"android":"levelo://app?vid=4e9c1f87-a435-4f44-b3da-2affda0fc2b7","ios":"levelo://app?vid=4e9c1f87-a435-4f44-b3da-2affda0fc2b7"},"vehicle_type_id":"4","last_reported":1752150135,"current_range_meters":16400,"station_id":"cpo36qri1sfpv3e86is0","pricing_plan_id":"cebpf4jnsgd1na2vs0mg"},{"bike_id":"189d095c-e3fe-4dcd-8020-e1b13f469a9f","system_id":"levelo_inurba_marseille","lat":43.25451,"lon":5.37946,"is_reserved":false,"is_disabled":false,"rental_uris":{"android":"levelo://app?vid=189d095c-e3fe-4dcd-8020-e1b13f469a9f","ios":"levelo://app?vid=189d095c-e3fe-4dcd-8020-e1b13f469a9f"},"vehicle_type_id":"4","last_reported":1752150135,"current_range_meters":16800,"station_id":"","pricing_plan_id":"cebpf4jnsgd1na2vs0mg"},{"bike_id":"fa87fcb5-aacb-41a1-a789-0296bbd02085","system_id":"levelo_inurba_marseille","lat":43.24586,"lon":5.37359,"is_reserved":false,"is_disabled":false,"rental_uris":{"android":"levelo://app?vid=fa87fcb5-aacb-41a1-a789-0296bbd02085","ios":"levelo://app?vid=fa87fcb5-aacb-41a1-a789-0296bbd02085"},"vehicle_type_id":"4","last_reported":1752150135,"current_range_meters":16800,"station_id":"","pricing_plan_id":"cebpf4jnsgd1na2vs0mg"},{"bike_id":"da82f296-3ccf-4b57-ac04-97a1f3a3c9b6","system_id":"levelo_inurba_marseille","lat":43.29578,"lon":5.36743,"is_reserved":false,"is_disabled":false,"rental_uris":{"android":"levelo://app?vid=da82f296-3ccf-4b57-ac04-97a1f3a3c9b6","ios":"levelo://app?vid=da82f296-3ccf-4b57-ac04-97a1f3a3c9b6"},"vehicle_type_id":"4","last_reported":1752150135,"current_range_meters":16800,"station_id":"ce4bgph2rcd13ifvqc2g","pricing_plan_id":"cebpf4jnsgd1na2vs0mg"},{"bike_id":"bc737b63-357e-4bf4-ade3-f2cf10c71faa","system_id":"levelo_inurba_marseille","lat":43.292252,"lon":5.363809,"is_reserved":false,"is_disabled":false,"rental_uris":{"android":"levelo://app?vid=bc737b63-357e-4bf4-ade3-f2cf10c71faa","ios":"levelo://app?vid=bc737b63-357e-4bf4-ade3-f2cf10c71faa"},"vehicle_type_id":"4","last_reported":1752150135,"current_range_meters":16800,"station_id":"ce4bhbh2rcd13ifvqeqg","pricing_plan_id":"cebpf4jnsgd1na2vs0mg"},{"bike_id":"aea8d665-2d91-46d6-a00b-d6caf3043c90","system_id":"levelo_inurba_marseille","lat":43.25927,"lon":5.40914,"is_reserved":false,"is_disabled":false,"rental_uris":{"android":"levelo://app?vid=aea8d665-2d91-46d6-a00b-d6caf3043c90","ios":"levelo://app?vid=aea8d665-2d91-46d6-a00b-d6caf3043c90"},"vehicle_type_id":"4","last_reported":1752150135,"current_range_meters":16800,"station_id":"ce4bhm92rcd13ifvqglg","pricing_plan_id":"cebpf4jnsgd1na2vs0mg"},{"bike_id":"a5a6c2c1-2d48-4581-8647-6eab6c0bbb54","system_id":"levelo_inurba_marseille","lat":43.26362,"lon":5.37377,"is_reserved":false,"is_disabled":false,"rental_uris":{"android":"levelo://app?vid=a5a6c2c1-2d48-4581-8647-6eab6c0bbb54","ios":"levelo://app?vid=a5a6c2c1-2d48-4581-8647-6eab6c0bbb54"},"vehicle_type_id":"4","last_reported":1752150135,"current_range_meters":17200,"station_id":"","pricing_plan_id":"cebpf4jnsgd1na2vs0mg"},{"bike_id":"c7bc0b85-c966-4913-8908-15a71d65944b","system_id":"levelo_inurba_marseille","lat":43.35472,"lon":5.35721,"is_reserved":false,"is_disabled":false,"rental_uris":{"android":"levelo://app?vid=c7bc0b85-c966-4913-8908-15a71d65944b","ios":"levelo://app?vid=c7bc0b85-c966-4913-8908-15a71d65944b"},"vehicle_type_id":"4","last_reported":1752150135,"current_range_meters":17200,"station_id":"","pricing_plan_id":"cebpf4jnsgd1na2vs0mg"},{"bike_id":"24b17f7b-dff1-4936-b27a-7c2c6813a894","system_id":"levelo_inurba_marseille","lat":43.24595,"lon":5.37369,"is_reserved":false,"is_disabled":false,"rental_uris":{"android":"levelo://app?vid=24b17f7b-dff1-4936-b27a-7c2c6813a894","ios":"levelo://app?vid=24b17f7b-dff1-4936-b27a-7c2c6813a894"},"vehicle_type_id":"4","last_reported":1752150135,"current_range_meters":17200,"station_id":"","pricing_plan_id":"cebpf4jnsgd1na2vs0mg"},{"bike_id":"55eb3ee3-207d-45c9-a356-7e275a6ee08e","system_id":"levelo_inurba_marseille","lat":43.322208,"lon":5.407363,"is_reserved":false,"is_disabled":false,"rental_uris":{"android":"levelo://app?vid=55eb3ee3-207d-45c9-a356-7e275a6ee08e","ios":"levelo://app?vid=55eb3ee3-207d-45c9-a356-7e275a6ee08e"},"vehicle_type_id":"4","last_reported":1752150135,"current_range_meters":17200,"station_id":"ce4bh092rcd13ifvqd30","pricing_plan_id":"cebpf4jnsgd1na2vs0mg"},{"bike_id":"c4a7bfea-9a70-4da0-a389-3d9879076a98","system_id":"levelo_inurba_marseille","lat":43.28484,"lon":5.3855,"is_reserved":false,"is_disabled":false,"rental_uris":{"android":"levelo://app?vid=c4a7bfea-9a70-4da0-a389-3d9879076a98","ios":"levelo://app?vid=c4a7bfea-9a70-4da0-a389-3d9879076a98"},"vehicle_type_id":"4","last_reported":1752150135,"current_range_meters":17200,"station_id":"ce4bh8p2rcd13ifvqeb0","pricing_plan_id":"cebpf4jnsgd1na2vs0mg"},{"bike_id":"9e9e4346-f98a-4288-93ef-9b6fcc259f2d","system_id":"levelo_inurba_marseille","lat":43.284182,"lon":5.349858,"is_reserved":false,"is_disabled":false,"rental_uris":{"android":"levelo://app?vid=9e9e4346-f98a-4288-93ef-9b6fcc259f2d","ios":"levelo://app?vid=9e9e4346-f98a-4288-93ef-9b6fcc259f2d"},"vehicle_type_id":"4","last_reported":1752150135,"current_range_meters":17200,"station_id":"ce4bhbh2rcd13ifvqepg","pricing_plan_id":"cebpf4jnsgd1na2vs0mg"},{"bike_id":"31b1cadc-76c0-41c4-9c79-43120fa9d91f","system_id":"levelo_inurba_marseille","lat":43.29198,"lon":5.36076,"is_reserved":false,"is_disabled":false,"rental_uris":{"android":"levelo://app?vid=31b1cadc-76c0-41c4-9c79-43120fa9d91f","ios":"levelo://app?vid=31b1cadc-76c0-41c4-9c79-43120fa9d91f"},"vehicle_type_id":"4","last_reported":1752150135,"current_range_meters":17200,"station_id":"ce4bhbh2rcd13ifvqeqg","pricing_plan_id":"cebpf4jnsgd1na2vs0mg"},{"bike_id":"dbec3c11-5ed5-4eaa-a394-cf6410ce14a1","system_id":"levelo_inurba_marseille","lat":43.2795,"lon":5.41041,"is_reserved":false,"is_disabled":false,"rental_uris":{"android":"levelo://app?vid=dbec3c11-5ed5-4eaa-a394-cf6410ce14a1","ios":"levelo://app?vid=dbec3c11-5ed5-4eaa-a394-cf6410ce14a1"},"vehicle_type_id":"4","last_reported":1752150135,"current_range_meters":17200,"station_id":"ce4bhnp2rcd13ifvqh0g","pricing_plan_id":"cebpf4jnsgd1na2vs0mg"},{"bike_id":"ee1ac907-8623-4d00-ac01-d41dd90be9fe","system_id":"levelo_inurba_marseille","lat":43.211915,"lon":5.350716,"is_reserved":false,"is_disabled":false,"rental_uris":{"android":"levelo://app?vid=ee1ac907-8623-4d00-ac01-d41dd90be9fe","ios":"levelo://app?vid=ee1ac907-8623-4d00-ac01-d41dd90be9fe"},"vehicle_type_id":"4","last_reported":1752150135,"current_range_meters":17200,"station_id":"st_cvj6sg6p6f1abm77japg","pricing_plan_id":"cebpf4jnsgd1na2vs0mg"},{"bike_id":"bcb5093d-72d2-421e-92d3-1be69245626d","system_id":"levelo_inurba_marseille","lat":43.28254,"lon":5.35086,"is_reserved":false,"is_disabled":false,"rental_uris":{"android":"levelo://app?vid=bcb5093d-72d2-421e-92d3-1be69245626d","ios":"levelo://app?vid=bcb5093d-72d2-421e-92d3-1be69245626d"},"vehicle_type_id":"4","last_reported":1752150135,"current_range_meters":17600,"station_id":"ce4bhbp2rcd13ifvqerg","pricing_plan_id":"cebpf4jnsgd1na2vs0mg"},{"bike_id":"f7307128-f6e3-40a3-b30f-f4891395d8f9","system_id":"levelo_inurba_marseille","lat":43.28637,"lon":5.35105,"is_reserved":false,"is_disabled":false,"rental_uris":{"android":"levelo://app?vid=f7307128-f6e3-40a3-b30f-f4891395d8f9","ios":"levelo://app?vid=f7307128-f6e3-40a3-b30f-f4891395d8f9"},"vehicle_type_id":"4","last_reported":1752150135,"current_range_meters":17600,"station_id":"ce4bhch2rcd13ifvqeug","pricing_plan_id":"cebpf4jnsgd1na2vs0mg"},{"bike_id":"cc91f022-5f4f-478d-8287-995a3efb66d1","system_id":"levelo_inurba_marseille","lat":43.262,"lon":5.40477,"is_reserved":false,"is_disabled":false,"rental_uris":{"android":"levelo://app?vid=cc91f022-5f4f-478d-8287-995a3efb66d1","ios":"levelo://app?vid=cc91f022-5f4f-478d-8287-995a3efb66d1"},"vehicle_type_id":"4","last_reported":1752150135,"current_range_meters":17600,"station_id":"ce4bhmh2rcd13ifvqgmg","pricing_plan_id":"cebpf4jnsgd1na2vs0mg"},{"bike_id":"885a4f7a-b630-4979-8079-f23273e8b02f","system_id":"levelo_inurba_marseille","lat":43.2418,"lon":5.39731,"is_reserved":false,"is_disabled":false,"rental_uris":{"android":"levelo://app?vid=885a4f7a-b630-4979-8079-f23273e8b02f","ios":"levelo://app?vid=885a4f7a-b630-4979-8079-f23273e8b02f"},"vehicle_type_id":"4","last_reported":1752150135,"current_range_meters":17600,"station_id":"ce4bhn12rcd13ifvqgpg","pricing_plan_id":"cebpf4jnsgd1na2vs0mg"},{"bike_id":"8f89e4f3-495a-4317-bd6d-37a19186d65b","system_id":"levelo_inurba_marseille","lat":43.33725,"lon":5.39187,"is_reserved":false,"is_disabled":false,"rental_uris":{"android":"levelo://app?vid=8f89e4f3-495a-4317-bd6d-37a19186d65b","ios":"levelo://app?vid=8f89e4f3-495a-4317-bd6d-37a19186d65b"},"vehicle_type_id":"4","last_reported":1752150135,"current_range_meters":17600,"station_id":"ce4bhr92rcd13ifvqhsg","pricing_plan_id":"cebpf4jnsgd1na2vs0mg"},{"bike_id":"620c39dc-a416-4605-b27e-d4faf78ab1bf","system_id":"levelo_inurba_marseille","lat":43.22932,"lon":5.35368,"is_reserved":false,"is_disabled":false,"rental_uris":{"android":"levelo://app?vid=620c39dc-a416-4605-b27e-d4faf78ab1bf","ios":"levelo://app?vid=620c39dc-a416-4605-b27e-d4faf78ab1bf"},"vehicle_type_id":"4","last_reported":1752150135,"current_range_meters":17600,"station_id":"cpo3532slgdg3j2ikp40","pricing_plan_id":"cebpf4jnsgd1na2vs0mg"},{"bike_id":"4c20d321-0bc9-42d0-9308-79703d497ae9","system_id":"levelo_inurba_marseille","lat":43.284789,"lon":5.384169,"is_reserved":false,"is_disabled":false,"rental_uris":{"android":"levelo://app?vid=4c20d321-0bc9-42d0-9308-79703d497ae9","ios":"levelo://app?vid=4c20d321-0bc9-42d0-9308-79703d497ae9"},"vehicle_type_id":"4","last_reported":1752150135,"current_range_meters":18000,"station_id":"","pricing_plan_id":"cebpf4jnsgd1na2vs0mg"},{"bike_id":"f4657683-33d1-4b32-8be1-e0a4878b6569","system_id":"levelo_inurba_marseille","lat":43.29573,"lon":5.39981,"is_reserved":false,"is_disabled":false,"rental_uris":{"android":"levelo://app?vid=f4657683-33d1-4b32-8be1-e0a4878b6569","ios":"levelo://app?vid=f4657683-33d1-4b32-8be1-e0a4878b6569"},"vehicle_type_id":"4","last_reported":1752150135,"current_range_meters":18000,"station_id":"ce4bh312rcd13ifvqdj0","pricing_plan_id":"cebpf4jnsgd1na2vs0mg"},{"bike_id":"0a25c14b-90d6-4c43-a5f5-398fd6d9e985","system_id":"levelo_inurba_marseille","lat":43.292817,"lon":5.401178,"is_reserved":false,"is_disabled":false,"rental_uris":{"android":"levelo://app?vid=0a25c14b-90d6-4c43-a5f5-398fd6d9e985","ios":"levelo://app?vid=0a25c14b-90d6-4c43-a5f5-398fd6d9e985"},"vehicle_type_id":"4","last_reported":1752150135,"current_range_meters":18000,"station_id":"ce4bh312rcd13ifvqdk0","pricing_plan_id":"cebpf4jnsgd1na2vs0mg"},{"bike_id":"a37c81c5-d096-4e6d-b1b3-5bbb8251fbd0","system_id":"levelo_inurba_marseille","lat":43.24385,"lon":5.37058,"is_reserved":false,"is_disabled":false,"rental_uris":{"android":"levelo://app?vid=a37c81c5-d096-4e6d-b1b3-5bbb8251fbd0","ios":"levelo://app?vid=a37c81c5-d096-4e6d-b1b3-5bbb8251fbd0"},"vehicle_type_id":"4","last_reported":1752150135,"current_range_meters":18000,"station_id":"ce4bhhh2rcd13ifvqfk0","pricing_plan_id":"cebpf4jnsgd1na2vs0mg"},{"bike_id":"02ef6089-6433-4fe3-b379-8e926e04b68b","system_id":"levelo_inurba_marseille","lat":43.23957,"lon":5.36669,"is_reserved":false,"is_disabled":false,"rental_uris":{"android":"levelo://app?vid=02ef6089-6433-4fe3-b379-8e926e04b68b","ios":"levelo://app?vid=02ef6089-6433-4fe3-b379-8e926e04b68b"},"vehicle_type_id":"4","last_reported":1752150135,"current_range_meters":18000,"station_id":"ce4bhi12rcd13ifvqfp0","pricing_plan_id":"cebpf4jnsgd1na2vs0mg"},{"bike_id":"9a5ecb01-299a-46f1-8807-6bd4317a877c","system_id":"levelo_inurba_marseille","lat":43.279976,"lon":5.416699,"is_reserved":false,"is_disabled":false,"rental_uris":{"android":"levelo://app?vid=9a5ecb01-299a-46f1-8807-6bd4317a877c","ios":"levelo://app?vid=9a5ecb01-299a-46f1-8807-6bd4317a877c"},"vehicle_type_id":"4","last_reported":1752150135,"current_range_meters":18000,"station_id":"ce4bho12rcd13ifvqh1g","pricing_plan_id":"cebpf4jnsgd1na2vs0mg"},{"bike_id":"394ce292-46eb-4dc3-9d1b-2ac1f7889304","system_id":"levelo_inurba_marseille","lat":43.3372,"lon":5.39195,"is_reserved":false,"is_disabled":false,"rental_uris":{"android":"levelo://app?vid=394ce292-46eb-4dc3-9d1b-2ac1f7889304","ios":"levelo://app?vid=394ce292-46eb-4dc3-9d1b-2ac1f7889304"},"vehicle_type_id":"4","last_reported":1752150135,"current_range_meters":18000,"station_id":"ce4bhr92rcd13ifvqhsg","pricing_plan_id":"cebpf4jnsgd1na2vs0mg"},{"bike_id":"7f0c3aed-85de-41cb-8263-c5d4ce30619b","system_id":"levelo_inurba_marseille","lat":43.23061,"lon":5.35491,"is_reserved":false,"is_disabled":false,"rental_uris":{"android":"levelo://app?vid=7f0c3aed-85de-41cb-8263-c5d4ce30619b","ios":"levelo://app?vid=7f0c3aed-85de-41cb-8263-c5d4ce30619b"},"vehicle_type_id":"4","last_reported":1752150135,"current_range_meters":18000,"station_id":"cpo3342slgdg3j2ifvpg","pricing_plan_id":"cebpf4jnsgd1na2vs0mg"},{"bike_id":"a3d06fdd-d90f-4da8-9200-8f61c005f0a2","system_id":"levelo_inurba_marseille","lat":43.2253,"lon":5.34775,"is_reserved":false,"is_disabled":false,"rental_uris":{"android":"levelo://app?vid=a3d06fdd-d90f-4da8-9200-8f61c005f0a2","ios":"levelo://app?vid=a3d06fdd-d90f-4da8-9200-8f61c005f0a2"},"vehicle_type_id":"4","last_reported":1752150135,"current_range_meters":18000,"station_id":"st_cvj5dfep6f1abm77gieg","pricing_plan_id":"cebpf4jnsgd1na2vs0mg"},{"bike_id":"74efb7ac-5292-4d58-8fa8-5d39218ea8f2","system_id":"levelo_inurba_marseille","lat":43.30548,"lon":5.36535,"is_reserved":false,"is_disabled":false,"rental_uris":{"android":"levelo://app?vid=74efb7ac-5292-4d58-8fa8-5d39218ea8f2","ios":"levelo://app?vid=74efb7ac-5292-4d58-8fa8-5d39218ea8f2"},"vehicle_type_id":"4","last_reported":1752150135,"current_range_meters":18800,"station_id":"ce4bgs12rcd13ifvqcag","pricing_plan_id":"cebpf4jnsgd1na2vs0mg"},{"bike_id":"d44a9656-a807-4cde-acec-23469070cab8","system_id":"levelo_inurba_marseille","lat":43.28928,"lon":5.38393,"is_reserved":false,"is_disabled":false,"rental_uris":{"android":"levelo://app?vid=d44a9656-a807-4cde-acec-23469070cab8","ios":"levelo://app?vid=d44a9656-a807-4cde-acec-23469070cab8"},"vehicle_type_id":"4","last_reported":1752150135,"current_range_meters":18800,"station_id":"ce4bh612rcd13ifvqe6g","pricing_plan_id":"cebpf4jnsgd1na2vs0mg"},{"bike_id":"af7b1d2e-000d-4774-aed6-1a54c6f13c16","system_id":"levelo_inurba_marseille","lat":43.28261,"lon":5.35071,"is_reserved":false,"is_disabled":false,"rental_uris":{"android":"levelo://app?vid=af7b1d2e-000d-4774-aed6-1a54c6f13c16","ios":"levelo://app?vid=af7b1d2e-000d-4774-aed6-1a54c6f13c16"},"vehicle_type_id":"4","last_reported":1752150135,"current_range_meters":18800,"station_id":"ce4bhbp2rcd13ifvqerg","pricing_plan_id":"cebpf4jnsgd1na2vs0mg"},{"bike_id":"13082036-e72b-43df-a313-322df34c944a","system_id":"levelo_inurba_marseille","lat":43.27176,"lon":5.40998,"is_reserved":false,"is_disabled":false,"rental_uris":{"android":"levelo://app?vid=13082036-e72b-43df-a313-322df34c944a","ios":"levelo://app?vid=13082036-e72b-43df-a313-322df34c944a"},"vehicle_type_id":"4","last_reported":1752150135,"current_range_meters":18800,"station_id":"ce4bhl12rcd13ifvqgf0","pricing_plan_id":"cebpf4jnsgd1na2vs0mg"},{"bike_id":"d39178c4-b7be-4d48-9ac4-b9c12a67227c","system_id":"levelo_inurba_marseille","lat":43.25939,"lon":5.40946,"is_reserved":false,"is_disabled":false,"rental_uris":{"android":"levelo://app?vid=d39178c4-b7be-4d48-9ac4-b9c12a67227c","ios":"levelo://app?vid=d39178c4-b7be-4d48-9ac4-b9c12a67227c"},"vehicle_type_id":"4","last_reported":1752150135,"current_range_meters":18800,"station_id":"ce4bhm92rcd13ifvqglg","pricing_plan_id":"cebpf4jnsgd1na2vs0mg"},{"bike_id":"8a714a3d-5bed-4c0e-96e8-f1ca872de929","system_id":"levelo_inurba_marseille","lat":43.28606,"lon":5.37067,"is_reserved":false,"is_disabled":false,"rental_uris":{"android":"levelo://app?vid=8a714a3d-5bed-4c0e-96e8-f1ca872de929","ios":"levelo://app?vid=8a714a3d-5bed-4c0e-96e8-f1ca872de929"},"vehicle_type_id":"4","last_reported":1752150135,"current_range_meters":18800,"station_id":"ce4bht12rcd13ifvqi60","pricing_plan_id":"cebpf4jnsgd1na2vs0mg"},{"bike_id":"ccd8088e-665d-407d-bc70-2c07bf9cec81","system_id":"levelo_inurba_marseille","lat":43.22926,"lon":5.35387,"is_reserved":false,"is_disabled":false,"rental_uris":{"android":"levelo://app?vid=ccd8088e-665d-407d-bc70-2c07bf9cec81","ios":"levelo://app?vid=ccd8088e-665d-407d-bc70-2c07bf9cec81"},"vehicle_type_id":"4","last_reported":1752150135,"current_range_meters":18800,"station_id":"cpo3532slgdg3j2ikp40","pricing_plan_id":"cebpf4jnsgd1na2vs0mg"},{"bike_id":"6d526cf2-f7c6-43f0-8c10-b635af2f14a9","system_id":"levelo_inurba_marseille","lat":43.22931,"lon":5.35412,"is_reserved":false,"is_disabled":false,"rental_uris":{"android":"levelo://app?vid=6d526cf2-f7c6-43f0-8c10-b635af2f14a9","ios":"levelo://app?vid=6d526cf2-f7c6-43f0-8c10-b635af2f14a9"},"vehicle_type_id":"4","last_reported":1752150135,"current_range_meters":18800,"station_id":"cpo3532slgdg3j2ikp40","pricing_plan_id":"cebpf4jnsgd1na2vs0mg"},{"bike_id":"29a0a180-d29f-4a4e-a71b-d1d9d42cb217","system_id":"levelo_inurba_marseille","lat":43.21196,"lon":5.35126,"is_reserved":false,"is_disabled":false,"rental_uris":{"android":"levelo://app?vid=29a0a180-d29f-4a4e-a71b-d1d9d42cb217","ios":"levelo://app?vid=29a0a180-d29f-4a4e-a71b-d1d9d42cb217"},"vehicle_type_id":"4","last_reported":1752150135,"current_range_meters":18800,"station_id":"st_cvj6sg6p6f1abm77japg","pricing_plan_id":"cebpf4jnsgd1na2vs0mg"},{"bike_id":"595e9351-a7ce-45de-8995-771f7d9fe86e","system_id":"levelo_inurba_marseille","lat":43.309243,"lon":5.378088,"is_reserved":false,"is_disabled":false,"rental_uris":{"android":"levelo://app?vid=595e9351-a7ce-45de-8995-771f7d9fe86e","ios":"levelo://app?vid=595e9351-a7ce-45de-8995-771f7d9fe86e"},"vehicle_type_id":"4","last_reported":1752150135,"current_range_meters":19200,"station_id":"","pricing_plan_id":"cebpf4jnsgd1na2vs0mg"},{"bike_id":"387707fe-4b39-45f6-a1d2-b5005498c85c","system_id":"levelo_inurba_marseille","lat":43.29304,"lon":5.37169,"is_reserved":false,"is_disabled":false,"rental_uris":{"android":"levelo://app?vid=387707fe-4b39-45f6-a1d2-b5005498c85c","ios":"levelo://app?vid=387707fe-4b39-45f6-a1d2-b5005498c85c"},"vehicle_type_id":"4","last_reported":1752150135,"current_range_meters":19200,"station_id":"ce4bgh92rcd13ifvqb40","pricing_plan_id":"cebpf4jnsgd1na2vs0mg"},{"bike_id":"d33cbabe-8724-4b7d-a873-a5476968f7d3","system_id":"levelo_inurba_marseille","lat":43.28411,"lon":5.34992,"is_reserved":false,"is_disabled":false,"rental_uris":{"android":"levelo://app?vid=d33cbabe-8724-4b7d-a873-a5476968f7d3","ios":"levelo://app?vid=d33cbabe-8724-4b7d-a873-a5476968f7d3"},"vehicle_type_id":"4","last_reported":1752150135,"current_range_meters":19200,"station_id":"ce4bhbh2rcd13ifvqepg","pricing_plan_id":"cebpf4jnsgd1na2vs0mg"},{"bike_id":"f172a914-1395-4e57-8a1c-dcbe8652545d","system_id":"levelo_inurba_marseille","lat":43.26216,"lon":5.37458,"is_reserved":false,"is_disabled":false,"rental_uris":{"android":"levelo://app?vid=f172a914-1395-4e57-8a1c-dcbe8652545d","ios":"levelo://app?vid=f172a914-1395-4e57-8a1c-dcbe8652545d"},"vehicle_type_id":"4","last_reported":1752150135,"current_range_meters":19200,"station_id":"ce4bhgp2rcd13ifvqfc0","pricing_plan_id":"cebpf4jnsgd1na2vs0mg"},{"bike_id":"9f3c5f2e-d4be-4bd4-9865-c7acb5e49047","system_id":"levelo_inurba_marseille","lat":43.30374,"lon":5.42485,"is_reserved":false,"is_disabled":false,"rental_uris":{"android":"levelo://app?vid=9f3c5f2e-d4be-4bd4-9865-c7acb5e49047","ios":"levelo://app?vid=9f3c5f2e-d4be-4bd4-9865-c7acb5e49047"},"vehicle_type_id":"4","last_reported":1752150135,"current_range_meters":19200,"station_id":"ce4bhoh2rcd13ifvqh6g","pricing_plan_id":"cebpf4jnsgd1na2vs0mg"},{"bike_id":"e3a75ee9-c614-467b-8cc2-f813bcef2ab1","system_id":"levelo_inurba_marseille","lat":43.33743,"lon":5.3919,"is_reserved":false,"is_disabled":false,"rental_uris":{"android":"levelo://app?vid=e3a75ee9-c614-467b-8cc2-f813bcef2ab1","ios":"levelo://app?vid=e3a75ee9-c614-467b-8cc2-f813bcef2ab1"},"vehicle_type_id":"4","last_reported":1752150135,"current_range_meters":19200,"station_id":"ce4bhr92rcd13ifvqhsg","pricing_plan_id":"cebpf4jnsgd1na2vs0mg"},{"bike_id":"156a6cbf-c8db-4d1b-9064-75655a043613","system_id":"levelo_inurba_marseille","lat":43.21727,"lon":5.34598,"is_reserved":false,"is_disabled":false,"rental_uris":{"android":"levelo://app?vid=156a6cbf-c8db-4d1b-9064-75655a043613","ios":"levelo://app?vid=156a6cbf-c8db-4d1b-9064-75655a043613"},"vehicle_type_id":"4","last_reported":1752150135,"current_range_meters":19200,"station_id":"st_cvj6r9ubvosntc0bgbag","pricing_plan_id":"cebpf4jnsgd1na2vs0mg"},{"bike_id":"cb8db05c-7ef4-4fcf-b321-cdc13d7cccad","system_id":"levelo_inurba_marseille","lat":43.290752,"lon":5.355692,"is_reserved":false,"is_disabled":false,"rental_uris":{"android":"levelo://app?vid=cb8db05c-7ef4-4fcf-b321-cdc13d7cccad","ios":"levelo://app?vid=cb8db05c-7ef4-4fcf-b321-cdc13d7cccad"},"vehicle_type_id":"4","last_reported":1752150135,"current_range_meters":19600,"station_id":"","pricing_plan_id":"cebpf4jnsgd1na2vs0mg"},{"bike_id":"800b1751-81c4-40b8-ace8-ec2de651aab0","system_id":"levelo_inurba_marseille","lat":43.28433,"lon":5.35044,"is_reserved":false,"is_disabled":false,"rental_uris":{"android":"levelo://app?vid=800b1751-81c4-40b8-ace8-ec2de651aab0","ios":"levelo://app?vid=800b1751-81c4-40b8-ace8-ec2de651aab0"},"vehicle_type_id":"4","last_reported":1752150135,"current_range_meters":19600,"station_id":"","pricing_plan_id":"cebpf4jnsgd1na2vs0mg"},{"bike_id":"a11671c1-3afa-4977-92ba-76b5ac1b176c","system_id":"levelo_inurba_marseille","lat":43.24378,"lon":5.37055,"is_reserved":false,"is_disabled":false,"rental_uris":{"android":"levelo://app?vid=a11671c1-3afa-4977-92ba-76b5ac1b176c","ios":"levelo://app?vid=a11671c1-3afa-4977-92ba-76b5ac1b176c"},"vehicle_type_id":"4","last_reported":1752150135,"current_range_meters":19600,"station_id":"ce4bhhh2rcd13ifvqfk0","pricing_plan_id":"cebpf4jnsgd1na2vs0mg"},{"bike_id":"020f654e-9b2f-4693-9834-e10adcdf8ea1","system_id":"levelo_inurba_marseille","lat":43.27206,"lon":5.39182,"is_reserved":false,"is_disabled":false,"rental_uris":{"android":"levelo://app?vid=020f654e-9b2f-4693-9834-e10adcdf8ea1","ios":"levelo://app?vid=020f654e-9b2f-4693-9834-e10adcdf8ea1"},"vehicle_type_id":"4","last_reported":1752150135,"current_range_meters":19600,"station_id":"ce4bhhp2rcd13ifvqfm0","pricing_plan_id":"cebpf4jnsgd1na2vs0mg"},{"bike_id":"591f4f64-81e5-4a85-a2e0-419f34f92309","system_id":"levelo_inurba_marseille","lat":43.32106,"lon":5.36786,"is_reserved":false,"is_disabled":false,"rental_uris":{"android":"levelo://app?vid=591f4f64-81e5-4a85-a2e0-419f34f92309","ios":"levelo://app?vid=591f4f64-81e5-4a85-a2e0-419f34f92309"},"vehicle_type_id":"4","last_reported":1752150135,"current_range_meters":19600,"station_id":"ce4bhrh2rcd13ifvqhug","pricing_plan_id":"cebpf4jnsgd1na2vs0mg"},{"bike_id":"4ca69d49-63d1-4772-9006-09bcfa098c08","system_id":"levelo_inurba_marseille","lat":43.26161,"lon":5.37468,"is_reserved":false,"is_disabled":false,"rental_uris":{"android":"levelo://app?vid=4ca69d49-63d1-4772-9006-09bcfa098c08","ios":"levelo://app?vid=4ca69d49-63d1-4772-9006-09bcfa098c08"},"vehicle_type_id":"4","last_reported":1752150135,"current_range_meters":20000,"station_id":"","pricing_plan_id":"cebpf4jnsgd1na2vs0mg"},{"bike_id":"52bbed55-bb43-4609-aa14-ca80dd09df26","system_id":"levelo_inurba_marseille","lat":43.33765,"lon":5.37527,"is_reserved":false,"is_disabled":false,"rental_uris":{"android":"levelo://app?vid=52bbed55-bb43-4609-aa14-ca80dd09df26","ios":"levelo://app?vid=52bbed55-bb43-4609-aa14-ca80dd09df26"},"vehicle_type_id":"4","last_reported":1752150135,"current_range_meters":20000,"station_id":"","pricing_plan_id":"cebpf4jnsgd1na2vs0mg"},{"bike_id":"fde530d0-eeed-4692-bb9c-2c65ba0cdd9f","system_id":"levelo_inurba_marseille","lat":43.308558,"lon":5.425766,"is_reserved":false,"is_disabled":false,"rental_uris":{"android":"levelo://app?vid=fde530d0-eeed-4692-bb9c-2c65ba0cdd9f","ios":"levelo://app?vid=fde530d0-eeed-4692-bb9c-2c65ba0cdd9f"},"vehicle_type_id":"4","last_reported":1752150135,"current_range_meters":20000,"station_id":"","pricing_plan_id":"cebpf4jnsgd1na2vs0mg"},{"bike_id":"ad65c0e5-41d1-41a7-adf3-1846489af418","system_id":"levelo_inurba_marseille","lat":43.308,"lon":5.37643,"is_reserved":false,"is_disabled":false,"rental_uris":{"android":"levelo://app?vid=ad65c0e5-41d1-41a7-adf3-1846489af418","ios":"levelo://app?vid=ad65c0e5-41d1-41a7-adf3-1846489af418"},"vehicle_type_id":"4","last_reported":1752150135,"current_range_meters":20000,"station_id":"ce4bgv92rcd13ifvqcq0","pricing_plan_id":"cebpf4jnsgd1na2vs0mg"},{"bike_id":"566f33b0-3974-4862-ad81-e5552fcc7858","system_id":"levelo_inurba_marseille","lat":43.28997,"lon":5.35605,"is_reserved":false,"is_disabled":false,"rental_uris":{"android":"levelo://app?vid=566f33b0-3974-4862-ad81-e5552fcc7858","ios":"levelo://app?vid=566f33b0-3974-4862-ad81-e5552fcc7858"},"vehicle_type_id":"4","last_reported":1752150135,"current_range_meters":20000,"station_id":"ce4bhb92rcd13ifvqen0","pricing_plan_id":"cebpf4jnsgd1na2vs0mg"},{"bike_id":"84261ec7-2903-46e2-8314-c183f1cc7f3f","system_id":"levelo_inurba_marseille","lat":43.28256,"lon":5.35073,"is_reserved":false,"is_disabled":false,"rental_uris":{"android":"levelo://app?vid=84261ec7-2903-46e2-8314-c183f1cc7f3f","ios":"levelo://app?vid=84261ec7-2903-46e2-8314-c183f1cc7f3f"},"vehicle_type_id":"4","last_reported":1752150135,"current_range_meters":20000,"station_id":"ce4bhbp2rcd13ifvqerg","pricing_plan_id":"cebpf4jnsgd1na2vs0mg"},{"bike_id":"b12f04df-5d37-4311-afd3-6c5f9f394e51","system_id":"levelo_inurba_marseille","lat":43.27912,"lon":5.39575,"is_reserved":false,"is_disabled":false,"rental_uris":{"android":"levelo://app?vid=b12f04df-5d37-4311-afd3-6c5f9f394e51","ios":"levelo://app?vid=b12f04df-5d37-4311-afd3-6c5f9f394e51"},"vehicle_type_id":"4","last_reported":1752150135,"current_range_meters":20000,"station_id":"ce4bhf92rcd13ifvqf40","pricing_plan_id":"cebpf4jnsgd1na2vs0mg"},{"bike_id":"06ec5e73-7c37-4d7d-9933-e904369ec74e","system_id":"levelo_inurba_marseille","lat":43.323617,"lon":5.367633,"is_reserved":false,"is_disabled":false,"rental_uris":{"android":"levelo://app?vid=06ec5e73-7c37-4d7d-9933-e904369ec74e","ios":"levelo://app?vid=06ec5e73-7c37-4d7d-9933-e904369ec74e"},"vehicle_type_id":"4","last_reported":1752150135,"current_range_meters":20000,"station_id":"ce4bhsh2rcd13ifvqi2g","pricing_plan_id":"cebpf4jnsgd1na2vs0mg"},{"bike_id":"495b42e7-c480-4c9f-af1d-45f0e83f40b6","system_id":"levelo_inurba_marseille","lat":43.21746,"lon":5.34607,"is_reserved":false,"is_disabled":false,"rental_uris":{"android":"levelo://app?vid=495b42e7-c480-4c9f-af1d-45f0e83f40b6","ios":"levelo://app?vid=495b42e7-c480-4c9f-af1d-45f0e83f40b6"},"vehicle_type_id":"4","last_reported":1752150135,"current_range_meters":20000,"station_id":"st_cvj6r9ubvosntc0bgbag","pricing_plan_id":"cebpf4jnsgd1na2vs0mg"},{"bike_id":"cf4578a3-45fd-432d-acbc-5175b07ef15b","system_id":"levelo_inurba_marseille","lat":43.294465,"lon":5.39746,"is_reserved":false,"is_disabled":false,"rental_uris":{"android":"levelo://app?vid=cf4578a3-45fd-432d-acbc-5175b07ef15b","ios":"levelo://app?vid=cf4578a3-45fd-432d-acbc-5175b07ef15b"},"vehicle_type_id":"4","last_reported":1752150135,"current_range_meters":20400,"station_id":"ce4bh3h2rcd13ifvqdo0","pricing_plan_id":"cebpf4jnsgd1na2vs0mg"},{"bike_id":"b3df6301-4143-4851-84fd-b02f7ac2c7ef","system_id":"levelo_inurba_marseille","lat":43.29217,"lon":5.36063,"is_reserved":false,"is_disabled":false,"rental_uris":{"android":"levelo://app?vid=b3df6301-4143-4851-84fd-b02f7ac2c7ef","ios":"levelo://app?vid=b3df6301-4143-4851-84fd-b02f7ac2c7ef"},"vehicle_type_id":"4","last_reported":1752150135,"current_range_meters":20400,"station_id":"ce4bhbh2rcd13ifvqeqg","pricing_plan_id":"cebpf4jnsgd1na2vs0mg"},{"bike_id":"0eb56215-3c8f-41c7-bf6d-54b61ff2f6fc","system_id":"levelo_inurba_marseille","lat":43.27311,"lon":5.39111,"is_reserved":false,"is_disabled":false,"rental_uris":{"android":"levelo://app?vid=0eb56215-3c8f-41c7-bf6d-54b61ff2f6fc","ios":"levelo://app?vid=0eb56215-3c8f-41c7-bf6d-54b61ff2f6fc"},"vehicle_type_id":"4","last_reported":1752150135,"current_range_meters":20400,"station_id":"ce4bhgp2rcd13ifvqfe0","pricing_plan_id":"cebpf4jnsgd1na2vs0mg"},{"bike_id":"5fa281ea-b2b7-4806-a59d-87d02c76b268","system_id":"levelo_inurba_marseille","lat":43.25932,"lon":5.40883,"is_reserved":false,"is_disabled":false,"rental_uris":{"android":"levelo://app?vid=5fa281ea-b2b7-4806-a59d-87d02c76b268","ios":"levelo://app?vid=5fa281ea-b2b7-4806-a59d-87d02c76b268"},"vehicle_type_id":"4","last_reported":1752150135,"current_range_meters":20400,"station_id":"ce4bhm92rcd13ifvqglg","pricing_plan_id":"cebpf4jnsgd1na2vs0mg"},{"bike_id":"5e4bb725-0a7c-42b6-8717-a55d114feeb5","system_id":"levelo_inurba_marseille","lat":43.32473,"lon":5.36597,"is_reserved":false,"is_disabled":false,"rental_uris":{"android":"levelo://app?vid=5e4bb725-0a7c-42b6-8717-a55d114feeb5","ios":"levelo://app?vid=5e4bb725-0a7c-42b6-8717-a55d114feeb5"},"vehicle_type_id":"4","last_reported":1752150135,"current_range_meters":20400,"station_id":"ce4bhs12rcd13ifvqhvg","pricing_plan_id":"cebpf4jnsgd1na2vs0mg"},{"bike_id":"dafa5a87-b26d-4379-9a6b-1f02133b78a6","system_id":"levelo_inurba_marseille","lat":43.21206,"lon":5.35107,"is_reserved":false,"is_disabled":false,"rental_uris":{"android":"levelo://app?vid=dafa5a87-b26d-4379-9a6b-1f02133b78a6","ios":"levelo://app?vid=dafa5a87-b26d-4379-9a6b-1f02133b78a6"},"vehicle_type_id":"4","last_reported":1752150135,"current_range_meters":20400,"station_id":"st_cvj6sg6p6f1abm77japg","pricing_plan_id":"cebpf4jnsgd1na2vs0mg"},{"bike_id":"7b5cd6ce-df57-4328-854d-cb2d1407ab18","system_id":"levelo_inurba_marseille","lat":43.33067,"lon":5.38982,"is_reserved":false,"is_disabled":false,"rental_uris":{"android":"levelo://app?vid=7b5cd6ce-df57-4328-854d-cb2d1407ab18","ios":"levelo://app?vid=7b5cd6ce-df57-4328-854d-cb2d1407ab18"},"vehicle_type_id":"4","last_reported":1752150135,"current_range_meters":20800,"station_id":"","pricing_plan_id":"cebpf4jnsgd1na2vs0mg"},{"bike_id":"87915a86-d1f9-4d5c-b74a-3ad865d4b20c","system_id":"levelo_inurba_marseille","lat":43.28003,"lon":5.4002,"is_reserved":false,"is_disabled":false,"rental_uris":{"android":"levelo://app?vid=87915a86-d1f9-4d5c-b74a-3ad865d4b20c","ios":"levelo://app?vid=87915a86-d1f9-4d5c-b74a-3ad865d4b20c"},"vehicle_type_id":"4","last_reported":1752150135,"current_range_meters":20800,"station_id":"ce4bho92rcd13ifvqh4g","pricing_plan_id":"cebpf4jnsgd1na2vs0mg"},{"bike_id":"65c6d2d7-a7dc-45ec-9f2f-fb7430e6281d","system_id":"levelo_inurba_marseille","lat":43.32385,"lon":5.36747,"is_reserved":false,"is_disabled":false,"rental_uris":{"android":"levelo://app?vid=65c6d2d7-a7dc-45ec-9f2f-fb7430e6281d","ios":"levelo://app?vid=65c6d2d7-a7dc-45ec-9f2f-fb7430e6281d"},"vehicle_type_id":"4","last_reported":1752150135,"current_range_meters":20800,"station_id":"ce4bhsh2rcd13ifvqi2g","pricing_plan_id":"cebpf4jnsgd1na2vs0mg"},{"bike_id":"7f5051af-bec0-45f2-a210-88095fee74d4","system_id":"levelo_inurba_marseille","lat":43.21753,"lon":5.34613,"is_reserved":false,"is_disabled":false,"rental_uris":{"android":"levelo://app?vid=7f5051af-bec0-45f2-a210-88095fee74d4","ios":"levelo://app?vid=7f5051af-bec0-45f2-a210-88095fee74d4"},"vehicle_type_id":"4","last_reported":1752150135,"current_range_meters":20800,"station_id":"st_cvj6r9ubvosntc0bgbag","pricing_plan_id":"cebpf4jnsgd1na2vs0mg"},{"bike_id":"37b84a38-055a-4a6e-a56a-8ff3d0c1b2ec","system_id":"levelo_inurba_marseille","lat":43.211912,"lon":5.350741,"is_reserved":false,"is_disabled":false,"rental_uris":{"android":"levelo://app?vid=37b84a38-055a-4a6e-a56a-8ff3d0c1b2ec","ios":"levelo://app?vid=37b84a38-055a-4a6e-a56a-8ff3d0c1b2ec"},"vehicle_type_id":"4","last_reported":1752150135,"current_range_meters":20800,"station_id":"st_cvj6sg6p6f1abm77japg","pricing_plan_id":"cebpf4jnsgd1na2vs0mg"},{"bike_id":"43b90c82-97e0-4fa7-8b67-2448f07d529e","system_id":"levelo_inurba_marseille","lat":43.211923,"lon":5.350664,"is_reserved":false,"is_disabled":false,"rental_uris":{"android":"levelo://app?vid=43b90c82-97e0-4fa7-8b67-2448f07d529e","ios":"levelo://app?vid=43b90c82-97e0-4fa7-8b67-2448f07d529e"},"vehicle_type_id":"4","last_reported":1752150135,"current_range_meters":21600,"station_id":"","pricing_plan_id":"cebpf4jnsgd1na2vs0mg"},{"bike_id":"bdd48c01-a05e-484f-8f93-2cadac8f4d8c","system_id":"levelo_inurba_marseille","lat":43.31476,"lon":5.37305,"is_reserved":false,"is_disabled":false,"rental_uris":{"android":"levelo://app?vid=bdd48c01-a05e-484f-8f93-2cadac8f4d8c","ios":"levelo://app?vid=bdd48c01-a05e-484f-8f93-2cadac8f4d8c"},"vehicle_type_id":"4","last_reported":1752150135,"current_range_meters":21600,"station_id":"ce4bgt12rcd13ifvqcd0","pricing_plan_id":"cebpf4jnsgd1na2vs0mg"},{"bike_id":"dbba3321-20c7-4989-a7b5-ea9ab2c4b3e8","system_id":"levelo_inurba_marseille","lat":43.261935,"lon":5.374477,"is_reserved":false,"is_disabled":false,"rental_uris":{"android":"levelo://app?vid=dbba3321-20c7-4989-a7b5-ea9ab2c4b3e8","ios":"levelo://app?vid=dbba3321-20c7-4989-a7b5-ea9ab2c4b3e8"},"vehicle_type_id":"4","last_reported":1752150135,"current_range_meters":21600,"station_id":"ce4bhgp2rcd13ifvqfc0","pricing_plan_id":"cebpf4jnsgd1na2vs0mg"},{"bike_id":"5f9facdb-d1e1-40e1-8ceb-766e4b9ac193","system_id":"levelo_inurba_marseille","lat":43.21754,"lon":5.345992,"is_reserved":false,"is_disabled":false,"rental_uris":{"android":"levelo://app?vid=5f9facdb-d1e1-40e1-8ceb-766e4b9ac193","ios":"levelo://app?vid=5f9facdb-d1e1-40e1-8ceb-766e4b9ac193"},"vehicle_type_id":"4","last_reported":1752150135,"current_range_meters":22000,"station_id":"","pricing_plan_id":"cebpf4jnsgd1na2vs0mg"},{"bike_id":"046fa2a0-9fb2-4690-9995-70f0621686d6","system_id":"levelo_inurba_marseille","lat":43.259398,"lon":5.409035,"is_reserved":false,"is_disabled":false,"rental_uris":{"android":"levelo://app?vid=046fa2a0-9fb2-4690-9995-70f0621686d6","ios":"levelo://app?vid=046fa2a0-9fb2-4690-9995-70f0621686d6"},"vehicle_type_id":"4","last_reported":1752150135,"current_range_meters":22000,"station_id":"","pricing_plan_id":"cebpf4jnsgd1na2vs0mg"},{"bike_id":"b17bd9c5-ce60-410b-b5c9-65b224ad2a2f","system_id":"levelo_inurba_marseille","lat":43.29248,"lon":5.40921,"is_reserved":false,"is_disabled":false,"rental_uris":{"android":"levelo://app?vid=b17bd9c5-ce60-410b-b5c9-65b224ad2a2f","ios":"levelo://app?vid=b17bd9c5-ce60-410b-b5c9-65b224ad2a2f"},"vehicle_type_id":"4","last_reported":1752150135,"current_range_meters":22000,"station_id":"ce4bh192rcd13ifvqdc0","pricing_plan_id":"cebpf4jnsgd1na2vs0mg"},{"bike_id":"53fbc2ae-cbe5-4875-bbf2-da4340983e1c","system_id":"levelo_inurba_marseille","lat":43.23954,"lon":5.36651,"is_reserved":false,"is_disabled":false,"rental_uris":{"android":"levelo://app?vid=53fbc2ae-cbe5-4875-bbf2-da4340983e1c","ios":"levelo://app?vid=53fbc2ae-cbe5-4875-bbf2-da4340983e1c"},"vehicle_type_id":"4","last_reported":1752150135,"current_range_meters":22000,"station_id":"ce4bhi12rcd13ifvqfp0","pricing_plan_id":"cebpf4jnsgd1na2vs0mg"},{"bike_id":"f4e25905-6419-426e-89b7-a944704d38e5","system_id":"levelo_inurba_marseille","lat":43.28261,"lon":5.35059,"is_reserved":false,"is_disabled":false,"rental_uris":{"android":"levelo://app?vid=f4e25905-6419-426e-89b7-a944704d38e5","ios":"levelo://app?vid=f4e25905-6419-426e-89b7-a944704d38e5"},"vehicle_type_id":"4","last_reported":1752150135,"current_range_meters":22400,"station_id":"ce4bhbp2rcd13ifvqerg","pricing_plan_id":"cebpf4jnsgd1na2vs0mg"},{"bike_id":"72578c54-5f2c-4fc7-b593-af0d4cce64e6","system_id":"levelo_inurba_marseille","lat":43.28263,"lon":5.35077,"is_reserved":false,"is_disabled":false,"rental_uris":{"android":"levelo://app?vid=72578c54-5f2c-4fc7-b593-af0d4cce64e6","ios":"levelo://app?vid=72578c54-5f2c-4fc7-b593-af0d4cce64e6"},"vehicle_type_id":"4","last_reported":1752150135,"current_range_meters":22400,"station_id":"ce4bhbp2rcd13ifvqerg","pricing_plan_id":"cebpf4jnsgd1na2vs0mg"},{"bike_id":"b6dcd2c1-0d76-4767-8413-3866b661d382","system_id":"levelo_inurba_marseille","lat":43.27949,"lon":5.41071,"is_reserved":false,"is_disabled":false,"rental_uris":{"android":"levelo://app?vid=b6dcd2c1-0d76-4767-8413-3866b661d382","ios":"levelo://app?vid=b6dcd2c1-0d76-4767-8413-3866b661d382"},"vehicle_type_id":"4","last_reported":1752150135,"current_range_meters":22400,"station_id":"ce4bhnp2rcd13ifvqh0g","pricing_plan_id":"cebpf4jnsgd1na2vs0mg"},{"bike_id":"953ea83f-a4ea-4034-85d4-e09bef5b921a","system_id":"levelo_inurba_marseille","lat":43.2252,"lon":5.34795,"is_reserved":false,"is_disabled":false,"rental_uris":{"android":"levelo://app?vid=953ea83f-a4ea-4034-85d4-e09bef5b921a","ios":"levelo://app?vid=953ea83f-a4ea-4034-85d4-e09bef5b921a"},"vehicle_type_id":"4","last_reported":1752150135,"current_range_meters":22400,"station_id":"st_cvj5dfep6f1abm77gieg","pricing_plan_id":"cebpf4jnsgd1na2vs0mg"},{"bike_id":"16a36d47-0375-4d77-a934-aec1162ff3e9","system_id":"levelo_inurba_marseille","lat":43.21743,"lon":5.3462,"is_reserved":false,"is_disabled":false,"rental_uris":{"android":"levelo://app?vid=16a36d47-0375-4d77-a934-aec1162ff3e9","ios":"levelo://app?vid=16a36d47-0375-4d77-a934-aec1162ff3e9"},"vehicle_type_id":"4","last_reported":1752150135,"current_range_meters":22400,"station_id":"st_cvj6r9ubvosntc0bgbag","pricing_plan_id":"cebpf4jnsgd1na2vs0mg"},{"bike_id":"b55035f6-2221-4dbc-b6a6-08687fadf80b","system_id":"levelo_inurba_marseille","lat":43.30304,"lon":5.39199,"is_reserved":false,"is_disabled":false,"rental_uris":{"android":"levelo://app?vid=b55035f6-2221-4dbc-b6a6-08687fadf80b","ios":"levelo://app?vid=b55035f6-2221-4dbc-b6a6-08687fadf80b"},"vehicle_type_id":"4","last_reported":1752150135,"current_range_meters":22800,"station_id":"ce4bgkh2rcd13ifvqbk0","pricing_plan_id":"cebpf4jnsgd1na2vs0mg"},{"bike_id":"b42d7c38-1c82-4226-bfd8-fc44d3a3ea22","system_id":"levelo_inurba_marseille","lat":43.31176,"lon":5.36835,"is_reserved":false,"is_disabled":false,"rental_uris":{"android":"levelo://app?vid=b42d7c38-1c82-4226-bfd8-fc44d3a3ea22","ios":"levelo://app?vid=b42d7c38-1c82-4226-bfd8-fc44d3a3ea22"},"vehicle_type_id":"4","last_reported":1752150135,"current_range_meters":22800,"station_id":"ce4bgl92rcd13ifvqbq0","pricing_plan_id":"cebpf4jnsgd1na2vs0mg"},{"bike_id":"051f5ac8-c4b4-4c1c-9fb4-56cb35d2c3fa","system_id":"levelo_inurba_marseille","lat":43.30915,"lon":5.36859,"is_reserved":false,"is_disabled":false,"rental_uris":{"android":"levelo://app?vid=051f5ac8-c4b4-4c1c-9fb4-56cb35d2c3fa","ios":"levelo://app?vid=051f5ac8-c4b4-4c1c-9fb4-56cb35d2c3fa"},"vehicle_type_id":"4","last_reported":1752150135,"current_range_meters":22800,"station_id":"ce4bgn92rcd13ifvqbvg","pricing_plan_id":"cebpf4jnsgd1na2vs0mg"},{"bike_id":"23b37642-b108-4776-9368-34aa0142bdf9","system_id":"levelo_inurba_marseille","lat":43.29852,"lon":5.36287,"is_reserved":false,"is_disabled":false,"rental_uris":{"android":"levelo://app?vid=23b37642-b108-4776-9368-34aa0142bdf9","ios":"levelo://app?vid=23b37642-b108-4776-9368-34aa0142bdf9"},"vehicle_type_id":"4","last_reported":1752150135,"current_range_meters":23200,"station_id":"ce4bgpp2rcd13ifvqc3g","pricing_plan_id":"cebpf4jnsgd1na2vs0mg"},{"bike_id":"1b3c3c53-159b-4e6d-83ae-13bfaee68acb","system_id":"levelo_inurba_marseille","lat":43.313572,"lon":5.384906,"is_reserved":false,"is_disabled":false,"rental_uris":{"android":"levelo://app?vid=1b3c3c53-159b-4e6d-83ae-13bfaee68acb","ios":"levelo://app?vid=1b3c3c53-159b-4e6d-83ae-13bfaee68acb"},"vehicle_type_id":"4","last_reported":1752150135,"current_range_meters":23200,"station_id":"ce4bgt92rcd13ifvqcf0","pricing_plan_id":"cebpf4jnsgd1na2vs0mg"},{"bike_id":"4abfc8e9-c8c3-4290-ab8f-c782dd501b95","system_id":"levelo_inurba_marseille","lat":43.316901,"lon":5.404709,"is_reserved":false,"is_disabled":false,"rental_uris":{"android":"levelo://app?vid=4abfc8e9-c8c3-4290-ab8f-c782dd501b95","ios":"levelo://app?vid=4abfc8e9-c8c3-4290-ab8f-c782dd501b95"},"vehicle_type_id":"4","last_reported":1752150135,"current_range_meters":23200,"station_id":"ce4bh012rcd13ifvqd00","pricing_plan_id":"cebpf4jnsgd1na2vs0mg"},{"bike_id":"9e574c0f-01e3-425d-93dd-3b214ef9ceb2","system_id":"levelo_inurba_marseille","lat":43.31272,"lon":5.4017,"is_reserved":false,"is_disabled":false,"rental_uris":{"android":"levelo://app?vid=9e574c0f-01e3-425d-93dd-3b214ef9ceb2","ios":"levelo://app?vid=9e574c0f-01e3-425d-93dd-3b214ef9ceb2"},"vehicle_type_id":"4","last_reported":1752150135,"current_range_meters":23200,"station_id":"ce4bh092rcd13ifvqd30","pricing_plan_id":"cebpf4jnsgd1na2vs0mg"},{"bike_id":"14adb9e6-3d90-40ef-aca3-0c283a2873bc","system_id":"levelo_inurba_marseille","lat":43.28405,"lon":5.34999,"is_reserved":false,"is_disabled":false,"rental_uris":{"android":"levelo://app?vid=14adb9e6-3d90-40ef-aca3-0c283a2873bc","ios":"levelo://app?vid=14adb9e6-3d90-40ef-aca3-0c283a2873bc"},"vehicle_type_id":"4","last_reported":1752150135,"current_range_meters":23200,"station_id":"ce4bhbh2rcd13ifvqepg","pricing_plan_id":"cebpf4jnsgd1na2vs0mg"},{"bike_id":"63eb0946-3a7f-48f5-9ce5-04ee0abbe304","system_id":"levelo_inurba_marseille","lat":43.28451,"lon":5.35007,"is_reserved":false,"is_disabled":false,"rental_uris":{"android":"levelo://app?vid=63eb0946-3a7f-48f5-9ce5-04ee0abbe304","ios":"levelo://app?vid=63eb0946-3a7f-48f5-9ce5-04ee0abbe304"},"vehicle_type_id":"4","last_reported":1752150135,"current_range_meters":23200,"station_id":"ce4bhbh2rcd13ifvqepg","pricing_plan_id":"cebpf4jnsgd1na2vs0mg"},{"bike_id":"66bc7345-0db7-4114-9922-2d5a323088b8","system_id":"levelo_inurba_marseille","lat":43.28263,"lon":5.35078,"is_reserved":false,"is_disabled":false,"rental_uris":{"android":"levelo://app?vid=66bc7345-0db7-4114-9922-2d5a323088b8","ios":"levelo://app?vid=66bc7345-0db7-4114-9922-2d5a323088b8"},"vehicle_type_id":"4","last_reported":1752150135,"current_range_meters":23200,"station_id":"ce4bhbp2rcd13ifvqerg","pricing_plan_id":"cebpf4jnsgd1na2vs0mg"},{"bike_id":"3a01fc12-271c-4342-b912-67007af6cc96","system_id":"levelo_inurba_marseille","lat":43.26214,"lon":5.37454,"is_reserved":false,"is_disabled":false,"rental_uris":{"android":"levelo://app?vid=3a01fc12-271c-4342-b912-67007af6cc96","ios":"levelo://app?vid=3a01fc12-271c-4342-b912-67007af6cc96"},"vehicle_type_id":"4","last_reported":1752150135,"current_range_meters":23200,"station_id":"ce4bhgp2rcd13ifvqfc0","pricing_plan_id":"cebpf4jnsgd1na2vs0mg"},{"bike_id":"868c87ad-0c8c-465e-88e5-d2d9257fa711","system_id":"levelo_inurba_marseille","lat":43.27051,"lon":5.40265,"is_reserved":false,"is_disabled":false,"rental_uris":{"android":"levelo://app?vid=868c87ad-0c8c-465e-88e5-d2d9257fa711","ios":"levelo://app?vid=868c87ad-0c8c-465e-88e5-d2d9257fa711"},"vehicle_type_id":"4","last_reported":1752150135,"current_range_meters":23200,"station_id":"ce4bhk92rcd13ifvqgc0","pricing_plan_id":"cebpf4jnsgd1na2vs0mg"},{"bike_id":"8d635064-fd1a-4388-aa0f-e40a6a6c8bc5","system_id":"levelo_inurba_marseille","lat":43.25739,"lon":5.41145,"is_reserved":false,"is_disabled":false,"rental_uris":{"android":"levelo://app?vid=8d635064-fd1a-4388-aa0f-e40a6a6c8bc5","ios":"levelo://app?vid=8d635064-fd1a-4388-aa0f-e40a6a6c8bc5"},"vehicle_type_id":"4","last_reported":1752150135,"current_range_meters":23200,"station_id":"ce4bhkp2rcd13ifvqgd0","pricing_plan_id":"cebpf4jnsgd1na2vs0mg"},{"bike_id":"452e8211-4f44-45d0-814a-3e9e25b8c44e","system_id":"levelo_inurba_marseille","lat":43.211936,"lon":5.350743,"is_reserved":false,"is_disabled":false,"rental_uris":{"android":"levelo://app?vid=452e8211-4f44-45d0-814a-3e9e25b8c44e","ios":"levelo://app?vid=452e8211-4f44-45d0-814a-3e9e25b8c44e"},"vehicle_type_id":"4","last_reported":1752150135,"current_range_meters":23200,"station_id":"st_cvj6sg6p6f1abm77japg","pricing_plan_id":"cebpf4jnsgd1na2vs0mg"},{"bike_id":"e86ba8c9-208d-482c-a826-4c100938472a","system_id":"levelo_inurba_marseille","lat":43.21186,"lon":5.35077,"is_reserved":false,"is_disabled":false,"rental_uris":{"android":"levelo://app?vid=e86ba8c9-208d-482c-a826-4c100938472a","ios":"levelo://app?vid=e86ba8c9-208d-482c-a826-4c100938472a"},"vehicle_type_id":"4","last_reported":1752150135,"current_range_meters":23200,"station_id":"st_cvj6sg6p6f1abm77japg","pricing_plan_id":"cebpf4jnsgd1na2vs0mg"},{"bike_id":"5fae4696-4745-4bfd-b3fa-9c8f72e406b8","system_id":"levelo_inurba_marseille","lat":43.21788,"lon":5.34601,"is_reserved":false,"is_disabled":false,"rental_uris":{"android":"levelo://app?vid=5fae4696-4745-4bfd-b3fa-9c8f72e406b8","ios":"levelo://app?vid=5fae4696-4745-4bfd-b3fa-9c8f72e406b8"},"vehicle_type_id":"4","last_reported":1752150135,"current_range_meters":24000,"station_id":"","pricing_plan_id":"cebpf4jnsgd1na2vs0mg"},{"bike_id":"5b15f862-f7f9-414e-8280-b3db016630b7","system_id":"levelo_inurba_marseille","lat":43.31112,"lon":5.3777,"is_reserved":false,"is_disabled":false,"rental_uris":{"android":"levelo://app?vid=5b15f862-f7f9-414e-8280-b3db016630b7","ios":"levelo://app?vid=5b15f862-f7f9-414e-8280-b3db016630b7"},"vehicle_type_id":"4","last_reported":1752150135,"current_range_meters":24000,"station_id":"ce4bgt92rcd13ifvqcg0","pricing_plan_id":"cebpf4jnsgd1na2vs0mg"},{"bike_id":"3326f179-1579-47fc-9aeb-f0fe1dc79c4d","system_id":"levelo_inurba_marseille","lat":43.284124,"lon":5.349867,"is_reserved":false,"is_disabled":false,"rental_uris":{"android":"levelo://app?vid=3326f179-1579-47fc-9aeb-f0fe1dc79c4d","ios":"levelo://app?vid=3326f179-1579-47fc-9aeb-f0fe1dc79c4d"},"vehicle_type_id":"4","last_reported":1752150135,"current_range_meters":24000,"station_id":"ce4bhbh2rcd13ifvqepg","pricing_plan_id":"cebpf4jnsgd1na2vs0mg"},{"bike_id":"d7e5211e-28f9-408b-91b9-e4d6623ba69a","system_id":"levelo_inurba_marseille","lat":43.27906,"lon":5.3958,"is_reserved":false,"is_disabled":false,"rental_uris":{"android":"levelo://app?vid=d7e5211e-28f9-408b-91b9-e4d6623ba69a","ios":"levelo://app?vid=d7e5211e-28f9-408b-91b9-e4d6623ba69a"},"vehicle_type_id":"4","last_reported":1752150135,"current_range_meters":24000,"station_id":"ce4bhf92rcd13ifvqf40","pricing_plan_id":"cebpf4jnsgd1na2vs0mg"},{"bike_id":"93e9eaf4-08f8-40b1-9dd8-48d8e605730d","system_id":"levelo_inurba_marseille","lat":43.23138,"lon":5.43711,"is_reserved":false,"is_disabled":false,"rental_uris":{"android":"levelo://app?vid=93e9eaf4-08f8-40b1-9dd8-48d8e605730d","ios":"levelo://app?vid=93e9eaf4-08f8-40b1-9dd8-48d8e605730d"},"vehicle_type_id":"4","last_reported":1752150135,"current_range_meters":24000,"station_id":"ce4bhmp2rcd13ifvqgog","pricing_plan_id":"cebpf4jnsgd1na2vs0mg"},{"bike_id":"c75bb91e-aa5a-49c1-b731-6d424b0690e7","system_id":"levelo_inurba_marseille","lat":43.32385,"lon":5.36755,"is_reserved":false,"is_disabled":false,"rental_uris":{"android":"levelo://app?vid=c75bb91e-aa5a-49c1-b731-6d424b0690e7","ios":"levelo://app?vid=c75bb91e-aa5a-49c1-b731-6d424b0690e7"},"vehicle_type_id":"4","last_reported":1752150135,"current_range_meters":24000,"station_id":"ce4bhsh2rcd13ifvqi2g","pricing_plan_id":"cebpf4jnsgd1na2vs0mg"},{"bike_id":"332c530f-0402-4fb0-ab1c-577087e02459","system_id":"levelo_inurba_marseille","lat":43.28415,"lon":5.34977,"is_reserved":false,"is_disabled":false,"rental_uris":{"android":"levelo://app?vid=332c530f-0402-4fb0-ab1c-577087e02459","ios":"levelo://app?vid=332c530f-0402-4fb0-ab1c-577087e02459"},"vehicle_type_id":"4","last_reported":1752150135,"current_range_meters":24400,"station_id":"ce4bhbh2rcd13ifvqepg","pricing_plan_id":"cebpf4jnsgd1na2vs0mg"},{"bike_id":"095841ff-4539-44ba-b632-1281556d709d","system_id":"levelo_inurba_marseille","lat":43.243904,"lon":5.370697,"is_reserved":false,"is_disabled":false,"rental_uris":{"android":"levelo://app?vid=095841ff-4539-44ba-b632-1281556d709d","ios":"levelo://app?vid=095841ff-4539-44ba-b632-1281556d709d"},"vehicle_type_id":"4","last_reported":1752150135,"current_range_meters":24400,"station_id":"ce4bhhh2rcd13ifvqfk0","pricing_plan_id":"cebpf4jnsgd1na2vs0mg"},{"bike_id":"ebcf2222-4d2c-434f-b87e-306d18ad75ce","system_id":"levelo_inurba_marseille","lat":43.27812,"lon":5.4072,"is_reserved":false,"is_disabled":false,"rental_uris":{"android":"levelo://app?vid=ebcf2222-4d2c-434f-b87e-306d18ad75ce","ios":"levelo://app?vid=ebcf2222-4d2c-434f-b87e-306d18ad75ce"},"vehicle_type_id":"4","last_reported":1752150135,"current_range_meters":24400,"station_id":"ce4bhnh2rcd13ifvqgtg","pricing_plan_id":"cebpf4jnsgd1na2vs0mg"},{"bike_id":"881ac15c-e324-4bf4-9569-ad048d9e8a7c","system_id":"levelo_inurba_marseille","lat":43.29898,"lon":5.43648,"is_reserved":false,"is_disabled":false,"rental_uris":{"android":"levelo://app?vid=881ac15c-e324-4bf4-9569-ad048d9e8a7c","ios":"levelo://app?vid=881ac15c-e324-4bf4-9569-ad048d9e8a7c"},"vehicle_type_id":"4","last_reported":1752150135,"current_range_meters":24400,"station_id":"ce4bhpp2rcd13ifvqhfg","pricing_plan_id":"cebpf4jnsgd1na2vs0mg"},{"bike_id":"e9879c5b-367d-4fa3-a84e-3504f358bfe8","system_id":"levelo_inurba_marseille","lat":43.29959,"lon":5.38502,"is_reserved":false,"is_disabled":false,"rental_uris":{"android":"levelo://app?vid=e9879c5b-367d-4fa3-a84e-3504f358bfe8","ios":"levelo://app?vid=e9879c5b-367d-4fa3-a84e-3504f358bfe8"},"vehicle_type_id":"4","last_reported":1752150135,"current_range_meters":24800,"station_id":"ce4bgj92rcd13ifvqbd0","pricing_plan_id":"cebpf4jnsgd1na2vs0mg"},{"bike_id":"1e4020c1-9844-4866-8f97-0a9ae6092c48","system_id":"levelo_inurba_marseille","lat":43.29683,"lon":5.36627,"is_reserved":false,"is_disabled":false,"rental_uris":{"android":"levelo://app?vid=1e4020c1-9844-4866-8f97-0a9ae6092c48","ios":"levelo://app?vid=1e4020c1-9844-4866-8f97-0a9ae6092c48"},"vehicle_type_id":"4","last_reported":1752150135,"current_range_meters":24800,"station_id":"ce4bgn12rcd13ifvqbt0","pricing_plan_id":"cebpf4jnsgd1na2vs0mg"},{"bike_id":"27099437-2051-4849-81d9-e38bc55fe2d9","system_id":"levelo_inurba_marseille","lat":43.30894,"lon":5.37191,"is_reserved":false,"is_disabled":false,"rental_uris":{"android":"levelo://app?vid=27099437-2051-4849-81d9-e38bc55fe2d9","ios":"levelo://app?vid=27099437-2051-4849-81d9-e38bc55fe2d9"},"vehicle_type_id":"4","last_reported":1752150135,"current_range_meters":24800,"station_id":"ce4bguh2rcd13ifvqckg","pricing_plan_id":"cebpf4jnsgd1na2vs0mg"},{"bike_id":"867a9817-5116-47a6-b19a-880999c12e76","system_id":"levelo_inurba_marseille","lat":43.2841,"lon":5.35025,"is_reserved":false,"is_disabled":false,"rental_uris":{"android":"levelo://app?vid=867a9817-5116-47a6-b19a-880999c12e76","ios":"levelo://app?vid=867a9817-5116-47a6-b19a-880999c12e76"},"vehicle_type_id":"4","last_reported":1752150135,"current_range_meters":24800,"station_id":"ce4bhbh2rcd13ifvqepg","pricing_plan_id":"cebpf4jnsgd1na2vs0mg"},{"bike_id":"4cd52933-ae7b-496e-9696-768f295f55d7","system_id":"levelo_inurba_marseille","lat":43.2927,"lon":5.36808,"is_reserved":false,"is_disabled":false,"rental_uris":{"android":"levelo://app?vid=4cd52933-ae7b-496e-9696-768f295f55d7","ios":"levelo://app?vid=4cd52933-ae7b-496e-9696-768f295f55d7"},"vehicle_type_id":"4","last_reported":1752150135,"current_range_meters":24800,"station_id":"ce4bhbp2rcd13ifvqesg","pricing_plan_id":"cebpf4jnsgd1na2vs0mg"},{"bike_id":"565a77ec-a9eb-4b33-badd-05037558505e","system_id":"levelo_inurba_marseille","lat":43.24386,"lon":5.37053,"is_reserved":false,"is_disabled":false,"rental_uris":{"android":"levelo://app?vid=565a77ec-a9eb-4b33-badd-05037558505e","ios":"levelo://app?vid=565a77ec-a9eb-4b33-badd-05037558505e"},"vehicle_type_id":"4","last_reported":1752150135,"current_range_meters":24800,"station_id":"ce4bhhh2rcd13ifvqfk0","pricing_plan_id":"cebpf4jnsgd1na2vs0mg"},{"bike_id":"54e396f9-9d94-4b8f-95e4-893836693cd7","system_id":"levelo_inurba_marseille","lat":43.279964,"lon":5.416559,"is_reserved":false,"is_disabled":false,"rental_uris":{"android":"levelo://app?vid=54e396f9-9d94-4b8f-95e4-893836693cd7","ios":"levelo://app?vid=54e396f9-9d94-4b8f-95e4-893836693cd7"},"vehicle_type_id":"4","last_reported":1752150135,"current_range_meters":24800,"station_id":"ce4bho12rcd13ifvqh1g","pricing_plan_id":"cebpf4jnsgd1na2vs0mg"},{"bike_id":"aaece19a-ff6a-41aa-83b1-5e8423392065","system_id":"levelo_inurba_marseille","lat":43.28445,"lon":5.39204,"is_reserved":false,"is_disabled":false,"rental_uris":{"android":"levelo://app?vid=aaece19a-ff6a-41aa-83b1-5e8423392065","ios":"levelo://app?vid=aaece19a-ff6a-41aa-83b1-5e8423392065"},"vehicle_type_id":"4","last_reported":1752150135,"current_range_meters":24800,"station_id":"ce4bhoh2rcd13ifvqh5g","pricing_plan_id":"cebpf4jnsgd1na2vs0mg"},{"bike_id":"31ce0b4b-4d33-45a7-90c6-c2f0815bf01c","system_id":"levelo_inurba_marseille","lat":43.32284,"lon":5.38293,"is_reserved":false,"is_disabled":false,"rental_uris":{"android":"levelo://app?vid=31ce0b4b-4d33-45a7-90c6-c2f0815bf01c","ios":"levelo://app?vid=31ce0b4b-4d33-45a7-90c6-c2f0815bf01c"},"vehicle_type_id":"4","last_reported":1752150135,"current_range_meters":24800,"station_id":"ce4bhr12rcd13ifvqhqg","pricing_plan_id":"cebpf4jnsgd1na2vs0mg"},{"bike_id":"00bc0b3b-e317-4a17-a011-a3a9a29d816a","system_id":"levelo_inurba_marseille","lat":43.212,"lon":5.35066,"is_reserved":false,"is_disabled":false,"rental_uris":{"android":"levelo://app?vid=00bc0b3b-e317-4a17-a011-a3a9a29d816a","ios":"levelo://app?vid=00bc0b3b-e317-4a17-a011-a3a9a29d816a"},"vehicle_type_id":"4","last_reported":1752150135,"current_range_meters":24800,"station_id":"st_cvj6sg6p6f1abm77japg","pricing_plan_id":"cebpf4jnsgd1na2vs0mg"},{"bike_id":"57bd238c-4e6a-448e-a652-c90f14edd2a1","system_id":"levelo_inurba_marseille","lat":43.2286,"lon":5.3498,"is_reserved":false,"is_disabled":false,"rental_uris":{"android":"levelo://app?vid=57bd238c-4e6a-448e-a652-c90f14edd2a1","ios":"levelo://app?vid=57bd238c-4e6a-448e-a652-c90f14edd2a1"},"vehicle_type_id":"4","last_reported":1752150135,"current_range_meters":25200,"station_id":"","pricing_plan_id":"cebpf4jnsgd1na2vs0mg"},{"bike_id":"d799b321-3a7d-4201-b46e-ffe2ad124f19","system_id":"levelo_inurba_marseille","lat":43.32876,"lon":5.38396,"is_reserved":false,"is_disabled":false,"rental_uris":{"android":"levelo://app?vid=d799b321-3a7d-4201-b46e-ffe2ad124f19","ios":"levelo://app?vid=d799b321-3a7d-4201-b46e-ffe2ad124f19"},"vehicle_type_id":"4","last_reported":1752150135,"current_range_meters":25200,"station_id":"","pricing_plan_id":"cebpf4jnsgd1na2vs0mg"},{"bike_id":"a56b2ab8-e0e6-48ff-8426-884543ceb9bd","system_id":"levelo_inurba_marseille","lat":43.27379,"lon":5.36279,"is_reserved":false,"is_disabled":false,"rental_uris":{"android":"levelo://app?vid=a56b2ab8-e0e6-48ff-8426-884543ceb9bd","ios":"levelo://app?vid=a56b2ab8-e0e6-48ff-8426-884543ceb9bd"},"vehicle_type_id":"4","last_reported":1752150135,"current_range_meters":25200,"station_id":"ce4bhbh2rcd13ifvqeo0","pricing_plan_id":"cebpf4jnsgd1na2vs0mg"},{"bike_id":"88418057-0fca-4169-851a-6ade9b06f4ce","system_id":"levelo_inurba_marseille","lat":43.28421,"lon":5.3499,"is_reserved":false,"is_disabled":false,"rental_uris":{"android":"levelo://app?vid=88418057-0fca-4169-851a-6ade9b06f4ce","ios":"levelo://app?vid=88418057-0fca-4169-851a-6ade9b06f4ce"},"vehicle_type_id":"4","last_reported":1752150135,"current_range_meters":25200,"station_id":"ce4bhbh2rcd13ifvqepg","pricing_plan_id":"cebpf4jnsgd1na2vs0mg"},{"bike_id":"8d58d7f6-0ec5-43d2-9092-b56ea57b8741","system_id":"levelo_inurba_marseille","lat":43.28432,"lon":5.35011,"is_reserved":false,"is_disabled":false,"rental_uris":{"android":"levelo://app?vid=8d58d7f6-0ec5-43d2-9092-b56ea57b8741","ios":"levelo://app?vid=8d58d7f6-0ec5-43d2-9092-b56ea57b8741"},"vehicle_type_id":"4","last_reported":1752150135,"current_range_meters":25200,"station_id":"ce4bhbh2rcd13ifvqepg","pricing_plan_id":"cebpf4jnsgd1na2vs0mg"},{"bike_id":"39438dbc-87f6-42fd-8e4b-472a9231b8ee","system_id":"levelo_inurba_marseille","lat":43.2621,"lon":5.3744,"is_reserved":false,"is_disabled":false,"rental_uris":{"android":"levelo://app?vid=39438dbc-87f6-42fd-8e4b-472a9231b8ee","ios":"levelo://app?vid=39438dbc-87f6-42fd-8e4b-472a9231b8ee"},"vehicle_type_id":"4","last_reported":1752150135,"current_range_meters":25200,"station_id":"ce4bhgp2rcd13ifvqfc0","pricing_plan_id":"cebpf4jnsgd1na2vs0mg"},{"bike_id":"d6e3b8f6-5054-4863-aaea-d9904dd97e83","system_id":"levelo_inurba_marseille","lat":43.26492,"lon":5.3954,"is_reserved":false,"is_disabled":false,"rental_uris":{"android":"levelo://app?vid=d6e3b8f6-5054-4863-aaea-d9904dd97e83","ios":"levelo://app?vid=d6e3b8f6-5054-4863-aaea-d9904dd97e83"},