{"last_updated":1728980002,"ttl":60,"version":"2.2","data":{"bikes":[{"bike_id":"0f17ba94-61a5-416d-97f8-423171077f45","system_id":"levelo_inurba_marseille","lat":43.30699,"lon":5.38202,"is_reserved":false,"is_disabled":false,"rental_uris":{"android":"levelo://app?vid=0f17ba94-61a5-416d-97f8-423171077f45","ios":"levelo://app?vid=0f17ba94-61a5-416d-97f8-423171077f45"},"vehicle_type_id":"4","last_reported":1728980002,"current_range_meters":36000,"station_id":"","pricing_plan_id":"cebpf4jnsgd1na2vs0mg"},{"bike_id":"67ca123a-9ec0-456f-926a-887b730e6918","system_id":"levelo_inurba_marseille","lat":43.2582,"lon":5.39436,"is_reserved":false,"is_disabled":false,"rental_uris":{"android":"levelo://app?vid=67ca123a-9ec0-456f-926a-887b730e6918","ios":"levelo://app?vid=67ca123a-9ec0-456f-926a-887b730e6918"},"vehicle_type_id":"4","last_reported":1728980002,"current_range_meters":10800,"station_id":"ce4bhip2rcd13ifvqft0","pricing_plan_id":"cebpf4jnsgd1na2vs0mg"},{"bike_id":"4d2d3838-3e01-49b8-87f8-3557b2c4b106","system_id":"levelo_inurba_marseille","lat":43.31368,"lon":5.36699,"is_reserved":false,"is_disabled":false,"rental_uris":{"android":"levelo://app?vid=4d2d3838-3e01-49b8-87f8-3557b2c4b106","ios":"levelo://app?vid=4d2d3838-3e01-49b8-87f8-3557b2c4b106"},"vehicle_type_id":"4","last_reported":1728980002,"current_range_meters":28400,"station_id":"ce4bgr92rcd13ifvqc6g","pricing_plan_id":"cebpf4jnsgd1na2vs0mg"},{"bike_id":"ac788206-ab8f-4ef0-a827-047740674c33","system_id":"levelo_inurba_marseille","lat":43.29525,"lon":5.37435,"is_reserved":false,"is_disabled":false,"rental_uris":{"android":"levelo://app?vid=ac788206-ab8f-4ef0-a827-047740674c33","ios":"levelo://app?vid=ac788206-ab8f-4ef0-a827-047740674c33"},"vehicle_type_id":"4","last_reported":1728980002,"current_range_meters":21600,"station_id":"","pricing_plan_id":"cebpf4jnsgd1na2vs0mg"},{"bike_id":"3f231685-3ca7-4aff-9bf1-413aef655857","system_id":"levelo_inurba_marseille","lat":43.29849,"lon":5.36284,"is_reserved":false,"is_disabled":false,"rental_uris":{"android":"levelo://app?vid=3f231685-3ca7-4aff-9bf1-413aef655857","ios":"levelo://app?vid=3f231685-3ca7-4aff-9bf1-413aef655857"},"vehicle_type_id":"4","last_reported":1728980002,"current_range_meters":32000,"station_id":"ce4bgpp2rcd13ifvqc3g","pricing_plan_id":"cebpf4jnsgd1na2vs0mg"},{"bike_id":"e5794ca0-f043-404e-8002-508d5980b6e9","system_id":"levelo_inurba_marseille","lat":43.29916,"lon":5.37477,"is_reserved":false,"is_disabled":false,"rental_uris":{"android":"levelo://app?vid=e5794ca0-f043-404e-8002-508d5980b6e9","ios":"levelo://app?vid=e5794ca0-f043-404e-8002-508d5980b6e9"},"vehicle_type_id":"4","last_reported":1728980002,"current_range_meters":20000,"station_id":"ce4bgjh2rcd13ifvqbg0","pricing_plan_id":"cebpf4jnsgd1na2vs0mg"},{"bike_id":"afe9826b-dc68-4fc8-adf6-6c52ed37f8ef","system_id":"levelo_inurba_marseille","lat":43.31233,"lon":5.36868,"is_reserved":false,"is_disabled":false,"rental_uris":{"android":"levelo://app?vid=afe9826b-dc68-4fc8-adf6-6c52ed37f8ef","ios":"levelo://app?vid=afe9826b-dc68-4fc8-adf6-6c52ed37f8ef"},"vehicle_type_id":"4","last_reported":1728980002,"current_range_meters":30800,"station_id":"ce4bgl92rcd13ifvqbq0","pricing_plan_id":"cebpf4jnsgd1na2vs0mg"},{"bike_id":"c1a2b1b3-704f-4794-a868-a41f7821ea78","system_id":"levelo_inurba_marseille","lat":43.29726,"lon":5.366,"is_reserved":false,"is_disabled":false,"rental_uris":{"android":"levelo://app?vid=c1a2b1b3-704f-4794-a868-a41f7821ea78","ios":"levelo://app?vid=c1a2b1b3-704f-4794-a868-a41f7821ea78"},"vehicle_type_id":"4","last_reported":1728980002,"current_range_meters":12400,"station_id":"ce4bgn12rcd13ifvqbt0","pricing_plan_id":"cebpf4jnsgd1na2vs0mg"},{"bike_id":"43ac3172-8da3-4723-81be-0dac7024c470","system_id":"levelo_inurba_marseille","lat":43.31354,"lon":5.36712,"is_reserved":false,"is_disabled":false,"rental_uris":{"android":"levelo://app?vid=43ac3172-8da3-4723-81be-0dac7024c470","ios":"levelo://app?vid=43ac3172-8da3-4723-81be-0dac7024c470"},"vehicle_type_id":"4","last_reported":1728980002,"current_range_meters":27200,"station_id":"","pricing_plan_id":"cebpf4jnsgd1na2vs0mg"},{"bike_id":"62bde370-d1b4-4ee8-957e-073317cb0de4","system_id":"levelo_inurba_marseille","lat":43.30599,"lon":5.37213,"is_reserved":false,"is_disabled":false,"rental_uris":{"android":"levelo://app?vid=62bde370-d1b4-4ee8-957e-073317cb0de4","ios":"levelo://app?vid=62bde370-d1b4-4ee8-957e-073317cb0de4"},"vehicle_type_id":"4","last_reported":1728980002,"current_range_meters":22000,"station_id":"ce4bgqh2rcd13ifvqc4g","pricing_plan_id":"cebpf4jnsgd1na2vs0mg"},{"bike_id":"a7c802af-e898-4dc8-a916-ee78713afb94","system_id":"levelo_inurba_marseille","lat":43.31353,"lon":5.36709,"is_reserved":false,"is_disabled":false,"rental_uris":{"android":"levelo://app?vid=a7c802af-e898-4dc8-a916-ee78713afb94","ios":"levelo://app?vid=a7c802af-e898-4dc8-a916-ee78713afb94"},"vehicle_type_id":"4","last_reported":1728980002,"current_range_meters":16000,"station_id":"ce4bgr92rcd13ifvqc6g","pricing_plan_id":"cebpf4jnsgd1na2vs0mg"},{"bike_id":"8c7deb46-f176-4d0a-b376-76a5086ae99e","system_id":"levelo_inurba_marseille","lat":43.29026,"lon":5.38654,"is_reserved":false,"is_disabled":false,"rental_uris":{"android":"levelo://app?vid=8c7deb46-f176-4d0a-b376-76a5086ae99e","ios":"levelo://app?vid=8c7deb46-f176-4d0a-b376-76a5086ae99e"},"vehicle_type_id":"4","last_reported":1728980002,"current_range_meters":29600,"station_id":"ce4bh4p2rcd13ifvqe0g","pricing_plan_id":"cebpf4jnsgd1na2vs0mg"},{"bike_id":"5567fe4a-df4a-4b57-9000-06ac3d6bd58f","system_id":"levelo_inurba_marseille","lat":43.29027,"lon":5.38649,"is_reserved":false,"is_disabled":false,"rental_uris":{"android":"levelo://app?vid=5567fe4a-df4a-4b57-9000-06ac3d6bd58f","ios":"levelo://app?vid=5567fe4a-df4a-4b57-9000-06ac3d6bd58f"},"vehicle_type_id":"4","last_reported":1728980002,"current_range_meters":9600,"station_id":"ce4bh4p2rcd13ifvqe0g","pricing_plan_id":"cebpf4jnsgd1na2vs0mg"},{"bike_id":"4dc8c72a-7777-4587-8f29-bfbecc307684","system_id":"levelo_inurba_marseille","lat":43.25822,"lon":5.39438,"is_reserved":false,"is_disabled":false,"rental_uris":{"android":"levelo://app?vid=4dc8c72a-7777-4587-8f29-bfbecc307684","ios":"levelo://app?vid=4dc8c72a-7777-4587-8f29-bfbecc307684"},"vehicle_type_id":"4","last_reported":1728980002,"current_range_meters":26800,"station_id":"ce4bhip2rcd13ifvqft0","pricing_plan_id":"cebpf4jnsgd1na2vs0mg"},{"bike_id":"956786f7-1a48-4348-be91-5b24b06ea952","system_id":"levelo_inurba_marseille","lat":43.306,"lon":5.37219,"is_reserved":false,"is_disabled":false,"rental_uris":{"android":"levelo://app?vid=956786f7-1a48-4348-be91-5b24b06ea952","ios":"levelo://app?vid=956786f7-1a48-4348-be91-5b24b06ea952"},"vehicle_type_id":"4","last_reported":1728980002,"current_range_meters":30400,"station_id":"ce4bgqh2rcd13ifvqc4g","pricing_plan_id":"cebpf4jnsgd1na2vs0mg"},{"bike_id":"1d1a5305-93eb-48bd-aca5-91c26433821c","system_id":"levelo_inurba_marseille","lat":43.30544,"lon":5.36533,"is_reserved":false,"is_disabled":false,"rental_uris":{"android":"levelo://app?vid=1d1a5305-93eb-48bd-aca5-91c26433821c","ios":"levelo://app?vid=1d1a5305-93eb-48bd-aca5-91c26433821c"},"vehicle_type_id":"4","last_reported":1728980002,"current_range_meters":35600,"station_id":"ce4bgs12rcd13ifvqcag","pricing_plan_id":"cebpf4jnsgd1na2vs0mg"},{"bike_id":"1aab628b-6467-4722-8afc-f5f60198bb91","system_id":"levelo_inurba_marseille","lat":43.30549,"lon":5.36529,"is_reserved":false,"is_disabled":false,"rental_uris":{"android":"levelo://app?vid=1aab628b-6467-4722-8afc-f5f60198bb91","ios":"levelo://app?vid=1aab628b-6467-4722-8afc-f5f60198bb91"},"vehicle_type_id":"4","last_reported":1728980002,"current_range_meters":36400,"station_id":"ce4bgs12rcd13ifvqcag","pricing_plan_id":"cebpf4jnsgd1na2vs0mg"},{"bike_id":"329cb0c8-5abe-4f28-8e86-f2f15be47b47","system_id":"levelo_inurba_marseille","lat":43.28158,"lon":5.42647,"is_reserved":false,"is_disabled":false,"rental_uris":{"android":"levelo://app?vid=329cb0c8-5abe-4f28-8e86-f2f15be47b47","ios":"levelo://app?vid=329cb0c8-5abe-4f28-8e86-f2f15be47b47"},"vehicle_type_id":"4","last_reported":1728980002,"current_range_meters":22800,"station_id":"ce4bhnh2rcd13ifvqgug","pricing_plan_id":"cebpf4jnsgd1na2vs0mg"},{"bike_id":"770b4181-5ae9-4e74-aecc-59e1c212b00e","system_id":"levelo_inurba_marseille","lat":43.29845,"lon":5.36277,"is_reserved":false,"is_disabled":false,"rental_uris":{"android":"levelo://app?vid=770b4181-5ae9-4e74-aecc-59e1c212b00e","ios":"levelo://app?vid=770b4181-5ae9-4e74-aecc-59e1c212b00e"},"vehicle_type_id":"4","last_reported":1728980002,"current_range_meters":34800,"station_id":"ce4bgpp2rcd13ifvqc3g","pricing_plan_id":"cebpf4jnsgd1na2vs0mg"},{"bike_id":"d3c3b09c-2d13-4198-8657-d009008ec09d","system_id":"levelo_inurba_marseille","lat":43.32533,"lon":5.41436,"is_reserved":false,"is_disabled":false,"rental_uris":{"android":"levelo://app?vid=d3c3b09c-2d13-4198-8657-d009008ec09d","ios":"levelo://app?vid=d3c3b09c-2d13-4198-8657-d009008ec09d"},"vehicle_type_id":"4","last_reported":1728980002,"current_range_meters":36800,"station_id":"ce4bhq12rcd13ifvqhhg","pricing_plan_id":"cebpf4jnsgd1na2vs0mg"},{"bike_id":"ff7b5be1-e1ad-45b9-abeb-a9343678f1cf","system_id":"levelo_inurba_marseille","lat":43.28612,"lon":5.37045,"is_reserved":false,"is_disabled":false,"rental_uris":{"android":"levelo://app?vid=ff7b5be1-e1ad-45b9-abeb-a9343678f1cf","ios":"levelo://app?vid=ff7b5be1-e1ad-45b9-abeb-a9343678f1cf"},"vehicle_type_id":"4","last_reported":1728980002,"current_range_meters":24000,"station_id":"ce4bht12rcd13ifvqi60","pricing_plan_id":"cebpf4jnsgd1na2vs0mg"},{"bike_id":"d7ee5efd-ae37-42a9-a6d3-2298a0f53b91","system_id":"levelo_inurba_marseille","lat":43.3019,"lon":5.36612,"is_reserved":false,"is_disabled":false,"rental_uris":{"android":"levelo://app?vid=d7ee5efd-ae37-42a9-a6d3-2298a0f53b91","ios":"levelo://app?vid=d7ee5efd-ae37-42a9-a6d3-2298a0f53b91"},"vehicle_type_id":"4","last_reported":1728980002,"current_range_meters":25200,"station_id":"ce4bgrh2rcd13ifvqc8g","pricing_plan_id":"cebpf4jnsgd1na2vs0mg"},{"bike_id":"1c9343e4-7b78-402e-b1fe-6599c269887e","system_id":"levelo_inurba_marseille","lat":43.314515,"lon":5.37384,"is_reserved":false,"is_disabled":false,"rental_uris":{"android":"levelo://app?vid=1c9343e4-7b78-402e-b1fe-6599c269887e","ios":"levelo://app?vid=1c9343e4-7b78-402e-b1fe-6599c269887e"},"vehicle_type_id":"4","last_reported":1728980002,"current_range_meters":24400,"station_id":"","pricing_plan_id":"cebpf4jnsgd1na2vs0mg"},{"bike_id":"219c8012-7a38-4be5-a341-0af90cfd6d36","system_id":"levelo_inurba_marseille","lat":43.26563,"lon":5.39009,"is_reserved":false,"is_disabled":false,"rental_uris":{"android":"levelo://app?vid=219c8012-7a38-4be5-a341-0af90cfd6d36","ios":"levelo://app?vid=219c8012-7a38-4be5-a341-0af90cfd6d36"},"vehicle_type_id":"4","last_reported":1728980002,"current_range_meters":32800,"station_id":"ce4bhe12rcd13ifvqf30","pricing_plan_id":"cebpf4jnsgd1na2vs0mg"},{"bike_id":"fce70084-3f80-46a5-a2f3-e53575ae3a65","system_id":"levelo_inurba_marseille","lat":43.24998,"lon":5.38928,"is_reserved":false,"is_disabled":false,"rental_uris":{"android":"levelo://app?vid=fce70084-3f80-46a5-a2f3-e53575ae3a65","ios":"levelo://app?vid=fce70084-3f80-46a5-a2f3-e53575ae3a65"},"vehicle_type_id":"4","last_reported":1728980002,"current_range_meters":32000,"station_id":"ce4bhgp2rcd13ifvqfd0","pricing_plan_id":"cebpf4jnsgd1na2vs0mg"},{"bike_id":"d09c4005-1df4-4b76-9022-4d9a61607881","system_id":"levelo_inurba_marseille","lat":43.29933,"lon":5.36547,"is_reserved":false,"is_disabled":false,"rental_uris":{"android":"levelo://app?vid=d09c4005-1df4-4b76-9022-4d9a61607881","ios":"levelo://app?vid=d09c4005-1df4-4b76-9022-4d9a61607881"},"vehicle_type_id":"4","last_reported":1728980002,"current_range_meters":16000,"station_id":"ce4bgm92rcd13ifvqbr0","pricing_plan_id":"cebpf4jnsgd1na2vs0mg"},{"bike_id":"01278a9e-9df9-414f-9298-8fc23308687f","system_id":"levelo_inurba_marseille","lat":43.30908,"lon":5.36851,"is_reserved":false,"is_disabled":false,"rental_uris":{"android":"levelo://app?vid=01278a9e-9df9-414f-9298-8fc23308687f","ios":"levelo://app?vid=01278a9e-9df9-414f-9298-8fc23308687f"},"vehicle_type_id":"4","last_reported":1728980002,"current_range_meters":39200,"station_id":"ce4bgn92rcd13ifvqbvg","pricing_plan_id":"cebpf4jnsgd1na2vs0mg"},{"bike_id":"e0e2a9d7-b00a-4e50-8175-1326b408ebe5","system_id":"levelo_inurba_marseille","lat":43.26206,"lon":5.37929,"is_reserved":false,"is_disabled":false,"rental_uris":{"android":"levelo://app?vid=e0e2a9d7-b00a-4e50-8175-1326b408ebe5","ios":"levelo://app?vid=e0e2a9d7-b00a-4e50-8175-1326b408ebe5"},"vehicle_type_id":"4","last_reported":1728980002,"current_range_meters":30400,"station_id":"ce4bhjp2rcd13ifvqg90","pricing_plan_id":"cebpf4jnsgd1na2vs0mg"},{"bike_id":"f9c6f96e-6cf6-4d93-9c67-60886b1ee015","system_id":"levelo_inurba_marseille","lat":43.30909,"lon":5.36849,"is_reserved":false,"is_disabled":false,"rental_uris":{"android":"levelo://app?vid=f9c6f96e-6cf6-4d93-9c67-60886b1ee015","ios":"levelo://app?vid=f9c6f96e-6cf6-4d93-9c67-60886b1ee015"},"vehicle_type_id":"4","last_reported":1728980002,"current_range_meters":39200,"station_id":"ce4bgn92rcd13ifvqbvg","pricing_plan_id":"cebpf4jnsgd1na2vs0mg"},{"bike_id":"028fce04-55e9-4ec3-b4a5-1b566b48b26b","system_id":"levelo_inurba_marseille","lat":43.3254,"lon":5.4145,"is_reserved":false,"is_disabled":false,"rental_uris":{"android":"levelo://app?vid=028fce04-55e9-4ec3-b4a5-1b566b48b26b","ios":"levelo://app?vid=028fce04-55e9-4ec3-b4a5-1b566b48b26b"},"vehicle_type_id":"4","last_reported":1728980002,"current_range_meters":23200,"station_id":"ce4bhq12rcd13ifvqhhg","pricing_plan_id":"cebpf4jnsgd1na2vs0mg"},{"bike_id":"92a1a521-168a-4e08-bb64-9b47d8cea931","system_id":"levelo_inurba_marseille","lat":43.28072,"lon":5.39638,"is_reserved":false,"is_disabled":false,"rental_uris":{"android":"levelo://app?vid=92a1a521-168a-4e08-bb64-9b47d8cea931","ios":"levelo://app?vid=92a1a521-168a-4e08-bb64-9b47d8cea931"},"vehicle_type_id":"4","last_reported":1728980002,"current_range_meters":24400,"station_id":"ce4bho12rcd13ifvqh2g","pricing_plan_id":"cebpf4jnsgd1na2vs0mg"},{"bike_id":"05a48c1f-8542-4604-801f-8bcad6213878","system_id":"levelo_inurba_marseille","lat":43.34143,"lon":5.40903,"is_reserved":false,"is_disabled":false,"rental_uris":{"android":"levelo://app?vid=05a48c1f-8542-4604-801f-8bcad6213878","ios":"levelo://app?vid=05a48c1f-8542-4604-801f-8bcad6213878"},"vehicle_type_id":"4","last_reported":1728980002,"current_range_meters":16800,"station_id":"ce4bhqh2rcd13ifvqhlg","pricing_plan_id":"cebpf4jnsgd1na2vs0mg"},{"bike_id":"c1a1afd4-50c7-4a88-a370-43899b911066","system_id":"levelo_inurba_marseille","lat":43.32532,"lon":5.41442,"is_reserved":false,"is_disabled":false,"rental_uris":{"android":"levelo://app?vid=c1a1afd4-50c7-4a88-a370-43899b911066","ios":"levelo://app?vid=c1a1afd4-50c7-4a88-a370-43899b911066"},"vehicle_type_id":"4","last_reported":1728980002,"current_range_meters":4000,"station_id":"ce4bhq12rcd13ifvqhhg","pricing_plan_id":"cebpf4jnsgd1na2vs0mg"},{"bike_id":"31d120bf-8cc6-45ef-b3e1-50f1d4517b6b","system_id":"levelo_inurba_marseille","lat":43.3061,"lon":5.36663,"is_reserved":false,"is_disabled":false,"rental_uris":{"android":"levelo://app?vid=31d120bf-8cc6-45ef-b3e1-50f1d4517b6b","ios":"levelo://app?vid=31d120bf-8cc6-45ef-b3e1-50f1d4517b6b"},"vehicle_type_id":"4","last_reported":1728980002,"current_range_meters":19200,"station_id":"ce4bgrp2rcd13ifvqc9g","pricing_plan_id":"cebpf4jnsgd1na2vs0mg"},{"bike_id":"236eac17-f8e0-4e4a-bc15-bde91f02d950","system_id":"levelo_inurba_marseille","lat":43.33606,"lon":5.41024,"is_reserved":false,"is_disabled":false,"rental_uris":{"android":"levelo://app?vid=236eac17-f8e0-4e4a-bc15-bde91f02d950","ios":"levelo://app?vid=236eac17-f8e0-4e4a-bc15-bde91f02d950"},"vehicle_type_id":"4","last_reported":1728980002,"current_range_meters":27200,"station_id":"ce4bhqh2rcd13ifvqhmg","pricing_plan_id":"cebpf4jnsgd1na2vs0mg"},{"bike_id":"1c991e70-6473-46ef-8d17-da1a7d029aaa","system_id":"levelo_inurba_marseille","lat":43.31352,"lon":5.36709,"is_reserved":false,"is_disabled":false,"rental_uris":{"android":"levelo://app?vid=1c991e70-6473-46ef-8d17-da1a7d029aaa","ios":"levelo://app?vid=1c991e70-6473-46ef-8d17-da1a7d029aaa"},"vehicle_type_id":"4","last_reported":1728980002,"current_range_meters":22400,"station_id":"ce4bgr92rcd13ifvqc6g","pricing_plan_id":"cebpf4jnsgd1na2vs0mg"},{"bike_id":"89198ecf-9ad5-429c-84dc-a279ee6e8f88","system_id":"levelo_inurba_marseille","lat":43.33757,"lon":5.37446,"is_reserved":false,"is_disabled":false,"rental_uris":{"android":"levelo://app?vid=89198ecf-9ad5-429c-84dc-a279ee6e8f88","ios":"levelo://app?vid=89198ecf-9ad5-429c-84dc-a279ee6e8f88"},"vehicle_type_id":"4","last_reported":1728980002,"current_range_meters":37600,"station_id":"","pricing_plan_id":"cebpf4jnsgd1na2vs0mg"},{"bike_id":"8fdd4147-e848-49f0-9c54-870bdb6cb1f5","system_id":"levelo_inurba_marseille","lat":43.33608,"lon":5.41027,"is_reserved":false,"is_disabled":false,"rental_uris":{"android":"levelo://app?vid=8fdd4147-e848-49f0-9c54-870bdb6cb1f5","ios":"levelo://app?vid=8fdd4147-e848-49f0-9c54-870bdb6cb1f5"},"vehicle_type_id":"4","last_reported":1728980002,"current_range_meters":36000,"station_id":"ce4bhqh2rcd13ifvqhmg","pricing_plan_id":"cebpf4jnsgd1na2vs0mg"},{"bike_id":"16108f92-6bb6-4625-8e86-043bb5e3efc3","system_id":"levelo_inurba_marseille","lat":43.33603,"lon":5.41017,"is_reserved":false,"is_disabled":false,"rental_uris":{"android":"levelo://app?vid=16108f92-6bb6-4625-8e86-043bb5e3efc3","ios":"levelo://app?vid=16108f92-6bb6-4625-8e86-043bb5e3efc3"},"vehicle_type_id":"4","last_reported":1728980002,"current_range_meters":39200,"station_id":"ce4bhqh2rcd13ifvqhmg","pricing_plan_id":"cebpf4jnsgd1na2vs0mg"},{"bike_id":"70d8c5a0-0514-401e-bb3f-6278d2b10405","system_id":"levelo_inurba_marseille","lat":43.26951,"lon":5.38634,"is_reserved":false,"is_disabled":false,"rental_uris":{"android":"levelo://app?vid=70d8c5a0-0514-401e-bb3f-6278d2b10405","ios":"levelo://app?vid=70d8c5a0-0514-401e-bb3f-6278d2b10405"},"vehicle_type_id":"4","last_reported":1728980002,"current_range_meters":38400,"station_id":"ce4bhh92rcd13ifvqfh0","pricing_plan_id":"cebpf4jnsgd1na2vs0mg"},{"bike_id":"e0e79b85-748d-4944-9fbb-448bb9c64c3d","system_id":"levelo_inurba_marseille","lat":43.2962,"lon":5.37168,"is_reserved":false,"is_disabled":false,"rental_uris":{"android":"levelo://app?vid=e0e79b85-748d-4944-9fbb-448bb9c64c3d","ios":"levelo://app?vid=e0e79b85-748d-4944-9fbb-448bb9c64c3d"},"vehicle_type_id":"4","last_reported":1728980002,"current_range_meters":12800,"station_id":"ce4bgnh2rcd13ifvqc0g","pricing_plan_id":"cebpf4jnsgd1na2vs0mg"},{"bike_id":"dbb9c770-b19e-409e-852c-5cc110ac1a41","system_id":"levelo_inurba_marseille","lat":43.3031,"lon":5.36888,"is_reserved":false,"is_disabled":false,"rental_uris":{"android":"levelo://app?vid=dbb9c770-b19e-409e-852c-5cc110ac1a41","ios":"levelo://app?vid=dbb9c770-b19e-409e-852c-5cc110ac1a41"},"vehicle_type_id":"4","last_reported":1728980002,"current_range_meters":38000,"station_id":"ce4bgqh2rcd13ifvqc5g","pricing_plan_id":"cebpf4jnsgd1na2vs0mg"},{"bike_id":"ab588b59-ac5b-42ac-9866-ec49f2422948","system_id":"levelo_inurba_marseille","lat":43.28569,"lon":5.3949,"is_reserved":false,"is_disabled":false,"rental_uris":{"android":"levelo://app?vid=ab588b59-ac5b-42ac-9866-ec49f2422948","ios":"levelo://app?vid=ab588b59-ac5b-42ac-9866-ec49f2422948"},"vehicle_type_id":"4","last_reported":1728980002,"current_range_meters":9200,"station_id":"ce4bh292rcd13ifvqdg0","pricing_plan_id":"cebpf4jnsgd1na2vs0mg"},{"bike_id":"cd28b1e0-8b21-4912-b14b-d40db8c70d20","system_id":"levelo_inurba_marseille","lat":43.30947,"lon":5.39058,"is_reserved":false,"is_disabled":false,"rental_uris":{"android":"levelo://app?vid=cd28b1e0-8b21-4912-b14b-d40db8c70d20","ios":"levelo://app?vid=cd28b1e0-8b21-4912-b14b-d40db8c70d20"},"vehicle_type_id":"4","last_reported":1728980002,"current_range_meters":34800,"station_id":"ce4bgup2rcd13ifvqco0","pricing_plan_id":"cebpf4jnsgd1na2vs0mg"},{"bike_id":"496a1568-ce42-4df3-a711-5ac45d8ef568","system_id":"levelo_inurba_marseille","lat":43.25581,"lon":5.38228,"is_reserved":false,"is_disabled":false,"rental_uris":{"android":"levelo://app?vid=496a1568-ce42-4df3-a711-5ac45d8ef568","ios":"levelo://app?vid=496a1568-ce42-4df3-a711-5ac45d8ef568"},"vehicle_type_id":"4","last_reported":1728980002,"current_range_meters":24000,"station_id":"ce4bhih2rcd13ifvqfs0","pricing_plan_id":"cebpf4jnsgd1na2vs0mg"},{"bike_id":"27521189-a10b-488a-82b8-973812fa95e1","system_id":"levelo_inurba_marseille","lat":43.32479,"lon":5.36569,"is_reserved":false,"is_disabled":false,"rental_uris":{"android":"levelo://app?vid=27521189-a10b-488a-82b8-973812fa95e1","ios":"levelo://app?vid=27521189-a10b-488a-82b8-973812fa95e1"},"vehicle_type_id":"4","last_reported":1728980002,"current_range_meters":36800,"station_id":"ce4bhs12rcd13ifvqhvg","pricing_plan_id":"cebpf4jnsgd1na2vs0mg"},{"bike_id":"0bd3b395-cc5f-4af8-86e7-da1a96fefdaa","system_id":"levelo_inurba_marseille","lat":43.32531,"lon":5.41455,"is_reserved":false,"is_disabled":false,"rental_uris":{"android":"levelo://app?vid=0bd3b395-cc5f-4af8-86e7-da1a96fefdaa","ios":"levelo://app?vid=0bd3b395-cc5f-4af8-86e7-da1a96fefdaa"},"vehicle_type_id":"4","last_reported":1728980002,"current_range_meters":19200,"station_id":"ce4bhq12rcd13ifvqhhg","pricing_plan_id":"cebpf4jnsgd1na2vs0mg"},{"bike_id":"4958bc6b-0611-407c-bfea-b8509e93da6b","system_id":"levelo_inurba_marseille","lat":43.26678,"lon":5.38265,"is_reserved":false,"is_disabled":false,"rental_uris":{"android":"levelo://app?vid=4958bc6b-0611-407c-bfea-b8509e93da6b","ios":"levelo://app?vid=4958bc6b-0611-407c-bfea-b8509e93da6b"},"vehicle_type_id":"4","last_reported":1728980002,"current_range_meters":19200,"station_id":"ce4bhg92rcd13ifvqf90","pricing_plan_id":"cebpf4jnsgd1na2vs0mg"},{"bike_id":"c80bffdd-5af6-417a-8b44-520a51e21254","system_id":"levelo_inurba_marseille","lat":43.30539,"lon":5.36551,"is_reserved":false,"is_disabled":false,"rental_uris":{"android":"levelo://app?vid=c80bffdd-5af6-417a-8b44-520a51e21254","ios":"levelo://app?vid=c80bffdd-5af6-417a-8b44-520a51e21254"},"vehicle_type_id":"4","last_reported":1728980002,"current_range_meters":10800,"station_id":"ce4bgs12rcd13ifvqcag","pricing_plan_id":"cebpf4jnsgd1na2vs0mg"},{"bike_id":"807e9962-cc69-4406-acf5-9033fba73963","system_id":"levelo_inurba_marseille","lat":43.27493,"lon":5.42447,"is_reserved":false,"is_disabled":false,"rental_uris":{"android":"levelo://app?vid=807e9962-cc69-4406-acf5-9033fba73963","ios":"levelo://app?vid=807e9962-cc69-4406-acf5-9033fba73963"},"vehicle_type_id":"4","last_reported":1728980002,"current_range_meters":16400,"station_id":"ce4bhn92rcd13ifvqgrg","pricing_plan_id":"cebpf4jnsgd1na2vs0mg"},{"bike_id":"6dc7da8b-03f4-4f32-86d2-a4387cf22807","system_id":"levelo_inurba_marseille","lat":43.32106,"lon":5.36766,"is_reserved":false,"is_disabled":false,"rental_uris":{"android":"levelo://app?vid=6dc7da8b-03f4-4f32-86d2-a4387cf22807","ios":"levelo://app?vid=6dc7da8b-03f4-4f32-86d2-a4387cf22807"},"vehicle_type_id":"4","last_reported":1728980002,"current_range_meters":2000,"station_id":"ce4bhrh2rcd13ifvqhug","pricing_plan_id":"cebpf4jnsgd1na2vs0mg"},{"bike_id":"fce15e3d-4c31-4116-9b1f-66edcf55692b","system_id":"levelo_inurba_marseille","lat":43.29526,"lon":5.37499,"is_reserved":false,"is_disabled":false,"rental_uris":{"android":"levelo://app?vid=fce15e3d-4c31-4116-9b1f-66edcf55692b","ios":"levelo://app?vid=fce15e3d-4c31-4116-9b1f-66edcf55692b"},"vehicle_type_id":"4","last_reported":1728980002,"current_range_meters":2800,"station_id":"ce4bgkp2rcd13ifvqbmg","pricing_plan_id":"cebpf4jnsgd1na2vs0mg"},{"bike_id":"57a8c062-6799-49f8-a772-d2a3af263f1e","system_id":"levelo_inurba_marseille","lat":43.26955,"lon":5.38632,"is_reserved":false,"is_disabled":false,"rental_uris":{"android":"levelo://app?vid=57a8c062-6799-49f8-a772-d2a3af263f1e","ios":"levelo://app?vid=57a8c062-6799-49f8-a772-d2a3af263f1e"},"vehicle_type_id":"4","last_reported":1728980002,"current_range_meters":26000,"station_id":"ce4bhh92rcd13ifvqfh0","pricing_plan_id":"cebpf4jnsgd1na2vs0mg"},{"bike_id":"a2eb58c6-dd46-4b5a-b81d-fe3714bbcfc9","system_id":"levelo_inurba_marseille","lat":43.2396,"lon":5.36631,"is_reserved":false,"is_disabled":false,"rental_uris":{"android":"levelo://app?vid=a2eb58c6-dd46-4b5a-b81d-fe3714bbcfc9","ios":"levelo://app?vid=a2eb58c6-dd46-4b5a-b81d-fe3714bbcfc9"},"vehicle_type_id":"4","last_reported":1728980002,"current_range_meters":3600,"station_id":"ce4bhi12rcd13ifvqfp0","pricing_plan_id":"cebpf4jnsgd1na2vs0mg"},{"bike_id":"f023582d-9726-41ca-a508-42bc7926f78e","system_id":"levelo_inurba_marseille","lat":43.29307,"lon":5.37178,"is_reserved":false,"is_disabled":false,"rental_uris":{"android":"levelo://app?vid=f023582d-9726-41ca-a508-42bc7926f78e","ios":"levelo://app?vid=f023582d-9726-41ca-a508-42bc7926f78e"},"vehicle_type_id":"4","last_reported":1728980002,"current_range_meters":9600,"station_id":"ce4bgh92rcd13ifvqb40","pricing_plan_id":"cebpf4jnsgd1na2vs0mg"},{"bike_id":"79d22428-e2ae-4ce6-8f77-2cb2cdb6b054","system_id":"levelo_inurba_marseille","lat":43.26954,"lon":5.38632,"is_reserved":false,"is_disabled":false,"rental_uris":{"android":"levelo://app?vid=79d22428-e2ae-4ce6-8f77-2cb2cdb6b054","ios":"levelo://app?vid=79d22428-e2ae-4ce6-8f77-2cb2cdb6b054"},"vehicle_type_id":"4","last_reported":1728980002,"current_range_meters":39200,"station_id":"ce4bhh92rcd13ifvqfh0","pricing_plan_id":"cebpf4jnsgd1na2vs0mg"},{"bike_id":"5a21f166-c886-4c2b-8cdc-2f284466828d","system_id":"levelo_inurba_marseille","lat":43.27362,"lon":5.42404,"is_reserved":false,"is_disabled":false,"rental_uris":{"android":"levelo://app?vid=5a21f166-c886-4c2b-8cdc-2f284466828d","ios":"levelo://app?vid=5a21f166-c886-4c2b-8cdc-2f284466828d"},"vehicle_type_id":"4","last_reported":1728980002,"current_range_meters":32400,"station_id":"","pricing_plan_id":"cebpf4jnsgd1na2vs0mg"},{"bike_id":"995213a4-b0e8-4737-b0b6-5f59e564978e","system_id":"levelo_inurba_marseille","lat":43.33604,"lon":5.41022,"is_reserved":false,"is_disabled":false,"rental_uris":{"android":"levelo://app?vid=995213a4-b0e8-4737-b0b6-5f59e564978e","ios":"levelo://app?vid=995213a4-b0e8-4737-b0b6-5f59e564978e"},"vehicle_type_id":"4","last_reported":1728980002,"current_range_meters":8000,"station_id":"ce4bhqh2rcd13ifvqhmg","pricing_plan_id":"cebpf4jnsgd1na2vs0mg"},{"bike_id":"b178b062-35cd-4f92-91db-f4ae171fe0ea","system_id":"levelo_inurba_marseille","lat":43.292851,"lon":5.368404,"is_reserved":false,"is_disabled":false,"rental_uris":{"android":"levelo://app?vid=b178b062-35cd-4f92-91db-f4ae171fe0ea","ios":"levelo://app?vid=b178b062-35cd-4f92-91db-f4ae171fe0ea"},"vehicle_type_id":"4","last_reported":1728980002,"current_range_meters":11200,"station_id":"","pricing_plan_id":"cebpf4jnsgd1na2vs0mg"},{"bike_id":"4e07868a-d68e-497f-a19c-e5a2e95c71ff","system_id":"levelo_inurba_marseille","lat":43.30553,"lon":5.36699,"is_reserved":false,"is_disabled":false,"rental_uris":{"android":"levelo://app?vid=4e07868a-d68e-497f-a19c-e5a2e95c71ff","ios":"levelo://app?vid=4e07868a-d68e-497f-a19c-e5a2e95c71ff"},"vehicle_type_id":"4","last_reported":1728980002,"current_range_meters":7200,"station_id":"ce4bgrp2rcd13ifvqc9g","pricing_plan_id":"cebpf4jnsgd1na2vs0mg"},{"bike_id":"9608ff6b-d6d3-475c-8e87-168884443bd8","system_id":"levelo_inurba_marseille","lat":43.31367,"lon":5.367,"is_reserved":false,"is_disabled":false,"rental_uris":{"android":"levelo://app?vid=9608ff6b-d6d3-475c-8e87-168884443bd8","ios":"levelo://app?vid=9608ff6b-d6d3-475c-8e87-168884443bd8"},"vehicle_type_id":"4","last_reported":1728980002,"current_range_meters":6000,"station_id":"ce4bgr92rcd13ifvqc6g","pricing_plan_id":"cebpf4jnsgd1na2vs0mg"},{"bike_id":"c0670d96-b06e-446b-a07e-6b5eeebc59d7","system_id":"levelo_inurba_marseille","lat":43.274948,"lon":5.424466,"is_reserved":false,"is_disabled":false,"rental_uris":{"android":"levelo://app?vid=c0670d96-b06e-446b-a07e-6b5eeebc59d7","ios":"levelo://app?vid=c0670d96-b06e-446b-a07e-6b5eeebc59d7"},"vehicle_type_id":"4","last_reported":1728980002,"current_range_meters":12800,"station_id":"ce4bhn92rcd13ifvqgrg","pricing_plan_id":"cebpf4jnsgd1na2vs0mg"},{"bike_id":"485372db-c927-43ac-8631-871bcbd82cc0","system_id":"levelo_inurba_marseille","lat":43.24067,"lon":5.37754,"is_reserved":false,"is_disabled":false,"rental_uris":{"android":"levelo://app?vid=485372db-c927-43ac-8631-871bcbd82cc0","ios":"levelo://app?vid=485372db-c927-43ac-8631-871bcbd82cc0"},"vehicle_type_id":"4","last_reported":1728980002,"current_range_meters":12400,"station_id":"ce4bhnp2rcd13ifvqgvg","pricing_plan_id":"cebpf4jnsgd1na2vs0mg"},{"bike_id":"e90a9e82-771b-44fd-b815-fb34b11e990c","system_id":"levelo_inurba_marseille","lat":43.23152,"lon":5.43719,"is_reserved":false,"is_disabled":false,"rental_uris":{"android":"levelo://app?vid=e90a9e82-771b-44fd-b815-fb34b11e990c","ios":"levelo://app?vid=e90a9e82-771b-44fd-b815-fb34b11e990c"},"vehicle_type_id":"4","last_reported":1728980002,"current_range_meters":14400,"station_id":"ce4bhmp2rcd13ifvqgog","pricing_plan_id":"cebpf4jnsgd1na2vs0mg"},{"bike_id":"a0d3d324-fa7e-4417-aee7-85012ecab44e","system_id":"levelo_inurba_marseille","lat":43.34192,"lon":5.44514,"is_reserved":false,"is_disabled":false,"rental_uris":{"android":"levelo://app?vid=a0d3d324-fa7e-4417-aee7-85012ecab44e","ios":"levelo://app?vid=a0d3d324-fa7e-4417-aee7-85012ecab44e"},"vehicle_type_id":"4","last_reported":1728980002,"current_range_meters":24800,"station_id":"","pricing_plan_id":"cebpf4jnsgd1na2vs0mg"},{"bike_id":"724c8533-6c2a-4d58-9645-9dc7cc8cde49","system_id":"levelo_inurba_marseille","lat":43.27183,"lon":5.40993,"is_reserved":false,"is_disabled":false,"rental_uris":{"android":"levelo://app?vid=724c8533-6c2a-4d58-9645-9dc7cc8cde49","ios":"levelo://app?vid=724c8533-6c2a-4d58-9645-9dc7cc8cde49"},"vehicle_type_id":"4","last_reported":1728980002,"current_range_meters":38400,"station_id":"ce4bhl12rcd13ifvqgf0","pricing_plan_id":"cebpf4jnsgd1na2vs0mg"},{"bike_id":"e857dc67-7178-40ce-b4c7-c51d9c28d7e0","system_id":"levelo_inurba_marseille","lat":43.30593,"lon":5.37211,"is_reserved":false,"is_disabled":false,"rental_uris":{"android":"levelo://app?vid=e857dc67-7178-40ce-b4c7-c51d9c28d7e0","ios":"levelo://app?vid=e857dc67-7178-40ce-b4c7-c51d9c28d7e0"},"vehicle_type_id":"4","last_reported":1728980002,"current_range_meters":28000,"station_id":"ce4bgqh2rcd13ifvqc4g","pricing_plan_id":"cebpf4jnsgd1na2vs0mg"},{"bike_id":"663de26c-85c0-43c6-b9ed-43edcf569b7f","system_id":"levelo_inurba_marseille","lat":43.27491,"lon":5.42447,"is_reserved":false,"is_disabled":false,"rental_uris":{"android":"levelo://app?vid=663de26c-85c0-43c6-b9ed-43edcf569b7f","ios":"levelo://app?vid=663de26c-85c0-43c6-b9ed-43edcf569b7f"},"vehicle_type_id":"4","last_reported":1728980002,"current_range_meters":24800,"station_id":"","pricing_plan_id":"cebpf4jnsgd1na2vs0mg"},{"bike_id":"2029b8e5-ceff-421f-a585-646be9909808","system_id":"levelo_inurba_marseille","lat":43.26063,"lon":5.39395,"is_reserved":false,"is_disabled":false,"rental_uris":{"android":"levelo://app?vid=2029b8e5-ceff-421f-a585-646be9909808","ios":"levelo://app?vid=2029b8e5-ceff-421f-a585-646be9909808"},"vehicle_type_id":"4","last_reported":1728980002,"current_range_meters":30400,"station_id":"ce4bhh92rcd13ifvqfj0","pricing_plan_id":"cebpf4jnsgd1na2vs0mg"},{"bike_id":"53739723-76bd-4f4d-8f27-b81fcaf069c3","system_id":"levelo_inurba_marseille","lat":43.29605,"lon":5.38104,"is_reserved":false,"is_disabled":false,"rental_uris":{"android":"levelo://app?vid=53739723-76bd-4f4d-8f27-b81fcaf069c3","ios":"levelo://app?vid=53739723-76bd-4f4d-8f27-b81fcaf069c3"},"vehicle_type_id":"4","last_reported":1728980002,"current_range_meters":6400,"station_id":"ce4bgl12rcd13ifvqbo0","pricing_plan_id":"cebpf4jnsgd1na2vs0mg"},{"bike_id":"50ec74eb-1aae-4682-b3dc-af00f689e62a","system_id":"levelo_inurba_marseille","lat":43.29163,"lon":5.37152,"is_reserved":false,"is_disabled":false,"rental_uris":{"android":"levelo://app?vid=50ec74eb-1aae-4682-b3dc-af00f689e62a","ios":"levelo://app?vid=50ec74eb-1aae-4682-b3dc-af00f689e62a"},"vehicle_type_id":"4","last_reported":1728980002,"current_range_meters":18000,"station_id":"ce4bha92rcd13ifvqeh0","pricing_plan_id":"cebpf4jnsgd1na2vs0mg"},{"bike_id":"009d077c-52fd-41d6-be03-6a76e1d58aa0","system_id":"levelo_inurba_marseille","lat":43.2408,"lon":5.37755,"is_reserved":false,"is_disabled":false,"rental_uris":{"android":"levelo://app?vid=009d077c-52fd-41d6-be03-6a76e1d58aa0","ios":"levelo://app?vid=009d077c-52fd-41d6-be03-6a76e1d58aa0"},"vehicle_type_id":"4","last_reported":1728980002,"current_range_meters":16000,"station_id":"ce4bhnp2rcd13ifvqgvg","pricing_plan_id":"cebpf4jnsgd1na2vs0mg"},{"bike_id":"fa7fbc43-c187-4e74-95e7-0eb093c0e307","system_id":"levelo_inurba_marseille","lat":43.336232,"lon":5.410387,"is_reserved":false,"is_disabled":false,"rental_uris":{"android":"levelo://app?vid=fa7fbc43-c187-4e74-95e7-0eb093c0e307","ios":"levelo://app?vid=fa7fbc43-c187-4e74-95e7-0eb093c0e307"},"vehicle_type_id":"4","last_reported":1728980002,"current_range_meters":32800,"station_id":"ce4bhqh2rcd13ifvqhmg","pricing_plan_id":"cebpf4jnsgd1na2vs0mg"},{"bike_id":"216d179f-2265-4032-b054-9d91298cd3d5","system_id":"levelo_inurba_marseille","lat":43.282554,"lon":5.376995,"is_reserved":false,"is_disabled":false,"rental_uris":{"android":"levelo://app?vid=216d179f-2265-4032-b054-9d91298cd3d5","ios":"levelo://app?vid=216d179f-2265-4032-b054-9d91298cd3d5"},"vehicle_type_id":"4","last_reported":1728980002,"current_range_meters":36400,"station_id":"","pricing_plan_id":"cebpf4jnsgd1na2vs0mg"},{"bike_id":"8f1473c8-5614-4fe5-9a08-5f8d5d6a0adb","system_id":"levelo_inurba_marseille","lat":43.32109,"lon":5.36766,"is_reserved":false,"is_disabled":false,"rental_uris":{"android":"levelo://app?vid=8f1473c8-5614-4fe5-9a08-5f8d5d6a0adb","ios":"levelo://app?vid=8f1473c8-5614-4fe5-9a08-5f8d5d6a0adb"},"vehicle_type_id":"4","last_reported":1728980002,"current_range_meters":27600,"station_id":"ce4bhrh2rcd13ifvqhug","pricing_plan_id":"cebpf4jnsgd1na2vs0mg"},{"bike_id":"62efa3cd-9522-490f-841e-a1ce0ad54acb","system_id":"levelo_inurba_marseille","lat":43.23155,"lon":5.43709,"is_reserved":false,"is_disabled":false,"rental_uris":{"android":"levelo://app?vid=62efa3cd-9522-490f-841e-a1ce0ad54acb","ios":"levelo://app?vid=62efa3cd-9522-490f-841e-a1ce0ad54acb"},"vehicle_type_id":"4","last_reported":1728980002,"current_range_meters":29600,"station_id":"ce4bhmp2rcd13ifvqgog","pricing_plan_id":"cebpf4jnsgd1na2vs0mg"},{"bike_id":"e543a6df-6fcd-4e12-8a12-61227011df77","system_id":"levelo_inurba_marseille","lat":43.29554,"lon":5.42292,"is_reserved":false,"is_disabled":false,"rental_uris":{"android":"levelo://app?vid=e543a6df-6fcd-4e12-8a12-61227011df77","ios":"levelo://app?vid=e543a6df-6fcd-4e12-8a12-61227011df77"},"vehicle_type_id":"4","last_reported":1728980002,"current_range_meters":9200,"station_id":"ce4bhph2rcd13ifvqhdg","pricing_plan_id":"cebpf4jnsgd1na2vs0mg"},{"bike_id":"59c5bc1b-a6c9-4143-9dbf-49efd82f68dd","system_id":"levelo_inurba_marseille","lat":43.30348,"lon":5.41875,"is_reserved":false,"is_disabled":false,"rental_uris":{"android":"levelo://app?vid=59c5bc1b-a6c9-4143-9dbf-49efd82f68dd","ios":"levelo://app?vid=59c5bc1b-a6c9-4143-9dbf-49efd82f68dd"},"vehicle_type_id":"4","last_reported":1728980002,"current_range_meters":3200,"station_id":"ce4bhop2rcd13ifvqh7g","pricing_plan_id":"cebpf4jnsgd1na2vs0mg"},{"bike_id":"b5eac8d6-8583-47b9-a696-3c6db8da5e38","system_id":"levelo_inurba_marseille","lat":43.337444,"lon":5.374475,"is_reserved":false,"is_disabled":false,"rental_uris":{"android":"levelo://app?vid=b5eac8d6-8583-47b9-a696-3c6db8da5e38","ios":"levelo://app?vid=b5eac8d6-8583-47b9-a696-3c6db8da5e38"},"vehicle_type_id":"4","last_reported":1728980002,"current_range_meters":38800,"station_id":"ce4bh2p2rcd13ifvqdi0","pricing_plan_id":"cebpf4jnsgd1na2vs0mg"},{"bike_id":"1adfaefa-f834-4d15-ab18-47f58376145c","system_id":"levelo_inurba_marseille","lat":43.29519,"lon":5.37511,"is_reserved":false,"is_disabled":false,"rental_uris":{"android":"levelo://app?vid=1adfaefa-f834-4d15-ab18-47f58376145c","ios":"levelo://app?vid=1adfaefa-f834-4d15-ab18-47f58376145c"},"vehicle_type_id":"4","last_reported":1728980002,"current_range_meters":14800,"station_id":"ce4bgkp2rcd13ifvqbmg","pricing_plan_id":"cebpf4jnsgd1na2vs0mg"},{"bike_id":"453ff30b-5109-4f9b-a0ee-199c4668928b","system_id":"levelo_inurba_marseille","lat":43.31355,"lon":5.36699,"is_reserved":false,"is_disabled":false,"rental_uris":{"android":"levelo://app?vid=453ff30b-5109-4f9b-a0ee-199c4668928b","ios":"levelo://app?vid=453ff30b-5109-4f9b-a0ee-199c4668928b"},"vehicle_type_id":"4","last_reported":1728980002,"current_range_meters":30400,"station_id":"ce4bgr92rcd13ifvqc6g","pricing_plan_id":"cebpf4jnsgd1na2vs0mg"},{"bike_id":"8fff6307-2dd1-450e-9fa4-c335ee8c6e79","system_id":"levelo_inurba_marseille","lat":43.27486,"lon":5.42462,"is_reserved":false,"is_disabled":false,"rental_uris":{"android":"levelo://app?vid=8fff6307-2dd1-450e-9fa4-c335ee8c6e79","ios":"levelo://app?vid=8fff6307-2dd1-450e-9fa4-c335ee8c6e79"},"vehicle_type_id":"4","last_reported":1728980002,"current_range_meters":19600,"station_id":"ce4bhn92rcd13ifvqgrg","pricing_plan_id":"cebpf4jnsgd1na2vs0mg"},{"bike_id":"3d21cd32-6499-466f-a4bf-ca07bc52bda8","system_id":"levelo_inurba_marseille","lat":43.26202,"lon":5.37929,"is_reserved":false,"is_disabled":false,"rental_uris":{"android":"levelo://app?vid=3d21cd32-6499-466f-a4bf-ca07bc52bda8","ios":"levelo://app?vid=3d21cd32-6499-466f-a4bf-ca07bc52bda8"},"vehicle_type_id":"4","last_reported":1728980002,"current_range_meters":20000,"station_id":"ce4bhjp2rcd13ifvqg90","pricing_plan_id":"cebpf4jnsgd1na2vs0mg"},{"bike_id":"ac8db1d7-3c94-466e-a0d7-c930d8e6d191","system_id":"levelo_inurba_marseille","lat":43.30549,"lon":5.367,"is_reserved":false,"is_disabled":false,"rental_uris":{"android":"levelo://app?vid=ac8db1d7-3c94-466e-a0d7-c930d8e6d191","ios":"levelo://app?vid=ac8db1d7-3c94-466e-a0d7-c930d8e6d191"},"vehicle_type_id":"4","last_reported":1728980002,"current_range_meters":19600,"station_id":"ce4bgrp2rcd13ifvqc9g","pricing_plan_id":"cebpf4jnsgd1na2vs0mg"},{"bike_id":"e228783b-3d2b-4c15-8744-8514e62866d6","system_id":"levelo_inurba_marseille","lat":43.27257,"lon":5.39054,"is_reserved":false,"is_disabled":false,"rental_uris":{"android":"levelo://app?vid=e228783b-3d2b-4c15-8744-8514e62866d6","ios":"levelo://app?vid=e228783b-3d2b-4c15-8744-8514e62866d6"},"vehicle_type_id":"4","last_reported":1728980002,"current_range_meters":38400,"station_id":"ce4bh312rcd13ifvqdk0","pricing_plan_id":"cebpf4jnsgd1na2vs0mg"},{"bike_id":"675d5183-f496-4ca7-82b0-64ffd16e6734","system_id":"levelo_inurba_marseille","lat":43.27495,"lon":5.42454,"is_reserved":false,"is_disabled":false,"rental_uris":{"android":"levelo://app?vid=675d5183-f496-4ca7-82b0-64ffd16e6734","ios":"levelo://app?vid=675d5183-f496-4ca7-82b0-64ffd16e6734"},"vehicle_type_id":"4","last_reported":1728980002,"current_range_meters":8400,"station_id":"ce4bhn92rcd13ifvqgrg","pricing_plan_id":"cebpf4jnsgd1na2vs0mg"},{"bike_id":"0db09599-4f78-4513-9b88-b0d7d355a4c6","system_id":"levelo_inurba_marseille","lat":43.33719,"lon":5.39175,"is_reserved":false,"is_disabled":false,"rental_uris":{"android":"levelo://app?vid=0db09599-4f78-4513-9b88-b0d7d355a4c6","ios":"levelo://app?vid=0db09599-4f78-4513-9b88-b0d7d355a4c6"},"vehicle_type_id":"4","last_reported":1728980002,"current_range_meters":34800,"station_id":"ce4bhr92rcd13ifvqhsg","pricing_plan_id":"cebpf4jnsgd1na2vs0mg"},{"bike_id":"396d19aa-2f28-4d58-81e6-ca156088b0f1","system_id":"levelo_inurba_marseille","lat":43.29962,"lon":5.38496,"is_reserved":false,"is_disabled":false,"rental_uris":{"android":"levelo://app?vid=396d19aa-2f28-4d58-81e6-ca156088b0f1","ios":"levelo://app?vid=396d19aa-2f28-4d58-81e6-ca156088b0f1"},"vehicle_type_id":"4","last_reported":1728980002,"current_range_meters":7200,"station_id":"ce4bgj92rcd13ifvqbd0","pricing_plan_id":"cebpf4jnsgd1na2vs0mg"},{"bike_id":"8d0fa919-eaa8-4285-b551-863e70fc5b6b","system_id":"levelo_inurba_marseille","lat":43.26953,"lon":5.38625,"is_reserved":false,"is_disabled":false,"rental_uris":{"android":"levelo://app?vid=8d0fa919-eaa8-4285-b551-863e70fc5b6b","ios":"levelo://app?vid=8d0fa919-eaa8-4285-b551-863e70fc5b6b"},"vehicle_type_id":"4","last_reported":1728980002,"current_range_meters":29600,"station_id":"ce4bhh92rcd13ifvqfh0","pricing_plan_id":"cebpf4jnsgd1na2vs0mg"},{"bike_id":"85c2aa64-cbb8-4a9d-8db2-7f8281a0cc49","system_id":"levelo_inurba_marseille","lat":43.24073,"lon":5.3781,"is_reserved":false,"is_disabled":false,"rental_uris":{"android":"levelo://app?vid=85c2aa64-cbb8-4a9d-8db2-7f8281a0cc49","ios":"levelo://app?vid=85c2aa64-cbb8-4a9d-8db2-7f8281a0cc49"},"vehicle_type_id":"4","last_reported":1728980002,"current_range_meters":37600,"station_id":"ce4bhnp2rcd13ifvqgvg","pricing_plan_id":"cebpf4jnsgd1na2vs0mg"},{"bike_id":"e043ac16-f754-4642-b077-d2e254dc22ac","system_id":"levelo_inurba_marseille","lat":43.30316,"lon":5.36887,"is_reserved":false,"is_disabled":false,"rental_uris":{"android":"levelo://app?vid=e043ac16-f754-4642-b077-d2e254dc22ac","ios":"levelo://app?vid=e043ac16-f754-4642-b077-d2e254dc22ac"},"vehicle_type_id":"4","last_reported":1728980002,"current_range_meters":25600,"station_id":"ce4bgqh2rcd13ifvqc5g","pricing_plan_id":"cebpf4jnsgd1na2vs0mg"},{"bike_id":"cc1684e5-e2b0-4b56-b26c-32a6bf19b8ea","system_id":"levelo_inurba_marseille","lat":43.26682,"lon":5.38266,"is_reserved":false,"is_disabled":false,"rental_uris":{"android":"levelo://app?vid=cc1684e5-e2b0-4b56-b26c-32a6bf19b8ea","ios":"levelo://app?vid=cc1684e5-e2b0-4b56-b26c-32a6bf19b8ea"},"vehicle_type_id":"4","last_reported":1728980002,"current_range_meters":19600,"station_id":"ce4bhg92rcd13ifvqf90","pricing_plan_id":"cebpf4jnsgd1na2vs0mg"},{"bike_id":"b80c714b-6a66-4d5c-832e-bd487c535a72","system_id":"levelo_inurba_marseille","lat":43.31109,"lon":5.38064,"is_reserved":false,"is_disabled":false,"rental_uris":{"android":"levelo://app?vid=b80c714b-6a66-4d5c-832e-bd487c535a72","ios":"levelo://app?vid=b80c714b-6a66-4d5c-832e-bd487c535a72"},"vehicle_type_id":"4","last_reported":1728980002,"current_range_meters":16400,"station_id":"ce4bgt92rcd13ifvqcf0","pricing_plan_id":"cebpf4jnsgd1na2vs0mg"},{"bike_id":"2140b6a3-5118-4150-823e-9225aeb56201","system_id":"levelo_inurba_marseille","lat":43.23187,"lon":5.35543,"is_reserved":false,"is_disabled":false,"rental_uris":{"android":"levelo://app?vid=2140b6a3-5118-4150-823e-9225aeb56201","ios":"levelo://app?vid=2140b6a3-5118-4150-823e-9225aeb56201"},"vehicle_type_id":"4","last_reported":1728980002,"current_range_meters":8400,"station_id":"ce4bhu92rcd13ifvqi70","pricing_plan_id":"cebpf4jnsgd1na2vs0mg"},{"bike_id":"ea90227c-842e-4143-b8dc-fe74683c474f","system_id":"levelo_inurba_marseille","lat":43.25937,"lon":5.40904,"is_reserved":false,"is_disabled":false,"rental_uris":{"android":"levelo://app?vid=ea90227c-842e-4143-b8dc-fe74683c474f","ios":"levelo://app?vid=ea90227c-842e-4143-b8dc-fe74683c474f"},"vehicle_type_id":"4","last_reported":1728980002,"current_range_meters":32000,"station_id":"ce4bhm92rcd13ifvqglg","pricing_plan_id":"cebpf4jnsgd1na2vs0mg"},{"bike_id":"6c5f56ba-688d-4c14-9e5d-6f2eb938cafc","system_id":"levelo_inurba_marseille","lat":43.30599,"lon":5.37219,"is_reserved":false,"is_disabled":false,"rental_uris":{"android":"levelo://app?vid=6c5f56ba-688d-4c14-9e5d-6f2eb938cafc","ios":"levelo://app?vid=6c5f56ba-688d-4c14-9e5d-6f2eb938cafc"},"vehicle_type_id":"4","last_reported":1728980002,"current_range_meters":6400,"station_id":"ce4bgqh2rcd13ifvqc4g","pricing_plan_id":"cebpf4jnsgd1na2vs0mg"},{"bike_id":"4c251e63-bc87-4cd7-a975-784126679ffc","system_id":"levelo_inurba_marseille","lat":43.30544,"lon":5.36698,"is_reserved":false,"is_disabled":false,"rental_uris":{"android":"levelo://app?vid=4c251e63-bc87-4cd7-a975-784126679ffc","ios":"levelo://app?vid=4c251e63-bc87-4cd7-a975-784126679ffc"},"vehicle_type_id":"4","last_reported":1728980002,"current_range_meters":34000,"station_id":"ce4bgrp2rcd13ifvqc9g","pricing_plan_id":"cebpf4jnsgd1na2vs0mg"},{"bike_id":"35fe9c7c-a74d-4029-9dc8-b501cafc78e2","system_id":"levelo_inurba_marseille","lat":43.23153,"lon":5.43714,"is_reserved":false,"is_disabled":false,"rental_uris":{"android":"levelo://app?vid=35fe9c7c-a74d-4029-9dc8-b501cafc78e2","ios":"levelo://app?vid=35fe9c7c-a74d-4029-9dc8-b501cafc78e2"},"vehicle_type_id":"4","last_reported":1728980002,"current_range_meters":19600,"station_id":"ce4bhmp2rcd13ifvqgog","pricing_plan_id":"cebpf4jnsgd1na2vs0mg"},{"bike_id":"45047fa2-99aa-49c5-9991-34a20c62dcaf","system_id":"levelo_inurba_marseille","lat":43.23154,"lon":5.43708,"is_reserved":false,"is_disabled":false,"rental_uris":{"android":"levelo://app?vid=45047fa2-99aa-49c5-9991-34a20c62dcaf","ios":"levelo://app?vid=45047fa2-99aa-49c5-9991-34a20c62dcaf"},"vehicle_type_id":"4","last_reported":1728980002,"current_range_meters":16400,"station_id":"ce4bhmp2rcd13ifvqgog","pricing_plan_id":"cebpf4jnsgd1na2vs0mg"},{"bike_id":"bc965413-5022-4f14-a435-2c22cfcd6979","system_id":"levelo_inurba_marseille","lat":43.23276,"lon":5.43604,"is_reserved":false,"is_disabled":false,"rental_uris":{"android":"levelo://app?vid=bc965413-5022-4f14-a435-2c22cfcd6979","ios":"levelo://app?vid=bc965413-5022-4f14-a435-2c22cfcd6979"},"vehicle_type_id":"4","last_reported":1728980002,"current_range_meters":20800,"station_id":"","pricing_plan_id":"cebpf4jnsgd1na2vs0mg"},{"bike_id":"822e5772-0ab2-4531-869d-b15dc8912cf2","system_id":"levelo_inurba_marseille","lat":43.30549,"lon":5.36699,"is_reserved":false,"is_disabled":false,"rental_uris":{"android":"levelo://app?vid=822e5772-0ab2-4531-869d-b15dc8912cf2","ios":"levelo://app?vid=822e5772-0ab2-4531-869d-b15dc8912cf2"},"vehicle_type_id":"4","last_reported":1728980002,"current_range_meters":38000,"station_id":"ce4bgrp2rcd13ifvqc9g","pricing_plan_id":"cebpf4jnsgd1na2vs0mg"},{"bike_id":"5fce3ac6-5c5f-4eff-aaf4-8b535aef85ec","system_id":"levelo_inurba_marseille","lat":43.29365,"lon":5.37861,"is_reserved":false,"is_disabled":false,"rental_uris":{"android":"levelo://app?vid=5fce3ac6-5c5f-4eff-aaf4-8b535aef85ec","ios":"levelo://app?vid=5fce3ac6-5c5f-4eff-aaf4-8b535aef85ec"},"vehicle_type_id":"4","last_reported":1728980002,"current_range_meters":38000,"station_id":"ce4bgjh2rcd13ifvqbf0","pricing_plan_id":"cebpf4jnsgd1na2vs0mg"},{"bike_id":"b0feb9ad-582a-4d2b-ad70-6be782880003","system_id":"levelo_inurba_marseille","lat":43.29015,"lon":5.38135,"is_reserved":false,"is_disabled":false,"rental_uris":{"android":"levelo://app?vid=b0feb9ad-582a-4d2b-ad70-6be782880003","ios":"levelo://app?vid=b0feb9ad-582a-4d2b-ad70-6be782880003"},"vehicle_type_id":"4","last_reported":1728980002,"current_range_meters":22800,"station_id":"ce4bh4p2rcd13ifvqe1g","pricing_plan_id":"cebpf4jnsgd1na2vs0mg"},{"bike_id":"352d1181-98f4-4e38-a7d5-9087610ec5d2","system_id":"levelo_inurba_marseille","lat":43.29159,"lon":5.37149,"is_reserved":false,"is_disabled":false,"rental_uris":{"android":"levelo://app?vid=352d1181-98f4-4e38-a7d5-9087610ec5d2","ios":"levelo://app?vid=352d1181-98f4-4e38-a7d5-9087610ec5d2"},"vehicle_type_id":"4","last_reported":1728980002,"current_range_meters":34000,"station_id":"ce4bha92rcd13ifvqeh0","pricing_plan_id":"cebpf4jnsgd1na2vs0mg"},{"bike_id":"e9d42937-a4b2-4a84-a233-384773796211","system_id":"levelo_inurba_marseille","lat":43.25928,"lon":5.40902,"is_reserved":false,"is_disabled":false,"rental_uris":{"android":"levelo://app?vid=e9d42937-a4b2-4a84-a233-384773796211","ios":"levelo://app?vid=e9d42937-a4b2-4a84-a233-384773796211"},"vehicle_type_id":"4","last_reported":1728980002,"current_range_meters":21600,"station_id":"ce4bhm92rcd13ifvqglg","pricing_plan_id":"cebpf4jnsgd1na2vs0mg"},{"bike_id":"7cc5db3f-7c40-48b0-ab8a-ef1e22f35aea","system_id":"levelo_inurba_marseille","lat":43.30143,"lon":5.37417,"is_reserved":false,"is_disabled":false,"rental_uris":{"android":"levelo://app?vid=7cc5db3f-7c40-48b0-ab8a-ef1e22f35aea","ios":"levelo://app?vid=7cc5db3f-7c40-48b0-ab8a-ef1e22f35aea"},"vehicle_type_id":"4","last_reported":1728980002,"current_range_meters":24400,"station_id":"ce4bgs92rcd13ifvqcc0","pricing_plan_id":"cebpf4jnsgd1na2vs0mg"},{"bike_id":"ac1802f2-e0c7-4553-8f9e-27953027561d","system_id":"levelo_inurba_marseille","lat":43.32534,"lon":5.41437,"is_reserved":false,"is_disabled":false,"rental_uris":{"android":"levelo://app?vid=ac1802f2-e0c7-4553-8f9e-27953027561d","ios":"levelo://app?vid=ac1802f2-e0c7-4553-8f9e-27953027561d"},"vehicle_type_id":"4","last_reported":1728980002,"current_range_meters":9200,"station_id":"ce4bhq12rcd13ifvqhhg","pricing_plan_id":"cebpf4jnsgd1na2vs0mg"},{"bike_id":"31e5127d-de01-45f5-aa74-3e6ee602c1c8","system_id":"levelo_inurba_marseille","lat":43.301439,"lon":5.38076,"is_reserved":false,"is_disabled":false,"rental_uris":{"android":"levelo://app?vid=31e5127d-de01-45f5-aa74-3e6ee602c1c8","ios":"levelo://app?vid=31e5127d-de01-45f5-aa74-3e6ee602c1c8"},"vehicle_type_id":"4","last_reported":1728980002,"current_range_meters":25200,"station_id":"ce4bhbh2rcd13ifvqepg","pricing_plan_id":"cebpf4jnsgd1na2vs0mg"},{"bike_id":"d47463b0-6813-4565-8760-307b0795d4e6","system_id":"levelo_inurba_marseille","lat":43.28149,"lon":5.42632,"is_reserved":false,"is_disabled":false,"rental_uris":{"android":"levelo://app?vid=d47463b0-6813-4565-8760-307b0795d4e6","ios":"levelo://app?vid=d47463b0-6813-4565-8760-307b0795d4e6"},"vehicle_type_id":"4","last_reported":1728980002,"current_range_meters":20400,"station_id":"ce4bhnh2rcd13ifvqgug","pricing_plan_id":"cebpf4jnsgd1na2vs0mg"},{"bike_id":"76465980-7a9a-4872-9297-9b3aa19725f4","system_id":"levelo_inurba_marseille","lat":43.336,"lon":5.41034,"is_reserved":false,"is_disabled":false,"rental_uris":{"android":"levelo://app?vid=76465980-7a9a-4872-9297-9b3aa19725f4","ios":"levelo://app?vid=76465980-7a9a-4872-9297-9b3aa19725f4"},"vehicle_type_id":"4","last_reported":1728980002,"current_range_meters":6800,"station_id":"ce4bhqh2rcd13ifvqhmg","pricing_plan_id":"cebpf4jnsgd1na2vs0mg"},{"bike_id":"e01e41b6-906b-4d38-bd47-8409331ef9cb","system_id":"levelo_inurba_marseille","lat":43.24164,"lon":5.36399,"is_reserved":false,"is_disabled":false,"rental_uris":{"android":"levelo://app?vid=e01e41b6-906b-4d38-bd47-8409331ef9cb","ios":"levelo://app?vid=e01e41b6-906b-4d38-bd47-8409331ef9cb"},"vehicle_type_id":"4","last_reported":1728980002,"current_range_meters":34000,"station_id":"cpo36qri1sfpv3e86is0","pricing_plan_id":"cebpf4jnsgd1na2vs0mg"},{"bike_id":"cc178887-2112-4978-ba8f-afc97457a643","system_id":"levelo_inurba_marseille","lat":43.30352,"lon":5.41871,"is_reserved":false,"is_disabled":false,"rental_uris":{"android":"levelo://app?vid=cc178887-2112-4978-ba8f-afc97457a643","ios":"levelo://app?vid=cc178887-2112-4978-ba8f-afc97457a643"},"vehicle_type_id":"4","last_reported":1728980002,"current_range_meters":38000,"station_id":"ce4bhop2rcd13ifvqh7g","pricing_plan_id":"cebpf4jnsgd1na2vs0mg"},{"bike_id":"e3ed0c6f-17a1-4b35-bcea-8e6b56203f80","system_id":"levelo_inurba_marseille","lat":43.2594,"lon":5.40904,"is_reserved":false,"is_disabled":false,"rental_uris":{"android":"levelo://app?vid=e3ed0c6f-17a1-4b35-bcea-8e6b56203f80","ios":"levelo://app?vid=e3ed0c6f-17a1-4b35-bcea-8e6b56203f80"},"vehicle_type_id":"4","last_reported":1728980002,"current_range_meters":28400,"station_id":"ce4bhm92rcd13ifvqglg","pricing_plan_id":"cebpf4jnsgd1na2vs0mg"},{"bike_id":"89211ee2-076f-4df3-92bd-cd8885f2e76d","system_id":"levelo_inurba_marseille","lat":43.23191,"lon":5.35556,"is_reserved":false,"is_disabled":false,"rental_uris":{"android":"levelo://app?vid=89211ee2-076f-4df3-92bd-cd8885f2e76d","ios":"levelo://app?vid=89211ee2-076f-4df3-92bd-cd8885f2e76d"},"vehicle_type_id":"4","last_reported":1728980002,"current_range_meters":39200,"station_id":"ce4bhu92rcd13ifvqi70","pricing_plan_id":"cebpf4jnsgd1na2vs0mg"},{"bike_id":"987ee6e0-f71c-4600-8c08-c3f4d3822c50","system_id":"levelo_inurba_marseille","lat":43.30906,"lon":5.36855,"is_reserved":false,"is_disabled":false,"rental_uris":{"android":"levelo://app?vid=987ee6e0-f71c-4600-8c08-c3f4d3822c50","ios":"levelo://app?vid=987ee6e0-f71c-4600-8c08-c3f4d3822c50"},"vehicle_type_id":"4","last_reported":1728980002,"current_range_meters":27600,"station_id":"ce4bgn92rcd13ifvqbvg","pricing_plan_id":"cebpf4jnsgd1na2vs0mg"},{"bike_id":"ce9d0675-d631-4c06-b642-b36bc8ba8ca3","system_id":"levelo_inurba_marseille","lat":43.33725,"lon":5.39194,"is_reserved":false,"is_disabled":false,"rental_uris":{"android":"levelo://app?vid=ce9d0675-d631-4c06-b642-b36bc8ba8ca3","ios":"levelo://app?vid=ce9d0675-d631-4c06-b642-b36bc8ba8ca3"},"vehicle_type_id":"4","last_reported":1728980002,"current_range_meters":37600,"station_id":"ce4bhr92rcd13ifvqhsg","pricing_plan_id":"cebpf4jnsgd1na2vs0mg"},{"bike_id":"d504ef50-cda8-4ec7-90e3-56849b3022cc","system_id":"levelo_inurba_marseille","lat":43.29529,"lon":5.38526,"is_reserved":false,"is_disabled":false,"rental_uris":{"android":"levelo://app?vid=d504ef50-cda8-4ec7-90e3-56849b3022cc","ios":"levelo://app?vid=d504ef50-cda8-4ec7-90e3-56849b3022cc"},"vehicle_type_id":"4","last_reported":1728980002,"current_range_meters":11600,"station_id":"ce4bgih2rcd13ifvqba0","pricing_plan_id":"cebpf4jnsgd1na2vs0mg"},{"bike_id":"34df6e84-3e8e-448f-abad-83d751d6e64c","system_id":"levelo_inurba_marseille","lat":43.31367,"lon":5.36696,"is_reserved":false,"is_disabled":false,"rental_uris":{"android":"levelo://app?vid=34df6e84-3e8e-448f-abad-83d751d6e64c","ios":"levelo://app?vid=34df6e84-3e8e-448f-abad-83d751d6e64c"},"vehicle_type_id":"4","last_reported":1728980002,"current_range_meters":16400,"station_id":"ce4bgr92rcd13ifvqc6g","pricing_plan_id":"cebpf4jnsgd1na2vs0mg"},{"bike_id":"678c26db-dcb1-4396-b0d0-b38d54cca5ee","system_id":"levelo_inurba_marseille","lat":43.24806,"lon":5.37451,"is_reserved":false,"is_disabled":false,"rental_uris":{"android":"levelo://app?vid=678c26db-dcb1-4396-b0d0-b38d54cca5ee","ios":"levelo://app?vid=678c26db-dcb1-4396-b0d0-b38d54cca5ee"},"vehicle_type_id":"4","last_reported":1728980002,"current_range_meters":7200,"station_id":"ce4bhgh2rcd13ifvqfb0","pricing_plan_id":"cebpf4jnsgd1na2vs0mg"},{"bike_id":"ed746dab-c0d5-4884-8a11-2dcbfe5f8857","system_id":"levelo_inurba_marseille","lat":43.31361,"lon":5.36712,"is_reserved":false,"is_disabled":false,"rental_uris":{"android":"levelo://app?vid=ed746dab-c0d5-4884-8a11-2dcbfe5f8857","ios":"levelo://app?vid=ed746dab-c0d5-4884-8a11-2dcbfe5f8857"},"vehicle_type_id":"4","last_reported":1728980002,"current_range_meters":24000,"station_id":"ce4bgr92rcd13ifvqc6g","pricing_plan_id":"cebpf4jnsgd1na2vs0mg"},{"bike_id":"d2f93f55-1bfc-4fcf-afc0-1e2ba98f7c28","system_id":"levelo_inurba_marseille","lat":43.30546,"lon":5.36709,"is_reserved":false,"is_disabled":false,"rental_uris":{"android":"levelo://app?vid=d2f93f55-1bfc-4fcf-afc0-1e2ba98f7c28","ios":"levelo://app?vid=d2f93f55-1bfc-4fcf-afc0-1e2ba98f7c28"},"vehicle_type_id":"4","last_reported":1728980002,"current_range_meters":32800,"station_id":"ce4bgrp2rcd13ifvqc9g","pricing_plan_id":"cebpf4jnsgd1na2vs0mg"},{"bike_id":"2c9eaa27-b3a3-423e-835b-116e26d3d4f0","system_id":"levelo_inurba_marseille","lat":43.30603,"lon":5.37232,"is_reserved":false,"is_disabled":false,"rental_uris":{"android":"levelo://app?vid=2c9eaa27-b3a3-423e-835b-116e26d3d4f0","ios":"levelo://app?vid=2c9eaa27-b3a3-423e-835b-116e26d3d4f0"},"vehicle_type_id":"4","last_reported":1728980002,"current_range_meters":29600,"station_id":"ce4bgqh2rcd13ifvqc4g","pricing_plan_id":"cebpf4jnsgd1na2vs0mg"},{"bike_id":"d36ab0ff-210a-4155-855a-bdf3cca1b9af","system_id":"levelo_inurba_marseille","lat":43.2594,"lon":5.40907,"is_reserved":false,"is_disabled":false,"rental_uris":{"android":"levelo://app?vid=d36ab0ff-210a-4155-855a-bdf3cca1b9af","ios":"levelo://app?vid=d36ab0ff-210a-4155-855a-bdf3cca1b9af"},"vehicle_type_id":"4","last_reported":1728980002,"current_range_meters":28400,"station_id":"ce4bhm92rcd13ifvqglg","pricing_plan_id":"cebpf4jnsgd1na2vs0mg"},{"bike_id":"c89b8924-4de9-4670-a533-bf6233fb6f43","system_id":"levelo_inurba_marseille","lat":43.29256,"lon":5.40904,"is_reserved":false,"is_disabled":false,"rental_uris":{"android":"levelo://app?vid=c89b8924-4de9-4670-a533-bf6233fb6f43","ios":"levelo://app?vid=c89b8924-4de9-4670-a533-bf6233fb6f43"},"vehicle_type_id":"4","last_reported":1728980002,"current_range_meters":27600,"station_id":"ce4bh192rcd13ifvqdc0","pricing_plan_id":"cebpf4jnsgd1na2vs0mg"},{"bike_id":"c620684a-3a98-46a6-a3e2-625a11908b9f","system_id":"levelo_inurba_marseille","lat":43.27813,"lon":5.40706,"is_reserved":false,"is_disabled":false,"rental_uris":{"android":"levelo://app?vid=c620684a-3a98-46a6-a3e2-625a11908b9f","ios":"levelo://app?vid=c620684a-3a98-46a6-a3e2-625a11908b9f"},"vehicle_type_id":"4","last_reported":1728980002,"current_range_meters":12000,"station_id":"ce4bhnh2rcd13ifvqgtg","pricing_plan_id":"cebpf4jnsgd1na2vs0mg"},{"bike_id":"9c4870ef-8189-49c9-8051-0aef7043e5cd","system_id":"levelo_inurba_marseille","lat":43.25937,"lon":5.40894,"is_reserved":false,"is_disabled":false,"rental_uris":{"android":"levelo://app?vid=9c4870ef-8189-49c9-8051-0aef7043e5cd","ios":"levelo://app?vid=9c4870ef-8189-49c9-8051-0aef7043e5cd"},"vehicle_type_id":"4","last_reported":1728980002,"current_range_meters":5600,"station_id":"ce4bhm92rcd13ifvqglg","pricing_plan_id":"cebpf4jnsgd1na2vs0mg"},{"bike_id":"d9072998-a6fc-4a2a-ad2f-7d6ddc9ad3c9","system_id":"levelo_inurba_marseille","lat":43.32651,"lon":5.41013,"is_reserved":false,"is_disabled":false,"rental_uris":{"android":"levelo://app?vid=d9072998-a6fc-4a2a-ad2f-7d6ddc9ad3c9","ios":"levelo://app?vid=d9072998-a6fc-4a2a-ad2f-7d6ddc9ad3c9"},"vehicle_type_id":"4","last_reported":1728980002,"current_range_meters":5600,"station_id":"ce4bhr92rcd13ifvqhrg","pricing_plan_id":"cebpf4jnsgd1na2vs0mg"},{"bike_id":"70fc60a6-b8a1-49de-8a6e-1b532dfb0edc","system_id":"levelo_inurba_marseille","lat":43.32486,"lon":5.36577,"is_reserved":false,"is_disabled":false,"rental_uris":{"android":"levelo://app?vid=70fc60a6-b8a1-49de-8a6e-1b532dfb0edc","ios":"levelo://app?vid=70fc60a6-b8a1-49de-8a6e-1b532dfb0edc"},"vehicle_type_id":"4","last_reported":1728980002,"current_range_meters":12000,"station_id":"ce4bhs12rcd13ifvqhvg","pricing_plan_id":"cebpf4jnsgd1na2vs0mg"},{"bike_id":"b6761712-cd33-437e-83c8-811ce3c1e59f","system_id":"levelo_inurba_marseille","lat":43.23959,"lon":5.36643,"is_reserved":false,"is_disabled":false,"rental_uris":{"android":"levelo://app?vid=b6761712-cd33-437e-83c8-811ce3c1e59f","ios":"levelo://app?vid=b6761712-cd33-437e-83c8-811ce3c1e59f"},"vehicle_type_id":"4","last_reported":1728980002,"current_range_meters":32000,"station_id":"ce4bhi12rcd13ifvqfp0","pricing_plan_id":"cebpf4jnsgd1na2vs0mg"},{"bike_id":"88a28b3c-bb82-46d0-b8ad-205fdb206f2c","system_id":"levelo_inurba_marseille","lat":43.2573,"lon":5.41104,"is_reserved":false,"is_disabled":false,"rental_uris":{"android":"levelo://app?vid=88a28b3c-bb82-46d0-b8ad-205fdb206f2c","ios":"levelo://app?vid=88a28b3c-bb82-46d0-b8ad-205fdb206f2c"},"vehicle_type_id":"4","last_reported":1728980002,"current_range_meters":38800,"station_id":"ce4bhkp2rcd13ifvqgd0","pricing_plan_id":"cebpf4jnsgd1na2vs0mg"},{"bike_id":"1d4809c7-50a5-471c-a2a9-7c2622bdf17d","system_id":"levelo_inurba_marseille","lat":43.26951,"lon":5.38607,"is_reserved":false,"is_disabled":false,"rental_uris":{"android":"levelo://app?vid=1d4809c7-50a5-471c-a2a9-7c2622bdf17d","ios":"levelo://app?vid=1d4809c7-50a5-471c-a2a9-7c2622bdf17d"},"vehicle_type_id":"4","last_reported":1728980002,"current_range_meters":39200,"station_id":"ce4bhh92rcd13ifvqfh0","pricing_plan_id":"cebpf4jnsgd1na2vs0mg"},{"bike_id":"ff96eee3-1ac8-4888-9ae7-e4b6cc8154af","system_id":"levelo_inurba_marseille","lat":43.33739,"lon":5.3746,"is_reserved":false,"is_disabled":false,"rental_uris":{"android":"levelo://app?vid=ff96eee3-1ac8-4888-9ae7-e4b6cc8154af","ios":"levelo://app?vid=ff96eee3-1ac8-4888-9ae7-e4b6cc8154af"},"vehicle_type_id":"4","last_reported":1728980002,"current_range_meters":34800,"station_id":"","pricing_plan_id":"cebpf4jnsgd1na2vs0mg"},{"bike_id":"342e1942-2d97-4b1e-a725-9986f3fd7423","system_id":"levelo_inurba_marseille","lat":43.31223,"lon":5.36878,"is_reserved":false,"is_disabled":false,"rental_uris":{"android":"levelo://app?vid=342e1942-2d97-4b1e-a725-9986f3fd7423","ios":"levelo://app?vid=342e1942-2d97-4b1e-a725-9986f3fd7423"},"vehicle_type_id":"4","last_reported":1728980002,"current_range_meters":16400,"station_id":"ce4bgl92rcd13ifvqbq0","pricing_plan_id":"cebpf4jnsgd1na2vs0mg"},{"bike_id":"18466dd1-f83e-4b92-8f8e-056250979eea","system_id":"levelo_inurba_marseille","lat":43.30951,"lon":5.39033,"is_reserved":false,"is_disabled":false,"rental_uris":{"android":"levelo://app?vid=18466dd1-f83e-4b92-8f8e-056250979eea","ios":"levelo://app?vid=18466dd1-f83e-4b92-8f8e-056250979eea"},"vehicle_type_id":"4","last_reported":1728980002,"current_range_meters":32400,"station_id":"ce4bgup2rcd13ifvqco0","pricing_plan_id":"cebpf4jnsgd1na2vs0mg"},{"bike_id":"92e9a629-7865-4b24-b20f-1a84c40473a6","system_id":"levelo_inurba_marseille","lat":43.30133,"lon":5.37424,"is_reserved":false,"is_disabled":false,"rental_uris":{"android":"levelo://app?vid=92e9a629-7865-4b24-b20f-1a84c40473a6","ios":"levelo://app?vid=92e9a629-7865-4b24-b20f-1a84c40473a6"},"vehicle_type_id":"4","last_reported":1728980002,"current_range_meters":12000,"station_id":"ce4bgs92rcd13ifvqcc0","pricing_plan_id":"cebpf4jnsgd1na2vs0mg"},{"bike_id":"327c0164-f59f-43c6-af09-1f3ce26dd6b3","system_id":"levelo_inurba_marseille","lat":43.28373,"lon":5.38635,"is_reserved":false,"is_disabled":false,"rental_uris":{"android":"levelo://app?vid=327c0164-f59f-43c6-af09-1f3ce26dd6b3","ios":"levelo://app?vid=327c0164-f59f-43c6-af09-1f3ce26dd6b3"},"vehicle_type_id":"4","last_reported":1728980002,"current_range_meters":28800,"station_id":"ce4bh492rcd13ifvqdvg","pricing_plan_id":"cebpf4jnsgd1na2vs0mg"},{"bike_id":"b5867061-d52d-43a1-94e2-b3bbd9b3e89b","system_id":"levelo_inurba_marseille","lat":43.30539,"lon":5.36702,"is_reserved":false,"is_disabled":false,"rental_uris":{"android":"levelo://app?vid=b5867061-d52d-43a1-94e2-b3bbd9b3e89b","ios":"levelo://app?vid=b5867061-d52d-43a1-94e2-b3bbd9b3e89b"},"vehicle_type_id":"4","last_reported":1728980002,"current_range_meters":30000,"station_id":"ce4bgrp2rcd13ifvqc9g","pricing_plan_id":"cebpf4jnsgd1na2vs0mg"},{"bike_id":"00c53683-72aa-4d58-bb91-f404eef9456a","system_id":"levelo_inurba_marseille","lat":43.26947,"lon":5.3863,"is_reserved":false,"is_disabled":false,"rental_uris":{"android":"levelo://app?vid=00c53683-72aa-4d58-bb91-f404eef9456a","ios":"levelo://app?vid=00c53683-72aa-4d58-bb91-f404eef9456a"},"vehicle_type_id":"4","last_reported":1728980002,"current_range_meters":39200,"station_id":"ce4bhh92rcd13ifvqfh0","pricing_plan_id":"cebpf4jnsgd1na2vs0mg"},{"bike_id":"e8e8118d-3d5e-42fd-9096-f73e58a1fa57","system_id":"levelo_inurba_marseille","lat":43.29845,"lon":5.36272,"is_reserved":false,"is_disabled":false,"rental_uris":{"android":"levelo://app?vid=e8e8118d-3d5e-42fd-9096-f73e58a1fa57","ios":"levelo://app?vid=e8e8118d-3d5e-42fd-9096-f73e58a1fa57"},"vehicle_type_id":"4","last_reported":1728980002,"current_range_meters":34800,"station_id":"ce4bgpp2rcd13ifvqc3g","pricing_plan_id":"cebpf4jnsgd1na2vs0mg"},{"bike_id":"6aca9efe-a801-4b75-8e64-f825a47377a4","system_id":"levelo_inurba_marseille","lat":43.300842,"lon":5.390755,"is_reserved":false,"is_disabled":false,"rental_uris":{"android":"levelo://app?vid=6aca9efe-a801-4b75-8e64-f825a47377a4","ios":"levelo://app?vid=6aca9efe-a801-4b75-8e64-f825a47377a4"},"vehicle_type_id":"4","last_reported":1728980002,"current_range_meters":20000,"station_id":"ce4bh192rcd13ifvqdb0","pricing_plan_id":"cebpf4jnsgd1na2vs0mg"},{"bike_id":"10a515f5-de6d-4ebd-ab68-7237fe828660","system_id":"levelo_inurba_marseille","lat":43.309123,"lon":5.3686,"is_reserved":false,"is_disabled":false,"rental_uris":{"android":"levelo://app?vid=10a515f5-de6d-4ebd-ab68-7237fe828660","ios":"levelo://app?vid=10a515f5-de6d-4ebd-ab68-7237fe828660"},"vehicle_type_id":"4","last_reported":1728980002,"current_range_meters":36800,"station_id":"ce4bgn92rcd13ifvqbvg","pricing_plan_id":"cebpf4jnsgd1na2vs0mg"},{"bike_id":"581d4610-1024-489a-8c05-f0c3d4149e6d","system_id":"levelo_inurba_marseille","lat":43.287476,"lon":5.352191,"is_reserved":false,"is_disabled":false,"rental_uris":{"android":"levelo://app?vid=581d4610-1024-489a-8c05-f0c3d4149e6d","ios":"levelo://app?vid=581d4610-1024-489a-8c05-f0c3d4149e6d"},"vehicle_type_id":"4","last_reported":1728980002,"current_range_meters":36800,"station_id":"","pricing_plan_id":"cebpf4jnsgd1na2vs0mg"},{"bike_id":"c3439ad1-485f-49f1-b081-969604af9691","system_id":"levelo_inurba_marseille","lat":43.31358,"lon":5.36703,"is_reserved":false,"is_disabled":false,"rental_uris":{"android":"levelo://app?vid=c3439ad1-485f-49f1-b081-969604af9691","ios":"levelo://app?vid=c3439ad1-485f-49f1-b081-969604af9691"},"vehicle_type_id":"4","last_reported":1728980002,"current_range_meters":25600,"station_id":"ce4bgr92rcd13ifvqc6g","pricing_plan_id":"cebpf4jnsgd1na2vs0mg"},{"bike_id":"e55ce7e2-8e60-47b5-844e-977029bd08ba","system_id":"levelo_inurba_marseille","lat":43.29557,"lon":5.4228,"is_reserved":false,"is_disabled":false,"rental_uris":{"android":"levelo://app?vid=e55ce7e2-8e60-47b5-844e-977029bd08ba","ios":"levelo://app?vid=e55ce7e2-8e60-47b5-844e-977029bd08ba"},"vehicle_type_id":"4","last_reported":1728980002,"current_range_meters":38800,"station_id":"ce4bhph2rcd13ifvqhdg","pricing_plan_id":"cebpf4jnsgd1na2vs0mg"},{"bike_id":"52fa2081-f38a-44c7-a2e6-3e6ff38f3d5b","system_id":"levelo_inurba_marseille","lat":43.336,"lon":5.41032,"is_reserved":false,"is_disabled":false,"rental_uris":{"android":"levelo://app?vid=52fa2081-f38a-44c7-a2e6-3e6ff38f3d5b","ios":"levelo://app?vid=52fa2081-f38a-44c7-a2e6-3e6ff38f3d5b"},"vehicle_type_id":"4","last_reported":1728980002,"current_range_meters":22800,"station_id":"ce4bhqh2rcd13ifvqhmg","pricing_plan_id":"cebpf4jnsgd1na2vs0mg"},{"bike_id":"292b9425-1372-40d4-bf0a-fe57aa779a41","system_id":"levelo_inurba_marseille","lat":43.23063,"lon":5.35495,"is_reserved":false,"is_disabled":false,"rental_uris":{"android":"levelo://app?vid=292b9425-1372-40d4-bf0a-fe57aa779a41","ios":"levelo://app?vid=292b9425-1372-40d4-bf0a-fe57aa779a41"},"vehicle_type_id":"4","last_reported":1728980002,"current_range_meters":34800,"station_id":"cpo3342slgdg3j2ifvpg","pricing_plan_id":"cebpf4jnsgd1na2vs0mg"},{"bike_id":"cb8fa6f1-b20b-4252-bc41-dff426e23136","system_id":"levelo_inurba_marseille","lat":43.31219,"lon":5.36855,"is_reserved":false,"is_disabled":false,"rental_uris":{"android":"levelo://app?vid=cb8fa6f1-b20b-4252-bc41-dff426e23136","ios":"levelo://app?vid=cb8fa6f1-b20b-4252-bc41-dff426e23136"},"vehicle_type_id":"4","last_reported":1728980002,"current_range_meters":37600,"station_id":"ce4bgl92rcd13ifvqbq0","pricing_plan_id":"cebpf4jnsgd1na2vs0mg"},{"bike_id":"d7639349-3039-4e75-b9f1-7bdf94bac016","system_id":"levelo_inurba_marseille","lat":43.25929,"lon":5.40892,"is_reserved":false,"is_disabled":false,"rental_uris":{"android":"levelo://app?vid=d7639349-3039-4e75-b9f1-7bdf94bac016","ios":"levelo://app?vid=d7639349-3039-4e75-b9f1-7bdf94bac016"},"vehicle_type_id":"4","last_reported":1728980002,"current_range_meters":10800,"station_id":"ce4bhm92rcd13ifvqglg","pricing_plan_id":"cebpf4jnsgd1na2vs0mg"},{"bike_id":"d1f2595e-bc95-40bc-b6d0-ad15417381d7","system_id":"levelo_inurba_marseille","lat":43.297097,"lon":5.366025,"is_reserved":false,"is_disabled":false,"rental_uris":{"android":"levelo://app?vid=d1f2595e-bc95-40bc-b6d0-ad15417381d7","ios":"levelo://app?vid=d1f2595e-bc95-40bc-b6d0-ad15417381d7"},"vehicle_type_id":"4","last_reported":1728980002,"current_range_meters":31200,"station_id":"ce4bgn12rcd13ifvqbt0","pricing_plan_id":"cebpf4jnsgd1na2vs0mg"},{"bike_id":"86f34d6f-7187-413f-9a4b-c8a0f954cb2b","system_id":"levelo_inurba_marseille","lat":43.25729,"lon":5.41109,"is_reserved":false,"is_disabled":false,"rental_uris":{"android":"levelo://app?vid=86f34d6f-7187-413f-9a4b-c8a0f954cb2b","ios":"levelo://app?vid=86f34d6f-7187-413f-9a4b-c8a0f954cb2b"},"vehicle_type_id":"4","last_reported":1728980002,"current_range_meters":32000,"station_id":"ce4bhkp2rcd13ifvqgd0","pricing_plan_id":"cebpf4jnsgd1na2vs0mg"},{"bike_id":"67621629-5dc0-4f71-b9a0-49e938dd9cce","system_id":"levelo_inurba_marseille","lat":43.27969,"lon":5.3873,"is_reserved":false,"is_disabled":false,"rental_uris":{"android":"levelo://app?vid=67621629-5dc0-4f71-b9a0-49e938dd9cce","ios":"levelo://app?vid=67621629-5dc0-4f71-b9a0-49e938dd9cce"},"vehicle_type_id":"4","last_reported":1728980002,"current_range_meters":20800,"station_id":"ce4bhg12rcd13ifvqf80","pricing_plan_id":"cebpf4jnsgd1na2vs0mg"},{"bike_id":"d8597bf4-185f-46b0-9306-434905261110","system_id":"levelo_inurba_marseille","lat":43.282709,"lon":5.350857,"is_reserved":false,"is_disabled":false,"rental_uris":{"android":"levelo://app?vid=d8597bf4-185f-46b0-9306-434905261110","ios":"levelo://app?vid=d8597bf4-185f-46b0-9306-434905261110"},"vehicle_type_id":"4","last_reported":1728980002,"current_range_meters":26800,"station_id":"ce4bhbp2rcd13ifvqerg","pricing_plan_id":"cebpf4jnsgd1na2vs0mg"},{"bike_id":"c294b81c-1176-4ef5-90a7-faacf8fea58b","system_id":"levelo_inurba_marseille","lat":43.30133,"lon":5.37418,"is_reserved":false,"is_disabled":false,"rental_uris":{"android":"levelo://app?vid=c294b81c-1176-4ef5-90a7-faacf8fea58b","ios":"levelo://app?vid=c294b81c-1176-4ef5-90a7-faacf8fea58b"},"vehicle_type_id":"4","last_reported":1728980002,"current_range_meters":30400,"station_id":"ce4bgs92rcd13ifvqcc0","pricing_plan_id":"cebpf4jnsgd1na2vs0mg"},{"bike_id":"c5e798d3-87ab-41f0-ae21-de3af1a16c66","system_id":"levelo_inurba_marseille","lat":43.28843,"lon":5.35848,"is_reserved":false,"is_disabled":false,"rental_uris":{"android":"levelo://app?vid=c5e798d3-87ab-41f0-ae21-de3af1a16c66","ios":"levelo://app?vid=c5e798d3-87ab-41f0-ae21-de3af1a16c66"},"vehicle_type_id":"4","last_reported":1728980002,"current_range_meters":8800,"station_id":"ce4bhb12rcd13ifvqem0","pricing_plan_id":"cebpf4jnsgd1na2vs0mg"},{"bike_id":"62139ce0-1f4e-490e-b21b-ab9edbb253f9","system_id":"levelo_inurba_marseille","lat":43.28569,"lon":5.39496,"is_reserved":false,"is_disabled":false,"rental_uris":{"android":"levelo://app?vid=62139ce0-1f4e-490e-b21b-ab9edbb253f9","ios":"levelo://app?vid=62139ce0-1f4e-490e-b21b-ab9edbb253f9"},"vehicle_type_id":"4","last_reported":1728980002,"current_range_meters":10800,"station_id":"ce4bh292rcd13ifvqdg0","pricing_plan_id":"cebpf4jnsgd1na2vs0mg"},{"bike_id":"e42a5c5b-19d2-48bc-8dfc-c8514ef28621","system_id":"levelo_inurba_marseille","lat":43.24169,"lon":5.36399,"is_reserved":false,"is_disabled":false,"rental_uris":{"android":"levelo://app?vid=e42a5c5b-19d2-48bc-8dfc-c8514ef28621","ios":"levelo://app?vid=e42a5c5b-19d2-48bc-8dfc-c8514ef28621"},"vehicle_type_id":"4","last_reported":1728980002,"current_range_meters":26800,"station_id":"cpo36qri1sfpv3e86is0","pricing_plan_id":"cebpf4jnsgd1na2vs0mg"},{"bike_id":"f46e13eb-53bd-4892-988e-fd8fb01bffba","system_id":"levelo_inurba_marseille","lat":43.2418,"lon":5.39732,"is_reserved":false,"is_disabled":false,"rental_uris":{"android":"levelo://app?vid=f46e13eb-53bd-4892-988e-fd8fb01bffba","ios":"levelo://app?vid=f46e13eb-53bd-4892-988e-fd8fb01bffba"},"vehicle_type_id":"4","last_reported":1728980002,"current_range_meters":16400,"station_id":"ce4bhn12rcd13ifvqgpg","pricing_plan_id":"cebpf4jnsgd1na2vs0mg"},{"bike_id":"1989161d-8386-47b1-87a5-b86d93dc477e","system_id":"levelo_inurba_marseille","lat":43.25932,"lon":5.40904,"is_reserved":false,"is_disabled":false,"rental_uris":{"android":"levelo://app?vid=1989161d-8386-47b1-87a5-b86d93dc477e","ios":"levelo://app?vid=1989161d-8386-47b1-87a5-b86d93dc477e"},"vehicle_type_id":"4","last_reported":1728980002,"current_range_meters":34000,"station_id":"ce4bhm92rcd13ifvqglg","pricing_plan_id":"cebpf4jnsgd1na2vs0mg"},{"bike_id":"25f4bf2b-b653-49f4-8941-e4f3e57743f7","system_id":"levelo_inurba_marseille","lat":43.30543,"lon":5.3671,"is_reserved":false,"is_disabled":false,"rental_uris":{"android":"levelo://app?vid=25f4bf2b-b653-49f4-8941-e4f3e57743f7","ios":"levelo://app?vid=25f4bf2b-b653-49f4-8941-e4f3e57743f7"},"vehicle_type_id":"4","last_reported":1728980002,"current_range_meters":34800,"station_id":"ce4bgrp2rcd13ifvqc9g","pricing_plan_id":"cebpf4jnsgd1na2vs0mg"},{"bike_id":"0bb0b55b-1db0-4f04-9cae-5decd1e52b8e","system_id":"levelo_inurba_marseille","lat":43.23157,"lon":5.4371,"is_reserved":false,"is_disabled":false,"rental_uris":{"android":"levelo://app?vid=0bb0b55b-1db0-4f04-9cae-5decd1e52b8e","ios":"levelo://app?vid=0bb0b55b-1db0-4f04-9cae-5decd1e52b8e"},"vehicle_type_id":"4","last_reported":1728980002,"current_range_meters":22800,"station_id":"ce4bhmp2rcd13ifvqgog","pricing_plan_id":"cebpf4jnsgd1na2vs0mg"},{"bike_id":"ae0bc982-9f04-47f6-9a49-7becc4cc21f9","system_id":"levelo_inurba_marseille","lat":43.31232,"lon":5.36869,"is_reserved":false,"is_disabled":false,"rental_uris":{"android":"levelo://app?vid=ae0bc982-9f04-47f6-9a49-7becc4cc21f9","ios":"levelo://app?vid=ae0bc982-9f04-47f6-9a49-7becc4cc21f9"},"vehicle_type_id":"4","last_reported":1728980002,"current_range_meters":28800,"station_id":"ce4bgl92rcd13ifvqbq0","pricing_plan_id":"cebpf4jnsgd1na2vs0mg"},{"bike_id":"eecd106e-ff8f-409e-9c56-21b66ef3f2f6","system_id":"levelo_inurba_marseille","lat":43.32047,"lon":5.41566,"is_reserved":false,"is_disabled":false,"rental_uris":{"android":"levelo://app?vid=eecd106e-ff8f-409e-9c56-21b66ef3f2f6","ios":"levelo://app?vid=eecd106e-ff8f-409e-9c56-21b66ef3f2f6"},"vehicle_type_id":"4","last_reported":1728980002,"current_range_meters":32400,"station_id":"ce4bhq92rcd13ifvqhkg","pricing_plan_id":"cebpf4jnsgd1na2vs0mg"},{"bike_id":"1b5cd61f-8783-43f8-b628-f683e5b86f00","system_id":"levelo_inurba_marseille","lat":43.26678,"lon":5.38259,"is_reserved":false,"is_disabled":false,"rental_uris":{"android":"levelo://app?vid=1b5cd61f-8783-43f8-b628-f683e5b86f00","ios":"levelo://app?vid=1b5cd61f-8783-43f8-b628-f683e5b86f00"},"vehicle_type_id":"4","last_reported":1728980002,"current_range_meters":24800,"station_id":"ce4bhg92rcd13ifvqf90","pricing_plan_id":"cebpf4jnsgd1na2vs0mg"},{"bike_id":"d06f24f3-1961-4c39-8b26-c72733863fe9","system_id":"levelo_inurba_marseille","lat":43.33781,"lon":5.37443,"is_reserved":false,"is_disabled":false,"rental_uris":{"android":"levelo://app?vid=d06f24f3-1961-4c39-8b26-c72733863fe9","ios":"levelo://app?vid=d06f24f3-1961-4c39-8b26-c72733863fe9"},"vehicle_type_id":"4","last_reported":1728980002,"current_range_meters":25200,"station_id":"","pricing_plan_id":"cebpf4jnsgd1na2vs0mg"},{"bike_id":"35ee015f-fa4b-469f-9467-602ccd0a4196","system_id":"levelo_inurba_marseille","lat":43.31492,"lon":5.37305,"is_reserved":false,"is_disabled":false,"rental_uris":{"android":"levelo://app?vid=35ee015f-fa4b-469f-9467-602ccd0a4196","ios":"levelo://app?vid=35ee015f-fa4b-469f-9467-602ccd0a4196"},"vehicle_type_id":"4","last_reported":1728980002,"current_range_meters":38400,"station_id":"ce4bgt12rcd13ifvqcd0","pricing_plan_id":"cebpf4jnsgd1na2vs0mg"},{"bike_id":"0890d159-05ac-4ed1-813d-96237021dab0","system_id":"levelo_inurba_marseille","lat":43.24647,"lon":5.38888,"is_reserved":false,"is_disabled":false,"rental_uris":{"android":"levelo://app?vid=0890d159-05ac-4ed1-813d-96237021dab0","ios":"levelo://app?vid=0890d159-05ac-4ed1-813d-96237021dab0"},"vehicle_type_id":"4","last_reported":1728980002,"current_range_meters":20800,"station_id":"ce4bhg12rcd13ifvqf60","pricing_plan_id":"cebpf4jnsgd1na2vs0mg"},{"bike_id":"99f9ea32-0001-413d-b7b6-a31a18932e99","system_id":"levelo_inurba_marseille","lat":43.26939,"lon":5.40261,"is_reserved":false,"is_disabled":false,"rental_uris":{"android":"levelo://app?vid=99f9ea32-0001-413d-b7b6-a31a18932e99","ios":"levelo://app?vid=99f9ea32-0001-413d-b7b6-a31a18932e99"},"vehicle_type_id":"4","last_reported":1728980002,"current_range_meters":32400,"station_id":"cjm6bp8fraef2m0cb0m0","pricing_plan_id":"cebpf4jnsgd1na2vs0mg"},{"bike_id":"5972a1d9-2cd5-421f-b6b7-408d20f5c0e1","system_id":"levelo_inurba_marseille","lat":43.25727,"lon":5.41107,"is_reserved":false,"is_disabled":false,"rental_uris":{"android":"levelo://app?vid=5972a1d9-2cd5-421f-b6b7-408d20f5c0e1","ios":"levelo://app?vid=5972a1d9-2cd5-421f-b6b7-408d20f5c0e1"},"vehicle_type_id":"4","last_reported":1728980002,"current_range_meters":13600,"station_id":"ce4bhkp2rcd13ifvqgd0","pricing_plan_id":"cebpf4jnsgd1na2vs0mg"},{"bike_id":"d41309ab-1a1f-4395-acaa-455483c3f8e1","system_id":"levelo_inurba_marseille","lat":43.23195,"lon":5.3555,"is_reserved":false,"is_disabled":false,"rental_uris":{"android":"levelo://app?vid=d41309ab-1a1f-4395-acaa-455483c3f8e1","ios":"levelo://app?vid=d41309ab-1a1f-4395-acaa-455483c3f8e1"},"vehicle_type_id":"4","last_reported":1728980002,"current_range_meters":34000,"station_id":"ce4bhu92rcd13ifvqi70","pricing_plan_id":"cebpf4jnsgd1na2vs0mg"},{"bike_id":"39b707b7-e53b-4ad1-be37-0df2a563b2c2","system_id":"levelo_inurba_marseille","lat":43.31363,"lon":5.36713,"is_reserved":false,"is_disabled":false,"rental_uris":{"android":"levelo://app?vid=39b707b7-e53b-4ad1-be37-0df2a563b2c2","ios":"levelo://app?vid=39b707b7-e53b-4ad1-be37-0df2a563b2c2"},"vehicle_type_id":"4","last_reported":1728980002,"current_range_meters":40000,"station_id":"ce4bgr92rcd13ifvqc6g","pricing_plan_id":"cebpf4jnsgd1na2vs0mg"},{"bike_id":"cdb42235-22c7-4361-88d9-29ffbbc64dd6","system_id":"levelo_inurba_marseille","lat":43.337444,"lon":5.374475,"is_reserved":false,"is_disabled":false,"rental_uris":{"android":"levelo://app?vid=cdb42235-22c7-4361-88d9-29ffbbc64dd6","ios":"levelo://app?vid=cdb42235-22c7-4361-88d9-29ffbbc64dd6"},"vehicle_type_id":"4","last_reported":1728980002,"current_range_meters":19200,"station_id":"ce4bh2p2rcd13ifvqdi0","pricing_plan_id":"cebpf4jnsgd1na2vs0mg"},{"bike_id":"4541705b-123e-4e6f-8dd6-ae40b6b53c55","system_id":"levelo_inurba_marseille","lat":43.28152,"lon":5.42637,"is_reserved":false,"is_disabled":false,"rental_uris":{"android":"levelo://app?vid=4541705b-123e-4e6f-8dd6-ae40b6b53c55","ios":"levelo://app?vid=4541705b-123e-4e6f-8dd6-ae40b6b53c55"},"vehicle_type_id":"4","last_reported":1728980002,"current_range_meters":8400,"station_id":"ce4bhnh2rcd13ifvqgug","pricing_plan_id":"cebpf4jnsgd1na2vs0mg"},{"bike_id":"172529df-2f4c-40a4-a620-03f8a348e948","system_id":"levelo_inurba_marseille","lat":43.2315,"lon":5.43704,"is_reserved":false,"is_disabled":false,"rental_uris":{"android":"levelo://app?vid=172529df-2f4c-40a4-a620-03f8a348e948","ios":"levelo://app?vid=172529df-2f4c-40a4-a620-03f8a348e948"},"vehicle_type_id":"4","last_reported":1728980002,"current_range_meters":18800,"station_id":"ce4bhmp2rcd13ifvqgog","pricing_plan_id":"cebpf4jnsgd1na2vs0mg"},{"bike_id":"1236bbf7-ed03-4263-9ab4-884e4d68a5c4","system_id":"levelo_inurba_marseille","lat":43.32476,"lon":5.36561,"is_reserved":false,"is_disabled":false,"rental_uris":{"android":"levelo://app?vid=1236bbf7-ed03-4263-9ab4-884e4d68a5c4","ios":"levelo://app?vid=1236bbf7-ed03-4263-9ab4-884e4d68a5c4"},"vehicle_type_id":"4","last_reported":1728980002,"current_range_meters":38800,"station_id":"ce4bhs12rcd13ifvqhvg","pricing_plan_id":"cebpf4jnsgd1na2vs0mg"},{"bike_id":"48754b73-279d-4053-9335-cce60df3b794","system_id":"levelo_inurba_marseille","lat":43.23152,"lon":5.43722,"is_reserved":false,"is_disabled":false,"rental_uris":{"android":"levelo://app?vid=48754b73-279d-4053-9335-cce60df3b794","ios":"levelo://app?vid=48754b73-279d-4053-9335-cce60df3b794"},"vehicle_type_id":"4","last_reported":1728980002,"current_range_meters":24000,"station_id":"ce4bhmp2rcd13ifvqgog","pricing_plan_id":"cebpf4jnsgd1na2vs0mg"},{"bike_id":"38587de4-f6b9-40cb-9e50-3ce0c52e96f2","system_id":"levelo_inurba_marseille","lat":43.28927,"lon":5.38405,"is_reserved":false,"is_disabled":false,"rental_uris":{"android":"levelo://app?vid=38587de4-f6b9-40cb-9e50-3ce0c52e96f2","ios":"levelo://app?vid=38587de4-f6b9-40cb-9e50-3ce0c52e96f2"},"vehicle_type_id":"4","last_reported":1728980002,"current_range_meters":34800,"station_id":"ce4bh612rcd13ifvqe6g","pricing_plan_id":"cebpf4jnsgd1na2vs0mg"},{"bike_id":"aa24e686-c4b3-4e16-bd17-034a8270bcf1","system_id":"levelo_inurba_marseille","lat":43.2984,"lon":5.36267,"is_reserved":false,"is_disabled":false,"rental_uris":{"android":"levelo://app?vid=aa24e686-c4b3-4e16-bd17-034a8270bcf1","ios":"levelo://app?vid=aa24e686-c4b3-4e16-bd17-034a8270bcf1"},"vehicle_type_id":"4","last_reported":1728980002,"current_range_meters":16000,"station_id":"ce4bgpp2rcd13ifvqc3g","pricing_plan_id":"cebpf4jnsgd1na2vs0mg"},{"bike_id":"42ddf1a3-c9fa-4405-9d7e-8b919329a107","system_id":"levelo_inurba_marseille","lat":43.30555,"lon":5.36533,"is_reserved":false,"is_disabled":false,"rental_uris":{"android":"levelo://app?vid=42ddf1a3-c9fa-4405-9d7e-8b919329a107","ios":"levelo://app?vid=42ddf1a3-c9fa-4405-9d7e-8b919329a107"},"vehicle_type_id":"4","last_reported":1728980002,"current_range_meters":39200,"station_id":"ce4bgs12rcd13ifvqcag","pricing_plan_id":"cebpf4jnsgd1na2vs0mg"},{"bike_id":"c7b21cf6-e6ef-4a95-b2ab-92111a1993c5","system_id":"levelo_inurba_marseille","lat":43.27993,"lon":5.41663,"is_reserved":false,"is_disabled":false,"rental_uris":{"android":"levelo://app?vid=c7b21cf6-e6ef-4a95-b2ab-92111a1993c5","ios":"levelo://app?vid=c7b21cf6-e6ef-4a95-b2ab-92111a1993c5"},"vehicle_type_id":"4","last_reported":1728980002,"current_range_meters":27200,"station_id":"ce4bho12rcd13ifvqh1g","pricing_plan_id":"cebpf4jnsgd1na2vs0mg"},{"bike_id":"4c0eae8f-fb78-42e3-9cf9-594cfc4b55bc","system_id":"levelo_inurba_marseille","lat":43.24074,"lon":5.37761,"is_reserved":false,"is_disabled":false,"rental_uris":{"android":"levelo://app?vid=4c0eae8f-fb78-42e3-9cf9-594cfc4b55bc","ios":"levelo://app?vid=4c0eae8f-fb78-42e3-9cf9-594cfc4b55bc"},"vehicle_type_id":"4","last_reported":1728980002,"current_range_meters":8400,"station_id":"ce4bhnp2rcd13ifvqgvg","pricing_plan_id":"cebpf4jnsgd1na2vs0mg"},{"bike_id":"5ac4b365-d20a-45e0-acfe-e7e86ca60b8f","system_id":"levelo_inurba_marseille","lat":43.25929,"lon":5.40904,"is_reserved":false,"is_disabled":false,"rental_uris":{"android":"levelo://app?vid=5ac4b365-d20a-45e0-acfe-e7e86ca60b8f","ios":"levelo://app?vid=5ac4b365-d20a-45e0-acfe-e7e86ca60b8f"},"vehicle_type_id":"4","last_reported":1728980002,"current_range_meters":37600,"station_id":"ce4bhm92rcd13ifvqglg","pricing_plan_id":"cebpf4jnsgd1na2vs0mg"},{"bike_id":"b23fe534-1df9-453a-b719-f932fb9afff3","system_id":"levelo_inurba_marseille","lat":43.2315,"lon":5.43715,"is_reserved":false,"is_disabled":false,"rental_uris":{"android":"levelo://app?vid=b23fe534-1df9-453a-b719-f932fb9afff3","ios":"levelo://app?vid=b23fe534-1df9-453a-b719-f932fb9afff3"},"vehicle_type_id":"4","last_reported":1728980002,"current_range_meters":6400,"station_id":"ce4bhmp2rcd13ifvqgog","pricing_plan_id":"cebpf4jnsgd1na2vs0mg"},{"bike_id":"1c9d6b2d-f9d9-407a-b4e3-6d7aceeb5cbc","system_id":"levelo_inurba_marseille","lat":43.24073,"lon":5.37756,"is_reserved":false,"is_disabled":false,"rental_uris":{"android":"levelo://app?vid=1c9d6b2d-f9d9-407a-b4e3-6d7aceeb5cbc","ios":"levelo://app?vid=1c9d6b2d-f9d9-407a-b4e3-6d7aceeb5cbc"},"vehicle_type_id":"4","last_reported":1728980002,"current_range_meters":20000,"station_id":"ce4bhnp2rcd13ifvqgvg","pricing_plan_id":"cebpf4jnsgd1na2vs0mg"},{"bike_id":"1af2813b-98a0-4b62-aaf8-89652b30f639","system_id":"levelo_inurba_marseille","lat":43.22933,"lon":5.35381,"is_reserved":false,"is_disabled":false,"rental_uris":{"android":"levelo://app?vid=1af2813b-98a0-4b62-aaf8-89652b30f639","ios":"levelo://app?vid=1af2813b-98a0-4b62-aaf8-89652b30f639"},"vehicle_type_id":"4","last_reported":1728980002,"current_range_meters":30800,"station_id":"cpo3532slgdg3j2ikp40","pricing_plan_id":"cebpf4jnsgd1na2vs0mg"},{"bike_id":"e933622d-50e9-4399-b2c7-6b78123dd26c","system_id":"levelo_inurba_marseille","lat":43.25936,"lon":5.40895,"is_reserved":false,"is_disabled":false,"rental_uris":{"android":"levelo://app?vid=e933622d-50e9-4399-b2c7-6b78123dd26c","ios":"levelo://app?vid=e933622d-50e9-4399-b2c7-6b78123dd26c"},"vehicle_type_id":"4","last_reported":1728980002,"current_range_meters":5600,"station_id":"ce4bhm92rcd13ifvqglg","pricing_plan_id":"cebpf4jnsgd1na2vs0mg"},{"bike_id":"b6e51444-f57b-47a8-9c42-cdc3eaeef5e5","system_id":"levelo_inurba_marseille","lat":43.31361,"lon":5.36691,"is_reserved":false,"is_disabled":false,"rental_uris":{"android":"levelo://app?vid=b6e51444-f57b-47a8-9c42-cdc3eaeef5e5","ios":"levelo://app?vid=b6e51444-f57b-47a8-9c42-cdc3eaeef5e5"},"vehicle_type_id":"4","last_reported":1728980002,"current_range_meters":39200,"station_id":"ce4bgr92rcd13ifvqc6g","pricing_plan_id":"cebpf4jnsgd1na2vs0mg"},{"bike_id":"f93454e1-a669-4c63-a4ca-b572042c7971","system_id":"levelo_inurba_marseille","lat":43.23192,"lon":5.35558,"is_reserved":false,"is_disabled":false,"rental_uris":{"android":"levelo://app?vid=f93454e1-a669-4c63-a4ca-b572042c7971","ios":"levelo://app?vid=f93454e1-a669-4c63-a4ca-b572042c7971"},"vehicle_type_id":"4","last_reported":1728980002,"current_range_meters":26800,"station_id":"ce4bhu92rcd13ifvqi70","pricing_plan_id":"cebpf4jnsgd1na2vs0mg"},{"bike_id":"ab38c6ee-afe2-452b-b152-733408083f03","system_id":"levelo_inurba_marseille","lat":43.24074,"lon":5.37756,"is_reserved":false,"is_disabled":false,"rental_uris":{"android":"levelo://app?vid=ab38c6ee-afe2-452b-b152-733408083f03","ios":"levelo://app?vid=ab38c6ee-afe2-452b-b152-733408083f03"},"vehicle_type_id":"4","last_reported":1728980002,"current_range_meters":29600,"station_id":"ce4bhnp2rcd13ifvqgvg","pricing_plan_id":"cebpf4jnsgd1na2vs0mg"},{"bike_id":"d944e946-a63b-4a1b-bd3b-f717ac7d49e5","system_id":"levelo_inurba_marseille","lat":43.24077,"lon":5.3776,"is_reserved":false,"is_disabled":false,"rental_uris":{"android":"levelo://app?vid=d944e946-a63b-4a1b-bd3b-f717ac7d49e5","ios":"levelo://app?vid=d944e946-a63b-4a1b-bd3b-f717ac7d49e5"},"vehicle_type_id":"4","last_reported":1728980002,"current_range_meters":28800,"station_id":"ce4bhnp2rcd13ifvqgvg","pricing_plan_id":"cebpf4jnsgd1na2vs0mg"},{"bike_id":"57bc6541-dce3-40de-b918-ceb0411c6d81","system_id":"levelo_inurba_marseille","lat":43.23154,"lon":5.43708,"is_reserved":false,"is_disabled":false,"rental_uris":{"android":"levelo://app?vid=57bc6541-dce3-40de-b918-ceb0411c6d81","ios":"levelo://app?vid=57bc6541-dce3-40de-b918-ceb0411c6d81"},"vehicle_type_id":"4","last_reported":1728980002,"current_range_meters":14000,"station_id":"ce4bhmp2rcd13ifvqgog","pricing_plan_id":"cebpf4jnsgd1na2vs0mg"},{"bike_id":"6a344486-14e7-432e-98bf-b8beed8e06c6","system_id":"levelo_inurba_marseille","lat":43.32336,"lon":5.38328,"is_reserved":false,"is_disabled":false,"rental_uris":{"android":"levelo://app?vid=6a344486-14e7-432e-98bf-b8beed8e06c6","ios":"levelo://app?vid=6a344486-14e7-432e-98bf-b8beed8e06c6"},"vehicle_type_id":"4","last_reported":1728980002,"current_range_meters":31200,"station_id":"","pricing_plan_id":"cebpf4jnsgd1na2vs0mg"},{"bike_id":"1c29ea6a-d424-450d-9c36-6b427ab42330","system_id":"levelo_inurba_marseille","lat":43.34142,"lon":5.40907,"is_reserved":false,"is_disabled":false,"rental_uris":{"android":"levelo://app?vid=1c29ea6a-d424-450d-9c36-6b427ab42330","ios":"levelo://app?vid=1c29ea6a-d424-450d-9c36-6b427ab42330"},"vehicle_type_id":"4","last_reported":1728980002,"current_range_meters":39200,"station_id":"ce4bhqh2rcd13ifvqhlg","pricing_plan_id":"cebpf4jnsgd1na2vs0mg"},{"bike_id":"79ddf1f5-186b-4457-a77e-9d424f43d6e3","system_id":"levelo_inurba_marseille","lat":43.24078,"lon":5.37758,"is_reserved":false,"is_disabled":false,"rental_uris":{"android":"levelo://app?vid=79ddf1f5-186b-4457-a77e-9d424f43d6e3","ios":"levelo://app?vid=79ddf1f5-186b-4457-a77e-9d424f43d6e3"},"vehicle_type_id":"4","last_reported":1728980002,"current_range_meters":16000,"station_id":"ce4bhnp2rcd13ifvqgvg","pricing_plan_id":"cebpf4jnsgd1na2vs0mg"},{"bike_id":"f12609ca-520a-47b5-9e7a-1adf214e85c2","system_id":"levelo_inurba_marseille","lat":43.25082,"lon":5.39514,"is_reserved":false,"is_disabled":false,"rental_uris":{"android":"levelo://app?vid=f12609ca-520a-47b5-9e7a-1adf214e85c2","ios":"levelo://app?vid=f12609ca-520a-47b5-9e7a-1adf214e85c2"},"vehicle_type_id":"4","last_reported":1728980002,"current_range_meters":28800,"station_id":"ce4bhm12rcd13ifvqgkg","pricing_plan_id":"cebpf4jnsgd1na2vs0mg"},{"bike_id":"a2aa7cfa-fbb9-4f50-9cbb-114f2bd6ac23","system_id":"levelo_inurba_marseille","lat":43.31493,"lon":5.37256,"is_reserved":false,"is_disabled":false,"rental_uris":{"android":"levelo://app?vid=a2aa7cfa-fbb9-4f50-9cbb-114f2bd6ac23","ios":"levelo://app?vid=a2aa7cfa-fbb9-4f50-9cbb-114f2bd6ac23"},"vehicle_type_id":"4","last_reported":1728980002,"current_range_meters":25200,"station_id":"ce4bgt12rcd13ifvqcd0","pricing_plan_id":"cebpf4jnsgd1na2vs0mg"},{"bike_id":"c4583097-cbd6-4914-98b4-4ed8d598d525","system_id":"levelo_inurba_marseille","lat":43.26562,"lon":5.39007,"is_reserved":false,"is_disabled":false,"rental_uris":{"android":"levelo://app?vid=c4583097-cbd6-4914-98b4-4ed8d598d525","ios":"levelo://app?vid=c4583097-cbd6-4914-98b4-4ed8d598d525"},"vehicle_type_id":"4","last_reported":1728980002,"current_range_meters":32400,"station_id":"ce4bhe12rcd13ifvqf30","pricing_plan_id":"cebpf4jnsgd1na2vs0mg"},{"bike_id":"c42bf49b-1fdc-4c7e-9ac9-0642271ce8f6","system_id":"levelo_inurba_marseille","lat":43.2749,"lon":5.42456,"is_reserved":false,"is_disabled":false,"rental_uris":{"android":"levelo://app?vid=c42bf49b-1fdc-4c7e-9ac9-0642271ce8f6","ios":"levelo://app?vid=c42bf49b-1fdc-4c7e-9ac9-0642271ce8f6"},"vehicle_type_id":"4","last_reported":1728980002,"current_range_meters":6000,"station_id":"ce4bhn92rcd13ifvqgrg","pricing_plan_id":"cebpf4jnsgd1na2vs0mg"},{"bike_id":"d1b21fcb-34ea-4ff7-88e2-e415949d3144","system_id":"levelo_inurba_marseille","lat":43.287,"lon":5.37392,"is_reserved":false,"is_disabled":false,"rental_uris":{"android":"levelo://app?vid=d1b21fcb-34ea-4ff7-88e2-e415949d3144","ios":"levelo://app?vid=d1b21fcb-34ea-4ff7-88e2-e415949d3144"},"vehicle_type_id":"4","last_reported":1728980002,"current_range_meters":25600,"station_id":"ce4bh3p2rcd13ifvqdq0","pricing_plan_id":"cebpf4jnsgd1na2vs0mg"},{"bike_id":"754da881-cbc9-4b35-beb2-51d368048841","system_id":"levelo_inurba_marseille","lat":43.33722,"lon":5.37446,"is_reserved":false,"is_disabled":false,"rental_uris":{"android":"levelo://app?vid=754da881-cbc9-4b35-beb2-51d368048841","ios":"levelo://app?vid=754da881-cbc9-4b35-beb2-51d368048841"},"vehicle_type_id":"4","last_reported":1728980002,"current_range_meters":36800,"station_id":"","pricing_plan_id":"cebpf4jnsgd1na2vs0mg"},{"bike_id":"996aeef4-ef61-443c-9e98-4ef75b6646e3","system_id":"levelo_inurba_marseille","lat":43.30314,"lon":5.3689,"is_reserved":false,"is_disabled":false,"rental_uris":{"android":"levelo://app?vid=996aeef4-ef61-443c-9e98-4ef75b6646e3","ios":"levelo://app?vid=996aeef4-ef61-443c-9e98-4ef75b6646e3"},"vehicle_type_id":"4","last_reported":1728980002,"current_range_meters":32400,"station_id":"ce4bgqh2rcd13ifvqc5g","pricing_plan_id":"cebpf4jnsgd1na2vs0mg"},{"bike_id":"0f8786e1-d19f-4e2e-9a78-62d0d23793dc","system_id":"levelo_inurba_marseille","lat":43.23151,"lon":5.43723,"is_reserved":false,"is_disabled":false,"rental_uris":{"android":"levelo://app?vid=0f8786e1-d19f-4e2e-9a78-62d0d23793dc","ios":"levelo://app?vid=0f8786e1-d19f-4e2e-9a78-62d0d23793dc"},"vehicle_type_id":"4","last_reported":1728980002,"current_range_meters":26000,"station_id":"ce4bhmp2rcd13ifvqgog","pricing_plan_id":"cebpf4jnsgd1na2vs0mg"},{"bike_id":"dde86e9c-08ab-447e-8977-98fcc15ceb96","system_id":"levelo_inurba_marseille","lat":43.24082,"lon":5.37754,"is_reserved":false,"is_disabled":false,"rental_uris":{"android":"levelo://app?vid=dde86e9c-08ab-447e-8977-98fcc15ceb96","ios":"levelo://app?vid=dde86e9c-08ab-447e-8977-98fcc15ceb96"},"vehicle_type_id":"4","last_reported":1728980002,"current_range_meters":13600,"station_id":"ce4bhnp2rcd13ifvqgvg","pricing_plan_id":"cebpf4jnsgd1na2vs0mg"},{"bike_id":"b1ce1002-a0c8-4871-8eed-d8113342009a","system_id":"levelo_inurba_marseille","lat":43.29554,"lon":5.37436,"is_reserved":false,"is_disabled":false,"rental_uris":{"android":"levelo://app?vid=b1ce1002-a0c8-4871-8eed-d8113342009a","ios":"levelo://app?vid=b1ce1002-a0c8-4871-8eed-d8113342009a"},"vehicle_type_id":"4","last_reported":1728980002,"current_range_meters":26000,"station_id":"","pricing_plan_id":"cebpf4jnsgd1na2vs0mg"},{"bike_id":"80004c0b-1888-4bc4-861c-1bb18fe1efd7","system_id":"levelo_inurba_marseille","lat":43.29552,"lon":5.42287,"is_reserved":false,"is_disabled":false,"rental_uris":{"android":"levelo://app?vid=80004c0b-1888-4bc4-861c-1bb18fe1efd7","ios":"levelo://app?vid=80004c0b-1888-4bc4-861c-1bb18fe1efd7"},"vehicle_type_id":"4","last_reported":1728980002,"current_range_meters":39200,"station_id":"ce4bhph2rcd13ifvqhdg","pricing_plan_id":"cebpf4jnsgd1na2vs0mg"},{"bike_id":"4489eb57-3bb6-4dcc-af4f-deedd1c842cf","system_id":"levelo_inurba_marseille","lat":43.25729,"lon":5.4111,"is_reserved":false,"is_disabled":false,"rental_uris":{"android":"levelo://app?vid=4489eb57-3bb6-4dcc-af4f-deedd1c842cf","ios":"levelo://app?vid=4489eb57-3bb6-4dcc-af4f-deedd1c842cf"},"vehicle_type_id":"4","last_reported":1728980002,"current_range_meters":39200,"station_id":"ce4bhkp2rcd13ifvqgd0","pricing_plan_id":"cebpf4jnsgd1na2vs0mg"},{"bike_id":"b7ef1f60-ffe0-4631-93f5-5f712203b698","system_id":"levelo_inurba_marseille","lat":43.32532,"lon":5.41449,"is_reserved":false,"is_disabled":false,"rental_uris":{"android":"levelo://app?vid=b7ef1f60-ffe0-4631-93f5-5f712203b698","ios":"levelo://app?vid=b7ef1f60-ffe0-4631-93f5-5f712203b698"},"vehicle_type_id":"4","last_reported":1728980002,"current_range_meters":32800,"station_id":"ce4bhq12rcd13ifvqhhg","pricing_plan_id":"cebpf4jnsgd1na2vs0mg"},{"bike_id":"ff6b4096-a152-48dc-a37a-2086ec4a970f","system_id":"levelo_inurba_marseille","lat":43.303019,"lon":5.368641,"is_reserved":false,"is_disabled":false,"rental_uris":{"android":"levelo://app?vid=ff6b4096-a152-48dc-a37a-2086ec4a970f","ios":"levelo://app?vid=ff6b4096-a152-48dc-a37a-2086ec4a970f"},"vehicle_type_id":"4","last_reported":1728980002,"current_range_meters":36800,"station_id":"ce4bgqh2rcd13ifvqc5g","pricing_plan_id":"cebpf4jnsgd1na2vs0mg"},{"bike_id":"85f8e4ef-a703-428d-9079-be396eb9a9af","system_id":"levelo_inurba_marseille","lat":43.32534,"lon":5.41443,"is_reserved":false,"is_disabled":false,"rental_uris":{"android":"levelo://app?vid=85f8e4ef-a703-428d-9079-be396eb9a9af","ios":"levelo://app?vid=85f8e4ef-a703-428d-9079-be396eb9a9af"},"vehicle_type_id":"4","last_reported":1728980002,"current_range_meters":7200,"station_id":"ce4bhq12rcd13ifvqhhg","pricing_plan_id":"cebpf4jnsgd1na2vs0mg"},{"bike_id":"40d8d8d3-e796-4b0b-a308-c0ce835714b2","system_id":"levelo_inurba_marseille","lat":43.26198,"lon":5.37924,"is_reserved":false,"is_disabled":false,"rental_uris":{"android":"levelo://app?vid=40d8d8d3-e796-4b0b-a308-c0ce835714b2","ios":"levelo://app?vid=40d8d8d3-e796-4b0b-a308-c0ce835714b2"},"vehicle_type_id":"4","last_reported":1728980002,"current_range_meters":28800,"station_id":"ce4bhjp2rcd13ifvqg90","pricing_plan_id":"cebpf4jnsgd1na2vs0mg"},{"bike_id":"0d27bf54-1973-4532-95f3-d19c868d7288","system_id":"levelo_inurba_marseille","lat":43.25934,"lon":5.40911,"is_reserved":false,"is_disabled":false,"rental_uris":{"android":"levelo://app?vid=0d27bf54-1973-4532-95f3-d19c868d7288","ios":"levelo://app?vid=0d27bf54-1973-4532-95f3-d19c868d7288"},"vehicle_type_id":"4","last_reported":1728980002,"current_range_meters":2800,"station_id":"ce4bhm92rcd13ifvqglg","pricing_plan_id":"cebpf4jnsgd1na2vs0mg"},{"bike_id":"fd082f2a-9394-43cc-a0ab-471a8161b557","system_id":"levelo_inurba_marseille","lat":43.27057,"lon":5.40266,"is_reserved":false,"is_disabled":false,"rental_uris":{"android":"levelo://app?vid=fd082f2a-9394-43cc-a0ab-471a8161b557","ios":"levelo://app?vid=fd082f2a-9394-43cc-a0ab-471a8161b557"},"vehicle_type_id":"4","last_reported":1728980002,"current_range_meters":18800,"station_id":"ce4bhk92rcd13ifvqgc0","pricing_plan_id":"cebpf4jnsgd1na2vs0mg"},{"bike_id":"136f066f-1178-4684-ade7-96f6d206f347","system_id":"levelo_inurba_marseille","lat":43.23152,"lon":5.43723,"is_reserved":false,"is_disabled":false,"rental_uris":{"android":"levelo://app?vid=136f066f-1178-4684-ade7-96f6d206f347","ios":"levelo://app?vid=136f066f-1178-4684-ade7-96f6d206f347"},"vehicle_type_id":"4","last_reported":1728980002,"current_range_meters":18800,"station_id":"ce4bhmp2rcd13ifvqgog","pricing_plan_id":"cebpf4jnsgd1na2vs0mg"},{"bike_id":"1b5fed6f-86b5-43b2-b23f-805b40cb8553","system_id":"levelo_inurba_marseille","lat":43.2407,"lon":5.37767,"is_reserved":false,"is_disabled":false,"rental_uris":{"android":"levelo://app?vid=1b5fed6f-86b5-43b2-b23f-805b40cb8553","ios":"levelo://app?vid=1b5fed6f-86b5-43b2-b23f-805b40cb8553"},"vehicle_type_id":"4","last_reported":1728980002,"current_range_meters":36400,"station_id":"ce4bhnp2rcd13ifvqgvg","pricing_plan_id":"cebpf4jnsgd1na2vs0mg"},{"bike_id":"f83487b8-cf5a-4d8b-a09a-2f8b8d0d5a46","system_id":"levelo_inurba_marseille","lat":43.337444,"lon":5.374475,"is_reserved":false,"is_disabled":false,"rental_uris":{"android":"levelo://app?vid=f83487b8-cf5a-4d8b-a09a-2f8b8d0d5a46","ios":"levelo://app?vid=f83487b8-cf5a-4d8b-a09a-2f8b8d0d5a46"},"vehicle_type_id":"4","last_reported":1728980002,"current_range_meters":33600,"station_id":"","pricing_plan_id":"cebpf4jnsgd1na2vs0mg"},{"bike_id":"cb9755fb-be52-47a6-97af-f879065a2ad2","system_id":"levelo_inurba_marseille","lat":43.23156,"lon":5.43719,"is_reserved":false,"is_disabled":false,"rental_uris":{"android":"levelo://app?vid=cb9755fb-be52-47a6-97af-f879065a2ad2","ios":"levelo://app?vid=cb9755fb-be52-47a6-97af-f879065a2ad2"},"vehicle_type_id":"4","last_reported":1728980002,"current_range_meters":18000,"station_id":"ce4bhmp2rcd13ifvqgog","pricing_plan_id":"cebpf4jnsgd1na2vs0mg"},{"bike_id":"188da21e-4c3a-4e15-a926-3ae6182803c7","system_id":"levelo_inurba_marseille","lat":43.3095,"lon":5.39039,"is_reserved":false,"is_disabled":false,"rental_uris":{"android":"levelo://app?vid=188da21e-4c3a-4e15-a926-3ae6182803c7","ios":"levelo://app?vid=188da21e-4c3a-4e15-a926-3ae6182803c7"},"vehicle_type_id":"4","last_reported":1728980002,"current_range_meters":21600,"station_id":"ce4bgup2rcd13ifvqco0","pricing_plan_id":"cebpf4jnsgd1na2vs0mg"},{"bike_id":"1b9f3afc-9372-4c34-a26b-f002f7023d22","system_id":"levelo_inurba_marseille","lat":43.29971,"lon":5.37172,"is_reserved":false,"is_disabled":false,"rental_uris":{"android":"levelo://app?vid=1b9f3afc-9372-4c34-a26b-f002f7023d22","ios":"levelo://app?vid=1b9f3afc-9372-4c34-a26b-f002f7023d22"},"vehicle_type_id":"4","last_reported":1728980002,"current_range_meters":37600,"station_id":"ce4bgr92rcd13ifvqc7g","pricing_plan_id":"cebpf4jnsgd1na2vs0mg"},{"bike_id":"f269126c-1b0b-4a1a-a1d6-f8c3716f5336","system_id":"levelo_inurba_marseille","lat":43.23194,"lon":5.35559,"is_reserved":false,"is_disabled":false,"rental_uris":{"android":"levelo://app?vid=f269126c-1b0b-4a1a-a1d6-f8c3716f5336","ios":"levelo://app?vid=f269126c-1b0b-4a1a-a1d6-f8c3716f5336"},"vehicle_type_id":"4","last_reported":1728980002,"current_range_meters":33600,"station_id":"ce4bhu92rcd13ifvqi70","pricing_plan_id":"cebpf4jnsgd1na2vs0mg"},{"bike_id":"5283fc47-e4ff-4e3b-878b-01ca592b3776","system_id":"levelo_inurba_marseille","lat":43.309103,"lon":5.368537,"is_reserved":false,"is_disabled":false,"rental_uris":{"android":"levelo://app?vid=5283fc47-e4ff-4e3b-878b-01ca592b3776","ios":"levelo://app?vid=5283fc47-e4ff-4e3b-878b-01ca592b3776"},"vehicle_type_id":"4","last_reported":1728980002,"current_range_meters":27200,"station_id":"ce4bgn92rcd13ifvqbvg","pricing_plan_id":"cebpf4jnsgd1na2vs0mg"},