{"last_updated":1740132599,"ttl":60,"version":"2.2","data":{"bikes":[{"bike_id":"e7d2c209-af68-4c37-b8a3-46c91488a20c","system_id":"levelo_inurba_marseille","lat":43.29271,"lon":5.36835,"is_reserved":false,"is_disabled":false,"rental_uris":{"android":"levelo://app?vid=e7d2c209-af68-4c37-b8a3-46c91488a20c","ios":"levelo://app?vid=e7d2c209-af68-4c37-b8a3-46c91488a20c"},"vehicle_type_id":"4","last_reported":1740132599,"current_range_meters":2800,"station_id":"ce4bhbp2rcd13ifvqesg","pricing_plan_id":"cebpf4jnsgd1na2vs0mg"},{"bike_id":"8ee5163b-a6db-4d2a-9903-9dde850f0bf8","system_id":"levelo_inurba_marseille","lat":43.29032,"lon":5.39989,"is_reserved":false,"is_disabled":false,"rental_uris":{"android":"levelo://app?vid=8ee5163b-a6db-4d2a-9903-9dde850f0bf8","ios":"levelo://app?vid=8ee5163b-a6db-4d2a-9903-9dde850f0bf8"},"vehicle_type_id":"4","last_reported":1740132599,"current_range_meters":3200,"station_id":"","pricing_plan_id":"cebpf4jnsgd1na2vs0mg"},{"bike_id":"5180f318-4948-4085-aaf1-5f3160b57dbe","system_id":"levelo_inurba_marseille","lat":43.27605,"lon":5.3612,"is_reserved":false,"is_disabled":false,"rental_uris":{"android":"levelo://app?vid=5180f318-4948-4085-aaf1-5f3160b57dbe","ios":"levelo://app?vid=5180f318-4948-4085-aaf1-5f3160b57dbe"},"vehicle_type_id":"4","last_reported":1740132599,"current_range_meters":3200,"station_id":"","pricing_plan_id":"cebpf4jnsgd1na2vs0mg"},{"bike_id":"54404a99-751c-441e-ac89-24a6fb123056","system_id":"levelo_inurba_marseille","lat":43.229425,"lon":5.35382,"is_reserved":false,"is_disabled":false,"rental_uris":{"android":"levelo://app?vid=54404a99-751c-441e-ac89-24a6fb123056","ios":"levelo://app?vid=54404a99-751c-441e-ac89-24a6fb123056"},"vehicle_type_id":"4","last_reported":1740132599,"current_range_meters":3600,"station_id":"cpo3532slgdg3j2ikp40","pricing_plan_id":"cebpf4jnsgd1na2vs0mg"},{"bike_id":"f8a1eefe-5190-4327-95c3-8138f343fe57","system_id":"levelo_inurba_marseille","lat":43.31178,"lon":5.3935,"is_reserved":false,"is_disabled":false,"rental_uris":{"android":"levelo://app?vid=f8a1eefe-5190-4327-95c3-8138f343fe57","ios":"levelo://app?vid=f8a1eefe-5190-4327-95c3-8138f343fe57"},"vehicle_type_id":"4","last_reported":1740132599,"current_range_meters":3600,"station_id":"ce4bgqh2rcd13ifvqc4g","pricing_plan_id":"cebpf4jnsgd1na2vs0mg"},{"bike_id":"f027fe38-3f5d-42fa-b16a-68ca60104c09","system_id":"levelo_inurba_marseille","lat":43.2417,"lon":5.36402,"is_reserved":false,"is_disabled":false,"rental_uris":{"android":"levelo://app?vid=f027fe38-3f5d-42fa-b16a-68ca60104c09","ios":"levelo://app?vid=f027fe38-3f5d-42fa-b16a-68ca60104c09"},"vehicle_type_id":"4","last_reported":1740132599,"current_range_meters":4000,"station_id":"cpo36qri1sfpv3e86is0","pricing_plan_id":"cebpf4jnsgd1na2vs0mg"},{"bike_id":"c1db4d69-9ebd-473f-9823-cee452bd9216","system_id":"levelo_inurba_marseille","lat":43.301415,"lon":5.37384,"is_reserved":false,"is_disabled":false,"rental_uris":{"android":"levelo://app?vid=c1db4d69-9ebd-473f-9823-cee452bd9216","ios":"levelo://app?vid=c1db4d69-9ebd-473f-9823-cee452bd9216"},"vehicle_type_id":"4","last_reported":1740132599,"current_range_meters":4400,"station_id":"ce4bgs92rcd13ifvqcc0","pricing_plan_id":"cebpf4jnsgd1na2vs0mg"},{"bike_id":"fc971b16-bef3-4b6d-813c-ffc8ffa48842","system_id":"levelo_inurba_marseille","lat":43.2841,"lon":5.34986,"is_reserved":false,"is_disabled":true,"rental_uris":{"android":"levelo://app?vid=fc971b16-bef3-4b6d-813c-ffc8ffa48842","ios":"levelo://app?vid=fc971b16-bef3-4b6d-813c-ffc8ffa48842"},"vehicle_type_id":"4","last_reported":1740132599,"current_range_meters":4800,"station_id":"","pricing_plan_id":"cebpf4jnsgd1na2vs0mg"},{"bike_id":"b64778c2-2434-4409-b125-e965a1fd469a","system_id":"levelo_inurba_marseille","lat":43.30272,"lon":5.36663,"is_reserved":false,"is_disabled":false,"rental_uris":{"android":"levelo://app?vid=b64778c2-2434-4409-b125-e965a1fd469a","ios":"levelo://app?vid=b64778c2-2434-4409-b125-e965a1fd469a"},"vehicle_type_id":"4","last_reported":1740132599,"current_range_meters":4800,"station_id":"ce4bgs12rcd13ifvqcag","pricing_plan_id":"cebpf4jnsgd1na2vs0mg"},{"bike_id":"780661c3-e369-4a8c-9ad0-b96cf07b7503","system_id":"levelo_inurba_marseille","lat":43.29922,"lon":5.37472,"is_reserved":false,"is_disabled":false,"rental_uris":{"android":"levelo://app?vid=780661c3-e369-4a8c-9ad0-b96cf07b7503","ios":"levelo://app?vid=780661c3-e369-4a8c-9ad0-b96cf07b7503"},"vehicle_type_id":"4","last_reported":1740132599,"current_range_meters":5600,"station_id":"ce4bgjh2rcd13ifvqbg0","pricing_plan_id":"cebpf4jnsgd1na2vs0mg"},{"bike_id":"07f4eba0-60d7-40e8-b78f-2df8474e7952","system_id":"levelo_inurba_marseille","lat":43.29357,"lon":5.37967,"is_reserved":false,"is_disabled":false,"rental_uris":{"android":"levelo://app?vid=07f4eba0-60d7-40e8-b78f-2df8474e7952","ios":"levelo://app?vid=07f4eba0-60d7-40e8-b78f-2df8474e7952"},"vehicle_type_id":"4","last_reported":1740132599,"current_range_meters":5600,"station_id":"","pricing_plan_id":"cebpf4jnsgd1na2vs0mg"},{"bike_id":"cbebd55d-8ade-4e90-b135-b42b0f7d05b6","system_id":"levelo_inurba_marseille","lat":43.25936,"lon":5.40903,"is_reserved":false,"is_disabled":false,"rental_uris":{"android":"levelo://app?vid=cbebd55d-8ade-4e90-b135-b42b0f7d05b6","ios":"levelo://app?vid=cbebd55d-8ade-4e90-b135-b42b0f7d05b6"},"vehicle_type_id":"4","last_reported":1740132599,"current_range_meters":6000,"station_id":"ce4bhm92rcd13ifvqglg","pricing_plan_id":"cebpf4jnsgd1na2vs0mg"},{"bike_id":"5f9ede52-c720-4107-a864-980fb2608395","system_id":"levelo_inurba_marseille","lat":43.24095,"lon":5.38649,"is_reserved":false,"is_disabled":false,"rental_uris":{"android":"levelo://app?vid=5f9ede52-c720-4107-a864-980fb2608395","ios":"levelo://app?vid=5f9ede52-c720-4107-a864-980fb2608395"},"vehicle_type_id":"4","last_reported":1740132599,"current_range_meters":6000,"station_id":"ce4bhb92rcd13ifvqen0","pricing_plan_id":"cebpf4jnsgd1na2vs0mg"},{"bike_id":"a6ff6d8a-eaf3-41db-938a-90039d3ea7fb","system_id":"levelo_inurba_marseille","lat":43.24079,"lon":5.37739,"is_reserved":false,"is_disabled":false,"rental_uris":{"android":"levelo://app?vid=a6ff6d8a-eaf3-41db-938a-90039d3ea7fb","ios":"levelo://app?vid=a6ff6d8a-eaf3-41db-938a-90039d3ea7fb"},"vehicle_type_id":"4","last_reported":1740132599,"current_range_meters":6000,"station_id":"","pricing_plan_id":"cebpf4jnsgd1na2vs0mg"},{"bike_id":"cf304af6-399e-45fc-bde1-a29ec127e857","system_id":"levelo_inurba_marseille","lat":43.25021,"lon":5.38941,"is_reserved":false,"is_disabled":false,"rental_uris":{"android":"levelo://app?vid=cf304af6-399e-45fc-bde1-a29ec127e857","ios":"levelo://app?vid=cf304af6-399e-45fc-bde1-a29ec127e857"},"vehicle_type_id":"4","last_reported":1740132599,"current_range_meters":6000,"station_id":"","pricing_plan_id":"cebpf4jnsgd1na2vs0mg"},{"bike_id":"97743dfd-3444-4220-93f0-5ea4d5d49160","system_id":"levelo_inurba_marseille","lat":43.29519,"lon":5.37495,"is_reserved":false,"is_disabled":false,"rental_uris":{"android":"levelo://app?vid=97743dfd-3444-4220-93f0-5ea4d5d49160","ios":"levelo://app?vid=97743dfd-3444-4220-93f0-5ea4d5d49160"},"vehicle_type_id":"4","last_reported":1740132599,"current_range_meters":6000,"station_id":"ce4bgkp2rcd13ifvqbmg","pricing_plan_id":"cebpf4jnsgd1na2vs0mg"},{"bike_id":"4688a37e-8890-46db-8401-e07a550ff106","system_id":"levelo_inurba_marseille","lat":43.27958,"lon":5.4086,"is_reserved":false,"is_disabled":false,"rental_uris":{"android":"levelo://app?vid=4688a37e-8890-46db-8401-e07a550ff106","ios":"levelo://app?vid=4688a37e-8890-46db-8401-e07a550ff106"},"vehicle_type_id":"4","last_reported":1740132599,"current_range_meters":6400,"station_id":"","pricing_plan_id":"cebpf4jnsgd1na2vs0mg"},{"bike_id":"7292533d-99f3-4e84-946a-921cf48199d9","system_id":"levelo_inurba_marseille","lat":43.27809,"lon":5.4068,"is_reserved":false,"is_disabled":false,"rental_uris":{"android":"levelo://app?vid=7292533d-99f3-4e84-946a-921cf48199d9","ios":"levelo://app?vid=7292533d-99f3-4e84-946a-921cf48199d9"},"vehicle_type_id":"4","last_reported":1740132599,"current_range_meters":6400,"station_id":"","pricing_plan_id":"cebpf4jnsgd1na2vs0mg"},{"bike_id":"3796fcb1-f0b3-429b-b343-1833af55924a","system_id":"levelo_inurba_marseille","lat":43.29908,"lon":5.36532,"is_reserved":false,"is_disabled":false,"rental_uris":{"android":"levelo://app?vid=3796fcb1-f0b3-429b-b343-1833af55924a","ios":"levelo://app?vid=3796fcb1-f0b3-429b-b343-1833af55924a"},"vehicle_type_id":"4","last_reported":1740132599,"current_range_meters":6400,"station_id":"ce4bgm92rcd13ifvqbr0","pricing_plan_id":"cebpf4jnsgd1na2vs0mg"},{"bike_id":"2725e6ee-9d94-4546-bd0b-37458127f9df","system_id":"levelo_inurba_marseille","lat":43.27054,"lon":5.40266,"is_reserved":false,"is_disabled":false,"rental_uris":{"android":"levelo://app?vid=2725e6ee-9d94-4546-bd0b-37458127f9df","ios":"levelo://app?vid=2725e6ee-9d94-4546-bd0b-37458127f9df"},"vehicle_type_id":"4","last_reported":1740132599,"current_range_meters":6800,"station_id":"ce4bhk92rcd13ifvqgc0","pricing_plan_id":"cebpf4jnsgd1na2vs0mg"},{"bike_id":"65f0ae88-32da-48ae-8193-3e1fac2ab41b","system_id":"levelo_inurba_marseille","lat":43.29881,"lon":5.43669,"is_reserved":false,"is_disabled":false,"rental_uris":{"android":"levelo://app?vid=65f0ae88-32da-48ae-8193-3e1fac2ab41b","ios":"levelo://app?vid=65f0ae88-32da-48ae-8193-3e1fac2ab41b"},"vehicle_type_id":"4","last_reported":1740132599,"current_range_meters":6800,"station_id":"ce4bhpp2rcd13ifvqhfg","pricing_plan_id":"cebpf4jnsgd1na2vs0mg"},{"bike_id":"a38b61c7-fd3d-4cab-b3c1-57a142d00bd1","system_id":"levelo_inurba_marseille","lat":43.27804,"lon":5.40715,"is_reserved":false,"is_disabled":false,"rental_uris":{"android":"levelo://app?vid=a38b61c7-fd3d-4cab-b3c1-57a142d00bd1","ios":"levelo://app?vid=a38b61c7-fd3d-4cab-b3c1-57a142d00bd1"},"vehicle_type_id":"4","last_reported":1740132599,"current_range_meters":6800,"station_id":"","pricing_plan_id":"cebpf4jnsgd1na2vs0mg"},{"bike_id":"77ac049b-6848-4db1-94df-a16d6879e316","system_id":"levelo_inurba_marseille","lat":43.23185,"lon":5.35551,"is_reserved":false,"is_disabled":false,"rental_uris":{"android":"levelo://app?vid=77ac049b-6848-4db1-94df-a16d6879e316","ios":"levelo://app?vid=77ac049b-6848-4db1-94df-a16d6879e316"},"vehicle_type_id":"4","last_reported":1740132599,"current_range_meters":7200,"station_id":"","pricing_plan_id":"cebpf4jnsgd1na2vs0mg"},{"bike_id":"0d34eb8c-c749-410b-a515-4800435ee933","system_id":"levelo_inurba_marseille","lat":43.241616,"lon":5.363988,"is_reserved":false,"is_disabled":false,"rental_uris":{"android":"levelo://app?vid=0d34eb8c-c749-410b-a515-4800435ee933","ios":"levelo://app?vid=0d34eb8c-c749-410b-a515-4800435ee933"},"vehicle_type_id":"4","last_reported":1740132599,"current_range_meters":7200,"station_id":"cpo36qri1sfpv3e86is0","pricing_plan_id":"cebpf4jnsgd1na2vs0mg"},{"bike_id":"2f78322a-d0f8-4206-bb57-ce2455819f14","system_id":"levelo_inurba_marseille","lat":43.32106,"lon":5.36782,"is_reserved":false,"is_disabled":false,"rental_uris":{"android":"levelo://app?vid=2f78322a-d0f8-4206-bb57-ce2455819f14","ios":"levelo://app?vid=2f78322a-d0f8-4206-bb57-ce2455819f14"},"vehicle_type_id":"4","last_reported":1740132599,"current_range_meters":7200,"station_id":"ce4bhrh2rcd13ifvqhug","pricing_plan_id":"cebpf4jnsgd1na2vs0mg"},{"bike_id":"26779595-c177-40e8-a988-d5570ab1009d","system_id":"levelo_inurba_marseille","lat":43.29181,"lon":5.39723,"is_reserved":false,"is_disabled":false,"rental_uris":{"android":"levelo://app?vid=26779595-c177-40e8-a988-d5570ab1009d","ios":"levelo://app?vid=26779595-c177-40e8-a988-d5570ab1009d"},"vehicle_type_id":"4","last_reported":1740132599,"current_range_meters":7200,"station_id":"","pricing_plan_id":"cebpf4jnsgd1na2vs0mg"},{"bike_id":"191679c1-ef12-4e0b-aa6a-fc1716711320","system_id":"levelo_inurba_marseille","lat":43.23065,"lon":5.35493,"is_reserved":false,"is_disabled":false,"rental_uris":{"android":"levelo://app?vid=191679c1-ef12-4e0b-aa6a-fc1716711320","ios":"levelo://app?vid=191679c1-ef12-4e0b-aa6a-fc1716711320"},"vehicle_type_id":"4","last_reported":1740132599,"current_range_meters":7200,"station_id":"cpo3342slgdg3j2ifvpg","pricing_plan_id":"cebpf4jnsgd1na2vs0mg"},{"bike_id":"fc6429ea-6f29-48c8-82fb-c4d064450e33","system_id":"levelo_inurba_marseille","lat":43.27055,"lon":5.40263,"is_reserved":false,"is_disabled":false,"rental_uris":{"android":"levelo://app?vid=fc6429ea-6f29-48c8-82fb-c4d064450e33","ios":"levelo://app?vid=fc6429ea-6f29-48c8-82fb-c4d064450e33"},"vehicle_type_id":"4","last_reported":1740132599,"current_range_meters":7200,"station_id":"ce4bhk92rcd13ifvqgc0","pricing_plan_id":"cebpf4jnsgd1na2vs0mg"},{"bike_id":"7b19744e-f24f-4b7d-94e9-2a8fd4a78d0d","system_id":"levelo_inurba_marseille","lat":43.23177,"lon":5.3556,"is_reserved":false,"is_disabled":false,"rental_uris":{"android":"levelo://app?vid=7b19744e-f24f-4b7d-94e9-2a8fd4a78d0d","ios":"levelo://app?vid=7b19744e-f24f-4b7d-94e9-2a8fd4a78d0d"},"vehicle_type_id":"4","last_reported":1740132599,"current_range_meters":7200,"station_id":"","pricing_plan_id":"cebpf4jnsgd1na2vs0mg"},{"bike_id":"fd367b86-3096-4cc9-be4e-09b665035065","system_id":"levelo_inurba_marseille","lat":43.27057,"lon":5.40268,"is_reserved":false,"is_disabled":false,"rental_uris":{"android":"levelo://app?vid=fd367b86-3096-4cc9-be4e-09b665035065","ios":"levelo://app?vid=fd367b86-3096-4cc9-be4e-09b665035065"},"vehicle_type_id":"4","last_reported":1740132599,"current_range_meters":7200,"station_id":"","pricing_plan_id":"cebpf4jnsgd1na2vs0mg"},{"bike_id":"6d3a1bc9-0168-46a0-8d06-2b755db45b0a","system_id":"levelo_inurba_marseille","lat":43.2307,"lon":5.35518,"is_reserved":false,"is_disabled":false,"rental_uris":{"android":"levelo://app?vid=6d3a1bc9-0168-46a0-8d06-2b755db45b0a","ios":"levelo://app?vid=6d3a1bc9-0168-46a0-8d06-2b755db45b0a"},"vehicle_type_id":"4","last_reported":1740132599,"current_range_meters":8000,"station_id":"cpo3342slgdg3j2ifvpg","pricing_plan_id":"cebpf4jnsgd1na2vs0mg"},{"bike_id":"4c5add46-2ed9-44ee-a441-14bfc17a23a7","system_id":"levelo_inurba_marseille","lat":43.28035,"lon":5.36951,"is_reserved":false,"is_disabled":false,"rental_uris":{"android":"levelo://app?vid=4c5add46-2ed9-44ee-a441-14bfc17a23a7","ios":"levelo://app?vid=4c5add46-2ed9-44ee-a441-14bfc17a23a7"},"vehicle_type_id":"4","last_reported":1740132599,"current_range_meters":7200,"station_id":"ce4bha12rcd13ifvqef0","pricing_plan_id":"cebpf4jnsgd1na2vs0mg"},{"bike_id":"4712f8f6-cd0e-4e38-ad1e-b52fac366294","system_id":"levelo_inurba_marseille","lat":43.26241,"lon":5.40445,"is_reserved":false,"is_disabled":false,"rental_uris":{"android":"levelo://app?vid=4712f8f6-cd0e-4e38-ad1e-b52fac366294","ios":"levelo://app?vid=4712f8f6-cd0e-4e38-ad1e-b52fac366294"},"vehicle_type_id":"4","last_reported":1740132599,"current_range_meters":8000,"station_id":"ce4bhmh2rcd13ifvqgmg","pricing_plan_id":"cebpf4jnsgd1na2vs0mg"},{"bike_id":"23c7f17d-4517-4dd4-a3a7-dfe044723d32","system_id":"levelo_inurba_marseille","lat":43.30551,"lon":5.38446,"is_reserved":false,"is_disabled":true,"rental_uris":{"android":"levelo://app?vid=23c7f17d-4517-4dd4-a3a7-dfe044723d32","ios":"levelo://app?vid=23c7f17d-4517-4dd4-a3a7-dfe044723d32"},"vehicle_type_id":"4","last_reported":1740132599,"current_range_meters":8000,"station_id":"ce4bgg92rcd13ifvqb30","pricing_plan_id":"cebpf4jnsgd1na2vs0mg"},{"bike_id":"6f44099f-60df-4ac1-94c4-a1159442dd59","system_id":"levelo_inurba_marseille","lat":43.24999,"lon":5.38934,"is_reserved":false,"is_disabled":false,"rental_uris":{"android":"levelo://app?vid=6f44099f-60df-4ac1-94c4-a1159442dd59","ios":"levelo://app?vid=6f44099f-60df-4ac1-94c4-a1159442dd59"},"vehicle_type_id":"4","last_reported":1740132599,"current_range_meters":8000,"station_id":"","pricing_plan_id":"cebpf4jnsgd1na2vs0mg"},{"bike_id":"c30e01f4-8687-4f9e-9900-f922fb503cbd","system_id":"levelo_inurba_marseille","lat":43.27987,"lon":5.40027,"is_reserved":false,"is_disabled":false,"rental_uris":{"android":"levelo://app?vid=c30e01f4-8687-4f9e-9900-f922fb503cbd","ios":"levelo://app?vid=c30e01f4-8687-4f9e-9900-f922fb503cbd"},"vehicle_type_id":"4","last_reported":1740132599,"current_range_meters":8000,"station_id":"ce4bho92rcd13ifvqh4g","pricing_plan_id":"cebpf4jnsgd1na2vs0mg"},{"bike_id":"601afe4a-25bf-4b56-a5ec-02075de1ee82","system_id":"levelo_inurba_marseille","lat":43.23073,"lon":5.35507,"is_reserved":false,"is_disabled":false,"rental_uris":{"android":"levelo://app?vid=601afe4a-25bf-4b56-a5ec-02075de1ee82","ios":"levelo://app?vid=601afe4a-25bf-4b56-a5ec-02075de1ee82"},"vehicle_type_id":"4","last_reported":1740132599,"current_range_meters":8000,"station_id":"cpo3342slgdg3j2ifvpg","pricing_plan_id":"cebpf4jnsgd1na2vs0mg"},{"bike_id":"56d9789f-1bac-4d9f-834d-817d1ec1d812","system_id":"levelo_inurba_marseille","lat":43.26693,"lon":5.38284,"is_reserved":false,"is_disabled":false,"rental_uris":{"android":"levelo://app?vid=56d9789f-1bac-4d9f-834d-817d1ec1d812","ios":"levelo://app?vid=56d9789f-1bac-4d9f-834d-817d1ec1d812"},"vehicle_type_id":"4","last_reported":1740132599,"current_range_meters":8400,"station_id":"ce4bhg92rcd13ifvqf90","pricing_plan_id":"cebpf4jnsgd1na2vs0mg"},{"bike_id":"cd30b061-597e-4141-a555-1be8e611adf8","system_id":"levelo_inurba_marseille","lat":43.336,"lon":5.41023,"is_reserved":false,"is_disabled":false,"rental_uris":{"android":"levelo://app?vid=cd30b061-597e-4141-a555-1be8e611adf8","ios":"levelo://app?vid=cd30b061-597e-4141-a555-1be8e611adf8"},"vehicle_type_id":"4","last_reported":1740132599,"current_range_meters":8400,"station_id":"ce4bhqh2rcd13ifvqhmg","pricing_plan_id":"cebpf4jnsgd1na2vs0mg"},{"bike_id":"ca901b68-9a91-4c4d-a945-d2156b0c65f1","system_id":"levelo_inurba_marseille","lat":43.28408,"lon":5.37535,"is_reserved":false,"is_disabled":false,"rental_uris":{"android":"levelo://app?vid=ca901b68-9a91-4c4d-a945-d2156b0c65f1","ios":"levelo://app?vid=ca901b68-9a91-4c4d-a945-d2156b0c65f1"},"vehicle_type_id":"4","last_reported":1740132599,"current_range_meters":8800,"station_id":"ce4bh412rcd13ifvqds0","pricing_plan_id":"cebpf4jnsgd1na2vs0mg"},{"bike_id":"af47fe2b-65aa-4946-9788-5d9339adc686","system_id":"levelo_inurba_marseille","lat":43.30194,"lon":5.36631,"is_reserved":false,"is_disabled":false,"rental_uris":{"android":"levelo://app?vid=af47fe2b-65aa-4946-9788-5d9339adc686","ios":"levelo://app?vid=af47fe2b-65aa-4946-9788-5d9339adc686"},"vehicle_type_id":"4","last_reported":1740132599,"current_range_meters":8800,"station_id":"ce4bgrh2rcd13ifvqc8g","pricing_plan_id":"cebpf4jnsgd1na2vs0mg"},{"bike_id":"ae48ce6a-cb3a-4ec2-9d3c-ec942733b445","system_id":"levelo_inurba_marseille","lat":43.23951,"lon":5.36648,"is_reserved":false,"is_disabled":false,"rental_uris":{"android":"levelo://app?vid=ae48ce6a-cb3a-4ec2-9d3c-ec942733b445","ios":"levelo://app?vid=ae48ce6a-cb3a-4ec2-9d3c-ec942733b445"},"vehicle_type_id":"4","last_reported":1740132599,"current_range_meters":8800,"station_id":"ce4bhi12rcd13ifvqfp0","pricing_plan_id":"cebpf4jnsgd1na2vs0mg"},{"bike_id":"76a127d3-77c2-483d-acf4-d4cd9dcde57d","system_id":"levelo_inurba_marseille","lat":43.27375,"lon":5.36253,"is_reserved":false,"is_disabled":false,"rental_uris":{"android":"levelo://app?vid=76a127d3-77c2-483d-acf4-d4cd9dcde57d","ios":"levelo://app?vid=76a127d3-77c2-483d-acf4-d4cd9dcde57d"},"vehicle_type_id":"4","last_reported":1740132599,"current_range_meters":8800,"station_id":"ce4bhbh2rcd13ifvqeo0","pricing_plan_id":"cebpf4jnsgd1na2vs0mg"},{"bike_id":"bfa1afdd-6221-4a91-82bd-d18819a67e02","system_id":"levelo_inurba_marseille","lat":43.24165,"lon":5.36393,"is_reserved":false,"is_disabled":false,"rental_uris":{"android":"levelo://app?vid=bfa1afdd-6221-4a91-82bd-d18819a67e02","ios":"levelo://app?vid=bfa1afdd-6221-4a91-82bd-d18819a67e02"},"vehicle_type_id":"4","last_reported":1740132599,"current_range_meters":8800,"station_id":"cpo36qri1sfpv3e86is0","pricing_plan_id":"cebpf4jnsgd1na2vs0mg"},{"bike_id":"bf49f624-0f64-433d-80a4-bff9c9ee1fa0","system_id":"levelo_inurba_marseille","lat":43.2791,"lon":5.41206,"is_reserved":false,"is_disabled":false,"rental_uris":{"android":"levelo://app?vid=bf49f624-0f64-433d-80a4-bff9c9ee1fa0","ios":"levelo://app?vid=bf49f624-0f64-433d-80a4-bff9c9ee1fa0"},"vehicle_type_id":"4","last_reported":1740132599,"current_range_meters":8800,"station_id":"","pricing_plan_id":"cebpf4jnsgd1na2vs0mg"},{"bike_id":"de718fdb-e2cd-4c2e-a27e-63b792e6e20b","system_id":"levelo_inurba_marseille","lat":43.24091,"lon":5.37787,"is_reserved":false,"is_disabled":false,"rental_uris":{"android":"levelo://app?vid=de718fdb-e2cd-4c2e-a27e-63b792e6e20b","ios":"levelo://app?vid=de718fdb-e2cd-4c2e-a27e-63b792e6e20b"},"vehicle_type_id":"4","last_reported":1740132599,"current_range_meters":8800,"station_id":"ce4bhnp2rcd13ifvqgvg","pricing_plan_id":"cebpf4jnsgd1na2vs0mg"},{"bike_id":"c3f50966-9fef-494d-82cd-816e6821d153","system_id":"levelo_inurba_marseille","lat":43.26673,"lon":5.38264,"is_reserved":false,"is_disabled":false,"rental_uris":{"android":"levelo://app?vid=c3f50966-9fef-494d-82cd-816e6821d153","ios":"levelo://app?vid=c3f50966-9fef-494d-82cd-816e6821d153"},"vehicle_type_id":"4","last_reported":1740132599,"current_range_meters":8800,"station_id":"ce4bhg92rcd13ifvqf90","pricing_plan_id":"cebpf4jnsgd1na2vs0mg"},{"bike_id":"60ec7c7b-626a-4242-8d94-df53d91186ef","system_id":"levelo_inurba_marseille","lat":43.23971,"lon":5.36647,"is_reserved":false,"is_disabled":true,"rental_uris":{"android":"levelo://app?vid=60ec7c7b-626a-4242-8d94-df53d91186ef","ios":"levelo://app?vid=60ec7c7b-626a-4242-8d94-df53d91186ef"},"vehicle_type_id":"4","last_reported":1740132599,"current_range_meters":9200,"station_id":"","pricing_plan_id":"cebpf4jnsgd1na2vs0mg"},{"bike_id":"e1404e30-1456-4860-a84f-1ec608e017b2","system_id":"levelo_inurba_marseille","lat":43.28468,"lon":5.38564,"is_reserved":false,"is_disabled":false,"rental_uris":{"android":"levelo://app?vid=e1404e30-1456-4860-a84f-1ec608e017b2","ios":"levelo://app?vid=e1404e30-1456-4860-a84f-1ec608e017b2"},"vehicle_type_id":"4","last_reported":1740132599,"current_range_meters":10000,"station_id":"ce4bgjh2rcd13ifvqbf0","pricing_plan_id":"cebpf4jnsgd1na2vs0mg"},{"bike_id":"7a9f5ade-11b1-45d0-ad8a-9979898edb87","system_id":"levelo_inurba_marseille","lat":43.25382,"lon":5.41857,"is_reserved":false,"is_disabled":false,"rental_uris":{"android":"levelo://app?vid=7a9f5ade-11b1-45d0-ad8a-9979898edb87","ios":"levelo://app?vid=7a9f5ade-11b1-45d0-ad8a-9979898edb87"},"vehicle_type_id":"4","last_reported":1740132599,"current_range_meters":9200,"station_id":"","pricing_plan_id":"cebpf4jnsgd1na2vs0mg"},{"bike_id":"370aaef2-125f-4f75-a29b-89078fd9b2c6","system_id":"levelo_inurba_marseille","lat":43.31686,"lon":5.40484,"is_reserved":false,"is_disabled":false,"rental_uris":{"android":"levelo://app?vid=370aaef2-125f-4f75-a29b-89078fd9b2c6","ios":"levelo://app?vid=370aaef2-125f-4f75-a29b-89078fd9b2c6"},"vehicle_type_id":"4","last_reported":1740132599,"current_range_meters":9200,"station_id":"ce4bh012rcd13ifvqd00","pricing_plan_id":"cebpf4jnsgd1na2vs0mg"},{"bike_id":"04306cbe-57d6-4c2f-86d0-c0525799ae62","system_id":"levelo_inurba_marseille","lat":43.29271,"lon":5.40096,"is_reserved":false,"is_disabled":false,"rental_uris":{"android":"levelo://app?vid=04306cbe-57d6-4c2f-86d0-c0525799ae62","ios":"levelo://app?vid=04306cbe-57d6-4c2f-86d0-c0525799ae62"},"vehicle_type_id":"4","last_reported":1740132599,"current_range_meters":9200,"station_id":"ce4bh312rcd13ifvqdk0","pricing_plan_id":"cebpf4jnsgd1na2vs0mg"},{"bike_id":"8d8890a2-6218-43ae-a3b8-71d47b52d470","system_id":"levelo_inurba_marseille","lat":43.26215,"lon":5.37469,"is_reserved":false,"is_disabled":false,"rental_uris":{"android":"levelo://app?vid=8d8890a2-6218-43ae-a3b8-71d47b52d470","ios":"levelo://app?vid=8d8890a2-6218-43ae-a3b8-71d47b52d470"},"vehicle_type_id":"4","last_reported":1740132599,"current_range_meters":9200,"station_id":"ce4bhgp2rcd13ifvqfc0","pricing_plan_id":"cebpf4jnsgd1na2vs0mg"},{"bike_id":"8cbf3cfb-7324-4014-94a6-4ce8dc497f9b","system_id":"levelo_inurba_marseille","lat":43.26217,"lon":5.37444,"is_reserved":false,"is_disabled":false,"rental_uris":{"android":"levelo://app?vid=8cbf3cfb-7324-4014-94a6-4ce8dc497f9b","ios":"levelo://app?vid=8cbf3cfb-7324-4014-94a6-4ce8dc497f9b"},"vehicle_type_id":"4","last_reported":1740132599,"current_range_meters":9200,"station_id":"ce4bhgp2rcd13ifvqfc0","pricing_plan_id":"cebpf4jnsgd1na2vs0mg"},{"bike_id":"7ea80315-f1c7-4877-9967-d3f64e6c25c3","system_id":"levelo_inurba_marseille","lat":43.28704,"lon":5.39992,"is_reserved":false,"is_disabled":false,"rental_uris":{"android":"levelo://app?vid=7ea80315-f1c7-4877-9967-d3f64e6c25c3","ios":"levelo://app?vid=7ea80315-f1c7-4877-9967-d3f64e6c25c3"},"vehicle_type_id":"4","last_reported":1740132599,"current_range_meters":9200,"station_id":"ce4bho92rcd13ifvqh3g","pricing_plan_id":"cebpf4jnsgd1na2vs0mg"},{"bike_id":"85e7377f-1626-47d3-8476-c21372460786","system_id":"levelo_inurba_marseille","lat":43.28272,"lon":5.35073,"is_reserved":false,"is_disabled":false,"rental_uris":{"android":"levelo://app?vid=85e7377f-1626-47d3-8476-c21372460786","ios":"levelo://app?vid=85e7377f-1626-47d3-8476-c21372460786"},"vehicle_type_id":"4","last_reported":1740132599,"current_range_meters":9200,"station_id":"ce4bhbp2rcd13ifvqerg","pricing_plan_id":"cebpf4jnsgd1na2vs0mg"},{"bike_id":"2248a686-da6b-4ef8-880e-8db6a1c23aab","system_id":"levelo_inurba_marseille","lat":43.27386,"lon":5.3627,"is_reserved":false,"is_disabled":false,"rental_uris":{"android":"levelo://app?vid=2248a686-da6b-4ef8-880e-8db6a1c23aab","ios":"levelo://app?vid=2248a686-da6b-4ef8-880e-8db6a1c23aab"},"vehicle_type_id":"4","last_reported":1740132599,"current_range_meters":9600,"station_id":"","pricing_plan_id":"cebpf4jnsgd1na2vs0mg"},{"bike_id":"2cac9e88-4256-498d-a5ec-3af8b8892742","system_id":"levelo_inurba_marseille","lat":43.27041,"lon":5.40258,"is_reserved":false,"is_disabled":false,"rental_uris":{"android":"levelo://app?vid=2cac9e88-4256-498d-a5ec-3af8b8892742","ios":"levelo://app?vid=2cac9e88-4256-498d-a5ec-3af8b8892742"},"vehicle_type_id":"4","last_reported":1740132599,"current_range_meters":9600,"station_id":"ce4bhk92rcd13ifvqgc0","pricing_plan_id":"cebpf4jnsgd1na2vs0mg"},{"bike_id":"f3397704-0fef-4de4-a813-9bc6b4bd2a07","system_id":"levelo_inurba_marseille","lat":43.30306,"lon":5.36902,"is_reserved":false,"is_disabled":false,"rental_uris":{"android":"levelo://app?vid=f3397704-0fef-4de4-a813-9bc6b4bd2a07","ios":"levelo://app?vid=f3397704-0fef-4de4-a813-9bc6b4bd2a07"},"vehicle_type_id":"4","last_reported":1740132599,"current_range_meters":9600,"station_id":"ce4bgqh2rcd13ifvqc5g","pricing_plan_id":"cebpf4jnsgd1na2vs0mg"},{"bike_id":"17da247a-6d57-43ac-b6e1-ebacbfe11b03","system_id":"levelo_inurba_marseille","lat":43.30898,"lon":5.37185,"is_reserved":false,"is_disabled":false,"rental_uris":{"android":"levelo://app?vid=17da247a-6d57-43ac-b6e1-ebacbfe11b03","ios":"levelo://app?vid=17da247a-6d57-43ac-b6e1-ebacbfe11b03"},"vehicle_type_id":"4","last_reported":1740132599,"current_range_meters":10000,"station_id":"ce4bguh2rcd13ifvqckg","pricing_plan_id":"cebpf4jnsgd1na2vs0mg"},{"bike_id":"c531f973-1e1c-4e88-837c-cf4e1a662598","system_id":"levelo_inurba_marseille","lat":43.28268,"lon":5.35072,"is_reserved":false,"is_disabled":false,"rental_uris":{"android":"levelo://app?vid=c531f973-1e1c-4e88-837c-cf4e1a662598","ios":"levelo://app?vid=c531f973-1e1c-4e88-837c-cf4e1a662598"},"vehicle_type_id":"4","last_reported":1740132599,"current_range_meters":10000,"station_id":"ce4bhbp2rcd13ifvqerg","pricing_plan_id":"cebpf4jnsgd1na2vs0mg"},{"bike_id":"38b06d7a-2beb-40a6-8655-213be91cef6d","system_id":"levelo_inurba_marseille","lat":43.25718,"lon":5.4112,"is_reserved":false,"is_disabled":false,"rental_uris":{"android":"levelo://app?vid=38b06d7a-2beb-40a6-8655-213be91cef6d","ios":"levelo://app?vid=38b06d7a-2beb-40a6-8655-213be91cef6d"},"vehicle_type_id":"4","last_reported":1740132599,"current_range_meters":10000,"station_id":"ce4bhkp2rcd13ifvqgd0","pricing_plan_id":"cebpf4jnsgd1na2vs0mg"},{"bike_id":"eebd2fc8-3956-4429-8b53-9e2565d1861b","system_id":"levelo_inurba_marseille","lat":43.34429,"lon":5.3808,"is_reserved":false,"is_disabled":false,"rental_uris":{"android":"levelo://app?vid=eebd2fc8-3956-4429-8b53-9e2565d1861b","ios":"levelo://app?vid=eebd2fc8-3956-4429-8b53-9e2565d1861b"},"vehicle_type_id":"4","last_reported":1740132599,"current_range_meters":10000,"station_id":"ce4bhqp2rcd13ifvqhng","pricing_plan_id":"cebpf4jnsgd1na2vs0mg"},{"bike_id":"fc3ef47f-75c9-488f-88d6-717d1d010823","system_id":"levelo_inurba_marseille","lat":43.27815,"lon":5.40727,"is_reserved":false,"is_disabled":false,"rental_uris":{"android":"levelo://app?vid=fc3ef47f-75c9-488f-88d6-717d1d010823","ios":"levelo://app?vid=fc3ef47f-75c9-488f-88d6-717d1d010823"},"vehicle_type_id":"4","last_reported":1740132599,"current_range_meters":10800,"station_id":"","pricing_plan_id":"cebpf4jnsgd1na2vs0mg"},{"bike_id":"7f4b41aa-a682-49b3-be3b-36a99aacc943","system_id":"levelo_inurba_marseille","lat":43.26798,"lon":5.40275,"is_reserved":false,"is_disabled":false,"rental_uris":{"android":"levelo://app?vid=7f4b41aa-a682-49b3-be3b-36a99aacc943","ios":"levelo://app?vid=7f4b41aa-a682-49b3-be3b-36a99aacc943"},"vehicle_type_id":"4","last_reported":1740132599,"current_range_meters":10800,"station_id":"","pricing_plan_id":"cebpf4jnsgd1na2vs0mg"},{"bike_id":"87891dce-3352-4418-9015-a26c990ecd6e","system_id":"levelo_inurba_marseille","lat":43.23056,"lon":5.35505,"is_reserved":false,"is_disabled":false,"rental_uris":{"android":"levelo://app?vid=87891dce-3352-4418-9015-a26c990ecd6e","ios":"levelo://app?vid=87891dce-3352-4418-9015-a26c990ecd6e"},"vehicle_type_id":"4","last_reported":1740132599,"current_range_meters":10800,"station_id":"cpo3342slgdg3j2ifvpg","pricing_plan_id":"cebpf4jnsgd1na2vs0mg"},{"bike_id":"20463398-593d-4e39-b885-1b761836b416","system_id":"levelo_inurba_marseille","lat":43.24071,"lon":5.37752,"is_reserved":false,"is_disabled":false,"rental_uris":{"android":"levelo://app?vid=20463398-593d-4e39-b885-1b761836b416","ios":"levelo://app?vid=20463398-593d-4e39-b885-1b761836b416"},"vehicle_type_id":"4","last_reported":1740132599,"current_range_meters":10800,"station_id":"ce4bhnp2rcd13ifvqgvg","pricing_plan_id":"cebpf4jnsgd1na2vs0mg"},{"bike_id":"c3f9f3f8-8b7c-47b4-ba72-f66ce30ff6f1","system_id":"levelo_inurba_marseille","lat":43.24995,"lon":5.38937,"is_reserved":false,"is_disabled":false,"rental_uris":{"android":"levelo://app?vid=c3f9f3f8-8b7c-47b4-ba72-f66ce30ff6f1","ios":"levelo://app?vid=c3f9f3f8-8b7c-47b4-ba72-f66ce30ff6f1"},"vehicle_type_id":"4","last_reported":1740132599,"current_range_meters":10800,"station_id":"","pricing_plan_id":"cebpf4jnsgd1na2vs0mg"},{"bike_id":"3447e7b6-f8ed-4872-a45f-cf3cd80ed8ad","system_id":"levelo_inurba_marseille","lat":43.29751,"lon":5.3791,"is_reserved":false,"is_disabled":false,"rental_uris":{"android":"levelo://app?vid=3447e7b6-f8ed-4872-a45f-cf3cd80ed8ad","ios":"levelo://app?vid=3447e7b6-f8ed-4872-a45f-cf3cd80ed8ad"},"vehicle_type_id":"4","last_reported":1740132599,"current_range_meters":10800,"station_id":"ce4bguh2rcd13ifvqckg","pricing_plan_id":"cebpf4jnsgd1na2vs0mg"},{"bike_id":"6106393f-3645-48aa-b132-3d2def6b4674","system_id":"levelo_inurba_marseille","lat":43.3043,"lon":5.38045,"is_reserved":false,"is_disabled":false,"rental_uris":{"android":"levelo://app?vid=6106393f-3645-48aa-b132-3d2def6b4674","ios":"levelo://app?vid=6106393f-3645-48aa-b132-3d2def6b4674"},"vehicle_type_id":"4","last_reported":1740132599,"current_range_meters":10800,"station_id":"ce4bgv92rcd13ifvqcq0","pricing_plan_id":"cebpf4jnsgd1na2vs0mg"},{"bike_id":"0fe78deb-4a95-4555-8235-7c50eab997c4","system_id":"levelo_inurba_marseille","lat":43.29896,"lon":5.43651,"is_reserved":false,"is_disabled":false,"rental_uris":{"android":"levelo://app?vid=0fe78deb-4a95-4555-8235-7c50eab997c4","ios":"levelo://app?vid=0fe78deb-4a95-4555-8235-7c50eab997c4"},"vehicle_type_id":"4","last_reported":1740132599,"current_range_meters":11200,"station_id":"","pricing_plan_id":"cebpf4jnsgd1na2vs0mg"},{"bike_id":"bc5cc901-c409-4ffb-b020-77d941332f8d","system_id":"levelo_inurba_marseille","lat":43.26204,"lon":5.37931,"is_reserved":false,"is_disabled":false,"rental_uris":{"android":"levelo://app?vid=bc5cc901-c409-4ffb-b020-77d941332f8d","ios":"levelo://app?vid=bc5cc901-c409-4ffb-b020-77d941332f8d"},"vehicle_type_id":"4","last_reported":1740132599,"current_range_meters":11200,"station_id":"ce4bhjp2rcd13ifvqg90","pricing_plan_id":"cebpf4jnsgd1na2vs0mg"},{"bike_id":"b352770e-5739-4d7a-9c42-ceda01228b72","system_id":"levelo_inurba_marseille","lat":43.26956,"lon":5.38661,"is_reserved":false,"is_disabled":false,"rental_uris":{"android":"levelo://app?vid=b352770e-5739-4d7a-9c42-ceda01228b72","ios":"levelo://app?vid=b352770e-5739-4d7a-9c42-ceda01228b72"},"vehicle_type_id":"4","last_reported":1740132599,"current_range_meters":11200,"station_id":"","pricing_plan_id":"cebpf4jnsgd1na2vs0mg"},{"bike_id":"05d683ab-6afd-4810-af0b-8689ecd69445","system_id":"levelo_inurba_marseille","lat":43.30798,"lon":5.38154,"is_reserved":false,"is_disabled":false,"rental_uris":{"android":"levelo://app?vid=05d683ab-6afd-4810-af0b-8689ecd69445","ios":"levelo://app?vid=05d683ab-6afd-4810-af0b-8689ecd69445"},"vehicle_type_id":"4","last_reported":1740132599,"current_range_meters":11200,"station_id":"","pricing_plan_id":"cebpf4jnsgd1na2vs0mg"},{"bike_id":"3cf05585-d413-4bb5-a67b-53212c83c80d","system_id":"levelo_inurba_marseille","lat":43.2987,"lon":5.39737,"is_reserved":false,"is_disabled":false,"rental_uris":{"android":"levelo://app?vid=3cf05585-d413-4bb5-a67b-53212c83c80d","ios":"levelo://app?vid=3cf05585-d413-4bb5-a67b-53212c83c80d"},"vehicle_type_id":"4","last_reported":1740132599,"current_range_meters":11600,"station_id":"ce4bh0h2rcd13ifvqd50","pricing_plan_id":"cebpf4jnsgd1na2vs0mg"},{"bike_id":"b253065d-1074-4a51-bc2b-4e15dba86004","system_id":"levelo_inurba_marseille","lat":43.23056,"lon":5.35489,"is_reserved":false,"is_disabled":false,"rental_uris":{"android":"levelo://app?vid=b253065d-1074-4a51-bc2b-4e15dba86004","ios":"levelo://app?vid=b253065d-1074-4a51-bc2b-4e15dba86004"},"vehicle_type_id":"4","last_reported":1740132599,"current_range_meters":11600,"station_id":"cpo3342slgdg3j2ifvpg","pricing_plan_id":"cebpf4jnsgd1na2vs0mg"},{"bike_id":"ce0caea6-6d1c-48ef-b0eb-fae6199eb4e1","system_id":"levelo_inurba_marseille","lat":43.23066,"lon":5.35508,"is_reserved":false,"is_disabled":false,"rental_uris":{"android":"levelo://app?vid=ce0caea6-6d1c-48ef-b0eb-fae6199eb4e1","ios":"levelo://app?vid=ce0caea6-6d1c-48ef-b0eb-fae6199eb4e1"},"vehicle_type_id":"4","last_reported":1740132599,"current_range_meters":12000,"station_id":"cpo3342slgdg3j2ifvpg","pricing_plan_id":"cebpf4jnsgd1na2vs0mg"},{"bike_id":"3c0aa5cd-87ee-4901-a628-9b1a2468603d","system_id":"levelo_inurba_marseille","lat":43.27495,"lon":5.42475,"is_reserved":false,"is_disabled":false,"rental_uris":{"android":"levelo://app?vid=3c0aa5cd-87ee-4901-a628-9b1a2468603d","ios":"levelo://app?vid=3c0aa5cd-87ee-4901-a628-9b1a2468603d"},"vehicle_type_id":"4","last_reported":1740132599,"current_range_meters":12000,"station_id":"ce4bhn92rcd13ifvqgrg","pricing_plan_id":"cebpf4jnsgd1na2vs0mg"},{"bike_id":"7e3db0ae-dcd9-48d7-8f36-b7a38d4a2dd2","system_id":"levelo_inurba_marseille","lat":43.24663,"lon":5.3816,"is_reserved":false,"is_disabled":false,"rental_uris":{"android":"levelo://app?vid=7e3db0ae-dcd9-48d7-8f36-b7a38d4a2dd2","ios":"levelo://app?vid=7e3db0ae-dcd9-48d7-8f36-b7a38d4a2dd2"},"vehicle_type_id":"4","last_reported":1740132599,"current_range_meters":12000,"station_id":"ce4bhih2rcd13ifvqfr0","pricing_plan_id":"cebpf4jnsgd1na2vs0mg"},{"bike_id":"3a18a060-43b3-487c-bb23-8493264d5ba4","system_id":"levelo_inurba_marseille","lat":43.24179,"lon":5.36417,"is_reserved":false,"is_disabled":true,"rental_uris":{"android":"levelo://app?vid=3a18a060-43b3-487c-bb23-8493264d5ba4","ios":"levelo://app?vid=3a18a060-43b3-487c-bb23-8493264d5ba4"},"vehicle_type_id":"4","last_reported":1740132599,"current_range_meters":12000,"station_id":"","pricing_plan_id":"cebpf4jnsgd1na2vs0mg"},{"bike_id":"ad484dc4-a807-4549-846d-2aa55284d983","system_id":"levelo_inurba_marseille","lat":43.27807,"lon":5.40701,"is_reserved":false,"is_disabled":false,"rental_uris":{"android":"levelo://app?vid=ad484dc4-a807-4549-846d-2aa55284d983","ios":"levelo://app?vid=ad484dc4-a807-4549-846d-2aa55284d983"},"vehicle_type_id":"4","last_reported":1740132599,"current_range_meters":12000,"station_id":"","pricing_plan_id":"cebpf4jnsgd1na2vs0mg"},{"bike_id":"a1f247c2-b1bd-4098-90c6-7fc6f24178d7","system_id":"levelo_inurba_marseille","lat":43.30121,"lon":5.39857,"is_reserved":false,"is_disabled":false,"rental_uris":{"android":"levelo://app?vid=a1f247c2-b1bd-4098-90c6-7fc6f24178d7","ios":"levelo://app?vid=a1f247c2-b1bd-4098-90c6-7fc6f24178d7"},"vehicle_type_id":"4","last_reported":1740132599,"current_range_meters":12400,"station_id":"ce4bh0h2rcd13ifvqd40","pricing_plan_id":"cebpf4jnsgd1na2vs0mg"},{"bike_id":"1736bdf7-065e-458a-8be8-137efe82e48a","system_id":"levelo_inurba_marseille","lat":43.330874,"lon":5.390113,"is_reserved":false,"is_disabled":false,"rental_uris":{"android":"levelo://app?vid=1736bdf7-065e-458a-8be8-137efe82e48a","ios":"levelo://app?vid=1736bdf7-065e-458a-8be8-137efe82e48a"},"vehicle_type_id":"4","last_reported":1740132599,"current_range_meters":12400,"station_id":"ce4bhqp2rcd13ifvqhog","pricing_plan_id":"cebpf4jnsgd1na2vs0mg"},{"bike_id":"f4b41e04-7194-49c1-979b-e5caed512dd5","system_id":"levelo_inurba_marseille","lat":43.303,"lon":5.36902,"is_reserved":false,"is_disabled":false,"rental_uris":{"android":"levelo://app?vid=f4b41e04-7194-49c1-979b-e5caed512dd5","ios":"levelo://app?vid=f4b41e04-7194-49c1-979b-e5caed512dd5"},"vehicle_type_id":"4","last_reported":1740132599,"current_range_meters":12400,"station_id":"ce4bgqh2rcd13ifvqc5g","pricing_plan_id":"cebpf4jnsgd1na2vs0mg"},{"bike_id":"94517337-d289-4c00-8de8-0888a1ff2352","system_id":"levelo_inurba_marseille","lat":43.28933,"lon":5.39634,"is_reserved":false,"is_disabled":false,"rental_uris":{"android":"levelo://app?vid=94517337-d289-4c00-8de8-0888a1ff2352","ios":"levelo://app?vid=94517337-d289-4c00-8de8-0888a1ff2352"},"vehicle_type_id":"4","last_reported":1740132599,"current_range_meters":12400,"station_id":"","pricing_plan_id":"cebpf4jnsgd1na2vs0mg"},{"bike_id":"7a4bb2d9-4c65-465a-8831-82000d76838f","system_id":"levelo_inurba_marseille","lat":43.23193,"lon":5.3556,"is_reserved":false,"is_disabled":false,"rental_uris":{"android":"levelo://app?vid=7a4bb2d9-4c65-465a-8831-82000d76838f","ios":"levelo://app?vid=7a4bb2d9-4c65-465a-8831-82000d76838f"},"vehicle_type_id":"4","last_reported":1740132599,"current_range_meters":12400,"station_id":"ce4bhu92rcd13ifvqi70","pricing_plan_id":"cebpf4jnsgd1na2vs0mg"},{"bike_id":"e8aab64e-140b-4a90-a929-6493d11a41fa","system_id":"levelo_inurba_marseille","lat":43.30519,"lon":5.36695,"is_reserved":false,"is_disabled":false,"rental_uris":{"android":"levelo://app?vid=e8aab64e-140b-4a90-a929-6493d11a41fa","ios":"levelo://app?vid=e8aab64e-140b-4a90-a929-6493d11a41fa"},"vehicle_type_id":"4","last_reported":1740132599,"current_range_meters":12400,"station_id":"ce4bgrp2rcd13ifvqc9g","pricing_plan_id":"cebpf4jnsgd1na2vs0mg"},{"bike_id":"8d267981-f72b-4a1d-b7b4-fef575044d45","system_id":"levelo_inurba_marseille","lat":43.26027,"lon":5.37568,"is_reserved":false,"is_disabled":true,"rental_uris":{"android":"levelo://app?vid=8d267981-f72b-4a1d-b7b4-fef575044d45","ios":"levelo://app?vid=8d267981-f72b-4a1d-b7b4-fef575044d45"},"vehicle_type_id":"4","last_reported":1740132599,"current_range_meters":12800,"station_id":"","pricing_plan_id":"cebpf4jnsgd1na2vs0mg"},{"bike_id":"5e38b789-b907-4d32-b432-9231fe6fc2a1","system_id":"levelo_inurba_marseille","lat":43.26566,"lon":5.37287,"is_reserved":false,"is_disabled":false,"rental_uris":{"android":"levelo://app?vid=5e38b789-b907-4d32-b432-9231fe6fc2a1","ios":"levelo://app?vid=5e38b789-b907-4d32-b432-9231fe6fc2a1"},"vehicle_type_id":"4","last_reported":1740132599,"current_range_meters":12800,"station_id":"ce4bhg12rcd13ifvqf70","pricing_plan_id":"cebpf4jnsgd1na2vs0mg"},{"bike_id":"33f02f01-3e5b-49ee-962c-4ccccb117184","system_id":"levelo_inurba_marseille","lat":43.28155,"lon":5.42643,"is_reserved":false,"is_disabled":false,"rental_uris":{"android":"levelo://app?vid=33f02f01-3e5b-49ee-962c-4ccccb117184","ios":"levelo://app?vid=33f02f01-3e5b-49ee-962c-4ccccb117184"},"vehicle_type_id":"4","last_reported":1740132599,"current_range_meters":12800,"station_id":"ce4bhnh2rcd13ifvqgug","pricing_plan_id":"cebpf4jnsgd1na2vs0mg"},{"bike_id":"f800bf4a-a88e-43ea-b4b8-11875d2f53c7","system_id":"levelo_inurba_marseille","lat":43.24817,"lon":5.37461,"is_reserved":false,"is_disabled":true,"rental_uris":{"android":"levelo://app?vid=f800bf4a-a88e-43ea-b4b8-11875d2f53c7","ios":"levelo://app?vid=f800bf4a-a88e-43ea-b4b8-11875d2f53c7"},"vehicle_type_id":"4","last_reported":1740132599,"current_range_meters":13600,"station_id":"","pricing_plan_id":"cebpf4jnsgd1na2vs0mg"},{"bike_id":"6a41d4d5-6ce6-4940-8b60-f1b1f72587c0","system_id":"levelo_inurba_marseille","lat":43.23076,"lon":5.35499,"is_reserved":false,"is_disabled":false,"rental_uris":{"android":"levelo://app?vid=6a41d4d5-6ce6-4940-8b60-f1b1f72587c0","ios":"levelo://app?vid=6a41d4d5-6ce6-4940-8b60-f1b1f72587c0"},"vehicle_type_id":"4","last_reported":1740132599,"current_range_meters":13600,"station_id":"cpo3342slgdg3j2ifvpg","pricing_plan_id":"cebpf4jnsgd1na2vs0mg"},{"bike_id":"36346269-3294-424d-9926-b990d9d242b4","system_id":"levelo_inurba_marseille","lat":43.28118,"lon":5.37871,"is_reserved":false,"is_disabled":false,"rental_uris":{"android":"levelo://app?vid=36346269-3294-424d-9926-b990d9d242b4","ios":"levelo://app?vid=36346269-3294-424d-9926-b990d9d242b4"},"vehicle_type_id":"4","last_reported":1740132599,"current_range_meters":13600,"station_id":"ce4bha12rcd13ifvqee0","pricing_plan_id":"cebpf4jnsgd1na2vs0mg"},{"bike_id":"cc29a0f1-e146-44ea-b887-7e68ef0fe538","system_id":"levelo_inurba_marseille","lat":43.33603,"lon":5.4101,"is_reserved":false,"is_disabled":false,"rental_uris":{"android":"levelo://app?vid=cc29a0f1-e146-44ea-b887-7e68ef0fe538","ios":"levelo://app?vid=cc29a0f1-e146-44ea-b887-7e68ef0fe538"},"vehicle_type_id":"4","last_reported":1740132599,"current_range_meters":14000,"station_id":"ce4bhqh2rcd13ifvqhmg","pricing_plan_id":"cebpf4jnsgd1na2vs0mg"},{"bike_id":"6e7bc9e4-4f1a-4318-93da-1bc3ecd960b8","system_id":"levelo_inurba_marseille","lat":43.26983,"lon":5.40201,"is_reserved":false,"is_disabled":false,"rental_uris":{"android":"levelo://app?vid=6e7bc9e4-4f1a-4318-93da-1bc3ecd960b8","ios":"levelo://app?vid=6e7bc9e4-4f1a-4318-93da-1bc3ecd960b8"},"vehicle_type_id":"4","last_reported":1740132599,"current_range_meters":14000,"station_id":"cjm6bp8fraef2m0cb0m0","pricing_plan_id":"cebpf4jnsgd1na2vs0mg"},{"bike_id":"4307d1c0-fe59-4c44-8aad-948d044d071b","system_id":"levelo_inurba_marseille","lat":43.249987,"lon":5.389296,"is_reserved":false,"is_disabled":false,"rental_uris":{"android":"levelo://app?vid=4307d1c0-fe59-4c44-8aad-948d044d071b","ios":"levelo://app?vid=4307d1c0-fe59-4c44-8aad-948d044d071b"},"vehicle_type_id":"4","last_reported":1740132599,"current_range_meters":14400,"station_id":"ce4bhgp2rcd13ifvqfd0","pricing_plan_id":"cebpf4jnsgd1na2vs0mg"},{"bike_id":"790b0ff7-55c5-4c35-9f2a-78c4076d7d17","system_id":"levelo_inurba_marseille","lat":43.27949,"lon":5.38495,"is_reserved":false,"is_disabled":false,"rental_uris":{"android":"levelo://app?vid=790b0ff7-55c5-4c35-9f2a-78c4076d7d17","ios":"levelo://app?vid=790b0ff7-55c5-4c35-9f2a-78c4076d7d17"},"vehicle_type_id":"4","last_reported":1740132599,"current_range_meters":14400,"station_id":"","pricing_plan_id":"cebpf4jnsgd1na2vs0mg"},{"bike_id":"44e45a0d-80e4-4777-b789-c9ff84761c0c","system_id":"levelo_inurba_marseille","lat":43.29266,"lon":5.39444,"is_reserved":false,"is_disabled":false,"rental_uris":{"android":"levelo://app?vid=44e45a0d-80e4-4777-b789-c9ff84761c0c","ios":"levelo://app?vid=44e45a0d-80e4-4777-b789-c9ff84761c0c"},"vehicle_type_id":"4","last_reported":1740132599,"current_range_meters":14400,"station_id":"","pricing_plan_id":"cebpf4jnsgd1na2vs0mg"},{"bike_id":"5203d6ed-6034-43a1-80f7-4557e448ecd5","system_id":"levelo_inurba_marseille","lat":43.29841,"lon":5.36277,"is_reserved":false,"is_disabled":false,"rental_uris":{"android":"levelo://app?vid=5203d6ed-6034-43a1-80f7-4557e448ecd5","ios":"levelo://app?vid=5203d6ed-6034-43a1-80f7-4557e448ecd5"},"vehicle_type_id":"4","last_reported":1740132599,"current_range_meters":14400,"station_id":"ce4bgpp2rcd13ifvqc3g","pricing_plan_id":"cebpf4jnsgd1na2vs0mg"},{"bike_id":"68f598a3-bd29-49cb-9190-237d58bc5968","system_id":"levelo_inurba_marseille","lat":43.30276,"lon":5.37695,"is_reserved":false,"is_disabled":false,"rental_uris":{"android":"levelo://app?vid=68f598a3-bd29-49cb-9190-237d58bc5968","ios":"levelo://app?vid=68f598a3-bd29-49cb-9190-237d58bc5968"},"vehicle_type_id":"4","last_reported":1740132599,"current_range_meters":14800,"station_id":"ce4bguh2rcd13ifvqcj0","pricing_plan_id":"cebpf4jnsgd1na2vs0mg"},{"bike_id":"89fb68ec-1aa9-4c97-8b89-632e005ea687","system_id":"levelo_inurba_marseille","lat":43.337444,"lon":5.374475,"is_reserved":false,"is_disabled":true,"rental_uris":{"android":"levelo://app?vid=89fb68ec-1aa9-4c97-8b89-632e005ea687","ios":"levelo://app?vid=89fb68ec-1aa9-4c97-8b89-632e005ea687"},"vehicle_type_id":"4","last_reported":1740132599,"current_range_meters":14800,"station_id":"","pricing_plan_id":"cebpf4jnsgd1na2vs0mg"},{"bike_id":"57dbd212-6559-4b91-a920-e07f9d743aae","system_id":"levelo_inurba_marseille","lat":43.287017,"lon":5.373806,"is_reserved":false,"is_disabled":false,"rental_uris":{"android":"levelo://app?vid=57dbd212-6559-4b91-a920-e07f9d743aae","ios":"levelo://app?vid=57dbd212-6559-4b91-a920-e07f9d743aae"},"vehicle_type_id":"4","last_reported":1740132599,"current_range_meters":14800,"station_id":"ce4bh3p2rcd13ifvqdq0","pricing_plan_id":"cebpf4jnsgd1na2vs0mg"},{"bike_id":"a0596a0e-1059-475f-a498-b0c4da53accc","system_id":"levelo_inurba_marseille","lat":43.29376,"lon":5.37861,"is_reserved":false,"is_disabled":false,"rental_uris":{"android":"levelo://app?vid=a0596a0e-1059-475f-a498-b0c4da53accc","ios":"levelo://app?vid=a0596a0e-1059-475f-a498-b0c4da53accc"},"vehicle_type_id":"4","last_reported":1740132599,"current_range_meters":14800,"station_id":"ce4bgjh2rcd13ifvqbf0","pricing_plan_id":"cebpf4jnsgd1na2vs0mg"},{"bike_id":"3750425b-50fb-41f8-8b91-fcb53a2aeaa0","system_id":"levelo_inurba_marseille","lat":43.30094,"lon":5.37855,"is_reserved":false,"is_disabled":false,"rental_uris":{"android":"levelo://app?vid=3750425b-50fb-41f8-8b91-fcb53a2aeaa0","ios":"levelo://app?vid=3750425b-50fb-41f8-8b91-fcb53a2aeaa0"},"vehicle_type_id":"4","last_reported":1740132599,"current_range_meters":15200,"station_id":"","pricing_plan_id":"cebpf4jnsgd1na2vs0mg"},{"bike_id":"9af9f584-ebb1-44aa-82df-d866a9d0668a","system_id":"levelo_inurba_marseille","lat":43.281581,"lon":5.426185,"is_reserved":false,"is_disabled":false,"rental_uris":{"android":"levelo://app?vid=9af9f584-ebb1-44aa-82df-d866a9d0668a","ios":"levelo://app?vid=9af9f584-ebb1-44aa-82df-d866a9d0668a"},"vehicle_type_id":"4","last_reported":1740132599,"current_range_meters":17200,"station_id":"ce4bhnh2rcd13ifvqgug","pricing_plan_id":"cebpf4jnsgd1na2vs0mg"},{"bike_id":"ec6be8e9-89b8-4be2-9e1c-ae57c2e6acd9","system_id":"levelo_inurba_marseille","lat":43.30185,"lon":5.36607,"is_reserved":false,"is_disabled":false,"rental_uris":{"android":"levelo://app?vid=ec6be8e9-89b8-4be2-9e1c-ae57c2e6acd9","ios":"levelo://app?vid=ec6be8e9-89b8-4be2-9e1c-ae57c2e6acd9"},"vehicle_type_id":"4","last_reported":1740132599,"current_range_meters":15200,"station_id":"ce4bgrh2rcd13ifvqc8g","pricing_plan_id":"cebpf4jnsgd1na2vs0mg"},{"bike_id":"d9b98fa7-7216-459f-b15f-6adc337a008b","system_id":"levelo_inurba_marseille","lat":43.29909,"lon":5.37474,"is_reserved":false,"is_disabled":false,"rental_uris":{"android":"levelo://app?vid=d9b98fa7-7216-459f-b15f-6adc337a008b","ios":"levelo://app?vid=d9b98fa7-7216-459f-b15f-6adc337a008b"},"vehicle_type_id":"4","last_reported":1740132599,"current_range_meters":14800,"station_id":"ce4bgjh2rcd13ifvqbg0","pricing_plan_id":"cebpf4jnsgd1na2vs0mg"},{"bike_id":"05c803e1-6bd9-421a-90e0-182fda04ecc7","system_id":"levelo_inurba_marseille","lat":43.27194,"lon":5.41007,"is_reserved":false,"is_disabled":false,"rental_uris":{"android":"levelo://app?vid=05c803e1-6bd9-421a-90e0-182fda04ecc7","ios":"levelo://app?vid=05c803e1-6bd9-421a-90e0-182fda04ecc7"},"vehicle_type_id":"4","last_reported":1740132599,"current_range_meters":16000,"station_id":"ce4bhl12rcd13ifvqgf0","pricing_plan_id":"cebpf4jnsgd1na2vs0mg"},{"bike_id":"fb1c0942-8a99-4b37-a2ac-5e6f5010eea6","system_id":"levelo_inurba_marseille","lat":43.28247,"lon":5.37288,"is_reserved":false,"is_disabled":false,"rental_uris":{"android":"levelo://app?vid=fb1c0942-8a99-4b37-a2ac-5e6f5010eea6","ios":"levelo://app?vid=fb1c0942-8a99-4b37-a2ac-5e6f5010eea6"},"vehicle_type_id":"4","last_reported":1740132599,"current_range_meters":16000,"station_id":"","pricing_plan_id":"cebpf4jnsgd1na2vs0mg"},{"bike_id":"a03ef05e-4326-4a6f-888e-07d441ffe49e","system_id":"levelo_inurba_marseille","lat":43.30312,"lon":5.36896,"is_reserved":false,"is_disabled":false,"rental_uris":{"android":"levelo://app?vid=a03ef05e-4326-4a6f-888e-07d441ffe49e","ios":"levelo://app?vid=a03ef05e-4326-4a6f-888e-07d441ffe49e"},"vehicle_type_id":"4","last_reported":1740132599,"current_range_meters":16000,"station_id":"","pricing_plan_id":"cebpf4jnsgd1na2vs0mg"},{"bike_id":"f274f312-68ca-45d0-8230-632bc1110b1a","system_id":"levelo_inurba_marseille","lat":43.2925,"lon":5.38284,"is_reserved":false,"is_disabled":false,"rental_uris":{"android":"levelo://app?vid=f274f312-68ca-45d0-8230-632bc1110b1a","ios":"levelo://app?vid=f274f312-68ca-45d0-8230-632bc1110b1a"},"vehicle_type_id":"4","last_reported":1740132599,"current_range_meters":16400,"station_id":"","pricing_plan_id":"cebpf4jnsgd1na2vs0mg"},{"bike_id":"f83db3d2-c154-416e-b624-4e76e89a7bb5","system_id":"levelo_inurba_marseille","lat":43.31362,"lon":5.36719,"is_reserved":false,"is_disabled":false,"rental_uris":{"android":"levelo://app?vid=f83db3d2-c154-416e-b624-4e76e89a7bb5","ios":"levelo://app?vid=f83db3d2-c154-416e-b624-4e76e89a7bb5"},"vehicle_type_id":"4","last_reported":1740132599,"current_range_meters":16400,"station_id":"ce4bgr92rcd13ifvqc6g","pricing_plan_id":"cebpf4jnsgd1na2vs0mg"},{"bike_id":"e6cfc86d-76fe-428a-ab35-cbb306485200","system_id":"levelo_inurba_marseille","lat":43.26554,"lon":5.37286,"is_reserved":false,"is_disabled":false,"rental_uris":{"android":"levelo://app?vid=e6cfc86d-76fe-428a-ab35-cbb306485200","ios":"levelo://app?vid=e6cfc86d-76fe-428a-ab35-cbb306485200"},"vehicle_type_id":"4","last_reported":1740132599,"current_range_meters":16400,"station_id":"ce4bhg12rcd13ifvqf70","pricing_plan_id":"cebpf4jnsgd1na2vs0mg"},{"bike_id":"de59ff74-51ea-46eb-90a0-7687ffe4e998","system_id":"levelo_inurba_marseille","lat":43.27057,"lon":5.40259,"is_reserved":false,"is_disabled":false,"rental_uris":{"android":"levelo://app?vid=de59ff74-51ea-46eb-90a0-7687ffe4e998","ios":"levelo://app?vid=de59ff74-51ea-46eb-90a0-7687ffe4e998"},"vehicle_type_id":"4","last_reported":1740132599,"current_range_meters":16400,"station_id":"ce4bhk92rcd13ifvqgc0","pricing_plan_id":"cebpf4jnsgd1na2vs0mg"},{"bike_id":"b3d04ecc-96f5-4147-9148-8adcf6e4155c","system_id":"levelo_inurba_marseille","lat":43.29285,"lon":5.37621,"is_reserved":false,"is_disabled":false,"rental_uris":{"android":"levelo://app?vid=b3d04ecc-96f5-4147-9148-8adcf6e4155c","ios":"levelo://app?vid=b3d04ecc-96f5-4147-9148-8adcf6e4155c"},"vehicle_type_id":"4","last_reported":1740132599,"current_range_meters":16400,"station_id":"ce4bgi12rcd13ifvqb80","pricing_plan_id":"cebpf4jnsgd1na2vs0mg"},{"bike_id":"c547a92c-d7cc-4f2e-943b-f0bc6dd00df6","system_id":"levelo_inurba_marseille","lat":43.28415,"lon":5.34979,"is_reserved":false,"is_disabled":true,"rental_uris":{"android":"levelo://app?vid=c547a92c-d7cc-4f2e-943b-f0bc6dd00df6","ios":"levelo://app?vid=c547a92c-d7cc-4f2e-943b-f0bc6dd00df6"},"vehicle_type_id":"4","last_reported":1740132599,"current_range_meters":16400,"station_id":"ce4bhbh2rcd13ifvqepg","pricing_plan_id":"cebpf4jnsgd1na2vs0mg"},{"bike_id":"aeccde13-813c-4e1d-9c80-1d1793744437","system_id":"levelo_inurba_marseille","lat":43.28364,"lon":5.38643,"is_reserved":false,"is_disabled":true,"rental_uris":{"android":"levelo://app?vid=aeccde13-813c-4e1d-9c80-1d1793744437","ios":"levelo://app?vid=aeccde13-813c-4e1d-9c80-1d1793744437"},"vehicle_type_id":"4","last_reported":1740132599,"current_range_meters":16400,"station_id":"ce4bh492rcd13ifvqdvg","pricing_plan_id":"cebpf4jnsgd1na2vs0mg"},{"bike_id":"de9bad10-8ae3-4fea-a821-8d62676b27f3","system_id":"levelo_inurba_marseille","lat":43.297136,"lon":5.376781,"is_reserved":false,"is_disabled":false,"rental_uris":{"android":"levelo://app?vid=de9bad10-8ae3-4fea-a821-8d62676b27f3","ios":"levelo://app?vid=de9bad10-8ae3-4fea-a821-8d62676b27f3"},"vehicle_type_id":"4","last_reported":1740132599,"current_range_meters":16000,"station_id":"ce4bhbh2rcd13ifvqeo0","pricing_plan_id":"cebpf4jnsgd1na2vs0mg"},{"bike_id":"32c2c89f-1b2f-459a-a539-66786f669587","system_id":"levelo_inurba_marseille","lat":43.29026,"lon":5.3864,"is_reserved":false,"is_disabled":false,"rental_uris":{"android":"levelo://app?vid=32c2c89f-1b2f-459a-a539-66786f669587","ios":"levelo://app?vid=32c2c89f-1b2f-459a-a539-66786f669587"},"vehicle_type_id":"4","last_reported":1740132599,"current_range_meters":16800,"station_id":"ce4bh4p2rcd13ifvqe0g","pricing_plan_id":"cebpf4jnsgd1na2vs0mg"},{"bike_id":"ba580206-0a6f-4442-bcc0-184e4e9ee536","system_id":"levelo_inurba_marseille","lat":43.30586,"lon":5.3665,"is_reserved":false,"is_disabled":true,"rental_uris":{"android":"levelo://app?vid=ba580206-0a6f-4442-bcc0-184e4e9ee536","ios":"levelo://app?vid=ba580206-0a6f-4442-bcc0-184e4e9ee536"},"vehicle_type_id":"4","last_reported":1740132599,"current_range_meters":16800,"station_id":"ce4bgs12rcd13ifvqcag","pricing_plan_id":"cebpf4jnsgd1na2vs0mg"},{"bike_id":"ab3662bf-b9dd-411a-9574-83b18415e08a","system_id":"levelo_inurba_marseille","lat":43.30158,"lon":5.37413,"is_reserved":false,"is_disabled":false,"rental_uris":{"android":"levelo://app?vid=ab3662bf-b9dd-411a-9574-83b18415e08a","ios":"levelo://app?vid=ab3662bf-b9dd-411a-9574-83b18415e08a"},"vehicle_type_id":"4","last_reported":1740132599,"current_range_meters":16800,"station_id":"ce4bgs92rcd13ifvqcc0","pricing_plan_id":"cebpf4jnsgd1na2vs0mg"},{"bike_id":"15645e3d-5dd6-4bfa-9b38-2475ddfc1093","system_id":"levelo_inurba_marseille","lat":43.27828,"lon":5.40731,"is_reserved":false,"is_disabled":false,"rental_uris":{"android":"levelo://app?vid=15645e3d-5dd6-4bfa-9b38-2475ddfc1093","ios":"levelo://app?vid=15645e3d-5dd6-4bfa-9b38-2475ddfc1093"},"vehicle_type_id":"4","last_reported":1740132599,"current_range_meters":16800,"station_id":"ce4bhnh2rcd13ifvqgtg","pricing_plan_id":"cebpf4jnsgd1na2vs0mg"},{"bike_id":"4156c3f4-1c00-4687-a78e-ff2dbdb866e0","system_id":"levelo_inurba_marseille","lat":43.27386,"lon":5.36269,"is_reserved":false,"is_disabled":true,"rental_uris":{"android":"levelo://app?vid=4156c3f4-1c00-4687-a78e-ff2dbdb866e0","ios":"levelo://app?vid=4156c3f4-1c00-4687-a78e-ff2dbdb866e0"},"vehicle_type_id":"4","last_reported":1740132599,"current_range_meters":16800,"station_id":"","pricing_plan_id":"cebpf4jnsgd1na2vs0mg"},{"bike_id":"d657dc8f-194d-4c3d-bb4c-f3e5b11cd126","system_id":"levelo_inurba_marseille","lat":43.27183,"lon":5.40985,"is_reserved":false,"is_disabled":false,"rental_uris":{"android":"levelo://app?vid=d657dc8f-194d-4c3d-bb4c-f3e5b11cd126","ios":"levelo://app?vid=d657dc8f-194d-4c3d-bb4c-f3e5b11cd126"},"vehicle_type_id":"4","last_reported":1740132599,"current_range_meters":16800,"station_id":"ce4bhl12rcd13ifvqgf0","pricing_plan_id":"cebpf4jnsgd1na2vs0mg"},{"bike_id":"314eb6d3-3d12-4bf3-8014-6437f08b1d47","system_id":"levelo_inurba_marseille","lat":43.29527,"lon":5.37528,"is_reserved":false,"is_disabled":false,"rental_uris":{"android":"levelo://app?vid=314eb6d3-3d12-4bf3-8014-6437f08b1d47","ios":"levelo://app?vid=314eb6d3-3d12-4bf3-8014-6437f08b1d47"},"vehicle_type_id":"4","last_reported":1740132599,"current_range_meters":17200,"station_id":"","pricing_plan_id":"cebpf4jnsgd1na2vs0mg"},{"bike_id":"98fa5eb4-03dd-4f0e-b576-cb9de10bf246","system_id":"levelo_inurba_marseille","lat":43.26209,"lon":5.37442,"is_reserved":false,"is_disabled":false,"rental_uris":{"android":"levelo://app?vid=98fa5eb4-03dd-4f0e-b576-cb9de10bf246","ios":"levelo://app?vid=98fa5eb4-03dd-4f0e-b576-cb9de10bf246"},"vehicle_type_id":"4","last_reported":1740132599,"current_range_meters":17200,"station_id":"ce4bhgp2rcd13ifvqfc0","pricing_plan_id":"cebpf4jnsgd1na2vs0mg"},{"bike_id":"fd4401e1-b9e1-4926-96c1-1b39b88e7bb2","system_id":"levelo_inurba_marseille","lat":43.31323,"lon":5.36736,"is_reserved":false,"is_disabled":false,"rental_uris":{"android":"levelo://app?vid=fd4401e1-b9e1-4926-96c1-1b39b88e7bb2","ios":"levelo://app?vid=fd4401e1-b9e1-4926-96c1-1b39b88e7bb2"},"vehicle_type_id":"4","last_reported":1740132599,"current_range_meters":17200,"station_id":"ce4bgr92rcd13ifvqc6g","pricing_plan_id":"cebpf4jnsgd1na2vs0mg"},{"bike_id":"85978ed4-84ec-465a-9ea5-8d8281069f64","system_id":"levelo_inurba_marseille","lat":43.26483,"lon":5.3955,"is_reserved":false,"is_disabled":true,"rental_uris":{"android":"levelo://app?vid=85978ed4-84ec-465a-9ea5-8d8281069f64","ios":"levelo://app?vid=85978ed4-84ec-465a-9ea5-8d8281069f64"},"vehicle_type_id":"4","last_reported":1740132599,"current_range_meters":17600,"station_id":"ce4bhi12rcd13ifvqfq0","pricing_plan_id":"cebpf4jnsgd1na2vs0mg"},{"bike_id":"63daf4ad-28a7-4fb4-b2da-bd1195384ed5","system_id":"levelo_inurba_marseille","lat":43.29896,"lon":5.38903,"is_reserved":false,"is_disabled":false,"rental_uris":{"android":"levelo://app?vid=63daf4ad-28a7-4fb4-b2da-bd1195384ed5","ios":"levelo://app?vid=63daf4ad-28a7-4fb4-b2da-bd1195384ed5"},"vehicle_type_id":"4","last_reported":1740132599,"current_range_meters":17200,"station_id":"ce4bh392rcd13ifvqdl0","pricing_plan_id":"cebpf4jnsgd1na2vs0mg"},{"bike_id":"cec6aa3a-5824-43d4-9c8e-738522a384c0","system_id":"levelo_inurba_marseille","lat":43.31981,"lon":5.38151,"is_reserved":false,"is_disabled":false,"rental_uris":{"android":"levelo://app?vid=cec6aa3a-5824-43d4-9c8e-738522a384c0","ios":"levelo://app?vid=cec6aa3a-5824-43d4-9c8e-738522a384c0"},"vehicle_type_id":"4","last_reported":1740132599,"current_range_meters":17200,"station_id":"ce4bhr12rcd13ifvqhpg","pricing_plan_id":"cebpf4jnsgd1na2vs0mg"},{"bike_id":"d1f4b90e-a0bf-44a0-8551-fdc016dfecea","system_id":"levelo_inurba_marseille","lat":43.23058,"lon":5.35493,"is_reserved":false,"is_disabled":false,"rental_uris":{"android":"levelo://app?vid=d1f4b90e-a0bf-44a0-8551-fdc016dfecea","ios":"levelo://app?vid=d1f4b90e-a0bf-44a0-8551-fdc016dfecea"},"vehicle_type_id":"4","last_reported":1740132599,"current_range_meters":17200,"station_id":"cpo3342slgdg3j2ifvpg","pricing_plan_id":"cebpf4jnsgd1na2vs0mg"},{"bike_id":"baacc8c9-9b07-4c34-a7b2-5058e06e9efc","system_id":"levelo_inurba_marseille","lat":43.29838,"lon":5.36275,"is_reserved":false,"is_disabled":false,"rental_uris":{"android":"levelo://app?vid=baacc8c9-9b07-4c34-a7b2-5058e06e9efc","ios":"levelo://app?vid=baacc8c9-9b07-4c34-a7b2-5058e06e9efc"},"vehicle_type_id":"4","last_reported":1740132599,"current_range_meters":17600,"station_id":"ce4bgpp2rcd13ifvqc3g","pricing_plan_id":"cebpf4jnsgd1na2vs0mg"},{"bike_id":"7628dcfa-3a45-4b0f-ac80-f255f4b01b0a","system_id":"levelo_inurba_marseille","lat":43.2957,"lon":5.3752,"is_reserved":false,"is_disabled":false,"rental_uris":{"android":"levelo://app?vid=7628dcfa-3a45-4b0f-ac80-f255f4b01b0a","ios":"levelo://app?vid=7628dcfa-3a45-4b0f-ac80-f255f4b01b0a"},"vehicle_type_id":"4","last_reported":1740132599,"current_range_meters":17600,"station_id":"ce4bgh92rcd13ifvqb50","pricing_plan_id":"cebpf4jnsgd1na2vs0mg"},{"bike_id":"67bad206-3f3e-4799-82ab-5d39e87a7808","system_id":"levelo_inurba_marseille","lat":43.2768,"lon":5.35707,"is_reserved":false,"is_disabled":true,"rental_uris":{"android":"levelo://app?vid=67bad206-3f3e-4799-82ab-5d39e87a7808","ios":"levelo://app?vid=67bad206-3f3e-4799-82ab-5d39e87a7808"},"vehicle_type_id":"4","last_reported":1740132599,"current_range_meters":18000,"station_id":"","pricing_plan_id":"cebpf4jnsgd1na2vs0mg"},{"bike_id":"a427c27e-660c-428b-a9fb-33fb4a5d043a","system_id":"levelo_inurba_marseille","lat":43.2407,"lon":5.37763,"is_reserved":false,"is_disabled":false,"rental_uris":{"android":"levelo://app?vid=a427c27e-660c-428b-a9fb-33fb4a5d043a","ios":"levelo://app?vid=a427c27e-660c-428b-a9fb-33fb4a5d043a"},"vehicle_type_id":"4","last_reported":1740132599,"current_range_meters":18000,"station_id":"","pricing_plan_id":"cebpf4jnsgd1na2vs0mg"},{"bike_id":"be924aa5-febd-4d4b-bedd-e8a52a0118c7","system_id":"levelo_inurba_marseille","lat":43.24165,"lon":5.36432,"is_reserved":false,"is_disabled":false,"rental_uris":{"android":"levelo://app?vid=be924aa5-febd-4d4b-bedd-e8a52a0118c7","ios":"levelo://app?vid=be924aa5-febd-4d4b-bedd-e8a52a0118c7"},"vehicle_type_id":"4","last_reported":1740132599,"current_range_meters":18000,"station_id":"cpo36qri1sfpv3e86is0","pricing_plan_id":"cebpf4jnsgd1na2vs0mg"},{"bike_id":"85b44722-c11d-4ace-b5d5-a338844a5bc5","system_id":"levelo_inurba_marseille","lat":43.23959,"lon":5.3665,"is_reserved":false,"is_disabled":false,"rental_uris":{"android":"levelo://app?vid=85b44722-c11d-4ace-b5d5-a338844a5bc5","ios":"levelo://app?vid=85b44722-c11d-4ace-b5d5-a338844a5bc5"},"vehicle_type_id":"4","last_reported":1740132599,"current_range_meters":18000,"station_id":"ce4bhi12rcd13ifvqfp0","pricing_plan_id":"cebpf4jnsgd1na2vs0mg"},{"bike_id":"7b2ad3e2-19bc-4789-9fcb-3612c89ae712","system_id":"levelo_inurba_marseille","lat":43.27617,"lon":5.36107,"is_reserved":false,"is_disabled":false,"rental_uris":{"android":"levelo://app?vid=7b2ad3e2-19bc-4789-9fcb-3612c89ae712","ios":"levelo://app?vid=7b2ad3e2-19bc-4789-9fcb-3612c89ae712"},"vehicle_type_id":"4","last_reported":1740132599,"current_range_meters":18000,"station_id":"","pricing_plan_id":"cebpf4jnsgd1na2vs0mg"},{"bike_id":"d1bb35af-6c12-4482-894d-1da6ad74b882","system_id":"levelo_inurba_marseille","lat":43.30478,"lon":5.37905,"is_reserved":false,"is_disabled":false,"rental_uris":{"android":"levelo://app?vid=d1bb35af-6c12-4482-894d-1da6ad74b882","ios":"levelo://app?vid=d1bb35af-6c12-4482-894d-1da6ad74b882"},"vehicle_type_id":"4","last_reported":1740132599,"current_range_meters":18000,"station_id":"ce4bgup2rcd13ifvqcn0","pricing_plan_id":"cebpf4jnsgd1na2vs0mg"},{"bike_id":"f335b1c4-609d-42c3-b0e3-aca03353a780","system_id":"levelo_inurba_marseille","lat":43.28426,"lon":5.37527,"is_reserved":false,"is_disabled":false,"rental_uris":{"android":"levelo://app?vid=f335b1c4-609d-42c3-b0e3-aca03353a780","ios":"levelo://app?vid=f335b1c4-609d-42c3-b0e3-aca03353a780"},"vehicle_type_id":"4","last_reported":1740132599,"current_range_meters":18000,"station_id":"","pricing_plan_id":"cebpf4jnsgd1na2vs0mg"},{"bike_id":"f3149693-7f85-4137-bba3-b846928e22d2","system_id":"levelo_inurba_marseille","lat":43.27071,"lon":5.42282,"is_reserved":false,"is_disabled":false,"rental_uris":{"android":"levelo://app?vid=f3149693-7f85-4137-bba3-b846928e22d2","ios":"levelo://app?vid=f3149693-7f85-4137-bba3-b846928e22d2"},"vehicle_type_id":"4","last_reported":1740132599,"current_range_meters":17600,"station_id":"ce4bhk92rcd13ifvqgb0","pricing_plan_id":"cebpf4jnsgd1na2vs0mg"},{"bike_id":"5bb955e0-760e-400a-ba6d-220aa66231f4","system_id":"levelo_inurba_marseille","lat":43.26198,"lon":5.37468,"is_reserved":false,"is_disabled":false,"rental_uris":{"android":"levelo://app?vid=5bb955e0-760e-400a-ba6d-220aa66231f4","ios":"levelo://app?vid=5bb955e0-760e-400a-ba6d-220aa66231f4"},"vehicle_type_id":"4","last_reported":1740132599,"current_range_meters":18000,"station_id":"ce4bhgp2rcd13ifvqfc0","pricing_plan_id":"cebpf4jnsgd1na2vs0mg"},{"bike_id":"eb2c5af8-4d3f-4ed6-9285-df885c61194f","system_id":"levelo_inurba_marseille","lat":43.29968,"lon":5.38497,"is_reserved":false,"is_disabled":false,"rental_uris":{"android":"levelo://app?vid=eb2c5af8-4d3f-4ed6-9285-df885c61194f","ios":"levelo://app?vid=eb2c5af8-4d3f-4ed6-9285-df885c61194f"},"vehicle_type_id":"4","last_reported":1740132599,"current_range_meters":17600,"station_id":"ce4bgj92rcd13ifvqbd0","pricing_plan_id":"cebpf4jnsgd1na2vs0mg"},{"bike_id":"32f486ad-7245-4e16-840e-440c4f93e300","system_id":"levelo_inurba_marseille","lat":43.30148,"lon":5.38078,"is_reserved":false,"is_disabled":false,"rental_uris":{"android":"levelo://app?vid=32f486ad-7245-4e16-840e-440c4f93e300","ios":"levelo://app?vid=32f486ad-7245-4e16-840e-440c4f93e300"},"vehicle_type_id":"4","last_reported":1740132599,"current_range_meters":18000,"station_id":"","pricing_plan_id":"cebpf4jnsgd1na2vs0mg"},{"bike_id":"433c6a8a-422a-403f-a85a-83a6deae1f5a","system_id":"levelo_inurba_marseille","lat":43.30318,"lon":5.36897,"is_reserved":false,"is_disabled":false,"rental_uris":{"android":"levelo://app?vid=433c6a8a-422a-403f-a85a-83a6deae1f5a","ios":"levelo://app?vid=433c6a8a-422a-403f-a85a-83a6deae1f5a"},"vehicle_type_id":"4","last_reported":1740132599,"current_range_meters":18800,"station_id":"ce4bgqh2rcd13ifvqc5g","pricing_plan_id":"cebpf4jnsgd1na2vs0mg"},{"bike_id":"9c24f87e-b0d9-4896-9921-5c7f66c22a32","system_id":"levelo_inurba_marseille","lat":43.26571,"lon":5.3987,"is_reserved":false,"is_disabled":false,"rental_uris":{"android":"levelo://app?vid=9c24f87e-b0d9-4896-9921-5c7f66c22a32","ios":"levelo://app?vid=9c24f87e-b0d9-4896-9921-5c7f66c22a32"},"vehicle_type_id":"4","last_reported":1740132599,"current_range_meters":18800,"station_id":"","pricing_plan_id":"cebpf4jnsgd1na2vs0mg"},{"bike_id":"083cb1cb-1b30-4a35-9a92-3c29dd0989cc","system_id":"levelo_inurba_marseille","lat":43.2975,"lon":5.37683,"is_reserved":false,"is_disabled":false,"rental_uris":{"android":"levelo://app?vid=083cb1cb-1b30-4a35-9a92-3c29dd0989cc","ios":"levelo://app?vid=083cb1cb-1b30-4a35-9a92-3c29dd0989cc"},"vehicle_type_id":"4","last_reported":1740132599,"current_range_meters":18800,"station_id":"ce4bgkh2rcd13ifvqbl0","pricing_plan_id":"cebpf4jnsgd1na2vs0mg"},{"bike_id":"2970d430-0149-492f-88c1-ed96f9a355f8","system_id":"levelo_inurba_marseille","lat":43.27173,"lon":5.40995,"is_reserved":false,"is_disabled":false,"rental_uris":{"android":"levelo://app?vid=2970d430-0149-492f-88c1-ed96f9a355f8","ios":"levelo://app?vid=2970d430-0149-492f-88c1-ed96f9a355f8"},"vehicle_type_id":"4","last_reported":1740132599,"current_range_meters":18800,"station_id":"ce4bhl12rcd13ifvqgf0","pricing_plan_id":"cebpf4jnsgd1na2vs0mg"},{"bike_id":"aa95a433-690c-4979-8867-368775284999","system_id":"levelo_inurba_marseille","lat":43.28346,"lon":5.38113,"is_reserved":false,"is_disabled":false,"rental_uris":{"android":"levelo://app?vid=aa95a433-690c-4979-8867-368775284999","ios":"levelo://app?vid=aa95a433-690c-4979-8867-368775284999"},"vehicle_type_id":"4","last_reported":1740132599,"current_range_meters":19200,"station_id":"ce4bh412rcd13ifvqdr0","pricing_plan_id":"cebpf4jnsgd1na2vs0mg"},{"bike_id":"1d93ace2-9f26-402a-8e5f-b8ff32d45d21","system_id":"levelo_inurba_marseille","lat":43.25922,"lon":5.40882,"is_reserved":false,"is_disabled":false,"rental_uris":{"android":"levelo://app?vid=1d93ace2-9f26-402a-8e5f-b8ff32d45d21","ios":"levelo://app?vid=1d93ace2-9f26-402a-8e5f-b8ff32d45d21"},"vehicle_type_id":"4","last_reported":1740132599,"current_range_meters":18800,"station_id":"ce4bhm92rcd13ifvqglg","pricing_plan_id":"cebpf4jnsgd1na2vs0mg"},{"bike_id":"8fa34841-53f4-462d-9501-f6c4cbb12dd3","system_id":"levelo_inurba_marseille","lat":43.27322,"lon":5.39072,"is_reserved":false,"is_disabled":false,"rental_uris":{"android":"levelo://app?vid=8fa34841-53f4-462d-9501-f6c4cbb12dd3","ios":"levelo://app?vid=8fa34841-53f4-462d-9501-f6c4cbb12dd3"},"vehicle_type_id":"4","last_reported":1740132599,"current_range_meters":18800,"station_id":"ce4bhap2rcd13ifvqek0","pricing_plan_id":"cebpf4jnsgd1na2vs0mg"},{"bike_id":"f3282fac-8846-4dcf-a871-068271a0de39","system_id":"levelo_inurba_marseille","lat":43.27123,"lon":5.392469,"is_reserved":false,"is_disabled":true,"rental_uris":{"android":"levelo://app?vid=f3282fac-8846-4dcf-a871-068271a0de39","ios":"levelo://app?vid=f3282fac-8846-4dcf-a871-068271a0de39"},"vehicle_type_id":"4","last_reported":1740132599,"current_range_meters":19200,"station_id":"","pricing_plan_id":"cebpf4jnsgd1na2vs0mg"},{"bike_id":"2c6c59e4-e13e-46a0-933f-8d4e78bb1047","system_id":"levelo_inurba_marseille","lat":43.30929,"lon":5.40153,"is_reserved":false,"is_disabled":false,"rental_uris":{"android":"levelo://app?vid=2c6c59e4-e13e-46a0-933f-8d4e78bb1047","ios":"levelo://app?vid=2c6c59e4-e13e-46a0-933f-8d4e78bb1047"},"vehicle_type_id":"4","last_reported":1740132599,"current_range_meters":19200,"station_id":"","pricing_plan_id":"cebpf4jnsgd1na2vs0mg"},{"bike_id":"7bb92895-8d28-462f-a9b4-08e0cc51738d","system_id":"levelo_inurba_marseille","lat":43.30554,"lon":5.36727,"is_reserved":false,"is_disabled":false,"rental_uris":{"android":"levelo://app?vid=7bb92895-8d28-462f-a9b4-08e0cc51738d","ios":"levelo://app?vid=7bb92895-8d28-462f-a9b4-08e0cc51738d"},"vehicle_type_id":"4","last_reported":1740132599,"current_range_meters":19200,"station_id":"ce4bgrp2rcd13ifvqc9g","pricing_plan_id":"cebpf4jnsgd1na2vs0mg"},{"bike_id":"ad6f5720-fd60-4c81-82bb-87bbfbd43234","system_id":"levelo_inurba_marseille","lat":43.28085,"lon":5.35231,"is_reserved":false,"is_disabled":false,"rental_uris":{"android":"levelo://app?vid=ad6f5720-fd60-4c81-82bb-87bbfbd43234","ios":"levelo://app?vid=ad6f5720-fd60-4c81-82bb-87bbfbd43234"},"vehicle_type_id":"4","last_reported":1740132599,"current_range_meters":19200,"station_id":"","pricing_plan_id":"cebpf4jnsgd1na2vs0mg"},{"bike_id":"0f781b17-874d-4783-b2f9-732c96eb74de","system_id":"levelo_inurba_marseille","lat":43.2799,"lon":5.40025,"is_reserved":false,"is_disabled":false,"rental_uris":{"android":"levelo://app?vid=0f781b17-874d-4783-b2f9-732c96eb74de","ios":"levelo://app?vid=0f781b17-874d-4783-b2f9-732c96eb74de"},"vehicle_type_id":"4","last_reported":1740132599,"current_range_meters":19200,"station_id":"ce4bho92rcd13ifvqh4g","pricing_plan_id":"cebpf4jnsgd1na2vs0mg"},{"bike_id":"a1938f89-c903-4a8f-9402-ebae90fe30c4","system_id":"levelo_inurba_marseille","lat":43.23059,"lon":5.35508,"is_reserved":false,"is_disabled":false,"rental_uris":{"android":"levelo://app?vid=a1938f89-c903-4a8f-9402-ebae90fe30c4","ios":"levelo://app?vid=a1938f89-c903-4a8f-9402-ebae90fe30c4"},"vehicle_type_id":"4","last_reported":1740132599,"current_range_meters":19600,"station_id":"cpo3342slgdg3j2ifvpg","pricing_plan_id":"cebpf4jnsgd1na2vs0mg"},{"bike_id":"aa404377-c8cd-4245-8a81-16d3ba47a499","system_id":"levelo_inurba_marseille","lat":43.27917,"lon":5.41247,"is_reserved":false,"is_disabled":false,"rental_uris":{"android":"levelo://app?vid=aa404377-c8cd-4245-8a81-16d3ba47a499","ios":"levelo://app?vid=aa404377-c8cd-4245-8a81-16d3ba47a499"},"vehicle_type_id":"4","last_reported":1740132599,"current_range_meters":19600,"station_id":"ce4bhnp2rcd13ifvqh0g","pricing_plan_id":"cebpf4jnsgd1na2vs0mg"},{"bike_id":"0110446e-ebb0-436b-992d-baf4bf616e92","system_id":"levelo_inurba_marseille","lat":43.27814,"lon":5.40716,"is_reserved":false,"is_disabled":false,"rental_uris":{"android":"levelo://app?vid=0110446e-ebb0-436b-992d-baf4bf616e92","ios":"levelo://app?vid=0110446e-ebb0-436b-992d-baf4bf616e92"},"vehicle_type_id":"4","last_reported":1740132599,"current_range_meters":19600,"station_id":"ce4bhnh2rcd13ifvqgtg","pricing_plan_id":"cebpf4jnsgd1na2vs0mg"},{"bike_id":"83902122-95bd-4f58-bb68-1b4cfe449624","system_id":"levelo_inurba_marseille","lat":43.33594,"lon":5.410288,"is_reserved":false,"is_disabled":false,"rental_uris":{"android":"levelo://app?vid=83902122-95bd-4f58-bb68-1b4cfe449624","ios":"levelo://app?vid=83902122-95bd-4f58-bb68-1b4cfe449624"},"vehicle_type_id":"4","last_reported":1740132599,"current_range_meters":19600,"station_id":"ce4bhqh2rcd13ifvqhmg","pricing_plan_id":"cebpf4jnsgd1na2vs0mg"},{"bike_id":"da08f4f6-cb45-4f39-a334-7562c4634416","system_id":"levelo_inurba_marseille","lat":43.241866,"lon":5.387897,"is_reserved":false,"is_disabled":false,"rental_uris":{"android":"levelo://app?vid=da08f4f6-cb45-4f39-a334-7562c4634416","ios":"levelo://app?vid=da08f4f6-cb45-4f39-a334-7562c4634416"},"vehicle_type_id":"4","last_reported":1740132599,"current_range_meters":19600,"station_id":"ce4bhgh2rcd13ifvqfb0","pricing_plan_id":"cebpf4jnsgd1na2vs0mg"},{"bike_id":"202a3e67-2369-4ea1-93cc-33117a54bb88","system_id":"levelo_inurba_marseille","lat":43.23187,"lon":5.35576,"is_reserved":false,"is_disabled":false,"rental_uris":{"android":"levelo://app?vid=202a3e67-2369-4ea1-93cc-33117a54bb88","ios":"levelo://app?vid=202a3e67-2369-4ea1-93cc-33117a54bb88"},"vehicle_type_id":"4","last_reported":1740132599,"current_range_meters":19600,"station_id":"","pricing_plan_id":"cebpf4jnsgd1na2vs0mg"},{"bike_id":"0cea2ad2-1a45-48ae-8ef6-0434d7ed0a15","system_id":"levelo_inurba_marseille","lat":43.26214,"lon":5.37435,"is_reserved":false,"is_disabled":false,"rental_uris":{"android":"levelo://app?vid=0cea2ad2-1a45-48ae-8ef6-0434d7ed0a15","ios":"levelo://app?vid=0cea2ad2-1a45-48ae-8ef6-0434d7ed0a15"},"vehicle_type_id":"4","last_reported":1740132599,"current_range_meters":19600,"station_id":"ce4bhgp2rcd13ifvqfc0","pricing_plan_id":"cebpf4jnsgd1na2vs0mg"},{"bike_id":"c967ca50-7366-432d-b9ec-585571d15710","system_id":"levelo_inurba_marseille","lat":43.2408,"lon":5.37759,"is_reserved":false,"is_disabled":false,"rental_uris":{"android":"levelo://app?vid=c967ca50-7366-432d-b9ec-585571d15710","ios":"levelo://app?vid=c967ca50-7366-432d-b9ec-585571d15710"},"vehicle_type_id":"4","last_reported":1740132599,"current_range_meters":19600,"station_id":"ce4bhnp2rcd13ifvqgvg","pricing_plan_id":"cebpf4jnsgd1na2vs0mg"},{"bike_id":"60837feb-0482-4266-8cb4-dba20da1b6da","system_id":"levelo_inurba_marseille","lat":43.30265,"lon":5.3772,"is_reserved":false,"is_disabled":false,"rental_uris":{"android":"levelo://app?vid=60837feb-0482-4266-8cb4-dba20da1b6da","ios":"levelo://app?vid=60837feb-0482-4266-8cb4-dba20da1b6da"},"vehicle_type_id":"4","last_reported":1740132599,"current_range_meters":19600,"station_id":"ce4bguh2rcd13ifvqcj0","pricing_plan_id":"cebpf4jnsgd1na2vs0mg"},{"bike_id":"aeb0e03b-ac33-4bd4-95f7-f651dff9849e","system_id":"levelo_inurba_marseille","lat":43.30133,"lon":5.38089,"is_reserved":false,"is_disabled":false,"rental_uris":{"android":"levelo://app?vid=aeb0e03b-ac33-4bd4-95f7-f651dff9849e","ios":"levelo://app?vid=aeb0e03b-ac33-4bd4-95f7-f651dff9849e"},"vehicle_type_id":"4","last_reported":1740132599,"current_range_meters":19600,"station_id":"","pricing_plan_id":"cebpf4jnsgd1na2vs0mg"},{"bike_id":"fde6e656-693c-49e3-b4f4-e6f456149f14","system_id":"levelo_inurba_marseille","lat":43.24077,"lon":5.37713,"is_reserved":false,"is_disabled":false,"rental_uris":{"android":"levelo://app?vid=fde6e656-693c-49e3-b4f4-e6f456149f14","ios":"levelo://app?vid=fde6e656-693c-49e3-b4f4-e6f456149f14"},"vehicle_type_id":"4","last_reported":1740132599,"current_range_meters":19600,"station_id":"ce4bhnp2rcd13ifvqgvg","pricing_plan_id":"cebpf4jnsgd1na2vs0mg"},{"bike_id":"1bcb70f6-389e-4cd5-87cb-a21733562a47","system_id":"levelo_inurba_marseille","lat":43.295366,"lon":5.390512,"is_reserved":false,"is_disabled":false,"rental_uris":{"android":"levelo://app?vid=1bcb70f6-389e-4cd5-87cb-a21733562a47","ios":"levelo://app?vid=1bcb70f6-389e-4cd5-87cb-a21733562a47"},"vehicle_type_id":"4","last_reported":1740132599,"current_range_meters":19600,"station_id":"ce4bgt12rcd13ifvqcd0","pricing_plan_id":"cebpf4jnsgd1na2vs0mg"},{"bike_id":"40432587-8328-41ce-99a2-148f9f2acaa2","system_id":"levelo_inurba_marseille","lat":43.25108,"lon":5.4033,"is_reserved":false,"is_disabled":false,"rental_uris":{"android":"levelo://app?vid=40432587-8328-41ce-99a2-148f9f2acaa2","ios":"levelo://app?vid=40432587-8328-41ce-99a2-148f9f2acaa2"},"vehicle_type_id":"4","last_reported":1740132599,"current_range_meters":20000,"station_id":"","pricing_plan_id":"cebpf4jnsgd1na2vs0mg"},{"bike_id":"58e469ff-df03-43a9-ac36-fdedea2e793b","system_id":"levelo_inurba_marseille","lat":43.321083,"lon":5.367753,"is_reserved":false,"is_disabled":false,"rental_uris":{"android":"levelo://app?vid=58e469ff-df03-43a9-ac36-fdedea2e793b","ios":"levelo://app?vid=58e469ff-df03-43a9-ac36-fdedea2e793b"},"vehicle_type_id":"4","last_reported":1740132599,"current_range_meters":20000,"station_id":"ce4bhrh2rcd13ifvqhug","pricing_plan_id":"cebpf4jnsgd1na2vs0mg"},{"bike_id":"7eafb205-6eec-4bc5-9dd6-f974579dcc67","system_id":"levelo_inurba_marseille","lat":43.25002,"lon":5.38917,"is_reserved":false,"is_disabled":false,"rental_uris":{"android":"levelo://app?vid=7eafb205-6eec-4bc5-9dd6-f974579dcc67","ios":"levelo://app?vid=7eafb205-6eec-4bc5-9dd6-f974579dcc67"},"vehicle_type_id":"4","last_reported":1740132599,"current_range_meters":20000,"station_id":"ce4bhgp2rcd13ifvqfd0","pricing_plan_id":"cebpf4jnsgd1na2vs0mg"},{"bike_id":"702f66d6-08f9-4320-b6bd-5006a4e83079","system_id":"levelo_inurba_marseille","lat":43.27491,"lon":5.42464,"is_reserved":false,"is_disabled":false,"rental_uris":{"android":"levelo://app?vid=702f66d6-08f9-4320-b6bd-5006a4e83079","ios":"levelo://app?vid=702f66d6-08f9-4320-b6bd-5006a4e83079"},"vehicle_type_id":"4","last_reported":1740132599,"current_range_meters":20000,"station_id":"ce4bhn92rcd13ifvqgrg","pricing_plan_id":"cebpf4jnsgd1na2vs0mg"},{"bike_id":"0114784e-970b-4d0c-be93-f81fbd0e6103","system_id":"levelo_inurba_marseille","lat":43.29554,"lon":5.42276,"is_reserved":false,"is_disabled":false,"rental_uris":{"android":"levelo://app?vid=0114784e-970b-4d0c-be93-f81fbd0e6103","ios":"levelo://app?vid=0114784e-970b-4d0c-be93-f81fbd0e6103"},"vehicle_type_id":"4","last_reported":1740132599,"current_range_meters":20000,"station_id":"","pricing_plan_id":"cebpf4jnsgd1na2vs0mg"},{"bike_id":"8ce46f02-4c93-4d86-bcad-9cb33b560362","system_id":"levelo_inurba_marseille","lat":43.33739,"lon":5.3919,"is_reserved":false,"is_disabled":false,"rental_uris":{"android":"levelo://app?vid=8ce46f02-4c93-4d86-bcad-9cb33b560362","ios":"levelo://app?vid=8ce46f02-4c93-4d86-bcad-9cb33b560362"},"vehicle_type_id":"4","last_reported":1740132599,"current_range_meters":20000,"station_id":"ce4bhr92rcd13ifvqhsg","pricing_plan_id":"cebpf4jnsgd1na2vs0mg"},{"bike_id":"9a971a22-1c46-43ab-84c1-80835d13d563","system_id":"levelo_inurba_marseille","lat":43.29339,"lon":5.37426,"is_reserved":false,"is_disabled":false,"rental_uris":{"android":"levelo://app?vid=9a971a22-1c46-43ab-84c1-80835d13d563","ios":"levelo://app?vid=9a971a22-1c46-43ab-84c1-80835d13d563"},"vehicle_type_id":"4","last_reported":1740132599,"current_range_meters":20000,"station_id":"ce4bgi12rcd13ifvqb70","pricing_plan_id":"cebpf4jnsgd1na2vs0mg"},{"bike_id":"8c6e9be6-40ea-4e8c-bdd3-bb491fd07576","system_id":"levelo_inurba_marseille","lat":43.282684,"lon":5.37904,"is_reserved":false,"is_disabled":false,"rental_uris":{"android":"levelo://app?vid=8c6e9be6-40ea-4e8c-bdd3-bb491fd07576","ios":"levelo://app?vid=8c6e9be6-40ea-4e8c-bdd3-bb491fd07576"},"vehicle_type_id":"4","last_reported":1740132599,"current_range_meters":20400,"station_id":"ce4bgj92rcd13ifvqbd0","pricing_plan_id":"cebpf4jnsgd1na2vs0mg"},{"bike_id":"f2249aa5-0c0a-416f-810b-aef18adb0a00","system_id":"levelo_inurba_marseille","lat":43.30952,"lon":5.39041,"is_reserved":false,"is_disabled":false,"rental_uris":{"android":"levelo://app?vid=f2249aa5-0c0a-416f-810b-aef18adb0a00","ios":"levelo://app?vid=f2249aa5-0c0a-416f-810b-aef18adb0a00"},"vehicle_type_id":"4","last_reported":1740132599,"current_range_meters":20400,"station_id":"ce4bgup2rcd13ifvqco0","pricing_plan_id":"cebpf4jnsgd1na2vs0mg"},{"bike_id":"209c1dee-c603-4f3c-b4f6-2531f6035233","system_id":"levelo_inurba_marseille","lat":43.337444,"lon":5.374475,"is_reserved":false,"is_disabled":true,"rental_uris":{"android":"levelo://app?vid=209c1dee-c603-4f3c-b4f6-2531f6035233","ios":"levelo://app?vid=209c1dee-c603-4f3c-b4f6-2531f6035233"},"vehicle_type_id":"4","last_reported":1740132599,"current_range_meters":20400,"station_id":"","pricing_plan_id":"cebpf4jnsgd1na2vs0mg"},{"bike_id":"d7dd4535-4ad9-44aa-b8cc-88cf3b73463a","system_id":"levelo_inurba_marseille","lat":43.27373,"lon":5.36255,"is_reserved":false,"is_disabled":false,"rental_uris":{"android":"levelo://app?vid=d7dd4535-4ad9-44aa-b8cc-88cf3b73463a","ios":"levelo://app?vid=d7dd4535-4ad9-44aa-b8cc-88cf3b73463a"},"vehicle_type_id":"4","last_reported":1740132599,"current_range_meters":20400,"station_id":"","pricing_plan_id":"cebpf4jnsgd1na2vs0mg"},{"bike_id":"353404e2-d343-44f1-a844-0dbde76d1520","system_id":"levelo_inurba_marseille","lat":43.26809,"lon":5.40215,"is_reserved":false,"is_disabled":false,"rental_uris":{"android":"levelo://app?vid=353404e2-d343-44f1-a844-0dbde76d1520","ios":"levelo://app?vid=353404e2-d343-44f1-a844-0dbde76d1520"},"vehicle_type_id":"4","last_reported":1740132599,"current_range_meters":20400,"station_id":"ce501612rcd8frsf0b60","pricing_plan_id":"cebpf4jnsgd1na2vs0mg"},{"bike_id":"5590a7e7-2873-47ee-8634-e14594cf672c","system_id":"levelo_inurba_marseille","lat":43.30163,"lon":5.38084,"is_reserved":false,"is_disabled":false,"rental_uris":{"android":"levelo://app?vid=5590a7e7-2873-47ee-8634-e14594cf672c","ios":"levelo://app?vid=5590a7e7-2873-47ee-8634-e14594cf672c"},"vehicle_type_id":"4","last_reported":1740132599,"current_range_meters":20400,"station_id":"","pricing_plan_id":"cebpf4jnsgd1na2vs0mg"},{"bike_id":"24bb703a-671e-43b6-8f9a-c20cdf868d5a","system_id":"levelo_inurba_marseille","lat":43.2396,"lon":5.36622,"is_reserved":false,"is_disabled":false,"rental_uris":{"android":"levelo://app?vid=24bb703a-671e-43b6-8f9a-c20cdf868d5a","ios":"levelo://app?vid=24bb703a-671e-43b6-8f9a-c20cdf868d5a"},"vehicle_type_id":"4","last_reported":1740132599,"current_range_meters":20400,"station_id":"","pricing_plan_id":"cebpf4jnsgd1na2vs0mg"},{"bike_id":"a6ba2665-5f9b-422c-9f45-3f725c8dddaf","system_id":"levelo_inurba_marseille","lat":43.26802,"lon":5.40268,"is_reserved":false,"is_disabled":false,"rental_uris":{"android":"levelo://app?vid=a6ba2665-5f9b-422c-9f45-3f725c8dddaf","ios":"levelo://app?vid=a6ba2665-5f9b-422c-9f45-3f725c8dddaf"},"vehicle_type_id":"4","last_reported":1740132599,"current_range_meters":20400,"station_id":"ce501612rcd8frsf0b60","pricing_plan_id":"cebpf4jnsgd1na2vs0mg"},{"bike_id":"9b6d056e-24da-4250-894b-76eb1512eff8","system_id":"levelo_inurba_marseille","lat":43.34391,"lon":5.3816,"is_reserved":false,"is_disabled":false,"rental_uris":{"android":"levelo://app?vid=9b6d056e-24da-4250-894b-76eb1512eff8","ios":"levelo://app?vid=9b6d056e-24da-4250-894b-76eb1512eff8"},"vehicle_type_id":"4","last_reported":1740132599,"current_range_meters":20400,"station_id":"","pricing_plan_id":"cebpf4jnsgd1na2vs0mg"},{"bike_id":"26098a94-7147-471c-8c83-b60967f7490f","system_id":"levelo_inurba_marseille","lat":43.27199,"lon":5.39999,"is_reserved":false,"is_disabled":false,"rental_uris":{"android":"levelo://app?vid=26098a94-7147-471c-8c83-b60967f7490f","ios":"levelo://app?vid=26098a94-7147-471c-8c83-b60967f7490f"},"vehicle_type_id":"4","last_reported":1740132599,"current_range_meters":20400,"station_id":"","pricing_plan_id":"cebpf4jnsgd1na2vs0mg"},{"bike_id":"aa82ef49-5096-4909-a06c-167fef0a7135","system_id":"levelo_inurba_marseille","lat":43.29883,"lon":5.39742,"is_reserved":false,"is_disabled":false,"rental_uris":{"android":"levelo://app?vid=aa82ef49-5096-4909-a06c-167fef0a7135","ios":"levelo://app?vid=aa82ef49-5096-4909-a06c-167fef0a7135"},"vehicle_type_id":"4","last_reported":1740132599,"current_range_meters":20400,"station_id":"ce4bh0h2rcd13ifvqd50","pricing_plan_id":"cebpf4jnsgd1na2vs0mg"},{"bike_id":"fa7299bd-635b-44c5-b42e-52904e682a91","system_id":"levelo_inurba_marseille","lat":43.28088,"lon":5.37837,"is_reserved":false,"is_disabled":false,"rental_uris":{"android":"levelo://app?vid=fa7299bd-635b-44c5-b42e-52904e682a91","ios":"levelo://app?vid=fa7299bd-635b-44c5-b42e-52904e682a91"},"vehicle_type_id":"4","last_reported":1740132599,"current_range_meters":20800,"station_id":"ce4bha12rcd13ifvqee0","pricing_plan_id":"cebpf4jnsgd1na2vs0mg"},{"bike_id":"36c10edc-e21c-4c75-a677-a6fe3e613784","system_id":"levelo_inurba_marseille","lat":43.24189,"lon":5.36374,"is_reserved":false,"is_disabled":true,"rental_uris":{"android":"levelo://app?vid=36c10edc-e21c-4c75-a677-a6fe3e613784","ios":"levelo://app?vid=36c10edc-e21c-4c75-a677-a6fe3e613784"},"vehicle_type_id":"4","last_reported":1740132599,"current_range_meters":20800,"station_id":"","pricing_plan_id":"cebpf4jnsgd1na2vs0mg"},{"bike_id":"cbc9de09-36c8-4298-99df-df032a377296","system_id":"levelo_inurba_marseille","lat":43.2678,"lon":5.39414,"is_reserved":false,"is_disabled":false,"rental_uris":{"android":"levelo://app?vid=cbc9de09-36c8-4298-99df-df032a377296","ios":"levelo://app?vid=cbc9de09-36c8-4298-99df-df032a377296"},"vehicle_type_id":"4","last_reported":1740132599,"current_range_meters":20800,"station_id":"ce4bhh12rcd13ifvqfg0","pricing_plan_id":"cebpf4jnsgd1na2vs0mg"},{"bike_id":"f8b51a4e-f5ad-4e62-8142-76ff71cd3f22","system_id":"levelo_inurba_marseille","lat":43.26227,"lon":5.40487,"is_reserved":false,"is_disabled":false,"rental_uris":{"android":"levelo://app?vid=f8b51a4e-f5ad-4e62-8142-76ff71cd3f22","ios":"levelo://app?vid=f8b51a4e-f5ad-4e62-8142-76ff71cd3f22"},"vehicle_type_id":"4","last_reported":1740132599,"current_range_meters":20800,"station_id":"ce4bhmh2rcd13ifvqgmg","pricing_plan_id":"cebpf4jnsgd1na2vs0mg"},{"bike_id":"ec9798b9-7f84-4784-9c19-8312352d0c08","system_id":"levelo_inurba_marseille","lat":43.2968,"lon":5.37698,"is_reserved":false,"is_disabled":false,"rental_uris":{"android":"levelo://app?vid=ec9798b9-7f84-4784-9c19-8312352d0c08","ios":"levelo://app?vid=ec9798b9-7f84-4784-9c19-8312352d0c08"},"vehicle_type_id":"4","last_reported":1740132599,"current_range_meters":20400,"station_id":"ce4bgkh2rcd13ifvqbl0","pricing_plan_id":"cebpf4jnsgd1na2vs0mg"},{"bike_id":"24424287-6c85-4493-b5cd-469e33a12d09","system_id":"levelo_inurba_marseille","lat":43.23957,"lon":5.36627,"is_reserved":false,"is_disabled":false,"rental_uris":{"android":"levelo://app?vid=24424287-6c85-4493-b5cd-469e33a12d09","ios":"levelo://app?vid=24424287-6c85-4493-b5cd-469e33a12d09"},"vehicle_type_id":"4","last_reported":1740132599,"current_range_meters":20800,"station_id":"ce4bhi12rcd13ifvqfp0","pricing_plan_id":"cebpf4jnsgd1na2vs0mg"},{"bike_id":"c319e04a-bf84-414a-9f11-b0b025f113e9","system_id":"levelo_inurba_marseille","lat":43.32497,"lon":5.36563,"is_reserved":false,"is_disabled":false,"rental_uris":{"android":"levelo://app?vid=c319e04a-bf84-414a-9f11-b0b025f113e9","ios":"levelo://app?vid=c319e04a-bf84-414a-9f11-b0b025f113e9"},"vehicle_type_id":"4","last_reported":1740132599,"current_range_meters":21600,"station_id":"ce4bhs12rcd13ifvqhvg","pricing_plan_id":"cebpf4jnsgd1na2vs0mg"},{"bike_id":"95bf7349-cba3-4cb2-a96b-8f51a3143e11","system_id":"levelo_inurba_marseille","lat":43.26192,"lon":5.3745,"is_reserved":false,"is_disabled":false,"rental_uris":{"android":"levelo://app?vid=95bf7349-cba3-4cb2-a96b-8f51a3143e11","ios":"levelo://app?vid=95bf7349-cba3-4cb2-a96b-8f51a3143e11"},"vehicle_type_id":"4","last_reported":1740132599,"current_range_meters":20800,"station_id":"ce4bhgp2rcd13ifvqfc0","pricing_plan_id":"cebpf4jnsgd1na2vs0mg"},{"bike_id":"5f81b511-98a3-40d4-95f0-beec5a64abfb","system_id":"levelo_inurba_marseille","lat":43.267941,"lon":5.394135,"is_reserved":false,"is_disabled":false,"rental_uris":{"android":"levelo://app?vid=5f81b511-98a3-40d4-95f0-beec5a64abfb","ios":"levelo://app?vid=5f81b511-98a3-40d4-95f0-beec5a64abfb"},"vehicle_type_id":"4","last_reported":1740132599,"current_range_meters":20800,"station_id":"ce4bhh12rcd13ifvqfg0","pricing_plan_id":"cebpf4jnsgd1na2vs0mg"},{"bike_id":"22395438-76d7-44d2-bb15-f40285c5cbbe","system_id":"levelo_inurba_marseille","lat":43.30539,"lon":5.36707,"is_reserved":false,"is_disabled":false,"rental_uris":{"android":"levelo://app?vid=22395438-76d7-44d2-bb15-f40285c5cbbe","ios":"levelo://app?vid=22395438-76d7-44d2-bb15-f40285c5cbbe"},"vehicle_type_id":"4","last_reported":1740132599,"current_range_meters":21600,"station_id":"ce4bgrp2rcd13ifvqc9g","pricing_plan_id":"cebpf4jnsgd1na2vs0mg"},{"bike_id":"f527a2bc-85fe-4b7a-8794-40dcac4199a6","system_id":"levelo_inurba_marseille","lat":43.24676,"lon":5.38165,"is_reserved":false,"is_disabled":false,"rental_uris":{"android":"levelo://app?vid=f527a2bc-85fe-4b7a-8794-40dcac4199a6","ios":"levelo://app?vid=f527a2bc-85fe-4b7a-8794-40dcac4199a6"},"vehicle_type_id":"4","last_reported":1740132599,"current_range_meters":21600,"station_id":"ce4bhih2rcd13ifvqfr0","pricing_plan_id":"cebpf4jnsgd1na2vs0mg"},{"bike_id":"8b9b6582-475b-4fd5-aaa1-6a87e9a525ac","system_id":"levelo_inurba_marseille","lat":43.231919,"lon":5.355504,"is_reserved":false,"is_disabled":false,"rental_uris":{"android":"levelo://app?vid=8b9b6582-475b-4fd5-aaa1-6a87e9a525ac","ios":"levelo://app?vid=8b9b6582-475b-4fd5-aaa1-6a87e9a525ac"},"vehicle_type_id":"4","last_reported":1740132599,"current_range_meters":21600,"station_id":"ce4bhhh2rcd13ifvqfk0","pricing_plan_id":"cebpf4jnsgd1na2vs0mg"},{"bike_id":"f29dc35c-0345-4fea-ac54-29071c870211","system_id":"levelo_inurba_marseille","lat":43.30561,"lon":5.36687,"is_reserved":false,"is_disabled":false,"rental_uris":{"android":"levelo://app?vid=f29dc35c-0345-4fea-ac54-29071c870211","ios":"levelo://app?vid=f29dc35c-0345-4fea-ac54-29071c870211"},"vehicle_type_id":"4","last_reported":1740132599,"current_range_meters":21600,"station_id":"ce4bgrp2rcd13ifvqc9g","pricing_plan_id":"cebpf4jnsgd1na2vs0mg"},{"bike_id":"11ddddbb-b540-4d5b-8f6a-d088a858b1f3","system_id":"levelo_inurba_marseille","lat":43.28508,"lon":5.36763,"is_reserved":false,"is_disabled":false,"rental_uris":{"android":"levelo://app?vid=11ddddbb-b540-4d5b-8f6a-d088a858b1f3","ios":"levelo://app?vid=11ddddbb-b540-4d5b-8f6a-d088a858b1f3"},"vehicle_type_id":"4","last_reported":1740132599,"current_range_meters":21600,"station_id":"","pricing_plan_id":"cebpf4jnsgd1na2vs0mg"},{"bike_id":"eff8dc9c-8d61-425d-a060-c76d5752e9f4","system_id":"levelo_inurba_marseille","lat":43.27064,"lon":5.40256,"is_reserved":false,"is_disabled":false,"rental_uris":{"android":"levelo://app?vid=eff8dc9c-8d61-425d-a060-c76d5752e9f4","ios":"levelo://app?vid=eff8dc9c-8d61-425d-a060-c76d5752e9f4"},"vehicle_type_id":"4","last_reported":1740132599,"current_range_meters":21600,"station_id":"ce4bhk92rcd13ifvqgc0","pricing_plan_id":"cebpf4jnsgd1na2vs0mg"},{"bike_id":"c5d081f2-8475-4220-81bd-1130531812d8","system_id":"levelo_inurba_marseille","lat":43.27804,"lon":5.40738,"is_reserved":false,"is_disabled":false,"rental_uris":{"android":"levelo://app?vid=c5d081f2-8475-4220-81bd-1130531812d8","ios":"levelo://app?vid=c5d081f2-8475-4220-81bd-1130531812d8"},"vehicle_type_id":"4","last_reported":1740132599,"current_range_meters":21600,"station_id":"ce4bhnh2rcd13ifvqgtg","pricing_plan_id":"cebpf4jnsgd1na2vs0mg"},{"bike_id":"76b9443a-b37f-45b4-8dab-43e45ac96a1f","system_id":"levelo_inurba_marseille","lat":43.25563,"lon":5.38265,"is_reserved":false,"is_disabled":false,"rental_uris":{"android":"levelo://app?vid=76b9443a-b37f-45b4-8dab-43e45ac96a1f","ios":"levelo://app?vid=76b9443a-b37f-45b4-8dab-43e45ac96a1f"},"vehicle_type_id":"4","last_reported":1740132599,"current_range_meters":21600,"station_id":"ce4bhih2rcd13ifvqfs0","pricing_plan_id":"cebpf4jnsgd1na2vs0mg"},{"bike_id":"353a91db-5833-4ab5-bdff-de6cca0c2588","system_id":"levelo_inurba_marseille","lat":43.299,"lon":5.43675,"is_reserved":false,"is_disabled":false,"rental_uris":{"android":"levelo://app?vid=353a91db-5833-4ab5-bdff-de6cca0c2588","ios":"levelo://app?vid=353a91db-5833-4ab5-bdff-de6cca0c2588"},"vehicle_type_id":"4","last_reported":1740132599,"current_range_meters":21600,"station_id":"ce4bhpp2rcd13ifvqhfg","pricing_plan_id":"cebpf4jnsgd1na2vs0mg"},{"bike_id":"535fef37-4347-41bc-b620-986fa754b823","system_id":"levelo_inurba_marseille","lat":43.2657,"lon":5.39004,"is_reserved":false,"is_disabled":true,"rental_uris":{"android":"levelo://app?vid=535fef37-4347-41bc-b620-986fa754b823","ios":"levelo://app?vid=535fef37-4347-41bc-b620-986fa754b823"},"vehicle_type_id":"4","last_reported":1740132599,"current_range_meters":21600,"station_id":"ce4bhe12rcd13ifvqf30","pricing_plan_id":"cebpf4jnsgd1na2vs0mg"},{"bike_id":"441bbef6-2c54-43a0-9c7f-1e044843a59a","system_id":"levelo_inurba_marseille","lat":43.27989,"lon":5.4006,"is_reserved":false,"is_disabled":false,"rental_uris":{"android":"levelo://app?vid=441bbef6-2c54-43a0-9c7f-1e044843a59a","ios":"levelo://app?vid=441bbef6-2c54-43a0-9c7f-1e044843a59a"},"vehicle_type_id":"4","last_reported":1740132599,"current_range_meters":22000,"station_id":"ce4bho92rcd13ifvqh4g","pricing_plan_id":"cebpf4jnsgd1na2vs0mg"},{"bike_id":"a0aa4063-cf5a-4290-aca4-113bdda28361","system_id":"levelo_inurba_marseille","lat":43.313664,"lon":5.384989,"is_reserved":false,"is_disabled":false,"rental_uris":{"android":"levelo://app?vid=a0aa4063-cf5a-4290-aca4-113bdda28361","ios":"levelo://app?vid=a0aa4063-cf5a-4290-aca4-113bdda28361"},"vehicle_type_id":"4","last_reported":1740132599,"current_range_meters":22000,"station_id":"ce4bgt92rcd13ifvqcf0","pricing_plan_id":"cebpf4jnsgd1na2vs0mg"},{"bike_id":"3f68f9fe-fb1f-4d51-8bb4-795bdf7b3bfc","system_id":"levelo_inurba_marseille","lat":43.2749,"lon":5.42455,"is_reserved":false,"is_disabled":false,"rental_uris":{"android":"levelo://app?vid=3f68f9fe-fb1f-4d51-8bb4-795bdf7b3bfc","ios":"levelo://app?vid=3f68f9fe-fb1f-4d51-8bb4-795bdf7b3bfc"},"vehicle_type_id":"4","last_reported":1740132599,"current_range_meters":22000,"station_id":"ce4bhn92rcd13ifvqgrg","pricing_plan_id":"cebpf4jnsgd1na2vs0mg"},{"bike_id":"87c5c66a-283e-4054-8222-deda2299f73e","system_id":"levelo_inurba_marseille","lat":43.241791,"lon":5.39731,"is_reserved":false,"is_disabled":false,"rental_uris":{"android":"levelo://app?vid=87c5c66a-283e-4054-8222-deda2299f73e","ios":"levelo://app?vid=87c5c66a-283e-4054-8222-deda2299f73e"},"vehicle_type_id":"4","last_reported":1740132599,"current_range_meters":22000,"station_id":"ce4bhn12rcd13ifvqgpg","pricing_plan_id":"cebpf4jnsgd1na2vs0mg"},{"bike_id":"329ce30a-f2cc-47b1-b6d3-4fa175a8e809","system_id":"levelo_inurba_marseille","lat":43.28716,"lon":5.40005,"is_reserved":false,"is_disabled":false,"rental_uris":{"android":"levelo://app?vid=329ce30a-f2cc-47b1-b6d3-4fa175a8e809","ios":"levelo://app?vid=329ce30a-f2cc-47b1-b6d3-4fa175a8e809"},"vehicle_type_id":"4","last_reported":1740132599,"current_range_meters":36800,"station_id":"ce4bho92rcd13ifvqh3g","pricing_plan_id":"cebpf4jnsgd1na2vs0mg"},{"bike_id":"008b89a8-d792-4e91-a5ac-772640b2e660","system_id":"levelo_inurba_marseille","lat":43.32369,"lon":5.36795,"is_reserved":false,"is_disabled":false,"rental_uris":{"android":"levelo://app?vid=008b89a8-d792-4e91-a5ac-772640b2e660","ios":"levelo://app?vid=008b89a8-d792-4e91-a5ac-772640b2e660"},"vehicle_type_id":"4","last_reported":1740132599,"current_range_meters":22000,"station_id":"ce4bhsh2rcd13ifvqi2g","pricing_plan_id":"cebpf4jnsgd1na2vs0mg"},{"bike_id":"8782a208-bd4f-498c-914f-0d6082a07eef","system_id":"levelo_inurba_marseille","lat":43.33609,"lon":5.41036,"is_reserved":false,"is_disabled":false,"rental_uris":{"android":"levelo://app?vid=8782a208-bd4f-498c-914f-0d6082a07eef","ios":"levelo://app?vid=8782a208-bd4f-498c-914f-0d6082a07eef"},"vehicle_type_id":"4","last_reported":1740132599,"current_range_meters":22000,"station_id":"ce4bhqh2rcd13ifvqhmg","pricing_plan_id":"cebpf4jnsgd1na2vs0mg"},{"bike_id":"9dcdb7bd-dd9a-4d1b-8ea4-d3c22cafb4fb","system_id":"levelo_inurba_marseille","lat":43.29523,"lon":5.39401,"is_reserved":false,"is_disabled":false,"rental_uris":{"android":"levelo://app?vid=9dcdb7bd-dd9a-4d1b-8ea4-d3c22cafb4fb","ios":"levelo://app?vid=9dcdb7bd-dd9a-4d1b-8ea4-d3c22cafb4fb"},"vehicle_type_id":"4","last_reported":1740132599,"current_range_meters":22000,"station_id":"ce4bh292rcd13ifvqdf0","pricing_plan_id":"cebpf4jnsgd1na2vs0mg"},{"bike_id":"189ecabc-a800-4e4f-83cd-78c35bc771e8","system_id":"levelo_inurba_marseille","lat":43.24395,"lon":5.37111,"is_reserved":false,"is_disabled":true,"rental_uris":{"android":"levelo://app?vid=189ecabc-a800-4e4f-83cd-78c35bc771e8","ios":"levelo://app?vid=189ecabc-a800-4e4f-83cd-78c35bc771e8"},"vehicle_type_id":"4","last_reported":1740132599,"current_range_meters":22000,"station_id":"ce4bhhh2rcd13ifvqfk0","pricing_plan_id":"cebpf4jnsgd1na2vs0mg"},{"bike_id":"5abddd14-0da8-48d9-a758-dc17655e2602","system_id":"levelo_inurba_marseille","lat":43.2798,"lon":5.40045,"is_reserved":false,"is_disabled":false,"rental_uris":{"android":"levelo://app?vid=5abddd14-0da8-48d9-a758-dc17655e2602","ios":"levelo://app?vid=5abddd14-0da8-48d9-a758-dc17655e2602"},"vehicle_type_id":"4","last_reported":1740132599,"current_range_meters":22400,"station_id":"","pricing_plan_id":"cebpf4jnsgd1na2vs0mg"},{"bike_id":"06cc49a0-c3cd-4f55-916b-946728cdbd38","system_id":"levelo_inurba_marseille","lat":43.23194,"lon":5.3556,"is_reserved":false,"is_disabled":false,"rental_uris":{"android":"levelo://app?vid=06cc49a0-c3cd-4f55-916b-946728cdbd38","ios":"levelo://app?vid=06cc49a0-c3cd-4f55-916b-946728cdbd38"},"vehicle_type_id":"4","last_reported":1740132599,"current_range_meters":22400,"station_id":"","pricing_plan_id":"cebpf4jnsgd1na2vs0mg"},{"bike_id":"725bfa7b-386e-42b9-a91e-aace203304ab","system_id":"levelo_inurba_marseille","lat":43.2962,"lon":5.37729,"is_reserved":false,"is_disabled":false,"rental_uris":{"android":"levelo://app?vid=725bfa7b-386e-42b9-a91e-aace203304ab","ios":"levelo://app?vid=725bfa7b-386e-42b9-a91e-aace203304ab"},"vehicle_type_id":"4","last_reported":1740132599,"current_range_meters":22000,"station_id":"ce4bgi92rcd13ifvqb90","pricing_plan_id":"cebpf4jnsgd1na2vs0mg"},{"bike_id":"70015170-8486-49e0-8a42-10787d18de01","system_id":"levelo_inurba_marseille","lat":43.278132,"lon":5.407036,"is_reserved":false,"is_disabled":false,"rental_uris":{"android":"levelo://app?vid=70015170-8486-49e0-8a42-10787d18de01","ios":"levelo://app?vid=70015170-8486-49e0-8a42-10787d18de01"},"vehicle_type_id":"4","last_reported":1740132599,"current_range_meters":22400,"station_id":"ce4bhnh2rcd13ifvqgtg","pricing_plan_id":"cebpf4jnsgd1na2vs0mg"},{"bike_id":"793e5d9c-abf5-4d24-807c-201495109951","system_id":"levelo_inurba_marseille","lat":43.32358,"lon":5.36753,"is_reserved":false,"is_disabled":false,"rental_uris":{"android":"levelo://app?vid=793e5d9c-abf5-4d24-807c-201495109951","ios":"levelo://app?vid=793e5d9c-abf5-4d24-807c-201495109951"},"vehicle_type_id":"4","last_reported":1740132599,"current_range_meters":22400,"station_id":"ce4bhsh2rcd13ifvqi2g","pricing_plan_id":"cebpf4jnsgd1na2vs0mg"},{"bike_id":"5fbfda8a-33f7-47e0-8b4c-c53dada19091","system_id":"levelo_inurba_marseille","lat":43.275696,"lon":5.384132,"is_reserved":false,"is_disabled":false,"rental_uris":{"android":"levelo://app?vid=5fbfda8a-33f7-47e0-8b4c-c53dada19091","ios":"levelo://app?vid=5fbfda8a-33f7-47e0-8b4c-c53dada19091"},"vehicle_type_id":"4","last_reported":1740132599,"current_range_meters":22800,"station_id":"","pricing_plan_id":"cebpf4jnsgd1na2vs0mg"},{"bike_id":"94144cb7-3dba-437e-8fd4-bd9bfce371d9","system_id":"levelo_inurba_marseille","lat":43.27504,"lon":5.39616,"is_reserved":false,"is_disabled":false,"rental_uris":{"android":"levelo://app?vid=94144cb7-3dba-437e-8fd4-bd9bfce371d9","ios":"levelo://app?vid=94144cb7-3dba-437e-8fd4-bd9bfce371d9"},"vehicle_type_id":"4","last_reported":1740132599,"current_range_meters":22800,"station_id":"","pricing_plan_id":"cebpf4jnsgd1na2vs0mg"},