{"last_updated":1747584650,"ttl":60,"version":"2.2","data":{"bikes":[{"bike_id":"c0b9fd4f-e181-46ce-b0bf-f5119973334f","system_id":"levelo_inurba_marseille","lat":43.33771,"lon":5.37424,"is_reserved":false,"is_disabled":true,"rental_uris":{"android":"levelo://app?vid=c0b9fd4f-e181-46ce-b0bf-f5119973334f","ios":"levelo://app?vid=c0b9fd4f-e181-46ce-b0bf-f5119973334f"},"vehicle_type_id":"4","last_reported":1747584650,"current_range_meters":400,"station_id":"","pricing_plan_id":"cebpf4jnsgd1na2vs0mg"},{"bike_id":"78a72d2e-086e-4202-8619-96d6a7e70ccc","system_id":"levelo_inurba_marseille","lat":43.283789,"lon":5.399091,"is_reserved":false,"is_disabled":true,"rental_uris":{"android":"levelo://app?vid=78a72d2e-086e-4202-8619-96d6a7e70ccc","ios":"levelo://app?vid=78a72d2e-086e-4202-8619-96d6a7e70ccc"},"vehicle_type_id":"4","last_reported":1747584650,"current_range_meters":0,"station_id":"","pricing_plan_id":"cebpf4jnsgd1na2vs0mg"},{"bike_id":"fc2577e7-1497-425b-9d4f-ab8d7dc843c6","system_id":"levelo_inurba_marseille","lat":43.33771,"lon":5.37485,"is_reserved":false,"is_disabled":true,"rental_uris":{"android":"levelo://app?vid=fc2577e7-1497-425b-9d4f-ab8d7dc843c6","ios":"levelo://app?vid=fc2577e7-1497-425b-9d4f-ab8d7dc843c6"},"vehicle_type_id":"4","last_reported":1747584650,"current_range_meters":0,"station_id":"","pricing_plan_id":"cebpf4jnsgd1na2vs0mg"},{"bike_id":"80d0d83f-909d-4568-b4e7-8a3ef4eed2de","system_id":"levelo_inurba_marseille","lat":43.25362,"lon":5.4174,"is_reserved":false,"is_disabled":true,"rental_uris":{"android":"levelo://app?vid=80d0d83f-909d-4568-b4e7-8a3ef4eed2de","ios":"levelo://app?vid=80d0d83f-909d-4568-b4e7-8a3ef4eed2de"},"vehicle_type_id":"4","last_reported":1747584650,"current_range_meters":0,"station_id":"","pricing_plan_id":"cebpf4jnsgd1na2vs0mg"},{"bike_id":"1c306c3e-c8bd-4009-ac53-251079544953","system_id":"levelo_inurba_marseille","lat":43.25048,"lon":5.42711,"is_reserved":false,"is_disabled":true,"rental_uris":{"android":"levelo://app?vid=1c306c3e-c8bd-4009-ac53-251079544953","ios":"levelo://app?vid=1c306c3e-c8bd-4009-ac53-251079544953"},"vehicle_type_id":"4","last_reported":1747584650,"current_range_meters":0,"station_id":"","pricing_plan_id":"cebpf4jnsgd1na2vs0mg"},{"bike_id":"c31e7056-9264-49db-8d33-a9642cf776a3","system_id":"levelo_inurba_marseille","lat":43.27904,"lon":5.35439,"is_reserved":false,"is_disabled":true,"rental_uris":{"android":"levelo://app?vid=c31e7056-9264-49db-8d33-a9642cf776a3","ios":"levelo://app?vid=c31e7056-9264-49db-8d33-a9642cf776a3"},"vehicle_type_id":"4","last_reported":1747584650,"current_range_meters":0,"station_id":"","pricing_plan_id":"cebpf4jnsgd1na2vs0mg"},{"bike_id":"ce4325af-2448-4172-bdec-81d552ee0b62","system_id":"levelo_inurba_marseille","lat":43.26109,"lon":5.4208,"is_reserved":false,"is_disabled":true,"rental_uris":{"android":"levelo://app?vid=ce4325af-2448-4172-bdec-81d552ee0b62","ios":"levelo://app?vid=ce4325af-2448-4172-bdec-81d552ee0b62"},"vehicle_type_id":"4","last_reported":1747584650,"current_range_meters":0,"station_id":"","pricing_plan_id":"cebpf4jnsgd1na2vs0mg"},{"bike_id":"23939faf-d206-4b93-ade4-199417584041","system_id":"levelo_inurba_marseille","lat":43.249472,"lon":5.375417,"is_reserved":false,"is_disabled":true,"rental_uris":{"android":"levelo://app?vid=23939faf-d206-4b93-ade4-199417584041","ios":"levelo://app?vid=23939faf-d206-4b93-ade4-199417584041"},"vehicle_type_id":"4","last_reported":1747584650,"current_range_meters":0,"station_id":"","pricing_plan_id":"cebpf4jnsgd1na2vs0mg"},{"bike_id":"39e2ed66-9956-4ef6-982d-047884828e87","system_id":"levelo_inurba_marseille","lat":43.2629,"lon":5.39297,"is_reserved":false,"is_disabled":true,"rental_uris":{"android":"levelo://app?vid=39e2ed66-9956-4ef6-982d-047884828e87","ios":"levelo://app?vid=39e2ed66-9956-4ef6-982d-047884828e87"},"vehicle_type_id":"4","last_reported":1747584650,"current_range_meters":0,"station_id":"","pricing_plan_id":"cebpf4jnsgd1na2vs0mg"},{"bike_id":"792567c6-0442-4011-aff0-9c05e25deb48","system_id":"levelo_inurba_marseille","lat":43.337444,"lon":5.374475,"is_reserved":false,"is_disabled":true,"rental_uris":{"android":"levelo://app?vid=792567c6-0442-4011-aff0-9c05e25deb48","ios":"levelo://app?vid=792567c6-0442-4011-aff0-9c05e25deb48"},"vehicle_type_id":"4","last_reported":1747584650,"current_range_meters":0,"station_id":"","pricing_plan_id":"cebpf4jnsgd1na2vs0mg"},{"bike_id":"bb0baa39-1e01-43e0-a77c-5ba8d631e8a2","system_id":"levelo_inurba_marseille","lat":43.27277,"lon":5.38585,"is_reserved":false,"is_disabled":true,"rental_uris":{"android":"levelo://app?vid=bb0baa39-1e01-43e0-a77c-5ba8d631e8a2","ios":"levelo://app?vid=bb0baa39-1e01-43e0-a77c-5ba8d631e8a2"},"vehicle_type_id":"4","last_reported":1747584650,"current_range_meters":0,"station_id":"","pricing_plan_id":"cebpf4jnsgd1na2vs0mg"},{"bike_id":"e9dd3aa4-b5e7-4480-926d-d7f537719bfa","system_id":"levelo_inurba_marseille","lat":43.23006,"lon":5.40213,"is_reserved":false,"is_disabled":true,"rental_uris":{"android":"levelo://app?vid=e9dd3aa4-b5e7-4480-926d-d7f537719bfa","ios":"levelo://app?vid=e9dd3aa4-b5e7-4480-926d-d7f537719bfa"},"vehicle_type_id":"4","last_reported":1747584650,"current_range_meters":0,"station_id":"","pricing_plan_id":"cebpf4jnsgd1na2vs0mg"},{"bike_id":"9ae68f60-c1b0-4cad-a8a0-238a22aeaa76","system_id":"levelo_inurba_marseille","lat":43.285867,"lon":5.395293,"is_reserved":false,"is_disabled":true,"rental_uris":{"android":"levelo://app?vid=9ae68f60-c1b0-4cad-a8a0-238a22aeaa76","ios":"levelo://app?vid=9ae68f60-c1b0-4cad-a8a0-238a22aeaa76"},"vehicle_type_id":"4","last_reported":1747584650,"current_range_meters":0,"station_id":"ce4bh292rcd13ifvqdg0","pricing_plan_id":"cebpf4jnsgd1na2vs0mg"},{"bike_id":"6eab1944-beb7-4d8e-b474-8b2ae8f398a9","system_id":"levelo_inurba_marseille","lat":43.29522,"lon":5.3904,"is_reserved":false,"is_disabled":true,"rental_uris":{"android":"levelo://app?vid=6eab1944-beb7-4d8e-b474-8b2ae8f398a9","ios":"levelo://app?vid=6eab1944-beb7-4d8e-b474-8b2ae8f398a9"},"vehicle_type_id":"4","last_reported":1747584650,"current_range_meters":0,"station_id":"ce4bh3p2rcd13ifvqdp0","pricing_plan_id":"cebpf4jnsgd1na2vs0mg"},{"bike_id":"dd43bfad-3a24-4c38-97d9-c48a84a1f87d","system_id":"levelo_inurba_marseille","lat":43.28404,"lon":5.37529,"is_reserved":false,"is_disabled":true,"rental_uris":{"android":"levelo://app?vid=dd43bfad-3a24-4c38-97d9-c48a84a1f87d","ios":"levelo://app?vid=dd43bfad-3a24-4c38-97d9-c48a84a1f87d"},"vehicle_type_id":"4","last_reported":1747584650,"current_range_meters":0,"station_id":"ce4bh412rcd13ifvqds0","pricing_plan_id":"cebpf4jnsgd1na2vs0mg"},{"bike_id":"a9d52aff-fbfc-41b4-b4fd-8f443bb8d506","system_id":"levelo_inurba_marseille","lat":43.27377,"lon":5.36257,"is_reserved":false,"is_disabled":true,"rental_uris":{"android":"levelo://app?vid=a9d52aff-fbfc-41b4-b4fd-8f443bb8d506","ios":"levelo://app?vid=a9d52aff-fbfc-41b4-b4fd-8f443bb8d506"},"vehicle_type_id":"4","last_reported":1747584650,"current_range_meters":0,"station_id":"ce4bhbh2rcd13ifvqeo0","pricing_plan_id":"cebpf4jnsgd1na2vs0mg"},{"bike_id":"fd4df5e1-f5db-4c2d-ad42-a7eb4fb71e32","system_id":"levelo_inurba_marseille","lat":43.26563,"lon":5.39013,"is_reserved":false,"is_disabled":true,"rental_uris":{"android":"levelo://app?vid=fd4df5e1-f5db-4c2d-ad42-a7eb4fb71e32","ios":"levelo://app?vid=fd4df5e1-f5db-4c2d-ad42-a7eb4fb71e32"},"vehicle_type_id":"4","last_reported":1747584650,"current_range_meters":0,"station_id":"ce4bhe12rcd13ifvqf30","pricing_plan_id":"cebpf4jnsgd1na2vs0mg"},{"bike_id":"c406c648-f6f3-407c-badb-7f248b1b69af","system_id":"levelo_inurba_marseille","lat":43.26034,"lon":5.37558,"is_reserved":false,"is_disabled":true,"rental_uris":{"android":"levelo://app?vid=c406c648-f6f3-407c-badb-7f248b1b69af","ios":"levelo://app?vid=c406c648-f6f3-407c-badb-7f248b1b69af"},"vehicle_type_id":"4","last_reported":1747584650,"current_range_meters":0,"station_id":"ce4bhgh2rcd13ifvqfa0","pricing_plan_id":"cebpf4jnsgd1na2vs0mg"},{"bike_id":"107766ae-84b2-4f67-ac63-34bdaed2b902","system_id":"levelo_inurba_marseille","lat":43.24995,"lon":5.38937,"is_reserved":false,"is_disabled":true,"rental_uris":{"android":"levelo://app?vid=107766ae-84b2-4f67-ac63-34bdaed2b902","ios":"levelo://app?vid=107766ae-84b2-4f67-ac63-34bdaed2b902"},"vehicle_type_id":"4","last_reported":1747584650,"current_range_meters":0,"station_id":"ce4bhgp2rcd13ifvqfd0","pricing_plan_id":"cebpf4jnsgd1na2vs0mg"},{"bike_id":"2eb976dd-da5f-496c-91fa-658a0e1189c0","system_id":"levelo_inurba_marseille","lat":43.26817,"lon":5.39456,"is_reserved":false,"is_disabled":true,"rental_uris":{"android":"levelo://app?vid=2eb976dd-da5f-496c-91fa-658a0e1189c0","ios":"levelo://app?vid=2eb976dd-da5f-496c-91fa-658a0e1189c0"},"vehicle_type_id":"4","last_reported":1747584650,"current_range_meters":0,"station_id":"ce4bhh12rcd13ifvqfg0","pricing_plan_id":"cebpf4jnsgd1na2vs0mg"},{"bike_id":"52162295-f64e-481e-a40b-efc51a026718","system_id":"levelo_inurba_marseille","lat":43.26946,"lon":5.38649,"is_reserved":false,"is_disabled":true,"rental_uris":{"android":"levelo://app?vid=52162295-f64e-481e-a40b-efc51a026718","ios":"levelo://app?vid=52162295-f64e-481e-a40b-efc51a026718"},"vehicle_type_id":"4","last_reported":1747584650,"current_range_meters":0,"station_id":"ce4bhh92rcd13ifvqfh0","pricing_plan_id":"cebpf4jnsgd1na2vs0mg"},{"bike_id":"fb08e645-f47f-461e-b4ee-3074bd4950b3","system_id":"levelo_inurba_marseille","lat":43.2439,"lon":5.37075,"is_reserved":false,"is_disabled":true,"rental_uris":{"android":"levelo://app?vid=fb08e645-f47f-461e-b4ee-3074bd4950b3","ios":"levelo://app?vid=fb08e645-f47f-461e-b4ee-3074bd4950b3"},"vehicle_type_id":"4","last_reported":1747584650,"current_range_meters":0,"station_id":"ce4bhhh2rcd13ifvqfk0","pricing_plan_id":"cebpf4jnsgd1na2vs0mg"},{"bike_id":"26ead14b-bfb1-43b6-a3d6-71849b28c937","system_id":"levelo_inurba_marseille","lat":43.251104,"lon":5.403315,"is_reserved":false,"is_disabled":true,"rental_uris":{"android":"levelo://app?vid=26ead14b-bfb1-43b6-a3d6-71849b28c937","ios":"levelo://app?vid=26ead14b-bfb1-43b6-a3d6-71849b28c937"},"vehicle_type_id":"4","last_reported":1747584650,"current_range_meters":0,"station_id":"ce4bhlh2rcd13ifvqgig","pricing_plan_id":"cebpf4jnsgd1na2vs0mg"},{"bike_id":"913a9d5f-bf41-4951-83b9-2f77b5e6df1e","system_id":"levelo_inurba_marseille","lat":43.23142,"lon":5.43708,"is_reserved":false,"is_disabled":true,"rental_uris":{"android":"levelo://app?vid=913a9d5f-bf41-4951-83b9-2f77b5e6df1e","ios":"levelo://app?vid=913a9d5f-bf41-4951-83b9-2f77b5e6df1e"},"vehicle_type_id":"4","last_reported":1747584650,"current_range_meters":0,"station_id":"ce4bhmp2rcd13ifvqgog","pricing_plan_id":"cebpf4jnsgd1na2vs0mg"},{"bike_id":"261c8f51-716e-48c1-85cd-e3e2819ef2c0","system_id":"levelo_inurba_marseille","lat":43.28147,"lon":5.42636,"is_reserved":false,"is_disabled":true,"rental_uris":{"android":"levelo://app?vid=261c8f51-716e-48c1-85cd-e3e2819ef2c0","ios":"levelo://app?vid=261c8f51-716e-48c1-85cd-e3e2819ef2c0"},"vehicle_type_id":"4","last_reported":1747584650,"current_range_meters":0,"station_id":"ce4bhnh2rcd13ifvqgug","pricing_plan_id":"cebpf4jnsgd1na2vs0mg"},{"bike_id":"af311f8a-db0b-492c-a4f9-181555b50c99","system_id":"levelo_inurba_marseille","lat":43.3206,"lon":5.41546,"is_reserved":false,"is_disabled":true,"rental_uris":{"android":"levelo://app?vid=af311f8a-db0b-492c-a4f9-181555b50c99","ios":"levelo://app?vid=af311f8a-db0b-492c-a4f9-181555b50c99"},"vehicle_type_id":"4","last_reported":1747584650,"current_range_meters":0,"station_id":"ce4bhq92rcd13ifvqhkg","pricing_plan_id":"cebpf4jnsgd1na2vs0mg"},{"bike_id":"1773dfad-aa9e-4582-939d-911c6540559d","system_id":"levelo_inurba_marseille","lat":43.23191,"lon":5.35547,"is_reserved":false,"is_disabled":true,"rental_uris":{"android":"levelo://app?vid=1773dfad-aa9e-4582-939d-911c6540559d","ios":"levelo://app?vid=1773dfad-aa9e-4582-939d-911c6540559d"},"vehicle_type_id":"4","last_reported":1747584650,"current_range_meters":0,"station_id":"ce4bhu92rcd13ifvqi70","pricing_plan_id":"cebpf4jnsgd1na2vs0mg"},{"bike_id":"8716564c-17a6-41bd-bb36-cb5e04b176a4","system_id":"levelo_inurba_marseille","lat":43.21748,"lon":5.34602,"is_reserved":false,"is_disabled":true,"rental_uris":{"android":"levelo://app?vid=8716564c-17a6-41bd-bb36-cb5e04b176a4","ios":"levelo://app?vid=8716564c-17a6-41bd-bb36-cb5e04b176a4"},"vehicle_type_id":"4","last_reported":1747584650,"current_range_meters":0,"station_id":"st_cvj6r9ubvosntc0bgbag","pricing_plan_id":"cebpf4jnsgd1na2vs0mg"},{"bike_id":"965783d9-0e94-40dc-92d9-b9f53669120e","system_id":"levelo_inurba_marseille","lat":43.31423,"lon":5.37011,"is_reserved":false,"is_disabled":true,"rental_uris":{"android":"levelo://app?vid=965783d9-0e94-40dc-92d9-b9f53669120e","ios":"levelo://app?vid=965783d9-0e94-40dc-92d9-b9f53669120e"},"vehicle_type_id":"4","last_reported":1747584650,"current_range_meters":400,"station_id":"","pricing_plan_id":"cebpf4jnsgd1na2vs0mg"},{"bike_id":"f403d165-4204-4445-81d6-c1b63d43372a","system_id":"levelo_inurba_marseille","lat":43.30097,"lon":5.39066,"is_reserved":false,"is_disabled":true,"rental_uris":{"android":"levelo://app?vid=f403d165-4204-4445-81d6-c1b63d43372a","ios":"levelo://app?vid=f403d165-4204-4445-81d6-c1b63d43372a"},"vehicle_type_id":"4","last_reported":1747584650,"current_range_meters":400,"station_id":"ce4bh192rcd13ifvqdb0","pricing_plan_id":"cebpf4jnsgd1na2vs0mg"},{"bike_id":"2e494207-8e24-43e3-9c1b-ad59c564faab","system_id":"levelo_inurba_marseille","lat":43.27201,"lon":5.3915,"is_reserved":false,"is_disabled":true,"rental_uris":{"android":"levelo://app?vid=2e494207-8e24-43e3-9c1b-ad59c564faab","ios":"levelo://app?vid=2e494207-8e24-43e3-9c1b-ad59c564faab"},"vehicle_type_id":"4","last_reported":1747584650,"current_range_meters":800,"station_id":"ce4bhhp2rcd13ifvqfm0","pricing_plan_id":"cebpf4jnsgd1na2vs0mg"},{"bike_id":"a2961416-75af-489f-a72e-933d171fb7a8","system_id":"levelo_inurba_marseille","lat":43.25579,"lon":5.38229,"is_reserved":false,"is_disabled":true,"rental_uris":{"android":"levelo://app?vid=a2961416-75af-489f-a72e-933d171fb7a8","ios":"levelo://app?vid=a2961416-75af-489f-a72e-933d171fb7a8"},"vehicle_type_id":"4","last_reported":1747584650,"current_range_meters":800,"station_id":"ce4bhih2rcd13ifvqfs0","pricing_plan_id":"cebpf4jnsgd1na2vs0mg"},{"bike_id":"3db24cd2-b51b-4a0c-9a73-61bafbdea604","system_id":"levelo_inurba_marseille","lat":43.27835,"lon":5.39211,"is_reserved":false,"is_disabled":true,"rental_uris":{"android":"levelo://app?vid=3db24cd2-b51b-4a0c-9a73-61bafbdea604","ios":"levelo://app?vid=3db24cd2-b51b-4a0c-9a73-61bafbdea604"},"vehicle_type_id":"4","last_reported":1747584650,"current_range_meters":800,"station_id":"ce4bhjp2rcd13ifvqga0","pricing_plan_id":"cebpf4jnsgd1na2vs0mg"},{"bike_id":"9336215f-dd59-4b3e-a5e2-6e2f57b90a64","system_id":"levelo_inurba_marseille","lat":43.21742,"lon":5.346,"is_reserved":false,"is_disabled":true,"rental_uris":{"android":"levelo://app?vid=9336215f-dd59-4b3e-a5e2-6e2f57b90a64","ios":"levelo://app?vid=9336215f-dd59-4b3e-a5e2-6e2f57b90a64"},"vehicle_type_id":"4","last_reported":1747584650,"current_range_meters":800,"station_id":"st_cvj6r9ubvosntc0bgbag","pricing_plan_id":"cebpf4jnsgd1na2vs0mg"},{"bike_id":"454478f3-aea8-4c6e-8165-5683007b24e5","system_id":"levelo_inurba_marseille","lat":43.31064,"lon":5.3835,"is_reserved":false,"is_disabled":true,"rental_uris":{"android":"levelo://app?vid=454478f3-aea8-4c6e-8165-5683007b24e5","ios":"levelo://app?vid=454478f3-aea8-4c6e-8165-5683007b24e5"},"vehicle_type_id":"4","last_reported":1747584650,"current_range_meters":1200,"station_id":"ce4bgv92rcd13ifvqcr0","pricing_plan_id":"cebpf4jnsgd1na2vs0mg"},{"bike_id":"346fb217-58fd-468e-b471-95e082298ea8","system_id":"levelo_inurba_marseille","lat":43.24648,"lon":5.38906,"is_reserved":false,"is_disabled":true,"rental_uris":{"android":"levelo://app?vid=346fb217-58fd-468e-b471-95e082298ea8","ios":"levelo://app?vid=346fb217-58fd-468e-b471-95e082298ea8"},"vehicle_type_id":"4","last_reported":1747584650,"current_range_meters":1200,"station_id":"ce4bhg12rcd13ifvqf60","pricing_plan_id":"cebpf4jnsgd1na2vs0mg"},{"bike_id":"d5b178ed-2cab-44a5-9593-ea5fdb246abb","system_id":"levelo_inurba_marseille","lat":43.29313,"lon":5.37178,"is_reserved":false,"is_disabled":false,"rental_uris":{"android":"levelo://app?vid=d5b178ed-2cab-44a5-9593-ea5fdb246abb","ios":"levelo://app?vid=d5b178ed-2cab-44a5-9593-ea5fdb246abb"},"vehicle_type_id":"4","last_reported":1747584650,"current_range_meters":1600,"station_id":"ce4bgh92rcd13ifvqb40","pricing_plan_id":"cebpf4jnsgd1na2vs0mg"},{"bike_id":"502cb578-a718-4a79-a57f-c682331475a9","system_id":"levelo_inurba_marseille","lat":43.29973,"lon":5.38491,"is_reserved":false,"is_disabled":true,"rental_uris":{"android":"levelo://app?vid=502cb578-a718-4a79-a57f-c682331475a9","ios":"levelo://app?vid=502cb578-a718-4a79-a57f-c682331475a9"},"vehicle_type_id":"4","last_reported":1747584650,"current_range_meters":1600,"station_id":"ce4bgj92rcd13ifvqbd0","pricing_plan_id":"cebpf4jnsgd1na2vs0mg"},{"bike_id":"15a7f3be-e5ca-4678-9172-facf66804584","system_id":"levelo_inurba_marseille","lat":43.31168,"lon":5.38719,"is_reserved":false,"is_disabled":true,"rental_uris":{"android":"levelo://app?vid=15a7f3be-e5ca-4678-9172-facf66804584","ios":"levelo://app?vid=15a7f3be-e5ca-4678-9172-facf66804584"},"vehicle_type_id":"4","last_reported":1747584650,"current_range_meters":1600,"station_id":"ce4bgv12rcd13ifvqcp0","pricing_plan_id":"cebpf4jnsgd1na2vs0mg"},{"bike_id":"c61ad5e3-10f1-4be0-9cea-f33f23e3e3ab","system_id":"levelo_inurba_marseille","lat":43.23155,"lon":5.43711,"is_reserved":false,"is_disabled":true,"rental_uris":{"android":"levelo://app?vid=c61ad5e3-10f1-4be0-9cea-f33f23e3e3ab","ios":"levelo://app?vid=c61ad5e3-10f1-4be0-9cea-f33f23e3e3ab"},"vehicle_type_id":"4","last_reported":1747584650,"current_range_meters":1600,"station_id":"ce4bhmp2rcd13ifvqgog","pricing_plan_id":"cebpf4jnsgd1na2vs0mg"},{"bike_id":"a4063de7-3465-4b39-9bf8-ef1a75de7c2d","system_id":"levelo_inurba_marseille","lat":43.2857,"lon":5.46095,"is_reserved":false,"is_disabled":true,"rental_uris":{"android":"levelo://app?vid=a4063de7-3465-4b39-9bf8-ef1a75de7c2d","ios":"levelo://app?vid=a4063de7-3465-4b39-9bf8-ef1a75de7c2d"},"vehicle_type_id":"4","last_reported":1747584650,"current_range_meters":2000,"station_id":"","pricing_plan_id":"cebpf4jnsgd1na2vs0mg"},{"bike_id":"9d4df412-d660-4880-a3db-4f3c52df554a","system_id":"levelo_inurba_marseille","lat":43.29798,"lon":5.38089,"is_reserved":false,"is_disabled":true,"rental_uris":{"android":"levelo://app?vid=9d4df412-d660-4880-a3db-4f3c52df554a","ios":"levelo://app?vid=9d4df412-d660-4880-a3db-4f3c52df554a"},"vehicle_type_id":"4","last_reported":1747584650,"current_range_meters":2000,"station_id":"ce4bgip2rcd13ifvqbb0","pricing_plan_id":"cebpf4jnsgd1na2vs0mg"},{"bike_id":"beda3428-dd45-49c5-a00e-774e8539da51","system_id":"levelo_inurba_marseille","lat":43.28702,"lon":5.37378,"is_reserved":false,"is_disabled":true,"rental_uris":{"android":"levelo://app?vid=beda3428-dd45-49c5-a00e-774e8539da51","ios":"levelo://app?vid=beda3428-dd45-49c5-a00e-774e8539da51"},"vehicle_type_id":"4","last_reported":1747584650,"current_range_meters":2000,"station_id":"ce4bh3p2rcd13ifvqdq0","pricing_plan_id":"cebpf4jnsgd1na2vs0mg"},{"bike_id":"78274dc2-638c-4d05-ba69-144e5f84a70c","system_id":"levelo_inurba_marseille","lat":43.23203,"lon":5.3556,"is_reserved":false,"is_disabled":true,"rental_uris":{"android":"levelo://app?vid=78274dc2-638c-4d05-ba69-144e5f84a70c","ios":"levelo://app?vid=78274dc2-638c-4d05-ba69-144e5f84a70c"},"vehicle_type_id":"4","last_reported":1747584650,"current_range_meters":2000,"station_id":"ce4bhu92rcd13ifvqi70","pricing_plan_id":"cebpf4jnsgd1na2vs0mg"},{"bike_id":"d8aaa4e8-bab4-4435-9b4b-bdd39e5d1bea","system_id":"levelo_inurba_marseille","lat":43.24188,"lon":5.36404,"is_reserved":false,"is_disabled":true,"rental_uris":{"android":"levelo://app?vid=d8aaa4e8-bab4-4435-9b4b-bdd39e5d1bea","ios":"levelo://app?vid=d8aaa4e8-bab4-4435-9b4b-bdd39e5d1bea"},"vehicle_type_id":"4","last_reported":1747584650,"current_range_meters":2000,"station_id":"cpo36qri1sfpv3e86is0","pricing_plan_id":"cebpf4jnsgd1na2vs0mg"},{"bike_id":"3fa58c22-00c6-48db-914d-ec2861a3d890","system_id":"levelo_inurba_marseille","lat":43.31079,"lon":5.402225,"is_reserved":false,"is_disabled":false,"rental_uris":{"android":"levelo://app?vid=3fa58c22-00c6-48db-914d-ec2861a3d890","ios":"levelo://app?vid=3fa58c22-00c6-48db-914d-ec2861a3d890"},"vehicle_type_id":"4","last_reported":1747584650,"current_range_meters":2800,"station_id":"","pricing_plan_id":"cebpf4jnsgd1na2vs0mg"},{"bike_id":"1ad24fee-e12d-4cdc-8e1a-0213f1daab2c","system_id":"levelo_inurba_marseille","lat":43.29534,"lon":5.3855,"is_reserved":false,"is_disabled":false,"rental_uris":{"android":"levelo://app?vid=1ad24fee-e12d-4cdc-8e1a-0213f1daab2c","ios":"levelo://app?vid=1ad24fee-e12d-4cdc-8e1a-0213f1daab2c"},"vehicle_type_id":"4","last_reported":1747584650,"current_range_meters":3200,"station_id":"ce4bgih2rcd13ifvqba0","pricing_plan_id":"cebpf4jnsgd1na2vs0mg"},{"bike_id":"b4fc0c42-dee7-4b6b-8d8d-695cb86eb94a","system_id":"levelo_inurba_marseille","lat":43.29513,"lon":5.394097,"is_reserved":false,"is_disabled":false,"rental_uris":{"android":"levelo://app?vid=b4fc0c42-dee7-4b6b-8d8d-695cb86eb94a","ios":"levelo://app?vid=b4fc0c42-dee7-4b6b-8d8d-695cb86eb94a"},"vehicle_type_id":"4","last_reported":1747584650,"current_range_meters":3200,"station_id":"ce4bh292rcd13ifvqdf0","pricing_plan_id":"cebpf4jnsgd1na2vs0mg"},{"bike_id":"3f961e65-436a-4656-977b-7f3767bc72f4","system_id":"levelo_inurba_marseille","lat":43.2315,"lon":5.43718,"is_reserved":false,"is_disabled":false,"rental_uris":{"android":"levelo://app?vid=3f961e65-436a-4656-977b-7f3767bc72f4","ios":"levelo://app?vid=3f961e65-436a-4656-977b-7f3767bc72f4"},"vehicle_type_id":"4","last_reported":1747584650,"current_range_meters":3200,"station_id":"ce4bhmp2rcd13ifvqgog","pricing_plan_id":"cebpf4jnsgd1na2vs0mg"},{"bike_id":"f1033d46-befc-4cac-80d9-e4fa25f6de03","system_id":"levelo_inurba_marseille","lat":43.27812,"lon":5.40717,"is_reserved":false,"is_disabled":false,"rental_uris":{"android":"levelo://app?vid=f1033d46-befc-4cac-80d9-e4fa25f6de03","ios":"levelo://app?vid=f1033d46-befc-4cac-80d9-e4fa25f6de03"},"vehicle_type_id":"4","last_reported":1747584650,"current_range_meters":3200,"station_id":"ce4bhnh2rcd13ifvqgtg","pricing_plan_id":"cebpf4jnsgd1na2vs0mg"},{"bike_id":"3b843dca-d67a-4b0e-916b-710ebb36ec6d","system_id":"levelo_inurba_marseille","lat":43.325148,"lon":5.401412,"is_reserved":false,"is_disabled":false,"rental_uris":{"android":"levelo://app?vid=3b843dca-d67a-4b0e-916b-710ebb36ec6d","ios":"levelo://app?vid=3b843dca-d67a-4b0e-916b-710ebb36ec6d"},"vehicle_type_id":"4","last_reported":1747584650,"current_range_meters":3600,"station_id":"","pricing_plan_id":"cebpf4jnsgd1na2vs0mg"},{"bike_id":"986c676f-8977-471a-b36e-fc5d4c847250","system_id":"levelo_inurba_marseille","lat":43.29598,"lon":5.38099,"is_reserved":false,"is_disabled":false,"rental_uris":{"android":"levelo://app?vid=986c676f-8977-471a-b36e-fc5d4c847250","ios":"levelo://app?vid=986c676f-8977-471a-b36e-fc5d4c847250"},"vehicle_type_id":"4","last_reported":1747584650,"current_range_meters":3600,"station_id":"ce4bgl12rcd13ifvqbo0","pricing_plan_id":"cebpf4jnsgd1na2vs0mg"},{"bike_id":"fae0e037-c9ba-414a-a589-9627ae44172d","system_id":"levelo_inurba_marseille","lat":43.298598,"lon":5.397597,"is_reserved":false,"is_disabled":false,"rental_uris":{"android":"levelo://app?vid=fae0e037-c9ba-414a-a589-9627ae44172d","ios":"levelo://app?vid=fae0e037-c9ba-414a-a589-9627ae44172d"},"vehicle_type_id":"4","last_reported":1747584650,"current_range_meters":3600,"station_id":"ce4bh0h2rcd13ifvqd50","pricing_plan_id":"cebpf4jnsgd1na2vs0mg"},{"bike_id":"0bbaa3eb-965f-400a-9d47-3e4e596fb89d","system_id":"levelo_inurba_marseille","lat":43.29191,"lon":5.39311,"is_reserved":false,"is_disabled":false,"rental_uris":{"android":"levelo://app?vid=0bbaa3eb-965f-400a-9d47-3e4e596fb89d","ios":"levelo://app?vid=0bbaa3eb-965f-400a-9d47-3e4e596fb89d"},"vehicle_type_id":"4","last_reported":1747584650,"current_range_meters":3600,"station_id":"ce4bh192rcd13ifvqdd0","pricing_plan_id":"cebpf4jnsgd1na2vs0mg"},{"bike_id":"61f5b14d-fcb7-4c7a-b20b-42a746b34a2c","system_id":"levelo_inurba_marseille","lat":43.29266,"lon":5.38433,"is_reserved":false,"is_disabled":false,"rental_uris":{"android":"levelo://app?vid=61f5b14d-fcb7-4c7a-b20b-42a746b34a2c","ios":"levelo://app?vid=61f5b14d-fcb7-4c7a-b20b-42a746b34a2c"},"vehicle_type_id":"4","last_reported":1747584650,"current_range_meters":3600,"station_id":"ce4bh692rcd13ifvqea0","pricing_plan_id":"cebpf4jnsgd1na2vs0mg"},{"bike_id":"7aa7b011-bd4c-4724-8531-7e190649e848","system_id":"levelo_inurba_marseille","lat":43.26561,"lon":5.39012,"is_reserved":false,"is_disabled":false,"rental_uris":{"android":"levelo://app?vid=7aa7b011-bd4c-4724-8531-7e190649e848","ios":"levelo://app?vid=7aa7b011-bd4c-4724-8531-7e190649e848"},"vehicle_type_id":"4","last_reported":1747584650,"current_range_meters":3600,"station_id":"ce4bhe12rcd13ifvqf30","pricing_plan_id":"cebpf4jnsgd1na2vs0mg"},{"bike_id":"42b66efd-97bc-4c3f-b2e7-5058703c27d5","system_id":"levelo_inurba_marseille","lat":43.24999,"lon":5.38918,"is_reserved":false,"is_disabled":false,"rental_uris":{"android":"levelo://app?vid=42b66efd-97bc-4c3f-b2e7-5058703c27d5","ios":"levelo://app?vid=42b66efd-97bc-4c3f-b2e7-5058703c27d5"},"vehicle_type_id":"4","last_reported":1747584650,"current_range_meters":3600,"station_id":"ce4bhgp2rcd13ifvqfd0","pricing_plan_id":"cebpf4jnsgd1na2vs0mg"},{"bike_id":"1e5a7839-d218-47a9-988d-f5fdcdfa5acb","system_id":"levelo_inurba_marseille","lat":43.25818,"lon":5.3944,"is_reserved":false,"is_disabled":false,"rental_uris":{"android":"levelo://app?vid=1e5a7839-d218-47a9-988d-f5fdcdfa5acb","ios":"levelo://app?vid=1e5a7839-d218-47a9-988d-f5fdcdfa5acb"},"vehicle_type_id":"4","last_reported":1747584650,"current_range_meters":3600,"station_id":"ce4bhip2rcd13ifvqft0","pricing_plan_id":"cebpf4jnsgd1na2vs0mg"},{"bike_id":"a0c15e6b-e95a-4cc3-b8a6-e95edfa89013","system_id":"levelo_inurba_marseille","lat":43.27306,"lon":5.39078,"is_reserved":false,"is_disabled":false,"rental_uris":{"android":"levelo://app?vid=a0c15e6b-e95a-4cc3-b8a6-e95edfa89013","ios":"levelo://app?vid=a0c15e6b-e95a-4cc3-b8a6-e95edfa89013"},"vehicle_type_id":"4","last_reported":1747584650,"current_range_meters":4000,"station_id":"ce4bhgp2rcd13ifvqfe0","pricing_plan_id":"cebpf4jnsgd1na2vs0mg"},{"bike_id":"0c911fe8-f5f5-4624-9c6f-1600f2df3a0f","system_id":"levelo_inurba_marseille","lat":43.26502,"lon":5.39544,"is_reserved":false,"is_disabled":false,"rental_uris":{"android":"levelo://app?vid=0c911fe8-f5f5-4624-9c6f-1600f2df3a0f","ios":"levelo://app?vid=0c911fe8-f5f5-4624-9c6f-1600f2df3a0f"},"vehicle_type_id":"4","last_reported":1747584650,"current_range_meters":4000,"station_id":"ce4bhi12rcd13ifvqfq0","pricing_plan_id":"cebpf4jnsgd1na2vs0mg"},{"bike_id":"aa1d8c1e-7594-4615-aa13-56fdebb973d7","system_id":"levelo_inurba_marseille","lat":43.26863,"lon":5.39172,"is_reserved":false,"is_disabled":false,"rental_uris":{"android":"levelo://app?vid=aa1d8c1e-7594-4615-aa13-56fdebb973d7","ios":"levelo://app?vid=aa1d8c1e-7594-4615-aa13-56fdebb973d7"},"vehicle_type_id":"4","last_reported":1747584650,"current_range_meters":4400,"station_id":"","pricing_plan_id":"cebpf4jnsgd1na2vs0mg"},{"bike_id":"a78653c4-9b95-4cc8-97b1-8e25f3172f80","system_id":"levelo_inurba_marseille","lat":43.30947,"lon":5.3905,"is_reserved":false,"is_disabled":false,"rental_uris":{"android":"levelo://app?vid=a78653c4-9b95-4cc8-97b1-8e25f3172f80","ios":"levelo://app?vid=a78653c4-9b95-4cc8-97b1-8e25f3172f80"},"vehicle_type_id":"4","last_reported":1747584650,"current_range_meters":4400,"station_id":"ce4bgup2rcd13ifvqco0","pricing_plan_id":"cebpf4jnsgd1na2vs0mg"},{"bike_id":"e5013baf-c7d0-4bd2-b1c5-b16df7134711","system_id":"levelo_inurba_marseille","lat":43.27069,"lon":5.42274,"is_reserved":false,"is_disabled":false,"rental_uris":{"android":"levelo://app?vid=e5013baf-c7d0-4bd2-b1c5-b16df7134711","ios":"levelo://app?vid=e5013baf-c7d0-4bd2-b1c5-b16df7134711"},"vehicle_type_id":"4","last_reported":1747584650,"current_range_meters":4400,"station_id":"ce4bhk92rcd13ifvqgb0","pricing_plan_id":"cebpf4jnsgd1na2vs0mg"},{"bike_id":"9f4e8daf-7350-4ecd-afe5-fc16d2bc9ad6","system_id":"levelo_inurba_marseille","lat":43.258704,"lon":5.398973,"is_reserved":false,"is_disabled":false,"rental_uris":{"android":"levelo://app?vid=9f4e8daf-7350-4ecd-afe5-fc16d2bc9ad6","ios":"levelo://app?vid=9f4e8daf-7350-4ecd-afe5-fc16d2bc9ad6"},"vehicle_type_id":"4","last_reported":1747584650,"current_range_meters":4400,"station_id":"ce4bhl92rcd13ifvqghg","pricing_plan_id":"cebpf4jnsgd1na2vs0mg"},{"bike_id":"744440d5-3b3d-43f3-b437-b742b7eae18a","system_id":"levelo_inurba_marseille","lat":43.32281,"lon":5.38278,"is_reserved":false,"is_disabled":false,"rental_uris":{"android":"levelo://app?vid=744440d5-3b3d-43f3-b437-b742b7eae18a","ios":"levelo://app?vid=744440d5-3b3d-43f3-b437-b742b7eae18a"},"vehicle_type_id":"4","last_reported":1747584650,"current_range_meters":4400,"station_id":"ce4bhr12rcd13ifvqhqg","pricing_plan_id":"cebpf4jnsgd1na2vs0mg"},{"bike_id":"36944193-9586-4e65-895b-566a2ae370cc","system_id":"levelo_inurba_marseille","lat":43.28976,"lon":5.37825,"is_reserved":false,"is_disabled":false,"rental_uris":{"android":"levelo://app?vid=36944193-9586-4e65-895b-566a2ae370cc","ios":"levelo://app?vid=36944193-9586-4e65-895b-566a2ae370cc"},"vehicle_type_id":"4","last_reported":1747584650,"current_range_meters":4800,"station_id":"ce4bh9p2rcd13ifvqed0","pricing_plan_id":"cebpf4jnsgd1na2vs0mg"},{"bike_id":"73347c86-d29d-4004-b84b-4291b5d06522","system_id":"levelo_inurba_marseille","lat":43.2319,"lon":5.35555,"is_reserved":false,"is_disabled":false,"rental_uris":{"android":"levelo://app?vid=73347c86-d29d-4004-b84b-4291b5d06522","ios":"levelo://app?vid=73347c86-d29d-4004-b84b-4291b5d06522"},"vehicle_type_id":"4","last_reported":1747584650,"current_range_meters":4800,"station_id":"ce4bhu92rcd13ifvqi70","pricing_plan_id":"cebpf4jnsgd1na2vs0mg"},{"bike_id":"55fb771a-6e76-45c4-a9b7-cda97a0011d0","system_id":"levelo_inurba_marseille","lat":43.28743,"lon":5.38273,"is_reserved":false,"is_disabled":false,"rental_uris":{"android":"levelo://app?vid=55fb771a-6e76-45c4-a9b7-cda97a0011d0","ios":"levelo://app?vid=55fb771a-6e76-45c4-a9b7-cda97a0011d0"},"vehicle_type_id":"4","last_reported":1747584650,"current_range_meters":5600,"station_id":"","pricing_plan_id":"cebpf4jnsgd1na2vs0mg"},{"bike_id":"285e1d6c-4ebe-47a0-92ee-83b58942eb15","system_id":"levelo_inurba_marseille","lat":43.29036,"lon":5.3997,"is_reserved":false,"is_disabled":false,"rental_uris":{"android":"levelo://app?vid=285e1d6c-4ebe-47a0-92ee-83b58942eb15","ios":"levelo://app?vid=285e1d6c-4ebe-47a0-92ee-83b58942eb15"},"vehicle_type_id":"4","last_reported":1747584650,"current_range_meters":5600,"station_id":"ce4bh392rcd13ifvqdm0","pricing_plan_id":"cebpf4jnsgd1na2vs0mg"},{"bike_id":"b60eaaea-5c03-4f57-9cc6-d42302883398","system_id":"levelo_inurba_marseille","lat":43.29029,"lon":5.3997,"is_reserved":false,"is_disabled":false,"rental_uris":{"android":"levelo://app?vid=b60eaaea-5c03-4f57-9cc6-d42302883398","ios":"levelo://app?vid=b60eaaea-5c03-4f57-9cc6-d42302883398"},"vehicle_type_id":"4","last_reported":1747584650,"current_range_meters":5600,"station_id":"ce4bh392rcd13ifvqdm0","pricing_plan_id":"cebpf4jnsgd1na2vs0mg"},{"bike_id":"1bd00f13-24dd-4d22-98dc-b81ae5399276","system_id":"levelo_inurba_marseille","lat":43.2834,"lon":5.38084,"is_reserved":false,"is_disabled":false,"rental_uris":{"android":"levelo://app?vid=1bd00f13-24dd-4d22-98dc-b81ae5399276","ios":"levelo://app?vid=1bd00f13-24dd-4d22-98dc-b81ae5399276"},"vehicle_type_id":"4","last_reported":1747584650,"current_range_meters":5600,"station_id":"ce4bh412rcd13ifvqdr0","pricing_plan_id":"cebpf4jnsgd1na2vs0mg"},{"bike_id":"043c6cec-9d3b-455a-aadb-52d32516775a","system_id":"levelo_inurba_marseille","lat":43.27968,"lon":5.38754,"is_reserved":false,"is_disabled":false,"rental_uris":{"android":"levelo://app?vid=043c6cec-9d3b-455a-aadb-52d32516775a","ios":"levelo://app?vid=043c6cec-9d3b-455a-aadb-52d32516775a"},"vehicle_type_id":"4","last_reported":1747584650,"current_range_meters":5600,"station_id":"ce4bhg12rcd13ifvqf80","pricing_plan_id":"cebpf4jnsgd1na2vs0mg"},{"bike_id":"a9648ad0-8c6f-476a-acdc-10543b280e41","system_id":"levelo_inurba_marseille","lat":43.28694,"lon":5.3997,"is_reserved":false,"is_disabled":false,"rental_uris":{"android":"levelo://app?vid=a9648ad0-8c6f-476a-acdc-10543b280e41","ios":"levelo://app?vid=a9648ad0-8c6f-476a-acdc-10543b280e41"},"vehicle_type_id":"4","last_reported":1747584650,"current_range_meters":5600,"station_id":"ce4bho92rcd13ifvqh3g","pricing_plan_id":"cebpf4jnsgd1na2vs0mg"},{"bike_id":"561d9386-8a58-4f32-9e45-d798ff8b2230","system_id":"levelo_inurba_marseille","lat":43.30427,"lon":5.38894,"is_reserved":false,"is_disabled":false,"rental_uris":{"android":"levelo://app?vid=561d9386-8a58-4f32-9e45-d798ff8b2230","ios":"levelo://app?vid=561d9386-8a58-4f32-9e45-d798ff8b2230"},"vehicle_type_id":"4","last_reported":1747584650,"current_range_meters":6000,"station_id":"ce4bgk12rcd13ifvqbi0","pricing_plan_id":"cebpf4jnsgd1na2vs0mg"},{"bike_id":"73fa1777-1d85-4390-b4fe-3983ca6e5ae0","system_id":"levelo_inurba_marseille","lat":43.29415,"lon":5.38628,"is_reserved":false,"is_disabled":false,"rental_uris":{"android":"levelo://app?vid=73fa1777-1d85-4390-b4fe-3983ca6e5ae0","ios":"levelo://app?vid=73fa1777-1d85-4390-b4fe-3983ca6e5ae0"},"vehicle_type_id":"4","last_reported":1747584650,"current_range_meters":6000,"station_id":"ce4bh2h2rcd13ifvqdh0","pricing_plan_id":"cebpf4jnsgd1na2vs0mg"},{"bike_id":"cbd40296-c054-4daa-90e7-562cb1d64007","system_id":"levelo_inurba_marseille","lat":43.229317,"lon":5.353753,"is_reserved":false,"is_disabled":false,"rental_uris":{"android":"levelo://app?vid=cbd40296-c054-4daa-90e7-562cb1d64007","ios":"levelo://app?vid=cbd40296-c054-4daa-90e7-562cb1d64007"},"vehicle_type_id":"4","last_reported":1747584650,"current_range_meters":6000,"station_id":"cpo3532slgdg3j2ikp40","pricing_plan_id":"cebpf4jnsgd1na2vs0mg"},{"bike_id":"b8e6468b-87db-4ff6-8122-ef13bf5b7c8c","system_id":"levelo_inurba_marseille","lat":43.31379,"lon":5.37916,"is_reserved":false,"is_disabled":false,"rental_uris":{"android":"levelo://app?vid=b8e6468b-87db-4ff6-8122-ef13bf5b7c8c","ios":"levelo://app?vid=b8e6468b-87db-4ff6-8122-ef13bf5b7c8c"},"vehicle_type_id":"4","last_reported":1747584650,"current_range_meters":6400,"station_id":"","pricing_plan_id":"cebpf4jnsgd1na2vs0mg"},{"bike_id":"ba471adb-56e9-44dc-a696-4d34fa11ff37","system_id":"levelo_inurba_marseille","lat":43.30143,"lon":5.37423,"is_reserved":false,"is_disabled":false,"rental_uris":{"android":"levelo://app?vid=ba471adb-56e9-44dc-a696-4d34fa11ff37","ios":"levelo://app?vid=ba471adb-56e9-44dc-a696-4d34fa11ff37"},"vehicle_type_id":"4","last_reported":1747584650,"current_range_meters":6400,"station_id":"ce4bgs92rcd13ifvqcc0","pricing_plan_id":"cebpf4jnsgd1na2vs0mg"},{"bike_id":"c6894043-d7a9-45d2-a784-fece7332174b","system_id":"levelo_inurba_marseille","lat":43.2872,"lon":5.37934,"is_reserved":false,"is_disabled":false,"rental_uris":{"android":"levelo://app?vid=c6894043-d7a9-45d2-a784-fece7332174b","ios":"levelo://app?vid=c6894043-d7a9-45d2-a784-fece7332174b"},"vehicle_type_id":"4","last_reported":1747584650,"current_range_meters":6400,"station_id":"ce4bh9p2rcd13ifvqec0","pricing_plan_id":"cebpf4jnsgd1na2vs0mg"},{"bike_id":"4e76f965-468c-4934-89c9-f7c1a6e45c41","system_id":"levelo_inurba_marseille","lat":43.24663,"lon":5.3816,"is_reserved":false,"is_disabled":false,"rental_uris":{"android":"levelo://app?vid=4e76f965-468c-4934-89c9-f7c1a6e45c41","ios":"levelo://app?vid=4e76f965-468c-4934-89c9-f7c1a6e45c41"},"vehicle_type_id":"4","last_reported":1747584650,"current_range_meters":6400,"station_id":"ce4bhih2rcd13ifvqfr0","pricing_plan_id":"cebpf4jnsgd1na2vs0mg"},{"bike_id":"9336db23-c324-4a42-ae25-502bafafbd7a","system_id":"levelo_inurba_marseille","lat":43.29895,"lon":5.43653,"is_reserved":false,"is_disabled":false,"rental_uris":{"android":"levelo://app?vid=9336db23-c324-4a42-ae25-502bafafbd7a","ios":"levelo://app?vid=9336db23-c324-4a42-ae25-502bafafbd7a"},"vehicle_type_id":"4","last_reported":1747584650,"current_range_meters":6400,"station_id":"ce4bhpp2rcd13ifvqhfg","pricing_plan_id":"cebpf4jnsgd1na2vs0mg"},{"bike_id":"8cfc1be5-63bd-471f-a417-7e37abdb3f9d","system_id":"levelo_inurba_marseille","lat":43.23194,"lon":5.35548,"is_reserved":false,"is_disabled":false,"rental_uris":{"android":"levelo://app?vid=8cfc1be5-63bd-471f-a417-7e37abdb3f9d","ios":"levelo://app?vid=8cfc1be5-63bd-471f-a417-7e37abdb3f9d"},"vehicle_type_id":"4","last_reported":1747584650,"current_range_meters":6400,"station_id":"ce4bhu92rcd13ifvqi70","pricing_plan_id":"cebpf4jnsgd1na2vs0mg"},{"bike_id":"d0d9e369-f136-4987-b534-ce7c265e552b","system_id":"levelo_inurba_marseille","lat":43.28698,"lon":5.37383,"is_reserved":false,"is_disabled":false,"rental_uris":{"android":"levelo://app?vid=d0d9e369-f136-4987-b534-ce7c265e552b","ios":"levelo://app?vid=d0d9e369-f136-4987-b534-ce7c265e552b"},"vehicle_type_id":"4","last_reported":1747584650,"current_range_meters":6800,"station_id":"ce4bh3p2rcd13ifvqdq0","pricing_plan_id":"cebpf4jnsgd1na2vs0mg"},{"bike_id":"6b9d5d7c-ca1b-4cda-9108-b0c70864c650","system_id":"levelo_inurba_marseille","lat":43.28723,"lon":5.37935,"is_reserved":false,"is_disabled":false,"rental_uris":{"android":"levelo://app?vid=6b9d5d7c-ca1b-4cda-9108-b0c70864c650","ios":"levelo://app?vid=6b9d5d7c-ca1b-4cda-9108-b0c70864c650"},"vehicle_type_id":"4","last_reported":1747584650,"current_range_meters":6800,"station_id":"ce4bh9p2rcd13ifvqec0","pricing_plan_id":"cebpf4jnsgd1na2vs0mg"},{"bike_id":"e52cda5f-27a0-4729-b700-1e53b183db05","system_id":"levelo_inurba_marseille","lat":43.262,"lon":5.37925,"is_reserved":false,"is_disabled":false,"rental_uris":{"android":"levelo://app?vid=e52cda5f-27a0-4729-b700-1e53b183db05","ios":"levelo://app?vid=e52cda5f-27a0-4729-b700-1e53b183db05"},"vehicle_type_id":"4","last_reported":1747584650,"current_range_meters":6800,"station_id":"ce4bhjp2rcd13ifvqg90","pricing_plan_id":"cebpf4jnsgd1na2vs0mg"},{"bike_id":"405e6028-bd40-4b9a-ad78-3c88ab49c540","system_id":"levelo_inurba_marseille","lat":43.3168,"lon":5.37257,"is_reserved":false,"is_disabled":false,"rental_uris":{"android":"levelo://app?vid=405e6028-bd40-4b9a-ad78-3c88ab49c540","ios":"levelo://app?vid=405e6028-bd40-4b9a-ad78-3c88ab49c540"},"vehicle_type_id":"4","last_reported":1747584650,"current_range_meters":7200,"station_id":"","pricing_plan_id":"cebpf4jnsgd1na2vs0mg"},{"bike_id":"515ac2bb-e883-4456-95ea-5fa4718d61ba","system_id":"levelo_inurba_marseille","lat":43.29696,"lon":5.36615,"is_reserved":false,"is_disabled":false,"rental_uris":{"android":"levelo://app?vid=515ac2bb-e883-4456-95ea-5fa4718d61ba","ios":"levelo://app?vid=515ac2bb-e883-4456-95ea-5fa4718d61ba"},"vehicle_type_id":"4","last_reported":1747584650,"current_range_meters":7200,"station_id":"ce4bgn12rcd13ifvqbt0","pricing_plan_id":"cebpf4jnsgd1na2vs0mg"},{"bike_id":"ded9deac-b2af-4e4a-9738-0c1ed0687210","system_id":"levelo_inurba_marseille","lat":43.29413,"lon":5.38629,"is_reserved":false,"is_disabled":false,"rental_uris":{"android":"levelo://app?vid=ded9deac-b2af-4e4a-9738-0c1ed0687210","ios":"levelo://app?vid=ded9deac-b2af-4e4a-9738-0c1ed0687210"},"vehicle_type_id":"4","last_reported":1747584650,"current_range_meters":7200,"station_id":"ce4bh2h2rcd13ifvqdh0","pricing_plan_id":"cebpf4jnsgd1na2vs0mg"},{"bike_id":"255a162a-4475-4be7-b9fa-25d85b501ea6","system_id":"levelo_inurba_marseille","lat":43.28106,"lon":5.37871,"is_reserved":false,"is_disabled":false,"rental_uris":{"android":"levelo://app?vid=255a162a-4475-4be7-b9fa-25d85b501ea6","ios":"levelo://app?vid=255a162a-4475-4be7-b9fa-25d85b501ea6"},"vehicle_type_id":"4","last_reported":1747584650,"current_range_meters":7200,"station_id":"ce4bha12rcd13ifvqee0","pricing_plan_id":"cebpf4jnsgd1na2vs0mg"},{"bike_id":"7a82397e-c258-4325-b836-1bc38b80aab5","system_id":"levelo_inurba_marseille","lat":43.24072,"lon":5.37758,"is_reserved":false,"is_disabled":false,"rental_uris":{"android":"levelo://app?vid=7a82397e-c258-4325-b836-1bc38b80aab5","ios":"levelo://app?vid=7a82397e-c258-4325-b836-1bc38b80aab5"},"vehicle_type_id":"4","last_reported":1747584650,"current_range_meters":7200,"station_id":"ce4bhnp2rcd13ifvqgvg","pricing_plan_id":"cebpf4jnsgd1na2vs0mg"},{"bike_id":"aa0d1a9a-9f70-4ce9-a3ca-49aad10ebcf4","system_id":"levelo_inurba_marseille","lat":43.28728,"lon":5.36088,"is_reserved":false,"is_disabled":false,"rental_uris":{"android":"levelo://app?vid=aa0d1a9a-9f70-4ce9-a3ca-49aad10ebcf4","ios":"levelo://app?vid=aa0d1a9a-9f70-4ce9-a3ca-49aad10ebcf4"},"vehicle_type_id":"4","last_reported":1747584650,"current_range_meters":7200,"station_id":"cki0cbj6b192h4jlfktg","pricing_plan_id":"cebpf4jnsgd1na2vs0mg"},{"bike_id":"d40d14f3-efca-42f5-86e3-501e1498d882","system_id":"levelo_inurba_marseille","lat":43.30585,"lon":5.37222,"is_reserved":false,"is_disabled":false,"rental_uris":{"android":"levelo://app?vid=d40d14f3-efca-42f5-86e3-501e1498d882","ios":"levelo://app?vid=d40d14f3-efca-42f5-86e3-501e1498d882"},"vehicle_type_id":"4","last_reported":1747584650,"current_range_meters":8000,"station_id":"ce4bgqh2rcd13ifvqc4g","pricing_plan_id":"cebpf4jnsgd1na2vs0mg"},{"bike_id":"d8ea610c-800f-4300-8c22-cdf89e9512f9","system_id":"levelo_inurba_marseille","lat":43.29025,"lon":5.38649,"is_reserved":false,"is_disabled":false,"rental_uris":{"android":"levelo://app?vid=d8ea610c-800f-4300-8c22-cdf89e9512f9","ios":"levelo://app?vid=d8ea610c-800f-4300-8c22-cdf89e9512f9"},"vehicle_type_id":"4","last_reported":1747584650,"current_range_meters":8000,"station_id":"ce4bh4p2rcd13ifvqe0g","pricing_plan_id":"cebpf4jnsgd1na2vs0mg"},{"bike_id":"9d8b2c79-3ca5-4f14-8ae6-6f43aeaa1f73","system_id":"levelo_inurba_marseille","lat":43.231914,"lon":5.355541,"is_reserved":false,"is_disabled":false,"rental_uris":{"android":"levelo://app?vid=9d8b2c79-3ca5-4f14-8ae6-6f43aeaa1f73","ios":"levelo://app?vid=9d8b2c79-3ca5-4f14-8ae6-6f43aeaa1f73"},"vehicle_type_id":"4","last_reported":1747584650,"current_range_meters":8000,"station_id":"ce4bhu92rcd13ifvqi70","pricing_plan_id":"cebpf4jnsgd1na2vs0mg"},{"bike_id":"0fb02880-5c6e-4026-9e4a-07529c572b44","system_id":"levelo_inurba_marseille","lat":43.25489,"lon":5.37384,"is_reserved":false,"is_disabled":false,"rental_uris":{"android":"levelo://app?vid=0fb02880-5c6e-4026-9e4a-07529c572b44","ios":"levelo://app?vid=0fb02880-5c6e-4026-9e4a-07529c572b44"},"vehicle_type_id":"4","last_reported":1747584650,"current_range_meters":8400,"station_id":"","pricing_plan_id":"cebpf4jnsgd1na2vs0mg"},{"bike_id":"c0db4030-ef30-480b-a735-af5435a471ed","system_id":"levelo_inurba_marseille","lat":43.277316,"lon":5.42672,"is_reserved":false,"is_disabled":false,"rental_uris":{"android":"levelo://app?vid=c0db4030-ef30-480b-a735-af5435a471ed","ios":"levelo://app?vid=c0db4030-ef30-480b-a735-af5435a471ed"},"vehicle_type_id":"4","last_reported":1747584650,"current_range_meters":8400,"station_id":"","pricing_plan_id":"cebpf4jnsgd1na2vs0mg"},{"bike_id":"96534dc4-7721-4fac-8768-018415211bfc","system_id":"levelo_inurba_marseille","lat":43.30943,"lon":5.3903,"is_reserved":false,"is_disabled":false,"rental_uris":{"android":"levelo://app?vid=96534dc4-7721-4fac-8768-018415211bfc","ios":"levelo://app?vid=96534dc4-7721-4fac-8768-018415211bfc"},"vehicle_type_id":"4","last_reported":1747584650,"current_range_meters":8400,"station_id":"ce4bgup2rcd13ifvqco0","pricing_plan_id":"cebpf4jnsgd1na2vs0mg"},{"bike_id":"bdeafa06-8a02-4e5c-9263-4e348ce34e19","system_id":"levelo_inurba_marseille","lat":43.28479,"lon":5.38419,"is_reserved":false,"is_disabled":false,"rental_uris":{"android":"levelo://app?vid=bdeafa06-8a02-4e5c-9263-4e348ce34e19","ios":"levelo://app?vid=bdeafa06-8a02-4e5c-9263-4e348ce34e19"},"vehicle_type_id":"4","last_reported":1747584650,"current_range_meters":8400,"station_id":"ce4bh512rcd13ifvqe3g","pricing_plan_id":"cebpf4jnsgd1na2vs0mg"},{"bike_id":"14603e41-b2dd-4757-a53c-2e366aa4f983","system_id":"levelo_inurba_marseille","lat":43.269974,"lon":5.428251,"is_reserved":false,"is_disabled":false,"rental_uris":{"android":"levelo://app?vid=14603e41-b2dd-4757-a53c-2e366aa4f983","ios":"levelo://app?vid=14603e41-b2dd-4757-a53c-2e366aa4f983"},"vehicle_type_id":"4","last_reported":1747584650,"current_range_meters":8800,"station_id":"","pricing_plan_id":"cebpf4jnsgd1na2vs0mg"},{"bike_id":"94129722-eb69-45c1-8047-7ce5f42414d6","system_id":"levelo_inurba_marseille","lat":43.30313,"lon":5.36898,"is_reserved":false,"is_disabled":false,"rental_uris":{"android":"levelo://app?vid=94129722-eb69-45c1-8047-7ce5f42414d6","ios":"levelo://app?vid=94129722-eb69-45c1-8047-7ce5f42414d6"},"vehicle_type_id":"4","last_reported":1747584650,"current_range_meters":8800,"station_id":"ce4bgqh2rcd13ifvqc5g","pricing_plan_id":"cebpf4jnsgd1na2vs0mg"},{"bike_id":"ff34ae62-1db3-42ba-ab4b-dcafa138ed88","system_id":"levelo_inurba_marseille","lat":43.30419,"lon":5.39735,"is_reserved":false,"is_disabled":false,"rental_uris":{"android":"levelo://app?vid=ff34ae62-1db3-42ba-ab4b-dcafa138ed88","ios":"levelo://app?vid=ff34ae62-1db3-42ba-ab4b-dcafa138ed88"},"vehicle_type_id":"4","last_reported":1747584650,"current_range_meters":8800,"station_id":"ce4bh092rcd13ifvqd20","pricing_plan_id":"cebpf4jnsgd1na2vs0mg"},{"bike_id":"45c43a9f-380f-4300-9941-8b413ce2da3b","system_id":"levelo_inurba_marseille","lat":43.29078,"lon":5.37173,"is_reserved":false,"is_disabled":false,"rental_uris":{"android":"levelo://app?vid=45c43a9f-380f-4300-9941-8b413ce2da3b","ios":"levelo://app?vid=45c43a9f-380f-4300-9941-8b413ce2da3b"},"vehicle_type_id":"4","last_reported":1747584650,"current_range_meters":8800,"station_id":"ce4bh5p2rcd13ifvqe4g","pricing_plan_id":"cebpf4jnsgd1na2vs0mg"},{"bike_id":"3b0c8cbb-0dfb-402d-8589-c2f98bd8f287","system_id":"levelo_inurba_marseille","lat":43.28937,"lon":5.36641,"is_reserved":false,"is_disabled":false,"rental_uris":{"android":"levelo://app?vid=3b0c8cbb-0dfb-402d-8589-c2f98bd8f287","ios":"levelo://app?vid=3b0c8cbb-0dfb-402d-8589-c2f98bd8f287"},"vehicle_type_id":"4","last_reported":1747584650,"current_range_meters":8800,"station_id":"ce4bhap2rcd13ifvqek0","pricing_plan_id":"cebpf4jnsgd1na2vs0mg"},{"bike_id":"d35994cd-7465-40cb-aa74-7f6aaef4f70d","system_id":"levelo_inurba_marseille","lat":43.24804,"lon":5.37452,"is_reserved":false,"is_disabled":false,"rental_uris":{"android":"levelo://app?vid=d35994cd-7465-40cb-aa74-7f6aaef4f70d","ios":"levelo://app?vid=d35994cd-7465-40cb-aa74-7f6aaef4f70d"},"vehicle_type_id":"4","last_reported":1747584650,"current_range_meters":8800,"station_id":"ce4bhgh2rcd13ifvqfb0","pricing_plan_id":"cebpf4jnsgd1na2vs0mg"},{"bike_id":"caf4c81d-8b81-4d8d-a4f9-9d00bac7ad70","system_id":"levelo_inurba_marseille","lat":43.30776,"lon":5.42827,"is_reserved":false,"is_disabled":false,"rental_uris":{"android":"levelo://app?vid=caf4c81d-8b81-4d8d-a4f9-9d00bac7ad70","ios":"levelo://app?vid=caf4c81d-8b81-4d8d-a4f9-9d00bac7ad70"},"vehicle_type_id":"4","last_reported":1747584650,"current_range_meters":9200,"station_id":"","pricing_plan_id":"cebpf4jnsgd1na2vs0mg"},{"bike_id":"d8b99a37-cf08-4fe3-a172-91d95df6458b","system_id":"levelo_inurba_marseille","lat":43.29192,"lon":5.39313,"is_reserved":false,"is_disabled":false,"rental_uris":{"android":"levelo://app?vid=d8b99a37-cf08-4fe3-a172-91d95df6458b","ios":"levelo://app?vid=d8b99a37-cf08-4fe3-a172-91d95df6458b"},"vehicle_type_id":"4","last_reported":1747584650,"current_range_meters":9200,"station_id":"ce4bh192rcd13ifvqdd0","pricing_plan_id":"cebpf4jnsgd1na2vs0mg"},{"bike_id":"5e5b51eb-1fe3-4b43-a15c-233586ad1b8f","system_id":"levelo_inurba_marseille","lat":43.28941,"lon":5.36637,"is_reserved":false,"is_disabled":false,"rental_uris":{"android":"levelo://app?vid=5e5b51eb-1fe3-4b43-a15c-233586ad1b8f","ios":"levelo://app?vid=5e5b51eb-1fe3-4b43-a15c-233586ad1b8f"},"vehicle_type_id":"4","last_reported":1747584650,"current_range_meters":9200,"station_id":"ce4bhap2rcd13ifvqek0","pricing_plan_id":"cebpf4jnsgd1na2vs0mg"},{"bike_id":"6bc77b59-1181-4de3-9ef3-20ddc90f578e","system_id":"levelo_inurba_marseille","lat":43.24179,"lon":5.39733,"is_reserved":false,"is_disabled":false,"rental_uris":{"android":"levelo://app?vid=6bc77b59-1181-4de3-9ef3-20ddc90f578e","ios":"levelo://app?vid=6bc77b59-1181-4de3-9ef3-20ddc90f578e"},"vehicle_type_id":"4","last_reported":1747584650,"current_range_meters":9200,"station_id":"ce4bhn12rcd13ifvqgpg","pricing_plan_id":"cebpf4jnsgd1na2vs0mg"},{"bike_id":"08fad06c-905a-4daf-8b2e-94544c7c8b7b","system_id":"levelo_inurba_marseille","lat":43.27809,"lon":5.40727,"is_reserved":false,"is_disabled":false,"rental_uris":{"android":"levelo://app?vid=08fad06c-905a-4daf-8b2e-94544c7c8b7b","ios":"levelo://app?vid=08fad06c-905a-4daf-8b2e-94544c7c8b7b"},"vehicle_type_id":"4","last_reported":1747584650,"current_range_meters":9200,"station_id":"ce4bhnh2rcd13ifvqgtg","pricing_plan_id":"cebpf4jnsgd1na2vs0mg"},{"bike_id":"d06b8510-75a1-4ec9-ad6d-5a326870b568","system_id":"levelo_inurba_marseille","lat":43.24168,"lon":5.36415,"is_reserved":false,"is_disabled":false,"rental_uris":{"android":"levelo://app?vid=d06b8510-75a1-4ec9-ad6d-5a326870b568","ios":"levelo://app?vid=d06b8510-75a1-4ec9-ad6d-5a326870b568"},"vehicle_type_id":"4","last_reported":1747584650,"current_range_meters":9200,"station_id":"cpo36qri1sfpv3e86is0","pricing_plan_id":"cebpf4jnsgd1na2vs0mg"},{"bike_id":"ffc3ddf2-0082-4578-9e25-c91f5b4279bc","system_id":"levelo_inurba_marseille","lat":43.28331,"lon":5.41159,"is_reserved":false,"is_disabled":false,"rental_uris":{"android":"levelo://app?vid=ffc3ddf2-0082-4578-9e25-c91f5b4279bc","ios":"levelo://app?vid=ffc3ddf2-0082-4578-9e25-c91f5b4279bc"},"vehicle_type_id":"4","last_reported":1747584650,"current_range_meters":9600,"station_id":"","pricing_plan_id":"cebpf4jnsgd1na2vs0mg"},{"bike_id":"ee323434-292e-4601-82c8-619b0fd2bc56","system_id":"levelo_inurba_marseille","lat":43.29786,"lon":5.3934,"is_reserved":false,"is_disabled":false,"rental_uris":{"android":"levelo://app?vid=ee323434-292e-4601-82c8-619b0fd2bc56","ios":"levelo://app?vid=ee323434-292e-4601-82c8-619b0fd2bc56"},"vehicle_type_id":"4","last_reported":1747584650,"current_range_meters":9600,"station_id":"chh1huq6cuj3fo74tm60","pricing_plan_id":"cebpf4jnsgd1na2vs0mg"},{"bike_id":"6e1bd625-3ec1-43df-9657-36d71ae09f8d","system_id":"levelo_inurba_marseille","lat":43.33739,"lon":5.37473,"is_reserved":false,"is_disabled":false,"rental_uris":{"android":"levelo://app?vid=6e1bd625-3ec1-43df-9657-36d71ae09f8d","ios":"levelo://app?vid=6e1bd625-3ec1-43df-9657-36d71ae09f8d"},"vehicle_type_id":"4","last_reported":1747584650,"current_range_meters":10000,"station_id":"","pricing_plan_id":"cebpf4jnsgd1na2vs0mg"},{"bike_id":"a6cc24e7-132f-4ea9-919f-21cef13d973e","system_id":"levelo_inurba_marseille","lat":43.29528,"lon":5.38546,"is_reserved":false,"is_disabled":false,"rental_uris":{"android":"levelo://app?vid=a6cc24e7-132f-4ea9-919f-21cef13d973e","ios":"levelo://app?vid=a6cc24e7-132f-4ea9-919f-21cef13d973e"},"vehicle_type_id":"4","last_reported":1747584650,"current_range_meters":10000,"station_id":"ce4bgih2rcd13ifvqba0","pricing_plan_id":"cebpf4jnsgd1na2vs0mg"},{"bike_id":"6af436bd-f676-4a70-a7aa-83a918478079","system_id":"levelo_inurba_marseille","lat":43.29019,"lon":5.38125,"is_reserved":false,"is_disabled":false,"rental_uris":{"android":"levelo://app?vid=6af436bd-f676-4a70-a7aa-83a918478079","ios":"levelo://app?vid=6af436bd-f676-4a70-a7aa-83a918478079"},"vehicle_type_id":"4","last_reported":1747584650,"current_range_meters":10000,"station_id":"ce4bh4p2rcd13ifvqe1g","pricing_plan_id":"cebpf4jnsgd1na2vs0mg"},{"bike_id":"f0a690f3-aaef-41ef-91ff-088837a16951","system_id":"levelo_inurba_marseille","lat":43.2572,"lon":5.41113,"is_reserved":false,"is_disabled":false,"rental_uris":{"android":"levelo://app?vid=f0a690f3-aaef-41ef-91ff-088837a16951","ios":"levelo://app?vid=f0a690f3-aaef-41ef-91ff-088837a16951"},"vehicle_type_id":"4","last_reported":1747584650,"current_range_meters":10000,"station_id":"ce4bhkp2rcd13ifvqgd0","pricing_plan_id":"cebpf4jnsgd1na2vs0mg"},{"bike_id":"c608898e-58b6-42f7-903a-6008119c7a64","system_id":"levelo_inurba_marseille","lat":43.24072,"lon":5.37754,"is_reserved":false,"is_disabled":false,"rental_uris":{"android":"levelo://app?vid=c608898e-58b6-42f7-903a-6008119c7a64","ios":"levelo://app?vid=c608898e-58b6-42f7-903a-6008119c7a64"},"vehicle_type_id":"4","last_reported":1747584650,"current_range_meters":10000,"station_id":"ce4bhnp2rcd13ifvqgvg","pricing_plan_id":"cebpf4jnsgd1na2vs0mg"},{"bike_id":"0dcd04e2-1d6d-4c3e-af17-aac8759ac618","system_id":"levelo_inurba_marseille","lat":43.299033,"lon":5.43676,"is_reserved":false,"is_disabled":false,"rental_uris":{"android":"levelo://app?vid=0dcd04e2-1d6d-4c3e-af17-aac8759ac618","ios":"levelo://app?vid=0dcd04e2-1d6d-4c3e-af17-aac8759ac618"},"vehicle_type_id":"4","last_reported":1747584650,"current_range_meters":10000,"station_id":"ce4bhpp2rcd13ifvqhfg","pricing_plan_id":"cebpf4jnsgd1na2vs0mg"},{"bike_id":"2fec9bab-bd43-4f16-835f-76d39d28e914","system_id":"levelo_inurba_marseille","lat":43.24183,"lon":5.36408,"is_reserved":false,"is_disabled":false,"rental_uris":{"android":"levelo://app?vid=2fec9bab-bd43-4f16-835f-76d39d28e914","ios":"levelo://app?vid=2fec9bab-bd43-4f16-835f-76d39d28e914"},"vehicle_type_id":"4","last_reported":1747584650,"current_range_meters":10000,"station_id":"cpo36qri1sfpv3e86is0","pricing_plan_id":"cebpf4jnsgd1na2vs0mg"},{"bike_id":"4745dd8b-a0b2-49db-b417-8a28eecc51d4","system_id":"levelo_inurba_marseille","lat":43.243309,"lon":5.379979,"is_reserved":false,"is_disabled":false,"rental_uris":{"android":"levelo://app?vid=4745dd8b-a0b2-49db-b417-8a28eecc51d4","ios":"levelo://app?vid=4745dd8b-a0b2-49db-b417-8a28eecc51d4"},"vehicle_type_id":"4","last_reported":1747584650,"current_range_meters":10800,"station_id":"","pricing_plan_id":"cebpf4jnsgd1na2vs0mg"},{"bike_id":"86e48878-e91e-4f4a-8f28-3f2a8f384ed0","system_id":"levelo_inurba_marseille","lat":43.29257,"lon":5.37642,"is_reserved":false,"is_disabled":false,"rental_uris":{"android":"levelo://app?vid=86e48878-e91e-4f4a-8f28-3f2a8f384ed0","ios":"levelo://app?vid=86e48878-e91e-4f4a-8f28-3f2a8f384ed0"},"vehicle_type_id":"4","last_reported":1747584650,"current_range_meters":10800,"station_id":"ce4bgi12rcd13ifvqb80","pricing_plan_id":"cebpf4jnsgd1na2vs0mg"},{"bike_id":"938c63eb-986e-413a-8c28-6c4bb0e35c71","system_id":"levelo_inurba_marseille","lat":43.31077,"lon":5.38355,"is_reserved":false,"is_disabled":false,"rental_uris":{"android":"levelo://app?vid=938c63eb-986e-413a-8c28-6c4bb0e35c71","ios":"levelo://app?vid=938c63eb-986e-413a-8c28-6c4bb0e35c71"},"vehicle_type_id":"4","last_reported":1747584650,"current_range_meters":10800,"station_id":"ce4bgv92rcd13ifvqcr0","pricing_plan_id":"cebpf4jnsgd1na2vs0mg"},{"bike_id":"c8a5d6c1-751c-4a1c-abe9-3b81472d44ab","system_id":"levelo_inurba_marseille","lat":43.21187,"lon":5.35096,"is_reserved":false,"is_disabled":false,"rental_uris":{"android":"levelo://app?vid=c8a5d6c1-751c-4a1c-abe9-3b81472d44ab","ios":"levelo://app?vid=c8a5d6c1-751c-4a1c-abe9-3b81472d44ab"},"vehicle_type_id":"4","last_reported":1747584650,"current_range_meters":10800,"station_id":"st_cvj6sg6p6f1abm77japg","pricing_plan_id":"cebpf4jnsgd1na2vs0mg"},{"bike_id":"67f72f62-eb9d-4994-bbcf-c10b28dd838c","system_id":"levelo_inurba_marseille","lat":43.266011,"lon":5.393202,"is_reserved":false,"is_disabled":false,"rental_uris":{"android":"levelo://app?vid=67f72f62-eb9d-4994-bbcf-c10b28dd838c","ios":"levelo://app?vid=67f72f62-eb9d-4994-bbcf-c10b28dd838c"},"vehicle_type_id":"4","last_reported":1747584650,"current_range_meters":11200,"station_id":"","pricing_plan_id":"cebpf4jnsgd1na2vs0mg"},{"bike_id":"4db26bcd-857e-4418-8e52-f9f65e0d23cf","system_id":"levelo_inurba_marseille","lat":43.30424,"lon":5.38888,"is_reserved":false,"is_disabled":false,"rental_uris":{"android":"levelo://app?vid=4db26bcd-857e-4418-8e52-f9f65e0d23cf","ios":"levelo://app?vid=4db26bcd-857e-4418-8e52-f9f65e0d23cf"},"vehicle_type_id":"4","last_reported":1747584650,"current_range_meters":11200,"station_id":"ce4bgk12rcd13ifvqbi0","pricing_plan_id":"cebpf4jnsgd1na2vs0mg"},{"bike_id":"1b6b89a6-dfd5-4861-be89-20cc7051d9e5","system_id":"levelo_inurba_marseille","lat":43.27185,"lon":5.40994,"is_reserved":false,"is_disabled":false,"rental_uris":{"android":"levelo://app?vid=1b6b89a6-dfd5-4861-be89-20cc7051d9e5","ios":"levelo://app?vid=1b6b89a6-dfd5-4861-be89-20cc7051d9e5"},"vehicle_type_id":"4","last_reported":1747584650,"current_range_meters":11200,"station_id":"ce4bhl12rcd13ifvqgf0","pricing_plan_id":"cebpf4jnsgd1na2vs0mg"},{"bike_id":"9f9a4589-3396-44ab-8d73-de2f1644c54c","system_id":"levelo_inurba_marseille","lat":43.29532,"lon":5.39397,"is_reserved":false,"is_disabled":false,"rental_uris":{"android":"levelo://app?vid=9f9a4589-3396-44ab-8d73-de2f1644c54c","ios":"levelo://app?vid=9f9a4589-3396-44ab-8d73-de2f1644c54c"},"vehicle_type_id":"4","last_reported":1747584650,"current_range_meters":11600,"station_id":"ce4bh292rcd13ifvqdf0","pricing_plan_id":"cebpf4jnsgd1na2vs0mg"},{"bike_id":"954f9a2f-3d92-4afe-8ccd-55ebda55dfe0","system_id":"levelo_inurba_marseille","lat":43.27072,"lon":5.422823,"is_reserved":false,"is_disabled":false,"rental_uris":{"android":"levelo://app?vid=954f9a2f-3d92-4afe-8ccd-55ebda55dfe0","ios":"levelo://app?vid=954f9a2f-3d92-4afe-8ccd-55ebda55dfe0"},"vehicle_type_id":"4","last_reported":1747584650,"current_range_meters":11600,"station_id":"ce4bhk92rcd13ifvqgb0","pricing_plan_id":"cebpf4jnsgd1na2vs0mg"},{"bike_id":"356b2829-3ca0-4f70-8f78-46e79da913e0","system_id":"levelo_inurba_marseille","lat":43.281513,"lon":5.426447,"is_reserved":false,"is_disabled":false,"rental_uris":{"android":"levelo://app?vid=356b2829-3ca0-4f70-8f78-46e79da913e0","ios":"levelo://app?vid=356b2829-3ca0-4f70-8f78-46e79da913e0"},"vehicle_type_id":"4","last_reported":1747584650,"current_range_meters":11600,"station_id":"ce4bhnh2rcd13ifvqgug","pricing_plan_id":"cebpf4jnsgd1na2vs0mg"},{"bike_id":"1d2624c4-ca9f-412f-9cd3-068152d3605e","system_id":"levelo_inurba_marseille","lat":43.22955,"lon":5.35389,"is_reserved":false,"is_disabled":false,"rental_uris":{"android":"levelo://app?vid=1d2624c4-ca9f-412f-9cd3-068152d3605e","ios":"levelo://app?vid=1d2624c4-ca9f-412f-9cd3-068152d3605e"},"vehicle_type_id":"4","last_reported":1747584650,"current_range_meters":11600,"station_id":"cpo3532slgdg3j2ikp40","pricing_plan_id":"cebpf4jnsgd1na2vs0mg"},{"bike_id":"b26a0dd7-cbdc-4ab7-8def-31c4b88b224a","system_id":"levelo_inurba_marseille","lat":43.3121,"lon":5.3924,"is_reserved":false,"is_disabled":false,"rental_uris":{"android":"levelo://app?vid=b26a0dd7-cbdc-4ab7-8def-31c4b88b224a","ios":"levelo://app?vid=b26a0dd7-cbdc-4ab7-8def-31c4b88b224a"},"vehicle_type_id":"4","last_reported":1747584650,"current_range_meters":12000,"station_id":"","pricing_plan_id":"cebpf4jnsgd1na2vs0mg"},{"bike_id":"7efc3e7f-e60d-460d-9392-893255801a76","system_id":"levelo_inurba_marseille","lat":43.286169,"lon":5.351108,"is_reserved":false,"is_disabled":false,"rental_uris":{"android":"levelo://app?vid=7efc3e7f-e60d-460d-9392-893255801a76","ios":"levelo://app?vid=7efc3e7f-e60d-460d-9392-893255801a76"},"vehicle_type_id":"4","last_reported":1747584650,"current_range_meters":12000,"station_id":"ce4bhch2rcd13ifvqeug","pricing_plan_id":"cebpf4jnsgd1na2vs0mg"},{"bike_id":"bf51cd5f-4321-4268-a679-3afd39d51b9c","system_id":"levelo_inurba_marseille","lat":43.24654,"lon":5.38917,"is_reserved":false,"is_disabled":false,"rental_uris":{"android":"levelo://app?vid=bf51cd5f-4321-4268-a679-3afd39d51b9c","ios":"levelo://app?vid=bf51cd5f-4321-4268-a679-3afd39d51b9c"},"vehicle_type_id":"4","last_reported":1747584650,"current_range_meters":12000,"station_id":"ce4bhg12rcd13ifvqf60","pricing_plan_id":"cebpf4jnsgd1na2vs0mg"},{"bike_id":"c242198e-1b6a-49e1-acad-11ad2e794b60","system_id":"levelo_inurba_marseille","lat":43.27574,"lon":5.38436,"is_reserved":false,"is_disabled":false,"rental_uris":{"android":"levelo://app?vid=c242198e-1b6a-49e1-acad-11ad2e794b60","ios":"levelo://app?vid=c242198e-1b6a-49e1-acad-11ad2e794b60"},"vehicle_type_id":"4","last_reported":1747584650,"current_range_meters":12000,"station_id":"ce4bhh92rcd13ifvqfi0","pricing_plan_id":"cebpf4jnsgd1na2vs0mg"},{"bike_id":"b8e6c399-433b-4d63-8fc6-69cb16461c4a","system_id":"levelo_inurba_marseille","lat":43.29277,"lon":5.40119,"is_reserved":false,"is_disabled":false,"rental_uris":{"android":"levelo://app?vid=b8e6c399-433b-4d63-8fc6-69cb16461c4a","ios":"levelo://app?vid=b8e6c399-433b-4d63-8fc6-69cb16461c4a"},"vehicle_type_id":"4","last_reported":1747584650,"current_range_meters":12400,"station_id":"ce4bh312rcd13ifvqdk0","pricing_plan_id":"cebpf4jnsgd1na2vs0mg"},{"bike_id":"1a3267ae-cf4d-44cb-81d1-eb1713b2eb3a","system_id":"levelo_inurba_marseille","lat":43.26788,"lon":5.39411,"is_reserved":false,"is_disabled":false,"rental_uris":{"android":"levelo://app?vid=1a3267ae-cf4d-44cb-81d1-eb1713b2eb3a","ios":"levelo://app?vid=1a3267ae-cf4d-44cb-81d1-eb1713b2eb3a"},"vehicle_type_id":"4","last_reported":1747584650,"current_range_meters":12400,"station_id":"ce4bhh12rcd13ifvqfg0","pricing_plan_id":"cebpf4jnsgd1na2vs0mg"},{"bike_id":"908fc34b-4012-4ebe-ada9-7f35f3c8191c","system_id":"levelo_inurba_marseille","lat":43.27369,"lon":5.36259,"is_reserved":false,"is_disabled":false,"rental_uris":{"android":"levelo://app?vid=908fc34b-4012-4ebe-ada9-7f35f3c8191c","ios":"levelo://app?vid=908fc34b-4012-4ebe-ada9-7f35f3c8191c"},"vehicle_type_id":"4","last_reported":1747584650,"current_range_meters":12800,"station_id":"ce4bhbh2rcd13ifvqeo0","pricing_plan_id":"cebpf4jnsgd1na2vs0mg"},{"bike_id":"deb1ebe4-2dda-47de-8857-80d61ec16807","system_id":"levelo_inurba_marseille","lat":43.294143,"lon":5.386278,"is_reserved":false,"is_disabled":false,"rental_uris":{"android":"levelo://app?vid=deb1ebe4-2dda-47de-8857-80d61ec16807","ios":"levelo://app?vid=deb1ebe4-2dda-47de-8857-80d61ec16807"},"vehicle_type_id":"4","last_reported":1747584650,"current_range_meters":13600,"station_id":"ce4bh2h2rcd13ifvqdh0","pricing_plan_id":"cebpf4jnsgd1na2vs0mg"},{"bike_id":"16fee1e4-83e7-4224-b0c6-3620f513c8a2","system_id":"levelo_inurba_marseille","lat":43.29415,"lon":5.38622,"is_reserved":false,"is_disabled":false,"rental_uris":{"android":"levelo://app?vid=16fee1e4-83e7-4224-b0c6-3620f513c8a2","ios":"levelo://app?vid=16fee1e4-83e7-4224-b0c6-3620f513c8a2"},"vehicle_type_id":"4","last_reported":1747584650,"current_range_meters":13600,"station_id":"ce4bh2h2rcd13ifvqdh0","pricing_plan_id":"cebpf4jnsgd1na2vs0mg"},{"bike_id":"247bc2bc-6849-4f2f-a0c0-2a5387579d50","system_id":"levelo_inurba_marseille","lat":43.32365,"lon":5.36744,"is_reserved":false,"is_disabled":false,"rental_uris":{"android":"levelo://app?vid=247bc2bc-6849-4f2f-a0c0-2a5387579d50","ios":"levelo://app?vid=247bc2bc-6849-4f2f-a0c0-2a5387579d50"},"vehicle_type_id":"4","last_reported":1747584650,"current_range_meters":13600,"station_id":"ce4bhsh2rcd13ifvqi2g","pricing_plan_id":"cebpf4jnsgd1na2vs0mg"},{"bike_id":"12c4d802-2c6a-4c71-888e-000ffe312a3f","system_id":"levelo_inurba_marseille","lat":43.323674,"lon":5.367637,"is_reserved":false,"is_disabled":false,"rental_uris":{"android":"levelo://app?vid=12c4d802-2c6a-4c71-888e-000ffe312a3f","ios":"levelo://app?vid=12c4d802-2c6a-4c71-888e-000ffe312a3f"},"vehicle_type_id":"4","last_reported":1747584650,"current_range_meters":13600,"station_id":"ce4bhsh2rcd13ifvqi2g","pricing_plan_id":"cebpf4jnsgd1na2vs0mg"},{"bike_id":"46df2f38-40a6-4f7c-80a5-e6de4851718a","system_id":"levelo_inurba_marseille","lat":43.294172,"lon":5.386206,"is_reserved":false,"is_disabled":false,"rental_uris":{"android":"levelo://app?vid=46df2f38-40a6-4f7c-80a5-e6de4851718a","ios":"levelo://app?vid=46df2f38-40a6-4f7c-80a5-e6de4851718a"},"vehicle_type_id":"4","last_reported":1747584650,"current_range_meters":14000,"station_id":"ce4bh2h2rcd13ifvqdh0","pricing_plan_id":"cebpf4jnsgd1na2vs0mg"},{"bike_id":"f382231e-ff6f-4281-8b87-17f66e993321","system_id":"levelo_inurba_marseille","lat":43.23215,"lon":5.35576,"is_reserved":false,"is_disabled":false,"rental_uris":{"android":"levelo://app?vid=f382231e-ff6f-4281-8b87-17f66e993321","ios":"levelo://app?vid=f382231e-ff6f-4281-8b87-17f66e993321"},"vehicle_type_id":"4","last_reported":1747584650,"current_range_meters":14000,"station_id":"ce4bhu92rcd13ifvqi70","pricing_plan_id":"cebpf4jnsgd1na2vs0mg"},{"bike_id":"bf2b2bfb-9733-4bda-908d-03391ae976cc","system_id":"levelo_inurba_marseille","lat":43.31185,"lon":5.41615,"is_reserved":false,"is_disabled":false,"rental_uris":{"android":"levelo://app?vid=bf2b2bfb-9733-4bda-908d-03391ae976cc","ios":"levelo://app?vid=bf2b2bfb-9733-4bda-908d-03391ae976cc"},"vehicle_type_id":"4","last_reported":1747584650,"current_range_meters":14400,"station_id":"","pricing_plan_id":"cebpf4jnsgd1na2vs0mg"},{"bike_id":"ed34fad4-c48e-4c1a-b9b1-8eb1cd77d573","system_id":"levelo_inurba_marseille","lat":43.30958,"lon":5.38619,"is_reserved":false,"is_disabled":false,"rental_uris":{"android":"levelo://app?vid=ed34fad4-c48e-4c1a-b9b1-8eb1cd77d573","ios":"levelo://app?vid=ed34fad4-c48e-4c1a-b9b1-8eb1cd77d573"},"vehicle_type_id":"4","last_reported":1747584650,"current_range_meters":14400,"station_id":"ce4bgv12rcd13ifvqcp0","pricing_plan_id":"cebpf4jnsgd1na2vs0mg"},{"bike_id":"112230e2-28fc-493e-b056-0e0ccad16458","system_id":"levelo_inurba_marseille","lat":43.28836,"lon":5.39387,"is_reserved":false,"is_disabled":false,"rental_uris":{"android":"levelo://app?vid=112230e2-28fc-493e-b056-0e0ccad16458","ios":"levelo://app?vid=112230e2-28fc-493e-b056-0e0ccad16458"},"vehicle_type_id":"4","last_reported":1747584650,"current_range_meters":14400,"station_id":"ce4bh2p2rcd13ifvqdi0","pricing_plan_id":"cebpf4jnsgd1na2vs0mg"},{"bike_id":"86603db7-b462-4e72-8622-a2dee8bb2920","system_id":"levelo_inurba_marseille","lat":43.337444,"lon":5.374475,"is_reserved":false,"is_disabled":false,"rental_uris":{"android":"levelo://app?vid=86603db7-b462-4e72-8622-a2dee8bb2920","ios":"levelo://app?vid=86603db7-b462-4e72-8622-a2dee8bb2920"},"vehicle_type_id":"4","last_reported":1747584650,"current_range_meters":14800,"station_id":"","pricing_plan_id":"cebpf4jnsgd1na2vs0mg"},{"bike_id":"8e2e61a9-3601-4a8b-95fa-a26366dc9f2c","system_id":"levelo_inurba_marseille","lat":43.314866,"lon":5.373036,"is_reserved":false,"is_disabled":false,"rental_uris":{"android":"levelo://app?vid=8e2e61a9-3601-4a8b-95fa-a26366dc9f2c","ios":"levelo://app?vid=8e2e61a9-3601-4a8b-95fa-a26366dc9f2c"},"vehicle_type_id":"4","last_reported":1747584650,"current_range_meters":14800,"station_id":"ce4bgt12rcd13ifvqcd0","pricing_plan_id":"cebpf4jnsgd1na2vs0mg"},{"bike_id":"ab98caa6-62f1-43dc-b069-c74806edebcd","system_id":"levelo_inurba_marseille","lat":43.26555,"lon":5.37316,"is_reserved":false,"is_disabled":false,"rental_uris":{"android":"levelo://app?vid=ab98caa6-62f1-43dc-b069-c74806edebcd","ios":"levelo://app?vid=ab98caa6-62f1-43dc-b069-c74806edebcd"},"vehicle_type_id":"4","last_reported":1747584650,"current_range_meters":14800,"station_id":"ce4bhg12rcd13ifvqf70","pricing_plan_id":"cebpf4jnsgd1na2vs0mg"},{"bike_id":"510790c3-7912-4d76-b9fa-0011bbd7aebc","system_id":"levelo_inurba_marseille","lat":43.27973,"lon":5.38731,"is_reserved":false,"is_disabled":false,"rental_uris":{"android":"levelo://app?vid=510790c3-7912-4d76-b9fa-0011bbd7aebc","ios":"levelo://app?vid=510790c3-7912-4d76-b9fa-0011bbd7aebc"},"vehicle_type_id":"4","last_reported":1747584650,"current_range_meters":14800,"station_id":"ce4bhg12rcd13ifvqf80","pricing_plan_id":"cebpf4jnsgd1na2vs0mg"},{"bike_id":"1bbca78a-c83f-4de6-934f-aa529128ce36","system_id":"levelo_inurba_marseille","lat":43.24173,"lon":5.36371,"is_reserved":false,"is_disabled":false,"rental_uris":{"android":"levelo://app?vid=1bbca78a-c83f-4de6-934f-aa529128ce36","ios":"levelo://app?vid=1bbca78a-c83f-4de6-934f-aa529128ce36"},"vehicle_type_id":"4","last_reported":1747584650,"current_range_meters":14800,"station_id":"cpo36qri1sfpv3e86is0","pricing_plan_id":"cebpf4jnsgd1na2vs0mg"},{"bike_id":"19456222-7d38-48cf-a950-06daadd07927","system_id":"levelo_inurba_marseille","lat":43.2502,"lon":5.37536,"is_reserved":false,"is_disabled":false,"rental_uris":{"android":"levelo://app?vid=19456222-7d38-48cf-a950-06daadd07927","ios":"levelo://app?vid=19456222-7d38-48cf-a950-06daadd07927"},"vehicle_type_id":"4","last_reported":1747584650,"current_range_meters":15200,"station_id":"","pricing_plan_id":"cebpf4jnsgd1na2vs0mg"},{"bike_id":"d2ac797c-2beb-40a3-9dfb-0d2524260adb","system_id":"levelo_inurba_marseille","lat":43.30428,"lon":5.3975,"is_reserved":false,"is_disabled":false,"rental_uris":{"android":"levelo://app?vid=d2ac797c-2beb-40a3-9dfb-0d2524260adb","ios":"levelo://app?vid=d2ac797c-2beb-40a3-9dfb-0d2524260adb"},"vehicle_type_id":"4","last_reported":1747584650,"current_range_meters":15200,"station_id":"ce4bh092rcd13ifvqd20","pricing_plan_id":"cebpf4jnsgd1na2vs0mg"},{"bike_id":"a1dc93ad-e59c-4ceb-b241-fb63fd6d2d68","system_id":"levelo_inurba_marseille","lat":43.29881,"lon":5.39742,"is_reserved":false,"is_disabled":false,"rental_uris":{"android":"levelo://app?vid=a1dc93ad-e59c-4ceb-b241-fb63fd6d2d68","ios":"levelo://app?vid=a1dc93ad-e59c-4ceb-b241-fb63fd6d2d68"},"vehicle_type_id":"4","last_reported":1747584650,"current_range_meters":15200,"station_id":"ce4bh0h2rcd13ifvqd50","pricing_plan_id":"cebpf4jnsgd1na2vs0mg"},{"bike_id":"1a94bc73-a5be-4d53-89f6-c216a1dd1f4f","system_id":"levelo_inurba_marseille","lat":43.30079,"lon":5.39076,"is_reserved":false,"is_disabled":false,"rental_uris":{"android":"levelo://app?vid=1a94bc73-a5be-4d53-89f6-c216a1dd1f4f","ios":"levelo://app?vid=1a94bc73-a5be-4d53-89f6-c216a1dd1f4f"},"vehicle_type_id":"4","last_reported":1747584650,"current_range_meters":15200,"station_id":"ce4bh192rcd13ifvqdb0","pricing_plan_id":"cebpf4jnsgd1na2vs0mg"},{"bike_id":"73da5d5b-8361-48f4-9219-8c16a645bc60","system_id":"levelo_inurba_marseille","lat":43.28847,"lon":5.39315,"is_reserved":false,"is_disabled":false,"rental_uris":{"android":"levelo://app?vid=73da5d5b-8361-48f4-9219-8c16a645bc60","ios":"levelo://app?vid=73da5d5b-8361-48f4-9219-8c16a645bc60"},"vehicle_type_id":"4","last_reported":1747584650,"current_range_meters":15200,"station_id":"ce4bh2p2rcd13ifvqdi0","pricing_plan_id":"cebpf4jnsgd1na2vs0mg"},{"bike_id":"7b581cb2-3370-42b3-ab7a-331ca0b5ed3d","system_id":"levelo_inurba_marseille","lat":43.295231,"lon":5.37444,"is_reserved":false,"is_disabled":false,"rental_uris":{"android":"levelo://app?vid=7b581cb2-3370-42b3-ab7a-331ca0b5ed3d","ios":"levelo://app?vid=7b581cb2-3370-42b3-ab7a-331ca0b5ed3d"},"vehicle_type_id":"4","last_reported":1747584650,"current_range_meters":15200,"station_id":"chh1huq6cuj3fo74tm60","pricing_plan_id":"cebpf4jnsgd1na2vs0mg"},{"bike_id":"dd36f654-fc20-4566-8364-dc9d111944ae","system_id":"levelo_inurba_marseille","lat":43.28944,"lon":5.36648,"is_reserved":false,"is_disabled":false,"rental_uris":{"android":"levelo://app?vid=dd36f654-fc20-4566-8364-dc9d111944ae","ios":"levelo://app?vid=dd36f654-fc20-4566-8364-dc9d111944ae"},"vehicle_type_id":"4","last_reported":1747584650,"current_range_meters":16000,"station_id":"ce4bhap2rcd13ifvqek0","pricing_plan_id":"cebpf4jnsgd1na2vs0mg"},{"bike_id":"4b656dc9-9172-4080-a18b-44cb269a7a7a","system_id":"levelo_inurba_marseille","lat":43.326553,"lon":5.40992,"is_reserved":false,"is_disabled":false,"rental_uris":{"android":"levelo://app?vid=4b656dc9-9172-4080-a18b-44cb269a7a7a","ios":"levelo://app?vid=4b656dc9-9172-4080-a18b-44cb269a7a7a"},"vehicle_type_id":"4","last_reported":1747584650,"current_range_meters":16000,"station_id":"ce4bhpp2rcd13ifvqhgg","pricing_plan_id":"cebpf4jnsgd1na2vs0mg"},{"bike_id":"26ae3f71-446b-4d48-9715-d0cb78472fbf","system_id":"levelo_inurba_marseille","lat":43.31157,"lon":5.37024,"is_reserved":false,"is_disabled":false,"rental_uris":{"android":"levelo://app?vid=26ae3f71-446b-4d48-9715-d0cb78472fbf","ios":"levelo://app?vid=26ae3f71-446b-4d48-9715-d0cb78472fbf"},"vehicle_type_id":"4","last_reported":1747584650,"current_range_meters":16400,"station_id":"","pricing_plan_id":"cebpf4jnsgd1na2vs0mg"},{"bike_id":"d5d55fd4-eeae-48c9-8789-081e9da4cd7b","system_id":"levelo_inurba_marseille","lat":43.26564,"lon":5.39015,"is_reserved":false,"is_disabled":false,"rental_uris":{"android":"levelo://app?vid=d5d55fd4-eeae-48c9-8789-081e9da4cd7b","ios":"levelo://app?vid=d5d55fd4-eeae-48c9-8789-081e9da4cd7b"},"vehicle_type_id":"4","last_reported":1747584650,"current_range_meters":16400,"station_id":"ce4bhe12rcd13ifvqf30","pricing_plan_id":"cebpf4jnsgd1na2vs0mg"},{"bike_id":"c4e890eb-f578-4976-93dc-80dde712c486","system_id":"levelo_inurba_marseille","lat":43.241651,"lon":5.363892,"is_reserved":false,"is_disabled":false,"rental_uris":{"android":"levelo://app?vid=c4e890eb-f578-4976-93dc-80dde712c486","ios":"levelo://app?vid=c4e890eb-f578-4976-93dc-80dde712c486"},"vehicle_type_id":"4","last_reported":1747584650,"current_range_meters":16400,"station_id":"cpo36qri1sfpv3e86is0","pricing_plan_id":"cebpf4jnsgd1na2vs0mg"},{"bike_id":"831c9db4-0ff2-47fd-9906-a15bea8601e6","system_id":"levelo_inurba_marseille","lat":43.24833,"lon":5.37459,"is_reserved":false,"is_disabled":false,"rental_uris":{"android":"levelo://app?vid=831c9db4-0ff2-47fd-9906-a15bea8601e6","ios":"levelo://app?vid=831c9db4-0ff2-47fd-9906-a15bea8601e6"},"vehicle_type_id":"4","last_reported":1747584650,"current_range_meters":16800,"station_id":"ce4bhgh2rcd13ifvqfb0","pricing_plan_id":"cebpf4jnsgd1na2vs0mg"},{"bike_id":"fba103a6-30ce-481c-a05a-9411e513bfcf","system_id":"levelo_inurba_marseille","lat":43.25937,"lon":5.4091,"is_reserved":false,"is_disabled":false,"rental_uris":{"android":"levelo://app?vid=fba103a6-30ce-481c-a05a-9411e513bfcf","ios":"levelo://app?vid=fba103a6-30ce-481c-a05a-9411e513bfcf"},"vehicle_type_id":"4","last_reported":1747584650,"current_range_meters":16800,"station_id":"ce4bhm92rcd13ifvqglg","pricing_plan_id":"cebpf4jnsgd1na2vs0mg"},{"bike_id":"2b479e1a-99d3-4ae6-ade3-0ab0c11128c1","system_id":"levelo_inurba_marseille","lat":43.29265,"lon":5.38445,"is_reserved":false,"is_disabled":false,"rental_uris":{"android":"levelo://app?vid=2b479e1a-99d3-4ae6-ade3-0ab0c11128c1","ios":"levelo://app?vid=2b479e1a-99d3-4ae6-ade3-0ab0c11128c1"},"vehicle_type_id":"4","last_reported":1747584650,"current_range_meters":17200,"station_id":"ce4bh692rcd13ifvqea0","pricing_plan_id":"cebpf4jnsgd1na2vs0mg"},{"bike_id":"41389e7c-6f3c-410d-88e7-f591b55a002a","system_id":"levelo_inurba_marseille","lat":43.240669,"lon":5.37759,"is_reserved":false,"is_disabled":false,"rental_uris":{"android":"levelo://app?vid=41389e7c-6f3c-410d-88e7-f591b55a002a","ios":"levelo://app?vid=41389e7c-6f3c-410d-88e7-f591b55a002a"},"vehicle_type_id":"4","last_reported":1747584650,"current_range_meters":17200,"station_id":"ce4bhnp2rcd13ifvqgvg","pricing_plan_id":"cebpf4jnsgd1na2vs0mg"},{"bike_id":"3ad2da88-05c0-4d59-a041-a24e127bef62","system_id":"levelo_inurba_marseille","lat":43.28435,"lon":5.39198,"is_reserved":false,"is_disabled":false,"rental_uris":{"android":"levelo://app?vid=3ad2da88-05c0-4d59-a041-a24e127bef62","ios":"levelo://app?vid=3ad2da88-05c0-4d59-a041-a24e127bef62"},"vehicle_type_id":"4","last_reported":1747584650,"current_range_meters":17200,"station_id":"ce4bhoh2rcd13ifvqh5g","pricing_plan_id":"cebpf4jnsgd1na2vs0mg"},{"bike_id":"b3594d0a-6267-4611-9097-5bb94a2ba24f","system_id":"levelo_inurba_marseille","lat":43.31145,"lon":5.37003,"is_reserved":false,"is_disabled":false,"rental_uris":{"android":"levelo://app?vid=b3594d0a-6267-4611-9097-5bb94a2ba24f","ios":"levelo://app?vid=b3594d0a-6267-4611-9097-5bb94a2ba24f"},"vehicle_type_id":"4","last_reported":1747584650,"current_range_meters":17600,"station_id":"","pricing_plan_id":"cebpf4jnsgd1na2vs0mg"},{"bike_id":"eddc3e2f-204e-47a6-9d8f-809f554335b4","system_id":"levelo_inurba_marseille","lat":43.24072,"lon":5.3777,"is_reserved":false,"is_disabled":false,"rental_uris":{"android":"levelo://app?vid=eddc3e2f-204e-47a6-9d8f-809f554335b4","ios":"levelo://app?vid=eddc3e2f-204e-47a6-9d8f-809f554335b4"},"vehicle_type_id":"4","last_reported":1747584650,"current_range_meters":18000,"station_id":"ce4bhnp2rcd13ifvqgvg","pricing_plan_id":"cebpf4jnsgd1na2vs0mg"},{"bike_id":"32b3d3aa-03b5-4ef5-807f-2eb6240c4b24","system_id":"levelo_inurba_marseille","lat":43.29224,"lon":5.36075,"is_reserved":false,"is_disabled":false,"rental_uris":{"android":"levelo://app?vid=32b3d3aa-03b5-4ef5-807f-2eb6240c4b24","ios":"levelo://app?vid=32b3d3aa-03b5-4ef5-807f-2eb6240c4b24"},"vehicle_type_id":"4","last_reported":1747584650,"current_range_meters":18800,"station_id":"ce4bhbh2rcd13ifvqeqg","pricing_plan_id":"cebpf4jnsgd1na2vs0mg"},{"bike_id":"696e919a-0860-4353-8a47-bf1093fe1d33","system_id":"levelo_inurba_marseille","lat":43.24674,"lon":5.38169,"is_reserved":false,"is_disabled":false,"rental_uris":{"android":"levelo://app?vid=696e919a-0860-4353-8a47-bf1093fe1d33","ios":"levelo://app?vid=696e919a-0860-4353-8a47-bf1093fe1d33"},"vehicle_type_id":"4","last_reported":1747584650,"current_range_meters":18800,"station_id":"ce4bhih2rcd13ifvqfr0","pricing_plan_id":"cebpf4jnsgd1na2vs0mg"},{"bike_id":"6d8f65d2-55f3-46bf-b087-c0e5e18f6344","system_id":"levelo_inurba_marseille","lat":43.26832,"lon":5.4276,"is_reserved":false,"is_disabled":false,"rental_uris":{"android":"levelo://app?vid=6d8f65d2-55f3-46bf-b087-c0e5e18f6344","ios":"levelo://app?vid=6d8f65d2-55f3-46bf-b087-c0e5e18f6344"},"vehicle_type_id":"4","last_reported":1747584650,"current_range_meters":19200,"station_id":"","pricing_plan_id":"cebpf4jnsgd1na2vs0mg"},{"bike_id":"21941373-1d89-418e-a56c-60a8847a2a14","system_id":"levelo_inurba_marseille","lat":43.28344,"lon":5.38105,"is_reserved":false,"is_disabled":false,"rental_uris":{"android":"levelo://app?vid=21941373-1d89-418e-a56c-60a8847a2a14","ios":"levelo://app?vid=21941373-1d89-418e-a56c-60a8847a2a14"},"vehicle_type_id":"4","last_reported":1747584650,"current_range_meters":19600,"station_id":"ce4bh412rcd13ifvqdr0","pricing_plan_id":"cebpf4jnsgd1na2vs0mg"},{"bike_id":"0a6154f6-1484-40d7-8354-3accdf1e6578","system_id":"levelo_inurba_marseille","lat":43.24653,"lon":5.38894,"is_reserved":false,"is_disabled":false,"rental_uris":{"android":"levelo://app?vid=0a6154f6-1484-40d7-8354-3accdf1e6578","ios":"levelo://app?vid=0a6154f6-1484-40d7-8354-3accdf1e6578"},"vehicle_type_id":"4","last_reported":1747584650,"current_range_meters":19600,"station_id":"ce4bhg12rcd13ifvqf60","pricing_plan_id":"cebpf4jnsgd1na2vs0mg"},{"bike_id":"d6209d02-cf8e-4dcf-a505-aee414793317","system_id":"levelo_inurba_marseille","lat":43.24798,"lon":5.37446,"is_reserved":false,"is_disabled":false,"rental_uris":{"android":"levelo://app?vid=d6209d02-cf8e-4dcf-a505-aee414793317","ios":"levelo://app?vid=d6209d02-cf8e-4dcf-a505-aee414793317"},"vehicle_type_id":"4","last_reported":1747584650,"current_range_meters":19600,"station_id":"ce4bhgh2rcd13ifvqfb0","pricing_plan_id":"cebpf4jnsgd1na2vs0mg"},{"bike_id":"0f516c33-00b5-4a13-8de0-2a84f1fe4ef3","system_id":"levelo_inurba_marseille","lat":43.290137,"lon":5.383389,"is_reserved":false,"is_disabled":false,"rental_uris":{"android":"levelo://app?vid=0f516c33-00b5-4a13-8de0-2a84f1fe4ef3","ios":"levelo://app?vid=0f516c33-00b5-4a13-8de0-2a84f1fe4ef3"},"vehicle_type_id":"4","last_reported":1747584650,"current_range_meters":20400,"station_id":"ce4bh692rcd13ifvqea0","pricing_plan_id":"cebpf4jnsgd1na2vs0mg"},{"bike_id":"749a981d-bf1a-4e2d-8130-5e107dce919c","system_id":"levelo_inurba_marseille","lat":43.29247,"lon":5.38437,"is_reserved":false,"is_disabled":false,"rental_uris":{"android":"levelo://app?vid=749a981d-bf1a-4e2d-8130-5e107dce919c","ios":"levelo://app?vid=749a981d-bf1a-4e2d-8130-5e107dce919c"},"vehicle_type_id":"4","last_reported":1747584650,"current_range_meters":20400,"station_id":"ce4bh692rcd13ifvqea0","pricing_plan_id":"cebpf4jnsgd1na2vs0mg"},{"bike_id":"392e51ca-15ed-46ef-920f-3d3c2635f270","system_id":"levelo_inurba_marseille","lat":43.28617,"lon":5.35113,"is_reserved":false,"is_disabled":false,"rental_uris":{"android":"levelo://app?vid=392e51ca-15ed-46ef-920f-3d3c2635f270","ios":"levelo://app?vid=392e51ca-15ed-46ef-920f-3d3c2635f270"},"vehicle_type_id":"4","last_reported":1747584650,"current_range_meters":20400,"station_id":"ce4bhch2rcd13ifvqeug","pricing_plan_id":"cebpf4jnsgd1na2vs0mg"},{"bike_id":"311cec58-07c9-41ec-b050-dd8bd2dc8c3f","system_id":"levelo_inurba_marseille","lat":43.30092,"lon":5.39081,"is_reserved":false,"is_disabled":false,"rental_uris":{"android":"levelo://app?vid=311cec58-07c9-41ec-b050-dd8bd2dc8c3f","ios":"levelo://app?vid=311cec58-07c9-41ec-b050-dd8bd2dc8c3f"},"vehicle_type_id":"4","last_reported":1747584650,"current_range_meters":20800,"station_id":"ce4bh192rcd13ifvqdb0","pricing_plan_id":"cebpf4jnsgd1na2vs0mg"},{"bike_id":"2d5c49ca-cea7-48c7-9dad-8618244caeef","system_id":"levelo_inurba_marseille","lat":43.241642,"lon":5.364088,"is_reserved":false,"is_disabled":false,"rental_uris":{"android":"levelo://app?vid=2d5c49ca-cea7-48c7-9dad-8618244caeef","ios":"levelo://app?vid=2d5c49ca-cea7-48c7-9dad-8618244caeef"},"vehicle_type_id":"4","last_reported":1747584650,"current_range_meters":20800,"station_id":"cpo36qri1sfpv3e86is0","pricing_plan_id":"cebpf4jnsgd1na2vs0mg"},{"bike_id":"1948ecc8-2588-4eab-a4a3-637206509ef9","system_id":"levelo_inurba_marseille","lat":43.29258,"lon":5.38468,"is_reserved":false,"is_disabled":false,"rental_uris":{"android":"levelo://app?vid=1948ecc8-2588-4eab-a4a3-637206509ef9","ios":"levelo://app?vid=1948ecc8-2588-4eab-a4a3-637206509ef9"},"vehicle_type_id":"4","last_reported":1747584650,"current_range_meters":21600,"station_id":"ce4bh692rcd13ifvqea0","pricing_plan_id":"cebpf4jnsgd1na2vs0mg"},{"bike_id":"ccf57efa-bd05-43d2-942a-6f47c7372812","system_id":"levelo_inurba_marseille","lat":43.26207,"lon":5.37442,"is_reserved":false,"is_disabled":false,"rental_uris":{"android":"levelo://app?vid=ccf57efa-bd05-43d2-942a-6f47c7372812","ios":"levelo://app?vid=ccf57efa-bd05-43d2-942a-6f47c7372812"},"vehicle_type_id":"4","last_reported":1747584650,"current_range_meters":21600,"station_id":"ce4bhgp2rcd13ifvqfc0","pricing_plan_id":"cebpf4jnsgd1na2vs0mg"},{"bike_id":"338ab862-3eee-46b1-9f4f-ad12443dba67","system_id":"levelo_inurba_marseille","lat":43.28929,"lon":5.36632,"is_reserved":false,"is_disabled":false,"rental_uris":{"android":"levelo://app?vid=338ab862-3eee-46b1-9f4f-ad12443dba67","ios":"levelo://app?vid=338ab862-3eee-46b1-9f4f-ad12443dba67"},"vehicle_type_id":"4","last_reported":1747584650,"current_range_meters":22000,"station_id":"","pricing_plan_id":"cebpf4jnsgd1na2vs0mg"},{"bike_id":"60e44318-99cf-48ec-8cff-0f08bd2ac59c","system_id":"levelo_inurba_marseille","lat":43.28345,"lon":5.38101,"is_reserved":false,"is_disabled":false,"rental_uris":{"android":"levelo://app?vid=60e44318-99cf-48ec-8cff-0f08bd2ac59c","ios":"levelo://app?vid=60e44318-99cf-48ec-8cff-0f08bd2ac59c"},"vehicle_type_id":"4","last_reported":1747584650,"current_range_meters":22000,"station_id":"ce4bh412rcd13ifvqdr0","pricing_plan_id":"cebpf4jnsgd1na2vs0mg"},{"bike_id":"6219e431-0d10-4995-bdc1-dcd619339c50","system_id":"levelo_inurba_marseille","lat":43.23181,"lon":5.39982,"is_reserved":false,"is_disabled":false,"rental_uris":{"android":"levelo://app?vid=6219e431-0d10-4995-bdc1-dcd619339c50","ios":"levelo://app?vid=6219e431-0d10-4995-bdc1-dcd619339c50"},"vehicle_type_id":"4","last_reported":1747584650,"current_range_meters":22000,"station_id":"ce4bhn12rcd13ifvqgqg","pricing_plan_id":"cebpf4jnsgd1na2vs0mg"},{"bike_id":"d9cb1ad1-3e0b-485e-a7e4-524209693c82","system_id":"levelo_inurba_marseille","lat":43.211914,"lon":5.35071,"is_reserved":false,"is_disabled":false,"rental_uris":{"android":"levelo://app?vid=d9cb1ad1-3e0b-485e-a7e4-524209693c82","ios":"levelo://app?vid=d9cb1ad1-3e0b-485e-a7e4-524209693c82"},"vehicle_type_id":"4","last_reported":1747584650,"current_range_meters":22000,"station_id":"st_cvj6sg6p6f1abm77japg","pricing_plan_id":"cebpf4jnsgd1na2vs0mg"},{"bike_id":"08b52215-e57b-43f8-a055-021683d93fec","system_id":"levelo_inurba_marseille","lat":43.29414,"lon":5.38625,"is_reserved":false,"is_disabled":false,"rental_uris":{"android":"levelo://app?vid=08b52215-e57b-43f8-a055-021683d93fec","ios":"levelo://app?vid=08b52215-e57b-43f8-a055-021683d93fec"},"vehicle_type_id":"4","last_reported":1747584650,"current_range_meters":22400,"station_id":"ce4bh2h2rcd13ifvqdh0","pricing_plan_id":"cebpf4jnsgd1na2vs0mg"},{"bike_id":"2d3674d7-e2e8-4b18-9d94-ee926f02d57e","system_id":"levelo_inurba_marseille","lat":43.273694,"lon":5.362646,"is_reserved":false,"is_disabled":false,"rental_uris":{"android":"levelo://app?vid=2d3674d7-e2e8-4b18-9d94-ee926f02d57e","ios":"levelo://app?vid=2d3674d7-e2e8-4b18-9d94-ee926f02d57e"},"vehicle_type_id":"4","last_reported":1747584650,"current_range_meters":22400,"station_id":"ce4bhbh2rcd13ifvqeo0","pricing_plan_id":"cebpf4jnsgd1na2vs0mg"},{"bike_id":"ced441dc-6911-44a5-8234-8cb0fa777064","system_id":"levelo_inurba_marseille","lat":43.27073,"lon":5.42278,"is_reserved":false,"is_disabled":false,"rental_uris":{"android":"levelo://app?vid=ced441dc-6911-44a5-8234-8cb0fa777064","ios":"levelo://app?vid=ced441dc-6911-44a5-8234-8cb0fa777064"},"vehicle_type_id":"4","last_reported":1747584650,"current_range_meters":22400,"station_id":"ce4bhk92rcd13ifvqgb0","pricing_plan_id":"cebpf4jnsgd1na2vs0mg"},{"bike_id":"7ba68486-43c3-48a1-9153-9a2f7f598000","system_id":"levelo_inurba_marseille","lat":43.30538,"lon":5.36563,"is_reserved":false,"is_disabled":false,"rental_uris":{"android":"levelo://app?vid=7ba68486-43c3-48a1-9153-9a2f7f598000","ios":"levelo://app?vid=7ba68486-43c3-48a1-9153-9a2f7f598000"},"vehicle_type_id":"4","last_reported":1747584650,"current_range_meters":22800,"station_id":"ce4bgs12rcd13ifvqcag","pricing_plan_id":"cebpf4jnsgd1na2vs0mg"},{"bike_id":"cd280ea4-74fe-47aa-95f7-c8210762673f","system_id":"levelo_inurba_marseille","lat":43.27378,"lon":5.3624,"is_reserved":false,"is_disabled":false,"rental_uris":{"android":"levelo://app?vid=cd280ea4-74fe-47aa-95f7-c8210762673f","ios":"levelo://app?vid=cd280ea4-74fe-47aa-95f7-c8210762673f"},"vehicle_type_id":"4","last_reported":1747584650,"current_range_meters":22800,"station_id":"ce4bhbh2rcd13ifvqeo0","pricing_plan_id":"cebpf4jnsgd1na2vs0mg"},{"bike_id":"702ef3bc-6fc6-4416-b031-b9cc99ee9ecd","system_id":"levelo_inurba_marseille","lat":43.29099,"lon":5.38155,"is_reserved":false,"is_disabled":false,"rental_uris":{"android":"levelo://app?vid=702ef3bc-6fc6-4416-b031-b9cc99ee9ecd","ios":"levelo://app?vid=702ef3bc-6fc6-4416-b031-b9cc99ee9ecd"},"vehicle_type_id":"4","last_reported":1747584650,"current_range_meters":23200,"station_id":"ce4bh512rcd13ifvqe2g","pricing_plan_id":"cebpf4jnsgd1na2vs0mg"},{"bike_id":"754100ec-ec7f-47da-a9cc-7120417e22c4","system_id":"levelo_inurba_marseille","lat":43.29167,"lon":5.37156,"is_reserved":false,"is_disabled":false,"rental_uris":{"android":"levelo://app?vid=754100ec-ec7f-47da-a9cc-7120417e22c4","ios":"levelo://app?vid=754100ec-ec7f-47da-a9cc-7120417e22c4"},"vehicle_type_id":"4","last_reported":1747584650,"current_range_meters":23200,"station_id":"ce4bha92rcd13ifvqeh0","pricing_plan_id":"cebpf4jnsgd1na2vs0mg"},{"bike_id":"0d2e8b31-adc4-4702-91bb-086ab528fd4d","system_id":"levelo_inurba_marseille","lat":43.29598,"lon":5.38098,"is_reserved":false,"is_disabled":false,"rental_uris":{"android":"levelo://app?vid=0d2e8b31-adc4-4702-91bb-086ab528fd4d","ios":"levelo://app?vid=0d2e8b31-adc4-4702-91bb-086ab528fd4d"},"vehicle_type_id":"4","last_reported":1747584650,"current_range_meters":24000,"station_id":"ce4bgl12rcd13ifvqbo0","pricing_plan_id":"cebpf4jnsgd1na2vs0mg"},{"bike_id":"0aa93a17-2c67-4401-bc28-11d2158b34f7","system_id":"levelo_inurba_marseille","lat":43.24069,"lon":5.377624,"is_reserved":false,"is_disabled":false,"rental_uris":{"android":"levelo://app?vid=0aa93a17-2c67-4401-bc28-11d2158b34f7","ios":"levelo://app?vid=0aa93a17-2c67-4401-bc28-11d2158b34f7"},"vehicle_type_id":"4","last_reported":1747584650,"current_range_meters":24000,"station_id":"ce4bhnp2rcd13ifvqgvg","pricing_plan_id":"cebpf4jnsgd1na2vs0mg"},{"bike_id":"8da44370-a435-48f7-9bf8-4043a5db973f","system_id":"levelo_inurba_marseille","lat":43.26096,"lon":5.37855,"is_reserved":false,"is_disabled":false,"rental_uris":{"android":"levelo://app?vid=8da44370-a435-48f7-9bf8-4043a5db973f","ios":"levelo://app?vid=8da44370-a435-48f7-9bf8-4043a5db973f"},"vehicle_type_id":"4","last_reported":1747584650,"current_range_meters":24400,"station_id":"","pricing_plan_id":"cebpf4jnsgd1na2vs0mg"},{"bike_id":"c47de08d-c4a8-4acb-88d4-ca6ca69f95ce","system_id":"levelo_inurba_marseille","lat":43.35425,"lon":5.40844,"is_reserved":false,"is_disabled":false,"rental_uris":{"android":"levelo://app?vid=c47de08d-c4a8-4acb-88d4-ca6ca69f95ce","ios":"levelo://app?vid=c47de08d-c4a8-4acb-88d4-ca6ca69f95ce"},"vehicle_type_id":"4","last_reported":1747584650,"current_range_meters":24400,"station_id":"","pricing_plan_id":"cebpf4jnsgd1na2vs0mg"},{"bike_id":"84b40b54-3859-4478-a6e4-56bb4575b236","system_id":"levelo_inurba_marseille","lat":43.30882,"lon":5.39656,"is_reserved":false,"is_disabled":false,"rental_uris":{"android":"levelo://app?vid=84b40b54-3859-4478-a6e4-56bb4575b236","ios":"levelo://app?vid=84b40b54-3859-4478-a6e4-56bb4575b236"},"vehicle_type_id":"4","last_reported":1747584650,"current_range_meters":24400,"station_id":"ce4bh012rcd13ifvqcv0","pricing_plan_id":"cebpf4jnsgd1na2vs0mg"},{"bike_id":"e992fd4d-5411-4504-8323-b312d150faed","system_id":"levelo_inurba_marseille","lat":43.28466,"lon":5.38425,"is_reserved":false,"is_disabled":false,"rental_uris":{"android":"levelo://app?vid=e992fd4d-5411-4504-8323-b312d150faed","ios":"levelo://app?vid=e992fd4d-5411-4504-8323-b312d150faed"},"vehicle_type_id":"4","last_reported":1747584650,"current_range_meters":24400,"station_id":"ce4bh512rcd13ifvqe3g","pricing_plan_id":"cebpf4jnsgd1na2vs0mg"},{"bike_id":"2455d23a-da4b-4ef8-9230-772645e235d6","system_id":"levelo_inurba_marseille","lat":43.27896,"lon":5.38015,"is_reserved":false,"is_disabled":false,"rental_uris":{"android":"levelo://app?vid=2455d23a-da4b-4ef8-9230-772645e235d6","ios":"levelo://app?vid=2455d23a-da4b-4ef8-9230-772645e235d6"},"vehicle_type_id":"4","last_reported":1747584650,"current_range_meters":24400,"station_id":"ce4bhf92rcd13ifvqf50","pricing_plan_id":"cebpf4jnsgd1na2vs0mg"},{"bike_id":"c7fa045b-8abd-4bd8-ac58-69864d07dca7","system_id":"levelo_inurba_marseille","lat":43.321035,"lon":5.367904,"is_reserved":false,"is_disabled":false,"rental_uris":{"android":"levelo://app?vid=c7fa045b-8abd-4bd8-ac58-69864d07dca7","ios":"levelo://app?vid=c7fa045b-8abd-4bd8-ac58-69864d07dca7"},"vehicle_type_id":"4","last_reported":1747584650,"current_range_meters":24400,"station_id":"ce4bhrh2rcd13ifvqhug","pricing_plan_id":"cebpf4jnsgd1na2vs0mg"},{"bike_id":"9e1b089b-7cfb-49b3-a9dd-bd24aff76966","system_id":"levelo_inurba_marseille","lat":43.31129,"lon":5.37008,"is_reserved":false,"is_disabled":false,"rental_uris":{"android":"levelo://app?vid=9e1b089b-7cfb-49b3-a9dd-bd24aff76966","ios":"levelo://app?vid=9e1b089b-7cfb-49b3-a9dd-bd24aff76966"},"vehicle_type_id":"4","last_reported":1747584650,"current_range_meters":24800,"station_id":"","pricing_plan_id":"cebpf4jnsgd1na2vs0mg"},{"bike_id":"a3af470b-469d-45cd-87e0-74a99650bbb8","system_id":"levelo_inurba_marseille","lat":43.32735,"lon":5.39179,"is_reserved":false,"is_disabled":false,"rental_uris":{"android":"levelo://app?vid=a3af470b-469d-45cd-87e0-74a99650bbb8","ios":"levelo://app?vid=a3af470b-469d-45cd-87e0-74a99650bbb8"},"vehicle_type_id":"4","last_reported":1747584650,"current_range_meters":24800,"station_id":"","pricing_plan_id":"cebpf4jnsgd1na2vs0mg"},{"bike_id":"61dc3dd1-1fe1-41d4-9003-78ad4834a3a2","system_id":"levelo_inurba_marseille","lat":43.30183,"lon":5.3661,"is_reserved":false,"is_disabled":false,"rental_uris":{"android":"levelo://app?vid=61dc3dd1-1fe1-41d4-9003-78ad4834a3a2","ios":"levelo://app?vid=61dc3dd1-1fe1-41d4-9003-78ad4834a3a2"},"vehicle_type_id":"4","last_reported":1747584650,"current_range_meters":24800,"station_id":"ce4bgrh2rcd13ifvqc8g","pricing_plan_id":"cebpf4jnsgd1na2vs0mg"},{"bike_id":"315a4afa-4b1f-4cf0-99f1-aaa9787c4398","system_id":"levelo_inurba_marseille","lat":43.29017,"lon":5.38359,"is_reserved":false,"is_disabled":false,"rental_uris":{"android":"levelo://app?vid=315a4afa-4b1f-4cf0-99f1-aaa9787c4398","ios":"levelo://app?vid=315a4afa-4b1f-4cf0-99f1-aaa9787c4398"},"vehicle_type_id":"4","last_reported":1747584650,"current_range_meters":25200,"station_id":"","pricing_plan_id":"cebpf4jnsgd1na2vs0mg"},{"bike_id":"2375ecae-1424-4fa8-b5f9-a0ea9b27ee94","system_id":"levelo_inurba_marseille","lat":43.28472,"lon":5.38406,"is_reserved":false,"is_disabled":false,"rental_uris":{"android":"levelo://app?vid=2375ecae-1424-4fa8-b5f9-a0ea9b27ee94","ios":"levelo://app?vid=2375ecae-1424-4fa8-b5f9-a0ea9b27ee94"},"vehicle_type_id":"4","last_reported":1747584650,"current_range_meters":25200,"station_id":"ce4bh512rcd13ifvqe3g","pricing_plan_id":"cebpf4jnsgd1na2vs0mg"},{"bike_id":"f4b55520-352e-42b8-8474-21f82e0dbf8e","system_id":"levelo_inurba_marseille","lat":43.25004,"lon":5.38926,"is_reserved":false,"is_disabled":false,"rental_uris":{"android":"levelo://app?vid=f4b55520-352e-42b8-8474-21f82e0dbf8e","ios":"levelo://app?vid=f4b55520-352e-42b8-8474-21f82e0dbf8e"},"vehicle_type_id":"4","last_reported":1747584650,"current_range_meters":25200,"station_id":"ce4bhgp2rcd13ifvqfd0","pricing_plan_id":"cebpf4jnsgd1na2vs0mg"},{"bike_id":"4a30becd-def1-485c-9151-5fb72b0b6dfa","system_id":"levelo_inurba_marseille","lat":43.26486,"lon":5.39555,"is_reserved":false,"is_disabled":false,"rental_uris":{"android":"levelo://app?vid=4a30becd-def1-485c-9151-5fb72b0b6dfa","ios":"levelo://app?vid=4a30becd-def1-485c-9151-5fb72b0b6dfa"},"vehicle_type_id":"4","last_reported":1747584650,"current_range_meters":25200,"station_id":"ce4bhi12rcd13ifvqfq0","pricing_plan_id":"cebpf4jnsgd1na2vs0mg"},{"bike_id":"8abaa1d6-1386-4bc7-9119-3e06bfd2143e","system_id":"levelo_inurba_marseille","lat":43.31502,"lon":5.37055,"is_reserved":false,"is_disabled":false,"rental_uris":{"android":"levelo://app?vid=8abaa1d6-1386-4bc7-9119-3e06bfd2143e","ios":"levelo://app?vid=8abaa1d6-1386-4bc7-9119-3e06bfd2143e"},"vehicle_type_id":"4","last_reported":1747584650,"current_range_meters":25600,"station_id":"","pricing_plan_id":"cebpf4jnsgd1na2vs0mg"},{"bike_id":"87c90254-ceb8-42e2-a027-40028200d0a5","system_id":"levelo_inurba_marseille","lat":43.31693,"lon":5.37779,"is_reserved":false,"is_disabled":false,"rental_uris":{"android":"levelo://app?vid=87c90254-ceb8-42e2-a027-40028200d0a5","ios":"levelo://app?vid=87c90254-ceb8-42e2-a027-40028200d0a5"},"vehicle_type_id":"4","last_reported":1747584650,"current_range_meters":25600,"station_id":"","pricing_plan_id":"cebpf4jnsgd1na2vs0mg"},{"bike_id":"a6b9332c-9d70-4f48-83e6-83aba75d1ba1","system_id":"levelo_inurba_marseille","lat":43.292717,"lon":5.3844,"is_reserved":false,"is_disabled":false,"rental_uris":{"android":"levelo://app?vid=a6b9332c-9d70-4f48-83e6-83aba75d1ba1","ios":"levelo://app?vid=a6b9332c-9d70-4f48-83e6-83aba75d1ba1"},"vehicle_type_id":"4","last_reported":1747584650,"current_range_meters":25600,"station_id":"ce4bh692rcd13ifvqea0","pricing_plan_id":"cebpf4jnsgd1na2vs0mg"},{"bike_id":"c94428f4-82ba-46aa-a1db-fc02d0effb5e","system_id":"levelo_inurba_marseille","lat":43.25498,"lon":5.37651,"is_reserved":false,"is_disabled":false,"rental_uris":{"android":"levelo://app?vid=c94428f4-82ba-46aa-a1db-fc02d0effb5e","ios":"levelo://app?vid=c94428f4-82ba-46aa-a1db-fc02d0effb5e"},"vehicle_type_id":"4","last_reported":1747584650,"current_range_meters":25600,"station_id":"ce4bhh12rcd13ifvqff0","pricing_plan_id":"cebpf4jnsgd1na2vs0mg"},{"bike_id":"d2c6b43e-73b6-4e1e-9b83-c94e993195bc","system_id":"levelo_inurba_marseille","lat":43.337614,"lon":5.374528,"is_reserved":false,"is_disabled":false,"rental_uris":{"android":"levelo://app?vid=d2c6b43e-73b6-4e1e-9b83-c94e993195bc","ios":"levelo://app?vid=d2c6b43e-73b6-4e1e-9b83-c94e993195bc"},"vehicle_type_id":"4","last_reported":1747584650,"current_range_meters":26000,"station_id":"","pricing_plan_id":"cebpf4jnsgd1na2vs0mg"},{"bike_id":"e84065f7-cebd-4ce5-88ad-c964b7d5fcec","system_id":"levelo_inurba_marseille","lat":43.284432,"lon":5.35903,"is_reserved":false,"is_disabled":false,"rental_uris":{"android":"levelo://app?vid=e84065f7-cebd-4ce5-88ad-c964b7d5fcec","ios":"levelo://app?vid=e84065f7-cebd-4ce5-88ad-c964b7d5fcec"},"vehicle_type_id":"4","last_reported":1747584650,"current_range_meters":26000,"station_id":"ce4bhah2rcd13ifvqei0","pricing_plan_id":"cebpf4jnsgd1na2vs0mg"},{"bike_id":"04b6019a-424f-45d0-8c55-b6499c72efc8","system_id":"levelo_inurba_marseille","lat":43.248122,"lon":5.374572,"is_reserved":false,"is_disabled":false,"rental_uris":{"android":"levelo://app?vid=04b6019a-424f-45d0-8c55-b6499c72efc8","ios":"levelo://app?vid=04b6019a-424f-45d0-8c55-b6499c72efc8"},"vehicle_type_id":"4","last_reported":1747584650,"current_range_meters":26000,"station_id":"ce4bhgh2rcd13ifvqfb0","pricing_plan_id":"cebpf4jnsgd1na2vs0mg"},{"bike_id":"fa6d5f42-1c82-4cdf-aa12-5379d032f3c9","system_id":"levelo_inurba_marseille","lat":43.29893,"lon":5.43669,"is_reserved":false,"is_disabled":false,"rental_uris":{"android":"levelo://app?vid=fa6d5f42-1c82-4cdf-aa12-5379d032f3c9","ios":"levelo://app?vid=fa6d5f42-1c82-4cdf-aa12-5379d032f3c9"},"vehicle_type_id":"4","last_reported":1747584650,"current_range_meters":26000,"station_id":"ce4bhpp2rcd13ifvqhfg","pricing_plan_id":"cebpf4jnsgd1na2vs0mg"},{"bike_id":"04f9aec8-277e-46d3-848a-8de8882aea28","system_id":"levelo_inurba_marseille","lat":43.258133,"lon":5.376088,"is_reserved":false,"is_disabled":false,"rental_uris":{"android":"levelo://app?vid=04f9aec8-277e-46d3-848a-8de8882aea28","ios":"levelo://app?vid=04f9aec8-277e-46d3-848a-8de8882aea28"},"vehicle_type_id":"4","last_reported":1747584650,"current_range_meters":26800,"station_id":"","pricing_plan_id":"cebpf4jnsgd1na2vs0mg"},{"bike_id":"c56459d4-c95a-455d-b82c-9e2b88513c14","system_id":"levelo_inurba_marseille","lat":43.291931,"lon":5.358022,"is_reserved":false,"is_disabled":false,"rental_uris":{"android":"levelo://app?vid=c56459d4-c95a-455d-b82c-9e2b88513c14","ios":"levelo://app?vid=c56459d4-c95a-455d-b82c-9e2b88513c14"},"vehicle_type_id":"4","last_reported":1747584650,"current_range_meters":26800,"station_id":"ce4bhb12rcd13ifvqel0","pricing_plan_id":"cebpf4jnsgd1na2vs0mg"},{"bike_id":"46daa1c6-2d98-4575-b7f5-861cbde66f44","system_id":"levelo_inurba_marseille","lat":43.25828,"lon":5.376,"is_reserved":false,"is_disabled":false,"rental_uris":{"android":"levelo://app?vid=46daa1c6-2d98-4575-b7f5-861cbde66f44","ios":"levelo://app?vid=46daa1c6-2d98-4575-b7f5-861cbde66f44"},"vehicle_type_id":"4","last_reported":1747584650,"current_range_meters":27200,"station_id":"","pricing_plan_id":"cebpf4jnsgd1na2vs0mg"},{"bike_id":"e31833c9-3629-4b2f-810c-c09df0eb266c","system_id":"levelo_inurba_marseille","lat":43.33751,"lon":5.37509,"is_reserved":false,"is_disabled":false,"rental_uris":{"android":"levelo://app?vid=e31833c9-3629-4b2f-810c-c09df0eb266c","ios":"levelo://app?vid=e31833c9-3629-4b2f-810c-c09df0eb266c"},"vehicle_type_id":"4","last_reported":1747584650,"current_range_meters":27200,"station_id":"","pricing_plan_id":"cebpf4jnsgd1na2vs0mg"},{"bike_id":"328feb62-1b8f-46e0-9120-838934815580","system_id":"levelo_inurba_marseille","lat":43.28926,"lon":5.38388,"is_reserved":false,"is_disabled":false,"rental_uris":{"android":"levelo://app?vid=328feb62-1b8f-46e0-9120-838934815580","ios":"levelo://app?vid=328feb62-1b8f-46e0-9120-838934815580"},"vehicle_type_id":"4","last_reported":1747584650,"current_range_meters":27200,"station_id":"ce4bh612rcd13ifvqe6g","pricing_plan_id":"cebpf4jnsgd1na2vs0mg"},