{"last_updated":1760811183,"ttl":60,"version":"2.2","data":{"bikes":[{"bike_id":"25120ba4-ded2-4afc-97c7-676dd1b8dc6a","system_id":"levelo_inurba_marseille","lat":43.225323,"lon":5.348329,"is_reserved":false,"is_disabled":false,"rental_uris":{"android":"levelo://app?vid=25120ba4-ded2-4afc-97c7-676dd1b8dc6a","ios":"levelo://app?vid=25120ba4-ded2-4afc-97c7-676dd1b8dc6a"},"vehicle_type_id":"4","last_reported":1760811183,"current_range_meters":2800,"station_id":"","pricing_plan_id":"cebpf4jnsgd1na2vs0mg"},{"bike_id":"df167aa3-5dcc-4e45-96e7-26232ebf1f6a","system_id":"levelo_inurba_marseille","lat":43.30805,"lon":5.43532,"is_reserved":false,"is_disabled":false,"rental_uris":{"android":"levelo://app?vid=df167aa3-5dcc-4e45-96e7-26232ebf1f6a","ios":"levelo://app?vid=df167aa3-5dcc-4e45-96e7-26232ebf1f6a"},"vehicle_type_id":"4","last_reported":1760811183,"current_range_meters":2800,"station_id":"ce4bhph2rcd13ifvqheg","pricing_plan_id":"cebpf4jnsgd1na2vs0mg"},{"bike_id":"33de5793-85a5-48b8-bb7c-0ec374b034ca","system_id":"levelo_inurba_marseille","lat":43.22536,"lon":5.34845,"is_reserved":false,"is_disabled":true,"rental_uris":{"android":"levelo://app?vid=33de5793-85a5-48b8-bb7c-0ec374b034ca","ios":"levelo://app?vid=33de5793-85a5-48b8-bb7c-0ec374b034ca"},"vehicle_type_id":"4","last_reported":1760811183,"current_range_meters":2800,"station_id":"","pricing_plan_id":"cebpf4jnsgd1na2vs0mg"},{"bike_id":"eea3b747-363b-4c1f-af1d-b470b215be1b","system_id":"levelo_inurba_marseille","lat":43.29378,"lon":5.37845,"is_reserved":false,"is_disabled":false,"rental_uris":{"android":"levelo://app?vid=eea3b747-363b-4c1f-af1d-b470b215be1b","ios":"levelo://app?vid=eea3b747-363b-4c1f-af1d-b470b215be1b"},"vehicle_type_id":"4","last_reported":1760811183,"current_range_meters":2800,"station_id":"ce4bgjh2rcd13ifvqbf0","pricing_plan_id":"cebpf4jnsgd1na2vs0mg"},{"bike_id":"121f55c8-5a85-4142-a96c-bf52eb873442","system_id":"levelo_inurba_marseille","lat":43.304597,"lon":5.369257,"is_reserved":false,"is_disabled":false,"rental_uris":{"android":"levelo://app?vid=121f55c8-5a85-4142-a96c-bf52eb873442","ios":"levelo://app?vid=121f55c8-5a85-4142-a96c-bf52eb873442"},"vehicle_type_id":"4","last_reported":1760811183,"current_range_meters":2800,"station_id":"","pricing_plan_id":"cebpf4jnsgd1na2vs0mg"},{"bike_id":"26982d45-87a3-43c2-a6f3-b6f07b931097","system_id":"levelo_inurba_marseille","lat":43.29491,"lon":5.4331,"is_reserved":false,"is_disabled":false,"rental_uris":{"android":"levelo://app?vid=26982d45-87a3-43c2-a6f3-b6f07b931097","ios":"levelo://app?vid=26982d45-87a3-43c2-a6f3-b6f07b931097"},"vehicle_type_id":"4","last_reported":1760811183,"current_range_meters":2800,"station_id":"st_d3j5ugp08ojc73fj9d10","pricing_plan_id":"cebpf4jnsgd1na2vs0mg"},{"bike_id":"e081c8d2-95dc-47dc-912f-90026f555914","system_id":"levelo_inurba_marseille","lat":43.305089,"lon":5.414843,"is_reserved":false,"is_disabled":false,"rental_uris":{"android":"levelo://app?vid=e081c8d2-95dc-47dc-912f-90026f555914","ios":"levelo://app?vid=e081c8d2-95dc-47dc-912f-90026f555914"},"vehicle_type_id":"4","last_reported":1760811183,"current_range_meters":2800,"station_id":"","pricing_plan_id":"cebpf4jnsgd1na2vs0mg"},{"bike_id":"d849ad80-5ed6-494e-8d59-e8079751f1c8","system_id":"levelo_inurba_marseille","lat":43.33354,"lon":5.43068,"is_reserved":false,"is_disabled":false,"rental_uris":{"android":"levelo://app?vid=d849ad80-5ed6-494e-8d59-e8079751f1c8","ios":"levelo://app?vid=d849ad80-5ed6-494e-8d59-e8079751f1c8"},"vehicle_type_id":"4","last_reported":1760811183,"current_range_meters":2800,"station_id":"","pricing_plan_id":"cebpf4jnsgd1na2vs0mg"},{"bike_id":"26de53a4-69ca-4ddf-8ba5-41fdfb2f0833","system_id":"levelo_inurba_marseille","lat":43.29802,"lon":5.38108,"is_reserved":false,"is_disabled":false,"rental_uris":{"android":"levelo://app?vid=26de53a4-69ca-4ddf-8ba5-41fdfb2f0833","ios":"levelo://app?vid=26de53a4-69ca-4ddf-8ba5-41fdfb2f0833"},"vehicle_type_id":"4","last_reported":1760811183,"current_range_meters":2800,"station_id":"ce4bgip2rcd13ifvqbb0","pricing_plan_id":"cebpf4jnsgd1na2vs0mg"},{"bike_id":"eadd2edf-ad22-4637-86e0-c77911baf1f6","system_id":"levelo_inurba_marseille","lat":43.21197,"lon":5.3508,"is_reserved":false,"is_disabled":true,"rental_uris":{"android":"levelo://app?vid=eadd2edf-ad22-4637-86e0-c77911baf1f6","ios":"levelo://app?vid=eadd2edf-ad22-4637-86e0-c77911baf1f6"},"vehicle_type_id":"4","last_reported":1760811183,"current_range_meters":3200,"station_id":"st_cvj6sg6p6f1abm77japg","pricing_plan_id":"cebpf4jnsgd1na2vs0mg"},{"bike_id":"73efeeb3-9da7-4b25-9561-a9517ea8d6d5","system_id":"levelo_inurba_marseille","lat":43.29262,"lon":5.38442,"is_reserved":false,"is_disabled":false,"rental_uris":{"android":"levelo://app?vid=73efeeb3-9da7-4b25-9561-a9517ea8d6d5","ios":"levelo://app?vid=73efeeb3-9da7-4b25-9561-a9517ea8d6d5"},"vehicle_type_id":"4","last_reported":1760811183,"current_range_meters":3200,"station_id":"ce4bh692rcd13ifvqea0","pricing_plan_id":"cebpf4jnsgd1na2vs0mg"},{"bike_id":"7ec8b36f-6f1a-41f0-a03a-a45e51acb027","system_id":"levelo_inurba_marseille","lat":43.21733,"lon":5.34608,"is_reserved":false,"is_disabled":true,"rental_uris":{"android":"levelo://app?vid=7ec8b36f-6f1a-41f0-a03a-a45e51acb027","ios":"levelo://app?vid=7ec8b36f-6f1a-41f0-a03a-a45e51acb027"},"vehicle_type_id":"4","last_reported":1760811183,"current_range_meters":3200,"station_id":"st_cvj6r9ubvosntc0bgbag","pricing_plan_id":"cebpf4jnsgd1na2vs0mg"},{"bike_id":"44c82552-6eb9-4091-bfee-9b7daeced1e2","system_id":"levelo_inurba_marseille","lat":43.295348,"lon":5.385447,"is_reserved":false,"is_disabled":false,"rental_uris":{"android":"levelo://app?vid=44c82552-6eb9-4091-bfee-9b7daeced1e2","ios":"levelo://app?vid=44c82552-6eb9-4091-bfee-9b7daeced1e2"},"vehicle_type_id":"4","last_reported":1760811183,"current_range_meters":3200,"station_id":"ce4bgih2rcd13ifvqba0","pricing_plan_id":"cebpf4jnsgd1na2vs0mg"},{"bike_id":"3d348067-c21e-43c0-b303-10de3bcff73d","system_id":"levelo_inurba_marseille","lat":43.2706,"lon":5.4026,"is_reserved":false,"is_disabled":false,"rental_uris":{"android":"levelo://app?vid=3d348067-c21e-43c0-b303-10de3bcff73d","ios":"levelo://app?vid=3d348067-c21e-43c0-b303-10de3bcff73d"},"vehicle_type_id":"4","last_reported":1760811183,"current_range_meters":3200,"station_id":"ce4bhk92rcd13ifvqgc0","pricing_plan_id":"cebpf4jnsgd1na2vs0mg"},{"bike_id":"3598b383-579b-47d9-89b6-df786d16c45f","system_id":"levelo_inurba_marseille","lat":43.29423,"lon":5.37503,"is_reserved":false,"is_disabled":false,"rental_uris":{"android":"levelo://app?vid=3598b383-579b-47d9-89b6-df786d16c45f","ios":"levelo://app?vid=3598b383-579b-47d9-89b6-df786d16c45f"},"vehicle_type_id":"4","last_reported":1760811183,"current_range_meters":3200,"station_id":"","pricing_plan_id":"cebpf4jnsgd1na2vs0mg"},{"bike_id":"48fdab8e-3bfa-435c-9fda-5169a91bce66","system_id":"levelo_inurba_marseille","lat":43.269392,"lon":5.4025,"is_reserved":false,"is_disabled":false,"rental_uris":{"android":"levelo://app?vid=48fdab8e-3bfa-435c-9fda-5169a91bce66","ios":"levelo://app?vid=48fdab8e-3bfa-435c-9fda-5169a91bce66"},"vehicle_type_id":"4","last_reported":1760811183,"current_range_meters":3200,"station_id":"cjm6bp8fraef2m0cb0m0","pricing_plan_id":"cebpf4jnsgd1na2vs0mg"},{"bike_id":"7a642248-3e9d-4953-a5a8-a200fc625e26","system_id":"levelo_inurba_marseille","lat":43.30593,"lon":5.37238,"is_reserved":false,"is_disabled":false,"rental_uris":{"android":"levelo://app?vid=7a642248-3e9d-4953-a5a8-a200fc625e26","ios":"levelo://app?vid=7a642248-3e9d-4953-a5a8-a200fc625e26"},"vehicle_type_id":"4","last_reported":1760811183,"current_range_meters":3600,"station_id":"ce4bgqh2rcd13ifvqc4g","pricing_plan_id":"cebpf4jnsgd1na2vs0mg"},{"bike_id":"0dec39c6-9804-4898-a159-9bc3972cbab3","system_id":"levelo_inurba_marseille","lat":43.26787,"lon":5.39427,"is_reserved":false,"is_disabled":false,"rental_uris":{"android":"levelo://app?vid=0dec39c6-9804-4898-a159-9bc3972cbab3","ios":"levelo://app?vid=0dec39c6-9804-4898-a159-9bc3972cbab3"},"vehicle_type_id":"4","last_reported":1760811183,"current_range_meters":3600,"station_id":"ce4bhh12rcd13ifvqfg0","pricing_plan_id":"cebpf4jnsgd1na2vs0mg"},{"bike_id":"e9c8911f-6661-4330-b933-c7ef20dc0f45","system_id":"levelo_inurba_marseille","lat":43.28133,"lon":5.35026,"is_reserved":false,"is_disabled":false,"rental_uris":{"android":"levelo://app?vid=e9c8911f-6661-4330-b933-c7ef20dc0f45","ios":"levelo://app?vid=e9c8911f-6661-4330-b933-c7ef20dc0f45"},"vehicle_type_id":"4","last_reported":1760811183,"current_range_meters":3600,"station_id":"","pricing_plan_id":"cebpf4jnsgd1na2vs0mg"},{"bike_id":"97ea0567-68ea-466f-83f9-d572579f8c78","system_id":"levelo_inurba_marseille","lat":43.2959,"lon":5.38098,"is_reserved":false,"is_disabled":false,"rental_uris":{"android":"levelo://app?vid=97ea0567-68ea-466f-83f9-d572579f8c78","ios":"levelo://app?vid=97ea0567-68ea-466f-83f9-d572579f8c78"},"vehicle_type_id":"4","last_reported":1760811183,"current_range_meters":3600,"station_id":"ce4bgl12rcd13ifvqbo0","pricing_plan_id":"cebpf4jnsgd1na2vs0mg"},{"bike_id":"f2e4239f-4073-4555-a31b-67ba97d4f956","system_id":"levelo_inurba_marseille","lat":43.26784,"lon":5.39414,"is_reserved":false,"is_disabled":false,"rental_uris":{"android":"levelo://app?vid=f2e4239f-4073-4555-a31b-67ba97d4f956","ios":"levelo://app?vid=f2e4239f-4073-4555-a31b-67ba97d4f956"},"vehicle_type_id":"4","last_reported":1760811183,"current_range_meters":3600,"station_id":"ce4bhh12rcd13ifvqfg0","pricing_plan_id":"cebpf4jnsgd1na2vs0mg"},{"bike_id":"91f9416e-0677-4952-bc6f-318d1024faaf","system_id":"levelo_inurba_marseille","lat":43.2734,"lon":5.39095,"is_reserved":false,"is_disabled":false,"rental_uris":{"android":"levelo://app?vid=91f9416e-0677-4952-bc6f-318d1024faaf","ios":"levelo://app?vid=91f9416e-0677-4952-bc6f-318d1024faaf"},"vehicle_type_id":"4","last_reported":1760811183,"current_range_meters":3600,"station_id":"ce4bhgp2rcd13ifvqfe0","pricing_plan_id":"cebpf4jnsgd1na2vs0mg"},{"bike_id":"b0dadc7f-d7f9-4e80-84db-ae6aa1ee3e90","system_id":"levelo_inurba_marseille","lat":43.29287,"lon":5.38395,"is_reserved":false,"is_disabled":false,"rental_uris":{"android":"levelo://app?vid=b0dadc7f-d7f9-4e80-84db-ae6aa1ee3e90","ios":"levelo://app?vid=b0dadc7f-d7f9-4e80-84db-ae6aa1ee3e90"},"vehicle_type_id":"4","last_reported":1760811183,"current_range_meters":3600,"station_id":"ce4bh692rcd13ifvqea0","pricing_plan_id":"cebpf4jnsgd1na2vs0mg"},{"bike_id":"c9be4de4-72be-41da-94a2-9653635d50e6","system_id":"levelo_inurba_marseille","lat":43.292548,"lon":5.401279,"is_reserved":false,"is_disabled":false,"rental_uris":{"android":"levelo://app?vid=c9be4de4-72be-41da-94a2-9653635d50e6","ios":"levelo://app?vid=c9be4de4-72be-41da-94a2-9653635d50e6"},"vehicle_type_id":"4","last_reported":1760811183,"current_range_meters":3600,"station_id":"ce4bh312rcd13ifvqdk0","pricing_plan_id":"cebpf4jnsgd1na2vs0mg"},{"bike_id":"942ad60f-c1f8-4be8-9238-123cbd84b6d9","system_id":"levelo_inurba_marseille","lat":43.27217,"lon":5.39186,"is_reserved":false,"is_disabled":false,"rental_uris":{"android":"levelo://app?vid=942ad60f-c1f8-4be8-9238-123cbd84b6d9","ios":"levelo://app?vid=942ad60f-c1f8-4be8-9238-123cbd84b6d9"},"vehicle_type_id":"4","last_reported":1760811183,"current_range_meters":4000,"station_id":"ce4bhhp2rcd13ifvqfm0","pricing_plan_id":"cebpf4jnsgd1na2vs0mg"},{"bike_id":"b23419ca-391f-4619-8992-f1240fdcf396","system_id":"levelo_inurba_marseille","lat":43.24629,"lon":5.43146,"is_reserved":false,"is_disabled":false,"rental_uris":{"android":"levelo://app?vid=b23419ca-391f-4619-8992-f1240fdcf396","ios":"levelo://app?vid=b23419ca-391f-4619-8992-f1240fdcf396"},"vehicle_type_id":"4","last_reported":1760811183,"current_range_meters":4000,"station_id":"st_d2m6c4gdas8pm72e190g","pricing_plan_id":"cebpf4jnsgd1na2vs0mg"},{"bike_id":"1c400808-3eed-46b3-a252-e7edeff346ab","system_id":"levelo_inurba_marseille","lat":43.29531,"lon":5.38551,"is_reserved":false,"is_disabled":false,"rental_uris":{"android":"levelo://app?vid=1c400808-3eed-46b3-a252-e7edeff346ab","ios":"levelo://app?vid=1c400808-3eed-46b3-a252-e7edeff346ab"},"vehicle_type_id":"4","last_reported":1760811183,"current_range_meters":4000,"station_id":"ce4bgih2rcd13ifvqba0","pricing_plan_id":"cebpf4jnsgd1na2vs0mg"},{"bike_id":"b700afc3-c2a6-42f0-8446-c86dbbb5bede","system_id":"levelo_inurba_marseille","lat":43.295959,"lon":5.380998,"is_reserved":false,"is_disabled":false,"rental_uris":{"android":"levelo://app?vid=b700afc3-c2a6-42f0-8446-c86dbbb5bede","ios":"levelo://app?vid=b700afc3-c2a6-42f0-8446-c86dbbb5bede"},"vehicle_type_id":"4","last_reported":1760811183,"current_range_meters":4000,"station_id":"ce4bgl12rcd13ifvqbo0","pricing_plan_id":"cebpf4jnsgd1na2vs0mg"},{"bike_id":"e257a5c9-b99e-4af1-ac4f-b017f1c8b418","system_id":"levelo_inurba_marseille","lat":43.33759,"lon":5.37438,"is_reserved":false,"is_disabled":false,"rental_uris":{"android":"levelo://app?vid=e257a5c9-b99e-4af1-ac4f-b017f1c8b418","ios":"levelo://app?vid=e257a5c9-b99e-4af1-ac4f-b017f1c8b418"},"vehicle_type_id":"4","last_reported":1760811183,"current_range_meters":4000,"station_id":"","pricing_plan_id":"cebpf4jnsgd1na2vs0mg"},{"bike_id":"a31901fd-1144-4c2f-96ad-e519ba7d4d16","system_id":"levelo_inurba_marseille","lat":43.23141,"lon":5.437113,"is_reserved":false,"is_disabled":true,"rental_uris":{"android":"levelo://app?vid=a31901fd-1144-4c2f-96ad-e519ba7d4d16","ios":"levelo://app?vid=a31901fd-1144-4c2f-96ad-e519ba7d4d16"},"vehicle_type_id":"4","last_reported":1760811183,"current_range_meters":4000,"station_id":"ce4bhmp2rcd13ifvqgog","pricing_plan_id":"cebpf4jnsgd1na2vs0mg"},{"bike_id":"f7f0848b-26ee-4dd0-bf37-1c8231c880fd","system_id":"levelo_inurba_marseille","lat":43.26784,"lon":5.39416,"is_reserved":false,"is_disabled":false,"rental_uris":{"android":"levelo://app?vid=f7f0848b-26ee-4dd0-bf37-1c8231c880fd","ios":"levelo://app?vid=f7f0848b-26ee-4dd0-bf37-1c8231c880fd"},"vehicle_type_id":"4","last_reported":1760811183,"current_range_meters":4000,"station_id":"ce4bhh12rcd13ifvqfg0","pricing_plan_id":"cebpf4jnsgd1na2vs0mg"},{"bike_id":"f983c647-dd72-450e-a99e-c40002cd90d8","system_id":"levelo_inurba_marseille","lat":43.2848,"lon":5.384149,"is_reserved":false,"is_disabled":false,"rental_uris":{"android":"levelo://app?vid=f983c647-dd72-450e-a99e-c40002cd90d8","ios":"levelo://app?vid=f983c647-dd72-450e-a99e-c40002cd90d8"},"vehicle_type_id":"4","last_reported":1760811183,"current_range_meters":4000,"station_id":"ce4bh512rcd13ifvqe3g","pricing_plan_id":"cebpf4jnsgd1na2vs0mg"},{"bike_id":"ea7cb060-d598-4dde-8fb1-5edc70aa26d8","system_id":"levelo_inurba_marseille","lat":43.2648,"lon":5.39558,"is_reserved":false,"is_disabled":true,"rental_uris":{"android":"levelo://app?vid=ea7cb060-d598-4dde-8fb1-5edc70aa26d8","ios":"levelo://app?vid=ea7cb060-d598-4dde-8fb1-5edc70aa26d8"},"vehicle_type_id":"4","last_reported":1760811183,"current_range_meters":4000,"station_id":"ce4bhi12rcd13ifvqfq0","pricing_plan_id":"cebpf4jnsgd1na2vs0mg"},{"bike_id":"2d564d4d-9dd0-4754-849b-d18cf373f22d","system_id":"levelo_inurba_marseille","lat":43.29262,"lon":5.38442,"is_reserved":false,"is_disabled":false,"rental_uris":{"android":"levelo://app?vid=2d564d4d-9dd0-4754-849b-d18cf373f22d","ios":"levelo://app?vid=2d564d4d-9dd0-4754-849b-d18cf373f22d"},"vehicle_type_id":"4","last_reported":1760811183,"current_range_meters":4000,"station_id":"ce4bh692rcd13ifvqea0","pricing_plan_id":"cebpf4jnsgd1na2vs0mg"},{"bike_id":"ce87f571-de00-47bf-ad06-62e300dc239f","system_id":"levelo_inurba_marseille","lat":43.29271,"lon":5.38441,"is_reserved":false,"is_disabled":false,"rental_uris":{"android":"levelo://app?vid=ce87f571-de00-47bf-ad06-62e300dc239f","ios":"levelo://app?vid=ce87f571-de00-47bf-ad06-62e300dc239f"},"vehicle_type_id":"4","last_reported":1760811183,"current_range_meters":4400,"station_id":"ce4bh692rcd13ifvqea0","pricing_plan_id":"cebpf4jnsgd1na2vs0mg"},{"bike_id":"be09ed19-acf9-4d27-b8e6-0d53eaf7ff47","system_id":"levelo_inurba_marseille","lat":43.27212,"lon":5.39187,"is_reserved":false,"is_disabled":false,"rental_uris":{"android":"levelo://app?vid=be09ed19-acf9-4d27-b8e6-0d53eaf7ff47","ios":"levelo://app?vid=be09ed19-acf9-4d27-b8e6-0d53eaf7ff47"},"vehicle_type_id":"4","last_reported":1760811183,"current_range_meters":4400,"station_id":"ce4bhhp2rcd13ifvqfm0","pricing_plan_id":"cebpf4jnsgd1na2vs0mg"},{"bike_id":"e34111c9-02d2-4250-b2e8-d4e8837ecbc3","system_id":"levelo_inurba_marseille","lat":43.28464,"lon":5.35886,"is_reserved":false,"is_disabled":false,"rental_uris":{"android":"levelo://app?vid=e34111c9-02d2-4250-b2e8-d4e8837ecbc3","ios":"levelo://app?vid=e34111c9-02d2-4250-b2e8-d4e8837ecbc3"},"vehicle_type_id":"4","last_reported":1760811183,"current_range_meters":4400,"station_id":"ce4bhah2rcd13ifvqei0","pricing_plan_id":"cebpf4jnsgd1na2vs0mg"},{"bike_id":"ca14c915-0361-4c0d-9307-5c9fbc4de036","system_id":"levelo_inurba_marseille","lat":43.32355,"lon":5.36735,"is_reserved":false,"is_disabled":false,"rental_uris":{"android":"levelo://app?vid=ca14c915-0361-4c0d-9307-5c9fbc4de036","ios":"levelo://app?vid=ca14c915-0361-4c0d-9307-5c9fbc4de036"},"vehicle_type_id":"4","last_reported":1760811183,"current_range_meters":4400,"station_id":"ce4bhsh2rcd13ifvqi2g","pricing_plan_id":"cebpf4jnsgd1na2vs0mg"},{"bike_id":"b1c94c36-5444-4af9-8766-3df9e112f13e","system_id":"levelo_inurba_marseille","lat":43.26791,"lon":5.39408,"is_reserved":false,"is_disabled":false,"rental_uris":{"android":"levelo://app?vid=b1c94c36-5444-4af9-8766-3df9e112f13e","ios":"levelo://app?vid=b1c94c36-5444-4af9-8766-3df9e112f13e"},"vehicle_type_id":"4","last_reported":1760811183,"current_range_meters":4400,"station_id":"ce4bhh12rcd13ifvqfg0","pricing_plan_id":"cebpf4jnsgd1na2vs0mg"},{"bike_id":"6af86244-5655-4827-b8e7-5e0131f4833c","system_id":"levelo_inurba_marseille","lat":43.28723,"lon":5.37576,"is_reserved":false,"is_disabled":false,"rental_uris":{"android":"levelo://app?vid=6af86244-5655-4827-b8e7-5e0131f4833c","ios":"levelo://app?vid=6af86244-5655-4827-b8e7-5e0131f4833c"},"vehicle_type_id":"4","last_reported":1760811183,"current_range_meters":4400,"station_id":"","pricing_plan_id":"cebpf4jnsgd1na2vs0mg"},{"bike_id":"6d1bf4b0-2b6c-451d-989b-ffa708e6a5c0","system_id":"levelo_inurba_marseille","lat":43.2953,"lon":5.38548,"is_reserved":false,"is_disabled":false,"rental_uris":{"android":"levelo://app?vid=6d1bf4b0-2b6c-451d-989b-ffa708e6a5c0","ios":"levelo://app?vid=6d1bf4b0-2b6c-451d-989b-ffa708e6a5c0"},"vehicle_type_id":"4","last_reported":1760811183,"current_range_meters":4400,"station_id":"ce4bgih2rcd13ifvqba0","pricing_plan_id":"cebpf4jnsgd1na2vs0mg"},{"bike_id":"3fee97cd-6265-47c5-91b6-6eb06257dfe7","system_id":"levelo_inurba_marseille","lat":43.297899,"lon":5.393436,"is_reserved":false,"is_disabled":false,"rental_uris":{"android":"levelo://app?vid=3fee97cd-6265-47c5-91b6-6eb06257dfe7","ios":"levelo://app?vid=3fee97cd-6265-47c5-91b6-6eb06257dfe7"},"vehicle_type_id":"4","last_reported":1760811183,"current_range_meters":4400,"station_id":"ce4bgi12rcd13ifvqb70","pricing_plan_id":"cebpf4jnsgd1na2vs0mg"},{"bike_id":"27099c74-73fa-4b2d-856f-9e58093bb6ff","system_id":"levelo_inurba_marseille","lat":43.27305,"lon":5.39079,"is_reserved":false,"is_disabled":false,"rental_uris":{"android":"levelo://app?vid=27099c74-73fa-4b2d-856f-9e58093bb6ff","ios":"levelo://app?vid=27099c74-73fa-4b2d-856f-9e58093bb6ff"},"vehicle_type_id":"4","last_reported":1760811183,"current_range_meters":4800,"station_id":"ce4bhgp2rcd13ifvqfe0","pricing_plan_id":"cebpf4jnsgd1na2vs0mg"},{"bike_id":"6f1f2c01-55b4-4173-8c34-84eabcc82d3b","system_id":"levelo_inurba_marseille","lat":43.26944,"lon":5.40256,"is_reserved":false,"is_disabled":false,"rental_uris":{"android":"levelo://app?vid=6f1f2c01-55b4-4173-8c34-84eabcc82d3b","ios":"levelo://app?vid=6f1f2c01-55b4-4173-8c34-84eabcc82d3b"},"vehicle_type_id":"4","last_reported":1760811183,"current_range_meters":4800,"station_id":"cjm6bp8fraef2m0cb0m0","pricing_plan_id":"cebpf4jnsgd1na2vs0mg"},{"bike_id":"3d46319a-421e-466d-8ac8-cc04cd70a3e1","system_id":"levelo_inurba_marseille","lat":43.27914,"lon":5.3958,"is_reserved":false,"is_disabled":false,"rental_uris":{"android":"levelo://app?vid=3d46319a-421e-466d-8ac8-cc04cd70a3e1","ios":"levelo://app?vid=3d46319a-421e-466d-8ac8-cc04cd70a3e1"},"vehicle_type_id":"4","last_reported":1760811183,"current_range_meters":4800,"station_id":"ce4bhf92rcd13ifvqf40","pricing_plan_id":"cebpf4jnsgd1na2vs0mg"},{"bike_id":"29faf7b2-feb7-4f09-8dd7-f1469d6895f9","system_id":"levelo_inurba_marseille","lat":43.29843,"lon":5.36281,"is_reserved":false,"is_disabled":false,"rental_uris":{"android":"levelo://app?vid=29faf7b2-feb7-4f09-8dd7-f1469d6895f9","ios":"levelo://app?vid=29faf7b2-feb7-4f09-8dd7-f1469d6895f9"},"vehicle_type_id":"4","last_reported":1760811183,"current_range_meters":4800,"station_id":"ce4bgpp2rcd13ifvqc3g","pricing_plan_id":"cebpf4jnsgd1na2vs0mg"},{"bike_id":"6ae88bb5-4347-4933-940a-b1301936b21b","system_id":"levelo_inurba_marseille","lat":43.26782,"lon":5.39419,"is_reserved":false,"is_disabled":false,"rental_uris":{"android":"levelo://app?vid=6ae88bb5-4347-4933-940a-b1301936b21b","ios":"levelo://app?vid=6ae88bb5-4347-4933-940a-b1301936b21b"},"vehicle_type_id":"4","last_reported":1760811183,"current_range_meters":5600,"station_id":"ce4bhh12rcd13ifvqfg0","pricing_plan_id":"cebpf4jnsgd1na2vs0mg"},{"bike_id":"24d82d64-1145-442f-a9f5-19238b0b39ef","system_id":"levelo_inurba_marseille","lat":43.272133,"lon":5.391866,"is_reserved":false,"is_disabled":false,"rental_uris":{"android":"levelo://app?vid=24d82d64-1145-442f-a9f5-19238b0b39ef","ios":"levelo://app?vid=24d82d64-1145-442f-a9f5-19238b0b39ef"},"vehicle_type_id":"4","last_reported":1760811183,"current_range_meters":5600,"station_id":"","pricing_plan_id":"cebpf4jnsgd1na2vs0mg"},{"bike_id":"7563d215-1c21-4fbc-bde6-dfe13b011278","system_id":"levelo_inurba_marseille","lat":43.29927,"lon":5.36553,"is_reserved":false,"is_disabled":false,"rental_uris":{"android":"levelo://app?vid=7563d215-1c21-4fbc-bde6-dfe13b011278","ios":"levelo://app?vid=7563d215-1c21-4fbc-bde6-dfe13b011278"},"vehicle_type_id":"4","last_reported":1760811183,"current_range_meters":5600,"station_id":"ce4bgm92rcd13ifvqbr0","pricing_plan_id":"cebpf4jnsgd1na2vs0mg"},{"bike_id":"af3a694b-52fb-4afb-95f1-95832d576faf","system_id":"levelo_inurba_marseille","lat":43.26938,"lon":5.40249,"is_reserved":false,"is_disabled":false,"rental_uris":{"android":"levelo://app?vid=af3a694b-52fb-4afb-95f1-95832d576faf","ios":"levelo://app?vid=af3a694b-52fb-4afb-95f1-95832d576faf"},"vehicle_type_id":"4","last_reported":1760811183,"current_range_meters":5600,"station_id":"cjm6bp8fraef2m0cb0m0","pricing_plan_id":"cebpf4jnsgd1na2vs0mg"},{"bike_id":"24c7143a-dbab-490a-b063-12e26e1c897b","system_id":"levelo_inurba_marseille","lat":43.31684,"lon":5.40473,"is_reserved":false,"is_disabled":false,"rental_uris":{"android":"levelo://app?vid=24c7143a-dbab-490a-b063-12e26e1c897b","ios":"levelo://app?vid=24c7143a-dbab-490a-b063-12e26e1c897b"},"vehicle_type_id":"4","last_reported":1760811183,"current_range_meters":5600,"station_id":"ce4bh012rcd13ifvqd00","pricing_plan_id":"cebpf4jnsgd1na2vs0mg"},{"bike_id":"57705a23-2dae-42e9-884c-cf1619481c80","system_id":"levelo_inurba_marseille","lat":43.29309,"lon":5.37178,"is_reserved":false,"is_disabled":false,"rental_uris":{"android":"levelo://app?vid=57705a23-2dae-42e9-884c-cf1619481c80","ios":"levelo://app?vid=57705a23-2dae-42e9-884c-cf1619481c80"},"vehicle_type_id":"4","last_reported":1760811183,"current_range_meters":5600,"station_id":"ce4bgh92rcd13ifvqb40","pricing_plan_id":"cebpf4jnsgd1na2vs0mg"},{"bike_id":"16f744f8-2d3c-42cb-b4c9-c4336966f840","system_id":"levelo_inurba_marseille","lat":43.27937,"lon":5.41052,"is_reserved":false,"is_disabled":false,"rental_uris":{"android":"levelo://app?vid=16f744f8-2d3c-42cb-b4c9-c4336966f840","ios":"levelo://app?vid=16f744f8-2d3c-42cb-b4c9-c4336966f840"},"vehicle_type_id":"4","last_reported":1760811183,"current_range_meters":5600,"station_id":"ce4bhnp2rcd13ifvqh0g","pricing_plan_id":"cebpf4jnsgd1na2vs0mg"},{"bike_id":"baf2ece3-7eb8-45fe-8e91-cebece4fb15b","system_id":"levelo_inurba_marseille","lat":43.29879,"lon":5.38909,"is_reserved":false,"is_disabled":false,"rental_uris":{"android":"levelo://app?vid=baf2ece3-7eb8-45fe-8e91-cebece4fb15b","ios":"levelo://app?vid=baf2ece3-7eb8-45fe-8e91-cebece4fb15b"},"vehicle_type_id":"4","last_reported":1760811183,"current_range_meters":6000,"station_id":"ce4bh392rcd13ifvqdl0","pricing_plan_id":"cebpf4jnsgd1na2vs0mg"},{"bike_id":"b4dc7de2-daa4-40b5-b1fb-bf2675d0f4a4","system_id":"levelo_inurba_marseille","lat":43.28932,"lon":5.36639,"is_reserved":false,"is_disabled":false,"rental_uris":{"android":"levelo://app?vid=b4dc7de2-daa4-40b5-b1fb-bf2675d0f4a4","ios":"levelo://app?vid=b4dc7de2-daa4-40b5-b1fb-bf2675d0f4a4"},"vehicle_type_id":"4","last_reported":1760811183,"current_range_meters":6000,"station_id":"ce4bhap2rcd13ifvqek0","pricing_plan_id":"cebpf4jnsgd1na2vs0mg"},{"bike_id":"03f22c3f-c891-43fe-993b-80d7bf710db0","system_id":"levelo_inurba_marseille","lat":43.29547,"lon":5.38546,"is_reserved":false,"is_disabled":false,"rental_uris":{"android":"levelo://app?vid=03f22c3f-c891-43fe-993b-80d7bf710db0","ios":"levelo://app?vid=03f22c3f-c891-43fe-993b-80d7bf710db0"},"vehicle_type_id":"4","last_reported":1760811183,"current_range_meters":6000,"station_id":"ce4bgih2rcd13ifvqba0","pricing_plan_id":"cebpf4jnsgd1na2vs0mg"},{"bike_id":"ce95d049-db64-403b-9240-386698d0ebe7","system_id":"levelo_inurba_marseille","lat":43.27207,"lon":5.39172,"is_reserved":false,"is_disabled":false,"rental_uris":{"android":"levelo://app?vid=ce95d049-db64-403b-9240-386698d0ebe7","ios":"levelo://app?vid=ce95d049-db64-403b-9240-386698d0ebe7"},"vehicle_type_id":"4","last_reported":1760811183,"current_range_meters":6000,"station_id":"ce4bhhp2rcd13ifvqfm0","pricing_plan_id":"cebpf4jnsgd1na2vs0mg"},{"bike_id":"da5a9ab5-8958-4b1c-ab84-726fe0db6b4a","system_id":"levelo_inurba_marseille","lat":43.24069,"lon":5.37768,"is_reserved":false,"is_disabled":false,"rental_uris":{"android":"levelo://app?vid=da5a9ab5-8958-4b1c-ab84-726fe0db6b4a","ios":"levelo://app?vid=da5a9ab5-8958-4b1c-ab84-726fe0db6b4a"},"vehicle_type_id":"4","last_reported":1760811183,"current_range_meters":6000,"station_id":"ce4bhnp2rcd13ifvqgvg","pricing_plan_id":"cebpf4jnsgd1na2vs0mg"},{"bike_id":"a852e746-1559-4412-8f92-060db441a865","system_id":"levelo_inurba_marseille","lat":43.27216,"lon":5.3918,"is_reserved":false,"is_disabled":false,"rental_uris":{"android":"levelo://app?vid=a852e746-1559-4412-8f92-060db441a865","ios":"levelo://app?vid=a852e746-1559-4412-8f92-060db441a865"},"vehicle_type_id":"4","last_reported":1760811183,"current_range_meters":6000,"station_id":"ce4bhhp2rcd13ifvqfm0","pricing_plan_id":"cebpf4jnsgd1na2vs0mg"},{"bike_id":"b198fdae-a02e-4380-b40a-23fa0f5e4197","system_id":"levelo_inurba_marseille","lat":43.28605,"lon":5.40702,"is_reserved":false,"is_disabled":false,"rental_uris":{"android":"levelo://app?vid=b198fdae-a02e-4380-b40a-23fa0f5e4197","ios":"levelo://app?vid=b198fdae-a02e-4380-b40a-23fa0f5e4197"},"vehicle_type_id":"4","last_reported":1760811183,"current_range_meters":6000,"station_id":"","pricing_plan_id":"cebpf4jnsgd1na2vs0mg"},{"bike_id":"dc68b9c0-611a-49a3-a162-ec20556d18ff","system_id":"levelo_inurba_marseille","lat":43.30892,"lon":5.39649,"is_reserved":false,"is_disabled":false,"rental_uris":{"android":"levelo://app?vid=dc68b9c0-611a-49a3-a162-ec20556d18ff","ios":"levelo://app?vid=dc68b9c0-611a-49a3-a162-ec20556d18ff"},"vehicle_type_id":"4","last_reported":1760811183,"current_range_meters":6000,"station_id":"ce4bh012rcd13ifvqcv0","pricing_plan_id":"cebpf4jnsgd1na2vs0mg"},{"bike_id":"c0316369-603c-416a-bd35-b12236308af5","system_id":"levelo_inurba_marseille","lat":43.27209,"lon":5.39183,"is_reserved":false,"is_disabled":false,"rental_uris":{"android":"levelo://app?vid=c0316369-603c-416a-bd35-b12236308af5","ios":"levelo://app?vid=c0316369-603c-416a-bd35-b12236308af5"},"vehicle_type_id":"4","last_reported":1760811183,"current_range_meters":6000,"station_id":"ce4bhhp2rcd13ifvqfm0","pricing_plan_id":"cebpf4jnsgd1na2vs0mg"},{"bike_id":"d452f6cf-4568-449b-a013-a8eb357b0e26","system_id":"levelo_inurba_marseille","lat":43.30133,"lon":5.38783,"is_reserved":false,"is_disabled":false,"rental_uris":{"android":"levelo://app?vid=d452f6cf-4568-449b-a013-a8eb357b0e26","ios":"levelo://app?vid=d452f6cf-4568-449b-a013-a8eb357b0e26"},"vehicle_type_id":"4","last_reported":1760811183,"current_range_meters":6400,"station_id":"ce4bghh2rcd13ifvqb60","pricing_plan_id":"cebpf4jnsgd1na2vs0mg"},{"bike_id":"f6ac19a0-6483-4afd-b346-9c2f78b730d2","system_id":"levelo_inurba_marseille","lat":43.25106,"lon":5.40332,"is_reserved":false,"is_disabled":false,"rental_uris":{"android":"levelo://app?vid=f6ac19a0-6483-4afd-b346-9c2f78b730d2","ios":"levelo://app?vid=f6ac19a0-6483-4afd-b346-9c2f78b730d2"},"vehicle_type_id":"4","last_reported":1760811183,"current_range_meters":6400,"station_id":"ce4bhlh2rcd13ifvqgig","pricing_plan_id":"cebpf4jnsgd1na2vs0mg"},{"bike_id":"515b0974-0494-4b9f-b380-58fa0c489598","system_id":"levelo_inurba_marseille","lat":43.26939,"lon":5.40258,"is_reserved":false,"is_disabled":false,"rental_uris":{"android":"levelo://app?vid=515b0974-0494-4b9f-b380-58fa0c489598","ios":"levelo://app?vid=515b0974-0494-4b9f-b380-58fa0c489598"},"vehicle_type_id":"4","last_reported":1760811183,"current_range_meters":6400,"station_id":"cjm6bp8fraef2m0cb0m0","pricing_plan_id":"cebpf4jnsgd1na2vs0mg"},{"bike_id":"dcc00e67-1191-4314-ab42-5b6a0efd1bdf","system_id":"levelo_inurba_marseille","lat":43.2622,"lon":5.40448,"is_reserved":false,"is_disabled":false,"rental_uris":{"android":"levelo://app?vid=dcc00e67-1191-4314-ab42-5b6a0efd1bdf","ios":"levelo://app?vid=dcc00e67-1191-4314-ab42-5b6a0efd1bdf"},"vehicle_type_id":"4","last_reported":1760811183,"current_range_meters":6400,"station_id":"ce4bhmh2rcd13ifvqgmg","pricing_plan_id":"cebpf4jnsgd1na2vs0mg"},{"bike_id":"633f5f60-e5d4-479b-84d9-ab8ba5db5348","system_id":"levelo_inurba_marseille","lat":43.27421,"lon":5.39425,"is_reserved":false,"is_disabled":false,"rental_uris":{"android":"levelo://app?vid=633f5f60-e5d4-479b-84d9-ab8ba5db5348","ios":"levelo://app?vid=633f5f60-e5d4-479b-84d9-ab8ba5db5348"},"vehicle_type_id":"4","last_reported":1760811183,"current_range_meters":6400,"station_id":"ce4bhdp2rcd13ifvqf20","pricing_plan_id":"cebpf4jnsgd1na2vs0mg"},{"bike_id":"dfd812db-3f88-4134-bfbc-1a1c85339aee","system_id":"levelo_inurba_marseille","lat":43.27058,"lon":5.38307,"is_reserved":false,"is_disabled":false,"rental_uris":{"android":"levelo://app?vid=dfd812db-3f88-4134-bfbc-1a1c85339aee","ios":"levelo://app?vid=dfd812db-3f88-4134-bfbc-1a1c85339aee"},"vehicle_type_id":"4","last_reported":1760811183,"current_range_meters":6400,"station_id":"st_d3n2fo6cfp8s73cte1j0","pricing_plan_id":"cebpf4jnsgd1na2vs0mg"},{"bike_id":"39dcec17-78ce-4b14-9acd-e2019b3b5f92","system_id":"levelo_inurba_marseille","lat":43.28102,"lon":5.37842,"is_reserved":false,"is_disabled":false,"rental_uris":{"android":"levelo://app?vid=39dcec17-78ce-4b14-9acd-e2019b3b5f92","ios":"levelo://app?vid=39dcec17-78ce-4b14-9acd-e2019b3b5f92"},"vehicle_type_id":"4","last_reported":1760811183,"current_range_meters":6400,"station_id":"ce4bha12rcd13ifvqee0","pricing_plan_id":"cebpf4jnsgd1na2vs0mg"},{"bike_id":"9d8469a0-903d-4bf4-a7d1-ffde0c09250f","system_id":"levelo_inurba_marseille","lat":43.290362,"lon":5.386403,"is_reserved":false,"is_disabled":false,"rental_uris":{"android":"levelo://app?vid=9d8469a0-903d-4bf4-a7d1-ffde0c09250f","ios":"levelo://app?vid=9d8469a0-903d-4bf4-a7d1-ffde0c09250f"},"vehicle_type_id":"4","last_reported":1760811183,"current_range_meters":6400,"station_id":"ce4bh4p2rcd13ifvqe0g","pricing_plan_id":"cebpf4jnsgd1na2vs0mg"},{"bike_id":"416f580b-31c7-4ade-8604-dbd86eb8155f","system_id":"levelo_inurba_marseille","lat":43.28172,"lon":5.42122,"is_reserved":false,"is_disabled":false,"rental_uris":{"android":"levelo://app?vid=416f580b-31c7-4ade-8604-dbd86eb8155f","ios":"levelo://app?vid=416f580b-31c7-4ade-8604-dbd86eb8155f"},"vehicle_type_id":"4","last_reported":1760811183,"current_range_meters":6400,"station_id":"","pricing_plan_id":"cebpf4jnsgd1na2vs0mg"},{"bike_id":"5fe6e873-dba1-40dd-bc65-77de126f2710","system_id":"levelo_inurba_marseille","lat":43.332893,"lon":5.395256,"is_reserved":false,"is_disabled":false,"rental_uris":{"android":"levelo://app?vid=5fe6e873-dba1-40dd-bc65-77de126f2710","ios":"levelo://app?vid=5fe6e873-dba1-40dd-bc65-77de126f2710"},"vehicle_type_id":"4","last_reported":1760811183,"current_range_meters":6400,"station_id":"","pricing_plan_id":"cebpf4jnsgd1na2vs0mg"},{"bike_id":"e7fd232a-342b-4abf-8e5d-e4ef030e9b1b","system_id":"levelo_inurba_marseille","lat":43.29531,"lon":5.38541,"is_reserved":false,"is_disabled":false,"rental_uris":{"android":"levelo://app?vid=e7fd232a-342b-4abf-8e5d-e4ef030e9b1b","ios":"levelo://app?vid=e7fd232a-342b-4abf-8e5d-e4ef030e9b1b"},"vehicle_type_id":"4","last_reported":1760811183,"current_range_meters":6400,"station_id":"ce4bgih2rcd13ifvqba0","pricing_plan_id":"cebpf4jnsgd1na2vs0mg"},{"bike_id":"9dd1d8fe-c2a8-4a70-a175-61f5f9fe7fd2","system_id":"levelo_inurba_marseille","lat":43.32348,"lon":5.38462,"is_reserved":false,"is_disabled":false,"rental_uris":{"android":"levelo://app?vid=9dd1d8fe-c2a8-4a70-a175-61f5f9fe7fd2","ios":"levelo://app?vid=9dd1d8fe-c2a8-4a70-a175-61f5f9fe7fd2"},"vehicle_type_id":"4","last_reported":1760811183,"current_range_meters":6800,"station_id":"","pricing_plan_id":"cebpf4jnsgd1na2vs0mg"},{"bike_id":"689ff87c-4bb6-4292-82bb-a1f6744569e4","system_id":"levelo_inurba_marseille","lat":43.303736,"lon":5.424945,"is_reserved":false,"is_disabled":false,"rental_uris":{"android":"levelo://app?vid=689ff87c-4bb6-4292-82bb-a1f6744569e4","ios":"levelo://app?vid=689ff87c-4bb6-4292-82bb-a1f6744569e4"},"vehicle_type_id":"4","last_reported":1760811183,"current_range_meters":6800,"station_id":"ce4bhoh2rcd13ifvqh6g","pricing_plan_id":"cebpf4jnsgd1na2vs0mg"},{"bike_id":"01df38e7-d352-4bec-9747-5b55965ff1df","system_id":"levelo_inurba_marseille","lat":43.26935,"lon":5.40259,"is_reserved":false,"is_disabled":false,"rental_uris":{"android":"levelo://app?vid=01df38e7-d352-4bec-9747-5b55965ff1df","ios":"levelo://app?vid=01df38e7-d352-4bec-9747-5b55965ff1df"},"vehicle_type_id":"4","last_reported":1760811183,"current_range_meters":6800,"station_id":"cjm6bp8fraef2m0cb0m0","pricing_plan_id":"cebpf4jnsgd1na2vs0mg"},{"bike_id":"e5cf7de3-6eaf-473c-9cff-68738c4ea87b","system_id":"levelo_inurba_marseille","lat":43.2731,"lon":5.3908,"is_reserved":false,"is_disabled":false,"rental_uris":{"android":"levelo://app?vid=e5cf7de3-6eaf-473c-9cff-68738c4ea87b","ios":"levelo://app?vid=e5cf7de3-6eaf-473c-9cff-68738c4ea87b"},"vehicle_type_id":"4","last_reported":1760811183,"current_range_meters":6800,"station_id":"ce4bhgp2rcd13ifvqfe0","pricing_plan_id":"cebpf4jnsgd1na2vs0mg"},{"bike_id":"1c12dddd-d8de-4809-900b-70d11c80ffc2","system_id":"levelo_inurba_marseille","lat":43.27671,"lon":5.38876,"is_reserved":false,"is_disabled":false,"rental_uris":{"android":"levelo://app?vid=1c12dddd-d8de-4809-900b-70d11c80ffc2","ios":"levelo://app?vid=1c12dddd-d8de-4809-900b-70d11c80ffc2"},"vehicle_type_id":"4","last_reported":1760811183,"current_range_meters":6800,"station_id":"ce4bhi12rcd13ifvqfo0","pricing_plan_id":"cebpf4jnsgd1na2vs0mg"},{"bike_id":"2a957978-d5f6-4374-b345-31c622d6be44","system_id":"levelo_inurba_marseille","lat":43.29594,"lon":5.38104,"is_reserved":false,"is_disabled":false,"rental_uris":{"android":"levelo://app?vid=2a957978-d5f6-4374-b345-31c622d6be44","ios":"levelo://app?vid=2a957978-d5f6-4374-b345-31c622d6be44"},"vehicle_type_id":"4","last_reported":1760811183,"current_range_meters":7200,"station_id":"ce4bgl12rcd13ifvqbo0","pricing_plan_id":"cebpf4jnsgd1na2vs0mg"},{"bike_id":"0feedf3e-1811-4abf-876a-1dada9956036","system_id":"levelo_inurba_marseille","lat":43.28691,"lon":5.38652,"is_reserved":false,"is_disabled":false,"rental_uris":{"android":"levelo://app?vid=0feedf3e-1811-4abf-876a-1dada9956036","ios":"levelo://app?vid=0feedf3e-1811-4abf-876a-1dada9956036"},"vehicle_type_id":"4","last_reported":1760811183,"current_range_meters":7200,"station_id":"ce4bh492rcd13ifvqdug","pricing_plan_id":"cebpf4jnsgd1na2vs0mg"},{"bike_id":"c5e45447-2956-450f-bd7e-88aaf308c04d","system_id":"levelo_inurba_marseille","lat":43.290011,"lon":5.365332,"is_reserved":false,"is_disabled":false,"rental_uris":{"android":"levelo://app?vid=c5e45447-2956-450f-bd7e-88aaf308c04d","ios":"levelo://app?vid=c5e45447-2956-450f-bd7e-88aaf308c04d"},"vehicle_type_id":"4","last_reported":1760811183,"current_range_meters":7200,"station_id":"","pricing_plan_id":"cebpf4jnsgd1na2vs0mg"},{"bike_id":"b6760575-73cb-4c83-8d6f-5742b0a0ab34","system_id":"levelo_inurba_marseille","lat":43.30128,"lon":5.38784,"is_reserved":false,"is_disabled":false,"rental_uris":{"android":"levelo://app?vid=b6760575-73cb-4c83-8d6f-5742b0a0ab34","ios":"levelo://app?vid=b6760575-73cb-4c83-8d6f-5742b0a0ab34"},"vehicle_type_id":"4","last_reported":1760811183,"current_range_meters":7200,"station_id":"ce4bghh2rcd13ifvqb60","pricing_plan_id":"cebpf4jnsgd1na2vs0mg"},{"bike_id":"80fa68be-4ca1-460c-9d5a-913f22e303b7","system_id":"levelo_inurba_marseille","lat":43.28106,"lon":5.37841,"is_reserved":false,"is_disabled":false,"rental_uris":{"android":"levelo://app?vid=80fa68be-4ca1-460c-9d5a-913f22e303b7","ios":"levelo://app?vid=80fa68be-4ca1-460c-9d5a-913f22e303b7"},"vehicle_type_id":"4","last_reported":1760811183,"current_range_meters":7200,"station_id":"ce4bha12rcd13ifvqee0","pricing_plan_id":"cebpf4jnsgd1na2vs0mg"},{"bike_id":"4b08cfe7-5df1-4e29-905e-03a9992f8dfa","system_id":"levelo_inurba_marseille","lat":43.33773,"lon":5.37456,"is_reserved":false,"is_disabled":false,"rental_uris":{"android":"levelo://app?vid=4b08cfe7-5df1-4e29-905e-03a9992f8dfa","ios":"levelo://app?vid=4b08cfe7-5df1-4e29-905e-03a9992f8dfa"},"vehicle_type_id":"4","last_reported":1760811183,"current_range_meters":7200,"station_id":"","pricing_plan_id":"cebpf4jnsgd1na2vs0mg"},{"bike_id":"a6394cc7-1a77-4fcc-ae1b-ef5a2ff24a60","system_id":"levelo_inurba_marseille","lat":43.30324,"lon":5.40442,"is_reserved":false,"is_disabled":false,"rental_uris":{"android":"levelo://app?vid=a6394cc7-1a77-4fcc-ae1b-ef5a2ff24a60","ios":"levelo://app?vid=a6394cc7-1a77-4fcc-ae1b-ef5a2ff24a60"},"vehicle_type_id":"4","last_reported":1760811183,"current_range_meters":7200,"station_id":"ce4bh012rcd13ifvqd10","pricing_plan_id":"cebpf4jnsgd1na2vs0mg"},{"bike_id":"75085b15-d2cc-4b29-8893-149d907190ad","system_id":"levelo_inurba_marseille","lat":43.31185,"lon":5.38716,"is_reserved":false,"is_disabled":false,"rental_uris":{"android":"levelo://app?vid=75085b15-d2cc-4b29-8893-149d907190ad","ios":"levelo://app?vid=75085b15-d2cc-4b29-8893-149d907190ad"},"vehicle_type_id":"4","last_reported":1760811183,"current_range_meters":7200,"station_id":"ce4bgv12rcd13ifvqcp0","pricing_plan_id":"cebpf4jnsgd1na2vs0mg"},{"bike_id":"94039e9a-f1c6-48b5-9984-590ebd73a21e","system_id":"levelo_inurba_marseille","lat":43.257202,"lon":5.411167,"is_reserved":false,"is_disabled":false,"rental_uris":{"android":"levelo://app?vid=94039e9a-f1c6-48b5-9984-590ebd73a21e","ios":"levelo://app?vid=94039e9a-f1c6-48b5-9984-590ebd73a21e"},"vehicle_type_id":"4","last_reported":1760811183,"current_range_meters":7200,"station_id":"ce4bhkp2rcd13ifvqgd0","pricing_plan_id":"cebpf4jnsgd1na2vs0mg"},{"bike_id":"a817b630-bbed-48d3-97f4-9bd571b9ebab","system_id":"levelo_inurba_marseille","lat":43.29998,"lon":5.37386,"is_reserved":false,"is_disabled":false,"rental_uris":{"android":"levelo://app?vid=a817b630-bbed-48d3-97f4-9bd571b9ebab","ios":"levelo://app?vid=a817b630-bbed-48d3-97f4-9bd571b9ebab"},"vehicle_type_id":"4","last_reported":1760811183,"current_range_meters":7200,"station_id":"","pricing_plan_id":"cebpf4jnsgd1na2vs0mg"},{"bike_id":"1b18f904-8fbe-4d38-ad5c-fbcbe0b812a6","system_id":"levelo_inurba_marseille","lat":43.29522,"lon":5.38538,"is_reserved":false,"is_disabled":false,"rental_uris":{"android":"levelo://app?vid=1b18f904-8fbe-4d38-ad5c-fbcbe0b812a6","ios":"levelo://app?vid=1b18f904-8fbe-4d38-ad5c-fbcbe0b812a6"},"vehicle_type_id":"4","last_reported":1760811183,"current_range_meters":7200,"station_id":"ce4bgih2rcd13ifvqba0","pricing_plan_id":"cebpf4jnsgd1na2vs0mg"},{"bike_id":"b9e8d29a-8422-482c-bdce-b5f65891b204","system_id":"levelo_inurba_marseille","lat":43.29896,"lon":5.43671,"is_reserved":false,"is_disabled":false,"rental_uris":{"android":"levelo://app?vid=b9e8d29a-8422-482c-bdce-b5f65891b204","ios":"levelo://app?vid=b9e8d29a-8422-482c-bdce-b5f65891b204"},"vehicle_type_id":"4","last_reported":1760811183,"current_range_meters":7200,"station_id":"ce4bhpp2rcd13ifvqhfg","pricing_plan_id":"cebpf4jnsgd1na2vs0mg"},{"bike_id":"15095a74-ab12-458e-8a71-0e564aef091a","system_id":"levelo_inurba_marseille","lat":43.25335,"lon":5.42175,"is_reserved":false,"is_disabled":false,"rental_uris":{"android":"levelo://app?vid=15095a74-ab12-458e-8a71-0e564aef091a","ios":"levelo://app?vid=15095a74-ab12-458e-8a71-0e564aef091a"},"vehicle_type_id":"4","last_reported":1760811183,"current_range_meters":7200,"station_id":"st_d2m65c5bi1j21697t3ng","pricing_plan_id":"cebpf4jnsgd1na2vs0mg"},{"bike_id":"a93c150d-5d9b-4bdc-9e99-efa0f36ca0fa","system_id":"levelo_inurba_marseille","lat":43.28517,"lon":5.38441,"is_reserved":false,"is_disabled":false,"rental_uris":{"android":"levelo://app?vid=a93c150d-5d9b-4bdc-9e99-efa0f36ca0fa","ios":"levelo://app?vid=a93c150d-5d9b-4bdc-9e99-efa0f36ca0fa"},"vehicle_type_id":"4","last_reported":1760811183,"current_range_meters":8000,"station_id":"ce4bh512rcd13ifvqe3g","pricing_plan_id":"cebpf4jnsgd1na2vs0mg"},{"bike_id":"245a030c-0c43-41f8-a4cc-088d55252b06","system_id":"levelo_inurba_marseille","lat":43.244751,"lon":5.369371,"is_reserved":false,"is_disabled":false,"rental_uris":{"android":"levelo://app?vid=245a030c-0c43-41f8-a4cc-088d55252b06","ios":"levelo://app?vid=245a030c-0c43-41f8-a4cc-088d55252b06"},"vehicle_type_id":"4","last_reported":1760811183,"current_range_meters":8000,"station_id":"","pricing_plan_id":"cebpf4jnsgd1na2vs0mg"},{"bike_id":"2c0305c3-221c-49a0-8f61-93a5c3df950a","system_id":"levelo_inurba_marseille","lat":43.29251,"lon":5.4091,"is_reserved":false,"is_disabled":false,"rental_uris":{"android":"levelo://app?vid=2c0305c3-221c-49a0-8f61-93a5c3df950a","ios":"levelo://app?vid=2c0305c3-221c-49a0-8f61-93a5c3df950a"},"vehicle_type_id":"4","last_reported":1760811183,"current_range_meters":8000,"station_id":"ce4bh192rcd13ifvqdc0","pricing_plan_id":"cebpf4jnsgd1na2vs0mg"},{"bike_id":"8bd272a3-683a-4148-9970-3334beb0a457","system_id":"levelo_inurba_marseille","lat":43.28531,"lon":5.44093,"is_reserved":false,"is_disabled":false,"rental_uris":{"android":"levelo://app?vid=8bd272a3-683a-4148-9970-3334beb0a457","ios":"levelo://app?vid=8bd272a3-683a-4148-9970-3334beb0a457"},"vehicle_type_id":"4","last_reported":1760811183,"current_range_meters":8000,"station_id":"st_d3j3df2ikq2c7380ej80","pricing_plan_id":"cebpf4jnsgd1na2vs0mg"},{"bike_id":"681f079e-6473-4982-93fb-30875d5a63b2","system_id":"levelo_inurba_marseille","lat":43.26947,"lon":5.38631,"is_reserved":false,"is_disabled":false,"rental_uris":{"android":"levelo://app?vid=681f079e-6473-4982-93fb-30875d5a63b2","ios":"levelo://app?vid=681f079e-6473-4982-93fb-30875d5a63b2"},"vehicle_type_id":"4","last_reported":1760811183,"current_range_meters":8000,"station_id":"ce4bhh92rcd13ifvqfh0","pricing_plan_id":"cebpf4jnsgd1na2vs0mg"},{"bike_id":"ba85412b-7efe-451b-a7b8-e04d9ef5f8b5","system_id":"levelo_inurba_marseille","lat":43.29617,"lon":5.37728,"is_reserved":false,"is_disabled":false,"rental_uris":{"android":"levelo://app?vid=ba85412b-7efe-451b-a7b8-e04d9ef5f8b5","ios":"levelo://app?vid=ba85412b-7efe-451b-a7b8-e04d9ef5f8b5"},"vehicle_type_id":"4","last_reported":1760811183,"current_range_meters":8000,"station_id":"ce4bgi92rcd13ifvqb90","pricing_plan_id":"cebpf4jnsgd1na2vs0mg"},{"bike_id":"36315dc1-0022-41e2-8b7f-78c368454c3a","system_id":"levelo_inurba_marseille","lat":43.29871,"lon":5.38912,"is_reserved":false,"is_disabled":false,"rental_uris":{"android":"levelo://app?vid=36315dc1-0022-41e2-8b7f-78c368454c3a","ios":"levelo://app?vid=36315dc1-0022-41e2-8b7f-78c368454c3a"},"vehicle_type_id":"4","last_reported":1760811183,"current_range_meters":8000,"station_id":"ce4bh392rcd13ifvqdl0","pricing_plan_id":"cebpf4jnsgd1na2vs0mg"},{"bike_id":"2cc6af61-e519-4e7f-9fd2-d6ed2d8a770b","system_id":"levelo_inurba_marseille","lat":43.29262,"lon":5.38445,"is_reserved":false,"is_disabled":false,"rental_uris":{"android":"levelo://app?vid=2cc6af61-e519-4e7f-9fd2-d6ed2d8a770b","ios":"levelo://app?vid=2cc6af61-e519-4e7f-9fd2-d6ed2d8a770b"},"vehicle_type_id":"4","last_reported":1760811183,"current_range_meters":8000,"station_id":"ce4bh692rcd13ifvqea0","pricing_plan_id":"cebpf4jnsgd1na2vs0mg"},{"bike_id":"75c9fdeb-9ffb-47a2-9815-d82764297273","system_id":"levelo_inurba_marseille","lat":43.27207,"lon":5.39189,"is_reserved":false,"is_disabled":false,"rental_uris":{"android":"levelo://app?vid=75c9fdeb-9ffb-47a2-9815-d82764297273","ios":"levelo://app?vid=75c9fdeb-9ffb-47a2-9815-d82764297273"},"vehicle_type_id":"4","last_reported":1760811183,"current_range_meters":8400,"station_id":"ce4bhhp2rcd13ifvqfm0","pricing_plan_id":"cebpf4jnsgd1na2vs0mg"},{"bike_id":"79b8fbb4-d51b-45f1-aa09-8c1877189a4a","system_id":"levelo_inurba_marseille","lat":43.26799,"lon":5.40269,"is_reserved":false,"is_disabled":false,"rental_uris":{"android":"levelo://app?vid=79b8fbb4-d51b-45f1-aa09-8c1877189a4a","ios":"levelo://app?vid=79b8fbb4-d51b-45f1-aa09-8c1877189a4a"},"vehicle_type_id":"4","last_reported":1760811183,"current_range_meters":8400,"station_id":"ce501612rcd8frsf0b60","pricing_plan_id":"cebpf4jnsgd1na2vs0mg"},{"bike_id":"eb510d93-05e0-4709-b75c-9ae54c2a2339","system_id":"levelo_inurba_marseille","lat":43.29538,"lon":5.38545,"is_reserved":false,"is_disabled":false,"rental_uris":{"android":"levelo://app?vid=eb510d93-05e0-4709-b75c-9ae54c2a2339","ios":"levelo://app?vid=eb510d93-05e0-4709-b75c-9ae54c2a2339"},"vehicle_type_id":"4","last_reported":1760811183,"current_range_meters":8400,"station_id":"ce4bgih2rcd13ifvqba0","pricing_plan_id":"cebpf4jnsgd1na2vs0mg"},{"bike_id":"34f9e915-35c6-48df-87c9-70e74d947c20","system_id":"levelo_inurba_marseille","lat":43.28691,"lon":5.38659,"is_reserved":false,"is_disabled":false,"rental_uris":{"android":"levelo://app?vid=34f9e915-35c6-48df-87c9-70e74d947c20","ios":"levelo://app?vid=34f9e915-35c6-48df-87c9-70e74d947c20"},"vehicle_type_id":"4","last_reported":1760811183,"current_range_meters":8400,"station_id":"ce4bh492rcd13ifvqdug","pricing_plan_id":"cebpf4jnsgd1na2vs0mg"},{"bike_id":"24ae76ce-4b9f-4403-becb-57d338e7a5c1","system_id":"levelo_inurba_marseille","lat":43.291893,"lon":5.408993,"is_reserved":false,"is_disabled":false,"rental_uris":{"android":"levelo://app?vid=24ae76ce-4b9f-4403-becb-57d338e7a5c1","ios":"levelo://app?vid=24ae76ce-4b9f-4403-becb-57d338e7a5c1"},"vehicle_type_id":"4","last_reported":1760811183,"current_range_meters":8400,"station_id":"ce4bh192rcd13ifvqdc0","pricing_plan_id":"cebpf4jnsgd1na2vs0mg"},{"bike_id":"7ee5947c-eb12-4102-91d5-8a1f61179978","system_id":"levelo_inurba_marseille","lat":43.29439,"lon":5.39768,"is_reserved":false,"is_disabled":false,"rental_uris":{"android":"levelo://app?vid=7ee5947c-eb12-4102-91d5-8a1f61179978","ios":"levelo://app?vid=7ee5947c-eb12-4102-91d5-8a1f61179978"},"vehicle_type_id":"4","last_reported":1760811183,"current_range_meters":8400,"station_id":"ce4bh3h2rcd13ifvqdo0","pricing_plan_id":"cebpf4jnsgd1na2vs0mg"},{"bike_id":"dd4eb968-6f0a-4815-ac1e-e39f4da16996","system_id":"levelo_inurba_marseille","lat":43.267756,"lon":5.394224,"is_reserved":false,"is_disabled":false,"rental_uris":{"android":"levelo://app?vid=dd4eb968-6f0a-4815-ac1e-e39f4da16996","ios":"levelo://app?vid=dd4eb968-6f0a-4815-ac1e-e39f4da16996"},"vehicle_type_id":"4","last_reported":1760811183,"current_range_meters":8800,"station_id":"ce4bhh12rcd13ifvqfg0","pricing_plan_id":"cebpf4jnsgd1na2vs0mg"},{"bike_id":"f6459e07-cf92-4ade-97b0-b2dd230fbf26","system_id":"levelo_inurba_marseille","lat":43.26936,"lon":5.4025,"is_reserved":false,"is_disabled":false,"rental_uris":{"android":"levelo://app?vid=f6459e07-cf92-4ade-97b0-b2dd230fbf26","ios":"levelo://app?vid=f6459e07-cf92-4ade-97b0-b2dd230fbf26"},"vehicle_type_id":"4","last_reported":1760811183,"current_range_meters":8800,"station_id":"cjm6bp8fraef2m0cb0m0","pricing_plan_id":"cebpf4jnsgd1na2vs0mg"},{"bike_id":"d2be1205-24e0-4fcc-8640-1389136d1177","system_id":"levelo_inurba_marseille","lat":43.26787,"lon":5.3941,"is_reserved":false,"is_disabled":false,"rental_uris":{"android":"levelo://app?vid=d2be1205-24e0-4fcc-8640-1389136d1177","ios":"levelo://app?vid=d2be1205-24e0-4fcc-8640-1389136d1177"},"vehicle_type_id":"4","last_reported":1760811183,"current_range_meters":8800,"station_id":"ce4bhh12rcd13ifvqfg0","pricing_plan_id":"cebpf4jnsgd1na2vs0mg"},{"bike_id":"c73af8e5-0e9f-4a2b-95aa-00fdb46dcb51","system_id":"levelo_inurba_marseille","lat":43.29207,"lon":5.3932,"is_reserved":false,"is_disabled":false,"rental_uris":{"android":"levelo://app?vid=c73af8e5-0e9f-4a2b-95aa-00fdb46dcb51","ios":"levelo://app?vid=c73af8e5-0e9f-4a2b-95aa-00fdb46dcb51"},"vehicle_type_id":"4","last_reported":1760811183,"current_range_meters":8800,"station_id":"ce4bh192rcd13ifvqdd0","pricing_plan_id":"cebpf4jnsgd1na2vs0mg"},{"bike_id":"ab3b05ce-9d4e-402a-aad3-521fdf353a78","system_id":"levelo_inurba_marseille","lat":43.29272,"lon":5.38441,"is_reserved":false,"is_disabled":false,"rental_uris":{"android":"levelo://app?vid=ab3b05ce-9d4e-402a-aad3-521fdf353a78","ios":"levelo://app?vid=ab3b05ce-9d4e-402a-aad3-521fdf353a78"},"vehicle_type_id":"4","last_reported":1760811183,"current_range_meters":9200,"station_id":"ce4bh692rcd13ifvqea0","pricing_plan_id":"cebpf4jnsgd1na2vs0mg"},{"bike_id":"924ac669-be8b-47aa-9a8e-6f22baf815eb","system_id":"levelo_inurba_marseille","lat":43.337692,"lon":5.374734,"is_reserved":false,"is_disabled":false,"rental_uris":{"android":"levelo://app?vid=924ac669-be8b-47aa-9a8e-6f22baf815eb","ios":"levelo://app?vid=924ac669-be8b-47aa-9a8e-6f22baf815eb"},"vehicle_type_id":"4","last_reported":1760811183,"current_range_meters":9200,"station_id":"","pricing_plan_id":"cebpf4jnsgd1na2vs0mg"},{"bike_id":"b5997b44-1a6c-43d5-aa07-812e4cf430bd","system_id":"levelo_inurba_marseille","lat":43.29265,"lon":5.38442,"is_reserved":false,"is_disabled":false,"rental_uris":{"android":"levelo://app?vid=b5997b44-1a6c-43d5-aa07-812e4cf430bd","ios":"levelo://app?vid=b5997b44-1a6c-43d5-aa07-812e4cf430bd"},"vehicle_type_id":"4","last_reported":1760811183,"current_range_meters":9200,"station_id":"ce4bh692rcd13ifvqea0","pricing_plan_id":"cebpf4jnsgd1na2vs0mg"},{"bike_id":"d6f0d889-cd56-4615-9bc3-ec80a60524c2","system_id":"levelo_inurba_marseille","lat":43.29508,"lon":5.39043,"is_reserved":false,"is_disabled":false,"rental_uris":{"android":"levelo://app?vid=d6f0d889-cd56-4615-9bc3-ec80a60524c2","ios":"levelo://app?vid=d6f0d889-cd56-4615-9bc3-ec80a60524c2"},"vehicle_type_id":"4","last_reported":1760811183,"current_range_meters":9200,"station_id":"ce4bh3p2rcd13ifvqdp0","pricing_plan_id":"cebpf4jnsgd1na2vs0mg"},{"bike_id":"155bfd93-d248-4e9e-86ef-9c54177f3418","system_id":"levelo_inurba_marseille","lat":43.28658,"lon":5.38661,"is_reserved":false,"is_disabled":false,"rental_uris":{"android":"levelo://app?vid=155bfd93-d248-4e9e-86ef-9c54177f3418","ios":"levelo://app?vid=155bfd93-d248-4e9e-86ef-9c54177f3418"},"vehicle_type_id":"4","last_reported":1760811183,"current_range_meters":9200,"station_id":"ce4bh492rcd13ifvqdug","pricing_plan_id":"cebpf4jnsgd1na2vs0mg"},{"bike_id":"1a8a718b-e314-4b7f-8970-3b9e35b3913c","system_id":"levelo_inurba_marseille","lat":43.29797,"lon":5.38103,"is_reserved":false,"is_disabled":false,"rental_uris":{"android":"levelo://app?vid=1a8a718b-e314-4b7f-8970-3b9e35b3913c","ios":"levelo://app?vid=1a8a718b-e314-4b7f-8970-3b9e35b3913c"},"vehicle_type_id":"4","last_reported":1760811183,"current_range_meters":9200,"station_id":"ce4bgip2rcd13ifvqbb0","pricing_plan_id":"cebpf4jnsgd1na2vs0mg"},{"bike_id":"e427aaaf-ebc8-4540-808e-fa07955f06df","system_id":"levelo_inurba_marseille","lat":43.25889,"lon":5.39441,"is_reserved":false,"is_disabled":false,"rental_uris":{"android":"levelo://app?vid=e427aaaf-ebc8-4540-808e-fa07955f06df","ios":"levelo://app?vid=e427aaaf-ebc8-4540-808e-fa07955f06df"},"vehicle_type_id":"4","last_reported":1760811183,"current_range_meters":9200,"station_id":"","pricing_plan_id":"cebpf4jnsgd1na2vs0mg"},{"bike_id":"9e01b8da-7b04-4ed7-8042-a06237ec338d","system_id":"levelo_inurba_marseille","lat":43.313724,"lon":5.396842,"is_reserved":false,"is_disabled":false,"rental_uris":{"android":"levelo://app?vid=9e01b8da-7b04-4ed7-8042-a06237ec338d","ios":"levelo://app?vid=9e01b8da-7b04-4ed7-8042-a06237ec338d"},"vehicle_type_id":"4","last_reported":1760811183,"current_range_meters":9200,"station_id":"ce4bgvp2rcd13ifvqcu0","pricing_plan_id":"cebpf4jnsgd1na2vs0mg"},{"bike_id":"2b5d1677-23a9-43f1-a888-f7597326a097","system_id":"levelo_inurba_marseille","lat":43.29875,"lon":5.38895,"is_reserved":false,"is_disabled":false,"rental_uris":{"android":"levelo://app?vid=2b5d1677-23a9-43f1-a888-f7597326a097","ios":"levelo://app?vid=2b5d1677-23a9-43f1-a888-f7597326a097"},"vehicle_type_id":"4","last_reported":1760811183,"current_range_meters":9200,"station_id":"ce4bh392rcd13ifvqdl0","pricing_plan_id":"cebpf4jnsgd1na2vs0mg"},{"bike_id":"b89630fa-97fa-4dd2-9312-957251d08bc7","system_id":"levelo_inurba_marseille","lat":43.28416,"lon":5.37509,"is_reserved":false,"is_disabled":true,"rental_uris":{"android":"levelo://app?vid=b89630fa-97fa-4dd2-9312-957251d08bc7","ios":"levelo://app?vid=b89630fa-97fa-4dd2-9312-957251d08bc7"},"vehicle_type_id":"4","last_reported":1760811183,"current_range_meters":9200,"station_id":"ce4bh412rcd13ifvqds0","pricing_plan_id":"cebpf4jnsgd1na2vs0mg"},{"bike_id":"b024a171-fd53-4036-8beb-679c31244338","system_id":"levelo_inurba_marseille","lat":43.27314,"lon":5.39094,"is_reserved":false,"is_disabled":false,"rental_uris":{"android":"levelo://app?vid=b024a171-fd53-4036-8beb-679c31244338","ios":"levelo://app?vid=b024a171-fd53-4036-8beb-679c31244338"},"vehicle_type_id":"4","last_reported":1760811183,"current_range_meters":9600,"station_id":"ce4bhgp2rcd13ifvqfe0","pricing_plan_id":"cebpf4jnsgd1na2vs0mg"},{"bike_id":"00b0c6e1-4d62-4ad2-a3d1-e4852b97e9df","system_id":"levelo_inurba_marseille","lat":43.27312,"lon":5.39087,"is_reserved":false,"is_disabled":false,"rental_uris":{"android":"levelo://app?vid=00b0c6e1-4d62-4ad2-a3d1-e4852b97e9df","ios":"levelo://app?vid=00b0c6e1-4d62-4ad2-a3d1-e4852b97e9df"},"vehicle_type_id":"4","last_reported":1760811183,"current_range_meters":9600,"station_id":"ce4bhgp2rcd13ifvqfe0","pricing_plan_id":"cebpf4jnsgd1na2vs0mg"},{"bike_id":"ecbb30f7-50f9-4e71-a027-9a8de76fe80e","system_id":"levelo_inurba_marseille","lat":43.309004,"lon":5.37181,"is_reserved":false,"is_disabled":false,"rental_uris":{"android":"levelo://app?vid=ecbb30f7-50f9-4e71-a027-9a8de76fe80e","ios":"levelo://app?vid=ecbb30f7-50f9-4e71-a027-9a8de76fe80e"},"vehicle_type_id":"4","last_reported":1760811183,"current_range_meters":9600,"station_id":"ce4bguh2rcd13ifvqckg","pricing_plan_id":"cebpf4jnsgd1na2vs0mg"},{"bike_id":"22dd2f64-c626-4eff-b863-82b8aa97ead0","system_id":"levelo_inurba_marseille","lat":43.29523,"lon":5.38554,"is_reserved":false,"is_disabled":false,"rental_uris":{"android":"levelo://app?vid=22dd2f64-c626-4eff-b863-82b8aa97ead0","ios":"levelo://app?vid=22dd2f64-c626-4eff-b863-82b8aa97ead0"},"vehicle_type_id":"4","last_reported":1760811183,"current_range_meters":9600,"station_id":"ce4bgih2rcd13ifvqba0","pricing_plan_id":"cebpf4jnsgd1na2vs0mg"},{"bike_id":"5278f369-7011-437d-9f60-9ef9499a8a25","system_id":"levelo_inurba_marseille","lat":43.27035,"lon":5.40277,"is_reserved":false,"is_disabled":false,"rental_uris":{"android":"levelo://app?vid=5278f369-7011-437d-9f60-9ef9499a8a25","ios":"levelo://app?vid=5278f369-7011-437d-9f60-9ef9499a8a25"},"vehicle_type_id":"4","last_reported":1760811183,"current_range_meters":9600,"station_id":"ce4bhk92rcd13ifvqgc0","pricing_plan_id":"cebpf4jnsgd1na2vs0mg"},{"bike_id":"f13259c8-94da-45f6-abfa-9a31fb4ba202","system_id":"levelo_inurba_marseille","lat":43.271722,"lon":5.409938,"is_reserved":false,"is_disabled":false,"rental_uris":{"android":"levelo://app?vid=f13259c8-94da-45f6-abfa-9a31fb4ba202","ios":"levelo://app?vid=f13259c8-94da-45f6-abfa-9a31fb4ba202"},"vehicle_type_id":"4","last_reported":1760811183,"current_range_meters":9600,"station_id":"ce4bhl12rcd13ifvqgf0","pricing_plan_id":"cebpf4jnsgd1na2vs0mg"},{"bike_id":"3586afa5-19c6-4385-ae3b-80726606c1bb","system_id":"levelo_inurba_marseille","lat":43.26407,"lon":5.39904,"is_reserved":false,"is_disabled":false,"rental_uris":{"android":"levelo://app?vid=3586afa5-19c6-4385-ae3b-80726606c1bb","ios":"levelo://app?vid=3586afa5-19c6-4385-ae3b-80726606c1bb"},"vehicle_type_id":"4","last_reported":1760811183,"current_range_meters":9600,"station_id":"","pricing_plan_id":"cebpf4jnsgd1na2vs0mg"},{"bike_id":"71d45de4-fd7f-457b-b0bb-04d47058dce9","system_id":"levelo_inurba_marseille","lat":43.299621,"lon":5.384982,"is_reserved":false,"is_disabled":false,"rental_uris":{"android":"levelo://app?vid=71d45de4-fd7f-457b-b0bb-04d47058dce9","ios":"levelo://app?vid=71d45de4-fd7f-457b-b0bb-04d47058dce9"},"vehicle_type_id":"4","last_reported":1760811183,"current_range_meters":9600,"station_id":"ce4bhgh2rcd13ifvqfa0","pricing_plan_id":"cebpf4jnsgd1na2vs0mg"},{"bike_id":"8e6781bb-2e20-454e-8191-54182f17bdfc","system_id":"levelo_inurba_marseille","lat":43.217499,"lon":5.346028,"is_reserved":false,"is_disabled":true,"rental_uris":{"android":"levelo://app?vid=8e6781bb-2e20-454e-8191-54182f17bdfc","ios":"levelo://app?vid=8e6781bb-2e20-454e-8191-54182f17bdfc"},"vehicle_type_id":"4","last_reported":1760811183,"current_range_meters":9600,"station_id":"st_cvj6r9ubvosntc0bgbag","pricing_plan_id":"cebpf4jnsgd1na2vs0mg"},{"bike_id":"3e50f951-a987-47b3-b21c-7713fbbf31c2","system_id":"levelo_inurba_marseille","lat":43.296,"lon":5.3811,"is_reserved":false,"is_disabled":false,"rental_uris":{"android":"levelo://app?vid=3e50f951-a987-47b3-b21c-7713fbbf31c2","ios":"levelo://app?vid=3e50f951-a987-47b3-b21c-7713fbbf31c2"},"vehicle_type_id":"4","last_reported":1760811183,"current_range_meters":9600,"station_id":"ce4bgl12rcd13ifvqbo0","pricing_plan_id":"cebpf4jnsgd1na2vs0mg"},{"bike_id":"913779f4-56e0-42d0-9fbb-e6656f8e7d26","system_id":"levelo_inurba_marseille","lat":43.24567,"lon":5.36379,"is_reserved":false,"is_disabled":false,"rental_uris":{"android":"levelo://app?vid=913779f4-56e0-42d0-9fbb-e6656f8e7d26","ios":"levelo://app?vid=913779f4-56e0-42d0-9fbb-e6656f8e7d26"},"vehicle_type_id":"4","last_reported":1760811183,"current_range_meters":10000,"station_id":"","pricing_plan_id":"cebpf4jnsgd1na2vs0mg"},{"bike_id":"ff86eea6-c1e6-4578-b1e5-0e4fb5f089c5","system_id":"levelo_inurba_marseille","lat":43.28544,"lon":5.38425,"is_reserved":false,"is_disabled":false,"rental_uris":{"android":"levelo://app?vid=ff86eea6-c1e6-4578-b1e5-0e4fb5f089c5","ios":"levelo://app?vid=ff86eea6-c1e6-4578-b1e5-0e4fb5f089c5"},"vehicle_type_id":"4","last_reported":1760811183,"current_range_meters":10000,"station_id":"","pricing_plan_id":"cebpf4jnsgd1na2vs0mg"},{"bike_id":"0d67f819-112d-4682-8ee1-0f286a695555","system_id":"levelo_inurba_marseille","lat":43.29258,"lon":5.38444,"is_reserved":false,"is_disabled":false,"rental_uris":{"android":"levelo://app?vid=0d67f819-112d-4682-8ee1-0f286a695555","ios":"levelo://app?vid=0d67f819-112d-4682-8ee1-0f286a695555"},"vehicle_type_id":"4","last_reported":1760811183,"current_range_meters":10000,"station_id":"ce4bh692rcd13ifvqea0","pricing_plan_id":"cebpf4jnsgd1na2vs0mg"},{"bike_id":"6813bb34-e7bd-4f82-8f43-80acacb31808","system_id":"levelo_inurba_marseille","lat":43.26563,"lon":5.40326,"is_reserved":false,"is_disabled":false,"rental_uris":{"android":"levelo://app?vid=6813bb34-e7bd-4f82-8f43-80acacb31808","ios":"levelo://app?vid=6813bb34-e7bd-4f82-8f43-80acacb31808"},"vehicle_type_id":"4","last_reported":1760811183,"current_range_meters":10000,"station_id":"ce4bhmp2rcd13ifvqgng","pricing_plan_id":"cebpf4jnsgd1na2vs0mg"},{"bike_id":"f79ed942-86fc-4b27-9729-61cda708bb82","system_id":"levelo_inurba_marseille","lat":43.337444,"lon":5.374475,"is_reserved":false,"is_disabled":false,"rental_uris":{"android":"levelo://app?vid=f79ed942-86fc-4b27-9729-61cda708bb82","ios":"levelo://app?vid=f79ed942-86fc-4b27-9729-61cda708bb82"},"vehicle_type_id":"4","last_reported":1760811183,"current_range_meters":10000,"station_id":"","pricing_plan_id":"cebpf4jnsgd1na2vs0mg"},{"bike_id":"0679f37e-fcb2-46f1-bd09-ac9f52bc4278","system_id":"levelo_inurba_marseille","lat":43.29274,"lon":5.36846,"is_reserved":false,"is_disabled":true,"rental_uris":{"android":"levelo://app?vid=0679f37e-fcb2-46f1-bd09-ac9f52bc4278","ios":"levelo://app?vid=0679f37e-fcb2-46f1-bd09-ac9f52bc4278"},"vehicle_type_id":"4","last_reported":1760811183,"current_range_meters":10000,"station_id":"ce4bhbp2rcd13ifvqesg","pricing_plan_id":"cebpf4jnsgd1na2vs0mg"},{"bike_id":"aa573aee-8605-4472-b7a5-d4179fc88342","system_id":"levelo_inurba_marseille","lat":43.273094,"lon":5.390596,"is_reserved":false,"is_disabled":false,"rental_uris":{"android":"levelo://app?vid=aa573aee-8605-4472-b7a5-d4179fc88342","ios":"levelo://app?vid=aa573aee-8605-4472-b7a5-d4179fc88342"},"vehicle_type_id":"4","last_reported":1760811183,"current_range_meters":10800,"station_id":"","pricing_plan_id":"cebpf4jnsgd1na2vs0mg"},{"bike_id":"a3c4ff83-99e2-4b43-bcde-0526e18dc02a","system_id":"levelo_inurba_marseille","lat":43.28683,"lon":5.38659,"is_reserved":false,"is_disabled":false,"rental_uris":{"android":"levelo://app?vid=a3c4ff83-99e2-4b43-bcde-0526e18dc02a","ios":"levelo://app?vid=a3c4ff83-99e2-4b43-bcde-0526e18dc02a"},"vehicle_type_id":"4","last_reported":1760811183,"current_range_meters":10800,"station_id":"ce4bh492rcd13ifvqdug","pricing_plan_id":"cebpf4jnsgd1na2vs0mg"},{"bike_id":"3ce4b208-c762-42fa-b4f8-39248fa7fd9f","system_id":"levelo_inurba_marseille","lat":43.27912,"lon":5.39574,"is_reserved":false,"is_disabled":false,"rental_uris":{"android":"levelo://app?vid=3ce4b208-c762-42fa-b4f8-39248fa7fd9f","ios":"levelo://app?vid=3ce4b208-c762-42fa-b4f8-39248fa7fd9f"},"vehicle_type_id":"4","last_reported":1760811183,"current_range_meters":10800,"station_id":"ce4bhf92rcd13ifvqf40","pricing_plan_id":"cebpf4jnsgd1na2vs0mg"},{"bike_id":"36138ca6-1bbe-425b-8e00-9df5edc87cf6","system_id":"levelo_inurba_marseille","lat":43.323557,"lon":5.367544,"is_reserved":false,"is_disabled":false,"rental_uris":{"android":"levelo://app?vid=36138ca6-1bbe-425b-8e00-9df5edc87cf6","ios":"levelo://app?vid=36138ca6-1bbe-425b-8e00-9df5edc87cf6"},"vehicle_type_id":"4","last_reported":1760811183,"current_range_meters":10800,"station_id":"ce4bhsh2rcd13ifvqi2g","pricing_plan_id":"cebpf4jnsgd1na2vs0mg"},{"bike_id":"1ae23019-ea31-4d05-9cf3-f48fd8ecdb6e","system_id":"levelo_inurba_marseille","lat":43.31086,"lon":5.42432,"is_reserved":false,"is_disabled":false,"rental_uris":{"android":"levelo://app?vid=1ae23019-ea31-4d05-9cf3-f48fd8ecdb6e","ios":"levelo://app?vid=1ae23019-ea31-4d05-9cf3-f48fd8ecdb6e"},"vehicle_type_id":"4","last_reported":1760811183,"current_range_meters":10800,"station_id":"ce4bhp92rcd13ifvqhag","pricing_plan_id":"cebpf4jnsgd1na2vs0mg"},{"bike_id":"649bb329-cf4d-4fca-b03d-5ac863393ac6","system_id":"levelo_inurba_marseille","lat":43.27319,"lon":5.39107,"is_reserved":false,"is_disabled":false,"rental_uris":{"android":"levelo://app?vid=649bb329-cf4d-4fca-b03d-5ac863393ac6","ios":"levelo://app?vid=649bb329-cf4d-4fca-b03d-5ac863393ac6"},"vehicle_type_id":"4","last_reported":1760811183,"current_range_meters":10800,"station_id":"ce4bhgp2rcd13ifvqfe0","pricing_plan_id":"cebpf4jnsgd1na2vs0mg"},{"bike_id":"618a5e2c-57bf-488b-841c-c56f8555f25d","system_id":"levelo_inurba_marseille","lat":43.28692,"lon":5.37915,"is_reserved":false,"is_disabled":false,"rental_uris":{"android":"levelo://app?vid=618a5e2c-57bf-488b-841c-c56f8555f25d","ios":"levelo://app?vid=618a5e2c-57bf-488b-841c-c56f8555f25d"},"vehicle_type_id":"4","last_reported":1760811183,"current_range_meters":10800,"station_id":"ce4bh9p2rcd13ifvqec0","pricing_plan_id":"cebpf4jnsgd1na2vs0mg"},{"bike_id":"75b02a51-1325-435e-9661-29bb451a696a","system_id":"levelo_inurba_marseille","lat":43.31448,"lon":5.38488,"is_reserved":false,"is_disabled":false,"rental_uris":{"android":"levelo://app?vid=75b02a51-1325-435e-9661-29bb451a696a","ios":"levelo://app?vid=75b02a51-1325-435e-9661-29bb451a696a"},"vehicle_type_id":"4","last_reported":1760811183,"current_range_meters":10800,"station_id":"","pricing_plan_id":"cebpf4jnsgd1na2vs0mg"},{"bike_id":"b15b7ba7-54e2-41c7-b79b-7925a6fa9ea8","system_id":"levelo_inurba_marseille","lat":43.29515,"lon":5.39047,"is_reserved":false,"is_disabled":false,"rental_uris":{"android":"levelo://app?vid=b15b7ba7-54e2-41c7-b79b-7925a6fa9ea8","ios":"levelo://app?vid=b15b7ba7-54e2-41c7-b79b-7925a6fa9ea8"},"vehicle_type_id":"4","last_reported":1760811183,"current_range_meters":10800,"station_id":"ce4bh3p2rcd13ifvqdp0","pricing_plan_id":"cebpf4jnsgd1na2vs0mg"},{"bike_id":"9d33a742-a958-4f98-866d-18df14144d8a","system_id":"levelo_inurba_marseille","lat":43.26567,"lon":5.40326,"is_reserved":false,"is_disabled":false,"rental_uris":{"android":"levelo://app?vid=9d33a742-a958-4f98-866d-18df14144d8a","ios":"levelo://app?vid=9d33a742-a958-4f98-866d-18df14144d8a"},"vehicle_type_id":"4","last_reported":1760811183,"current_range_meters":11200,"station_id":"ce4bhmp2rcd13ifvqgng","pricing_plan_id":"cebpf4jnsgd1na2vs0mg"},{"bike_id":"0b170382-a38a-48fc-b060-b901de311f1a","system_id":"levelo_inurba_marseille","lat":43.33047,"lon":5.39024,"is_reserved":false,"is_disabled":false,"rental_uris":{"android":"levelo://app?vid=0b170382-a38a-48fc-b060-b901de311f1a","ios":"levelo://app?vid=0b170382-a38a-48fc-b060-b901de311f1a"},"vehicle_type_id":"4","last_reported":1760811183,"current_range_meters":11200,"station_id":"ce4bhr92rcd13ifvqhrg","pricing_plan_id":"cebpf4jnsgd1na2vs0mg"},{"bike_id":"d7de8a4b-054e-4f08-972f-750ba132f0ec","system_id":"levelo_inurba_marseille","lat":43.29186,"lon":5.35801,"is_reserved":false,"is_disabled":true,"rental_uris":{"android":"levelo://app?vid=d7de8a4b-054e-4f08-972f-750ba132f0ec","ios":"levelo://app?vid=d7de8a4b-054e-4f08-972f-750ba132f0ec"},"vehicle_type_id":"4","last_reported":1760811183,"current_range_meters":11200,"station_id":"ce4bhb12rcd13ifvqel0","pricing_plan_id":"cebpf4jnsgd1na2vs0mg"},{"bike_id":"1382b748-840e-4ecc-afc5-0fb4eeaeb841","system_id":"levelo_inurba_marseille","lat":43.30565,"lon":5.37497,"is_reserved":false,"is_disabled":false,"rental_uris":{"android":"levelo://app?vid=1382b748-840e-4ecc-afc5-0fb4eeaeb841","ios":"levelo://app?vid=1382b748-840e-4ecc-afc5-0fb4eeaeb841"},"vehicle_type_id":"4","last_reported":1760811183,"current_range_meters":11200,"station_id":"","pricing_plan_id":"cebpf4jnsgd1na2vs0mg"},{"bike_id":"f982065c-d88c-44b9-af9d-9c3c576bbcfa","system_id":"levelo_inurba_marseille","lat":43.31359,"lon":5.38498,"is_reserved":false,"is_disabled":false,"rental_uris":{"android":"levelo://app?vid=f982065c-d88c-44b9-af9d-9c3c576bbcfa","ios":"levelo://app?vid=f982065c-d88c-44b9-af9d-9c3c576bbcfa"},"vehicle_type_id":"4","last_reported":1760811183,"current_range_meters":11200,"station_id":"ce4bgt92rcd13ifvqcf0","pricing_plan_id":"cebpf4jnsgd1na2vs0mg"},{"bike_id":"29deeaa9-e77a-408d-b13e-b6abc21d5df6","system_id":"levelo_inurba_marseille","lat":43.296509,"lon":5.386966,"is_reserved":false,"is_disabled":false,"rental_uris":{"android":"levelo://app?vid=29deeaa9-e77a-408d-b13e-b6abc21d5df6","ios":"levelo://app?vid=29deeaa9-e77a-408d-b13e-b6abc21d5df6"},"vehicle_type_id":"4","last_reported":1760811183,"current_range_meters":11200,"station_id":"","pricing_plan_id":"cebpf4jnsgd1na2vs0mg"},{"bike_id":"7dbb1b00-4b3b-4237-b991-ab76077619ff","system_id":"levelo_inurba_marseille","lat":43.25106,"lon":5.40371,"is_reserved":false,"is_disabled":false,"rental_uris":{"android":"levelo://app?vid=7dbb1b00-4b3b-4237-b991-ab76077619ff","ios":"levelo://app?vid=7dbb1b00-4b3b-4237-b991-ab76077619ff"},"vehicle_type_id":"4","last_reported":1760811183,"current_range_meters":11200,"station_id":"ce4bhlh2rcd13ifvqgig","pricing_plan_id":"cebpf4jnsgd1na2vs0mg"},{"bike_id":"5ec36f29-a595-43fb-81bc-e1f6ecf04525","system_id":"levelo_inurba_marseille","lat":43.21188,"lon":5.35077,"is_reserved":false,"is_disabled":true,"rental_uris":{"android":"levelo://app?vid=5ec36f29-a595-43fb-81bc-e1f6ecf04525","ios":"levelo://app?vid=5ec36f29-a595-43fb-81bc-e1f6ecf04525"},"vehicle_type_id":"4","last_reported":1760811183,"current_range_meters":11200,"station_id":"st_cvj6sg6p6f1abm77japg","pricing_plan_id":"cebpf4jnsgd1na2vs0mg"},{"bike_id":"ad37f7ad-71e3-46e9-b97f-f8656ec704bd","system_id":"levelo_inurba_marseille","lat":43.29536,"lon":5.38543,"is_reserved":false,"is_disabled":false,"rental_uris":{"android":"levelo://app?vid=ad37f7ad-71e3-46e9-b97f-f8656ec704bd","ios":"levelo://app?vid=ad37f7ad-71e3-46e9-b97f-f8656ec704bd"},"vehicle_type_id":"4","last_reported":1760811183,"current_range_meters":11200,"station_id":"ce4bgih2rcd13ifvqba0","pricing_plan_id":"cebpf4jnsgd1na2vs0mg"},{"bike_id":"791b8287-1982-44a4-a1aa-f89d52c5b857","system_id":"levelo_inurba_marseille","lat":43.29309,"lon":5.37175,"is_reserved":false,"is_disabled":false,"rental_uris":{"android":"levelo://app?vid=791b8287-1982-44a4-a1aa-f89d52c5b857","ios":"levelo://app?vid=791b8287-1982-44a4-a1aa-f89d52c5b857"},"vehicle_type_id":"4","last_reported":1760811183,"current_range_meters":11200,"station_id":"ce4bgh92rcd13ifvqb40","pricing_plan_id":"cebpf4jnsgd1na2vs0mg"},{"bike_id":"59742c94-4658-4515-a228-2a9d9f4b4338","system_id":"levelo_inurba_marseille","lat":43.282684,"lon":5.350728,"is_reserved":false,"is_disabled":false,"rental_uris":{"android":"levelo://app?vid=59742c94-4658-4515-a228-2a9d9f4b4338","ios":"levelo://app?vid=59742c94-4658-4515-a228-2a9d9f4b4338"},"vehicle_type_id":"4","last_reported":1760811183,"current_range_meters":11200,"station_id":"ce4bh692rcd13ifvqea0","pricing_plan_id":"cebpf4jnsgd1na2vs0mg"},{"bike_id":"5441a514-d911-4b17-bb3f-1fa6e4017bd2","system_id":"levelo_inurba_marseille","lat":43.27198,"lon":5.39195,"is_reserved":false,"is_disabled":false,"rental_uris":{"android":"levelo://app?vid=5441a514-d911-4b17-bb3f-1fa6e4017bd2","ios":"levelo://app?vid=5441a514-d911-4b17-bb3f-1fa6e4017bd2"},"vehicle_type_id":"4","last_reported":1760811183,"current_range_meters":11200,"station_id":"ce4bhhp2rcd13ifvqfm0","pricing_plan_id":"cebpf4jnsgd1na2vs0mg"},{"bike_id":"c4003d48-d3cc-4b86-98a1-317e5d429712","system_id":"levelo_inurba_marseille","lat":43.25724,"lon":5.41107,"is_reserved":false,"is_disabled":false,"rental_uris":{"android":"levelo://app?vid=c4003d48-d3cc-4b86-98a1-317e5d429712","ios":"levelo://app?vid=c4003d48-d3cc-4b86-98a1-317e5d429712"},"vehicle_type_id":"4","last_reported":1760811183,"current_range_meters":11600,"station_id":"ce4bhkp2rcd13ifvqgd0","pricing_plan_id":"cebpf4jnsgd1na2vs0mg"},{"bike_id":"731e4b4b-ee76-4bb0-ad5d-437896c222f2","system_id":"levelo_inurba_marseille","lat":43.284807,"lon":5.384187,"is_reserved":false,"is_disabled":false,"rental_uris":{"android":"levelo://app?vid=731e4b4b-ee76-4bb0-ad5d-437896c222f2","ios":"levelo://app?vid=731e4b4b-ee76-4bb0-ad5d-437896c222f2"},"vehicle_type_id":"4","last_reported":1760811183,"current_range_meters":11600,"station_id":"ce4bh512rcd13ifvqe3g","pricing_plan_id":"cebpf4jnsgd1na2vs0mg"},{"bike_id":"7996a424-e8bb-4434-9ac8-8b2970e6e1a6","system_id":"levelo_inurba_marseille","lat":43.27208,"lon":5.39154,"is_reserved":false,"is_disabled":false,"rental_uris":{"android":"levelo://app?vid=7996a424-e8bb-4434-9ac8-8b2970e6e1a6","ios":"levelo://app?vid=7996a424-e8bb-4434-9ac8-8b2970e6e1a6"},"vehicle_type_id":"4","last_reported":1760811183,"current_range_meters":11600,"station_id":"ce4bhhp2rcd13ifvqfm0","pricing_plan_id":"cebpf4jnsgd1na2vs0mg"},{"bike_id":"1bbadaa6-93cb-44ed-a4e5-ad5ff6534e9f","system_id":"levelo_inurba_marseille","lat":43.28358,"lon":5.38103,"is_reserved":false,"is_disabled":false,"rental_uris":{"android":"levelo://app?vid=1bbadaa6-93cb-44ed-a4e5-ad5ff6534e9f","ios":"levelo://app?vid=1bbadaa6-93cb-44ed-a4e5-ad5ff6534e9f"},"vehicle_type_id":"4","last_reported":1760811183,"current_range_meters":11600,"station_id":"ce4bh412rcd13ifvqdr0","pricing_plan_id":"cebpf4jnsgd1na2vs0mg"},{"bike_id":"17998667-b0a6-41ad-80b4-466b515218f7","system_id":"levelo_inurba_marseille","lat":43.278493,"lon":5.392158,"is_reserved":false,"is_disabled":false,"rental_uris":{"android":"levelo://app?vid=17998667-b0a6-41ad-80b4-466b515218f7","ios":"levelo://app?vid=17998667-b0a6-41ad-80b4-466b515218f7"},"vehicle_type_id":"4","last_reported":1760811183,"current_range_meters":12000,"station_id":"ce4bhjp2rcd13ifvqga0","pricing_plan_id":"cebpf4jnsgd1na2vs0mg"},{"bike_id":"cd4f59cd-867b-4d17-a241-b35522f2fd8c","system_id":"levelo_inurba_marseille","lat":43.32367,"lon":5.38888,"is_reserved":false,"is_disabled":false,"rental_uris":{"android":"levelo://app?vid=cd4f59cd-867b-4d17-a241-b35522f2fd8c","ios":"levelo://app?vid=cd4f59cd-867b-4d17-a241-b35522f2fd8c"},"vehicle_type_id":"4","last_reported":1760811183,"current_range_meters":12000,"station_id":"ce4bhqp2rcd13ifvqhog","pricing_plan_id":"cebpf4jnsgd1na2vs0mg"},{"bike_id":"fc232d5e-7456-4d38-af8f-bec0edba270a","system_id":"levelo_inurba_marseille","lat":43.284577,"lon":5.358914,"is_reserved":false,"is_disabled":false,"rental_uris":{"android":"levelo://app?vid=fc232d5e-7456-4d38-af8f-bec0edba270a","ios":"levelo://app?vid=fc232d5e-7456-4d38-af8f-bec0edba270a"},"vehicle_type_id":"4","last_reported":1760811183,"current_range_meters":12000,"station_id":"ce4bhah2rcd13ifvqei0","pricing_plan_id":"cebpf4jnsgd1na2vs0mg"},{"bike_id":"b35843bb-8826-4f0d-a706-15255e94599e","system_id":"levelo_inurba_marseille","lat":43.27943,"lon":5.40386,"is_reserved":false,"is_disabled":false,"rental_uris":{"android":"levelo://app?vid=b35843bb-8826-4f0d-a706-15255e94599e","ios":"levelo://app?vid=b35843bb-8826-4f0d-a706-15255e94599e"},"vehicle_type_id":"4","last_reported":1760811183,"current_range_meters":12000,"station_id":"","pricing_plan_id":"cebpf4jnsgd1na2vs0mg"},{"bike_id":"4455f15d-cfe2-498f-bb21-c5271a89f0e8","system_id":"levelo_inurba_marseille","lat":43.28571,"lon":5.39499,"is_reserved":false,"is_disabled":false,"rental_uris":{"android":"levelo://app?vid=4455f15d-cfe2-498f-bb21-c5271a89f0e8","ios":"levelo://app?vid=4455f15d-cfe2-498f-bb21-c5271a89f0e8"},"vehicle_type_id":"4","last_reported":1760811183,"current_range_meters":12400,"station_id":"ce4bh292rcd13ifvqdg0","pricing_plan_id":"cebpf4jnsgd1na2vs0mg"},{"bike_id":"57772d0e-d6d9-48d5-bf04-c3ce0daf8e02","system_id":"levelo_inurba_marseille","lat":43.29273,"lon":5.38441,"is_reserved":false,"is_disabled":false,"rental_uris":{"android":"levelo://app?vid=57772d0e-d6d9-48d5-bf04-c3ce0daf8e02","ios":"levelo://app?vid=57772d0e-d6d9-48d5-bf04-c3ce0daf8e02"},"vehicle_type_id":"4","last_reported":1760811183,"current_range_meters":12400,"station_id":"ce4bh692rcd13ifvqea0","pricing_plan_id":"cebpf4jnsgd1na2vs0mg"},{"bike_id":"0a414463-fe1a-4833-8a11-178a3c2c879a","system_id":"levelo_inurba_marseille","lat":43.29852,"lon":5.37897,"is_reserved":false,"is_disabled":false,"rental_uris":{"android":"levelo://app?vid=0a414463-fe1a-4833-8a11-178a3c2c879a","ios":"levelo://app?vid=0a414463-fe1a-4833-8a11-178a3c2c879a"},"vehicle_type_id":"4","last_reported":1760811183,"current_range_meters":12400,"station_id":"","pricing_plan_id":"cebpf4jnsgd1na2vs0mg"},{"bike_id":"d26214ec-b3d0-4236-a629-67d87572469b","system_id":"levelo_inurba_marseille","lat":43.24386,"lon":5.37064,"is_reserved":false,"is_disabled":false,"rental_uris":{"android":"levelo://app?vid=d26214ec-b3d0-4236-a629-67d87572469b","ios":"levelo://app?vid=d26214ec-b3d0-4236-a629-67d87572469b"},"vehicle_type_id":"4","last_reported":1760811183,"current_range_meters":12400,"station_id":"ce4bhhh2rcd13ifvqfk0","pricing_plan_id":"cebpf4jnsgd1na2vs0mg"},{"bike_id":"657f303b-2417-4a96-a979-9bb80b1500f6","system_id":"levelo_inurba_marseille","lat":43.29845,"lon":5.36292,"is_reserved":false,"is_disabled":true,"rental_uris":{"android":"levelo://app?vid=657f303b-2417-4a96-a979-9bb80b1500f6","ios":"levelo://app?vid=657f303b-2417-4a96-a979-9bb80b1500f6"},"vehicle_type_id":"4","last_reported":1760811183,"current_range_meters":12400,"station_id":"ce4bgpp2rcd13ifvqc3g","pricing_plan_id":"cebpf4jnsgd1na2vs0mg"},{"bike_id":"ea883585-d0e4-4bcb-922c-57b2a3efdeac","system_id":"levelo_inurba_marseille","lat":43.30512,"lon":5.3681,"is_reserved":false,"is_disabled":false,"rental_uris":{"android":"levelo://app?vid=ea883585-d0e4-4bcb-922c-57b2a3efdeac","ios":"levelo://app?vid=ea883585-d0e4-4bcb-922c-57b2a3efdeac"},"vehicle_type_id":"4","last_reported":1760811183,"current_range_meters":12400,"station_id":"","pricing_plan_id":"cebpf4jnsgd1na2vs0mg"},{"bike_id":"8971f7e8-c173-4660-9361-44476d936e8b","system_id":"levelo_inurba_marseille","lat":43.283693,"lon":5.385963,"is_reserved":false,"is_disabled":false,"rental_uris":{"android":"levelo://app?vid=8971f7e8-c173-4660-9361-44476d936e8b","ios":"levelo://app?vid=8971f7e8-c173-4660-9361-44476d936e8b"},"vehicle_type_id":"4","last_reported":1760811183,"current_range_meters":12400,"station_id":"ce4bh492rcd13ifvqdvg","pricing_plan_id":"cebpf4jnsgd1na2vs0mg"},{"bike_id":"b1db1391-3474-48f3-85bd-dfc79b190eda","system_id":"levelo_inurba_marseille","lat":43.29303,"lon":5.36108,"is_reserved":false,"is_disabled":false,"rental_uris":{"android":"levelo://app?vid=b1db1391-3474-48f3-85bd-dfc79b190eda","ios":"levelo://app?vid=b1db1391-3474-48f3-85bd-dfc79b190eda"},"vehicle_type_id":"4","last_reported":1760811183,"current_range_meters":12400,"station_id":"","pricing_plan_id":"cebpf4jnsgd1na2vs0mg"},{"bike_id":"b9c18541-1aed-4523-80cf-0629e7f98b3e","system_id":"levelo_inurba_marseille","lat":43.29442,"lon":5.38456,"is_reserved":false,"is_disabled":false,"rental_uris":{"android":"levelo://app?vid=b9c18541-1aed-4523-80cf-0629e7f98b3e","ios":"levelo://app?vid=b9c18541-1aed-4523-80cf-0629e7f98b3e"},"vehicle_type_id":"4","last_reported":1760811183,"current_range_meters":12400,"station_id":"","pricing_plan_id":"cebpf4jnsgd1na2vs0mg"},{"bike_id":"a6dc390d-75b4-4c04-949e-fcfc6d2b7023","system_id":"levelo_inurba_marseille","lat":43.27814,"lon":5.40714,"is_reserved":false,"is_disabled":false,"rental_uris":{"android":"levelo://app?vid=a6dc390d-75b4-4c04-949e-fcfc6d2b7023","ios":"levelo://app?vid=a6dc390d-75b4-4c04-949e-fcfc6d2b7023"},"vehicle_type_id":"4","last_reported":1760811183,"current_range_meters":12400,"station_id":"ce4bhnh2rcd13ifvqgtg","pricing_plan_id":"cebpf4jnsgd1na2vs0mg"},{"bike_id":"ae6eb0f2-4874-4ceb-8d8c-7385a8266f58","system_id":"levelo_inurba_marseille","lat":43.29522,"lon":5.37926,"is_reserved":false,"is_disabled":false,"rental_uris":{"android":"levelo://app?vid=ae6eb0f2-4874-4ceb-8d8c-7385a8266f58","ios":"levelo://app?vid=ae6eb0f2-4874-4ceb-8d8c-7385a8266f58"},"vehicle_type_id":"4","last_reported":1760811183,"current_range_meters":12400,"station_id":"","pricing_plan_id":"cebpf4jnsgd1na2vs0mg"},{"bike_id":"50b6b178-614e-405b-8db4-17269ecc2bfa","system_id":"levelo_inurba_marseille","lat":43.27309,"lon":5.39076,"is_reserved":false,"is_disabled":false,"rental_uris":{"android":"levelo://app?vid=50b6b178-614e-405b-8db4-17269ecc2bfa","ios":"levelo://app?vid=50b6b178-614e-405b-8db4-17269ecc2bfa"},"vehicle_type_id":"4","last_reported":1760811183,"current_range_meters":12400,"station_id":"ce4bhgp2rcd13ifvqfe0","pricing_plan_id":"cebpf4jnsgd1na2vs0mg"},{"bike_id":"5a617b65-74d7-4b11-8941-be90b5f2ba18","system_id":"levelo_inurba_marseille","lat":43.29025,"lon":5.38634,"is_reserved":false,"is_disabled":false,"rental_uris":{"android":"levelo://app?vid=5a617b65-74d7-4b11-8941-be90b5f2ba18","ios":"levelo://app?vid=5a617b65-74d7-4b11-8941-be90b5f2ba18"},"vehicle_type_id":"4","last_reported":1760811183,"current_range_meters":12800,"station_id":"ce4bh4p2rcd13ifvqe0g","pricing_plan_id":"cebpf4jnsgd1na2vs0mg"},{"bike_id":"71508cad-19ec-4b12-8f37-cfa45dec54e8","system_id":"levelo_inurba_marseille","lat":43.30791,"lon":5.38162,"is_reserved":false,"is_disabled":false,"rental_uris":{"android":"levelo://app?vid=71508cad-19ec-4b12-8f37-cfa45dec54e8","ios":"levelo://app?vid=71508cad-19ec-4b12-8f37-cfa45dec54e8"},"vehicle_type_id":"4","last_reported":1760811183,"current_range_meters":12800,"station_id":"ce4bgt12rcd13ifvqce0","pricing_plan_id":"cebpf4jnsgd1na2vs0mg"},{"bike_id":"c6227cff-120f-49c6-93a2-5454dd916cde","system_id":"levelo_inurba_marseille","lat":43.26558,"lon":5.37294,"is_reserved":false,"is_disabled":true,"rental_uris":{"android":"levelo://app?vid=c6227cff-120f-49c6-93a2-5454dd916cde","ios":"levelo://app?vid=c6227cff-120f-49c6-93a2-5454dd916cde"},"vehicle_type_id":"4","last_reported":1760811183,"current_range_meters":12800,"station_id":"ce4bhg12rcd13ifvqf70","pricing_plan_id":"cebpf4jnsgd1na2vs0mg"},{"bike_id":"e978660f-731d-4a95-8df5-e0a54d8fe8be","system_id":"levelo_inurba_marseille","lat":43.21192,"lon":5.35083,"is_reserved":false,"is_disabled":true,"rental_uris":{"android":"levelo://app?vid=e978660f-731d-4a95-8df5-e0a54d8fe8be","ios":"levelo://app?vid=e978660f-731d-4a95-8df5-e0a54d8fe8be"},"vehicle_type_id":"4","last_reported":1760811183,"current_range_meters":12800,"station_id":"st_cvj6sg6p6f1abm77japg","pricing_plan_id":"cebpf4jnsgd1na2vs0mg"},{"bike_id":"94a80ed1-2fee-468c-bb76-25f1829c19bf","system_id":"levelo_inurba_marseille","lat":43.304607,"lon":5.378911,"is_reserved":false,"is_disabled":true,"rental_uris":{"android":"levelo://app?vid=94a80ed1-2fee-468c-bb76-25f1829c19bf","ios":"levelo://app?vid=94a80ed1-2fee-468c-bb76-25f1829c19bf"},"vehicle_type_id":"4","last_reported":1760811183,"current_range_meters":12800,"station_id":"ce4bgup2rcd13ifvqcn0","pricing_plan_id":"cebpf4jnsgd1na2vs0mg"},{"bike_id":"bb931737-8147-43ba-af0d-236835cc30ad","system_id":"levelo_inurba_marseille","lat":43.29089,"lon":5.38145,"is_reserved":false,"is_disabled":false,"rental_uris":{"android":"levelo://app?vid=bb931737-8147-43ba-af0d-236835cc30ad","ios":"levelo://app?vid=bb931737-8147-43ba-af0d-236835cc30ad"},"vehicle_type_id":"4","last_reported":1760811183,"current_range_meters":12800,"station_id":"ce4bh512rcd13ifvqe2g","pricing_plan_id":"cebpf4jnsgd1na2vs0mg"},{"bike_id":"f24ed84e-6647-45f6-a2f7-d0da4b2fccc5","system_id":"levelo_inurba_marseille","lat":43.26937,"lon":5.40252,"is_reserved":false,"is_disabled":false,"rental_uris":{"android":"levelo://app?vid=f24ed84e-6647-45f6-a2f7-d0da4b2fccc5","ios":"levelo://app?vid=f24ed84e-6647-45f6-a2f7-d0da4b2fccc5"},"vehicle_type_id":"4","last_reported":1760811183,"current_range_meters":12800,"station_id":"cjm6bp8fraef2m0cb0m0","pricing_plan_id":"cebpf4jnsgd1na2vs0mg"},{"bike_id":"33616bb3-539b-4bb2-9389-eb24fa431e28","system_id":"levelo_inurba_marseille","lat":43.29798,"lon":5.38096,"is_reserved":false,"is_disabled":false,"rental_uris":{"android":"levelo://app?vid=33616bb3-539b-4bb2-9389-eb24fa431e28","ios":"levelo://app?vid=33616bb3-539b-4bb2-9389-eb24fa431e28"},"vehicle_type_id":"4","last_reported":1760811183,"current_range_meters":13600,"station_id":"ce4bgip2rcd13ifvqbb0","pricing_plan_id":"cebpf4jnsgd1na2vs0mg"},{"bike_id":"9aca6410-dfe2-4f0b-8309-4bbe61aef318","system_id":"levelo_inurba_marseille","lat":43.33015,"lon":5.39062,"is_reserved":false,"is_disabled":false,"rental_uris":{"android":"levelo://app?vid=9aca6410-dfe2-4f0b-8309-4bbe61aef318","ios":"levelo://app?vid=9aca6410-dfe2-4f0b-8309-4bbe61aef318"},"vehicle_type_id":"4","last_reported":1760811183,"current_range_meters":13600,"station_id":"ce4bhr92rcd13ifvqhrg","pricing_plan_id":"cebpf4jnsgd1na2vs0mg"},{"bike_id":"b1cf4c80-12d3-49a8-99a6-182defaa6366","system_id":"levelo_inurba_marseille","lat":43.29735,"lon":5.38375,"is_reserved":false,"is_disabled":false,"rental_uris":{"android":"levelo://app?vid=b1cf4c80-12d3-49a8-99a6-182defaa6366","ios":"levelo://app?vid=b1cf4c80-12d3-49a8-99a6-182defaa6366"},"vehicle_type_id":"4","last_reported":1760811183,"current_range_meters":13600,"station_id":"","pricing_plan_id":"cebpf4jnsgd1na2vs0mg"},{"bike_id":"4d639fc2-fd62-4b4f-8fc3-f0ee032daac3","system_id":"levelo_inurba_marseille","lat":43.24169,"lon":5.364,"is_reserved":false,"is_disabled":false,"rental_uris":{"android":"levelo://app?vid=4d639fc2-fd62-4b4f-8fc3-f0ee032daac3","ios":"levelo://app?vid=4d639fc2-fd62-4b4f-8fc3-f0ee032daac3"},"vehicle_type_id":"4","last_reported":1760811183,"current_range_meters":13600,"station_id":"cpo36qri1sfpv3e86is0","pricing_plan_id":"cebpf4jnsgd1na2vs0mg"},{"bike_id":"3a2e0b7d-36a9-4d2f-8f05-38287a57ec75","system_id":"levelo_inurba_marseille","lat":43.266804,"lon":5.382698,"is_reserved":false,"is_disabled":false,"rental_uris":{"android":"levelo://app?vid=3a2e0b7d-36a9-4d2f-8f05-38287a57ec75","ios":"levelo://app?vid=3a2e0b7d-36a9-4d2f-8f05-38287a57ec75"},"vehicle_type_id":"4","last_reported":1760811183,"current_range_meters":13600,"station_id":"ce4bhg92rcd13ifvqf90","pricing_plan_id":"cebpf4jnsgd1na2vs0mg"},{"bike_id":"188c46ce-6d3a-4eab-b2cd-02348d976f4d","system_id":"levelo_inurba_marseille","lat":43.29227,"lon":5.40106,"is_reserved":false,"is_disabled":false,"rental_uris":{"android":"levelo://app?vid=188c46ce-6d3a-4eab-b2cd-02348d976f4d","ios":"levelo://app?vid=188c46ce-6d3a-4eab-b2cd-02348d976f4d"},"vehicle_type_id":"4","last_reported":1760811183,"current_range_meters":13600,"station_id":"","pricing_plan_id":"cebpf4jnsgd1na2vs0mg"},{"bike_id":"6632a0ad-f43a-451e-834c-e4d64180498e","system_id":"levelo_inurba_marseille","lat":43.32666,"lon":5.40992,"is_reserved":false,"is_disabled":false,"rental_uris":{"android":"levelo://app?vid=6632a0ad-f43a-451e-834c-e4d64180498e","ios":"levelo://app?vid=6632a0ad-f43a-451e-834c-e4d64180498e"},"vehicle_type_id":"4","last_reported":1760811183,"current_range_meters":13600,"station_id":"ce4bhpp2rcd13ifvqhgg","pricing_plan_id":"cebpf4jnsgd1na2vs0mg"},{"bike_id":"bf2c3617-0e72-4f4a-8585-0c63bcbc4fce","system_id":"levelo_inurba_marseille","lat":43.28605,"lon":5.35102,"is_reserved":false,"is_disabled":true,"rental_uris":{"android":"levelo://app?vid=bf2c3617-0e72-4f4a-8585-0c63bcbc4fce","ios":"levelo://app?vid=bf2c3617-0e72-4f4a-8585-0c63bcbc4fce"},"vehicle_type_id":"4","last_reported":1760811183,"current_range_meters":14000,"station_id":"ce4bhch2rcd13ifvqeug","pricing_plan_id":"cebpf4jnsgd1na2vs0mg"},{"bike_id":"da645a59-3c37-4a6c-b300-727c90e60e75","system_id":"levelo_inurba_marseille","lat":43.29538,"lon":5.38543,"is_reserved":false,"is_disabled":false,"rental_uris":{"android":"levelo://app?vid=da645a59-3c37-4a6c-b300-727c90e60e75","ios":"levelo://app?vid=da645a59-3c37-4a6c-b300-727c90e60e75"},"vehicle_type_id":"4","last_reported":1760811183,"current_range_meters":14000,"station_id":"ce4bgih2rcd13ifvqba0","pricing_plan_id":"cebpf4jnsgd1na2vs0mg"},{"bike_id":"71914a0b-4078-4e91-8fe4-c4688186f52f","system_id":"levelo_inurba_marseille","lat":43.29276,"lon":5.3845,"is_reserved":false,"is_disabled":false,"rental_uris":{"android":"levelo://app?vid=71914a0b-4078-4e91-8fe4-c4688186f52f","ios":"levelo://app?vid=71914a0b-4078-4e91-8fe4-c4688186f52f"},"vehicle_type_id":"4","last_reported":1760811183,"current_range_meters":14000,"station_id":"ce4bh692rcd13ifvqea0","pricing_plan_id":"cebpf4jnsgd1na2vs0mg"},{"bike_id":"2387b78c-5569-4c75-ba88-76b0ec2749e5","system_id":"levelo_inurba_marseille","lat":43.28994,"lon":5.37182,"is_reserved":false,"is_disabled":false,"rental_uris":{"android":"levelo://app?vid=2387b78c-5569-4c75-ba88-76b0ec2749e5","ios":"levelo://app?vid=2387b78c-5569-4c75-ba88-76b0ec2749e5"},"vehicle_type_id":"4","last_reported":1760811183,"current_range_meters":14000,"station_id":"","pricing_plan_id":"cebpf4jnsgd1na2vs0mg"},{"bike_id":"0b5a0944-67b6-48fd-b87c-fb0e3c165301","system_id":"levelo_inurba_marseille","lat":43.27827,"lon":5.39204,"is_reserved":false,"is_disabled":false,"rental_uris":{"android":"levelo://app?vid=0b5a0944-67b6-48fd-b87c-fb0e3c165301","ios":"levelo://app?vid=0b5a0944-67b6-48fd-b87c-fb0e3c165301"},"vehicle_type_id":"4","last_reported":1760811183,"current_range_meters":14400,"station_id":"ce4bhjp2rcd13ifvqga0","pricing_plan_id":"cebpf4jnsgd1na2vs0mg"},{"bike_id":"074be791-6c38-4f2f-8dd0-b227e073e27e","system_id":"levelo_inurba_marseille","lat":43.24171,"lon":5.36414,"is_reserved":false,"is_disabled":false,"rental_uris":{"android":"levelo://app?vid=074be791-6c38-4f2f-8dd0-b227e073e27e","ios":"levelo://app?vid=074be791-6c38-4f2f-8dd0-b227e073e27e"},"vehicle_type_id":"4","last_reported":1760811183,"current_range_meters":14400,"station_id":"cpo36qri1sfpv3e86is0","pricing_plan_id":"cebpf4jnsgd1na2vs0mg"},{"bike_id":"6426e4fa-7f79-410d-acfa-0a51b3b2658a","system_id":"levelo_inurba_marseille","lat":43.3126,"lon":5.40423,"is_reserved":false,"is_disabled":false,"rental_uris":{"android":"levelo://app?vid=6426e4fa-7f79-410d-acfa-0a51b3b2658a","ios":"levelo://app?vid=6426e4fa-7f79-410d-acfa-0a51b3b2658a"},"vehicle_type_id":"4","last_reported":1760811183,"current_range_meters":14400,"station_id":"","pricing_plan_id":"cebpf4jnsgd1na2vs0mg"},{"bike_id":"3f13991a-43fd-4b49-b31a-f84d43d4b745","system_id":"levelo_inurba_marseille","lat":43.2898,"lon":5.37178,"is_reserved":false,"is_disabled":false,"rental_uris":{"android":"levelo://app?vid=3f13991a-43fd-4b49-b31a-f84d43d4b745","ios":"levelo://app?vid=3f13991a-43fd-4b49-b31a-f84d43d4b745"},"vehicle_type_id":"4","last_reported":1760811183,"current_range_meters":14400,"station_id":"","pricing_plan_id":"cebpf4jnsgd1na2vs0mg"},{"bike_id":"365b1110-8604-4b2d-ad9b-3263b8a258f2","system_id":"levelo_inurba_marseille","lat":43.28655,"lon":5.3634,"is_reserved":false,"is_disabled":false,"rental_uris":{"android":"levelo://app?vid=365b1110-8604-4b2d-ad9b-3263b8a258f2","ios":"levelo://app?vid=365b1110-8604-4b2d-ad9b-3263b8a258f2"},"vehicle_type_id":"4","last_reported":1760811183,"current_range_meters":14400,"station_id":"ce4bhah2rcd13ifvqej0","pricing_plan_id":"cebpf4jnsgd1na2vs0mg"},{"bike_id":"9532cbc9-1c24-434a-a117-140ec46ce174","system_id":"levelo_inurba_marseille","lat":43.28479,"lon":5.38423,"is_reserved":false,"is_disabled":false,"rental_uris":{"android":"levelo://app?vid=9532cbc9-1c24-434a-a117-140ec46ce174","ios":"levelo://app?vid=9532cbc9-1c24-434a-a117-140ec46ce174"},"vehicle_type_id":"4","last_reported":1760811183,"current_range_meters":14400,"station_id":"ce4bh512rcd13ifvqe3g","pricing_plan_id":"cebpf4jnsgd1na2vs0mg"},{"bike_id":"0d672b19-1bdb-47b6-ab9e-003fe88f7a88","system_id":"levelo_inurba_marseille","lat":43.2706,"lon":5.40255,"is_reserved":false,"is_disabled":false,"rental_uris":{"android":"levelo://app?vid=0d672b19-1bdb-47b6-ab9e-003fe88f7a88","ios":"levelo://app?vid=0d672b19-1bdb-47b6-ab9e-003fe88f7a88"},"vehicle_type_id":"4","last_reported":1760811183,"current_range_meters":14400,"station_id":"ce4bhk92rcd13ifvqgc0","pricing_plan_id":"cebpf4jnsgd1na2vs0mg"},{"bike_id":"ac6d2c4d-74a8-443d-a9f9-0d9807feacda","system_id":"levelo_inurba_marseille","lat":43.33772,"lon":5.37469,"is_reserved":false,"is_disabled":false,"rental_uris":{"android":"levelo://app?vid=ac6d2c4d-74a8-443d-a9f9-0d9807feacda","ios":"levelo://app?vid=ac6d2c4d-74a8-443d-a9f9-0d9807feacda"},"vehicle_type_id":"4","last_reported":1760811183,"current_range_meters":14400,"station_id":"","pricing_plan_id":"cebpf4jnsgd1na2vs0mg"},{"bike_id":"c39e862d-9b8b-4851-9fb3-8616925e0158","system_id":"levelo_inurba_marseille","lat":43.29843,"lon":5.36274,"is_reserved":false,"is_disabled":false,"rental_uris":{"android":"levelo://app?vid=c39e862d-9b8b-4851-9fb3-8616925e0158","ios":"levelo://app?vid=c39e862d-9b8b-4851-9fb3-8616925e0158"},"vehicle_type_id":"4","last_reported":1760811183,"current_range_meters":14400,"station_id":"ce4bgpp2rcd13ifvqc3g","pricing_plan_id":"cebpf4jnsgd1na2vs0mg"},{"bike_id":"e7da41cd-e0bd-4204-a5d2-25a8e8420203","system_id":"levelo_inurba_marseille","lat":43.29533,"lon":5.3854,"is_reserved":false,"is_disabled":false,"rental_uris":{"android":"levelo://app?vid=e7da41cd-e0bd-4204-a5d2-25a8e8420203","ios":"levelo://app?vid=e7da41cd-e0bd-4204-a5d2-25a8e8420203"},"vehicle_type_id":"4","last_reported":1760811183,"current_range_meters":14800,"station_id":"ce4bgih2rcd13ifvqba0","pricing_plan_id":"cebpf4jnsgd1na2vs0mg"},{"bike_id":"d712d0ff-3096-41ad-87d0-b640167ff060","system_id":"levelo_inurba_marseille","lat":43.31541,"lon":5.38512,"is_reserved":false,"is_disabled":false,"rental_uris":{"android":"levelo://app?vid=d712d0ff-3096-41ad-87d0-b640167ff060","ios":"levelo://app?vid=d712d0ff-3096-41ad-87d0-b640167ff060"},"vehicle_type_id":"4","last_reported":1760811183,"current_range_meters":14800,"station_id":"","pricing_plan_id":"cebpf4jnsgd1na2vs0mg"},{"bike_id":"f3afa41d-00d3-407a-a32d-94438219b313","system_id":"levelo_inurba_marseille","lat":43.269592,"lon":5.386562,"is_reserved":false,"is_disabled":false,"rental_uris":{"android":"levelo://app?vid=f3afa41d-00d3-407a-a32d-94438219b313","ios":"levelo://app?vid=f3afa41d-00d3-407a-a32d-94438219b313"},"vehicle_type_id":"4","last_reported":1760811183,"current_range_meters":14800,"station_id":"ce4bhh92rcd13ifvqfh0","pricing_plan_id":"cebpf4jnsgd1na2vs0mg"},{"bike_id":"a7b3764b-b896-4840-bd7e-9880973af195","system_id":"levelo_inurba_marseille","lat":43.292287,"lon":5.360602,"is_reserved":false,"is_disabled":false,"rental_uris":{"android":"levelo://app?vid=a7b3764b-b896-4840-bd7e-9880973af195","ios":"levelo://app?vid=a7b3764b-b896-4840-bd7e-9880973af195"},"vehicle_type_id":"4","last_reported":1760811183,"current_range_meters":14800,"station_id":"","pricing_plan_id":"cebpf4jnsgd1na2vs0mg"},{"bike_id":"f4b21278-7a88-4f1e-8b50-4cb4a181722f","system_id":"levelo_inurba_marseille","lat":43.2853,"lon":5.44102,"is_reserved":false,"is_disabled":false,"rental_uris":{"android":"levelo://app?vid=f4b21278-7a88-4f1e-8b50-4cb4a181722f","ios":"levelo://app?vid=f4b21278-7a88-4f1e-8b50-4cb4a181722f"},"vehicle_type_id":"4","last_reported":1760811183,"current_range_meters":14800,"station_id":"st_d3j3df2ikq2c7380ej80","pricing_plan_id":"cebpf4jnsgd1na2vs0mg"},{"bike_id":"2b14f62c-9f74-4b5b-a461-976969204fd6","system_id":"levelo_inurba_marseille","lat":43.29532,"lon":5.38541,"is_reserved":false,"is_disabled":false,"rental_uris":{"android":"levelo://app?vid=2b14f62c-9f74-4b5b-a461-976969204fd6","ios":"levelo://app?vid=2b14f62c-9f74-4b5b-a461-976969204fd6"},"vehicle_type_id":"4","last_reported":1760811183,"current_range_meters":14800,"station_id":"ce4bgih2rcd13ifvqba0","pricing_plan_id":"cebpf4jnsgd1na2vs0mg"},{"bike_id":"c0a350ee-be00-4102-bc12-87d53227b0f5","system_id":"levelo_inurba_marseille","lat":43.29253,"lon":5.3845,"is_reserved":false,"is_disabled":false,"rental_uris":{"android":"levelo://app?vid=c0a350ee-be00-4102-bc12-87d53227b0f5","ios":"levelo://app?vid=c0a350ee-be00-4102-bc12-87d53227b0f5"},"vehicle_type_id":"4","last_reported":1760811183,"current_range_meters":14800,"station_id":"ce4bh692rcd13ifvqea0","pricing_plan_id":"cebpf4jnsgd1na2vs0mg"},{"bike_id":"8d0dfff6-344d-44d4-a7c0-c8985a0e021b","system_id":"levelo_inurba_marseille","lat":43.29913,"lon":5.36818,"is_reserved":false,"is_disabled":false,"rental_uris":{"android":"levelo://app?vid=8d0dfff6-344d-44d4-a7c0-c8985a0e021b","ios":"levelo://app?vid=8d0dfff6-344d-44d4-a7c0-c8985a0e021b"},"vehicle_type_id":"4","last_reported":1760811183,"current_range_meters":14800,"station_id":"","pricing_plan_id":"cebpf4jnsgd1na2vs0mg"},{"bike_id":"1516d228-c4a7-4fc9-8a49-e8e02a356fe5","system_id":"levelo_inurba_marseille","lat":43.28577,"lon":5.39501,"is_reserved":false,"is_disabled":false,"rental_uris":{"android":"levelo://app?vid=1516d228-c4a7-4fc9-8a49-e8e02a356fe5","ios":"levelo://app?vid=1516d228-c4a7-4fc9-8a49-e8e02a356fe5"},"vehicle_type_id":"4","last_reported":1760811183,"current_range_meters":15200,"station_id":"ce4bh292rcd13ifvqdg0","pricing_plan_id":"cebpf4jnsgd1na2vs0mg"},{"bike_id":"cf4c14bf-7635-4f96-a4b6-ee6481db3804","system_id":"levelo_inurba_marseille","lat":43.32293,"lon":5.38287,"is_reserved":false,"is_disabled":false,"rental_uris":{"android":"levelo://app?vid=cf4c14bf-7635-4f96-a4b6-ee6481db3804","ios":"levelo://app?vid=cf4c14bf-7635-4f96-a4b6-ee6481db3804"},"vehicle_type_id":"4","last_reported":1760811183,"current_range_meters":15200,"station_id":"ce4bhr12rcd13ifvqhqg","pricing_plan_id":"cebpf4jnsgd1na2vs0mg"},{"bike_id":"d9a26658-a4d6-411a-95a3-92655ad153ec","system_id":"levelo_inurba_marseille","lat":43.26926,"lon":5.40282,"is_reserved":false,"is_disabled":false,"rental_uris":{"android":"levelo://app?vid=d9a26658-a4d6-411a-95a3-92655ad153ec","ios":"levelo://app?vid=d9a26658-a4d6-411a-95a3-92655ad153ec"},"vehicle_type_id":"4","last_reported":1760811183,"current_range_meters":15200,"station_id":"cjm6bp8fraef2m0cb0m0","pricing_plan_id":"cebpf4jnsgd1na2vs0mg"},{"bike_id":"3723dc20-8123-4f5f-92a0-0c3073c1e3b9","system_id":"levelo_inurba_marseille","lat":43.2526,"lon":5.42203,"is_reserved":false,"is_disabled":false,"rental_uris":{"android":"levelo://app?vid=3723dc20-8123-4f5f-92a0-0c3073c1e3b9","ios":"levelo://app?vid=3723dc20-8123-4f5f-92a0-0c3073c1e3b9"},"vehicle_type_id":"4","last_reported":1760811183,"current_range_meters":16000,"station_id":"st_d2m65c5bi1j21697t3ng","pricing_plan_id":"cebpf4jnsgd1na2vs0mg"},{"bike_id":"4ec8b0cc-1282-4437-9c7e-d089f0dd057c","system_id":"levelo_inurba_marseille","lat":43.29265,"lon":5.38428,"is_reserved":false,"is_disabled":false,"rental_uris":{"android":"levelo://app?vid=4ec8b0cc-1282-4437-9c7e-d089f0dd057c","ios":"levelo://app?vid=4ec8b0cc-1282-4437-9c7e-d089f0dd057c"},"vehicle_type_id":"4","last_reported":1760811183,"current_range_meters":16000,"station_id":"ce4bh692rcd13ifvqea0","pricing_plan_id":"cebpf4jnsgd1na2vs0mg"},{"bike_id":"32d6aef7-2467-4a79-8d4c-b4011a24c96d","system_id":"levelo_inurba_marseille","lat":43.306,"lon":5.37233,"is_reserved":false,"is_disabled":false,"rental_uris":{"android":"levelo://app?vid=32d6aef7-2467-4a79-8d4c-b4011a24c96d","ios":"levelo://app?vid=32d6aef7-2467-4a79-8d4c-b4011a24c96d"},"vehicle_type_id":"4","last_reported":1760811183,"current_range_meters":16000,"station_id":"ce4bgqh2rcd13ifvqc4g","pricing_plan_id":"cebpf4jnsgd1na2vs0mg"},{"bike_id":"ca66566f-bb6f-47c3-9261-9f948cee6a02","system_id":"levelo_inurba_marseille","lat":43.273,"lon":5.39117,"is_reserved":false,"is_disabled":false,"rental_uris":{"android":"levelo://app?vid=ca66566f-bb6f-47c3-9261-9f948cee6a02","ios":"levelo://app?vid=ca66566f-bb6f-47c3-9261-9f948cee6a02"},"vehicle_type_id":"4","last_reported":1760811183,"current_range_meters":16000,"station_id":"ce4bhgp2rcd13ifvqfe0","pricing_plan_id":"cebpf4jnsgd1na2vs0mg"},{"bike_id":"c7e2ad38-7e2d-4297-abba-d5417374e064","system_id":"levelo_inurba_marseille","lat":43.31754,"lon":5.39013,"is_reserved":false,"is_disabled":false,"rental_uris":{"android":"levelo://app?vid=c7e2ad38-7e2d-4297-abba-d5417374e064","ios":"levelo://app?vid=c7e2ad38-7e2d-4297-abba-d5417374e064"},"vehicle_type_id":"4","last_reported":1760811183,"current_range_meters":16000,"station_id":"ce4bhqp2rcd13ifvqhng","pricing_plan_id":"cebpf4jnsgd1na2vs0mg"},{"bike_id":"c4c3df30-d201-46d2-9ab2-843dcd80dd50","system_id":"levelo_inurba_marseille","lat":43.308895,"lon":5.396615,"is_reserved":false,"is_disabled":false,"rental_uris":{"android":"levelo://app?vid=c4c3df30-d201-46d2-9ab2-843dcd80dd50","ios":"levelo://app?vid=c4c3df30-d201-46d2-9ab2-843dcd80dd50"},"vehicle_type_id":"4","last_reported":1760811183,"current_range_meters":16400,"station_id":"ce4bh012rcd13ifvqcv0","pricing_plan_id":"cebpf4jnsgd1na2vs0mg"},{"bike_id":"18ed5a02-6af1-43a9-bcc7-1305b3c6b2e1","system_id":"levelo_inurba_marseille","lat":43.273,"lon":5.3908,"is_reserved":false,"is_disabled":false,"rental_uris":{"android":"levelo://app?vid=18ed5a02-6af1-43a9-bcc7-1305b3c6b2e1","ios":"levelo://app?vid=18ed5a02-6af1-43a9-bcc7-1305b3c6b2e1"},