{"last_updated":1703174927,"ttl":30,"version":"2.2","data":{"bikes":[{"bike_id":"9c4bed50-4c08-46fb-9163-9ec5afa45ff6","system_id":"levelo_inurba_marseille","lat":43.31341,"lon":5.367098,"is_reserved":false,"is_disabled":false,"rental_uris":{"android":"levelo://app?vid=9c4bed50-4c08-46fb-9163-9ec5afa45ff6","ios":"levelo://app?vid=9c4bed50-4c08-46fb-9163-9ec5afa45ff6"},"vehicle_type_id":"4","last_reported":1703174928,"current_range_meters":0,"station_id":"ce4bgr92rcd13ifvqc6g","pricing_plan_id":"free"},{"bike_id":"c4c56885-4dc4-4bf3-8d99-76f04c2b379a","system_id":"levelo_inurba_marseille","lat":43.308655,"lon":5.37193,"is_reserved":false,"is_disabled":false,"rental_uris":{"android":"levelo://app?vid=c4c56885-4dc4-4bf3-8d99-76f04c2b379a","ios":"levelo://app?vid=c4c56885-4dc4-4bf3-8d99-76f04c2b379a"},"vehicle_type_id":"4","last_reported":1703174928,"current_range_meters":5600,"station_id":"ce4bgn92rcd13ifvqbvg","pricing_plan_id":"free"},{"bike_id":"b0cb039e-33ad-471e-80de-bfb7f7379ae1","system_id":"levelo_inurba_marseille","lat":43.305706,"lon":5.365654,"is_reserved":false,"is_disabled":false,"rental_uris":{"android":"levelo://app?vid=b0cb039e-33ad-471e-80de-bfb7f7379ae1","ios":"levelo://app?vid=b0cb039e-33ad-471e-80de-bfb7f7379ae1"},"vehicle_type_id":"4","last_reported":1703174928,"current_range_meters":12800,"station_id":"ce4bgs12rcd13ifvqcag","pricing_plan_id":"free"},{"bike_id":"dda4cd1f-5d0d-4c09-a4d8-fd0146edc0a7","system_id":"levelo_inurba_marseille","lat":43.305989,"lon":5.37225,"is_reserved":false,"is_disabled":false,"rental_uris":{"android":"levelo://app?vid=dda4cd1f-5d0d-4c09-a4d8-fd0146edc0a7","ios":"levelo://app?vid=dda4cd1f-5d0d-4c09-a4d8-fd0146edc0a7"},"vehicle_type_id":"4","last_reported":1703174928,"current_range_meters":6800,"station_id":"ce4bgqh2rcd13ifvqc4g","pricing_plan_id":"free"},{"bike_id":"4a009020-987d-4f0e-a895-b97203d25bb1","system_id":"levelo_inurba_marseille","lat":43.311131,"lon":5.377651,"is_reserved":false,"is_disabled":false,"rental_uris":{"android":"levelo://app?vid=4a009020-987d-4f0e-a895-b97203d25bb1","ios":"levelo://app?vid=4a009020-987d-4f0e-a895-b97203d25bb1"},"vehicle_type_id":"4","last_reported":1703174928,"current_range_meters":23600,"station_id":"ce4bgt92rcd13ifvqcg0","pricing_plan_id":"free"},{"bike_id":"6c662160-2878-403e-9cb2-748204edb49f","system_id":"levelo_inurba_marseille","lat":43.31545,"lon":5.38018,"is_reserved":false,"is_disabled":false,"rental_uris":{"android":"levelo://app?vid=6c662160-2878-403e-9cb2-748204edb49f","ios":"levelo://app?vid=6c662160-2878-403e-9cb2-748204edb49f"},"vehicle_type_id":"4","last_reported":1703174928,"current_range_meters":7600,"station_id":"ce4bhsp2rcd13ifvqi50","pricing_plan_id":"free"},{"bike_id":"3aedfd34-6cd3-4b43-b2fa-4ba187f359b4","system_id":"levelo_inurba_marseille","lat":43.301939,"lon":5.366286,"is_reserved":false,"is_disabled":false,"rental_uris":{"android":"levelo://app?vid=3aedfd34-6cd3-4b43-b2fa-4ba187f359b4","ios":"levelo://app?vid=3aedfd34-6cd3-4b43-b2fa-4ba187f359b4"},"vehicle_type_id":"4","last_reported":1703174928,"current_range_meters":27200,"station_id":"ce4bgrh2rcd13ifvqc8g","pricing_plan_id":"free"},{"bike_id":"26e4b55d-4243-4287-9e88-fbeda384b486","system_id":"levelo_inurba_marseille","lat":43.31111,"lon":5.38199,"is_reserved":false,"is_disabled":false,"rental_uris":{"android":"levelo://app?vid=26e4b55d-4243-4287-9e88-fbeda384b486","ios":"levelo://app?vid=26e4b55d-4243-4287-9e88-fbeda384b486"},"vehicle_type_id":"4","last_reported":1703174928,"current_range_meters":13600,"station_id":"","pricing_plan_id":"free"},{"bike_id":"0f29f9fc-ade1-445d-ba8d-4631c9525c9b","system_id":"levelo_inurba_marseille","lat":43.30636,"lon":5.37995,"is_reserved":false,"is_disabled":false,"rental_uris":{"android":"levelo://app?vid=0f29f9fc-ade1-445d-ba8d-4631c9525c9b","ios":"levelo://app?vid=0f29f9fc-ade1-445d-ba8d-4631c9525c9b"},"vehicle_type_id":"4","last_reported":1703174928,"current_range_meters":0,"station_id":"","pricing_plan_id":"free"},{"bike_id":"05efc946-30d2-4c59-bbc9-e56f70b3f99f","system_id":"levelo_inurba_marseille","lat":43.304606,"lon":5.379026,"is_reserved":false,"is_disabled":false,"rental_uris":{"android":"levelo://app?vid=05efc946-30d2-4c59-bbc9-e56f70b3f99f","ios":"levelo://app?vid=05efc946-30d2-4c59-bbc9-e56f70b3f99f"},"vehicle_type_id":"4","last_reported":1703174928,"current_range_meters":22000,"station_id":"ce4bgup2rcd13ifvqcn0","pricing_plan_id":"free"},{"bike_id":"eccbc1e6-7ef4-495a-8739-93f3bbcbbc7f","system_id":"levelo_inurba_marseille","lat":43.304606,"lon":5.379026,"is_reserved":false,"is_disabled":false,"rental_uris":{"android":"levelo://app?vid=eccbc1e6-7ef4-495a-8739-93f3bbcbbc7f","ios":"levelo://app?vid=eccbc1e6-7ef4-495a-8739-93f3bbcbbc7f"},"vehicle_type_id":"4","last_reported":1703174928,"current_range_meters":0,"station_id":"ce4bgup2rcd13ifvqcn0","pricing_plan_id":"free"},{"bike_id":"d851deb2-b972-4cf1-8eb5-acf388e75f23","system_id":"levelo_inurba_marseille","lat":43.304606,"lon":5.379026,"is_reserved":false,"is_disabled":false,"rental_uris":{"android":"levelo://app?vid=d851deb2-b972-4cf1-8eb5-acf388e75f23","ios":"levelo://app?vid=d851deb2-b972-4cf1-8eb5-acf388e75f23"},"vehicle_type_id":"4","last_reported":1703174928,"current_range_meters":17200,"station_id":"ce4bgup2rcd13ifvqcn0","pricing_plan_id":"free"},{"bike_id":"47840dc3-c9b3-4c2f-bdb2-3770067fe91d","system_id":"levelo_inurba_marseille","lat":43.302784,"lon":5.377158,"is_reserved":false,"is_disabled":false,"rental_uris":{"android":"levelo://app?vid=47840dc3-c9b3-4c2f-bdb2-3770067fe91d","ios":"levelo://app?vid=47840dc3-c9b3-4c2f-bdb2-3770067fe91d"},"vehicle_type_id":"4","last_reported":1703174928,"current_range_meters":30000,"station_id":"ce4bguh2rcd13ifvqcj0","pricing_plan_id":"free"},{"bike_id":"dc0f6af5-c02c-4610-baea-e5c6ca16f530","system_id":"levelo_inurba_marseille","lat":43.31995,"lon":5.38145,"is_reserved":false,"is_disabled":false,"rental_uris":{"android":"levelo://app?vid=dc0f6af5-c02c-4610-baea-e5c6ca16f530","ios":"levelo://app?vid=dc0f6af5-c02c-4610-baea-e5c6ca16f530"},"vehicle_type_id":"4","last_reported":1703174928,"current_range_meters":31200,"station_id":"ce4bhr12rcd13ifvqhpg","pricing_plan_id":"free"},{"bike_id":"ad0dedf2-0cd4-4d6b-9ecb-d240001f99ef","system_id":"levelo_inurba_marseille","lat":43.31989,"lon":5.38157,"is_reserved":false,"is_disabled":false,"rental_uris":{"android":"levelo://app?vid=ad0dedf2-0cd4-4d6b-9ecb-d240001f99ef","ios":"levelo://app?vid=ad0dedf2-0cd4-4d6b-9ecb-d240001f99ef"},"vehicle_type_id":"4","last_reported":1703174928,"current_range_meters":28800,"station_id":"ce4bhr12rcd13ifvqhpg","pricing_plan_id":"free"},{"bike_id":"bf29f302-2dda-4aeb-bd7f-38d08e28933e","system_id":"levelo_inurba_marseille","lat":43.320005,"lon":5.381601,"is_reserved":false,"is_disabled":false,"rental_uris":{"android":"levelo://app?vid=bf29f302-2dda-4aeb-bd7f-38d08e28933e","ios":"levelo://app?vid=bf29f302-2dda-4aeb-bd7f-38d08e28933e"},"vehicle_type_id":"4","last_reported":1703174928,"current_range_meters":10000,"station_id":"ce4bhr12rcd13ifvqhpg","pricing_plan_id":"free"},{"bike_id":"a225c59d-87d3-484f-9141-c51109590b7a","system_id":"levelo_inurba_marseille","lat":43.31359,"lon":5.38493,"is_reserved":false,"is_disabled":false,"rental_uris":{"android":"levelo://app?vid=a225c59d-87d3-484f-9141-c51109590b7a","ios":"levelo://app?vid=a225c59d-87d3-484f-9141-c51109590b7a"},"vehicle_type_id":"4","last_reported":1703174928,"current_range_meters":22000,"station_id":"ce4bgt92rcd13ifvqcf0","pricing_plan_id":"free"},{"bike_id":"e1948090-3734-435b-a498-94e7ec388281","system_id":"levelo_inurba_marseille","lat":43.31361,"lon":5.38495,"is_reserved":false,"is_disabled":false,"rental_uris":{"android":"levelo://app?vid=e1948090-3734-435b-a498-94e7ec388281","ios":"levelo://app?vid=e1948090-3734-435b-a498-94e7ec388281"},"vehicle_type_id":"4","last_reported":1703174928,"current_range_meters":22000,"station_id":"ce4bgt92rcd13ifvqcf0","pricing_plan_id":"free"},{"bike_id":"873fee77-52f2-433c-9a9b-732383ce7068","system_id":"levelo_inurba_marseille","lat":43.299724,"lon":5.371829,"is_reserved":false,"is_disabled":false,"rental_uris":{"android":"levelo://app?vid=873fee77-52f2-433c-9a9b-732383ce7068","ios":"levelo://app?vid=873fee77-52f2-433c-9a9b-732383ce7068"},"vehicle_type_id":"4","last_reported":1703174928,"current_range_meters":18800,"station_id":"ce4bgr92rcd13ifvqc7g","pricing_plan_id":"free"},{"bike_id":"327c36fa-d394-42cc-ac3f-80ef6ed283b1","system_id":"levelo_inurba_marseille","lat":43.299724,"lon":5.371829,"is_reserved":false,"is_disabled":false,"rental_uris":{"android":"levelo://app?vid=327c36fa-d394-42cc-ac3f-80ef6ed283b1","ios":"levelo://app?vid=327c36fa-d394-42cc-ac3f-80ef6ed283b1"},"vehicle_type_id":"4","last_reported":1703174928,"current_range_meters":7200,"station_id":"ce4bgr92rcd13ifvqc7g","pricing_plan_id":"free"},{"bike_id":"b8aeb2d3-a4c3-41f7-9782-aecdbbe33e4e","system_id":"levelo_inurba_marseille","lat":43.299724,"lon":5.371829,"is_reserved":false,"is_disabled":false,"rental_uris":{"android":"levelo://app?vid=b8aeb2d3-a4c3-41f7-9782-aecdbbe33e4e","ios":"levelo://app?vid=b8aeb2d3-a4c3-41f7-9782-aecdbbe33e4e"},"vehicle_type_id":"4","last_reported":1703174928,"current_range_meters":28400,"station_id":"ce4bgr92rcd13ifvqc7g","pricing_plan_id":"free"},{"bike_id":"53717272-c51d-42df-9ed2-3aba564fe9bd","system_id":"levelo_inurba_marseille","lat":43.298433,"lon":5.362774,"is_reserved":false,"is_disabled":false,"rental_uris":{"android":"levelo://app?vid=53717272-c51d-42df-9ed2-3aba564fe9bd","ios":"levelo://app?vid=53717272-c51d-42df-9ed2-3aba564fe9bd"},"vehicle_type_id":"4","last_reported":1703174928,"current_range_meters":15600,"station_id":"ce4bgpp2rcd13ifvqc3g","pricing_plan_id":"free"},{"bike_id":"814b164a-671b-45b8-afbd-945841e783db","system_id":"levelo_inurba_marseille","lat":43.299243,"lon":5.37481,"is_reserved":false,"is_disabled":false,"rental_uris":{"android":"levelo://app?vid=814b164a-671b-45b8-afbd-945841e783db","ios":"levelo://app?vid=814b164a-671b-45b8-afbd-945841e783db"},"vehicle_type_id":"4","last_reported":1703174928,"current_range_meters":22000,"station_id":"ce4bgjh2rcd13ifvqbg0","pricing_plan_id":"free"},{"bike_id":"f21071bf-e1fc-4073-b93b-9a8ae9737fa1","system_id":"levelo_inurba_marseille","lat":43.299243,"lon":5.37481,"is_reserved":false,"is_disabled":false,"rental_uris":{"android":"levelo://app?vid=f21071bf-e1fc-4073-b93b-9a8ae9737fa1","ios":"levelo://app?vid=f21071bf-e1fc-4073-b93b-9a8ae9737fa1"},"vehicle_type_id":"4","last_reported":1703174928,"current_range_meters":10400,"station_id":"ce4bgjh2rcd13ifvqbg0","pricing_plan_id":"free"},{"bike_id":"1378810b-812d-44e5-847a-1b7aeb90e4c4","system_id":"levelo_inurba_marseille","lat":43.29882,"lon":5.3742,"is_reserved":false,"is_disabled":false,"rental_uris":{"android":"levelo://app?vid=1378810b-812d-44e5-847a-1b7aeb90e4c4","ios":"levelo://app?vid=1378810b-812d-44e5-847a-1b7aeb90e4c4"},"vehicle_type_id":"4","last_reported":1703174928,"current_range_meters":17200,"station_id":"","pricing_plan_id":"free"},{"bike_id":"0cdbd0f0-d3c9-4a82-8c6d-6ffa03bfbf25","system_id":"levelo_inurba_marseille","lat":43.326937,"lon":5.373183,"is_reserved":false,"is_disabled":false,"rental_uris":{"android":"levelo://app?vid=0cdbd0f0-d3c9-4a82-8c6d-6ffa03bfbf25","ios":"levelo://app?vid=0cdbd0f0-d3c9-4a82-8c6d-6ffa03bfbf25"},"vehicle_type_id":"4","last_reported":1703174928,"current_range_meters":19600,"station_id":"","pricing_plan_id":"free"},{"bike_id":"c7926408-b132-4ce6-a394-54a707bf478d","system_id":"levelo_inurba_marseille","lat":43.29784,"lon":5.370987,"is_reserved":false,"is_disabled":false,"rental_uris":{"android":"levelo://app?vid=c7926408-b132-4ce6-a394-54a707bf478d","ios":"levelo://app?vid=c7926408-b132-4ce6-a394-54a707bf478d"},"vehicle_type_id":"4","last_reported":1703174928,"current_range_meters":400,"station_id":"ce4bgop2rcd13ifvqc1g","pricing_plan_id":"free"},{"bike_id":"a89469ca-6d5c-4996-ab99-845936fe268c","system_id":"levelo_inurba_marseille","lat":43.292724,"lon":5.401131,"is_reserved":false,"is_disabled":false,"rental_uris":{"android":"levelo://app?vid=a89469ca-6d5c-4996-ab99-845936fe268c","ios":"levelo://app?vid=a89469ca-6d5c-4996-ab99-845936fe268c"},"vehicle_type_id":"4","last_reported":1703174928,"current_range_meters":10000,"station_id":"ce4bh312rcd13ifvqdk0","pricing_plan_id":"free"},{"bike_id":"220dbcc5-f9b9-4ec1-a000-a1e02fed0e9b","system_id":"levelo_inurba_marseille","lat":43.29584,"lon":5.36785,"is_reserved":false,"is_disabled":false,"rental_uris":{"android":"levelo://app?vid=220dbcc5-f9b9-4ec1-a000-a1e02fed0e9b","ios":"levelo://app?vid=220dbcc5-f9b9-4ec1-a000-a1e02fed0e9b"},"vehicle_type_id":"4","last_reported":1703174928,"current_range_meters":23600,"station_id":"ce4bgph2rcd13ifvqc2g","pricing_plan_id":"free"},{"bike_id":"86982100-5807-41c9-b7d7-697a0866e8d4","system_id":"levelo_inurba_marseille","lat":43.31757,"lon":5.39015,"is_reserved":false,"is_disabled":false,"rental_uris":{"android":"levelo://app?vid=86982100-5807-41c9-b7d7-697a0866e8d4","ios":"levelo://app?vid=86982100-5807-41c9-b7d7-697a0866e8d4"},"vehicle_type_id":"4","last_reported":1703174928,"current_range_meters":31200,"station_id":"ce4bhqp2rcd13ifvqhng","pricing_plan_id":"free"},{"bike_id":"04ca680c-0493-4f1b-9ef8-db1e704523dd","system_id":"levelo_inurba_marseille","lat":43.31754,"lon":5.39017,"is_reserved":false,"is_disabled":false,"rental_uris":{"android":"levelo://app?vid=04ca680c-0493-4f1b-9ef8-db1e704523dd","ios":"levelo://app?vid=04ca680c-0493-4f1b-9ef8-db1e704523dd"},"vehicle_type_id":"4","last_reported":1703174928,"current_range_meters":25200,"station_id":"ce4bhqp2rcd13ifvqhng","pricing_plan_id":"free"},{"bike_id":"834b9782-39e8-4602-8b8d-ea95026281ec","system_id":"levelo_inurba_marseille","lat":43.31756,"lon":5.39017,"is_reserved":false,"is_disabled":false,"rental_uris":{"android":"levelo://app?vid=834b9782-39e8-4602-8b8d-ea95026281ec","ios":"levelo://app?vid=834b9782-39e8-4602-8b8d-ea95026281ec"},"vehicle_type_id":"4","last_reported":1703174928,"current_range_meters":3600,"station_id":"ce4bhqp2rcd13ifvqhng","pricing_plan_id":"free"},{"bike_id":"1c953f79-2af2-41d2-b253-726eafe2c274","system_id":"levelo_inurba_marseille","lat":43.2979,"lon":5.38101,"is_reserved":false,"is_disabled":false,"rental_uris":{"android":"levelo://app?vid=1c953f79-2af2-41d2-b253-726eafe2c274","ios":"levelo://app?vid=1c953f79-2af2-41d2-b253-726eafe2c274"},"vehicle_type_id":"4","last_reported":1703174928,"current_range_meters":0,"station_id":"ce4bgip2rcd13ifvqbb0","pricing_plan_id":"free"},{"bike_id":"7e77c967-1086-4fc2-a24c-f72dba6597a3","system_id":"levelo_inurba_marseille","lat":43.304278,"lon":5.388868,"is_reserved":false,"is_disabled":false,"rental_uris":{"android":"levelo://app?vid=7e77c967-1086-4fc2-a24c-f72dba6597a3","ios":"levelo://app?vid=7e77c967-1086-4fc2-a24c-f72dba6597a3"},"vehicle_type_id":"4","last_reported":1703174928,"current_range_meters":5200,"station_id":"ce4bgk12rcd13ifvqbi0","pricing_plan_id":"free"},{"bike_id":"6ef6eb4a-1499-446a-96a2-cbed99e4f73b","system_id":"levelo_inurba_marseille","lat":43.298037,"lon":5.381066,"is_reserved":false,"is_disabled":false,"rental_uris":{"android":"levelo://app?vid=6ef6eb4a-1499-446a-96a2-cbed99e4f73b","ios":"levelo://app?vid=6ef6eb4a-1499-446a-96a2-cbed99e4f73b"},"vehicle_type_id":"4","last_reported":1703174928,"current_range_meters":0,"station_id":"ce4bgip2rcd13ifvqbb0","pricing_plan_id":"free"},{"bike_id":"b5d06a4a-ee4e-4519-aa09-014529f820de","system_id":"levelo_inurba_marseille","lat":43.32367,"lon":5.388836,"is_reserved":false,"is_disabled":false,"rental_uris":{"android":"levelo://app?vid=b5d06a4a-ee4e-4519-aa09-014529f820de","ios":"levelo://app?vid=b5d06a4a-ee4e-4519-aa09-014529f820de"},"vehicle_type_id":"4","last_reported":1703174928,"current_range_meters":8400,"station_id":"ce4bhqp2rcd13ifvqhog","pricing_plan_id":"free"},{"bike_id":"88b30ead-3f10-40b3-b421-d8ea39511a15","system_id":"levelo_inurba_marseille","lat":43.32367,"lon":5.388836,"is_reserved":false,"is_disabled":false,"rental_uris":{"android":"levelo://app?vid=88b30ead-3f10-40b3-b421-d8ea39511a15","ios":"levelo://app?vid=88b30ead-3f10-40b3-b421-d8ea39511a15"},"vehicle_type_id":"4","last_reported":1703174928,"current_range_meters":13200,"station_id":"ce4bhqp2rcd13ifvqhog","pricing_plan_id":"free"},{"bike_id":"6f064f0c-ab5f-4715-9156-c4f2914cc63d","system_id":"levelo_inurba_marseille","lat":43.29601,"lon":5.381084,"is_reserved":false,"is_disabled":false,"rental_uris":{"android":"levelo://app?vid=6f064f0c-ab5f-4715-9156-c4f2914cc63d","ios":"levelo://app?vid=6f064f0c-ab5f-4715-9156-c4f2914cc63d"},"vehicle_type_id":"4","last_reported":1703174928,"current_range_meters":19200,"station_id":"ce4bgl12rcd13ifvqbo0","pricing_plan_id":"free"},{"bike_id":"657b4d30-11c4-4174-ae70-5f17e3ee8719","system_id":"levelo_inurba_marseille","lat":43.286039,"lon":5.370679,"is_reserved":false,"is_disabled":false,"rental_uris":{"android":"levelo://app?vid=657b4d30-11c4-4174-ae70-5f17e3ee8719","ios":"levelo://app?vid=657b4d30-11c4-4174-ae70-5f17e3ee8719"},"vehicle_type_id":"4","last_reported":1703174928,"current_range_meters":12800,"station_id":"ce4bht12rcd13ifvqi60","pricing_plan_id":"free"},{"bike_id":"9ec082a3-be38-4ff4-a2ab-3360da8829c9","system_id":"levelo_inurba_marseille","lat":43.293009,"lon":5.374584,"is_reserved":false,"is_disabled":false,"rental_uris":{"android":"levelo://app?vid=9ec082a3-be38-4ff4-a2ab-3360da8829c9","ios":"levelo://app?vid=9ec082a3-be38-4ff4-a2ab-3360da8829c9"},"vehicle_type_id":"4","last_reported":1703174928,"current_range_meters":14400,"station_id":"ce4bgi12rcd13ifvqb70","pricing_plan_id":"free"},{"bike_id":"b92d8c08-4834-44b1-858c-d7cabc5a10f3","system_id":"levelo_inurba_marseille","lat":43.293009,"lon":5.374584,"is_reserved":false,"is_disabled":false,"rental_uris":{"android":"levelo://app?vid=b92d8c08-4834-44b1-858c-d7cabc5a10f3","ios":"levelo://app?vid=b92d8c08-4834-44b1-858c-d7cabc5a10f3"},"vehicle_type_id":"4","last_reported":1703174928,"current_range_meters":26800,"station_id":"ce4bgi12rcd13ifvqb70","pricing_plan_id":"free"},{"bike_id":"e2cd3274-80e1-44d0-b122-63a88b800651","system_id":"levelo_inurba_marseille","lat":43.299707,"lon":5.384859,"is_reserved":false,"is_disabled":false,"rental_uris":{"android":"levelo://app?vid=e2cd3274-80e1-44d0-b122-63a88b800651","ios":"levelo://app?vid=e2cd3274-80e1-44d0-b122-63a88b800651"},"vehicle_type_id":"4","last_reported":1703174928,"current_range_meters":10800,"station_id":"ce4bgj92rcd13ifvqbd0","pricing_plan_id":"free"},{"bike_id":"fb30ae47-66a0-4164-b243-42779094d284","system_id":"levelo_inurba_marseille","lat":43.29865,"lon":5.38905,"is_reserved":false,"is_disabled":false,"rental_uris":{"android":"levelo://app?vid=fb30ae47-66a0-4164-b243-42779094d284","ios":"levelo://app?vid=fb30ae47-66a0-4164-b243-42779094d284"},"vehicle_type_id":"4","last_reported":1703174928,"current_range_meters":22400,"station_id":"","pricing_plan_id":"free"},{"bike_id":"4146715a-c6ea-494c-b01c-f1e56e7099c6","system_id":"levelo_inurba_marseille","lat":43.29861,"lon":5.38909,"is_reserved":false,"is_disabled":false,"rental_uris":{"android":"levelo://app?vid=4146715a-c6ea-494c-b01c-f1e56e7099c6","ios":"levelo://app?vid=4146715a-c6ea-494c-b01c-f1e56e7099c6"},"vehicle_type_id":"4","last_reported":1703174928,"current_range_meters":14000,"station_id":"","pricing_plan_id":"free"},{"bike_id":"c901be18-f4a6-4c3a-9998-bcaff180003f","system_id":"levelo_inurba_marseille","lat":43.291994,"lon":5.357886,"is_reserved":false,"is_disabled":false,"rental_uris":{"android":"levelo://app?vid=c901be18-f4a6-4c3a-9998-bcaff180003f","ios":"levelo://app?vid=c901be18-f4a6-4c3a-9998-bcaff180003f"},"vehicle_type_id":"4","last_reported":1703174928,"current_range_meters":8000,"station_id":"ce4bhb12rcd13ifvqel0","pricing_plan_id":"free"},{"bike_id":"dadec077-0df0-4e3f-a2e2-94987a23d35f","system_id":"levelo_inurba_marseille","lat":43.313291,"lon":5.396838,"is_reserved":false,"is_disabled":false,"rental_uris":{"android":"levelo://app?vid=dadec077-0df0-4e3f-a2e2-94987a23d35f","ios":"levelo://app?vid=dadec077-0df0-4e3f-a2e2-94987a23d35f"},"vehicle_type_id":"4","last_reported":1703174928,"current_range_meters":8400,"station_id":"ce4bgvp2rcd13ifvqcu0","pricing_plan_id":"free"},{"bike_id":"437909c3-e0cc-45cb-bb06-3c7cdb0006dd","system_id":"levelo_inurba_marseille","lat":43.313291,"lon":5.396838,"is_reserved":false,"is_disabled":false,"rental_uris":{"android":"levelo://app?vid=437909c3-e0cc-45cb-bb06-3c7cdb0006dd","ios":"levelo://app?vid=437909c3-e0cc-45cb-bb06-3c7cdb0006dd"},"vehicle_type_id":"4","last_reported":1703174928,"current_range_meters":9600,"station_id":"ce4bgvp2rcd13ifvqcu0","pricing_plan_id":"free"},{"bike_id":"b4f10cf4-7c43-4607-a9e8-154b1801a174","system_id":"levelo_inurba_marseille","lat":43.29529,"lon":5.385581,"is_reserved":false,"is_disabled":false,"rental_uris":{"android":"levelo://app?vid=b4f10cf4-7c43-4607-a9e8-154b1801a174","ios":"levelo://app?vid=b4f10cf4-7c43-4607-a9e8-154b1801a174"},"vehicle_type_id":"4","last_reported":1703174928,"current_range_meters":25200,"station_id":"ce4bgih2rcd13ifvqba0","pricing_plan_id":"free"},{"bike_id":"ec9cfd4e-92fa-429a-ae30-807a769af2b0","system_id":"levelo_inurba_marseille","lat":43.29529,"lon":5.385581,"is_reserved":false,"is_disabled":false,"rental_uris":{"android":"levelo://app?vid=ec9cfd4e-92fa-429a-ae30-807a769af2b0","ios":"levelo://app?vid=ec9cfd4e-92fa-429a-ae30-807a769af2b0"},"vehicle_type_id":"4","last_reported":1703174928,"current_range_meters":8000,"station_id":"ce4bgih2rcd13ifvqba0","pricing_plan_id":"free"},{"bike_id":"6c311aa5-6475-4272-be22-8860c7f8395e","system_id":"levelo_inurba_marseille","lat":43.29529,"lon":5.385581,"is_reserved":false,"is_disabled":false,"rental_uris":{"android":"levelo://app?vid=6c311aa5-6475-4272-be22-8860c7f8395e","ios":"levelo://app?vid=6c311aa5-6475-4272-be22-8860c7f8395e"},"vehicle_type_id":"4","last_reported":1703174928,"current_range_meters":24400,"station_id":"ce4bgih2rcd13ifvqba0","pricing_plan_id":"free"},{"bike_id":"7f3852db-954d-4787-b0c7-ffffb6487f68","system_id":"levelo_inurba_marseille","lat":43.302008,"lon":5.394694,"is_reserved":false,"is_disabled":false,"rental_uris":{"android":"levelo://app?vid=7f3852db-954d-4787-b0c7-ffffb6487f68","ios":"levelo://app?vid=7f3852db-954d-4787-b0c7-ffffb6487f68"},"vehicle_type_id":"4","last_reported":1703174928,"current_range_meters":18000,"station_id":"ce4bh0p2rcd13ifvqd70","pricing_plan_id":"free"},{"bike_id":"a27039f2-1af6-4973-af09-03dbeb43d3a9","system_id":"levelo_inurba_marseille","lat":43.290624,"lon":5.359245,"is_reserved":false,"is_disabled":false,"rental_uris":{"android":"levelo://app?vid=a27039f2-1af6-4973-af09-03dbeb43d3a9","ios":"levelo://app?vid=a27039f2-1af6-4973-af09-03dbeb43d3a9"},"vehicle_type_id":"4","last_reported":1703174928,"current_range_meters":30000,"station_id":"ce4bha92rcd13ifvqeg0","pricing_plan_id":"free"},{"bike_id":"679560e8-0e06-41ff-b6d6-65883f15cc48","system_id":"levelo_inurba_marseille","lat":43.290631,"lon":5.359244,"is_reserved":false,"is_disabled":false,"rental_uris":{"android":"levelo://app?vid=679560e8-0e06-41ff-b6d6-65883f15cc48","ios":"levelo://app?vid=679560e8-0e06-41ff-b6d6-65883f15cc48"},"vehicle_type_id":"4","last_reported":1703174928,"current_range_meters":10800,"station_id":"ce4bha92rcd13ifvqeg0","pricing_plan_id":"free"},{"bike_id":"89727002-239b-4594-a2c4-1c585b91a6ec","system_id":"levelo_inurba_marseille","lat":43.289184,"lon":5.366408,"is_reserved":false,"is_disabled":false,"rental_uris":{"android":"levelo://app?vid=89727002-239b-4594-a2c4-1c585b91a6ec","ios":"levelo://app?vid=89727002-239b-4594-a2c4-1c585b91a6ec"},"vehicle_type_id":"4","last_reported":1703174928,"current_range_meters":15600,"station_id":"ce4bhap2rcd13ifvqek0","pricing_plan_id":"free"},{"bike_id":"1b20171d-3200-4262-bad4-4d725f6a1481","system_id":"levelo_inurba_marseille","lat":43.290103,"lon":5.356114,"is_reserved":false,"is_disabled":false,"rental_uris":{"android":"levelo://app?vid=1b20171d-3200-4262-bad4-4d725f6a1481","ios":"levelo://app?vid=1b20171d-3200-4262-bad4-4d725f6a1481"},"vehicle_type_id":"4","last_reported":1703174928,"current_range_meters":30000,"station_id":"ce4bhb92rcd13ifvqen0","pricing_plan_id":"free"},{"bike_id":"09de0981-95e1-4720-945a-369cff97f470","system_id":"levelo_inurba_marseille","lat":43.290995,"lon":5.381361,"is_reserved":false,"is_disabled":false,"rental_uris":{"android":"levelo://app?vid=09de0981-95e1-4720-945a-369cff97f470","ios":"levelo://app?vid=09de0981-95e1-4720-945a-369cff97f470"},"vehicle_type_id":"4","last_reported":1703174928,"current_range_meters":22000,"station_id":"ce4bh512rcd13ifvqe2g","pricing_plan_id":"free"},{"bike_id":"b01bf426-8da6-4c55-a215-2bdbf4e388d9","system_id":"levelo_inurba_marseille","lat":43.297773,"lon":5.39342,"is_reserved":false,"is_disabled":false,"rental_uris":{"android":"levelo://app?vid=b01bf426-8da6-4c55-a215-2bdbf4e388d9","ios":"levelo://app?vid=b01bf426-8da6-4c55-a215-2bdbf4e388d9"},"vehicle_type_id":"4","last_reported":1703174928,"current_range_meters":25600,"station_id":"chh1huq6cuj3fo74tm60","pricing_plan_id":"free"},{"bike_id":"2d6c4832-bd5d-49df-a032-1d96cb1633ef","system_id":"levelo_inurba_marseille","lat":43.295169,"lon":5.390426,"is_reserved":false,"is_disabled":false,"rental_uris":{"android":"levelo://app?vid=2d6c4832-bd5d-49df-a032-1d96cb1633ef","ios":"levelo://app?vid=2d6c4832-bd5d-49df-a032-1d96cb1633ef"},"vehicle_type_id":"4","last_reported":1703174928,"current_range_meters":15600,"station_id":"ce4bh3p2rcd13ifvqdp0","pricing_plan_id":"free"},{"bike_id":"fe04619a-837f-4215-99fb-c7797369a2b1","system_id":"levelo_inurba_marseille","lat":43.330442,"lon":5.389148,"is_reserved":false,"is_disabled":false,"rental_uris":{"android":"levelo://app?vid=fe04619a-837f-4215-99fb-c7797369a2b1","ios":"levelo://app?vid=fe04619a-837f-4215-99fb-c7797369a2b1"},"vehicle_type_id":"4","last_reported":1703174928,"current_range_meters":21600,"station_id":"ce4bhr92rcd13ifvqhrg","pricing_plan_id":"free"},{"bike_id":"7fe8772d-b61d-4320-a467-c04050f3ac11","system_id":"levelo_inurba_marseille","lat":43.29521,"lon":5.39049,"is_reserved":false,"is_disabled":false,"rental_uris":{"android":"levelo://app?vid=7fe8772d-b61d-4320-a467-c04050f3ac11","ios":"levelo://app?vid=7fe8772d-b61d-4320-a467-c04050f3ac11"},"vehicle_type_id":"4","last_reported":1703174928,"current_range_meters":5600,"station_id":"ce4bh3p2rcd13ifvqdp0","pricing_plan_id":"free"},{"bike_id":"dd625343-5294-4a10-b6bc-bd54c4d710bd","system_id":"levelo_inurba_marseille","lat":43.312609,"lon":5.401662,"is_reserved":false,"is_disabled":false,"rental_uris":{"android":"levelo://app?vid=dd625343-5294-4a10-b6bc-bd54c4d710bd","ios":"levelo://app?vid=dd625343-5294-4a10-b6bc-bd54c4d710bd"},"vehicle_type_id":"4","last_reported":1703174928,"current_range_meters":16000,"station_id":"ce4bh092rcd13ifvqd30","pricing_plan_id":"free"},{"bike_id":"a3dcd3ae-94fe-4858-8289-9607b0a21047","system_id":"levelo_inurba_marseille","lat":43.337421,"lon":5.374596,"is_reserved":false,"is_disabled":false,"rental_uris":{"android":"levelo://app?vid=a3dcd3ae-94fe-4858-8289-9607b0a21047","ios":"levelo://app?vid=a3dcd3ae-94fe-4858-8289-9607b0a21047"},"vehicle_type_id":"4","last_reported":1703174928,"current_range_meters":23200,"station_id":"","pricing_plan_id":"free"},{"bike_id":"19ff73e2-bc64-434d-837d-ed0210de09f7","system_id":"levelo_inurba_marseille","lat":43.30642,"lon":5.401031,"is_reserved":false,"is_disabled":false,"rental_uris":{"android":"levelo://app?vid=19ff73e2-bc64-434d-837d-ed0210de09f7","ios":"levelo://app?vid=19ff73e2-bc64-434d-837d-ed0210de09f7"},"vehicle_type_id":"4","last_reported":1703174928,"current_range_meters":28800,"station_id":"ce4bh112rcd13ifvqda0","pricing_plan_id":"free"},{"bike_id":"fe11a1ae-09a9-4be3-a255-98f73222b6c3","system_id":"levelo_inurba_marseille","lat":43.33748,"lon":5.37436,"is_reserved":false,"is_disabled":false,"rental_uris":{"android":"levelo://app?vid=fe11a1ae-09a9-4be3-a255-98f73222b6c3","ios":"levelo://app?vid=fe11a1ae-09a9-4be3-a255-98f73222b6c3"},"vehicle_type_id":"4","last_reported":1703174928,"current_range_meters":28400,"station_id":"","pricing_plan_id":"free"},{"bike_id":"b2a3cdec-ca5a-48ef-9cf4-9fcd3386dc00","system_id":"levelo_inurba_marseille","lat":43.337474,"lon":5.374581,"is_reserved":false,"is_disabled":false,"rental_uris":{"android":"levelo://app?vid=b2a3cdec-ca5a-48ef-9cf4-9fcd3386dc00","ios":"levelo://app?vid=b2a3cdec-ca5a-48ef-9cf4-9fcd3386dc00"},"vehicle_type_id":"4","last_reported":1703174928,"current_range_meters":28800,"station_id":"","pricing_plan_id":"free"},{"bike_id":"6b43b9b4-92f4-47c6-b9b9-d4d00e9b98be","system_id":"levelo_inurba_marseille","lat":43.309371,"lon":5.401449,"is_reserved":false,"is_disabled":false,"rental_uris":{"android":"levelo://app?vid=6b43b9b4-92f4-47c6-b9b9-d4d00e9b98be","ios":"levelo://app?vid=6b43b9b4-92f4-47c6-b9b9-d4d00e9b98be"},"vehicle_type_id":"4","last_reported":1703174928,"current_range_meters":3200,"station_id":"ce4bgvp2rcd13ifvqct0","pricing_plan_id":"free"},{"bike_id":"3be16c03-3924-4add-b3b8-ee14479ec937","system_id":"levelo_inurba_marseille","lat":43.337682,"lon":5.374735,"is_reserved":false,"is_disabled":false,"rental_uris":{"android":"levelo://app?vid=3be16c03-3924-4add-b3b8-ee14479ec937","ios":"levelo://app?vid=3be16c03-3924-4add-b3b8-ee14479ec937"},"vehicle_type_id":"4","last_reported":1703174928,"current_range_meters":0,"station_id":"","pricing_plan_id":"free"},{"bike_id":"b7f47dfc-d8de-46eb-a052-4faebdecf442","system_id":"levelo_inurba_marseille","lat":43.30642,"lon":5.401031,"is_reserved":false,"is_disabled":false,"rental_uris":{"android":"levelo://app?vid=b7f47dfc-d8de-46eb-a052-4faebdecf442","ios":"levelo://app?vid=b7f47dfc-d8de-46eb-a052-4faebdecf442"},"vehicle_type_id":"4","last_reported":1703174928,"current_range_meters":16000,"station_id":"ce4bh112rcd13ifvqda0","pricing_plan_id":"free"},{"bike_id":"88b93662-7666-40db-8f91-c83754121d78","system_id":"levelo_inurba_marseille","lat":43.28727,"lon":5.36078,"is_reserved":false,"is_disabled":false,"rental_uris":{"android":"levelo://app?vid=88b93662-7666-40db-8f91-c83754121d78","ios":"levelo://app?vid=88b93662-7666-40db-8f91-c83754121d78"},"vehicle_type_id":"4","last_reported":1703174928,"current_range_meters":27600,"station_id":"cki0cbj6b192h4jlfktg","pricing_plan_id":"free"},{"bike_id":"8bd97516-363d-4c35-8779-0dc8f290e812","system_id":"levelo_inurba_marseille","lat":43.286591,"lon":5.363346,"is_reserved":false,"is_disabled":false,"rental_uris":{"android":"levelo://app?vid=8bd97516-363d-4c35-8779-0dc8f290e812","ios":"levelo://app?vid=8bd97516-363d-4c35-8779-0dc8f290e812"},"vehicle_type_id":"4","last_reported":1703174928,"current_range_meters":15200,"station_id":"ce4bhah2rcd13ifvqej0","pricing_plan_id":"free"},{"bike_id":"96f94460-b53d-4357-80da-4c9756a0b4e3","system_id":"levelo_inurba_marseille","lat":43.295194,"lon":5.39397,"is_reserved":false,"is_disabled":false,"rental_uris":{"android":"levelo://app?vid=96f94460-b53d-4357-80da-4c9756a0b4e3","ios":"levelo://app?vid=96f94460-b53d-4357-80da-4c9756a0b4e3"},"vehicle_type_id":"4","last_reported":1703174928,"current_range_meters":22400,"station_id":"ce4bh292rcd13ifvqdf0","pricing_plan_id":"free"},{"bike_id":"b3bf1d31-5d3e-4d4e-9b0c-51b4b12ac8a4","system_id":"levelo_inurba_marseille","lat":43.289307,"lon":5.38406,"is_reserved":false,"is_disabled":false,"rental_uris":{"android":"levelo://app?vid=b3bf1d31-5d3e-4d4e-9b0c-51b4b12ac8a4","ios":"levelo://app?vid=b3bf1d31-5d3e-4d4e-9b0c-51b4b12ac8a4"},"vehicle_type_id":"4","last_reported":1703174928,"current_range_meters":29600,"station_id":"ce4bh612rcd13ifvqe6g","pricing_plan_id":"free"},{"bike_id":"8486119a-198b-48e4-8c1d-09d8d351734c","system_id":"levelo_inurba_marseille","lat":43.290345,"lon":5.38646,"is_reserved":false,"is_disabled":false,"rental_uris":{"android":"levelo://app?vid=8486119a-198b-48e4-8c1d-09d8d351734c","ios":"levelo://app?vid=8486119a-198b-48e4-8c1d-09d8d351734c"},"vehicle_type_id":"4","last_reported":1703174928,"current_range_meters":24400,"station_id":"ce4bh4p2rcd13ifvqe0g","pricing_plan_id":"free"},{"bike_id":"de2c2219-167d-45b3-87a8-0adba62182f2","system_id":"levelo_inurba_marseille","lat":43.2903,"lon":5.38651,"is_reserved":false,"is_disabled":false,"rental_uris":{"android":"levelo://app?vid=de2c2219-167d-45b3-87a8-0adba62182f2","ios":"levelo://app?vid=de2c2219-167d-45b3-87a8-0adba62182f2"},"vehicle_type_id":"4","last_reported":1703174928,"current_range_meters":30800,"station_id":"","pricing_plan_id":"free"},{"bike_id":"4d882ab1-2188-4a1b-93c0-ea8a8c1f82e2","system_id":"levelo_inurba_marseille","lat":43.286039,"lon":5.370679,"is_reserved":false,"is_disabled":false,"rental_uris":{"android":"levelo://app?vid=4d882ab1-2188-4a1b-93c0-ea8a8c1f82e2","ios":"levelo://app?vid=4d882ab1-2188-4a1b-93c0-ea8a8c1f82e2"},"vehicle_type_id":"4","last_reported":1703174928,"current_range_meters":22400,"station_id":"ce4bht12rcd13ifvqi60","pricing_plan_id":"free"},{"bike_id":"983ef4bd-15ac-4651-8cde-3bd14abec0b1","system_id":"levelo_inurba_marseille","lat":43.28608,"lon":5.37078,"is_reserved":false,"is_disabled":false,"rental_uris":{"android":"levelo://app?vid=983ef4bd-15ac-4651-8cde-3bd14abec0b1","ios":"levelo://app?vid=983ef4bd-15ac-4651-8cde-3bd14abec0b1"},"vehicle_type_id":"4","last_reported":1703174928,"current_range_meters":800,"station_id":"ce4bht12rcd13ifvqi60","pricing_plan_id":"free"},{"bike_id":"c8e1d876-2b6d-479f-b822-e1da01f42719","system_id":"levelo_inurba_marseille","lat":43.287287,"lon":5.379283,"is_reserved":false,"is_disabled":false,"rental_uris":{"android":"levelo://app?vid=c8e1d876-2b6d-479f-b822-e1da01f42719","ios":"levelo://app?vid=c8e1d876-2b6d-479f-b822-e1da01f42719"},"vehicle_type_id":"4","last_reported":1703174928,"current_range_meters":16400,"station_id":"ce4bh9p2rcd13ifvqec0","pricing_plan_id":"free"},{"bike_id":"438dfc76-390c-403b-8a3f-0ab11c2d4de9","system_id":"levelo_inurba_marseille","lat":43.287184,"lon":5.37937,"is_reserved":false,"is_disabled":false,"rental_uris":{"android":"levelo://app?vid=438dfc76-390c-403b-8a3f-0ab11c2d4de9","ios":"levelo://app?vid=438dfc76-390c-403b-8a3f-0ab11c2d4de9"},"vehicle_type_id":"4","last_reported":1703174928,"current_range_meters":3600,"station_id":"ce4bh9p2rcd13ifvqec0","pricing_plan_id":"free"},{"bike_id":"269e13db-0dbd-41e5-a215-c4a9775ed10c","system_id":"levelo_inurba_marseille","lat":43.316828,"lon":5.404723,"is_reserved":false,"is_disabled":false,"rental_uris":{"android":"levelo://app?vid=269e13db-0dbd-41e5-a215-c4a9775ed10c","ios":"levelo://app?vid=269e13db-0dbd-41e5-a215-c4a9775ed10c"},"vehicle_type_id":"4","last_reported":1703174928,"current_range_meters":20000,"station_id":"ce4bh012rcd13ifvqd00","pricing_plan_id":"free"},{"bike_id":"ca93c1ad-202c-410e-8af1-f4ed82d7307d","system_id":"levelo_inurba_marseille","lat":43.29196,"lon":5.393325,"is_reserved":false,"is_disabled":false,"rental_uris":{"android":"levelo://app?vid=ca93c1ad-202c-410e-8af1-f4ed82d7307d","ios":"levelo://app?vid=ca93c1ad-202c-410e-8af1-f4ed82d7307d"},"vehicle_type_id":"4","last_reported":1703174928,"current_range_meters":15200,"station_id":"ce4bh192rcd13ifvqdd0","pricing_plan_id":"free"},{"bike_id":"317908a5-a0af-491e-b139-709f3624b61f","system_id":"levelo_inurba_marseille","lat":43.294314,"lon":5.397498,"is_reserved":false,"is_disabled":false,"rental_uris":{"android":"levelo://app?vid=317908a5-a0af-491e-b139-709f3624b61f","ios":"levelo://app?vid=317908a5-a0af-491e-b139-709f3624b61f"},"vehicle_type_id":"4","last_reported":1703174928,"current_range_meters":21600,"station_id":"ce4bh3h2rcd13ifvqdo0","pricing_plan_id":"free"},{"bike_id":"4a6b9e81-de1b-4688-9408-b455fd001e22","system_id":"levelo_inurba_marseille","lat":43.284538,"lon":5.358657,"is_reserved":false,"is_disabled":false,"rental_uris":{"android":"levelo://app?vid=4a6b9e81-de1b-4688-9408-b455fd001e22","ios":"levelo://app?vid=4a6b9e81-de1b-4688-9408-b455fd001e22"},"vehicle_type_id":"4","last_reported":1703174928,"current_range_meters":23600,"station_id":"ce4bhah2rcd13ifvqei0","pricing_plan_id":"free"},{"bike_id":"678dc117-b484-48de-b728-ec87e95fccf0","system_id":"levelo_inurba_marseille","lat":43.284538,"lon":5.358657,"is_reserved":false,"is_disabled":false,"rental_uris":{"android":"levelo://app?vid=678dc117-b484-48de-b728-ec87e95fccf0","ios":"levelo://app?vid=678dc117-b484-48de-b728-ec87e95fccf0"},"vehicle_type_id":"4","last_reported":1703174928,"current_range_meters":0,"station_id":"ce4bhah2rcd13ifvqei0","pricing_plan_id":"free"},{"bike_id":"3a4c6ebe-d5e3-4576-abeb-272c93dd5058","system_id":"levelo_inurba_marseille","lat":43.284538,"lon":5.358657,"is_reserved":false,"is_disabled":false,"rental_uris":{"android":"levelo://app?vid=3a4c6ebe-d5e3-4576-abeb-272c93dd5058","ios":"levelo://app?vid=3a4c6ebe-d5e3-4576-abeb-272c93dd5058"},"vehicle_type_id":"4","last_reported":1703174928,"current_range_meters":2800,"station_id":"ce4bhah2rcd13ifvqei0","pricing_plan_id":"free"},{"bike_id":"bc4d8458-a080-40aa-bc0e-ace3e78ffa50","system_id":"levelo_inurba_marseille","lat":43.284538,"lon":5.358657,"is_reserved":false,"is_disabled":false,"rental_uris":{"android":"levelo://app?vid=bc4d8458-a080-40aa-bc0e-ace3e78ffa50","ios":"levelo://app?vid=bc4d8458-a080-40aa-bc0e-ace3e78ffa50"},"vehicle_type_id":"4","last_reported":1703174928,"current_range_meters":6000,"station_id":"ce4bhah2rcd13ifvqei0","pricing_plan_id":"free"},{"bike_id":"d8f4e88e-8fae-47d0-9b8e-8d0b58a613e0","system_id":"levelo_inurba_marseille","lat":43.283998,"lon":5.375062,"is_reserved":false,"is_disabled":false,"rental_uris":{"android":"levelo://app?vid=d8f4e88e-8fae-47d0-9b8e-8d0b58a613e0","ios":"levelo://app?vid=d8f4e88e-8fae-47d0-9b8e-8d0b58a613e0"},"vehicle_type_id":"4","last_reported":1703174928,"current_range_meters":4400,"station_id":"ce4bh412rcd13ifvqds0","pricing_plan_id":"free"},{"bike_id":"8538e6dd-dbef-4a5a-a119-9a857fd021ad","system_id":"levelo_inurba_marseille","lat":43.33218,"lon":5.397067,"is_reserved":false,"is_disabled":false,"rental_uris":{"android":"levelo://app?vid=8538e6dd-dbef-4a5a-a119-9a857fd021ad","ios":"levelo://app?vid=8538e6dd-dbef-4a5a-a119-9a857fd021ad"},"vehicle_type_id":"4","last_reported":1703174928,"current_range_meters":0,"station_id":"","pricing_plan_id":"free"},{"bike_id":"dfdadb00-295f-4147-bb7b-992e830130a9","system_id":"levelo_inurba_marseille","lat":43.323464,"lon":5.406297,"is_reserved":false,"is_disabled":false,"rental_uris":{"android":"levelo://app?vid=dfdadb00-295f-4147-bb7b-992e830130a9","ios":"levelo://app?vid=dfdadb00-295f-4147-bb7b-992e830130a9"},"vehicle_type_id":"4","last_reported":1703174928,"current_range_meters":28800,"station_id":"ce4bhq92rcd13ifvqhjg","pricing_plan_id":"free"},{"bike_id":"1f437f17-635b-4efd-9a5b-0e6e2f1393d3","system_id":"levelo_inurba_marseille","lat":43.323464,"lon":5.406297,"is_reserved":false,"is_disabled":false,"rental_uris":{"android":"levelo://app?vid=1f437f17-635b-4efd-9a5b-0e6e2f1393d3","ios":"levelo://app?vid=1f437f17-635b-4efd-9a5b-0e6e2f1393d3"},"vehicle_type_id":"4","last_reported":1703174928,"current_range_meters":15200,"station_id":"ce4bhq92rcd13ifvqhjg","pricing_plan_id":"free"},{"bike_id":"a27a770d-2e0c-4869-bcf9-69dafc1a97a1","system_id":"levelo_inurba_marseille","lat":43.297946,"lon":5.404063,"is_reserved":false,"is_disabled":false,"rental_uris":{"android":"levelo://app?vid=a27a770d-2e0c-4869-bcf9-69dafc1a97a1","ios":"levelo://app?vid=a27a770d-2e0c-4869-bcf9-69dafc1a97a1"},"vehicle_type_id":"4","last_reported":1703174928,"current_range_meters":3200,"station_id":"ce4bh112rcd13ifvqd90","pricing_plan_id":"free"},{"bike_id":"f1508379-6bec-4460-9ce7-94ff6437df02","system_id":"levelo_inurba_marseille","lat":43.297946,"lon":5.404063,"is_reserved":false,"is_disabled":false,"rental_uris":{"android":"levelo://app?vid=f1508379-6bec-4460-9ce7-94ff6437df02","ios":"levelo://app?vid=f1508379-6bec-4460-9ce7-94ff6437df02"},"vehicle_type_id":"4","last_reported":1703174928,"current_range_meters":18400,"station_id":"ce4bh112rcd13ifvqd90","pricing_plan_id":"free"},{"bike_id":"608368d5-77a6-4bea-97de-3fa9218d47dd","system_id":"levelo_inurba_marseille","lat":43.297946,"lon":5.404063,"is_reserved":false,"is_disabled":false,"rental_uris":{"android":"levelo://app?vid=608368d5-77a6-4bea-97de-3fa9218d47dd","ios":"levelo://app?vid=608368d5-77a6-4bea-97de-3fa9218d47dd"},"vehicle_type_id":"4","last_reported":1703174928,"current_range_meters":13200,"station_id":"ce4bh112rcd13ifvqd90","pricing_plan_id":"free"},{"bike_id":"0f42eedd-bd33-445f-91fc-4e7504a96eb4","system_id":"levelo_inurba_marseille","lat":43.324213,"lon":5.407053,"is_reserved":false,"is_disabled":false,"rental_uris":{"android":"levelo://app?vid=0f42eedd-bd33-445f-91fc-4e7504a96eb4","ios":"levelo://app?vid=0f42eedd-bd33-445f-91fc-4e7504a96eb4"},"vehicle_type_id":"4","last_reported":1703174928,"current_range_meters":16800,"station_id":"","pricing_plan_id":"free"},{"bike_id":"202cc6f2-6276-4d22-bc8b-a6f1dd36d398","system_id":"levelo_inurba_marseille","lat":43.289363,"lon":5.396322,"is_reserved":false,"is_disabled":false,"rental_uris":{"android":"levelo://app?vid=202cc6f2-6276-4d22-bc8b-a6f1dd36d398","ios":"levelo://app?vid=202cc6f2-6276-4d22-bc8b-a6f1dd36d398"},"vehicle_type_id":"4","last_reported":1703174928,"current_range_meters":13200,"station_id":"ce4bh3h2rcd13ifvqdn0","pricing_plan_id":"free"},{"bike_id":"64dfb805-62d8-499a-aed6-8a07e05e12c0","system_id":"levelo_inurba_marseille","lat":43.28039,"lon":5.369297,"is_reserved":false,"is_disabled":false,"rental_uris":{"android":"levelo://app?vid=64dfb805-62d8-499a-aed6-8a07e05e12c0","ios":"levelo://app?vid=64dfb805-62d8-499a-aed6-8a07e05e12c0"},"vehicle_type_id":"4","last_reported":1703174928,"current_range_meters":6000,"station_id":"ce4bha12rcd13ifvqef0","pricing_plan_id":"free"},{"bike_id":"12913e4c-8b93-460d-b3de-0225ba9c16c4","system_id":"levelo_inurba_marseille","lat":43.282744,"lon":5.350533,"is_reserved":false,"is_disabled":false,"rental_uris":{"android":"levelo://app?vid=12913e4c-8b93-460d-b3de-0225ba9c16c4","ios":"levelo://app?vid=12913e4c-8b93-460d-b3de-0225ba9c16c4"},"vehicle_type_id":"4","last_reported":1703174928,"current_range_meters":30000,"station_id":"ce4bhbp2rcd13ifvqerg","pricing_plan_id":"free"},{"bike_id":"0e298bdb-800b-496e-b0fa-cbdcb63a0efc","system_id":"levelo_inurba_marseille","lat":43.28039,"lon":5.369297,"is_reserved":false,"is_disabled":false,"rental_uris":{"android":"levelo://app?vid=0e298bdb-800b-496e-b0fa-cbdcb63a0efc","ios":"levelo://app?vid=0e298bdb-800b-496e-b0fa-cbdcb63a0efc"},"vehicle_type_id":"4","last_reported":1703174928,"current_range_meters":29200,"station_id":"ce4bha12rcd13ifvqef0","pricing_plan_id":"free"},{"bike_id":"ecc68cc3-ae03-41b8-88f2-72409c3f3432","system_id":"levelo_inurba_marseille","lat":43.28039,"lon":5.369297,"is_reserved":false,"is_disabled":false,"rental_uris":{"android":"levelo://app?vid=ecc68cc3-ae03-41b8-88f2-72409c3f3432","ios":"levelo://app?vid=ecc68cc3-ae03-41b8-88f2-72409c3f3432"},"vehicle_type_id":"4","last_reported":1703174928,"current_range_meters":0,"station_id":"ce4bha12rcd13ifvqef0","pricing_plan_id":"free"},{"bike_id":"d6e9b8ed-abd3-450a-aa7d-3258d133d0bf","system_id":"levelo_inurba_marseille","lat":43.290412,"lon":5.399633,"is_reserved":false,"is_disabled":false,"rental_uris":{"android":"levelo://app?vid=d6e9b8ed-abd3-450a-aa7d-3258d133d0bf","ios":"levelo://app?vid=d6e9b8ed-abd3-450a-aa7d-3258d133d0bf"},"vehicle_type_id":"4","last_reported":1703174928,"current_range_meters":24000,"station_id":"ce4bh392rcd13ifvqdm0","pricing_plan_id":"free"},{"bike_id":"c14bd837-ffc6-4190-a0b1-b4cc13bdebcc","system_id":"levelo_inurba_marseille","lat":43.296263,"lon":5.40601,"is_reserved":false,"is_disabled":false,"rental_uris":{"android":"levelo://app?vid=c14bd837-ffc6-4190-a0b1-b4cc13bdebcc","ios":"levelo://app?vid=c14bd837-ffc6-4190-a0b1-b4cc13bdebcc"},"vehicle_type_id":"4","last_reported":1703174928,"current_range_meters":28000,"station_id":"ce4bh0h2rcd13ifvqd60","pricing_plan_id":"free"},{"bike_id":"35d3e4b6-bf98-42c9-b754-71366924c51f","system_id":"levelo_inurba_marseille","lat":43.285742,"lon":5.395004,"is_reserved":false,"is_disabled":false,"rental_uris":{"android":"levelo://app?vid=35d3e4b6-bf98-42c9-b754-71366924c51f","ios":"levelo://app?vid=35d3e4b6-bf98-42c9-b754-71366924c51f"},"vehicle_type_id":"4","last_reported":1703174928,"current_range_meters":30800,"station_id":"ce4bh292rcd13ifvqdg0","pricing_plan_id":"free"},{"bike_id":"215b86ad-fa50-4958-9bd7-85ea1992ed04","system_id":"levelo_inurba_marseille","lat":43.28573,"lon":5.394992,"is_reserved":false,"is_disabled":false,"rental_uris":{"android":"levelo://app?vid=215b86ad-fa50-4958-9bd7-85ea1992ed04","ios":"levelo://app?vid=215b86ad-fa50-4958-9bd7-85ea1992ed04"},"vehicle_type_id":"4","last_reported":1703174928,"current_range_meters":30000,"station_id":"ce4bh292rcd13ifvqdg0","pricing_plan_id":"free"},{"bike_id":"e0be165c-878d-49d4-b057-9400f295ca06","system_id":"levelo_inurba_marseille","lat":43.285742,"lon":5.395004,"is_reserved":false,"is_disabled":false,"rental_uris":{"android":"levelo://app?vid=e0be165c-878d-49d4-b057-9400f295ca06","ios":"levelo://app?vid=e0be165c-878d-49d4-b057-9400f295ca06"},"vehicle_type_id":"4","last_reported":1703174928,"current_range_meters":24400,"station_id":"ce4bh292rcd13ifvqdg0","pricing_plan_id":"free"},{"bike_id":"36d92385-4130-4e01-abca-05246ad42cda","system_id":"levelo_inurba_marseille","lat":43.304188,"lon":5.412904,"is_reserved":false,"is_disabled":false,"rental_uris":{"android":"levelo://app?vid=36d92385-4130-4e01-abca-05246ad42cda","ios":"levelo://app?vid=36d92385-4130-4e01-abca-05246ad42cda"},"vehicle_type_id":"4","last_reported":1703174928,"current_range_meters":19200,"station_id":"ce4bhop2rcd13ifvqh8g","pricing_plan_id":"free"},{"bike_id":"4d4ca375-d309-4ff3-86bb-a6d698df1a41","system_id":"levelo_inurba_marseille","lat":43.279087,"lon":5.380114,"is_reserved":false,"is_disabled":false,"rental_uris":{"android":"levelo://app?vid=4d4ca375-d309-4ff3-86bb-a6d698df1a41","ios":"levelo://app?vid=4d4ca375-d309-4ff3-86bb-a6d698df1a41"},"vehicle_type_id":"4","last_reported":1703174928,"current_range_meters":6400,"station_id":"ce4bhf92rcd13ifvqf50","pricing_plan_id":"free"},{"bike_id":"760c4c1a-7264-4fe8-b422-1e89904c6782","system_id":"levelo_inurba_marseille","lat":43.292571,"lon":5.409107,"is_reserved":false,"is_disabled":false,"rental_uris":{"android":"levelo://app?vid=760c4c1a-7264-4fe8-b422-1e89904c6782","ios":"levelo://app?vid=760c4c1a-7264-4fe8-b422-1e89904c6782"},"vehicle_type_id":"4","last_reported":1703174928,"current_range_meters":28800,"station_id":"ce4bh192rcd13ifvqdc0","pricing_plan_id":"free"},{"bike_id":"aa7233e2-430b-493f-b8c9-ee81d34868eb","system_id":"levelo_inurba_marseille","lat":43.292569,"lon":5.409107,"is_reserved":false,"is_disabled":false,"rental_uris":{"android":"levelo://app?vid=aa7233e2-430b-493f-b8c9-ee81d34868eb","ios":"levelo://app?vid=aa7233e2-430b-493f-b8c9-ee81d34868eb"},"vehicle_type_id":"4","last_reported":1703174928,"current_range_meters":21600,"station_id":"ce4bh192rcd13ifvqdc0","pricing_plan_id":"free"},{"bike_id":"06a421e1-9d58-415d-be02-8b9171b57178","system_id":"levelo_inurba_marseille","lat":43.276196,"lon":5.36117,"is_reserved":false,"is_disabled":false,"rental_uris":{"android":"levelo://app?vid=06a421e1-9d58-415d-be02-8b9171b57178","ios":"levelo://app?vid=06a421e1-9d58-415d-be02-8b9171b57178"},"vehicle_type_id":"4","last_reported":1703174928,"current_range_meters":23600,"station_id":"","pricing_plan_id":"free"},{"bike_id":"d830f5cc-2756-472b-86fd-fb76869e68e0","system_id":"levelo_inurba_marseille","lat":43.276179,"lon":5.361009,"is_reserved":false,"is_disabled":false,"rental_uris":{"android":"levelo://app?vid=d830f5cc-2756-472b-86fd-fb76869e68e0","ios":"levelo://app?vid=d830f5cc-2756-472b-86fd-fb76869e68e0"},"vehicle_type_id":"4","last_reported":1703174928,"current_range_meters":14000,"station_id":"ce4bgj92rcd13ifvqbe0","pricing_plan_id":"free"},{"bike_id":"012bbc29-7ef7-417d-b777-ef03d7c98ef3","system_id":"levelo_inurba_marseille","lat":43.27616,"lon":5.36122,"is_reserved":false,"is_disabled":false,"rental_uris":{"android":"levelo://app?vid=012bbc29-7ef7-417d-b777-ef03d7c98ef3","ios":"levelo://app?vid=012bbc29-7ef7-417d-b777-ef03d7c98ef3"},"vehicle_type_id":"4","last_reported":1703174928,"current_range_meters":3600,"station_id":"ce4bgj92rcd13ifvqbe0","pricing_plan_id":"free"},{"bike_id":"c4b9b6e5-52fd-4f7e-b665-53f33a169715","system_id":"levelo_inurba_marseille","lat":43.278399,"lon":5.392139,"is_reserved":false,"is_disabled":false,"rental_uris":{"android":"levelo://app?vid=c4b9b6e5-52fd-4f7e-b665-53f33a169715","ios":"levelo://app?vid=c4b9b6e5-52fd-4f7e-b665-53f33a169715"},"vehicle_type_id":"4","last_reported":1703174928,"current_range_meters":12000,"station_id":"ce4bhjp2rcd13ifvqga0","pricing_plan_id":"free"},{"bike_id":"e10cc150-4041-48d5-aaa1-023406c60c29","system_id":"levelo_inurba_marseille","lat":43.273613,"lon":5.362705,"is_reserved":false,"is_disabled":false,"rental_uris":{"android":"levelo://app?vid=e10cc150-4041-48d5-aaa1-023406c60c29","ios":"levelo://app?vid=e10cc150-4041-48d5-aaa1-023406c60c29"},"vehicle_type_id":"4","last_reported":1703174928,"current_range_meters":15200,"station_id":"ce4bhbh2rcd13ifvqeo0","pricing_plan_id":"free"},{"bike_id":"fe02ad49-42cb-49bb-8121-f74f16fe684a","system_id":"levelo_inurba_marseille","lat":43.27461,"lon":5.38988,"is_reserved":false,"is_disabled":false,"rental_uris":{"android":"levelo://app?vid=fe02ad49-42cb-49bb-8121-f74f16fe684a","ios":"levelo://app?vid=fe02ad49-42cb-49bb-8121-f74f16fe684a"},"vehicle_type_id":"4","last_reported":1703174928,"current_range_meters":2400,"station_id":"","pricing_plan_id":"free"},{"bike_id":"db97d23b-b358-42c7-9b7c-756cec040fbb","system_id":"levelo_inurba_marseille","lat":43.317121,"lon":5.423936,"is_reserved":false,"is_disabled":false,"rental_uris":{"android":"levelo://app?vid=db97d23b-b358-42c7-9b7c-756cec040fbb","ios":"levelo://app?vid=db97d23b-b358-42c7-9b7c-756cec040fbb"},"vehicle_type_id":"4","last_reported":1703174928,"current_range_meters":30800,"station_id":"ce4bhp92rcd13ifvqhbg","pricing_plan_id":"free"},{"bike_id":"7ada0439-e02f-43f4-a65c-6cdbad12b2d5","system_id":"levelo_inurba_marseille","lat":43.317121,"lon":5.423936,"is_reserved":false,"is_disabled":false,"rental_uris":{"android":"levelo://app?vid=7ada0439-e02f-43f4-a65c-6cdbad12b2d5","ios":"levelo://app?vid=7ada0439-e02f-43f4-a65c-6cdbad12b2d5"},"vehicle_type_id":"4","last_reported":1703174928,"current_range_meters":28400,"station_id":"ce4bhp92rcd13ifvqhbg","pricing_plan_id":"free"},{"bike_id":"a7ebbe4e-e4b4-4b88-92ae-339f682a95cb","system_id":"levelo_inurba_marseille","lat":43.310785,"lon":5.424305,"is_reserved":false,"is_disabled":false,"rental_uris":{"android":"levelo://app?vid=a7ebbe4e-e4b4-4b88-92ae-339f682a95cb","ios":"levelo://app?vid=a7ebbe4e-e4b4-4b88-92ae-339f682a95cb"},"vehicle_type_id":"4","last_reported":1703174928,"current_range_meters":28800,"station_id":"ce4bhp92rcd13ifvqhag","pricing_plan_id":"free"},{"bike_id":"0454933a-5656-4345-852e-0e25afae89fb","system_id":"levelo_inurba_marseille","lat":43.295523,"lon":5.422926,"is_reserved":false,"is_disabled":false,"rental_uris":{"android":"levelo://app?vid=0454933a-5656-4345-852e-0e25afae89fb","ios":"levelo://app?vid=0454933a-5656-4345-852e-0e25afae89fb"},"vehicle_type_id":"4","last_reported":1703174928,"current_range_meters":30400,"station_id":"ce4bhph2rcd13ifvqhdg","pricing_plan_id":"free"},{"bike_id":"ff208de4-c9de-4540-8060-b8f18f39665e","system_id":"levelo_inurba_marseille","lat":43.295523,"lon":5.422926,"is_reserved":false,"is_disabled":false,"rental_uris":{"android":"levelo://app?vid=ff208de4-c9de-4540-8060-b8f18f39665e","ios":"levelo://app?vid=ff208de4-c9de-4540-8060-b8f18f39665e"},"vehicle_type_id":"4","last_reported":1703174928,"current_range_meters":27200,"station_id":"ce4bhph2rcd13ifvqhdg","pricing_plan_id":"free"},{"bike_id":"218ca4ab-a316-43a6-87cd-acfc23cd8e62","system_id":"levelo_inurba_marseille","lat":43.295523,"lon":5.422926,"is_reserved":false,"is_disabled":false,"rental_uris":{"android":"levelo://app?vid=218ca4ab-a316-43a6-87cd-acfc23cd8e62","ios":"levelo://app?vid=218ca4ab-a316-43a6-87cd-acfc23cd8e62"},"vehicle_type_id":"4","last_reported":1703174928,"current_range_meters":22400,"station_id":"ce4bhph2rcd13ifvqhdg","pricing_plan_id":"free"},{"bike_id":"7b50e92c-923d-47a0-98cd-9b6ef12b5315","system_id":"levelo_inurba_marseille","lat":43.295523,"lon":5.422926,"is_reserved":false,"is_disabled":false,"rental_uris":{"android":"levelo://app?vid=7b50e92c-923d-47a0-98cd-9b6ef12b5315","ios":"levelo://app?vid=7b50e92c-923d-47a0-98cd-9b6ef12b5315"},"vehicle_type_id":"4","last_reported":1703174928,"current_range_meters":26400,"station_id":"ce4bhph2rcd13ifvqhdg","pricing_plan_id":"free"},{"bike_id":"bc96446b-31f5-4313-822f-625edd6d0b52","system_id":"levelo_inurba_marseille","lat":43.295523,"lon":5.422926,"is_reserved":false,"is_disabled":false,"rental_uris":{"android":"levelo://app?vid=bc96446b-31f5-4313-822f-625edd6d0b52","ios":"levelo://app?vid=bc96446b-31f5-4313-822f-625edd6d0b52"},"vehicle_type_id":"4","last_reported":1703174928,"current_range_meters":28000,"station_id":"ce4bhph2rcd13ifvqhdg","pricing_plan_id":"free"},{"bike_id":"5c31faf7-edde-46a2-8b31-4d04c2ad81ee","system_id":"levelo_inurba_marseille","lat":43.272116,"lon":5.391763,"is_reserved":false,"is_disabled":false,"rental_uris":{"android":"levelo://app?vid=5c31faf7-edde-46a2-8b31-4d04c2ad81ee","ios":"levelo://app?vid=5c31faf7-edde-46a2-8b31-4d04c2ad81ee"},"vehicle_type_id":"4","last_reported":1703174928,"current_range_meters":4400,"station_id":"ce4bhhp2rcd13ifvqfm0","pricing_plan_id":"free"},{"bike_id":"b55db1a0-b820-479b-9929-7610c21584c5","system_id":"levelo_inurba_marseille","lat":43.295511,"lon":5.422926,"is_reserved":false,"is_disabled":false,"rental_uris":{"android":"levelo://app?vid=b55db1a0-b820-479b-9929-7610c21584c5","ios":"levelo://app?vid=b55db1a0-b820-479b-9929-7610c21584c5"},"vehicle_type_id":"4","last_reported":1703174928,"current_range_meters":25200,"station_id":"ce4bhph2rcd13ifvqhdg","pricing_plan_id":"free"},{"bike_id":"e0e5d280-f520-4390-a9f0-9b877fedb54e","system_id":"levelo_inurba_marseille","lat":43.295523,"lon":5.422926,"is_reserved":false,"is_disabled":false,"rental_uris":{"android":"levelo://app?vid=e0e5d280-f520-4390-a9f0-9b877fedb54e","ios":"levelo://app?vid=e0e5d280-f520-4390-a9f0-9b877fedb54e"},"vehicle_type_id":"4","last_reported":1703174928,"current_range_meters":21600,"station_id":"ce4bhph2rcd13ifvqhdg","pricing_plan_id":"free"},{"bike_id":"9449eb80-d18a-481d-bf00-b32c1d52c065","system_id":"levelo_inurba_marseille","lat":43.295523,"lon":5.422926,"is_reserved":false,"is_disabled":false,"rental_uris":{"android":"levelo://app?vid=9449eb80-d18a-481d-bf00-b32c1d52c065","ios":"levelo://app?vid=9449eb80-d18a-481d-bf00-b32c1d52c065"},"vehicle_type_id":"4","last_reported":1703174928,"current_range_meters":8000,"station_id":"ce4bhph2rcd13ifvqhdg","pricing_plan_id":"free"},{"bike_id":"23d13786-8601-4dce-a424-5d4a35dea444","system_id":"levelo_inurba_marseille","lat":43.295511,"lon":5.422926,"is_reserved":false,"is_disabled":false,"rental_uris":{"android":"levelo://app?vid=23d13786-8601-4dce-a424-5d4a35dea444","ios":"levelo://app?vid=23d13786-8601-4dce-a424-5d4a35dea444"},"vehicle_type_id":"4","last_reported":1703174928,"current_range_meters":19200,"station_id":"ce4bhph2rcd13ifvqhdg","pricing_plan_id":"free"},{"bike_id":"96484c65-8dd7-4167-a438-a7d837c6b7a7","system_id":"levelo_inurba_marseille","lat":43.295523,"lon":5.422926,"is_reserved":false,"is_disabled":false,"rental_uris":{"android":"levelo://app?vid=96484c65-8dd7-4167-a438-a7d837c6b7a7","ios":"levelo://app?vid=96484c65-8dd7-4167-a438-a7d837c6b7a7"},"vehicle_type_id":"4","last_reported":1703174928,"current_range_meters":31200,"station_id":"ce4bhph2rcd13ifvqhdg","pricing_plan_id":"free"},{"bike_id":"7d800ac1-1b26-47dd-97c6-49cd89d9ab11","system_id":"levelo_inurba_marseille","lat":43.295511,"lon":5.422926,"is_reserved":false,"is_disabled":false,"rental_uris":{"android":"levelo://app?vid=7d800ac1-1b26-47dd-97c6-49cd89d9ab11","ios":"levelo://app?vid=7d800ac1-1b26-47dd-97c6-49cd89d9ab11"},"vehicle_type_id":"4","last_reported":1703174928,"current_range_meters":15600,"station_id":"ce4bhph2rcd13ifvqhdg","pricing_plan_id":"free"},{"bike_id":"fe8c8d6c-399f-4bad-9393-cbd64f317e8f","system_id":"levelo_inurba_marseille","lat":43.278128,"lon":5.407195,"is_reserved":false,"is_disabled":false,"rental_uris":{"android":"levelo://app?vid=fe8c8d6c-399f-4bad-9393-cbd64f317e8f","ios":"levelo://app?vid=fe8c8d6c-399f-4bad-9393-cbd64f317e8f"},"vehicle_type_id":"4","last_reported":1703174928,"current_range_meters":28000,"station_id":"ce4bhnh2rcd13ifvqgtg","pricing_plan_id":"free"},{"bike_id":"2b451977-ea08-439a-92a9-0964db42fa58","system_id":"levelo_inurba_marseille","lat":43.278128,"lon":5.407195,"is_reserved":false,"is_disabled":false,"rental_uris":{"android":"levelo://app?vid=2b451977-ea08-439a-92a9-0964db42fa58","ios":"levelo://app?vid=2b451977-ea08-439a-92a9-0964db42fa58"},"vehicle_type_id":"4","last_reported":1703174928,"current_range_meters":14800,"station_id":"ce4bhnh2rcd13ifvqgtg","pricing_plan_id":"free"},{"bike_id":"eafba763-944c-4624-aba6-3fb16259e2e8","system_id":"levelo_inurba_marseille","lat":43.278128,"lon":5.407195,"is_reserved":false,"is_disabled":false,"rental_uris":{"android":"levelo://app?vid=eafba763-944c-4624-aba6-3fb16259e2e8","ios":"levelo://app?vid=eafba763-944c-4624-aba6-3fb16259e2e8"},"vehicle_type_id":"4","last_reported":1703174928,"current_range_meters":28800,"station_id":"ce4bhnh2rcd13ifvqgtg","pricing_plan_id":"free"},{"bike_id":"ddc116a7-beab-4d15-9d1e-d1d89e77aa33","system_id":"levelo_inurba_marseille","lat":43.265714,"lon":5.372891,"is_reserved":false,"is_disabled":false,"rental_uris":{"android":"levelo://app?vid=ddc116a7-beab-4d15-9d1e-d1d89e77aa33","ios":"levelo://app?vid=ddc116a7-beab-4d15-9d1e-d1d89e77aa33"},"vehicle_type_id":"4","last_reported":1703174928,"current_range_meters":5600,"station_id":"ce4bhg12rcd13ifvqf70","pricing_plan_id":"free"},{"bike_id":"6a1ba195-c88f-4c42-8b75-076539339d48","system_id":"levelo_inurba_marseille","lat":43.27996,"lon":5.416624,"is_reserved":false,"is_disabled":false,"rental_uris":{"android":"levelo://app?vid=6a1ba195-c88f-4c42-8b75-076539339d48","ios":"levelo://app?vid=6a1ba195-c88f-4c42-8b75-076539339d48"},"vehicle_type_id":"4","last_reported":1703174928,"current_range_meters":24000,"station_id":"ce4bho12rcd13ifvqh1g","pricing_plan_id":"free"},{"bike_id":"eb921761-fadf-4773-958b-175d6f531c89","system_id":"levelo_inurba_marseille","lat":43.265714,"lon":5.372891,"is_reserved":false,"is_disabled":false,"rental_uris":{"android":"levelo://app?vid=eb921761-fadf-4773-958b-175d6f531c89","ios":"levelo://app?vid=eb921761-fadf-4773-958b-175d6f531c89"},"vehicle_type_id":"4","last_reported":1703174928,"current_range_meters":1600,"station_id":"ce4bhg12rcd13ifvqf70","pricing_plan_id":"free"},{"bike_id":"598583e3-ac0b-4db1-8502-ec47e4a3628c","system_id":"levelo_inurba_marseille","lat":43.26595,"lon":5.39018,"is_reserved":false,"is_disabled":false,"rental_uris":{"android":"levelo://app?vid=598583e3-ac0b-4db1-8502-ec47e4a3628c","ios":"levelo://app?vid=598583e3-ac0b-4db1-8502-ec47e4a3628c"},"vehicle_type_id":"4","last_reported":1703174928,"current_range_meters":21600,"station_id":"ce4bhe12rcd13ifvqf30","pricing_plan_id":"free"},{"bike_id":"cb85d93c-699f-44fd-b49f-438f4d1ca990","system_id":"levelo_inurba_marseille","lat":43.2658,"lon":5.39014,"is_reserved":false,"is_disabled":false,"rental_uris":{"android":"levelo://app?vid=cb85d93c-699f-44fd-b49f-438f4d1ca990","ios":"levelo://app?vid=cb85d93c-699f-44fd-b49f-438f4d1ca990"},"vehicle_type_id":"4","last_reported":1703174928,"current_range_meters":0,"station_id":"ce4bhe12rcd13ifvqf30","pricing_plan_id":"free"},{"bike_id":"9a91c593-84eb-47bc-a6eb-531a4db53380","system_id":"levelo_inurba_marseille","lat":43.308051,"lon":5.43527,"is_reserved":false,"is_disabled":false,"rental_uris":{"android":"levelo://app?vid=9a91c593-84eb-47bc-a6eb-531a4db53380","ios":"levelo://app?vid=9a91c593-84eb-47bc-a6eb-531a4db53380"},"vehicle_type_id":"4","last_reported":1703174928,"current_range_meters":27600,"station_id":"ce4bhph2rcd13ifvqheg","pricing_plan_id":"free"},{"bike_id":"69681074-bb93-4e21-a3ae-f53317116797","system_id":"levelo_inurba_marseille","lat":43.265569,"lon":5.390047,"is_reserved":false,"is_disabled":false,"rental_uris":{"android":"levelo://app?vid=69681074-bb93-4e21-a3ae-f53317116797","ios":"levelo://app?vid=69681074-bb93-4e21-a3ae-f53317116797"},"vehicle_type_id":"4","last_reported":1703174928,"current_range_meters":16800,"station_id":"ce4bhe12rcd13ifvqf30","pricing_plan_id":"free"},{"bike_id":"d84c7419-dad1-4d04-a1cb-87abcdac76a8","system_id":"levelo_inurba_marseille","lat":43.265569,"lon":5.390047,"is_reserved":false,"is_disabled":false,"rental_uris":{"android":"levelo://app?vid=d84c7419-dad1-4d04-a1cb-87abcdac76a8","ios":"levelo://app?vid=d84c7419-dad1-4d04-a1cb-87abcdac76a8"},"vehicle_type_id":"4","last_reported":1703174928,"current_range_meters":7200,"station_id":"ce4bhe12rcd13ifvqf30","pricing_plan_id":"free"},{"bike_id":"a3d55647-b9a6-4129-a66c-da4b9a5450d8","system_id":"levelo_inurba_marseille","lat":43.265571,"lon":5.390032,"is_reserved":false,"is_disabled":false,"rental_uris":{"android":"levelo://app?vid=a3d55647-b9a6-4129-a66c-da4b9a5450d8","ios":"levelo://app?vid=a3d55647-b9a6-4129-a66c-da4b9a5450d8"},"vehicle_type_id":"4","last_reported":1703174928,"current_range_meters":25200,"station_id":"ce4bhe12rcd13ifvqf30","pricing_plan_id":"free"},{"bike_id":"07fbdce5-f320-4d5e-bc74-1034c54d7f61","system_id":"levelo_inurba_marseille","lat":43.308051,"lon":5.43527,"is_reserved":false,"is_disabled":false,"rental_uris":{"android":"levelo://app?vid=07fbdce5-f320-4d5e-bc74-1034c54d7f61","ios":"levelo://app?vid=07fbdce5-f320-4d5e-bc74-1034c54d7f61"},"vehicle_type_id":"4","last_reported":1703174928,"current_range_meters":26800,"station_id":"ce4bhph2rcd13ifvqheg","pricing_plan_id":"free"},{"bike_id":"a4db29a3-43ca-45e6-bfc1-c50538d6a5b7","system_id":"levelo_inurba_marseille","lat":43.265571,"lon":5.390032,"is_reserved":false,"is_disabled":false,"rental_uris":{"android":"levelo://app?vid=a4db29a3-43ca-45e6-bfc1-c50538d6a5b7","ios":"levelo://app?vid=a4db29a3-43ca-45e6-bfc1-c50538d6a5b7"},"vehicle_type_id":"4","last_reported":1703174928,"current_range_meters":5200,"station_id":"ce4bhe12rcd13ifvqf30","pricing_plan_id":"free"},{"bike_id":"2564b3d2-89fc-4543-8dca-2c2cdba95937","system_id":"levelo_inurba_marseille","lat":43.26949,"lon":5.40262,"is_reserved":false,"is_disabled":false,"rental_uris":{"android":"levelo://app?vid=2564b3d2-89fc-4543-8dca-2c2cdba95937","ios":"levelo://app?vid=2564b3d2-89fc-4543-8dca-2c2cdba95937"},"vehicle_type_id":"4","last_reported":1703174928,"current_range_meters":17200,"station_id":"cjm6bp8fraef2m0cb0m0","pricing_plan_id":"free"},{"bike_id":"f9c87937-6b63-495b-adf1-8ac2142892e4","system_id":"levelo_inurba_marseille","lat":43.261782,"lon":5.374515,"is_reserved":false,"is_disabled":false,"rental_uris":{"android":"levelo://app?vid=f9c87937-6b63-495b-adf1-8ac2142892e4","ios":"levelo://app?vid=f9c87937-6b63-495b-adf1-8ac2142892e4"},"vehicle_type_id":"4","last_reported":1703174928,"current_range_meters":20800,"station_id":"ce4bhgp2rcd13ifvqfc0","pricing_plan_id":"free"},{"bike_id":"f9bd8812-361b-4cf8-a08f-c5df49e9a80a","system_id":"levelo_inurba_marseille","lat":43.31711,"lon":5.43705,"is_reserved":false,"is_disabled":false,"rental_uris":{"android":"levelo://app?vid=f9bd8812-361b-4cf8-a08f-c5df49e9a80a","ios":"levelo://app?vid=f9bd8812-361b-4cf8-a08f-c5df49e9a80a"},"vehicle_type_id":"4","last_reported":1703174928,"current_range_meters":19600,"station_id":"ce4bhp92rcd13ifvqhcg","pricing_plan_id":"free"},{"bike_id":"2d6427c7-a10a-4b24-b0a5-95d867c65295","system_id":"levelo_inurba_marseille","lat":43.317104,"lon":5.436818,"is_reserved":false,"is_disabled":false,"rental_uris":{"android":"levelo://app?vid=2d6427c7-a10a-4b24-b0a5-95d867c65295","ios":"levelo://app?vid=2d6427c7-a10a-4b24-b0a5-95d867c65295"},"vehicle_type_id":"4","last_reported":1703174928,"current_range_meters":20400,"station_id":"ce4bhp92rcd13ifvqhcg","pricing_plan_id":"free"},{"bike_id":"75a32edc-3aeb-4eda-99f6-41a57c332bd8","system_id":"levelo_inurba_marseille","lat":43.262012,"lon":5.379307,"is_reserved":false,"is_disabled":false,"rental_uris":{"android":"levelo://app?vid=75a32edc-3aeb-4eda-99f6-41a57c332bd8","ios":"levelo://app?vid=75a32edc-3aeb-4eda-99f6-41a57c332bd8"},"vehicle_type_id":"4","last_reported":1703174928,"current_range_meters":14800,"station_id":"ce4bhjp2rcd13ifvqg90","pricing_plan_id":"free"},{"bike_id":"56adf3c8-c8d4-4438-805b-e2423bf864eb","system_id":"levelo_inurba_marseille","lat":43.26202,"lon":5.379299,"is_reserved":false,"is_disabled":false,"rental_uris":{"android":"levelo://app?vid=56adf3c8-c8d4-4438-805b-e2423bf864eb","ios":"levelo://app?vid=56adf3c8-c8d4-4438-805b-e2423bf864eb"},"vehicle_type_id":"4","last_reported":1703174928,"current_range_meters":20000,"station_id":"ce4bhjp2rcd13ifvqg90","pricing_plan_id":"free"},{"bike_id":"de24a9f5-f652-45d9-8aae-110852bd560d","system_id":"levelo_inurba_marseille","lat":43.271368,"lon":5.40928,"is_reserved":false,"is_disabled":false,"rental_uris":{"android":"levelo://app?vid=de24a9f5-f652-45d9-8aae-110852bd560d","ios":"levelo://app?vid=de24a9f5-f652-45d9-8aae-110852bd560d"},"vehicle_type_id":"4","last_reported":1703174928,"current_range_meters":23200,"station_id":"ce4bhl12rcd13ifvqgf0","pricing_plan_id":"free"},{"bike_id":"419893e7-347d-42e4-b465-371c4c127f8c","system_id":"levelo_inurba_marseille","lat":43.267959,"lon":5.402685,"is_reserved":false,"is_disabled":false,"rental_uris":{"android":"levelo://app?vid=419893e7-347d-42e4-b465-371c4c127f8c","ios":"levelo://app?vid=419893e7-347d-42e4-b465-371c4c127f8c"},"vehicle_type_id":"4","last_reported":1703174928,"current_range_meters":31200,"station_id":"ce501612rcd8frsf0b60","pricing_plan_id":"free"},{"bike_id":"6b6c7129-48d9-4ed5-8d5a-18cea8a21166","system_id":"levelo_inurba_marseille","lat":43.2651,"lon":5.39469,"is_reserved":false,"is_disabled":false,"rental_uris":{"android":"levelo://app?vid=6b6c7129-48d9-4ed5-8d5a-18cea8a21166","ios":"levelo://app?vid=6b6c7129-48d9-4ed5-8d5a-18cea8a21166"},"vehicle_type_id":"4","last_reported":1703174928,"current_range_meters":12800,"station_id":"ce4bhi12rcd13ifvqfq0","pricing_plan_id":"free"},{"bike_id":"77cc4bb4-f051-43ca-adab-d924c1cfe35b","system_id":"levelo_inurba_marseille","lat":43.2651,"lon":5.39469,"is_reserved":false,"is_disabled":false,"rental_uris":{"android":"levelo://app?vid=77cc4bb4-f051-43ca-adab-d924c1cfe35b","ios":"levelo://app?vid=77cc4bb4-f051-43ca-adab-d924c1cfe35b"},"vehicle_type_id":"4","last_reported":1703174928,"current_range_meters":24000,"station_id":"ce4bhi12rcd13ifvqfq0","pricing_plan_id":"free"},{"bike_id":"9bc11cf7-d766-47fb-a2ac-1ffa731b216c","system_id":"levelo_inurba_marseille","lat":43.298768,"lon":5.43643,"is_reserved":false,"is_disabled":false,"rental_uris":{"android":"levelo://app?vid=9bc11cf7-d766-47fb-a2ac-1ffa731b216c","ios":"levelo://app?vid=9bc11cf7-d766-47fb-a2ac-1ffa731b216c"},"vehicle_type_id":"4","last_reported":1703174928,"current_range_meters":22000,"station_id":"ce4bhpp2rcd13ifvqhfg","pricing_plan_id":"free"},{"bike_id":"86883a94-afe5-444a-a2a3-ae42fdefa096","system_id":"levelo_inurba_marseille","lat":43.260225,"lon":5.375455,"is_reserved":false,"is_disabled":false,"rental_uris":{"android":"levelo://app?vid=86883a94-afe5-444a-a2a3-ae42fdefa096","ios":"levelo://app?vid=86883a94-afe5-444a-a2a3-ae42fdefa096"},"vehicle_type_id":"4","last_reported":1703174928,"current_range_meters":23600,"station_id":"ce4bhgh2rcd13ifvqfa0","pricing_plan_id":"free"},{"bike_id":"03bd0e35-f036-44fc-bd98-8d95eb89b0a7","system_id":"levelo_inurba_marseille","lat":43.2607,"lon":5.393983,"is_reserved":false,"is_disabled":false,"rental_uris":{"android":"levelo://app?vid=03bd0e35-f036-44fc-bd98-8d95eb89b0a7","ios":"levelo://app?vid=03bd0e35-f036-44fc-bd98-8d95eb89b0a7"},"vehicle_type_id":"4","last_reported":1703174928,"current_range_meters":28400,"station_id":"ce4bhh92rcd13ifvqfj0","pricing_plan_id":"free"},{"bike_id":"522b55ee-8a84-4e2c-ba67-00be95d022db","system_id":"levelo_inurba_marseille","lat":43.26058,"lon":5.39401,"is_reserved":false,"is_disabled":false,"rental_uris":{"android":"levelo://app?vid=522b55ee-8a84-4e2c-ba67-00be95d022db","ios":"levelo://app?vid=522b55ee-8a84-4e2c-ba67-00be95d022db"},"vehicle_type_id":"4","last_reported":1703174928,"current_range_meters":24000,"station_id":"ce4bhh92rcd13ifvqfj0","pricing_plan_id":"free"},{"bike_id":"0e63af7a-c63e-40dc-8a36-c530c0658fec","system_id":"levelo_inurba_marseille","lat":43.255756,"lon":5.382303,"is_reserved":false,"is_disabled":false,"rental_uris":{"android":"levelo://app?vid=0e63af7a-c63e-40dc-8a36-c530c0658fec","ios":"levelo://app?vid=0e63af7a-c63e-40dc-8a36-c530c0658fec"},"vehicle_type_id":"4","last_reported":1703174928,"current_range_meters":31200,"station_id":"ce4bhih2rcd13ifvqfs0","pricing_plan_id":"free"},{"bike_id":"71de0b4c-0c02-4e86-8349-6038e5ece961","system_id":"levelo_inurba_marseille","lat":43.255756,"lon":5.382303,"is_reserved":false,"is_disabled":false,"rental_uris":{"android":"levelo://app?vid=71de0b4c-0c02-4e86-8349-6038e5ece961","ios":"levelo://app?vid=71de0b4c-0c02-4e86-8349-6038e5ece961"},"vehicle_type_id":"4","last_reported":1703174928,"current_range_meters":19200,"station_id":"ce4bhih2rcd13ifvqfs0","pricing_plan_id":"free"},{"bike_id":"be5fbfec-8170-4a92-9574-2963c654c7c5","system_id":"levelo_inurba_marseille","lat":43.255756,"lon":5.382303,"is_reserved":false,"is_disabled":false,"rental_uris":{"android":"levelo://app?vid=be5fbfec-8170-4a92-9574-2963c654c7c5","ios":"levelo://app?vid=be5fbfec-8170-4a92-9574-2963c654c7c5"},"vehicle_type_id":"4","last_reported":1703174928,"current_range_meters":18800,"station_id":"ce4bhih2rcd13ifvqfs0","pricing_plan_id":"free"},{"bike_id":"5d55d735-3e14-4288-9c38-1c6b44b70b09","system_id":"levelo_inurba_marseille","lat":43.255756,"lon":5.382303,"is_reserved":false,"is_disabled":false,"rental_uris":{"android":"levelo://app?vid=5d55d735-3e14-4288-9c38-1c6b44b70b09","ios":"levelo://app?vid=5d55d735-3e14-4288-9c38-1c6b44b70b09"},"vehicle_type_id":"4","last_reported":1703174928,"current_range_meters":26000,"station_id":"ce4bhih2rcd13ifvqfs0","pricing_plan_id":"free"},{"bike_id":"79d6ddb3-ba37-44bf-82a2-5489ff59e6c7","system_id":"levelo_inurba_marseille","lat":43.255756,"lon":5.382303,"is_reserved":false,"is_disabled":false,"rental_uris":{"android":"levelo://app?vid=79d6ddb3-ba37-44bf-82a2-5489ff59e6c7","ios":"levelo://app?vid=79d6ddb3-ba37-44bf-82a2-5489ff59e6c7"},"vehicle_type_id":"4","last_reported":1703174928,"current_range_meters":31200,"station_id":"ce4bhih2rcd13ifvqfs0","pricing_plan_id":"free"},{"bike_id":"77180e4b-b393-44b3-84e3-771a3a113129","system_id":"levelo_inurba_marseille","lat":43.255756,"lon":5.382303,"is_reserved":false,"is_disabled":false,"rental_uris":{"android":"levelo://app?vid=77180e4b-b393-44b3-84e3-771a3a113129","ios":"levelo://app?vid=77180e4b-b393-44b3-84e3-771a3a113129"},"vehicle_type_id":"4","last_reported":1703174928,"current_range_meters":27200,"station_id":"ce4bhih2rcd13ifvqfs0","pricing_plan_id":"free"},{"bike_id":"f327e107-9afa-4627-9c71-48a52c45eae8","system_id":"levelo_inurba_marseille","lat":43.255756,"lon":5.382303,"is_reserved":false,"is_disabled":false,"rental_uris":{"android":"levelo://app?vid=f327e107-9afa-4627-9c71-48a52c45eae8","ios":"levelo://app?vid=f327e107-9afa-4627-9c71-48a52c45eae8"},"vehicle_type_id":"4","last_reported":1703174928,"current_range_meters":17600,"station_id":"ce4bhih2rcd13ifvqfs0","pricing_plan_id":"free"},{"bike_id":"b89ef98f-2438-4e24-a4c3-10d10483d23e","system_id":"levelo_inurba_marseille","lat":43.255756,"lon":5.382303,"is_reserved":false,"is_disabled":false,"rental_uris":{"android":"levelo://app?vid=b89ef98f-2438-4e24-a4c3-10d10483d23e","ios":"levelo://app?vid=b89ef98f-2438-4e24-a4c3-10d10483d23e"},"vehicle_type_id":"4","last_reported":1703174928,"current_range_meters":7200,"station_id":"ce4bhih2rcd13ifvqfs0","pricing_plan_id":"free"},{"bike_id":"25d2fc2d-047e-4f81-a046-77f3a327c2fd","system_id":"levelo_inurba_marseille","lat":43.25823,"lon":5.3944,"is_reserved":false,"is_disabled":false,"rental_uris":{"android":"levelo://app?vid=25d2fc2d-047e-4f81-a046-77f3a327c2fd","ios":"levelo://app?vid=25d2fc2d-047e-4f81-a046-77f3a327c2fd"},"vehicle_type_id":"4","last_reported":1703174928,"current_range_meters":21600,"station_id":"ce4bhip2rcd13ifvqft0","pricing_plan_id":"free"},{"bike_id":"ebc3ac68-1825-4d95-af5d-fa1cf3744326","system_id":"levelo_inurba_marseille","lat":43.255756,"lon":5.382303,"is_reserved":false,"is_disabled":false,"rental_uris":{"android":"levelo://app?vid=ebc3ac68-1825-4d95-af5d-fa1cf3744326","ios":"levelo://app?vid=ebc3ac68-1825-4d95-af5d-fa1cf3744326"},"vehicle_type_id":"4","last_reported":1703174928,"current_range_meters":19200,"station_id":"ce4bhih2rcd13ifvqfs0","pricing_plan_id":"free"},{"bike_id":"13940b14-c98b-4846-a0f8-ff98e3361d0f","system_id":"levelo_inurba_marseille","lat":43.25815,"lon":5.39437,"is_reserved":false,"is_disabled":false,"rental_uris":{"android":"levelo://app?vid=13940b14-c98b-4846-a0f8-ff98e3361d0f","ios":"levelo://app?vid=13940b14-c98b-4846-a0f8-ff98e3361d0f"},"vehicle_type_id":"4","last_reported":1703174928,"current_range_meters":9600,"station_id":"ce4bhip2rcd13ifvqft0","pricing_plan_id":"free"},{"bike_id":"407ae54e-bbe9-4113-8fb9-e0721ff03006","system_id":"levelo_inurba_marseille","lat":43.258658,"lon":5.398935,"is_reserved":false,"is_disabled":false,"rental_uris":{"android":"levelo://app?vid=407ae54e-bbe9-4113-8fb9-e0721ff03006","ios":"levelo://app?vid=407ae54e-bbe9-4113-8fb9-e0721ff03006"},"vehicle_type_id":"4","last_reported":1703174928,"current_range_meters":4800,"station_id":"ce4bhl92rcd13ifvqghg","pricing_plan_id":"free"},{"bike_id":"9abe3aad-f7df-4852-9ec2-55d544e9daff","system_id":"levelo_inurba_marseille","lat":43.258658,"lon":5.398935,"is_reserved":false,"is_disabled":false,"rental_uris":{"android":"levelo://app?vid=9abe3aad-f7df-4852-9ec2-55d544e9daff","ios":"levelo://app?vid=9abe3aad-f7df-4852-9ec2-55d544e9daff"},"vehicle_type_id":"4","last_reported":1703174928,"current_range_meters":16400,"station_id":"ce4bhl92rcd13ifvqghg","pricing_plan_id":"free"},{"bike_id":"ef3db61a-0248-4459-96e7-3a078f7c36b9","system_id":"levelo_inurba_marseille","lat":43.259013,"lon":5.409301,"is_reserved":false,"is_disabled":false,"rental_uris":{"android":"levelo://app?vid=ef3db61a-0248-4459-96e7-3a078f7c36b9","ios":"levelo://app?vid=ef3db61a-0248-4459-96e7-3a078f7c36b9"},"vehicle_type_id":"4","last_reported":1703174928,"current_range_meters":25200,"station_id":"ce4bhm92rcd13ifvqglg","pricing_plan_id":"free"},{"bike_id":"a5b77b93-f538-44b3-a8ee-8d6067f5e7ed","system_id":"levelo_inurba_marseille","lat":43.259009,"lon":5.40929,"is_reserved":false,"is_disabled":false,"rental_uris":{"android":"levelo://app?vid=a5b77b93-f538-44b3-a8ee-8d6067f5e7ed","ios":"levelo://app?vid=a5b77b93-f538-44b3-a8ee-8d6067f5e7ed"},"vehicle_type_id":"4","last_reported":1703174928,"current_range_meters":22800,"station_id":"ce4bhm92rcd13ifvqglg","pricing_plan_id":"free"},{"bike_id":"caf667f9-6a72-46ab-9f57-9d8cb007530f","system_id":"levelo_inurba_marseille","lat":43.24894,"lon":5.37497,"is_reserved":false,"is_disabled":false,"rental_uris":{"android":"levelo://app?vid=caf667f9-6a72-46ab-9f57-9d8cb007530f","ios":"levelo://app?vid=caf667f9-6a72-46ab-9f57-9d8cb007530f"},"vehicle_type_id":"4","last_reported":1703174928,"current_range_meters":31200,"station_id":"","pricing_plan_id":"free"},{"bike_id":"75311a16-d31f-4ac4-9a44-37c67765a0fb","system_id":"levelo_inurba_marseille","lat":43.257079,"lon":5.411051,"is_reserved":false,"is_disabled":false,"rental_uris":{"android":"levelo://app?vid=75311a16-d31f-4ac4-9a44-37c67765a0fb","ios":"levelo://app?vid=75311a16-d31f-4ac4-9a44-37c67765a0fb"},"vehicle_type_id":"4","last_reported":1703174928,"current_range_meters":22400,"station_id":"ce4bhkp2rcd13ifvqgd0","pricing_plan_id":"free"},{"bike_id":"f1a3a025-8822-4512-9f2e-0fe6f7a64ea1","system_id":"levelo_inurba_marseille","lat":43.257079,"lon":5.411051,"is_reserved":false,"is_disabled":false,"rental_uris":{"android":"levelo://app?vid=f1a3a025-8822-4512-9f2e-0fe6f7a64ea1","ios":"levelo://app?vid=f1a3a025-8822-4512-9f2e-0fe6f7a64ea1"},"vehicle_type_id":"4","last_reported":1703174928,"current_range_meters":31200,"station_id":"ce4bhkp2rcd13ifvqgd0","pricing_plan_id":"free"},{"bike_id":"9044d864-f81d-4f4a-8994-d26c4a2aef14","system_id":"levelo_inurba_marseille","lat":43.257079,"lon":5.411051,"is_reserved":false,"is_disabled":false,"rental_uris":{"android":"levelo://app?vid=9044d864-f81d-4f4a-8994-d26c4a2aef14","ios":"levelo://app?vid=9044d864-f81d-4f4a-8994-d26c4a2aef14"},"vehicle_type_id":"4","last_reported":1703174928,"current_range_meters":7200,"station_id":"ce4bhkp2rcd13ifvqgd0","pricing_plan_id":"free"},{"bike_id":"1249bdd4-2018-4871-b174-d48b5e2283a1","system_id":"levelo_inurba_marseille","lat":43.250966,"lon":5.395186,"is_reserved":false,"is_disabled":false,"rental_uris":{"android":"levelo://app?vid=1249bdd4-2018-4871-b174-d48b5e2283a1","ios":"levelo://app?vid=1249bdd4-2018-4871-b174-d48b5e2283a1"},"vehicle_type_id":"4","last_reported":1703174928,"current_range_meters":7200,"station_id":"ce4bhm12rcd13ifvqgkg","pricing_plan_id":"free"},{"bike_id":"538b4ca7-5efe-4631-84b0-04975d03eb57","system_id":"levelo_inurba_marseille","lat":43.2479,"lon":5.374457,"is_reserved":false,"is_disabled":false,"rental_uris":{"android":"levelo://app?vid=538b4ca7-5efe-4631-84b0-04975d03eb57","ios":"levelo://app?vid=538b4ca7-5efe-4631-84b0-04975d03eb57"},"vehicle_type_id":"4","last_reported":1703174928,"current_range_meters":26000,"station_id":"ce4bhgh2rcd13ifvqfb0","pricing_plan_id":"free"},{"bike_id":"43dbae7a-7da5-4ea5-89f8-50e8c0ff1b9d","system_id":"levelo_inurba_marseille","lat":43.248103,"lon":5.37459,"is_reserved":false,"is_disabled":false,"rental_uris":{"android":"levelo://app?vid=43dbae7a-7da5-4ea5-89f8-50e8c0ff1b9d","ios":"levelo://app?vid=43dbae7a-7da5-4ea5-89f8-50e8c0ff1b9d"},"vehicle_type_id":"4","last_reported":1703174928,"current_range_meters":30800,"station_id":"ce4bhgh2rcd13ifvqfb0","pricing_plan_id":"free"},{"bike_id":"afb5a658-73d4-4865-ad9f-2950cbaa3394","system_id":"levelo_inurba_marseille","lat":43.2479,"lon":5.374457,"is_reserved":false,"is_disabled":false,"rental_uris":{"android":"levelo://app?vid=afb5a658-73d4-4865-ad9f-2950cbaa3394","ios":"levelo://app?vid=afb5a658-73d4-4865-ad9f-2950cbaa3394"},"vehicle_type_id":"4","last_reported":1703174928,"current_range_meters":15600,"station_id":"ce4bhgh2rcd13ifvqfb0","pricing_plan_id":"free"},{"bike_id":"b76f2308-ff7c-491d-b3d5-9e7fae72b9c9","system_id":"levelo_inurba_marseille","lat":43.2479,"lon":5.374457,"is_reserved":false,"is_disabled":false,"rental_uris":{"android":"levelo://app?vid=b76f2308-ff7c-491d-b3d5-9e7fae72b9c9","ios":"levelo://app?vid=b76f2308-ff7c-491d-b3d5-9e7fae72b9c9"},"vehicle_type_id":"4","last_reported":1703174928,"current_range_meters":31200,"station_id":"ce4bhgh2rcd13ifvqfb0","pricing_plan_id":"free"},{"bike_id":"b7ccb282-b1d6-4db4-8ce8-bf420e32a700","system_id":"levelo_inurba_marseille","lat":43.25105,"lon":5.395155,"is_reserved":false,"is_disabled":false,"rental_uris":{"android":"levelo://app?vid=b7ccb282-b1d6-4db4-8ce8-bf420e32a700","ios":"levelo://app?vid=b7ccb282-b1d6-4db4-8ce8-bf420e32a700"},"vehicle_type_id":"4","last_reported":1703174928,"current_range_meters":12000,"station_id":"","pricing_plan_id":"free"},{"bike_id":"c5114f26-15ad-474f-8973-ab438e1d8b69","system_id":"levelo_inurba_marseille","lat":43.250893,"lon":5.395133,"is_reserved":false,"is_disabled":false,"rental_uris":{"android":"levelo://app?vid=c5114f26-15ad-474f-8973-ab438e1d8b69","ios":"levelo://app?vid=c5114f26-15ad-474f-8973-ab438e1d8b69"},"vehicle_type_id":"4","last_reported":1703174928,"current_range_meters":18400,"station_id":"","pricing_plan_id":"free"},{"bike_id":"f4996e65-cf10-4611-a2a2-a8dc834de670","system_id":"levelo_inurba_marseille","lat":43.25084,"lon":5.39524,"is_reserved":false,"is_disabled":false,"rental_uris":{"android":"levelo://app?vid=f4996e65-cf10-4611-a2a2-a8dc834de670","ios":"levelo://app?vid=f4996e65-cf10-4611-a2a2-a8dc834de670"},"vehicle_type_id":"4","last_reported":1703174928,"current_range_meters":4800,"station_id":"ce4bhm12rcd13ifvqgkg","pricing_plan_id":"free"},{"bike_id":"b4f07851-8d67-4d87-9196-2272fa5e40c1","system_id":"levelo_inurba_marseille","lat":43.246467,"lon":5.388984,"is_reserved":false,"is_disabled":false,"rental_uris":{"android":"levelo://app?vid=b4f07851-8d67-4d87-9196-2272fa5e40c1","ios":"levelo://app?vid=b4f07851-8d67-4d87-9196-2272fa5e40c1"},"vehicle_type_id":"4","last_reported":1703174928,"current_range_meters":3600,"station_id":"ce4bhg12rcd13ifvqf60","pricing_plan_id":"free"},{"bike_id":"f42d4a1e-3fa2-48d8-a045-b0eedcd38690","system_id":"levelo_inurba_marseille","lat":43.246473,"lon":5.388967,"is_reserved":false,"is_disabled":false,"rental_uris":{"android":"levelo://app?vid=f42d4a1e-3fa2-48d8-a045-b0eedcd38690","ios":"levelo://app?vid=f42d4a1e-3fa2-48d8-a045-b0eedcd38690"},"vehicle_type_id":"4","last_reported":1703174928,"current_range_meters":31200,"station_id":"ce4bhg12rcd13ifvqf60","pricing_plan_id":"free"},{"bike_id":"3db1b4bb-ae3e-4425-89c0-ec93799abde4","system_id":"levelo_inurba_marseille","lat":43.246327,"lon":5.38854,"is_reserved":false,"is_disabled":false,"rental_uris":{"android":"levelo://app?vid=3db1b4bb-ae3e-4425-89c0-ec93799abde4","ios":"levelo://app?vid=3db1b4bb-ae3e-4425-89c0-ec93799abde4"},"vehicle_type_id":"4","last_reported":1703174928,"current_range_meters":25600,"station_id":"ce4bhg12rcd13ifvqf60","pricing_plan_id":"free"},{"bike_id":"3c9770fe-51a8-43bf-967e-48a9bf22c99e","system_id":"levelo_inurba_marseille","lat":43.24396,"lon":5.37055,"is_reserved":false,"is_disabled":false,"rental_uris":{"android":"levelo://app?vid=3c9770fe-51a8-43bf-967e-48a9bf22c99e","ios":"levelo://app?vid=3c9770fe-51a8-43bf-967e-48a9bf22c99e"},"vehicle_type_id":"4","last_reported":1703174928,"current_range_meters":13200,"station_id":"ce4bhhh2rcd13ifvqfk0","pricing_plan_id":"free"},{"bike_id":"fba3d90b-dce2-43db-99fb-7a830d45e834","system_id":"levelo_inurba_marseille","lat":43.24388,"lon":5.3706,"is_reserved":false,"is_disabled":false,"rental_uris":{"android":"levelo://app?vid=fba3d90b-dce2-43db-99fb-7a830d45e834","ios":"levelo://app?vid=fba3d90b-dce2-43db-99fb-7a830d45e834"},"vehicle_type_id":"4","last_reported":1703174928,"current_range_meters":22400,"station_id":"ce4bhhh2rcd13ifvqfk0","pricing_plan_id":"free"},{"bike_id":"2bcb1da1-ac21-4f94-bc7f-cb92bc61eaaf","system_id":"levelo_inurba_marseille","lat":43.243884,"lon":5.370736,"is_reserved":false,"is_disabled":false,"rental_uris":{"android":"levelo://app?vid=2bcb1da1-ac21-4f94-bc7f-cb92bc61eaaf","ios":"levelo://app?vid=2bcb1da1-ac21-4f94-bc7f-cb92bc61eaaf"},"vehicle_type_id":"4","last_reported":1703174928,"current_range_meters":10400,"station_id":"ce4bhhh2rcd13ifvqfk0","pricing_plan_id":"free"},{"bike_id":"1bfcac9d-2215-418b-bbe2-36a818e7c301","system_id":"levelo_inurba_marseille","lat":43.24386,"lon":5.3706,"is_reserved":false,"is_disabled":false,"rental_uris":{"android":"levelo://app?vid=1bfcac9d-2215-418b-bbe2-36a818e7c301","ios":"levelo://app?vid=1bfcac9d-2215-418b-bbe2-36a818e7c301"},"vehicle_type_id":"4","last_reported":1703174928,"current_range_meters":14400,"station_id":"ce4bhhh2rcd13ifvqfk0","pricing_plan_id":"free"},{"bike_id":"5d2cb6c3-4cd7-4310-a384-291ea7f5d830","system_id":"levelo_inurba_marseille","lat":43.24385,"lon":5.37062,"is_reserved":false,"is_disabled":false,"rental_uris":{"android":"levelo://app?vid=5d2cb6c3-4cd7-4310-a384-291ea7f5d830","ios":"levelo://app?vid=5d2cb6c3-4cd7-4310-a384-291ea7f5d830"},"vehicle_type_id":"4","last_reported":1703174928,"current_range_meters":22400,"station_id":"ce4bhhh2rcd13ifvqfk0","pricing_plan_id":"free"},{"bike_id":"9a051f99-98dc-472d-b2c0-655ce981f7d4","system_id":"levelo_inurba_marseille","lat":43.245581,"lon":5.395069,"is_reserved":false,"is_disabled":false,"rental_uris":{"android":"levelo://app?vid=9a051f99-98dc-472d-b2c0-655ce981f7d4","ios":"levelo://app?vid=9a051f99-98dc-472d-b2c0-655ce981f7d4"},"vehicle_type_id":"4","last_reported":1703174928,"current_range_meters":14000,"station_id":"ce4bhlp2rcd13ifvqgjg","pricing_plan_id":"free"},{"bike_id":"0d524130-22ff-4d6f-b145-20680ab4e2a4","system_id":"levelo_inurba_marseille","lat":43.239588,"lon":5.366238,"is_reserved":false,"is_disabled":false,"rental_uris":{"android":"levelo://app?vid=0d524130-22ff-4d6f-b145-20680ab4e2a4","ios":"levelo://app?vid=0d524130-22ff-4d6f-b145-20680ab4e2a4"},"vehicle_type_id":"4","last_reported":1703174928,"current_range_meters":21200,"station_id":"ce4bhi12rcd13ifvqfp0","pricing_plan_id":"free"},{"bike_id":"e224d0e6-9af3-4b8e-9708-dafa151dafb3","system_id":"levelo_inurba_marseille","lat":43.239588,"lon":5.366238,"is_reserved":false,"is_disabled":false,"rental_uris":{"android":"levelo://app?vid=e224d0e6-9af3-4b8e-9708-dafa151dafb3","ios":"levelo://app?vid=e224d0e6-9af3-4b8e-9708-dafa151dafb3"},"vehicle_type_id":"4","last_reported":1703174928,"current_range_meters":23600,"station_id":"ce4bhi12rcd13ifvqfp0","pricing_plan_id":"free"},{"bike_id":"77c78ac9-82c0-4b01-851d-c857c1805538","system_id":"levelo_inurba_marseille","lat":43.239588,"lon":5.366238,"is_reserved":false,"is_disabled":false,"rental_uris":{"android":"levelo://app?vid=77c78ac9-82c0-4b01-851d-c857c1805538","ios":"levelo://app?vid=77c78ac9-82c0-4b01-851d-c857c1805538"},"vehicle_type_id":"4","last_reported":1703174928,"current_range_meters":31200,"station_id":"ce4bhi12rcd13ifvqfp0","pricing_plan_id":"free"},{"bike_id":"c51ae597-66ef-4291-85d9-8cb696680ac6","system_id":"levelo_inurba_marseille","lat":43.239588,"lon":5.366238,"is_reserved":false,"is_disabled":false,"rental_uris":{"android":"levelo://app?vid=c51ae597-66ef-4291-85d9-8cb696680ac6","ios":"levelo://app?vid=c51ae597-66ef-4291-85d9-8cb696680ac6"},"vehicle_type_id":"4","last_reported":1703174928,"current_range_meters":28000,"station_id":"ce4bhi12rcd13ifvqfp0","pricing_plan_id":"free"},{"bike_id":"2ddc64da-9bd3-471d-85bf-9c00908f76a1","system_id":"levelo_inurba_marseille","lat":43.239588,"lon":5.366238,"is_reserved":false,"is_disabled":false,"rental_uris":{"android":"levelo://app?vid=2ddc64da-9bd3-471d-85bf-9c00908f76a1","ios":"levelo://app?vid=2ddc64da-9bd3-471d-85bf-9c00908f76a1"},"vehicle_type_id":"4","last_reported":1703174928,"current_range_meters":20800,"station_id":"ce4bhi12rcd13ifvqfp0","pricing_plan_id":"free"},{"bike_id":"ef821218-cc53-40af-9d7d-424199f5b810","system_id":"levelo_inurba_marseille","lat":43.239588,"lon":5.366238,"is_reserved":false,"is_disabled":false,"rental_uris":{"android":"levelo://app?vid=ef821218-cc53-40af-9d7d-424199f5b810","ios":"levelo://app?vid=ef821218-cc53-40af-9d7d-424199f5b810"},"vehicle_type_id":"4","last_reported":1703174928,"current_range_meters":24800,"station_id":"ce4bhi12rcd13ifvqfp0","pricing_plan_id":"free"},{"bike_id":"607ae860-abc6-4f2e-9895-1cc0e07d5b36","system_id":"levelo_inurba_marseille","lat":43.239588,"lon":5.366238,"is_reserved":false,"is_disabled":false,"rental_uris":{"android":"levelo://app?vid=607ae860-abc6-4f2e-9895-1cc0e07d5b36","ios":"levelo://app?vid=607ae860-abc6-4f2e-9895-1cc0e07d5b36"},"vehicle_type_id":"4","last_reported":1703174928,"current_range_meters":21600,"station_id":"ce4bhi12rcd13ifvqfp0","pricing_plan_id":"free"},{"bike_id":"12c44584-9ea2-4e4b-b9dd-b603bf338028","system_id":"levelo_inurba_marseille","lat":43.23955,"lon":5.36635,"is_reserved":false,"is_disabled":false,"rental_uris":{"android":"levelo://app?vid=12c44584-9ea2-4e4b-b9dd-b603bf338028","ios":"levelo://app?vid=12c44584-9ea2-4e4b-b9dd-b603bf338028"},"vehicle_type_id":"4","last_reported":1703174928,"current_range_meters":31200,"station_id":"ce4bhi12rcd13ifvqfp0","pricing_plan_id":"free"},{"bike_id":"979e2426-508b-4ab9-8315-d1fb133bcc02","system_id":"levelo_inurba_marseille","lat":43.239588,"lon":5.366238,"is_reserved":false,"is_disabled":false,"rental_uris":{"android":"levelo://app?vid=979e2426-508b-4ab9-8315-d1fb133bcc02","ios":"levelo://app?vid=979e2426-508b-4ab9-8315-d1fb133bcc02"},"vehicle_type_id":"4","last_reported":1703174928,"current_range_meters":15200,"station_id":"ce4bhi12rcd13ifvqfp0","pricing_plan_id":"free"},{"bike_id":"2a06805c-47be-453b-b381-5e50a159c325","system_id":"levelo_inurba_marseille","lat":43.239588,"lon":5.366238,"is_reserved":false,"is_disabled":false,"rental_uris":{"android":"levelo://app?vid=2a06805c-47be-453b-b381-5e50a159c325","ios":"levelo://app?vid=2a06805c-47be-453b-b381-5e50a159c325"},"vehicle_type_id":"4","last_reported":1703174928,"current_range_meters":16000,"station_id":"ce4bhi12rcd13ifvqfp0","pricing_plan_id":"free"},{"bike_id":"1a834b3c-d533-4229-b141-c6341f87d933","system_id":"levelo_inurba_marseille","lat":43.241782,"lon":5.397261,"is_reserved":false,"is_disabled":false,"rental_uris":{"android":"levelo://app?vid=1a834b3c-d533-4229-b141-c6341f87d933","ios":"levelo://app?vid=1a834b3c-d533-4229-b141-c6341f87d933"},"vehicle_type_id":"4","last_reported":1703174928,"current_range_meters":6000,"station_id":"ce4bhn12rcd13ifvqgpg","pricing_plan_id":"free"},{"bike_id":"397f2377-fc35-41d5-ab0e-fce1c38bbacc","system_id":"levelo_inurba_marseille","lat":43.231919,"lon":5.355532,"is_reserved":false,"is_disabled":false,"rental_uris":{"android":"levelo://app?vid=397f2377-fc35-41d5-ab0e-fce1c38bbacc","ios":"levelo://app?vid=397f2377-fc35-41d5-ab0e-fce1c38bbacc"},"vehicle_type_id":"4","last_reported":1703174928,"current_range_meters":23600,"station_id":"ce4bhu92rcd13ifvqi70","pricing_plan_id":"free"},{"bike_id":"46e91664-9e3d-4f32-b09c-687b430c80f7","system_id":"levelo_inurba_marseille","lat":43.23198,"lon":5.35561,"is_reserved":false,"is_disabled":false,"rental_uris":{"android":"levelo://app?vid=46e91664-9e3d-4f32-b09c-687b430c80f7","ios":"levelo://app?vid=46e91664-9e3d-4f32-b09c-687b430c80f7"},"vehicle_type_id":"4","last_reported":1703174928,"current_range_meters":13200,"station_id":"ce4bhu92rcd13ifvqi70","pricing_plan_id":"free"},{"bike_id":"0461e5b1-5dc5-4f24-b288-48135de65a72","system_id":"levelo_inurba_marseille","lat":43.23198,"lon":5.3555,"is_reserved":false,"is_disabled":false,"rental_uris":{"android":"levelo://app?vid=0461e5b1-5dc5-4f24-b288-48135de65a72","ios":"levelo://app?vid=0461e5b1-5dc5-4f24-b288-48135de65a72"},"vehicle_type_id":"4","last_reported":1703174928,"current_range_meters":15600,"station_id":"ce4bhu92rcd13ifvqi70","pricing_plan_id":"free"},{"bike_id":"744c823e-815a-40cb-8f39-72d2513f38a9","system_id":"levelo_inurba_marseille","lat":43.23196,"lon":5.35554,"is_reserved":false,"is_disabled":false,"rental_uris":{"android":"levelo://app?vid=744c823e-815a-40cb-8f39-72d2513f38a9","ios":"levelo://app?vid=744c823e-815a-40cb-8f39-72d2513f38a9"},"vehicle_type_id":"4","last_reported":1703174928,"current_range_meters":25200,"station_id":"ce4bhu92rcd13ifvqi70","pricing_plan_id":"free"},{"bike_id":"76cd5497-589d-449c-8eee-93245f480e16","system_id":"levelo_inurba_marseille","lat":43.23196,"lon":5.35547,"is_reserved":false,"is_disabled":false,"rental_uris":{"android":"levelo://app?vid=76cd5497-589d-449c-8eee-93245f480e16","ios":"levelo://app?vid=76cd5497-589d-449c-8eee-93245f480e16"},"vehicle_type_id":"4","last_reported":1703174928,"current_range_meters":5600,"station_id":"ce4bhu92rcd13ifvqi70","pricing_plan_id":"free"},{"bike_id":"b52668ba-0955-4a6d-9719-7315a7cbcd72","system_id":"levelo_inurba_marseille","lat":43.23195,"lon":5.35556,"is_reserved":false,"is_disabled":false,"rental_uris":{"android":"levelo://app?vid=b52668ba-0955-4a6d-9719-7315a7cbcd72","ios":"levelo://app?vid=b52668ba-0955-4a6d-9719-7315a7cbcd72"},"vehicle_type_id":"4","last_reported":1703174928,"current_range_meters":31200,"station_id":"ce4bhu92rcd13ifvqi70","pricing_plan_id":"free"},{"bike_id":"acbefbf4-8c59-4436-96b4-6140ed100732","system_id":"levelo_inurba_marseille","lat":43.23193,"lon":5.3556,"is_reserved":false,"is_disabled":false,"rental_uris":{"android":"levelo://app?vid=acbefbf4-8c59-4436-96b4-6140ed100732","ios":"levelo://app?vid=acbefbf4-8c59-4436-96b4-6140ed100732"},"vehicle_type_id":"4","last_reported":1703174928,"current_range_meters":31200,"station_id":"ce4bhu92rcd13ifvqi70","pricing_plan_id":"free"},{"bike_id":"1eb092a2-adec-46bb-a85f-6d6defbff798","system_id":"levelo_inurba_marseille","lat":43.23193,"lon":5.35548,"is_reserved":false,"is_disabled":false,"rental_uris":{"android":"levelo://app?vid=1eb092a2-adec-46bb-a85f-6d6defbff798","ios":"levelo://app?vid=1eb092a2-adec-46bb-a85f-6d6defbff798"},"vehicle_type_id":"4","last_reported":1703174928,"current_range_meters":8000,"station_id":"ce4bhu92rcd13ifvqi70","pricing_plan_id":"free"},{"bike_id":"3867f22f-1cb9-4040-b112-cb60fc74122a","system_id":"levelo_inurba_marseille","lat":43.231923,"lon":5.355527,"is_reserved":false,"is_disabled":false,"rental_uris":{"android":"levelo://app?vid=3867f22f-1cb9-4040-b112-cb60fc74122a","ios":"levelo://app?vid=3867f22f-1cb9-4040-b112-cb60fc74122a"},"vehicle_type_id":"4","last_reported":1703174928,"current_range_meters":31200,"station_id":"ce4bhu92rcd13ifvqi70","pricing_plan_id":"free"},{"bike_id":"64a4398b-6c74-4f3f-980a-f4fa3aa3e2ac","system_id":"levelo_inurba_marseille","lat":43.231919,"lon":5.355532,"is_reserved":false,"is_disabled":false,"rental_uris":{"android":"levelo://app?vid=64a4398b-6c74-4f3f-980a-f4fa3aa3e2ac","ios":"levelo://app?vid=64a4398b-6c74-4f3f-980a-f4fa3aa3e2ac"},"vehicle_type_id":"4","last_reported":1703174928,"current_range_meters":31200,"station_id":"ce4bhu92rcd13ifvqi70","pricing_plan_id":"free"},{"bike_id":"cdfac4d3-6dfa-43ee-879e-41a158a5b4d1","system_id":"levelo_inurba_marseille","lat":43.231923,"lon":5.355545,"is_reserved":false,"is_disabled":false,"rental_uris":{"android":"levelo://app?vid=cdfac4d3-6dfa-43ee-879e-41a158a5b4d1","ios":"levelo://app?vid=cdfac4d3-6dfa-43ee-879e-41a158a5b4d1"},"vehicle_type_id":"4","last_reported":1703174928,"current_range_meters":22000,"station_id":"ce4bhu92rcd13ifvqi70","pricing_plan_id":"free"},{"bike_id":"dd588033-2b7d-426c-9bec-77fe459d61e6","system_id":"levelo_inurba_marseille","lat":43.231923,"lon":5.355545,"is_reserved":false,"is_disabled":false,"rental_uris":{"android":"levelo://app?vid=dd588033-2b7d-426c-9bec-77fe459d61e6","ios":"levelo://app?vid=dd588033-2b7d-426c-9bec-77fe459d61e6"},"vehicle_type_id":"4","last_reported":1703174928,"current_range_meters":31200,"station_id":"ce4bhu92rcd13ifvqi70","pricing_plan_id":"free"},{"bike_id":"bd45820b-b469-43ab-95e6-f6e85c163125","system_id":"levelo_inurba_marseille","lat":43.2319,"lon":5.39973,"is_reserved":false,"is_disabled":false,"rental_uris":{"android":"levelo://app?vid=bd45820b-b469-43ab-95e6-f6e85c163125","ios":"levelo://app?vid=bd45820b-b469-43ab-95e6-f6e85c163125"},"vehicle_type_id":"4","last_reported":1703174928,"current_range_meters":4000,"station_id":"ce4bhn12rcd13ifvqgqg","pricing_plan_id":"free"},{"bike_id":"c0d1a540-5b73-445e-921b-fc0a484d96ca","system_id":"levelo_inurba_marseille","lat":43.231793,"lon":5.400044,"is_reserved":false,"is_disabled":false,"rental_uris":{"android":"levelo://app?vid=c0d1a540-5b73-445e-921b-fc0a484d96ca","ios":"levelo://app?vid=c0d1a540-5b73-445e-921b-fc0a484d96ca"},"vehicle_type_id":"4","last_reported":1703174928,"current_range_meters":19200,"station_id":"ce4bhn12rcd13ifvqgqg","pricing_plan_id":"free"},{"bike_id":"019f13cd-42fa-49f5-885f-606e918659c8","system_id":"levelo_inurba_marseille","lat":43.23187,"lon":5.39979,"is_reserved":false,"is_disabled":false,"rental_uris":{"android":"levelo://app?vid=019f13cd-42fa-49f5-885f-606e918659c8","ios":"levelo://app?vid=019f13cd-42fa-49f5-885f-606e918659c8"},"vehicle_type_id":"4","last_reported":1703174928,"current_range_meters":30000,"station_id":"ce4bhn12rcd13ifvqgqg","pricing_plan_id":"free"},{"bike_id":"067d5e6f-641c-4676-9a3c-e22f9c9247c3","system_id":"levelo_inurba_marseille","lat":43.23187,"lon":5.39982,"is_reserved":false,"is_disabled":false,"rental_uris":{"android":"levelo://app?vid=067d5e6f-641c-4676-9a3c-e22f9c9247c3","ios":"levelo://app?vid=067d5e6f-641c-4676-9a3c-e22f9c9247c3"},"vehicle_type_id":"4","last_reported":1703174928,"current_range_meters":11600,"station_id":"ce4bhn12rcd13ifvqgqg","pricing_plan_id":"free"},{"bike_id":"d6711965-b6b9-492a-ab6d-e4efbca1494d","system_id":"levelo_inurba_marseille","lat":43.231827,"lon":5.399826,"is_reserved":false,"is_disabled":false,"rental_uris":{"android":"levelo://app?vid=d6711965-b6b9-492a-ab6d-e4efbca1494d","ios":"levelo://app?vid=d6711965-b6b9-492a-ab6d-e4efbca1494d"},"vehicle_type_id":"4","last_reported":1703174928,"current_range_meters":13600,"station_id":"ce4bhn12rcd13ifvqgqg","pricing_plan_id":"free"},{"bike_id":"b7dd18a5-37d1-4b4c-8c2b-b57a4bd1a9c0","system_id":"levelo_inurba_marseille","lat":43.231793,"lon":5.400044,"is_reserved":false,"is_disabled":false,"rental_uris":{"android":"levelo://app?vid=b7dd18a5-37d1-4b4c-8c2b-b57a4bd1a9c0","ios":"levelo://app?vid=b7dd18a5-37d1-4b4c-8c2b-b57a4bd1a9c0"},"vehicle_type_id":"4","last_reported":1703174928,"current_range_meters":15600,"station_id":"ce4bhn12rcd13ifvqgqg","pricing_plan_id":"free"},{"bike_id":"86a46357-435b-4555-b651-0dc9608e5e40","system_id":"levelo_inurba_marseille","lat":43.2318,"lon":5.39987,"is_reserved":false,"is_disabled":false,"rental_uris":{"android":"levelo://app?vid=86a46357-435b-4555-b651-0dc9608e5e40","ios":"levelo://app?vid=86a46357-435b-4555-b651-0dc9608e5e40"},"vehicle_type_id":"4","last_reported":1703174928,"current_range_meters":17600,"station_id":"ce4bhn12rcd13ifvqgqg","pricing_plan_id":"free"},{"bike_id":"4fce0468-f2f1-4f6a-b51c-9bfb7b244797","system_id":"levelo_inurba_marseille","lat":43.231774,"lon":5.399859,"is_reserved":false,"is_disabled":false,"rental_uris":{"android":"levelo://app?vid=4fce0468-f2f1-4f6a-b51c-9bfb7b244797","ios":"levelo://app?vid=4fce0468-f2f1-4f6a-b51c-9bfb7b244797"},"vehicle_type_id":"4","last_reported":1703174928,"current_range_meters":31200,"station_id":"ce4bhn12rcd13ifvqgqg","pricing_plan_id":"free"},{"bike_id":"0b55dc1b-cb80-41c0-b8e5-b2efb5607cb5","system_id":"levelo_inurba_marseille","lat":43.231777,"lon":5.399877,"is_reserved":false,"is_disabled":false,"rental_uris":{"android":"levelo://app?vid=0b55dc1b-cb80-41c0-b8e5-b2efb5607cb5","ios":"levelo://app?vid=0b55dc1b-cb80-41c0-b8e5-b2efb5607cb5"},"vehicle_type_id":"4","last_reported":1703174928,"current_range_meters":0,"station_id":"ce4bhn12rcd13ifvqgqg","pricing_plan_id":"free"},{"bike_id":"3728f250-d6ac-43f8-8803-06d59a80fba0","system_id":"levelo_inurba_marseille","lat":43.231749,"lon":5.399895,"is_reserved":false,"is_disabled":false,"rental_uris":{"android":"levelo://app?vid=3728f250-d6ac-43f8-8803-06d59a80fba0","ios":"levelo://app?vid=3728f250-d6ac-43f8-8803-06d59a80fba0"},"vehicle_type_id":"4","last_reported":1703174928,"current_range_meters":4000,"station_id":"","pricing_plan_id":"free"},{"bike_id":"f0cf36f5-9f94-4673-b618-4ea782f3b9dd","system_id":"levelo_inurba_marseille","lat":43.23051,"lon":5.40305,"is_reserved":false,"is_disabled":false,"rental_uris":{"android":"levelo://app?vid=f0cf36f5-9f94-4673-b618-4ea782f3b9dd","ios":"levelo://app?vid=f0cf36f5-9f94-4673-b618-4ea782f3b9dd"},"vehicle_type_id":"4","last_reported":1703174928,"current_range_meters":14800,"station_id":"","pricing_plan_id":"free"}]}}