{"last_updated":1730135314,"ttl":60,"version":"2.2","data":{"bikes":[{"bike_id":"199c3010-97c5-459d-b6a2-ffee65d489cc","system_id":"levelo_inurba_marseille","lat":43.32056,"lon":5.41553,"is_reserved":false,"is_disabled":false,"rental_uris":{"android":"levelo://app?vid=199c3010-97c5-459d-b6a2-ffee65d489cc","ios":"levelo://app?vid=199c3010-97c5-459d-b6a2-ffee65d489cc"},"vehicle_type_id":"4","last_reported":1730135315,"current_range_meters":11600,"station_id":"ce4bhq92rcd13ifvqhkg","pricing_plan_id":"cebpf4jnsgd1na2vs0mg"},{"bike_id":"9e4044e9-dd72-4f58-b85b-2423a1de6b75","system_id":"levelo_inurba_marseille","lat":43.27187,"lon":5.4101,"is_reserved":false,"is_disabled":false,"rental_uris":{"android":"levelo://app?vid=9e4044e9-dd72-4f58-b85b-2423a1de6b75","ios":"levelo://app?vid=9e4044e9-dd72-4f58-b85b-2423a1de6b75"},"vehicle_type_id":"4","last_reported":1730135315,"current_range_meters":11200,"station_id":"ce4bhl12rcd13ifvqgf0","pricing_plan_id":"cebpf4jnsgd1na2vs0mg"},{"bike_id":"4aebdb59-bbc7-456e-b060-33c91b8172d0","system_id":"levelo_inurba_marseille","lat":43.29911,"lon":5.38258,"is_reserved":false,"is_disabled":false,"rental_uris":{"android":"levelo://app?vid=4aebdb59-bbc7-456e-b060-33c91b8172d0","ios":"levelo://app?vid=4aebdb59-bbc7-456e-b060-33c91b8172d0"},"vehicle_type_id":"4","last_reported":1730135315,"current_range_meters":30000,"station_id":"","pricing_plan_id":"cebpf4jnsgd1na2vs0mg"},{"bike_id":"8721b02c-980e-48dc-adb8-1a01001ab8c6","system_id":"levelo_inurba_marseille","lat":43.28934,"lon":5.38391,"is_reserved":false,"is_disabled":false,"rental_uris":{"android":"levelo://app?vid=8721b02c-980e-48dc-adb8-1a01001ab8c6","ios":"levelo://app?vid=8721b02c-980e-48dc-adb8-1a01001ab8c6"},"vehicle_type_id":"4","last_reported":1730135315,"current_range_meters":38400,"station_id":"ce4bh612rcd13ifvqe6g","pricing_plan_id":"cebpf4jnsgd1na2vs0mg"},{"bike_id":"b619d25f-40cd-447a-9373-c855edbf6d3a","system_id":"levelo_inurba_marseille","lat":43.30784,"lon":5.37644,"is_reserved":false,"is_disabled":false,"rental_uris":{"android":"levelo://app?vid=b619d25f-40cd-447a-9373-c855edbf6d3a","ios":"levelo://app?vid=b619d25f-40cd-447a-9373-c855edbf6d3a"},"vehicle_type_id":"4","last_reported":1730135315,"current_range_meters":37600,"station_id":"ce4bgv92rcd13ifvqcq0","pricing_plan_id":"cebpf4jnsgd1na2vs0mg"},{"bike_id":"a8652586-bac3-4066-8349-87b461f05426","system_id":"levelo_inurba_marseille","lat":43.30309,"lon":5.36903,"is_reserved":false,"is_disabled":false,"rental_uris":{"android":"levelo://app?vid=a8652586-bac3-4066-8349-87b461f05426","ios":"levelo://app?vid=a8652586-bac3-4066-8349-87b461f05426"},"vehicle_type_id":"4","last_reported":1730135315,"current_range_meters":32000,"station_id":"ce4bgqh2rcd13ifvqc5g","pricing_plan_id":"cebpf4jnsgd1na2vs0mg"},{"bike_id":"af073a16-112b-4dfc-9d41-3c054fa45b84","system_id":"levelo_inurba_marseille","lat":43.308323,"lon":5.37499,"is_reserved":false,"is_disabled":false,"rental_uris":{"android":"levelo://app?vid=af073a16-112b-4dfc-9d41-3c054fa45b84","ios":"levelo://app?vid=af073a16-112b-4dfc-9d41-3c054fa45b84"},"vehicle_type_id":"4","last_reported":1730135315,"current_range_meters":11200,"station_id":"ce4bgv92rcd13ifvqcq0","pricing_plan_id":"cebpf4jnsgd1na2vs0mg"},{"bike_id":"9f4fccb5-42dd-4a1a-b794-eabd73e27f09","system_id":"levelo_inurba_marseille","lat":43.29213,"lon":5.39322,"is_reserved":false,"is_disabled":false,"rental_uris":{"android":"levelo://app?vid=9f4fccb5-42dd-4a1a-b794-eabd73e27f09","ios":"levelo://app?vid=9f4fccb5-42dd-4a1a-b794-eabd73e27f09"},"vehicle_type_id":"4","last_reported":1730135315,"current_range_meters":16400,"station_id":"ce4bh192rcd13ifvqdd0","pricing_plan_id":"cebpf4jnsgd1na2vs0mg"},{"bike_id":"63d9251d-39ec-491a-9711-f35db2db18ed","system_id":"levelo_inurba_marseille","lat":43.30638,"lon":5.40098,"is_reserved":false,"is_disabled":false,"rental_uris":{"android":"levelo://app?vid=63d9251d-39ec-491a-9711-f35db2db18ed","ios":"levelo://app?vid=63d9251d-39ec-491a-9711-f35db2db18ed"},"vehicle_type_id":"4","last_reported":1730135315,"current_range_meters":26000,"station_id":"ce4bh112rcd13ifvqda0","pricing_plan_id":"cebpf4jnsgd1na2vs0mg"},{"bike_id":"18d34d04-bf28-4362-be0b-0f244fc55c1a","system_id":"levelo_inurba_marseille","lat":43.30142,"lon":5.37419,"is_reserved":false,"is_disabled":false,"rental_uris":{"android":"levelo://app?vid=18d34d04-bf28-4362-be0b-0f244fc55c1a","ios":"levelo://app?vid=18d34d04-bf28-4362-be0b-0f244fc55c1a"},"vehicle_type_id":"4","last_reported":1730135315,"current_range_meters":38800,"station_id":"ce4bgs92rcd13ifvqcc0","pricing_plan_id":"cebpf4jnsgd1na2vs0mg"},{"bike_id":"e78f9533-50b1-4a88-9932-25a925dc0bba","system_id":"levelo_inurba_marseille","lat":43.28475,"lon":5.38414,"is_reserved":false,"is_disabled":false,"rental_uris":{"android":"levelo://app?vid=e78f9533-50b1-4a88-9932-25a925dc0bba","ios":"levelo://app?vid=e78f9533-50b1-4a88-9932-25a925dc0bba"},"vehicle_type_id":"4","last_reported":1730135315,"current_range_meters":27600,"station_id":"ce4bh512rcd13ifvqe3g","pricing_plan_id":"cebpf4jnsgd1na2vs0mg"},{"bike_id":"6e783ffb-aa06-4cb6-b553-ba0a0bb7ef39","system_id":"levelo_inurba_marseille","lat":43.29554,"lon":5.42289,"is_reserved":false,"is_disabled":false,"rental_uris":{"android":"levelo://app?vid=6e783ffb-aa06-4cb6-b553-ba0a0bb7ef39","ios":"levelo://app?vid=6e783ffb-aa06-4cb6-b553-ba0a0bb7ef39"},"vehicle_type_id":"4","last_reported":1730135315,"current_range_meters":14000,"station_id":"ce4bhph2rcd13ifvqhdg","pricing_plan_id":"cebpf4jnsgd1na2vs0mg"},{"bike_id":"005fc5bb-4d1a-4063-a130-2f6064fe2e5b","system_id":"levelo_inurba_marseille","lat":43.295349,"lon":5.385497,"is_reserved":false,"is_disabled":false,"rental_uris":{"android":"levelo://app?vid=005fc5bb-4d1a-4063-a130-2f6064fe2e5b","ios":"levelo://app?vid=005fc5bb-4d1a-4063-a130-2f6064fe2e5b"},"vehicle_type_id":"4","last_reported":1730135315,"current_range_meters":17600,"station_id":"ce4bgj92rcd13ifvqbd0","pricing_plan_id":"cebpf4jnsgd1na2vs0mg"},{"bike_id":"8d191566-d8a6-44ba-bebe-2a9d6ff01fde","system_id":"levelo_inurba_marseille","lat":43.27239,"lon":5.387,"is_reserved":false,"is_disabled":false,"rental_uris":{"android":"levelo://app?vid=8d191566-d8a6-44ba-bebe-2a9d6ff01fde","ios":"levelo://app?vid=8d191566-d8a6-44ba-bebe-2a9d6ff01fde"},"vehicle_type_id":"4","last_reported":1730135315,"current_range_meters":27600,"station_id":"","pricing_plan_id":"cebpf4jnsgd1na2vs0mg"},{"bike_id":"ed02e71b-481a-4ba7-965c-b783e9210c1b","system_id":"levelo_inurba_marseille","lat":43.25002,"lon":5.38926,"is_reserved":false,"is_disabled":false,"rental_uris":{"android":"levelo://app?vid=ed02e71b-481a-4ba7-965c-b783e9210c1b","ios":"levelo://app?vid=ed02e71b-481a-4ba7-965c-b783e9210c1b"},"vehicle_type_id":"4","last_reported":1730135315,"current_range_meters":32000,"station_id":"ce4bhgp2rcd13ifvqfd0","pricing_plan_id":"cebpf4jnsgd1na2vs0mg"},{"bike_id":"57f116d6-2ee5-45cf-9ead-4e7daae35aa0","system_id":"levelo_inurba_marseille","lat":43.2926,"lon":5.38435,"is_reserved":false,"is_disabled":false,"rental_uris":{"android":"levelo://app?vid=57f116d6-2ee5-45cf-9ead-4e7daae35aa0","ios":"levelo://app?vid=57f116d6-2ee5-45cf-9ead-4e7daae35aa0"},"vehicle_type_id":"4","last_reported":1730135315,"current_range_meters":27200,"station_id":"ce4bh692rcd13ifvqea0","pricing_plan_id":"cebpf4jnsgd1na2vs0mg"},{"bike_id":"e7ab6fe9-6290-4ceb-bfa3-3e872b6181b3","system_id":"levelo_inurba_marseille","lat":43.29199,"lon":5.3581,"is_reserved":false,"is_disabled":false,"rental_uris":{"android":"levelo://app?vid=e7ab6fe9-6290-4ceb-bfa3-3e872b6181b3","ios":"levelo://app?vid=e7ab6fe9-6290-4ceb-bfa3-3e872b6181b3"},"vehicle_type_id":"4","last_reported":1730135315,"current_range_meters":4000,"station_id":"ce4bhb12rcd13ifvqel0","pricing_plan_id":"cebpf4jnsgd1na2vs0mg"},{"bike_id":"bac99cbb-2319-4642-9f17-4a58abaf7486","system_id":"levelo_inurba_marseille","lat":43.30725,"lon":5.3817,"is_reserved":false,"is_disabled":false,"rental_uris":{"android":"levelo://app?vid=bac99cbb-2319-4642-9f17-4a58abaf7486","ios":"levelo://app?vid=bac99cbb-2319-4642-9f17-4a58abaf7486"},"vehicle_type_id":"4","last_reported":1730135315,"current_range_meters":35600,"station_id":"","pricing_plan_id":"cebpf4jnsgd1na2vs0mg"},{"bike_id":"d1dacee6-8f47-4ca5-823b-a2ea6c3413e8","system_id":"levelo_inurba_marseille","lat":43.23195,"lon":5.35559,"is_reserved":false,"is_disabled":false,"rental_uris":{"android":"levelo://app?vid=d1dacee6-8f47-4ca5-823b-a2ea6c3413e8","ios":"levelo://app?vid=d1dacee6-8f47-4ca5-823b-a2ea6c3413e8"},"vehicle_type_id":"4","last_reported":1730135315,"current_range_meters":40000,"station_id":"ce4bhu92rcd13ifvqi70","pricing_plan_id":"cebpf4jnsgd1na2vs0mg"},{"bike_id":"7a608df9-d38c-4539-9618-def54653a395","system_id":"levelo_inurba_marseille","lat":43.29789,"lon":5.3712,"is_reserved":false,"is_disabled":false,"rental_uris":{"android":"levelo://app?vid=7a608df9-d38c-4539-9618-def54653a395","ios":"levelo://app?vid=7a608df9-d38c-4539-9618-def54653a395"},"vehicle_type_id":"4","last_reported":1730135315,"current_range_meters":34800,"station_id":"ce4bgop2rcd13ifvqc1g","pricing_plan_id":"cebpf4jnsgd1na2vs0mg"},{"bike_id":"0569f6fd-b453-45b0-8ea9-3b29fd83e529","system_id":"levelo_inurba_marseille","lat":43.28704,"lon":5.37401,"is_reserved":false,"is_disabled":false,"rental_uris":{"android":"levelo://app?vid=0569f6fd-b453-45b0-8ea9-3b29fd83e529","ios":"levelo://app?vid=0569f6fd-b453-45b0-8ea9-3b29fd83e529"},"vehicle_type_id":"4","last_reported":1730135315,"current_range_meters":10800,"station_id":"ce4bh3p2rcd13ifvqdq0","pricing_plan_id":"cebpf4jnsgd1na2vs0mg"},{"bike_id":"79157a7c-4047-47b2-81d5-b35e21c64f8f","system_id":"levelo_inurba_marseille","lat":43.26954,"lon":5.38634,"is_reserved":false,"is_disabled":false,"rental_uris":{"android":"levelo://app?vid=79157a7c-4047-47b2-81d5-b35e21c64f8f","ios":"levelo://app?vid=79157a7c-4047-47b2-81d5-b35e21c64f8f"},"vehicle_type_id":"4","last_reported":1730135315,"current_range_meters":12800,"station_id":"ce4bhh92rcd13ifvqfh0","pricing_plan_id":"cebpf4jnsgd1na2vs0mg"},{"bike_id":"3970a878-6966-4650-bb23-3181fd27e911","system_id":"levelo_inurba_marseille","lat":43.28004,"lon":5.40014,"is_reserved":false,"is_disabled":false,"rental_uris":{"android":"levelo://app?vid=3970a878-6966-4650-bb23-3181fd27e911","ios":"levelo://app?vid=3970a878-6966-4650-bb23-3181fd27e911"},"vehicle_type_id":"4","last_reported":1730135315,"current_range_meters":10000,"station_id":"ce4bho92rcd13ifvqh4g","pricing_plan_id":"cebpf4jnsgd1na2vs0mg"},{"bike_id":"59b2dd1b-b660-42a3-a43d-8e6aed7f2663","system_id":"levelo_inurba_marseille","lat":43.29252,"lon":5.38451,"is_reserved":false,"is_disabled":false,"rental_uris":{"android":"levelo://app?vid=59b2dd1b-b660-42a3-a43d-8e6aed7f2663","ios":"levelo://app?vid=59b2dd1b-b660-42a3-a43d-8e6aed7f2663"},"vehicle_type_id":"4","last_reported":1730135315,"current_range_meters":8800,"station_id":"ce4bh692rcd13ifvqea0","pricing_plan_id":"cebpf4jnsgd1na2vs0mg"},{"bike_id":"74b695b7-4069-4305-9181-144f07f4281e","system_id":"levelo_inurba_marseille","lat":43.29365,"lon":5.37844,"is_reserved":false,"is_disabled":false,"rental_uris":{"android":"levelo://app?vid=74b695b7-4069-4305-9181-144f07f4281e","ios":"levelo://app?vid=74b695b7-4069-4305-9181-144f07f4281e"},"vehicle_type_id":"4","last_reported":1730135315,"current_range_meters":8800,"station_id":"ce4bgjh2rcd13ifvqbf0","pricing_plan_id":"cebpf4jnsgd1na2vs0mg"},{"bike_id":"415026fd-6a55-4783-b56a-52c3a88a3f3e","system_id":"levelo_inurba_marseille","lat":43.260045,"lon":5.398168,"is_reserved":false,"is_disabled":false,"rental_uris":{"android":"levelo://app?vid=415026fd-6a55-4783-b56a-52c3a88a3f3e","ios":"levelo://app?vid=415026fd-6a55-4783-b56a-52c3a88a3f3e"},"vehicle_type_id":"4","last_reported":1730135315,"current_range_meters":22000,"station_id":"","pricing_plan_id":"cebpf4jnsgd1na2vs0mg"},{"bike_id":"edee228c-76f1-4f9d-b4f7-5773b8a0b850","system_id":"levelo_inurba_marseille","lat":43.23193,"lon":5.35552,"is_reserved":false,"is_disabled":false,"rental_uris":{"android":"levelo://app?vid=edee228c-76f1-4f9d-b4f7-5773b8a0b850","ios":"levelo://app?vid=edee228c-76f1-4f9d-b4f7-5773b8a0b850"},"vehicle_type_id":"4","last_reported":1730135315,"current_range_meters":24400,"station_id":"ce4bhu92rcd13ifvqi70","pricing_plan_id":"cebpf4jnsgd1na2vs0mg"},{"bike_id":"98278502-865c-48fc-8d7e-04639a0a4ee4","system_id":"levelo_inurba_marseille","lat":43.2871,"lon":5.37941,"is_reserved":false,"is_disabled":false,"rental_uris":{"android":"levelo://app?vid=98278502-865c-48fc-8d7e-04639a0a4ee4","ios":"levelo://app?vid=98278502-865c-48fc-8d7e-04639a0a4ee4"},"vehicle_type_id":"4","last_reported":1730135315,"current_range_meters":27600,"station_id":"ce4bh9p2rcd13ifvqec0","pricing_plan_id":"cebpf4jnsgd1na2vs0mg"},{"bike_id":"423328f7-5801-4056-9f3a-7511f2a2776a","system_id":"levelo_inurba_marseille","lat":43.23967,"lon":5.36636,"is_reserved":false,"is_disabled":false,"rental_uris":{"android":"levelo://app?vid=423328f7-5801-4056-9f3a-7511f2a2776a","ios":"levelo://app?vid=423328f7-5801-4056-9f3a-7511f2a2776a"},"vehicle_type_id":"4","last_reported":1730135315,"current_range_meters":20400,"station_id":"ce4bhi12rcd13ifvqfp0","pricing_plan_id":"cebpf4jnsgd1na2vs0mg"},{"bike_id":"5a19b122-9265-45be-a5a5-7099c069b83c","system_id":"levelo_inurba_marseille","lat":43.30543,"lon":5.36705,"is_reserved":false,"is_disabled":false,"rental_uris":{"android":"levelo://app?vid=5a19b122-9265-45be-a5a5-7099c069b83c","ios":"levelo://app?vid=5a19b122-9265-45be-a5a5-7099c069b83c"},"vehicle_type_id":"4","last_reported":1730135315,"current_range_meters":11200,"station_id":"ce4bgrp2rcd13ifvqc9g","pricing_plan_id":"cebpf4jnsgd1na2vs0mg"},{"bike_id":"2f921f60-1890-404a-898c-6dae28d2ff64","system_id":"levelo_inurba_marseille","lat":43.32108,"lon":5.36779,"is_reserved":false,"is_disabled":false,"rental_uris":{"android":"levelo://app?vid=2f921f60-1890-404a-898c-6dae28d2ff64","ios":"levelo://app?vid=2f921f60-1890-404a-898c-6dae28d2ff64"},"vehicle_type_id":"4","last_reported":1730135315,"current_range_meters":39200,"station_id":"ce4bhrh2rcd13ifvqhug","pricing_plan_id":"cebpf4jnsgd1na2vs0mg"},{"bike_id":"79226d2a-7d7c-4232-b251-c5a27e6cacb4","system_id":"levelo_inurba_marseille","lat":43.33029,"lon":5.3904,"is_reserved":false,"is_disabled":false,"rental_uris":{"android":"levelo://app?vid=79226d2a-7d7c-4232-b251-c5a27e6cacb4","ios":"levelo://app?vid=79226d2a-7d7c-4232-b251-c5a27e6cacb4"},"vehicle_type_id":"4","last_reported":1730135315,"current_range_meters":35600,"station_id":"ce4bhr92rcd13ifvqhrg","pricing_plan_id":"cebpf4jnsgd1na2vs0mg"},{"bike_id":"132efab4-fbf1-4905-8edd-cc5971db29ad","system_id":"levelo_inurba_marseille","lat":43.30441,"lon":5.38907,"is_reserved":false,"is_disabled":false,"rental_uris":{"android":"levelo://app?vid=132efab4-fbf1-4905-8edd-cc5971db29ad","ios":"levelo://app?vid=132efab4-fbf1-4905-8edd-cc5971db29ad"},"vehicle_type_id":"4","last_reported":1730135315,"current_range_meters":38000,"station_id":"ce4bgk12rcd13ifvqbi0","pricing_plan_id":"cebpf4jnsgd1na2vs0mg"},{"bike_id":"1efd71b8-820f-4a6f-a7a6-dab384b858c8","system_id":"levelo_inurba_marseille","lat":43.314316,"lon":5.373408,"is_reserved":false,"is_disabled":false,"rental_uris":{"android":"levelo://app?vid=1efd71b8-820f-4a6f-a7a6-dab384b858c8","ios":"levelo://app?vid=1efd71b8-820f-4a6f-a7a6-dab384b858c8"},"vehicle_type_id":"4","last_reported":1730135315,"current_range_meters":11600,"station_id":"ce4bgt12rcd13ifvqcd0","pricing_plan_id":"cebpf4jnsgd1na2vs0mg"},{"bike_id":"cd8988cf-34e0-4cd8-92c1-67d3cd8c964e","system_id":"levelo_inurba_marseille","lat":43.23961,"lon":5.36628,"is_reserved":false,"is_disabled":false,"rental_uris":{"android":"levelo://app?vid=cd8988cf-34e0-4cd8-92c1-67d3cd8c964e","ios":"levelo://app?vid=cd8988cf-34e0-4cd8-92c1-67d3cd8c964e"},"vehicle_type_id":"4","last_reported":1730135315,"current_range_meters":9600,"station_id":"ce4bhi12rcd13ifvqfp0","pricing_plan_id":"cebpf4jnsgd1na2vs0mg"},{"bike_id":"58750843-dc43-4f10-8f78-8975e20a15ef","system_id":"levelo_inurba_marseille","lat":43.27175,"lon":5.40996,"is_reserved":false,"is_disabled":false,"rental_uris":{"android":"levelo://app?vid=58750843-dc43-4f10-8f78-8975e20a15ef","ios":"levelo://app?vid=58750843-dc43-4f10-8f78-8975e20a15ef"},"vehicle_type_id":"4","last_reported":1730135315,"current_range_meters":4000,"station_id":"ce4bhl12rcd13ifvqgf0","pricing_plan_id":"cebpf4jnsgd1na2vs0mg"},{"bike_id":"829b23d3-e634-4969-80ac-99f26bc6d5d6","system_id":"levelo_inurba_marseille","lat":43.29433,"lon":5.39745,"is_reserved":false,"is_disabled":false,"rental_uris":{"android":"levelo://app?vid=829b23d3-e634-4969-80ac-99f26bc6d5d6","ios":"levelo://app?vid=829b23d3-e634-4969-80ac-99f26bc6d5d6"},"vehicle_type_id":"4","last_reported":1730135315,"current_range_meters":7200,"station_id":"ce4bh3h2rcd13ifvqdo0","pricing_plan_id":"cebpf4jnsgd1na2vs0mg"},{"bike_id":"46db0033-45da-49c1-8659-0b4eccc89b83","system_id":"levelo_inurba_marseille","lat":43.26559,"lon":5.39005,"is_reserved":false,"is_disabled":false,"rental_uris":{"android":"levelo://app?vid=46db0033-45da-49c1-8659-0b4eccc89b83","ios":"levelo://app?vid=46db0033-45da-49c1-8659-0b4eccc89b83"},"vehicle_type_id":"4","last_reported":1730135315,"current_range_meters":2000,"station_id":"ce4bhe12rcd13ifvqf30","pricing_plan_id":"cebpf4jnsgd1na2vs0mg"},{"bike_id":"1edc1116-bd87-4e9e-ac88-0101d2240c45","system_id":"levelo_inurba_marseille","lat":43.28038,"lon":5.36942,"is_reserved":false,"is_disabled":false,"rental_uris":{"android":"levelo://app?vid=1edc1116-bd87-4e9e-ac88-0101d2240c45","ios":"levelo://app?vid=1edc1116-bd87-4e9e-ac88-0101d2240c45"},"vehicle_type_id":"4","last_reported":1730135315,"current_range_meters":7200,"station_id":"ce4bha12rcd13ifvqef0","pricing_plan_id":"cebpf4jnsgd1na2vs0mg"},{"bike_id":"fe0f4ad9-8221-48ed-be5d-c64547a2f47a","system_id":"levelo_inurba_marseille","lat":43.286268,"lon":5.383482,"is_reserved":false,"is_disabled":false,"rental_uris":{"android":"levelo://app?vid=fe0f4ad9-8221-48ed-be5d-c64547a2f47a","ios":"levelo://app?vid=fe0f4ad9-8221-48ed-be5d-c64547a2f47a"},"vehicle_type_id":"4","last_reported":1730135315,"current_range_meters":20800,"station_id":"ce4bh4p2rcd13ifvqe1g","pricing_plan_id":"cebpf4jnsgd1na2vs0mg"},{"bike_id":"70f0ea20-ce9c-4a7b-8de3-8b5841b5c5d7","system_id":"levelo_inurba_marseille","lat":43.27911,"lon":5.38005,"is_reserved":false,"is_disabled":false,"rental_uris":{"android":"levelo://app?vid=70f0ea20-ce9c-4a7b-8de3-8b5841b5c5d7","ios":"levelo://app?vid=70f0ea20-ce9c-4a7b-8de3-8b5841b5c5d7"},"vehicle_type_id":"4","last_reported":1730135315,"current_range_meters":28800,"station_id":"ce4bhf92rcd13ifvqf50","pricing_plan_id":"cebpf4jnsgd1na2vs0mg"},{"bike_id":"3d83fc21-2559-42a9-94d2-9a2fc8d36011","system_id":"levelo_inurba_marseille","lat":43.29527,"lon":5.39045,"is_reserved":false,"is_disabled":false,"rental_uris":{"android":"levelo://app?vid=3d83fc21-2559-42a9-94d2-9a2fc8d36011","ios":"levelo://app?vid=3d83fc21-2559-42a9-94d2-9a2fc8d36011"},"vehicle_type_id":"4","last_reported":1730135315,"current_range_meters":9600,"station_id":"ce4bh3p2rcd13ifvqdp0","pricing_plan_id":"cebpf4jnsgd1na2vs0mg"},{"bike_id":"bb52ce02-5188-4b37-bac3-49191a33febb","system_id":"levelo_inurba_marseille","lat":43.28667,"lon":5.36356,"is_reserved":false,"is_disabled":false,"rental_uris":{"android":"levelo://app?vid=bb52ce02-5188-4b37-bac3-49191a33febb","ios":"levelo://app?vid=bb52ce02-5188-4b37-bac3-49191a33febb"},"vehicle_type_id":"4","last_reported":1730135315,"current_range_meters":28800,"station_id":"ce4bhah2rcd13ifvqej0","pricing_plan_id":"cebpf4jnsgd1na2vs0mg"},{"bike_id":"929372cb-e18b-474f-a9a9-1e11849a86c9","system_id":"levelo_inurba_marseille","lat":43.29551,"lon":5.42291,"is_reserved":false,"is_disabled":false,"rental_uris":{"android":"levelo://app?vid=929372cb-e18b-474f-a9a9-1e11849a86c9","ios":"levelo://app?vid=929372cb-e18b-474f-a9a9-1e11849a86c9"},"vehicle_type_id":"4","last_reported":1730135315,"current_range_meters":40000,"station_id":"ce4bhph2rcd13ifvqhdg","pricing_plan_id":"cebpf4jnsgd1na2vs0mg"},{"bike_id":"6050114c-df75-4619-a1e3-36e0c93adfa2","system_id":"levelo_inurba_marseille","lat":43.24663,"lon":5.38167,"is_reserved":false,"is_disabled":false,"rental_uris":{"android":"levelo://app?vid=6050114c-df75-4619-a1e3-36e0c93adfa2","ios":"levelo://app?vid=6050114c-df75-4619-a1e3-36e0c93adfa2"},"vehicle_type_id":"4","last_reported":1730135315,"current_range_meters":22400,"station_id":"ce4bhih2rcd13ifvqfr0","pricing_plan_id":"cebpf4jnsgd1na2vs0mg"},{"bike_id":"e113f747-4daa-44f7-a218-9e030daa2565","system_id":"levelo_inurba_marseille","lat":43.32105,"lon":5.36779,"is_reserved":false,"is_disabled":false,"rental_uris":{"android":"levelo://app?vid=e113f747-4daa-44f7-a218-9e030daa2565","ios":"levelo://app?vid=e113f747-4daa-44f7-a218-9e030daa2565"},"vehicle_type_id":"4","last_reported":1730135315,"current_range_meters":20000,"station_id":"ce4bhrh2rcd13ifvqhug","pricing_plan_id":"cebpf4jnsgd1na2vs0mg"},{"bike_id":"2bead203-6266-4d3d-9807-fb9f17b77f2b","system_id":"levelo_inurba_marseille","lat":43.29787,"lon":5.371,"is_reserved":false,"is_disabled":false,"rental_uris":{"android":"levelo://app?vid=2bead203-6266-4d3d-9807-fb9f17b77f2b","ios":"levelo://app?vid=2bead203-6266-4d3d-9807-fb9f17b77f2b"},"vehicle_type_id":"4","last_reported":1730135315,"current_range_meters":24400,"station_id":"ce4bgop2rcd13ifvqc1g","pricing_plan_id":"cebpf4jnsgd1na2vs0mg"},{"bike_id":"c83bf92a-895e-4031-90cc-0a4806604b3f","system_id":"levelo_inurba_marseille","lat":43.23054,"lon":5.35491,"is_reserved":false,"is_disabled":false,"rental_uris":{"android":"levelo://app?vid=c83bf92a-895e-4031-90cc-0a4806604b3f","ios":"levelo://app?vid=c83bf92a-895e-4031-90cc-0a4806604b3f"},"vehicle_type_id":"4","last_reported":1730135315,"current_range_meters":36400,"station_id":"cpo3342slgdg3j2ifvpg","pricing_plan_id":"cebpf4jnsgd1na2vs0mg"},{"bike_id":"5bc2dd6b-a4f5-4725-9c5d-8b32b96618a4","system_id":"levelo_inurba_marseille","lat":43.29866,"lon":5.38304,"is_reserved":false,"is_disabled":false,"rental_uris":{"android":"levelo://app?vid=5bc2dd6b-a4f5-4725-9c5d-8b32b96618a4","ios":"levelo://app?vid=5bc2dd6b-a4f5-4725-9c5d-8b32b96618a4"},"vehicle_type_id":"4","last_reported":1730135315,"current_range_meters":28400,"station_id":"ce4bh192rcd13ifvqdb0","pricing_plan_id":"cebpf4jnsgd1na2vs0mg"},{"bike_id":"9fd56fad-5f3d-42b4-b491-7b57b76bc0cf","system_id":"levelo_inurba_marseille","lat":43.27815,"lon":5.40714,"is_reserved":false,"is_disabled":false,"rental_uris":{"android":"levelo://app?vid=9fd56fad-5f3d-42b4-b491-7b57b76bc0cf","ios":"levelo://app?vid=9fd56fad-5f3d-42b4-b491-7b57b76bc0cf"},"vehicle_type_id":"4","last_reported":1730135315,"current_range_meters":16400,"station_id":"ce4bhnh2rcd13ifvqgtg","pricing_plan_id":"cebpf4jnsgd1na2vs0mg"},{"bike_id":"4bf7c62c-8690-436d-a866-64537b5941f4","system_id":"levelo_inurba_marseille","lat":43.312469,"lon":5.37992,"is_reserved":false,"is_disabled":false,"rental_uris":{"android":"levelo://app?vid=4bf7c62c-8690-436d-a866-64537b5941f4","ios":"levelo://app?vid=4bf7c62c-8690-436d-a866-64537b5941f4"},"vehicle_type_id":"4","last_reported":1730135315,"current_range_meters":33200,"station_id":"ce4bgih2rcd13ifvqba0","pricing_plan_id":"cebpf4jnsgd1na2vs0mg"},{"bike_id":"5570b2e7-186c-473b-9a9f-bd6029394b90","system_id":"levelo_inurba_marseille","lat":43.28845,"lon":5.39299,"is_reserved":false,"is_disabled":false,"rental_uris":{"android":"levelo://app?vid=5570b2e7-186c-473b-9a9f-bd6029394b90","ios":"levelo://app?vid=5570b2e7-186c-473b-9a9f-bd6029394b90"},"vehicle_type_id":"4","last_reported":1730135315,"current_range_meters":38000,"station_id":"ce4bh2p2rcd13ifvqdi0","pricing_plan_id":"cebpf4jnsgd1na2vs0mg"},{"bike_id":"e5b66e44-e028-44e9-8383-d783080c91ef","system_id":"levelo_inurba_marseille","lat":43.30189,"lon":5.36634,"is_reserved":false,"is_disabled":false,"rental_uris":{"android":"levelo://app?vid=e5b66e44-e028-44e9-8383-d783080c91ef","ios":"levelo://app?vid=e5b66e44-e028-44e9-8383-d783080c91ef"},"vehicle_type_id":"4","last_reported":1730135315,"current_range_meters":12800,"station_id":"ce4bgrh2rcd13ifvqc8g","pricing_plan_id":"cebpf4jnsgd1na2vs0mg"},{"bike_id":"a7f1364d-466c-4498-9cf5-bc1241e694cc","system_id":"levelo_inurba_marseille","lat":43.28658,"lon":5.36347,"is_reserved":false,"is_disabled":false,"rental_uris":{"android":"levelo://app?vid=a7f1364d-466c-4498-9cf5-bc1241e694cc","ios":"levelo://app?vid=a7f1364d-466c-4498-9cf5-bc1241e694cc"},"vehicle_type_id":"4","last_reported":1730135315,"current_range_meters":8800,"station_id":"ce4bhah2rcd13ifvqej0","pricing_plan_id":"cebpf4jnsgd1na2vs0mg"},{"bike_id":"c1eefc00-3665-4e47-8891-8b1484916437","system_id":"levelo_inurba_marseille","lat":43.30786,"lon":5.40078,"is_reserved":false,"is_disabled":false,"rental_uris":{"android":"levelo://app?vid=c1eefc00-3665-4e47-8891-8b1484916437","ios":"levelo://app?vid=c1eefc00-3665-4e47-8891-8b1484916437"},"vehicle_type_id":"4","last_reported":1730135315,"current_range_meters":6000,"station_id":"ce4bgkh2rcd13ifvqbk0","pricing_plan_id":"cebpf4jnsgd1na2vs0mg"},{"bike_id":"229bddba-a016-4b98-96d8-402a3ed18730","system_id":"levelo_inurba_marseille","lat":43.30368,"lon":5.397971,"is_reserved":false,"is_disabled":false,"rental_uris":{"android":"levelo://app?vid=229bddba-a016-4b98-96d8-402a3ed18730","ios":"levelo://app?vid=229bddba-a016-4b98-96d8-402a3ed18730"},"vehicle_type_id":"4","last_reported":1730135315,"current_range_meters":3200,"station_id":"ce4bhq12rcd13ifvqhig","pricing_plan_id":"cebpf4jnsgd1na2vs0mg"},{"bike_id":"1dab08d7-1129-4229-94a5-1c039b533363","system_id":"levelo_inurba_marseille","lat":43.25123,"lon":5.40318,"is_reserved":false,"is_disabled":false,"rental_uris":{"android":"levelo://app?vid=1dab08d7-1129-4229-94a5-1c039b533363","ios":"levelo://app?vid=1dab08d7-1129-4229-94a5-1c039b533363"},"vehicle_type_id":"4","last_reported":1730135315,"current_range_meters":27600,"station_id":"ce4bhlh2rcd13ifvqgig","pricing_plan_id":"cebpf4jnsgd1na2vs0mg"},{"bike_id":"6949151c-49f6-4b77-8e0e-93f5b8b60ceb","system_id":"levelo_inurba_marseille","lat":43.30216,"lon":5.39472,"is_reserved":false,"is_disabled":false,"rental_uris":{"android":"levelo://app?vid=6949151c-49f6-4b77-8e0e-93f5b8b60ceb","ios":"levelo://app?vid=6949151c-49f6-4b77-8e0e-93f5b8b60ceb"},"vehicle_type_id":"4","last_reported":1730135315,"current_range_meters":11600,"station_id":"ce4bh0p2rcd13ifvqd70","pricing_plan_id":"cebpf4jnsgd1na2vs0mg"},{"bike_id":"939ef23a-8e9f-47e0-ba95-784e8e1c14b8","system_id":"levelo_inurba_marseille","lat":43.23065,"lon":5.35494,"is_reserved":false,"is_disabled":false,"rental_uris":{"android":"levelo://app?vid=939ef23a-8e9f-47e0-ba95-784e8e1c14b8","ios":"levelo://app?vid=939ef23a-8e9f-47e0-ba95-784e8e1c14b8"},"vehicle_type_id":"4","last_reported":1730135315,"current_range_meters":16000,"station_id":"cpo3342slgdg3j2ifvpg","pricing_plan_id":"cebpf4jnsgd1na2vs0mg"},{"bike_id":"3f6cdf1a-7218-40c5-921d-d878ebc2827c","system_id":"levelo_inurba_marseille","lat":43.27908,"lon":5.38004,"is_reserved":false,"is_disabled":false,"rental_uris":{"android":"levelo://app?vid=3f6cdf1a-7218-40c5-921d-d878ebc2827c","ios":"levelo://app?vid=3f6cdf1a-7218-40c5-921d-d878ebc2827c"},"vehicle_type_id":"4","last_reported":1730135315,"current_range_meters":4000,"station_id":"ce4bhf92rcd13ifvqf50","pricing_plan_id":"cebpf4jnsgd1na2vs0mg"},{"bike_id":"6c3f4716-4aed-40f0-a123-07d8e938565a","system_id":"levelo_inurba_marseille","lat":43.2986,"lon":5.37321,"is_reserved":false,"is_disabled":false,"rental_uris":{"android":"levelo://app?vid=6c3f4716-4aed-40f0-a123-07d8e938565a","ios":"levelo://app?vid=6c3f4716-4aed-40f0-a123-07d8e938565a"},"vehicle_type_id":"4","last_reported":1730135315,"current_range_meters":36400,"station_id":"ce4bgr92rcd13ifvqc7g","pricing_plan_id":"cebpf4jnsgd1na2vs0mg"},{"bike_id":"0767fba8-2acc-437e-85a2-d8e45257d9b6","system_id":"levelo_inurba_marseille","lat":43.31333,"lon":5.39687,"is_reserved":false,"is_disabled":false,"rental_uris":{"android":"levelo://app?vid=0767fba8-2acc-437e-85a2-d8e45257d9b6","ios":"levelo://app?vid=0767fba8-2acc-437e-85a2-d8e45257d9b6"},"vehicle_type_id":"4","last_reported":1730135315,"current_range_meters":10800,"station_id":"ce4bgvp2rcd13ifvqcu0","pricing_plan_id":"cebpf4jnsgd1na2vs0mg"},{"bike_id":"f7a50275-88a4-4be4-ac33-5cce1242cfaa","system_id":"levelo_inurba_marseille","lat":43.31657,"lon":5.37687,"is_reserved":false,"is_disabled":false,"rental_uris":{"android":"levelo://app?vid=f7a50275-88a4-4be4-ac33-5cce1242cfaa","ios":"levelo://app?vid=f7a50275-88a4-4be4-ac33-5cce1242cfaa"},"vehicle_type_id":"4","last_reported":1730135315,"current_range_meters":38400,"station_id":"","pricing_plan_id":"cebpf4jnsgd1na2vs0mg"},{"bike_id":"8e7a9a0a-abb3-45fa-bdcd-af26808d9903","system_id":"levelo_inurba_marseille","lat":43.29718,"lon":5.366,"is_reserved":false,"is_disabled":false,"rental_uris":{"android":"levelo://app?vid=8e7a9a0a-abb3-45fa-bdcd-af26808d9903","ios":"levelo://app?vid=8e7a9a0a-abb3-45fa-bdcd-af26808d9903"},"vehicle_type_id":"4","last_reported":1730135315,"current_range_meters":34800,"station_id":"ce4bgn12rcd13ifvqbt0","pricing_plan_id":"cebpf4jnsgd1na2vs0mg"},{"bike_id":"6627e12e-9cb1-4b91-ab1a-b51812344191","system_id":"levelo_inurba_marseille","lat":43.27073,"lon":5.42282,"is_reserved":false,"is_disabled":false,"rental_uris":{"android":"levelo://app?vid=6627e12e-9cb1-4b91-ab1a-b51812344191","ios":"levelo://app?vid=6627e12e-9cb1-4b91-ab1a-b51812344191"},"vehicle_type_id":"4","last_reported":1730135315,"current_range_meters":24000,"station_id":"ce4bhk92rcd13ifvqgb0","pricing_plan_id":"cebpf4jnsgd1na2vs0mg"},{"bike_id":"0bb36746-f35e-49ff-b996-e23712087638","system_id":"levelo_inurba_marseille","lat":43.29351,"lon":5.37855,"is_reserved":false,"is_disabled":false,"rental_uris":{"android":"levelo://app?vid=0bb36746-f35e-49ff-b996-e23712087638","ios":"levelo://app?vid=0bb36746-f35e-49ff-b996-e23712087638"},"vehicle_type_id":"4","last_reported":1730135315,"current_range_meters":4800,"station_id":"ce4bgjh2rcd13ifvqbf0","pricing_plan_id":"cebpf4jnsgd1na2vs0mg"},{"bike_id":"4a7d2e78-51b9-46d2-bf89-98a48709d13a","system_id":"levelo_inurba_marseille","lat":43.317169,"lon":5.423899,"is_reserved":false,"is_disabled":false,"rental_uris":{"android":"levelo://app?vid=4a7d2e78-51b9-46d2-bf89-98a48709d13a","ios":"levelo://app?vid=4a7d2e78-51b9-46d2-bf89-98a48709d13a"},"vehicle_type_id":"4","last_reported":1730135315,"current_range_meters":14000,"station_id":"ce4bhp92rcd13ifvqhbg","pricing_plan_id":"cebpf4jnsgd1na2vs0mg"},{"bike_id":"82c43ad3-9e3d-43ac-ace0-20c229b62050","system_id":"levelo_inurba_marseille","lat":43.26559,"lon":5.39007,"is_reserved":false,"is_disabled":false,"rental_uris":{"android":"levelo://app?vid=82c43ad3-9e3d-43ac-ace0-20c229b62050","ios":"levelo://app?vid=82c43ad3-9e3d-43ac-ace0-20c229b62050"},"vehicle_type_id":"4","last_reported":1730135315,"current_range_meters":4800,"station_id":"ce4bhe12rcd13ifvqf30","pricing_plan_id":"cebpf4jnsgd1na2vs0mg"},{"bike_id":"426c10fa-6ac3-46d5-b82d-ffe5493c7a76","system_id":"levelo_inurba_marseille","lat":43.23057,"lon":5.35487,"is_reserved":false,"is_disabled":false,"rental_uris":{"android":"levelo://app?vid=426c10fa-6ac3-46d5-b82d-ffe5493c7a76","ios":"levelo://app?vid=426c10fa-6ac3-46d5-b82d-ffe5493c7a76"},"vehicle_type_id":"4","last_reported":1730135315,"current_range_meters":7200,"station_id":"cpo3342slgdg3j2ifvpg","pricing_plan_id":"cebpf4jnsgd1na2vs0mg"},{"bike_id":"5be9522a-4668-41f9-864b-4e7e3e2698f2","system_id":"levelo_inurba_marseille","lat":43.2785,"lon":5.3921,"is_reserved":false,"is_disabled":false,"rental_uris":{"android":"levelo://app?vid=5be9522a-4668-41f9-864b-4e7e3e2698f2","ios":"levelo://app?vid=5be9522a-4668-41f9-864b-4e7e3e2698f2"},"vehicle_type_id":"4","last_reported":1730135315,"current_range_meters":16400,"station_id":"ce4bhjp2rcd13ifvqga0","pricing_plan_id":"cebpf4jnsgd1na2vs0mg"},{"bike_id":"81b7344e-7056-4ce2-97b5-5fc4d3afcffe","system_id":"levelo_inurba_marseille","lat":43.2926,"lon":5.38433,"is_reserved":false,"is_disabled":false,"rental_uris":{"android":"levelo://app?vid=81b7344e-7056-4ce2-97b5-5fc4d3afcffe","ios":"levelo://app?vid=81b7344e-7056-4ce2-97b5-5fc4d3afcffe"},"vehicle_type_id":"4","last_reported":1730135315,"current_range_meters":28400,"station_id":"ce4bh692rcd13ifvqea0","pricing_plan_id":"cebpf4jnsgd1na2vs0mg"},{"bike_id":"9befed88-9f8c-464c-b07b-093bd97066bb","system_id":"levelo_inurba_marseille","lat":43.29805,"lon":5.37136,"is_reserved":false,"is_disabled":false,"rental_uris":{"android":"levelo://app?vid=9befed88-9f8c-464c-b07b-093bd97066bb","ios":"levelo://app?vid=9befed88-9f8c-464c-b07b-093bd97066bb"},"vehicle_type_id":"4","last_reported":1730135315,"current_range_meters":14400,"station_id":"","pricing_plan_id":"cebpf4jnsgd1na2vs0mg"},{"bike_id":"f37e3b02-a49c-4c4e-b112-f9c8c24edf90","system_id":"levelo_inurba_marseille","lat":43.23463,"lon":5.35845,"is_reserved":false,"is_disabled":false,"rental_uris":{"android":"levelo://app?vid=f37e3b02-a49c-4c4e-b112-f9c8c24edf90","ios":"levelo://app?vid=f37e3b02-a49c-4c4e-b112-f9c8c24edf90"},"vehicle_type_id":"4","last_reported":1730135315,"current_range_meters":4800,"station_id":"ce4bhu92rcd13ifvqi70","pricing_plan_id":"cebpf4jnsgd1na2vs0mg"},{"bike_id":"70f67b33-0152-445a-bdc2-4d54b7af58f2","system_id":"levelo_inurba_marseille","lat":43.24659,"lon":5.38163,"is_reserved":false,"is_disabled":false,"rental_uris":{"android":"levelo://app?vid=70f67b33-0152-445a-bdc2-4d54b7af58f2","ios":"levelo://app?vid=70f67b33-0152-445a-bdc2-4d54b7af58f2"},"vehicle_type_id":"4","last_reported":1730135315,"current_range_meters":12400,"station_id":"ce4bhih2rcd13ifvqfr0","pricing_plan_id":"cebpf4jnsgd1na2vs0mg"},{"bike_id":"070901b4-1c41-4e92-825a-27b47adc1d99","system_id":"levelo_inurba_marseille","lat":43.29583,"lon":5.3751,"is_reserved":false,"is_disabled":false,"rental_uris":{"android":"levelo://app?vid=070901b4-1c41-4e92-825a-27b47adc1d99","ios":"levelo://app?vid=070901b4-1c41-4e92-825a-27b47adc1d99"},"vehicle_type_id":"4","last_reported":1730135315,"current_range_meters":24400,"station_id":"ce4bgh92rcd13ifvqb50","pricing_plan_id":"cebpf4jnsgd1na2vs0mg"},{"bike_id":"36c258b2-310f-4ff7-8342-92eaa5855b65","system_id":"levelo_inurba_marseille","lat":43.27945,"lon":5.41052,"is_reserved":false,"is_disabled":false,"rental_uris":{"android":"levelo://app?vid=36c258b2-310f-4ff7-8342-92eaa5855b65","ios":"levelo://app?vid=36c258b2-310f-4ff7-8342-92eaa5855b65"},"vehicle_type_id":"4","last_reported":1730135315,"current_range_meters":24800,"station_id":"ce4bhnp2rcd13ifvqh0g","pricing_plan_id":"cebpf4jnsgd1na2vs0mg"},{"bike_id":"5fdc3e1a-ad6b-4861-b809-17c931b02a50","system_id":"levelo_inurba_marseille","lat":43.29938,"lon":5.36547,"is_reserved":false,"is_disabled":false,"rental_uris":{"android":"levelo://app?vid=5fdc3e1a-ad6b-4861-b809-17c931b02a50","ios":"levelo://app?vid=5fdc3e1a-ad6b-4861-b809-17c931b02a50"},"vehicle_type_id":"4","last_reported":1730135315,"current_range_meters":29600,"station_id":"ce4bgm92rcd13ifvqbr0","pricing_plan_id":"cebpf4jnsgd1na2vs0mg"},{"bike_id":"66796b5d-fbe8-476a-97c5-c6cb52cbaaec","system_id":"levelo_inurba_marseille","lat":43.30898,"lon":5.37184,"is_reserved":false,"is_disabled":false,"rental_uris":{"android":"levelo://app?vid=66796b5d-fbe8-476a-97c5-c6cb52cbaaec","ios":"levelo://app?vid=66796b5d-fbe8-476a-97c5-c6cb52cbaaec"},"vehicle_type_id":"4","last_reported":1730135315,"current_range_meters":10000,"station_id":"ce4bguh2rcd13ifvqckg","pricing_plan_id":"cebpf4jnsgd1na2vs0mg"},{"bike_id":"def66fbe-9129-4b94-9aa6-f0a9941a832b","system_id":"levelo_inurba_marseille","lat":43.29182,"lon":5.36924,"is_reserved":false,"is_disabled":false,"rental_uris":{"android":"levelo://app?vid=def66fbe-9129-4b94-9aa6-f0a9941a832b","ios":"levelo://app?vid=def66fbe-9129-4b94-9aa6-f0a9941a832b"},"vehicle_type_id":"4","last_reported":1730135315,"current_range_meters":10800,"station_id":"","pricing_plan_id":"cebpf4jnsgd1na2vs0mg"},{"bike_id":"9627699b-9c8e-4321-ba2a-f15879ef2c66","system_id":"levelo_inurba_marseille","lat":43.28364,"lon":5.38637,"is_reserved":false,"is_disabled":false,"rental_uris":{"android":"levelo://app?vid=9627699b-9c8e-4321-ba2a-f15879ef2c66","ios":"levelo://app?vid=9627699b-9c8e-4321-ba2a-f15879ef2c66"},"vehicle_type_id":"4","last_reported":1730135315,"current_range_meters":37600,"station_id":"ce4bh492rcd13ifvqdvg","pricing_plan_id":"cebpf4jnsgd1na2vs0mg"},{"bike_id":"2dfcc3d9-7ae9-4266-9ed8-964d56cc65a3","system_id":"levelo_inurba_marseille","lat":43.28263,"lon":5.35064,"is_reserved":false,"is_disabled":false,"rental_uris":{"android":"levelo://app?vid=2dfcc3d9-7ae9-4266-9ed8-964d56cc65a3","ios":"levelo://app?vid=2dfcc3d9-7ae9-4266-9ed8-964d56cc65a3"},"vehicle_type_id":"4","last_reported":1730135315,"current_range_meters":6000,"station_id":"ce4bhbp2rcd13ifvqerg","pricing_plan_id":"cebpf4jnsgd1na2vs0mg"},{"bike_id":"8a6b9662-acef-412c-9e24-5eb7931251c4","system_id":"levelo_inurba_marseille","lat":43.29536,"lon":5.3854,"is_reserved":false,"is_disabled":false,"rental_uris":{"android":"levelo://app?vid=8a6b9662-acef-412c-9e24-5eb7931251c4","ios":"levelo://app?vid=8a6b9662-acef-412c-9e24-5eb7931251c4"},"vehicle_type_id":"4","last_reported":1730135315,"current_range_meters":38800,"station_id":"ce4bgih2rcd13ifvqba0","pricing_plan_id":"cebpf4jnsgd1na2vs0mg"},{"bike_id":"01e3b99a-cf18-49dc-8bb1-ccdbcf9cb08b","system_id":"levelo_inurba_marseille","lat":43.31173,"lon":5.38726,"is_reserved":false,"is_disabled":false,"rental_uris":{"android":"levelo://app?vid=01e3b99a-cf18-49dc-8bb1-ccdbcf9cb08b","ios":"levelo://app?vid=01e3b99a-cf18-49dc-8bb1-ccdbcf9cb08b"},"vehicle_type_id":"4","last_reported":1730135315,"current_range_meters":28400,"station_id":"ce4bgv12rcd13ifvqcp0","pricing_plan_id":"cebpf4jnsgd1na2vs0mg"},{"bike_id":"a08296db-b3f4-4d7c-b368-674ac3a21b1e","system_id":"levelo_inurba_marseille","lat":43.23058,"lon":5.35493,"is_reserved":false,"is_disabled":false,"rental_uris":{"android":"levelo://app?vid=a08296db-b3f4-4d7c-b368-674ac3a21b1e","ios":"levelo://app?vid=a08296db-b3f4-4d7c-b368-674ac3a21b1e"},"vehicle_type_id":"4","last_reported":1730135315,"current_range_meters":36400,"station_id":"cpo3342slgdg3j2ifvpg","pricing_plan_id":"cebpf4jnsgd1na2vs0mg"},{"bike_id":"a3bd0d34-0486-4fea-95e1-8f3c717690af","system_id":"levelo_inurba_marseille","lat":43.29195,"lon":5.39319,"is_reserved":false,"is_disabled":false,"rental_uris":{"android":"levelo://app?vid=a3bd0d34-0486-4fea-95e1-8f3c717690af","ios":"levelo://app?vid=a3bd0d34-0486-4fea-95e1-8f3c717690af"},"vehicle_type_id":"4","last_reported":1730135315,"current_range_meters":21600,"station_id":"ce4bh192rcd13ifvqdd0","pricing_plan_id":"cebpf4jnsgd1na2vs0mg"},{"bike_id":"3c5cae79-8220-4b0b-998f-073a32ba6425","system_id":"levelo_inurba_marseille","lat":43.29655,"lon":5.37824,"is_reserved":false,"is_disabled":false,"rental_uris":{"android":"levelo://app?vid=3c5cae79-8220-4b0b-998f-073a32ba6425","ios":"levelo://app?vid=3c5cae79-8220-4b0b-998f-073a32ba6425"},"vehicle_type_id":"4","last_reported":1730135315,"current_range_meters":15200,"station_id":"ce4bgkh2rcd13ifvqbl0","pricing_plan_id":"cebpf4jnsgd1na2vs0mg"},{"bike_id":"c39baa27-4fe6-4928-aadf-4143ea7660f0","system_id":"levelo_inurba_marseille","lat":43.27676,"lon":5.38892,"is_reserved":false,"is_disabled":false,"rental_uris":{"android":"levelo://app?vid=c39baa27-4fe6-4928-aadf-4143ea7660f0","ios":"levelo://app?vid=c39baa27-4fe6-4928-aadf-4143ea7660f0"},"vehicle_type_id":"4","last_reported":1730135315,"current_range_meters":3600,"station_id":"ce4bhi12rcd13ifvqfo0","pricing_plan_id":"cebpf4jnsgd1na2vs0mg"},{"bike_id":"950c72da-dcd5-4edb-8fe5-d541fb673ad3","system_id":"levelo_inurba_marseille","lat":43.30538,"lon":5.38427,"is_reserved":false,"is_disabled":false,"rental_uris":{"android":"levelo://app?vid=950c72da-dcd5-4edb-8fe5-d541fb673ad3","ios":"levelo://app?vid=950c72da-dcd5-4edb-8fe5-d541fb673ad3"},"vehicle_type_id":"4","last_reported":1730135315,"current_range_meters":30400,"station_id":"ce4bgg92rcd13ifvqb30","pricing_plan_id":"cebpf4jnsgd1na2vs0mg"},{"bike_id":"e9d21191-c6a6-4908-9641-483ac77be378","system_id":"levelo_inurba_marseille","lat":43.31707,"lon":5.37763,"is_reserved":false,"is_disabled":false,"rental_uris":{"android":"levelo://app?vid=e9d21191-c6a6-4908-9641-483ac77be378","ios":"levelo://app?vid=e9d21191-c6a6-4908-9641-483ac77be378"},"vehicle_type_id":"4","last_reported":1730135315,"current_range_meters":36400,"station_id":"ce4bgth2rcd13ifvqch0","pricing_plan_id":"cebpf4jnsgd1na2vs0mg"},{"bike_id":"7db6821c-3045-4198-9245-a9299893b4c5","system_id":"levelo_inurba_marseille","lat":43.27071,"lon":5.42297,"is_reserved":false,"is_disabled":false,"rental_uris":{"android":"levelo://app?vid=7db6821c-3045-4198-9245-a9299893b4c5","ios":"levelo://app?vid=7db6821c-3045-4198-9245-a9299893b4c5"},"vehicle_type_id":"4","last_reported":1730135315,"current_range_meters":16400,"station_id":"ce4bhk92rcd13ifvqgb0","pricing_plan_id":"cebpf4jnsgd1na2vs0mg"},{"bike_id":"11c156a2-f21f-467a-ae34-9709e3473358","system_id":"levelo_inurba_marseille","lat":43.292938,"lon":5.374606,"is_reserved":false,"is_disabled":false,"rental_uris":{"android":"levelo://app?vid=11c156a2-f21f-467a-ae34-9709e3473358","ios":"levelo://app?vid=11c156a2-f21f-467a-ae34-9709e3473358"},"vehicle_type_id":"4","last_reported":1730135315,"current_range_meters":24800,"station_id":"ce4bh012rcd13ifvqcv0","pricing_plan_id":"cebpf4jnsgd1na2vs0mg"},{"bike_id":"fa3480a9-f715-4a63-ad07-241f2e2aea6f","system_id":"levelo_inurba_marseille","lat":43.29204,"lon":5.35806,"is_reserved":false,"is_disabled":false,"rental_uris":{"android":"levelo://app?vid=fa3480a9-f715-4a63-ad07-241f2e2aea6f","ios":"levelo://app?vid=fa3480a9-f715-4a63-ad07-241f2e2aea6f"},"vehicle_type_id":"4","last_reported":1730135315,"current_range_meters":31200,"station_id":"ce4bhb12rcd13ifvqel0","pricing_plan_id":"cebpf4jnsgd1na2vs0mg"},{"bike_id":"4458f92e-37a3-4c20-91d0-6ab71ce29e08","system_id":"levelo_inurba_marseille","lat":43.29228,"lon":5.36057,"is_reserved":false,"is_disabled":false,"rental_uris":{"android":"levelo://app?vid=4458f92e-37a3-4c20-91d0-6ab71ce29e08","ios":"levelo://app?vid=4458f92e-37a3-4c20-91d0-6ab71ce29e08"},"vehicle_type_id":"4","last_reported":1730135315,"current_range_meters":9200,"station_id":"ce4bhbh2rcd13ifvqeqg","pricing_plan_id":"cebpf4jnsgd1na2vs0mg"},{"bike_id":"7c52bc60-99f3-4502-b5bf-de90773f1c9b","system_id":"levelo_inurba_marseille","lat":43.28004,"lon":5.40008,"is_reserved":false,"is_disabled":false,"rental_uris":{"android":"levelo://app?vid=7c52bc60-99f3-4502-b5bf-de90773f1c9b","ios":"levelo://app?vid=7c52bc60-99f3-4502-b5bf-de90773f1c9b"},"vehicle_type_id":"4","last_reported":1730135315,"current_range_meters":8800,"station_id":"ce4bho92rcd13ifvqh4g","pricing_plan_id":"cebpf4jnsgd1na2vs0mg"},{"bike_id":"efb90eb5-b74a-4229-93cc-8c45be093ff2","system_id":"levelo_inurba_marseille","lat":43.29591,"lon":5.38101,"is_reserved":false,"is_disabled":false,"rental_uris":{"android":"levelo://app?vid=efb90eb5-b74a-4229-93cc-8c45be093ff2","ios":"levelo://app?vid=efb90eb5-b74a-4229-93cc-8c45be093ff2"},"vehicle_type_id":"4","last_reported":1730135315,"current_range_meters":36800,"station_id":"ce4bgl12rcd13ifvqbo0","pricing_plan_id":"cebpf4jnsgd1na2vs0mg"},{"bike_id":"bbbcb956-b695-49cf-89ad-160e751f2d31","system_id":"levelo_inurba_marseille","lat":43.2953,"lon":5.38541,"is_reserved":false,"is_disabled":false,"rental_uris":{"android":"levelo://app?vid=bbbcb956-b695-49cf-89ad-160e751f2d31","ios":"levelo://app?vid=bbbcb956-b695-49cf-89ad-160e751f2d31"},"vehicle_type_id":"4","last_reported":1730135315,"current_range_meters":8400,"station_id":"ce4bgih2rcd13ifvqba0","pricing_plan_id":"cebpf4jnsgd1na2vs0mg"},{"bike_id":"fa44638b-7c7d-46bf-9c87-fa0754bbaf56","system_id":"levelo_inurba_marseille","lat":43.23961,"lon":5.36646,"is_reserved":false,"is_disabled":false,"rental_uris":{"android":"levelo://app?vid=fa44638b-7c7d-46bf-9c87-fa0754bbaf56","ios":"levelo://app?vid=fa44638b-7c7d-46bf-9c87-fa0754bbaf56"},"vehicle_type_id":"4","last_reported":1730135315,"current_range_meters":9600,"station_id":"ce4bhi12rcd13ifvqfp0","pricing_plan_id":"cebpf4jnsgd1na2vs0mg"},{"bike_id":"49f9b184-f32a-46f6-a601-d16e52df5b10","system_id":"levelo_inurba_marseille","lat":43.29201,"lon":5.39319,"is_reserved":false,"is_disabled":false,"rental_uris":{"android":"levelo://app?vid=49f9b184-f32a-46f6-a601-d16e52df5b10","ios":"levelo://app?vid=49f9b184-f32a-46f6-a601-d16e52df5b10"},"vehicle_type_id":"4","last_reported":1730135315,"current_range_meters":34000,"station_id":"ce4bh192rcd13ifvqdd0","pricing_plan_id":"cebpf4jnsgd1na2vs0mg"},{"bike_id":"395a1ccc-8207-4b04-981b-dc5325361332","system_id":"levelo_inurba_marseille","lat":43.3025,"lon":5.40062,"is_reserved":false,"is_disabled":false,"rental_uris":{"android":"levelo://app?vid=395a1ccc-8207-4b04-981b-dc5325361332","ios":"levelo://app?vid=395a1ccc-8207-4b04-981b-dc5325361332"},"vehicle_type_id":"4","last_reported":1730135315,"current_range_meters":38800,"station_id":"ce4bgvh2rcd13ifvqcs0","pricing_plan_id":"cebpf4jnsgd1na2vs0mg"},{"bike_id":"c8ee3b6d-6179-4aac-910e-6b7f5a3c5f2b","system_id":"levelo_inurba_marseille","lat":43.29424,"lon":5.38628,"is_reserved":false,"is_disabled":false,"rental_uris":{"android":"levelo://app?vid=c8ee3b6d-6179-4aac-910e-6b7f5a3c5f2b","ios":"levelo://app?vid=c8ee3b6d-6179-4aac-910e-6b7f5a3c5f2b"},"vehicle_type_id":"4","last_reported":1730135315,"current_range_meters":7200,"station_id":"ce4bh2h2rcd13ifvqdh0","pricing_plan_id":"cebpf4jnsgd1na2vs0mg"},{"bike_id":"5d820ce0-2d55-46e5-b74d-cc75a18e2e27","system_id":"levelo_inurba_marseille","lat":43.27012,"lon":5.3925,"is_reserved":false,"is_disabled":false,"rental_uris":{"android":"levelo://app?vid=5d820ce0-2d55-46e5-b74d-cc75a18e2e27","ios":"levelo://app?vid=5d820ce0-2d55-46e5-b74d-cc75a18e2e27"},"vehicle_type_id":"4","last_reported":1730135315,"current_range_meters":30800,"station_id":"ce4bgh92rcd13ifvqb40","pricing_plan_id":"cebpf4jnsgd1na2vs0mg"},{"bike_id":"e4936014-f3bd-4903-b7f5-c22cf655469a","system_id":"levelo_inurba_marseille","lat":43.28282,"lon":5.3506,"is_reserved":false,"is_disabled":false,"rental_uris":{"android":"levelo://app?vid=e4936014-f3bd-4903-b7f5-c22cf655469a","ios":"levelo://app?vid=e4936014-f3bd-4903-b7f5-c22cf655469a"},"vehicle_type_id":"4","last_reported":1730135315,"current_range_meters":18800,"station_id":"ce4bhbp2rcd13ifvqerg","pricing_plan_id":"cebpf4jnsgd1na2vs0mg"},{"bike_id":"1252584a-9d1b-4715-bf23-dae661196276","system_id":"levelo_inurba_marseille","lat":43.27916,"lon":5.38015,"is_reserved":false,"is_disabled":false,"rental_uris":{"android":"levelo://app?vid=1252584a-9d1b-4715-bf23-dae661196276","ios":"levelo://app?vid=1252584a-9d1b-4715-bf23-dae661196276"},"vehicle_type_id":"4","last_reported":1730135315,"current_range_meters":11200,"station_id":"ce4bhf92rcd13ifvqf50","pricing_plan_id":"cebpf4jnsgd1na2vs0mg"},{"bike_id":"db63f058-fdad-4057-bb90-e81b78c31449","system_id":"levelo_inurba_marseille","lat":43.2762,"lon":5.36116,"is_reserved":false,"is_disabled":false,"rental_uris":{"android":"levelo://app?vid=db63f058-fdad-4057-bb90-e81b78c31449","ios":"levelo://app?vid=db63f058-fdad-4057-bb90-e81b78c31449"},"vehicle_type_id":"4","last_reported":1730135315,"current_range_meters":40000,"station_id":"ce4bgj92rcd13ifvqbe0","pricing_plan_id":"cebpf4jnsgd1na2vs0mg"},{"bike_id":"7fda42aa-28d7-4fc7-858b-960ce986865c","system_id":"levelo_inurba_marseille","lat":43.23195,"lon":5.35556,"is_reserved":false,"is_disabled":false,"rental_uris":{"android":"levelo://app?vid=7fda42aa-28d7-4fc7-858b-960ce986865c","ios":"levelo://app?vid=7fda42aa-28d7-4fc7-858b-960ce986865c"},"vehicle_type_id":"4","last_reported":1730135315,"current_range_meters":22400,"station_id":"ce4bhu92rcd13ifvqi70","pricing_plan_id":"cebpf4jnsgd1na2vs0mg"},{"bike_id":"c7b1c621-05a5-4b34-a74c-c10b68c6ce6d","system_id":"levelo_inurba_marseille","lat":43.31365,"lon":5.38485,"is_reserved":false,"is_disabled":false,"rental_uris":{"android":"levelo://app?vid=c7b1c621-05a5-4b34-a74c-c10b68c6ce6d","ios":"levelo://app?vid=c7b1c621-05a5-4b34-a74c-c10b68c6ce6d"},"vehicle_type_id":"4","last_reported":1730135315,"current_range_meters":11200,"station_id":"ce4bgt92rcd13ifvqcf0","pricing_plan_id":"cebpf4jnsgd1na2vs0mg"},{"bike_id":"1231cc24-a626-4d9a-90f3-ee15a5569f9a","system_id":"levelo_inurba_marseille","lat":43.30194,"lon":5.36631,"is_reserved":false,"is_disabled":false,"rental_uris":{"android":"levelo://app?vid=1231cc24-a626-4d9a-90f3-ee15a5569f9a","ios":"levelo://app?vid=1231cc24-a626-4d9a-90f3-ee15a5569f9a"},"vehicle_type_id":"4","last_reported":1730135315,"current_range_meters":3600,"station_id":"ce4bgrh2rcd13ifvqc8g","pricing_plan_id":"cebpf4jnsgd1na2vs0mg"},{"bike_id":"083f0552-0550-47b8-9d53-46f6746eb28c","system_id":"levelo_inurba_marseille","lat":43.32481,"lon":5.36577,"is_reserved":false,"is_disabled":false,"rental_uris":{"android":"levelo://app?vid=083f0552-0550-47b8-9d53-46f6746eb28c","ios":"levelo://app?vid=083f0552-0550-47b8-9d53-46f6746eb28c"},"vehicle_type_id":"4","last_reported":1730135315,"current_range_meters":4800,"station_id":"ce4bhs12rcd13ifvqhvg","pricing_plan_id":"cebpf4jnsgd1na2vs0mg"},{"bike_id":"029bb20a-5386-4b97-882b-d8b6d836afa9","system_id":"levelo_inurba_marseille","lat":43.29297,"lon":5.37437,"is_reserved":false,"is_disabled":false,"rental_uris":{"android":"levelo://app?vid=029bb20a-5386-4b97-882b-d8b6d836afa9","ios":"levelo://app?vid=029bb20a-5386-4b97-882b-d8b6d836afa9"},"vehicle_type_id":"4","last_reported":1730135315,"current_range_meters":14800,"station_id":"ce4bgi12rcd13ifvqb70","pricing_plan_id":"cebpf4jnsgd1na2vs0mg"},{"bike_id":"910ff6cb-2905-4a8a-94c6-9be820041fb7","system_id":"levelo_inurba_marseille","lat":43.273819,"lon":5.36254,"is_reserved":false,"is_disabled":false,"rental_uris":{"android":"levelo://app?vid=910ff6cb-2905-4a8a-94c6-9be820041fb7","ios":"levelo://app?vid=910ff6cb-2905-4a8a-94c6-9be820041fb7"},"vehicle_type_id":"4","last_reported":1730135315,"current_range_meters":32800,"station_id":"ce4bhbh2rcd13ifvqeo0","pricing_plan_id":"cebpf4jnsgd1na2vs0mg"},{"bike_id":"93451290-5b63-4f51-ba89-12f09a692cb9","system_id":"levelo_inurba_marseille","lat":43.29512,"lon":5.39406,"is_reserved":false,"is_disabled":false,"rental_uris":{"android":"levelo://app?vid=93451290-5b63-4f51-ba89-12f09a692cb9","ios":"levelo://app?vid=93451290-5b63-4f51-ba89-12f09a692cb9"},"vehicle_type_id":"4","last_reported":1730135315,"current_range_meters":39200,"station_id":"ce4bh292rcd13ifvqdf0","pricing_plan_id":"cebpf4jnsgd1na2vs0mg"},{"bike_id":"9fcb6089-7406-43af-bee1-c142a90f597d","system_id":"levelo_inurba_marseille","lat":43.27499,"lon":5.42451,"is_reserved":false,"is_disabled":false,"rental_uris":{"android":"levelo://app?vid=9fcb6089-7406-43af-bee1-c142a90f597d","ios":"levelo://app?vid=9fcb6089-7406-43af-bee1-c142a90f597d"},"vehicle_type_id":"4","last_reported":1730135315,"current_range_meters":34000,"station_id":"ce4bhn92rcd13ifvqgrg","pricing_plan_id":"cebpf4jnsgd1na2vs0mg"},{"bike_id":"9a56084d-d7a6-4cae-87b9-2a4a82b50085","system_id":"levelo_inurba_marseille","lat":43.28849,"lon":5.39307,"is_reserved":false,"is_disabled":false,"rental_uris":{"android":"levelo://app?vid=9a56084d-d7a6-4cae-87b9-2a4a82b50085","ios":"levelo://app?vid=9a56084d-d7a6-4cae-87b9-2a4a82b50085"},"vehicle_type_id":"4","last_reported":1730135315,"current_range_meters":4800,"station_id":"ce4bh2p2rcd13ifvqdi0","pricing_plan_id":"cebpf4jnsgd1na2vs0mg"},{"bike_id":"0abc5436-8d25-4aab-a10d-f32f7ef0fdf8","system_id":"levelo_inurba_marseille","lat":43.29044,"lon":5.37564,"is_reserved":false,"is_disabled":false,"rental_uris":{"android":"levelo://app?vid=0abc5436-8d25-4aab-a10d-f32f7ef0fdf8","ios":"levelo://app?vid=0abc5436-8d25-4aab-a10d-f32f7ef0fdf8"},"vehicle_type_id":"4","last_reported":1730135315,"current_range_meters":3600,"station_id":"ce4bh692rcd13ifvqe90","pricing_plan_id":"cebpf4jnsgd1na2vs0mg"},{"bike_id":"cf5d445c-6077-4aa3-8eac-cdd716412c9e","system_id":"levelo_inurba_marseille","lat":43.30433,"lon":5.39751,"is_reserved":false,"is_disabled":false,"rental_uris":{"android":"levelo://app?vid=cf5d445c-6077-4aa3-8eac-cdd716412c9e","ios":"levelo://app?vid=cf5d445c-6077-4aa3-8eac-cdd716412c9e"},"vehicle_type_id":"4","last_reported":1730135315,"current_range_meters":8400,"station_id":"ce4bh092rcd13ifvqd20","pricing_plan_id":"cebpf4jnsgd1na2vs0mg"},{"bike_id":"1fcd3223-ff2b-47b7-8567-0be995b0330f","system_id":"levelo_inurba_marseille","lat":43.27502,"lon":5.42452,"is_reserved":false,"is_disabled":false,"rental_uris":{"android":"levelo://app?vid=1fcd3223-ff2b-47b7-8567-0be995b0330f","ios":"levelo://app?vid=1fcd3223-ff2b-47b7-8567-0be995b0330f"},"vehicle_type_id":"4","last_reported":1730135315,"current_range_meters":38400,"station_id":"ce4bhn92rcd13ifvqgrg","pricing_plan_id":"cebpf4jnsgd1na2vs0mg"},{"bike_id":"93cb6c24-0e50-486a-b94c-254b6d07f60f","system_id":"levelo_inurba_marseille","lat":43.29031,"lon":5.38641,"is_reserved":false,"is_disabled":false,"rental_uris":{"android":"levelo://app?vid=93cb6c24-0e50-486a-b94c-254b6d07f60f","ios":"levelo://app?vid=93cb6c24-0e50-486a-b94c-254b6d07f60f"},"vehicle_type_id":"4","last_reported":1730135315,"current_range_meters":11200,"station_id":"ce4bh4p2rcd13ifvqe0g","pricing_plan_id":"cebpf4jnsgd1na2vs0mg"},{"bike_id":"3262dfd7-4ef4-4e02-976d-67eb6ba29c8a","system_id":"levelo_inurba_marseille","lat":43.266283,"lon":5.373773,"is_reserved":false,"is_disabled":false,"rental_uris":{"android":"levelo://app?vid=3262dfd7-4ef4-4e02-976d-67eb6ba29c8a","ios":"levelo://app?vid=3262dfd7-4ef4-4e02-976d-67eb6ba29c8a"},"vehicle_type_id":"4","last_reported":1730135315,"current_range_meters":18000,"station_id":"","pricing_plan_id":"cebpf4jnsgd1na2vs0mg"},{"bike_id":"b1d682a3-b183-4990-9110-109ef59d9970","system_id":"levelo_inurba_marseille","lat":43.2988,"lon":5.3892,"is_reserved":false,"is_disabled":false,"rental_uris":{"android":"levelo://app?vid=b1d682a3-b183-4990-9110-109ef59d9970","ios":"levelo://app?vid=b1d682a3-b183-4990-9110-109ef59d9970"},"vehicle_type_id":"4","last_reported":1730135315,"current_range_meters":38800,"station_id":"ce4bh392rcd13ifvqdl0","pricing_plan_id":"cebpf4jnsgd1na2vs0mg"},{"bike_id":"63bd4323-cba6-4e18-8a87-ddff0c556db3","system_id":"levelo_inurba_marseille","lat":43.29099,"lon":5.38142,"is_reserved":false,"is_disabled":false,"rental_uris":{"android":"levelo://app?vid=63bd4323-cba6-4e18-8a87-ddff0c556db3","ios":"levelo://app?vid=63bd4323-cba6-4e18-8a87-ddff0c556db3"},"vehicle_type_id":"4","last_reported":1730135315,"current_range_meters":13600,"station_id":"ce4bh512rcd13ifvqe2g","pricing_plan_id":"cebpf4jnsgd1na2vs0mg"},{"bike_id":"24ccb7ab-fb16-4e4a-91ad-1041dd467722","system_id":"levelo_inurba_marseille","lat":43.293023,"lon":5.374741,"is_reserved":false,"is_disabled":false,"rental_uris":{"android":"levelo://app?vid=24ccb7ab-fb16-4e4a-91ad-1041dd467722","ios":"levelo://app?vid=24ccb7ab-fb16-4e4a-91ad-1041dd467722"},"vehicle_type_id":"4","last_reported":1730135315,"current_range_meters":4800,"station_id":"ce4bgi12rcd13ifvqb70","pricing_plan_id":"cebpf4jnsgd1na2vs0mg"},{"bike_id":"d7898ffa-d311-4eed-a25c-07b2ada6bebc","system_id":"levelo_inurba_marseille","lat":43.27814,"lon":5.40706,"is_reserved":false,"is_disabled":false,"rental_uris":{"android":"levelo://app?vid=d7898ffa-d311-4eed-a25c-07b2ada6bebc","ios":"levelo://app?vid=d7898ffa-d311-4eed-a25c-07b2ada6bebc"},"vehicle_type_id":"4","last_reported":1730135315,"current_range_meters":17200,"station_id":"ce4bhnh2rcd13ifvqgtg","pricing_plan_id":"cebpf4jnsgd1na2vs0mg"},{"bike_id":"9abd91d8-6eaa-43b7-88ec-4552bca9620b","system_id":"levelo_inurba_marseille","lat":43.32044,"lon":5.41565,"is_reserved":false,"is_disabled":false,"rental_uris":{"android":"levelo://app?vid=9abd91d8-6eaa-43b7-88ec-4552bca9620b","ios":"levelo://app?vid=9abd91d8-6eaa-43b7-88ec-4552bca9620b"},"vehicle_type_id":"4","last_reported":1730135315,"current_range_meters":39200,"station_id":"ce4bhq92rcd13ifvqhkg","pricing_plan_id":"cebpf4jnsgd1na2vs0mg"},{"bike_id":"8fac999c-77b0-4bab-95c9-b9a6a3bb48b2","system_id":"levelo_inurba_marseille","lat":43.31268,"lon":5.40172,"is_reserved":false,"is_disabled":false,"rental_uris":{"android":"levelo://app?vid=8fac999c-77b0-4bab-95c9-b9a6a3bb48b2","ios":"levelo://app?vid=8fac999c-77b0-4bab-95c9-b9a6a3bb48b2"},"vehicle_type_id":"4","last_reported":1730135315,"current_range_meters":32000,"station_id":"ce4bh092rcd13ifvqd30","pricing_plan_id":"cebpf4jnsgd1na2vs0mg"},{"bike_id":"4f21f473-d6ef-4678-b028-ed29a51ab020","system_id":"levelo_inurba_marseille","lat":43.31685,"lon":5.43553,"is_reserved":false,"is_disabled":false,"rental_uris":{"android":"levelo://app?vid=4f21f473-d6ef-4678-b028-ed29a51ab020","ios":"levelo://app?vid=4f21f473-d6ef-4678-b028-ed29a51ab020"},"vehicle_type_id":"4","last_reported":1730135315,"current_range_meters":28000,"station_id":"","pricing_plan_id":"cebpf4jnsgd1na2vs0mg"},{"bike_id":"7a87b9b4-e706-432a-abf1-208261e412ca","system_id":"levelo_inurba_marseille","lat":43.29409,"lon":5.38641,"is_reserved":false,"is_disabled":false,"rental_uris":{"android":"levelo://app?vid=7a87b9b4-e706-432a-abf1-208261e412ca","ios":"levelo://app?vid=7a87b9b4-e706-432a-abf1-208261e412ca"},"vehicle_type_id":"4","last_reported":1730135315,"current_range_meters":19600,"station_id":"ce4bh2h2rcd13ifvqdh0","pricing_plan_id":"cebpf4jnsgd1na2vs0mg"},{"bike_id":"8da3cc87-976b-4a22-a81d-c9d08ca5401c","system_id":"levelo_inurba_marseille","lat":43.26506,"lon":5.39533,"is_reserved":false,"is_disabled":false,"rental_uris":{"android":"levelo://app?vid=8da3cc87-976b-4a22-a81d-c9d08ca5401c","ios":"levelo://app?vid=8da3cc87-976b-4a22-a81d-c9d08ca5401c"},"vehicle_type_id":"4","last_reported":1730135315,"current_range_meters":35200,"station_id":"ce4bhi12rcd13ifvqfq0","pricing_plan_id":"cebpf4jnsgd1na2vs0mg"},{"bike_id":"36ae4ccf-817f-4447-847e-c6c04c65d202","system_id":"levelo_inurba_marseille","lat":43.3089,"lon":5.37313,"is_reserved":false,"is_disabled":false,"rental_uris":{"android":"levelo://app?vid=36ae4ccf-817f-4447-847e-c6c04c65d202","ios":"levelo://app?vid=36ae4ccf-817f-4447-847e-c6c04c65d202"},"vehicle_type_id":"4","last_reported":1730135315,"current_range_meters":9600,"station_id":"","pricing_plan_id":"cebpf4jnsgd1na2vs0mg"},{"bike_id":"0466cb59-f7dc-490b-9486-1c44323b97b8","system_id":"levelo_inurba_marseille","lat":43.2466,"lon":5.38161,"is_reserved":false,"is_disabled":false,"rental_uris":{"android":"levelo://app?vid=0466cb59-f7dc-490b-9486-1c44323b97b8","ios":"levelo://app?vid=0466cb59-f7dc-490b-9486-1c44323b97b8"},"vehicle_type_id":"4","last_reported":1730135315,"current_range_meters":5600,"station_id":"ce4bhih2rcd13ifvqfr0","pricing_plan_id":"cebpf4jnsgd1na2vs0mg"},{"bike_id":"16a4169a-60e9-4afa-9d70-b4902ded12af","system_id":"levelo_inurba_marseille","lat":43.29275,"lon":5.37991,"is_reserved":false,"is_disabled":false,"rental_uris":{"android":"levelo://app?vid=16a4169a-60e9-4afa-9d70-b4902ded12af","ios":"levelo://app?vid=16a4169a-60e9-4afa-9d70-b4902ded12af"},"vehicle_type_id":"4","last_reported":1730135315,"current_range_meters":7200,"station_id":"ce4bhi12rcd13ifvqfq0","pricing_plan_id":"cebpf4jnsgd1na2vs0mg"},{"bike_id":"0f71fc90-1101-4b51-aefe-fdb3a86315ad","system_id":"levelo_inurba_marseille","lat":43.30331,"lon":5.40418,"is_reserved":false,"is_disabled":false,"rental_uris":{"android":"levelo://app?vid=0f71fc90-1101-4b51-aefe-fdb3a86315ad","ios":"levelo://app?vid=0f71fc90-1101-4b51-aefe-fdb3a86315ad"},"vehicle_type_id":"4","last_reported":1730135315,"current_range_meters":36000,"station_id":"ce4bh012rcd13ifvqd10","pricing_plan_id":"cebpf4jnsgd1na2vs0mg"},{"bike_id":"b4b4c293-b26d-41d6-904b-7f333573a714","system_id":"levelo_inurba_marseille","lat":43.2959,"lon":5.36747,"is_reserved":false,"is_disabled":false,"rental_uris":{"android":"levelo://app?vid=b4b4c293-b26d-41d6-904b-7f333573a714","ios":"levelo://app?vid=b4b4c293-b26d-41d6-904b-7f333573a714"},"vehicle_type_id":"4","last_reported":1730135315,"current_range_meters":38800,"station_id":"ce4bgph2rcd13ifvqc2g","pricing_plan_id":"cebpf4jnsgd1na2vs0mg"},{"bike_id":"00461461-7c62-4fdb-a38f-3aef98d2ea3a","system_id":"levelo_inurba_marseille","lat":43.33025,"lon":5.39045,"is_reserved":false,"is_disabled":false,"rental_uris":{"android":"levelo://app?vid=00461461-7c62-4fdb-a38f-3aef98d2ea3a","ios":"levelo://app?vid=00461461-7c62-4fdb-a38f-3aef98d2ea3a"},"vehicle_type_id":"4","last_reported":1730135315,"current_range_meters":38000,"station_id":"ce4bhr92rcd13ifvqhrg","pricing_plan_id":"cebpf4jnsgd1na2vs0mg"},{"bike_id":"924b6c1c-4862-4107-ab06-f3fde548e093","system_id":"levelo_inurba_marseille","lat":43.2989,"lon":5.43672,"is_reserved":false,"is_disabled":false,"rental_uris":{"android":"levelo://app?vid=924b6c1c-4862-4107-ab06-f3fde548e093","ios":"levelo://app?vid=924b6c1c-4862-4107-ab06-f3fde548e093"},"vehicle_type_id":"4","last_reported":1730135315,"current_range_meters":8000,"station_id":"ce4bhpp2rcd13ifvqhfg","pricing_plan_id":"cebpf4jnsgd1na2vs0mg"},{"bike_id":"f7a8f2b2-3455-4bff-876b-b28942be5dbe","system_id":"levelo_inurba_marseille","lat":43.29874,"lon":5.39742,"is_reserved":false,"is_disabled":false,"rental_uris":{"android":"levelo://app?vid=f7a8f2b2-3455-4bff-876b-b28942be5dbe","ios":"levelo://app?vid=f7a8f2b2-3455-4bff-876b-b28942be5dbe"},"vehicle_type_id":"4","last_reported":1730135315,"current_range_meters":28400,"station_id":"ce4bh0h2rcd13ifvqd50","pricing_plan_id":"cebpf4jnsgd1na2vs0mg"},{"bike_id":"e62460cb-f74b-4cab-9e7e-c354d36ee26b","system_id":"levelo_inurba_marseille","lat":43.23196,"lon":5.35557,"is_reserved":false,"is_disabled":false,"rental_uris":{"android":"levelo://app?vid=e62460cb-f74b-4cab-9e7e-c354d36ee26b","ios":"levelo://app?vid=e62460cb-f74b-4cab-9e7e-c354d36ee26b"},"vehicle_type_id":"4","last_reported":1730135315,"current_range_meters":6000,"station_id":"ce4bhu92rcd13ifvqi70","pricing_plan_id":"cebpf4jnsgd1na2vs0mg"},{"bike_id":"19a67e0e-ddcc-4efd-b094-9c16f442c422","system_id":"levelo_inurba_marseille","lat":43.31724,"lon":5.42391,"is_reserved":false,"is_disabled":false,"rental_uris":{"android":"levelo://app?vid=19a67e0e-ddcc-4efd-b094-9c16f442c422","ios":"levelo://app?vid=19a67e0e-ddcc-4efd-b094-9c16f442c422"},"vehicle_type_id":"4","last_reported":1730135315,"current_range_meters":14800,"station_id":"ce4bhp92rcd13ifvqhbg","pricing_plan_id":"cebpf4jnsgd1na2vs0mg"},{"bike_id":"737837b8-7066-4d20-89f3-91917ea0193c","system_id":"levelo_inurba_marseille","lat":43.2846,"lon":5.35897,"is_reserved":false,"is_disabled":false,"rental_uris":{"android":"levelo://app?vid=737837b8-7066-4d20-89f3-91917ea0193c","ios":"levelo://app?vid=737837b8-7066-4d20-89f3-91917ea0193c"},"vehicle_type_id":"4","last_reported":1730135315,"current_range_meters":23200,"station_id":"ce4bhah2rcd13ifvqei0","pricing_plan_id":"cebpf4jnsgd1na2vs0mg"},{"bike_id":"1f02a00c-e697-4446-8389-72dcdacc9f45","system_id":"levelo_inurba_marseille","lat":43.32481,"lon":5.3657,"is_reserved":false,"is_disabled":false,"rental_uris":{"android":"levelo://app?vid=1f02a00c-e697-4446-8389-72dcdacc9f45","ios":"levelo://app?vid=1f02a00c-e697-4446-8389-72dcdacc9f45"},"vehicle_type_id":"4","last_reported":1730135315,"current_range_meters":32800,"station_id":"ce4bhs12rcd13ifvqhvg","pricing_plan_id":"cebpf4jnsgd1na2vs0mg"},{"bike_id":"a4d11b6a-29f5-423d-a430-a325cba7a4e8","system_id":"levelo_inurba_marseille","lat":43.30536,"lon":5.36561,"is_reserved":false,"is_disabled":false,"rental_uris":{"android":"levelo://app?vid=a4d11b6a-29f5-423d-a430-a325cba7a4e8","ios":"levelo://app?vid=a4d11b6a-29f5-423d-a430-a325cba7a4e8"},"vehicle_type_id":"4","last_reported":1730135315,"current_range_meters":34800,"station_id":"ce4bgs12rcd13ifvqcag","pricing_plan_id":"cebpf4jnsgd1na2vs0mg"},{"bike_id":"8e93bc1b-1b4f-4129-bbbf-603daf4b7dff","system_id":"levelo_inurba_marseille","lat":43.29571,"lon":5.39962,"is_reserved":false,"is_disabled":false,"rental_uris":{"android":"levelo://app?vid=8e93bc1b-1b4f-4129-bbbf-603daf4b7dff","ios":"levelo://app?vid=8e93bc1b-1b4f-4129-bbbf-603daf4b7dff"},"vehicle_type_id":"4","last_reported":1730135315,"current_range_meters":38800,"station_id":"ce4bh312rcd13ifvqdj0","pricing_plan_id":"cebpf4jnsgd1na2vs0mg"},{"bike_id":"091f6b1c-7d57-40bc-b702-cc1c90820a7f","system_id":"levelo_inurba_marseille","lat":43.30655,"lon":5.40071,"is_reserved":false,"is_disabled":false,"rental_uris":{"android":"levelo://app?vid=091f6b1c-7d57-40bc-b702-cc1c90820a7f","ios":"levelo://app?vid=091f6b1c-7d57-40bc-b702-cc1c90820a7f"},"vehicle_type_id":"4","last_reported":1730135315,"current_range_meters":17600,"station_id":"ce4bh112rcd13ifvqda0","pricing_plan_id":"cebpf4jnsgd1na2vs0mg"},{"bike_id":"3b7a7f21-e98d-429f-9ed3-f39b47cb5150","system_id":"levelo_inurba_marseille","lat":43.26563,"lon":5.39013,"is_reserved":false,"is_disabled":false,"rental_uris":{"android":"levelo://app?vid=3b7a7f21-e98d-429f-9ed3-f39b47cb5150","ios":"levelo://app?vid=3b7a7f21-e98d-429f-9ed3-f39b47cb5150"},"vehicle_type_id":"4","last_reported":1730135315,"current_range_meters":36800,"station_id":"ce4bhe12rcd13ifvqf30","pricing_plan_id":"cebpf4jnsgd1na2vs0mg"},{"bike_id":"6d92f4d9-0cdd-41cd-aecc-2b7f33713104","system_id":"levelo_inurba_marseille","lat":43.29111,"lon":5.41757,"is_reserved":false,"is_disabled":false,"rental_uris":{"android":"levelo://app?vid=6d92f4d9-0cdd-41cd-aecc-2b7f33713104","ios":"levelo://app?vid=6d92f4d9-0cdd-41cd-aecc-2b7f33713104"},"vehicle_type_id":"4","last_reported":1730135315,"current_range_meters":8800,"station_id":"","pricing_plan_id":"cebpf4jnsgd1na2vs0mg"},{"bike_id":"9a5f95f8-303d-483d-b515-3a9139235f3c","system_id":"levelo_inurba_marseille","lat":43.28606,"lon":5.37064,"is_reserved":false,"is_disabled":false,"rental_uris":{"android":"levelo://app?vid=9a5f95f8-303d-483d-b515-3a9139235f3c","ios":"levelo://app?vid=9a5f95f8-303d-483d-b515-3a9139235f3c"},"vehicle_type_id":"4","last_reported":1730135315,"current_range_meters":6400,"station_id":"ce4bht12rcd13ifvqi60","pricing_plan_id":"cebpf4jnsgd1na2vs0mg"},{"bike_id":"8f9fbcd8-8428-481c-87ce-60664aff435f","system_id":"levelo_inurba_marseille","lat":43.30397,"lon":5.38951,"is_reserved":false,"is_disabled":false,"rental_uris":{"android":"levelo://app?vid=8f9fbcd8-8428-481c-87ce-60664aff435f","ios":"levelo://app?vid=8f9fbcd8-8428-481c-87ce-60664aff435f"},"vehicle_type_id":"4","last_reported":1730135315,"current_range_meters":38800,"station_id":"ce4bgk12rcd13ifvqbi0","pricing_plan_id":"cebpf4jnsgd1na2vs0mg"},{"bike_id":"168c342a-1708-4760-b735-a976f6a3893b","system_id":"levelo_inurba_marseille","lat":43.28482,"lon":5.38412,"is_reserved":false,"is_disabled":false,"rental_uris":{"android":"levelo://app?vid=168c342a-1708-4760-b735-a976f6a3893b","ios":"levelo://app?vid=168c342a-1708-4760-b735-a976f6a3893b"},"vehicle_type_id":"4","last_reported":1730135315,"current_range_meters":39200,"station_id":"ce4bh512rcd13ifvqe3g","pricing_plan_id":"cebpf4jnsgd1na2vs0mg"},{"bike_id":"dccbe93d-c5e9-43b2-8993-dfe6922be8a2","system_id":"levelo_inurba_marseille","lat":43.30318,"lon":5.36593,"is_reserved":false,"is_disabled":false,"rental_uris":{"android":"levelo://app?vid=dccbe93d-c5e9-43b2-8993-dfe6922be8a2","ios":"levelo://app?vid=dccbe93d-c5e9-43b2-8993-dfe6922be8a2"},"vehicle_type_id":"4","last_reported":1730135315,"current_range_meters":25200,"station_id":"","pricing_plan_id":"cebpf4jnsgd1na2vs0mg"},{"bike_id":"fc0f251d-d948-4b9f-b5ed-d7f9c3893b83","system_id":"levelo_inurba_marseille","lat":43.28722,"lon":5.36093,"is_reserved":false,"is_disabled":false,"rental_uris":{"android":"levelo://app?vid=fc0f251d-d948-4b9f-b5ed-d7f9c3893b83","ios":"levelo://app?vid=fc0f251d-d948-4b9f-b5ed-d7f9c3893b83"},"vehicle_type_id":"4","last_reported":1730135315,"current_range_meters":28400,"station_id":"cki0cbj6b192h4jlfktg","pricing_plan_id":"cebpf4jnsgd1na2vs0mg"},{"bike_id":"0d689569-16b2-41f0-a452-1628a65a3565","system_id":"levelo_inurba_marseille","lat":43.27618,"lon":5.36113,"is_reserved":false,"is_disabled":false,"rental_uris":{"android":"levelo://app?vid=0d689569-16b2-41f0-a452-1628a65a3565","ios":"levelo://app?vid=0d689569-16b2-41f0-a452-1628a65a3565"},"vehicle_type_id":"4","last_reported":1730135315,"current_range_meters":8800,"station_id":"ce4bgj92rcd13ifvqbe0","pricing_plan_id":"cebpf4jnsgd1na2vs0mg"},{"bike_id":"ab552493-667b-4e2e-ac39-35becb17399b","system_id":"levelo_inurba_marseille","lat":43.290213,"lon":5.355942,"is_reserved":false,"is_disabled":false,"rental_uris":{"android":"levelo://app?vid=ab552493-667b-4e2e-ac39-35becb17399b","ios":"levelo://app?vid=ab552493-667b-4e2e-ac39-35becb17399b"},"vehicle_type_id":"4","last_reported":1730135315,"current_range_meters":7200,"station_id":"ce4bhb92rcd13ifvqen0","pricing_plan_id":"cebpf4jnsgd1na2vs0mg"},{"bike_id":"7e84161f-69fa-414f-9e15-6697ea7911ad","system_id":"levelo_inurba_marseille","lat":43.31277,"lon":5.40165,"is_reserved":false,"is_disabled":false,"rental_uris":{"android":"levelo://app?vid=7e84161f-69fa-414f-9e15-6697ea7911ad","ios":"levelo://app?vid=7e84161f-69fa-414f-9e15-6697ea7911ad"},"vehicle_type_id":"4","last_reported":1730135315,"current_range_meters":2000,"station_id":"ce4bh092rcd13ifvqd30","pricing_plan_id":"cebpf4jnsgd1na2vs0mg"},{"bike_id":"b1d8ab34-c82c-4da7-a870-4569fe7eabe7","system_id":"levelo_inurba_marseille","lat":43.25001,"lon":5.38939,"is_reserved":false,"is_disabled":false,"rental_uris":{"android":"levelo://app?vid=b1d8ab34-c82c-4da7-a870-4569fe7eabe7","ios":"levelo://app?vid=b1d8ab34-c82c-4da7-a870-4569fe7eabe7"},"vehicle_type_id":"4","last_reported":1730135315,"current_range_meters":6800,"station_id":"ce4bhgp2rcd13ifvqfd0","pricing_plan_id":"cebpf4jnsgd1na2vs0mg"},{"bike_id":"0bbdf646-65cf-4b5f-98cb-46a8b961e208","system_id":"levelo_inurba_marseille","lat":43.31092,"lon":5.42432,"is_reserved":false,"is_disabled":false,"rental_uris":{"android":"levelo://app?vid=0bbdf646-65cf-4b5f-98cb-46a8b961e208","ios":"levelo://app?vid=0bbdf646-65cf-4b5f-98cb-46a8b961e208"},"vehicle_type_id":"4","last_reported":1730135315,"current_range_meters":39200,"station_id":"ce4bhp92rcd13ifvqhag","pricing_plan_id":"cebpf4jnsgd1na2vs0mg"},{"bike_id":"a3c986df-8bb4-4aa0-9365-ff741272c0c9","system_id":"levelo_inurba_marseille","lat":43.32288,"lon":5.38276,"is_reserved":false,"is_disabled":false,"rental_uris":{"android":"levelo://app?vid=a3c986df-8bb4-4aa0-9365-ff741272c0c9","ios":"levelo://app?vid=a3c986df-8bb4-4aa0-9365-ff741272c0c9"},"vehicle_type_id":"4","last_reported":1730135315,"current_range_meters":20000,"station_id":"ce4bhr12rcd13ifvqhqg","pricing_plan_id":"cebpf4jnsgd1na2vs0mg"},{"bike_id":"266575d8-09f9-4cd7-833a-204d10e502df","system_id":"levelo_inurba_marseille","lat":43.32105,"lon":5.36778,"is_reserved":false,"is_disabled":false,"rental_uris":{"android":"levelo://app?vid=266575d8-09f9-4cd7-833a-204d10e502df","ios":"levelo://app?vid=266575d8-09f9-4cd7-833a-204d10e502df"},"vehicle_type_id":"4","last_reported":1730135315,"current_range_meters":30000,"station_id":"ce4bhrh2rcd13ifvqhug","pricing_plan_id":"cebpf4jnsgd1na2vs0mg"},{"bike_id":"6c44095e-b8b7-486a-87e2-64865d5c0356","system_id":"levelo_inurba_marseille","lat":43.27339,"lon":5.39069,"is_reserved":false,"is_disabled":false,"rental_uris":{"android":"levelo://app?vid=6c44095e-b8b7-486a-87e2-64865d5c0356","ios":"levelo://app?vid=6c44095e-b8b7-486a-87e2-64865d5c0356"},"vehicle_type_id":"4","last_reported":1730135315,"current_range_meters":22800,"station_id":"ce4bhgp2rcd13ifvqfe0","pricing_plan_id":"cebpf4jnsgd1na2vs0mg"},{"bike_id":"d96007f3-24f5-471e-b32e-225b3062747f","system_id":"levelo_inurba_marseille","lat":43.258666,"lon":5.398976,"is_reserved":false,"is_disabled":false,"rental_uris":{"android":"levelo://app?vid=d96007f3-24f5-471e-b32e-225b3062747f","ios":"levelo://app?vid=d96007f3-24f5-471e-b32e-225b3062747f"},"vehicle_type_id":"4","last_reported":1730135315,"current_range_meters":11600,"station_id":"ce4bhl92rcd13ifvqghg","pricing_plan_id":"cebpf4jnsgd1na2vs0mg"},{"bike_id":"0929dc4d-963a-4a7f-b91c-96dea50a422e","system_id":"levelo_inurba_marseille","lat":43.30897,"lon":5.37198,"is_reserved":false,"is_disabled":false,"rental_uris":{"android":"levelo://app?vid=0929dc4d-963a-4a7f-b91c-96dea50a422e","ios":"levelo://app?vid=0929dc4d-963a-4a7f-b91c-96dea50a422e"},"vehicle_type_id":"4","last_reported":1730135315,"current_range_meters":2800,"station_id":"ce4bguh2rcd13ifvqckg","pricing_plan_id":"cebpf4jnsgd1na2vs0mg"},{"bike_id":"b7263d5e-97f6-4d31-9044-c1c0ca24c340","system_id":"levelo_inurba_marseille","lat":43.3013,"lon":5.39864,"is_reserved":false,"is_disabled":false,"rental_uris":{"android":"levelo://app?vid=b7263d5e-97f6-4d31-9044-c1c0ca24c340","ios":"levelo://app?vid=b7263d5e-97f6-4d31-9044-c1c0ca24c340"},"vehicle_type_id":"4","last_reported":1730135315,"current_range_meters":7200,"station_id":"ce4bh0h2rcd13ifvqd40","pricing_plan_id":"cebpf4jnsgd1na2vs0mg"},{"bike_id":"66d3c594-1532-43c1-b112-bf86963299ca","system_id":"levelo_inurba_marseille","lat":43.262094,"lon":5.374426,"is_reserved":false,"is_disabled":false,"rental_uris":{"android":"levelo://app?vid=66d3c594-1532-43c1-b112-bf86963299ca","ios":"levelo://app?vid=66d3c594-1532-43c1-b112-bf86963299ca"},"vehicle_type_id":"4","last_reported":1730135315,"current_range_meters":28000,"station_id":"ce4bhgp2rcd13ifvqfc0","pricing_plan_id":"cebpf4jnsgd1na2vs0mg"},{"bike_id":"6a66b1ae-6685-4f17-a8bd-618511eda9e2","system_id":"levelo_inurba_marseille","lat":43.324842,"lon":5.365616,"is_reserved":false,"is_disabled":false,"rental_uris":{"android":"levelo://app?vid=6a66b1ae-6685-4f17-a8bd-618511eda9e2","ios":"levelo://app?vid=6a66b1ae-6685-4f17-a8bd-618511eda9e2"},"vehicle_type_id":"4","last_reported":1730135315,"current_range_meters":38000,"station_id":"ce4bhs12rcd13ifvqhvg","pricing_plan_id":"cebpf4jnsgd1na2vs0mg"},{"bike_id":"63348d8c-cbc5-4eee-9e07-6747513dc4bf","system_id":"levelo_inurba_marseille","lat":43.29849,"lon":5.36288,"is_reserved":false,"is_disabled":false,"rental_uris":{"android":"levelo://app?vid=63348d8c-cbc5-4eee-9e07-6747513dc4bf","ios":"levelo://app?vid=63348d8c-cbc5-4eee-9e07-6747513dc4bf"},"vehicle_type_id":"4","last_reported":1730135315,"current_range_meters":26000,"station_id":"ce4bgpp2rcd13ifvqc3g","pricing_plan_id":"cebpf4jnsgd1na2vs0mg"},{"bike_id":"bfcad535-ef54-447e-85f7-14f022c7fbfa","system_id":"levelo_inurba_marseille","lat":43.31466,"lon":5.3921,"is_reserved":false,"is_disabled":false,"rental_uris":{"android":"levelo://app?vid=bfcad535-ef54-447e-85f7-14f022c7fbfa","ios":"levelo://app?vid=bfcad535-ef54-447e-85f7-14f022c7fbfa"},"vehicle_type_id":"4","last_reported":1730135315,"current_range_meters":8800,"station_id":"ce4bgvp2rcd13ifvqcu0","pricing_plan_id":"cebpf4jnsgd1na2vs0mg"},{"bike_id":"b9d9092e-6707-4814-9d1e-4b2ba57c061f","system_id":"levelo_inurba_marseille","lat":43.30883,"lon":5.39658,"is_reserved":false,"is_disabled":false,"rental_uris":{"android":"levelo://app?vid=b9d9092e-6707-4814-9d1e-4b2ba57c061f","ios":"levelo://app?vid=b9d9092e-6707-4814-9d1e-4b2ba57c061f"},"vehicle_type_id":"4","last_reported":1730135315,"current_range_meters":18800,"station_id":"ce4bh012rcd13ifvqcv0","pricing_plan_id":"cebpf4jnsgd1na2vs0mg"},{"bike_id":"aa23d6f8-8c95-4a49-93e7-c080b11dbcf7","system_id":"levelo_inurba_marseille","lat":43.240717,"lon":5.377587,"is_reserved":false,"is_disabled":false,"rental_uris":{"android":"levelo://app?vid=aa23d6f8-8c95-4a49-93e7-c080b11dbcf7","ios":"levelo://app?vid=aa23d6f8-8c95-4a49-93e7-c080b11dbcf7"},"vehicle_type_id":"4","last_reported":1730135315,"current_range_meters":16000,"station_id":"ce4bhnp2rcd13ifvqgvg","pricing_plan_id":"cebpf4jnsgd1na2vs0mg"},{"bike_id":"9f6808ee-b0c9-45bc-a7c6-94c4712b4b98","system_id":"levelo_inurba_marseille","lat":43.28452,"lon":5.39207,"is_reserved":false,"is_disabled":false,"rental_uris":{"android":"levelo://app?vid=9f6808ee-b0c9-45bc-a7c6-94c4712b4b98","ios":"levelo://app?vid=9f6808ee-b0c9-45bc-a7c6-94c4712b4b98"},"vehicle_type_id":"4","last_reported":1730135315,"current_range_meters":35200,"station_id":"ce4bhoh2rcd13ifvqh5g","pricing_plan_id":"cebpf4jnsgd1na2vs0mg"},{"bike_id":"c02ff1c6-a4ad-4148-bd84-5056232f90dd","system_id":"levelo_inurba_marseille","lat":43.32109,"lon":5.36775,"is_reserved":false,"is_disabled":false,"rental_uris":{"android":"levelo://app?vid=c02ff1c6-a4ad-4148-bd84-5056232f90dd","ios":"levelo://app?vid=c02ff1c6-a4ad-4148-bd84-5056232f90dd"},"vehicle_type_id":"4","last_reported":1730135315,"current_range_meters":38000,"station_id":"ce4bhrh2rcd13ifvqhug","pricing_plan_id":"cebpf4jnsgd1na2vs0mg"},{"bike_id":"c282ac55-b4b2-4f9e-9b4b-42ee7ca7c6f5","system_id":"levelo_inurba_marseille","lat":43.23056,"lon":5.35499,"is_reserved":false,"is_disabled":false,"rental_uris":{"android":"levelo://app?vid=c282ac55-b4b2-4f9e-9b4b-42ee7ca7c6f5","ios":"levelo://app?vid=c282ac55-b4b2-4f9e-9b4b-42ee7ca7c6f5"},"vehicle_type_id":"4","last_reported":1730135315,"current_range_meters":24800,"station_id":"cpo3342slgdg3j2ifvpg","pricing_plan_id":"cebpf4jnsgd1na2vs0mg"},{"bike_id":"d0c256d4-678b-40dc-8551-65c9dc7c4905","system_id":"levelo_inurba_marseille","lat":43.260653,"lon":5.394013,"is_reserved":false,"is_disabled":false,"rental_uris":{"android":"levelo://app?vid=d0c256d4-678b-40dc-8551-65c9dc7c4905","ios":"levelo://app?vid=d0c256d4-678b-40dc-8551-65c9dc7c4905"},"vehicle_type_id":"4","last_reported":1730135315,"current_range_meters":8800,"station_id":"ce4bh412rcd13ifvqdr0","pricing_plan_id":"cebpf4jnsgd1na2vs0mg"},{"bike_id":"263050f5-c79e-4457-bca3-0869f7981420","system_id":"levelo_inurba_marseille","lat":43.27069,"lon":5.42279,"is_reserved":false,"is_disabled":false,"rental_uris":{"android":"levelo://app?vid=263050f5-c79e-4457-bca3-0869f7981420","ios":"levelo://app?vid=263050f5-c79e-4457-bca3-0869f7981420"},"vehicle_type_id":"4","last_reported":1730135315,"current_range_meters":8400,"station_id":"ce4bhk92rcd13ifvqgb0","pricing_plan_id":"cebpf4jnsgd1na2vs0mg"},{"bike_id":"2897abf7-34b8-46be-88d7-cf8906393160","system_id":"levelo_inurba_marseille","lat":43.27552,"lon":5.38446,"is_reserved":false,"is_disabled":false,"rental_uris":{"android":"levelo://app?vid=2897abf7-34b8-46be-88d7-cf8906393160","ios":"levelo://app?vid=2897abf7-34b8-46be-88d7-cf8906393160"},"vehicle_type_id":"4","last_reported":1730135315,"current_range_meters":27200,"station_id":"ce4bhh92rcd13ifvqfi0","pricing_plan_id":"cebpf4jnsgd1na2vs0mg"},{"bike_id":"d03e7508-bc8a-467c-aa0f-fc09855657bd","system_id":"levelo_inurba_marseille","lat":43.30885,"lon":5.39653,"is_reserved":false,"is_disabled":false,"rental_uris":{"android":"levelo://app?vid=d03e7508-bc8a-467c-aa0f-fc09855657bd","ios":"levelo://app?vid=d03e7508-bc8a-467c-aa0f-fc09855657bd"},"vehicle_type_id":"4","last_reported":1730135315,"current_range_meters":27200,"station_id":"ce4bh012rcd13ifvqcv0","pricing_plan_id":"cebpf4jnsgd1na2vs0mg"},{"bike_id":"d4570351-e83d-4b72-9533-5dc102b913e6","system_id":"levelo_inurba_marseille","lat":43.30538,"lon":5.36556,"is_reserved":false,"is_disabled":false,"rental_uris":{"android":"levelo://app?vid=d4570351-e83d-4b72-9533-5dc102b913e6","ios":"levelo://app?vid=d4570351-e83d-4b72-9533-5dc102b913e6"},"vehicle_type_id":"4","last_reported":1730135315,"current_range_meters":14800,"station_id":"ce4bgs12rcd13ifvqcag","pricing_plan_id":"cebpf4jnsgd1na2vs0mg"},{"bike_id":"e3cb2cdc-9899-4869-882b-32f598f611f7","system_id":"levelo_inurba_marseille","lat":43.32468,"lon":5.36572,"is_reserved":false,"is_disabled":false,"rental_uris":{"android":"levelo://app?vid=e3cb2cdc-9899-4869-882b-32f598f611f7","ios":"levelo://app?vid=e3cb2cdc-9899-4869-882b-32f598f611f7"},"vehicle_type_id":"4","last_reported":1730135315,"current_range_meters":14400,"station_id":"ce4bhs12rcd13ifvqhvg","pricing_plan_id":"cebpf4jnsgd1na2vs0mg"},{"bike_id":"47994b45-61b0-40a6-8295-a66b8a993418","system_id":"levelo_inurba_marseille","lat":43.30315,"lon":5.36894,"is_reserved":false,"is_disabled":false,"rental_uris":{"android":"levelo://app?vid=47994b45-61b0-40a6-8295-a66b8a993418","ios":"levelo://app?vid=47994b45-61b0-40a6-8295-a66b8a993418"},"vehicle_type_id":"4","last_reported":1730135315,"current_range_meters":27200,"station_id":"ce4bgqh2rcd13ifvqc5g","pricing_plan_id":"cebpf4jnsgd1na2vs0mg"},{"bike_id":"6f988fad-3d20-4460-8dbf-bbe07f64fe0d","system_id":"levelo_inurba_marseille","lat":43.29926,"lon":5.37477,"is_reserved":false,"is_disabled":false,"rental_uris":{"android":"levelo://app?vid=6f988fad-3d20-4460-8dbf-bbe07f64fe0d","ios":"levelo://app?vid=6f988fad-3d20-4460-8dbf-bbe07f64fe0d"},"vehicle_type_id":"4","last_reported":1730135315,"current_range_meters":4000,"station_id":"ce4bgjh2rcd13ifvqbg0","pricing_plan_id":"cebpf4jnsgd1na2vs0mg"},{"bike_id":"b57aa44f-470e-49d9-93c3-a246626fe495","system_id":"levelo_inurba_marseille","lat":43.28431,"lon":5.37499,"is_reserved":false,"is_disabled":false,"rental_uris":{"android":"levelo://app?vid=b57aa44f-470e-49d9-93c3-a246626fe495","ios":"levelo://app?vid=b57aa44f-470e-49d9-93c3-a246626fe495"},"vehicle_type_id":"4","last_reported":1730135315,"current_range_meters":38800,"station_id":"ce4bh412rcd13ifvqds0","pricing_plan_id":"cebpf4jnsgd1na2vs0mg"},{"bike_id":"8f0ec6ae-07e2-42c7-ae61-2bb16feb3538","system_id":"levelo_inurba_marseille","lat":43.2795,"lon":5.41052,"is_reserved":false,"is_disabled":false,"rental_uris":{"android":"levelo://app?vid=8f0ec6ae-07e2-42c7-ae61-2bb16feb3538","ios":"levelo://app?vid=8f0ec6ae-07e2-42c7-ae61-2bb16feb3538"},"vehicle_type_id":"4","last_reported":1730135315,"current_range_meters":24400,"station_id":"ce4bhnp2rcd13ifvqh0g","pricing_plan_id":"cebpf4jnsgd1na2vs0mg"},{"bike_id":"321253fb-8ab8-4596-aaf4-e4249d6077cd","system_id":"levelo_inurba_marseille","lat":43.29224,"lon":5.36077,"is_reserved":false,"is_disabled":false,"rental_uris":{"android":"levelo://app?vid=321253fb-8ab8-4596-aaf4-e4249d6077cd","ios":"levelo://app?vid=321253fb-8ab8-4596-aaf4-e4249d6077cd"},"vehicle_type_id":"4","last_reported":1730135315,"current_range_meters":23200,"station_id":"ce4bhbh2rcd13ifvqeqg","pricing_plan_id":"cebpf4jnsgd1na2vs0mg"},{"bike_id":"0dc8a10d-ac2a-4522-b928-0d7351045bae","system_id":"levelo_inurba_marseille","lat":43.29815,"lon":5.38093,"is_reserved":false,"is_disabled":false,"rental_uris":{"android":"levelo://app?vid=0dc8a10d-ac2a-4522-b928-0d7351045bae","ios":"levelo://app?vid=0dc8a10d-ac2a-4522-b928-0d7351045bae"},"vehicle_type_id":"4","last_reported":1730135315,"current_range_meters":10000,"station_id":"ce4bgip2rcd13ifvqbb0","pricing_plan_id":"cebpf4jnsgd1na2vs0mg"},{"bike_id":"241ecd04-7016-4c00-9406-26d98a6106d7","system_id":"levelo_inurba_marseille","lat":43.28707,"lon":5.37379,"is_reserved":false,"is_disabled":false,"rental_uris":{"android":"levelo://app?vid=241ecd04-7016-4c00-9406-26d98a6106d7","ios":"levelo://app?vid=241ecd04-7016-4c00-9406-26d98a6106d7"},"vehicle_type_id":"4","last_reported":1730135315,"current_range_meters":19200,"station_id":"ce4bh3p2rcd13ifvqdq0","pricing_plan_id":"cebpf4jnsgd1na2vs0mg"},{"bike_id":"60b03da1-4165-47ec-98f0-d7c5b3bf58c0","system_id":"levelo_inurba_marseille","lat":43.330294,"lon":5.39049,"is_reserved":false,"is_disabled":false,"rental_uris":{"android":"levelo://app?vid=60b03da1-4165-47ec-98f0-d7c5b3bf58c0","ios":"levelo://app?vid=60b03da1-4165-47ec-98f0-d7c5b3bf58c0"},"vehicle_type_id":"4","last_reported":1730135315,"current_range_meters":38800,"station_id":"ce4bhr92rcd13ifvqhrg","pricing_plan_id":"cebpf4jnsgd1na2vs0mg"},{"bike_id":"2e3fc80b-bed8-4450-87b6-81c022de2f03","system_id":"levelo_inurba_marseille","lat":43.28044,"lon":5.36951,"is_reserved":false,"is_disabled":false,"rental_uris":{"android":"levelo://app?vid=2e3fc80b-bed8-4450-87b6-81c022de2f03","ios":"levelo://app?vid=2e3fc80b-bed8-4450-87b6-81c022de2f03"},"vehicle_type_id":"4","last_reported":1730135315,"current_range_meters":8800,"station_id":"ce4bha12rcd13ifvqef0","pricing_plan_id":"cebpf4jnsgd1na2vs0mg"},{"bike_id":"25b526d7-a88c-4e44-bf73-fcfa0ac83e0e","system_id":"levelo_inurba_marseille","lat":43.23955,"lon":5.3664,"is_reserved":false,"is_disabled":false,"rental_uris":{"android":"levelo://app?vid=25b526d7-a88c-4e44-bf73-fcfa0ac83e0e","ios":"levelo://app?vid=25b526d7-a88c-4e44-bf73-fcfa0ac83e0e"},"vehicle_type_id":"4","last_reported":1730135315,"current_range_meters":38800,"station_id":"ce4bhi12rcd13ifvqfp0","pricing_plan_id":"cebpf4jnsgd1na2vs0mg"},{"bike_id":"25d3a39d-81a7-42a8-a3f5-1c34f3720877","system_id":"levelo_inurba_marseille","lat":43.24076,"lon":5.37756,"is_reserved":false,"is_disabled":false,"rental_uris":{"android":"levelo://app?vid=25d3a39d-81a7-42a8-a3f5-1c34f3720877","ios":"levelo://app?vid=25d3a39d-81a7-42a8-a3f5-1c34f3720877"},"vehicle_type_id":"4","last_reported":1730135315,"current_range_meters":22400,"station_id":"ce4bhnp2rcd13ifvqgvg","pricing_plan_id":"cebpf4jnsgd1na2vs0mg"},{"bike_id":"7b1f72d9-067a-4396-b3d5-c001f0701f43","system_id":"levelo_inurba_marseille","lat":43.2695,"lon":5.38636,"is_reserved":false,"is_disabled":false,"rental_uris":{"android":"levelo://app?vid=7b1f72d9-067a-4396-b3d5-c001f0701f43","ios":"levelo://app?vid=7b1f72d9-067a-4396-b3d5-c001f0701f43"},"vehicle_type_id":"4","last_reported":1730135315,"current_range_meters":22000,"station_id":"ce4bhh92rcd13ifvqfh0","pricing_plan_id":"cebpf4jnsgd1na2vs0mg"},{"bike_id":"6fc5316a-9787-42a9-a620-f616e433024f","system_id":"levelo_inurba_marseille","lat":43.28924,"lon":5.38425,"is_reserved":false,"is_disabled":false,"rental_uris":{"android":"levelo://app?vid=6fc5316a-9787-42a9-a620-f616e433024f","ios":"levelo://app?vid=6fc5316a-9787-42a9-a620-f616e433024f"},"vehicle_type_id":"4","last_reported":1730135315,"current_range_meters":17600,"station_id":"ce4bh612rcd13ifvqe6g","pricing_plan_id":"cebpf4jnsgd1na2vs0mg"},{"bike_id":"ef7a3fc5-5253-4f4f-8a93-0f5f2ed715ec","system_id":"levelo_inurba_marseille","lat":43.27174,"lon":5.42879,"is_reserved":false,"is_disabled":false,"rental_uris":{"android":"levelo://app?vid=ef7a3fc5-5253-4f4f-8a93-0f5f2ed715ec","ios":"levelo://app?vid=ef7a3fc5-5253-4f4f-8a93-0f5f2ed715ec"},"vehicle_type_id":"4","last_reported":1730135315,"current_range_meters":28800,"station_id":"ce4bhnh2rcd13ifvqgug","pricing_plan_id":"cebpf4jnsgd1na2vs0mg"},{"bike_id":"f1a2d208-76f4-438d-8713-c37978ff5020","system_id":"levelo_inurba_marseille","lat":43.32053,"lon":5.41554,"is_reserved":false,"is_disabled":false,"rental_uris":{"android":"levelo://app?vid=f1a2d208-76f4-438d-8713-c37978ff5020","ios":"levelo://app?vid=f1a2d208-76f4-438d-8713-c37978ff5020"},"vehicle_type_id":"4","last_reported":1730135315,"current_range_meters":38000,"station_id":"ce4bhq92rcd13ifvqhkg","pricing_plan_id":"cebpf4jnsgd1na2vs0mg"},{"bike_id":"104758cf-f5e2-4265-81b7-fdf6bd58152d","system_id":"levelo_inurba_marseille","lat":43.29414,"lon":5.38623,"is_reserved":false,"is_disabled":false,"rental_uris":{"android":"levelo://app?vid=104758cf-f5e2-4265-81b7-fdf6bd58152d","ios":"levelo://app?vid=104758cf-f5e2-4265-81b7-fdf6bd58152d"},"vehicle_type_id":"4","last_reported":1730135315,"current_range_meters":6400,"station_id":"ce4bh2h2rcd13ifvqdh0","pricing_plan_id":"cebpf4jnsgd1na2vs0mg"},{"bike_id":"d031d93f-7ab2-4cd4-98cf-92c95a7213d1","system_id":"levelo_inurba_marseille","lat":43.2718,"lon":5.40984,"is_reserved":false,"is_disabled":false,"rental_uris":{"android":"levelo://app?vid=d031d93f-7ab2-4cd4-98cf-92c95a7213d1","ios":"levelo://app?vid=d031d93f-7ab2-4cd4-98cf-92c95a7213d1"},"vehicle_type_id":"4","last_reported":1730135315,"current_range_meters":36000,"station_id":"ce4bhl12rcd13ifvqgf0","pricing_plan_id":"cebpf4jnsgd1na2vs0mg"},{"bike_id":"9c7522af-9933-4761-8761-819b943747b5","system_id":"levelo_inurba_marseille","lat":43.28445,"lon":5.39202,"is_reserved":false,"is_disabled":false,"rental_uris":{"android":"levelo://app?vid=9c7522af-9933-4761-8761-819b943747b5","ios":"levelo://app?vid=9c7522af-9933-4761-8761-819b943747b5"},"vehicle_type_id":"4","last_reported":1730135315,"current_range_meters":38000,"station_id":"ce4bhoh2rcd13ifvqh5g","pricing_plan_id":"cebpf4jnsgd1na2vs0mg"},{"bike_id":"9aef47f4-025c-49fe-966a-a53db44f9c2b","system_id":"levelo_inurba_marseille","lat":43.31712,"lon":5.37754,"is_reserved":false,"is_disabled":false,"rental_uris":{"android":"levelo://app?vid=9aef47f4-025c-49fe-966a-a53db44f9c2b","ios":"levelo://app?vid=9aef47f4-025c-49fe-966a-a53db44f9c2b"},"vehicle_type_id":"4","last_reported":1730135315,"current_range_meters":38400,"station_id":"ce4bgth2rcd13ifvqch0","pricing_plan_id":"cebpf4jnsgd1na2vs0mg"},{"bike_id":"907e2c12-ca4a-44dc-82e6-73f58bd53287","system_id":"levelo_inurba_marseille","lat":43.30303,"lon":5.38635,"is_reserved":false,"is_disabled":false,"rental_uris":{"android":"levelo://app?vid=907e2c12-ca4a-44dc-82e6-73f58bd53287","ios":"levelo://app?vid=907e2c12-ca4a-44dc-82e6-73f58bd53287"},"vehicle_type_id":"4","last_reported":1730135315,"current_range_meters":16000,"station_id":"","pricing_plan_id":"cebpf4jnsgd1na2vs0mg"},{"bike_id":"d93020bd-e56b-4e20-8a02-8d6d85cdbd12","system_id":"levelo_inurba_marseille","lat":43.32339,"lon":5.40624,"is_reserved":false,"is_disabled":false,"rental_uris":{"android":"levelo://app?vid=d93020bd-e56b-4e20-8a02-8d6d85cdbd12","ios":"levelo://app?vid=d93020bd-e56b-4e20-8a02-8d6d85cdbd12"},"vehicle_type_id":"4","last_reported":1730135315,"current_range_meters":2000,"station_id":"ce4bhq92rcd13ifvqhjg","pricing_plan_id":"cebpf4jnsgd1na2vs0mg"},{"bike_id":"6b0ddab7-487a-4544-9d22-4202b505edab","system_id":"levelo_inurba_marseille","lat":43.31757,"lon":5.3902,"is_reserved":false,"is_disabled":false,"rental_uris":{"android":"levelo://app?vid=6b0ddab7-487a-4544-9d22-4202b505edab","ios":"levelo://app?vid=6b0ddab7-487a-4544-9d22-4202b505edab"},"vehicle_type_id":"4","last_reported":1730135315,"current_range_meters":16400,"station_id":"ce4bhqp2rcd13ifvqhng","pricing_plan_id":"cebpf4jnsgd1na2vs0mg"},{"bike_id":"4f86fc49-4141-476c-9ca7-955efe822517","system_id":"levelo_inurba_marseille","lat":43.27171,"lon":5.40994,"is_reserved":false,"is_disabled":false,"rental_uris":{"android":"levelo://app?vid=4f86fc49-4141-476c-9ca7-955efe822517","ios":"levelo://app?vid=4f86fc49-4141-476c-9ca7-955efe822517"},"vehicle_type_id":"4","last_reported":1730135315,"current_range_meters":40000,"station_id":"ce4bhl12rcd13ifvqgf0","pricing_plan_id":"cebpf4jnsgd1na2vs0mg"},{"bike_id":"6c3730ff-c077-43ee-989b-5ba753581295","system_id":"levelo_inurba_marseille","lat":43.2761,"lon":5.3612,"is_reserved":false,"is_disabled":false,"rental_uris":{"android":"levelo://app?vid=6c3730ff-c077-43ee-989b-5ba753581295","ios":"levelo://app?vid=6c3730ff-c077-43ee-989b-5ba753581295"},"vehicle_type_id":"4","last_reported":1730135315,"current_range_meters":12400,"station_id":"ce4bgj92rcd13ifvqbe0","pricing_plan_id":"cebpf4jnsgd1na2vs0mg"},{"bike_id":"17939a05-66af-4fc5-8363-a78f5408c31d","system_id":"levelo_inurba_marseille","lat":43.2846,"lon":5.35889,"is_reserved":false,"is_disabled":false,"rental_uris":{"android":"levelo://app?vid=17939a05-66af-4fc5-8363-a78f5408c31d","ios":"levelo://app?vid=17939a05-66af-4fc5-8363-a78f5408c31d"},"vehicle_type_id":"4","last_reported":1730135315,"current_range_meters":8800,"station_id":"ce4bhah2rcd13ifvqei0","pricing_plan_id":"cebpf4jnsgd1na2vs0mg"},{"bike_id":"e73db89b-9e80-4142-bac5-6d303574a03d","system_id":"levelo_inurba_marseille","lat":43.30416,"lon":5.41289,"is_reserved":false,"is_disabled":false,"rental_uris":{"android":"levelo://app?vid=e73db89b-9e80-4142-bac5-6d303574a03d","ios":"levelo://app?vid=e73db89b-9e80-4142-bac5-6d303574a03d"},"vehicle_type_id":"4","last_reported":1730135315,"current_range_meters":19600,"station_id":"ce4bhop2rcd13ifvqh8g","pricing_plan_id":"cebpf4jnsgd1na2vs0mg"},{"bike_id":"67434976-bbe1-45e6-8e0f-d7f12e7ab36d","system_id":"levelo_inurba_marseille","lat":43.33021,"lon":5.39051,"is_reserved":false,"is_disabled":false,"rental_uris":{"android":"levelo://app?vid=67434976-bbe1-45e6-8e0f-d7f12e7ab36d","ios":"levelo://app?vid=67434976-bbe1-45e6-8e0f-d7f12e7ab36d"},"vehicle_type_id":"4","last_reported":1730135315,"current_range_meters":38800,"station_id":"ce4bhr92rcd13ifvqhrg","pricing_plan_id":"cebpf4jnsgd1na2vs0mg"},{"bike_id":"2220a62e-ddb7-45d7-a976-d0262ecda1cb","system_id":"levelo_inurba_marseille","lat":43.23057,"lon":5.35491,"is_reserved":false,"is_disabled":false,"rental_uris":{"android":"levelo://app?vid=2220a62e-ddb7-45d7-a976-d0262ecda1cb","ios":"levelo://app?vid=2220a62e-ddb7-45d7-a976-d0262ecda1cb"},"vehicle_type_id":"4","last_reported":1730135315,"current_range_meters":5600,"station_id":"cpo3342slgdg3j2ifvpg","pricing_plan_id":"cebpf4jnsgd1na2vs0mg"},{"bike_id":"541e62cd-eff6-4e67-b567-86ee99a6b3b7","system_id":"levelo_inurba_marseille","lat":43.29617,"lon":5.3716,"is_reserved":false,"is_disabled":false,"rental_uris":{"android":"levelo://app?vid=541e62cd-eff6-4e67-b567-86ee99a6b3b7","ios":"levelo://app?vid=541e62cd-eff6-4e67-b567-86ee99a6b3b7"},"vehicle_type_id":"4","last_reported":1730135315,"current_range_meters":38800,"station_id":"ce4bgnh2rcd13ifvqc0g","pricing_plan_id":"cebpf4jnsgd1na2vs0mg"},{"bike_id":"5b47485e-3de7-4048-8cef-a5ae8de02523","system_id":"levelo_inurba_marseille","lat":43.30215,"lon":5.39468,"is_reserved":false,"is_disabled":false,"rental_uris":{"android":"levelo://app?vid=5b47485e-3de7-4048-8cef-a5ae8de02523","ios":"levelo://app?vid=5b47485e-3de7-4048-8cef-a5ae8de02523"},"vehicle_type_id":"4","last_reported":1730135315,"current_range_meters":8000,"station_id":"ce4bh0p2rcd13ifvqd70","pricing_plan_id":"cebpf4jnsgd1na2vs0mg"},{"bike_id":"300a3a7a-f82b-4c9b-8d0e-71a50766f166","system_id":"levelo_inurba_marseille","lat":43.27617,"lon":5.3611,"is_reserved":false,"is_disabled":false,"rental_uris":{"android":"levelo://app?vid=300a3a7a-f82b-4c9b-8d0e-71a50766f166","ios":"levelo://app?vid=300a3a7a-f82b-4c9b-8d0e-71a50766f166"},"vehicle_type_id":"4","last_reported":1730135315,"current_range_meters":8800,"station_id":"ce4bgj92rcd13ifvqbe0","pricing_plan_id":"cebpf4jnsgd1na2vs0mg"},{"bike_id":"d48baaf1-b99b-40a5-a2ac-dddeaafa88fa","system_id":"levelo_inurba_marseille","lat":43.29783,"lon":5.37103,"is_reserved":false,"is_disabled":false,"rental_uris":{"android":"levelo://app?vid=d48baaf1-b99b-40a5-a2ac-dddeaafa88fa","ios":"levelo://app?vid=d48baaf1-b99b-40a5-a2ac-dddeaafa88fa"},"vehicle_type_id":"4","last_reported":1730135315,"current_range_meters":4800,"station_id":"ce4bgop2rcd13ifvqc1g","pricing_plan_id":"cebpf4jnsgd1na2vs0mg"},{"bike_id":"e1a40805-d13e-46d4-bbd0-9b4c8eb56c26","system_id":"levelo_inurba_marseille","lat":43.29029,"lon":5.38647,"is_reserved":false,"is_disabled":false,"rental_uris":{"android":"levelo://app?vid=e1a40805-d13e-46d4-bbd0-9b4c8eb56c26","ios":"levelo://app?vid=e1a40805-d13e-46d4-bbd0-9b4c8eb56c26"},"vehicle_type_id":"4","last_reported":1730135315,"current_range_meters":9200,"station_id":"ce4bh4p2rcd13ifvqe0g","pricing_plan_id":"cebpf4jnsgd1na2vs0mg"},{"bike_id":"89fe6473-f123-4e9c-ab1d-ac8e9b6af0fe","system_id":"levelo_inurba_marseille","lat":43.29302,"lon":5.37457,"is_reserved":false,"is_disabled":false,"rental_uris":{"android":"levelo://app?vid=89fe6473-f123-4e9c-ab1d-ac8e9b6af0fe","ios":"levelo://app?vid=89fe6473-f123-4e9c-ab1d-ac8e9b6af0fe"},"vehicle_type_id":"4","last_reported":1730135315,"current_range_meters":20400,"station_id":"ce4bgi12rcd13ifvqb70","pricing_plan_id":"cebpf4jnsgd1na2vs0mg"},{"bike_id":"4fc1fbcb-4188-4ee8-820d-0a626e8d00ef","system_id":"levelo_inurba_marseille","lat":43.26805,"lon":5.40272,"is_reserved":false,"is_disabled":false,"rental_uris":{"android":"levelo://app?vid=4fc1fbcb-4188-4ee8-820d-0a626e8d00ef","ios":"levelo://app?vid=4fc1fbcb-4188-4ee8-820d-0a626e8d00ef"},"vehicle_type_id":"4","last_reported":1730135315,"current_range_meters":9200,"station_id":"ce501612rcd8frsf0b60","pricing_plan_id":"cebpf4jnsgd1na2vs0mg"},{"bike_id":"959126a4-10d2-40f6-9c5a-e7826683bcaa","system_id":"levelo_inurba_marseille","lat":43.28487,"lon":5.38415,"is_reserved":false,"is_disabled":false,"rental_uris":{"android":"levelo://app?vid=959126a4-10d2-40f6-9c5a-e7826683bcaa","ios":"levelo://app?vid=959126a4-10d2-40f6-9c5a-e7826683bcaa"},"vehicle_type_id":"4","last_reported":1730135315,"current_range_meters":17200,"station_id":"ce4bh512rcd13ifvqe3g","pricing_plan_id":"cebpf4jnsgd1na2vs0mg"},{"bike_id":"25bab03c-7658-43a1-b28f-12aef300d4d4","system_id":"levelo_inurba_marseille","lat":43.30133,"lon":5.38777,"is_reserved":false,"is_disabled":false,"rental_uris":{"android":"levelo://app?vid=25bab03c-7658-43a1-b28f-12aef300d4d4","ios":"levelo://app?vid=25bab03c-7658-43a1-b28f-12aef300d4d4"},"vehicle_type_id":"4","last_reported":1730135315,"current_range_meters":9600,"station_id":"ce4bghh2rcd13ifvqb60","pricing_plan_id":"cebpf4jnsgd1na2vs0mg"},{"bike_id":"fc2917dc-b389-4014-9b5d-e66def4e2151","system_id":"levelo_inurba_marseille","lat":43.31149,"lon":5.38282,"is_reserved":false,"is_disabled":false,"rental_uris":{"android":"levelo://app?vid=fc2917dc-b389-4014-9b5d-e66def4e2151","ios":"levelo://app?vid=fc2917dc-b389-4014-9b5d-e66def4e2151"},"vehicle_type_id":"4","last_reported":1730135315,"current_range_meters":19600,"station_id":"","pricing_plan_id":"cebpf4jnsgd1na2vs0mg"},{"bike_id":"f0176ec3-eeab-4f24-8863-9129d90766b9","system_id":"levelo_inurba_marseille","lat":43.337675,"lon":5.374638,"is_reserved":false,"is_disabled":false,"rental_uris":{"android":"levelo://app?vid=f0176ec3-eeab-4f24-8863-9129d90766b9","ios":"levelo://app?vid=f0176ec3-eeab-4f24-8863-9129d90766b9"},"vehicle_type_id":"4","last_reported":1730135315,"current_range_meters":35600,"station_id":"","pricing_plan_id":"cebpf4jnsgd1na2vs0mg"},{"bike_id":"77fb6cda-cca8-43cf-b70e-1dd4d6820720","system_id":"levelo_inurba_marseille","lat":43.29203,"lon":5.39328,"is_reserved":false,"is_disabled":false,"rental_uris":{"android":"levelo://app?vid=77fb6cda-cca8-43cf-b70e-1dd4d6820720","ios":"levelo://app?vid=77fb6cda-cca8-43cf-b70e-1dd4d6820720"},"vehicle_type_id":"4","last_reported":1730135315,"current_range_meters":35200,"station_id":"ce4bh192rcd13ifvqdd0","pricing_plan_id":"cebpf4jnsgd1na2vs0mg"},{"bike_id":"dedd4c5e-8d90-4a47-bbd7-995fc58b7181","system_id":"levelo_inurba_marseille","lat":43.25094,"lon":5.39518,"is_reserved":false,"is_disabled":false,"rental_uris":{"android":"levelo://app?vid=dedd4c5e-8d90-4a47-bbd7-995fc58b7181","ios":"levelo://app?vid=dedd4c5e-8d90-4a47-bbd7-995fc58b7181"},"vehicle_type_id":"4","last_reported":1730135315,"current_range_meters":38400,"station_id":"ce4bhm12rcd13ifvqgkg","pricing_plan_id":"cebpf4jnsgd1na2vs0mg"},{"bike_id":"1df9f5a5-5569-4c15-a2da-c0e4db6bf994","system_id":"levelo_inurba_marseille","lat":43.29272,"lon":5.38443,"is_reserved":false,"is_disabled":false,"rental_uris":{"android":"levelo://app?vid=1df9f5a5-5569-4c15-a2da-c0e4db6bf994","ios":"levelo://app?vid=1df9f5a5-5569-4c15-a2da-c0e4db6bf994"},"vehicle_type_id":"4","last_reported":1730135315,"current_range_meters":13600,"station_id":"ce4bh692rcd13ifvqea0","pricing_plan_id":"cebpf4jnsgd1na2vs0mg"},{"bike_id":"714ec9ee-90b8-46a5-9738-61c1e8d5f084","system_id":"levelo_inurba_marseille","lat":43.30428,"lon":5.39743,"is_reserved":false,"is_disabled":false,"rental_uris":{"android":"levelo://app?vid=714ec9ee-90b8-46a5-9738-61c1e8d5f084","ios":"levelo://app?vid=714ec9ee-90b8-46a5-9738-61c1e8d5f084"},"vehicle_type_id":"4","last_reported":1730135315,"current_range_meters":17200,"station_id":"ce4bh092rcd13ifvqd20","pricing_plan_id":"cebpf4jnsgd1na2vs0mg"},{"bike_id":"44c407e3-550a-47af-b9e0-e9ab3ecacc3e","system_id":"levelo_inurba_marseille","lat":43.27906,"lon":5.37997,"is_reserved":false,"is_disabled":false,"rental_uris":{"android":"levelo://app?vid=44c407e3-550a-47af-b9e0-e9ab3ecacc3e","ios":"levelo://app?vid=44c407e3-550a-47af-b9e0-e9ab3ecacc3e"},"vehicle_type_id":"4","last_reported":1730135315,"current_range_meters":8400,"station_id":"ce4bhf92rcd13ifvqf50","pricing_plan_id":"cebpf4jnsgd1na2vs0mg"},