{"last_updated":1745331049,"ttl":60,"version":"2.2","data":{"bikes":[{"bike_id":"4c5fcb14-cad0-46c4-a2f4-ebb93d54302c","system_id":"levelo_inurba_marseille","lat":43.28282,"lon":5.3506,"is_reserved":false,"is_disabled":false,"rental_uris":{"android":"levelo://app?vid=4c5fcb14-cad0-46c4-a2f4-ebb93d54302c","ios":"levelo://app?vid=4c5fcb14-cad0-46c4-a2f4-ebb93d54302c"},"vehicle_type_id":"4","last_reported":1745331049,"current_range_meters":2800,"station_id":"ce4bhbp2rcd13ifvqerg","pricing_plan_id":"cebpf4jnsgd1na2vs0mg"},{"bike_id":"42222e3f-59d7-45c9-a999-5b682d6c4f9c","system_id":"levelo_inurba_marseille","lat":43.2792,"lon":5.39579,"is_reserved":false,"is_disabled":false,"rental_uris":{"android":"levelo://app?vid=42222e3f-59d7-45c9-a999-5b682d6c4f9c","ios":"levelo://app?vid=42222e3f-59d7-45c9-a999-5b682d6c4f9c"},"vehicle_type_id":"4","last_reported":1745331049,"current_range_meters":3200,"station_id":"ce4bhf92rcd13ifvqf40","pricing_plan_id":"cebpf4jnsgd1na2vs0mg"},{"bike_id":"7af25138-189e-487a-95a5-f599472884f0","system_id":"levelo_inurba_marseille","lat":43.28448,"lon":5.38653,"is_reserved":false,"is_disabled":false,"rental_uris":{"android":"levelo://app?vid=7af25138-189e-487a-95a5-f599472884f0","ios":"levelo://app?vid=7af25138-189e-487a-95a5-f599472884f0"},"vehicle_type_id":"4","last_reported":1745331049,"current_range_meters":2800,"station_id":"ce4bh492rcd13ifvqdvg","pricing_plan_id":"cebpf4jnsgd1na2vs0mg"},{"bike_id":"d42da8b3-5312-4608-a60b-fef54c0c16d1","system_id":"levelo_inurba_marseille","lat":43.28073,"lon":5.39645,"is_reserved":false,"is_disabled":false,"rental_uris":{"android":"levelo://app?vid=d42da8b3-5312-4608-a60b-fef54c0c16d1","ios":"levelo://app?vid=d42da8b3-5312-4608-a60b-fef54c0c16d1"},"vehicle_type_id":"4","last_reported":1745331049,"current_range_meters":3600,"station_id":"ce4bho12rcd13ifvqh2g","pricing_plan_id":"cebpf4jnsgd1na2vs0mg"},{"bike_id":"a5e635b2-4ad6-4737-82b4-25262560f868","system_id":"levelo_inurba_marseille","lat":43.27993,"lon":5.41657,"is_reserved":false,"is_disabled":false,"rental_uris":{"android":"levelo://app?vid=a5e635b2-4ad6-4737-82b4-25262560f868","ios":"levelo://app?vid=a5e635b2-4ad6-4737-82b4-25262560f868"},"vehicle_type_id":"4","last_reported":1745331049,"current_range_meters":4000,"station_id":"ce4bho12rcd13ifvqh1g","pricing_plan_id":"cebpf4jnsgd1na2vs0mg"},{"bike_id":"67466242-4304-4d05-897c-9775259e5405","system_id":"levelo_inurba_marseille","lat":43.30285,"lon":5.36871,"is_reserved":false,"is_disabled":false,"rental_uris":{"android":"levelo://app?vid=67466242-4304-4d05-897c-9775259e5405","ios":"levelo://app?vid=67466242-4304-4d05-897c-9775259e5405"},"vehicle_type_id":"4","last_reported":1745331049,"current_range_meters":4400,"station_id":"ce4bgqh2rcd13ifvqc5g","pricing_plan_id":"cebpf4jnsgd1na2vs0mg"},{"bike_id":"08adba7b-eac3-4cfc-9923-2ccf0cc4ffef","system_id":"levelo_inurba_marseille","lat":43.24548,"lon":5.41305,"is_reserved":false,"is_disabled":false,"rental_uris":{"android":"levelo://app?vid=08adba7b-eac3-4cfc-9923-2ccf0cc4ffef","ios":"levelo://app?vid=08adba7b-eac3-4cfc-9923-2ccf0cc4ffef"},"vehicle_type_id":"4","last_reported":1745331049,"current_range_meters":4400,"station_id":"","pricing_plan_id":"cebpf4jnsgd1na2vs0mg"},{"bike_id":"9cb78838-fa40-49f8-9f8e-bb3eea88e658","system_id":"levelo_inurba_marseille","lat":43.28153,"lon":5.42643,"is_reserved":false,"is_disabled":false,"rental_uris":{"android":"levelo://app?vid=9cb78838-fa40-49f8-9f8e-bb3eea88e658","ios":"levelo://app?vid=9cb78838-fa40-49f8-9f8e-bb3eea88e658"},"vehicle_type_id":"4","last_reported":1745331049,"current_range_meters":4400,"station_id":"ce4bhnh2rcd13ifvqgug","pricing_plan_id":"cebpf4jnsgd1na2vs0mg"},{"bike_id":"13f0cf96-8c40-42eb-bc30-03be91c1565a","system_id":"levelo_inurba_marseille","lat":43.30252,"lon":5.40065,"is_reserved":false,"is_disabled":false,"rental_uris":{"android":"levelo://app?vid=13f0cf96-8c40-42eb-bc30-03be91c1565a","ios":"levelo://app?vid=13f0cf96-8c40-42eb-bc30-03be91c1565a"},"vehicle_type_id":"4","last_reported":1745331049,"current_range_meters":4400,"station_id":"ce4bgvh2rcd13ifvqcs0","pricing_plan_id":"cebpf4jnsgd1na2vs0mg"},{"bike_id":"ed34352a-4a7d-48d5-9dca-5690e4f5e932","system_id":"levelo_inurba_marseille","lat":43.28261,"lon":5.35063,"is_reserved":false,"is_disabled":false,"rental_uris":{"android":"levelo://app?vid=ed34352a-4a7d-48d5-9dca-5690e4f5e932","ios":"levelo://app?vid=ed34352a-4a7d-48d5-9dca-5690e4f5e932"},"vehicle_type_id":"4","last_reported":1745331049,"current_range_meters":4400,"station_id":"ce4bhbp2rcd13ifvqerg","pricing_plan_id":"cebpf4jnsgd1na2vs0mg"},{"bike_id":"b33f2024-0dec-4b00-b62b-c5c394e73adb","system_id":"levelo_inurba_marseille","lat":43.280492,"lon":5.400879,"is_reserved":false,"is_disabled":false,"rental_uris":{"android":"levelo://app?vid=b33f2024-0dec-4b00-b62b-c5c394e73adb","ios":"levelo://app?vid=b33f2024-0dec-4b00-b62b-c5c394e73adb"},"vehicle_type_id":"4","last_reported":1745331049,"current_range_meters":4400,"station_id":"","pricing_plan_id":"cebpf4jnsgd1na2vs0mg"},{"bike_id":"c54566e7-a73d-44b8-b4b9-077d0351ed0c","system_id":"levelo_inurba_marseille","lat":43.25929,"lon":5.40912,"is_reserved":false,"is_disabled":false,"rental_uris":{"android":"levelo://app?vid=c54566e7-a73d-44b8-b4b9-077d0351ed0c","ios":"levelo://app?vid=c54566e7-a73d-44b8-b4b9-077d0351ed0c"},"vehicle_type_id":"4","last_reported":1745331049,"current_range_meters":4800,"station_id":"ce4bhm92rcd13ifvqglg","pricing_plan_id":"cebpf4jnsgd1na2vs0mg"},{"bike_id":"6c871a57-ad7c-4e10-afb8-16245c1737d1","system_id":"levelo_inurba_marseille","lat":43.30728,"lon":5.4244,"is_reserved":false,"is_disabled":false,"rental_uris":{"android":"levelo://app?vid=6c871a57-ad7c-4e10-afb8-16245c1737d1","ios":"levelo://app?vid=6c871a57-ad7c-4e10-afb8-16245c1737d1"},"vehicle_type_id":"4","last_reported":1745331049,"current_range_meters":4800,"station_id":"st_cvj6ca6bvosntc0bfgr0","pricing_plan_id":"cebpf4jnsgd1na2vs0mg"},{"bike_id":"a0c89603-8a29-4743-b9f4-19b700e8cb95","system_id":"levelo_inurba_marseille","lat":43.25114,"lon":5.40316,"is_reserved":false,"is_disabled":false,"rental_uris":{"android":"levelo://app?vid=a0c89603-8a29-4743-b9f4-19b700e8cb95","ios":"levelo://app?vid=a0c89603-8a29-4743-b9f4-19b700e8cb95"},"vehicle_type_id":"4","last_reported":1745331049,"current_range_meters":4800,"station_id":"ce4bhlh2rcd13ifvqgig","pricing_plan_id":"cebpf4jnsgd1na2vs0mg"},{"bike_id":"0ef23631-dbd2-4c68-adc1-77243fd0c5dd","system_id":"levelo_inurba_marseille","lat":43.29274,"lon":5.38539,"is_reserved":false,"is_disabled":false,"rental_uris":{"android":"levelo://app?vid=0ef23631-dbd2-4c68-adc1-77243fd0c5dd","ios":"levelo://app?vid=0ef23631-dbd2-4c68-adc1-77243fd0c5dd"},"vehicle_type_id":"4","last_reported":1745331049,"current_range_meters":4800,"station_id":"","pricing_plan_id":"cebpf4jnsgd1na2vs0mg"},{"bike_id":"cb33acc2-5eea-45c0-9b15-8f533d6ae3df","system_id":"levelo_inurba_marseille","lat":43.28567,"lon":5.38741,"is_reserved":false,"is_disabled":false,"rental_uris":{"android":"levelo://app?vid=cb33acc2-5eea-45c0-9b15-8f533d6ae3df","ios":"levelo://app?vid=cb33acc2-5eea-45c0-9b15-8f533d6ae3df"},"vehicle_type_id":"4","last_reported":1745331049,"current_range_meters":4800,"station_id":"","pricing_plan_id":"cebpf4jnsgd1na2vs0mg"},{"bike_id":"147b4d0d-8acb-4c5b-bd48-92628ba6cef0","system_id":"levelo_inurba_marseille","lat":43.25818,"lon":5.39436,"is_reserved":false,"is_disabled":false,"rental_uris":{"android":"levelo://app?vid=147b4d0d-8acb-4c5b-bd48-92628ba6cef0","ios":"levelo://app?vid=147b4d0d-8acb-4c5b-bd48-92628ba6cef0"},"vehicle_type_id":"4","last_reported":1745331049,"current_range_meters":5600,"station_id":"ce4bhip2rcd13ifvqft0","pricing_plan_id":"cebpf4jnsgd1na2vs0mg"},{"bike_id":"18e63f0e-e0f9-4bc4-9692-7bfd826c909a","system_id":"levelo_inurba_marseille","lat":43.309075,"lon":5.371749,"is_reserved":false,"is_disabled":false,"rental_uris":{"android":"levelo://app?vid=18e63f0e-e0f9-4bc4-9692-7bfd826c909a","ios":"levelo://app?vid=18e63f0e-e0f9-4bc4-9692-7bfd826c909a"},"vehicle_type_id":"4","last_reported":1745331049,"current_range_meters":5600,"station_id":"","pricing_plan_id":"cebpf4jnsgd1na2vs0mg"},{"bike_id":"39b7ee85-9cbf-4904-a10a-75042515f95d","system_id":"levelo_inurba_marseille","lat":43.36255,"lon":5.34754,"is_reserved":false,"is_disabled":false,"rental_uris":{"android":"levelo://app?vid=39b7ee85-9cbf-4904-a10a-75042515f95d","ios":"levelo://app?vid=39b7ee85-9cbf-4904-a10a-75042515f95d"},"vehicle_type_id":"4","last_reported":1745331049,"current_range_meters":5600,"station_id":"","pricing_plan_id":"cebpf4jnsgd1na2vs0mg"},{"bike_id":"0a144b4a-fc6a-4a53-a602-5298d59f38f0","system_id":"levelo_inurba_marseille","lat":43.32112,"lon":5.41552,"is_reserved":false,"is_disabled":false,"rental_uris":{"android":"levelo://app?vid=0a144b4a-fc6a-4a53-a602-5298d59f38f0","ios":"levelo://app?vid=0a144b4a-fc6a-4a53-a602-5298d59f38f0"},"vehicle_type_id":"4","last_reported":1745331049,"current_range_meters":5600,"station_id":"","pricing_plan_id":"cebpf4jnsgd1na2vs0mg"},{"bike_id":"2cf17845-50b8-4132-b000-03dd83aadb99","system_id":"levelo_inurba_marseille","lat":43.311432,"lon":5.387372,"is_reserved":false,"is_disabled":false,"rental_uris":{"android":"levelo://app?vid=2cf17845-50b8-4132-b000-03dd83aadb99","ios":"levelo://app?vid=2cf17845-50b8-4132-b000-03dd83aadb99"},"vehicle_type_id":"4","last_reported":1745331049,"current_range_meters":5600,"station_id":"","pricing_plan_id":"cebpf4jnsgd1na2vs0mg"},{"bike_id":"99c78e02-7d3d-4833-ba83-8111b35ede79","system_id":"levelo_inurba_marseille","lat":43.2706,"lon":5.40258,"is_reserved":false,"is_disabled":false,"rental_uris":{"android":"levelo://app?vid=99c78e02-7d3d-4833-ba83-8111b35ede79","ios":"levelo://app?vid=99c78e02-7d3d-4833-ba83-8111b35ede79"},"vehicle_type_id":"4","last_reported":1745331049,"current_range_meters":12400,"station_id":"ce4bhk92rcd13ifvqgc0","pricing_plan_id":"cebpf4jnsgd1na2vs0mg"},{"bike_id":"cf7982a6-d0d0-497d-8d60-22a1fa0d17a8","system_id":"levelo_inurba_marseille","lat":43.260285,"lon":5.375495,"is_reserved":false,"is_disabled":false,"rental_uris":{"android":"levelo://app?vid=cf7982a6-d0d0-497d-8d60-22a1fa0d17a8","ios":"levelo://app?vid=cf7982a6-d0d0-497d-8d60-22a1fa0d17a8"},"vehicle_type_id":"4","last_reported":1745331049,"current_range_meters":4800,"station_id":"ce4bhgh2rcd13ifvqfa0","pricing_plan_id":"cebpf4jnsgd1na2vs0mg"},{"bike_id":"23a9aa81-9246-4c96-a363-2c9eae08ed30","system_id":"levelo_inurba_marseille","lat":43.29869,"lon":5.39731,"is_reserved":false,"is_disabled":false,"rental_uris":{"android":"levelo://app?vid=23a9aa81-9246-4c96-a363-2c9eae08ed30","ios":"levelo://app?vid=23a9aa81-9246-4c96-a363-2c9eae08ed30"},"vehicle_type_id":"4","last_reported":1745331049,"current_range_meters":6000,"station_id":"ce4bh0h2rcd13ifvqd50","pricing_plan_id":"cebpf4jnsgd1na2vs0mg"},{"bike_id":"e3fedd38-2ee5-4967-b1f3-3b62922b8acd","system_id":"levelo_inurba_marseille","lat":43.305881,"lon":5.372041,"is_reserved":false,"is_disabled":false,"rental_uris":{"android":"levelo://app?vid=e3fedd38-2ee5-4967-b1f3-3b62922b8acd","ios":"levelo://app?vid=e3fedd38-2ee5-4967-b1f3-3b62922b8acd"},"vehicle_type_id":"4","last_reported":1745331049,"current_range_meters":7200,"station_id":"ce4bgqh2rcd13ifvqc4g","pricing_plan_id":"cebpf4jnsgd1na2vs0mg"},{"bike_id":"d7b9f60e-4d70-45b9-8c3b-70ba1a384f7d","system_id":"levelo_inurba_marseille","lat":43.279952,"lon":5.416518,"is_reserved":false,"is_disabled":false,"rental_uris":{"android":"levelo://app?vid=d7b9f60e-4d70-45b9-8c3b-70ba1a384f7d","ios":"levelo://app?vid=d7b9f60e-4d70-45b9-8c3b-70ba1a384f7d"},"vehicle_type_id":"4","last_reported":1745331049,"current_range_meters":6400,"station_id":"ce4bho12rcd13ifvqh1g","pricing_plan_id":"cebpf4jnsgd1na2vs0mg"},{"bike_id":"86175367-7de6-445f-a969-3a225aea15bd","system_id":"levelo_inurba_marseille","lat":43.28284,"lon":5.35072,"is_reserved":false,"is_disabled":false,"rental_uris":{"android":"levelo://app?vid=86175367-7de6-445f-a969-3a225aea15bd","ios":"levelo://app?vid=86175367-7de6-445f-a969-3a225aea15bd"},"vehicle_type_id":"4","last_reported":1745331049,"current_range_meters":6800,"station_id":"ce4bhbp2rcd13ifvqerg","pricing_plan_id":"cebpf4jnsgd1na2vs0mg"},{"bike_id":"80349d4c-4a0e-48a3-a927-7fee52468c5c","system_id":"levelo_inurba_marseille","lat":43.323,"lon":5.36734,"is_reserved":false,"is_disabled":false,"rental_uris":{"android":"levelo://app?vid=80349d4c-4a0e-48a3-a927-7fee52468c5c","ios":"levelo://app?vid=80349d4c-4a0e-48a3-a927-7fee52468c5c"},"vehicle_type_id":"4","last_reported":1745331049,"current_range_meters":7200,"station_id":"ce4bhsh2rcd13ifvqi2g","pricing_plan_id":"cebpf4jnsgd1na2vs0mg"},{"bike_id":"bd3c1754-f5f3-4d87-8dc7-96dd2b03d4d2","system_id":"levelo_inurba_marseille","lat":43.3342,"lon":5.40053,"is_reserved":false,"is_disabled":false,"rental_uris":{"android":"levelo://app?vid=bd3c1754-f5f3-4d87-8dc7-96dd2b03d4d2","ios":"levelo://app?vid=bd3c1754-f5f3-4d87-8dc7-96dd2b03d4d2"},"vehicle_type_id":"4","last_reported":1745331049,"current_range_meters":7200,"station_id":"","pricing_plan_id":"cebpf4jnsgd1na2vs0mg"},{"bike_id":"927ebabc-1cd7-4390-b5bd-5646fe25ec01","system_id":"levelo_inurba_marseille","lat":43.29988,"lon":5.37224,"is_reserved":false,"is_disabled":false,"rental_uris":{"android":"levelo://app?vid=927ebabc-1cd7-4390-b5bd-5646fe25ec01","ios":"levelo://app?vid=927ebabc-1cd7-4390-b5bd-5646fe25ec01"},"vehicle_type_id":"4","last_reported":1745331049,"current_range_meters":7200,"station_id":"ce4bgr92rcd13ifvqc7g","pricing_plan_id":"cebpf4jnsgd1na2vs0mg"},{"bike_id":"8efd5e2b-6e99-440a-a78d-40d1c0dd2684","system_id":"levelo_inurba_marseille","lat":43.29268,"lon":5.36841,"is_reserved":false,"is_disabled":false,"rental_uris":{"android":"levelo://app?vid=8efd5e2b-6e99-440a-a78d-40d1c0dd2684","ios":"levelo://app?vid=8efd5e2b-6e99-440a-a78d-40d1c0dd2684"},"vehicle_type_id":"4","last_reported":1745331049,"current_range_meters":8000,"station_id":"ce4bhbp2rcd13ifvqesg","pricing_plan_id":"cebpf4jnsgd1na2vs0mg"},{"bike_id":"05e9d1a4-81be-4c2f-9d72-94412f78633a","system_id":"levelo_inurba_marseille","lat":43.29885,"lon":5.389,"is_reserved":false,"is_disabled":false,"rental_uris":{"android":"levelo://app?vid=05e9d1a4-81be-4c2f-9d72-94412f78633a","ios":"levelo://app?vid=05e9d1a4-81be-4c2f-9d72-94412f78633a"},"vehicle_type_id":"4","last_reported":1745331049,"current_range_meters":7200,"station_id":"ce4bh392rcd13ifvqdl0","pricing_plan_id":"cebpf4jnsgd1na2vs0mg"},{"bike_id":"ea243515-c1a1-4d7b-b38f-fbe7e5ae5d05","system_id":"levelo_inurba_marseille","lat":43.25084,"lon":5.39508,"is_reserved":false,"is_disabled":false,"rental_uris":{"android":"levelo://app?vid=ea243515-c1a1-4d7b-b38f-fbe7e5ae5d05","ios":"levelo://app?vid=ea243515-c1a1-4d7b-b38f-fbe7e5ae5d05"},"vehicle_type_id":"4","last_reported":1745331049,"current_range_meters":8000,"station_id":"ce4bhm12rcd13ifvqgkg","pricing_plan_id":"cebpf4jnsgd1na2vs0mg"},{"bike_id":"248ecfab-d211-4e90-a3f1-8b43a750d574","system_id":"levelo_inurba_marseille","lat":43.29416,"lon":5.38622,"is_reserved":false,"is_disabled":false,"rental_uris":{"android":"levelo://app?vid=248ecfab-d211-4e90-a3f1-8b43a750d574","ios":"levelo://app?vid=248ecfab-d211-4e90-a3f1-8b43a750d574"},"vehicle_type_id":"4","last_reported":1745331049,"current_range_meters":8000,"station_id":"ce4bh2h2rcd13ifvqdh0","pricing_plan_id":"cebpf4jnsgd1na2vs0mg"},{"bike_id":"e4147707-5426-4f3f-b655-c9b166be32b2","system_id":"levelo_inurba_marseille","lat":43.320443,"lon":5.415587,"is_reserved":false,"is_disabled":false,"rental_uris":{"android":"levelo://app?vid=e4147707-5426-4f3f-b655-c9b166be32b2","ios":"levelo://app?vid=e4147707-5426-4f3f-b655-c9b166be32b2"},"vehicle_type_id":"4","last_reported":1745331049,"current_range_meters":8400,"station_id":"ce4bhq92rcd13ifvqhkg","pricing_plan_id":"cebpf4jnsgd1na2vs0mg"},{"bike_id":"1c755526-7610-4241-9257-348acde561d3","system_id":"levelo_inurba_marseille","lat":43.24863,"lon":5.38211,"is_reserved":false,"is_disabled":false,"rental_uris":{"android":"levelo://app?vid=1c755526-7610-4241-9257-348acde561d3","ios":"levelo://app?vid=1c755526-7610-4241-9257-348acde561d3"},"vehicle_type_id":"4","last_reported":1745331049,"current_range_meters":8400,"station_id":"","pricing_plan_id":"cebpf4jnsgd1na2vs0mg"},{"bike_id":"69e7c2b3-7601-4b37-a9cc-81e84efa2edf","system_id":"levelo_inurba_marseille","lat":43.31166,"lon":5.38716,"is_reserved":false,"is_disabled":false,"rental_uris":{"android":"levelo://app?vid=69e7c2b3-7601-4b37-a9cc-81e84efa2edf","ios":"levelo://app?vid=69e7c2b3-7601-4b37-a9cc-81e84efa2edf"},"vehicle_type_id":"4","last_reported":1745331049,"current_range_meters":8400,"station_id":"ce4bgv12rcd13ifvqcp0","pricing_plan_id":"cebpf4jnsgd1na2vs0mg"},{"bike_id":"5bbf78c3-9ff4-43fd-addb-7db8c52f9edd","system_id":"levelo_inurba_marseille","lat":43.32366,"lon":5.38885,"is_reserved":false,"is_disabled":false,"rental_uris":{"android":"levelo://app?vid=5bbf78c3-9ff4-43fd-addb-7db8c52f9edd","ios":"levelo://app?vid=5bbf78c3-9ff4-43fd-addb-7db8c52f9edd"},"vehicle_type_id":"4","last_reported":1745331049,"current_range_meters":9200,"station_id":"ce4bhqp2rcd13ifvqhog","pricing_plan_id":"cebpf4jnsgd1na2vs0mg"},{"bike_id":"e01597b2-46dd-4257-abcf-44fdf27683a0","system_id":"levelo_inurba_marseille","lat":43.28438,"lon":5.3919,"is_reserved":false,"is_disabled":false,"rental_uris":{"android":"levelo://app?vid=e01597b2-46dd-4257-abcf-44fdf27683a0","ios":"levelo://app?vid=e01597b2-46dd-4257-abcf-44fdf27683a0"},"vehicle_type_id":"4","last_reported":1745331049,"current_range_meters":9200,"station_id":"ce4bhoh2rcd13ifvqh5g","pricing_plan_id":"cebpf4jnsgd1na2vs0mg"},{"bike_id":"3c5ece07-91a1-417f-9448-5e82426ee755","system_id":"levelo_inurba_marseille","lat":43.29538,"lon":5.39025,"is_reserved":false,"is_disabled":false,"rental_uris":{"android":"levelo://app?vid=3c5ece07-91a1-417f-9448-5e82426ee755","ios":"levelo://app?vid=3c5ece07-91a1-417f-9448-5e82426ee755"},"vehicle_type_id":"4","last_reported":1745331049,"current_range_meters":9600,"station_id":"ce4bh3p2rcd13ifvqdp0","pricing_plan_id":"cebpf4jnsgd1na2vs0mg"},{"bike_id":"b33db2e6-5705-46d2-af79-9d77c74dd86f","system_id":"levelo_inurba_marseille","lat":43.28975,"lon":5.37827,"is_reserved":false,"is_disabled":false,"rental_uris":{"android":"levelo://app?vid=b33db2e6-5705-46d2-af79-9d77c74dd86f","ios":"levelo://app?vid=b33db2e6-5705-46d2-af79-9d77c74dd86f"},"vehicle_type_id":"4","last_reported":1745331049,"current_range_meters":9200,"station_id":"ce4bh9p2rcd13ifvqed0","pricing_plan_id":"cebpf4jnsgd1na2vs0mg"},{"bike_id":"a33c556c-084d-424a-8f00-00283835337c","system_id":"levelo_inurba_marseille","lat":43.315315,"lon":5.373786,"is_reserved":false,"is_disabled":false,"rental_uris":{"android":"levelo://app?vid=a33c556c-084d-424a-8f00-00283835337c","ios":"levelo://app?vid=a33c556c-084d-424a-8f00-00283835337c"},"vehicle_type_id":"4","last_reported":1745331049,"current_range_meters":9600,"station_id":"ce4bhqp2rcd13ifvqhng","pricing_plan_id":"cebpf4jnsgd1na2vs0mg"},{"bike_id":"b826b09b-83b1-4fda-982b-167ff49cacd9","system_id":"levelo_inurba_marseille","lat":43.2827,"lon":5.35068,"is_reserved":false,"is_disabled":false,"rental_uris":{"android":"levelo://app?vid=b826b09b-83b1-4fda-982b-167ff49cacd9","ios":"levelo://app?vid=b826b09b-83b1-4fda-982b-167ff49cacd9"},"vehicle_type_id":"4","last_reported":1745331049,"current_range_meters":10000,"station_id":"ce4bhbp2rcd13ifvqerg","pricing_plan_id":"cebpf4jnsgd1na2vs0mg"},{"bike_id":"7642202d-737d-4764-830f-0ca1f8c348c6","system_id":"levelo_inurba_marseille","lat":43.308811,"lon":5.371931,"is_reserved":false,"is_disabled":false,"rental_uris":{"android":"levelo://app?vid=7642202d-737d-4764-830f-0ca1f8c348c6","ios":"levelo://app?vid=7642202d-737d-4764-830f-0ca1f8c348c6"},"vehicle_type_id":"4","last_reported":1745331049,"current_range_meters":10000,"station_id":"ce4bguh2rcd13ifvqckg","pricing_plan_id":"cebpf4jnsgd1na2vs0mg"},{"bike_id":"1aabe5c9-09ca-44d1-bb3a-8c93e9abfee7","system_id":"levelo_inurba_marseille","lat":43.32369,"lon":5.36763,"is_reserved":false,"is_disabled":false,"rental_uris":{"android":"levelo://app?vid=1aabe5c9-09ca-44d1-bb3a-8c93e9abfee7","ios":"levelo://app?vid=1aabe5c9-09ca-44d1-bb3a-8c93e9abfee7"},"vehicle_type_id":"4","last_reported":1745331049,"current_range_meters":10000,"station_id":"ce4bhsh2rcd13ifvqi2g","pricing_plan_id":"cebpf4jnsgd1na2vs0mg"},{"bike_id":"2dc4e79a-33a8-48b0-bf03-f6328f1dc1f6","system_id":"levelo_inurba_marseille","lat":43.32339,"lon":5.38914,"is_reserved":false,"is_disabled":true,"rental_uris":{"android":"levelo://app?vid=2dc4e79a-33a8-48b0-bf03-f6328f1dc1f6","ios":"levelo://app?vid=2dc4e79a-33a8-48b0-bf03-f6328f1dc1f6"},"vehicle_type_id":"4","last_reported":1745331049,"current_range_meters":10000,"station_id":"ce4bhqp2rcd13ifvqhog","pricing_plan_id":"cebpf4jnsgd1na2vs0mg"},{"bike_id":"4b0de69a-b600-4d2a-8610-6ab6fd338e09","system_id":"levelo_inurba_marseille","lat":43.2902,"lon":5.38123,"is_reserved":false,"is_disabled":false,"rental_uris":{"android":"levelo://app?vid=4b0de69a-b600-4d2a-8610-6ab6fd338e09","ios":"levelo://app?vid=4b0de69a-b600-4d2a-8610-6ab6fd338e09"},"vehicle_type_id":"4","last_reported":1745331049,"current_range_meters":9600,"station_id":"ce4bh4p2rcd13ifvqe1g","pricing_plan_id":"cebpf4jnsgd1na2vs0mg"},{"bike_id":"3cef7c6c-0e2a-44db-8429-1619495197ba","system_id":"levelo_inurba_marseille","lat":43.31123,"lon":5.37778,"is_reserved":false,"is_disabled":false,"rental_uris":{"android":"levelo://app?vid=3cef7c6c-0e2a-44db-8429-1619495197ba","ios":"levelo://app?vid=3cef7c6c-0e2a-44db-8429-1619495197ba"},"vehicle_type_id":"4","last_reported":1745331049,"current_range_meters":10000,"station_id":"ce4bgt92rcd13ifvqcg0","pricing_plan_id":"cebpf4jnsgd1na2vs0mg"},{"bike_id":"77ee9bcc-a01d-4a0a-a2b6-d0d04647bf04","system_id":"levelo_inurba_marseille","lat":43.29527,"lon":5.39399,"is_reserved":false,"is_disabled":false,"rental_uris":{"android":"levelo://app?vid=77ee9bcc-a01d-4a0a-a2b6-d0d04647bf04","ios":"levelo://app?vid=77ee9bcc-a01d-4a0a-a2b6-d0d04647bf04"},"vehicle_type_id":"4","last_reported":1745331049,"current_range_meters":9600,"station_id":"ce4bh292rcd13ifvqdf0","pricing_plan_id":"cebpf4jnsgd1na2vs0mg"},{"bike_id":"fd1a831a-6df5-46c8-8bd3-9f5728cec86e","system_id":"levelo_inurba_marseille","lat":43.2919,"lon":5.39314,"is_reserved":false,"is_disabled":false,"rental_uris":{"android":"levelo://app?vid=fd1a831a-6df5-46c8-8bd3-9f5728cec86e","ios":"levelo://app?vid=fd1a831a-6df5-46c8-8bd3-9f5728cec86e"},"vehicle_type_id":"4","last_reported":1745331049,"current_range_meters":10000,"station_id":"ce4bh192rcd13ifvqdd0","pricing_plan_id":"cebpf4jnsgd1na2vs0mg"},{"bike_id":"d40dc277-486b-4703-a9c1-cc44744501bf","system_id":"levelo_inurba_marseille","lat":43.29257,"lon":5.40897,"is_reserved":false,"is_disabled":false,"rental_uris":{"android":"levelo://app?vid=d40dc277-486b-4703-a9c1-cc44744501bf","ios":"levelo://app?vid=d40dc277-486b-4703-a9c1-cc44744501bf"},"vehicle_type_id":"4","last_reported":1745331049,"current_range_meters":10000,"station_id":"ce4bh192rcd13ifvqdc0","pricing_plan_id":"cebpf4jnsgd1na2vs0mg"},{"bike_id":"8a4d2ef0-542c-4d48-b500-1dfc6d02dc2a","system_id":"levelo_inurba_marseille","lat":43.2559,"lon":5.38228,"is_reserved":false,"is_disabled":false,"rental_uris":{"android":"levelo://app?vid=8a4d2ef0-542c-4d48-b500-1dfc6d02dc2a","ios":"levelo://app?vid=8a4d2ef0-542c-4d48-b500-1dfc6d02dc2a"},"vehicle_type_id":"4","last_reported":1745331049,"current_range_meters":10800,"station_id":"ce4bhih2rcd13ifvqfs0","pricing_plan_id":"cebpf4jnsgd1na2vs0mg"},{"bike_id":"f12a9340-28a0-497a-b762-e5c0f84b589e","system_id":"levelo_inurba_marseille","lat":43.29267,"lon":5.40899,"is_reserved":false,"is_disabled":false,"rental_uris":{"android":"levelo://app?vid=f12a9340-28a0-497a-b762-e5c0f84b589e","ios":"levelo://app?vid=f12a9340-28a0-497a-b762-e5c0f84b589e"},"vehicle_type_id":"4","last_reported":1745331049,"current_range_meters":10000,"station_id":"ce4bh192rcd13ifvqdc0","pricing_plan_id":"cebpf4jnsgd1na2vs0mg"},{"bike_id":"32e46876-2d27-4707-9030-d2829d4c112b","system_id":"levelo_inurba_marseille","lat":43.28661,"lon":5.36338,"is_reserved":false,"is_disabled":false,"rental_uris":{"android":"levelo://app?vid=32e46876-2d27-4707-9030-d2829d4c112b","ios":"levelo://app?vid=32e46876-2d27-4707-9030-d2829d4c112b"},"vehicle_type_id":"4","last_reported":1745331049,"current_range_meters":10800,"station_id":"ce4bhah2rcd13ifvqej0","pricing_plan_id":"cebpf4jnsgd1na2vs0mg"},{"bike_id":"f0dcef3b-c5ab-4755-9c1a-afb0bc9a1132","system_id":"levelo_inurba_marseille","lat":43.27911,"lon":5.38013,"is_reserved":false,"is_disabled":false,"rental_uris":{"android":"levelo://app?vid=f0dcef3b-c5ab-4755-9c1a-afb0bc9a1132","ios":"levelo://app?vid=f0dcef3b-c5ab-4755-9c1a-afb0bc9a1132"},"vehicle_type_id":"4","last_reported":1745331049,"current_range_meters":10800,"station_id":"ce4bhf92rcd13ifvqf50","pricing_plan_id":"cebpf4jnsgd1na2vs0mg"},{"bike_id":"a84123f2-3c74-47c7-9599-b60b0a208ffe","system_id":"levelo_inurba_marseille","lat":43.281599,"lon":5.426603,"is_reserved":false,"is_disabled":false,"rental_uris":{"android":"levelo://app?vid=a84123f2-3c74-47c7-9599-b60b0a208ffe","ios":"levelo://app?vid=a84123f2-3c74-47c7-9599-b60b0a208ffe"},"vehicle_type_id":"4","last_reported":1745331049,"current_range_meters":11600,"station_id":"ce4bhnh2rcd13ifvqgug","pricing_plan_id":"cebpf4jnsgd1na2vs0mg"},{"bike_id":"dce8e5d0-2d25-42a4-8de4-d2d1b667325c","system_id":"levelo_inurba_marseille","lat":43.32478,"lon":5.40933,"is_reserved":false,"is_disabled":false,"rental_uris":{"android":"levelo://app?vid=dce8e5d0-2d25-42a4-8de4-d2d1b667325c","ios":"levelo://app?vid=dce8e5d0-2d25-42a4-8de4-d2d1b667325c"},"vehicle_type_id":"4","last_reported":1745331049,"current_range_meters":11200,"station_id":"","pricing_plan_id":"cebpf4jnsgd1na2vs0mg"},{"bike_id":"e6990bb6-6756-4cff-8ff4-7d0288f9f28c","system_id":"levelo_inurba_marseille","lat":43.30538,"lon":5.36535,"is_reserved":false,"is_disabled":false,"rental_uris":{"android":"levelo://app?vid=e6990bb6-6756-4cff-8ff4-7d0288f9f28c","ios":"levelo://app?vid=e6990bb6-6756-4cff-8ff4-7d0288f9f28c"},"vehicle_type_id":"4","last_reported":1745331049,"current_range_meters":11200,"station_id":"ce4bgs12rcd13ifvqcag","pricing_plan_id":"cebpf4jnsgd1na2vs0mg"},{"bike_id":"8f9580ae-97f1-4e97-af77-d3225428ef41","system_id":"levelo_inurba_marseille","lat":43.28257,"lon":5.35071,"is_reserved":false,"is_disabled":false,"rental_uris":{"android":"levelo://app?vid=8f9580ae-97f1-4e97-af77-d3225428ef41","ios":"levelo://app?vid=8f9580ae-97f1-4e97-af77-d3225428ef41"},"vehicle_type_id":"4","last_reported":1745331049,"current_range_meters":11200,"station_id":"ce4bhbp2rcd13ifvqerg","pricing_plan_id":"cebpf4jnsgd1na2vs0mg"},{"bike_id":"b5196a5a-cdb7-47ac-a3da-18a383fcaf11","system_id":"levelo_inurba_marseille","lat":43.28728,"lon":5.37939,"is_reserved":false,"is_disabled":false,"rental_uris":{"android":"levelo://app?vid=b5196a5a-cdb7-47ac-a3da-18a383fcaf11","ios":"levelo://app?vid=b5196a5a-cdb7-47ac-a3da-18a383fcaf11"},"vehicle_type_id":"4","last_reported":1745331049,"current_range_meters":10800,"station_id":"ce4bh9p2rcd13ifvqec0","pricing_plan_id":"cebpf4jnsgd1na2vs0mg"},{"bike_id":"615c6418-249d-4b89-9b9d-4239ab73dfbf","system_id":"levelo_inurba_marseille","lat":43.25865,"lon":5.39885,"is_reserved":false,"is_disabled":false,"rental_uris":{"android":"levelo://app?vid=615c6418-249d-4b89-9b9d-4239ab73dfbf","ios":"levelo://app?vid=615c6418-249d-4b89-9b9d-4239ab73dfbf"},"vehicle_type_id":"4","last_reported":1745331049,"current_range_meters":11600,"station_id":"ce4bhl92rcd13ifvqghg","pricing_plan_id":"cebpf4jnsgd1na2vs0mg"},{"bike_id":"26f2198e-4139-4354-bd77-0a06e9b2eb50","system_id":"levelo_inurba_marseille","lat":43.28062,"lon":5.36953,"is_reserved":false,"is_disabled":false,"rental_uris":{"android":"levelo://app?vid=26f2198e-4139-4354-bd77-0a06e9b2eb50","ios":"levelo://app?vid=26f2198e-4139-4354-bd77-0a06e9b2eb50"},"vehicle_type_id":"4","last_reported":1745331049,"current_range_meters":11600,"station_id":"ce4bha12rcd13ifvqef0","pricing_plan_id":"cebpf4jnsgd1na2vs0mg"},{"bike_id":"a73fdc58-4a72-48ec-b137-00bab8e1fd3b","system_id":"levelo_inurba_marseille","lat":43.28156,"lon":5.42639,"is_reserved":false,"is_disabled":false,"rental_uris":{"android":"levelo://app?vid=a73fdc58-4a72-48ec-b137-00bab8e1fd3b","ios":"levelo://app?vid=a73fdc58-4a72-48ec-b137-00bab8e1fd3b"},"vehicle_type_id":"4","last_reported":1745331049,"current_range_meters":11600,"station_id":"ce4bhnh2rcd13ifvqgug","pricing_plan_id":"cebpf4jnsgd1na2vs0mg"},{"bike_id":"80da3141-7c3b-46b6-aeb9-5227550bdb34","system_id":"levelo_inurba_marseille","lat":43.29541,"lon":5.38544,"is_reserved":false,"is_disabled":false,"rental_uris":{"android":"levelo://app?vid=80da3141-7c3b-46b6-aeb9-5227550bdb34","ios":"levelo://app?vid=80da3141-7c3b-46b6-aeb9-5227550bdb34"},"vehicle_type_id":"4","last_reported":1745331049,"current_range_meters":12000,"station_id":"ce4bgih2rcd13ifvqba0","pricing_plan_id":"cebpf4jnsgd1na2vs0mg"},{"bike_id":"47768a28-4fff-4fc1-b4c4-b5ec8d452deb","system_id":"levelo_inurba_marseille","lat":43.29601,"lon":5.38103,"is_reserved":false,"is_disabled":true,"rental_uris":{"android":"levelo://app?vid=47768a28-4fff-4fc1-b4c4-b5ec8d452deb","ios":"levelo://app?vid=47768a28-4fff-4fc1-b4c4-b5ec8d452deb"},"vehicle_type_id":"4","last_reported":1745331049,"current_range_meters":12000,"station_id":"ce4bgl12rcd13ifvqbo0","pricing_plan_id":"cebpf4jnsgd1na2vs0mg"},{"bike_id":"f462c3cf-a1f2-40b4-9ef3-016452d75cec","system_id":"levelo_inurba_marseille","lat":43.23053,"lon":5.35493,"is_reserved":false,"is_disabled":false,"rental_uris":{"android":"levelo://app?vid=f462c3cf-a1f2-40b4-9ef3-016452d75cec","ios":"levelo://app?vid=f462c3cf-a1f2-40b4-9ef3-016452d75cec"},"vehicle_type_id":"4","last_reported":1745331049,"current_range_meters":12000,"station_id":"","pricing_plan_id":"cebpf4jnsgd1na2vs0mg"},{"bike_id":"f1300840-291d-4ece-a09c-172514b0678c","system_id":"levelo_inurba_marseille","lat":43.29462,"lon":5.39762,"is_reserved":false,"is_disabled":true,"rental_uris":{"android":"levelo://app?vid=f1300840-291d-4ece-a09c-172514b0678c","ios":"levelo://app?vid=f1300840-291d-4ece-a09c-172514b0678c"},"vehicle_type_id":"4","last_reported":1745331049,"current_range_meters":12400,"station_id":"ce4bh3h2rcd13ifvqdo0","pricing_plan_id":"cebpf4jnsgd1na2vs0mg"},{"bike_id":"29ef1e38-7654-4941-9ec4-901a0e173adb","system_id":"levelo_inurba_marseille","lat":43.27946,"lon":5.41048,"is_reserved":false,"is_disabled":false,"rental_uris":{"android":"levelo://app?vid=29ef1e38-7654-4941-9ec4-901a0e173adb","ios":"levelo://app?vid=29ef1e38-7654-4941-9ec4-901a0e173adb"},"vehicle_type_id":"4","last_reported":1745331049,"current_range_meters":12400,"station_id":"ce4bhnp2rcd13ifvqh0g","pricing_plan_id":"cebpf4jnsgd1na2vs0mg"},{"bike_id":"d3cc4382-1cdf-483f-b52a-3f792d083520","system_id":"levelo_inurba_marseille","lat":43.27999,"lon":5.40009,"is_reserved":false,"is_disabled":false,"rental_uris":{"android":"levelo://app?vid=d3cc4382-1cdf-483f-b52a-3f792d083520","ios":"levelo://app?vid=d3cc4382-1cdf-483f-b52a-3f792d083520"},"vehicle_type_id":"4","last_reported":1745331049,"current_range_meters":12400,"station_id":"ce4bho92rcd13ifvqh4g","pricing_plan_id":"cebpf4jnsgd1na2vs0mg"},{"bike_id":"2429dfbf-fda6-4b23-9304-113d00ccf469","system_id":"levelo_inurba_marseille","lat":43.2826,"lon":5.35074,"is_reserved":false,"is_disabled":false,"rental_uris":{"android":"levelo://app?vid=2429dfbf-fda6-4b23-9304-113d00ccf469","ios":"levelo://app?vid=2429dfbf-fda6-4b23-9304-113d00ccf469"},"vehicle_type_id":"4","last_reported":1745331049,"current_range_meters":12000,"station_id":"ce4bhbp2rcd13ifvqerg","pricing_plan_id":"cebpf4jnsgd1na2vs0mg"},{"bike_id":"1070ac26-8ed7-4356-8c91-07ad1786e6d7","system_id":"levelo_inurba_marseille","lat":43.28262,"lon":5.35079,"is_reserved":false,"is_disabled":false,"rental_uris":{"android":"levelo://app?vid=1070ac26-8ed7-4356-8c91-07ad1786e6d7","ios":"levelo://app?vid=1070ac26-8ed7-4356-8c91-07ad1786e6d7"},"vehicle_type_id":"4","last_reported":1745331049,"current_range_meters":12400,"station_id":"ce4bhbp2rcd13ifvqerg","pricing_plan_id":"cebpf4jnsgd1na2vs0mg"},{"bike_id":"e18ec0b6-a131-43b6-949a-e1cadf1381e5","system_id":"levelo_inurba_marseille","lat":43.29552,"lon":5.4229,"is_reserved":false,"is_disabled":false,"rental_uris":{"android":"levelo://app?vid=e18ec0b6-a131-43b6-949a-e1cadf1381e5","ios":"levelo://app?vid=e18ec0b6-a131-43b6-949a-e1cadf1381e5"},"vehicle_type_id":"4","last_reported":1745331049,"current_range_meters":12000,"station_id":"ce4bhph2rcd13ifvqhdg","pricing_plan_id":"cebpf4jnsgd1na2vs0mg"},{"bike_id":"f25d8672-7640-4033-8cc4-f80944c4dd44","system_id":"levelo_inurba_marseille","lat":43.2723,"lon":5.40104,"is_reserved":false,"is_disabled":false,"rental_uris":{"android":"levelo://app?vid=f25d8672-7640-4033-8cc4-f80944c4dd44","ios":"levelo://app?vid=f25d8672-7640-4033-8cc4-f80944c4dd44"},"vehicle_type_id":"4","last_reported":1745331049,"current_range_meters":12800,"station_id":"","pricing_plan_id":"cebpf4jnsgd1na2vs0mg"},{"bike_id":"889080dd-a60d-487f-b704-c1dac29acd9e","system_id":"levelo_inurba_marseille","lat":43.28428,"lon":5.39175,"is_reserved":false,"is_disabled":false,"rental_uris":{"android":"levelo://app?vid=889080dd-a60d-487f-b704-c1dac29acd9e","ios":"levelo://app?vid=889080dd-a60d-487f-b704-c1dac29acd9e"},"vehicle_type_id":"4","last_reported":1745331049,"current_range_meters":12800,"station_id":"ce4bhoh2rcd13ifvqh5g","pricing_plan_id":"cebpf4jnsgd1na2vs0mg"},{"bike_id":"a756bae3-49c1-4d6c-89e8-fcb7b0e7d2e2","system_id":"levelo_inurba_marseille","lat":43.29035,"lon":5.3592,"is_reserved":false,"is_disabled":true,"rental_uris":{"android":"levelo://app?vid=a756bae3-49c1-4d6c-89e8-fcb7b0e7d2e2","ios":"levelo://app?vid=a756bae3-49c1-4d6c-89e8-fcb7b0e7d2e2"},"vehicle_type_id":"4","last_reported":1745331049,"current_range_meters":12800,"station_id":"ce4bha92rcd13ifvqeg0","pricing_plan_id":"cebpf4jnsgd1na2vs0mg"},{"bike_id":"77cd9322-d0ea-4529-914a-71d2b1dcb41d","system_id":"levelo_inurba_marseille","lat":43.300572,"lon":5.397566,"is_reserved":false,"is_disabled":false,"rental_uris":{"android":"levelo://app?vid=77cd9322-d0ea-4529-914a-71d2b1dcb41d","ios":"levelo://app?vid=77cd9322-d0ea-4529-914a-71d2b1dcb41d"},"vehicle_type_id":"4","last_reported":1745331049,"current_range_meters":12800,"station_id":"ce4bh0p2rcd13ifvqd80","pricing_plan_id":"cebpf4jnsgd1na2vs0mg"},{"bike_id":"41cd4d50-3bdd-4fa7-b5d1-d715f5a540e6","system_id":"levelo_inurba_marseille","lat":43.32358,"lon":5.36772,"is_reserved":false,"is_disabled":false,"rental_uris":{"android":"levelo://app?vid=41cd4d50-3bdd-4fa7-b5d1-d715f5a540e6","ios":"levelo://app?vid=41cd4d50-3bdd-4fa7-b5d1-d715f5a540e6"},"vehicle_type_id":"4","last_reported":1745331049,"current_range_meters":12800,"station_id":"ce4bhsh2rcd13ifvqi2g","pricing_plan_id":"cebpf4jnsgd1na2vs0mg"},{"bike_id":"e16292a6-1b40-4a03-b831-771024fe1200","system_id":"levelo_inurba_marseille","lat":43.295288,"lon":5.385371,"is_reserved":false,"is_disabled":false,"rental_uris":{"android":"levelo://app?vid=e16292a6-1b40-4a03-b831-771024fe1200","ios":"levelo://app?vid=e16292a6-1b40-4a03-b831-771024fe1200"},"vehicle_type_id":"4","last_reported":1745331049,"current_range_meters":13600,"station_id":"ce4bgih2rcd13ifvqba0","pricing_plan_id":"cebpf4jnsgd1na2vs0mg"},{"bike_id":"c4e4f957-5093-4dc6-8ffb-2449a5c2ae92","system_id":"levelo_inurba_marseille","lat":43.30422,"lon":5.41271,"is_reserved":false,"is_disabled":false,"rental_uris":{"android":"levelo://app?vid=c4e4f957-5093-4dc6-8ffb-2449a5c2ae92","ios":"levelo://app?vid=c4e4f957-5093-4dc6-8ffb-2449a5c2ae92"},"vehicle_type_id":"4","last_reported":1745331049,"current_range_meters":12800,"station_id":"ce4bhop2rcd13ifvqh8g","pricing_plan_id":"cebpf4jnsgd1na2vs0mg"},{"bike_id":"633b8b80-efa6-4d54-af6b-15fac248dc62","system_id":"levelo_inurba_marseille","lat":43.30542,"lon":5.36525,"is_reserved":false,"is_disabled":false,"rental_uris":{"android":"levelo://app?vid=633b8b80-efa6-4d54-af6b-15fac248dc62","ios":"levelo://app?vid=633b8b80-efa6-4d54-af6b-15fac248dc62"},"vehicle_type_id":"4","last_reported":1745331049,"current_range_meters":13600,"station_id":"ce4bgs12rcd13ifvqcag","pricing_plan_id":"cebpf4jnsgd1na2vs0mg"},{"bike_id":"8727c17d-4be4-4e9b-805c-cd9c90bfef0f","system_id":"levelo_inurba_marseille","lat":43.29269,"lon":5.38445,"is_reserved":false,"is_disabled":false,"rental_uris":{"android":"levelo://app?vid=8727c17d-4be4-4e9b-805c-cd9c90bfef0f","ios":"levelo://app?vid=8727c17d-4be4-4e9b-805c-cd9c90bfef0f"},"vehicle_type_id":"4","last_reported":1745331049,"current_range_meters":13600,"station_id":"ce4bh692rcd13ifvqea0","pricing_plan_id":"cebpf4jnsgd1na2vs0mg"},{"bike_id":"d5fa6a7e-ae6f-48cd-8dc8-6ec1473fc099","system_id":"levelo_inurba_marseille","lat":43.313777,"lon":5.367157,"is_reserved":false,"is_disabled":true,"rental_uris":{"android":"levelo://app?vid=d5fa6a7e-ae6f-48cd-8dc8-6ec1473fc099","ios":"levelo://app?vid=d5fa6a7e-ae6f-48cd-8dc8-6ec1473fc099"},"vehicle_type_id":"4","last_reported":1745331049,"current_range_meters":14000,"station_id":"ce4bgr92rcd13ifvqc6g","pricing_plan_id":"cebpf4jnsgd1na2vs0mg"},{"bike_id":"8068c5fe-d2d9-4217-8bcb-6f4fdd70ccc3","system_id":"levelo_inurba_marseille","lat":43.27063,"lon":5.40248,"is_reserved":false,"is_disabled":false,"rental_uris":{"android":"levelo://app?vid=8068c5fe-d2d9-4217-8bcb-6f4fdd70ccc3","ios":"levelo://app?vid=8068c5fe-d2d9-4217-8bcb-6f4fdd70ccc3"},"vehicle_type_id":"4","last_reported":1745331049,"current_range_meters":14400,"station_id":"ce4bhk92rcd13ifvqgc0","pricing_plan_id":"cebpf4jnsgd1na2vs0mg"},{"bike_id":"703d36b4-a767-42f2-b169-c9f7ab3e9960","system_id":"levelo_inurba_marseille","lat":43.2315,"lon":5.43705,"is_reserved":false,"is_disabled":false,"rental_uris":{"android":"levelo://app?vid=703d36b4-a767-42f2-b169-c9f7ab3e9960","ios":"levelo://app?vid=703d36b4-a767-42f2-b169-c9f7ab3e9960"},"vehicle_type_id":"4","last_reported":1745331049,"current_range_meters":14400,"station_id":"ce4bhmp2rcd13ifvqgog","pricing_plan_id":"cebpf4jnsgd1na2vs0mg"},{"bike_id":"5be8a4d0-4e04-454e-9712-1b8d0155803d","system_id":"levelo_inurba_marseille","lat":43.308902,"lon":5.396513,"is_reserved":false,"is_disabled":false,"rental_uris":{"android":"levelo://app?vid=5be8a4d0-4e04-454e-9712-1b8d0155803d","ios":"levelo://app?vid=5be8a4d0-4e04-454e-9712-1b8d0155803d"},"vehicle_type_id":"4","last_reported":1745331049,"current_range_meters":14400,"station_id":"ce4bh012rcd13ifvqcv0","pricing_plan_id":"cebpf4jnsgd1na2vs0mg"},{"bike_id":"6621aba9-34af-42b8-a6bb-29d0168b1c54","system_id":"levelo_inurba_marseille","lat":43.30401,"lon":5.41318,"is_reserved":false,"is_disabled":false,"rental_uris":{"android":"levelo://app?vid=6621aba9-34af-42b8-a6bb-29d0168b1c54","ios":"levelo://app?vid=6621aba9-34af-42b8-a6bb-29d0168b1c54"},"vehicle_type_id":"4","last_reported":1745331049,"current_range_meters":14400,"station_id":"ce4bhop2rcd13ifvqh8g","pricing_plan_id":"cebpf4jnsgd1na2vs0mg"},{"bike_id":"a634f3bf-af6c-4d3c-8f43-d75bbb1dc2c8","system_id":"levelo_inurba_marseille","lat":43.28849,"lon":5.39316,"is_reserved":false,"is_disabled":false,"rental_uris":{"android":"levelo://app?vid=a634f3bf-af6c-4d3c-8f43-d75bbb1dc2c8","ios":"levelo://app?vid=a634f3bf-af6c-4d3c-8f43-d75bbb1dc2c8"},"vehicle_type_id":"4","last_reported":1745331049,"current_range_meters":14400,"station_id":"ce4bh2p2rcd13ifvqdi0","pricing_plan_id":"cebpf4jnsgd1na2vs0mg"},{"bike_id":"0f30cab8-d884-40c4-90cd-93eef5409e67","system_id":"levelo_inurba_marseille","lat":43.27372,"lon":5.36257,"is_reserved":false,"is_disabled":false,"rental_uris":{"android":"levelo://app?vid=0f30cab8-d884-40c4-90cd-93eef5409e67","ios":"levelo://app?vid=0f30cab8-d884-40c4-90cd-93eef5409e67"},"vehicle_type_id":"4","last_reported":1745331049,"current_range_meters":14400,"station_id":"ce4bhbh2rcd13ifvqeo0","pricing_plan_id":"cebpf4jnsgd1na2vs0mg"},{"bike_id":"245a54c6-bf69-4bae-bcaf-0ac4626c3613","system_id":"levelo_inurba_marseille","lat":43.29542,"lon":5.39384,"is_reserved":false,"is_disabled":false,"rental_uris":{"android":"levelo://app?vid=245a54c6-bf69-4bae-bcaf-0ac4626c3613","ios":"levelo://app?vid=245a54c6-bf69-4bae-bcaf-0ac4626c3613"},"vehicle_type_id":"4","last_reported":1745331049,"current_range_meters":14800,"station_id":"ce4bh292rcd13ifvqdf0","pricing_plan_id":"cebpf4jnsgd1na2vs0mg"},{"bike_id":"fe0eecf5-f61e-47a0-83b2-15897c5d280f","system_id":"levelo_inurba_marseille","lat":43.26229,"lon":5.40448,"is_reserved":false,"is_disabled":false,"rental_uris":{"android":"levelo://app?vid=fe0eecf5-f61e-47a0-83b2-15897c5d280f","ios":"levelo://app?vid=fe0eecf5-f61e-47a0-83b2-15897c5d280f"},"vehicle_type_id":"4","last_reported":1745331049,"current_range_meters":14800,"station_id":"ce4bhmh2rcd13ifvqgmg","pricing_plan_id":"cebpf4jnsgd1na2vs0mg"},{"bike_id":"51066d16-12eb-481c-8aed-d5bf284340aa","system_id":"levelo_inurba_marseille","lat":43.297658,"lon":5.363567,"is_reserved":false,"is_disabled":false,"rental_uris":{"android":"levelo://app?vid=51066d16-12eb-481c-8aed-d5bf284340aa","ios":"levelo://app?vid=51066d16-12eb-481c-8aed-d5bf284340aa"},"vehicle_type_id":"4","last_reported":1745331049,"current_range_meters":14800,"station_id":"ce4bgpp2rcd13ifvqc3g","pricing_plan_id":"cebpf4jnsgd1na2vs0mg"},{"bike_id":"6b4a8849-67c5-408c-8001-75a38565ba5a","system_id":"levelo_inurba_marseille","lat":43.29591,"lon":5.36729,"is_reserved":false,"is_disabled":false,"rental_uris":{"android":"levelo://app?vid=6b4a8849-67c5-408c-8001-75a38565ba5a","ios":"levelo://app?vid=6b4a8849-67c5-408c-8001-75a38565ba5a"},"vehicle_type_id":"4","last_reported":1745331049,"current_range_meters":14800,"station_id":"ce4bgph2rcd13ifvqc2g","pricing_plan_id":"cebpf4jnsgd1na2vs0mg"},{"bike_id":"aed43768-d518-48ec-a163-3b9cbf4af7f5","system_id":"levelo_inurba_marseille","lat":43.24078,"lon":5.37754,"is_reserved":false,"is_disabled":false,"rental_uris":{"android":"levelo://app?vid=aed43768-d518-48ec-a163-3b9cbf4af7f5","ios":"levelo://app?vid=aed43768-d518-48ec-a163-3b9cbf4af7f5"},"vehicle_type_id":"4","last_reported":1745331049,"current_range_meters":14800,"station_id":"ce4bhnp2rcd13ifvqgvg","pricing_plan_id":"cebpf4jnsgd1na2vs0mg"},{"bike_id":"afc1a72d-f3cd-4039-8f8e-8907957e6ee0","system_id":"levelo_inurba_marseille","lat":43.28399,"lon":5.3749,"is_reserved":false,"is_disabled":false,"rental_uris":{"android":"levelo://app?vid=afc1a72d-f3cd-4039-8f8e-8907957e6ee0","ios":"levelo://app?vid=afc1a72d-f3cd-4039-8f8e-8907957e6ee0"},"vehicle_type_id":"4","last_reported":1745331049,"current_range_meters":15200,"station_id":"ce4bh412rcd13ifvqds0","pricing_plan_id":"cebpf4jnsgd1na2vs0mg"},{"bike_id":"feee6f0d-1be5-41b2-a9bf-6894f72f25ef","system_id":"levelo_inurba_marseille","lat":43.29256,"lon":5.40907,"is_reserved":false,"is_disabled":false,"rental_uris":{"android":"levelo://app?vid=feee6f0d-1be5-41b2-a9bf-6894f72f25ef","ios":"levelo://app?vid=feee6f0d-1be5-41b2-a9bf-6894f72f25ef"},"vehicle_type_id":"4","last_reported":1745331049,"current_range_meters":15200,"station_id":"ce4bh192rcd13ifvqdc0","pricing_plan_id":"cebpf4jnsgd1na2vs0mg"},{"bike_id":"bfae20da-3f72-4ccb-98fb-8aabd3108edc","system_id":"levelo_inurba_marseille","lat":43.324929,"lon":5.365589,"is_reserved":false,"is_disabled":false,"rental_uris":{"android":"levelo://app?vid=bfae20da-3f72-4ccb-98fb-8aabd3108edc","ios":"levelo://app?vid=bfae20da-3f72-4ccb-98fb-8aabd3108edc"},"vehicle_type_id":"4","last_reported":1745331049,"current_range_meters":16400,"station_id":"ce4bhs12rcd13ifvqhvg","pricing_plan_id":"cebpf4jnsgd1na2vs0mg"},{"bike_id":"48939965-4329-495f-a3f1-b5cf562d2ecf","system_id":"levelo_inurba_marseille","lat":43.30657,"lon":5.4008,"is_reserved":false,"is_disabled":true,"rental_uris":{"android":"levelo://app?vid=48939965-4329-495f-a3f1-b5cf562d2ecf","ios":"levelo://app?vid=48939965-4329-495f-a3f1-b5cf562d2ecf"},"vehicle_type_id":"4","last_reported":1745331049,"current_range_meters":16400,"station_id":"ce4bh112rcd13ifvqda0","pricing_plan_id":"cebpf4jnsgd1na2vs0mg"},{"bike_id":"50b3021a-0da7-4377-ad70-6f416a035de4","system_id":"levelo_inurba_marseille","lat":43.29442,"lon":5.39737,"is_reserved":false,"is_disabled":false,"rental_uris":{"android":"levelo://app?vid=50b3021a-0da7-4377-ad70-6f416a035de4","ios":"levelo://app?vid=50b3021a-0da7-4377-ad70-6f416a035de4"},"vehicle_type_id":"4","last_reported":1745331049,"current_range_meters":16000,"station_id":"ce4bh3h2rcd13ifvqdo0","pricing_plan_id":"cebpf4jnsgd1na2vs0mg"},{"bike_id":"94656c64-8db1-475d-872f-6dab9b0b963f","system_id":"levelo_inurba_marseille","lat":43.29028,"lon":5.38642,"is_reserved":false,"is_disabled":false,"rental_uris":{"android":"levelo://app?vid=94656c64-8db1-475d-872f-6dab9b0b963f","ios":"levelo://app?vid=94656c64-8db1-475d-872f-6dab9b0b963f"},"vehicle_type_id":"4","last_reported":1745331049,"current_range_meters":16400,"station_id":"ce4bh4p2rcd13ifvqe0g","pricing_plan_id":"cebpf4jnsgd1na2vs0mg"},{"bike_id":"ae864d92-4620-451b-be7a-27e64f99590a","system_id":"levelo_inurba_marseille","lat":43.286304,"lon":5.370616,"is_reserved":false,"is_disabled":false,"rental_uris":{"android":"levelo://app?vid=ae864d92-4620-451b-be7a-27e64f99590a","ios":"levelo://app?vid=ae864d92-4620-451b-be7a-27e64f99590a"},"vehicle_type_id":"4","last_reported":1745331049,"current_range_meters":16800,"station_id":"ce4bht12rcd13ifvqi60","pricing_plan_id":"cebpf4jnsgd1na2vs0mg"},{"bike_id":"abd226a8-d003-4133-b9d2-b7c952b7ead1","system_id":"levelo_inurba_marseille","lat":43.230567,"lon":5.354928,"is_reserved":false,"is_disabled":false,"rental_uris":{"android":"levelo://app?vid=abd226a8-d003-4133-b9d2-b7c952b7ead1","ios":"levelo://app?vid=abd226a8-d003-4133-b9d2-b7c952b7ead1"},"vehicle_type_id":"4","last_reported":1745331049,"current_range_meters":16800,"station_id":"cpo3342slgdg3j2ifvpg","pricing_plan_id":"cebpf4jnsgd1na2vs0mg"},{"bike_id":"366b7b97-2f9a-441f-909d-732cbe29fe31","system_id":"levelo_inurba_marseille","lat":43.23141,"lon":5.40122,"is_reserved":false,"is_disabled":false,"rental_uris":{"android":"levelo://app?vid=366b7b97-2f9a-441f-909d-732cbe29fe31","ios":"levelo://app?vid=366b7b97-2f9a-441f-909d-732cbe29fe31"},"vehicle_type_id":"4","last_reported":1745331049,"current_range_meters":16800,"station_id":"ce4bhn12rcd13ifvqgqg","pricing_plan_id":"cebpf4jnsgd1na2vs0mg"},{"bike_id":"98176d01-c4bf-4fdf-83d6-6aa3ea2e2a6a","system_id":"levelo_inurba_marseille","lat":43.314538,"lon":5.370493,"is_reserved":false,"is_disabled":false,"rental_uris":{"android":"levelo://app?vid=98176d01-c4bf-4fdf-83d6-6aa3ea2e2a6a","ios":"levelo://app?vid=98176d01-c4bf-4fdf-83d6-6aa3ea2e2a6a"},"vehicle_type_id":"4","last_reported":1745331049,"current_range_meters":17200,"station_id":"","pricing_plan_id":"cebpf4jnsgd1na2vs0mg"},{"bike_id":"91338313-9274-4872-aacc-ed7b6f5b1217","system_id":"levelo_inurba_marseille","lat":43.27182,"lon":5.40998,"is_reserved":false,"is_disabled":false,"rental_uris":{"android":"levelo://app?vid=91338313-9274-4872-aacc-ed7b6f5b1217","ios":"levelo://app?vid=91338313-9274-4872-aacc-ed7b6f5b1217"},"vehicle_type_id":"4","last_reported":1745331049,"current_range_meters":17200,"station_id":"ce4bhl12rcd13ifvqgf0","pricing_plan_id":"cebpf4jnsgd1na2vs0mg"},{"bike_id":"7b2dc864-a4e9-468c-9cee-f3075a20977d","system_id":"levelo_inurba_marseille","lat":43.31463,"lon":5.37361,"is_reserved":false,"is_disabled":false,"rental_uris":{"android":"levelo://app?vid=7b2dc864-a4e9-468c-9cee-f3075a20977d","ios":"levelo://app?vid=7b2dc864-a4e9-468c-9cee-f3075a20977d"},"vehicle_type_id":"4","last_reported":1745331049,"current_range_meters":17200,"station_id":"ce4bgt12rcd13ifvqcd0","pricing_plan_id":"cebpf4jnsgd1na2vs0mg"},{"bike_id":"d80812ef-5663-44b9-84fe-bfbcd6d2144e","system_id":"levelo_inurba_marseille","lat":43.297172,"lon":5.362623,"is_reserved":false,"is_disabled":false,"rental_uris":{"android":"levelo://app?vid=d80812ef-5663-44b9-84fe-bfbcd6d2144e","ios":"levelo://app?vid=d80812ef-5663-44b9-84fe-bfbcd6d2144e"},"vehicle_type_id":"4","last_reported":1745331049,"current_range_meters":17200,"station_id":"ce4bgpp2rcd13ifvqc3g","pricing_plan_id":"cebpf4jnsgd1na2vs0mg"},{"bike_id":"cee962ec-56f6-406e-a7d7-4ea49f1579ef","system_id":"levelo_inurba_marseille","lat":43.30878,"lon":5.37191,"is_reserved":false,"is_disabled":false,"rental_uris":{"android":"levelo://app?vid=cee962ec-56f6-406e-a7d7-4ea49f1579ef","ios":"levelo://app?vid=cee962ec-56f6-406e-a7d7-4ea49f1579ef"},"vehicle_type_id":"4","last_reported":1745331049,"current_range_meters":17200,"station_id":"ce4bguh2rcd13ifvqckg","pricing_plan_id":"cebpf4jnsgd1na2vs0mg"},{"bike_id":"53c474a9-3d3d-4458-90ce-c600abce2aef","system_id":"levelo_inurba_marseille","lat":43.25846,"lon":5.39898,"is_reserved":false,"is_disabled":false,"rental_uris":{"android":"levelo://app?vid=53c474a9-3d3d-4458-90ce-c600abce2aef","ios":"levelo://app?vid=53c474a9-3d3d-4458-90ce-c600abce2aef"},"vehicle_type_id":"4","last_reported":1745331049,"current_range_meters":17200,"station_id":"ce4bhl92rcd13ifvqghg","pricing_plan_id":"cebpf4jnsgd1na2vs0mg"},{"bike_id":"df32af51-b971-424a-a5af-ecb74db55c7a","system_id":"levelo_inurba_marseille","lat":43.299252,"lon":5.374812,"is_reserved":false,"is_disabled":false,"rental_uris":{"android":"levelo://app?vid=df32af51-b971-424a-a5af-ecb74db55c7a","ios":"levelo://app?vid=df32af51-b971-424a-a5af-ecb74db55c7a"},"vehicle_type_id":"4","last_reported":1745331049,"current_range_meters":17200,"station_id":"ce4bgjh2rcd13ifvqbg0","pricing_plan_id":"cebpf4jnsgd1na2vs0mg"},{"bike_id":"2b4c99a8-9f0e-4e8d-bf39-2ace93ff3d9d","system_id":"levelo_inurba_marseille","lat":43.22936,"lon":5.35377,"is_reserved":false,"is_disabled":false,"rental_uris":{"android":"levelo://app?vid=2b4c99a8-9f0e-4e8d-bf39-2ace93ff3d9d","ios":"levelo://app?vid=2b4c99a8-9f0e-4e8d-bf39-2ace93ff3d9d"},"vehicle_type_id":"4","last_reported":1745331049,"current_range_meters":17600,"station_id":"cpo3532slgdg3j2ikp40","pricing_plan_id":"cebpf4jnsgd1na2vs0mg"},{"bike_id":"1b903b38-38de-4714-9a2c-59836acfa168","system_id":"levelo_inurba_marseille","lat":43.317099,"lon":5.436949,"is_reserved":false,"is_disabled":true,"rental_uris":{"android":"levelo://app?vid=1b903b38-38de-4714-9a2c-59836acfa168","ios":"levelo://app?vid=1b903b38-38de-4714-9a2c-59836acfa168"},"vehicle_type_id":"4","last_reported":1745331049,"current_range_meters":17600,"station_id":"ce4bhp92rcd13ifvqhcg","pricing_plan_id":"cebpf4jnsgd1na2vs0mg"},{"bike_id":"e222cd7c-2726-4464-9287-b69f2c1eb12d","system_id":"levelo_inurba_marseille","lat":43.30105,"lon":5.39841,"is_reserved":false,"is_disabled":false,"rental_uris":{"android":"levelo://app?vid=e222cd7c-2726-4464-9287-b69f2c1eb12d","ios":"levelo://app?vid=e222cd7c-2726-4464-9287-b69f2c1eb12d"},"vehicle_type_id":"4","last_reported":1745331049,"current_range_meters":18000,"station_id":"ce4bh0h2rcd13ifvqd40","pricing_plan_id":"cebpf4jnsgd1na2vs0mg"},{"bike_id":"f9910c31-f9db-4f26-a92a-8262c0c319b0","system_id":"levelo_inurba_marseille","lat":43.29968,"lon":5.38492,"is_reserved":false,"is_disabled":false,"rental_uris":{"android":"levelo://app?vid=f9910c31-f9db-4f26-a92a-8262c0c319b0","ios":"levelo://app?vid=f9910c31-f9db-4f26-a92a-8262c0c319b0"},"vehicle_type_id":"4","last_reported":1745331049,"current_range_meters":18000,"station_id":"ce4bgj92rcd13ifvqbd0","pricing_plan_id":"cebpf4jnsgd1na2vs0mg"},{"bike_id":"ef68d566-b61f-4fe6-b632-868cfb471744","system_id":"levelo_inurba_marseille","lat":43.32062,"lon":5.41536,"is_reserved":false,"is_disabled":false,"rental_uris":{"android":"levelo://app?vid=ef68d566-b61f-4fe6-b632-868cfb471744","ios":"levelo://app?vid=ef68d566-b61f-4fe6-b632-868cfb471744"},"vehicle_type_id":"4","last_reported":1745331049,"current_range_meters":18000,"station_id":"ce4bhq92rcd13ifvqhkg","pricing_plan_id":"cebpf4jnsgd1na2vs0mg"},{"bike_id":"9f1e349e-7f44-420f-95ec-c319dae210f6","system_id":"levelo_inurba_marseille","lat":43.292113,"lon":5.383859,"is_reserved":false,"is_disabled":true,"rental_uris":{"android":"levelo://app?vid=9f1e349e-7f44-420f-95ec-c319dae210f6","ios":"levelo://app?vid=9f1e349e-7f44-420f-95ec-c319dae210f6"},"vehicle_type_id":"4","last_reported":1745331049,"current_range_meters":18000,"station_id":"","pricing_plan_id":"cebpf4jnsgd1na2vs0mg"},{"bike_id":"cb15f50a-d5cb-4017-b40b-b28b66eacf43","system_id":"levelo_inurba_marseille","lat":43.31229,"lon":5.36835,"is_reserved":false,"is_disabled":false,"rental_uris":{"android":"levelo://app?vid=cb15f50a-d5cb-4017-b40b-b28b66eacf43","ios":"levelo://app?vid=cb15f50a-d5cb-4017-b40b-b28b66eacf43"},"vehicle_type_id":"4","last_reported":1745331049,"current_range_meters":18000,"station_id":"ce4bgl92rcd13ifvqbq0","pricing_plan_id":"cebpf4jnsgd1na2vs0mg"},{"bike_id":"87939c7e-cda2-4e2d-afdc-6de2e573b9f5","system_id":"levelo_inurba_marseille","lat":43.29308,"lon":5.37166,"is_reserved":false,"is_disabled":false,"rental_uris":{"android":"levelo://app?vid=87939c7e-cda2-4e2d-afdc-6de2e573b9f5","ios":"levelo://app?vid=87939c7e-cda2-4e2d-afdc-6de2e573b9f5"},"vehicle_type_id":"4","last_reported":1745331049,"current_range_meters":17600,"station_id":"ce4bgh92rcd13ifvqb40","pricing_plan_id":"cebpf4jnsgd1na2vs0mg"},{"bike_id":"869ad40c-6e9e-4037-9276-406e708ac5ce","system_id":"levelo_inurba_marseille","lat":43.27379,"lon":5.36255,"is_reserved":false,"is_disabled":false,"rental_uris":{"android":"levelo://app?vid=869ad40c-6e9e-4037-9276-406e708ac5ce","ios":"levelo://app?vid=869ad40c-6e9e-4037-9276-406e708ac5ce"},"vehicle_type_id":"4","last_reported":1745331049,"current_range_meters":17600,"station_id":"ce4bhbh2rcd13ifvqeo0","pricing_plan_id":"cebpf4jnsgd1na2vs0mg"},{"bike_id":"d26aecca-5b94-4bac-9927-82be229216f1","system_id":"levelo_inurba_marseille","lat":43.32105,"lon":5.36766,"is_reserved":false,"is_disabled":false,"rental_uris":{"android":"levelo://app?vid=d26aecca-5b94-4bac-9927-82be229216f1","ios":"levelo://app?vid=d26aecca-5b94-4bac-9927-82be229216f1"},"vehicle_type_id":"4","last_reported":1745331049,"current_range_meters":18000,"station_id":"ce4bhrh2rcd13ifvqhug","pricing_plan_id":"cebpf4jnsgd1na2vs0mg"},{"bike_id":"d58c82ba-9fa6-4a42-af1b-9e04564446d1","system_id":"levelo_inurba_marseille","lat":43.310792,"lon":5.383651,"is_reserved":false,"is_disabled":false,"rental_uris":{"android":"levelo://app?vid=d58c82ba-9fa6-4a42-af1b-9e04564446d1","ios":"levelo://app?vid=d58c82ba-9fa6-4a42-af1b-9e04564446d1"},"vehicle_type_id":"4","last_reported":1745331049,"current_range_meters":18800,"station_id":"ce4bgv92rcd13ifvqcr0","pricing_plan_id":"cebpf4jnsgd1na2vs0mg"},{"bike_id":"73f157d4-10be-42e6-8ed0-4cf5e1ba4ac8","system_id":"levelo_inurba_marseille","lat":43.31757,"lon":5.39028,"is_reserved":false,"is_disabled":false,"rental_uris":{"android":"levelo://app?vid=73f157d4-10be-42e6-8ed0-4cf5e1ba4ac8","ios":"levelo://app?vid=73f157d4-10be-42e6-8ed0-4cf5e1ba4ac8"},"vehicle_type_id":"4","last_reported":1745331049,"current_range_meters":18800,"station_id":"ce4bhqp2rcd13ifvqhng","pricing_plan_id":"cebpf4jnsgd1na2vs0mg"},{"bike_id":"427f805e-cfba-4025-b510-ca1d8419f957","system_id":"levelo_inurba_marseille","lat":43.31472,"lon":5.37316,"is_reserved":false,"is_disabled":false,"rental_uris":{"android":"levelo://app?vid=427f805e-cfba-4025-b510-ca1d8419f957","ios":"levelo://app?vid=427f805e-cfba-4025-b510-ca1d8419f957"},"vehicle_type_id":"4","last_reported":1745331049,"current_range_meters":18800,"station_id":"ce4bgt12rcd13ifvqcd0","pricing_plan_id":"cebpf4jnsgd1na2vs0mg"},{"bike_id":"eb29cb01-917d-4825-99d6-2672607d4bfc","system_id":"levelo_inurba_marseille","lat":43.29966,"lon":5.38502,"is_reserved":false,"is_disabled":false,"rental_uris":{"android":"levelo://app?vid=eb29cb01-917d-4825-99d6-2672607d4bfc","ios":"levelo://app?vid=eb29cb01-917d-4825-99d6-2672607d4bfc"},"vehicle_type_id":"4","last_reported":1745331049,"current_range_meters":7200,"station_id":"ce4bgj92rcd13ifvqbd0","pricing_plan_id":"cebpf4jnsgd1na2vs0mg"},{"bike_id":"0529d891-2d9b-4d93-af79-27336fdd5c7e","system_id":"levelo_inurba_marseille","lat":43.280353,"lon":5.369546,"is_reserved":false,"is_disabled":false,"rental_uris":{"android":"levelo://app?vid=0529d891-2d9b-4d93-af79-27336fdd5c7e","ios":"levelo://app?vid=0529d891-2d9b-4d93-af79-27336fdd5c7e"},"vehicle_type_id":"4","last_reported":1745331049,"current_range_meters":18800,"station_id":"ce4bha12rcd13ifvqef0","pricing_plan_id":"cebpf4jnsgd1na2vs0mg"},{"bike_id":"c83e935b-fd87-47b2-a778-ed3e19aa9378","system_id":"levelo_inurba_marseille","lat":43.30279,"lon":5.37701,"is_reserved":false,"is_disabled":false,"rental_uris":{"android":"levelo://app?vid=c83e935b-fd87-47b2-a778-ed3e19aa9378","ios":"levelo://app?vid=c83e935b-fd87-47b2-a778-ed3e19aa9378"},"vehicle_type_id":"4","last_reported":1745331049,"current_range_meters":18800,"station_id":"ce4bguh2rcd13ifvqcj0","pricing_plan_id":"cebpf4jnsgd1na2vs0mg"},{"bike_id":"42b8c458-359e-4640-bd60-e3fefbb9e50b","system_id":"levelo_inurba_marseille","lat":43.31537,"lon":5.38024,"is_reserved":false,"is_disabled":false,"rental_uris":{"android":"levelo://app?vid=42b8c458-359e-4640-bd60-e3fefbb9e50b","ios":"levelo://app?vid=42b8c458-359e-4640-bd60-e3fefbb9e50b"},"vehicle_type_id":"4","last_reported":1745331049,"current_range_meters":18800,"station_id":"ce4bhsp2rcd13ifvqi50","pricing_plan_id":"cebpf4jnsgd1na2vs0mg"},{"bike_id":"72bfa4d1-548b-4c87-9dbd-daec2dd481aa","system_id":"levelo_inurba_marseille","lat":43.27057,"lon":5.40256,"is_reserved":false,"is_disabled":false,"rental_uris":{"android":"levelo://app?vid=72bfa4d1-548b-4c87-9dbd-daec2dd481aa","ios":"levelo://app?vid=72bfa4d1-548b-4c87-9dbd-daec2dd481aa"},"vehicle_type_id":"4","last_reported":1745331049,"current_range_meters":18800,"station_id":"ce4bhk92rcd13ifvqgc0","pricing_plan_id":"cebpf4jnsgd1na2vs0mg"},{"bike_id":"62e147bb-efa1-46c8-ba09-e98f56baf238","system_id":"levelo_inurba_marseille","lat":43.26785,"lon":5.39412,"is_reserved":false,"is_disabled":false,"rental_uris":{"android":"levelo://app?vid=62e147bb-efa1-46c8-ba09-e98f56baf238","ios":"levelo://app?vid=62e147bb-efa1-46c8-ba09-e98f56baf238"},"vehicle_type_id":"4","last_reported":1745331049,"current_range_meters":18800,"station_id":"ce4bhh12rcd13ifvqfg0","pricing_plan_id":"cebpf4jnsgd1na2vs0mg"},{"bike_id":"62196246-e5af-47cb-a2b2-3056292a1eeb","system_id":"levelo_inurba_marseille","lat":43.27681,"lon":5.38903,"is_reserved":false,"is_disabled":false,"rental_uris":{"android":"levelo://app?vid=62196246-e5af-47cb-a2b2-3056292a1eeb","ios":"levelo://app?vid=62196246-e5af-47cb-a2b2-3056292a1eeb"},"vehicle_type_id":"4","last_reported":1745331049,"current_range_meters":18800,"station_id":"ce4bhi12rcd13ifvqfo0","pricing_plan_id":"cebpf4jnsgd1na2vs0mg"},{"bike_id":"84cc6382-570a-48e1-95cf-2056bb88a115","system_id":"levelo_inurba_marseille","lat":43.32758,"lon":5.39218,"is_reserved":false,"is_disabled":false,"rental_uris":{"android":"levelo://app?vid=84cc6382-570a-48e1-95cf-2056bb88a115","ios":"levelo://app?vid=84cc6382-570a-48e1-95cf-2056bb88a115"},"vehicle_type_id":"4","last_reported":1745331049,"current_range_meters":18800,"station_id":"","pricing_plan_id":"cebpf4jnsgd1na2vs0mg"},{"bike_id":"de3c09d3-1537-45f5-8396-004b565ee206","system_id":"levelo_inurba_marseille","lat":43.28288,"lon":5.35078,"is_reserved":false,"is_disabled":false,"rental_uris":{"android":"levelo://app?vid=de3c09d3-1537-45f5-8396-004b565ee206","ios":"levelo://app?vid=de3c09d3-1537-45f5-8396-004b565ee206"},"vehicle_type_id":"4","last_reported":1745331049,"current_range_meters":19200,"station_id":"ce4bhbp2rcd13ifvqerg","pricing_plan_id":"cebpf4jnsgd1na2vs0mg"},{"bike_id":"609777c8-3e25-4c4a-a13c-6e321bcbc78c","system_id":"levelo_inurba_marseille","lat":43.28098,"lon":5.378325,"is_reserved":false,"is_disabled":false,"rental_uris":{"android":"levelo://app?vid=609777c8-3e25-4c4a-a13c-6e321bcbc78c","ios":"levelo://app?vid=609777c8-3e25-4c4a-a13c-6e321bcbc78c"},"vehicle_type_id":"4","last_reported":1745331049,"current_range_meters":19200,"station_id":"ce4bhf92rcd13ifvqf50","pricing_plan_id":"cebpf4jnsgd1na2vs0mg"},{"bike_id":"a1835b16-9e05-4b53-baf5-10eeb04320bb","system_id":"levelo_inurba_marseille","lat":43.28691,"lon":5.37402,"is_reserved":false,"is_disabled":true,"rental_uris":{"android":"levelo://app?vid=a1835b16-9e05-4b53-baf5-10eeb04320bb","ios":"levelo://app?vid=a1835b16-9e05-4b53-baf5-10eeb04320bb"},"vehicle_type_id":"4","last_reported":1745331049,"current_range_meters":19200,"station_id":"ce4bh3p2rcd13ifvqdq0","pricing_plan_id":"cebpf4jnsgd1na2vs0mg"},{"bike_id":"3d63b549-6a38-4b8b-a0ed-671508ba933f","system_id":"levelo_inurba_marseille","lat":43.28924,"lon":5.38392,"is_reserved":false,"is_disabled":false,"rental_uris":{"android":"levelo://app?vid=3d63b549-6a38-4b8b-a0ed-671508ba933f","ios":"levelo://app?vid=3d63b549-6a38-4b8b-a0ed-671508ba933f"},"vehicle_type_id":"4","last_reported":1745331049,"current_range_meters":19200,"station_id":"ce4bh612rcd13ifvqe6g","pricing_plan_id":"cebpf4jnsgd1na2vs0mg"},{"bike_id":"5292f775-aa53-42a8-a3e0-c63e6f16af9d","system_id":"levelo_inurba_marseille","lat":43.31465,"lon":5.3735,"is_reserved":false,"is_disabled":false,"rental_uris":{"android":"levelo://app?vid=5292f775-aa53-42a8-a3e0-c63e6f16af9d","ios":"levelo://app?vid=5292f775-aa53-42a8-a3e0-c63e6f16af9d"},"vehicle_type_id":"4","last_reported":1745331049,"current_range_meters":19200,"station_id":"ce4bgt12rcd13ifvqcd0","pricing_plan_id":"cebpf4jnsgd1na2vs0mg"},{"bike_id":"53277c59-639c-4892-98d8-678a5b9c3286","system_id":"levelo_inurba_marseille","lat":43.217483,"lon":5.346023,"is_reserved":false,"is_disabled":false,"rental_uris":{"android":"levelo://app?vid=53277c59-639c-4892-98d8-678a5b9c3286","ios":"levelo://app?vid=53277c59-639c-4892-98d8-678a5b9c3286"},"vehicle_type_id":"4","last_reported":1745331049,"current_range_meters":19200,"station_id":"","pricing_plan_id":"cebpf4jnsgd1na2vs0mg"},{"bike_id":"dd63a8b2-dce8-42be-9c59-58bd010e6960","system_id":"levelo_inurba_marseille","lat":43.29548,"lon":5.39047,"is_reserved":false,"is_disabled":false,"rental_uris":{"android":"levelo://app?vid=dd63a8b2-dce8-42be-9c59-58bd010e6960","ios":"levelo://app?vid=dd63a8b2-dce8-42be-9c59-58bd010e6960"},"vehicle_type_id":"4","last_reported":1745331049,"current_range_meters":19200,"station_id":"ce4bh3p2rcd13ifvqdp0","pricing_plan_id":"cebpf4jnsgd1na2vs0mg"},{"bike_id":"1ce6e8c2-ed3e-4b66-bda7-38092b3cc27e","system_id":"levelo_inurba_marseille","lat":43.28411,"lon":5.37513,"is_reserved":false,"is_disabled":false,"rental_uris":{"android":"levelo://app?vid=1ce6e8c2-ed3e-4b66-bda7-38092b3cc27e","ios":"levelo://app?vid=1ce6e8c2-ed3e-4b66-bda7-38092b3cc27e"},"vehicle_type_id":"4","last_reported":1745331049,"current_range_meters":19200,"station_id":"ce4bh412rcd13ifvqds0","pricing_plan_id":"cebpf4jnsgd1na2vs0mg"},{"bike_id":"1c86c1a3-2ae0-43f2-98b2-bbf4f09bcf2d","system_id":"levelo_inurba_marseille","lat":43.28514,"lon":5.3857,"is_reserved":false,"is_disabled":false,"rental_uris":{"android":"levelo://app?vid=1c86c1a3-2ae0-43f2-98b2-bbf4f09bcf2d","ios":"levelo://app?vid=1c86c1a3-2ae0-43f2-98b2-bbf4f09bcf2d"},"vehicle_type_id":"4","last_reported":1745331049,"current_range_meters":19200,"station_id":"ce4bh8p2rcd13ifvqeb0","pricing_plan_id":"cebpf4jnsgd1na2vs0mg"},{"bike_id":"a06dab05-6d0a-4ed7-9200-30db5ae237b9","system_id":"levelo_inurba_marseille","lat":43.29008,"lon":5.3863,"is_reserved":false,"is_disabled":false,"rental_uris":{"android":"levelo://app?vid=a06dab05-6d0a-4ed7-9200-30db5ae237b9","ios":"levelo://app?vid=a06dab05-6d0a-4ed7-9200-30db5ae237b9"},"vehicle_type_id":"4","last_reported":1745331049,"current_range_meters":19200,"station_id":"ce4bh4p2rcd13ifvqe0g","pricing_plan_id":"cebpf4jnsgd1na2vs0mg"},{"bike_id":"f9edd094-c59c-4d80-96b2-7f66d5afbeb7","system_id":"levelo_inurba_marseille","lat":43.25722,"lon":5.41116,"is_reserved":false,"is_disabled":false,"rental_uris":{"android":"levelo://app?vid=f9edd094-c59c-4d80-96b2-7f66d5afbeb7","ios":"levelo://app?vid=f9edd094-c59c-4d80-96b2-7f66d5afbeb7"},"vehicle_type_id":"4","last_reported":1745331049,"current_range_meters":19200,"station_id":"ce4bhkp2rcd13ifvqgd0","pricing_plan_id":"cebpf4jnsgd1na2vs0mg"},{"bike_id":"9fc495c5-e217-4d66-9d34-a78d248d8bab","system_id":"levelo_inurba_marseille","lat":43.21755,"lon":5.34605,"is_reserved":false,"is_disabled":false,"rental_uris":{"android":"levelo://app?vid=9fc495c5-e217-4d66-9d34-a78d248d8bab","ios":"levelo://app?vid=9fc495c5-e217-4d66-9d34-a78d248d8bab"},"vehicle_type_id":"4","last_reported":1745331049,"current_range_meters":19200,"station_id":"st_cvj6r9ubvosntc0bgbag","pricing_plan_id":"cebpf4jnsgd1na2vs0mg"},{"bike_id":"a2e258d8-355c-4757-980f-fb732cea697a","system_id":"levelo_inurba_marseille","lat":43.27379,"lon":5.36252,"is_reserved":false,"is_disabled":false,"rental_uris":{"android":"levelo://app?vid=a2e258d8-355c-4757-980f-fb732cea697a","ios":"levelo://app?vid=a2e258d8-355c-4757-980f-fb732cea697a"},"vehicle_type_id":"4","last_reported":1745331049,"current_range_meters":19600,"station_id":"ce4bhbh2rcd13ifvqeo0","pricing_plan_id":"cebpf4jnsgd1na2vs0mg"},{"bike_id":"20ede925-27e6-407f-8bf5-4c244f8341b4","system_id":"levelo_inurba_marseille","lat":43.241754,"lon":5.364021,"is_reserved":false,"is_disabled":false,"rental_uris":{"android":"levelo://app?vid=20ede925-27e6-407f-8bf5-4c244f8341b4","ios":"levelo://app?vid=20ede925-27e6-407f-8bf5-4c244f8341b4"},"vehicle_type_id":"4","last_reported":1745331049,"current_range_meters":20000,"station_id":"cpo36qri1sfpv3e86is0","pricing_plan_id":"cebpf4jnsgd1na2vs0mg"},{"bike_id":"b5d609bf-0c9b-49e3-9426-ce02cb8383b8","system_id":"levelo_inurba_marseille","lat":43.34154,"lon":5.40898,"is_reserved":false,"is_disabled":true,"rental_uris":{"android":"levelo://app?vid=b5d609bf-0c9b-49e3-9426-ce02cb8383b8","ios":"levelo://app?vid=b5d609bf-0c9b-49e3-9426-ce02cb8383b8"},"vehicle_type_id":"4","last_reported":1745331049,"current_range_meters":20000,"station_id":"ce4bhqh2rcd13ifvqhlg","pricing_plan_id":"cebpf4jnsgd1na2vs0mg"},{"bike_id":"a5c395f6-7ddb-4fef-a4f4-db38f481a1ea","system_id":"levelo_inurba_marseille","lat":43.31489,"lon":5.37314,"is_reserved":false,"is_disabled":false,"rental_uris":{"android":"levelo://app?vid=a5c395f6-7ddb-4fef-a4f4-db38f481a1ea","ios":"levelo://app?vid=a5c395f6-7ddb-4fef-a4f4-db38f481a1ea"},"vehicle_type_id":"4","last_reported":1745331049,"current_range_meters":20000,"station_id":"ce4bgt12rcd13ifvqcd0","pricing_plan_id":"cebpf4jnsgd1na2vs0mg"},{"bike_id":"44d1d477-7e41-4a83-aece-ebc745958599","system_id":"levelo_inurba_marseille","lat":43.24393,"lon":5.37052,"is_reserved":false,"is_disabled":false,"rental_uris":{"android":"levelo://app?vid=44d1d477-7e41-4a83-aece-ebc745958599","ios":"levelo://app?vid=44d1d477-7e41-4a83-aece-ebc745958599"},"vehicle_type_id":"4","last_reported":1745331049,"current_range_meters":19600,"station_id":"ce4bhhh2rcd13ifvqfk0","pricing_plan_id":"cebpf4jnsgd1na2vs0mg"},{"bike_id":"31f6fa66-15e8-41d6-b7dc-a23f02ad2d14","system_id":"levelo_inurba_marseille","lat":43.29542,"lon":5.3854,"is_reserved":false,"is_disabled":false,"rental_uris":{"android":"levelo://app?vid=31f6fa66-15e8-41d6-b7dc-a23f02ad2d14","ios":"levelo://app?vid=31f6fa66-15e8-41d6-b7dc-a23f02ad2d14"},"vehicle_type_id":"4","last_reported":1745331049,"current_range_meters":20000,"station_id":"ce4bgih2rcd13ifvqba0","pricing_plan_id":"cebpf4jnsgd1na2vs0mg"},{"bike_id":"07a90fe4-9b71-46b2-8cec-77344817191a","system_id":"levelo_inurba_marseille","lat":43.27373,"lon":5.36256,"is_reserved":false,"is_disabled":false,"rental_uris":{"android":"levelo://app?vid=07a90fe4-9b71-46b2-8cec-77344817191a","ios":"levelo://app?vid=07a90fe4-9b71-46b2-8cec-77344817191a"},"vehicle_type_id":"4","last_reported":1745331049,"current_range_meters":20000,"station_id":"ce4bhbh2rcd13ifvqeo0","pricing_plan_id":"cebpf4jnsgd1na2vs0mg"},{"bike_id":"0feae36e-b422-44c1-8674-96ad9f2f7fd8","system_id":"levelo_inurba_marseille","lat":43.265712,"lon":5.390084,"is_reserved":false,"is_disabled":false,"rental_uris":{"android":"levelo://app?vid=0feae36e-b422-44c1-8674-96ad9f2f7fd8","ios":"levelo://app?vid=0feae36e-b422-44c1-8674-96ad9f2f7fd8"},"vehicle_type_id":"4","last_reported":1745331049,"current_range_meters":20000,"station_id":"ce4bhe12rcd13ifvqf30","pricing_plan_id":"cebpf4jnsgd1na2vs0mg"},{"bike_id":"84bdab19-3c1d-4efb-a694-0d843cafced2","system_id":"levelo_inurba_marseille","lat":43.32662,"lon":5.40986,"is_reserved":false,"is_disabled":false,"rental_uris":{"android":"levelo://app?vid=84bdab19-3c1d-4efb-a694-0d843cafced2","ios":"levelo://app?vid=84bdab19-3c1d-4efb-a694-0d843cafced2"},"vehicle_type_id":"4","last_reported":1745331049,"current_range_meters":20000,"station_id":"ce4bhpp2rcd13ifvqhgg","pricing_plan_id":"cebpf4jnsgd1na2vs0mg"},{"bike_id":"46374c49-3adc-4c5a-8966-e00f056c0d57","system_id":"levelo_inurba_marseille","lat":43.27846,"lon":5.35442,"is_reserved":false,"is_disabled":false,"rental_uris":{"android":"levelo://app?vid=46374c49-3adc-4c5a-8966-e00f056c0d57","ios":"levelo://app?vid=46374c49-3adc-4c5a-8966-e00f056c0d57"},"vehicle_type_id":"4","last_reported":1745331049,"current_range_meters":20400,"station_id":"","pricing_plan_id":"cebpf4jnsgd1na2vs0mg"},{"bike_id":"e3dbb390-f150-4ae6-ad51-c1210a90a527","system_id":"levelo_inurba_marseille","lat":43.32658,"lon":5.40998,"is_reserved":false,"is_disabled":false,"rental_uris":{"android":"levelo://app?vid=e3dbb390-f150-4ae6-ad51-c1210a90a527","ios":"levelo://app?vid=e3dbb390-f150-4ae6-ad51-c1210a90a527"},"vehicle_type_id":"4","last_reported":1745331049,"current_range_meters":20400,"station_id":"ce4bhpp2rcd13ifvqhgg","pricing_plan_id":"cebpf4jnsgd1na2vs0mg"},{"bike_id":"9a114b9d-ea72-41b4-a3d5-97966ae34467","system_id":"levelo_inurba_marseille","lat":43.28999,"lon":5.35616,"is_reserved":false,"is_disabled":false,"rental_uris":{"android":"levelo://app?vid=9a114b9d-ea72-41b4-a3d5-97966ae34467","ios":"levelo://app?vid=9a114b9d-ea72-41b4-a3d5-97966ae34467"},"vehicle_type_id":"4","last_reported":1745331049,"current_range_meters":20000,"station_id":"ce4bhb92rcd13ifvqen0","pricing_plan_id":"cebpf4jnsgd1na2vs0mg"},{"bike_id":"f9dd9794-b14b-4ca6-8acc-42487c6877aa","system_id":"levelo_inurba_marseille","lat":43.21203,"lon":5.35069,"is_reserved":false,"is_disabled":false,"rental_uris":{"android":"levelo://app?vid=f9dd9794-b14b-4ca6-8acc-42487c6877aa","ios":"levelo://app?vid=f9dd9794-b14b-4ca6-8acc-42487c6877aa"},"vehicle_type_id":"4","last_reported":1745331049,"current_range_meters":20400,"station_id":"st_cvj6sg6p6f1abm77japg","pricing_plan_id":"cebpf4jnsgd1na2vs0mg"},{"bike_id":"057ecee1-8707-4c50-b9f5-50ccc6147b4e","system_id":"levelo_inurba_marseille","lat":43.32355,"lon":5.38904,"is_reserved":false,"is_disabled":false,"rental_uris":{"android":"levelo://app?vid=057ecee1-8707-4c50-b9f5-50ccc6147b4e","ios":"levelo://app?vid=057ecee1-8707-4c50-b9f5-50ccc6147b4e"},"vehicle_type_id":"4","last_reported":1745331049,"current_range_meters":20400,"station_id":"ce4bhqp2rcd13ifvqhog","pricing_plan_id":"cebpf4jnsgd1na2vs0mg"},{"bike_id":"e8abd739-2476-4f65-8210-f7309aecb71d","system_id":"levelo_inurba_marseille","lat":43.284219,"lon":5.349769,"is_reserved":false,"is_disabled":false,"rental_uris":{"android":"levelo://app?vid=e8abd739-2476-4f65-8210-f7309aecb71d","ios":"levelo://app?vid=e8abd739-2476-4f65-8210-f7309aecb71d"},"vehicle_type_id":"4","last_reported":1745331049,"current_range_meters":20400,"station_id":"ce4bhbp2rcd13ifvqerg","pricing_plan_id":"cebpf4jnsgd1na2vs0mg"},{"bike_id":"59f21529-91ec-4d75-8d47-02045c3e2191","system_id":"levelo_inurba_marseille","lat":43.23187,"lon":5.39978,"is_reserved":false,"is_disabled":false,"rental_uris":{"android":"levelo://app?vid=59f21529-91ec-4d75-8d47-02045c3e2191","ios":"levelo://app?vid=59f21529-91ec-4d75-8d47-02045c3e2191"},"vehicle_type_id":"4","last_reported":1745331049,"current_range_meters":20800,"station_id":"ce4bhn12rcd13ifvqgqg","pricing_plan_id":"cebpf4jnsgd1na2vs0mg"},{"bike_id":"adb66146-fc30-4a7a-839b-46c09efb04a1","system_id":"levelo_inurba_marseille","lat":43.28441,"lon":5.39178,"is_reserved":false,"is_disabled":false,"rental_uris":{"android":"levelo://app?vid=adb66146-fc30-4a7a-839b-46c09efb04a1","ios":"levelo://app?vid=adb66146-fc30-4a7a-839b-46c09efb04a1"},"vehicle_type_id":"4","last_reported":1745331049,"current_range_meters":20800,"station_id":"ce4bhoh2rcd13ifvqh5g","pricing_plan_id":"cebpf4jnsgd1na2vs0mg"},{"bike_id":"356cfa21-b42d-4bcd-9ca6-ca674f45b452","system_id":"levelo_inurba_marseille","lat":43.28414,"lon":5.34978,"is_reserved":false,"is_disabled":false,"rental_uris":{"android":"levelo://app?vid=356cfa21-b42d-4bcd-9ca6-ca674f45b452","ios":"levelo://app?vid=356cfa21-b42d-4bcd-9ca6-ca674f45b452"},"vehicle_type_id":"4","last_reported":1745331049,"current_range_meters":20800,"station_id":"ce4bhbh2rcd13ifvqepg","pricing_plan_id":"cebpf4jnsgd1na2vs0mg"},{"bike_id":"e02b0a8b-ff9c-4e03-8bbb-9fea44219542","system_id":"levelo_inurba_marseille","lat":43.29273,"lon":5.38437,"is_reserved":false,"is_disabled":false,"rental_uris":{"android":"levelo://app?vid=e02b0a8b-ff9c-4e03-8bbb-9fea44219542","ios":"levelo://app?vid=e02b0a8b-ff9c-4e03-8bbb-9fea44219542"},"vehicle_type_id":"4","last_reported":1745331049,"current_range_meters":20800,"station_id":"ce4bh692rcd13ifvqea0","pricing_plan_id":"cebpf4jnsgd1na2vs0mg"},{"bike_id":"962d0656-1ac6-4b17-b2e9-86266599a989","system_id":"levelo_inurba_marseille","lat":43.29417,"lon":5.38621,"is_reserved":false,"is_disabled":false,"rental_uris":{"android":"levelo://app?vid=962d0656-1ac6-4b17-b2e9-86266599a989","ios":"levelo://app?vid=962d0656-1ac6-4b17-b2e9-86266599a989"},"vehicle_type_id":"4","last_reported":1745331049,"current_range_meters":20800,"station_id":"ce4bgt92rcd13ifvqcf0","pricing_plan_id":"cebpf4jnsgd1na2vs0mg"},{"bike_id":"204188e0-e5ba-42f8-94cb-4dee02bd55fe","system_id":"levelo_inurba_marseille","lat":43.27546,"lon":5.38434,"is_reserved":false,"is_disabled":false,"rental_uris":{"android":"levelo://app?vid=204188e0-e5ba-42f8-94cb-4dee02bd55fe","ios":"levelo://app?vid=204188e0-e5ba-42f8-94cb-4dee02bd55fe"},"vehicle_type_id":"4","last_reported":1745331049,"current_range_meters":20800,"station_id":"ce4bhh92rcd13ifvqfi0","pricing_plan_id":"cebpf4jnsgd1na2vs0mg"},{"bike_id":"0c15d90e-b068-4651-843b-1d39457a85e6","system_id":"levelo_inurba_marseille","lat":43.30537,"lon":5.36535,"is_reserved":false,"is_disabled":false,"rental_uris":{"android":"levelo://app?vid=0c15d90e-b068-4651-843b-1d39457a85e6","ios":"levelo://app?vid=0c15d90e-b068-4651-843b-1d39457a85e6"},"vehicle_type_id":"4","last_reported":1745331049,"current_range_meters":20800,"station_id":"ce4bgs12rcd13ifvqcag","pricing_plan_id":"cebpf4jnsgd1na2vs0mg"},{"bike_id":"58c42fd5-b3e2-4a58-8911-e3aecf5eb7be","system_id":"levelo_inurba_marseille","lat":43.29275,"lon":5.3844,"is_reserved":false,"is_disabled":false,"rental_uris":{"android":"levelo://app?vid=58c42fd5-b3e2-4a58-8911-e3aecf5eb7be","ios":"levelo://app?vid=58c42fd5-b3e2-4a58-8911-e3aecf5eb7be"},"vehicle_type_id":"4","last_reported":1745331049,"current_range_meters":21600,"station_id":"ce4bh692rcd13ifvqea0","pricing_plan_id":"cebpf4jnsgd1na2vs0mg"},{"bike_id":"d83bd6e0-34cf-4990-8499-a69c12da7ef7","system_id":"levelo_inurba_marseille","lat":43.31732,"lon":5.40441,"is_reserved":false,"is_disabled":false,"rental_uris":{"android":"levelo://app?vid=d83bd6e0-34cf-4990-8499-a69c12da7ef7","ios":"levelo://app?vid=d83bd6e0-34cf-4990-8499-a69c12da7ef7"},"vehicle_type_id":"4","last_reported":1745331049,"current_range_meters":21600,"station_id":"ce4bh012rcd13ifvqd00","pricing_plan_id":"cebpf4jnsgd1na2vs0mg"},{"bike_id":"bd81f5ba-c9c2-4a60-9b11-d194a6ab7de9","system_id":"levelo_inurba_marseille","lat":43.29786,"lon":5.39343,"is_reserved":false,"is_disabled":false,"rental_uris":{"android":"levelo://app?vid=bd81f5ba-c9c2-4a60-9b11-d194a6ab7de9","ios":"levelo://app?vid=bd81f5ba-c9c2-4a60-9b11-d194a6ab7de9"},"vehicle_type_id":"4","last_reported":1745331049,"current_range_meters":21600,"station_id":"chh1huq6cuj3fo74tm60","pricing_plan_id":"cebpf4jnsgd1na2vs0mg"},{"bike_id":"c036526b-f99d-4a0a-8308-a423c4e546d0","system_id":"levelo_inurba_marseille","lat":43.31138,"lon":5.36851,"is_reserved":false,"is_disabled":false,"rental_uris":{"android":"levelo://app?vid=c036526b-f99d-4a0a-8308-a423c4e546d0","ios":"levelo://app?vid=c036526b-f99d-4a0a-8308-a423c4e546d0"},"vehicle_type_id":"4","last_reported":1745331049,"current_range_meters":21600,"station_id":"","pricing_plan_id":"cebpf4jnsgd1na2vs0mg"},{"bike_id":"84abf52a-0717-401c-a12e-668b38054a01","system_id":"levelo_inurba_marseille","lat":43.28451,"lon":5.39191,"is_reserved":false,"is_disabled":false,"rental_uris":{"android":"levelo://app?vid=84abf52a-0717-401c-a12e-668b38054a01","ios":"levelo://app?vid=84abf52a-0717-401c-a12e-668b38054a01"},"vehicle_type_id":"4","last_reported":1745331049,"current_range_meters":22000,"station_id":"ce4bhoh2rcd13ifvqh5g","pricing_plan_id":"cebpf4jnsgd1na2vs0mg"},{"bike_id":"de47c9c4-9d10-4485-8888-fe0646beb047","system_id":"levelo_inurba_marseille","lat":43.26848,"lon":5.40154,"is_reserved":false,"is_disabled":false,"rental_uris":{"android":"levelo://app?vid=de47c9c4-9d10-4485-8888-fe0646beb047","ios":"levelo://app?vid=de47c9c4-9d10-4485-8888-fe0646beb047"},"vehicle_type_id":"4","last_reported":1745331049,"current_range_meters":22000,"station_id":"ce501612rcd8frsf0b60","pricing_plan_id":"cebpf4jnsgd1na2vs0mg"},{"bike_id":"e6a25f48-4c58-4532-bde2-8882cd261180","system_id":"levelo_inurba_marseille","lat":43.32651,"lon":5.40978,"is_reserved":false,"is_disabled":false,"rental_uris":{"android":"levelo://app?vid=e6a25f48-4c58-4532-bde2-8882cd261180","ios":"levelo://app?vid=e6a25f48-4c58-4532-bde2-8882cd261180"},"vehicle_type_id":"4","last_reported":1745331049,"current_range_meters":22000,"station_id":"ce4bhpp2rcd13ifvqhgg","pricing_plan_id":"cebpf4jnsgd1na2vs0mg"},{"bike_id":"22dda939-b530-49af-837f-c70a9fe56061","system_id":"levelo_inurba_marseille","lat":43.25824,"lon":5.39431,"is_reserved":false,"is_disabled":false,"rental_uris":{"android":"levelo://app?vid=22dda939-b530-49af-837f-c70a9fe56061","ios":"levelo://app?vid=22dda939-b530-49af-837f-c70a9fe56061"},"vehicle_type_id":"4","last_reported":1745331049,"current_range_meters":22000,"station_id":"ce4bhip2rcd13ifvqft0","pricing_plan_id":"cebpf4jnsgd1na2vs0mg"},{"bike_id":"04573566-2c58-4855-a467-c080b56e136d","system_id":"levelo_inurba_marseille","lat":43.29262,"lon":5.36845,"is_reserved":false,"is_disabled":false,"rental_uris":{"android":"levelo://app?vid=04573566-2c58-4855-a467-c080b56e136d","ios":"levelo://app?vid=04573566-2c58-4855-a467-c080b56e136d"},"vehicle_type_id":"4","last_reported":1745331049,"current_range_meters":22000,"station_id":"ce4bhbp2rcd13ifvqesg","pricing_plan_id":"cebpf4jnsgd1na2vs0mg"},{"bike_id":"2cd35bb3-f0e9-414f-b226-4923242f161c","system_id":"levelo_inurba_marseille","lat":43.28078,"lon":5.39629,"is_reserved":false,"is_disabled":false,"rental_uris":{"android":"levelo://app?vid=2cd35bb3-f0e9-414f-b226-4923242f161c","ios":"levelo://app?vid=2cd35bb3-f0e9-414f-b226-4923242f161c"},"vehicle_type_id":"4","last_reported":1745331049,"current_range_meters":22000,"station_id":"ce4bho12rcd13ifvqh2g","pricing_plan_id":"cebpf4jnsgd1na2vs0mg"},{"bike_id":"84d53afc-570e-4710-be21-8912352f92df","system_id":"levelo_inurba_marseille","lat":43.30919,"lon":5.36857,"is_reserved":false,"is_disabled":false,"rental_uris":{"android":"levelo://app?vid=84d53afc-570e-4710-be21-8912352f92df","ios":"levelo://app?vid=84d53afc-570e-4710-be21-8912352f92df"},"vehicle_type_id":"4","last_reported":1745331049,"current_range_meters":22000,"station_id":"ce4bgn92rcd13ifvqbvg","pricing_plan_id":"cebpf4jnsgd1na2vs0mg"},{"bike_id":"cc0cdf90-92b9-4d0a-8f75-aa7167ce8728","system_id":"levelo_inurba_marseille","lat":43.313182,"lon":5.396736,"is_reserved":false,"is_disabled":false,"rental_uris":{"android":"levelo://app?vid=cc0cdf90-92b9-4d0a-8f75-aa7167ce8728","ios":"levelo://app?vid=cc0cdf90-92b9-4d0a-8f75-aa7167ce8728"},"vehicle_type_id":"4","last_reported":1745331049,"current_range_meters":22000,"station_id":"ce4bgvp2rcd13ifvqcu0","pricing_plan_id":"cebpf4jnsgd1na2vs0mg"},{"bike_id":"a9aac491-923d-441c-8b46-0ff5e5903534","system_id":"levelo_inurba_marseille","lat":43.28106,"lon":5.37874,"is_reserved":false,"is_disabled":false,"rental_uris":{"android":"levelo://app?vid=a9aac491-923d-441c-8b46-0ff5e5903534","ios":"levelo://app?vid=a9aac491-923d-441c-8b46-0ff5e5903534"},"vehicle_type_id":"4","last_reported":1745331049,"current_range_meters":22000,"station_id":"ce4bha12rcd13ifvqee0","pricing_plan_id":"cebpf4jnsgd1na2vs0mg"},{"bike_id":"9181a354-49fa-45e3-b5c1-b7dca6746d38","system_id":"levelo_inurba_marseille","lat":43.25945,"lon":5.40906,"is_reserved":false,"is_disabled":false,"rental_uris":{"android":"levelo://app?vid=9181a354-49fa-45e3-b5c1-b7dca6746d38","ios":"levelo://app?vid=9181a354-49fa-45e3-b5c1-b7dca6746d38"},"vehicle_type_id":"4","last_reported":1745331049,"current_range_meters":22400,"station_id":"ce4bhm92rcd13ifvqglg","pricing_plan_id":"cebpf4jnsgd1na2vs0mg"},{"bike_id":"9d710bb8-5c08-43a0-9e2e-2df35a950232","system_id":"levelo_inurba_marseille","lat":43.30544,"lon":5.36708,"is_reserved":false,"is_disabled":false,"rental_uris":{"android":"levelo://app?vid=9d710bb8-5c08-43a0-9e2e-2df35a950232","ios":"levelo://app?vid=9d710bb8-5c08-43a0-9e2e-2df35a950232"},"vehicle_type_id":"4","last_reported":1745331049,"current_range_meters":22000,"station_id":"ce4bgrp2rcd13ifvqc9g","pricing_plan_id":"cebpf4jnsgd1na2vs0mg"},{"bike_id":"aea2bca4-95fa-47f9-8d20-bc604ff36464","system_id":"levelo_inurba_marseille","lat":43.32293,"lon":5.38272,"is_reserved":false,"is_disabled":false,"rental_uris":{"android":"levelo://app?vid=aea2bca4-95fa-47f9-8d20-bc604ff36464","ios":"levelo://app?vid=aea2bca4-95fa-47f9-8d20-bc604ff36464"},"vehicle_type_id":"4","last_reported":1745331049,"current_range_meters":22400,"station_id":"ce4bhr12rcd13ifvqhqg","pricing_plan_id":"cebpf4jnsgd1na2vs0mg"},{"bike_id":"e38390ce-dc9d-452e-8fe2-202c541753dc","system_id":"levelo_inurba_marseille","lat":43.27664,"lon":5.38933,"is_reserved":false,"is_disabled":false,"rental_uris":{"android":"levelo://app?vid=e38390ce-dc9d-452e-8fe2-202c541753dc","ios":"levelo://app?vid=e38390ce-dc9d-452e-8fe2-202c541753dc"},"vehicle_type_id":"4","last_reported":1745331049,"current_range_meters":22000,"station_id":"ce4bhi12rcd13ifvqfo0","pricing_plan_id":"cebpf4jnsgd1na2vs0mg"},{"bike_id":"f221328c-e3a8-4055-8470-899e7a019479","system_id":"levelo_inurba_marseille","lat":43.2439,"lon":5.37052,"is_reserved":false,"is_disabled":false,"rental_uris":{"android":"levelo://app?vid=f221328c-e3a8-4055-8470-899e7a019479","ios":"levelo://app?vid=f221328c-e3a8-4055-8470-899e7a019479"},"vehicle_type_id":"4","last_reported":1745331049,"current_range_meters":22400,"station_id":"ce4bhhh2rcd13ifvqfk0","pricing_plan_id":"cebpf4jnsgd1na2vs0mg"},{"bike_id":"603c2ff0-3c81-4c24-9114-3aae3b9d51c5","system_id":"levelo_inurba_marseille","lat":43.28075,"lon":5.39657,"is_reserved":false,"is_disabled":false,"rental_uris":{"android":"levelo://app?vid=603c2ff0-3c81-4c24-9114-3aae3b9d51c5","ios":"levelo://app?vid=603c2ff0-3c81-4c24-9114-3aae3b9d51c5"},"vehicle_type_id":"4","last_reported":1745331049,"current_range_meters":22800,"station_id":"ce4bho12rcd13ifvqh2g","pricing_plan_id":"cebpf4jnsgd1na2vs0mg"},{"bike_id":"83112383-ae13-4cf1-be8b-9bcdf7cb3aed","system_id":"levelo_inurba_marseille","lat":43.2954,"lon":5.38537,"is_reserved":false,"is_disabled":false,"rental_uris":{"android":"levelo://app?vid=83112383-ae13-4cf1-be8b-9bcdf7cb3aed","ios":"levelo://app?vid=83112383-ae13-4cf1-be8b-9bcdf7cb3aed"},"vehicle_type_id":"4","last_reported":1745331049,"current_range_meters":24000,"station_id":"ce4bgih2rcd13ifvqba0","pricing_plan_id":"cebpf4jnsgd1na2vs0mg"},{"bike_id":"85de6b07-9d3d-4194-84bb-e857e4f77131","system_id":"levelo_inurba_marseille","lat":43.29197,"lon":5.35787,"is_reserved":false,"is_disabled":true,"rental_uris":{"android":"levelo://app?vid=85de6b07-9d3d-4194-84bb-e857e4f77131","ios":"levelo://app?vid=85de6b07-9d3d-4194-84bb-e857e4f77131"},"vehicle_type_id":"4","last_reported":1745331049,"current_range_meters":22800,"station_id":"ce4bhb12rcd13ifvqel0","pricing_plan_id":"cebpf4jnsgd1na2vs0mg"},{"bike_id":"f84aeb92-bc88-468c-8e91-798d331a8e11","system_id":"levelo_inurba_marseille","lat":43.32451,"lon":5.36544,"is_reserved":false,"is_disabled":false,"rental_uris":{"android":"levelo://app?vid=f84aeb92-bc88-468c-8e91-798d331a8e11","ios":"levelo://app?vid=f84aeb92-bc88-468c-8e91-798d331a8e11"},"vehicle_type_id":"4","last_reported":1745331049,"current_range_meters":22800,"station_id":"ce4bhs12rcd13ifvqhvg","pricing_plan_id":"cebpf4jnsgd1na2vs0mg"},{"bike_id":"de4dd459-8936-4eea-853f-f6e88a7d14a3","system_id":"levelo_inurba_marseille","lat":43.32342,"lon":5.40626,"is_reserved":false,"is_disabled":false,"rental_uris":{"android":"levelo://app?vid=de4dd459-8936-4eea-853f-f6e88a7d14a3","ios":"levelo://app?vid=de4dd459-8936-4eea-853f-f6e88a7d14a3"},"vehicle_type_id":"4","last_reported":1745331049,"current_range_meters":22800,"station_id":"ce4bhq92rcd13ifvqhjg","pricing_plan_id":"cebpf4jnsgd1na2vs0mg"},{"bike_id":"ac1db382-ef8a-4e6d-872b-99760272d17d","system_id":"levelo_inurba_marseille","lat":43.2811,"lon":5.37847,"is_reserved":false,"is_disabled":false,"rental_uris":{"android":"levelo://app?vid=ac1db382-ef8a-4e6d-872b-99760272d17d","ios":"levelo://app?vid=ac1db382-ef8a-4e6d-872b-99760272d17d"},"vehicle_type_id":"4","last_reported":1745331049,"current_range_meters":22800,"station_id":"ce4bha12rcd13ifvqee0","pricing_plan_id":"cebpf4jnsgd1na2vs0mg"},{"bike_id":"41c57517-8535-48d1-b18b-71c5f9608ef2","system_id":"levelo_inurba_marseille","lat":43.28267,"lon":5.35073,"is_reserved":false,"is_disabled":false,"rental_uris":{"android":"levelo://app?vid=41c57517-8535-48d1-b18b-71c5f9608ef2","ios":"levelo://app?vid=41c57517-8535-48d1-b18b-71c5f9608ef2"},"vehicle_type_id":"4","last_reported":1745331049,"current_range_meters":22800,"station_id":"ce4bhbp2rcd13ifvqerg","pricing_plan_id":"cebpf4jnsgd1na2vs0mg"},{"bike_id":"4aae4c6f-8fa7-4291-a682-96b4c275da76","system_id":"levelo_inurba_marseille","lat":43.29017,"lon":5.37352,"is_reserved":false,"is_disabled":false,"rental_uris":{"android":"levelo://app?vid=4aae4c6f-8fa7-4291-a682-96b4c275da76","ios":"levelo://app?vid=4aae4c6f-8fa7-4291-a682-96b4c275da76"},"vehicle_type_id":"4","last_reported":1745331049,"current_range_meters":22800,"station_id":"","pricing_plan_id":"cebpf4jnsgd1na2vs0mg"},{"bike_id":"7977fae3-7487-4d6f-af60-5d9769690880","system_id":"levelo_inurba_marseille","lat":43.33025,"lon":5.39042,"is_reserved":false,"is_disabled":false,"rental_uris":{"android":"levelo://app?vid=7977fae3-7487-4d6f-af60-5d9769690880","ios":"levelo://app?vid=7977fae3-7487-4d6f-af60-5d9769690880"},"vehicle_type_id":"4","last_reported":1745331049,"current_range_meters":22400,"station_id":"ce4bhr92rcd13ifvqhrg","pricing_plan_id":"cebpf4jnsgd1na2vs0mg"},{"bike_id":"93eed49b-ae4a-453e-a280-a448b5cd0253","system_id":"levelo_inurba_marseille","lat":43.28092,"lon":5.39649,"is_reserved":false,"is_disabled":false,"rental_uris":{"android":"levelo://app?vid=93eed49b-ae4a-453e-a280-a448b5cd0253","ios":"levelo://app?vid=93eed49b-ae4a-453e-a280-a448b5cd0253"},"vehicle_type_id":"4","last_reported":1745331049,"current_range_meters":22800,"station_id":"ce4bho12rcd13ifvqh2g","pricing_plan_id":"cebpf4jnsgd1na2vs0mg"},{"bike_id":"c96a3116-dc42-4265-90af-45c23fb45568","system_id":"levelo_inurba_marseille","lat":43.29007,"lon":5.3561,"is_reserved":false,"is_disabled":false,"rental_uris":{"android":"levelo://app?vid=c96a3116-dc42-4265-90af-45c23fb45568","ios":"levelo://app?vid=c96a3116-dc42-4265-90af-45c23fb45568"},"vehicle_type_id":"4","last_reported":1745331049,"current_range_meters":22800,"station_id":"ce4bhb92rcd13ifvqen0","pricing_plan_id":"cebpf4jnsgd1na2vs0mg"},{"bike_id":"ebd5f51c-528c-4078-916b-87e982d1153d","system_id":"levelo_inurba_marseille","lat":43.28156,"lon":5.426522,"is_reserved":false,"is_disabled":false,"rental_uris":{"android":"levelo://app?vid=ebd5f51c-528c-4078-916b-87e982d1153d","ios":"levelo://app?vid=ebd5f51c-528c-4078-916b-87e982d1153d"},"vehicle_type_id":"4","last_reported":1745331049,"current_range_meters":22800,"station_id":"ce4bhnh2rcd13ifvqgug","pricing_plan_id":"cebpf4jnsgd1na2vs0mg"},{"bike_id":"7a4d23f2-e7f9-455a-bf76-c1cd88ec7172","system_id":"levelo_inurba_marseille","lat":43.2953,"lon":5.38544,"is_reserved":false,"is_disabled":false,"rental_uris":{"android":"levelo://app?vid=7a4d23f2-e7f9-455a-bf76-c1cd88ec7172","ios":"levelo://app?vid=7a4d23f2-e7f9-455a-bf76-c1cd88ec7172"},"vehicle_type_id":"4","last_reported":1745331049,"current_range_meters":22800,"station_id":"ce4bgih2rcd13ifvqba0","pricing_plan_id":"cebpf4jnsgd1na2vs0mg"},{"bike_id":"f21bb829-647f-4af0-a309-caeb8bcebce7","system_id":"levelo_inurba_marseille","lat":43.290136,"lon":5.386619,"is_reserved":false,"is_disabled":false,"rental_uris":{"android":"levelo://app?vid=f21bb829-647f-4af0-a309-caeb8bcebce7","ios":"levelo://app?vid=f21bb829-647f-4af0-a309-caeb8bcebce7"},"vehicle_type_id":"4","last_reported":1745331049,"current_range_meters":22800,"station_id":"ce4bh4p2rcd13ifvqe0g","pricing_plan_id":"cebpf4jnsgd1na2vs0mg"},{"bike_id":"c052840e-67fe-4817-a799-9069f42041a9","system_id":"levelo_inurba_marseille","lat":43.28275,"lon":5.35051,"is_reserved":false,"is_disabled":false,"rental_uris":{"android":"levelo://app?vid=c052840e-67fe-4817-a799-9069f42041a9","ios":"levelo://app?vid=c052840e-67fe-4817-a799-9069f42041a9"},"vehicle_type_id":"4","last_reported":1745331049,"current_range_meters":23200,"station_id":"ce4bhbp2rcd13ifvqerg","pricing_plan_id":"cebpf4jnsgd1na2vs0mg"},{"bike_id":"d0572432-a53b-4f12-b699-031ff3e1f466","system_id":"levelo_inurba_marseille","lat":43.32527,"lon":5.38215,"is_reserved":false,"is_disabled":false,"rental_uris":{"android":"levelo://app?vid=d0572432-a53b-4f12-b699-031ff3e1f466","ios":"levelo://app?vid=d0572432-a53b-4f12-b699-031ff3e1f466"},"vehicle_type_id":"4","last_reported":1745331049,"current_range_meters":23200,"station_id":"","pricing_plan_id":"cebpf4jnsgd1na2vs0mg"},{"bike_id":"6da27505-89be-4a96-88ac-febbb1b1d1e6","system_id":"levelo_inurba_marseille","lat":43.27382,"lon":5.36255,"is_reserved":false,"is_disabled":false,"rental_uris":{"android":"levelo://app?vid=6da27505-89be-4a96-88ac-febbb1b1d1e6","ios":"levelo://app?vid=6da27505-89be-4a96-88ac-febbb1b1d1e6"},"vehicle_type_id":"4","last_reported":1745331049,"current_range_meters":23200,"station_id":"ce4bhbh2rcd13ifvqeo0","pricing_plan_id":"cebpf4jnsgd1na2vs0mg"},{"bike_id":"230b068f-4a2b-44cb-888b-6e7b4a43478c","system_id":"levelo_inurba_marseille","lat":43.2791,"lon":5.38007,"is_reserved":false,"is_disabled":false,"rental_uris":{"android":"levelo://app?vid=230b068f-4a2b-44cb-888b-6e7b4a43478c","ios":"levelo://app?vid=230b068f-4a2b-44cb-888b-6e7b4a43478c"},"vehicle_type_id":"4","last_reported":1745331049,"current_range_meters":23200,"station_id":"ce4bhf92rcd13ifvqf50","pricing_plan_id":"cebpf4jnsgd1na2vs0mg"},{"bike_id":"2f7aa600-ad4a-40b4-abaa-c716bc6fa732","system_id":"levelo_inurba_marseille","lat":43.2408,"lon":5.37749,"is_reserved":false,"is_disabled":false,"rental_uris":{"android":"levelo://app?vid=2f7aa600-ad4a-40b4-abaa-c716bc6fa732","ios":"levelo://app?vid=2f7aa600-ad4a-40b4-abaa-c716bc6fa732"},"vehicle_type_id":"4","last_reported":1745331049,"current_range_meters":23200,"station_id":"ce4bhnp2rcd13ifvqgvg","pricing_plan_id":"cebpf4jnsgd1na2vs0mg"},{"bike_id":"4c393342-0b4d-4092-adee-4b599bf5f157","system_id":"levelo_inurba_marseille","lat":43.29974,"lon":5.3718,"is_reserved":false,"is_disabled":false,"rental_uris":{"android":"levelo://app?vid=4c393342-0b4d-4092-adee-4b599bf5f157","ios":"levelo://app?vid=4c393342-0b4d-4092-adee-4b599bf5f157"},"vehicle_type_id":"4","last_reported":1745331049,"current_range_meters":23200,"station_id":"ce4bgr92rcd13ifvqc7g","pricing_plan_id":"cebpf4jnsgd1na2vs0mg"},{"bike_id":"22219b7e-4a49-48f9-9698-58aef7f57c63","system_id":"levelo_inurba_marseille","lat":43.27361,"lon":5.36238,"is_reserved":false,"is_disabled":false,"rental_uris":{"android":"levelo://app?vid=22219b7e-4a49-48f9-9698-58aef7f57c63","ios":"levelo://app?vid=22219b7e-4a49-48f9-9698-58aef7f57c63"},"vehicle_type_id":"4","last_reported":1745331049,"current_range_meters":23200,"station_id":"ce4bhbh2rcd13ifvqeo0","pricing_plan_id":"cebpf4jnsgd1na2vs0mg"},{"bike_id":"31f1c4a9-a303-4725-97f7-c93e26a76473","system_id":"levelo_inurba_marseille","lat":43.30906,"lon":5.36859,"is_reserved":false,"is_disabled":false,"rental_uris":{"android":"levelo://app?vid=31f1c4a9-a303-4725-97f7-c93e26a76473","ios":"levelo://app?vid=31f1c4a9-a303-4725-97f7-c93e26a76473"},"vehicle_type_id":"4","last_reported":1745331049,"current_range_meters":22800,"station_id":"ce4bgn92rcd13ifvqbvg","pricing_plan_id":"cebpf4jnsgd1na2vs0mg"},{"bike_id":"d4061684-00ed-4373-92d0-e873b081fb53","system_id":"levelo_inurba_marseille","lat":43.28033,"lon":5.36945,"is_reserved":false,"is_disabled":false,"rental_uris":{"android":"levelo://app?vid=d4061684-00ed-4373-92d0-e873b081fb53","ios":"levelo://app?vid=d4061684-00ed-4373-92d0-e873b081fb53"},"vehicle_type_id":"4","last_reported":1745331049,"current_range_meters":23200,"station_id":"ce4bha12rcd13ifvqef0","pricing_plan_id":"cebpf4jnsgd1na2vs0mg"},{"bike_id":"9d29c911-3aea-4ca6-acfd-3166a9363c06","system_id":"levelo_inurba_marseille","lat":43.29193,"lon":5.39316,"is_reserved":false,"is_disabled":false,"rental_uris":{"android":"levelo://app?vid=9d29c911-3aea-4ca6-acfd-3166a9363c06","ios":"levelo://app?vid=9d29c911-3aea-4ca6-acfd-3166a9363c06"},"vehicle_type_id":"4","last_reported":1745331049,"current_range_meters":24000,"station_id":"ce4bh192rcd13ifvqdd0","pricing_plan_id":"cebpf4jnsgd1na2vs0mg"},{"bike_id":"84a6d95c-c10d-4ba6-8377-f375f2091b31","system_id":"levelo_inurba_marseille","lat":43.27678,"lon":5.3887,"is_reserved":false,"is_disabled":false,"rental_uris":{"android":"levelo://app?vid=84a6d95c-c10d-4ba6-8377-f375f2091b31","ios":"levelo://app?vid=84a6d95c-c10d-4ba6-8377-f375f2091b31"},"vehicle_type_id":"4","last_reported":1745331049,"current_range_meters":23200,"station_id":"ce4bhi12rcd13ifvqfo0","pricing_plan_id":"cebpf4jnsgd1na2vs0mg"},{"bike_id":"cb7fe1c1-1902-40a0-acde-d858582ca0cd","system_id":"levelo_inurba_marseille","lat":43.28435,"lon":5.3921,"is_reserved":false,"is_disabled":false,"rental_uris":{"android":"levelo://app?vid=cb7fe1c1-1902-40a0-acde-d858582ca0cd","ios":"levelo://app?vid=cb7fe1c1-1902-40a0-acde-d858582ca0cd"},"vehicle_type_id":"4","last_reported":1745331049,"current_range_meters":23200,"station_id":"ce4bhoh2rcd13ifvqh5g","pricing_plan_id":"cebpf4jnsgd1na2vs0mg"},{"bike_id":"7e727294-4b87-4925-99ad-6ff7748da52b","system_id":"levelo_inurba_marseille","lat":43.311624,"lon":5.387185,"is_reserved":false,"is_disabled":false,"rental_uris":{"android":"levelo://app?vid=7e727294-4b87-4925-99ad-6ff7748da52b","ios":"levelo://app?vid=7e727294-4b87-4925-99ad-6ff7748da52b"},"vehicle_type_id":"4","last_reported":1745331049,"current_range_meters":23200,"station_id":"ce4bgv12rcd13ifvqcp0","pricing_plan_id":"cebpf4jnsgd1na2vs0mg"},{"bike_id":"afce365f-bc9b-463b-aed8-9dcfd6e275b5","system_id":"levelo_inurba_marseille","lat":43.2319,"lon":5.400095,"is_reserved":false,"is_disabled":false,"rental_uris":{"android":"levelo://app?vid=afce365f-bc9b-463b-aed8-9dcfd6e275b5","ios":"levelo://app?vid=afce365f-bc9b-463b-aed8-9dcfd6e275b5"},"vehicle_type_id":"4","last_reported":1745331049,"current_range_meters":24000,"station_id":"ce4bhn12rcd13ifvqgqg","pricing_plan_id":"cebpf4jnsgd1na2vs0mg"},{"bike_id":"ce98710d-864d-4822-95df-5551412af500","system_id":"levelo_inurba_marseille","lat":43.2815,"lon":5.42652,"is_reserved":false,"is_disabled":false,"rental_uris":{"android":"levelo://app?vid=ce98710d-864d-4822-95df-5551412af500","ios":"levelo://app?vid=ce98710d-864d-4822-95df-5551412af500"},"vehicle_type_id":"4","last_reported":1745331049,"current_range_meters":24000,"station_id":"ce4bhnh2rcd13ifvqgug","pricing_plan_id":"cebpf4jnsgd1na2vs0mg"},{"bike_id":"eddf388e-8873-45ba-ad33-881fd27c608c","system_id":"levelo_inurba_marseille","lat":43.29289,"lon":5.37438,"is_reserved":false,"is_disabled":true,"rental_uris":{"android":"levelo://app?vid=eddf388e-8873-45ba-ad33-881fd27c608c","ios":"levelo://app?vid=eddf388e-8873-45ba-ad33-881fd27c608c"},"vehicle_type_id":"4","last_reported":1745331049,"current_range_meters":24000,"station_id":"ce4bgi12rcd13ifvqb70","pricing_plan_id":"cebpf4jnsgd1na2vs0mg"},{"bike_id":"3e1aa07e-ba8e-4b79-b07a-a16dc4d555d4","system_id":"levelo_inurba_marseille","lat":43.27933,"lon":5.38718,"is_reserved":false,"is_disabled":false,"rental_uris":{"android":"levelo://app?vid=3e1aa07e-ba8e-4b79-b07a-a16dc4d555d4","ios":"levelo://app?vid=3e1aa07e-ba8e-4b79-b07a-a16dc4d555d4"},"vehicle_type_id":"4","last_reported":1745331049,"current_range_meters":23200,"station_id":"ce4bhg12rcd13ifvqf80","pricing_plan_id":"cebpf4jnsgd1na2vs0mg"},{"bike_id":"5630f52d-0448-4fa0-94dd-5eaa69c05d03","system_id":"levelo_inurba_marseille","lat":43.27071,"lon":5.422843,"is_reserved":false,"is_disabled":false,"rental_uris":{"android":"levelo://app?vid=5630f52d-0448-4fa0-94dd-5eaa69c05d03","ios":"levelo://app?vid=5630f52d-0448-4fa0-94dd-5eaa69c05d03"},"vehicle_type_id":"4","last_reported":1745331049,"current_range_meters":24400,"station_id":"ce4bhk92rcd13ifvqgb0","pricing_plan_id":"cebpf4jnsgd1na2vs0mg"},{"bike_id":"377fd691-ed06-4da8-9e50-df4bba32eaee","system_id":"levelo_inurba_marseille","lat":43.29623,"lon":5.37163,"is_reserved":false,"is_disabled":false,"rental_uris":{"android":"levelo://app?vid=377fd691-ed06-4da8-9e50-df4bba32eaee","ios":"levelo://app?vid=377fd691-ed06-4da8-9e50-df4bba32eaee"},"vehicle_type_id":"4","last_reported":1745331049,"current_range_meters":24000,"station_id":"ce4bgnh2rcd13ifvqc0g","pricing_plan_id":"cebpf4jnsgd1na2vs0mg"},{"bike_id":"2f852e55-13a6-4d23-bf59-dc4c8e974a18","system_id":"levelo_inurba_marseille","lat":43.30148,"lon":5.38085,"is_reserved":false,"is_disabled":false,"rental_uris":{"android":"levelo://app?vid=2f852e55-13a6-4d23-bf59-dc4c8e974a18","ios":"levelo://app?vid=2f852e55-13a6-4d23-bf59-dc4c8e974a18"},"vehicle_type_id":"4","last_reported":1745331049,"current_range_meters":24400,"station_id":"ce4bgjp2rcd13ifvqbh0","pricing_plan_id":"cebpf4jnsgd1na2vs0mg"},{"bike_id":"eb298cc4-6942-48ba-a3c4-349aa5ba653c","system_id":"levelo_inurba_marseille","lat":43.29972,"lon":5.38478,"is_reserved":false,"is_disabled":false,"rental_uris":{"android":"levelo://app?vid=eb298cc4-6942-48ba-a3c4-349aa5ba653c","ios":"levelo://app?vid=eb298cc4-6942-48ba-a3c4-349aa5ba653c"},"vehicle_type_id":"4","last_reported":1745331049,"current_range_meters":24400,"station_id":"ce4bgj92rcd13ifvqbd0","pricing_plan_id":"cebpf4jnsgd1na2vs0mg"},{"bike_id":"ddeb53d8-8173-4165-9711-3840c3c82adb","system_id":"levelo_inurba_marseille","lat":43.28075,"lon":5.39652,"is_reserved":false,"is_disabled":false,"rental_uris":{"android":"levelo://app?vid=ddeb53d8-8173-4165-9711-3840c3c82adb","ios":"levelo://app?vid=ddeb53d8-8173-4165-9711-3840c3c82adb"},"vehicle_type_id":"4","last_reported":1745331049,"current_range_meters":24400,"station_id":"ce4bho12rcd13ifvqh2g","pricing_plan_id":"cebpf4jnsgd1na2vs0mg"},{"bike_id":"e6e2760d-c8e4-4f02-94d6-80b161a2552b","system_id":"levelo_inurba_marseille","lat":43.30511,"lon":5.3667,"is_reserved":false,"is_disabled":false,"rental_uris":{"android":"levelo://app?vid=e6e2760d-c8e4-4f02-94d6-80b161a2552b","ios":"levelo://app?vid=e6e2760d-c8e4-4f02-94d6-80b161a2552b"},"vehicle_type_id":"4","last_reported":1745331049,"current_range_meters":24400,"station_id":"","pricing_plan_id":"cebpf4jnsgd1na2vs0mg"},{"bike_id":"14e59606-8fb3-429b-8a43-0225ac2a98b3","system_id":"levelo_inurba_marseille","lat":43.28155,"lon":5.42644,"is_reserved":false,"is_disabled":false,"rental_uris":{"android":"levelo://app?vid=14e59606-8fb3-429b-8a43-0225ac2a98b3","ios":"levelo://app?vid=14e59606-8fb3-429b-8a43-0225ac2a98b3"},