{"last_updated":1726524466,"ttl":30,"version":"2.2","data":{"bikes":[{"bike_id":"1e4e25cc-20ca-4921-a5dd-7d0a92a2f479","system_id":"levelo_inurba_marseille","lat":43.30647,"lon":5.40069,"is_reserved":false,"is_disabled":false,"rental_uris":{"android":"levelo://app?vid=1e4e25cc-20ca-4921-a5dd-7d0a92a2f479","ios":"levelo://app?vid=1e4e25cc-20ca-4921-a5dd-7d0a92a2f479"},"vehicle_type_id":"4","last_reported":1726524466,"current_range_meters":38000,"station_id":"ce4bh112rcd13ifvqda0","pricing_plan_id":"cebpf4jnsgd1na2vs0mg"},{"bike_id":"18d6962d-b5d0-4cf1-8d82-4aef16436bc2","system_id":"levelo_inurba_marseille","lat":43.28614,"lon":5.35108,"is_reserved":false,"is_disabled":false,"rental_uris":{"android":"levelo://app?vid=18d6962d-b5d0-4cf1-8d82-4aef16436bc2","ios":"levelo://app?vid=18d6962d-b5d0-4cf1-8d82-4aef16436bc2"},"vehicle_type_id":"4","last_reported":1726524466,"current_range_meters":38800,"station_id":"ce4bhch2rcd13ifvqeug","pricing_plan_id":"cebpf4jnsgd1na2vs0mg"},{"bike_id":"137917db-1595-42b1-8d66-795edcf5d6c3","system_id":"levelo_inurba_marseille","lat":43.25877,"lon":5.39897,"is_reserved":false,"is_disabled":false,"rental_uris":{"android":"levelo://app?vid=137917db-1595-42b1-8d66-795edcf5d6c3","ios":"levelo://app?vid=137917db-1595-42b1-8d66-795edcf5d6c3"},"vehicle_type_id":"4","last_reported":1726524466,"current_range_meters":16400,"station_id":"ce4bhl92rcd13ifvqghg","pricing_plan_id":"cebpf4jnsgd1na2vs0mg"},{"bike_id":"94093477-d3cb-4d9b-bda9-bd54e8de9360","system_id":"levelo_inurba_marseille","lat":43.32988,"lon":5.3907,"is_reserved":false,"is_disabled":false,"rental_uris":{"android":"levelo://app?vid=94093477-d3cb-4d9b-bda9-bd54e8de9360","ios":"levelo://app?vid=94093477-d3cb-4d9b-bda9-bd54e8de9360"},"vehicle_type_id":"4","last_reported":1726524466,"current_range_meters":19600,"station_id":"ce4bhr92rcd13ifvqhrg","pricing_plan_id":"cebpf4jnsgd1na2vs0mg"},{"bike_id":"69077a2b-0f03-4872-a111-57365b0a4595","system_id":"levelo_inurba_marseille","lat":43.27202,"lon":5.39187,"is_reserved":false,"is_disabled":false,"rental_uris":{"android":"levelo://app?vid=69077a2b-0f03-4872-a111-57365b0a4595","ios":"levelo://app?vid=69077a2b-0f03-4872-a111-57365b0a4595"},"vehicle_type_id":"4","last_reported":1726524466,"current_range_meters":38800,"station_id":"ce4bhhp2rcd13ifvqfm0","pricing_plan_id":"cebpf4jnsgd1na2vs0mg"},{"bike_id":"43176770-eaee-4996-86c7-d408161e4ce6","system_id":"levelo_inurba_marseille","lat":43.29896,"lon":5.43673,"is_reserved":false,"is_disabled":false,"rental_uris":{"android":"levelo://app?vid=43176770-eaee-4996-86c7-d408161e4ce6","ios":"levelo://app?vid=43176770-eaee-4996-86c7-d408161e4ce6"},"vehicle_type_id":"4","last_reported":1726524466,"current_range_meters":8800,"station_id":"ce4bhpp2rcd13ifvqhfg","pricing_plan_id":"cebpf4jnsgd1na2vs0mg"},{"bike_id":"0f1eacce-9190-449c-a59a-d80c044e8d7a","system_id":"levelo_inurba_marseille","lat":43.30898,"lon":5.39651,"is_reserved":false,"is_disabled":false,"rental_uris":{"android":"levelo://app?vid=0f1eacce-9190-449c-a59a-d80c044e8d7a","ios":"levelo://app?vid=0f1eacce-9190-449c-a59a-d80c044e8d7a"},"vehicle_type_id":"4","last_reported":1726524466,"current_range_meters":20800,"station_id":"ce4bh012rcd13ifvqcv0","pricing_plan_id":"cebpf4jnsgd1na2vs0mg"},{"bike_id":"9ae74781-e291-4f41-9df0-8d2a770621ca","system_id":"levelo_inurba_marseille","lat":43.298767,"lon":5.401002,"is_reserved":false,"is_disabled":false,"rental_uris":{"android":"levelo://app?vid=9ae74781-e291-4f41-9df0-8d2a770621ca","ios":"levelo://app?vid=9ae74781-e291-4f41-9df0-8d2a770621ca"},"vehicle_type_id":"4","last_reported":1726524466,"current_range_meters":5600,"station_id":"ce4bhr92rcd13ifvqhrg","pricing_plan_id":"cebpf4jnsgd1na2vs0mg"},{"bike_id":"ad1268a9-189d-4991-8a09-c960b5b46bd0","system_id":"levelo_inurba_marseille","lat":43.296164,"lon":5.37212,"is_reserved":false,"is_disabled":false,"rental_uris":{"android":"levelo://app?vid=ad1268a9-189d-4991-8a09-c960b5b46bd0","ios":"levelo://app?vid=ad1268a9-189d-4991-8a09-c960b5b46bd0"},"vehicle_type_id":"4","last_reported":1726524466,"current_range_meters":30000,"station_id":"cki0cbj6b192h4jlfktg","pricing_plan_id":"cebpf4jnsgd1na2vs0mg"},{"bike_id":"ed0a327c-2fe7-4a70-9761-39b1195ad3af","system_id":"levelo_inurba_marseille","lat":43.29306,"lon":5.37163,"is_reserved":false,"is_disabled":false,"rental_uris":{"android":"levelo://app?vid=ed0a327c-2fe7-4a70-9761-39b1195ad3af","ios":"levelo://app?vid=ed0a327c-2fe7-4a70-9761-39b1195ad3af"},"vehicle_type_id":"4","last_reported":1726524466,"current_range_meters":30000,"station_id":"ce4bgh92rcd13ifvqb40","pricing_plan_id":"cebpf4jnsgd1na2vs0mg"},{"bike_id":"7e0eb0bf-1dd8-4c61-80c2-927ba429e435","system_id":"levelo_inurba_marseille","lat":43.24387,"lon":5.37056,"is_reserved":false,"is_disabled":false,"rental_uris":{"android":"levelo://app?vid=7e0eb0bf-1dd8-4c61-80c2-927ba429e435","ios":"levelo://app?vid=7e0eb0bf-1dd8-4c61-80c2-927ba429e435"},"vehicle_type_id":"4","last_reported":1726524466,"current_range_meters":38800,"station_id":"ce4bhhh2rcd13ifvqfk0","pricing_plan_id":"cebpf4jnsgd1na2vs0mg"},{"bike_id":"13ec4916-f0ea-4897-8afc-596425b42c42","system_id":"levelo_inurba_marseille","lat":43.2319,"lon":5.35561,"is_reserved":false,"is_disabled":false,"rental_uris":{"android":"levelo://app?vid=13ec4916-f0ea-4897-8afc-596425b42c42","ios":"levelo://app?vid=13ec4916-f0ea-4897-8afc-596425b42c42"},"vehicle_type_id":"4","last_reported":1726524466,"current_range_meters":12800,"station_id":"ce4bhu92rcd13ifvqi70","pricing_plan_id":"cebpf4jnsgd1na2vs0mg"},{"bike_id":"7a0bab49-27b5-44fc-ac4d-73ae01c977f9","system_id":"levelo_inurba_marseille","lat":43.32364,"lon":5.38886,"is_reserved":false,"is_disabled":false,"rental_uris":{"android":"levelo://app?vid=7a0bab49-27b5-44fc-ac4d-73ae01c977f9","ios":"levelo://app?vid=7a0bab49-27b5-44fc-ac4d-73ae01c977f9"},"vehicle_type_id":"4","last_reported":1726524466,"current_range_meters":38800,"station_id":"ce4bhqp2rcd13ifvqhog","pricing_plan_id":"cebpf4jnsgd1na2vs0mg"},{"bike_id":"783830e1-6ddd-42ba-8c79-275029d3124d","system_id":"levelo_inurba_marseille","lat":43.28727,"lon":5.36089,"is_reserved":false,"is_disabled":false,"rental_uris":{"android":"levelo://app?vid=783830e1-6ddd-42ba-8c79-275029d3124d","ios":"levelo://app?vid=783830e1-6ddd-42ba-8c79-275029d3124d"},"vehicle_type_id":"4","last_reported":1726524466,"current_range_meters":8000,"station_id":"cki0cbj6b192h4jlfktg","pricing_plan_id":"cebpf4jnsgd1na2vs0mg"},{"bike_id":"3692f362-f0ec-4807-ba7c-fa68e8e3bfb1","system_id":"levelo_inurba_marseille","lat":43.31263,"lon":5.37414,"is_reserved":false,"is_disabled":false,"rental_uris":{"android":"levelo://app?vid=3692f362-f0ec-4807-ba7c-fa68e8e3bfb1","ios":"levelo://app?vid=3692f362-f0ec-4807-ba7c-fa68e8e3bfb1"},"vehicle_type_id":"4","last_reported":1726524466,"current_range_meters":36800,"station_id":"","pricing_plan_id":"cebpf4jnsgd1na2vs0mg"},{"bike_id":"4693d04e-9ca9-4318-bc78-f64aea014232","system_id":"levelo_inurba_marseille","lat":43.29222,"lon":5.36062,"is_reserved":false,"is_disabled":false,"rental_uris":{"android":"levelo://app?vid=4693d04e-9ca9-4318-bc78-f64aea014232","ios":"levelo://app?vid=4693d04e-9ca9-4318-bc78-f64aea014232"},"vehicle_type_id":"4","last_reported":1726524466,"current_range_meters":25600,"station_id":"ce4bhbh2rcd13ifvqeqg","pricing_plan_id":"cebpf4jnsgd1na2vs0mg"},{"bike_id":"e5a3b5b3-2320-4c4e-9f8b-9f6fa23846a7","system_id":"levelo_inurba_marseille","lat":43.31758,"lon":5.39014,"is_reserved":false,"is_disabled":false,"rental_uris":{"android":"levelo://app?vid=e5a3b5b3-2320-4c4e-9f8b-9f6fa23846a7","ios":"levelo://app?vid=e5a3b5b3-2320-4c4e-9f8b-9f6fa23846a7"},"vehicle_type_id":"4","last_reported":1726524466,"current_range_meters":37600,"station_id":"ce4bhqp2rcd13ifvqhng","pricing_plan_id":"cebpf4jnsgd1na2vs0mg"},{"bike_id":"66a11e96-8394-4385-9cd5-65f3f9c28446","system_id":"levelo_inurba_marseille","lat":43.31757,"lon":5.39014,"is_reserved":false,"is_disabled":false,"rental_uris":{"android":"levelo://app?vid=66a11e96-8394-4385-9cd5-65f3f9c28446","ios":"levelo://app?vid=66a11e96-8394-4385-9cd5-65f3f9c28446"},"vehicle_type_id":"4","last_reported":1726524466,"current_range_meters":20800,"station_id":"ce4bhqp2rcd13ifvqhng","pricing_plan_id":"cebpf4jnsgd1na2vs0mg"},{"bike_id":"e3e3b4a7-6d5e-48d3-ba69-f3a80ee0dcef","system_id":"levelo_inurba_marseille","lat":43.29252,"lon":5.4091,"is_reserved":false,"is_disabled":false,"rental_uris":{"android":"levelo://app?vid=e3e3b4a7-6d5e-48d3-ba69-f3a80ee0dcef","ios":"levelo://app?vid=e3e3b4a7-6d5e-48d3-ba69-f3a80ee0dcef"},"vehicle_type_id":"4","last_reported":1726524466,"current_range_meters":8800,"station_id":"ce4bh192rcd13ifvqdc0","pricing_plan_id":"cebpf4jnsgd1na2vs0mg"},{"bike_id":"b196c513-8bf3-418d-bf86-aeb8fb8f2275","system_id":"levelo_inurba_marseille","lat":43.31373,"lon":5.38492,"is_reserved":false,"is_disabled":false,"rental_uris":{"android":"levelo://app?vid=b196c513-8bf3-418d-bf86-aeb8fb8f2275","ios":"levelo://app?vid=b196c513-8bf3-418d-bf86-aeb8fb8f2275"},"vehicle_type_id":"4","last_reported":1726524466,"current_range_meters":33200,"station_id":"ce4bgt92rcd13ifvqcf0","pricing_plan_id":"cebpf4jnsgd1na2vs0mg"},{"bike_id":"dbd298e0-a382-4414-92ca-00d7d938bcff","system_id":"levelo_inurba_marseille","lat":43.23197,"lon":5.35547,"is_reserved":false,"is_disabled":false,"rental_uris":{"android":"levelo://app?vid=dbd298e0-a382-4414-92ca-00d7d938bcff","ios":"levelo://app?vid=dbd298e0-a382-4414-92ca-00d7d938bcff"},"vehicle_type_id":"4","last_reported":1726524466,"current_range_meters":38800,"station_id":"ce4bhu92rcd13ifvqi70","pricing_plan_id":"cebpf4jnsgd1na2vs0mg"},{"bike_id":"74604862-7a27-47d9-a14c-08aaf1e49bdc","system_id":"levelo_inurba_marseille","lat":43.30419,"lon":5.41287,"is_reserved":false,"is_disabled":false,"rental_uris":{"android":"levelo://app?vid=74604862-7a27-47d9-a14c-08aaf1e49bdc","ios":"levelo://app?vid=74604862-7a27-47d9-a14c-08aaf1e49bdc"},"vehicle_type_id":"4","last_reported":1726524466,"current_range_meters":15200,"station_id":"ce4bhop2rcd13ifvqh8g","pricing_plan_id":"cebpf4jnsgd1na2vs0mg"},{"bike_id":"79b73ca8-4ce3-4891-bf2b-a24a123a231c","system_id":"levelo_inurba_marseille","lat":43.26942,"lon":5.40254,"is_reserved":false,"is_disabled":false,"rental_uris":{"android":"levelo://app?vid=79b73ca8-4ce3-4891-bf2b-a24a123a231c","ios":"levelo://app?vid=79b73ca8-4ce3-4891-bf2b-a24a123a231c"},"vehicle_type_id":"4","last_reported":1726524466,"current_range_meters":22800,"station_id":"cjm6bp8fraef2m0cb0m0","pricing_plan_id":"cebpf4jnsgd1na2vs0mg"},{"bike_id":"b7f37428-ee41-463f-a653-e8cd89c64d97","system_id":"levelo_inurba_marseille","lat":43.3014,"lon":5.3742,"is_reserved":false,"is_disabled":false,"rental_uris":{"android":"levelo://app?vid=b7f37428-ee41-463f-a653-e8cd89c64d97","ios":"levelo://app?vid=b7f37428-ee41-463f-a653-e8cd89c64d97"},"vehicle_type_id":"4","last_reported":1726524466,"current_range_meters":24800,"station_id":"ce4bgs92rcd13ifvqcc0","pricing_plan_id":"cebpf4jnsgd1na2vs0mg"},{"bike_id":"8420397d-a83c-4adc-9a3b-30db84a637f5","system_id":"levelo_inurba_marseille","lat":43.3093,"lon":5.40144,"is_reserved":false,"is_disabled":false,"rental_uris":{"android":"levelo://app?vid=8420397d-a83c-4adc-9a3b-30db84a637f5","ios":"levelo://app?vid=8420397d-a83c-4adc-9a3b-30db84a637f5"},"vehicle_type_id":"4","last_reported":1726524466,"current_range_meters":28400,"station_id":"ce4bgvp2rcd13ifvqct0","pricing_plan_id":"cebpf4jnsgd1na2vs0mg"},{"bike_id":"a822287c-c405-4af0-81ff-47c50ede9a33","system_id":"levelo_inurba_marseille","lat":43.299814,"lon":5.371423,"is_reserved":false,"is_disabled":false,"rental_uris":{"android":"levelo://app?vid=a822287c-c405-4af0-81ff-47c50ede9a33","ios":"levelo://app?vid=a822287c-c405-4af0-81ff-47c50ede9a33"},"vehicle_type_id":"4","last_reported":1726524466,"current_range_meters":31200,"station_id":"ce4bgr92rcd13ifvqc7g","pricing_plan_id":"cebpf4jnsgd1na2vs0mg"},{"bike_id":"2a5808e5-1612-4dc1-a62b-b9c71459256c","system_id":"levelo_inurba_marseille","lat":43.34093,"lon":5.39108,"is_reserved":false,"is_disabled":false,"rental_uris":{"android":"levelo://app?vid=2a5808e5-1612-4dc1-a62b-b9c71459256c","ios":"levelo://app?vid=2a5808e5-1612-4dc1-a62b-b9c71459256c"},"vehicle_type_id":"4","last_reported":1726524466,"current_range_meters":16400,"station_id":"","pricing_plan_id":"cebpf4jnsgd1na2vs0mg"},{"bike_id":"1e38682e-d647-4de2-b6c0-fcec4e4dce9f","system_id":"levelo_inurba_marseille","lat":43.33026,"lon":5.39035,"is_reserved":false,"is_disabled":false,"rental_uris":{"android":"levelo://app?vid=1e38682e-d647-4de2-b6c0-fcec4e4dce9f","ios":"levelo://app?vid=1e38682e-d647-4de2-b6c0-fcec4e4dce9f"},"vehicle_type_id":"4","last_reported":1726524466,"current_range_meters":38800,"station_id":"ce4bhr92rcd13ifvqhrg","pricing_plan_id":"cebpf4jnsgd1na2vs0mg"},{"bike_id":"e75bdf37-6017-4dd9-8183-f2edc970ca06","system_id":"levelo_inurba_marseille","lat":43.23192,"lon":5.35557,"is_reserved":false,"is_disabled":false,"rental_uris":{"android":"levelo://app?vid=e75bdf37-6017-4dd9-8183-f2edc970ca06","ios":"levelo://app?vid=e75bdf37-6017-4dd9-8183-f2edc970ca06"},"vehicle_type_id":"4","last_reported":1726524466,"current_range_meters":33600,"station_id":"ce4bhu92rcd13ifvqi70","pricing_plan_id":"cebpf4jnsgd1na2vs0mg"},{"bike_id":"9c14c0d4-3df9-4122-aa56-074da3d0cc4b","system_id":"levelo_inurba_marseille","lat":43.2718,"lon":5.40987,"is_reserved":false,"is_disabled":false,"rental_uris":{"android":"levelo://app?vid=9c14c0d4-3df9-4122-aa56-074da3d0cc4b","ios":"levelo://app?vid=9c14c0d4-3df9-4122-aa56-074da3d0cc4b"},"vehicle_type_id":"4","last_reported":1726524466,"current_range_meters":38800,"station_id":"ce4bhl12rcd13ifvqgf0","pricing_plan_id":"cebpf4jnsgd1na2vs0mg"},{"bike_id":"f1b480fe-f3fc-4ba3-a80e-6f1450ad2cfd","system_id":"levelo_inurba_marseille","lat":43.27071,"lon":5.42281,"is_reserved":false,"is_disabled":false,"rental_uris":{"android":"levelo://app?vid=f1b480fe-f3fc-4ba3-a80e-6f1450ad2cfd","ios":"levelo://app?vid=f1b480fe-f3fc-4ba3-a80e-6f1450ad2cfd"},"vehicle_type_id":"4","last_reported":1726524466,"current_range_meters":14400,"station_id":"ce4bhk92rcd13ifvqgb0","pricing_plan_id":"cebpf4jnsgd1na2vs0mg"},{"bike_id":"fcc2c5ab-6008-40d3-9bbf-9a0f5b13a2b6","system_id":"levelo_inurba_marseille","lat":43.28727,"lon":5.36079,"is_reserved":false,"is_disabled":false,"rental_uris":{"android":"levelo://app?vid=fcc2c5ab-6008-40d3-9bbf-9a0f5b13a2b6","ios":"levelo://app?vid=fcc2c5ab-6008-40d3-9bbf-9a0f5b13a2b6"},"vehicle_type_id":"4","last_reported":1726524466,"current_range_meters":28000,"station_id":"cki0cbj6b192h4jlfktg","pricing_plan_id":"cebpf4jnsgd1na2vs0mg"},{"bike_id":"ad32bf8b-3845-4c67-9803-214b89d24a12","system_id":"levelo_inurba_marseille","lat":43.2707,"lon":5.42276,"is_reserved":false,"is_disabled":false,"rental_uris":{"android":"levelo://app?vid=ad32bf8b-3845-4c67-9803-214b89d24a12","ios":"levelo://app?vid=ad32bf8b-3845-4c67-9803-214b89d24a12"},"vehicle_type_id":"4","last_reported":1726524466,"current_range_meters":26000,"station_id":"ce4bhk92rcd13ifvqgb0","pricing_plan_id":"cebpf4jnsgd1na2vs0mg"},{"bike_id":"74777c08-e7e7-4446-a257-ce6e096cbef1","system_id":"levelo_inurba_marseille","lat":43.28105,"lon":5.37845,"is_reserved":false,"is_disabled":false,"rental_uris":{"android":"levelo://app?vid=74777c08-e7e7-4446-a257-ce6e096cbef1","ios":"levelo://app?vid=74777c08-e7e7-4446-a257-ce6e096cbef1"},"vehicle_type_id":"4","last_reported":1726524466,"current_range_meters":34000,"station_id":"ce4bha12rcd13ifvqee0","pricing_plan_id":"cebpf4jnsgd1na2vs0mg"},{"bike_id":"3362a05a-f511-46d9-b7fa-f6f6962435ed","system_id":"levelo_inurba_marseille","lat":43.29101,"lon":5.38126,"is_reserved":false,"is_disabled":false,"rental_uris":{"android":"levelo://app?vid=3362a05a-f511-46d9-b7fa-f6f6962435ed","ios":"levelo://app?vid=3362a05a-f511-46d9-b7fa-f6f6962435ed"},"vehicle_type_id":"4","last_reported":1726524466,"current_range_meters":38000,"station_id":"ce4bh512rcd13ifvqe2g","pricing_plan_id":"cebpf4jnsgd1na2vs0mg"},{"bike_id":"bc4109ff-c07d-4952-a356-bfbe0bae95a6","system_id":"levelo_inurba_marseille","lat":43.29248,"lon":5.40222,"is_reserved":false,"is_disabled":false,"rental_uris":{"android":"levelo://app?vid=bc4109ff-c07d-4952-a356-bfbe0bae95a6","ios":"levelo://app?vid=bc4109ff-c07d-4952-a356-bfbe0bae95a6"},"vehicle_type_id":"4","last_reported":1726524466,"current_range_meters":38800,"station_id":"","pricing_plan_id":"cebpf4jnsgd1na2vs0mg"},{"bike_id":"92330d91-2db6-4082-8189-b7b509798f90","system_id":"levelo_inurba_marseille","lat":43.29275,"lon":5.40124,"is_reserved":false,"is_disabled":false,"rental_uris":{"android":"levelo://app?vid=92330d91-2db6-4082-8189-b7b509798f90","ios":"levelo://app?vid=92330d91-2db6-4082-8189-b7b509798f90"},"vehicle_type_id":"4","last_reported":1726524466,"current_range_meters":38800,"station_id":"ce4bh312rcd13ifvqdk0","pricing_plan_id":"cebpf4jnsgd1na2vs0mg"},{"bike_id":"1d6033e7-4e92-469d-9ddd-2a9e47d6d39a","system_id":"levelo_inurba_marseille","lat":43.2481,"lon":5.37462,"is_reserved":false,"is_disabled":false,"rental_uris":{"android":"levelo://app?vid=1d6033e7-4e92-469d-9ddd-2a9e47d6d39a","ios":"levelo://app?vid=1d6033e7-4e92-469d-9ddd-2a9e47d6d39a"},"vehicle_type_id":"4","last_reported":1726524466,"current_range_meters":6800,"station_id":"ce4bhgh2rcd13ifvqfb0","pricing_plan_id":"cebpf4jnsgd1na2vs0mg"},{"bike_id":"0cb1d315-e084-4f99-b779-42e2f04d3818","system_id":"levelo_inurba_marseille","lat":43.24387,"lon":5.37063,"is_reserved":false,"is_disabled":false,"rental_uris":{"android":"levelo://app?vid=0cb1d315-e084-4f99-b779-42e2f04d3818","ios":"levelo://app?vid=0cb1d315-e084-4f99-b779-42e2f04d3818"},"vehicle_type_id":"4","last_reported":1726524466,"current_range_meters":38800,"station_id":"ce4bhhh2rcd13ifvqfk0","pricing_plan_id":"cebpf4jnsgd1na2vs0mg"},{"bike_id":"967fb871-c1d4-412b-9694-5a2a7210d797","system_id":"levelo_inurba_marseille","lat":43.31075,"lon":5.38363,"is_reserved":false,"is_disabled":false,"rental_uris":{"android":"levelo://app?vid=967fb871-c1d4-412b-9694-5a2a7210d797","ios":"levelo://app?vid=967fb871-c1d4-412b-9694-5a2a7210d797"},"vehicle_type_id":"4","last_reported":1726524466,"current_range_meters":30000,"station_id":"ce4bgv92rcd13ifvqcr0","pricing_plan_id":"cebpf4jnsgd1na2vs0mg"},{"bike_id":"d6c709ac-d8cd-4d37-9778-c40f7cfe020f","system_id":"levelo_inurba_marseille","lat":43.23187,"lon":5.39987,"is_reserved":false,"is_disabled":false,"rental_uris":{"android":"levelo://app?vid=d6c709ac-d8cd-4d37-9778-c40f7cfe020f","ios":"levelo://app?vid=d6c709ac-d8cd-4d37-9778-c40f7cfe020f"},"vehicle_type_id":"4","last_reported":1726524466,"current_range_meters":30400,"station_id":"ce4bhn12rcd13ifvqgqg","pricing_plan_id":"cebpf4jnsgd1na2vs0mg"},{"bike_id":"d05e306f-3d0a-4318-ae90-1518017189f8","system_id":"levelo_inurba_marseille","lat":43.24999,"lon":5.38193,"is_reserved":false,"is_disabled":false,"rental_uris":{"android":"levelo://app?vid=d05e306f-3d0a-4318-ae90-1518017189f8","ios":"levelo://app?vid=d05e306f-3d0a-4318-ae90-1518017189f8"},"vehicle_type_id":"4","last_reported":1726524466,"current_range_meters":34800,"station_id":"","pricing_plan_id":"cebpf4jnsgd1na2vs0mg"},{"bike_id":"a504d9a7-310e-48f5-838c-a666d4c1f623","system_id":"levelo_inurba_marseille","lat":43.28268,"lon":5.35073,"is_reserved":false,"is_disabled":false,"rental_uris":{"android":"levelo://app?vid=a504d9a7-310e-48f5-838c-a666d4c1f623","ios":"levelo://app?vid=a504d9a7-310e-48f5-838c-a666d4c1f623"},"vehicle_type_id":"4","last_reported":1726524466,"current_range_meters":20800,"station_id":"ce4bhbp2rcd13ifvqerg","pricing_plan_id":"cebpf4jnsgd1na2vs0mg"},{"bike_id":"5ada3411-a879-421f-85fd-755b8400b9d6","system_id":"levelo_inurba_marseille","lat":43.27913,"lon":5.39582,"is_reserved":false,"is_disabled":false,"rental_uris":{"android":"levelo://app?vid=5ada3411-a879-421f-85fd-755b8400b9d6","ios":"levelo://app?vid=5ada3411-a879-421f-85fd-755b8400b9d6"},"vehicle_type_id":"4","last_reported":1726524466,"current_range_meters":6800,"station_id":"ce4bhf92rcd13ifvqf40","pricing_plan_id":"cebpf4jnsgd1na2vs0mg"},{"bike_id":"4b2b2176-bced-440c-b283-bc9a169398d7","system_id":"levelo_inurba_marseille","lat":43.2846,"lon":5.35883,"is_reserved":false,"is_disabled":false,"rental_uris":{"android":"levelo://app?vid=4b2b2176-bced-440c-b283-bc9a169398d7","ios":"levelo://app?vid=4b2b2176-bced-440c-b283-bc9a169398d7"},"vehicle_type_id":"4","last_reported":1726524466,"current_range_meters":36800,"station_id":"ce4bhah2rcd13ifvqei0","pricing_plan_id":"cebpf4jnsgd1na2vs0mg"},{"bike_id":"99af4ec8-0c52-411e-b261-058a278dc767","system_id":"levelo_inurba_marseille","lat":43.30642,"lon":5.40074,"is_reserved":false,"is_disabled":false,"rental_uris":{"android":"levelo://app?vid=99af4ec8-0c52-411e-b261-058a278dc767","ios":"levelo://app?vid=99af4ec8-0c52-411e-b261-058a278dc767"},"vehicle_type_id":"4","last_reported":1726524466,"current_range_meters":22000,"station_id":"ce4bh112rcd13ifvqda0","pricing_plan_id":"cebpf4jnsgd1na2vs0mg"},{"bike_id":"368e0b32-828d-4889-81a1-c72163a0344b","system_id":"levelo_inurba_marseille","lat":43.310852,"lon":5.38375,"is_reserved":false,"is_disabled":false,"rental_uris":{"android":"levelo://app?vid=368e0b32-828d-4889-81a1-c72163a0344b","ios":"levelo://app?vid=368e0b32-828d-4889-81a1-c72163a0344b"},"vehicle_type_id":"4","last_reported":1726524466,"current_range_meters":9200,"station_id":"ce4bgv92rcd13ifvqcr0","pricing_plan_id":"cebpf4jnsgd1na2vs0mg"},{"bike_id":"4365c923-562b-4a53-a36c-890b7f9708b1","system_id":"levelo_inurba_marseille","lat":43.29271,"lon":5.40119,"is_reserved":false,"is_disabled":false,"rental_uris":{"android":"levelo://app?vid=4365c923-562b-4a53-a36c-890b7f9708b1","ios":"levelo://app?vid=4365c923-562b-4a53-a36c-890b7f9708b1"},"vehicle_type_id":"4","last_reported":1726524466,"current_range_meters":38800,"station_id":"ce4bh312rcd13ifvqdk0","pricing_plan_id":"cebpf4jnsgd1na2vs0mg"},{"bike_id":"f409a27c-3291-4d9b-ac57-9e74e75d80d1","system_id":"levelo_inurba_marseille","lat":43.32366,"lon":5.38881,"is_reserved":false,"is_disabled":false,"rental_uris":{"android":"levelo://app?vid=f409a27c-3291-4d9b-ac57-9e74e75d80d1","ios":"levelo://app?vid=f409a27c-3291-4d9b-ac57-9e74e75d80d1"},"vehicle_type_id":"4","last_reported":1726524466,"current_range_meters":17600,"station_id":"ce4bhqp2rcd13ifvqhog","pricing_plan_id":"cebpf4jnsgd1na2vs0mg"},{"bike_id":"dcf9c749-c044-4ffc-9590-a73ef96676ab","system_id":"levelo_inurba_marseille","lat":43.28847,"lon":5.39312,"is_reserved":false,"is_disabled":false,"rental_uris":{"android":"levelo://app?vid=dcf9c749-c044-4ffc-9590-a73ef96676ab","ios":"levelo://app?vid=dcf9c749-c044-4ffc-9590-a73ef96676ab"},"vehicle_type_id":"4","last_reported":1726524466,"current_range_meters":32400,"station_id":"ce4bh2p2rcd13ifvqdi0","pricing_plan_id":"cebpf4jnsgd1na2vs0mg"},{"bike_id":"7bbaafc8-0050-492b-86dd-f3de2a42a358","system_id":"levelo_inurba_marseille","lat":43.28456,"lon":5.35887,"is_reserved":false,"is_disabled":false,"rental_uris":{"android":"levelo://app?vid=7bbaafc8-0050-492b-86dd-f3de2a42a358","ios":"levelo://app?vid=7bbaafc8-0050-492b-86dd-f3de2a42a358"},"vehicle_type_id":"4","last_reported":1726524466,"current_range_meters":38000,"station_id":"ce4bhah2rcd13ifvqei0","pricing_plan_id":"cebpf4jnsgd1na2vs0mg"},{"bike_id":"e0d2c89b-4e06-402c-bca3-132333b87153","system_id":"levelo_inurba_marseille","lat":43.28708,"lon":5.37948,"is_reserved":false,"is_disabled":false,"rental_uris":{"android":"levelo://app?vid=e0d2c89b-4e06-402c-bca3-132333b87153","ios":"levelo://app?vid=e0d2c89b-4e06-402c-bca3-132333b87153"},"vehicle_type_id":"4","last_reported":1726524466,"current_range_meters":38800,"station_id":"ce4bh9p2rcd13ifvqec0","pricing_plan_id":"cebpf4jnsgd1na2vs0mg"},{"bike_id":"9ee2c24b-a9fe-4224-8902-b4f61977b82f","system_id":"levelo_inurba_marseille","lat":43.27571,"lon":5.38435,"is_reserved":false,"is_disabled":false,"rental_uris":{"android":"levelo://app?vid=9ee2c24b-a9fe-4224-8902-b4f61977b82f","ios":"levelo://app?vid=9ee2c24b-a9fe-4224-8902-b4f61977b82f"},"vehicle_type_id":"4","last_reported":1726524466,"current_range_meters":19200,"station_id":"ce4bhh92rcd13ifvqfi0","pricing_plan_id":"cebpf4jnsgd1na2vs0mg"},{"bike_id":"2d6c8295-d826-449f-9ad9-3fc28a85949e","system_id":"levelo_inurba_marseille","lat":43.24178,"lon":5.39725,"is_reserved":false,"is_disabled":false,"rental_uris":{"android":"levelo://app?vid=2d6c8295-d826-449f-9ad9-3fc28a85949e","ios":"levelo://app?vid=2d6c8295-d826-449f-9ad9-3fc28a85949e"},"vehicle_type_id":"4","last_reported":1726524466,"current_range_meters":38800,"station_id":"ce4bhn12rcd13ifvqgpg","pricing_plan_id":"cebpf4jnsgd1na2vs0mg"},{"bike_id":"a2311bbf-a129-4bd6-aa78-bbe376aa5529","system_id":"levelo_inurba_marseille","lat":43.28434,"lon":5.39192,"is_reserved":false,"is_disabled":false,"rental_uris":{"android":"levelo://app?vid=a2311bbf-a129-4bd6-aa78-bbe376aa5529","ios":"levelo://app?vid=a2311bbf-a129-4bd6-aa78-bbe376aa5529"},"vehicle_type_id":"4","last_reported":1726524466,"current_range_meters":33600,"station_id":"ce4bhoh2rcd13ifvqh5g","pricing_plan_id":"cebpf4jnsgd1na2vs0mg"},{"bike_id":"4eb4ae0a-58d4-4b0e-b621-3f0553d4aae5","system_id":"levelo_inurba_marseille","lat":43.31271,"lon":5.40177,"is_reserved":false,"is_disabled":false,"rental_uris":{"android":"levelo://app?vid=4eb4ae0a-58d4-4b0e-b621-3f0553d4aae5","ios":"levelo://app?vid=4eb4ae0a-58d4-4b0e-b621-3f0553d4aae5"},"vehicle_type_id":"4","last_reported":1726524466,"current_range_meters":38400,"station_id":"ce4bh092rcd13ifvqd30","pricing_plan_id":"cebpf4jnsgd1na2vs0mg"},{"bike_id":"9952e5d0-3073-4269-b908-c02feef7bd25","system_id":"levelo_inurba_marseille","lat":43.28455,"lon":5.3588,"is_reserved":false,"is_disabled":false,"rental_uris":{"android":"levelo://app?vid=9952e5d0-3073-4269-b908-c02feef7bd25","ios":"levelo://app?vid=9952e5d0-3073-4269-b908-c02feef7bd25"},"vehicle_type_id":"4","last_reported":1726524466,"current_range_meters":30400,"station_id":"ce4bhah2rcd13ifvqei0","pricing_plan_id":"cebpf4jnsgd1na2vs0mg"},{"bike_id":"c7f93bf2-2b30-4c5c-aa72-447b3f4a28ea","system_id":"levelo_inurba_marseille","lat":43.29897,"lon":5.43662,"is_reserved":false,"is_disabled":false,"rental_uris":{"android":"levelo://app?vid=c7f93bf2-2b30-4c5c-aa72-447b3f4a28ea","ios":"levelo://app?vid=c7f93bf2-2b30-4c5c-aa72-447b3f4a28ea"},"vehicle_type_id":"4","last_reported":1726524466,"current_range_meters":12000,"station_id":"ce4bhpp2rcd13ifvqhfg","pricing_plan_id":"cebpf4jnsgd1na2vs0mg"},{"bike_id":"f73a7a72-99c4-42ca-891b-7bf60ff65997","system_id":"levelo_inurba_marseille","lat":43.30092,"lon":5.39075,"is_reserved":false,"is_disabled":false,"rental_uris":{"android":"levelo://app?vid=f73a7a72-99c4-42ca-891b-7bf60ff65997","ios":"levelo://app?vid=f73a7a72-99c4-42ca-891b-7bf60ff65997"},"vehicle_type_id":"4","last_reported":1726524466,"current_range_meters":33600,"station_id":"ce4bh192rcd13ifvqdb0","pricing_plan_id":"cebpf4jnsgd1na2vs0mg"},{"bike_id":"88a13c5b-1546-4387-97c2-c54a97b847e3","system_id":"levelo_inurba_marseille","lat":43.28461,"lon":5.35887,"is_reserved":false,"is_disabled":false,"rental_uris":{"android":"levelo://app?vid=88a13c5b-1546-4387-97c2-c54a97b847e3","ios":"levelo://app?vid=88a13c5b-1546-4387-97c2-c54a97b847e3"},"vehicle_type_id":"4","last_reported":1726524466,"current_range_meters":38800,"station_id":"ce4bhah2rcd13ifvqei0","pricing_plan_id":"cebpf4jnsgd1na2vs0mg"},{"bike_id":"d53cd1a0-346f-4e90-8484-e11f030b9f09","system_id":"levelo_inurba_marseille","lat":43.29206,"lon":5.39333,"is_reserved":false,"is_disabled":false,"rental_uris":{"android":"levelo://app?vid=d53cd1a0-346f-4e90-8484-e11f030b9f09","ios":"levelo://app?vid=d53cd1a0-346f-4e90-8484-e11f030b9f09"},"vehicle_type_id":"4","last_reported":1726524466,"current_range_meters":8000,"station_id":"ce4bh192rcd13ifvqdd0","pricing_plan_id":"cebpf4jnsgd1na2vs0mg"},{"bike_id":"f9d3ff09-2d46-49a3-957e-6d15ed42ce7c","system_id":"levelo_inurba_marseille","lat":43.25086,"lon":5.39519,"is_reserved":false,"is_disabled":false,"rental_uris":{"android":"levelo://app?vid=f9d3ff09-2d46-49a3-957e-6d15ed42ce7c","ios":"levelo://app?vid=f9d3ff09-2d46-49a3-957e-6d15ed42ce7c"},"vehicle_type_id":"4","last_reported":1726524466,"current_range_meters":38800,"station_id":"ce4bhm12rcd13ifvqgkg","pricing_plan_id":"cebpf4jnsgd1na2vs0mg"},{"bike_id":"fea7fb74-423d-460f-bf4b-7c0013f3e6ee","system_id":"levelo_inurba_marseille","lat":43.25112,"lon":5.4032,"is_reserved":false,"is_disabled":false,"rental_uris":{"android":"levelo://app?vid=fea7fb74-423d-460f-bf4b-7c0013f3e6ee","ios":"levelo://app?vid=fea7fb74-423d-460f-bf4b-7c0013f3e6ee"},"vehicle_type_id":"4","last_reported":1726524466,"current_range_meters":30400,"station_id":"ce4bhlh2rcd13ifvqgig","pricing_plan_id":"cebpf4jnsgd1na2vs0mg"},{"bike_id":"630b7b25-36c2-4fed-9267-c26726a2329e","system_id":"levelo_inurba_marseille","lat":43.26941,"lon":5.40256,"is_reserved":false,"is_disabled":false,"rental_uris":{"android":"levelo://app?vid=630b7b25-36c2-4fed-9267-c26726a2329e","ios":"levelo://app?vid=630b7b25-36c2-4fed-9267-c26726a2329e"},"vehicle_type_id":"4","last_reported":1726524466,"current_range_meters":14800,"station_id":"cjm6bp8fraef2m0cb0m0","pricing_plan_id":"cebpf4jnsgd1na2vs0mg"},{"bike_id":"c3d6b649-15e3-4bba-8167-f82ba135df07","system_id":"levelo_inurba_marseille","lat":43.30935,"lon":5.4015,"is_reserved":false,"is_disabled":false,"rental_uris":{"android":"levelo://app?vid=c3d6b649-15e3-4bba-8167-f82ba135df07","ios":"levelo://app?vid=c3d6b649-15e3-4bba-8167-f82ba135df07"},"vehicle_type_id":"4","last_reported":1726524466,"current_range_meters":36000,"station_id":"ce4bgvp2rcd13ifvqct0","pricing_plan_id":"cebpf4jnsgd1na2vs0mg"},{"bike_id":"75f414ef-dead-4117-8b36-2c250f77c270","system_id":"levelo_inurba_marseille","lat":43.30934,"lon":5.40144,"is_reserved":false,"is_disabled":false,"rental_uris":{"android":"levelo://app?vid=75f414ef-dead-4117-8b36-2c250f77c270","ios":"levelo://app?vid=75f414ef-dead-4117-8b36-2c250f77c270"},"vehicle_type_id":"4","last_reported":1726524466,"current_range_meters":38400,"station_id":"ce4bgvp2rcd13ifvqct0","pricing_plan_id":"cebpf4jnsgd1na2vs0mg"},{"bike_id":"34a21d17-7fab-46e2-85f4-0bcfa2ca581d","system_id":"levelo_inurba_marseille","lat":43.314911,"lon":5.383845,"is_reserved":false,"is_disabled":false,"rental_uris":{"android":"levelo://app?vid=34a21d17-7fab-46e2-85f4-0bcfa2ca581d","ios":"levelo://app?vid=34a21d17-7fab-46e2-85f4-0bcfa2ca581d"},"vehicle_type_id":"4","last_reported":1726524466,"current_range_meters":38000,"station_id":"ce4bgt92rcd13ifvqcf0","pricing_plan_id":"cebpf4jnsgd1na2vs0mg"},{"bike_id":"59e6e652-69ea-474a-9790-3d81d8d5b495","system_id":"levelo_inurba_marseille","lat":43.29801,"lon":5.40401,"is_reserved":false,"is_disabled":false,"rental_uris":{"android":"levelo://app?vid=59e6e652-69ea-474a-9790-3d81d8d5b495","ios":"levelo://app?vid=59e6e652-69ea-474a-9790-3d81d8d5b495"},"vehicle_type_id":"4","last_reported":1726524466,"current_range_meters":12800,"station_id":"ce4bh112rcd13ifvqd90","pricing_plan_id":"cebpf4jnsgd1na2vs0mg"},{"bike_id":"1912e651-337a-49ed-b67a-1645faaa6710","system_id":"levelo_inurba_marseille","lat":43.29248,"lon":5.4091,"is_reserved":false,"is_disabled":false,"rental_uris":{"android":"levelo://app?vid=1912e651-337a-49ed-b67a-1645faaa6710","ios":"levelo://app?vid=1912e651-337a-49ed-b67a-1645faaa6710"},"vehicle_type_id":"4","last_reported":1726524466,"current_range_meters":38800,"station_id":"ce4bh192rcd13ifvqdc0","pricing_plan_id":"cebpf4jnsgd1na2vs0mg"},{"bike_id":"0b5743fb-c432-4a8b-af61-02f37e691302","system_id":"levelo_inurba_marseille","lat":43.26566,"lon":5.39006,"is_reserved":false,"is_disabled":false,"rental_uris":{"android":"levelo://app?vid=0b5743fb-c432-4a8b-af61-02f37e691302","ios":"levelo://app?vid=0b5743fb-c432-4a8b-af61-02f37e691302"},"vehicle_type_id":"4","last_reported":1726524466,"current_range_meters":38800,"station_id":"ce4bhe12rcd13ifvqf30","pricing_plan_id":"cebpf4jnsgd1na2vs0mg"},{"bike_id":"4153cc51-d4e8-4e56-a8fd-c1a04ecf3fa7","system_id":"levelo_inurba_marseille","lat":43.29954,"lon":5.4134,"is_reserved":false,"is_disabled":false,"rental_uris":{"android":"levelo://app?vid=4153cc51-d4e8-4e56-a8fd-c1a04ecf3fa7","ios":"levelo://app?vid=4153cc51-d4e8-4e56-a8fd-c1a04ecf3fa7"},"vehicle_type_id":"4","last_reported":1726524466,"current_range_meters":32800,"station_id":"ce4bhp12rcd13ifvqh9g","pricing_plan_id":"cebpf4jnsgd1na2vs0mg"},{"bike_id":"ed227c0d-cea6-400a-abd2-4c8159f252ed","system_id":"levelo_inurba_marseille","lat":43.28707,"lon":5.39985,"is_reserved":false,"is_disabled":false,"rental_uris":{"android":"levelo://app?vid=ed227c0d-cea6-400a-abd2-4c8159f252ed","ios":"levelo://app?vid=ed227c0d-cea6-400a-abd2-4c8159f252ed"},"vehicle_type_id":"4","last_reported":1726524466,"current_range_meters":38800,"station_id":"ce4bho92rcd13ifvqh3g","pricing_plan_id":"cebpf4jnsgd1na2vs0mg"},{"bike_id":"8cb592d9-f82f-4171-894f-8d7ffa6525e5","system_id":"levelo_inurba_marseille","lat":43.23195,"lon":5.35548,"is_reserved":false,"is_disabled":false,"rental_uris":{"android":"levelo://app?vid=8cb592d9-f82f-4171-894f-8d7ffa6525e5","ios":"levelo://app?vid=8cb592d9-f82f-4171-894f-8d7ffa6525e5"},"vehicle_type_id":"4","last_reported":1726524466,"current_range_meters":23200,"station_id":"ce4bhu92rcd13ifvqi70","pricing_plan_id":"cebpf4jnsgd1na2vs0mg"},{"bike_id":"224fd388-a6ed-40de-aed2-9764785607b3","system_id":"levelo_inurba_marseille","lat":43.29266,"lon":5.4014,"is_reserved":false,"is_disabled":false,"rental_uris":{"android":"levelo://app?vid=224fd388-a6ed-40de-aed2-9764785607b3","ios":"levelo://app?vid=224fd388-a6ed-40de-aed2-9764785607b3"},"vehicle_type_id":"4","last_reported":1726524466,"current_range_meters":38800,"station_id":"ce4bh312rcd13ifvqdk0","pricing_plan_id":"cebpf4jnsgd1na2vs0mg"},{"bike_id":"e8577ff1-e7d5-4bd8-af09-a820a63b8b50","system_id":"levelo_inurba_marseille","lat":43.33024,"lon":5.39051,"is_reserved":false,"is_disabled":false,"rental_uris":{"android":"levelo://app?vid=e8577ff1-e7d5-4bd8-af09-a820a63b8b50","ios":"levelo://app?vid=e8577ff1-e7d5-4bd8-af09-a820a63b8b50"},"vehicle_type_id":"4","last_reported":1726524466,"current_range_meters":17200,"station_id":"ce4bhr92rcd13ifvqhrg","pricing_plan_id":"cebpf4jnsgd1na2vs0mg"},{"bike_id":"efb2aa29-86d3-4199-b653-3b69793810d8","system_id":"levelo_inurba_marseille","lat":43.29689,"lon":5.37302,"is_reserved":false,"is_disabled":false,"rental_uris":{"android":"levelo://app?vid=efb2aa29-86d3-4199-b653-3b69793810d8","ios":"levelo://app?vid=efb2aa29-86d3-4199-b653-3b69793810d8"},"vehicle_type_id":"4","last_reported":1726524466,"current_range_meters":38800,"station_id":"ce4bgk12rcd13ifvqbj0","pricing_plan_id":"cebpf4jnsgd1na2vs0mg"},{"bike_id":"20a4a91d-8541-4958-9b2e-4e75165c8a2a","system_id":"levelo_inurba_marseille","lat":43.30801,"lon":5.43523,"is_reserved":false,"is_disabled":false,"rental_uris":{"android":"levelo://app?vid=20a4a91d-8541-4958-9b2e-4e75165c8a2a","ios":"levelo://app?vid=20a4a91d-8541-4958-9b2e-4e75165c8a2a"},"vehicle_type_id":"4","last_reported":1726524466,"current_range_meters":18000,"station_id":"ce4bhph2rcd13ifvqheg","pricing_plan_id":"cebpf4jnsgd1na2vs0mg"},{"bike_id":"091b3b6b-8fb6-4c16-acf4-adf8bda04be7","system_id":"levelo_inurba_marseille","lat":43.28614,"lon":5.35106,"is_reserved":false,"is_disabled":false,"rental_uris":{"android":"levelo://app?vid=091b3b6b-8fb6-4c16-acf4-adf8bda04be7","ios":"levelo://app?vid=091b3b6b-8fb6-4c16-acf4-adf8bda04be7"},"vehicle_type_id":"4","last_reported":1726524466,"current_range_meters":38400,"station_id":"ce4bhch2rcd13ifvqeug","pricing_plan_id":"cebpf4jnsgd1na2vs0mg"},{"bike_id":"c3bcca86-6294-4639-9d07-9722d40f464e","system_id":"levelo_inurba_marseille","lat":43.299,"lon":5.43669,"is_reserved":false,"is_disabled":false,"rental_uris":{"android":"levelo://app?vid=c3bcca86-6294-4639-9d07-9722d40f464e","ios":"levelo://app?vid=c3bcca86-6294-4639-9d07-9722d40f464e"},"vehicle_type_id":"4","last_reported":1726524466,"current_range_meters":4400,"station_id":"ce4bhpp2rcd13ifvqhfg","pricing_plan_id":"cebpf4jnsgd1na2vs0mg"},{"bike_id":"b8575011-8302-48a4-8af4-a59ce79d4a2f","system_id":"levelo_inurba_marseille","lat":43.31084,"lon":5.4243,"is_reserved":false,"is_disabled":false,"rental_uris":{"android":"levelo://app?vid=b8575011-8302-48a4-8af4-a59ce79d4a2f","ios":"levelo://app?vid=b8575011-8302-48a4-8af4-a59ce79d4a2f"},"vehicle_type_id":"4","last_reported":1726524466,"current_range_meters":35200,"station_id":"ce4bhp92rcd13ifvqhag","pricing_plan_id":"cebpf4jnsgd1na2vs0mg"},{"bike_id":"9689a282-10a1-4d4b-9757-128386743d65","system_id":"levelo_inurba_marseille","lat":43.30429,"lon":5.38884,"is_reserved":false,"is_disabled":false,"rental_uris":{"android":"levelo://app?vid=9689a282-10a1-4d4b-9757-128386743d65","ios":"levelo://app?vid=9689a282-10a1-4d4b-9757-128386743d65"},"vehicle_type_id":"4","last_reported":1726524466,"current_range_meters":36800,"station_id":"ce4bgk12rcd13ifvqbi0","pricing_plan_id":"cebpf4jnsgd1na2vs0mg"},{"bike_id":"1d7adde8-64b3-45d2-9c83-d5448889c250","system_id":"levelo_inurba_marseille","lat":43.2886,"lon":5.35848,"is_reserved":false,"is_disabled":false,"rental_uris":{"android":"levelo://app?vid=1d7adde8-64b3-45d2-9c83-d5448889c250","ios":"levelo://app?vid=1d7adde8-64b3-45d2-9c83-d5448889c250"},"vehicle_type_id":"4","last_reported":1726524466,"current_range_meters":9200,"station_id":"ce4bhb12rcd13ifvqem0","pricing_plan_id":"cebpf4jnsgd1na2vs0mg"},{"bike_id":"6fcb0470-5b2d-4c1d-8d35-ccfb07e79374","system_id":"levelo_inurba_marseille","lat":43.31331,"lon":5.39699,"is_reserved":false,"is_disabled":false,"rental_uris":{"android":"levelo://app?vid=6fcb0470-5b2d-4c1d-8d35-ccfb07e79374","ios":"levelo://app?vid=6fcb0470-5b2d-4c1d-8d35-ccfb07e79374"},"vehicle_type_id":"4","last_reported":1726524466,"current_range_meters":38800,"station_id":"ce4bgvp2rcd13ifvqcu0","pricing_plan_id":"cebpf4jnsgd1na2vs0mg"},{"bike_id":"6bdf6d7d-2eb2-45b2-b185-2714b7273c57","system_id":"levelo_inurba_marseille","lat":43.27176,"lon":5.40996,"is_reserved":false,"is_disabled":false,"rental_uris":{"android":"levelo://app?vid=6bdf6d7d-2eb2-45b2-b185-2714b7273c57","ios":"levelo://app?vid=6bdf6d7d-2eb2-45b2-b185-2714b7273c57"},"vehicle_type_id":"4","last_reported":1726524466,"current_range_meters":19600,"station_id":"ce4bhl12rcd13ifvqgf0","pricing_plan_id":"cebpf4jnsgd1na2vs0mg"},{"bike_id":"613b1f03-b9cb-4b7e-8b5b-0607b9eed3a7","system_id":"levelo_inurba_marseille","lat":43.29972,"lon":5.3718,"is_reserved":false,"is_disabled":false,"rental_uris":{"android":"levelo://app?vid=613b1f03-b9cb-4b7e-8b5b-0607b9eed3a7","ios":"levelo://app?vid=613b1f03-b9cb-4b7e-8b5b-0607b9eed3a7"},"vehicle_type_id":"4","last_reported":1726524466,"current_range_meters":38400,"station_id":"ce4bgr92rcd13ifvqc7g","pricing_plan_id":"cebpf4jnsgd1na2vs0mg"},{"bike_id":"48b45e60-9a03-483e-9985-66cdacf939d4","system_id":"levelo_inurba_marseille","lat":43.29021,"lon":5.38634,"is_reserved":false,"is_disabled":false,"rental_uris":{"android":"levelo://app?vid=48b45e60-9a03-483e-9985-66cdacf939d4","ios":"levelo://app?vid=48b45e60-9a03-483e-9985-66cdacf939d4"},"vehicle_type_id":"4","last_reported":1726524466,"current_range_meters":38800,"station_id":"ce4bh4p2rcd13ifvqe0g","pricing_plan_id":"cebpf4jnsgd1na2vs0mg"},{"bike_id":"b1db6496-7d7b-4acc-a88c-e5406d38e100","system_id":"levelo_inurba_marseille","lat":43.23201,"lon":5.35553,"is_reserved":false,"is_disabled":false,"rental_uris":{"android":"levelo://app?vid=b1db6496-7d7b-4acc-a88c-e5406d38e100","ios":"levelo://app?vid=b1db6496-7d7b-4acc-a88c-e5406d38e100"},"vehicle_type_id":"4","last_reported":1726524466,"current_range_meters":30000,"station_id":"ce4bhu92rcd13ifvqi70","pricing_plan_id":"cebpf4jnsgd1na2vs0mg"},{"bike_id":"e458fa1c-1f23-496d-a562-e9e9eccb352b","system_id":"levelo_inurba_marseille","lat":43.27491,"lon":5.42454,"is_reserved":false,"is_disabled":false,"rental_uris":{"android":"levelo://app?vid=e458fa1c-1f23-496d-a562-e9e9eccb352b","ios":"levelo://app?vid=e458fa1c-1f23-496d-a562-e9e9eccb352b"},"vehicle_type_id":"4","last_reported":1726524466,"current_range_meters":30400,"station_id":"ce4bhn92rcd13ifvqgrg","pricing_plan_id":"cebpf4jnsgd1na2vs0mg"},{"bike_id":"06f7ac39-3a92-4e05-9a6d-c6517fe0b1d3","system_id":"levelo_inurba_marseille","lat":43.2842,"lon":5.37516,"is_reserved":false,"is_disabled":false,"rental_uris":{"android":"levelo://app?vid=06f7ac39-3a92-4e05-9a6d-c6517fe0b1d3","ios":"levelo://app?vid=06f7ac39-3a92-4e05-9a6d-c6517fe0b1d3"},"vehicle_type_id":"4","last_reported":1726524466,"current_range_meters":38800,"station_id":"ce4bh412rcd13ifvqds0","pricing_plan_id":"cebpf4jnsgd1na2vs0mg"},{"bike_id":"475b377c-a583-4dad-ac30-dc4d1404ea77","system_id":"levelo_inurba_marseille","lat":43.3127,"lon":5.40166,"is_reserved":false,"is_disabled":false,"rental_uris":{"android":"levelo://app?vid=475b377c-a583-4dad-ac30-dc4d1404ea77","ios":"levelo://app?vid=475b377c-a583-4dad-ac30-dc4d1404ea77"},"vehicle_type_id":"4","last_reported":1726524466,"current_range_meters":4400,"station_id":"ce4bh092rcd13ifvqd30","pricing_plan_id":"cebpf4jnsgd1na2vs0mg"},{"bike_id":"733e4865-3357-4a1f-819b-4a724885d4e3","system_id":"levelo_inurba_marseille","lat":43.26924,"lon":5.3864,"is_reserved":false,"is_disabled":false,"rental_uris":{"android":"levelo://app?vid=733e4865-3357-4a1f-819b-4a724885d4e3","ios":"levelo://app?vid=733e4865-3357-4a1f-819b-4a724885d4e3"},"vehicle_type_id":"4","last_reported":1726524466,"current_range_meters":36400,"station_id":"ce4bhh92rcd13ifvqfh0","pricing_plan_id":"cebpf4jnsgd1na2vs0mg"},{"bike_id":"5cf4c2f1-f092-4550-b8cf-369099ebc3bc","system_id":"levelo_inurba_marseille","lat":43.2456,"lon":5.41552,"is_reserved":false,"is_disabled":false,"rental_uris":{"android":"levelo://app?vid=5cf4c2f1-f092-4550-b8cf-369099ebc3bc","ios":"levelo://app?vid=5cf4c2f1-f092-4550-b8cf-369099ebc3bc"},"vehicle_type_id":"4","last_reported":1726524466,"current_range_meters":6400,"station_id":"ce4bhlh2rcd13ifvqgig","pricing_plan_id":"cebpf4jnsgd1na2vs0mg"},{"bike_id":"95b58fbf-53cd-47a1-b49e-0e36ef86a266","system_id":"levelo_inurba_marseille","lat":43.27173,"lon":5.40992,"is_reserved":false,"is_disabled":false,"rental_uris":{"android":"levelo://app?vid=95b58fbf-53cd-47a1-b49e-0e36ef86a266","ios":"levelo://app?vid=95b58fbf-53cd-47a1-b49e-0e36ef86a266"},"vehicle_type_id":"4","last_reported":1726524466,"current_range_meters":8800,"station_id":"ce4bhl12rcd13ifvqgf0","pricing_plan_id":"cebpf4jnsgd1na2vs0mg"},{"bike_id":"f9727d72-c144-4c75-b1b2-2cb1b85cdc8e","system_id":"levelo_inurba_marseille","lat":43.27215,"lon":5.39183,"is_reserved":false,"is_disabled":false,"rental_uris":{"android":"levelo://app?vid=f9727d72-c144-4c75-b1b2-2cb1b85cdc8e","ios":"levelo://app?vid=f9727d72-c144-4c75-b1b2-2cb1b85cdc8e"},"vehicle_type_id":"4","last_reported":1726524466,"current_range_meters":30000,"station_id":"ce4bhhp2rcd13ifvqfm0","pricing_plan_id":"cebpf4jnsgd1na2vs0mg"},{"bike_id":"af9466ac-e831-478e-b8d5-afdab4570f04","system_id":"levelo_inurba_marseille","lat":43.2509,"lon":5.39521,"is_reserved":false,"is_disabled":false,"rental_uris":{"android":"levelo://app?vid=af9466ac-e831-478e-b8d5-afdab4570f04","ios":"levelo://app?vid=af9466ac-e831-478e-b8d5-afdab4570f04"},"vehicle_type_id":"4","last_reported":1726524466,"current_range_meters":38800,"station_id":"ce4bhm12rcd13ifvqgkg","pricing_plan_id":"cebpf4jnsgd1na2vs0mg"},{"bike_id":"a3ab67e6-c71e-486c-b84b-fdc5d9019e65","system_id":"levelo_inurba_marseille","lat":43.31169,"lon":5.38708,"is_reserved":false,"is_disabled":false,"rental_uris":{"android":"levelo://app?vid=a3ab67e6-c71e-486c-b84b-fdc5d9019e65","ios":"levelo://app?vid=a3ab67e6-c71e-486c-b84b-fdc5d9019e65"},"vehicle_type_id":"4","last_reported":1726524466,"current_range_meters":20400,"station_id":"ce4bgv12rcd13ifvqcp0","pricing_plan_id":"cebpf4jnsgd1na2vs0mg"},{"bike_id":"b645ac77-0d58-4fa9-8ad3-947af8bdb1d9","system_id":"levelo_inurba_marseille","lat":43.29899,"lon":5.43666,"is_reserved":false,"is_disabled":false,"rental_uris":{"android":"levelo://app?vid=b645ac77-0d58-4fa9-8ad3-947af8bdb1d9","ios":"levelo://app?vid=b645ac77-0d58-4fa9-8ad3-947af8bdb1d9"},"vehicle_type_id":"4","last_reported":1726524466,"current_range_meters":27600,"station_id":"ce4bhpp2rcd13ifvqhfg","pricing_plan_id":"cebpf4jnsgd1na2vs0mg"},{"bike_id":"9365ae4b-bddd-4e2a-a247-70d289d7b97f","system_id":"levelo_inurba_marseille","lat":43.29781,"lon":5.39351,"is_reserved":false,"is_disabled":false,"rental_uris":{"android":"levelo://app?vid=9365ae4b-bddd-4e2a-a247-70d289d7b97f","ios":"levelo://app?vid=9365ae4b-bddd-4e2a-a247-70d289d7b97f"},"vehicle_type_id":"4","last_reported":1726524466,"current_range_meters":37600,"station_id":"chh1huq6cuj3fo74tm60","pricing_plan_id":"cebpf4jnsgd1na2vs0mg"},{"bike_id":"71b1fbd2-1fbd-4b32-9a36-fa84d50156cd","system_id":"levelo_inurba_marseille","lat":43.28674,"lon":5.38659,"is_reserved":false,"is_disabled":false,"rental_uris":{"android":"levelo://app?vid=71b1fbd2-1fbd-4b32-9a36-fa84d50156cd","ios":"levelo://app?vid=71b1fbd2-1fbd-4b32-9a36-fa84d50156cd"},"vehicle_type_id":"4","last_reported":1726524466,"current_range_meters":39200,"station_id":"ce4bh492rcd13ifvqdug","pricing_plan_id":"cebpf4jnsgd1na2vs0mg"},{"bike_id":"1d53a508-0946-4ef0-9d31-e3d5f444a352","system_id":"levelo_inurba_marseille","lat":43.24082,"lon":5.37739,"is_reserved":false,"is_disabled":false,"rental_uris":{"android":"levelo://app?vid=1d53a508-0946-4ef0-9d31-e3d5f444a352","ios":"levelo://app?vid=1d53a508-0946-4ef0-9d31-e3d5f444a352"},"vehicle_type_id":"4","last_reported":1726524466,"current_range_meters":38800,"station_id":"ce4bhnp2rcd13ifvqgvg","pricing_plan_id":"cebpf4jnsgd1na2vs0mg"},{"bike_id":"f8bacb80-e453-4a18-9d70-ff343eb7cf84","system_id":"levelo_inurba_marseille","lat":43.33023,"lon":5.39042,"is_reserved":false,"is_disabled":false,"rental_uris":{"android":"levelo://app?vid=f8bacb80-e453-4a18-9d70-ff343eb7cf84","ios":"levelo://app?vid=f8bacb80-e453-4a18-9d70-ff343eb7cf84"},"vehicle_type_id":"4","last_reported":1726524466,"current_range_meters":8000,"station_id":"ce4bhr92rcd13ifvqhrg","pricing_plan_id":"cebpf4jnsgd1na2vs0mg"},{"bike_id":"7abc2a25-404a-4f70-a7c0-c89315b5c4bc","system_id":"levelo_inurba_marseille","lat":43.31026,"lon":5.4034,"is_reserved":false,"is_disabled":false,"rental_uris":{"android":"levelo://app?vid=7abc2a25-404a-4f70-a7c0-c89315b5c4bc","ios":"levelo://app?vid=7abc2a25-404a-4f70-a7c0-c89315b5c4bc"},"vehicle_type_id":"4","last_reported":1726524466,"current_range_meters":24800,"station_id":"","pricing_plan_id":"cebpf4jnsgd1na2vs0mg"},{"bike_id":"0295feaf-345d-4f99-ba2b-8df36cdbd58a","system_id":"levelo_inurba_marseille","lat":43.28441,"lon":5.3919,"is_reserved":false,"is_disabled":false,"rental_uris":{"android":"levelo://app?vid=0295feaf-345d-4f99-ba2b-8df36cdbd58a","ios":"levelo://app?vid=0295feaf-345d-4f99-ba2b-8df36cdbd58a"},"vehicle_type_id":"4","last_reported":1726524466,"current_range_meters":24400,"station_id":"ce4bhoh2rcd13ifvqh5g","pricing_plan_id":"cebpf4jnsgd1na2vs0mg"},{"bike_id":"677498c9-746b-4650-9a8e-2c7479635944","system_id":"levelo_inurba_marseille","lat":43.33022,"lon":5.3905,"is_reserved":false,"is_disabled":false,"rental_uris":{"android":"levelo://app?vid=677498c9-746b-4650-9a8e-2c7479635944","ios":"levelo://app?vid=677498c9-746b-4650-9a8e-2c7479635944"},"vehicle_type_id":"4","last_reported":1726524466,"current_range_meters":25200,"station_id":"ce4bhr92rcd13ifvqhrg","pricing_plan_id":"cebpf4jnsgd1na2vs0mg"},{"bike_id":"3955f975-848a-4bb7-b65b-97ad2bc46030","system_id":"levelo_inurba_marseille","lat":43.30641,"lon":5.40082,"is_reserved":false,"is_disabled":false,"rental_uris":{"android":"levelo://app?vid=3955f975-848a-4bb7-b65b-97ad2bc46030","ios":"levelo://app?vid=3955f975-848a-4bb7-b65b-97ad2bc46030"},"vehicle_type_id":"4","last_reported":1726524466,"current_range_meters":11600,"station_id":"ce4bh112rcd13ifvqda0","pricing_plan_id":"cebpf4jnsgd1na2vs0mg"},{"bike_id":"a09b8657-3298-4390-8dd5-f622909fc3da","system_id":"levelo_inurba_marseille","lat":43.31071,"lon":5.4009,"is_reserved":false,"is_disabled":false,"rental_uris":{"android":"levelo://app?vid=a09b8657-3298-4390-8dd5-f622909fc3da","ios":"levelo://app?vid=a09b8657-3298-4390-8dd5-f622909fc3da"},"vehicle_type_id":"4","last_reported":1726524466,"current_range_meters":38400,"station_id":"","pricing_plan_id":"cebpf4jnsgd1na2vs0mg"},{"bike_id":"ba24a0cd-d0f2-41df-a3cd-11c6def34ed0","system_id":"levelo_inurba_marseille","lat":43.28459,"lon":5.3589,"is_reserved":false,"is_disabled":false,"rental_uris":{"android":"levelo://app?vid=ba24a0cd-d0f2-41df-a3cd-11c6def34ed0","ios":"levelo://app?vid=ba24a0cd-d0f2-41df-a3cd-11c6def34ed0"},"vehicle_type_id":"4","last_reported":1726524466,"current_range_meters":28000,"station_id":"ce4bhah2rcd13ifvqei0","pricing_plan_id":"cebpf4jnsgd1na2vs0mg"},{"bike_id":"16e6d944-18b2-40c0-af95-7f6baff50091","system_id":"levelo_inurba_marseille","lat":43.275604,"lon":5.385477,"is_reserved":false,"is_disabled":false,"rental_uris":{"android":"levelo://app?vid=16e6d944-18b2-40c0-af95-7f6baff50091","ios":"levelo://app?vid=16e6d944-18b2-40c0-af95-7f6baff50091"},"vehicle_type_id":"4","last_reported":1726524466,"current_range_meters":17200,"station_id":"chh1huq6cuj3fo74tm60","pricing_plan_id":"cebpf4jnsgd1na2vs0mg"},{"bike_id":"d8fad538-dd28-4ccf-ab7d-1e50afd0659a","system_id":"levelo_inurba_marseille","lat":43.29586,"lon":5.36693,"is_reserved":false,"is_disabled":false,"rental_uris":{"android":"levelo://app?vid=d8fad538-dd28-4ccf-ab7d-1e50afd0659a","ios":"levelo://app?vid=d8fad538-dd28-4ccf-ab7d-1e50afd0659a"},"vehicle_type_id":"4","last_reported":1726524466,"current_range_meters":6400,"station_id":"ce4bgph2rcd13ifvqc2g","pricing_plan_id":"cebpf4jnsgd1na2vs0mg"},{"bike_id":"7ba5a0d3-87f5-4dbc-8dc8-0d67d795da41","system_id":"levelo_inurba_marseille","lat":43.30909,"lon":5.36851,"is_reserved":false,"is_disabled":false,"rental_uris":{"android":"levelo://app?vid=7ba5a0d3-87f5-4dbc-8dc8-0d67d795da41","ios":"levelo://app?vid=7ba5a0d3-87f5-4dbc-8dc8-0d67d795da41"},"vehicle_type_id":"4","last_reported":1726524466,"current_range_meters":38000,"station_id":"ce4bgn92rcd13ifvqbvg","pricing_plan_id":"cebpf4jnsgd1na2vs0mg"},{"bike_id":"0f798844-15b5-4e5a-9872-0487cce9ed14","system_id":"levelo_inurba_marseille","lat":43.30889,"lon":5.39637,"is_reserved":false,"is_disabled":false,"rental_uris":{"android":"levelo://app?vid=0f798844-15b5-4e5a-9872-0487cce9ed14","ios":"levelo://app?vid=0f798844-15b5-4e5a-9872-0487cce9ed14"},"vehicle_type_id":"4","last_reported":1726524466,"current_range_meters":36000,"station_id":"ce4bh012rcd13ifvqcv0","pricing_plan_id":"cebpf4jnsgd1na2vs0mg"},{"bike_id":"15392aa0-90a1-41d4-a66d-995d88d0aa75","system_id":"levelo_inurba_marseille","lat":43.24668,"lon":5.38171,"is_reserved":false,"is_disabled":false,"rental_uris":{"android":"levelo://app?vid=15392aa0-90a1-41d4-a66d-995d88d0aa75","ios":"levelo://app?vid=15392aa0-90a1-41d4-a66d-995d88d0aa75"},"vehicle_type_id":"4","last_reported":1726524466,"current_range_meters":37600,"station_id":"ce4bhih2rcd13ifvqfr0","pricing_plan_id":"cebpf4jnsgd1na2vs0mg"},{"bike_id":"c120e053-2cf6-4b86-baef-2147853299bf","system_id":"levelo_inurba_marseille","lat":43.32368,"lon":5.38886,"is_reserved":false,"is_disabled":false,"rental_uris":{"android":"levelo://app?vid=c120e053-2cf6-4b86-baef-2147853299bf","ios":"levelo://app?vid=c120e053-2cf6-4b86-baef-2147853299bf"},"vehicle_type_id":"4","last_reported":1726524466,"current_range_meters":38800,"station_id":"ce4bhqp2rcd13ifvqhog","pricing_plan_id":"cebpf4jnsgd1na2vs0mg"},{"bike_id":"94829247-daf5-4b5f-8142-20e89d959705","system_id":"levelo_inurba_marseille","lat":43.3119,"lon":5.38725,"is_reserved":false,"is_disabled":false,"rental_uris":{"android":"levelo://app?vid=94829247-daf5-4b5f-8142-20e89d959705","ios":"levelo://app?vid=94829247-daf5-4b5f-8142-20e89d959705"},"vehicle_type_id":"4","last_reported":1726524466,"current_range_meters":38800,"station_id":"ce4bgv12rcd13ifvqcp0","pricing_plan_id":"cebpf4jnsgd1na2vs0mg"},{"bike_id":"382617a3-75e8-48de-987f-2e2c3853a2ec","system_id":"levelo_inurba_marseille","lat":43.31464,"lon":5.39213,"is_reserved":false,"is_disabled":false,"rental_uris":{"android":"levelo://app?vid=382617a3-75e8-48de-987f-2e2c3853a2ec","ios":"levelo://app?vid=382617a3-75e8-48de-987f-2e2c3853a2ec"},"vehicle_type_id":"4","last_reported":1726524466,"current_range_meters":14000,"station_id":"","pricing_plan_id":"cebpf4jnsgd1na2vs0mg"},{"bike_id":"f76e7115-dcce-4dd4-9178-71d00b158324","system_id":"levelo_inurba_marseille","lat":43.25114,"lon":5.40316,"is_reserved":false,"is_disabled":false,"rental_uris":{"android":"levelo://app?vid=f76e7115-dcce-4dd4-9178-71d00b158324","ios":"levelo://app?vid=f76e7115-dcce-4dd4-9178-71d00b158324"},"vehicle_type_id":"4","last_reported":1726524466,"current_range_meters":39200,"station_id":"ce4bhlh2rcd13ifvqgig","pricing_plan_id":"cebpf4jnsgd1na2vs0mg"},{"bike_id":"f7513478-d14c-4383-9570-aa8d81b87e3a","system_id":"levelo_inurba_marseille","lat":43.30886,"lon":5.39646,"is_reserved":false,"is_disabled":false,"rental_uris":{"android":"levelo://app?vid=f7513478-d14c-4383-9570-aa8d81b87e3a","ios":"levelo://app?vid=f7513478-d14c-4383-9570-aa8d81b87e3a"},"vehicle_type_id":"4","last_reported":1726524466,"current_range_meters":22400,"station_id":"ce4bh012rcd13ifvqcv0","pricing_plan_id":"cebpf4jnsgd1na2vs0mg"},{"bike_id":"12d7d89f-454f-4a86-b89a-d14592835e67","system_id":"levelo_inurba_marseille","lat":43.28574,"lon":5.39495,"is_reserved":false,"is_disabled":false,"rental_uris":{"android":"levelo://app?vid=12d7d89f-454f-4a86-b89a-d14592835e67","ios":"levelo://app?vid=12d7d89f-454f-4a86-b89a-d14592835e67"},"vehicle_type_id":"4","last_reported":1726524466,"current_range_meters":38800,"station_id":"ce4bh292rcd13ifvqdg0","pricing_plan_id":"cebpf4jnsgd1na2vs0mg"},{"bike_id":"efdb13d6-ef23-49b0-9a8b-75b101687d79","system_id":"levelo_inurba_marseille","lat":43.32276,"lon":5.40661,"is_reserved":false,"is_disabled":false,"rental_uris":{"android":"levelo://app?vid=efdb13d6-ef23-49b0-9a8b-75b101687d79","ios":"levelo://app?vid=efdb13d6-ef23-49b0-9a8b-75b101687d79"},"vehicle_type_id":"4","last_reported":1726524466,"current_range_meters":24800,"station_id":"ce4bhq92rcd13ifvqhjg","pricing_plan_id":"cebpf4jnsgd1na2vs0mg"},{"bike_id":"474a155d-e22d-44cb-bf3d-06bb1ae28387","system_id":"levelo_inurba_marseille","lat":43.3094,"lon":5.40143,"is_reserved":false,"is_disabled":false,"rental_uris":{"android":"levelo://app?vid=474a155d-e22d-44cb-bf3d-06bb1ae28387","ios":"levelo://app?vid=474a155d-e22d-44cb-bf3d-06bb1ae28387"},"vehicle_type_id":"4","last_reported":1726524466,"current_range_meters":38800,"station_id":"ce4bgvp2rcd13ifvqct0","pricing_plan_id":"cebpf4jnsgd1na2vs0mg"},{"bike_id":"4d579e43-d134-468d-832a-405c8e9aa74b","system_id":"levelo_inurba_marseille","lat":43.27572,"lon":5.38424,"is_reserved":false,"is_disabled":false,"rental_uris":{"android":"levelo://app?vid=4d579e43-d134-468d-832a-405c8e9aa74b","ios":"levelo://app?vid=4d579e43-d134-468d-832a-405c8e9aa74b"},"vehicle_type_id":"4","last_reported":1726524466,"current_range_meters":38800,"station_id":"ce4bhh92rcd13ifvqfi0","pricing_plan_id":"cebpf4jnsgd1na2vs0mg"},{"bike_id":"99684f50-b398-427b-a4e9-7ca0a0382c79","system_id":"levelo_inurba_marseille","lat":43.23196,"lon":5.35548,"is_reserved":false,"is_disabled":false,"rental_uris":{"android":"levelo://app?vid=99684f50-b398-427b-a4e9-7ca0a0382c79","ios":"levelo://app?vid=99684f50-b398-427b-a4e9-7ca0a0382c79"},"vehicle_type_id":"4","last_reported":1726524466,"current_range_meters":38800,"station_id":"ce4bhu92rcd13ifvqi70","pricing_plan_id":"cebpf4jnsgd1na2vs0mg"},{"bike_id":"c3a28cfd-1747-4bcf-85ec-e4cf450e6284","system_id":"levelo_inurba_marseille","lat":43.31164,"lon":5.38715,"is_reserved":false,"is_disabled":false,"rental_uris":{"android":"levelo://app?vid=c3a28cfd-1747-4bcf-85ec-e4cf450e6284","ios":"levelo://app?vid=c3a28cfd-1747-4bcf-85ec-e4cf450e6284"},"vehicle_type_id":"4","last_reported":1726524466,"current_range_meters":38000,"station_id":"ce4bgv12rcd13ifvqcp0","pricing_plan_id":"cebpf4jnsgd1na2vs0mg"},{"bike_id":"2b78e364-924b-4afe-afce-ed438e4dae97","system_id":"levelo_inurba_marseille","lat":43.2707,"lon":5.4228,"is_reserved":false,"is_disabled":false,"rental_uris":{"android":"levelo://app?vid=2b78e364-924b-4afe-afce-ed438e4dae97","ios":"levelo://app?vid=2b78e364-924b-4afe-afce-ed438e4dae97"},"vehicle_type_id":"4","last_reported":1726524466,"current_range_meters":31200,"station_id":"ce4bhk92rcd13ifvqgb0","pricing_plan_id":"cebpf4jnsgd1na2vs0mg"},{"bike_id":"c7d0c20f-c1ca-4c60-adaa-b5d380df3050","system_id":"levelo_inurba_marseille","lat":43.29792,"lon":5.39341,"is_reserved":false,"is_disabled":false,"rental_uris":{"android":"levelo://app?vid=c7d0c20f-c1ca-4c60-adaa-b5d380df3050","ios":"levelo://app?vid=c7d0c20f-c1ca-4c60-adaa-b5d380df3050"},"vehicle_type_id":"4","last_reported":1726524466,"current_range_meters":39200,"station_id":"chh1huq6cuj3fo74tm60","pricing_plan_id":"cebpf4jnsgd1na2vs0mg"},{"bike_id":"1e50fdae-020a-4cb6-9b1c-d6613add5f05","system_id":"levelo_inurba_marseille","lat":43.30928,"lon":5.40151,"is_reserved":false,"is_disabled":false,"rental_uris":{"android":"levelo://app?vid=1e50fdae-020a-4cb6-9b1c-d6613add5f05","ios":"levelo://app?vid=1e50fdae-020a-4cb6-9b1c-d6613add5f05"},"vehicle_type_id":"4","last_reported":1726524466,"current_range_meters":16800,"station_id":"ce4bgvp2rcd13ifvqct0","pricing_plan_id":"cebpf4jnsgd1na2vs0mg"},{"bike_id":"51a0ef68-0a0c-4c80-8365-793323e0b2e1","system_id":"levelo_inurba_marseille","lat":43.31723,"lon":5.42412,"is_reserved":false,"is_disabled":false,"rental_uris":{"android":"levelo://app?vid=51a0ef68-0a0c-4c80-8365-793323e0b2e1","ios":"levelo://app?vid=51a0ef68-0a0c-4c80-8365-793323e0b2e1"},"vehicle_type_id":"4","last_reported":1726524466,"current_range_meters":38800,"station_id":"ce4bhp92rcd13ifvqhbg","pricing_plan_id":"cebpf4jnsgd1na2vs0mg"},{"bike_id":"9c6dc8ef-1c0c-4cb9-b418-19ee547f6b08","system_id":"levelo_inurba_marseille","lat":43.31483,"lon":5.37296,"is_reserved":false,"is_disabled":false,"rental_uris":{"android":"levelo://app?vid=9c6dc8ef-1c0c-4cb9-b418-19ee547f6b08","ios":"levelo://app?vid=9c6dc8ef-1c0c-4cb9-b418-19ee547f6b08"},"vehicle_type_id":"4","last_reported":1726524466,"current_range_meters":38000,"station_id":"ce4bgt12rcd13ifvqcd0","pricing_plan_id":"cebpf4jnsgd1na2vs0mg"},{"bike_id":"e72f43fd-5fd7-43f3-8743-4c038c7a4717","system_id":"levelo_inurba_marseille","lat":43.24649,"lon":5.38893,"is_reserved":false,"is_disabled":false,"rental_uris":{"android":"levelo://app?vid=e72f43fd-5fd7-43f3-8743-4c038c7a4717","ios":"levelo://app?vid=e72f43fd-5fd7-43f3-8743-4c038c7a4717"},"vehicle_type_id":"4","last_reported":1726524466,"current_range_meters":32800,"station_id":"ce4bhg12rcd13ifvqf60","pricing_plan_id":"cebpf4jnsgd1na2vs0mg"},{"bike_id":"0ee7a5e1-a53d-474a-9625-99477ecad597","system_id":"levelo_inurba_marseille","lat":43.22931,"lon":5.35376,"is_reserved":false,"is_disabled":false,"rental_uris":{"android":"levelo://app?vid=0ee7a5e1-a53d-474a-9625-99477ecad597","ios":"levelo://app?vid=0ee7a5e1-a53d-474a-9625-99477ecad597"},"vehicle_type_id":"4","last_reported":1726524466,"current_range_meters":20400,"station_id":"cpo3532slgdg3j2ikp40","pricing_plan_id":"cebpf4jnsgd1na2vs0mg"},{"bike_id":"d62d255b-9670-4fb6-aec0-4b51f3e82e99","system_id":"levelo_inurba_marseille","lat":43.29027,"lon":5.38646,"is_reserved":false,"is_disabled":false,"rental_uris":{"android":"levelo://app?vid=d62d255b-9670-4fb6-aec0-4b51f3e82e99","ios":"levelo://app?vid=d62d255b-9670-4fb6-aec0-4b51f3e82e99"},"vehicle_type_id":"4","last_reported":1726524466,"current_range_meters":8000,"station_id":"ce4bh4p2rcd13ifvqe0g","pricing_plan_id":"cebpf4jnsgd1na2vs0mg"},{"bike_id":"d4a5eb26-b065-4afe-af9d-6f80f0b9f610","system_id":"levelo_inurba_marseille","lat":43.31713,"lon":5.43707,"is_reserved":false,"is_disabled":false,"rental_uris":{"android":"levelo://app?vid=d4a5eb26-b065-4afe-af9d-6f80f0b9f610","ios":"levelo://app?vid=d4a5eb26-b065-4afe-af9d-6f80f0b9f610"},"vehicle_type_id":"4","last_reported":1726524466,"current_range_meters":8800,"station_id":"ce4bhp92rcd13ifvqhcg","pricing_plan_id":"cebpf4jnsgd1na2vs0mg"},{"bike_id":"50a2b5d3-0f50-4851-bf79-9ecccd45ca06","system_id":"levelo_inurba_marseille","lat":43.27377,"lon":5.36257,"is_reserved":false,"is_disabled":false,"rental_uris":{"android":"levelo://app?vid=50a2b5d3-0f50-4851-bf79-9ecccd45ca06","ios":"levelo://app?vid=50a2b5d3-0f50-4851-bf79-9ecccd45ca06"},"vehicle_type_id":"4","last_reported":1726524466,"current_range_meters":38000,"station_id":"ce4bhbh2rcd13ifvqeo0","pricing_plan_id":"cebpf4jnsgd1na2vs0mg"},{"bike_id":"98c5049c-3e5c-4a1e-8382-9d4eb5994edb","system_id":"levelo_inurba_marseille","lat":43.2885,"lon":5.35847,"is_reserved":false,"is_disabled":false,"rental_uris":{"android":"levelo://app?vid=98c5049c-3e5c-4a1e-8382-9d4eb5994edb","ios":"levelo://app?vid=98c5049c-3e5c-4a1e-8382-9d4eb5994edb"},"vehicle_type_id":"4","last_reported":1726524466,"current_range_meters":29600,"station_id":"ce4bhb12rcd13ifvqem0","pricing_plan_id":"cebpf4jnsgd1na2vs0mg"},{"bike_id":"e2d0eb8f-b91a-4f09-bd69-1eba8d59a730","system_id":"levelo_inurba_marseille","lat":43.24552,"lon":5.39528,"is_reserved":false,"is_disabled":false,"rental_uris":{"android":"levelo://app?vid=e2d0eb8f-b91a-4f09-bd69-1eba8d59a730","ios":"levelo://app?vid=e2d0eb8f-b91a-4f09-bd69-1eba8d59a730"},"vehicle_type_id":"4","last_reported":1726524466,"current_range_meters":28000,"station_id":"ce4bhlp2rcd13ifvqgjg","pricing_plan_id":"cebpf4jnsgd1na2vs0mg"},{"bike_id":"8d52c58f-9942-4f2d-b989-11d61f2ba529","system_id":"levelo_inurba_marseille","lat":43.3034,"lon":5.40386,"is_reserved":false,"is_disabled":false,"rental_uris":{"android":"levelo://app?vid=8d52c58f-9942-4f2d-b989-11d61f2ba529","ios":"levelo://app?vid=8d52c58f-9942-4f2d-b989-11d61f2ba529"},"vehicle_type_id":"4","last_reported":1726524466,"current_range_meters":18000,"station_id":"ce4bh012rcd13ifvqd10","pricing_plan_id":"cebpf4jnsgd1na2vs0mg"},{"bike_id":"d631b9d4-56df-45a6-a050-dad89844caab","system_id":"levelo_inurba_marseille","lat":43.30895,"lon":5.37189,"is_reserved":false,"is_disabled":false,"rental_uris":{"android":"levelo://app?vid=d631b9d4-56df-45a6-a050-dad89844caab","ios":"levelo://app?vid=d631b9d4-56df-45a6-a050-dad89844caab"},"vehicle_type_id":"4","last_reported":1726524466,"current_range_meters":35600,"station_id":"ce4bguh2rcd13ifvqckg","pricing_plan_id":"cebpf4jnsgd1na2vs0mg"},{"bike_id":"fed25c85-b3e7-4093-a992-a9eacb54e345","system_id":"levelo_inurba_marseille","lat":43.23198,"lon":5.35548,"is_reserved":false,"is_disabled":false,"rental_uris":{"android":"levelo://app?vid=fed25c85-b3e7-4093-a992-a9eacb54e345","ios":"levelo://app?vid=fed25c85-b3e7-4093-a992-a9eacb54e345"},"vehicle_type_id":"4","last_reported":1726524466,"current_range_meters":38800,"station_id":"ce4bhu92rcd13ifvqi70","pricing_plan_id":"cebpf4jnsgd1na2vs0mg"},{"bike_id":"aa200705-ceb5-482b-95b6-236c7438642f","system_id":"levelo_inurba_marseille","lat":43.26941,"lon":5.38913,"is_reserved":false,"is_disabled":false,"rental_uris":{"android":"levelo://app?vid=aa200705-ceb5-482b-95b6-236c7438642f","ios":"levelo://app?vid=aa200705-ceb5-482b-95b6-236c7438642f"},"vehicle_type_id":"4","last_reported":1726524466,"current_range_meters":38800,"station_id":"ce4bhhh2rcd13ifvqfl0","pricing_plan_id":"cebpf4jnsgd1na2vs0mg"},{"bike_id":"5d1fc471-3be0-4068-b5f2-ffc2ae7be440","system_id":"levelo_inurba_marseille","lat":43.29938,"lon":5.36541,"is_reserved":false,"is_disabled":false,"rental_uris":{"android":"levelo://app?vid=5d1fc471-3be0-4068-b5f2-ffc2ae7be440","ios":"levelo://app?vid=5d1fc471-3be0-4068-b5f2-ffc2ae7be440"},"vehicle_type_id":"4","last_reported":1726524466,"current_range_meters":13600,"station_id":"ce4bgm92rcd13ifvqbr0","pricing_plan_id":"cebpf4jnsgd1na2vs0mg"},{"bike_id":"7778f388-d0ae-44fa-91ea-1930bbb64b40","system_id":"levelo_inurba_marseille","lat":43.28441,"lon":5.39191,"is_reserved":false,"is_disabled":false,"rental_uris":{"android":"levelo://app?vid=7778f388-d0ae-44fa-91ea-1930bbb64b40","ios":"levelo://app?vid=7778f388-d0ae-44fa-91ea-1930bbb64b40"},"vehicle_type_id":"4","last_reported":1726524466,"current_range_meters":38000,"station_id":"ce4bhoh2rcd13ifvqh5g","pricing_plan_id":"cebpf4jnsgd1na2vs0mg"},{"bike_id":"a43a6109-12ef-475b-a798-89b024a1f345","system_id":"levelo_inurba_marseille","lat":43.28102,"lon":5.37836,"is_reserved":false,"is_disabled":false,"rental_uris":{"android":"levelo://app?vid=a43a6109-12ef-475b-a798-89b024a1f345","ios":"levelo://app?vid=a43a6109-12ef-475b-a798-89b024a1f345"},"vehicle_type_id":"4","last_reported":1726524466,"current_range_meters":24400,"station_id":"ce4bha12rcd13ifvqee0","pricing_plan_id":"cebpf4jnsgd1na2vs0mg"},{"bike_id":"4be2f992-6a39-4d05-b243-59665b675740","system_id":"levelo_inurba_marseille","lat":43.29814,"lon":5.3878,"is_reserved":false,"is_disabled":false,"rental_uris":{"android":"levelo://app?vid=4be2f992-6a39-4d05-b243-59665b675740","ios":"levelo://app?vid=4be2f992-6a39-4d05-b243-59665b675740"},"vehicle_type_id":"4","last_reported":1726524466,"current_range_meters":7200,"station_id":"ce4bgvp2rcd13ifvqct0","pricing_plan_id":"cebpf4jnsgd1na2vs0mg"},{"bike_id":"f0725c4d-788f-43dc-9cb3-a928697c634a","system_id":"levelo_inurba_marseille","lat":43.27617,"lon":5.36104,"is_reserved":false,"is_disabled":false,"rental_uris":{"android":"levelo://app?vid=f0725c4d-788f-43dc-9cb3-a928697c634a","ios":"levelo://app?vid=f0725c4d-788f-43dc-9cb3-a928697c634a"},"vehicle_type_id":"4","last_reported":1726524466,"current_range_meters":38400,"station_id":"ce4bgj92rcd13ifvqbe0","pricing_plan_id":"cebpf4jnsgd1na2vs0mg"},{"bike_id":"9db864bb-e162-44f2-a443-f7f4891f20a3","system_id":"levelo_inurba_marseille","lat":43.29793,"lon":5.40413,"is_reserved":false,"is_disabled":false,"rental_uris":{"android":"levelo://app?vid=9db864bb-e162-44f2-a443-f7f4891f20a3","ios":"levelo://app?vid=9db864bb-e162-44f2-a443-f7f4891f20a3"},"vehicle_type_id":"4","last_reported":1726524466,"current_range_meters":38800,"station_id":"ce4bh112rcd13ifvqd90","pricing_plan_id":"cebpf4jnsgd1na2vs0mg"},{"bike_id":"6ad2fe94-195b-4d58-9ac6-d3a9675a4c80","system_id":"levelo_inurba_marseille","lat":43.23061,"lon":5.35496,"is_reserved":false,"is_disabled":false,"rental_uris":{"android":"levelo://app?vid=6ad2fe94-195b-4d58-9ac6-d3a9675a4c80","ios":"levelo://app?vid=6ad2fe94-195b-4d58-9ac6-d3a9675a4c80"},"vehicle_type_id":"4","last_reported":1726524466,"current_range_meters":14000,"station_id":"cpo3342slgdg3j2ifvpg","pricing_plan_id":"cebpf4jnsgd1na2vs0mg"},{"bike_id":"6dd17a2f-59bb-4453-859d-2c09ab795824","system_id":"levelo_inurba_marseille","lat":43.33022,"lon":5.39053,"is_reserved":false,"is_disabled":false,"rental_uris":{"android":"levelo://app?vid=6dd17a2f-59bb-4453-859d-2c09ab795824","ios":"levelo://app?vid=6dd17a2f-59bb-4453-859d-2c09ab795824"},"vehicle_type_id":"4","last_reported":1726524466,"current_range_meters":35200,"station_id":"ce4bhr92rcd13ifvqhrg","pricing_plan_id":"cebpf4jnsgd1na2vs0mg"},{"bike_id":"a8ee6adb-3308-4b48-859c-c9f35c38e85e","system_id":"levelo_inurba_marseille","lat":43.28712,"lon":5.37943,"is_reserved":false,"is_disabled":false,"rental_uris":{"android":"levelo://app?vid=a8ee6adb-3308-4b48-859c-c9f35c38e85e","ios":"levelo://app?vid=a8ee6adb-3308-4b48-859c-c9f35c38e85e"},"vehicle_type_id":"4","last_reported":1726524466,"current_range_meters":38000,"station_id":"ce4bh9p2rcd13ifvqec0","pricing_plan_id":"cebpf4jnsgd1na2vs0mg"},{"bike_id":"8ac17af3-1087-4030-8684-fc752197666e","system_id":"levelo_inurba_marseille","lat":43.32364,"lon":5.38883,"is_reserved":false,"is_disabled":false,"rental_uris":{"android":"levelo://app?vid=8ac17af3-1087-4030-8684-fc752197666e","ios":"levelo://app?vid=8ac17af3-1087-4030-8684-fc752197666e"},"vehicle_type_id":"4","last_reported":1726524466,"current_range_meters":21600,"station_id":"ce4bhqp2rcd13ifvqhog","pricing_plan_id":"cebpf4jnsgd1na2vs0mg"},{"bike_id":"2a9a56d3-b7a3-4c95-bf21-e53721b33531","system_id":"levelo_inurba_marseille","lat":43.26801,"lon":5.4026,"is_reserved":false,"is_disabled":false,"rental_uris":{"android":"levelo://app?vid=2a9a56d3-b7a3-4c95-bf21-e53721b33531","ios":"levelo://app?vid=2a9a56d3-b7a3-4c95-bf21-e53721b33531"},"vehicle_type_id":"4","last_reported":1726524466,"current_range_meters":36400,"station_id":"ce501612rcd8frsf0b60","pricing_plan_id":"cebpf4jnsgd1na2vs0mg"},{"bike_id":"285d3ce5-30a7-4099-b570-90e915acc78a","system_id":"levelo_inurba_marseille","lat":43.24649,"lon":5.38902,"is_reserved":false,"is_disabled":false,"rental_uris":{"android":"levelo://app?vid=285d3ce5-30a7-4099-b570-90e915acc78a","ios":"levelo://app?vid=285d3ce5-30a7-4099-b570-90e915acc78a"},"vehicle_type_id":"4","last_reported":1726524466,"current_range_meters":24400,"station_id":"ce4bhg12rcd13ifvqf60","pricing_plan_id":"cebpf4jnsgd1na2vs0mg"},{"bike_id":"a0da9788-6ad0-4bd2-9978-72c1654ca4ea","system_id":"levelo_inurba_marseille","lat":43.3237,"lon":5.38882,"is_reserved":false,"is_disabled":false,"rental_uris":{"android":"levelo://app?vid=a0da9788-6ad0-4bd2-9978-72c1654ca4ea","ios":"levelo://app?vid=a0da9788-6ad0-4bd2-9978-72c1654ca4ea"},"vehicle_type_id":"4","last_reported":1726524466,"current_range_meters":24400,"station_id":"ce4bhqp2rcd13ifvqhog","pricing_plan_id":"cebpf4jnsgd1na2vs0mg"},{"bike_id":"f11293b9-5944-418c-9cea-2087ec8521d3","system_id":"levelo_inurba_marseille","lat":43.31217,"lon":5.36847,"is_reserved":false,"is_disabled":false,"rental_uris":{"android":"levelo://app?vid=f11293b9-5944-418c-9cea-2087ec8521d3","ios":"levelo://app?vid=f11293b9-5944-418c-9cea-2087ec8521d3"},"vehicle_type_id":"4","last_reported":1726524466,"current_range_meters":18800,"station_id":"ce4bgl92rcd13ifvqbq0","pricing_plan_id":"cebpf4jnsgd1na2vs0mg"},{"bike_id":"15f7cf87-7211-48b3-8c68-554b232f1f8e","system_id":"levelo_inurba_marseille","lat":43.30644,"lon":5.40071,"is_reserved":false,"is_disabled":false,"rental_uris":{"android":"levelo://app?vid=15f7cf87-7211-48b3-8c68-554b232f1f8e","ios":"levelo://app?vid=15f7cf87-7211-48b3-8c68-554b232f1f8e"},"vehicle_type_id":"4","last_reported":1726524466,"current_range_meters":12800,"station_id":"ce4bh112rcd13ifvqda0","pricing_plan_id":"cebpf4jnsgd1na2vs0mg"},{"bike_id":"ee2a6f6f-8fd5-4be5-b404-f76250f2e4dc","system_id":"levelo_inurba_marseille","lat":43.27498,"lon":5.42448,"is_reserved":false,"is_disabled":false,"rental_uris":{"android":"levelo://app?vid=ee2a6f6f-8fd5-4be5-b404-f76250f2e4dc","ios":"levelo://app?vid=ee2a6f6f-8fd5-4be5-b404-f76250f2e4dc"},"vehicle_type_id":"4","last_reported":1726524466,"current_range_meters":24800,"station_id":"ce4bhn92rcd13ifvqgrg","pricing_plan_id":"cebpf4jnsgd1na2vs0mg"},{"bike_id":"22f26e89-4ccd-47af-bb30-5f037502847c","system_id":"levelo_inurba_marseille","lat":43.23193,"lon":5.39984,"is_reserved":false,"is_disabled":false,"rental_uris":{"android":"levelo://app?vid=22f26e89-4ccd-47af-bb30-5f037502847c","ios":"levelo://app?vid=22f26e89-4ccd-47af-bb30-5f037502847c"},"vehicle_type_id":"4","last_reported":1726524466,"current_range_meters":30800,"station_id":"ce4bhn12rcd13ifvqgqg","pricing_plan_id":"cebpf4jnsgd1na2vs0mg"},{"bike_id":"93b15369-51ec-4546-bec7-157d7319fb41","system_id":"levelo_inurba_marseille","lat":43.30879,"lon":5.39628,"is_reserved":false,"is_disabled":false,"rental_uris":{"android":"levelo://app?vid=93b15369-51ec-4546-bec7-157d7319fb41","ios":"levelo://app?vid=93b15369-51ec-4546-bec7-157d7319fb41"},"vehicle_type_id":"4","last_reported":1726524466,"current_range_meters":28800,"station_id":"ce4bh012rcd13ifvqcv0","pricing_plan_id":"cebpf4jnsgd1na2vs0mg"},{"bike_id":"dcedc4d0-5154-46be-ab26-09bd6c855628","system_id":"levelo_inurba_marseille","lat":43.32363,"lon":5.38883,"is_reserved":false,"is_disabled":false,"rental_uris":{"android":"levelo://app?vid=dcedc4d0-5154-46be-ab26-09bd6c855628","ios":"levelo://app?vid=dcedc4d0-5154-46be-ab26-09bd6c855628"},"vehicle_type_id":"4","last_reported":1726524466,"current_range_meters":35600,"station_id":"ce4bhqp2rcd13ifvqhog","pricing_plan_id":"cebpf4jnsgd1na2vs0mg"},{"bike_id":"752b7c23-99a0-422d-aba9-b2a2c8d2f24f","system_id":"levelo_inurba_marseille","lat":43.28454,"lon":5.35884,"is_reserved":false,"is_disabled":false,"rental_uris":{"android":"levelo://app?vid=752b7c23-99a0-422d-aba9-b2a2c8d2f24f","ios":"levelo://app?vid=752b7c23-99a0-422d-aba9-b2a2c8d2f24f"},"vehicle_type_id":"4","last_reported":1726524466,"current_range_meters":38000,"station_id":"ce4bhah2rcd13ifvqei0","pricing_plan_id":"cebpf4jnsgd1na2vs0mg"},{"bike_id":"628e8e29-9eca-4bd0-99a2-0faf772c3998","system_id":"levelo_inurba_marseille","lat":43.29173,"lon":5.37157,"is_reserved":false,"is_disabled":false,"rental_uris":{"android":"levelo://app?vid=628e8e29-9eca-4bd0-99a2-0faf772c3998","ios":"levelo://app?vid=628e8e29-9eca-4bd0-99a2-0faf772c3998"},"vehicle_type_id":"4","last_reported":1726524466,"current_range_meters":37600,"station_id":"ce4bha92rcd13ifvqeh0","pricing_plan_id":"cebpf4jnsgd1na2vs0mg"},{"bike_id":"65eecb51-7024-4f30-af20-d65f809bce2b","system_id":"levelo_inurba_marseille","lat":43.31471,"lon":5.3833,"is_reserved":false,"is_disabled":false,"rental_uris":{"android":"levelo://app?vid=65eecb51-7024-4f30-af20-d65f809bce2b","ios":"levelo://app?vid=65eecb51-7024-4f30-af20-d65f809bce2b"},"vehicle_type_id":"4","last_reported":1726524466,"current_range_meters":10000,"station_id":"ce4bgvp2rcd13ifvqcu0","pricing_plan_id":"cebpf4jnsgd1na2vs0mg"},{"bike_id":"ae73ddaf-edbe-46b6-a221-e59d1a2a3aa4","system_id":"levelo_inurba_marseille","lat":43.29056,"lon":5.37154,"is_reserved":false,"is_disabled":false,"rental_uris":{"android":"levelo://app?vid=ae73ddaf-edbe-46b6-a221-e59d1a2a3aa4","ios":"levelo://app?vid=ae73ddaf-edbe-46b6-a221-e59d1a2a3aa4"},"vehicle_type_id":"4","last_reported":1726524466,"current_range_meters":36400,"station_id":"ce4bh5p2rcd13ifvqe4g","pricing_plan_id":"cebpf4jnsgd1na2vs0mg"},{"bike_id":"9a67484a-b200-4c8a-8842-e924dcc44372","system_id":"levelo_inurba_marseille","lat":43.30332,"lon":5.40445,"is_reserved":false,"is_disabled":false,"rental_uris":{"android":"levelo://app?vid=9a67484a-b200-4c8a-8842-e924dcc44372","ios":"levelo://app?vid=9a67484a-b200-4c8a-8842-e924dcc44372"},"vehicle_type_id":"4","last_reported":1726524466,"current_range_meters":38400,"station_id":"ce4bh012rcd13ifvqd10","pricing_plan_id":"cebpf4jnsgd1na2vs0mg"},{"bike_id":"714bd286-0914-421a-ac78-a8aec3d8de06","system_id":"levelo_inurba_marseille","lat":43.31711,"lon":5.43709,"is_reserved":false,"is_disabled":false,"rental_uris":{"android":"levelo://app?vid=714bd286-0914-421a-ac78-a8aec3d8de06","ios":"levelo://app?vid=714bd286-0914-421a-ac78-a8aec3d8de06"},"vehicle_type_id":"4","last_reported":1726524466,"current_range_meters":8000,"station_id":"ce4bhp92rcd13ifvqhcg","pricing_plan_id":"cebpf4jnsgd1na2vs0mg"},{"bike_id":"9e6acc5e-94a7-4e9f-94a9-f4362cac3b04","system_id":"levelo_inurba_marseille","lat":43.30913,"lon":5.36848,"is_reserved":false,"is_disabled":false,"rental_uris":{"android":"levelo://app?vid=9e6acc5e-94a7-4e9f-94a9-f4362cac3b04","ios":"levelo://app?vid=9e6acc5e-94a7-4e9f-94a9-f4362cac3b04"},"vehicle_type_id":"4","last_reported":1726524466,"current_range_meters":10800,"station_id":"ce4bgn92rcd13ifvqbvg","pricing_plan_id":"cebpf4jnsgd1na2vs0mg"},{"bike_id":"f5c0e1e2-2d50-430f-b096-cc74d6ddc37d","system_id":"levelo_inurba_marseille","lat":43.27502,"lon":5.42446,"is_reserved":false,"is_disabled":false,"rental_uris":{"android":"levelo://app?vid=f5c0e1e2-2d50-430f-b096-cc74d6ddc37d","ios":"levelo://app?vid=f5c0e1e2-2d50-430f-b096-cc74d6ddc37d"},"vehicle_type_id":"4","last_reported":1726524466,"current_range_meters":39200,"station_id":"ce4bhn92rcd13ifvqgrg","pricing_plan_id":"cebpf4jnsgd1na2vs0mg"},{"bike_id":"c0b1f7bf-1fae-4790-830b-8b43d74961ef","system_id":"levelo_inurba_marseille","lat":43.28413,"lon":5.3752,"is_reserved":false,"is_disabled":false,"rental_uris":{"android":"levelo://app?vid=c0b1f7bf-1fae-4790-830b-8b43d74961ef","ios":"levelo://app?vid=c0b1f7bf-1fae-4790-830b-8b43d74961ef"},"vehicle_type_id":"4","last_reported":1726524466,"current_range_meters":34800,"station_id":"ce4bh412rcd13ifvqds0","pricing_plan_id":"cebpf4jnsgd1na2vs0mg"},{"bike_id":"3ba54119-f1f1-4b43-9ff6-4fdb7e565fee","system_id":"levelo_inurba_marseille","lat":43.26945,"lon":5.40246,"is_reserved":false,"is_disabled":false,"rental_uris":{"android":"levelo://app?vid=3ba54119-f1f1-4b43-9ff6-4fdb7e565fee","ios":"levelo://app?vid=3ba54119-f1f1-4b43-9ff6-4fdb7e565fee"},"vehicle_type_id":"4","last_reported":1726524466,"current_range_meters":25600,"station_id":"cjm6bp8fraef2m0cb0m0","pricing_plan_id":"cebpf4jnsgd1na2vs0mg"},{"bike_id":"ea862046-3582-47b6-ae65-2da6bbf0a825","system_id":"levelo_inurba_marseille","lat":43.28678,"lon":5.38667,"is_reserved":false,"is_disabled":false,"rental_uris":{"android":"levelo://app?vid=ea862046-3582-47b6-ae65-2da6bbf0a825","ios":"levelo://app?vid=ea862046-3582-47b6-ae65-2da6bbf0a825"},"vehicle_type_id":"4","last_reported":1726524466,"current_range_meters":38800,"station_id":"ce4bh492rcd13ifvqdug","pricing_plan_id":"cebpf4jnsgd1na2vs0mg"},{"bike_id":"304f2efa-04f3-407b-9e09-024e44efbead","system_id":"levelo_inurba_marseille","lat":43.30897,"lon":5.37191,"is_reserved":false,"is_disabled":false,"rental_uris":{"android":"levelo://app?vid=304f2efa-04f3-407b-9e09-024e44efbead","ios":"levelo://app?vid=304f2efa-04f3-407b-9e09-024e44efbead"},"vehicle_type_id":"4","last_reported":1726524466,"current_range_meters":39200,"station_id":"ce4bguh2rcd13ifvqckg","pricing_plan_id":"cebpf4jnsgd1na2vs0mg"},{"bike_id":"1996e39f-8f18-486f-8884-0e03321355c2","system_id":"levelo_inurba_marseille","lat":43.28434,"lon":5.39183,"is_reserved":false,"is_disabled":false,"rental_uris":{"android":"levelo://app?vid=1996e39f-8f18-486f-8884-0e03321355c2","ios":"levelo://app?vid=1996e39f-8f18-486f-8884-0e03321355c2"},"vehicle_type_id":"4","last_reported":1726524466,"current_range_meters":12800,"station_id":"ce4bhoh2rcd13ifvqh5g","pricing_plan_id":"cebpf4jnsgd1na2vs0mg"},{"bike_id":"e3b1bc72-7f72-46db-a800-7dcac88ff7e2","system_id":"levelo_inurba_marseille","lat":43.2512,"lon":5.40316,"is_reserved":false,"is_disabled":false,"rental_uris":{"android":"levelo://app?vid=e3b1bc72-7f72-46db-a800-7dcac88ff7e2","ios":"levelo://app?vid=e3b1bc72-7f72-46db-a800-7dcac88ff7e2"},"vehicle_type_id":"4","last_reported":1726524466,"current_range_meters":14400,"station_id":"ce4bhlh2rcd13ifvqgig","pricing_plan_id":"cebpf4jnsgd1na2vs0mg"},{"bike_id":"58b3807d-8a9d-46a5-8add-14ba5d8ab59a","system_id":"levelo_inurba_marseille","lat":43.28702,"lon":5.39975,"is_reserved":false,"is_disabled":false,"rental_uris":{"android":"levelo://app?vid=58b3807d-8a9d-46a5-8add-14ba5d8ab59a","ios":"levelo://app?vid=58b3807d-8a9d-46a5-8add-14ba5d8ab59a"},"vehicle_type_id":"4","last_reported":1726524466,"current_range_meters":34800,"station_id":"ce4bho92rcd13ifvqh3g","pricing_plan_id":"cebpf4jnsgd1na2vs0mg"},{"bike_id":"8cf17552-5527-4357-aca7-942aed1386be","system_id":"levelo_inurba_marseille","lat":43.28662,"lon":5.36352,"is_reserved":false,"is_disabled":false,"rental_uris":{"android":"levelo://app?vid=8cf17552-5527-4357-aca7-942aed1386be","ios":"levelo://app?vid=8cf17552-5527-4357-aca7-942aed1386be"},"vehicle_type_id":"4","last_reported":1726524466,"current_range_meters":20400,"station_id":"ce4bhah2rcd13ifvqej0","pricing_plan_id":"cebpf4jnsgd1na2vs0mg"},{"bike_id":"2a74aa2d-f8fa-4b59-af3e-57ccb051a669","system_id":"levelo_inurba_marseille","lat":43.31723,"lon":5.42404,"is_reserved":false,"is_disabled":false,"rental_uris":{"android":"levelo://app?vid=2a74aa2d-f8fa-4b59-af3e-57ccb051a669","ios":"levelo://app?vid=2a74aa2d-f8fa-4b59-af3e-57ccb051a669"},"vehicle_type_id":"4","last_reported":1726524466,"current_range_meters":16000,"station_id":"ce4bhp92rcd13ifvqhbg","pricing_plan_id":"cebpf4jnsgd1na2vs0mg"},{"bike_id":"4b416f5c-d0bb-4b83-a0d2-9152e8fdacd6","system_id":"levelo_inurba_marseille","lat":43.28457,"lon":5.35885,"is_reserved":false,"is_disabled":false,"rental_uris":{"android":"levelo://app?vid=4b416f5c-d0bb-4b83-a0d2-9152e8fdacd6","ios":"levelo://app?vid=4b416f5c-d0bb-4b83-a0d2-9152e8fdacd6"},"vehicle_type_id":"4","last_reported":1726524466,"current_range_meters":17200,"station_id":"ce4bhah2rcd13ifvqei0","pricing_plan_id":"cebpf4jnsgd1na2vs0mg"},{"bike_id":"c5cd1bc6-e936-4ea5-9eae-558c0dd88416","system_id":"levelo_inurba_marseille","lat":43.25716,"lon":5.41114,"is_reserved":false,"is_disabled":false,"rental_uris":{"android":"levelo://app?vid=c5cd1bc6-e936-4ea5-9eae-558c0dd88416","ios":"levelo://app?vid=c5cd1bc6-e936-4ea5-9eae-558c0dd88416"},"vehicle_type_id":"4","last_reported":1726524466,"current_range_meters":10000,"station_id":"ce4bhkp2rcd13ifvqgd0","pricing_plan_id":"cebpf4jnsgd1na2vs0mg"},{"bike_id":"511492e3-7121-47c4-bbb9-de0e33b01c9c","system_id":"levelo_inurba_marseille","lat":43.29252,"lon":5.40912,"is_reserved":false,"is_disabled":false,"rental_uris":{"android":"levelo://app?vid=511492e3-7121-47c4-bbb9-de0e33b01c9c","ios":"levelo://app?vid=511492e3-7121-47c4-bbb9-de0e33b01c9c"},"vehicle_type_id":"4","last_reported":1726524466,"current_range_meters":39200,"station_id":"ce4bh192rcd13ifvqdc0","pricing_plan_id":"cebpf4jnsgd1na2vs0mg"},{"bike_id":"bf8036ae-44d9-4d64-8260-a30bb9e0cdea","system_id":"levelo_inurba_marseille","lat":43.285553,"lon":5.392701,"is_reserved":false,"is_disabled":false,"rental_uris":{"android":"levelo://app?vid=bf8036ae-44d9-4d64-8260-a30bb9e0cdea","ios":"levelo://app?vid=bf8036ae-44d9-4d64-8260-a30bb9e0cdea"},"vehicle_type_id":"4","last_reported":1726524466,"current_range_meters":30800,"station_id":"ce4bhoh2rcd13ifvqh5g","pricing_plan_id":"cebpf4jnsgd1na2vs0mg"},{"bike_id":"27964037-a0b8-4a53-9dde-2c750f17bf67","system_id":"levelo_inurba_marseille","lat":43.29804,"lon":5.40405,"is_reserved":false,"is_disabled":false,"rental_uris":{"android":"levelo://app?vid=27964037-a0b8-4a53-9dde-2c750f17bf67","ios":"levelo://app?vid=27964037-a0b8-4a53-9dde-2c750f17bf67"},"vehicle_type_id":"4","last_reported":1726524466,"current_range_meters":18800,"station_id":"ce4bh112rcd13ifvqd90","pricing_plan_id":"cebpf4jnsgd1na2vs0mg"},{"bike_id":"f91dce73-ccc5-4411-9cbc-bcc6a25dc977","system_id":"levelo_inurba_marseille","lat":43.2904,"lon":5.37565,"is_reserved":false,"is_disabled":false,"rental_uris":{"android":"levelo://app?vid=f91dce73-ccc5-4411-9cbc-bcc6a25dc977","ios":"levelo://app?vid=f91dce73-ccc5-4411-9cbc-bcc6a25dc977"},"vehicle_type_id":"4","last_reported":1726524466,"current_range_meters":7200,"station_id":"ce4bh692rcd13ifvqe90","pricing_plan_id":"cebpf4jnsgd1na2vs0mg"},{"bike_id":"cfac947c-8e12-4f7e-8021-183c0345da24","system_id":"levelo_inurba_marseille","lat":43.30962,"lon":5.39045,"is_reserved":false,"is_disabled":false,"rental_uris":{"android":"levelo://app?vid=cfac947c-8e12-4f7e-8021-183c0345da24","ios":"levelo://app?vid=cfac947c-8e12-4f7e-8021-183c0345da24"},"vehicle_type_id":"4","last_reported":1726524466,"current_range_meters":20800,"station_id":"ce4bgup2rcd13ifvqco0","pricing_plan_id":"cebpf4jnsgd1na2vs0mg"},{"bike_id":"8ade207b-a908-4a0b-92a9-2f148b8c6316","system_id":"levelo_inurba_marseille","lat":43.29444,"lon":5.3975,"is_reserved":false,"is_disabled":false,"rental_uris":{"android":"levelo://app?vid=8ade207b-a908-4a0b-92a9-2f148b8c6316","ios":"levelo://app?vid=8ade207b-a908-4a0b-92a9-2f148b8c6316"},"vehicle_type_id":"4","last_reported":1726524466,"current_range_meters":37600,"station_id":"ce4bh3h2rcd13ifvqdo0","pricing_plan_id":"cebpf4jnsgd1na2vs0mg"},{"bike_id":"cbaf03bf-0340-4293-a424-18d0ef0b595f","system_id":"levelo_inurba_marseille","lat":43.29903,"lon":5.43673,"is_reserved":false,"is_disabled":false,"rental_uris":{"android":"levelo://app?vid=cbaf03bf-0340-4293-a424-18d0ef0b595f","ios":"levelo://app?vid=cbaf03bf-0340-4293-a424-18d0ef0b595f"},"vehicle_type_id":"4","last_reported":1726524466,"current_range_meters":25600,"station_id":"ce4bhpp2rcd13ifvqhfg","pricing_plan_id":"cebpf4jnsgd1na2vs0mg"},{"bike_id":"d43de57a-51fa-4f37-93be-1ecc41758a0d","system_id":"levelo_inurba_marseille","lat":43.29252,"lon":5.40911,"is_reserved":false,"is_disabled":false,"rental_uris":{"android":"levelo://app?vid=d43de57a-51fa-4f37-93be-1ecc41758a0d","ios":"levelo://app?vid=d43de57a-51fa-4f37-93be-1ecc41758a0d"},"vehicle_type_id":"4","last_reported":1726524466,"current_range_meters":24400,"station_id":"ce4bh192rcd13ifvqdc0","pricing_plan_id":"cebpf4jnsgd1na2vs0mg"},{"bike_id":"5f41659e-7a35-49fb-a64b-47999103e000","system_id":"levelo_inurba_marseille","lat":43.28437,"lon":5.3919,"is_reserved":false,"is_disabled":false,"rental_uris":{"android":"levelo://app?vid=5f41659e-7a35-49fb-a64b-47999103e000","ios":"levelo://app?vid=5f41659e-7a35-49fb-a64b-47999103e000"},"vehicle_type_id":"4","last_reported":1726524466,"current_range_meters":18800,"station_id":"ce4bhoh2rcd13ifvqh5g","pricing_plan_id":"cebpf4jnsgd1na2vs0mg"},{"bike_id":"28f93278-2ede-43cf-baca-05bdb76ae9bb","system_id":"levelo_inurba_marseille","lat":43.3117,"lon":5.38717,"is_reserved":false,"is_disabled":false,"rental_uris":{"android":"levelo://app?vid=28f93278-2ede-43cf-baca-05bdb76ae9bb","ios":"levelo://app?vid=28f93278-2ede-43cf-baca-05bdb76ae9bb"},"vehicle_type_id":"4","last_reported":1726524466,"current_range_meters":8400,"station_id":"ce4bgv12rcd13ifvqcp0","pricing_plan_id":"cebpf4jnsgd1na2vs0mg"},{"bike_id":"bd7a26b1-8a2a-418d-92a8-956d87408f69","system_id":"levelo_inurba_marseille","lat":43.28616,"lon":5.35108,"is_reserved":false,"is_disabled":false,"rental_uris":{"android":"levelo://app?vid=bd7a26b1-8a2a-418d-92a8-956d87408f69","ios":"levelo://app?vid=bd7a26b1-8a2a-418d-92a8-956d87408f69"},"vehicle_type_id":"4","last_reported":1726524466,"current_range_meters":30000,"station_id":"ce4bhch2rcd13ifvqeug","pricing_plan_id":"cebpf4jnsgd1na2vs0mg"},{"bike_id":"6bff0284-c823-4b38-8f5c-288ca708d80d","system_id":"levelo_inurba_marseille","lat":43.27177,"lon":5.40991,"is_reserved":false,"is_disabled":false,"rental_uris":{"android":"levelo://app?vid=6bff0284-c823-4b38-8f5c-288ca708d80d","ios":"levelo://app?vid=6bff0284-c823-4b38-8f5c-288ca708d80d"},"vehicle_type_id":"4","last_reported":1726524466,"current_range_meters":24000,"station_id":"ce4bhl12rcd13ifvqgf0","pricing_plan_id":"cebpf4jnsgd1na2vs0mg"},{"bike_id":"b71de538-a719-49bb-8773-2331356ccc3c","system_id":"levelo_inurba_marseille","lat":43.32298,"lon":5.38271,"is_reserved":false,"is_disabled":false,"rental_uris":{"android":"levelo://app?vid=b71de538-a719-49bb-8773-2331356ccc3c","ios":"levelo://app?vid=b71de538-a719-49bb-8773-2331356ccc3c"},"vehicle_type_id":"4","last_reported":1726524466,"current_range_meters":38800,"station_id":"ce4bhr12rcd13ifvqhqg","pricing_plan_id":"cebpf4jnsgd1na2vs0mg"},{"bike_id":"31d7628c-a98b-4127-881d-92022a3abc84","system_id":"levelo_inurba_marseille","lat":43.25931,"lon":5.40912,"is_reserved":false,"is_disabled":false,"rental_uris":{"android":"levelo://app?vid=31d7628c-a98b-4127-881d-92022a3abc84","ios":"levelo://app?vid=31d7628c-a98b-4127-881d-92022a3abc84"},"vehicle_type_id":"4","last_reported":1726524466,"current_range_meters":27600,"station_id":"ce4bhm92rcd13ifvqglg","pricing_plan_id":"cebpf4jnsgd1na2vs0mg"},{"bike_id":"5d7557eb-bdff-487d-a9e5-45d20f4ef4bb","system_id":"levelo_inurba_marseille","lat":43.28718,"lon":5.39994,"is_reserved":false,"is_disabled":false,"rental_uris":{"android":"levelo://app?vid=5d7557eb-bdff-487d-a9e5-45d20f4ef4bb","ios":"levelo://app?vid=5d7557eb-bdff-487d-a9e5-45d20f4ef4bb"},"vehicle_type_id":"4","last_reported":1726524466,"current_range_meters":38800,"station_id":"ce4bho92rcd13ifvqh3g","pricing_plan_id":"cebpf4jnsgd1na2vs0mg"},{"bike_id":"245a8bc8-7499-4b8a-bf0a-52499a965be1","system_id":"levelo_inurba_marseille","lat":43.3137,"lon":5.38491,"is_reserved":false,"is_disabled":false,"rental_uris":{"android":"levelo://app?vid=245a8bc8-7499-4b8a-bf0a-52499a965be1","ios":"levelo://app?vid=245a8bc8-7499-4b8a-bf0a-52499a965be1"},"vehicle_type_id":"4","last_reported":1726524466,"current_range_meters":17200,"station_id":"ce4bgt92rcd13ifvqcf0","pricing_plan_id":"cebpf4jnsgd1na2vs0mg"},{"bike_id":"c74c1419-5d38-4b4a-8b61-69f27e6e34af","system_id":"levelo_inurba_marseille","lat":43.28353,"lon":5.38104,"is_reserved":false,"is_disabled":false,"rental_uris":{"android":"levelo://app?vid=c74c1419-5d38-4b4a-8b61-69f27e6e34af","ios":"levelo://app?vid=c74c1419-5d38-4b4a-8b61-69f27e6e34af"},"vehicle_type_id":"4","last_reported":1726524466,"current_range_meters":3200,"station_id":"ce4bh412rcd13ifvqdr0","pricing_plan_id":"cebpf4jnsgd1na2vs0mg"},{"bike_id":"0a70f540-c764-400b-9565-c3ec59056a34","system_id":"levelo_inurba_marseille","lat":43.31997,"lon":5.38146,"is_reserved":false,"is_disabled":false,"rental_uris":{"android":"levelo://app?vid=0a70f540-c764-400b-9565-c3ec59056a34","ios":"levelo://app?vid=0a70f540-c764-400b-9565-c3ec59056a34"},"vehicle_type_id":"4","last_reported":1726524466,"current_range_meters":38800,"station_id":"ce4bhr12rcd13ifvqhpg","pricing_plan_id":"cebpf4jnsgd1na2vs0mg"},{"bike_id":"0427d4ef-acb2-48b8-8f05-61e96d9b909b","system_id":"levelo_inurba_marseille","lat":43.29566,"lon":5.39969,"is_reserved":false,"is_disabled":false,"rental_uris":{"android":"levelo://app?vid=0427d4ef-acb2-48b8-8f05-61e96d9b909b","ios":"levelo://app?vid=0427d4ef-acb2-48b8-8f05-61e96d9b909b"},"vehicle_type_id":"4","last_reported":1726524466,"current_range_meters":36000,"station_id":"ce4bh312rcd13ifvqdj0","pricing_plan_id":"cebpf4jnsgd1na2vs0mg"},{"bike_id":"de3353ae-d48a-4f39-b92c-5b1d056de8df","system_id":"levelo_inurba_marseille","lat":43.31077,"lon":5.38361,"is_reserved":false,"is_disabled":false,"rental_uris":{"android":"levelo://app?vid=de3353ae-d48a-4f39-b92c-5b1d056de8df","ios":"levelo://app?vid=de3353ae-d48a-4f39-b92c-5b1d056de8df"},"vehicle_type_id":"4","last_reported":1726524466,"current_range_meters":38400,"station_id":"ce4bgv92rcd13ifvqcr0","pricing_plan_id":"cebpf4jnsgd1na2vs0mg"},{"bike_id":"36d2d421-0e6d-4c92-ba5c-f281e8cea3ba","system_id":"levelo_inurba_marseille","lat":43.24182,"lon":5.39731,"is_reserved":false,"is_disabled":false,"rental_uris":{"android":"levelo://app?vid=36d2d421-0e6d-4c92-ba5c-f281e8cea3ba","ios":"levelo://app?vid=36d2d421-0e6d-4c92-ba5c-f281e8cea3ba"},"vehicle_type_id":"4","last_reported":1726524466,"current_range_meters":38800,"station_id":"ce4bhn12rcd13ifvqgpg","pricing_plan_id":"cebpf4jnsgd1na2vs0mg"},{"bike_id":"9d75558b-4880-4ba6-8d2c-11ebcc191005","system_id":"levelo_inurba_marseille","lat":43.28701,"lon":5.39975,"is_reserved":false,"is_disabled":false,"rental_uris":{"android":"levelo://app?vid=9d75558b-4880-4ba6-8d2c-11ebcc191005","ios":"levelo://app?vid=9d75558b-4880-4ba6-8d2c-11ebcc191005"},"vehicle_type_id":"4","last_reported":1726524466,"current_range_meters":38000,"station_id":"ce4bho92rcd13ifvqh3g","pricing_plan_id":"cebpf4jnsgd1na2vs0mg"},{"bike_id":"eaf4ab00-ffab-4720-9f94-41fa3490bd48","system_id":"levelo_inurba_marseille","lat":43.28725,"lon":5.37927,"is_reserved":false,"is_disabled":false,"rental_uris":{"android":"levelo://app?vid=eaf4ab00-ffab-4720-9f94-41fa3490bd48","ios":"levelo://app?vid=eaf4ab00-ffab-4720-9f94-41fa3490bd48"},"vehicle_type_id":"4","last_reported":1726524466,"current_range_meters":38800,"station_id":"ce4bh9p2rcd13ifvqec0","pricing_plan_id":"cebpf4jnsgd1na2vs0mg"},{"bike_id":"d050d7b7-e817-42dd-99e2-bc8a4864acf7","system_id":"levelo_inurba_marseille","lat":43.33614,"lon":5.41029,"is_reserved":false,"is_disabled":false,"rental_uris":{"android":"levelo://app?vid=d050d7b7-e817-42dd-99e2-bc8a4864acf7","ios":"levelo://app?vid=d050d7b7-e817-42dd-99e2-bc8a4864acf7"},"vehicle_type_id":"4","last_reported":1726524466,"current_range_meters":38800,"station_id":"ce4bhqh2rcd13ifvqhmg","pricing_plan_id":"cebpf4jnsgd1na2vs0mg"},{"bike_id":"328d45f9-980e-4811-97c0-47d761861509","system_id":"levelo_inurba_marseille","lat":43.29847,"lon":5.37836,"is_reserved":false,"is_disabled":false,"rental_uris":{"android":"levelo://app?vid=328d45f9-980e-4811-97c0-47d761861509","ios":"levelo://app?vid=328d45f9-980e-4811-97c0-47d761861509"},"vehicle_type_id":"4","last_reported":1726524466,"current_range_meters":20800,"station_id":"ce4bgkh2rcd13ifvqbl0","pricing_plan_id":"cebpf4jnsgd1na2vs0mg"},{"bike_id":"e1247036-949c-49d5-8c34-39a2938842b7","system_id":"levelo_inurba_marseille","lat":43.26562,"lon":5.39011,"is_reserved":false,"is_disabled":false,"rental_uris":{"android":"levelo://app?vid=e1247036-949c-49d5-8c34-39a2938842b7","ios":"levelo://app?vid=e1247036-949c-49d5-8c34-39a2938842b7"},"vehicle_type_id":"4","last_reported":1726524466,"current_range_meters":38800,"station_id":"ce4bhe12rcd13ifvqf30","pricing_plan_id":"cebpf4jnsgd1na2vs0mg"},{"bike_id":"ddfc9a2c-0449-470e-927f-f715bce62f66","system_id":"levelo_inurba_marseille","lat":43.24662,"lon":5.38165,"is_reserved":false,"is_disabled":false,"rental_uris":{"android":"levelo://app?vid=ddfc9a2c-0449-470e-927f-f715bce62f66","ios":"levelo://app?vid=ddfc9a2c-0449-470e-927f-f715bce62f66"},"vehicle_type_id":"4","last_reported":1726524466,"current_range_meters":39200,"station_id":"ce4bhih2rcd13ifvqfr0","pricing_plan_id":"cebpf4jnsgd1na2vs0mg"},{"bike_id":"a95f3029-7940-4108-b253-241efdd3befb","system_id":"levelo_inurba_marseille","lat":43.25109,"lon":5.40324,"is_reserved":false,"is_disabled":false,"rental_uris":{"android":"levelo://app?vid=a95f3029-7940-4108-b253-241efdd3befb","ios":"levelo://app?vid=a95f3029-7940-4108-b253-241efdd3befb"},"vehicle_type_id":"4","last_reported":1726524466,"current_range_meters":38000,"station_id":"ce4bhlh2rcd13ifvqgig","pricing_plan_id":"cebpf4jnsgd1na2vs0mg"},{"bike_id":"3b473eea-4ce5-47d8-ac76-c398a8b68342","system_id":"levelo_inurba_marseille","lat":43.28707,"lon":5.39981,"is_reserved":false,"is_disabled":false,"rental_uris":{"android":"levelo://app?vid=3b473eea-4ce5-47d8-ac76-c398a8b68342","ios":"levelo://app?vid=3b473eea-4ce5-47d8-ac76-c398a8b68342"},"vehicle_type_id":"4","last_reported":1726524466,"current_range_meters":35600,"station_id":"ce4bho92rcd13ifvqh3g","pricing_plan_id":"cebpf4jnsgd1na2vs0mg"},{"bike_id":"9acdf472-e2e8-47ba-8975-f012d9637227","system_id":"levelo_inurba_marseille","lat":43.27383,"lon":5.36248,"is_reserved":false,"is_disabled":false,"rental_uris":{"android":"levelo://app?vid=9acdf472-e2e8-47ba-8975-f012d9637227","ios":"levelo://app?vid=9acdf472-e2e8-47ba-8975-f012d9637227"},"vehicle_type_id":"4","last_reported":1726524466,"current_range_meters":38800,"station_id":"ce4bhbh2rcd13ifvqeo0","pricing_plan_id":"cebpf4jnsgd1na2vs0mg"},{"bike_id":"fe43840c-a2c0-45d0-a19d-4ad10017aa65","system_id":"levelo_inurba_marseille","lat":43.28041,"lon":5.36945,"is_reserved":false,"is_disabled":false,"rental_uris":{"android":"levelo://app?vid=fe43840c-a2c0-45d0-a19d-4ad10017aa65","ios":"levelo://app?vid=fe43840c-a2c0-45d0-a19d-4ad10017aa65"},"vehicle_type_id":"4","last_reported":1726524466,"current_range_meters":28000,"station_id":"ce4bha12rcd13ifvqef0","pricing_plan_id":"cebpf4jnsgd1na2vs0mg"},{"bike_id":"16b116f5-c6a1-41ed-8d0b-5bdfed6db625","system_id":"levelo_inurba_marseille","lat":43.28434,"lon":5.39186,"is_reserved":false,"is_disabled":false,"rental_uris":{"android":"levelo://app?vid=16b116f5-c6a1-41ed-8d0b-5bdfed6db625","ios":"levelo://app?vid=16b116f5-c6a1-41ed-8d0b-5bdfed6db625"},"vehicle_type_id":"4","last_reported":1726524466,"current_range_meters":9200,"station_id":"ce4bhoh2rcd13ifvqh5g","pricing_plan_id":"cebpf4jnsgd1na2vs0mg"},{"bike_id":"d182445a-e432-488a-a625-69930aee5de0","system_id":"levelo_inurba_marseille","lat":43.27573,"lon":5.38415,"is_reserved":false,"is_disabled":false,"rental_uris":{"android":"levelo://app?vid=d182445a-e432-488a-a625-69930aee5de0","ios":"levelo://app?vid=d182445a-e432-488a-a625-69930aee5de0"},"vehicle_type_id":"4","last_reported":1726524466,"current_range_meters":38800,"station_id":"ce4bhh92rcd13ifvqfi0","pricing_plan_id":"cebpf4jnsgd1na2vs0mg"},{"bike_id":"fa690805-233a-4a70-a9f3-33f1b67cdb1f","system_id":"levelo_inurba_marseille","lat":43.3229,"lon":5.38266,"is_reserved":false,"is_disabled":false,"rental_uris":{"android":"levelo://app?vid=fa690805-233a-4a70-a9f3-33f1b67cdb1f","ios":"levelo://app?vid=fa690805-233a-4a70-a9f3-33f1b67cdb1f"},"vehicle_type_id":"4","last_reported":1726524466,"current_range_meters":36000,"station_id":"ce4bhr12rcd13ifvqhqg","pricing_plan_id":"cebpf4jnsgd1na2vs0mg"},{"bike_id":"8b608b96-fedf-4511-8d4b-09bad2606e1a","system_id":"levelo_inurba_marseille","lat":43.27712,"lon":5.41141,"is_reserved":false,"is_disabled":false,"rental_uris":{"android":"levelo://app?vid=8b608b96-fedf-4511-8d4b-09bad2606e1a","ios":"levelo://app?vid=8b608b96-fedf-4511-8d4b-09bad2606e1a"},"vehicle_type_id":"4","last_reported":1726524466,"current_range_meters":12800,"station_id":"","pricing_plan_id":"cebpf4jnsgd1na2vs0mg"},{"bike_id":"f28275e1-090d-430b-bb90-faf86af1484c","system_id":"levelo_inurba_marseille","lat":43.31111,"lon":5.37769,"is_reserved":false,"is_disabled":false,"rental_uris":{"android":"levelo://app?vid=f28275e1-090d-430b-bb90-faf86af1484c","ios":"levelo://app?vid=f28275e1-090d-430b-bb90-faf86af1484c"},"vehicle_type_id":"4","last_reported":1726524466,"current_range_meters":4000,"station_id":"ce4bgt92rcd13ifvqcg0","pricing_plan_id":"cebpf4jnsgd1na2vs0mg"},{"bike_id":"70b88215-4436-4b90-8ece-7363720f248f","system_id":"levelo_inurba_marseille","lat":43.32367,"lon":5.38886,"is_reserved":false,"is_disabled":false,"rental_uris":{"android":"levelo://app?vid=70b88215-4436-4b90-8ece-7363720f248f","ios":"levelo://app?vid=70b88215-4436-4b90-8ece-7363720f248f"},"vehicle_type_id":"4","last_reported":1726524466,"current_range_meters":9600,"station_id":"ce4bhqp2rcd13ifvqhog","pricing_plan_id":"cebpf4jnsgd1na2vs0mg"},{"bike_id":"57be3ded-1ee9-42c1-b39d-7196fdda9743","system_id":"levelo_inurba_marseille","lat":43.32291,"lon":5.38261,"is_reserved":false,"is_disabled":false,"rental_uris":{"android":"levelo://app?vid=57be3ded-1ee9-42c1-b39d-7196fdda9743","ios":"levelo://app?vid=57be3ded-1ee9-42c1-b39d-7196fdda9743"},"vehicle_type_id":"4","last_reported":1726524466,"current_range_meters":38800,"station_id":"ce4bhr12rcd13ifvqhqg","pricing_plan_id":"cebpf4jnsgd1na2vs0mg"},{"bike_id":"ab9c38aa-220b-4b11-abfc-fd77a88a6860","system_id":"levelo_inurba_marseille","lat":43.23974,"lon":5.36636,"is_reserved":false,"is_disabled":false,"rental_uris":{"android":"levelo://app?vid=ab9c38aa-220b-4b11-abfc-fd77a88a6860","ios":"levelo://app?vid=ab9c38aa-220b-4b11-abfc-fd77a88a6860"},"vehicle_type_id":"4","last_reported":1726524466,"current_range_meters":39200,"station_id":"ce4bhi12rcd13ifvqfp0","pricing_plan_id":"cebpf4jnsgd1na2vs0mg"},{"bike_id":"363c0ad4-2e1c-498e-b18d-474132a208d0","system_id":"levelo_inurba_marseille","lat":43.29974,"lon":5.37189,"is_reserved":false,"is_disabled":false,"rental_uris":{"android":"levelo://app?vid=363c0ad4-2e1c-498e-b18d-474132a208d0","ios":"levelo://app?vid=363c0ad4-2e1c-498e-b18d-474132a208d0"},"vehicle_type_id":"4","last_reported":1726524466,"current_range_meters":38800,"station_id":"ce4bgr92rcd13ifvqc7g","pricing_plan_id":"cebpf4jnsgd1na2vs0mg"},{"bike_id":"17c8cb12-43b4-473f-b857-ab00877d61cb","system_id":"levelo_inurba_marseille","lat":43.30888,"lon":5.37196,"is_reserved":false,"is_disabled":false,"rental_uris":{"android":"levelo://app?vid=17c8cb12-43b4-473f-b857-ab00877d61cb","ios":"levelo://app?vid=17c8cb12-43b4-473f-b857-ab00877d61cb"},"vehicle_type_id":"4","last_reported":1726524466,"current_range_meters":38800,"station_id":"ce4bguh2rcd13ifvqckg","pricing_plan_id":"cebpf4jnsgd1na2vs0mg"},{"bike_id":"efb022d2-2dde-420e-8745-c8d943e78e4a","system_id":"levelo_inurba_marseille","lat":43.2693,"lon":5.38925,"is_reserved":false,"is_disabled":false,"rental_uris":{"android":"levelo://app?vid=efb022d2-2dde-420e-8745-c8d943e78e4a","ios":"levelo://app?vid=efb022d2-2dde-420e-8745-c8d943e78e4a"},"vehicle_type_id":"4","last_reported":1726524466,"current_range_meters":17600,"station_id":"ce4bhhh2rcd13ifvqfl0","pricing_plan_id":"cebpf4jnsgd1na2vs0mg"},