{"last_updated":1743268042,"ttl":60,"version":"2.2","data":{"bikes":[{"bike_id":"de05e992-ebbb-4468-a131-1d7363535419","system_id":"levelo_inurba_marseille","lat":43.25578,"lon":5.38234,"is_reserved":false,"is_disabled":false,"rental_uris":{"android":"levelo://app?vid=de05e992-ebbb-4468-a131-1d7363535419","ios":"levelo://app?vid=de05e992-ebbb-4468-a131-1d7363535419"},"vehicle_type_id":"4","last_reported":1743268042,"current_range_meters":2800,"station_id":"ce4bhih2rcd13ifvqfs0","pricing_plan_id":"cebpf4jnsgd1na2vs0mg"},{"bike_id":"e911c4d9-f984-4a3c-b339-f0432362ed10","system_id":"levelo_inurba_marseille","lat":43.29269,"lon":5.38437,"is_reserved":false,"is_disabled":false,"rental_uris":{"android":"levelo://app?vid=e911c4d9-f984-4a3c-b339-f0432362ed10","ios":"levelo://app?vid=e911c4d9-f984-4a3c-b339-f0432362ed10"},"vehicle_type_id":"4","last_reported":1743268042,"current_range_meters":3200,"station_id":"ce4bh692rcd13ifvqea0","pricing_plan_id":"cebpf4jnsgd1na2vs0mg"},{"bike_id":"821763d8-32ab-4a1b-bf60-9dc07fa3f691","system_id":"levelo_inurba_marseille","lat":43.3233,"lon":5.40625,"is_reserved":false,"is_disabled":false,"rental_uris":{"android":"levelo://app?vid=821763d8-32ab-4a1b-bf60-9dc07fa3f691","ios":"levelo://app?vid=821763d8-32ab-4a1b-bf60-9dc07fa3f691"},"vehicle_type_id":"4","last_reported":1743268042,"current_range_meters":3200,"station_id":"ce4bhq92rcd13ifvqhjg","pricing_plan_id":"cebpf4jnsgd1na2vs0mg"},{"bike_id":"92fadeb5-3b6b-4383-80bf-906273911335","system_id":"levelo_inurba_marseille","lat":43.32108,"lon":5.36769,"is_reserved":false,"is_disabled":false,"rental_uris":{"android":"levelo://app?vid=92fadeb5-3b6b-4383-80bf-906273911335","ios":"levelo://app?vid=92fadeb5-3b6b-4383-80bf-906273911335"},"vehicle_type_id":"4","last_reported":1743268042,"current_range_meters":3200,"station_id":"ce4bhrh2rcd13ifvqhug","pricing_plan_id":"cebpf4jnsgd1na2vs0mg"},{"bike_id":"4bf7467d-9fe5-494f-afc9-48a69b63c35f","system_id":"levelo_inurba_marseille","lat":43.30098,"lon":5.39085,"is_reserved":false,"is_disabled":false,"rental_uris":{"android":"levelo://app?vid=4bf7467d-9fe5-494f-afc9-48a69b63c35f","ios":"levelo://app?vid=4bf7467d-9fe5-494f-afc9-48a69b63c35f"},"vehicle_type_id":"4","last_reported":1743268042,"current_range_meters":3600,"station_id":"ce4bh192rcd13ifvqdb0","pricing_plan_id":"cebpf4jnsgd1na2vs0mg"},{"bike_id":"632a303c-3504-4fd3-b83a-b8162fb457bd","system_id":"levelo_inurba_marseille","lat":43.307381,"lon":5.373713,"is_reserved":false,"is_disabled":false,"rental_uris":{"android":"levelo://app?vid=632a303c-3504-4fd3-b83a-b8162fb457bd","ios":"levelo://app?vid=632a303c-3504-4fd3-b83a-b8162fb457bd"},"vehicle_type_id":"4","last_reported":1743268042,"current_range_meters":3600,"station_id":"ce4bgt92rcd13ifvqcg0","pricing_plan_id":"cebpf4jnsgd1na2vs0mg"},{"bike_id":"877d335b-2a8f-48cd-bc37-ea3bf1c35b36","system_id":"levelo_inurba_marseille","lat":43.31081,"lon":5.38354,"is_reserved":false,"is_disabled":false,"rental_uris":{"android":"levelo://app?vid=877d335b-2a8f-48cd-bc37-ea3bf1c35b36","ios":"levelo://app?vid=877d335b-2a8f-48cd-bc37-ea3bf1c35b36"},"vehicle_type_id":"4","last_reported":1743268042,"current_range_meters":3600,"station_id":"ce4bgv92rcd13ifvqcr0","pricing_plan_id":"cebpf4jnsgd1na2vs0mg"},{"bike_id":"ee2588a0-8a3d-4c56-88e3-6823a90de92d","system_id":"levelo_inurba_marseille","lat":43.28106,"lon":5.38592,"is_reserved":false,"is_disabled":false,"rental_uris":{"android":"levelo://app?vid=ee2588a0-8a3d-4c56-88e3-6823a90de92d","ios":"levelo://app?vid=ee2588a0-8a3d-4c56-88e3-6823a90de92d"},"vehicle_type_id":"4","last_reported":1743268042,"current_range_meters":3600,"station_id":"","pricing_plan_id":"cebpf4jnsgd1na2vs0mg"},{"bike_id":"c35f7468-1371-4b51-bf37-de9b928bcd7e","system_id":"levelo_inurba_marseille","lat":43.27917,"lon":5.41252,"is_reserved":false,"is_disabled":false,"rental_uris":{"android":"levelo://app?vid=c35f7468-1371-4b51-bf37-de9b928bcd7e","ios":"levelo://app?vid=c35f7468-1371-4b51-bf37-de9b928bcd7e"},"vehicle_type_id":"4","last_reported":1743268042,"current_range_meters":3600,"station_id":"","pricing_plan_id":"cebpf4jnsgd1na2vs0mg"},{"bike_id":"bf486d29-80ae-43fc-9394-756ed3e2b73e","system_id":"levelo_inurba_marseille","lat":43.27979,"lon":5.40025,"is_reserved":false,"is_disabled":true,"rental_uris":{"android":"levelo://app?vid=bf486d29-80ae-43fc-9394-756ed3e2b73e","ios":"levelo://app?vid=bf486d29-80ae-43fc-9394-756ed3e2b73e"},"vehicle_type_id":"4","last_reported":1743268042,"current_range_meters":4000,"station_id":"ce4bho92rcd13ifvqh4g","pricing_plan_id":"cebpf4jnsgd1na2vs0mg"},{"bike_id":"1deeec2e-47a4-4f06-9316-1d0987be07b8","system_id":"levelo_inurba_marseille","lat":43.27505,"lon":5.42475,"is_reserved":false,"is_disabled":false,"rental_uris":{"android":"levelo://app?vid=1deeec2e-47a4-4f06-9316-1d0987be07b8","ios":"levelo://app?vid=1deeec2e-47a4-4f06-9316-1d0987be07b8"},"vehicle_type_id":"4","last_reported":1743268042,"current_range_meters":4000,"station_id":"ce4bhn92rcd13ifvqgrg","pricing_plan_id":"cebpf4jnsgd1na2vs0mg"},{"bike_id":"b212f2ae-d9f5-417f-a6e8-f699c35235da","system_id":"levelo_inurba_marseille","lat":43.29561,"lon":5.39991,"is_reserved":false,"is_disabled":false,"rental_uris":{"android":"levelo://app?vid=b212f2ae-d9f5-417f-a6e8-f699c35235da","ios":"levelo://app?vid=b212f2ae-d9f5-417f-a6e8-f699c35235da"},"vehicle_type_id":"4","last_reported":1743268042,"current_range_meters":4000,"station_id":"ce4bh312rcd13ifvqdj0","pricing_plan_id":"cebpf4jnsgd1na2vs0mg"},{"bike_id":"fd7e18e3-01a9-4166-a535-751f0bc4fdc5","system_id":"levelo_inurba_marseille","lat":43.30207,"lon":5.39499,"is_reserved":false,"is_disabled":false,"rental_uris":{"android":"levelo://app?vid=fd7e18e3-01a9-4166-a535-751f0bc4fdc5","ios":"levelo://app?vid=fd7e18e3-01a9-4166-a535-751f0bc4fdc5"},"vehicle_type_id":"4","last_reported":1743268042,"current_range_meters":4000,"station_id":"ce4bh0p2rcd13ifvqd70","pricing_plan_id":"cebpf4jnsgd1na2vs0mg"},{"bike_id":"47d896cb-a613-4799-bede-1daa7086c133","system_id":"levelo_inurba_marseille","lat":43.28674,"lon":5.38663,"is_reserved":false,"is_disabled":false,"rental_uris":{"android":"levelo://app?vid=47d896cb-a613-4799-bede-1daa7086c133","ios":"levelo://app?vid=47d896cb-a613-4799-bede-1daa7086c133"},"vehicle_type_id":"4","last_reported":1743268042,"current_range_meters":4000,"station_id":"ce4bh492rcd13ifvqdug","pricing_plan_id":"cebpf4jnsgd1na2vs0mg"},{"bike_id":"34bdd116-9622-45ed-b289-c8a8ec5b6c81","system_id":"levelo_inurba_marseille","lat":43.28607,"lon":5.37064,"is_reserved":false,"is_disabled":false,"rental_uris":{"android":"levelo://app?vid=34bdd116-9622-45ed-b289-c8a8ec5b6c81","ios":"levelo://app?vid=34bdd116-9622-45ed-b289-c8a8ec5b6c81"},"vehicle_type_id":"4","last_reported":1743268042,"current_range_meters":4400,"station_id":"ce4bht12rcd13ifvqi60","pricing_plan_id":"cebpf4jnsgd1na2vs0mg"},{"bike_id":"b83d67b8-63e0-40f6-b3a9-ca0b44b65da3","system_id":"levelo_inurba_marseille","lat":43.28446,"lon":5.39203,"is_reserved":false,"is_disabled":false,"rental_uris":{"android":"levelo://app?vid=b83d67b8-63e0-40f6-b3a9-ca0b44b65da3","ios":"levelo://app?vid=b83d67b8-63e0-40f6-b3a9-ca0b44b65da3"},"vehicle_type_id":"4","last_reported":1743268042,"current_range_meters":4400,"station_id":"ce4bhoh2rcd13ifvqh5g","pricing_plan_id":"cebpf4jnsgd1na2vs0mg"},{"bike_id":"73f9e333-6ad4-4bdb-aca2-fe8da6c515d7","system_id":"levelo_inurba_marseille","lat":43.28444,"lon":5.39207,"is_reserved":false,"is_disabled":false,"rental_uris":{"android":"levelo://app?vid=73f9e333-6ad4-4bdb-aca2-fe8da6c515d7","ios":"levelo://app?vid=73f9e333-6ad4-4bdb-aca2-fe8da6c515d7"},"vehicle_type_id":"4","last_reported":1743268042,"current_range_meters":4400,"station_id":"ce4bhoh2rcd13ifvqh5g","pricing_plan_id":"cebpf4jnsgd1na2vs0mg"},{"bike_id":"ed40b86c-5893-42a5-bfa3-0a0c01e5ffed","system_id":"levelo_inurba_marseille","lat":43.29963,"lon":5.38499,"is_reserved":false,"is_disabled":false,"rental_uris":{"android":"levelo://app?vid=ed40b86c-5893-42a5-bfa3-0a0c01e5ffed","ios":"levelo://app?vid=ed40b86c-5893-42a5-bfa3-0a0c01e5ffed"},"vehicle_type_id":"4","last_reported":1743268042,"current_range_meters":10000,"station_id":"ce4bgj92rcd13ifvqbd0","pricing_plan_id":"cebpf4jnsgd1na2vs0mg"},{"bike_id":"372077d7-6912-4560-8e62-7c1226cc8258","system_id":"levelo_inurba_marseille","lat":43.279883,"lon":5.400357,"is_reserved":false,"is_disabled":false,"rental_uris":{"android":"levelo://app?vid=372077d7-6912-4560-8e62-7c1226cc8258","ios":"levelo://app?vid=372077d7-6912-4560-8e62-7c1226cc8258"},"vehicle_type_id":"4","last_reported":1743268042,"current_range_meters":4800,"station_id":"ce4bho92rcd13ifvqh4g","pricing_plan_id":"cebpf4jnsgd1na2vs0mg"},{"bike_id":"ec068699-7e27-4679-baf9-96c2c36196ab","system_id":"levelo_inurba_marseille","lat":43.30148,"lon":5.38061,"is_reserved":false,"is_disabled":false,"rental_uris":{"android":"levelo://app?vid=ec068699-7e27-4679-baf9-96c2c36196ab","ios":"levelo://app?vid=ec068699-7e27-4679-baf9-96c2c36196ab"},"vehicle_type_id":"4","last_reported":1743268042,"current_range_meters":4800,"station_id":"ce4bgjp2rcd13ifvqbh0","pricing_plan_id":"cebpf4jnsgd1na2vs0mg"},{"bike_id":"59396e85-c76d-4f0d-a412-14cb906c9e36","system_id":"levelo_inurba_marseille","lat":43.28615,"lon":5.35107,"is_reserved":false,"is_disabled":false,"rental_uris":{"android":"levelo://app?vid=59396e85-c76d-4f0d-a412-14cb906c9e36","ios":"levelo://app?vid=59396e85-c76d-4f0d-a412-14cb906c9e36"},"vehicle_type_id":"4","last_reported":1743268042,"current_range_meters":4800,"station_id":"ce4bhch2rcd13ifvqeug","pricing_plan_id":"cebpf4jnsgd1na2vs0mg"},{"bike_id":"21c69d40-e565-4b5a-a052-21de79bcc847","system_id":"levelo_inurba_marseille","lat":43.30245,"lon":5.40032,"is_reserved":false,"is_disabled":false,"rental_uris":{"android":"levelo://app?vid=21c69d40-e565-4b5a-a052-21de79bcc847","ios":"levelo://app?vid=21c69d40-e565-4b5a-a052-21de79bcc847"},"vehicle_type_id":"4","last_reported":1743268042,"current_range_meters":4800,"station_id":"","pricing_plan_id":"cebpf4jnsgd1na2vs0mg"},{"bike_id":"c665550f-8aad-4598-ba63-43c7c0e6be29","system_id":"levelo_inurba_marseille","lat":43.30391,"lon":5.42489,"is_reserved":false,"is_disabled":false,"rental_uris":{"android":"levelo://app?vid=c665550f-8aad-4598-ba63-43c7c0e6be29","ios":"levelo://app?vid=c665550f-8aad-4598-ba63-43c7c0e6be29"},"vehicle_type_id":"4","last_reported":1743268042,"current_range_meters":5600,"station_id":"ce4bhoh2rcd13ifvqh6g","pricing_plan_id":"cebpf4jnsgd1na2vs0mg"},{"bike_id":"4a42ca1e-41e4-4233-a4bb-a180f04564d6","system_id":"levelo_inurba_marseille","lat":43.29172,"lon":5.37154,"is_reserved":false,"is_disabled":false,"rental_uris":{"android":"levelo://app?vid=4a42ca1e-41e4-4233-a4bb-a180f04564d6","ios":"levelo://app?vid=4a42ca1e-41e4-4233-a4bb-a180f04564d6"},"vehicle_type_id":"4","last_reported":1743268042,"current_range_meters":5600,"station_id":"ce4bha92rcd13ifvqeh0","pricing_plan_id":"cebpf4jnsgd1na2vs0mg"},{"bike_id":"2f5d84b8-2dfb-4073-872a-f2e883c0d085","system_id":"levelo_inurba_marseille","lat":43.29963,"lon":5.38503,"is_reserved":false,"is_disabled":false,"rental_uris":{"android":"levelo://app?vid=2f5d84b8-2dfb-4073-872a-f2e883c0d085","ios":"levelo://app?vid=2f5d84b8-2dfb-4073-872a-f2e883c0d085"},"vehicle_type_id":"4","last_reported":1743268042,"current_range_meters":5600,"station_id":"ce4bgj92rcd13ifvqbd0","pricing_plan_id":"cebpf4jnsgd1na2vs0mg"},{"bike_id":"6203da95-4c86-4fe0-8492-054aa5f92814","system_id":"levelo_inurba_marseille","lat":43.291717,"lon":5.371809,"is_reserved":false,"is_disabled":false,"rental_uris":{"android":"levelo://app?vid=6203da95-4c86-4fe0-8492-054aa5f92814","ios":"levelo://app?vid=6203da95-4c86-4fe0-8492-054aa5f92814"},"vehicle_type_id":"4","last_reported":1743268042,"current_range_meters":5600,"station_id":"ce4bgnh2rcd13ifvqc0g","pricing_plan_id":"cebpf4jnsgd1na2vs0mg"},{"bike_id":"5f4a3306-98bd-4598-8655-e88ccfe12770","system_id":"levelo_inurba_marseille","lat":43.29035,"lon":5.39962,"is_reserved":false,"is_disabled":false,"rental_uris":{"android":"levelo://app?vid=5f4a3306-98bd-4598-8655-e88ccfe12770","ios":"levelo://app?vid=5f4a3306-98bd-4598-8655-e88ccfe12770"},"vehicle_type_id":"4","last_reported":1743268042,"current_range_meters":6000,"station_id":"ce4bh392rcd13ifvqdm0","pricing_plan_id":"cebpf4jnsgd1na2vs0mg"},{"bike_id":"d7c9e49f-9da5-4b2e-bae8-8dbfb05890a7","system_id":"levelo_inurba_marseille","lat":43.33326,"lon":5.40122,"is_reserved":false,"is_disabled":false,"rental_uris":{"android":"levelo://app?vid=d7c9e49f-9da5-4b2e-bae8-8dbfb05890a7","ios":"levelo://app?vid=d7c9e49f-9da5-4b2e-bae8-8dbfb05890a7"},"vehicle_type_id":"4","last_reported":1743268042,"current_range_meters":6000,"station_id":"","pricing_plan_id":"cebpf4jnsgd1na2vs0mg"},{"bike_id":"a851b43f-e146-4877-a822-8dc586a628d7","system_id":"levelo_inurba_marseille","lat":43.3013,"lon":5.38774,"is_reserved":false,"is_disabled":false,"rental_uris":{"android":"levelo://app?vid=a851b43f-e146-4877-a822-8dc586a628d7","ios":"levelo://app?vid=a851b43f-e146-4877-a822-8dc586a628d7"},"vehicle_type_id":"4","last_reported":1743268042,"current_range_meters":6000,"station_id":"ce4bghh2rcd13ifvqb60","pricing_plan_id":"cebpf4jnsgd1na2vs0mg"},{"bike_id":"861ae205-c318-4688-ac53-947993e1b65f","system_id":"levelo_inurba_marseille","lat":43.241691,"lon":5.363816,"is_reserved":false,"is_disabled":false,"rental_uris":{"android":"levelo://app?vid=861ae205-c318-4688-ac53-947993e1b65f","ios":"levelo://app?vid=861ae205-c318-4688-ac53-947993e1b65f"},"vehicle_type_id":"4","last_reported":1743268042,"current_range_meters":6000,"station_id":"cpo36qri1sfpv3e86is0","pricing_plan_id":"cebpf4jnsgd1na2vs0mg"},{"bike_id":"9e6169ef-5f71-4a72-b3c2-effde3fb2783","system_id":"levelo_inurba_marseille","lat":43.30394,"lon":5.41275,"is_reserved":false,"is_disabled":false,"rental_uris":{"android":"levelo://app?vid=9e6169ef-5f71-4a72-b3c2-effde3fb2783","ios":"levelo://app?vid=9e6169ef-5f71-4a72-b3c2-effde3fb2783"},"vehicle_type_id":"4","last_reported":1743268042,"current_range_meters":6000,"station_id":"ce4bhop2rcd13ifvqh8g","pricing_plan_id":"cebpf4jnsgd1na2vs0mg"},{"bike_id":"635afaa7-6a2c-4e71-a715-bb7b1f8dee39","system_id":"levelo_inurba_marseille","lat":43.30707,"lon":5.382423,"is_reserved":false,"is_disabled":false,"rental_uris":{"android":"levelo://app?vid=635afaa7-6a2c-4e71-a715-bb7b1f8dee39","ios":"levelo://app?vid=635afaa7-6a2c-4e71-a715-bb7b1f8dee39"},"vehicle_type_id":"4","last_reported":1743268042,"current_range_meters":6000,"station_id":"ce4bgup2rcd13ifvqcn0","pricing_plan_id":"cebpf4jnsgd1na2vs0mg"},{"bike_id":"260a84c9-d44c-47d9-a951-89a7bad9fe73","system_id":"levelo_inurba_marseille","lat":43.26201,"lon":5.37929,"is_reserved":false,"is_disabled":false,"rental_uris":{"android":"levelo://app?vid=260a84c9-d44c-47d9-a951-89a7bad9fe73","ios":"levelo://app?vid=260a84c9-d44c-47d9-a951-89a7bad9fe73"},"vehicle_type_id":"4","last_reported":1743268042,"current_range_meters":6000,"station_id":"ce4bhjp2rcd13ifvqg90","pricing_plan_id":"cebpf4jnsgd1na2vs0mg"},{"bike_id":"1d9fe2a9-77f3-4498-b02c-d548e28bd87a","system_id":"levelo_inurba_marseille","lat":43.29964,"lon":5.38503,"is_reserved":false,"is_disabled":false,"rental_uris":{"android":"levelo://app?vid=1d9fe2a9-77f3-4498-b02c-d548e28bd87a","ios":"levelo://app?vid=1d9fe2a9-77f3-4498-b02c-d548e28bd87a"},"vehicle_type_id":"4","last_reported":1743268042,"current_range_meters":5600,"station_id":"ce4bgj92rcd13ifvqbd0","pricing_plan_id":"cebpf4jnsgd1na2vs0mg"},{"bike_id":"971c92cb-66df-438d-9a85-e63af939e6ff","system_id":"levelo_inurba_marseille","lat":43.28622,"lon":5.35151,"is_reserved":false,"is_disabled":true,"rental_uris":{"android":"levelo://app?vid=971c92cb-66df-438d-9a85-e63af939e6ff","ios":"levelo://app?vid=971c92cb-66df-438d-9a85-e63af939e6ff"},"vehicle_type_id":"4","last_reported":1743268042,"current_range_meters":6400,"station_id":"ce4bhch2rcd13ifvqeug","pricing_plan_id":"cebpf4jnsgd1na2vs0mg"},{"bike_id":"90df0f14-f996-423e-b605-53c2c708242e","system_id":"levelo_inurba_marseille","lat":43.31675,"lon":5.40515,"is_reserved":false,"is_disabled":false,"rental_uris":{"android":"levelo://app?vid=90df0f14-f996-423e-b605-53c2c708242e","ios":"levelo://app?vid=90df0f14-f996-423e-b605-53c2c708242e"},"vehicle_type_id":"4","last_reported":1743268042,"current_range_meters":6400,"station_id":"ce4bh012rcd13ifvqd00","pricing_plan_id":"cebpf4jnsgd1na2vs0mg"},{"bike_id":"e872a3cf-148f-4dc2-b37d-72163caaaf50","system_id":"levelo_inurba_marseille","lat":43.25495,"lon":5.37655,"is_reserved":false,"is_disabled":true,"rental_uris":{"android":"levelo://app?vid=e872a3cf-148f-4dc2-b37d-72163caaaf50","ios":"levelo://app?vid=e872a3cf-148f-4dc2-b37d-72163caaaf50"},"vehicle_type_id":"4","last_reported":1743268042,"current_range_meters":6400,"station_id":"ce4bhh12rcd13ifvqff0","pricing_plan_id":"cebpf4jnsgd1na2vs0mg"},{"bike_id":"e7efdd97-650e-4166-871b-af638ba7f19b","system_id":"levelo_inurba_marseille","lat":43.26551,"lon":5.37298,"is_reserved":false,"is_disabled":false,"rental_uris":{"android":"levelo://app?vid=e7efdd97-650e-4166-871b-af638ba7f19b","ios":"levelo://app?vid=e7efdd97-650e-4166-871b-af638ba7f19b"},"vehicle_type_id":"4","last_reported":1743268042,"current_range_meters":6400,"station_id":"ce4bhg12rcd13ifvqf70","pricing_plan_id":"cebpf4jnsgd1na2vs0mg"},{"bike_id":"c6b682a7-e903-4363-967f-d69957e8f7ed","system_id":"levelo_inurba_marseille","lat":43.28609,"lon":5.35137,"is_reserved":false,"is_disabled":false,"rental_uris":{"android":"levelo://app?vid=c6b682a7-e903-4363-967f-d69957e8f7ed","ios":"levelo://app?vid=c6b682a7-e903-4363-967f-d69957e8f7ed"},"vehicle_type_id":"4","last_reported":1743268042,"current_range_meters":6400,"station_id":"ce4bhch2rcd13ifvqeug","pricing_plan_id":"cebpf4jnsgd1na2vs0mg"},{"bike_id":"fac3bdf8-dabe-45c4-a03a-10e08e1093f2","system_id":"levelo_inurba_marseille","lat":43.30531,"lon":5.36715,"is_reserved":false,"is_disabled":false,"rental_uris":{"android":"levelo://app?vid=fac3bdf8-dabe-45c4-a03a-10e08e1093f2","ios":"levelo://app?vid=fac3bdf8-dabe-45c4-a03a-10e08e1093f2"},"vehicle_type_id":"4","last_reported":1743268042,"current_range_meters":6400,"station_id":"ce4bgrp2rcd13ifvqc9g","pricing_plan_id":"cebpf4jnsgd1na2vs0mg"},{"bike_id":"1c4fe866-d11c-4dbc-ad2c-0c7afccac5e6","system_id":"levelo_inurba_marseille","lat":43.31178,"lon":5.38718,"is_reserved":false,"is_disabled":false,"rental_uris":{"android":"levelo://app?vid=1c4fe866-d11c-4dbc-ad2c-0c7afccac5e6","ios":"levelo://app?vid=1c4fe866-d11c-4dbc-ad2c-0c7afccac5e6"},"vehicle_type_id":"4","last_reported":1743268042,"current_range_meters":6800,"station_id":"ce4bgv12rcd13ifvqcp0","pricing_plan_id":"cebpf4jnsgd1na2vs0mg"},{"bike_id":"b01eadf9-6c12-4938-82bd-1012a3ee7698","system_id":"levelo_inurba_marseille","lat":43.32045,"lon":5.41547,"is_reserved":false,"is_disabled":false,"rental_uris":{"android":"levelo://app?vid=b01eadf9-6c12-4938-82bd-1012a3ee7698","ios":"levelo://app?vid=b01eadf9-6c12-4938-82bd-1012a3ee7698"},"vehicle_type_id":"4","last_reported":1743268042,"current_range_meters":6800,"station_id":"ce4bhq92rcd13ifvqhkg","pricing_plan_id":"cebpf4jnsgd1na2vs0mg"},{"bike_id":"11a1a7b3-da0f-43b1-b42c-de62a5fae906","system_id":"levelo_inurba_marseille","lat":43.29975,"lon":5.38492,"is_reserved":false,"is_disabled":false,"rental_uris":{"android":"levelo://app?vid=11a1a7b3-da0f-43b1-b42c-de62a5fae906","ios":"levelo://app?vid=11a1a7b3-da0f-43b1-b42c-de62a5fae906"},"vehicle_type_id":"4","last_reported":1743268042,"current_range_meters":5600,"station_id":"ce4bgj92rcd13ifvqbd0","pricing_plan_id":"cebpf4jnsgd1na2vs0mg"},{"bike_id":"43d3f610-2ea9-4eda-a4c8-e3f9706bb87c","system_id":"levelo_inurba_marseille","lat":43.30386,"lon":5.37381,"is_reserved":false,"is_disabled":false,"rental_uris":{"android":"levelo://app?vid=43d3f610-2ea9-4eda-a4c8-e3f9706bb87c","ios":"levelo://app?vid=43d3f610-2ea9-4eda-a4c8-e3f9706bb87c"},"vehicle_type_id":"4","last_reported":1743268042,"current_range_meters":6800,"station_id":"","pricing_plan_id":"cebpf4jnsgd1na2vs0mg"},{"bike_id":"0adac50e-10ac-4fe2-be8d-31e638f95515","system_id":"levelo_inurba_marseille","lat":43.30527,"lon":5.36563,"is_reserved":false,"is_disabled":false,"rental_uris":{"android":"levelo://app?vid=0adac50e-10ac-4fe2-be8d-31e638f95515","ios":"levelo://app?vid=0adac50e-10ac-4fe2-be8d-31e638f95515"},"vehicle_type_id":"4","last_reported":1743268042,"current_range_meters":7200,"station_id":"ce4bgs12rcd13ifvqcag","pricing_plan_id":"cebpf4jnsgd1na2vs0mg"},{"bike_id":"c0c6b7d9-b0f8-43a2-83f3-7697b375a332","system_id":"levelo_inurba_marseille","lat":43.25092,"lon":5.39512,"is_reserved":false,"is_disabled":false,"rental_uris":{"android":"levelo://app?vid=c0c6b7d9-b0f8-43a2-83f3-7697b375a332","ios":"levelo://app?vid=c0c6b7d9-b0f8-43a2-83f3-7697b375a332"},"vehicle_type_id":"4","last_reported":1743268042,"current_range_meters":7200,"station_id":"ce4bhm12rcd13ifvqgkg","pricing_plan_id":"cebpf4jnsgd1na2vs0mg"},{"bike_id":"f1e0085a-717c-4f8f-8e62-f0efbea49266","system_id":"levelo_inurba_marseille","lat":43.27565,"lon":5.38413,"is_reserved":false,"is_disabled":false,"rental_uris":{"android":"levelo://app?vid=f1e0085a-717c-4f8f-8e62-f0efbea49266","ios":"levelo://app?vid=f1e0085a-717c-4f8f-8e62-f0efbea49266"},"vehicle_type_id":"4","last_reported":1743268042,"current_range_meters":7200,"station_id":"ce4bhh92rcd13ifvqfi0","pricing_plan_id":"cebpf4jnsgd1na2vs0mg"},{"bike_id":"c76b0198-9b9f-40e7-830d-b0be7cf92d98","system_id":"levelo_inurba_marseille","lat":43.29032,"lon":5.37598,"is_reserved":false,"is_disabled":false,"rental_uris":{"android":"levelo://app?vid=c76b0198-9b9f-40e7-830d-b0be7cf92d98","ios":"levelo://app?vid=c76b0198-9b9f-40e7-830d-b0be7cf92d98"},"vehicle_type_id":"4","last_reported":1743268042,"current_range_meters":7200,"station_id":"ce4bh692rcd13ifvqe90","pricing_plan_id":"cebpf4jnsgd1na2vs0mg"},{"bike_id":"cd2dc4de-70a1-432b-8900-303cf935d2f7","system_id":"levelo_inurba_marseille","lat":43.24814,"lon":5.374603,"is_reserved":false,"is_disabled":false,"rental_uris":{"android":"levelo://app?vid=cd2dc4de-70a1-432b-8900-303cf935d2f7","ios":"levelo://app?vid=cd2dc4de-70a1-432b-8900-303cf935d2f7"},"vehicle_type_id":"4","last_reported":1743268042,"current_range_meters":7200,"station_id":"","pricing_plan_id":"cebpf4jnsgd1na2vs0mg"},{"bike_id":"1bd3a9b6-ec9b-45a9-a68a-4189389c5ba8","system_id":"levelo_inurba_marseille","lat":43.31756,"lon":5.39017,"is_reserved":false,"is_disabled":false,"rental_uris":{"android":"levelo://app?vid=1bd3a9b6-ec9b-45a9-a68a-4189389c5ba8","ios":"levelo://app?vid=1bd3a9b6-ec9b-45a9-a68a-4189389c5ba8"},"vehicle_type_id":"4","last_reported":1743268042,"current_range_meters":8000,"station_id":"ce4bhqp2rcd13ifvqhng","pricing_plan_id":"cebpf4jnsgd1na2vs0mg"},{"bike_id":"f47eba55-a588-4033-a3dc-992c836c995d","system_id":"levelo_inurba_marseille","lat":43.31686,"lon":5.40517,"is_reserved":false,"is_disabled":false,"rental_uris":{"android":"levelo://app?vid=f47eba55-a588-4033-a3dc-992c836c995d","ios":"levelo://app?vid=f47eba55-a588-4033-a3dc-992c836c995d"},"vehicle_type_id":"4","last_reported":1743268042,"current_range_meters":8000,"station_id":"ce4bh012rcd13ifvqd00","pricing_plan_id":"cebpf4jnsgd1na2vs0mg"},{"bike_id":"c4da05b8-a1a6-4e27-9e66-5828519e7a5b","system_id":"levelo_inurba_marseille","lat":43.306458,"lon":5.400838,"is_reserved":false,"is_disabled":false,"rental_uris":{"android":"levelo://app?vid=c4da05b8-a1a6-4e27-9e66-5828519e7a5b","ios":"levelo://app?vid=c4da05b8-a1a6-4e27-9e66-5828519e7a5b"},"vehicle_type_id":"4","last_reported":1743268042,"current_range_meters":8000,"station_id":"ce4bh112rcd13ifvqda0","pricing_plan_id":"cebpf4jnsgd1na2vs0mg"},{"bike_id":"49634e13-1f3b-4380-8bdb-596a73b4502a","system_id":"levelo_inurba_marseille","lat":43.31177,"lon":5.38717,"is_reserved":false,"is_disabled":false,"rental_uris":{"android":"levelo://app?vid=49634e13-1f3b-4380-8bdb-596a73b4502a","ios":"levelo://app?vid=49634e13-1f3b-4380-8bdb-596a73b4502a"},"vehicle_type_id":"4","last_reported":1743268042,"current_range_meters":8000,"station_id":"ce4bgv12rcd13ifvqcp0","pricing_plan_id":"cebpf4jnsgd1na2vs0mg"},{"bike_id":"6082a6d8-29f3-4441-bd82-d0f95ead75d7","system_id":"levelo_inurba_marseille","lat":43.2321,"lon":5.35556,"is_reserved":false,"is_disabled":false,"rental_uris":{"android":"levelo://app?vid=6082a6d8-29f3-4441-bd82-d0f95ead75d7","ios":"levelo://app?vid=6082a6d8-29f3-4441-bd82-d0f95ead75d7"},"vehicle_type_id":"4","last_reported":1743268042,"current_range_meters":8000,"station_id":"ce4bhu92rcd13ifvqi70","pricing_plan_id":"cebpf4jnsgd1na2vs0mg"},{"bike_id":"821be4ec-407d-4c14-8854-046c9d2d6588","system_id":"levelo_inurba_marseille","lat":43.30889,"lon":5.37191,"is_reserved":false,"is_disabled":false,"rental_uris":{"android":"levelo://app?vid=821be4ec-407d-4c14-8854-046c9d2d6588","ios":"levelo://app?vid=821be4ec-407d-4c14-8854-046c9d2d6588"},"vehicle_type_id":"4","last_reported":1743268042,"current_range_meters":8000,"station_id":"ce4bguh2rcd13ifvqckg","pricing_plan_id":"cebpf4jnsgd1na2vs0mg"},{"bike_id":"5ca7711e-04ac-491d-82f1-7dfc2cb40449","system_id":"levelo_inurba_marseille","lat":43.302887,"lon":5.392191,"is_reserved":false,"is_disabled":false,"rental_uris":{"android":"levelo://app?vid=5ca7711e-04ac-491d-82f1-7dfc2cb40449","ios":"levelo://app?vid=5ca7711e-04ac-491d-82f1-7dfc2cb40449"},"vehicle_type_id":"4","last_reported":1743268042,"current_range_meters":8000,"station_id":"ce4bh9p2rcd13ifvqec0","pricing_plan_id":"cebpf4jnsgd1na2vs0mg"},{"bike_id":"bb238aab-ecce-4d51-ba90-677f93725c94","system_id":"levelo_inurba_marseille","lat":43.34144,"lon":5.40922,"is_reserved":false,"is_disabled":false,"rental_uris":{"android":"levelo://app?vid=bb238aab-ecce-4d51-ba90-677f93725c94","ios":"levelo://app?vid=bb238aab-ecce-4d51-ba90-677f93725c94"},"vehicle_type_id":"4","last_reported":1743268042,"current_range_meters":8000,"station_id":"ce4bhqh2rcd13ifvqhlg","pricing_plan_id":"cebpf4jnsgd1na2vs0mg"},{"bike_id":"d5ffff0a-47db-470d-a1ce-99a37bfcd090","system_id":"levelo_inurba_marseille","lat":43.28637,"lon":5.35125,"is_reserved":false,"is_disabled":false,"rental_uris":{"android":"levelo://app?vid=d5ffff0a-47db-470d-a1ce-99a37bfcd090","ios":"levelo://app?vid=d5ffff0a-47db-470d-a1ce-99a37bfcd090"},"vehicle_type_id":"4","last_reported":1743268042,"current_range_meters":8000,"station_id":"ce4bhch2rcd13ifvqeug","pricing_plan_id":"cebpf4jnsgd1na2vs0mg"},{"bike_id":"0558bc66-2825-46b4-8c35-dfa19eca05b8","system_id":"levelo_inurba_marseille","lat":43.24395,"lon":5.3709,"is_reserved":false,"is_disabled":false,"rental_uris":{"android":"levelo://app?vid=0558bc66-2825-46b4-8c35-dfa19eca05b8","ios":"levelo://app?vid=0558bc66-2825-46b4-8c35-dfa19eca05b8"},"vehicle_type_id":"4","last_reported":1743268042,"current_range_meters":8000,"station_id":"ce4bhhh2rcd13ifvqfk0","pricing_plan_id":"cebpf4jnsgd1na2vs0mg"},{"bike_id":"8114a869-6088-43d6-b57f-983654d4a95e","system_id":"levelo_inurba_marseille","lat":43.29318,"lon":5.37165,"is_reserved":false,"is_disabled":false,"rental_uris":{"android":"levelo://app?vid=8114a869-6088-43d6-b57f-983654d4a95e","ios":"levelo://app?vid=8114a869-6088-43d6-b57f-983654d4a95e"},"vehicle_type_id":"4","last_reported":1743268042,"current_range_meters":8000,"station_id":"ce4bgh92rcd13ifvqb40","pricing_plan_id":"cebpf4jnsgd1na2vs0mg"},{"bike_id":"4777850e-a840-44f2-a6a5-fd44a1ac41d3","system_id":"levelo_inurba_marseille","lat":43.28707,"lon":5.40016,"is_reserved":false,"is_disabled":true,"rental_uris":{"android":"levelo://app?vid=4777850e-a840-44f2-a6a5-fd44a1ac41d3","ios":"levelo://app?vid=4777850e-a840-44f2-a6a5-fd44a1ac41d3"},"vehicle_type_id":"4","last_reported":1743268042,"current_range_meters":8400,"station_id":"ce4bho92rcd13ifvqh3g","pricing_plan_id":"cebpf4jnsgd1na2vs0mg"},{"bike_id":"983c4c9f-ee1a-4d13-8ce7-bfd36c479f46","system_id":"levelo_inurba_marseille","lat":43.24163,"lon":5.36403,"is_reserved":false,"is_disabled":false,"rental_uris":{"android":"levelo://app?vid=983c4c9f-ee1a-4d13-8ce7-bfd36c479f46","ios":"levelo://app?vid=983c4c9f-ee1a-4d13-8ce7-bfd36c479f46"},"vehicle_type_id":"4","last_reported":1743268042,"current_range_meters":8400,"station_id":"cpo36qri1sfpv3e86is0","pricing_plan_id":"cebpf4jnsgd1na2vs0mg"},{"bike_id":"1b4e5c48-f3b8-4ca5-9244-3815d3918bd4","system_id":"levelo_inurba_marseille","lat":43.32366,"lon":5.38887,"is_reserved":false,"is_disabled":false,"rental_uris":{"android":"levelo://app?vid=1b4e5c48-f3b8-4ca5-9244-3815d3918bd4","ios":"levelo://app?vid=1b4e5c48-f3b8-4ca5-9244-3815d3918bd4"},"vehicle_type_id":"4","last_reported":1743268042,"current_range_meters":8400,"station_id":"ce4bhqp2rcd13ifvqhog","pricing_plan_id":"cebpf4jnsgd1na2vs0mg"},{"bike_id":"b32d56d3-bf05-4ed8-96b1-f01a0efc22cc","system_id":"levelo_inurba_marseille","lat":43.30878,"lon":5.37186,"is_reserved":false,"is_disabled":false,"rental_uris":{"android":"levelo://app?vid=b32d56d3-bf05-4ed8-96b1-f01a0efc22cc","ios":"levelo://app?vid=b32d56d3-bf05-4ed8-96b1-f01a0efc22cc"},"vehicle_type_id":"4","last_reported":1743268042,"current_range_meters":8400,"station_id":"ce4bguh2rcd13ifvqckg","pricing_plan_id":"cebpf4jnsgd1na2vs0mg"},{"bike_id":"d110ea9c-afe8-47f1-b008-e66bc6e44a55","system_id":"levelo_inurba_marseille","lat":43.28411,"lon":5.35015,"is_reserved":false,"is_disabled":false,"rental_uris":{"android":"levelo://app?vid=d110ea9c-afe8-47f1-b008-e66bc6e44a55","ios":"levelo://app?vid=d110ea9c-afe8-47f1-b008-e66bc6e44a55"},"vehicle_type_id":"4","last_reported":1743268042,"current_range_meters":8400,"station_id":"ce4bhbh2rcd13ifvqepg","pricing_plan_id":"cebpf4jnsgd1na2vs0mg"},{"bike_id":"c17483d8-8dbd-4313-8a8b-c0eb6730b921","system_id":"levelo_inurba_marseille","lat":43.294159,"lon":5.386198,"is_reserved":false,"is_disabled":false,"rental_uris":{"android":"levelo://app?vid=c17483d8-8dbd-4313-8a8b-c0eb6730b921","ios":"levelo://app?vid=c17483d8-8dbd-4313-8a8b-c0eb6730b921"},"vehicle_type_id":"4","last_reported":1743268042,"current_range_meters":8400,"station_id":"ce4bh2h2rcd13ifvqdh0","pricing_plan_id":"cebpf4jnsgd1na2vs0mg"},{"bike_id":"a7f86642-0a17-487b-94a1-168f7ad53c8d","system_id":"levelo_inurba_marseille","lat":43.25576,"lon":5.38235,"is_reserved":false,"is_disabled":false,"rental_uris":{"android":"levelo://app?vid=a7f86642-0a17-487b-94a1-168f7ad53c8d","ios":"levelo://app?vid=a7f86642-0a17-487b-94a1-168f7ad53c8d"},"vehicle_type_id":"4","last_reported":1743268042,"current_range_meters":8400,"station_id":"ce4bhih2rcd13ifvqfs0","pricing_plan_id":"cebpf4jnsgd1na2vs0mg"},{"bike_id":"c935aede-f69f-442e-99d1-f28d5fe975ab","system_id":"levelo_inurba_marseille","lat":43.28275,"lon":5.35065,"is_reserved":false,"is_disabled":false,"rental_uris":{"android":"levelo://app?vid=c935aede-f69f-442e-99d1-f28d5fe975ab","ios":"levelo://app?vid=c935aede-f69f-442e-99d1-f28d5fe975ab"},"vehicle_type_id":"4","last_reported":1743268042,"current_range_meters":8400,"station_id":"ce4bhbp2rcd13ifvqerg","pricing_plan_id":"cebpf4jnsgd1na2vs0mg"},{"bike_id":"bdfbe8f7-2029-417e-a762-3c185fa896aa","system_id":"levelo_inurba_marseille","lat":43.30947,"lon":5.39028,"is_reserved":false,"is_disabled":false,"rental_uris":{"android":"levelo://app?vid=bdfbe8f7-2029-417e-a762-3c185fa896aa","ios":"levelo://app?vid=bdfbe8f7-2029-417e-a762-3c185fa896aa"},"vehicle_type_id":"4","last_reported":1743268042,"current_range_meters":9200,"station_id":"ce4bgup2rcd13ifvqco0","pricing_plan_id":"cebpf4jnsgd1na2vs0mg"},{"bike_id":"dd38dd9d-7577-4b3c-9599-1a2bd5b97904","system_id":"levelo_inurba_marseille","lat":43.30301,"lon":5.39207,"is_reserved":false,"is_disabled":false,"rental_uris":{"android":"levelo://app?vid=dd38dd9d-7577-4b3c-9599-1a2bd5b97904","ios":"levelo://app?vid=dd38dd9d-7577-4b3c-9599-1a2bd5b97904"},"vehicle_type_id":"4","last_reported":1743268042,"current_range_meters":8400,"station_id":"ce4bgkh2rcd13ifvqbk0","pricing_plan_id":"cebpf4jnsgd1na2vs0mg"},{"bike_id":"b5ace6c6-32e3-486d-9744-efb1ce0dfa9d","system_id":"levelo_inurba_marseille","lat":43.28903,"lon":5.37097,"is_reserved":false,"is_disabled":true,"rental_uris":{"android":"levelo://app?vid=b5ace6c6-32e3-486d-9744-efb1ce0dfa9d","ios":"levelo://app?vid=b5ace6c6-32e3-486d-9744-efb1ce0dfa9d"},"vehicle_type_id":"4","last_reported":1743268042,"current_range_meters":8400,"station_id":"","pricing_plan_id":"cebpf4jnsgd1na2vs0mg"},{"bike_id":"d14cdd1e-f0b3-48a5-be5e-77128af69a2d","system_id":"levelo_inurba_marseille","lat":43.28648,"lon":5.35165,"is_reserved":false,"is_disabled":false,"rental_uris":{"android":"levelo://app?vid=d14cdd1e-f0b3-48a5-be5e-77128af69a2d","ios":"levelo://app?vid=d14cdd1e-f0b3-48a5-be5e-77128af69a2d"},"vehicle_type_id":"4","last_reported":1743268042,"current_range_meters":8400,"station_id":"","pricing_plan_id":"cebpf4jnsgd1na2vs0mg"},{"bike_id":"e4614adf-59ca-49c9-9f29-fb2629aacd37","system_id":"levelo_inurba_marseille","lat":43.28651,"lon":5.35127,"is_reserved":false,"is_disabled":false,"rental_uris":{"android":"levelo://app?vid=e4614adf-59ca-49c9-9f29-fb2629aacd37","ios":"levelo://app?vid=e4614adf-59ca-49c9-9f29-fb2629aacd37"},"vehicle_type_id":"4","last_reported":1743268042,"current_range_meters":8400,"station_id":"ce4bhch2rcd13ifvqeug","pricing_plan_id":"cebpf4jnsgd1na2vs0mg"},{"bike_id":"86402da5-f9ef-43b6-a281-06ce7c4c3160","system_id":"levelo_inurba_marseille","lat":43.28637,"lon":5.35114,"is_reserved":false,"is_disabled":false,"rental_uris":{"android":"levelo://app?vid=86402da5-f9ef-43b6-a281-06ce7c4c3160","ios":"levelo://app?vid=86402da5-f9ef-43b6-a281-06ce7c4c3160"},"vehicle_type_id":"4","last_reported":1743268042,"current_range_meters":8800,"station_id":"ce4bhch2rcd13ifvqeug","pricing_plan_id":"cebpf4jnsgd1na2vs0mg"},{"bike_id":"b1ecd358-38ec-4753-8af1-9b87454b444a","system_id":"levelo_inurba_marseille","lat":43.28645,"lon":5.35139,"is_reserved":false,"is_disabled":false,"rental_uris":{"android":"levelo://app?vid=b1ecd358-38ec-4753-8af1-9b87454b444a","ios":"levelo://app?vid=b1ecd358-38ec-4753-8af1-9b87454b444a"},"vehicle_type_id":"4","last_reported":1743268042,"current_range_meters":8800,"station_id":"ce4bhch2rcd13ifvqeug","pricing_plan_id":"cebpf4jnsgd1na2vs0mg"},{"bike_id":"2502d2bb-4224-4639-b5b1-10246daac61b","system_id":"levelo_inurba_marseille","lat":43.30188,"lon":5.36617,"is_reserved":false,"is_disabled":false,"rental_uris":{"android":"levelo://app?vid=2502d2bb-4224-4639-b5b1-10246daac61b","ios":"levelo://app?vid=2502d2bb-4224-4639-b5b1-10246daac61b"},"vehicle_type_id":"4","last_reported":1743268042,"current_range_meters":11600,"station_id":"ce4bgrh2rcd13ifvqc8g","pricing_plan_id":"cebpf4jnsgd1na2vs0mg"},{"bike_id":"e812804b-b97f-41d4-b7c6-5e8311d071c7","system_id":"levelo_inurba_marseille","lat":43.29542,"lon":5.38537,"is_reserved":false,"is_disabled":false,"rental_uris":{"android":"levelo://app?vid=e812804b-b97f-41d4-b7c6-5e8311d071c7","ios":"levelo://app?vid=e812804b-b97f-41d4-b7c6-5e8311d071c7"},"vehicle_type_id":"4","last_reported":1743268042,"current_range_meters":8800,"station_id":"ce4bgih2rcd13ifvqba0","pricing_plan_id":"cebpf4jnsgd1na2vs0mg"},{"bike_id":"939ac852-e078-48c6-9035-3da23518d548","system_id":"levelo_inurba_marseille","lat":43.29569,"lon":5.37516,"is_reserved":false,"is_disabled":false,"rental_uris":{"android":"levelo://app?vid=939ac852-e078-48c6-9035-3da23518d548","ios":"levelo://app?vid=939ac852-e078-48c6-9035-3da23518d548"},"vehicle_type_id":"4","last_reported":1743268042,"current_range_meters":8800,"station_id":"ce4bgh92rcd13ifvqb50","pricing_plan_id":"cebpf4jnsgd1na2vs0mg"},{"bike_id":"a36a9ec1-537e-4091-9d7a-dd0444d14e10","system_id":"levelo_inurba_marseille","lat":43.24831,"lon":5.3748,"is_reserved":false,"is_disabled":false,"rental_uris":{"android":"levelo://app?vid=a36a9ec1-537e-4091-9d7a-dd0444d14e10","ios":"levelo://app?vid=a36a9ec1-537e-4091-9d7a-dd0444d14e10"},"vehicle_type_id":"4","last_reported":1743268042,"current_range_meters":8800,"station_id":"","pricing_plan_id":"cebpf4jnsgd1na2vs0mg"},{"bike_id":"1a8ec8fe-cd0f-44f4-9a76-dfc354a60ccc","system_id":"levelo_inurba_marseille","lat":43.23963,"lon":5.36627,"is_reserved":false,"is_disabled":false,"rental_uris":{"android":"levelo://app?vid=1a8ec8fe-cd0f-44f4-9a76-dfc354a60ccc","ios":"levelo://app?vid=1a8ec8fe-cd0f-44f4-9a76-dfc354a60ccc"},"vehicle_type_id":"4","last_reported":1743268042,"current_range_meters":8800,"station_id":"ce4bhi12rcd13ifvqfp0","pricing_plan_id":"cebpf4jnsgd1na2vs0mg"},{"bike_id":"897c0b50-c5d1-426a-8708-0401c90fc4df","system_id":"levelo_inurba_marseille","lat":43.26684,"lon":5.38275,"is_reserved":false,"is_disabled":false,"rental_uris":{"android":"levelo://app?vid=897c0b50-c5d1-426a-8708-0401c90fc4df","ios":"levelo://app?vid=897c0b50-c5d1-426a-8708-0401c90fc4df"},"vehicle_type_id":"4","last_reported":1743268042,"current_range_meters":8800,"station_id":"ce4bhg92rcd13ifvqf90","pricing_plan_id":"cebpf4jnsgd1na2vs0mg"},{"bike_id":"c81aa651-71a6-4554-8d4e-6d82da0496cc","system_id":"levelo_inurba_marseille","lat":43.30218,"lon":5.39464,"is_reserved":false,"is_disabled":false,"rental_uris":{"android":"levelo://app?vid=c81aa651-71a6-4554-8d4e-6d82da0496cc","ios":"levelo://app?vid=c81aa651-71a6-4554-8d4e-6d82da0496cc"},"vehicle_type_id":"4","last_reported":1743268042,"current_range_meters":9200,"station_id":"ce4bh0p2rcd13ifvqd70","pricing_plan_id":"cebpf4jnsgd1na2vs0mg"},{"bike_id":"96fa1290-e699-40b9-9109-379d3b77c6fb","system_id":"levelo_inurba_marseille","lat":43.33753,"lon":5.3924,"is_reserved":false,"is_disabled":false,"rental_uris":{"android":"levelo://app?vid=96fa1290-e699-40b9-9109-379d3b77c6fb","ios":"levelo://app?vid=96fa1290-e699-40b9-9109-379d3b77c6fb"},"vehicle_type_id":"4","last_reported":1743268042,"current_range_meters":9200,"station_id":"","pricing_plan_id":"cebpf4jnsgd1na2vs0mg"},{"bike_id":"62fbe971-ecaf-4adf-a02e-e818ded74fbf","system_id":"levelo_inurba_marseille","lat":43.27947,"lon":5.41032,"is_reserved":false,"is_disabled":false,"rental_uris":{"android":"levelo://app?vid=62fbe971-ecaf-4adf-a02e-e818ded74fbf","ios":"levelo://app?vid=62fbe971-ecaf-4adf-a02e-e818ded74fbf"},"vehicle_type_id":"4","last_reported":1743268042,"current_range_meters":9200,"station_id":"ce4bhnp2rcd13ifvqh0g","pricing_plan_id":"cebpf4jnsgd1na2vs0mg"},{"bike_id":"eaddfac1-0bf4-4f61-8016-0c16cda63728","system_id":"levelo_inurba_marseille","lat":43.29214,"lon":5.3609,"is_reserved":false,"is_disabled":false,"rental_uris":{"android":"levelo://app?vid=eaddfac1-0bf4-4f61-8016-0c16cda63728","ios":"levelo://app?vid=eaddfac1-0bf4-4f61-8016-0c16cda63728"},"vehicle_type_id":"4","last_reported":1743268042,"current_range_meters":9200,"station_id":"ce4bhbh2rcd13ifvqeqg","pricing_plan_id":"cebpf4jnsgd1na2vs0mg"},{"bike_id":"3ebec30b-3321-422a-b912-1c4632fda65e","system_id":"levelo_inurba_marseille","lat":43.25588,"lon":5.38253,"is_reserved":false,"is_disabled":false,"rental_uris":{"android":"levelo://app?vid=3ebec30b-3321-422a-b912-1c4632fda65e","ios":"levelo://app?vid=3ebec30b-3321-422a-b912-1c4632fda65e"},"vehicle_type_id":"4","last_reported":1743268042,"current_range_meters":9200,"station_id":"ce4bhih2rcd13ifvqfs0","pricing_plan_id":"cebpf4jnsgd1na2vs0mg"},{"bike_id":"296d0da0-4cc4-40ab-acd1-7c240f5eee02","system_id":"levelo_inurba_marseille","lat":43.3058,"lon":5.37684,"is_reserved":false,"is_disabled":false,"rental_uris":{"android":"levelo://app?vid=296d0da0-4cc4-40ab-acd1-7c240f5eee02","ios":"levelo://app?vid=296d0da0-4cc4-40ab-acd1-7c240f5eee02"},"vehicle_type_id":"4","last_reported":1743268042,"current_range_meters":9200,"station_id":"","pricing_plan_id":"cebpf4jnsgd1na2vs0mg"},{"bike_id":"4b2323ae-94b8-41f7-9062-4d9bd4bd549e","system_id":"levelo_inurba_marseille","lat":43.24172,"lon":5.36391,"is_reserved":false,"is_disabled":false,"rental_uris":{"android":"levelo://app?vid=4b2323ae-94b8-41f7-9062-4d9bd4bd549e","ios":"levelo://app?vid=4b2323ae-94b8-41f7-9062-4d9bd4bd549e"},"vehicle_type_id":"4","last_reported":1743268042,"current_range_meters":9200,"station_id":"cpo36qri1sfpv3e86is0","pricing_plan_id":"cebpf4jnsgd1na2vs0mg"},{"bike_id":"947f6954-3bf6-4925-89c1-52df1697b82e","system_id":"levelo_inurba_marseille","lat":43.29528,"lon":5.37486,"is_reserved":false,"is_disabled":false,"rental_uris":{"android":"levelo://app?vid=947f6954-3bf6-4925-89c1-52df1697b82e","ios":"levelo://app?vid=947f6954-3bf6-4925-89c1-52df1697b82e"},"vehicle_type_id":"4","last_reported":1743268042,"current_range_meters":9200,"station_id":"ce4bgkp2rcd13ifvqbmg","pricing_plan_id":"cebpf4jnsgd1na2vs0mg"},{"bike_id":"c2f179b1-a0c6-4c12-bc8c-9ea5f0e3919c","system_id":"levelo_inurba_marseille","lat":43.31524,"lon":5.38029,"is_reserved":false,"is_disabled":false,"rental_uris":{"android":"levelo://app?vid=c2f179b1-a0c6-4c12-bc8c-9ea5f0e3919c","ios":"levelo://app?vid=c2f179b1-a0c6-4c12-bc8c-9ea5f0e3919c"},"vehicle_type_id":"4","last_reported":1743268042,"current_range_meters":9200,"station_id":"ce4bhsp2rcd13ifvqi50","pricing_plan_id":"cebpf4jnsgd1na2vs0mg"},{"bike_id":"3b9e2dbb-dda4-4ed5-8aef-7e67e6437f0d","system_id":"levelo_inurba_marseille","lat":43.33363,"lon":5.40116,"is_reserved":false,"is_disabled":false,"rental_uris":{"android":"levelo://app?vid=3b9e2dbb-dda4-4ed5-8aef-7e67e6437f0d","ios":"levelo://app?vid=3b9e2dbb-dda4-4ed5-8aef-7e67e6437f0d"},"vehicle_type_id":"4","last_reported":1743268042,"current_range_meters":9200,"station_id":"","pricing_plan_id":"cebpf4jnsgd1na2vs0mg"},{"bike_id":"24565657-e482-4932-93db-e35fe49c2025","system_id":"levelo_inurba_marseille","lat":43.26717,"lon":5.38323,"is_reserved":false,"is_disabled":false,"rental_uris":{"android":"levelo://app?vid=24565657-e482-4932-93db-e35fe49c2025","ios":"levelo://app?vid=24565657-e482-4932-93db-e35fe49c2025"},"vehicle_type_id":"4","last_reported":1743268042,"current_range_meters":9600,"station_id":"ce4bhg92rcd13ifvqf90","pricing_plan_id":"cebpf4jnsgd1na2vs0mg"},{"bike_id":"6e76cf33-f6d5-489f-a920-561507233122","system_id":"levelo_inurba_marseille","lat":43.31757,"lon":5.39013,"is_reserved":false,"is_disabled":false,"rental_uris":{"android":"levelo://app?vid=6e76cf33-f6d5-489f-a920-561507233122","ios":"levelo://app?vid=6e76cf33-f6d5-489f-a920-561507233122"},"vehicle_type_id":"4","last_reported":1743268042,"current_range_meters":9600,"station_id":"ce4bhqp2rcd13ifvqhng","pricing_plan_id":"cebpf4jnsgd1na2vs0mg"},{"bike_id":"e491f2dd-1fbe-4186-8781-52153b37f67b","system_id":"levelo_inurba_marseille","lat":43.295173,"lon":5.393928,"is_reserved":false,"is_disabled":false,"rental_uris":{"android":"levelo://app?vid=e491f2dd-1fbe-4186-8781-52153b37f67b","ios":"levelo://app?vid=e491f2dd-1fbe-4186-8781-52153b37f67b"},"vehicle_type_id":"4","last_reported":1743268042,"current_range_meters":9600,"station_id":"ce4bh292rcd13ifvqdf0","pricing_plan_id":"cebpf4jnsgd1na2vs0mg"},{"bike_id":"1b8250ac-2ce0-436b-b711-dd370fe42032","system_id":"levelo_inurba_marseille","lat":43.2978,"lon":5.38099,"is_reserved":false,"is_disabled":false,"rental_uris":{"android":"levelo://app?vid=1b8250ac-2ce0-436b-b711-dd370fe42032","ios":"levelo://app?vid=1b8250ac-2ce0-436b-b711-dd370fe42032"},"vehicle_type_id":"4","last_reported":1743268042,"current_range_meters":9600,"station_id":"ce4bgip2rcd13ifvqbb0","pricing_plan_id":"cebpf4jnsgd1na2vs0mg"},{"bike_id":"2771baa6-90ed-4fb0-8f45-d03a533d8ff4","system_id":"levelo_inurba_marseille","lat":43.295711,"lon":5.375181,"is_reserved":false,"is_disabled":false,"rental_uris":{"android":"levelo://app?vid=2771baa6-90ed-4fb0-8f45-d03a533d8ff4","ios":"levelo://app?vid=2771baa6-90ed-4fb0-8f45-d03a533d8ff4"},"vehicle_type_id":"4","last_reported":1743268042,"current_range_meters":9600,"station_id":"ce4bgh92rcd13ifvqb50","pricing_plan_id":"cebpf4jnsgd1na2vs0mg"},{"bike_id":"4586e23a-2d77-446c-8e8c-a15b6ae5de02","system_id":"levelo_inurba_marseille","lat":43.28598,"lon":5.38125,"is_reserved":false,"is_disabled":false,"rental_uris":{"android":"levelo://app?vid=4586e23a-2d77-446c-8e8c-a15b6ae5de02","ios":"levelo://app?vid=4586e23a-2d77-446c-8e8c-a15b6ae5de02"},"vehicle_type_id":"4","last_reported":1743268042,"current_range_meters":9600,"station_id":"","pricing_plan_id":"cebpf4jnsgd1na2vs0mg"},{"bike_id":"5a3307a6-54ca-44bc-a5fd-ab80751e6464","system_id":"levelo_inurba_marseille","lat":43.23183,"lon":5.40013,"is_reserved":false,"is_disabled":true,"rental_uris":{"android":"levelo://app?vid=5a3307a6-54ca-44bc-a5fd-ab80751e6464","ios":"levelo://app?vid=5a3307a6-54ca-44bc-a5fd-ab80751e6464"},"vehicle_type_id":"4","last_reported":1743268042,"current_range_meters":9600,"station_id":"ce4bhn12rcd13ifvqgqg","pricing_plan_id":"cebpf4jnsgd1na2vs0mg"},{"bike_id":"3554961e-fd7d-4e4a-b39f-d13b2cd74872","system_id":"levelo_inurba_marseille","lat":43.29605,"lon":5.38107,"is_reserved":false,"is_disabled":false,"rental_uris":{"android":"levelo://app?vid=3554961e-fd7d-4e4a-b39f-d13b2cd74872","ios":"levelo://app?vid=3554961e-fd7d-4e4a-b39f-d13b2cd74872"},"vehicle_type_id":"4","last_reported":1743268042,"current_range_meters":9600,"station_id":"ce4bgl12rcd13ifvqbo0","pricing_plan_id":"cebpf4jnsgd1na2vs0mg"},{"bike_id":"a36ebbcd-79c7-453e-bc1b-c53e2237b9b8","system_id":"levelo_inurba_marseille","lat":43.32285,"lon":5.38266,"is_reserved":false,"is_disabled":false,"rental_uris":{"android":"levelo://app?vid=a36ebbcd-79c7-453e-bc1b-c53e2237b9b8","ios":"levelo://app?vid=a36ebbcd-79c7-453e-bc1b-c53e2237b9b8"},"vehicle_type_id":"4","last_reported":1743268042,"current_range_meters":10000,"station_id":"ce4bhr12rcd13ifvqhqg","pricing_plan_id":"cebpf4jnsgd1na2vs0mg"},{"bike_id":"fdce6d6b-bc71-477f-b62b-fc1c4d9f05b3","system_id":"levelo_inurba_marseille","lat":43.27813,"lon":5.40707,"is_reserved":false,"is_disabled":false,"rental_uris":{"android":"levelo://app?vid=fdce6d6b-bc71-477f-b62b-fc1c4d9f05b3","ios":"levelo://app?vid=fdce6d6b-bc71-477f-b62b-fc1c4d9f05b3"},"vehicle_type_id":"4","last_reported":1743268042,"current_range_meters":9600,"station_id":"ce4bhnh2rcd13ifvqgtg","pricing_plan_id":"cebpf4jnsgd1na2vs0mg"},{"bike_id":"b58349cd-3ee8-427a-a9bb-001ed8cff7dd","system_id":"levelo_inurba_marseille","lat":43.30794,"lon":5.38177,"is_reserved":false,"is_disabled":false,"rental_uris":{"android":"levelo://app?vid=b58349cd-3ee8-427a-a9bb-001ed8cff7dd","ios":"levelo://app?vid=b58349cd-3ee8-427a-a9bb-001ed8cff7dd"},"vehicle_type_id":"4","last_reported":1743268042,"current_range_meters":8400,"station_id":"ce4bgt12rcd13ifvqce0","pricing_plan_id":"cebpf4jnsgd1na2vs0mg"},{"bike_id":"e105c9de-c865-42ce-8085-2dc6071c27a8","system_id":"levelo_inurba_marseille","lat":43.30947,"lon":5.39028,"is_reserved":false,"is_disabled":false,"rental_uris":{"android":"levelo://app?vid=e105c9de-c865-42ce-8085-2dc6071c27a8","ios":"levelo://app?vid=e105c9de-c865-42ce-8085-2dc6071c27a8"},"vehicle_type_id":"4","last_reported":1743268042,"current_range_meters":10000,"station_id":"ce4bgup2rcd13ifvqco0","pricing_plan_id":"cebpf4jnsgd1na2vs0mg"},{"bike_id":"ec873a9a-1e4e-4e92-a9a1-4eeabad67f90","system_id":"levelo_inurba_marseille","lat":43.30242,"lon":5.40068,"is_reserved":false,"is_disabled":false,"rental_uris":{"android":"levelo://app?vid=ec873a9a-1e4e-4e92-a9a1-4eeabad67f90","ios":"levelo://app?vid=ec873a9a-1e4e-4e92-a9a1-4eeabad67f90"},"vehicle_type_id":"4","last_reported":1743268042,"current_range_meters":10000,"station_id":"ce4bgvh2rcd13ifvqcs0","pricing_plan_id":"cebpf4jnsgd1na2vs0mg"},{"bike_id":"6938d0ce-f954-4fff-b95b-2d698d38a5d7","system_id":"levelo_inurba_marseille","lat":43.27941,"lon":5.41045,"is_reserved":false,"is_disabled":false,"rental_uris":{"android":"levelo://app?vid=6938d0ce-f954-4fff-b95b-2d698d38a5d7","ios":"levelo://app?vid=6938d0ce-f954-4fff-b95b-2d698d38a5d7"},"vehicle_type_id":"4","last_reported":1743268042,"current_range_meters":10000,"station_id":"ce4bhnp2rcd13ifvqh0g","pricing_plan_id":"cebpf4jnsgd1na2vs0mg"},{"bike_id":"050d458d-cce9-44b3-9d16-b8a5c2076354","system_id":"levelo_inurba_marseille","lat":43.31757,"lon":5.39022,"is_reserved":false,"is_disabled":false,"rental_uris":{"android":"levelo://app?vid=050d458d-cce9-44b3-9d16-b8a5c2076354","ios":"levelo://app?vid=050d458d-cce9-44b3-9d16-b8a5c2076354"},"vehicle_type_id":"4","last_reported":1743268042,"current_range_meters":10000,"station_id":"ce4bhqp2rcd13ifvqhng","pricing_plan_id":"cebpf4jnsgd1na2vs0mg"},{"bike_id":"00640907-dedc-46b1-a2a3-0a1082cf36d5","system_id":"levelo_inurba_marseille","lat":43.28158,"lon":5.42645,"is_reserved":false,"is_disabled":false,"rental_uris":{"android":"levelo://app?vid=00640907-dedc-46b1-a2a3-0a1082cf36d5","ios":"levelo://app?vid=00640907-dedc-46b1-a2a3-0a1082cf36d5"},"vehicle_type_id":"4","last_reported":1743268042,"current_range_meters":10000,"station_id":"ce4bhnh2rcd13ifvqgug","pricing_plan_id":"cebpf4jnsgd1na2vs0mg"},{"bike_id":"a1b5a514-f0ef-42eb-b1a4-22dd30a86324","system_id":"levelo_inurba_marseille","lat":43.31741,"lon":5.39039,"is_reserved":false,"is_disabled":false,"rental_uris":{"android":"levelo://app?vid=a1b5a514-f0ef-42eb-b1a4-22dd30a86324","ios":"levelo://app?vid=a1b5a514-f0ef-42eb-b1a4-22dd30a86324"},"vehicle_type_id":"4","last_reported":1743268042,"current_range_meters":10000,"station_id":"ce4bhqp2rcd13ifvqhng","pricing_plan_id":"cebpf4jnsgd1na2vs0mg"},{"bike_id":"10365f62-ee2b-4687-92a1-782d737acef1","system_id":"levelo_inurba_marseille","lat":43.25943,"lon":5.40905,"is_reserved":false,"is_disabled":false,"rental_uris":{"android":"levelo://app?vid=10365f62-ee2b-4687-92a1-782d737acef1","ios":"levelo://app?vid=10365f62-ee2b-4687-92a1-782d737acef1"},"vehicle_type_id":"4","last_reported":1743268042,"current_range_meters":10800,"station_id":"ce4bhm92rcd13ifvqglg","pricing_plan_id":"cebpf4jnsgd1na2vs0mg"},{"bike_id":"96ac20e8-5840-4579-b371-184ec6253952","system_id":"levelo_inurba_marseille","lat":43.27493,"lon":5.41149,"is_reserved":false,"is_disabled":false,"rental_uris":{"android":"levelo://app?vid=96ac20e8-5840-4579-b371-184ec6253952","ios":"levelo://app?vid=96ac20e8-5840-4579-b371-184ec6253952"},"vehicle_type_id":"4","last_reported":1743268042,"current_range_meters":10800,"station_id":"","pricing_plan_id":"cebpf4jnsgd1na2vs0mg"},{"bike_id":"81cb8bd3-39e5-4404-96ef-ef648ac75285","system_id":"levelo_inurba_marseille","lat":43.29283,"lon":5.40119,"is_reserved":false,"is_disabled":false,"rental_uris":{"android":"levelo://app?vid=81cb8bd3-39e5-4404-96ef-ef648ac75285","ios":"levelo://app?vid=81cb8bd3-39e5-4404-96ef-ef648ac75285"},"vehicle_type_id":"4","last_reported":1743268042,"current_range_meters":10800,"station_id":"ce4bh312rcd13ifvqdk0","pricing_plan_id":"cebpf4jnsgd1na2vs0mg"},{"bike_id":"ba93d914-1843-4837-8496-1987f7143e56","system_id":"levelo_inurba_marseille","lat":43.29425,"lon":5.37173,"is_reserved":false,"is_disabled":false,"rental_uris":{"android":"levelo://app?vid=ba93d914-1843-4837-8496-1987f7143e56","ios":"levelo://app?vid=ba93d914-1843-4837-8496-1987f7143e56"},"vehicle_type_id":"4","last_reported":1743268042,"current_range_meters":10800,"station_id":"","pricing_plan_id":"cebpf4jnsgd1na2vs0mg"},{"bike_id":"c84282f9-0e94-46f6-a3ee-68da449c7e4d","system_id":"levelo_inurba_marseille","lat":43.2925,"lon":5.38455,"is_reserved":false,"is_disabled":false,"rental_uris":{"android":"levelo://app?vid=c84282f9-0e94-46f6-a3ee-68da449c7e4d","ios":"levelo://app?vid=c84282f9-0e94-46f6-a3ee-68da449c7e4d"},"vehicle_type_id":"4","last_reported":1743268042,"current_range_meters":10800,"station_id":"ce4bh692rcd13ifvqea0","pricing_plan_id":"cebpf4jnsgd1na2vs0mg"},{"bike_id":"ead84735-1991-4501-b506-2229ced7058a","system_id":"levelo_inurba_marseille","lat":43.2307,"lon":5.35512,"is_reserved":false,"is_disabled":false,"rental_uris":{"android":"levelo://app?vid=ead84735-1991-4501-b506-2229ced7058a","ios":"levelo://app?vid=ead84735-1991-4501-b506-2229ced7058a"},"vehicle_type_id":"4","last_reported":1743268042,"current_range_meters":10800,"station_id":"cpo3342slgdg3j2ifvpg","pricing_plan_id":"cebpf4jnsgd1na2vs0mg"},{"bike_id":"89b372e0-e34b-4448-a651-9f0d9816c98e","system_id":"levelo_inurba_marseille","lat":43.24169,"lon":5.36405,"is_reserved":false,"is_disabled":false,"rental_uris":{"android":"levelo://app?vid=89b372e0-e34b-4448-a651-9f0d9816c98e","ios":"levelo://app?vid=89b372e0-e34b-4448-a651-9f0d9816c98e"},"vehicle_type_id":"4","last_reported":1743268042,"current_range_meters":10800,"station_id":"cpo36qri1sfpv3e86is0","pricing_plan_id":"cebpf4jnsgd1na2vs0mg"},{"bike_id":"293d206d-60ae-4ee7-8c82-1fab4932870d","system_id":"levelo_inurba_marseille","lat":43.24169,"lon":5.36379,"is_reserved":false,"is_disabled":false,"rental_uris":{"android":"levelo://app?vid=293d206d-60ae-4ee7-8c82-1fab4932870d","ios":"levelo://app?vid=293d206d-60ae-4ee7-8c82-1fab4932870d"},"vehicle_type_id":"4","last_reported":1743268042,"current_range_meters":10800,"station_id":"cpo36qri1sfpv3e86is0","pricing_plan_id":"cebpf4jnsgd1na2vs0mg"},{"bike_id":"2233b525-49b7-4802-85ff-1f6204af96f1","system_id":"levelo_inurba_marseille","lat":43.27994,"lon":5.40015,"is_reserved":false,"is_disabled":false,"rental_uris":{"android":"levelo://app?vid=2233b525-49b7-4802-85ff-1f6204af96f1","ios":"levelo://app?vid=2233b525-49b7-4802-85ff-1f6204af96f1"},"vehicle_type_id":"4","last_reported":1743268042,"current_range_meters":10800,"station_id":"ce4bho92rcd13ifvqh4g","pricing_plan_id":"cebpf4jnsgd1na2vs0mg"},{"bike_id":"60274513-d196-45f0-889f-8a9052c8af95","system_id":"levelo_inurba_marseille","lat":43.299596,"lon":5.38547,"is_reserved":false,"is_disabled":false,"rental_uris":{"android":"levelo://app?vid=60274513-d196-45f0-889f-8a9052c8af95","ios":"levelo://app?vid=60274513-d196-45f0-889f-8a9052c8af95"},"vehicle_type_id":"4","last_reported":1743268042,"current_range_meters":10800,"station_id":"ce4bgj92rcd13ifvqbd0","pricing_plan_id":"cebpf4jnsgd1na2vs0mg"},{"bike_id":"c68acff6-fdcf-4193-b7a7-aed92b607147","system_id":"levelo_inurba_marseille","lat":43.26691,"lon":5.38259,"is_reserved":false,"is_disabled":false,"rental_uris":{"android":"levelo://app?vid=c68acff6-fdcf-4193-b7a7-aed92b607147","ios":"levelo://app?vid=c68acff6-fdcf-4193-b7a7-aed92b607147"},"vehicle_type_id":"4","last_reported":1743268042,"current_range_meters":10800,"station_id":"ce4bhg92rcd13ifvqf90","pricing_plan_id":"cebpf4jnsgd1na2vs0mg"},{"bike_id":"02578301-968f-4db5-8d14-677a8ef1e53b","system_id":"levelo_inurba_marseille","lat":43.29529,"lon":5.37499,"is_reserved":false,"is_disabled":false,"rental_uris":{"android":"levelo://app?vid=02578301-968f-4db5-8d14-677a8ef1e53b","ios":"levelo://app?vid=02578301-968f-4db5-8d14-677a8ef1e53b"},"vehicle_type_id":"4","last_reported":1743268042,"current_range_meters":10800,"station_id":"ce4bgkp2rcd13ifvqbmg","pricing_plan_id":"cebpf4jnsgd1na2vs0mg"},{"bike_id":"004ed55f-f985-4268-b523-9ed16ba4ea3b","system_id":"levelo_inurba_marseille","lat":43.29282,"lon":5.36856,"is_reserved":false,"is_disabled":true,"rental_uris":{"android":"levelo://app?vid=004ed55f-f985-4268-b523-9ed16ba4ea3b","ios":"levelo://app?vid=004ed55f-f985-4268-b523-9ed16ba4ea3b"},"vehicle_type_id":"4","last_reported":1743268042,"current_range_meters":11200,"station_id":"ce4bhbp2rcd13ifvqesg","pricing_plan_id":"cebpf4jnsgd1na2vs0mg"},{"bike_id":"189eb4fe-d1ab-4d01-a159-a163b4bf17c9","system_id":"levelo_inurba_marseille","lat":43.29067,"lon":5.37166,"is_reserved":false,"is_disabled":false,"rental_uris":{"android":"levelo://app?vid=189eb4fe-d1ab-4d01-a159-a163b4bf17c9","ios":"levelo://app?vid=189eb4fe-d1ab-4d01-a159-a163b4bf17c9"},"vehicle_type_id":"4","last_reported":1743268042,"current_range_meters":11200,"station_id":"ce4bh5p2rcd13ifvqe4g","pricing_plan_id":"cebpf4jnsgd1na2vs0mg"},{"bike_id":"eee85a8e-1463-46bd-99db-c71a0c6b8044","system_id":"levelo_inurba_marseille","lat":43.27377,"lon":5.36258,"is_reserved":false,"is_disabled":false,"rental_uris":{"android":"levelo://app?vid=eee85a8e-1463-46bd-99db-c71a0c6b8044","ios":"levelo://app?vid=eee85a8e-1463-46bd-99db-c71a0c6b8044"},"vehicle_type_id":"4","last_reported":1743268042,"current_range_meters":14400,"station_id":"ce4bhbh2rcd13ifvqeo0","pricing_plan_id":"cebpf4jnsgd1na2vs0mg"},{"bike_id":"7fb8c394-4b57-4905-8986-2e4392265d88","system_id":"levelo_inurba_marseille","lat":43.2407,"lon":5.37748,"is_reserved":false,"is_disabled":false,"rental_uris":{"android":"levelo://app?vid=7fb8c394-4b57-4905-8986-2e4392265d88","ios":"levelo://app?vid=7fb8c394-4b57-4905-8986-2e4392265d88"},"vehicle_type_id":"4","last_reported":1743268042,"current_range_meters":11200,"station_id":"ce4bhnp2rcd13ifvqgvg","pricing_plan_id":"cebpf4jnsgd1na2vs0mg"},{"bike_id":"3f2bcfca-c616-4059-a95b-b1ee7948eb41","system_id":"levelo_inurba_marseille","lat":43.29901,"lon":5.39763,"is_reserved":false,"is_disabled":false,"rental_uris":{"android":"levelo://app?vid=3f2bcfca-c616-4059-a95b-b1ee7948eb41","ios":"levelo://app?vid=3f2bcfca-c616-4059-a95b-b1ee7948eb41"},"vehicle_type_id":"4","last_reported":1743268042,"current_range_meters":11200,"station_id":"ce4bh0h2rcd13ifvqd50","pricing_plan_id":"cebpf4jnsgd1na2vs0mg"},{"bike_id":"699cb6a9-80bb-4d7b-8f84-b25847471872","system_id":"levelo_inurba_marseille","lat":43.2895,"lon":5.36397,"is_reserved":false,"is_disabled":false,"rental_uris":{"android":"levelo://app?vid=699cb6a9-80bb-4d7b-8f84-b25847471872","ios":"levelo://app?vid=699cb6a9-80bb-4d7b-8f84-b25847471872"},"vehicle_type_id":"4","last_reported":1743268042,"current_range_meters":11200,"station_id":"ce4bhc92rcd13ifvqetg","pricing_plan_id":"cebpf4jnsgd1na2vs0mg"},{"bike_id":"f769c046-13b6-48f2-871a-b8af88370ee2","system_id":"levelo_inurba_marseille","lat":43.24991,"lon":5.38916,"is_reserved":false,"is_disabled":false,"rental_uris":{"android":"levelo://app?vid=f769c046-13b6-48f2-871a-b8af88370ee2","ios":"levelo://app?vid=f769c046-13b6-48f2-871a-b8af88370ee2"},"vehicle_type_id":"4","last_reported":1743268042,"current_range_meters":11200,"station_id":"ce4bhgp2rcd13ifvqfd0","pricing_plan_id":"cebpf4jnsgd1na2vs0mg"},{"bike_id":"88ac1862-0380-42e2-a99f-ac3cb1df6b01","system_id":"levelo_inurba_marseille","lat":43.29636,"lon":5.406,"is_reserved":false,"is_disabled":false,"rental_uris":{"android":"levelo://app?vid=88ac1862-0380-42e2-a99f-ac3cb1df6b01","ios":"levelo://app?vid=88ac1862-0380-42e2-a99f-ac3cb1df6b01"},"vehicle_type_id":"4","last_reported":1743268042,"current_range_meters":11600,"station_id":"ce4bh0h2rcd13ifvqd60","pricing_plan_id":"cebpf4jnsgd1na2vs0mg"},{"bike_id":"e6967797-29d0-4947-88e5-61bc42de65df","system_id":"levelo_inurba_marseille","lat":43.28618,"lon":5.35103,"is_reserved":false,"is_disabled":false,"rental_uris":{"android":"levelo://app?vid=e6967797-29d0-4947-88e5-61bc42de65df","ios":"levelo://app?vid=e6967797-29d0-4947-88e5-61bc42de65df"},"vehicle_type_id":"4","last_reported":1743268042,"current_range_meters":11600,"station_id":"ce4bhch2rcd13ifvqeug","pricing_plan_id":"cebpf4jnsgd1na2vs0mg"},{"bike_id":"57d549a8-4b75-4c51-bf6f-ba39f7a02079","system_id":"levelo_inurba_marseille","lat":43.294406,"lon":5.385803,"is_reserved":false,"is_disabled":false,"rental_uris":{"android":"levelo://app?vid=57d549a8-4b75-4c51-bf6f-ba39f7a02079","ios":"levelo://app?vid=57d549a8-4b75-4c51-bf6f-ba39f7a02079"},"vehicle_type_id":"4","last_reported":1743268042,"current_range_meters":11600,"station_id":"ce4bh2h2rcd13ifvqdh0","pricing_plan_id":"cebpf4jnsgd1na2vs0mg"},{"bike_id":"747d2bc2-6706-42d9-8381-8fcc8fac62bd","system_id":"levelo_inurba_marseille","lat":43.28698,"lon":5.37032,"is_reserved":false,"is_disabled":true,"rental_uris":{"android":"levelo://app?vid=747d2bc2-6706-42d9-8381-8fcc8fac62bd","ios":"levelo://app?vid=747d2bc2-6706-42d9-8381-8fcc8fac62bd"},"vehicle_type_id":"4","last_reported":1743268042,"current_range_meters":11600,"station_id":"","pricing_plan_id":"cebpf4jnsgd1na2vs0mg"},{"bike_id":"d4836aed-e15e-4a42-881a-1826e3d0ad29","system_id":"levelo_inurba_marseille","lat":43.29421,"lon":5.38633,"is_reserved":false,"is_disabled":false,"rental_uris":{"android":"levelo://app?vid=d4836aed-e15e-4a42-881a-1826e3d0ad29","ios":"levelo://app?vid=d4836aed-e15e-4a42-881a-1826e3d0ad29"},"vehicle_type_id":"4","last_reported":1743268042,"current_range_meters":12000,"station_id":"ce4bh2h2rcd13ifvqdh0","pricing_plan_id":"cebpf4jnsgd1na2vs0mg"},{"bike_id":"5536d184-ecf1-4ce5-bc6f-b181e3f1fef5","system_id":"levelo_inurba_marseille","lat":43.29553,"lon":5.37518,"is_reserved":false,"is_disabled":false,"rental_uris":{"android":"levelo://app?vid=5536d184-ecf1-4ce5-bc6f-b181e3f1fef5","ios":"levelo://app?vid=5536d184-ecf1-4ce5-bc6f-b181e3f1fef5"},"vehicle_type_id":"4","last_reported":1743268042,"current_range_meters":11600,"station_id":"ce4bgh92rcd13ifvqb50","pricing_plan_id":"cebpf4jnsgd1na2vs0mg"},{"bike_id":"acf1e1c3-a629-4c7b-a838-cba3f3b54603","system_id":"levelo_inurba_marseille","lat":43.31883,"lon":5.37663,"is_reserved":false,"is_disabled":false,"rental_uris":{"android":"levelo://app?vid=acf1e1c3-a629-4c7b-a838-cba3f3b54603","ios":"levelo://app?vid=acf1e1c3-a629-4c7b-a838-cba3f3b54603"},"vehicle_type_id":"4","last_reported":1743268042,"current_range_meters":11600,"station_id":"","pricing_plan_id":"cebpf4jnsgd1na2vs0mg"},{"bike_id":"25bb5fbc-8229-4010-b703-31f5ee6ac141","system_id":"levelo_inurba_marseille","lat":43.30633,"lon":5.36589,"is_reserved":false,"is_disabled":false,"rental_uris":{"android":"levelo://app?vid=25bb5fbc-8229-4010-b703-31f5ee6ac141","ios":"levelo://app?vid=25bb5fbc-8229-4010-b703-31f5ee6ac141"},"vehicle_type_id":"4","last_reported":1743268042,"current_range_meters":12000,"station_id":"","pricing_plan_id":"cebpf4jnsgd1na2vs0mg"},{"bike_id":"76d4ed16-8625-4a14-a5f1-d28ac2574c13","system_id":"levelo_inurba_marseille","lat":43.24549,"lon":5.39517,"is_reserved":false,"is_disabled":false,"rental_uris":{"android":"levelo://app?vid=76d4ed16-8625-4a14-a5f1-d28ac2574c13","ios":"levelo://app?vid=76d4ed16-8625-4a14-a5f1-d28ac2574c13"},"vehicle_type_id":"4","last_reported":1743268042,"current_range_meters":12000,"station_id":"","pricing_plan_id":"cebpf4jnsgd1na2vs0mg"},{"bike_id":"906b540e-e920-417f-92b5-0ef35349f644","system_id":"levelo_inurba_marseille","lat":43.31565,"lon":5.39686,"is_reserved":false,"is_disabled":false,"rental_uris":{"android":"levelo://app?vid=906b540e-e920-417f-92b5-0ef35349f644","ios":"levelo://app?vid=906b540e-e920-417f-92b5-0ef35349f644"},"vehicle_type_id":"4","last_reported":1743268042,"current_range_meters":12000,"station_id":"","pricing_plan_id":"cebpf4jnsgd1na2vs0mg"},{"bike_id":"92bfecbf-789d-4c73-ae76-0e5a1e2a6e8a","system_id":"levelo_inurba_marseille","lat":43.25574,"lon":5.38249,"is_reserved":false,"is_disabled":false,"rental_uris":{"android":"levelo://app?vid=92bfecbf-789d-4c73-ae76-0e5a1e2a6e8a","ios":"levelo://app?vid=92bfecbf-789d-4c73-ae76-0e5a1e2a6e8a"},"vehicle_type_id":"4","last_reported":1743268042,"current_range_meters":12000,"station_id":"ce4bhih2rcd13ifvqfs0","pricing_plan_id":"cebpf4jnsgd1na2vs0mg"},{"bike_id":"f0ba9b0f-cc19-4d78-a349-a55927ff8807","system_id":"levelo_inurba_marseille","lat":43.25826,"lon":5.39433,"is_reserved":false,"is_disabled":false,"rental_uris":{"android":"levelo://app?vid=f0ba9b0f-cc19-4d78-a349-a55927ff8807","ios":"levelo://app?vid=f0ba9b0f-cc19-4d78-a349-a55927ff8807"},"vehicle_type_id":"4","last_reported":1743268042,"current_range_meters":12000,"station_id":"ce4bhip2rcd13ifvqft0","pricing_plan_id":"cebpf4jnsgd1na2vs0mg"},{"bike_id":"b7f0c840-139b-46ad-9a86-63e6dce1485d","system_id":"levelo_inurba_marseille","lat":43.28469,"lon":5.35882,"is_reserved":false,"is_disabled":false,"rental_uris":{"android":"levelo://app?vid=b7f0c840-139b-46ad-9a86-63e6dce1485d","ios":"levelo://app?vid=b7f0c840-139b-46ad-9a86-63e6dce1485d"},"vehicle_type_id":"4","last_reported":1743268042,"current_range_meters":12000,"station_id":"ce4bhah2rcd13ifvqei0","pricing_plan_id":"cebpf4jnsgd1na2vs0mg"},{"bike_id":"163593cb-024e-4e49-82d0-45cf8dacc762","system_id":"levelo_inurba_marseille","lat":43.29564,"lon":5.39962,"is_reserved":false,"is_disabled":false,"rental_uris":{"android":"levelo://app?vid=163593cb-024e-4e49-82d0-45cf8dacc762","ios":"levelo://app?vid=163593cb-024e-4e49-82d0-45cf8dacc762"},"vehicle_type_id":"4","last_reported":1743268042,"current_range_meters":12000,"station_id":"ce4bh312rcd13ifvqdj0","pricing_plan_id":"cebpf4jnsgd1na2vs0mg"},{"bike_id":"8566563b-1838-450b-b184-4464994722bd","system_id":"levelo_inurba_marseille","lat":43.29787,"lon":5.38123,"is_reserved":false,"is_disabled":false,"rental_uris":{"android":"levelo://app?vid=8566563b-1838-450b-b184-4464994722bd","ios":"levelo://app?vid=8566563b-1838-450b-b184-4464994722bd"},"vehicle_type_id":"4","last_reported":1743268042,"current_range_meters":12000,"station_id":"ce4bgip2rcd13ifvqbb0","pricing_plan_id":"cebpf4jnsgd1na2vs0mg"},{"bike_id":"5dca16b0-0836-4d29-a112-b6ae5585b009","system_id":"levelo_inurba_marseille","lat":43.28617,"lon":5.35108,"is_reserved":false,"is_disabled":false,"rental_uris":{"android":"levelo://app?vid=5dca16b0-0836-4d29-a112-b6ae5585b009","ios":"levelo://app?vid=5dca16b0-0836-4d29-a112-b6ae5585b009"},"vehicle_type_id":"4","last_reported":1743268042,"current_range_meters":12000,"station_id":"ce4bhch2rcd13ifvqeug","pricing_plan_id":"cebpf4jnsgd1na2vs0mg"},{"bike_id":"f64412ac-69ad-445d-95d0-6ed027bf2d53","system_id":"levelo_inurba_marseille","lat":43.22935,"lon":5.35366,"is_reserved":false,"is_disabled":false,"rental_uris":{"android":"levelo://app?vid=f64412ac-69ad-445d-95d0-6ed027bf2d53","ios":"levelo://app?vid=f64412ac-69ad-445d-95d0-6ed027bf2d53"},"vehicle_type_id":"4","last_reported":1743268042,"current_range_meters":12000,"station_id":"cpo3532slgdg3j2ikp40","pricing_plan_id":"cebpf4jnsgd1na2vs0mg"},{"bike_id":"42bc7b23-0e2f-4d72-b583-40bcdabb28c7","system_id":"levelo_inurba_marseille","lat":43.29538,"lon":5.37398,"is_reserved":false,"is_disabled":false,"rental_uris":{"android":"levelo://app?vid=42bc7b23-0e2f-4d72-b583-40bcdabb28c7","ios":"levelo://app?vid=42bc7b23-0e2f-4d72-b583-40bcdabb28c7"},"vehicle_type_id":"4","last_reported":1743268042,"current_range_meters":10800,"station_id":"","pricing_plan_id":"cebpf4jnsgd1na2vs0mg"},{"bike_id":"c55d9f77-7eb1-4dbe-b00d-ec45d047e404","system_id":"levelo_inurba_marseille","lat":43.28937,"lon":5.36637,"is_reserved":false,"is_disabled":false,"rental_uris":{"android":"levelo://app?vid=c55d9f77-7eb1-4dbe-b00d-ec45d047e404","ios":"levelo://app?vid=c55d9f77-7eb1-4dbe-b00d-ec45d047e404"},"vehicle_type_id":"4","last_reported":1743268042,"current_range_meters":12000,"station_id":"ce4bh692rcd13ifvqe90","pricing_plan_id":"cebpf4jnsgd1na2vs0mg"},{"bike_id":"e53fb0b6-4828-47af-a0d0-116bdf650cf4","system_id":"levelo_inurba_marseille","lat":43.26702,"lon":5.38281,"is_reserved":false,"is_disabled":false,"rental_uris":{"android":"levelo://app?vid=e53fb0b6-4828-47af-a0d0-116bdf650cf4","ios":"levelo://app?vid=e53fb0b6-4828-47af-a0d0-116bdf650cf4"},"vehicle_type_id":"4","last_reported":1743268042,"current_range_meters":12400,"station_id":"ce4bhg92rcd13ifvqf90","pricing_plan_id":"cebpf4jnsgd1na2vs0mg"},{"bike_id":"1bf928b2-7ac9-41a7-adcc-77e0f5608510","system_id":"levelo_inurba_marseille","lat":43.32448,"lon":5.36398,"is_reserved":false,"is_disabled":false,"rental_uris":{"android":"levelo://app?vid=1bf928b2-7ac9-41a7-adcc-77e0f5608510","ios":"levelo://app?vid=1bf928b2-7ac9-41a7-adcc-77e0f5608510"},"vehicle_type_id":"4","last_reported":1743268042,"current_range_meters":12400,"station_id":"","pricing_plan_id":"cebpf4jnsgd1na2vs0mg"},{"bike_id":"74df4a5e-b014-4fba-87d9-1691b26e5ad5","system_id":"levelo_inurba_marseille","lat":43.30137,"lon":5.37427,"is_reserved":false,"is_disabled":false,"rental_uris":{"android":"levelo://app?vid=74df4a5e-b014-4fba-87d9-1691b26e5ad5","ios":"levelo://app?vid=74df4a5e-b014-4fba-87d9-1691b26e5ad5"},"vehicle_type_id":"4","last_reported":1743268042,"current_range_meters":12400,"station_id":"ce4bgs92rcd13ifvqcc0","pricing_plan_id":"cebpf4jnsgd1na2vs0mg"},{"bike_id":"2a772fde-5183-4272-aec1-a694df525f2e","system_id":"levelo_inurba_marseille","lat":43.30807,"lon":5.38148,"is_reserved":false,"is_disabled":false,"rental_uris":{"android":"levelo://app?vid=2a772fde-5183-4272-aec1-a694df525f2e","ios":"levelo://app?vid=2a772fde-5183-4272-aec1-a694df525f2e"},"vehicle_type_id":"4","last_reported":1743268042,"current_range_meters":12400,"station_id":"ce4bgt12rcd13ifvqce0","pricing_plan_id":"cebpf4jnsgd1na2vs0mg"},{"bike_id":"4e3568c7-ccbb-40e8-8482-4d84a29d1a88","system_id":"levelo_inurba_marseille","lat":43.24389,"lon":5.37055,"is_reserved":false,"is_disabled":false,"rental_uris":{"android":"levelo://app?vid=4e3568c7-ccbb-40e8-8482-4d84a29d1a88","ios":"levelo://app?vid=4e3568c7-ccbb-40e8-8482-4d84a29d1a88"},"vehicle_type_id":"4","last_reported":1743268042,"current_range_meters":12400,"station_id":"ce4bhhh2rcd13ifvqfk0","pricing_plan_id":"cebpf4jnsgd1na2vs0mg"},{"bike_id":"4ac062f9-c9f2-4879-aa94-d6a13e530551","system_id":"levelo_inurba_marseille","lat":43.25114,"lon":5.40317,"is_reserved":false,"is_disabled":false,"rental_uris":{"android":"levelo://app?vid=4ac062f9-c9f2-4879-aa94-d6a13e530551","ios":"levelo://app?vid=4ac062f9-c9f2-4879-aa94-d6a13e530551"},"vehicle_type_id":"4","last_reported":1743268042,"current_range_meters":12400,"station_id":"ce4bhlh2rcd13ifvqgig","pricing_plan_id":"cebpf4jnsgd1na2vs0mg"},{"bike_id":"2a23e357-0a13-4b29-99b2-028e998b53e6","system_id":"levelo_inurba_marseille","lat":43.31171,"lon":5.38717,"is_reserved":false,"is_disabled":false,"rental_uris":{"android":"levelo://app?vid=2a23e357-0a13-4b29-99b2-028e998b53e6","ios":"levelo://app?vid=2a23e357-0a13-4b29-99b2-028e998b53e6"},"vehicle_type_id":"4","last_reported":1743268042,"current_range_meters":12400,"station_id":"ce4bgv12rcd13ifvqcp0","pricing_plan_id":"cebpf4jnsgd1na2vs0mg"},{"bike_id":"b28392b1-02dd-499b-871c-730969198be0","system_id":"levelo_inurba_marseille","lat":43.28158,"lon":5.42638,"is_reserved":false,"is_disabled":false,"rental_uris":{"android":"levelo://app?vid=b28392b1-02dd-499b-871c-730969198be0","ios":"levelo://app?vid=b28392b1-02dd-499b-871c-730969198be0"},"vehicle_type_id":"4","last_reported":1743268042,"current_range_meters":12400,"station_id":"ce4bhnh2rcd13ifvqgug","pricing_plan_id":"cebpf4jnsgd1na2vs0mg"},{"bike_id":"211e02b6-c381-4993-a223-66dc669f8c37","system_id":"levelo_inurba_marseille","lat":43.30135,"lon":5.37447,"is_reserved":false,"is_disabled":false,"rental_uris":{"android":"levelo://app?vid=211e02b6-c381-4993-a223-66dc669f8c37","ios":"levelo://app?vid=211e02b6-c381-4993-a223-66dc669f8c37"},"vehicle_type_id":"4","last_reported":1743268042,"current_range_meters":12800,"station_id":"ce4bgs92rcd13ifvqcc0","pricing_plan_id":"cebpf4jnsgd1na2vs0mg"},{"bike_id":"96133f91-ae8f-4cb2-bd45-80cab01d1793","system_id":"levelo_inurba_marseille","lat":43.30331,"lon":5.40432,"is_reserved":false,"is_disabled":false,"rental_uris":{"android":"levelo://app?vid=96133f91-ae8f-4cb2-bd45-80cab01d1793","ios":"levelo://app?vid=96133f91-ae8f-4cb2-bd45-80cab01d1793"},"vehicle_type_id":"4","last_reported":1743268042,"current_range_meters":12800,"station_id":"ce4bh012rcd13ifvqd10","pricing_plan_id":"cebpf4jnsgd1na2vs0mg"},{"bike_id":"9f50066e-01fa-4519-9f61-8109fe65f5d9","system_id":"levelo_inurba_marseille","lat":43.297135,"lon":5.37114,"is_reserved":false,"is_disabled":false,"rental_uris":{"android":"levelo://app?vid=9f50066e-01fa-4519-9f61-8109fe65f5d9","ios":"levelo://app?vid=9f50066e-01fa-4519-9f61-8109fe65f5d9"},"vehicle_type_id":"4","last_reported":1743268042,"current_range_meters":12800,"station_id":"","pricing_plan_id":"cebpf4jnsgd1na2vs0mg"},{"bike_id":"9f95821d-d099-404a-8e6b-c0ba329b7544","system_id":"levelo_inurba_marseille","lat":43.29099,"lon":5.38128,"is_reserved":false,"is_disabled":false,"rental_uris":{"android":"levelo://app?vid=9f95821d-d099-404a-8e6b-c0ba329b7544","ios":"levelo://app?vid=9f95821d-d099-404a-8e6b-c0ba329b7544"},"vehicle_type_id":"4","last_reported":1743268042,"current_range_meters":12400,"station_id":"ce4bh512rcd13ifvqe2g","pricing_plan_id":"cebpf4jnsgd1na2vs0mg"},{"bike_id":"35542532-4cb5-45a9-9303-3503bc319353","system_id":"levelo_inurba_marseille","lat":43.31725,"lon":5.42393,"is_reserved":false,"is_disabled":false,"rental_uris":{"android":"levelo://app?vid=35542532-4cb5-45a9-9303-3503bc319353","ios":"levelo://app?vid=35542532-4cb5-45a9-9303-3503bc319353"},"vehicle_type_id":"4","last_reported":1743268042,"current_range_meters":12400,"station_id":"ce4bhp92rcd13ifvqhbg","pricing_plan_id":"cebpf4jnsgd1na2vs0mg"},{"bike_id":"653ea6de-a177-4007-9cfa-5f3f77e975f6","system_id":"levelo_inurba_marseille","lat":43.24811,"lon":5.37463,"is_reserved":false,"is_disabled":false,"rental_uris":{"android":"levelo://app?vid=653ea6de-a177-4007-9cfa-5f3f77e975f6","ios":"levelo://app?vid=653ea6de-a177-4007-9cfa-5f3f77e975f6"},"vehicle_type_id":"4","last_reported":1743268042,"current_range_meters":12800,"station_id":"ce4bhgh2rcd13ifvqfb0","pricing_plan_id":"cebpf4jnsgd1na2vs0mg"},{"bike_id":"ea5b577d-7a4e-4a71-ac61-47da25bfc0c7","system_id":"levelo_inurba_marseille","lat":43.29036,"lon":5.37558,"is_reserved":false,"is_disabled":false,"rental_uris":{"android":"levelo://app?vid=ea5b577d-7a4e-4a71-ac61-47da25bfc0c7","ios":"levelo://app?vid=ea5b577d-7a4e-4a71-ac61-47da25bfc0c7"},"vehicle_type_id":"4","last_reported":1743268042,"current_range_meters":12800,"station_id":"ce4bh692rcd13ifvqe90","pricing_plan_id":"cebpf4jnsgd1na2vs0mg"},{"bike_id":"ce0a8344-6268-4d5a-906a-d82d1150ed05","system_id":"levelo_inurba_marseille","lat":43.28458,"lon":5.35896,"is_reserved":false,"is_disabled":false,"rental_uris":{"android":"levelo://app?vid=ce0a8344-6268-4d5a-906a-d82d1150ed05","ios":"levelo://app?vid=ce0a8344-6268-4d5a-906a-d82d1150ed05"},"vehicle_type_id":"4","last_reported":1743268042,"current_range_meters":12800,"station_id":"ce4bhah2rcd13ifvqei0","pricing_plan_id":"cebpf4jnsgd1na2vs0mg"},{"bike_id":"2dd88066-6fcb-490e-85b8-341590006c9b","system_id":"levelo_inurba_marseille","lat":43.29778,"lon":5.38103,"is_reserved":false,"is_disabled":false,"rental_uris":{"android":"levelo://app?vid=2dd88066-6fcb-490e-85b8-341590006c9b","ios":"levelo://app?vid=2dd88066-6fcb-490e-85b8-341590006c9b"},"vehicle_type_id":"4","last_reported":1743268042,"current_range_meters":12800,"station_id":"ce4bgip2rcd13ifvqbb0","pricing_plan_id":"cebpf4jnsgd1na2vs0mg"},{"bike_id":"3f7eec6c-dbe5-4f34-af34-75463865de2f","system_id":"levelo_inurba_marseille","lat":43.3079,"lon":5.37651,"is_reserved":false,"is_disabled":false,"rental_uris":{"android":"levelo://app?vid=3f7eec6c-dbe5-4f34-af34-75463865de2f","ios":"levelo://app?vid=3f7eec6c-dbe5-4f34-af34-75463865de2f"},"vehicle_type_id":"4","last_reported":1743268042,"current_range_meters":12800,"station_id":"ce4bgv92rcd13ifvqcq0","pricing_plan_id":"cebpf4jnsgd1na2vs0mg"},{"bike_id":"dd1a4ead-1c0d-4def-8143-a2ac54a6d29c","system_id":"levelo_inurba_marseille","lat":43.22933,"lon":5.35377,"is_reserved":false,"is_disabled":false,"rental_uris":{"android":"levelo://app?vid=dd1a4ead-1c0d-4def-8143-a2ac54a6d29c","ios":"levelo://app?vid=dd1a4ead-1c0d-4def-8143-a2ac54a6d29c"},"vehicle_type_id":"4","last_reported":1743268042,"current_range_meters":12800,"station_id":"cpo3532slgdg3j2ikp40","pricing_plan_id":"cebpf4jnsgd1na2vs0mg"},{"bike_id":"21b7dfed-4bf3-42a6-9071-9b2b5259da3c","system_id":"levelo_inurba_marseille","lat":43.29611,"lon":5.37145,"is_reserved":false,"is_disabled":true,"rental_uris":{"android":"levelo://app?vid=21b7dfed-4bf3-42a6-9071-9b2b5259da3c","ios":"levelo://app?vid=21b7dfed-4bf3-42a6-9071-9b2b5259da3c"},"vehicle_type_id":"4","last_reported":1743268042,"current_range_meters":12800,"station_id":"ce4bgnh2rcd13ifvqc0g","pricing_plan_id":"cebpf4jnsgd1na2vs0mg"},{"bike_id":"4cccf2af-7d1e-4b9c-bcb0-f5a4464fe4f2","system_id":"levelo_inurba_marseille","lat":43.29233,"lon":5.3581,"is_reserved":false,"is_disabled":false,"rental_uris":{"android":"levelo://app?vid=4cccf2af-7d1e-4b9c-bcb0-f5a4464fe4f2","ios":"levelo://app?vid=4cccf2af-7d1e-4b9c-bcb0-f5a4464fe4f2"},"vehicle_type_id":"4","last_reported":1743268042,"current_range_meters":13600,"station_id":"ce4bhb12rcd13ifvqel0","pricing_plan_id":"cebpf4jnsgd1na2vs0mg"},{"bike_id":"1194d893-debc-41d7-b347-816267570776","system_id":"levelo_inurba_marseille","lat":43.33733,"lon":5.39207,"is_reserved":false,"is_disabled":false,"rental_uris":{"android":"levelo://app?vid=1194d893-debc-41d7-b347-816267570776","ios":"levelo://app?vid=1194d893-debc-41d7-b347-816267570776"},"vehicle_type_id":"4","last_reported":1743268042,"current_range_meters":13600,"station_id":"ce4bhr92rcd13ifvqhsg","pricing_plan_id":"cebpf4jnsgd1na2vs0mg"},{"bike_id":"a6f55aac-09f6-4c37-9ff1-4b1d7291bd5d","system_id":"levelo_inurba_marseille","lat":43.28406,"lon":5.37502,"is_reserved":false,"is_disabled":false,"rental_uris":{"android":"levelo://app?vid=a6f55aac-09f6-4c37-9ff1-4b1d7291bd5d","ios":"levelo://app?vid=a6f55aac-09f6-4c37-9ff1-4b1d7291bd5d"},"vehicle_type_id":"4","last_reported":1743268042,"current_range_meters":13600,"station_id":"ce4bh412rcd13ifvqds0","pricing_plan_id":"cebpf4jnsgd1na2vs0mg"},{"bike_id":"e1f39489-366e-4c51-a52d-46e1e2648fdc","system_id":"levelo_inurba_marseille","lat":43.23199,"lon":5.35551,"is_reserved":false,"is_disabled":false,"rental_uris":{"android":"levelo://app?vid=e1f39489-366e-4c51-a52d-46e1e2648fdc","ios":"levelo://app?vid=e1f39489-366e-4c51-a52d-46e1e2648fdc"},"vehicle_type_id":"4","last_reported":1743268042,"current_range_meters":14000,"station_id":"ce4bhu92rcd13ifvqi70","pricing_plan_id":"cebpf4jnsgd1na2vs0mg"},{"bike_id":"5917df13-e483-4b70-a85c-75c934a42f31","system_id":"levelo_inurba_marseille","lat":43.29572,"lon":5.37513,"is_reserved":false,"is_disabled":false,"rental_uris":{"android":"levelo://app?vid=5917df13-e483-4b70-a85c-75c934a42f31","ios":"levelo://app?vid=5917df13-e483-4b70-a85c-75c934a42f31"},"vehicle_type_id":"4","last_reported":1743268042,"current_range_meters":14000,"station_id":"ce4bgh92rcd13ifvqb50","pricing_plan_id":"cebpf4jnsgd1na2vs0mg"},{"bike_id":"a90d481a-7039-457f-a5b9-3dabbed904f5","system_id":"levelo_inurba_marseille","lat":43.27939,"lon":5.410419,"is_reserved":false,"is_disabled":false,"rental_uris":{"android":"levelo://app?vid=a90d481a-7039-457f-a5b9-3dabbed904f5","ios":"levelo://app?vid=a90d481a-7039-457f-a5b9-3dabbed904f5"},"vehicle_type_id":"4","last_reported":1743268042,"current_range_meters":14000,"station_id":"ce4bhnp2rcd13ifvqh0g","pricing_plan_id":"cebpf4jnsgd1na2vs0mg"},{"bike_id":"69cf2cad-5a5d-4521-ac4a-dbe1f2a8bed6","system_id":"levelo_inurba_marseille","lat":43.26959,"lon":5.38627,"is_reserved":false,"is_disabled":false,"rental_uris":{"android":"levelo://app?vid=69cf2cad-5a5d-4521-ac4a-dbe1f2a8bed6","ios":"levelo://app?vid=69cf2cad-5a5d-4521-ac4a-dbe1f2a8bed6"},"vehicle_type_id":"4","last_reported":1743268042,"current_range_meters":14000,"station_id":"ce4bhh92rcd13ifvqfh0","pricing_plan_id":"cebpf4jnsgd1na2vs0mg"},{"bike_id":"bd90bf75-9c99-4619-93c2-7a5fd83388b5","system_id":"levelo_inurba_marseille","lat":43.313603,"lon":5.388284,"is_reserved":false,"is_disabled":false,"rental_uris":{"android":"levelo://app?vid=bd90bf75-9c99-4619-93c2-7a5fd83388b5","ios":"levelo://app?vid=bd90bf75-9c99-4619-93c2-7a5fd83388b5"},"vehicle_type_id":"4","last_reported":1743268042,"current_range_meters":14400,"station_id":"ce4bgt92rcd13ifvqcf0","pricing_plan_id":"cebpf4jnsgd1na2vs0mg"},{"bike_id":"68a2fa0c-def2-4a94-8a76-3dd9a4125347","system_id":"levelo_inurba_marseille","lat":43.29274,"lon":5.38444,"is_reserved":false,"is_disabled":false,"rental_uris":{"android":"levelo://app?vid=68a2fa0c-def2-4a94-8a76-3dd9a4125347","ios":"levelo://app?vid=68a2fa0c-def2-4a94-8a76-3dd9a4125347"},"vehicle_type_id":"4","last_reported":1743268042,"current_range_meters":14400,"station_id":"ce4bh692rcd13ifvqea0","pricing_plan_id":"cebpf4jnsgd1na2vs0mg"},{"bike_id":"c2e21607-79db-417b-b5ad-b42b2e8e9cf0","system_id":"levelo_inurba_marseille","lat":43.23961,"lon":5.36635,"is_reserved":false,"is_disabled":false,"rental_uris":{"android":"levelo://app?vid=c2e21607-79db-417b-b5ad-b42b2e8e9cf0","ios":"levelo://app?vid=c2e21607-79db-417b-b5ad-b42b2e8e9cf0"},"vehicle_type_id":"4","last_reported":1743268042,"current_range_meters":14400,"station_id":"ce4bhi12rcd13ifvqfp0","pricing_plan_id":"cebpf4jnsgd1na2vs0mg"},{"bike_id":"fe2cecd4-0154-4c36-b991-30fbc4ca6bf7","system_id":"levelo_inurba_marseille","lat":43.29275,"lon":5.38441,"is_reserved":false,"is_disabled":false,"rental_uris":{"android":"levelo://app?vid=fe2cecd4-0154-4c36-b991-30fbc4ca6bf7","ios":"levelo://app?vid=fe2cecd4-0154-4c36-b991-30fbc4ca6bf7"},"vehicle_type_id":"4","last_reported":1743268042,"current_range_meters":14400,"station_id":"ce4bh692rcd13ifvqea0","pricing_plan_id":"cebpf4jnsgd1na2vs0mg"},{"bike_id":"51f634e3-ac61-4928-9ed6-54eb1e30344e","system_id":"levelo_inurba_marseille","lat":43.29673,"lon":5.37314,"is_reserved":false,"is_disabled":true,"rental_uris":{"android":"levelo://app?vid=51f634e3-ac61-4928-9ed6-54eb1e30344e","ios":"levelo://app?vid=51f634e3-ac61-4928-9ed6-54eb1e30344e"},"vehicle_type_id":"4","last_reported":1743268042,"current_range_meters":14400,"station_id":"ce4bgk12rcd13ifvqbj0","pricing_plan_id":"cebpf4jnsgd1na2vs0mg"},{"bike_id":"827e85c1-a7d5-4df8-a0d4-3cfc0c57b58e","system_id":"levelo_inurba_marseille","lat":43.30168,"lon":5.37432,"is_reserved":false,"is_disabled":false,"rental_uris":{"android":"levelo://app?vid=827e85c1-a7d5-4df8-a0d4-3cfc0c57b58e","ios":"levelo://app?vid=827e85c1-a7d5-4df8-a0d4-3cfc0c57b58e"},"vehicle_type_id":"4","last_reported":1743268042,"current_range_meters":14400,"station_id":"ce4bgs92rcd13ifvqcc0","pricing_plan_id":"cebpf4jnsgd1na2vs0mg"},{"bike_id":"8f966013-37d2-440d-8c95-e0dff908cacf","system_id":"levelo_inurba_marseille","lat":43.28856,"lon":5.393,"is_reserved":false,"is_disabled":false,"rental_uris":{"android":"levelo://app?vid=8f966013-37d2-440d-8c95-e0dff908cacf","ios":"levelo://app?vid=8f966013-37d2-440d-8c95-e0dff908cacf"},"vehicle_type_id":"4","last_reported":1743268042,"current_range_meters":14400,"station_id":"ce4bh2p2rcd13ifvqdi0","pricing_plan_id":"cebpf4jnsgd1na2vs0mg"},{"bike_id":"2540a6c9-991b-4167-8ea5-c58ea15621a0","system_id":"levelo_inurba_marseille","lat":43.296298,"lon":5.377239,"is_reserved":false,"is_disabled":false,"rental_uris":{"android":"levelo://app?vid=2540a6c9-991b-4167-8ea5-c58ea15621a0","ios":"levelo://app?vid=2540a6c9-991b-4167-8ea5-c58ea15621a0"},"vehicle_type_id":"4","last_reported":1743268042,"current_range_meters":14400,"station_id":"ce4bgi92rcd13ifvqb90","pricing_plan_id":"cebpf4jnsgd1na2vs0mg"},{"bike_id":"b6c18930-83f3-4e7b-a959-51413652e158","system_id":"levelo_inurba_marseille","lat":43.2669,"lon":5.3827,"is_reserved":false,"is_disabled":false,"rental_uris":{"android":"levelo://app?vid=b6c18930-83f3-4e7b-a959-51413652e158","ios":"levelo://app?vid=b6c18930-83f3-4e7b-a959-51413652e158"},"vehicle_type_id":"4","last_reported":1743268042,"current_range_meters":14400,"station_id":"ce4bhg92rcd13ifvqf90","pricing_plan_id":"cebpf4jnsgd1na2vs0mg"},{"bike_id":"ed5a1ae2-fa61-4587-b9a2-42244092b811","system_id":"levelo_inurba_marseille","lat":43.30161,"lon":5.38115,"is_reserved":false,"is_disabled":false,"rental_uris":{"android":"levelo://app?vid=ed5a1ae2-fa61-4587-b9a2-42244092b811","ios":"levelo://app?vid=ed5a1ae2-fa61-4587-b9a2-42244092b811"},"vehicle_type_id":"4","last_reported":1743268042,"current_range_meters":14400,"station_id":"ce4bgjp2rcd13ifvqbh0","pricing_plan_id":"cebpf4jnsgd1na2vs0mg"},{"bike_id":"c1b58db3-41b2-4096-b522-4166a2532efb","system_id":"levelo_inurba_marseille","lat":43.26685,"lon":5.38269,"is_reserved":false,"is_disabled":false,"rental_uris":{"android":"levelo://app?vid=c1b58db3-41b2-4096-b522-4166a2532efb","ios":"levelo://app?vid=c1b58db3-41b2-4096-b522-4166a2532efb"},"vehicle_type_id":"4","last_reported":1743268042,"current_range_meters":14400,"station_id":"ce4bhg92rcd13ifvqf90","pricing_plan_id":"cebpf4jnsgd1na2vs0mg"},{"bike_id":"17398705-be1a-4205-a792-36c11472aa99","system_id":"levelo_inurba_marseille","lat":43.3024,"lon":5.40051,"is_reserved":false,"is_disabled":false,"rental_uris":{"android":"levelo://app?vid=17398705-be1a-4205-a792-36c11472aa99","ios":"levelo://app?vid=17398705-be1a-4205-a792-36c11472aa99"},"vehicle_type_id":"4","last_reported":1743268042,"current_range_meters":14400,"station_id":"ce4bgvh2rcd13ifvqcs0","pricing_plan_id":"cebpf4jnsgd1na2vs0mg"},{"bike_id":"a104ab6c-23d2-4bc9-8525-a85c5320e4d9","system_id":"levelo_inurba_marseille","lat":43.29544,"lon":5.37506,"is_reserved":false,"is_disabled":false,"rental_uris":{"android":"levelo://app?vid=a104ab6c-23d2-4bc9-8525-a85c5320e4d9","ios":"levelo://app?vid=a104ab6c-23d2-4bc9-8525-a85c5320e4d9"},"vehicle_type_id":"4","last_reported":1743268042,"current_range_meters":14400,"station_id":"ce4bgkp2rcd13ifvqbmg","pricing_plan_id":"cebpf4jnsgd1na2vs0mg"},{"bike_id":"e06f87aa-4f35-468c-851d-b54acba4b3c7","system_id":"levelo_inurba_marseille","lat":43.2667,"lon":5.3829,"is_reserved":false,"is_disabled":false,"rental_uris":{"android":"levelo://app?vid=e06f87aa-4f35-468c-851d-b54acba4b3c7","ios":"levelo://app?vid=e06f87aa-4f35-468c-851d-b54acba4b3c7"},"vehicle_type_id":"4","last_reported":1743268042,"current_range_meters":14400,"station_id":"ce4bhg92rcd13ifvqf90","pricing_plan_id":"cebpf4jnsgd1na2vs0mg"},{"bike_id":"37cac1da-9225-4e30-9305-4389b6865a78","system_id":"levelo_inurba_marseille","lat":43.29274,"lon":5.38452,"is_reserved":false,"is_disabled":false,"rental_uris":{"android":"levelo://app?vid=37cac1da-9225-4e30-9305-4389b6865a78","ios":"levelo://app?vid=37cac1da-9225-4e30-9305-4389b6865a78"},"vehicle_type_id":"4","last_reported":1743268042,"current_range_meters":14400,"station_id":"ce4bh692rcd13ifvqea0","pricing_plan_id":"cebpf4jnsgd1na2vs0mg"},{"bike_id":"3fc690cc-514e-49af-8c16-561a3329ac3e","system_id":"levelo_inurba_marseille","lat":43.27096,"lon":5.42285,"is_reserved":false,"is_disabled":false,"rental_uris":{"android":"levelo://app?vid=3fc690cc-514e-49af-8c16-561a3329ac3e","ios":"levelo://app?vid=3fc690cc-514e-49af-8c16-561a3329ac3e"},"vehicle_type_id":"4","last_reported":1743268042,"current_range_meters":14400,"station_id":"ce4bhk92rcd13ifvqgb0","pricing_plan_id":"cebpf4jnsgd1na2vs0mg"},{"bike_id":"c539d4de-b6bb-43f6-8e39-df8fabf653ca","system_id":"levelo_inurba_marseille","lat":43.290123,"lon":5.367954,"is_reserved":false,"is_disabled":false,"rental_uris":{"android":"levelo://app?vid=c539d4de-b6bb-43f6-8e39-df8fabf653ca","ios":"levelo://app?vid=c539d4de-b6bb-43f6-8e39-df8fabf653ca"},"vehicle_type_id":"4","last_reported":1743268042,"current_range_meters":14400,"station_id":"ce4bgjp2rcd13ifvqbh0","pricing_plan_id":"cebpf4jnsgd1na2vs0mg"},{"bike_id":"2d0a842d-5992-4aa5-9cf0-69a1079a58e6","system_id":"levelo_inurba_marseille","lat":43.31759,"lon":5.3905,"is_reserved":false,"is_disabled":false,"rental_uris":{"android":"levelo://app?vid=2d0a842d-5992-4aa5-9cf0-69a1079a58e6","ios":"levelo://app?vid=2d0a842d-5992-4aa5-9cf0-69a1079a58e6"},"vehicle_type_id":"4","last_reported":1743268042,"current_range_meters":14800,"station_id":"ce4bhqp2rcd13ifvqhng","pricing_plan_id":"cebpf4jnsgd1na2vs0mg"},{"bike_id":"cccdfc50-9172-4019-9d86-2d339a3ec58f","system_id":"levelo_inurba_marseille","lat":43.246724,"lon":5.381636,"is_reserved":false,"is_disabled":false,"rental_uris":{"android":"levelo://app?vid=cccdfc50-9172-4019-9d86-2d339a3ec58f","ios":"levelo://app?vid=cccdfc50-9172-4019-9d86-2d339a3ec58f"},"vehicle_type_id":"4","last_reported":1743268042,"current_range_meters":14800,"station_id":"ce4bhih2rcd13ifvqfr0","pricing_plan_id":"cebpf4jnsgd1na2vs0mg"},{"bike_id":"7564a4eb-fcbd-47e7-87b5-86c0ae53d2e9","system_id":"levelo_inurba_marseille","lat":43.26725,"lon":5.3827,"is_reserved":false,"is_disabled":false,"rental_uris":{"android":"levelo://app?vid=7564a4eb-fcbd-47e7-87b5-86c0ae53d2e9","ios":"levelo://app?vid=7564a4eb-fcbd-47e7-87b5-86c0ae53d2e9"},"vehicle_type_id":"4","last_reported":1743268042,"current_range_meters":14800,"station_id":"ce4bhg92rcd13ifvqf90","pricing_plan_id":"cebpf4jnsgd1na2vs0mg"},{"bike_id":"2a651215-29ff-4da6-821d-6aba547eb86b","system_id":"levelo_inurba_marseille","lat":43.29212,"lon":5.36077,"is_reserved":false,"is_disabled":false,"rental_uris":{"android":"levelo://app?vid=2a651215-29ff-4da6-821d-6aba547eb86b","ios":"levelo://app?vid=2a651215-29ff-4da6-821d-6aba547eb86b"},"vehicle_type_id":"4","last_reported":1743268042,"current_range_meters":14800,"station_id":"ce4bhbh2rcd13ifvqeqg","pricing_plan_id":"cebpf4jnsgd1na2vs0mg"},{"bike_id":"61b93b3e-de2c-498f-9067-20d081913f50","system_id":"levelo_inurba_marseille","lat":43.29182,"lon":5.35806,"is_reserved":false,"is_disabled":false,"rental_uris":{"android":"levelo://app?vid=61b93b3e-de2c-498f-9067-20d081913f50","ios":"levelo://app?vid=61b93b3e-de2c-498f-9067-20d081913f50"},"vehicle_type_id":"4","last_reported":1743268042,"current_range_meters":14800,"station_id":"ce4bhb12rcd13ifvqel0","pricing_plan_id":"cebpf4jnsgd1na2vs0mg"},{"bike_id":"490c1d81-f891-41ce-94a6-a8ef02cd88ef","system_id":"levelo_inurba_marseille","lat":43.2581,"lon":5.39468,"is_reserved":false,"is_disabled":false,"rental_uris":{"android":"levelo://app?vid=490c1d81-f891-41ce-94a6-a8ef02cd88ef","ios":"levelo://app?vid=490c1d81-f891-41ce-94a6-a8ef02cd88ef"},"vehicle_type_id":"4","last_reported":1743268042,"current_range_meters":14400,"station_id":"ce4bhip2rcd13ifvqft0","pricing_plan_id":"cebpf4jnsgd1na2vs0mg"},{"bike_id":"8bcc045e-f28b-442a-a0af-38457b26197c","system_id":"levelo_inurba_marseille","lat":43.24156,"lon":5.36411,"is_reserved":false,"is_disabled":false,"rental_uris":{"android":"levelo://app?vid=8bcc045e-f28b-442a-a0af-38457b26197c","ios":"levelo://app?vid=8bcc045e-f28b-442a-a0af-38457b26197c"},"vehicle_type_id":"4","last_reported":1743268042,"current_range_meters":14800,"station_id":"cpo36qri1sfpv3e86is0","pricing_plan_id":"cebpf4jnsgd1na2vs0mg"},{"bike_id":"0e9d92a7-df29-43d8-906d-2a51c6561f7d","system_id":"levelo_inurba_marseille","lat":43.284153,"lon":5.349869,"is_reserved":false,"is_disabled":false,"rental_uris":{"android":"levelo://app?vid=0e9d92a7-df29-43d8-906d-2a51c6561f7d","ios":"levelo://app?vid=0e9d92a7-df29-43d8-906d-2a51c6561f7d"},"vehicle_type_id":"4","last_reported":1743268042,"current_range_meters":14800,"station_id":"ce4bhbh2rcd13ifvqepg","pricing_plan_id":"cebpf4jnsgd1na2vs0mg"},{"bike_id":"404b7ef2-0e3c-452c-a7da-f9d11176b6e2","system_id":"levelo_inurba_marseille","lat":43.25006,"lon":5.38931,"is_reserved":false,"is_disabled":false,"rental_uris":{"android":"levelo://app?vid=404b7ef2-0e3c-452c-a7da-f9d11176b6e2","ios":"levelo://app?vid=404b7ef2-0e3c-452c-a7da-f9d11176b6e2"},"vehicle_type_id":"4","last_reported":1743268042,"current_range_meters":14800,"station_id":"ce4bhgp2rcd13ifvqfd0","pricing_plan_id":"cebpf4jnsgd1na2vs0mg"},{"bike_id":"5cb8c766-498c-488a-86ec-2317510d9867","system_id":"levelo_inurba_marseille","lat":43.32365,"lon":5.36755,"is_reserved":false,"is_disabled":false,"rental_uris":{"android":"levelo://app?vid=5cb8c766-498c-488a-86ec-2317510d9867","ios":"levelo://app?vid=5cb8c766-498c-488a-86ec-2317510d9867"},"vehicle_type_id":"4","last_reported":1743268042,"current_range_meters":15200,"station_id":"ce4bhsh2rcd13ifvqi2g","pricing_plan_id":"cebpf4jnsgd1na2vs0mg"},{"bike_id":"82be5020-df29-4bb6-b821-10f31b9ed89a","system_id":"levelo_inurba_marseille","lat":43.28418,"lon":5.3499,"is_reserved":false,"is_disabled":false,"rental_uris":{"android":"levelo://app?vid=82be5020-df29-4bb6-b821-10f31b9ed89a","ios":"levelo://app?vid=82be5020-df29-4bb6-b821-10f31b9ed89a"},"vehicle_type_id":"4","last_reported":1743268042,"current_range_meters":15200,"station_id":"ce4bhbh2rcd13ifvqepg","pricing_plan_id":"cebpf4jnsgd1na2vs0mg"},{"bike_id":"24394c03-c3d8-48ba-a0f3-f8e0c66c3fbb","system_id":"levelo_inurba_marseille","lat":43.292672,"lon":5.408888,"is_reserved":false,"is_disabled":false,"rental_uris":{"android":"levelo://app?vid=24394c03-c3d8-48ba-a0f3-f8e0c66c3fbb","ios":"levelo://app?vid=24394c03-c3d8-48ba-a0f3-f8e0c66c3fbb"},"vehicle_type_id":"4","last_reported":1743268042,"current_range_meters":13600,"station_id":"ce4bh192rcd13ifvqdc0","pricing_plan_id":"cebpf4jnsgd1na2vs0mg"},{"bike_id":"8a625d05-ee93-4cd1-8252-4a801f814f4d","system_id":"levelo_inurba_marseille","lat":43.29532,"lon":5.37496,"is_reserved":false,"is_disabled":false,"rental_uris":{"android":"levelo://app?vid=8a625d05-ee93-4cd1-8252-4a801f814f4d","ios":"levelo://app?vid=8a625d05-ee93-4cd1-8252-4a801f814f4d"},"vehicle_type_id":"4","last_reported":1743268042,"current_range_meters":15200,"station_id":"ce4bgkp2rcd13ifvqbmg","pricing_plan_id":"cebpf4jnsgd1na2vs0mg"},{"bike_id":"c36fa93a-2ff9-49d7-b36f-351266c13986","system_id":"levelo_inurba_marseille","lat":43.31077,"lon":5.38352,"is_reserved":false,"is_disabled":false,"rental_uris":{"android":"levelo://app?vid=c36fa93a-2ff9-49d7-b36f-351266c13986","ios":"levelo://app?vid=c36fa93a-2ff9-49d7-b36f-351266c13986"},"vehicle_type_id":"4","last_reported":1743268042,"current_range_meters":15200,"station_id":"ce4bgv92rcd13ifvqcr0","pricing_plan_id":"cebpf4jnsgd1na2vs0mg"},{"bike_id":"871f3035-10bb-4a28-afa0-18619600e1a6","system_id":"levelo_inurba_marseille","lat":43.29934,"lon":5.36541,"is_reserved":false,"is_disabled":true,"rental_uris":{"android":"levelo://app?vid=871f3035-10bb-4a28-afa0-18619600e1a6","ios":"levelo://app?vid=871f3035-10bb-4a28-afa0-18619600e1a6"},"vehicle_type_id":"4","last_reported":1743268042,"current_range_meters":16000,"station_id":"ce4bgm92rcd13ifvqbr0","pricing_plan_id":"cebpf4jnsgd1na2vs0mg"},{"bike_id":"7e46e322-27d9-4f9d-b1ce-11741eb7c78f","system_id":"levelo_inurba_marseille","lat":43.31759,"lon":5.39019,"is_reserved":false,"is_disabled":false,"rental_uris":{"android":"levelo://app?vid=7e46e322-27d9-4f9d-b1ce-11741eb7c78f","ios":"levelo://app?vid=7e46e322-27d9-4f9d-b1ce-11741eb7c78f"},"vehicle_type_id":"4","last_reported":1743268042,"current_range_meters":16000,"station_id":"ce4bhqp2rcd13ifvqhng","pricing_plan_id":"cebpf4jnsgd1na2vs0mg"},{"bike_id":"f84b51fe-5461-461d-a870-c71887b3fd71","system_id":"levelo_inurba_marseille","lat":43.28443,"lon":5.39208,"is_reserved":false,"is_disabled":false,"rental_uris":{"android":"levelo://app?vid=f84b51fe-5461-461d-a870-c71887b3fd71","ios":"levelo://app?vid=f84b51fe-5461-461d-a870-c71887b3fd71"},"vehicle_type_id":"4","last_reported":1743268042,"current_range_meters":17600,"station_id":"ce4bhoh2rcd13ifvqh5g","pricing_plan_id":"cebpf4jnsgd1na2vs0mg"},{"bike_id":"bfcad82b-6acc-493c-b418-93ec0bae17e4","system_id":"levelo_inurba_marseille","lat":43.320457,"lon":5.367717,"is_reserved":false,"is_disabled":false,"rental_uris":{"android":"levelo://app?vid=bfcad82b-6acc-493c-b418-93ec0bae17e4","ios":"levelo://app?vid=bfcad82b-6acc-493c-b418-93ec0bae17e4"},"vehicle_type_id":"4","last_reported":1743268042,"current_range_meters":16000,"station_id":"ce4bhrh2rcd13ifvqhug","pricing_plan_id":"cebpf4jnsgd1na2vs0mg"},{"bike_id":"59359988-faf5-47a1-b5f8-d319a6e1abfa","system_id":"levelo_inurba_marseille","lat":43.284187,"lon":5.349936,"is_reserved":false,"is_disabled":false,"rental_uris":{"android":"levelo://app?vid=59359988-faf5-47a1-b5f8-d319a6e1abfa","ios":"levelo://app?vid=59359988-faf5-47a1-b5f8-d319a6e1abfa"},"vehicle_type_id":"4","last_reported":1743268042,"current_range_meters":16000,"station_id":"ce4bhbh2rcd13ifvqepg","pricing_plan_id":"cebpf4jnsgd1na2vs0mg"},{"bike_id":"fc955607-216b-4c06-bebb-9a9b61d8688e","system_id":"levelo_inurba_marseille","lat":43.28938,"lon":5.36642,"is_reserved":false,"is_disabled":false,"rental_uris":{"android":"levelo://app?vid=fc955607-216b-4c06-bebb-9a9b61d8688e","ios":"levelo://app?vid=fc955607-216b-4c06-bebb-9a9b61d8688e"},"vehicle_type_id":"4","last_reported":1743268042,"current_range_meters":16000,"station_id":"ce4bhap2rcd13ifvqek0","pricing_plan_id":"cebpf4jnsgd1na2vs0mg"},{"bike_id":"8e69e7f9-76b5-4d0a-8b34-45d50fc637f3","system_id":"levelo_inurba_marseille","lat":43.24211,"lon":5.38444,"is_reserved":false,"is_disabled":false,"rental_uris":{"android":"levelo://app?vid=8e69e7f9-76b5-4d0a-8b34-45d50fc637f3","ios":"levelo://app?vid=8e69e7f9-76b5-4d0a-8b34-45d50fc637f3"},"vehicle_type_id":"4","last_reported":1743268042,"current_range_meters":16000,"station_id":"","pricing_plan_id":"cebpf4jnsgd1na2vs0mg"},{"bike_id":"7765dff9-de13-4104-8848-fc77a4f4a758","system_id":"levelo_inurba_marseille","lat":43.295736,"lon":5.375282,"is_reserved":false,"is_disabled":false,"rental_uris":{"android":"levelo://app?vid=7765dff9-de13-4104-8848-fc77a4f4a758","ios":"levelo://app?vid=7765dff9-de13-4104-8848-fc77a4f4a758"},"vehicle_type_id":"4","last_reported":1743268042,"current_range_meters":16000,"station_id":"ce4bhq12rcd13ifvqhig","pricing_plan_id":"cebpf4jnsgd1na2vs0mg"},{"bike_id":"6ef18dd7-1cb9-4ef6-bfdd-052cde57f183","system_id":"levelo_inurba_marseille","lat":43.3211,"lon":5.36832,"is_reserved":false,"is_disabled":false,"rental_uris":{"android":"levelo://app?vid=6ef18dd7-1cb9-4ef6-bfdd-052cde57f183","ios":"levelo://app?vid=6ef18dd7-1cb9-4ef6-bfdd-052cde57f183"},"vehicle_type_id":"4","last_reported":1743268042,"current_range_meters":16000,"station_id":"","pricing_plan_id":"cebpf4jnsgd1na2vs0mg"},{"bike_id":"8e9afe6a-948c-44bd-a1ec-fc4477b65188","system_id":"levelo_inurba_marseille","lat":43.2481,"lon":5.37459,"is_reserved":false,"is_disabled":false,"rental_uris":{"android":"levelo://app?vid=8e9afe6a-948c-44bd-a1ec-fc4477b65188","ios":"levelo://app?vid=8e9afe6a-948c-44bd-a1ec-fc4477b65188"},"vehicle_type_id":"4","last_reported":1743268042,"current_range_meters":16000,"station_id":"ce4bhgh2rcd13ifvqfb0","pricing_plan_id":"cebpf4jnsgd1na2vs0mg"},{"bike_id":"e210091c-065a-4e87-a135-7158ed5fc4aa","system_id":"levelo_inurba_marseille","lat":43.28445,"lon":5.39207,"is_reserved":false,"is_disabled":false,"rental_uris":{"android":"levelo://app?vid=e210091c-065a-4e87-a135-7158ed5fc4aa","ios":"levelo://app?vid=e210091c-065a-4e87-a135-7158ed5fc4aa"},"vehicle_type_id":"4","last_reported":1743268042,"current_range_meters":16400,"station_id":"ce4bhoh2rcd13ifvqh5g","pricing_plan_id":"cebpf4jnsgd1na2vs0mg"},{"bike_id":"57574d51-3863-4dfd-a480-3fb0acc908a0","system_id":"levelo_inurba_marseille","lat":43.28639,"lon":5.35121,"is_reserved":false,"is_disabled":false,"rental_uris":{"android":"levelo://app?vid=57574d51-3863-4dfd-a480-3fb0acc908a0","ios":"levelo://app?vid=57574d51-3863-4dfd-a480-3fb0acc908a0"},"vehicle_type_id":"4","last_reported":1743268042,"current_range_meters":16400,"station_id":"ce4bhch2rcd13ifvqeug","pricing_plan_id":"cebpf4jnsgd1na2vs0mg"},{"bike_id":"4c88d85e-6137-4efe-a2c9-d2803157a6d7","system_id":"levelo_inurba_marseille","lat":43.28448,"lon":5.3921,"is_reserved":false,"is_disabled":false,"rental_uris":{"android":"levelo://app?vid=4c88d85e-6137-4efe-a2c9-d2803157a6d7","ios":"levelo://app?vid=4c88d85e-6137-4efe-a2c9-d2803157a6d7"},"vehicle_type_id":"4","last_reported":1743268042,"current_range_meters":16400,"station_id":"ce4bhoh2rcd13ifvqh5g","pricing_plan_id":"cebpf4jnsgd1na2vs0mg"},{"bike_id":"31a816b5-662c-42fc-ba7e-bcac4451d575","system_id":"levelo_inurba_marseille","lat":43.27984,"lon":5.4167,"is_reserved":false,"is_disabled":false,"rental_uris":{"android":"levelo://app?vid=31a816b5-662c-42fc-ba7e-bcac4451d575","ios":"levelo://app?vid=31a816b5-662c-42fc-ba7e-bcac4451d575"},"vehicle_type_id":"4","last_reported":1743268042,"current_range_meters":16400,"station_id":"ce4bho12rcd13ifvqh1g","pricing_plan_id":"cebpf4jnsgd1na2vs0mg"},{"bike_id":"468765c5-a3c7-4141-b682-b0c03b325a44","system_id":"levelo_inurba_marseille","lat":43.30177,"lon":5.37423,"is_reserved":false,"is_disabled":false,"rental_uris":{"android":"levelo://app?vid=468765c5-a3c7-4141-b682-b0c03b325a44","ios":"levelo://app?vid=468765c5-a3c7-4141-b682-b0c03b325a44"},"vehicle_type_id":"4","last_reported":1743268042,"current_range_meters":16800,"station_id":"ce4bgs92rcd13ifvqcc0","pricing_plan_id":"cebpf4jnsgd1na2vs0mg"},{"bike_id":"352f0fac-2783-44e3-99ab-89003b9eaa42","system_id":"levelo_inurba_marseille","lat":43.29028,"lon":5.38652,"is_reserved":false,"is_disabled":false,"rental_uris":{"android":"levelo://app?vid=352f0fac-2783-44e3-99ab-89003b9eaa42","ios":"levelo://app?vid=352f0fac-2783-44e3-99ab-89003b9eaa42"},