{"last_updated":1727115140,"ttl":30,"version":"2.2","data":{"bikes":[{"bike_id":"cca6d886-2780-40c3-9f10-014a11e4dc08","system_id":"levelo_inurba_marseille","lat":43.27191,"lon":5.40987,"is_reserved":false,"is_disabled":false,"rental_uris":{"android":"levelo://app?vid=cca6d886-2780-40c3-9f10-014a11e4dc08","ios":"levelo://app?vid=cca6d886-2780-40c3-9f10-014a11e4dc08"},"vehicle_type_id":"4","last_reported":1727115140,"current_range_meters":2800,"station_id":"ce4bhl12rcd13ifvqgf0","pricing_plan_id":"cebpf4jnsgd1na2vs0mg"},{"bike_id":"34e49e59-195f-4e3e-907c-4e46993b2f20","system_id":"levelo_inurba_marseille","lat":43.25087,"lon":5.39527,"is_reserved":false,"is_disabled":false,"rental_uris":{"android":"levelo://app?vid=34e49e59-195f-4e3e-907c-4e46993b2f20","ios":"levelo://app?vid=34e49e59-195f-4e3e-907c-4e46993b2f20"},"vehicle_type_id":"4","last_reported":1727115140,"current_range_meters":26000,"station_id":"ce4bhm12rcd13ifvqgkg","pricing_plan_id":"cebpf4jnsgd1na2vs0mg"},{"bike_id":"43f852da-5812-4231-b50a-a90c6fa8e5f5","system_id":"levelo_inurba_marseille","lat":43.315115,"lon":5.372664,"is_reserved":false,"is_disabled":false,"rental_uris":{"android":"levelo://app?vid=43f852da-5812-4231-b50a-a90c6fa8e5f5","ios":"levelo://app?vid=43f852da-5812-4231-b50a-a90c6fa8e5f5"},"vehicle_type_id":"4","last_reported":1727115140,"current_range_meters":25200,"station_id":"ce4bgt12rcd13ifvqcd0","pricing_plan_id":"cebpf4jnsgd1na2vs0mg"},{"bike_id":"69351011-1319-46fa-9fb8-ad3b7c7f5ade","system_id":"levelo_inurba_marseille","lat":43.299525,"lon":5.362973,"is_reserved":false,"is_disabled":false,"rental_uris":{"android":"levelo://app?vid=69351011-1319-46fa-9fb8-ad3b7c7f5ade","ios":"levelo://app?vid=69351011-1319-46fa-9fb8-ad3b7c7f5ade"},"vehicle_type_id":"4","last_reported":1727115140,"current_range_meters":3200,"station_id":"ce4bgpp2rcd13ifvqc3g","pricing_plan_id":"cebpf4jnsgd1na2vs0mg"},{"bike_id":"62f424c1-b018-44ba-9b79-d22da7940811","system_id":"levelo_inurba_marseille","lat":43.3302,"lon":5.39042,"is_reserved":false,"is_disabled":false,"rental_uris":{"android":"levelo://app?vid=62f424c1-b018-44ba-9b79-d22da7940811","ios":"levelo://app?vid=62f424c1-b018-44ba-9b79-d22da7940811"},"vehicle_type_id":"4","last_reported":1727115140,"current_range_meters":12800,"station_id":"ce4bhr92rcd13ifvqhrg","pricing_plan_id":"cebpf4jnsgd1na2vs0mg"},{"bike_id":"82577459-7502-4b90-bdc3-5297bdcfcd2b","system_id":"levelo_inurba_marseille","lat":43.32653,"lon":5.40997,"is_reserved":false,"is_disabled":false,"rental_uris":{"android":"levelo://app?vid=82577459-7502-4b90-bdc3-5297bdcfcd2b","ios":"levelo://app?vid=82577459-7502-4b90-bdc3-5297bdcfcd2b"},"vehicle_type_id":"4","last_reported":1727115140,"current_range_meters":38800,"station_id":"ce4bhpp2rcd13ifvqhgg","pricing_plan_id":"cebpf4jnsgd1na2vs0mg"},{"bike_id":"5f0b1244-d634-4717-ab1d-dd6db718fb6d","system_id":"levelo_inurba_marseille","lat":43.30801,"lon":5.43532,"is_reserved":false,"is_disabled":false,"rental_uris":{"android":"levelo://app?vid=5f0b1244-d634-4717-ab1d-dd6db718fb6d","ios":"levelo://app?vid=5f0b1244-d634-4717-ab1d-dd6db718fb6d"},"vehicle_type_id":"4","last_reported":1727115140,"current_range_meters":33200,"station_id":"ce4bhph2rcd13ifvqheg","pricing_plan_id":"cebpf4jnsgd1na2vs0mg"},{"bike_id":"5e934f75-fab9-4126-9185-5cae3f9ae338","system_id":"levelo_inurba_marseille","lat":43.31212,"lon":5.3684,"is_reserved":false,"is_disabled":false,"rental_uris":{"android":"levelo://app?vid=5e934f75-fab9-4126-9185-5cae3f9ae338","ios":"levelo://app?vid=5e934f75-fab9-4126-9185-5cae3f9ae338"},"vehicle_type_id":"4","last_reported":1727115140,"current_range_meters":20000,"station_id":"ce4bgl92rcd13ifvqbq0","pricing_plan_id":"cebpf4jnsgd1na2vs0mg"},{"bike_id":"6ca95c9d-ef97-40ea-aa68-3a047badf0a6","system_id":"levelo_inurba_marseille","lat":43.27055,"lon":5.40264,"is_reserved":false,"is_disabled":false,"rental_uris":{"android":"levelo://app?vid=6ca95c9d-ef97-40ea-aa68-3a047badf0a6","ios":"levelo://app?vid=6ca95c9d-ef97-40ea-aa68-3a047badf0a6"},"vehicle_type_id":"4","last_reported":1727115140,"current_range_meters":9600,"station_id":"ce4bhk92rcd13ifvqgc0","pricing_plan_id":"cebpf4jnsgd1na2vs0mg"},{"bike_id":"2143ecf6-8f6d-430e-b905-9f59b21d3abf","system_id":"levelo_inurba_marseille","lat":43.28558,"lon":5.3951,"is_reserved":false,"is_disabled":false,"rental_uris":{"android":"levelo://app?vid=2143ecf6-8f6d-430e-b905-9f59b21d3abf","ios":"levelo://app?vid=2143ecf6-8f6d-430e-b905-9f59b21d3abf"},"vehicle_type_id":"4","last_reported":1727115140,"current_range_meters":13600,"station_id":"ce4bh292rcd13ifvqdg0","pricing_plan_id":"cebpf4jnsgd1na2vs0mg"},{"bike_id":"20a042f1-81aa-4cde-8548-4f002e395336","system_id":"levelo_inurba_marseille","lat":43.31064,"lon":5.40098,"is_reserved":false,"is_disabled":false,"rental_uris":{"android":"levelo://app?vid=20a042f1-81aa-4cde-8548-4f002e395336","ios":"levelo://app?vid=20a042f1-81aa-4cde-8548-4f002e395336"},"vehicle_type_id":"4","last_reported":1727115140,"current_range_meters":28000,"station_id":"ce4bgvp2rcd13ifvqct0","pricing_plan_id":"cebpf4jnsgd1na2vs0mg"},{"bike_id":"fd550f3a-c4be-4030-8e5d-80c1d67c306e","system_id":"levelo_inurba_marseille","lat":43.24543,"lon":5.39527,"is_reserved":false,"is_disabled":false,"rental_uris":{"android":"levelo://app?vid=fd550f3a-c4be-4030-8e5d-80c1d67c306e","ios":"levelo://app?vid=fd550f3a-c4be-4030-8e5d-80c1d67c306e"},"vehicle_type_id":"4","last_reported":1727115140,"current_range_meters":2800,"station_id":"ce4bhlp2rcd13ifvqgjg","pricing_plan_id":"cebpf4jnsgd1na2vs0mg"},{"bike_id":"ec40b85b-25d9-47e2-8c62-cfae630541e2","system_id":"levelo_inurba_marseille","lat":43.29353,"lon":5.37858,"is_reserved":false,"is_disabled":false,"rental_uris":{"android":"levelo://app?vid=ec40b85b-25d9-47e2-8c62-cfae630541e2","ios":"levelo://app?vid=ec40b85b-25d9-47e2-8c62-cfae630541e2"},"vehicle_type_id":"4","last_reported":1727115140,"current_range_meters":10800,"station_id":"ce4bgjh2rcd13ifvqbf0","pricing_plan_id":"cebpf4jnsgd1na2vs0mg"},{"bike_id":"5b7fd81c-aebe-4e6f-9c07-cde0f67368b5","system_id":"levelo_inurba_marseille","lat":43.26803,"lon":5.40272,"is_reserved":false,"is_disabled":false,"rental_uris":{"android":"levelo://app?vid=5b7fd81c-aebe-4e6f-9c07-cde0f67368b5","ios":"levelo://app?vid=5b7fd81c-aebe-4e6f-9c07-cde0f67368b5"},"vehicle_type_id":"4","last_reported":1727115140,"current_range_meters":8800,"station_id":"ce501612rcd8frsf0b60","pricing_plan_id":"cebpf4jnsgd1na2vs0mg"},{"bike_id":"8422990e-8823-4d96-af43-839cc39d19a0","system_id":"levelo_inurba_marseille","lat":43.27074,"lon":5.42285,"is_reserved":false,"is_disabled":false,"rental_uris":{"android":"levelo://app?vid=8422990e-8823-4d96-af43-839cc39d19a0","ios":"levelo://app?vid=8422990e-8823-4d96-af43-839cc39d19a0"},"vehicle_type_id":"4","last_reported":1727115140,"current_range_meters":38800,"station_id":"ce4bhk92rcd13ifvqgb0","pricing_plan_id":"cebpf4jnsgd1na2vs0mg"},{"bike_id":"1c7a67ac-5eca-4389-9309-4d5f48677813","system_id":"levelo_inurba_marseille","lat":43.229273,"lon":5.353771,"is_reserved":false,"is_disabled":false,"rental_uris":{"android":"levelo://app?vid=1c7a67ac-5eca-4389-9309-4d5f48677813","ios":"levelo://app?vid=1c7a67ac-5eca-4389-9309-4d5f48677813"},"vehicle_type_id":"4","last_reported":1727115140,"current_range_meters":6400,"station_id":"cpo3532slgdg3j2ikp40","pricing_plan_id":"cebpf4jnsgd1na2vs0mg"},{"bike_id":"ff089e92-e1d8-46cc-9121-c5b0576ff68e","system_id":"levelo_inurba_marseille","lat":43.29207,"lon":5.39336,"is_reserved":false,"is_disabled":false,"rental_uris":{"android":"levelo://app?vid=ff089e92-e1d8-46cc-9121-c5b0576ff68e","ios":"levelo://app?vid=ff089e92-e1d8-46cc-9121-c5b0576ff68e"},"vehicle_type_id":"4","last_reported":1727115140,"current_range_meters":28400,"station_id":"ce4bh192rcd13ifvqdd0","pricing_plan_id":"cebpf4jnsgd1na2vs0mg"},{"bike_id":"4117225d-fbf7-489f-a9f9-a7903758f15d","system_id":"levelo_inurba_marseille","lat":43.337444,"lon":5.374475,"is_reserved":false,"is_disabled":false,"rental_uris":{"android":"levelo://app?vid=4117225d-fbf7-489f-a9f9-a7903758f15d","ios":"levelo://app?vid=4117225d-fbf7-489f-a9f9-a7903758f15d"},"vehicle_type_id":"4","last_reported":1727115140,"current_range_meters":25200,"station_id":"","pricing_plan_id":"cebpf4jnsgd1na2vs0mg"},{"bike_id":"93c28c51-0d6e-4c0b-a923-c426521f82da","system_id":"levelo_inurba_marseille","lat":43.29966,"lon":5.38498,"is_reserved":false,"is_disabled":false,"rental_uris":{"android":"levelo://app?vid=93c28c51-0d6e-4c0b-a923-c426521f82da","ios":"levelo://app?vid=93c28c51-0d6e-4c0b-a923-c426521f82da"},"vehicle_type_id":"4","last_reported":1727115140,"current_range_meters":17200,"station_id":"ce4bgj92rcd13ifvqbd0","pricing_plan_id":"cebpf4jnsgd1na2vs0mg"},{"bike_id":"904aa86d-522b-4e35-882a-b41071e04255","system_id":"levelo_inurba_marseille","lat":43.27814,"lon":5.40727,"is_reserved":false,"is_disabled":false,"rental_uris":{"android":"levelo://app?vid=904aa86d-522b-4e35-882a-b41071e04255","ios":"levelo://app?vid=904aa86d-522b-4e35-882a-b41071e04255"},"vehicle_type_id":"4","last_reported":1727115140,"current_range_meters":36800,"station_id":"ce4bhnh2rcd13ifvqgtg","pricing_plan_id":"cebpf4jnsgd1na2vs0mg"},{"bike_id":"49e4f352-f1f7-4a8d-b947-c01be90df125","system_id":"levelo_inurba_marseille","lat":43.33024,"lon":5.39039,"is_reserved":false,"is_disabled":false,"rental_uris":{"android":"levelo://app?vid=49e4f352-f1f7-4a8d-b947-c01be90df125","ios":"levelo://app?vid=49e4f352-f1f7-4a8d-b947-c01be90df125"},"vehicle_type_id":"4","last_reported":1727115140,"current_range_meters":13600,"station_id":"ce4bhr92rcd13ifvqhrg","pricing_plan_id":"cebpf4jnsgd1na2vs0mg"},{"bike_id":"cb0e14f6-31a6-41bd-9d0a-3e7975834d5b","system_id":"levelo_inurba_marseille","lat":43.25579,"lon":5.3824,"is_reserved":false,"is_disabled":false,"rental_uris":{"android":"levelo://app?vid=cb0e14f6-31a6-41bd-9d0a-3e7975834d5b","ios":"levelo://app?vid=cb0e14f6-31a6-41bd-9d0a-3e7975834d5b"},"vehicle_type_id":"4","last_reported":1727115140,"current_range_meters":7200,"station_id":"ce4bhih2rcd13ifvqfs0","pricing_plan_id":"cebpf4jnsgd1na2vs0mg"},{"bike_id":"8e733da3-53d6-4275-bb91-a80b3fea749a","system_id":"levelo_inurba_marseille","lat":43.28606,"lon":5.37068,"is_reserved":false,"is_disabled":false,"rental_uris":{"android":"levelo://app?vid=8e733da3-53d6-4275-bb91-a80b3fea749a","ios":"levelo://app?vid=8e733da3-53d6-4275-bb91-a80b3fea749a"},"vehicle_type_id":"4","last_reported":1727115140,"current_range_meters":26800,"station_id":"ce4bht12rcd13ifvqi60","pricing_plan_id":"cebpf4jnsgd1na2vs0mg"},{"bike_id":"ac892f7f-5753-4cf8-83b3-933bebfb2461","system_id":"levelo_inurba_marseille","lat":43.28461,"lon":5.35891,"is_reserved":false,"is_disabled":false,"rental_uris":{"android":"levelo://app?vid=ac892f7f-5753-4cf8-83b3-933bebfb2461","ios":"levelo://app?vid=ac892f7f-5753-4cf8-83b3-933bebfb2461"},"vehicle_type_id":"4","last_reported":1727115140,"current_range_meters":8400,"station_id":"ce4bhah2rcd13ifvqei0","pricing_plan_id":"cebpf4jnsgd1na2vs0mg"},{"bike_id":"6d83808e-715d-4f85-b096-95f727d37ae7","system_id":"levelo_inurba_marseille","lat":43.2846,"lon":5.35884,"is_reserved":false,"is_disabled":false,"rental_uris":{"android":"levelo://app?vid=6d83808e-715d-4f85-b096-95f727d37ae7","ios":"levelo://app?vid=6d83808e-715d-4f85-b096-95f727d37ae7"},"vehicle_type_id":"4","last_reported":1727115140,"current_range_meters":38400,"station_id":"ce4bhah2rcd13ifvqei0","pricing_plan_id":"cebpf4jnsgd1na2vs0mg"},{"bike_id":"a697c666-c7db-4dd0-93e0-cd3cdc25783c","system_id":"levelo_inurba_marseille","lat":43.32655,"lon":5.40999,"is_reserved":false,"is_disabled":false,"rental_uris":{"android":"levelo://app?vid=a697c666-c7db-4dd0-93e0-cd3cdc25783c","ios":"levelo://app?vid=a697c666-c7db-4dd0-93e0-cd3cdc25783c"},"vehicle_type_id":"4","last_reported":1727115140,"current_range_meters":38000,"station_id":"ce4bhpp2rcd13ifvqhgg","pricing_plan_id":"cebpf4jnsgd1na2vs0mg"},{"bike_id":"8cf8eddb-e442-47b0-9c45-6088c76a1438","system_id":"levelo_inurba_marseille","lat":43.3176,"lon":5.39017,"is_reserved":false,"is_disabled":false,"rental_uris":{"android":"levelo://app?vid=8cf8eddb-e442-47b0-9c45-6088c76a1438","ios":"levelo://app?vid=8cf8eddb-e442-47b0-9c45-6088c76a1438"},"vehicle_type_id":"4","last_reported":1727115140,"current_range_meters":39200,"station_id":"ce4bhqp2rcd13ifvqhng","pricing_plan_id":"cebpf4jnsgd1na2vs0mg"},{"bike_id":"878ccee6-1971-4629-849e-8de59a2f691a","system_id":"levelo_inurba_marseille","lat":43.302826,"lon":5.368827,"is_reserved":false,"is_disabled":false,"rental_uris":{"android":"levelo://app?vid=878ccee6-1971-4629-849e-8de59a2f691a","ios":"levelo://app?vid=878ccee6-1971-4629-849e-8de59a2f691a"},"vehicle_type_id":"4","last_reported":1727115140,"current_range_meters":9200,"station_id":"ce4bgqh2rcd13ifvqc5g","pricing_plan_id":"cebpf4jnsgd1na2vs0mg"},{"bike_id":"67f25e71-d398-4629-b141-dc877cec4c4c","system_id":"levelo_inurba_marseille","lat":43.26017,"lon":5.37588,"is_reserved":false,"is_disabled":false,"rental_uris":{"android":"levelo://app?vid=67f25e71-d398-4629-b141-dc877cec4c4c","ios":"levelo://app?vid=67f25e71-d398-4629-b141-dc877cec4c4c"},"vehicle_type_id":"4","last_reported":1727115140,"current_range_meters":8000,"station_id":"ce4bhgh2rcd13ifvqfa0","pricing_plan_id":"cebpf4jnsgd1na2vs0mg"},{"bike_id":"e807791d-a9ee-4b7c-ba9b-ffff482c1395","system_id":"levelo_inurba_marseille","lat":43.30142,"lon":5.38789,"is_reserved":false,"is_disabled":false,"rental_uris":{"android":"levelo://app?vid=e807791d-a9ee-4b7c-ba9b-ffff482c1395","ios":"levelo://app?vid=e807791d-a9ee-4b7c-ba9b-ffff482c1395"},"vehicle_type_id":"4","last_reported":1727115140,"current_range_meters":3200,"station_id":"ce4bghh2rcd13ifvqb60","pricing_plan_id":"cebpf4jnsgd1na2vs0mg"},{"bike_id":"1a108c67-bfd6-4ec1-bbd7-f904000be4ea","system_id":"levelo_inurba_marseille","lat":43.28722,"lon":5.36081,"is_reserved":false,"is_disabled":false,"rental_uris":{"android":"levelo://app?vid=1a108c67-bfd6-4ec1-bbd7-f904000be4ea","ios":"levelo://app?vid=1a108c67-bfd6-4ec1-bbd7-f904000be4ea"},"vehicle_type_id":"4","last_reported":1727115140,"current_range_meters":18800,"station_id":"cki0cbj6b192h4jlfktg","pricing_plan_id":"cebpf4jnsgd1na2vs0mg"},{"bike_id":"8130be1a-3e82-47c6-95d8-218a863937a6","system_id":"levelo_inurba_marseille","lat":43.33023,"lon":5.39041,"is_reserved":false,"is_disabled":false,"rental_uris":{"android":"levelo://app?vid=8130be1a-3e82-47c6-95d8-218a863937a6","ios":"levelo://app?vid=8130be1a-3e82-47c6-95d8-218a863937a6"},"vehicle_type_id":"4","last_reported":1727115140,"current_range_meters":24000,"station_id":"ce4bhr92rcd13ifvqhrg","pricing_plan_id":"cebpf4jnsgd1na2vs0mg"},{"bike_id":"3ebaaaec-15d2-494c-ab9e-13e8bcbe1874","system_id":"levelo_inurba_marseille","lat":43.29276,"lon":5.3686,"is_reserved":false,"is_disabled":false,"rental_uris":{"android":"levelo://app?vid=3ebaaaec-15d2-494c-ab9e-13e8bcbe1874","ios":"levelo://app?vid=3ebaaaec-15d2-494c-ab9e-13e8bcbe1874"},"vehicle_type_id":"4","last_reported":1727115140,"current_range_meters":29600,"station_id":"ce4bhbp2rcd13ifvqesg","pricing_plan_id":"cebpf4jnsgd1na2vs0mg"},{"bike_id":"0acb8fda-8c8b-45d6-a605-e76d40778e66","system_id":"levelo_inurba_marseille","lat":43.28458,"lon":5.35894,"is_reserved":false,"is_disabled":false,"rental_uris":{"android":"levelo://app?vid=0acb8fda-8c8b-45d6-a605-e76d40778e66","ios":"levelo://app?vid=0acb8fda-8c8b-45d6-a605-e76d40778e66"},"vehicle_type_id":"4","last_reported":1727115140,"current_range_meters":36000,"station_id":"ce4bhah2rcd13ifvqei0","pricing_plan_id":"cebpf4jnsgd1na2vs0mg"},{"bike_id":"00551c6b-5202-4d50-aece-f657b0df06b0","system_id":"levelo_inurba_marseille","lat":43.27955,"lon":5.38755,"is_reserved":false,"is_disabled":false,"rental_uris":{"android":"levelo://app?vid=00551c6b-5202-4d50-aece-f657b0df06b0","ios":"levelo://app?vid=00551c6b-5202-4d50-aece-f657b0df06b0"},"vehicle_type_id":"4","last_reported":1727115140,"current_range_meters":37600,"station_id":"ce4bhg12rcd13ifvqf80","pricing_plan_id":"cebpf4jnsgd1na2vs0mg"},{"bike_id":"57be9e58-b1b2-43d9-9f58-d16597d1070b","system_id":"levelo_inurba_marseille","lat":43.28692,"lon":5.37392,"is_reserved":false,"is_disabled":false,"rental_uris":{"android":"levelo://app?vid=57be9e58-b1b2-43d9-9f58-d16597d1070b","ios":"levelo://app?vid=57be9e58-b1b2-43d9-9f58-d16597d1070b"},"vehicle_type_id":"4","last_reported":1727115140,"current_range_meters":36400,"station_id":"ce4bh3p2rcd13ifvqdq0","pricing_plan_id":"cebpf4jnsgd1na2vs0mg"},{"bike_id":"44281ab1-91d3-4124-ba75-0903cfe3ff55","system_id":"levelo_inurba_marseille","lat":43.28926,"lon":5.36404,"is_reserved":false,"is_disabled":false,"rental_uris":{"android":"levelo://app?vid=44281ab1-91d3-4124-ba75-0903cfe3ff55","ios":"levelo://app?vid=44281ab1-91d3-4124-ba75-0903cfe3ff55"},"vehicle_type_id":"4","last_reported":1727115140,"current_range_meters":21600,"station_id":"ce4bhc92rcd13ifvqetg","pricing_plan_id":"cebpf4jnsgd1na2vs0mg"},{"bike_id":"53a54306-f810-4350-aeff-9a319f588d77","system_id":"levelo_inurba_marseille","lat":43.29104,"lon":5.381283,"is_reserved":false,"is_disabled":false,"rental_uris":{"android":"levelo://app?vid=53a54306-f810-4350-aeff-9a319f588d77","ios":"levelo://app?vid=53a54306-f810-4350-aeff-9a319f588d77"},"vehicle_type_id":"4","last_reported":1727115140,"current_range_meters":30400,"station_id":"ce4bh192rcd13ifvqdd0","pricing_plan_id":"cebpf4jnsgd1na2vs0mg"},{"bike_id":"42ab4af4-d339-4d57-8a34-8534ea0f5417","system_id":"levelo_inurba_marseille","lat":43.27948,"lon":5.41056,"is_reserved":false,"is_disabled":false,"rental_uris":{"android":"levelo://app?vid=42ab4af4-d339-4d57-8a34-8534ea0f5417","ios":"levelo://app?vid=42ab4af4-d339-4d57-8a34-8534ea0f5417"},"vehicle_type_id":"4","last_reported":1727115140,"current_range_meters":21600,"station_id":"ce4bhnp2rcd13ifvqh0g","pricing_plan_id":"cebpf4jnsgd1na2vs0mg"},{"bike_id":"357fd0a8-ec87-44b1-bfb0-52482f8275fa","system_id":"levelo_inurba_marseille","lat":43.28075,"lon":5.39665,"is_reserved":false,"is_disabled":false,"rental_uris":{"android":"levelo://app?vid=357fd0a8-ec87-44b1-bfb0-52482f8275fa","ios":"levelo://app?vid=357fd0a8-ec87-44b1-bfb0-52482f8275fa"},"vehicle_type_id":"4","last_reported":1727115140,"current_range_meters":10800,"station_id":"ce4bho12rcd13ifvqh2g","pricing_plan_id":"cebpf4jnsgd1na2vs0mg"},{"bike_id":"a5a019c0-3bb2-4801-a6f6-dc0031724795","system_id":"levelo_inurba_marseille","lat":43.27898,"lon":5.38002,"is_reserved":false,"is_disabled":false,"rental_uris":{"android":"levelo://app?vid=a5a019c0-3bb2-4801-a6f6-dc0031724795","ios":"levelo://app?vid=a5a019c0-3bb2-4801-a6f6-dc0031724795"},"vehicle_type_id":"4","last_reported":1727115140,"current_range_meters":6400,"station_id":"ce4bhf92rcd13ifvqf50","pricing_plan_id":"cebpf4jnsgd1na2vs0mg"},{"bike_id":"695aad5b-d024-4f0e-ae46-a715fe638d1f","system_id":"levelo_inurba_marseille","lat":43.308892,"lon":5.396279,"is_reserved":false,"is_disabled":false,"rental_uris":{"android":"levelo://app?vid=695aad5b-d024-4f0e-ae46-a715fe638d1f","ios":"levelo://app?vid=695aad5b-d024-4f0e-ae46-a715fe638d1f"},"vehicle_type_id":"4","last_reported":1727115140,"current_range_meters":30000,"station_id":"ce4bh012rcd13ifvqcv0","pricing_plan_id":"cebpf4jnsgd1na2vs0mg"},{"bike_id":"36c416da-9158-44af-aa3a-06b103bea7bf","system_id":"levelo_inurba_marseille","lat":43.337444,"lon":5.374475,"is_reserved":false,"is_disabled":false,"rental_uris":{"android":"levelo://app?vid=36c416da-9158-44af-aa3a-06b103bea7bf","ios":"levelo://app?vid=36c416da-9158-44af-aa3a-06b103bea7bf"},"vehicle_type_id":"4","last_reported":1727115140,"current_range_meters":22400,"station_id":"","pricing_plan_id":"cebpf4jnsgd1na2vs0mg"},{"bike_id":"deed136e-be88-4239-860d-ef8122af0ec6","system_id":"levelo_inurba_marseille","lat":43.29709,"lon":5.36592,"is_reserved":false,"is_disabled":false,"rental_uris":{"android":"levelo://app?vid=deed136e-be88-4239-860d-ef8122af0ec6","ios":"levelo://app?vid=deed136e-be88-4239-860d-ef8122af0ec6"},"vehicle_type_id":"4","last_reported":1727115140,"current_range_meters":38000,"station_id":"ce4bgn12rcd13ifvqbt0","pricing_plan_id":"cebpf4jnsgd1na2vs0mg"},{"bike_id":"250aec29-1065-4827-b09d-dbd693ff8f50","system_id":"levelo_inurba_marseille","lat":43.28456,"lon":5.35881,"is_reserved":false,"is_disabled":false,"rental_uris":{"android":"levelo://app?vid=250aec29-1065-4827-b09d-dbd693ff8f50","ios":"levelo://app?vid=250aec29-1065-4827-b09d-dbd693ff8f50"},"vehicle_type_id":"4","last_reported":1727115140,"current_range_meters":38800,"station_id":"ce4bhah2rcd13ifvqei0","pricing_plan_id":"cebpf4jnsgd1na2vs0mg"},{"bike_id":"6746cd29-b568-4948-a71f-59c8ca36e46d","system_id":"levelo_inurba_marseille","lat":43.27171,"lon":5.41001,"is_reserved":false,"is_disabled":false,"rental_uris":{"android":"levelo://app?vid=6746cd29-b568-4948-a71f-59c8ca36e46d","ios":"levelo://app?vid=6746cd29-b568-4948-a71f-59c8ca36e46d"},"vehicle_type_id":"4","last_reported":1727115140,"current_range_meters":24400,"station_id":"ce4bhl12rcd13ifvqgf0","pricing_plan_id":"cebpf4jnsgd1na2vs0mg"},{"bike_id":"149b26ed-a813-4c7b-873e-974f4887237c","system_id":"levelo_inurba_marseille","lat":43.28659,"lon":5.36353,"is_reserved":false,"is_disabled":false,"rental_uris":{"android":"levelo://app?vid=149b26ed-a813-4c7b-873e-974f4887237c","ios":"levelo://app?vid=149b26ed-a813-4c7b-873e-974f4887237c"},"vehicle_type_id":"4","last_reported":1727115140,"current_range_meters":16000,"station_id":"ce4bhah2rcd13ifvqej0","pricing_plan_id":"cebpf4jnsgd1na2vs0mg"},{"bike_id":"d5f5db2f-2c3d-4046-a044-391b3f72b76d","system_id":"levelo_inurba_marseille","lat":43.32355,"lon":5.38897,"is_reserved":false,"is_disabled":false,"rental_uris":{"android":"levelo://app?vid=d5f5db2f-2c3d-4046-a044-391b3f72b76d","ios":"levelo://app?vid=d5f5db2f-2c3d-4046-a044-391b3f72b76d"},"vehicle_type_id":"4","last_reported":1727115140,"current_range_meters":20800,"station_id":"ce4bhqp2rcd13ifvqhog","pricing_plan_id":"cebpf4jnsgd1na2vs0mg"},{"bike_id":"5abf3738-3056-45d0-ad36-b5f63eb6c7bd","system_id":"levelo_inurba_marseille","lat":43.31712,"lon":5.43707,"is_reserved":false,"is_disabled":false,"rental_uris":{"android":"levelo://app?vid=5abf3738-3056-45d0-ad36-b5f63eb6c7bd","ios":"levelo://app?vid=5abf3738-3056-45d0-ad36-b5f63eb6c7bd"},"vehicle_type_id":"4","last_reported":1727115140,"current_range_meters":19600,"station_id":"ce4bhp92rcd13ifvqhcg","pricing_plan_id":"cebpf4jnsgd1na2vs0mg"},{"bike_id":"6e942756-6f8b-4979-89fc-ce9bf3b8c787","system_id":"levelo_inurba_marseille","lat":43.28153,"lon":5.42644,"is_reserved":false,"is_disabled":false,"rental_uris":{"android":"levelo://app?vid=6e942756-6f8b-4979-89fc-ce9bf3b8c787","ios":"levelo://app?vid=6e942756-6f8b-4979-89fc-ce9bf3b8c787"},"vehicle_type_id":"4","last_reported":1727115140,"current_range_meters":9200,"station_id":"ce4bhnh2rcd13ifvqgug","pricing_plan_id":"cebpf4jnsgd1na2vs0mg"},{"bike_id":"84d31d65-3c37-4d01-a853-0f08ffb9d3ba","system_id":"levelo_inurba_marseille","lat":43.28604,"lon":5.37069,"is_reserved":false,"is_disabled":false,"rental_uris":{"android":"levelo://app?vid=84d31d65-3c37-4d01-a853-0f08ffb9d3ba","ios":"levelo://app?vid=84d31d65-3c37-4d01-a853-0f08ffb9d3ba"},"vehicle_type_id":"4","last_reported":1727115140,"current_range_meters":11600,"station_id":"ce4bht12rcd13ifvqi60","pricing_plan_id":"cebpf4jnsgd1na2vs0mg"},{"bike_id":"f7943613-2c65-4b06-b8fb-f34be857a1fc","system_id":"levelo_inurba_marseille","lat":43.3291,"lon":5.40563,"is_reserved":false,"is_disabled":false,"rental_uris":{"android":"levelo://app?vid=f7943613-2c65-4b06-b8fb-f34be857a1fc","ios":"levelo://app?vid=f7943613-2c65-4b06-b8fb-f34be857a1fc"},"vehicle_type_id":"4","last_reported":1727115140,"current_range_meters":15200,"station_id":"","pricing_plan_id":"cebpf4jnsgd1na2vs0mg"},{"bike_id":"262f5b0d-ca25-4c60-a382-cf08fadb4a72","system_id":"levelo_inurba_marseille","lat":43.310982,"lon":5.377834,"is_reserved":false,"is_disabled":false,"rental_uris":{"android":"levelo://app?vid=262f5b0d-ca25-4c60-a382-cf08fadb4a72","ios":"levelo://app?vid=262f5b0d-ca25-4c60-a382-cf08fadb4a72"},"vehicle_type_id":"4","last_reported":1727115140,"current_range_meters":22400,"station_id":"ce4bgh92rcd13ifvqb40","pricing_plan_id":"cebpf4jnsgd1na2vs0mg"},{"bike_id":"b07123d7-1377-4433-ad21-459392a56837","system_id":"levelo_inurba_marseille","lat":43.302188,"lon":5.390164,"is_reserved":false,"is_disabled":false,"rental_uris":{"android":"levelo://app?vid=b07123d7-1377-4433-ad21-459392a56837","ios":"levelo://app?vid=b07123d7-1377-4433-ad21-459392a56837"},"vehicle_type_id":"4","last_reported":1727115140,"current_range_meters":32400,"station_id":"ce4bh192rcd13ifvqdd0","pricing_plan_id":"cebpf4jnsgd1na2vs0mg"},{"bike_id":"97b7a43b-cedc-4ed1-903e-6243f72dea61","system_id":"levelo_inurba_marseille","lat":43.28456,"lon":5.35889,"is_reserved":false,"is_disabled":false,"rental_uris":{"android":"levelo://app?vid=97b7a43b-cedc-4ed1-903e-6243f72dea61","ios":"levelo://app?vid=97b7a43b-cedc-4ed1-903e-6243f72dea61"},"vehicle_type_id":"4","last_reported":1727115140,"current_range_meters":12400,"station_id":"ce4bhah2rcd13ifvqei0","pricing_plan_id":"cebpf4jnsgd1na2vs0mg"},{"bike_id":"f146df7e-e480-4cd7-b4e2-197fd6338b8d","system_id":"levelo_inurba_marseille","lat":43.30424,"lon":5.38893,"is_reserved":false,"is_disabled":false,"rental_uris":{"android":"levelo://app?vid=f146df7e-e480-4cd7-b4e2-197fd6338b8d","ios":"levelo://app?vid=f146df7e-e480-4cd7-b4e2-197fd6338b8d"},"vehicle_type_id":"4","last_reported":1727115140,"current_range_meters":24800,"station_id":"ce4bgk12rcd13ifvqbi0","pricing_plan_id":"cebpf4jnsgd1na2vs0mg"},{"bike_id":"99ad716d-38e4-401a-aa20-6d334c783402","system_id":"levelo_inurba_marseille","lat":43.2919,"lon":5.39321,"is_reserved":false,"is_disabled":false,"rental_uris":{"android":"levelo://app?vid=99ad716d-38e4-401a-aa20-6d334c783402","ios":"levelo://app?vid=99ad716d-38e4-401a-aa20-6d334c783402"},"vehicle_type_id":"4","last_reported":1727115140,"current_range_meters":27200,"station_id":"ce4bh192rcd13ifvqdd0","pricing_plan_id":"cebpf4jnsgd1na2vs0mg"},{"bike_id":"65bbbffa-1c60-4ffa-9043-605fcbd35601","system_id":"levelo_inurba_marseille","lat":43.30327,"lon":5.40431,"is_reserved":false,"is_disabled":false,"rental_uris":{"android":"levelo://app?vid=65bbbffa-1c60-4ffa-9043-605fcbd35601","ios":"levelo://app?vid=65bbbffa-1c60-4ffa-9043-605fcbd35601"},"vehicle_type_id":"4","last_reported":1727115140,"current_range_meters":38000,"station_id":"ce4bh012rcd13ifvqd10","pricing_plan_id":"cebpf4jnsgd1na2vs0mg"},{"bike_id":"9e247c25-6360-485c-bf89-f8460d8e1258","system_id":"levelo_inurba_marseille","lat":43.29183,"lon":5.39315,"is_reserved":false,"is_disabled":false,"rental_uris":{"android":"levelo://app?vid=9e247c25-6360-485c-bf89-f8460d8e1258","ios":"levelo://app?vid=9e247c25-6360-485c-bf89-f8460d8e1258"},"vehicle_type_id":"4","last_reported":1727115140,"current_range_meters":13600,"station_id":"ce4bh192rcd13ifvqdd0","pricing_plan_id":"cebpf4jnsgd1na2vs0mg"},{"bike_id":"4fbd557a-3e62-40ec-9b28-5323f21a3185","system_id":"levelo_inurba_marseille","lat":43.31056,"lon":5.38377,"is_reserved":false,"is_disabled":false,"rental_uris":{"android":"levelo://app?vid=4fbd557a-3e62-40ec-9b28-5323f21a3185","ios":"levelo://app?vid=4fbd557a-3e62-40ec-9b28-5323f21a3185"},"vehicle_type_id":"4","last_reported":1727115140,"current_range_meters":15200,"station_id":"ce4bgv92rcd13ifvqcr0","pricing_plan_id":"cebpf4jnsgd1na2vs0mg"},{"bike_id":"cd047421-4601-47a3-b68f-cf4e2e01ded8","system_id":"levelo_inurba_marseille","lat":43.30431,"lon":5.39755,"is_reserved":false,"is_disabled":false,"rental_uris":{"android":"levelo://app?vid=cd047421-4601-47a3-b68f-cf4e2e01ded8","ios":"levelo://app?vid=cd047421-4601-47a3-b68f-cf4e2e01ded8"},"vehicle_type_id":"4","last_reported":1727115140,"current_range_meters":27200,"station_id":"ce4bh092rcd13ifvqd20","pricing_plan_id":"cebpf4jnsgd1na2vs0mg"},{"bike_id":"80e593fc-7480-466c-a9ef-6d5ddec9f9c5","system_id":"levelo_inurba_marseille","lat":43.30588,"lon":5.37473,"is_reserved":false,"is_disabled":false,"rental_uris":{"android":"levelo://app?vid=80e593fc-7480-466c-a9ef-6d5ddec9f9c5","ios":"levelo://app?vid=80e593fc-7480-466c-a9ef-6d5ddec9f9c5"},"vehicle_type_id":"4","last_reported":1727115140,"current_range_meters":11200,"station_id":"","pricing_plan_id":"cebpf4jnsgd1na2vs0mg"},{"bike_id":"6d69342d-d07a-4b83-a775-4116594aef3a","system_id":"levelo_inurba_marseille","lat":43.26957,"lon":5.38635,"is_reserved":false,"is_disabled":false,"rental_uris":{"android":"levelo://app?vid=6d69342d-d07a-4b83-a775-4116594aef3a","ios":"levelo://app?vid=6d69342d-d07a-4b83-a775-4116594aef3a"},"vehicle_type_id":"4","last_reported":1727115140,"current_range_meters":9600,"station_id":"ce4bhh92rcd13ifvqfh0","pricing_plan_id":"cebpf4jnsgd1na2vs0mg"},{"bike_id":"1d07573b-acb9-4139-b856-2964b45ce32c","system_id":"levelo_inurba_marseille","lat":43.299133,"lon":5.375722,"is_reserved":false,"is_disabled":false,"rental_uris":{"android":"levelo://app?vid=1d07573b-acb9-4139-b856-2964b45ce32c","ios":"levelo://app?vid=1d07573b-acb9-4139-b856-2964b45ce32c"},"vehicle_type_id":"4","last_reported":1727115140,"current_range_meters":3200,"station_id":"ce4bgjh2rcd13ifvqbg0","pricing_plan_id":"cebpf4jnsgd1na2vs0mg"},{"bike_id":"8fd6c000-cbc6-46be-b39a-62e4cd544403","system_id":"levelo_inurba_marseille","lat":43.30425,"lon":5.38898,"is_reserved":false,"is_disabled":false,"rental_uris":{"android":"levelo://app?vid=8fd6c000-cbc6-46be-b39a-62e4cd544403","ios":"levelo://app?vid=8fd6c000-cbc6-46be-b39a-62e4cd544403"},"vehicle_type_id":"4","last_reported":1727115140,"current_range_meters":20800,"station_id":"ce4bgk12rcd13ifvqbi0","pricing_plan_id":"cebpf4jnsgd1na2vs0mg"},{"bike_id":"94f33637-3351-471a-86af-be5f9f81e548","system_id":"levelo_inurba_marseille","lat":43.28963,"lon":5.37853,"is_reserved":false,"is_disabled":false,"rental_uris":{"android":"levelo://app?vid=94f33637-3351-471a-86af-be5f9f81e548","ios":"levelo://app?vid=94f33637-3351-471a-86af-be5f9f81e548"},"vehicle_type_id":"4","last_reported":1727115140,"current_range_meters":9600,"station_id":"ce4bh9p2rcd13ifvqed0","pricing_plan_id":"cebpf4jnsgd1na2vs0mg"},{"bike_id":"089efe7d-e0b7-4f2b-b37b-ee301256611d","system_id":"levelo_inurba_marseille","lat":43.24543,"lon":5.39531,"is_reserved":false,"is_disabled":false,"rental_uris":{"android":"levelo://app?vid=089efe7d-e0b7-4f2b-b37b-ee301256611d","ios":"levelo://app?vid=089efe7d-e0b7-4f2b-b37b-ee301256611d"},"vehicle_type_id":"4","last_reported":1727115140,"current_range_meters":12800,"station_id":"ce4bhlp2rcd13ifvqgjg","pricing_plan_id":"cebpf4jnsgd1na2vs0mg"},{"bike_id":"78e4d399-e087-4562-a815-44c00984c31f","system_id":"levelo_inurba_marseille","lat":43.2846,"lon":5.35888,"is_reserved":false,"is_disabled":false,"rental_uris":{"android":"levelo://app?vid=78e4d399-e087-4562-a815-44c00984c31f","ios":"levelo://app?vid=78e4d399-e087-4562-a815-44c00984c31f"},"vehicle_type_id":"4","last_reported":1727115140,"current_range_meters":18800,"station_id":"ce4bhah2rcd13ifvqei0","pricing_plan_id":"cebpf4jnsgd1na2vs0mg"},{"bike_id":"7372a312-5bea-45b7-8688-b40ea5a41292","system_id":"levelo_inurba_marseille","lat":43.28458,"lon":5.35887,"is_reserved":false,"is_disabled":false,"rental_uris":{"android":"levelo://app?vid=7372a312-5bea-45b7-8688-b40ea5a41292","ios":"levelo://app?vid=7372a312-5bea-45b7-8688-b40ea5a41292"},"vehicle_type_id":"4","last_reported":1727115140,"current_range_meters":38000,"station_id":"ce4bhah2rcd13ifvqei0","pricing_plan_id":"cebpf4jnsgd1na2vs0mg"},{"bike_id":"c0bf08f8-39b8-43bf-8302-ac2a4dd5ad58","system_id":"levelo_inurba_marseille","lat":43.2958,"lon":5.42309,"is_reserved":false,"is_disabled":false,"rental_uris":{"android":"levelo://app?vid=c0bf08f8-39b8-43bf-8302-ac2a4dd5ad58","ios":"levelo://app?vid=c0bf08f8-39b8-43bf-8302-ac2a4dd5ad58"},"vehicle_type_id":"4","last_reported":1727115140,"current_range_meters":26800,"station_id":"ce4bhph2rcd13ifvqhdg","pricing_plan_id":"cebpf4jnsgd1na2vs0mg"},{"bike_id":"0796f5df-2568-492a-a355-d55a614364dd","system_id":"levelo_inurba_marseille","lat":43.295938,"lon":5.367276,"is_reserved":false,"is_disabled":false,"rental_uris":{"android":"levelo://app?vid=0796f5df-2568-492a-a355-d55a614364dd","ios":"levelo://app?vid=0796f5df-2568-492a-a355-d55a614364dd"},"vehicle_type_id":"4","last_reported":1727115140,"current_range_meters":24800,"station_id":"ce4bgph2rcd13ifvqc2g","pricing_plan_id":"cebpf4jnsgd1na2vs0mg"},{"bike_id":"7cfd9d43-6a39-4515-8c9c-8a8c7eba82dd","system_id":"levelo_inurba_marseille","lat":43.3066,"lon":5.40088,"is_reserved":false,"is_disabled":false,"rental_uris":{"android":"levelo://app?vid=7cfd9d43-6a39-4515-8c9c-8a8c7eba82dd","ios":"levelo://app?vid=7cfd9d43-6a39-4515-8c9c-8a8c7eba82dd"},"vehicle_type_id":"4","last_reported":1727115140,"current_range_meters":20400,"station_id":"ce4bh112rcd13ifvqda0","pricing_plan_id":"cebpf4jnsgd1na2vs0mg"},{"bike_id":"07c14650-ae6a-4e16-ab1f-44817d12d49f","system_id":"levelo_inurba_marseille","lat":43.3303,"lon":5.39039,"is_reserved":false,"is_disabled":false,"rental_uris":{"android":"levelo://app?vid=07c14650-ae6a-4e16-ab1f-44817d12d49f","ios":"levelo://app?vid=07c14650-ae6a-4e16-ab1f-44817d12d49f"},"vehicle_type_id":"4","last_reported":1727115140,"current_range_meters":38800,"station_id":"ce4bhr92rcd13ifvqhrg","pricing_plan_id":"cebpf4jnsgd1na2vs0mg"},{"bike_id":"1d28f91a-4200-47de-968c-86261e11268e","system_id":"levelo_inurba_marseille","lat":43.288466,"lon":5.393139,"is_reserved":false,"is_disabled":false,"rental_uris":{"android":"levelo://app?vid=1d28f91a-4200-47de-968c-86261e11268e","ios":"levelo://app?vid=1d28f91a-4200-47de-968c-86261e11268e"},"vehicle_type_id":"4","last_reported":1727115140,"current_range_meters":32000,"station_id":"ce4bh2p2rcd13ifvqdi0","pricing_plan_id":"cebpf4jnsgd1na2vs0mg"},{"bike_id":"905cbc60-a60c-4721-9845-1765bd2211c4","system_id":"levelo_inurba_marseille","lat":43.287,"lon":5.37386,"is_reserved":false,"is_disabled":false,"rental_uris":{"android":"levelo://app?vid=905cbc60-a60c-4721-9845-1765bd2211c4","ios":"levelo://app?vid=905cbc60-a60c-4721-9845-1765bd2211c4"},"vehicle_type_id":"4","last_reported":1727115140,"current_range_meters":20800,"station_id":"ce4bh3p2rcd13ifvqdq0","pricing_plan_id":"cebpf4jnsgd1na2vs0mg"},{"bike_id":"729a7eee-bcf8-4897-b93a-b2ea3ca3b6d1","system_id":"levelo_inurba_marseille","lat":43.23961,"lon":5.36643,"is_reserved":false,"is_disabled":false,"rental_uris":{"android":"levelo://app?vid=729a7eee-bcf8-4897-b93a-b2ea3ca3b6d1","ios":"levelo://app?vid=729a7eee-bcf8-4897-b93a-b2ea3ca3b6d1"},"vehicle_type_id":"4","last_reported":1727115140,"current_range_meters":24800,"station_id":"ce4bhi12rcd13ifvqfp0","pricing_plan_id":"cebpf4jnsgd1na2vs0mg"},{"bike_id":"f1f862c7-13da-4728-800b-c454450378a2","system_id":"levelo_inurba_marseille","lat":43.28846,"lon":5.39322,"is_reserved":false,"is_disabled":false,"rental_uris":{"android":"levelo://app?vid=f1f862c7-13da-4728-800b-c454450378a2","ios":"levelo://app?vid=f1f862c7-13da-4728-800b-c454450378a2"},"vehicle_type_id":"4","last_reported":1727115140,"current_range_meters":9200,"station_id":"ce4bh2p2rcd13ifvqdi0","pricing_plan_id":"cebpf4jnsgd1na2vs0mg"},{"bike_id":"a5368069-7f3c-447a-9263-63b7f5921334","system_id":"levelo_inurba_marseille","lat":43.29571,"lon":5.36737,"is_reserved":false,"is_disabled":false,"rental_uris":{"android":"levelo://app?vid=a5368069-7f3c-447a-9263-63b7f5921334","ios":"levelo://app?vid=a5368069-7f3c-447a-9263-63b7f5921334"},"vehicle_type_id":"4","last_reported":1727115140,"current_range_meters":38800,"station_id":"ce4bgph2rcd13ifvqc2g","pricing_plan_id":"cebpf4jnsgd1na2vs0mg"},{"bike_id":"715c4804-6a86-4398-98ec-b57358573177","system_id":"levelo_inurba_marseille","lat":43.22929,"lon":5.35374,"is_reserved":false,"is_disabled":false,"rental_uris":{"android":"levelo://app?vid=715c4804-6a86-4398-98ec-b57358573177","ios":"levelo://app?vid=715c4804-6a86-4398-98ec-b57358573177"},"vehicle_type_id":"4","last_reported":1727115140,"current_range_meters":34000,"station_id":"cpo3532slgdg3j2ikp40","pricing_plan_id":"cebpf4jnsgd1na2vs0mg"},{"bike_id":"d16d903a-7689-4132-83e0-9849efc079f5","system_id":"levelo_inurba_marseille","lat":43.32331,"lon":5.38595,"is_reserved":false,"is_disabled":false,"rental_uris":{"android":"levelo://app?vid=d16d903a-7689-4132-83e0-9849efc079f5","ios":"levelo://app?vid=d16d903a-7689-4132-83e0-9849efc079f5"},"vehicle_type_id":"4","last_reported":1727115140,"current_range_meters":35600,"station_id":"","pricing_plan_id":"cebpf4jnsgd1na2vs0mg"},{"bike_id":"7051325c-48dc-4f9b-8f74-033e9a95964b","system_id":"levelo_inurba_marseille","lat":43.30637,"lon":5.40096,"is_reserved":false,"is_disabled":false,"rental_uris":{"android":"levelo://app?vid=7051325c-48dc-4f9b-8f74-033e9a95964b","ios":"levelo://app?vid=7051325c-48dc-4f9b-8f74-033e9a95964b"},"vehicle_type_id":"4","last_reported":1727115140,"current_range_meters":36800,"station_id":"ce4bh112rcd13ifvqda0","pricing_plan_id":"cebpf4jnsgd1na2vs0mg"},{"bike_id":"ba2542eb-4a30-47aa-b57a-68ac954d789a","system_id":"levelo_inurba_marseille","lat":43.23185,"lon":5.3556,"is_reserved":false,"is_disabled":false,"rental_uris":{"android":"levelo://app?vid=ba2542eb-4a30-47aa-b57a-68ac954d789a","ios":"levelo://app?vid=ba2542eb-4a30-47aa-b57a-68ac954d789a"},"vehicle_type_id":"4","last_reported":1727115140,"current_range_meters":17200,"station_id":"ce4bhu92rcd13ifvqi70","pricing_plan_id":"cebpf4jnsgd1na2vs0mg"},{"bike_id":"d99c0a65-4a98-4d66-bbb7-1771c49ba06d","system_id":"levelo_inurba_marseille","lat":43.30307,"lon":5.3691,"is_reserved":false,"is_disabled":false,"rental_uris":{"android":"levelo://app?vid=d99c0a65-4a98-4d66-bbb7-1771c49ba06d","ios":"levelo://app?vid=d99c0a65-4a98-4d66-bbb7-1771c49ba06d"},"vehicle_type_id":"4","last_reported":1727115140,"current_range_meters":30400,"station_id":"ce4bgqh2rcd13ifvqc5g","pricing_plan_id":"cebpf4jnsgd1na2vs0mg"},{"bike_id":"d15be11b-80aa-40b5-b9e6-bd78bfe3be11","system_id":"levelo_inurba_marseille","lat":43.27991,"lon":5.41666,"is_reserved":false,"is_disabled":false,"rental_uris":{"android":"levelo://app?vid=d15be11b-80aa-40b5-b9e6-bd78bfe3be11","ios":"levelo://app?vid=d15be11b-80aa-40b5-b9e6-bd78bfe3be11"},"vehicle_type_id":"4","last_reported":1727115140,"current_range_meters":14000,"station_id":"ce4bho12rcd13ifvqh1g","pricing_plan_id":"cebpf4jnsgd1na2vs0mg"},{"bike_id":"45de5b7f-8d72-4503-9989-53d7c8b64dad","system_id":"levelo_inurba_marseille","lat":43.30416,"lon":5.4129,"is_reserved":false,"is_disabled":false,"rental_uris":{"android":"levelo://app?vid=45de5b7f-8d72-4503-9989-53d7c8b64dad","ios":"levelo://app?vid=45de5b7f-8d72-4503-9989-53d7c8b64dad"},"vehicle_type_id":"4","last_reported":1727115140,"current_range_meters":10800,"station_id":"ce4bhop2rcd13ifvqh8g","pricing_plan_id":"cebpf4jnsgd1na2vs0mg"},{"bike_id":"de7a9364-01a3-4992-abd0-885eede3f774","system_id":"levelo_inurba_marseille","lat":43.33016,"lon":5.39041,"is_reserved":false,"is_disabled":false,"rental_uris":{"android":"levelo://app?vid=de7a9364-01a3-4992-abd0-885eede3f774","ios":"levelo://app?vid=de7a9364-01a3-4992-abd0-885eede3f774"},"vehicle_type_id":"4","last_reported":1727115140,"current_range_meters":39200,"station_id":"ce4bhr92rcd13ifvqhrg","pricing_plan_id":"cebpf4jnsgd1na2vs0mg"},{"bike_id":"9b9a57cd-4f10-4558-b8ce-3146007217bf","system_id":"levelo_inurba_marseille","lat":43.28606,"lon":5.37067,"is_reserved":false,"is_disabled":false,"rental_uris":{"android":"levelo://app?vid=9b9a57cd-4f10-4558-b8ce-3146007217bf","ios":"levelo://app?vid=9b9a57cd-4f10-4558-b8ce-3146007217bf"},"vehicle_type_id":"4","last_reported":1727115140,"current_range_meters":28800,"station_id":"ce4bht12rcd13ifvqi60","pricing_plan_id":"cebpf4jnsgd1na2vs0mg"},{"bike_id":"bd38b349-8d6b-4efe-a0d8-a4f47fe41270","system_id":"levelo_inurba_marseille","lat":43.29278,"lon":5.369583,"is_reserved":false,"is_disabled":false,"rental_uris":{"android":"levelo://app?vid=bd38b349-8d6b-4efe-a0d8-a4f47fe41270","ios":"levelo://app?vid=bd38b349-8d6b-4efe-a0d8-a4f47fe41270"},"vehicle_type_id":"4","last_reported":1727115140,"current_range_meters":10800,"station_id":"ce4bhbp2rcd13ifvqesg","pricing_plan_id":"cebpf4jnsgd1na2vs0mg"},{"bike_id":"4ae4c049-b98e-4c67-b263-89b3cec30f11","system_id":"levelo_inurba_marseille","lat":43.28666,"lon":5.38682,"is_reserved":false,"is_disabled":false,"rental_uris":{"android":"levelo://app?vid=4ae4c049-b98e-4c67-b263-89b3cec30f11","ios":"levelo://app?vid=4ae4c049-b98e-4c67-b263-89b3cec30f11"},"vehicle_type_id":"4","last_reported":1727115140,"current_range_meters":34000,"station_id":"ce4bh492rcd13ifvqdug","pricing_plan_id":"cebpf4jnsgd1na2vs0mg"},{"bike_id":"145cbcd5-fc67-4b82-b57e-a55874aa762d","system_id":"levelo_inurba_marseille","lat":43.23177,"lon":5.39986,"is_reserved":false,"is_disabled":false,"rental_uris":{"android":"levelo://app?vid=145cbcd5-fc67-4b82-b57e-a55874aa762d","ios":"levelo://app?vid=145cbcd5-fc67-4b82-b57e-a55874aa762d"},"vehicle_type_id":"4","last_reported":1727115140,"current_range_meters":16800,"station_id":"ce4bhn12rcd13ifvqgqg","pricing_plan_id":"cebpf4jnsgd1na2vs0mg"},{"bike_id":"1ec9d979-31c8-444b-aabe-92b02e1cfc1d","system_id":"levelo_inurba_marseille","lat":43.34147,"lon":5.40907,"is_reserved":false,"is_disabled":false,"rental_uris":{"android":"levelo://app?vid=1ec9d979-31c8-444b-aabe-92b02e1cfc1d","ios":"levelo://app?vid=1ec9d979-31c8-444b-aabe-92b02e1cfc1d"},"vehicle_type_id":"4","last_reported":1727115140,"current_range_meters":39200,"station_id":"ce4bhqh2rcd13ifvqhlg","pricing_plan_id":"cebpf4jnsgd1na2vs0mg"},{"bike_id":"e0597918-9bd2-40db-a657-fb2a1e2de433","system_id":"levelo_inurba_marseille","lat":43.29074,"lon":5.37167,"is_reserved":false,"is_disabled":false,"rental_uris":{"android":"levelo://app?vid=e0597918-9bd2-40db-a657-fb2a1e2de433","ios":"levelo://app?vid=e0597918-9bd2-40db-a657-fb2a1e2de433"},"vehicle_type_id":"4","last_reported":1727115140,"current_range_meters":38400,"station_id":"ce4bh5p2rcd13ifvqe4g","pricing_plan_id":"cebpf4jnsgd1na2vs0mg"},{"bike_id":"a9976275-fafa-4f69-8675-413d7629718a","system_id":"levelo_inurba_marseille","lat":43.28569,"lon":5.39504,"is_reserved":false,"is_disabled":false,"rental_uris":{"android":"levelo://app?vid=a9976275-fafa-4f69-8675-413d7629718a","ios":"levelo://app?vid=a9976275-fafa-4f69-8675-413d7629718a"},"vehicle_type_id":"4","last_reported":1727115140,"current_range_meters":16000,"station_id":"ce4bh292rcd13ifvqdg0","pricing_plan_id":"cebpf4jnsgd1na2vs0mg"},{"bike_id":"53207b2f-d928-4a8a-8fc0-f82e0c9554c5","system_id":"levelo_inurba_marseille","lat":43.29228,"lon":5.36061,"is_reserved":false,"is_disabled":false,"rental_uris":{"android":"levelo://app?vid=53207b2f-d928-4a8a-8fc0-f82e0c9554c5","ios":"levelo://app?vid=53207b2f-d928-4a8a-8fc0-f82e0c9554c5"},"vehicle_type_id":"4","last_reported":1727115140,"current_range_meters":2800,"station_id":"ce4bhbh2rcd13ifvqeqg","pricing_plan_id":"cebpf4jnsgd1na2vs0mg"},{"bike_id":"719b7287-d204-42fa-a040-eb4fc136bdb6","system_id":"levelo_inurba_marseille","lat":43.28611,"lon":5.37065,"is_reserved":false,"is_disabled":false,"rental_uris":{"android":"levelo://app?vid=719b7287-d204-42fa-a040-eb4fc136bdb6","ios":"levelo://app?vid=719b7287-d204-42fa-a040-eb4fc136bdb6"},"vehicle_type_id":"4","last_reported":1727115140,"current_range_meters":10000,"station_id":"ce4bht12rcd13ifvqi60","pricing_plan_id":"cebpf4jnsgd1na2vs0mg"},{"bike_id":"f00b0806-8e48-4770-859c-96cf9cfb2060","system_id":"levelo_inurba_marseille","lat":43.29805,"lon":5.4041,"is_reserved":false,"is_disabled":false,"rental_uris":{"android":"levelo://app?vid=f00b0806-8e48-4770-859c-96cf9cfb2060","ios":"levelo://app?vid=f00b0806-8e48-4770-859c-96cf9cfb2060"},"vehicle_type_id":"4","last_reported":1727115140,"current_range_meters":38400,"station_id":"ce4bh112rcd13ifvqd90","pricing_plan_id":"cebpf4jnsgd1na2vs0mg"},{"bike_id":"92c5ac66-d653-4811-92f3-9067eb8ce85a","system_id":"levelo_inurba_marseille","lat":43.29188,"lon":5.35805,"is_reserved":false,"is_disabled":false,"rental_uris":{"android":"levelo://app?vid=92c5ac66-d653-4811-92f3-9067eb8ce85a","ios":"levelo://app?vid=92c5ac66-d653-4811-92f3-9067eb8ce85a"},"vehicle_type_id":"4","last_reported":1727115140,"current_range_meters":4800,"station_id":"ce4bhb12rcd13ifvqel0","pricing_plan_id":"cebpf4jnsgd1na2vs0mg"},{"bike_id":"f0cce526-e2de-4da6-b09d-68979bda1c97","system_id":"levelo_inurba_marseille","lat":43.28715,"lon":5.37398,"is_reserved":false,"is_disabled":false,"rental_uris":{"android":"levelo://app?vid=f0cce526-e2de-4da6-b09d-68979bda1c97","ios":"levelo://app?vid=f0cce526-e2de-4da6-b09d-68979bda1c97"},"vehicle_type_id":"4","last_reported":1727115140,"current_range_meters":10000,"station_id":"ce4bh3p2rcd13ifvqdq0","pricing_plan_id":"cebpf4jnsgd1na2vs0mg"},{"bike_id":"14f80198-bf5f-4abf-8092-e1ef0f9e20d0","system_id":"levelo_inurba_marseille","lat":43.3107,"lon":5.38353,"is_reserved":false,"is_disabled":false,"rental_uris":{"android":"levelo://app?vid=14f80198-bf5f-4abf-8092-e1ef0f9e20d0","ios":"levelo://app?vid=14f80198-bf5f-4abf-8092-e1ef0f9e20d0"},"vehicle_type_id":"4","last_reported":1727115140,"current_range_meters":6000,"station_id":"ce4bgv92rcd13ifvqcr0","pricing_plan_id":"cebpf4jnsgd1na2vs0mg"},{"bike_id":"f7949831-abac-4dd2-b535-535ebaaee764","system_id":"levelo_inurba_marseille","lat":43.25583,"lon":5.3824,"is_reserved":false,"is_disabled":false,"rental_uris":{"android":"levelo://app?vid=f7949831-abac-4dd2-b535-535ebaaee764","ios":"levelo://app?vid=f7949831-abac-4dd2-b535-535ebaaee764"},"vehicle_type_id":"4","last_reported":1727115140,"current_range_meters":38800,"station_id":"ce4bhih2rcd13ifvqfs0","pricing_plan_id":"cebpf4jnsgd1na2vs0mg"},{"bike_id":"3cda9349-2e12-4344-aa0d-37eb925476b4","system_id":"levelo_inurba_marseille","lat":43.30413,"lon":5.41289,"is_reserved":false,"is_disabled":false,"rental_uris":{"android":"levelo://app?vid=3cda9349-2e12-4344-aa0d-37eb925476b4","ios":"levelo://app?vid=3cda9349-2e12-4344-aa0d-37eb925476b4"},"vehicle_type_id":"4","last_reported":1727115140,"current_range_meters":20400,"station_id":"ce4bhop2rcd13ifvqh8g","pricing_plan_id":"cebpf4jnsgd1na2vs0mg"},{"bike_id":"c32c9f99-2785-472b-a64b-1235b0b8e4b2","system_id":"levelo_inurba_marseille","lat":43.23961,"lon":5.36638,"is_reserved":false,"is_disabled":false,"rental_uris":{"android":"levelo://app?vid=c32c9f99-2785-472b-a64b-1235b0b8e4b2","ios":"levelo://app?vid=c32c9f99-2785-472b-a64b-1235b0b8e4b2"},"vehicle_type_id":"4","last_reported":1727115140,"current_range_meters":19600,"station_id":"ce4bhi12rcd13ifvqfp0","pricing_plan_id":"cebpf4jnsgd1na2vs0mg"},{"bike_id":"97646fb2-8d7a-4c17-bffe-6ef50572f65d","system_id":"levelo_inurba_marseille","lat":43.287044,"lon":5.373823,"is_reserved":false,"is_disabled":false,"rental_uris":{"android":"levelo://app?vid=97646fb2-8d7a-4c17-bffe-6ef50572f65d","ios":"levelo://app?vid=97646fb2-8d7a-4c17-bffe-6ef50572f65d"},"vehicle_type_id":"4","last_reported":1727115140,"current_range_meters":5600,"station_id":"ce4bh3p2rcd13ifvqdq0","pricing_plan_id":"cebpf4jnsgd1na2vs0mg"},{"bike_id":"1c4d6cf1-bcf9-4b9f-85ad-ba9cba95c6c2","system_id":"levelo_inurba_marseille","lat":43.305416,"lon":5.365426,"is_reserved":false,"is_disabled":false,"rental_uris":{"android":"levelo://app?vid=1c4d6cf1-bcf9-4b9f-85ad-ba9cba95c6c2","ios":"levelo://app?vid=1c4d6cf1-bcf9-4b9f-85ad-ba9cba95c6c2"},"vehicle_type_id":"4","last_reported":1727115140,"current_range_meters":17200,"station_id":"ce4bgs12rcd13ifvqcag","pricing_plan_id":"cebpf4jnsgd1na2vs0mg"},{"bike_id":"f534fb4b-7ffd-48ac-9322-20f46899db11","system_id":"levelo_inurba_marseille","lat":43.33741,"lon":5.39191,"is_reserved":false,"is_disabled":false,"rental_uris":{"android":"levelo://app?vid=f534fb4b-7ffd-48ac-9322-20f46899db11","ios":"levelo://app?vid=f534fb4b-7ffd-48ac-9322-20f46899db11"},"vehicle_type_id":"4","last_reported":1727115140,"current_range_meters":38800,"station_id":"ce4bhr92rcd13ifvqhsg","pricing_plan_id":"cebpf4jnsgd1na2vs0mg"},{"bike_id":"c78abbfc-4f5d-4d1c-a157-3a0820efc7e9","system_id":"levelo_inurba_marseille","lat":43.30252,"lon":5.40071,"is_reserved":false,"is_disabled":false,"rental_uris":{"android":"levelo://app?vid=c78abbfc-4f5d-4d1c-a157-3a0820efc7e9","ios":"levelo://app?vid=c78abbfc-4f5d-4d1c-a157-3a0820efc7e9"},"vehicle_type_id":"4","last_reported":1727115140,"current_range_meters":38800,"station_id":"ce4bgvh2rcd13ifvqcs0","pricing_plan_id":"cebpf4jnsgd1na2vs0mg"},{"bike_id":"8356c8be-3833-41c6-952d-2c34dc1155c2","system_id":"levelo_inurba_marseille","lat":43.291992,"lon":5.375944,"is_reserved":false,"is_disabled":false,"rental_uris":{"android":"levelo://app?vid=8356c8be-3833-41c6-952d-2c34dc1155c2","ios":"levelo://app?vid=8356c8be-3833-41c6-952d-2c34dc1155c2"},"vehicle_type_id":"4","last_reported":1727115140,"current_range_meters":7200,"station_id":"ce4bgi12rcd13ifvqb70","pricing_plan_id":"cebpf4jnsgd1na2vs0mg"},{"bike_id":"882e6ed1-e6d5-4c42-bb25-46ec58548160","system_id":"levelo_inurba_marseille","lat":43.29022,"lon":5.38641,"is_reserved":false,"is_disabled":false,"rental_uris":{"android":"levelo://app?vid=882e6ed1-e6d5-4c42-bb25-46ec58548160","ios":"levelo://app?vid=882e6ed1-e6d5-4c42-bb25-46ec58548160"},"vehicle_type_id":"4","last_reported":1727115140,"current_range_meters":38000,"station_id":"ce4bh4p2rcd13ifvqe0g","pricing_plan_id":"cebpf4jnsgd1na2vs0mg"},{"bike_id":"7b179f80-76fe-4c11-8d8a-08f1d56949e0","system_id":"levelo_inurba_marseille","lat":43.29792,"lon":5.40403,"is_reserved":false,"is_disabled":false,"rental_uris":{"android":"levelo://app?vid=7b179f80-76fe-4c11-8d8a-08f1d56949e0","ios":"levelo://app?vid=7b179f80-76fe-4c11-8d8a-08f1d56949e0"},"vehicle_type_id":"4","last_reported":1727115140,"current_range_meters":4400,"station_id":"ce4bh112rcd13ifvqd90","pricing_plan_id":"cebpf4jnsgd1na2vs0mg"},{"bike_id":"3df7fc88-e38d-404b-a498-94273f5f7062","system_id":"levelo_inurba_marseille","lat":43.31125,"lon":5.37775,"is_reserved":false,"is_disabled":false,"rental_uris":{"android":"levelo://app?vid=3df7fc88-e38d-404b-a498-94273f5f7062","ios":"levelo://app?vid=3df7fc88-e38d-404b-a498-94273f5f7062"},"vehicle_type_id":"4","last_reported":1727115140,"current_range_meters":6800,"station_id":"ce4bgt92rcd13ifvqcg0","pricing_plan_id":"cebpf4jnsgd1na2vs0mg"},{"bike_id":"454a8827-f3bd-4ebf-8b50-bd0f8d5e8c40","system_id":"levelo_inurba_marseille","lat":43.2815,"lon":5.42645,"is_reserved":false,"is_disabled":false,"rental_uris":{"android":"levelo://app?vid=454a8827-f3bd-4ebf-8b50-bd0f8d5e8c40","ios":"levelo://app?vid=454a8827-f3bd-4ebf-8b50-bd0f8d5e8c40"},"vehicle_type_id":"4","last_reported":1727115140,"current_range_meters":30400,"station_id":"ce4bhnh2rcd13ifvqgug","pricing_plan_id":"cebpf4jnsgd1na2vs0mg"},{"bike_id":"d17d989e-8157-4df0-93de-c58a24861934","system_id":"levelo_inurba_marseille","lat":43.30323,"lon":5.40443,"is_reserved":false,"is_disabled":false,"rental_uris":{"android":"levelo://app?vid=d17d989e-8157-4df0-93de-c58a24861934","ios":"levelo://app?vid=d17d989e-8157-4df0-93de-c58a24861934"},"vehicle_type_id":"4","last_reported":1727115140,"current_range_meters":19200,"station_id":"ce4bh012rcd13ifvqd10","pricing_plan_id":"cebpf4jnsgd1na2vs0mg"},{"bike_id":"c959ca8d-ba53-4b69-b028-aa3156c88619","system_id":"levelo_inurba_marseille","lat":43.28384,"lon":5.38626,"is_reserved":false,"is_disabled":false,"rental_uris":{"android":"levelo://app?vid=c959ca8d-ba53-4b69-b028-aa3156c88619","ios":"levelo://app?vid=c959ca8d-ba53-4b69-b028-aa3156c88619"},"vehicle_type_id":"4","last_reported":1727115140,"current_range_meters":35200,"station_id":"","pricing_plan_id":"cebpf4jnsgd1na2vs0mg"},{"bike_id":"750cea39-cb7d-4917-8b95-94b2a5063fbe","system_id":"levelo_inurba_marseille","lat":43.31162,"lon":5.38727,"is_reserved":false,"is_disabled":false,"rental_uris":{"android":"levelo://app?vid=750cea39-cb7d-4917-8b95-94b2a5063fbe","ios":"levelo://app?vid=750cea39-cb7d-4917-8b95-94b2a5063fbe"},"vehicle_type_id":"4","last_reported":1727115140,"current_range_meters":23200,"station_id":"ce4bgv12rcd13ifvqcp0","pricing_plan_id":"cebpf4jnsgd1na2vs0mg"},{"bike_id":"aa109f4f-5441-4fb1-80c4-d0fc2d1cc889","system_id":"levelo_inurba_marseille","lat":43.28938,"lon":5.36389,"is_reserved":false,"is_disabled":false,"rental_uris":{"android":"levelo://app?vid=aa109f4f-5441-4fb1-80c4-d0fc2d1cc889","ios":"levelo://app?vid=aa109f4f-5441-4fb1-80c4-d0fc2d1cc889"},"vehicle_type_id":"4","last_reported":1727115140,"current_range_meters":39200,"station_id":"ce4bhc92rcd13ifvqetg","pricing_plan_id":"cebpf4jnsgd1na2vs0mg"},{"bike_id":"cd67fff3-8837-4a34-8ee6-a5ba81758417","system_id":"levelo_inurba_marseille","lat":43.292631,"lon":5.384368,"is_reserved":false,"is_disabled":false,"rental_uris":{"android":"levelo://app?vid=cd67fff3-8837-4a34-8ee6-a5ba81758417","ios":"levelo://app?vid=cd67fff3-8837-4a34-8ee6-a5ba81758417"},"vehicle_type_id":"4","last_reported":1727115140,"current_range_meters":9200,"station_id":"ce4bh692rcd13ifvqea0","pricing_plan_id":"cebpf4jnsgd1na2vs0mg"},{"bike_id":"a2c8ed06-94c0-4417-862a-16507ef42481","system_id":"levelo_inurba_marseille","lat":43.314484,"lon":5.3882,"is_reserved":false,"is_disabled":false,"rental_uris":{"android":"levelo://app?vid=a2c8ed06-94c0-4417-862a-16507ef42481","ios":"levelo://app?vid=a2c8ed06-94c0-4417-862a-16507ef42481"},"vehicle_type_id":"4","last_reported":1727115140,"current_range_meters":31200,"station_id":"ce4bhr92rcd13ifvqhsg","pricing_plan_id":"cebpf4jnsgd1na2vs0mg"},{"bike_id":"71e3eaf6-911a-4212-97d8-c6c24063f9ba","system_id":"levelo_inurba_marseille","lat":43.25086,"lon":5.39525,"is_reserved":false,"is_disabled":false,"rental_uris":{"android":"levelo://app?vid=71e3eaf6-911a-4212-97d8-c6c24063f9ba","ios":"levelo://app?vid=71e3eaf6-911a-4212-97d8-c6c24063f9ba"},"vehicle_type_id":"4","last_reported":1727115140,"current_range_meters":14000,"station_id":"ce4bhm12rcd13ifvqgkg","pricing_plan_id":"cebpf4jnsgd1na2vs0mg"},{"bike_id":"fa690805-233a-4a70-a9f3-33f1b67cdb1f","system_id":"levelo_inurba_marseille","lat":43.32291,"lon":5.3827,"is_reserved":false,"is_disabled":false,"rental_uris":{"android":"levelo://app?vid=fa690805-233a-4a70-a9f3-33f1b67cdb1f","ios":"levelo://app?vid=fa690805-233a-4a70-a9f3-33f1b67cdb1f"},"vehicle_type_id":"4","last_reported":1727115140,"current_range_meters":36800,"station_id":"ce4bhr12rcd13ifvqhqg","pricing_plan_id":"cebpf4jnsgd1na2vs0mg"},{"bike_id":"ccf13d8f-050a-48fb-9a49-fbfd64c70aa5","system_id":"levelo_inurba_marseille","lat":43.277588,"lon":5.406774,"is_reserved":false,"is_disabled":false,"rental_uris":{"android":"levelo://app?vid=ccf13d8f-050a-48fb-9a49-fbfd64c70aa5","ios":"levelo://app?vid=ccf13d8f-050a-48fb-9a49-fbfd64c70aa5"},"vehicle_type_id":"4","last_reported":1727115140,"current_range_meters":20400,"station_id":"ce4bhnh2rcd13ifvqgtg","pricing_plan_id":"cebpf4jnsgd1na2vs0mg"},{"bike_id":"d52240e4-6ec3-4ef7-af95-d844cd9b1f63","system_id":"levelo_inurba_marseille","lat":43.27422,"lon":5.39423,"is_reserved":false,"is_disabled":false,"rental_uris":{"android":"levelo://app?vid=d52240e4-6ec3-4ef7-af95-d844cd9b1f63","ios":"levelo://app?vid=d52240e4-6ec3-4ef7-af95-d844cd9b1f63"},"vehicle_type_id":"4","last_reported":1727115140,"current_range_meters":8400,"station_id":"ce4bhdp2rcd13ifvqf20","pricing_plan_id":"cebpf4jnsgd1na2vs0mg"},{"bike_id":"282ba42d-f489-4888-914e-9756f4e46c85","system_id":"levelo_inurba_marseille","lat":43.32474,"lon":5.36568,"is_reserved":false,"is_disabled":false,"rental_uris":{"android":"levelo://app?vid=282ba42d-f489-4888-914e-9756f4e46c85","ios":"levelo://app?vid=282ba42d-f489-4888-914e-9756f4e46c85"},"vehicle_type_id":"4","last_reported":1727115140,"current_range_meters":15200,"station_id":"ce4bhs12rcd13ifvqhvg","pricing_plan_id":"cebpf4jnsgd1na2vs0mg"},{"bike_id":"31184b5d-3cf1-4ce0-9d27-e2331f3bdbb3","system_id":"levelo_inurba_marseille","lat":43.28922,"lon":5.38419,"is_reserved":false,"is_disabled":false,"rental_uris":{"android":"levelo://app?vid=31184b5d-3cf1-4ce0-9d27-e2331f3bdbb3","ios":"levelo://app?vid=31184b5d-3cf1-4ce0-9d27-e2331f3bdbb3"},"vehicle_type_id":"4","last_reported":1727115140,"current_range_meters":6000,"station_id":"ce4bh612rcd13ifvqe6g","pricing_plan_id":"cebpf4jnsgd1na2vs0mg"},{"bike_id":"7eacd0ae-7015-4504-8187-36e3b5fe6fb0","system_id":"levelo_inurba_marseille","lat":43.27069,"lon":5.42281,"is_reserved":false,"is_disabled":false,"rental_uris":{"android":"levelo://app?vid=7eacd0ae-7015-4504-8187-36e3b5fe6fb0","ios":"levelo://app?vid=7eacd0ae-7015-4504-8187-36e3b5fe6fb0"},"vehicle_type_id":"4","last_reported":1727115140,"current_range_meters":27600,"station_id":"ce4bhk92rcd13ifvqgb0","pricing_plan_id":"cebpf4jnsgd1na2vs0mg"},{"bike_id":"d8f3d08d-abdd-4db9-ad78-6e7667781180","system_id":"levelo_inurba_marseille","lat":43.30253,"lon":5.40067,"is_reserved":false,"is_disabled":false,"rental_uris":{"android":"levelo://app?vid=d8f3d08d-abdd-4db9-ad78-6e7667781180","ios":"levelo://app?vid=d8f3d08d-abdd-4db9-ad78-6e7667781180"},"vehicle_type_id":"4","last_reported":1727115140,"current_range_meters":16800,"station_id":"ce4bgvh2rcd13ifvqcs0","pricing_plan_id":"cebpf4jnsgd1na2vs0mg"},{"bike_id":"41bf5e15-2731-4457-b138-f68125bb9235","system_id":"levelo_inurba_marseille","lat":43.28704,"lon":5.39999,"is_reserved":false,"is_disabled":false,"rental_uris":{"android":"levelo://app?vid=41bf5e15-2731-4457-b138-f68125bb9235","ios":"levelo://app?vid=41bf5e15-2731-4457-b138-f68125bb9235"},"vehicle_type_id":"4","last_reported":1727115140,"current_range_meters":6800,"station_id":"ce4bho92rcd13ifvqh3g","pricing_plan_id":"cebpf4jnsgd1na2vs0mg"},{"bike_id":"e86219e1-6617-41ef-aa78-0f86a56ddb20","system_id":"levelo_inurba_marseille","lat":43.29001,"lon":5.35624,"is_reserved":false,"is_disabled":false,"rental_uris":{"android":"levelo://app?vid=e86219e1-6617-41ef-aa78-0f86a56ddb20","ios":"levelo://app?vid=e86219e1-6617-41ef-aa78-0f86a56ddb20"},"vehicle_type_id":"4","last_reported":1727115140,"current_range_meters":38800,"station_id":"ce4bhb92rcd13ifvqen0","pricing_plan_id":"cebpf4jnsgd1na2vs0mg"},{"bike_id":"de2af451-252a-4b04-8317-499dc048c648","system_id":"levelo_inurba_marseille","lat":43.267916,"lon":5.411463,"is_reserved":false,"is_disabled":false,"rental_uris":{"android":"levelo://app?vid=de2af451-252a-4b04-8317-499dc048c648","ios":"levelo://app?vid=de2af451-252a-4b04-8317-499dc048c648"},"vehicle_type_id":"4","last_reported":1727115140,"current_range_meters":25600,"station_id":"ce4bhk92rcd13ifvqgb0","pricing_plan_id":"cebpf4jnsgd1na2vs0mg"},{"bike_id":"40ec77eb-6257-4910-b338-910ef8290bad","system_id":"levelo_inurba_marseille","lat":43.28101,"lon":5.40646,"is_reserved":false,"is_disabled":false,"rental_uris":{"android":"levelo://app?vid=40ec77eb-6257-4910-b338-910ef8290bad","ios":"levelo://app?vid=40ec77eb-6257-4910-b338-910ef8290bad"},"vehicle_type_id":"4","last_reported":1727115140,"current_range_meters":8800,"station_id":"","pricing_plan_id":"cebpf4jnsgd1na2vs0mg"},{"bike_id":"77d9d72f-c5af-45ab-a35f-af14d396db5c","system_id":"levelo_inurba_marseille","lat":43.33013,"lon":5.39057,"is_reserved":false,"is_disabled":false,"rental_uris":{"android":"levelo://app?vid=77d9d72f-c5af-45ab-a35f-af14d396db5c","ios":"levelo://app?vid=77d9d72f-c5af-45ab-a35f-af14d396db5c"},"vehicle_type_id":"4","last_reported":1727115140,"current_range_meters":39200,"station_id":"ce4bhr92rcd13ifvqhrg","pricing_plan_id":"cebpf4jnsgd1na2vs0mg"},{"bike_id":"89bec1e4-12c8-492a-9403-af5e85ab73fb","system_id":"levelo_inurba_marseille","lat":43.30548,"lon":5.36709,"is_reserved":false,"is_disabled":false,"rental_uris":{"android":"levelo://app?vid=89bec1e4-12c8-492a-9403-af5e85ab73fb","ios":"levelo://app?vid=89bec1e4-12c8-492a-9403-af5e85ab73fb"},"vehicle_type_id":"4","last_reported":1727115140,"current_range_meters":21600,"station_id":"ce4bgrp2rcd13ifvqc9g","pricing_plan_id":"cebpf4jnsgd1na2vs0mg"},{"bike_id":"b0f4d08d-9574-447c-9f76-6a11e8a82ce4","system_id":"levelo_inurba_marseille","lat":43.31334,"lon":5.39696,"is_reserved":false,"is_disabled":false,"rental_uris":{"android":"levelo://app?vid=b0f4d08d-9574-447c-9f76-6a11e8a82ce4","ios":"levelo://app?vid=b0f4d08d-9574-447c-9f76-6a11e8a82ce4"},"vehicle_type_id":"4","last_reported":1727115140,"current_range_meters":40000,"station_id":"ce4bgvp2rcd13ifvqcu0","pricing_plan_id":"cebpf4jnsgd1na2vs0mg"},{"bike_id":"ed1f0c4b-c2ec-4633-9b10-9782357e4a7c","system_id":"levelo_inurba_marseille","lat":43.308,"lon":5.43529,"is_reserved":false,"is_disabled":false,"rental_uris":{"android":"levelo://app?vid=ed1f0c4b-c2ec-4633-9b10-9782357e4a7c","ios":"levelo://app?vid=ed1f0c4b-c2ec-4633-9b10-9782357e4a7c"},"vehicle_type_id":"4","last_reported":1727115140,"current_range_meters":12400,"station_id":"ce4bhph2rcd13ifvqheg","pricing_plan_id":"cebpf4jnsgd1na2vs0mg"},{"bike_id":"0074696f-e649-4639-9210-689b92842bdc","system_id":"levelo_inurba_marseille","lat":43.30797,"lon":5.43526,"is_reserved":false,"is_disabled":false,"rental_uris":{"android":"levelo://app?vid=0074696f-e649-4639-9210-689b92842bdc","ios":"levelo://app?vid=0074696f-e649-4639-9210-689b92842bdc"},"vehicle_type_id":"4","last_reported":1727115140,"current_range_meters":39200,"station_id":"ce4bhph2rcd13ifvqheg","pricing_plan_id":"cebpf4jnsgd1na2vs0mg"},{"bike_id":"877753fc-658d-4c7a-bbb8-46de59f59494","system_id":"levelo_inurba_marseille","lat":43.33024,"lon":5.39045,"is_reserved":false,"is_disabled":false,"rental_uris":{"android":"levelo://app?vid=877753fc-658d-4c7a-bbb8-46de59f59494","ios":"levelo://app?vid=877753fc-658d-4c7a-bbb8-46de59f59494"},"vehicle_type_id":"4","last_reported":1727115140,"current_range_meters":27600,"station_id":"ce4bhr92rcd13ifvqhrg","pricing_plan_id":"cebpf4jnsgd1na2vs0mg"},{"bike_id":"20c322fd-654e-42ef-8773-7ebadd40b4c4","system_id":"levelo_inurba_marseille","lat":43.33016,"lon":5.39042,"is_reserved":false,"is_disabled":false,"rental_uris":{"android":"levelo://app?vid=20c322fd-654e-42ef-8773-7ebadd40b4c4","ios":"levelo://app?vid=20c322fd-654e-42ef-8773-7ebadd40b4c4"},"vehicle_type_id":"4","last_reported":1727115140,"current_range_meters":14400,"station_id":"ce4bhr92rcd13ifvqhrg","pricing_plan_id":"cebpf4jnsgd1na2vs0mg"},{"bike_id":"083730dd-2d4b-4eaa-9712-8c0148d8cf41","system_id":"levelo_inurba_marseille","lat":43.30536,"lon":5.36559,"is_reserved":false,"is_disabled":false,"rental_uris":{"android":"levelo://app?vid=083730dd-2d4b-4eaa-9712-8c0148d8cf41","ios":"levelo://app?vid=083730dd-2d4b-4eaa-9712-8c0148d8cf41"},"vehicle_type_id":"4","last_reported":1727115140,"current_range_meters":37600,"station_id":"ce4bgs12rcd13ifvqcag","pricing_plan_id":"cebpf4jnsgd1na2vs0mg"},{"bike_id":"16602e6e-31bf-435c-925f-a631a237c0ec","system_id":"levelo_inurba_marseille","lat":43.27944,"lon":5.41051,"is_reserved":false,"is_disabled":false,"rental_uris":{"android":"levelo://app?vid=16602e6e-31bf-435c-925f-a631a237c0ec","ios":"levelo://app?vid=16602e6e-31bf-435c-925f-a631a237c0ec"},"vehicle_type_id":"4","last_reported":1727115140,"current_range_meters":24000,"station_id":"ce4bhnp2rcd13ifvqh0g","pricing_plan_id":"cebpf4jnsgd1na2vs0mg"},{"bike_id":"fa389a28-fbc0-443d-ae17-61deeb7eddc4","system_id":"levelo_inurba_marseille","lat":43.29783,"lon":5.39355,"is_reserved":false,"is_disabled":false,"rental_uris":{"android":"levelo://app?vid=fa389a28-fbc0-443d-ae17-61deeb7eddc4","ios":"levelo://app?vid=fa389a28-fbc0-443d-ae17-61deeb7eddc4"},"vehicle_type_id":"4","last_reported":1727115140,"current_range_meters":36400,"station_id":"chh1huq6cuj3fo74tm60","pricing_plan_id":"cebpf4jnsgd1na2vs0mg"},{"bike_id":"fd6603f1-341e-4a3a-b2d4-dce11b34e993","system_id":"levelo_inurba_marseille","lat":43.30862,"lon":5.39646,"is_reserved":false,"is_disabled":false,"rental_uris":{"android":"levelo://app?vid=fd6603f1-341e-4a3a-b2d4-dce11b34e993","ios":"levelo://app?vid=fd6603f1-341e-4a3a-b2d4-dce11b34e993"},"vehicle_type_id":"4","last_reported":1727115140,"current_range_meters":16000,"station_id":"ce4bh012rcd13ifvqcv0","pricing_plan_id":"cebpf4jnsgd1na2vs0mg"},{"bike_id":"c45a9dda-ed77-4e8e-ab90-ffb88d4e9730","system_id":"levelo_inurba_marseille","lat":43.29001,"lon":5.35609,"is_reserved":false,"is_disabled":false,"rental_uris":{"android":"levelo://app?vid=c45a9dda-ed77-4e8e-ab90-ffb88d4e9730","ios":"levelo://app?vid=c45a9dda-ed77-4e8e-ab90-ffb88d4e9730"},"vehicle_type_id":"4","last_reported":1727115140,"current_range_meters":24800,"station_id":"ce4bhb92rcd13ifvqen0","pricing_plan_id":"cebpf4jnsgd1na2vs0mg"},{"bike_id":"b6362831-9508-4a4a-88c5-ee6e27234698","system_id":"levelo_inurba_marseille","lat":43.29257,"lon":5.38447,"is_reserved":false,"is_disabled":false,"rental_uris":{"android":"levelo://app?vid=b6362831-9508-4a4a-88c5-ee6e27234698","ios":"levelo://app?vid=b6362831-9508-4a4a-88c5-ee6e27234698"},"vehicle_type_id":"4","last_reported":1727115140,"current_range_meters":6400,"station_id":"ce4bh692rcd13ifvqea0","pricing_plan_id":"cebpf4jnsgd1na2vs0mg"},{"bike_id":"9293bf76-669c-44b1-ab3c-e5210753b52f","system_id":"levelo_inurba_marseille","lat":43.30415,"lon":5.41288,"is_reserved":false,"is_disabled":false,"rental_uris":{"android":"levelo://app?vid=9293bf76-669c-44b1-ab3c-e5210753b52f","ios":"levelo://app?vid=9293bf76-669c-44b1-ab3c-e5210753b52f"},"vehicle_type_id":"4","last_reported":1727115140,"current_range_meters":19600,"station_id":"ce4bhop2rcd13ifvqh8g","pricing_plan_id":"cebpf4jnsgd1na2vs0mg"},{"bike_id":"f71d6b4a-179b-4c39-85cb-3f80ad5c95f9","system_id":"levelo_inurba_marseille","lat":43.2649,"lon":5.39544,"is_reserved":false,"is_disabled":false,"rental_uris":{"android":"levelo://app?vid=f71d6b4a-179b-4c39-85cb-3f80ad5c95f9","ios":"levelo://app?vid=f71d6b4a-179b-4c39-85cb-3f80ad5c95f9"},"vehicle_type_id":"4","last_reported":1727115140,"current_range_meters":16400,"station_id":"ce4bhi12rcd13ifvqfq0","pricing_plan_id":"cebpf4jnsgd1na2vs0mg"},{"bike_id":"7e3920a9-97d9-483d-b7ba-9d14c34ba84c","system_id":"levelo_inurba_marseille","lat":43.28461,"lon":5.35896,"is_reserved":false,"is_disabled":false,"rental_uris":{"android":"levelo://app?vid=7e3920a9-97d9-483d-b7ba-9d14c34ba84c","ios":"levelo://app?vid=7e3920a9-97d9-483d-b7ba-9d14c34ba84c"},"vehicle_type_id":"4","last_reported":1727115140,"current_range_meters":38400,"station_id":"ce4bhah2rcd13ifvqei0","pricing_plan_id":"cebpf4jnsgd1na2vs0mg"},{"bike_id":"16ae6180-f6e5-47e0-8f4b-70a0144490cf","system_id":"levelo_inurba_marseille","lat":43.3041,"lon":5.41288,"is_reserved":false,"is_disabled":false,"rental_uris":{"android":"levelo://app?vid=16ae6180-f6e5-47e0-8f4b-70a0144490cf","ios":"levelo://app?vid=16ae6180-f6e5-47e0-8f4b-70a0144490cf"},"vehicle_type_id":"4","last_reported":1727115140,"current_range_meters":14400,"station_id":"ce4bhop2rcd13ifvqh8g","pricing_plan_id":"cebpf4jnsgd1na2vs0mg"},{"bike_id":"82ea5478-d202-4ed4-aa98-4428293cc228","system_id":"levelo_inurba_marseille","lat":43.292699,"lon":5.374435,"is_reserved":false,"is_disabled":false,"rental_uris":{"android":"levelo://app?vid=82ea5478-d202-4ed4-aa98-4428293cc228","ios":"levelo://app?vid=82ea5478-d202-4ed4-aa98-4428293cc228"},"vehicle_type_id":"4","last_reported":1727115140,"current_range_meters":5600,"station_id":"ce4bgi12rcd13ifvqb70","pricing_plan_id":"cebpf4jnsgd1na2vs0mg"},{"bike_id":"8364c4eb-8dcd-470b-b73a-9a27c804ba4b","system_id":"levelo_inurba_marseille","lat":43.295747,"lon":5.399781,"is_reserved":false,"is_disabled":false,"rental_uris":{"android":"levelo://app?vid=8364c4eb-8dcd-470b-b73a-9a27c804ba4b","ios":"levelo://app?vid=8364c4eb-8dcd-470b-b73a-9a27c804ba4b"},"vehicle_type_id":"4","last_reported":1727115140,"current_range_meters":38000,"station_id":"ce4bh312rcd13ifvqdj0","pricing_plan_id":"cebpf4jnsgd1na2vs0mg"},{"bike_id":"3c6efe54-16ce-4c6d-8183-1bf76b842403","system_id":"levelo_inurba_marseille","lat":43.26801,"lon":5.40273,"is_reserved":false,"is_disabled":false,"rental_uris":{"android":"levelo://app?vid=3c6efe54-16ce-4c6d-8183-1bf76b842403","ios":"levelo://app?vid=3c6efe54-16ce-4c6d-8183-1bf76b842403"},"vehicle_type_id":"4","last_reported":1727115140,"current_range_meters":9200,"station_id":"ce501612rcd8frsf0b60","pricing_plan_id":"cebpf4jnsgd1na2vs0mg"},{"bike_id":"a492432c-7334-4678-b021-d307f87dfa0f","system_id":"levelo_inurba_marseille","lat":43.29033,"lon":5.37563,"is_reserved":false,"is_disabled":false,"rental_uris":{"android":"levelo://app?vid=a492432c-7334-4678-b021-d307f87dfa0f","ios":"levelo://app?vid=a492432c-7334-4678-b021-d307f87dfa0f"},"vehicle_type_id":"4","last_reported":1727115140,"current_range_meters":14000,"station_id":"ce4bh692rcd13ifvqe90","pricing_plan_id":"cebpf4jnsgd1na2vs0mg"},{"bike_id":"da12dab4-cf6f-4205-97d4-2c964fa537b5","system_id":"levelo_inurba_marseille","lat":43.32089,"lon":5.38119,"is_reserved":false,"is_disabled":false,"rental_uris":{"android":"levelo://app?vid=da12dab4-cf6f-4205-97d4-2c964fa537b5","ios":"levelo://app?vid=da12dab4-cf6f-4205-97d4-2c964fa537b5"},"vehicle_type_id":"4","last_reported":1727115140,"current_range_meters":17600,"station_id":"","pricing_plan_id":"cebpf4jnsgd1na2vs0mg"},{"bike_id":"ae9162e9-0190-4ac4-b1b4-0bc5ff7986f9","system_id":"levelo_inurba_marseille","lat":43.307953,"lon":5.381528,"is_reserved":false,"is_disabled":false,"rental_uris":{"android":"levelo://app?vid=ae9162e9-0190-4ac4-b1b4-0bc5ff7986f9","ios":"levelo://app?vid=ae9162e9-0190-4ac4-b1b4-0bc5ff7986f9"},"vehicle_type_id":"4","last_reported":1727115140,"current_range_meters":8000,"station_id":"ce4bgt12rcd13ifvqce0","pricing_plan_id":"cebpf4jnsgd1na2vs0mg"},{"bike_id":"36dc71fe-bfc9-4a4d-b2ef-39ebb067c458","system_id":"levelo_inurba_marseille","lat":43.29554,"lon":5.42284,"is_reserved":false,"is_disabled":false,"rental_uris":{"android":"levelo://app?vid=36dc71fe-bfc9-4a4d-b2ef-39ebb067c458","ios":"levelo://app?vid=36dc71fe-bfc9-4a4d-b2ef-39ebb067c458"},"vehicle_type_id":"4","last_reported":1727115140,"current_range_meters":38800,"station_id":"ce4bhph2rcd13ifvqhdg","pricing_plan_id":"cebpf4jnsgd1na2vs0mg"},{"bike_id":"4e442a34-1c41-4d3c-9b65-5b0b3be50276","system_id":"levelo_inurba_marseille","lat":43.33728,"lon":5.39194,"is_reserved":false,"is_disabled":false,"rental_uris":{"android":"levelo://app?vid=4e442a34-1c41-4d3c-9b65-5b0b3be50276","ios":"levelo://app?vid=4e442a34-1c41-4d3c-9b65-5b0b3be50276"},"vehicle_type_id":"4","last_reported":1727115140,"current_range_meters":36800,"station_id":"ce4bhr92rcd13ifvqhsg","pricing_plan_id":"cebpf4jnsgd1na2vs0mg"},{"bike_id":"689211ef-bb97-4c6e-88e5-9d4d6e9cb1bb","system_id":"levelo_inurba_marseille","lat":43.26554,"lon":5.37295,"is_reserved":false,"is_disabled":false,"rental_uris":{"android":"levelo://app?vid=689211ef-bb97-4c6e-88e5-9d4d6e9cb1bb","ios":"levelo://app?vid=689211ef-bb97-4c6e-88e5-9d4d6e9cb1bb"},"vehicle_type_id":"4","last_reported":1727115140,"current_range_meters":7200,"station_id":"ce4bhg12rcd13ifvqf70","pricing_plan_id":"cebpf4jnsgd1na2vs0mg"},{"bike_id":"032c86cf-a14b-4576-85b2-b0a3a301aa8c","system_id":"levelo_inurba_marseille","lat":43.28934,"lon":5.36643,"is_reserved":false,"is_disabled":false,"rental_uris":{"android":"levelo://app?vid=032c86cf-a14b-4576-85b2-b0a3a301aa8c","ios":"levelo://app?vid=032c86cf-a14b-4576-85b2-b0a3a301aa8c"},"vehicle_type_id":"4","last_reported":1727115140,"current_range_meters":3600,"station_id":"ce4bhap2rcd13ifvqek0","pricing_plan_id":"cebpf4jnsgd1na2vs0mg"},{"bike_id":"b02031c3-1af7-4ceb-b456-58c5dd56dcaf","system_id":"levelo_inurba_marseille","lat":43.28668,"lon":5.36364,"is_reserved":false,"is_disabled":false,"rental_uris":{"android":"levelo://app?vid=b02031c3-1af7-4ceb-b456-58c5dd56dcaf","ios":"levelo://app?vid=b02031c3-1af7-4ceb-b456-58c5dd56dcaf"},"vehicle_type_id":"4","last_reported":1727115140,"current_range_meters":17600,"station_id":"ce4bhah2rcd13ifvqej0","pricing_plan_id":"cebpf4jnsgd1na2vs0mg"},{"bike_id":"99c160f3-265f-4fac-b7ae-9b688afe3f3d","system_id":"levelo_inurba_marseille","lat":43.28932,"lon":5.38397,"is_reserved":false,"is_disabled":false,"rental_uris":{"android":"levelo://app?vid=99c160f3-265f-4fac-b7ae-9b688afe3f3d","ios":"levelo://app?vid=99c160f3-265f-4fac-b7ae-9b688afe3f3d"},"vehicle_type_id":"4","last_reported":1727115140,"current_range_meters":38800,"station_id":"ce4bh612rcd13ifvqe6g","pricing_plan_id":"cebpf4jnsgd1na2vs0mg"},{"bike_id":"413adb04-2263-4526-a84b-7f131b9e8561","system_id":"levelo_inurba_marseille","lat":43.32374,"lon":5.38931,"is_reserved":false,"is_disabled":false,"rental_uris":{"android":"levelo://app?vid=413adb04-2263-4526-a84b-7f131b9e8561","ios":"levelo://app?vid=413adb04-2263-4526-a84b-7f131b9e8561"},"vehicle_type_id":"4","last_reported":1727115140,"current_range_meters":38800,"station_id":"ce4bhqp2rcd13ifvqhog","pricing_plan_id":"cebpf4jnsgd1na2vs0mg"},{"bike_id":"ce9743b4-89f1-4ca8-9bcd-59a035981efa","system_id":"levelo_inurba_marseille","lat":43.29036,"lon":5.39965,"is_reserved":false,"is_disabled":false,"rental_uris":{"android":"levelo://app?vid=ce9743b4-89f1-4ca8-9bcd-59a035981efa","ios":"levelo://app?vid=ce9743b4-89f1-4ca8-9bcd-59a035981efa"},"vehicle_type_id":"4","last_reported":1727115140,"current_range_meters":11200,"station_id":"ce4bgih2rcd13ifvqba0","pricing_plan_id":"cebpf4jnsgd1na2vs0mg"},{"bike_id":"02552a84-93ac-4f47-9115-b594cbf16674","system_id":"levelo_inurba_marseille","lat":43.29551,"lon":5.42297,"is_reserved":false,"is_disabled":false,"rental_uris":{"android":"levelo://app?vid=02552a84-93ac-4f47-9115-b594cbf16674","ios":"levelo://app?vid=02552a84-93ac-4f47-9115-b594cbf16674"},"vehicle_type_id":"4","last_reported":1727115140,"current_range_meters":38800,"station_id":"ce4bhph2rcd13ifvqhdg","pricing_plan_id":"cebpf4jnsgd1na2vs0mg"},{"bike_id":"84584264-b57e-4d6e-a833-36a2ca76c698","system_id":"levelo_inurba_marseille","lat":43.28932,"lon":5.39642,"is_reserved":false,"is_disabled":false,"rental_uris":{"android":"levelo://app?vid=84584264-b57e-4d6e-a833-36a2ca76c698","ios":"levelo://app?vid=84584264-b57e-4d6e-a833-36a2ca76c698"},"vehicle_type_id":"4","last_reported":1727115140,"current_range_meters":7200,"station_id":"ce4bh3h2rcd13ifvqdn0","pricing_plan_id":"cebpf4jnsgd1na2vs0mg"},{"bike_id":"582becdd-da4c-4d50-8a33-ffb0a3c6efc3","system_id":"levelo_inurba_marseille","lat":43.29192,"lon":5.39319,"is_reserved":false,"is_disabled":false,"rental_uris":{"android":"levelo://app?vid=582becdd-da4c-4d50-8a33-ffb0a3c6efc3","ios":"levelo://app?vid=582becdd-da4c-4d50-8a33-ffb0a3c6efc3"},"vehicle_type_id":"4","last_reported":1727115140,"current_range_meters":8400,"station_id":"ce4bh192rcd13ifvqdd0","pricing_plan_id":"cebpf4jnsgd1na2vs0mg"},{"bike_id":"ae90c99e-2bb0-4a80-a5c3-6ad3bc586749","system_id":"levelo_inurba_marseille","lat":43.28609,"lon":5.37064,"is_reserved":false,"is_disabled":false,"rental_uris":{"android":"levelo://app?vid=ae90c99e-2bb0-4a80-a5c3-6ad3bc586749","ios":"levelo://app?vid=ae90c99e-2bb0-4a80-a5c3-6ad3bc586749"},"vehicle_type_id":"4","last_reported":1727115140,"current_range_meters":25600,"station_id":"ce4bht12rcd13ifvqi60","pricing_plan_id":"cebpf4jnsgd1na2vs0mg"},{"bike_id":"d6eadb59-4eb9-4f59-bab1-45027c3b6141","system_id":"levelo_inurba_marseille","lat":43.29308,"lon":5.37162,"is_reserved":false,"is_disabled":false,"rental_uris":{"android":"levelo://app?vid=d6eadb59-4eb9-4f59-bab1-45027c3b6141","ios":"levelo://app?vid=d6eadb59-4eb9-4f59-bab1-45027c3b6141"},"vehicle_type_id":"4","last_reported":1727115140,"current_range_meters":16800,"station_id":"ce4bgh92rcd13ifvqb40","pricing_plan_id":"cebpf4jnsgd1na2vs0mg"},{"bike_id":"b49e8aa4-b4d7-4f9d-a437-8d1bbdfe618a","system_id":"levelo_inurba_marseille","lat":43.29557,"lon":5.42284,"is_reserved":false,"is_disabled":false,"rental_uris":{"android":"levelo://app?vid=b49e8aa4-b4d7-4f9d-a437-8d1bbdfe618a","ios":"levelo://app?vid=b49e8aa4-b4d7-4f9d-a437-8d1bbdfe618a"},"vehicle_type_id":"4","last_reported":1727115140,"current_range_meters":38800,"station_id":"ce4bhph2rcd13ifvqhdg","pricing_plan_id":"cebpf4jnsgd1na2vs0mg"},{"bike_id":"0268be4f-4128-493f-820d-26c7617b1bcb","system_id":"levelo_inurba_marseille","lat":43.29194,"lon":5.39332,"is_reserved":false,"is_disabled":false,"rental_uris":{"android":"levelo://app?vid=0268be4f-4128-493f-820d-26c7617b1bcb","ios":"levelo://app?vid=0268be4f-4128-493f-820d-26c7617b1bcb"},"vehicle_type_id":"4","last_reported":1727115140,"current_range_meters":24400,"station_id":"ce4bh192rcd13ifvqdd0","pricing_plan_id":"cebpf4jnsgd1na2vs0mg"},{"bike_id":"c203efdb-fe94-4178-a72c-1daae27645d7","system_id":"levelo_inurba_marseille","lat":43.280668,"lon":5.378809,"is_reserved":false,"is_disabled":false,"rental_uris":{"android":"levelo://app?vid=c203efdb-fe94-4178-a72c-1daae27645d7","ios":"levelo://app?vid=c203efdb-fe94-4178-a72c-1daae27645d7"},"vehicle_type_id":"4","last_reported":1727115140,"current_range_meters":3200,"station_id":"ce4bh4p2rcd13ifvqe0g","pricing_plan_id":"cebpf4jnsgd1na2vs0mg"},{"bike_id":"1b424706-aab3-4959-99b9-2559df57b28b","system_id":"levelo_inurba_marseille","lat":43.26539,"lon":5.39002,"is_reserved":false,"is_disabled":false,"rental_uris":{"android":"levelo://app?vid=1b424706-aab3-4959-99b9-2559df57b28b","ios":"levelo://app?vid=1b424706-aab3-4959-99b9-2559df57b28b"},"vehicle_type_id":"4","last_reported":1727115140,"current_range_meters":38800,"station_id":"","pricing_plan_id":"cebpf4jnsgd1na2vs0mg"},{"bike_id":"dc897eb6-79d0-4617-9156-8a21a2b6725d","system_id":"levelo_inurba_marseille","lat":43.30881,"lon":5.39647,"is_reserved":false,"is_disabled":false,"rental_uris":{"android":"levelo://app?vid=dc897eb6-79d0-4617-9156-8a21a2b6725d","ios":"levelo://app?vid=dc897eb6-79d0-4617-9156-8a21a2b6725d"},"vehicle_type_id":"4","last_reported":1727115140,"current_range_meters":8400,"station_id":"ce4bh012rcd13ifvqcv0","pricing_plan_id":"cebpf4jnsgd1na2vs0mg"},{"bike_id":"a0cccce5-9661-4e12-a240-1d31bd329e6c","system_id":"levelo_inurba_marseille","lat":43.29566,"lon":5.39972,"is_reserved":false,"is_disabled":false,"rental_uris":{"android":"levelo://app?vid=a0cccce5-9661-4e12-a240-1d31bd329e6c","ios":"levelo://app?vid=a0cccce5-9661-4e12-a240-1d31bd329e6c"},"vehicle_type_id":"4","last_reported":1727115140,"current_range_meters":36800,"station_id":"ce4bh312rcd13ifvqdj0","pricing_plan_id":"cebpf4jnsgd1na2vs0mg"},{"bike_id":"754c7619-fd5c-40a4-89b7-1561cddbe8e5","system_id":"levelo_inurba_marseille","lat":43.280165,"lon":5.369498,"is_reserved":false,"is_disabled":false,"rental_uris":{"android":"levelo://app?vid=754c7619-fd5c-40a4-89b7-1561cddbe8e5","ios":"levelo://app?vid=754c7619-fd5c-40a4-89b7-1561cddbe8e5"},"vehicle_type_id":"4","last_reported":1727115140,"current_range_meters":2800,"station_id":"ce4bha12rcd13ifvqef0","pricing_plan_id":"cebpf4jnsgd1na2vs0mg"},{"bike_id":"e7c4489c-d042-43e1-94b2-94f74a114f69","system_id":"levelo_inurba_marseille","lat":43.310699,"lon":5.422857,"is_reserved":false,"is_disabled":false,"rental_uris":{"android":"levelo://app?vid=e7c4489c-d042-43e1-94b2-94f74a114f69","ios":"levelo://app?vid=e7c4489c-d042-43e1-94b2-94f74a114f69"},"vehicle_type_id":"4","last_reported":1727115140,"current_range_meters":26000,"station_id":"ce4bhp92rcd13ifvqhag","pricing_plan_id":"cebpf4jnsgd1na2vs0mg"},{"bike_id":"bfe57a40-fdc3-4173-879d-c93157cc56e1","system_id":"levelo_inurba_marseille","lat":43.29255,"lon":5.40909,"is_reserved":false,"is_disabled":false,"rental_uris":{"android":"levelo://app?vid=bfe57a40-fdc3-4173-879d-c93157cc56e1","ios":"levelo://app?vid=bfe57a40-fdc3-4173-879d-c93157cc56e1"},"vehicle_type_id":"4","last_reported":1727115140,"current_range_meters":8400,"station_id":"ce4bh192rcd13ifvqdc0","pricing_plan_id":"cebpf4jnsgd1na2vs0mg"},{"bike_id":"5461ea1c-76b0-4429-a05e-d6299ebc8ba1","system_id":"levelo_inurba_marseille","lat":43.31727,"lon":5.42413,"is_reserved":false,"is_disabled":false,"rental_uris":{"android":"levelo://app?vid=5461ea1c-76b0-4429-a05e-d6299ebc8ba1","ios":"levelo://app?vid=5461ea1c-76b0-4429-a05e-d6299ebc8ba1"},"vehicle_type_id":"4","last_reported":1727115140,"current_range_meters":40000,"station_id":"ce4bhp92rcd13ifvqhbg","pricing_plan_id":"cebpf4jnsgd1na2vs0mg"},{"bike_id":"60ff8254-715f-457b-a1b3-1dc29e9803e3","system_id":"levelo_inurba_marseille","lat":43.29896,"lon":5.43676,"is_reserved":false,"is_disabled":false,"rental_uris":{"android":"levelo://app?vid=60ff8254-715f-457b-a1b3-1dc29e9803e3","ios":"levelo://app?vid=60ff8254-715f-457b-a1b3-1dc29e9803e3"},"vehicle_type_id":"4","last_reported":1727115140,"current_range_meters":6000,"station_id":"ce4bhpp2rcd13ifvqhfg","pricing_plan_id":"cebpf4jnsgd1na2vs0mg"},{"bike_id":"3433e3ae-1a65-4ba7-9152-ddedd884931d","system_id":"levelo_inurba_marseille","lat":43.28004,"lon":5.40018,"is_reserved":false,"is_disabled":false,"rental_uris":{"android":"levelo://app?vid=3433e3ae-1a65-4ba7-9152-ddedd884931d","ios":"levelo://app?vid=3433e3ae-1a65-4ba7-9152-ddedd884931d"},"vehicle_type_id":"4","last_reported":1727115140,"current_range_meters":38400,"station_id":"ce4bho92rcd13ifvqh4g","pricing_plan_id":"cebpf4jnsgd1na2vs0mg"},{"bike_id":"26385737-1035-400a-bcf7-21011fa32661","system_id":"levelo_inurba_marseille","lat":43.29215,"lon":5.36048,"is_reserved":false,"is_disabled":false,"rental_uris":{"android":"levelo://app?vid=26385737-1035-400a-bcf7-21011fa32661","ios":"levelo://app?vid=26385737-1035-400a-bcf7-21011fa32661"},"vehicle_type_id":"4","last_reported":1727115140,"current_range_meters":12800,"station_id":"ce4bhbh2rcd13ifvqeqg","pricing_plan_id":"cebpf4jnsgd1na2vs0mg"},{"bike_id":"cce9f14b-f6b2-4d1a-a61a-0594caa73869","system_id":"levelo_inurba_marseille","lat":43.26928,"lon":5.38929,"is_reserved":false,"is_disabled":false,"rental_uris":{"android":"levelo://app?vid=cce9f14b-f6b2-4d1a-a61a-0594caa73869","ios":"levelo://app?vid=cce9f14b-f6b2-4d1a-a61a-0594caa73869"},"vehicle_type_id":"4","last_reported":1727115140,"current_range_meters":16400,"station_id":"ce4bhhh2rcd13ifvqfl0","pricing_plan_id":"cebpf4jnsgd1na2vs0mg"},{"bike_id":"4b3953b1-5508-460a-8850-526d115a6a80","system_id":"levelo_inurba_marseille","lat":43.30206,"lon":5.39461,"is_reserved":false,"is_disabled":false,"rental_uris":{"android":"levelo://app?vid=4b3953b1-5508-460a-8850-526d115a6a80","ios":"levelo://app?vid=4b3953b1-5508-460a-8850-526d115a6a80"},"vehicle_type_id":"4","last_reported":1727115140,"current_range_meters":17200,"station_id":"ce4bh0p2rcd13ifvqd70","pricing_plan_id":"cebpf4jnsgd1na2vs0mg"},{"bike_id":"f243b745-dffa-46f0-9e54-31f42a6b4a4e","system_id":"levelo_inurba_marseille","lat":43.25084,"lon":5.39527,"is_reserved":false,"is_disabled":false,"rental_uris":{"android":"levelo://app?vid=f243b745-dffa-46f0-9e54-31f42a6b4a4e","ios":"levelo://app?vid=f243b745-dffa-46f0-9e54-31f42a6b4a4e"},"vehicle_type_id":"4","last_reported":1727115140,"current_range_meters":28400,"station_id":"ce4bhm12rcd13ifvqgkg","pricing_plan_id":"cebpf4jnsgd1na2vs0mg"},{"bike_id":"16b5d511-cbd9-4550-a2a3-6ac21aeada06","system_id":"levelo_inurba_marseille","lat":43.24544,"lon":5.39529,"is_reserved":false,"is_disabled":false,"rental_uris":{"android":"levelo://app?vid=16b5d511-cbd9-4550-a2a3-6ac21aeada06","ios":"levelo://app?vid=16b5d511-cbd9-4550-a2a3-6ac21aeada06"},"vehicle_type_id":"4","last_reported":1727115140,"current_range_meters":16800,"station_id":"ce4bhlp2rcd13ifvqgjg","pricing_plan_id":"cebpf4jnsgd1na2vs0mg"},{"bike_id":"94eed66b-8f8c-453e-8a8a-520cc2917133","system_id":"levelo_inurba_marseille","lat":43.303076,"lon":5.392144,"is_reserved":false,"is_disabled":false,"rental_uris":{"android":"levelo://app?vid=94eed66b-8f8c-453e-8a8a-520cc2917133","ios":"levelo://app?vid=94eed66b-8f8c-453e-8a8a-520cc2917133"},"vehicle_type_id":"4","last_reported":1727115140,"current_range_meters":38800,"station_id":"ce4bgkh2rcd13ifvqbk0","pricing_plan_id":"cebpf4jnsgd1na2vs0mg"},{"bike_id":"02e2d360-f924-4d00-935f-7ac12bb5ffbe","system_id":"levelo_inurba_marseille","lat":43.31113,"lon":5.44707,"is_reserved":false,"is_disabled":false,"rental_uris":{"android":"levelo://app?vid=02e2d360-f924-4d00-935f-7ac12bb5ffbe","ios":"levelo://app?vid=02e2d360-f924-4d00-935f-7ac12bb5ffbe"},"vehicle_type_id":"4","last_reported":1727115140,"current_range_meters":6800,"station_id":"","pricing_plan_id":"cebpf4jnsgd1na2vs0mg"},{"bike_id":"a67b4287-da83-43eb-8e86-126974c9a016","system_id":"levelo_inurba_marseille","lat":43.29546,"lon":5.42291,"is_reserved":false,"is_disabled":false,"rental_uris":{"android":"levelo://app?vid=a67b4287-da83-43eb-8e86-126974c9a016","ios":"levelo://app?vid=a67b4287-da83-43eb-8e86-126974c9a016"},"vehicle_type_id":"4","last_reported":1727115140,"current_range_meters":23200,"station_id":"ce4bhph2rcd13ifvqhdg","pricing_plan_id":"cebpf4jnsgd1na2vs0mg"},{"bike_id":"231df590-15eb-4c0a-bdf6-dddd3cb861cb","system_id":"levelo_inurba_marseille","lat":43.337444,"lon":5.374475,"is_reserved":false,"is_disabled":false,"rental_uris":{"android":"levelo://app?vid=231df590-15eb-4c0a-bdf6-dddd3cb861cb","ios":"levelo://app?vid=231df590-15eb-4c0a-bdf6-dddd3cb861cb"},"vehicle_type_id":"4","last_reported":1727115140,"current_range_meters":20800,"station_id":"","pricing_plan_id":"cebpf4jnsgd1na2vs0mg"},{"bike_id":"080a4f75-0f2f-4a74-a7c9-caf0e2836668","system_id":"levelo_inurba_marseille","lat":43.295699,"lon":5.399503,"is_reserved":false,"is_disabled":false,"rental_uris":{"android":"levelo://app?vid=080a4f75-0f2f-4a74-a7c9-caf0e2836668","ios":"levelo://app?vid=080a4f75-0f2f-4a74-a7c9-caf0e2836668"},"vehicle_type_id":"4","last_reported":1727115140,"current_range_meters":3600,"station_id":"ce4bh312rcd13ifvqdj0","pricing_plan_id":"cebpf4jnsgd1na2vs0mg"},{"bike_id":"3b211465-5030-4ebd-b5e2-78bdfeebc435","system_id":"levelo_inurba_marseille","lat":43.3371,"lon":5.3919,"is_reserved":false,"is_disabled":false,"rental_uris":{"android":"levelo://app?vid=3b211465-5030-4ebd-b5e2-78bdfeebc435","ios":"levelo://app?vid=3b211465-5030-4ebd-b5e2-78bdfeebc435"},"vehicle_type_id":"4","last_reported":1727115140,"current_range_meters":20400,"station_id":"ce4bhr92rcd13ifvqhsg","pricing_plan_id":"cebpf4jnsgd1na2vs0mg"},{"bike_id":"6af536df-a3f6-497c-a4a9-43032fc8874c","system_id":"levelo_inurba_marseille","lat":43.33722,"lon":5.39193,"is_reserved":false,"is_disabled":false,"rental_uris":{"android":"levelo://app?vid=6af536df-a3f6-497c-a4a9-43032fc8874c","ios":"levelo://app?vid=6af536df-a3f6-497c-a4a9-43032fc8874c"},"vehicle_type_id":"4","last_reported":1727115140,"current_range_meters":38800,"station_id":"ce4bhr92rcd13ifvqhsg","pricing_plan_id":"cebpf4jnsgd1na2vs0mg"},{"bike_id":"c6f17792-32ba-4e07-b34d-db8782795376","system_id":"levelo_inurba_marseille","lat":43.26192,"lon":5.37452,"is_reserved":false,"is_disabled":false,"rental_uris":{"android":"levelo://app?vid=c6f17792-32ba-4e07-b34d-db8782795376","ios":"levelo://app?vid=c6f17792-32ba-4e07-b34d-db8782795376"},"vehicle_type_id":"4","last_reported":1727115140,"current_range_meters":25200,"station_id":"ce4bhgp2rcd13ifvqfc0","pricing_plan_id":"cebpf4jnsgd1na2vs0mg"},{"bike_id":"d07f3b86-c0a1-47f1-8f82-6c3756dd4f2c","system_id":"levelo_inurba_marseille","lat":43.30788,"lon":5.435387,"is_reserved":false,"is_disabled":false,"rental_uris":{"android":"levelo://app?vid=d07f3b86-c0a1-47f1-8f82-6c3756dd4f2c","ios":"levelo://app?vid=d07f3b86-c0a1-47f1-8f82-6c3756dd4f2c"},"vehicle_type_id":"4","last_reported":1727115140,"current_range_meters":16400,"station_id":"ce4bhph2rcd13ifvqheg","pricing_plan_id":"cebpf4jnsgd1na2vs0mg"},{"bike_id":"64d79f18-7ab9-4d4d-84c1-028fc8f3c13b","system_id":"levelo_inurba_marseille","lat":43.28692,"lon":5.37391,"is_reserved":false,"is_disabled":false,"rental_uris":{"android":"levelo://app?vid=64d79f18-7ab9-4d4d-84c1-028fc8f3c13b","ios":"levelo://app?vid=64d79f18-7ab9-4d4d-84c1-028fc8f3c13b"},"vehicle_type_id":"4","last_reported":1727115140,"current_range_meters":28400,"station_id":"ce4bh3p2rcd13ifvqdq0","pricing_plan_id":"cebpf4jnsgd1na2vs0mg"},{"bike_id":"3f9d9d24-ca79-43d1-a82e-ce99bb7b7cd5","system_id":"levelo_inurba_marseille","lat":43.288757,"lon":5.359581,"is_reserved":false,"is_disabled":false,"rental_uris":{"android":"levelo://app?vid=3f9d9d24-ca79-43d1-a82e-ce99bb7b7cd5","ios":"levelo://app?vid=3f9d9d24-ca79-43d1-a82e-ce99bb7b7cd5"},"vehicle_type_id":"4","last_reported":1727115140,"current_range_meters":18000,"station_id":"","pricing_plan_id":"cebpf4jnsgd1na2vs0mg"},{"bike_id":"6ce3ad3c-422e-42f8-a969-2e583d2918ea","system_id":"levelo_inurba_marseille","lat":43.289337,"lon":5.366359,"is_reserved":false,"is_disabled":false,"rental_uris":{"android":"levelo://app?vid=6ce3ad3c-422e-42f8-a969-2e583d2918ea","ios":"levelo://app?vid=6ce3ad3c-422e-42f8-a969-2e583d2918ea"},"vehicle_type_id":"4","last_reported":1727115140,"current_range_meters":26800,"station_id":"ce4bhap2rcd13ifvqek0","pricing_plan_id":"cebpf4jnsgd1na2vs0mg"},{"bike_id":"e729ca84-fcd4-4614-88a4-29848cf01c16","system_id":"levelo_inurba_marseille","lat":43.24802,"lon":5.37458,"is_reserved":false,"is_disabled":false,"rental_uris":{"android":"levelo://app?vid=e729ca84-fcd4-4614-88a4-29848cf01c16","ios":"levelo://app?vid=e729ca84-fcd4-4614-88a4-29848cf01c16"},"vehicle_type_id":"4","last_reported":1727115140,"current_range_meters":6000,"station_id":"ce4bhgh2rcd13ifvqfb0","pricing_plan_id":"cebpf4jnsgd1na2vs0mg"},{"bike_id":"17ae1264-c8b8-43ed-b82c-c145b68ef3be","system_id":"levelo_inurba_marseille","lat":43.31755,"lon":5.39017,"is_reserved":false,"is_disabled":false,"rental_uris":{"android":"levelo://app?vid=17ae1264-c8b8-43ed-b82c-c145b68ef3be","ios":"levelo://app?vid=17ae1264-c8b8-43ed-b82c-c145b68ef3be"},"vehicle_type_id":"4","last_reported":1727115140,"current_range_meters":37600,"station_id":"ce4bhqp2rcd13ifvqhng","pricing_plan_id":"cebpf4jnsgd1na2vs0mg"},{"bike_id":"964837b5-8e34-4aed-a653-efff82c7c0cd","system_id":"levelo_inurba_marseille","lat":43.30917,"lon":5.39773,"is_reserved":false,"is_disabled":false,"rental_uris":{"android":"levelo://app?vid=964837b5-8e34-4aed-a653-efff82c7c0cd","ios":"levelo://app?vid=964837b5-8e34-4aed-a653-efff82c7c0cd"},"vehicle_type_id":"4","last_reported":1727115140,"current_range_meters":16800,"station_id":"ce4bh012rcd13ifvqcv0","pricing_plan_id":"cebpf4jnsgd1na2vs0mg"},{"bike_id":"14736a88-2e8f-4838-bbf3-22836c4213e1","system_id":"levelo_inurba_marseille","lat":43.29225,"lon":5.36072,"is_reserved":false,"is_disabled":false,"rental_uris":{"android":"levelo://app?vid=14736a88-2e8f-4838-bbf3-22836c4213e1","ios":"levelo://app?vid=14736a88-2e8f-4838-bbf3-22836c4213e1"},"vehicle_type_id":"4","last_reported":1727115140,"current_range_meters":7200,"station_id":"ce4bhbh2rcd13ifvqeqg","pricing_plan_id":"cebpf4jnsgd1na2vs0mg"},{"bike_id":"2a23e07a-a8fc-493f-9945-610ad6388200","system_id":"levelo_inurba_marseille","lat":43.28929,"lon":5.36381,"is_reserved":false,"is_disabled":false,"rental_uris":{"android":"levelo://app?vid=2a23e07a-a8fc-493f-9945-610ad6388200","ios":"levelo://app?vid=2a23e07a-a8fc-493f-9945-610ad6388200"},"vehicle_type_id":"4","last_reported":1727115140,"current_range_meters":26800,"station_id":"ce4bhc92rcd13ifvqetg","pricing_plan_id":"cebpf4jnsgd1na2vs0mg"},{"bike_id":"edd8584b-deeb-4323-9820-0a30cd9ac5df","system_id":"levelo_inurba_marseille","lat":43.23405,"lon":5.39932,"is_reserved":false,"is_disabled":false,"rental_uris":{"android":"levelo://app?vid=edd8584b-deeb-4323-9820-0a30cd9ac5df","ios":"levelo://app?vid=edd8584b-deeb-4323-9820-0a30cd9ac5df"},"vehicle_type_id":"4","last_reported":1727115140,"current_range_meters":22400,"station_id":"ce4bhn12rcd13ifvqgqg","pricing_plan_id":"cebpf4jnsgd1na2vs0mg"},{"bike_id":"5b8dc109-f3a1-4df2-9ec1-694beb42c05e","system_id":"levelo_inurba_marseille","lat":43.31894,"lon":5.40742,"is_reserved":false,"is_disabled":false,"rental_uris":{"android":"levelo://app?vid=5b8dc109-f3a1-4df2-9ec1-694beb42c05e","ios":"levelo://app?vid=5b8dc109-f3a1-4df2-9ec1-694beb42c05e"},"vehicle_type_id":"4","last_reported":1727115140,"current_range_meters":14400,"station_id":"ce4bhq12rcd13ifvqhig","pricing_plan_id":"cebpf4jnsgd1na2vs0mg"},{"bike_id":"bbc92c36-4115-4a0a-bbf3-af359412fc51","system_id":"levelo_inurba_marseille","lat":43.287262,"lon":5.361109,"is_reserved":false,"is_disabled":false,"rental_uris":{"android":"levelo://app?vid=bbc92c36-4115-4a0a-bbf3-af359412fc51","ios":"levelo://app?vid=bbc92c36-4115-4a0a-bbf3-af359412fc51"},"vehicle_type_id":"4","last_reported":1727115140,"current_range_meters":12400,"station_id":"cki0cbj6b192h4jlfktg","pricing_plan_id":"cebpf4jnsgd1na2vs0mg"},{"bike_id":"83f49d9b-dbb3-4d74-baf6-b36ec0560935","system_id":"levelo_inurba_marseille","lat":43.241103,"lon":5.377175,"is_reserved":false,"is_disabled":false,"rental_uris":{"android":"levelo://app?vid=83f49d9b-dbb3-4d74-baf6-b36ec0560935","ios":"levelo://app?vid=83f49d9b-dbb3-4d74-baf6-b36ec0560935"},"vehicle_type_id":"4","last_reported":1727115140,"current_range_meters":18000,"station_id":"ce4bhnp2rcd13ifvqgvg","pricing_plan_id":"cebpf4jnsgd1na2vs0mg"},{"bike_id":"13080899-a68b-4dbc-82c4-f13f454c2dcc","system_id":"levelo_inurba_marseille","lat":43.33025,"lon":5.39053,"is_reserved":false,"is_disabled":false,"rental_uris":{"android":"levelo://app?vid=13080899-a68b-4dbc-82c4-f13f454c2dcc","ios":"levelo://app?vid=13080899-a68b-4dbc-82c4-f13f454c2dcc"},"vehicle_type_id":"4","last_reported":1727115140,"current_range_meters":19600,"station_id":"ce4bhr92rcd13ifvqhrg","pricing_plan_id":"cebpf4jnsgd1na2vs0mg"},{"bike_id":"8960a28e-e2b7-45c2-a84e-1ef12435c956","system_id":"levelo_inurba_marseille","lat":43.29872,"lon":5.3628,"is_reserved":false,"is_disabled":false,"rental_uris":{"android":"levelo://app?vid=8960a28e-e2b7-45c2-a84e-1ef12435c956","ios":"levelo://app?vid=8960a28e-e2b7-45c2-a84e-1ef12435c956"},"vehicle_type_id":"4","last_reported":1727115140,"current_range_meters":39200,"station_id":"ce4bgpp2rcd13ifvqc3g","pricing_plan_id":"cebpf4jnsgd1na2vs0mg"},{"bike_id":"2347817f-e20e-4496-af0e-1f65e3ba6aef","system_id":"levelo_inurba_marseille","lat":43.32106,"lon":5.36773,"is_reserved":false,"is_disabled":false,"rental_uris":{"android":"levelo://app?vid=2347817f-e20e-4496-af0e-1f65e3ba6aef","ios":"levelo://app?vid=2347817f-e20e-4496-af0e-1f65e3ba6aef"},"vehicle_type_id":"4","last_reported":1727115140,"current_range_meters":30400,"station_id":"ce4bhrh2rcd13ifvqhug","pricing_plan_id":"cebpf4jnsgd1na2vs0mg"},{"bike_id":"504a3db8-57d1-459e-9776-672cf0c27d15","system_id":"levelo_inurba_marseille","lat":43.30413,"lon":5.41296,"is_reserved":false,"is_disabled":false,"rental_uris":{"android":"levelo://app?vid=504a3db8-57d1-459e-9776-672cf0c27d15","ios":"levelo://app?vid=504a3db8-57d1-459e-9776-672cf0c27d15"},"vehicle_type_id":"4","last_reported":1727115140,"current_range_meters":10800,"station_id":"ce4bhop2rcd13ifvqh8g","pricing_plan_id":"cebpf4jnsgd1na2vs0mg"},{"bike_id":"fc90dcfd-79ba-4d30-a038-768b2e4a7610","system_id":"levelo_inurba_marseille","lat":43.24178,"lon":5.39732,"is_reserved":false,"is_disabled":false,"rental_uris":{"android":"levelo://app?vid=fc90dcfd-79ba-4d30-a038-768b2e4a7610","ios":"levelo://app?vid=fc90dcfd-79ba-4d30-a038-768b2e4a7610"},"vehicle_type_id":"4","last_reported":1727115140,"current_range_meters":16400,"station_id":"ce4bhn12rcd13ifvqgpg","pricing_plan_id":"cebpf4jnsgd1na2vs0mg"},{"bike_id":"906f6c66-988a-415d-a5e4-86f1a05009d3","system_id":"levelo_inurba_marseille","lat":43.25711,"lon":5.41121,"is_reserved":false,"is_disabled":false,"rental_uris":{"android":"levelo://app?vid=906f6c66-988a-415d-a5e4-86f1a05009d3","ios":"levelo://app?vid=906f6c66-988a-415d-a5e4-86f1a05009d3"},"vehicle_type_id":"4","last_reported":1727115140,"current_range_meters":25200,"station_id":"ce4bhkp2rcd13ifvqgd0","pricing_plan_id":"cebpf4jnsgd1na2vs0mg"},{"bike_id":"ca2f9fd0-2967-478a-b0a7-a9e2eabf290e","system_id":"levelo_inurba_marseille","lat":43.31525,"lon":5.38032,"is_reserved":false,"is_disabled":false,"rental_uris":{"android":"levelo://app?vid=ca2f9fd0-2967-478a-b0a7-a9e2eabf290e","ios":"levelo://app?vid=ca2f9fd0-2967-478a-b0a7-a9e2eabf290e"},"vehicle_type_id":"4","last_reported":1727115140,"current_range_meters":36000,"station_id":"ce4bhsp2rcd13ifvqi50","pricing_plan_id":"cebpf4jnsgd1na2vs0mg"},{"bike_id":"4f4136e2-fba5-4b4e-8381-3be540a768c8","system_id":"levelo_inurba_marseille","lat":43.25318,"lon":5.40883,"is_reserved":false,"is_disabled":false,"rental_uris":{"android":"levelo://app?vid=4f4136e2-fba5-4b4e-8381-3be540a768c8","ios":"levelo://app?vid=4f4136e2-fba5-4b4e-8381-3be540a768c8"},"vehicle_type_id":"4","last_reported":1727115140,"current_range_meters":25600,"station_id":"","pricing_plan_id":"cebpf4jnsgd1na2vs0mg"},{"bike_id":"9032d99d-aa2b-4b86-ad18-1ed36ec1e2d3","system_id":"levelo_inurba_marseille","lat":43.28457,"lon":5.35894,"is_reserved":false,"is_disabled":false,"rental_uris":{"android":"levelo://app?vid=9032d99d-aa2b-4b86-ad18-1ed36ec1e2d3","ios":"levelo://app?vid=9032d99d-aa2b-4b86-ad18-1ed36ec1e2d3"},"vehicle_type_id":"4","last_reported":1727115140,"current_range_meters":38000,"station_id":"ce4bhah2rcd13ifvqei0","pricing_plan_id":"cebpf4jnsgd1na2vs0mg"},{"bike_id":"601e1011-3803-46b9-8a33-0b80a868884e","system_id":"levelo_inurba_marseille","lat":43.262054,"lon":5.374448,"is_reserved":false,"is_disabled":false,"rental_uris":{"android":"levelo://app?vid=601e1011-3803-46b9-8a33-0b80a868884e","ios":"levelo://app?vid=601e1011-3803-46b9-8a33-0b80a868884e"},"vehicle_type_id":"4","last_reported":1727115140,"current_range_meters":14000,"station_id":"ce4bhgp2rcd13ifvqfc0","pricing_plan_id":"cebpf4jnsgd1na2vs0mg"},{"bike_id":"053bf2e4-85e7-4868-b794-65bf63764915","system_id":"levelo_inurba_marseille","lat":43.27641,"lon":5.38931,"is_reserved":false,"is_disabled":false,"rental_uris":{"android":"levelo://app?vid=053bf2e4-85e7-4868-b794-65bf63764915","ios":"levelo://app?vid=053bf2e4-85e7-4868-b794-65bf63764915"},"vehicle_type_id":"4","last_reported":1727115140,"current_range_meters":38800,"station_id":"ce4bhi12rcd13ifvqfo0","pricing_plan_id":"cebpf4jnsgd1na2vs0mg"},{"bike_id":"bf1ba9f5-563b-467c-905d-63d0258c3799","system_id":"levelo_inurba_marseille","lat":43.30777,"lon":5.3766,"is_reserved":false,"is_disabled":false,"rental_uris":{"android":"levelo://app?vid=bf1ba9f5-563b-467c-905d-63d0258c3799","ios":"levelo://app?vid=bf1ba9f5-563b-467c-905d-63d0258c3799"},"vehicle_type_id":"4","last_reported":1727115140,"current_range_meters":3200,"station_id":"ce4bgv92rcd13ifvqcq0","pricing_plan_id":"cebpf4jnsgd1na2vs0mg"},{"bike_id":"bb71692c-41ee-4bef-8652-2ac293456d0e","system_id":"levelo_inurba_marseille","lat":43.28694,"lon":5.39986,"is_reserved":false,"is_disabled":false,"rental_uris":{"android":"levelo://app?vid=bb71692c-41ee-4bef-8652-2ac293456d0e","ios":"levelo://app?vid=bb71692c-41ee-4bef-8652-2ac293456d0e"},"vehicle_type_id":"4","last_reported":1727115140,"current_range_meters":30400,"station_id":"ce4bho92rcd13ifvqh3g","pricing_plan_id":"cebpf4jnsgd1na2vs0mg"},{"bike_id":"ca55f499-86ca-4d30-9990-9ac3ec1fd5de","system_id":"levelo_inurba_marseille","lat":43.298024,"lon":5.403848,"is_reserved":false,"is_disabled":false,"rental_uris":{"android":"levelo://app?vid=ca55f499-86ca-4d30-9990-9ac3ec1fd5de","ios":"levelo://app?vid=ca55f499-86ca-4d30-9990-9ac3ec1fd5de"},"vehicle_type_id":"4","last_reported":1727115140,"current_range_meters":36400,"station_id":"ce4bh112rcd13ifvqd90","pricing_plan_id":"cebpf4jnsgd1na2vs0mg"},{"bike_id":"f5926959-3c93-489c-977f-25fd089bb738","system_id":"levelo_inurba_marseille","lat":43.28929,"lon":5.364,"is_reserved":false,"is_disabled":false,"rental_uris":{"android":"levelo://app?vid=f5926959-3c93-489c-977f-25fd089bb738","ios":"levelo://app?vid=f5926959-3c93-489c-977f-25fd089bb738"},"vehicle_type_id":"4","last_reported":1727115140,"current_range_meters":16400,"station_id":"ce4bhc92rcd13ifvqetg","pricing_plan_id":"cebpf4jnsgd1na2vs0mg"},{"bike_id":"7352b3bc-f058-4f73-91f6-9296b70b4973","system_id":"levelo_inurba_marseille","lat":43.27987,"lon":5.41663,"is_reserved":false,"is_disabled":false,"rental_uris":{"android":"levelo://app?vid=7352b3bc-f058-4f73-91f6-9296b70b4973","ios":"levelo://app?vid=7352b3bc-f058-4f73-91f6-9296b70b4973"},"vehicle_type_id":"4","last_reported":1727115140,"current_range_meters":32400,"station_id":"ce4bho12rcd13ifvqh1g","pricing_plan_id":"cebpf4jnsgd1na2vs0mg"},