{"last_updated":1748009394,"ttl":60,"version":"2.2","data":{"bikes":[{"bike_id":"c0b9fd4f-e181-46ce-b0bf-f5119973334f","system_id":"levelo_inurba_marseille","lat":43.33771,"lon":5.37424,"is_reserved":false,"is_disabled":true,"rental_uris":{"android":"levelo://app?vid=c0b9fd4f-e181-46ce-b0bf-f5119973334f","ios":"levelo://app?vid=c0b9fd4f-e181-46ce-b0bf-f5119973334f"},"vehicle_type_id":"4","last_reported":1748009394,"current_range_meters":0,"station_id":"","pricing_plan_id":"cebpf4jnsgd1na2vs0mg"},{"bike_id":"d4150556-b601-4cc0-b77e-49c2d38938cf","system_id":"levelo_inurba_marseille","lat":43.2886,"lon":5.45512,"is_reserved":false,"is_disabled":true,"rental_uris":{"android":"levelo://app?vid=d4150556-b601-4cc0-b77e-49c2d38938cf","ios":"levelo://app?vid=d4150556-b601-4cc0-b77e-49c2d38938cf"},"vehicle_type_id":"4","last_reported":1748009394,"current_range_meters":0,"station_id":"","pricing_plan_id":"cebpf4jnsgd1na2vs0mg"},{"bike_id":"e8162579-a5ad-485f-ad83-fec8a2ebe7e1","system_id":"levelo_inurba_marseille","lat":43.268341,"lon":5.391083,"is_reserved":false,"is_disabled":true,"rental_uris":{"android":"levelo://app?vid=e8162579-a5ad-485f-ad83-fec8a2ebe7e1","ios":"levelo://app?vid=e8162579-a5ad-485f-ad83-fec8a2ebe7e1"},"vehicle_type_id":"4","last_reported":1748009394,"current_range_meters":0,"station_id":"","pricing_plan_id":"cebpf4jnsgd1na2vs0mg"},{"bike_id":"c4b55004-c014-4bfa-a092-f7c7649b87ca","system_id":"levelo_inurba_marseille","lat":43.2629,"lon":5.39297,"is_reserved":false,"is_disabled":true,"rental_uris":{"android":"levelo://app?vid=c4b55004-c014-4bfa-a092-f7c7649b87ca","ios":"levelo://app?vid=c4b55004-c014-4bfa-a092-f7c7649b87ca"},"vehicle_type_id":"4","last_reported":1748009394,"current_range_meters":0,"station_id":"","pricing_plan_id":"cebpf4jnsgd1na2vs0mg"},{"bike_id":"a9d86a3e-ff61-4b3c-b1d6-cb137b96f17c","system_id":"levelo_inurba_marseille","lat":43.28886,"lon":5.4305,"is_reserved":false,"is_disabled":true,"rental_uris":{"android":"levelo://app?vid=a9d86a3e-ff61-4b3c-b1d6-cb137b96f17c","ios":"levelo://app?vid=a9d86a3e-ff61-4b3c-b1d6-cb137b96f17c"},"vehicle_type_id":"4","last_reported":1748009394,"current_range_meters":0,"station_id":"","pricing_plan_id":"cebpf4jnsgd1na2vs0mg"},{"bike_id":"15dcdbbd-a41e-43eb-9ed6-26ec15ce7a50","system_id":"levelo_inurba_marseille","lat":43.21414,"lon":5.34119,"is_reserved":false,"is_disabled":true,"rental_uris":{"android":"levelo://app?vid=15dcdbbd-a41e-43eb-9ed6-26ec15ce7a50","ios":"levelo://app?vid=15dcdbbd-a41e-43eb-9ed6-26ec15ce7a50"},"vehicle_type_id":"4","last_reported":1748009394,"current_range_meters":0,"station_id":"","pricing_plan_id":"cebpf4jnsgd1na2vs0mg"},{"bike_id":"e9dd3aa4-b5e7-4480-926d-d7f537719bfa","system_id":"levelo_inurba_marseille","lat":43.230331,"lon":5.401847,"is_reserved":false,"is_disabled":true,"rental_uris":{"android":"levelo://app?vid=e9dd3aa4-b5e7-4480-926d-d7f537719bfa","ios":"levelo://app?vid=e9dd3aa4-b5e7-4480-926d-d7f537719bfa"},"vehicle_type_id":"4","last_reported":1748009394,"current_range_meters":0,"station_id":"","pricing_plan_id":"cebpf4jnsgd1na2vs0mg"},{"bike_id":"eefa74f0-2dcd-4a41-a4ae-c440062dd0dd","system_id":"levelo_inurba_marseille","lat":43.30136,"lon":5.38793,"is_reserved":false,"is_disabled":true,"rental_uris":{"android":"levelo://app?vid=eefa74f0-2dcd-4a41-a4ae-c440062dd0dd","ios":"levelo://app?vid=eefa74f0-2dcd-4a41-a4ae-c440062dd0dd"},"vehicle_type_id":"4","last_reported":1748009394,"current_range_meters":0,"station_id":"ce4bghh2rcd13ifvqb60","pricing_plan_id":"cebpf4jnsgd1na2vs0mg"},{"bike_id":"c1494e03-e600-4caf-8870-4eba42ec0813","system_id":"levelo_inurba_marseille","lat":43.313601,"lon":5.384879,"is_reserved":false,"is_disabled":true,"rental_uris":{"android":"levelo://app?vid=c1494e03-e600-4caf-8870-4eba42ec0813","ios":"levelo://app?vid=c1494e03-e600-4caf-8870-4eba42ec0813"},"vehicle_type_id":"4","last_reported":1748009394,"current_range_meters":0,"station_id":"ce4bgt92rcd13ifvqcf0","pricing_plan_id":"cebpf4jnsgd1na2vs0mg"},{"bike_id":"7304bf12-73b4-4e89-b0ff-e90b89165714","system_id":"levelo_inurba_marseille","lat":43.29793,"lon":5.40413,"is_reserved":false,"is_disabled":true,"rental_uris":{"android":"levelo://app?vid=7304bf12-73b4-4e89-b0ff-e90b89165714","ios":"levelo://app?vid=7304bf12-73b4-4e89-b0ff-e90b89165714"},"vehicle_type_id":"4","last_reported":1748009394,"current_range_meters":0,"station_id":"ce4bh112rcd13ifvqd90","pricing_plan_id":"cebpf4jnsgd1na2vs0mg"},{"bike_id":"bd438d34-5be7-4a01-95bf-4a1f01ee947f","system_id":"levelo_inurba_marseille","lat":43.28705,"lon":5.37387,"is_reserved":false,"is_disabled":true,"rental_uris":{"android":"levelo://app?vid=bd438d34-5be7-4a01-95bf-4a1f01ee947f","ios":"levelo://app?vid=bd438d34-5be7-4a01-95bf-4a1f01ee947f"},"vehicle_type_id":"4","last_reported":1748009394,"current_range_meters":0,"station_id":"ce4bh3p2rcd13ifvqdq0","pricing_plan_id":"cebpf4jnsgd1na2vs0mg"},{"bike_id":"522da55f-11fe-4679-80f5-ca208f00991d","system_id":"levelo_inurba_marseille","lat":43.28464,"lon":5.35893,"is_reserved":false,"is_disabled":true,"rental_uris":{"android":"levelo://app?vid=522da55f-11fe-4679-80f5-ca208f00991d","ios":"levelo://app?vid=522da55f-11fe-4679-80f5-ca208f00991d"},"vehicle_type_id":"4","last_reported":1748009394,"current_range_meters":0,"station_id":"ce4bhah2rcd13ifvqei0","pricing_plan_id":"cebpf4jnsgd1na2vs0mg"},{"bike_id":"303860c8-a00d-4bce-a4f2-10da0906d7de","system_id":"levelo_inurba_marseille","lat":43.26688,"lon":5.38257,"is_reserved":false,"is_disabled":true,"rental_uris":{"android":"levelo://app?vid=303860c8-a00d-4bce-a4f2-10da0906d7de","ios":"levelo://app?vid=303860c8-a00d-4bce-a4f2-10da0906d7de"},"vehicle_type_id":"4","last_reported":1748009394,"current_range_meters":0,"station_id":"ce4bhg92rcd13ifvqf90","pricing_plan_id":"cebpf4jnsgd1na2vs0mg"},{"bike_id":"a5f25ab7-f0b3-46a6-a570-f2dc4a524481","system_id":"levelo_inurba_marseille","lat":43.25494,"lon":5.37647,"is_reserved":false,"is_disabled":true,"rental_uris":{"android":"levelo://app?vid=a5f25ab7-f0b3-46a6-a570-f2dc4a524481","ios":"levelo://app?vid=a5f25ab7-f0b3-46a6-a570-f2dc4a524481"},"vehicle_type_id":"4","last_reported":1748009394,"current_range_meters":0,"station_id":"ce4bhh12rcd13ifvqff0","pricing_plan_id":"cebpf4jnsgd1na2vs0mg"},{"bike_id":"0743bbd3-5d3e-4cbc-a172-b8dc6203e318","system_id":"levelo_inurba_marseille","lat":43.23964,"lon":5.36632,"is_reserved":false,"is_disabled":true,"rental_uris":{"android":"levelo://app?vid=0743bbd3-5d3e-4cbc-a172-b8dc6203e318","ios":"levelo://app?vid=0743bbd3-5d3e-4cbc-a172-b8dc6203e318"},"vehicle_type_id":"4","last_reported":1748009394,"current_range_meters":0,"station_id":"ce4bhi12rcd13ifvqfp0","pricing_plan_id":"cebpf4jnsgd1na2vs0mg"},{"bike_id":"9f932ec1-2bf6-4f7d-9bc1-96b617409776","system_id":"levelo_inurba_marseille","lat":43.24179,"lon":5.36396,"is_reserved":false,"is_disabled":true,"rental_uris":{"android":"levelo://app?vid=9f932ec1-2bf6-4f7d-9bc1-96b617409776","ios":"levelo://app?vid=9f932ec1-2bf6-4f7d-9bc1-96b617409776"},"vehicle_type_id":"4","last_reported":1748009394,"current_range_meters":0,"station_id":"cpo36qri1sfpv3e86is0","pricing_plan_id":"cebpf4jnsgd1na2vs0mg"},{"bike_id":"815a6be7-d0bc-423c-886f-148e1eebf456","system_id":"levelo_inurba_marseille","lat":43.299835,"lon":5.371657,"is_reserved":false,"is_disabled":true,"rental_uris":{"android":"levelo://app?vid=815a6be7-d0bc-423c-886f-148e1eebf456","ios":"levelo://app?vid=815a6be7-d0bc-423c-886f-148e1eebf456"},"vehicle_type_id":"4","last_reported":1748009394,"current_range_meters":400,"station_id":"ce4bgr92rcd13ifvqc7g","pricing_plan_id":"cebpf4jnsgd1na2vs0mg"},{"bike_id":"5ccf4a67-7ac1-4af0-9902-9dc2245c8dfb","system_id":"levelo_inurba_marseille","lat":43.26222,"lon":5.37445,"is_reserved":false,"is_disabled":true,"rental_uris":{"android":"levelo://app?vid=5ccf4a67-7ac1-4af0-9902-9dc2245c8dfb","ios":"levelo://app?vid=5ccf4a67-7ac1-4af0-9902-9dc2245c8dfb"},"vehicle_type_id":"4","last_reported":1748009394,"current_range_meters":400,"station_id":"ce4bhgp2rcd13ifvqfc0","pricing_plan_id":"cebpf4jnsgd1na2vs0mg"},{"bike_id":"a68cf1a4-e571-4e81-a3d2-c1ff4be0f6c9","system_id":"levelo_inurba_marseille","lat":43.241611,"lon":5.364049,"is_reserved":false,"is_disabled":true,"rental_uris":{"android":"levelo://app?vid=a68cf1a4-e571-4e81-a3d2-c1ff4be0f6c9","ios":"levelo://app?vid=a68cf1a4-e571-4e81-a3d2-c1ff4be0f6c9"},"vehicle_type_id":"4","last_reported":1748009394,"current_range_meters":400,"station_id":"cpo36qri1sfpv3e86is0","pricing_plan_id":"cebpf4jnsgd1na2vs0mg"},{"bike_id":"1734e8f0-15ce-4096-9b9d-c08b62fdfbe0","system_id":"levelo_inurba_marseille","lat":43.24165,"lon":5.36416,"is_reserved":false,"is_disabled":true,"rental_uris":{"android":"levelo://app?vid=1734e8f0-15ce-4096-9b9d-c08b62fdfbe0","ios":"levelo://app?vid=1734e8f0-15ce-4096-9b9d-c08b62fdfbe0"},"vehicle_type_id":"4","last_reported":1748009394,"current_range_meters":400,"station_id":"cpo36qri1sfpv3e86is0","pricing_plan_id":"cebpf4jnsgd1na2vs0mg"},{"bike_id":"b925bf3d-2cf1-499a-b341-20f455486e8f","system_id":"levelo_inurba_marseille","lat":43.29535,"lon":5.38546,"is_reserved":false,"is_disabled":true,"rental_uris":{"android":"levelo://app?vid=b925bf3d-2cf1-499a-b341-20f455486e8f","ios":"levelo://app?vid=b925bf3d-2cf1-499a-b341-20f455486e8f"},"vehicle_type_id":"4","last_reported":1748009394,"current_range_meters":800,"station_id":"ce4bgih2rcd13ifvqba0","pricing_plan_id":"cebpf4jnsgd1na2vs0mg"},{"bike_id":"f5894876-906a-42be-b216-2aef470292a3","system_id":"levelo_inurba_marseille","lat":43.27498,"lon":5.42449,"is_reserved":false,"is_disabled":true,"rental_uris":{"android":"levelo://app?vid=f5894876-906a-42be-b216-2aef470292a3","ios":"levelo://app?vid=f5894876-906a-42be-b216-2aef470292a3"},"vehicle_type_id":"4","last_reported":1748009394,"current_range_meters":800,"station_id":"ce4bhn92rcd13ifvqgrg","pricing_plan_id":"cebpf4jnsgd1na2vs0mg"},{"bike_id":"a9ba4e53-37d8-43f1-a69b-23068f4717b6","system_id":"levelo_inurba_marseille","lat":43.29576,"lon":5.39971,"is_reserved":false,"is_disabled":true,"rental_uris":{"android":"levelo://app?vid=a9ba4e53-37d8-43f1-a69b-23068f4717b6","ios":"levelo://app?vid=a9ba4e53-37d8-43f1-a69b-23068f4717b6"},"vehicle_type_id":"4","last_reported":1748009394,"current_range_meters":1200,"station_id":"ce4bh312rcd13ifvqdj0","pricing_plan_id":"cebpf4jnsgd1na2vs0mg"},{"bike_id":"f33679cf-41b3-47cd-bcc0-4e53109391d2","system_id":"levelo_inurba_marseille","lat":43.2847,"lon":5.38426,"is_reserved":false,"is_disabled":true,"rental_uris":{"android":"levelo://app?vid=f33679cf-41b3-47cd-bcc0-4e53109391d2","ios":"levelo://app?vid=f33679cf-41b3-47cd-bcc0-4e53109391d2"},"vehicle_type_id":"4","last_reported":1748009394,"current_range_meters":1200,"station_id":"ce4bh512rcd13ifvqe3g","pricing_plan_id":"cebpf4jnsgd1na2vs0mg"},{"bike_id":"e47c5c8c-47d6-4395-a0ee-4bf058a723d1","system_id":"levelo_inurba_marseille","lat":43.28658,"lon":5.36344,"is_reserved":false,"is_disabled":true,"rental_uris":{"android":"levelo://app?vid=e47c5c8c-47d6-4395-a0ee-4bf058a723d1","ios":"levelo://app?vid=e47c5c8c-47d6-4395-a0ee-4bf058a723d1"},"vehicle_type_id":"4","last_reported":1748009394,"current_range_meters":1200,"station_id":"ce4bhah2rcd13ifvqej0","pricing_plan_id":"cebpf4jnsgd1na2vs0mg"},{"bike_id":"7c34eca8-a760-4de2-83bb-0b40ed9364a0","system_id":"levelo_inurba_marseille","lat":43.28254,"lon":5.35067,"is_reserved":false,"is_disabled":true,"rental_uris":{"android":"levelo://app?vid=7c34eca8-a760-4de2-83bb-0b40ed9364a0","ios":"levelo://app?vid=7c34eca8-a760-4de2-83bb-0b40ed9364a0"},"vehicle_type_id":"4","last_reported":1748009394,"current_range_meters":1200,"station_id":"ce4bhbp2rcd13ifvqerg","pricing_plan_id":"cebpf4jnsgd1na2vs0mg"},{"bike_id":"3395f6ca-6de6-451e-a16b-397ab1adf464","system_id":"levelo_inurba_marseille","lat":43.260383,"lon":5.37556,"is_reserved":false,"is_disabled":true,"rental_uris":{"android":"levelo://app?vid=3395f6ca-6de6-451e-a16b-397ab1adf464","ios":"levelo://app?vid=3395f6ca-6de6-451e-a16b-397ab1adf464"},"vehicle_type_id":"4","last_reported":1748009394,"current_range_meters":1200,"station_id":"ce4bhgh2rcd13ifvqfa0","pricing_plan_id":"cebpf4jnsgd1na2vs0mg"},{"bike_id":"5336ba5f-3e2a-4279-ad2f-c49aaef340dd","system_id":"levelo_inurba_marseille","lat":43.27208,"lon":5.39179,"is_reserved":false,"is_disabled":true,"rental_uris":{"android":"levelo://app?vid=5336ba5f-3e2a-4279-ad2f-c49aaef340dd","ios":"levelo://app?vid=5336ba5f-3e2a-4279-ad2f-c49aaef340dd"},"vehicle_type_id":"4","last_reported":1748009394,"current_range_meters":1200,"station_id":"ce4bhhp2rcd13ifvqfm0","pricing_plan_id":"cebpf4jnsgd1na2vs0mg"},{"bike_id":"8ddefb91-8a7e-48f1-9658-02f451f20b09","system_id":"levelo_inurba_marseille","lat":43.29416,"lon":5.38627,"is_reserved":false,"is_disabled":true,"rental_uris":{"android":"levelo://app?vid=8ddefb91-8a7e-48f1-9658-02f451f20b09","ios":"levelo://app?vid=8ddefb91-8a7e-48f1-9658-02f451f20b09"},"vehicle_type_id":"4","last_reported":1748009394,"current_range_meters":1600,"station_id":"","pricing_plan_id":"cebpf4jnsgd1na2vs0mg"},{"bike_id":"0aef7f34-315c-492d-9962-114fd091c797","system_id":"levelo_inurba_marseille","lat":43.30305,"lon":5.39223,"is_reserved":false,"is_disabled":true,"rental_uris":{"android":"levelo://app?vid=0aef7f34-315c-492d-9962-114fd091c797","ios":"levelo://app?vid=0aef7f34-315c-492d-9962-114fd091c797"},"vehicle_type_id":"4","last_reported":1748009394,"current_range_meters":1600,"station_id":"ce4bgkh2rcd13ifvqbk0","pricing_plan_id":"cebpf4jnsgd1na2vs0mg"},{"bike_id":"bd0abd53-215f-45aa-9207-f546fb9f826d","system_id":"levelo_inurba_marseille","lat":43.31499,"lon":5.37308,"is_reserved":false,"is_disabled":true,"rental_uris":{"android":"levelo://app?vid=bd0abd53-215f-45aa-9207-f546fb9f826d","ios":"levelo://app?vid=bd0abd53-215f-45aa-9207-f546fb9f826d"},"vehicle_type_id":"4","last_reported":1748009394,"current_range_meters":1600,"station_id":"ce4bgt12rcd13ifvqcd0","pricing_plan_id":"cebpf4jnsgd1na2vs0mg"},{"bike_id":"b40cff87-e048-4c3a-9e26-c568b3f48b0f","system_id":"levelo_inurba_marseille","lat":43.29021,"lon":5.38136,"is_reserved":false,"is_disabled":true,"rental_uris":{"android":"levelo://app?vid=b40cff87-e048-4c3a-9e26-c568b3f48b0f","ios":"levelo://app?vid=b40cff87-e048-4c3a-9e26-c568b3f48b0f"},"vehicle_type_id":"4","last_reported":1748009394,"current_range_meters":1600,"station_id":"ce4bh4p2rcd13ifvqe1g","pricing_plan_id":"cebpf4jnsgd1na2vs0mg"},{"bike_id":"5872bb3d-10ec-4589-a840-c60856b092e6","system_id":"levelo_inurba_marseille","lat":43.28483,"lon":5.38426,"is_reserved":false,"is_disabled":true,"rental_uris":{"android":"levelo://app?vid=5872bb3d-10ec-4589-a840-c60856b092e6","ios":"levelo://app?vid=5872bb3d-10ec-4589-a840-c60856b092e6"},"vehicle_type_id":"4","last_reported":1748009394,"current_range_meters":1600,"station_id":"ce4bh512rcd13ifvqe3g","pricing_plan_id":"cebpf4jnsgd1na2vs0mg"},{"bike_id":"3c4785be-3edf-45de-944a-b52cf8ebdfc2","system_id":"levelo_inurba_marseille","lat":43.30528,"lon":5.36543,"is_reserved":false,"is_disabled":true,"rental_uris":{"android":"levelo://app?vid=3c4785be-3edf-45de-944a-b52cf8ebdfc2","ios":"levelo://app?vid=3c4785be-3edf-45de-944a-b52cf8ebdfc2"},"vehicle_type_id":"4","last_reported":1748009394,"current_range_meters":2000,"station_id":"ce4bgs12rcd13ifvqcag","pricing_plan_id":"cebpf4jnsgd1na2vs0mg"},{"bike_id":"61f16817-dd94-4252-ba57-7b57be081e71","system_id":"levelo_inurba_marseille","lat":43.26062,"lon":5.394087,"is_reserved":false,"is_disabled":true,"rental_uris":{"android":"levelo://app?vid=61f16817-dd94-4252-ba57-7b57be081e71","ios":"levelo://app?vid=61f16817-dd94-4252-ba57-7b57be081e71"},"vehicle_type_id":"4","last_reported":1748009394,"current_range_meters":2000,"station_id":"ce4bhh92rcd13ifvqfj0","pricing_plan_id":"cebpf4jnsgd1na2vs0mg"},{"bike_id":"d02f02f3-0cc2-46ba-b861-3bdab60f000f","system_id":"levelo_inurba_marseille","lat":43.24389,"lon":5.37055,"is_reserved":false,"is_disabled":true,"rental_uris":{"android":"levelo://app?vid=d02f02f3-0cc2-46ba-b861-3bdab60f000f","ios":"levelo://app?vid=d02f02f3-0cc2-46ba-b861-3bdab60f000f"},"vehicle_type_id":"4","last_reported":1748009394,"current_range_meters":2000,"station_id":"ce4bhhh2rcd13ifvqfk0","pricing_plan_id":"cebpf4jnsgd1na2vs0mg"},{"bike_id":"54e4b086-1d0d-46a7-b1bc-1ecae5d19ff7","system_id":"levelo_inurba_marseille","lat":43.30538,"lon":5.36814,"is_reserved":false,"is_disabled":false,"rental_uris":{"android":"levelo://app?vid=54e4b086-1d0d-46a7-b1bc-1ecae5d19ff7","ios":"levelo://app?vid=54e4b086-1d0d-46a7-b1bc-1ecae5d19ff7"},"vehicle_type_id":"4","last_reported":1748009394,"current_range_meters":3200,"station_id":"","pricing_plan_id":"cebpf4jnsgd1na2vs0mg"},{"bike_id":"4d8a7959-d898-45da-be2c-89b57a0469c7","system_id":"levelo_inurba_marseille","lat":43.27434,"lon":5.39425,"is_reserved":false,"is_disabled":false,"rental_uris":{"android":"levelo://app?vid=4d8a7959-d898-45da-be2c-89b57a0469c7","ios":"levelo://app?vid=4d8a7959-d898-45da-be2c-89b57a0469c7"},"vehicle_type_id":"4","last_reported":1748009394,"current_range_meters":3200,"station_id":"ce4bhdp2rcd13ifvqf20","pricing_plan_id":"cebpf4jnsgd1na2vs0mg"},{"bike_id":"fff62a0e-976c-479d-a1c7-12033927e46e","system_id":"levelo_inurba_marseille","lat":43.27327,"lon":5.39071,"is_reserved":false,"is_disabled":false,"rental_uris":{"android":"levelo://app?vid=fff62a0e-976c-479d-a1c7-12033927e46e","ios":"levelo://app?vid=fff62a0e-976c-479d-a1c7-12033927e46e"},"vehicle_type_id":"4","last_reported":1748009394,"current_range_meters":3200,"station_id":"ce4bhgp2rcd13ifvqfe0","pricing_plan_id":"cebpf4jnsgd1na2vs0mg"},{"bike_id":"2827ef28-0e2e-44ad-a881-0f5a8a0f4025","system_id":"levelo_inurba_marseille","lat":43.23155,"lon":5.4371,"is_reserved":false,"is_disabled":false,"rental_uris":{"android":"levelo://app?vid=2827ef28-0e2e-44ad-a881-0f5a8a0f4025","ios":"levelo://app?vid=2827ef28-0e2e-44ad-a881-0f5a8a0f4025"},"vehicle_type_id":"4","last_reported":1748009394,"current_range_meters":3200,"station_id":"ce4bhmp2rcd13ifvqgog","pricing_plan_id":"cebpf4jnsgd1na2vs0mg"},{"bike_id":"c8659d0d-7ba5-40a6-bbb0-715b64bd8745","system_id":"levelo_inurba_marseille","lat":43.32483,"lon":5.36559,"is_reserved":false,"is_disabled":false,"rental_uris":{"android":"levelo://app?vid=c8659d0d-7ba5-40a6-bbb0-715b64bd8745","ios":"levelo://app?vid=c8659d0d-7ba5-40a6-bbb0-715b64bd8745"},"vehicle_type_id":"4","last_reported":1748009394,"current_range_meters":3200,"station_id":"ce4bhs12rcd13ifvqhvg","pricing_plan_id":"cebpf4jnsgd1na2vs0mg"},{"bike_id":"538b5bcb-78f1-4045-8835-bbcbb4f3e58f","system_id":"levelo_inurba_marseille","lat":43.22927,"lon":5.3541,"is_reserved":false,"is_disabled":false,"rental_uris":{"android":"levelo://app?vid=538b5bcb-78f1-4045-8835-bbcbb4f3e58f","ios":"levelo://app?vid=538b5bcb-78f1-4045-8835-bbcbb4f3e58f"},"vehicle_type_id":"4","last_reported":1748009394,"current_range_meters":3200,"station_id":"cpo3532slgdg3j2ikp40","pricing_plan_id":"cebpf4jnsgd1na2vs0mg"},{"bike_id":"a322dcd1-3c13-4d6f-8ebd-fc99b3b27444","system_id":"levelo_inurba_marseille","lat":43.26562,"lon":5.40325,"is_reserved":false,"is_disabled":false,"rental_uris":{"android":"levelo://app?vid=a322dcd1-3c13-4d6f-8ebd-fc99b3b27444","ios":"levelo://app?vid=a322dcd1-3c13-4d6f-8ebd-fc99b3b27444"},"vehicle_type_id":"4","last_reported":1748009394,"current_range_meters":3600,"station_id":"","pricing_plan_id":"cebpf4jnsgd1na2vs0mg"},{"bike_id":"06b54b1b-cba8-4d9f-9eef-13e3bdfba14d","system_id":"levelo_inurba_marseille","lat":43.30926,"lon":5.36892,"is_reserved":false,"is_disabled":false,"rental_uris":{"android":"levelo://app?vid=06b54b1b-cba8-4d9f-9eef-13e3bdfba14d","ios":"levelo://app?vid=06b54b1b-cba8-4d9f-9eef-13e3bdfba14d"},"vehicle_type_id":"4","last_reported":1748009394,"current_range_meters":3600,"station_id":"ce4bgn92rcd13ifvqbvg","pricing_plan_id":"cebpf4jnsgd1na2vs0mg"},{"bike_id":"90bd400c-4e93-4af7-bd42-223775781f96","system_id":"levelo_inurba_marseille","lat":43.28714,"lon":5.37963,"is_reserved":false,"is_disabled":false,"rental_uris":{"android":"levelo://app?vid=90bd400c-4e93-4af7-bd42-223775781f96","ios":"levelo://app?vid=90bd400c-4e93-4af7-bd42-223775781f96"},"vehicle_type_id":"4","last_reported":1748009394,"current_range_meters":3600,"station_id":"ce4bh9p2rcd13ifvqec0","pricing_plan_id":"cebpf4jnsgd1na2vs0mg"},{"bike_id":"c3c7ae58-40dc-49fe-91c8-045c830c98b8","system_id":"levelo_inurba_marseille","lat":43.31928,"lon":5.44975,"is_reserved":false,"is_disabled":false,"rental_uris":{"android":"levelo://app?vid=c3c7ae58-40dc-49fe-91c8-045c830c98b8","ios":"levelo://app?vid=c3c7ae58-40dc-49fe-91c8-045c830c98b8"},"vehicle_type_id":"4","last_reported":1748009394,"current_range_meters":4000,"station_id":"","pricing_plan_id":"cebpf4jnsgd1na2vs0mg"},{"bike_id":"002fb75f-5c5b-4e35-8f0a-ab7a69492031","system_id":"levelo_inurba_marseille","lat":43.3316,"lon":5.37484,"is_reserved":false,"is_disabled":false,"rental_uris":{"android":"levelo://app?vid=002fb75f-5c5b-4e35-8f0a-ab7a69492031","ios":"levelo://app?vid=002fb75f-5c5b-4e35-8f0a-ab7a69492031"},"vehicle_type_id":"4","last_reported":1748009394,"current_range_meters":4000,"station_id":"","pricing_plan_id":"cebpf4jnsgd1na2vs0mg"},{"bike_id":"797e79cc-25b5-445a-a523-6e66cd8d356d","system_id":"levelo_inurba_marseille","lat":43.29715,"lon":5.36634,"is_reserved":false,"is_disabled":false,"rental_uris":{"android":"levelo://app?vid=797e79cc-25b5-445a-a523-6e66cd8d356d","ios":"levelo://app?vid=797e79cc-25b5-445a-a523-6e66cd8d356d"},"vehicle_type_id":"4","last_reported":1748009394,"current_range_meters":4000,"station_id":"ce4bgn12rcd13ifvqbt0","pricing_plan_id":"cebpf4jnsgd1na2vs0mg"},{"bike_id":"4e5a819b-8ea9-45a3-a2e0-b8ab75541691","system_id":"levelo_inurba_marseille","lat":43.29024,"lon":5.38144,"is_reserved":false,"is_disabled":false,"rental_uris":{"android":"levelo://app?vid=4e5a819b-8ea9-45a3-a2e0-b8ab75541691","ios":"levelo://app?vid=4e5a819b-8ea9-45a3-a2e0-b8ab75541691"},"vehicle_type_id":"4","last_reported":1748009394,"current_range_meters":4000,"station_id":"ce4bh4p2rcd13ifvqe1g","pricing_plan_id":"cebpf4jnsgd1na2vs0mg"},{"bike_id":"3b9fdab6-e49b-49ed-9e8d-e64da1490526","system_id":"levelo_inurba_marseille","lat":43.28278,"lon":5.3508,"is_reserved":false,"is_disabled":false,"rental_uris":{"android":"levelo://app?vid=3b9fdab6-e49b-49ed-9e8d-e64da1490526","ios":"levelo://app?vid=3b9fdab6-e49b-49ed-9e8d-e64da1490526"},"vehicle_type_id":"4","last_reported":1748009394,"current_range_meters":4000,"station_id":"ce4bhbp2rcd13ifvqerg","pricing_plan_id":"cebpf4jnsgd1na2vs0mg"},{"bike_id":"22b0ff3f-f254-4eca-8a85-d7ac627e8fb1","system_id":"levelo_inurba_marseille","lat":43.27051,"lon":5.40266,"is_reserved":false,"is_disabled":false,"rental_uris":{"android":"levelo://app?vid=22b0ff3f-f254-4eca-8a85-d7ac627e8fb1","ios":"levelo://app?vid=22b0ff3f-f254-4eca-8a85-d7ac627e8fb1"},"vehicle_type_id":"4","last_reported":1748009394,"current_range_meters":4000,"station_id":"ce4bhk92rcd13ifvqgc0","pricing_plan_id":"cebpf4jnsgd1na2vs0mg"},{"bike_id":"3fe3d6c4-138a-47df-b6b4-e6f19e8f7d46","system_id":"levelo_inurba_marseille","lat":43.21404,"lon":5.34125,"is_reserved":false,"is_disabled":false,"rental_uris":{"android":"levelo://app?vid=3fe3d6c4-138a-47df-b6b4-e6f19e8f7d46","ios":"levelo://app?vid=3fe3d6c4-138a-47df-b6b4-e6f19e8f7d46"},"vehicle_type_id":"4","last_reported":1748009394,"current_range_meters":4400,"station_id":"","pricing_plan_id":"cebpf4jnsgd1na2vs0mg"},{"bike_id":"31629dc5-5a66-444a-b8e5-f42d71ee0b64","system_id":"levelo_inurba_marseille","lat":43.29053,"lon":5.35916,"is_reserved":false,"is_disabled":false,"rental_uris":{"android":"levelo://app?vid=31629dc5-5a66-444a-b8e5-f42d71ee0b64","ios":"levelo://app?vid=31629dc5-5a66-444a-b8e5-f42d71ee0b64"},"vehicle_type_id":"4","last_reported":1748009394,"current_range_meters":4400,"station_id":"ce4bha92rcd13ifvqeg0","pricing_plan_id":"cebpf4jnsgd1na2vs0mg"},{"bike_id":"e1497548-a3e7-4f61-bcc0-2c20fa498d5c","system_id":"levelo_inurba_marseille","lat":43.26787,"lon":5.39411,"is_reserved":false,"is_disabled":false,"rental_uris":{"android":"levelo://app?vid=e1497548-a3e7-4f61-bcc0-2c20fa498d5c","ios":"levelo://app?vid=e1497548-a3e7-4f61-bcc0-2c20fa498d5c"},"vehicle_type_id":"4","last_reported":1748009394,"current_range_meters":4400,"station_id":"ce4bhh12rcd13ifvqfg0","pricing_plan_id":"cebpf4jnsgd1na2vs0mg"},{"bike_id":"0b8c5c0c-fdf0-4cbc-b86a-04fc6bba9a2d","system_id":"levelo_inurba_marseille","lat":43.32082,"lon":5.36831,"is_reserved":false,"is_disabled":false,"rental_uris":{"android":"levelo://app?vid=0b8c5c0c-fdf0-4cbc-b86a-04fc6bba9a2d","ios":"levelo://app?vid=0b8c5c0c-fdf0-4cbc-b86a-04fc6bba9a2d"},"vehicle_type_id":"4","last_reported":1748009394,"current_range_meters":4400,"station_id":"ce4bhrh2rcd13ifvqhug","pricing_plan_id":"cebpf4jnsgd1na2vs0mg"},{"bike_id":"ad4d8099-03a6-43ca-966f-189fb83ff678","system_id":"levelo_inurba_marseille","lat":43.31271,"lon":5.37396,"is_reserved":false,"is_disabled":false,"rental_uris":{"android":"levelo://app?vid=ad4d8099-03a6-43ca-966f-189fb83ff678","ios":"levelo://app?vid=ad4d8099-03a6-43ca-966f-189fb83ff678"},"vehicle_type_id":"4","last_reported":1748009394,"current_range_meters":4800,"station_id":"","pricing_plan_id":"cebpf4jnsgd1na2vs0mg"},{"bike_id":"f9fb40c0-1fcd-48cb-8e26-3f2dc0fb2451","system_id":"levelo_inurba_marseille","lat":43.33751,"lon":5.37509,"is_reserved":false,"is_disabled":false,"rental_uris":{"android":"levelo://app?vid=f9fb40c0-1fcd-48cb-8e26-3f2dc0fb2451","ios":"levelo://app?vid=f9fb40c0-1fcd-48cb-8e26-3f2dc0fb2451"},"vehicle_type_id":"4","last_reported":1748009394,"current_range_meters":4800,"station_id":"","pricing_plan_id":"cebpf4jnsgd1na2vs0mg"},{"bike_id":"70a71376-0513-4e46-ac63-ff61bf6a0734","system_id":"levelo_inurba_marseille","lat":43.29978,"lon":5.38495,"is_reserved":false,"is_disabled":false,"rental_uris":{"android":"levelo://app?vid=70a71376-0513-4e46-ac63-ff61bf6a0734","ios":"levelo://app?vid=70a71376-0513-4e46-ac63-ff61bf6a0734"},"vehicle_type_id":"4","last_reported":1748009394,"current_range_meters":4800,"station_id":"ce4bgj92rcd13ifvqbd0","pricing_plan_id":"cebpf4jnsgd1na2vs0mg"},{"bike_id":"c4c7b125-c4d1-45cd-b2cf-fe18597ee6e8","system_id":"levelo_inurba_marseille","lat":43.27079,"lon":5.42279,"is_reserved":false,"is_disabled":false,"rental_uris":{"android":"levelo://app?vid=c4c7b125-c4d1-45cd-b2cf-fe18597ee6e8","ios":"levelo://app?vid=c4c7b125-c4d1-45cd-b2cf-fe18597ee6e8"},"vehicle_type_id":"4","last_reported":1748009394,"current_range_meters":4800,"station_id":"ce4bhk92rcd13ifvqgb0","pricing_plan_id":"cebpf4jnsgd1na2vs0mg"},{"bike_id":"e2264334-0397-4bbd-8f8d-e26f1f5a17eb","system_id":"levelo_inurba_marseille","lat":43.281601,"lon":5.426561,"is_reserved":false,"is_disabled":false,"rental_uris":{"android":"levelo://app?vid=e2264334-0397-4bbd-8f8d-e26f1f5a17eb","ios":"levelo://app?vid=e2264334-0397-4bbd-8f8d-e26f1f5a17eb"},"vehicle_type_id":"4","last_reported":1748009394,"current_range_meters":4800,"station_id":"ce4bhnh2rcd13ifvqgug","pricing_plan_id":"cebpf4jnsgd1na2vs0mg"},{"bike_id":"780d44ea-9dfa-4892-93ef-998d12415c0d","system_id":"levelo_inurba_marseille","lat":43.26944,"lon":5.40254,"is_reserved":false,"is_disabled":false,"rental_uris":{"android":"levelo://app?vid=780d44ea-9dfa-4892-93ef-998d12415c0d","ios":"levelo://app?vid=780d44ea-9dfa-4892-93ef-998d12415c0d"},"vehicle_type_id":"4","last_reported":1748009394,"current_range_meters":4800,"station_id":"cjm6bp8fraef2m0cb0m0","pricing_plan_id":"cebpf4jnsgd1na2vs0mg"},{"bike_id":"cd2b9d97-3676-4c83-8e3b-aa4857457d9a","system_id":"levelo_inurba_marseille","lat":43.31498,"lon":5.37037,"is_reserved":false,"is_disabled":false,"rental_uris":{"android":"levelo://app?vid=cd2b9d97-3676-4c83-8e3b-aa4857457d9a","ios":"levelo://app?vid=cd2b9d97-3676-4c83-8e3b-aa4857457d9a"},"vehicle_type_id":"4","last_reported":1748009394,"current_range_meters":5600,"station_id":"","pricing_plan_id":"cebpf4jnsgd1na2vs0mg"},{"bike_id":"dc4f3499-643b-4320-99bc-ef2c0c731aef","system_id":"levelo_inurba_marseille","lat":43.2731,"lon":5.39072,"is_reserved":false,"is_disabled":false,"rental_uris":{"android":"levelo://app?vid=dc4f3499-643b-4320-99bc-ef2c0c731aef","ios":"levelo://app?vid=dc4f3499-643b-4320-99bc-ef2c0c731aef"},"vehicle_type_id":"4","last_reported":1748009394,"current_range_meters":5600,"station_id":"ce4bhgp2rcd13ifvqfe0","pricing_plan_id":"cebpf4jnsgd1na2vs0mg"},{"bike_id":"85537cc8-1f9e-491d-8aee-3d0b329e7164","system_id":"levelo_inurba_marseille","lat":43.2417,"lon":5.36396,"is_reserved":false,"is_disabled":false,"rental_uris":{"android":"levelo://app?vid=85537cc8-1f9e-491d-8aee-3d0b329e7164","ios":"levelo://app?vid=85537cc8-1f9e-491d-8aee-3d0b329e7164"},"vehicle_type_id":"4","last_reported":1748009394,"current_range_meters":5600,"station_id":"cpo36qri1sfpv3e86is0","pricing_plan_id":"cebpf4jnsgd1na2vs0mg"},{"bike_id":"1e7b9de6-2fc0-4704-8c1d-3472625c29a9","system_id":"levelo_inurba_marseille","lat":43.30433,"lon":5.38891,"is_reserved":false,"is_disabled":false,"rental_uris":{"android":"levelo://app?vid=1e7b9de6-2fc0-4704-8c1d-3472625c29a9","ios":"levelo://app?vid=1e7b9de6-2fc0-4704-8c1d-3472625c29a9"},"vehicle_type_id":"4","last_reported":1748009394,"current_range_meters":6000,"station_id":"ce4bgk12rcd13ifvqbi0","pricing_plan_id":"cebpf4jnsgd1na2vs0mg"},{"bike_id":"a13fa9a4-adfb-4e2b-adcc-c6b90ca3e153","system_id":"levelo_inurba_marseille","lat":43.30552,"lon":5.36716,"is_reserved":false,"is_disabled":false,"rental_uris":{"android":"levelo://app?vid=a13fa9a4-adfb-4e2b-adcc-c6b90ca3e153","ios":"levelo://app?vid=a13fa9a4-adfb-4e2b-adcc-c6b90ca3e153"},"vehicle_type_id":"4","last_reported":1748009394,"current_range_meters":6000,"station_id":"ce4bgrp2rcd13ifvqc9g","pricing_plan_id":"cebpf4jnsgd1na2vs0mg"},{"bike_id":"bca0fa02-c0e9-4070-be28-c8f71eb33925","system_id":"levelo_inurba_marseille","lat":43.27427,"lon":5.39421,"is_reserved":false,"is_disabled":false,"rental_uris":{"android":"levelo://app?vid=bca0fa02-c0e9-4070-be28-c8f71eb33925","ios":"levelo://app?vid=bca0fa02-c0e9-4070-be28-c8f71eb33925"},"vehicle_type_id":"4","last_reported":1748009394,"current_range_meters":6000,"station_id":"ce4bhdp2rcd13ifvqf20","pricing_plan_id":"cebpf4jnsgd1na2vs0mg"},{"bike_id":"9e80041f-72df-4074-9716-7020a24f8ea2","system_id":"levelo_inurba_marseille","lat":43.262035,"lon":5.379445,"is_reserved":false,"is_disabled":false,"rental_uris":{"android":"levelo://app?vid=9e80041f-72df-4074-9716-7020a24f8ea2","ios":"levelo://app?vid=9e80041f-72df-4074-9716-7020a24f8ea2"},"vehicle_type_id":"4","last_reported":1748009394,"current_range_meters":6000,"station_id":"ce4bhjp2rcd13ifvqg90","pricing_plan_id":"cebpf4jnsgd1na2vs0mg"},{"bike_id":"115d1319-220d-4429-bb51-da79ad3354d2","system_id":"levelo_inurba_marseille","lat":43.27999,"lon":5.40013,"is_reserved":false,"is_disabled":false,"rental_uris":{"android":"levelo://app?vid=115d1319-220d-4429-bb51-da79ad3354d2","ios":"levelo://app?vid=115d1319-220d-4429-bb51-da79ad3354d2"},"vehicle_type_id":"4","last_reported":1748009394,"current_range_meters":6000,"station_id":"ce4bho92rcd13ifvqh4g","pricing_plan_id":"cebpf4jnsgd1na2vs0mg"},{"bike_id":"27653dcd-dec9-4f13-b172-8968c20c1725","system_id":"levelo_inurba_marseille","lat":43.238571,"lon":5.430971,"is_reserved":false,"is_disabled":false,"rental_uris":{"android":"levelo://app?vid=27653dcd-dec9-4f13-b172-8968c20c1725","ios":"levelo://app?vid=27653dcd-dec9-4f13-b172-8968c20c1725"},"vehicle_type_id":"4","last_reported":1748009394,"current_range_meters":6400,"station_id":"","pricing_plan_id":"cebpf4jnsgd1na2vs0mg"},{"bike_id":"cb276079-3cee-4c9c-8540-479fbf144e2e","system_id":"levelo_inurba_marseille","lat":43.27999,"lon":5.40006,"is_reserved":false,"is_disabled":false,"rental_uris":{"android":"levelo://app?vid=cb276079-3cee-4c9c-8540-479fbf144e2e","ios":"levelo://app?vid=cb276079-3cee-4c9c-8540-479fbf144e2e"},"vehicle_type_id":"4","last_reported":1748009394,"current_range_meters":6400,"station_id":"ce4bho92rcd13ifvqh4g","pricing_plan_id":"cebpf4jnsgd1na2vs0mg"},{"bike_id":"2beacbd4-9ba8-4aa5-99c8-d3c30bd9fb89","system_id":"levelo_inurba_marseille","lat":43.28001,"lon":5.40007,"is_reserved":false,"is_disabled":false,"rental_uris":{"android":"levelo://app?vid=2beacbd4-9ba8-4aa5-99c8-d3c30bd9fb89","ios":"levelo://app?vid=2beacbd4-9ba8-4aa5-99c8-d3c30bd9fb89"},"vehicle_type_id":"4","last_reported":1748009394,"current_range_meters":6400,"station_id":"ce4bho92rcd13ifvqh4g","pricing_plan_id":"cebpf4jnsgd1na2vs0mg"},{"bike_id":"6a85369f-636f-4448-91f6-e3994a0fb52b","system_id":"levelo_inurba_marseille","lat":43.27753,"lon":5.38699,"is_reserved":false,"is_disabled":false,"rental_uris":{"android":"levelo://app?vid=6a85369f-636f-4448-91f6-e3994a0fb52b","ios":"levelo://app?vid=6a85369f-636f-4448-91f6-e3994a0fb52b"},"vehicle_type_id":"4","last_reported":1748009394,"current_range_meters":6800,"station_id":"","pricing_plan_id":"cebpf4jnsgd1na2vs0mg"},{"bike_id":"132bf047-9fe6-4ec3-8de0-cccc7c675ad8","system_id":"levelo_inurba_marseille","lat":43.284566,"lon":5.349699,"is_reserved":false,"is_disabled":false,"rental_uris":{"android":"levelo://app?vid=132bf047-9fe6-4ec3-8de0-cccc7c675ad8","ios":"levelo://app?vid=132bf047-9fe6-4ec3-8de0-cccc7c675ad8"},"vehicle_type_id":"4","last_reported":1748009394,"current_range_meters":6800,"station_id":"ce4bhbp2rcd13ifvqerg","pricing_plan_id":"cebpf4jnsgd1na2vs0mg"},{"bike_id":"40dcd092-69e3-40ad-a60c-753e45c6b1dc","system_id":"levelo_inurba_marseille","lat":43.26482,"lon":5.39533,"is_reserved":false,"is_disabled":false,"rental_uris":{"android":"levelo://app?vid=40dcd092-69e3-40ad-a60c-753e45c6b1dc","ios":"levelo://app?vid=40dcd092-69e3-40ad-a60c-753e45c6b1dc"},"vehicle_type_id":"4","last_reported":1748009394,"current_range_meters":6800,"station_id":"ce4bhi12rcd13ifvqfq0","pricing_plan_id":"cebpf4jnsgd1na2vs0mg"},{"bike_id":"93a344e6-8243-4070-bf43-270634e364fe","system_id":"levelo_inurba_marseille","lat":43.28001,"lon":5.400101,"is_reserved":false,"is_disabled":false,"rental_uris":{"android":"levelo://app?vid=93a344e6-8243-4070-bf43-270634e364fe","ios":"levelo://app?vid=93a344e6-8243-4070-bf43-270634e364fe"},"vehicle_type_id":"4","last_reported":1748009394,"current_range_meters":6800,"station_id":"ce4bho92rcd13ifvqh4g","pricing_plan_id":"cebpf4jnsgd1na2vs0mg"},{"bike_id":"f54aa60c-88e2-4878-b735-0e5293e904ab","system_id":"levelo_inurba_marseille","lat":43.32338,"lon":5.40628,"is_reserved":false,"is_disabled":false,"rental_uris":{"android":"levelo://app?vid=f54aa60c-88e2-4878-b735-0e5293e904ab","ios":"levelo://app?vid=f54aa60c-88e2-4878-b735-0e5293e904ab"},"vehicle_type_id":"4","last_reported":1748009394,"current_range_meters":6800,"station_id":"ce4bhq92rcd13ifvqhjg","pricing_plan_id":"cebpf4jnsgd1na2vs0mg"},{"bike_id":"895fec85-4848-4820-b938-243da6ee2367","system_id":"levelo_inurba_marseille","lat":43.304598,"lon":5.379112,"is_reserved":false,"is_disabled":false,"rental_uris":{"android":"levelo://app?vid=895fec85-4848-4820-b938-243da6ee2367","ios":"levelo://app?vid=895fec85-4848-4820-b938-243da6ee2367"},"vehicle_type_id":"4","last_reported":1748009394,"current_range_meters":6800,"station_id":"ce4bhs12rcd13ifvqhvg","pricing_plan_id":"cebpf4jnsgd1na2vs0mg"},{"bike_id":"5754523d-15a4-4297-b33a-3586b262bed2","system_id":"levelo_inurba_marseille","lat":43.30846,"lon":5.37179,"is_reserved":false,"is_disabled":false,"rental_uris":{"android":"levelo://app?vid=5754523d-15a4-4297-b33a-3586b262bed2","ios":"levelo://app?vid=5754523d-15a4-4297-b33a-3586b262bed2"},"vehicle_type_id":"4","last_reported":1748009394,"current_range_meters":7200,"station_id":"","pricing_plan_id":"cebpf4jnsgd1na2vs0mg"},{"bike_id":"31110881-d64f-45f8-9810-bbf84a002836","system_id":"levelo_inurba_marseille","lat":43.28337,"lon":5.46132,"is_reserved":false,"is_disabled":false,"rental_uris":{"android":"levelo://app?vid=31110881-d64f-45f8-9810-bbf84a002836","ios":"levelo://app?vid=31110881-d64f-45f8-9810-bbf84a002836"},"vehicle_type_id":"4","last_reported":1748009394,"current_range_meters":7200,"station_id":"","pricing_plan_id":"cebpf4jnsgd1na2vs0mg"},{"bike_id":"23bf4107-03bb-4d80-a9d8-fb385ff1e9bd","system_id":"levelo_inurba_marseille","lat":43.30468,"lon":5.37917,"is_reserved":false,"is_disabled":false,"rental_uris":{"android":"levelo://app?vid=23bf4107-03bb-4d80-a9d8-fb385ff1e9bd","ios":"levelo://app?vid=23bf4107-03bb-4d80-a9d8-fb385ff1e9bd"},"vehicle_type_id":"4","last_reported":1748009394,"current_range_meters":7200,"station_id":"ce4bgup2rcd13ifvqcn0","pricing_plan_id":"cebpf4jnsgd1na2vs0mg"},{"bike_id":"0e4857e8-e880-4409-9508-e61342c5a4ee","system_id":"levelo_inurba_marseille","lat":43.29009,"lon":5.35605,"is_reserved":false,"is_disabled":false,"rental_uris":{"android":"levelo://app?vid=0e4857e8-e880-4409-9508-e61342c5a4ee","ios":"levelo://app?vid=0e4857e8-e880-4409-9508-e61342c5a4ee"},"vehicle_type_id":"4","last_reported":1748009394,"current_range_meters":7200,"station_id":"ce4bhb92rcd13ifvqen0","pricing_plan_id":"cebpf4jnsgd1na2vs0mg"},{"bike_id":"2ca7a36d-f94a-4a75-8083-db0f9063bb08","system_id":"levelo_inurba_marseille","lat":43.25089,"lon":5.39521,"is_reserved":false,"is_disabled":false,"rental_uris":{"android":"levelo://app?vid=2ca7a36d-f94a-4a75-8083-db0f9063bb08","ios":"levelo://app?vid=2ca7a36d-f94a-4a75-8083-db0f9063bb08"},"vehicle_type_id":"4","last_reported":1748009394,"current_range_meters":7200,"station_id":"ce4bhm12rcd13ifvqgkg","pricing_plan_id":"cebpf4jnsgd1na2vs0mg"},{"bike_id":"6c5f9541-32ae-4866-9441-8e3d53bc1eda","system_id":"levelo_inurba_marseille","lat":43.23193,"lon":5.35556,"is_reserved":false,"is_disabled":false,"rental_uris":{"android":"levelo://app?vid=6c5f9541-32ae-4866-9441-8e3d53bc1eda","ios":"levelo://app?vid=6c5f9541-32ae-4866-9441-8e3d53bc1eda"},"vehicle_type_id":"4","last_reported":1748009394,"current_range_meters":7200,"station_id":"ce4bhu92rcd13ifvqi70","pricing_plan_id":"cebpf4jnsgd1na2vs0mg"},{"bike_id":"7dfdfdc8-9c79-46b6-9a4b-924773b53f29","system_id":"levelo_inurba_marseille","lat":43.26871,"lon":5.39177,"is_reserved":false,"is_disabled":false,"rental_uris":{"android":"levelo://app?vid=7dfdfdc8-9c79-46b6-9a4b-924773b53f29","ios":"levelo://app?vid=7dfdfdc8-9c79-46b6-9a4b-924773b53f29"},"vehicle_type_id":"4","last_reported":1748009394,"current_range_meters":8000,"station_id":"","pricing_plan_id":"cebpf4jnsgd1na2vs0mg"},{"bike_id":"950cad50-4e47-43b4-ba8e-d97ac6386634","system_id":"levelo_inurba_marseille","lat":43.255774,"lon":5.382209,"is_reserved":false,"is_disabled":false,"rental_uris":{"android":"levelo://app?vid=950cad50-4e47-43b4-ba8e-d97ac6386634","ios":"levelo://app?vid=950cad50-4e47-43b4-ba8e-d97ac6386634"},"vehicle_type_id":"4","last_reported":1748009394,"current_range_meters":8000,"station_id":"","pricing_plan_id":"cebpf4jnsgd1na2vs0mg"},{"bike_id":"6fb0a720-683a-41e2-aa58-b917f19c1264","system_id":"levelo_inurba_marseille","lat":43.3132,"lon":5.36738,"is_reserved":false,"is_disabled":false,"rental_uris":{"android":"levelo://app?vid=6fb0a720-683a-41e2-aa58-b917f19c1264","ios":"levelo://app?vid=6fb0a720-683a-41e2-aa58-b917f19c1264"},"vehicle_type_id":"4","last_reported":1748009394,"current_range_meters":8000,"station_id":"ce4bgr92rcd13ifvqc6g","pricing_plan_id":"cebpf4jnsgd1na2vs0mg"},{"bike_id":"fe437aa2-ee9e-4469-9241-d8da23cf1b7c","system_id":"levelo_inurba_marseille","lat":43.28717,"lon":5.3795,"is_reserved":false,"is_disabled":false,"rental_uris":{"android":"levelo://app?vid=fe437aa2-ee9e-4469-9241-d8da23cf1b7c","ios":"levelo://app?vid=fe437aa2-ee9e-4469-9241-d8da23cf1b7c"},"vehicle_type_id":"4","last_reported":1748009394,"current_range_meters":8000,"station_id":"ce4bh9p2rcd13ifvqec0","pricing_plan_id":"cebpf4jnsgd1na2vs0mg"},{"bike_id":"3ac1833d-4a14-46ce-a6d6-8f20f96988bc","system_id":"levelo_inurba_marseille","lat":43.24175,"lon":5.39742,"is_reserved":false,"is_disabled":false,"rental_uris":{"android":"levelo://app?vid=3ac1833d-4a14-46ce-a6d6-8f20f96988bc","ios":"levelo://app?vid=3ac1833d-4a14-46ce-a6d6-8f20f96988bc"},"vehicle_type_id":"4","last_reported":1748009394,"current_range_meters":8000,"station_id":"ce4bhn12rcd13ifvqgpg","pricing_plan_id":"cebpf4jnsgd1na2vs0mg"},{"bike_id":"e8c9c08f-e38f-48c2-9e9b-2383dddb8e6c","system_id":"levelo_inurba_marseille","lat":43.291261,"lon":5.382963,"is_reserved":false,"is_disabled":false,"rental_uris":{"android":"levelo://app?vid=e8c9c08f-e38f-48c2-9e9b-2383dddb8e6c","ios":"levelo://app?vid=e8c9c08f-e38f-48c2-9e9b-2383dddb8e6c"},"vehicle_type_id":"4","last_reported":1748009394,"current_range_meters":8400,"station_id":"","pricing_plan_id":"cebpf4jnsgd1na2vs0mg"},{"bike_id":"957a2ef5-85e5-452e-b3ad-f5aa0649e94b","system_id":"levelo_inurba_marseille","lat":43.27326,"lon":5.39071,"is_reserved":false,"is_disabled":false,"rental_uris":{"android":"levelo://app?vid=957a2ef5-85e5-452e-b3ad-f5aa0649e94b","ios":"levelo://app?vid=957a2ef5-85e5-452e-b3ad-f5aa0649e94b"},"vehicle_type_id":"4","last_reported":1748009394,"current_range_meters":8400,"station_id":"ce4bhgp2rcd13ifvqfe0","pricing_plan_id":"cebpf4jnsgd1na2vs0mg"},{"bike_id":"e4562ad1-0a39-4300-91ec-1f0dc2c1ff97","system_id":"levelo_inurba_marseille","lat":43.3248,"lon":5.36587,"is_reserved":false,"is_disabled":false,"rental_uris":{"android":"levelo://app?vid=e4562ad1-0a39-4300-91ec-1f0dc2c1ff97","ios":"levelo://app?vid=e4562ad1-0a39-4300-91ec-1f0dc2c1ff97"},"vehicle_type_id":"4","last_reported":1748009394,"current_range_meters":8400,"station_id":"ce4bhs12rcd13ifvqhvg","pricing_plan_id":"cebpf4jnsgd1na2vs0mg"},{"bike_id":"ef4e10c1-a3cb-4a4d-a1c4-e3f822c92b75","system_id":"levelo_inurba_marseille","lat":43.286135,"lon":5.37068,"is_reserved":false,"is_disabled":false,"rental_uris":{"android":"levelo://app?vid=ef4e10c1-a3cb-4a4d-a1c4-e3f822c92b75","ios":"levelo://app?vid=ef4e10c1-a3cb-4a4d-a1c4-e3f822c92b75"},"vehicle_type_id":"4","last_reported":1748009394,"current_range_meters":8800,"station_id":"","pricing_plan_id":"cebpf4jnsgd1na2vs0mg"},{"bike_id":"7d7eb00e-9da3-403d-8836-0841fa1c546d","system_id":"levelo_inurba_marseille","lat":43.30437,"lon":5.38892,"is_reserved":false,"is_disabled":false,"rental_uris":{"android":"levelo://app?vid=7d7eb00e-9da3-403d-8836-0841fa1c546d","ios":"levelo://app?vid=7d7eb00e-9da3-403d-8836-0841fa1c546d"},"vehicle_type_id":"4","last_reported":1748009394,"current_range_meters":8800,"station_id":"ce4bgk12rcd13ifvqbi0","pricing_plan_id":"cebpf4jnsgd1na2vs0mg"},{"bike_id":"3741d7e0-f2d3-4324-8f60-8f4bfb372bfa","system_id":"levelo_inurba_marseille","lat":43.28261,"lon":5.35068,"is_reserved":false,"is_disabled":false,"rental_uris":{"android":"levelo://app?vid=3741d7e0-f2d3-4324-8f60-8f4bfb372bfa","ios":"levelo://app?vid=3741d7e0-f2d3-4324-8f60-8f4bfb372bfa"},"vehicle_type_id":"4","last_reported":1748009394,"current_range_meters":8800,"station_id":"ce4bhbp2rcd13ifvqerg","pricing_plan_id":"cebpf4jnsgd1na2vs0mg"},{"bike_id":"6f0518f5-8456-4fc1-b926-deb4e73be7d2","system_id":"levelo_inurba_marseille","lat":43.25,"lon":5.38931,"is_reserved":false,"is_disabled":false,"rental_uris":{"android":"levelo://app?vid=6f0518f5-8456-4fc1-b926-deb4e73be7d2","ios":"levelo://app?vid=6f0518f5-8456-4fc1-b926-deb4e73be7d2"},"vehicle_type_id":"4","last_reported":1748009394,"current_range_meters":8800,"station_id":"ce4bhgp2rcd13ifvqfd0","pricing_plan_id":"cebpf4jnsgd1na2vs0mg"},{"bike_id":"e06af197-519c-44b8-abbc-63518305d88c","system_id":"levelo_inurba_marseille","lat":43.25006,"lon":5.38948,"is_reserved":false,"is_disabled":false,"rental_uris":{"android":"levelo://app?vid=e06af197-519c-44b8-abbc-63518305d88c","ios":"levelo://app?vid=e06af197-519c-44b8-abbc-63518305d88c"},"vehicle_type_id":"4","last_reported":1748009394,"current_range_meters":8800,"station_id":"ce4bhgp2rcd13ifvqfd0","pricing_plan_id":"cebpf4jnsgd1na2vs0mg"},{"bike_id":"5889a789-8c97-4385-afe0-aa9c1e3031d7","system_id":"levelo_inurba_marseille","lat":43.26494,"lon":5.39537,"is_reserved":false,"is_disabled":false,"rental_uris":{"android":"levelo://app?vid=5889a789-8c97-4385-afe0-aa9c1e3031d7","ios":"levelo://app?vid=5889a789-8c97-4385-afe0-aa9c1e3031d7"},"vehicle_type_id":"4","last_reported":1748009394,"current_range_meters":8800,"station_id":"ce4bhi12rcd13ifvqfq0","pricing_plan_id":"cebpf4jnsgd1na2vs0mg"},{"bike_id":"c2ea5a9c-8fd7-40ac-8515-427466010d70","system_id":"levelo_inurba_marseille","lat":43.321083,"lon":5.367821,"is_reserved":false,"is_disabled":false,"rental_uris":{"android":"levelo://app?vid=c2ea5a9c-8fd7-40ac-8515-427466010d70","ios":"levelo://app?vid=c2ea5a9c-8fd7-40ac-8515-427466010d70"},"vehicle_type_id":"4","last_reported":1748009394,"current_range_meters":8800,"station_id":"ce4bhrh2rcd13ifvqhug","pricing_plan_id":"cebpf4jnsgd1na2vs0mg"},{"bike_id":"14feda73-7baf-4b64-8ae9-79f4fe7d4a5f","system_id":"levelo_inurba_marseille","lat":43.323724,"lon":5.367613,"is_reserved":false,"is_disabled":false,"rental_uris":{"android":"levelo://app?vid=14feda73-7baf-4b64-8ae9-79f4fe7d4a5f","ios":"levelo://app?vid=14feda73-7baf-4b64-8ae9-79f4fe7d4a5f"},"vehicle_type_id":"4","last_reported":1748009394,"current_range_meters":8800,"station_id":"ce4bhsh2rcd13ifvqi2g","pricing_plan_id":"cebpf4jnsgd1na2vs0mg"},{"bike_id":"d7d235b9-a857-470f-8469-0c54d7a928c7","system_id":"levelo_inurba_marseille","lat":43.3055,"lon":5.38421,"is_reserved":false,"is_disabled":false,"rental_uris":{"android":"levelo://app?vid=d7d235b9-a857-470f-8469-0c54d7a928c7","ios":"levelo://app?vid=d7d235b9-a857-470f-8469-0c54d7a928c7"},"vehicle_type_id":"4","last_reported":1748009394,"current_range_meters":9200,"station_id":"ce4bgg92rcd13ifvqb30","pricing_plan_id":"cebpf4jnsgd1na2vs0mg"},{"bike_id":"28771fce-d65f-4e75-990f-dd3c3a286865","system_id":"levelo_inurba_marseille","lat":43.30153,"lon":5.38069,"is_reserved":false,"is_disabled":false,"rental_uris":{"android":"levelo://app?vid=28771fce-d65f-4e75-990f-dd3c3a286865","ios":"levelo://app?vid=28771fce-d65f-4e75-990f-dd3c3a286865"},"vehicle_type_id":"4","last_reported":1748009394,"current_range_meters":9200,"station_id":"ce4bgjp2rcd13ifvqbh0","pricing_plan_id":"cebpf4jnsgd1na2vs0mg"},{"bike_id":"584fdcbd-4a28-4c96-a2c3-e69cb1cfb63b","system_id":"levelo_inurba_marseille","lat":43.30314,"lon":5.36917,"is_reserved":false,"is_disabled":false,"rental_uris":{"android":"levelo://app?vid=584fdcbd-4a28-4c96-a2c3-e69cb1cfb63b","ios":"levelo://app?vid=584fdcbd-4a28-4c96-a2c3-e69cb1cfb63b"},"vehicle_type_id":"4","last_reported":1748009394,"current_range_meters":9200,"station_id":"ce4bgqh2rcd13ifvqc5g","pricing_plan_id":"cebpf4jnsgd1na2vs0mg"},{"bike_id":"d46b57d3-43f2-4de7-941a-be064b11bcb9","system_id":"levelo_inurba_marseille","lat":43.30148,"lon":5.37415,"is_reserved":false,"is_disabled":false,"rental_uris":{"android":"levelo://app?vid=d46b57d3-43f2-4de7-941a-be064b11bcb9","ios":"levelo://app?vid=d46b57d3-43f2-4de7-941a-be064b11bcb9"},"vehicle_type_id":"4","last_reported":1748009394,"current_range_meters":9200,"station_id":"ce4bgs92rcd13ifvqcc0","pricing_plan_id":"cebpf4jnsgd1na2vs0mg"},{"bike_id":"6c7eb2a2-c461-464b-8737-c68ed563d462","system_id":"levelo_inurba_marseille","lat":43.30872,"lon":5.39651,"is_reserved":false,"is_disabled":false,"rental_uris":{"android":"levelo://app?vid=6c7eb2a2-c461-464b-8737-c68ed563d462","ios":"levelo://app?vid=6c7eb2a2-c461-464b-8737-c68ed563d462"},"vehicle_type_id":"4","last_reported":1748009394,"current_range_meters":9200,"station_id":"ce4bh012rcd13ifvqcv0","pricing_plan_id":"cebpf4jnsgd1na2vs0mg"},{"bike_id":"f8de2ce7-c5ef-4587-b7fb-24eb56c465b5","system_id":"levelo_inurba_marseille","lat":43.24076,"lon":5.37763,"is_reserved":false,"is_disabled":false,"rental_uris":{"android":"levelo://app?vid=f8de2ce7-c5ef-4587-b7fb-24eb56c465b5","ios":"levelo://app?vid=f8de2ce7-c5ef-4587-b7fb-24eb56c465b5"},"vehicle_type_id":"4","last_reported":1748009394,"current_range_meters":9200,"station_id":"ce4bhnp2rcd13ifvqgvg","pricing_plan_id":"cebpf4jnsgd1na2vs0mg"},{"bike_id":"2d5f7454-a4a6-4e8b-9495-8d6b94c61ba5","system_id":"levelo_inurba_marseille","lat":43.22938,"lon":5.35379,"is_reserved":false,"is_disabled":false,"rental_uris":{"android":"levelo://app?vid=2d5f7454-a4a6-4e8b-9495-8d6b94c61ba5","ios":"levelo://app?vid=2d5f7454-a4a6-4e8b-9495-8d6b94c61ba5"},"vehicle_type_id":"4","last_reported":1748009394,"current_range_meters":9200,"station_id":"cpo3532slgdg3j2ikp40","pricing_plan_id":"cebpf4jnsgd1na2vs0mg"},{"bike_id":"dd1a7686-7d5c-4f61-b609-66295fc9ad4e","system_id":"levelo_inurba_marseille","lat":43.29532,"lon":5.38553,"is_reserved":false,"is_disabled":false,"rental_uris":{"android":"levelo://app?vid=dd1a7686-7d5c-4f61-b609-66295fc9ad4e","ios":"levelo://app?vid=dd1a7686-7d5c-4f61-b609-66295fc9ad4e"},"vehicle_type_id":"4","last_reported":1748009394,"current_range_meters":9600,"station_id":"ce4bgih2rcd13ifvqba0","pricing_plan_id":"cebpf4jnsgd1na2vs0mg"},{"bike_id":"a23376cf-c6ff-4ff7-a442-09f71e099de6","system_id":"levelo_inurba_marseille","lat":43.30324,"lon":5.4043,"is_reserved":false,"is_disabled":false,"rental_uris":{"android":"levelo://app?vid=a23376cf-c6ff-4ff7-a442-09f71e099de6","ios":"levelo://app?vid=a23376cf-c6ff-4ff7-a442-09f71e099de6"},"vehicle_type_id":"4","last_reported":1748009394,"current_range_meters":9600,"station_id":"ce4bh012rcd13ifvqd10","pricing_plan_id":"cebpf4jnsgd1na2vs0mg"},{"bike_id":"92430673-68d4-4230-9c52-805f88420e8b","system_id":"levelo_inurba_marseille","lat":43.29535,"lon":5.39391,"is_reserved":false,"is_disabled":false,"rental_uris":{"android":"levelo://app?vid=92430673-68d4-4230-9c52-805f88420e8b","ios":"levelo://app?vid=92430673-68d4-4230-9c52-805f88420e8b"},"vehicle_type_id":"4","last_reported":1748009394,"current_range_meters":9600,"station_id":"ce4bh292rcd13ifvqdf0","pricing_plan_id":"cebpf4jnsgd1na2vs0mg"},{"bike_id":"3141dc53-8e17-4c61-a0f5-996495c4e4dd","system_id":"levelo_inurba_marseille","lat":43.26555,"lon":5.37295,"is_reserved":false,"is_disabled":false,"rental_uris":{"android":"levelo://app?vid=3141dc53-8e17-4c61-a0f5-996495c4e4dd","ios":"levelo://app?vid=3141dc53-8e17-4c61-a0f5-996495c4e4dd"},"vehicle_type_id":"4","last_reported":1748009394,"current_range_meters":9600,"station_id":"ce4bhg12rcd13ifvqf70","pricing_plan_id":"cebpf4jnsgd1na2vs0mg"},{"bike_id":"18ca849a-bab9-472d-80e2-f3856fcd9684","system_id":"levelo_inurba_marseille","lat":43.2396,"lon":5.36639,"is_reserved":false,"is_disabled":false,"rental_uris":{"android":"levelo://app?vid=18ca849a-bab9-472d-80e2-f3856fcd9684","ios":"levelo://app?vid=18ca849a-bab9-472d-80e2-f3856fcd9684"},"vehicle_type_id":"4","last_reported":1748009394,"current_range_meters":9600,"station_id":"ce4bhi12rcd13ifvqfp0","pricing_plan_id":"cebpf4jnsgd1na2vs0mg"},{"bike_id":"bf2992e7-2c06-488d-82cd-f46a5f675e40","system_id":"levelo_inurba_marseille","lat":43.25716,"lon":5.41121,"is_reserved":false,"is_disabled":false,"rental_uris":{"android":"levelo://app?vid=bf2992e7-2c06-488d-82cd-f46a5f675e40","ios":"levelo://app?vid=bf2992e7-2c06-488d-82cd-f46a5f675e40"},"vehicle_type_id":"4","last_reported":1748009394,"current_range_meters":9600,"station_id":"ce4bhkp2rcd13ifvqgd0","pricing_plan_id":"cebpf4jnsgd1na2vs0mg"},{"bike_id":"e3e19b90-9823-4b53-b8a7-4c599b3176c2","system_id":"levelo_inurba_marseille","lat":43.251016,"lon":5.403125,"is_reserved":false,"is_disabled":false,"rental_uris":{"android":"levelo://app?vid=e3e19b90-9823-4b53-b8a7-4c599b3176c2","ios":"levelo://app?vid=e3e19b90-9823-4b53-b8a7-4c599b3176c2"},"vehicle_type_id":"4","last_reported":1748009394,"current_range_meters":9600,"station_id":"ce4bhlh2rcd13ifvqgig","pricing_plan_id":"cebpf4jnsgd1na2vs0mg"},{"bike_id":"6e0ef299-0936-4911-b177-862cab14ae70","system_id":"levelo_inurba_marseille","lat":43.2315,"lon":5.43712,"is_reserved":false,"is_disabled":false,"rental_uris":{"android":"levelo://app?vid=6e0ef299-0936-4911-b177-862cab14ae70","ios":"levelo://app?vid=6e0ef299-0936-4911-b177-862cab14ae70"},"vehicle_type_id":"4","last_reported":1748009394,"current_range_meters":9600,"station_id":"ce4bhmp2rcd13ifvqgog","pricing_plan_id":"cebpf4jnsgd1na2vs0mg"},{"bike_id":"0024433f-af71-4e2f-8800-29ec83c95408","system_id":"levelo_inurba_marseille","lat":43.30314,"lon":5.36913,"is_reserved":false,"is_disabled":false,"rental_uris":{"android":"levelo://app?vid=0024433f-af71-4e2f-8800-29ec83c95408","ios":"levelo://app?vid=0024433f-af71-4e2f-8800-29ec83c95408"},"vehicle_type_id":"4","last_reported":1748009394,"current_range_meters":10000,"station_id":"ce4bgqh2rcd13ifvqc5g","pricing_plan_id":"cebpf4jnsgd1na2vs0mg"},{"bike_id":"0cdc087c-dcdd-4139-9705-f494f629fcde","system_id":"levelo_inurba_marseille","lat":43.28697,"lon":5.37395,"is_reserved":false,"is_disabled":false,"rental_uris":{"android":"levelo://app?vid=0cdc087c-dcdd-4139-9705-f494f629fcde","ios":"levelo://app?vid=0cdc087c-dcdd-4139-9705-f494f629fcde"},"vehicle_type_id":"4","last_reported":1748009394,"current_range_meters":10000,"station_id":"ce4bh3p2rcd13ifvqdq0","pricing_plan_id":"cebpf4jnsgd1na2vs0mg"},{"bike_id":"c1ac9fb7-70bc-4e3f-8629-20a7b41c63c4","system_id":"levelo_inurba_marseille","lat":43.27374,"lon":5.36263,"is_reserved":false,"is_disabled":false,"rental_uris":{"android":"levelo://app?vid=c1ac9fb7-70bc-4e3f-8629-20a7b41c63c4","ios":"levelo://app?vid=c1ac9fb7-70bc-4e3f-8629-20a7b41c63c4"},"vehicle_type_id":"4","last_reported":1748009394,"current_range_meters":10000,"station_id":"ce4bhbh2rcd13ifvqeo0","pricing_plan_id":"cebpf4jnsgd1na2vs0mg"},{"bike_id":"4b63e35c-d60f-40b7-a046-8ac2772fac2f","system_id":"levelo_inurba_marseille","lat":43.25088,"lon":5.39513,"is_reserved":false,"is_disabled":false,"rental_uris":{"android":"levelo://app?vid=4b63e35c-d60f-40b7-a046-8ac2772fac2f","ios":"levelo://app?vid=4b63e35c-d60f-40b7-a046-8ac2772fac2f"},"vehicle_type_id":"4","last_reported":1748009394,"current_range_meters":10000,"station_id":"ce4bhm12rcd13ifvqgkg","pricing_plan_id":"cebpf4jnsgd1na2vs0mg"},{"bike_id":"f752cbda-e0c3-41c3-83cb-29eaf6ccd7a5","system_id":"levelo_inurba_marseille","lat":43.21748,"lon":5.34616,"is_reserved":false,"is_disabled":false,"rental_uris":{"android":"levelo://app?vid=f752cbda-e0c3-41c3-83cb-29eaf6ccd7a5","ios":"levelo://app?vid=f752cbda-e0c3-41c3-83cb-29eaf6ccd7a5"},"vehicle_type_id":"4","last_reported":1748009394,"current_range_meters":10000,"station_id":"st_cvj6r9ubvosntc0bgbag","pricing_plan_id":"cebpf4jnsgd1na2vs0mg"},{"bike_id":"33b680fc-5ec1-4cd5-ba96-596e8c1f3dea","system_id":"levelo_inurba_marseille","lat":43.308898,"lon":5.371908,"is_reserved":false,"is_disabled":false,"rental_uris":{"android":"levelo://app?vid=33b680fc-5ec1-4cd5-ba96-596e8c1f3dea","ios":"levelo://app?vid=33b680fc-5ec1-4cd5-ba96-596e8c1f3dea"},"vehicle_type_id":"4","last_reported":1748009394,"current_range_meters":10800,"station_id":"ce4bguh2rcd13ifvqckg","pricing_plan_id":"cebpf4jnsgd1na2vs0mg"},{"bike_id":"d6ecc9cc-46f8-4c19-b621-bce622ecef53","system_id":"levelo_inurba_marseille","lat":43.30894,"lon":5.37188,"is_reserved":false,"is_disabled":false,"rental_uris":{"android":"levelo://app?vid=d6ecc9cc-46f8-4c19-b621-bce622ecef53","ios":"levelo://app?vid=d6ecc9cc-46f8-4c19-b621-bce622ecef53"},"vehicle_type_id":"4","last_reported":1748009394,"current_range_meters":10800,"station_id":"ce4bguh2rcd13ifvqckg","pricing_plan_id":"cebpf4jnsgd1na2vs0mg"},{"bike_id":"0306dfa0-d2d9-42b2-81a9-0f3e0a862254","system_id":"levelo_inurba_marseille","lat":43.239646,"lon":5.366308,"is_reserved":false,"is_disabled":false,"rental_uris":{"android":"levelo://app?vid=0306dfa0-d2d9-42b2-81a9-0f3e0a862254","ios":"levelo://app?vid=0306dfa0-d2d9-42b2-81a9-0f3e0a862254"},"vehicle_type_id":"4","last_reported":1748009394,"current_range_meters":10800,"station_id":"ce4bhi12rcd13ifvqfp0","pricing_plan_id":"cebpf4jnsgd1na2vs0mg"},{"bike_id":"bbaa5508-352a-4362-b3e9-b359ede651de","system_id":"levelo_inurba_marseille","lat":43.303124,"lon":5.369049,"is_reserved":false,"is_disabled":false,"rental_uris":{"android":"levelo://app?vid=bbaa5508-352a-4362-b3e9-b359ede651de","ios":"levelo://app?vid=bbaa5508-352a-4362-b3e9-b359ede651de"},"vehicle_type_id":"4","last_reported":1748009394,"current_range_meters":11200,"station_id":"","pricing_plan_id":"cebpf4jnsgd1na2vs0mg"},{"bike_id":"1f8f2cf8-e258-4b66-9b66-66da44b9c55c","system_id":"levelo_inurba_marseille","lat":43.30989,"lon":5.40222,"is_reserved":false,"is_disabled":false,"rental_uris":{"android":"levelo://app?vid=1f8f2cf8-e258-4b66-9b66-66da44b9c55c","ios":"levelo://app?vid=1f8f2cf8-e258-4b66-9b66-66da44b9c55c"},"vehicle_type_id":"4","last_reported":1748009394,"current_range_meters":11200,"station_id":"","pricing_plan_id":"cebpf4jnsgd1na2vs0mg"},{"bike_id":"8d588a2f-efe4-430b-a991-6d7f83fe45ba","system_id":"levelo_inurba_marseille","lat":43.26683,"lon":5.38267,"is_reserved":false,"is_disabled":false,"rental_uris":{"android":"levelo://app?vid=8d588a2f-efe4-430b-a991-6d7f83fe45ba","ios":"levelo://app?vid=8d588a2f-efe4-430b-a991-6d7f83fe45ba"},"vehicle_type_id":"4","last_reported":1748009394,"current_range_meters":11200,"station_id":"ce4bhg92rcd13ifvqf90","pricing_plan_id":"cebpf4jnsgd1na2vs0mg"},{"bike_id":"27f4180b-434b-4cb2-854e-3d43bf0e1b28","system_id":"levelo_inurba_marseille","lat":43.27209,"lon":5.39178,"is_reserved":false,"is_disabled":false,"rental_uris":{"android":"levelo://app?vid=27f4180b-434b-4cb2-854e-3d43bf0e1b28","ios":"levelo://app?vid=27f4180b-434b-4cb2-854e-3d43bf0e1b28"},"vehicle_type_id":"4","last_reported":1748009394,"current_range_meters":11200,"station_id":"ce4bhhp2rcd13ifvqfm0","pricing_plan_id":"cebpf4jnsgd1na2vs0mg"},{"bike_id":"c432edaf-ec05-44ea-b33c-5ce1e8cf15ba","system_id":"levelo_inurba_marseille","lat":43.27073,"lon":5.4228,"is_reserved":false,"is_disabled":false,"rental_uris":{"android":"levelo://app?vid=c432edaf-ec05-44ea-b33c-5ce1e8cf15ba","ios":"levelo://app?vid=c432edaf-ec05-44ea-b33c-5ce1e8cf15ba"},"vehicle_type_id":"4","last_reported":1748009394,"current_range_meters":11200,"station_id":"ce4bhk92rcd13ifvqgb0","pricing_plan_id":"cebpf4jnsgd1na2vs0mg"},{"bike_id":"e77a2d61-acd6-4b45-bd86-765cfeae168a","system_id":"levelo_inurba_marseille","lat":43.23178,"lon":5.39991,"is_reserved":false,"is_disabled":false,"rental_uris":{"android":"levelo://app?vid=e77a2d61-acd6-4b45-bd86-765cfeae168a","ios":"levelo://app?vid=e77a2d61-acd6-4b45-bd86-765cfeae168a"},"vehicle_type_id":"4","last_reported":1748009394,"current_range_meters":11200,"station_id":"ce4bhn12rcd13ifvqgqg","pricing_plan_id":"cebpf4jnsgd1na2vs0mg"},{"bike_id":"2a83a116-839b-470d-a314-10c6f390a9c6","system_id":"levelo_inurba_marseille","lat":43.25499,"lon":5.37648,"is_reserved":false,"is_disabled":false,"rental_uris":{"android":"levelo://app?vid=2a83a116-839b-470d-a314-10c6f390a9c6","ios":"levelo://app?vid=2a83a116-839b-470d-a314-10c6f390a9c6"},"vehicle_type_id":"4","last_reported":1748009394,"current_range_meters":11600,"station_id":"ce4bhh12rcd13ifvqff0","pricing_plan_id":"cebpf4jnsgd1na2vs0mg"},{"bike_id":"febd3845-ce06-4fa5-b257-0369c4ccdc89","system_id":"levelo_inurba_marseille","lat":43.25571,"lon":5.38232,"is_reserved":false,"is_disabled":false,"rental_uris":{"android":"levelo://app?vid=febd3845-ce06-4fa5-b257-0369c4ccdc89","ios":"levelo://app?vid=febd3845-ce06-4fa5-b257-0369c4ccdc89"},"vehicle_type_id":"4","last_reported":1748009394,"current_range_meters":11600,"station_id":"ce4bhih2rcd13ifvqfs0","pricing_plan_id":"cebpf4jnsgd1na2vs0mg"},{"bike_id":"e37819ed-ebfb-4841-b970-f10ff6d4891f","system_id":"levelo_inurba_marseille","lat":43.32107,"lon":5.36773,"is_reserved":false,"is_disabled":false,"rental_uris":{"android":"levelo://app?vid=e37819ed-ebfb-4841-b970-f10ff6d4891f","ios":"levelo://app?vid=e37819ed-ebfb-4841-b970-f10ff6d4891f"},"vehicle_type_id":"4","last_reported":1748009394,"current_range_meters":11600,"station_id":"ce4bhrh2rcd13ifvqhug","pricing_plan_id":"cebpf4jnsgd1na2vs0mg"},{"bike_id":"6dde22b3-be2c-4353-838d-05c85608e4d3","system_id":"levelo_inurba_marseille","lat":43.323626,"lon":5.367543,"is_reserved":false,"is_disabled":false,"rental_uris":{"android":"levelo://app?vid=6dde22b3-be2c-4353-838d-05c85608e4d3","ios":"levelo://app?vid=6dde22b3-be2c-4353-838d-05c85608e4d3"},"vehicle_type_id":"4","last_reported":1748009394,"current_range_meters":11600,"station_id":"ce4bhsh2rcd13ifvqi2g","pricing_plan_id":"cebpf4jnsgd1na2vs0mg"},{"bike_id":"32232c2e-5158-4f56-bdad-c27d240ecf28","system_id":"levelo_inurba_marseille","lat":43.26941,"lon":5.40264,"is_reserved":false,"is_disabled":false,"rental_uris":{"android":"levelo://app?vid=32232c2e-5158-4f56-bdad-c27d240ecf28","ios":"levelo://app?vid=32232c2e-5158-4f56-bdad-c27d240ecf28"},"vehicle_type_id":"4","last_reported":1748009394,"current_range_meters":11600,"station_id":"cjm6bp8fraef2m0cb0m0","pricing_plan_id":"cebpf4jnsgd1na2vs0mg"},{"bike_id":"1e164eaf-2ffb-4814-9442-b43f6b5c9f80","system_id":"levelo_inurba_marseille","lat":43.241692,"lon":5.363931,"is_reserved":false,"is_disabled":false,"rental_uris":{"android":"levelo://app?vid=1e164eaf-2ffb-4814-9442-b43f6b5c9f80","ios":"levelo://app?vid=1e164eaf-2ffb-4814-9442-b43f6b5c9f80"},"vehicle_type_id":"4","last_reported":1748009394,"current_range_meters":11600,"station_id":"cpo36qri1sfpv3e86is0","pricing_plan_id":"cebpf4jnsgd1na2vs0mg"},{"bike_id":"ca6e9c93-0d92-4299-a33a-b6224bc297cc","system_id":"levelo_inurba_marseille","lat":43.295861,"lon":5.367505,"is_reserved":false,"is_disabled":false,"rental_uris":{"android":"levelo://app?vid=ca6e9c93-0d92-4299-a33a-b6224bc297cc","ios":"levelo://app?vid=ca6e9c93-0d92-4299-a33a-b6224bc297cc"},"vehicle_type_id":"4","last_reported":1748009394,"current_range_meters":12000,"station_id":"ce4bgph2rcd13ifvqc2g","pricing_plan_id":"cebpf4jnsgd1na2vs0mg"},{"bike_id":"fa2e74d4-45d7-455a-98ee-e1faa05d97e7","system_id":"levelo_inurba_marseille","lat":43.30416,"lon":5.39759,"is_reserved":false,"is_disabled":false,"rental_uris":{"android":"levelo://app?vid=fa2e74d4-45d7-455a-98ee-e1faa05d97e7","ios":"levelo://app?vid=fa2e74d4-45d7-455a-98ee-e1faa05d97e7"},"vehicle_type_id":"4","last_reported":1748009394,"current_range_meters":12000,"station_id":"ce4bh092rcd13ifvqd20","pricing_plan_id":"cebpf4jnsgd1na2vs0mg"},{"bike_id":"8b609382-5b26-4d3c-a09b-c4ca175fa90c","system_id":"levelo_inurba_marseille","lat":43.267,"lon":5.38256,"is_reserved":false,"is_disabled":false,"rental_uris":{"android":"levelo://app?vid=8b609382-5b26-4d3c-a09b-c4ca175fa90c","ios":"levelo://app?vid=8b609382-5b26-4d3c-a09b-c4ca175fa90c"},"vehicle_type_id":"4","last_reported":1748009394,"current_range_meters":12000,"station_id":"ce4bhg92rcd13ifvqf90","pricing_plan_id":"cebpf4jnsgd1na2vs0mg"},{"bike_id":"387ebfb5-8896-4d4b-b221-854066c9b01e","system_id":"levelo_inurba_marseille","lat":43.23134,"lon":5.43743,"is_reserved":false,"is_disabled":false,"rental_uris":{"android":"levelo://app?vid=387ebfb5-8896-4d4b-b221-854066c9b01e","ios":"levelo://app?vid=387ebfb5-8896-4d4b-b221-854066c9b01e"},"vehicle_type_id":"4","last_reported":1748009394,"current_range_meters":12000,"station_id":"ce4bhmp2rcd13ifvqgog","pricing_plan_id":"cebpf4jnsgd1na2vs0mg"},{"bike_id":"2ea50577-1176-467c-8d1f-ce07d6571fb8","system_id":"levelo_inurba_marseille","lat":43.231894,"lon":5.355561,"is_reserved":false,"is_disabled":false,"rental_uris":{"android":"levelo://app?vid=2ea50577-1176-467c-8d1f-ce07d6571fb8","ios":"levelo://app?vid=2ea50577-1176-467c-8d1f-ce07d6571fb8"},"vehicle_type_id":"4","last_reported":1748009394,"current_range_meters":12000,"station_id":"ce4bhu92rcd13ifvqi70","pricing_plan_id":"cebpf4jnsgd1na2vs0mg"},{"bike_id":"d2f29ebd-1991-418e-8a4f-2fcfbba0200c","system_id":"levelo_inurba_marseille","lat":43.30885,"lon":5.37089,"is_reserved":false,"is_disabled":false,"rental_uris":{"android":"levelo://app?vid=d2f29ebd-1991-418e-8a4f-2fcfbba0200c","ios":"levelo://app?vid=d2f29ebd-1991-418e-8a4f-2fcfbba0200c"},"vehicle_type_id":"4","last_reported":1748009394,"current_range_meters":12400,"station_id":"","pricing_plan_id":"cebpf4jnsgd1na2vs0mg"},{"bike_id":"7ccdfbb0-d0a0-40ff-ba2a-410b1135fbd1","system_id":"levelo_inurba_marseille","lat":43.28852,"lon":5.3584,"is_reserved":false,"is_disabled":false,"rental_uris":{"android":"levelo://app?vid=7ccdfbb0-d0a0-40ff-ba2a-410b1135fbd1","ios":"levelo://app?vid=7ccdfbb0-d0a0-40ff-ba2a-410b1135fbd1"},"vehicle_type_id":"4","last_reported":1748009394,"current_range_meters":12400,"station_id":"ce4bhb12rcd13ifvqem0","pricing_plan_id":"cebpf4jnsgd1na2vs0mg"},{"bike_id":"868cbb19-a526-4d52-82d0-ae920123d8a9","system_id":"levelo_inurba_marseille","lat":43.28422,"lon":5.34994,"is_reserved":false,"is_disabled":false,"rental_uris":{"android":"levelo://app?vid=868cbb19-a526-4d52-82d0-ae920123d8a9","ios":"levelo://app?vid=868cbb19-a526-4d52-82d0-ae920123d8a9"},"vehicle_type_id":"4","last_reported":1748009394,"current_range_meters":12400,"station_id":"ce4bhbh2rcd13ifvqepg","pricing_plan_id":"cebpf4jnsgd1na2vs0mg"},{"bike_id":"6ccd95da-1cc6-4157-bce9-bf8faefeead4","system_id":"levelo_inurba_marseille","lat":43.28401,"lon":5.3499,"is_reserved":false,"is_disabled":false,"rental_uris":{"android":"levelo://app?vid=6ccd95da-1cc6-4157-bce9-bf8faefeead4","ios":"levelo://app?vid=6ccd95da-1cc6-4157-bce9-bf8faefeead4"},"vehicle_type_id":"4","last_reported":1748009394,"current_range_meters":12400,"station_id":"ce4bhbh2rcd13ifvqepg","pricing_plan_id":"cebpf4jnsgd1na2vs0mg"},{"bike_id":"4f7e7691-2525-44ff-a293-086b1a75f283","system_id":"levelo_inurba_marseille","lat":43.26196,"lon":5.37456,"is_reserved":false,"is_disabled":false,"rental_uris":{"android":"levelo://app?vid=4f7e7691-2525-44ff-a293-086b1a75f283","ios":"levelo://app?vid=4f7e7691-2525-44ff-a293-086b1a75f283"},"vehicle_type_id":"4","last_reported":1748009394,"current_range_meters":12400,"station_id":"ce4bhgp2rcd13ifvqfc0","pricing_plan_id":"cebpf4jnsgd1na2vs0mg"},{"bike_id":"97f7ee87-de5f-4692-9cf9-52586976a6ed","system_id":"levelo_inurba_marseille","lat":43.26213,"lon":5.37441,"is_reserved":false,"is_disabled":false,"rental_uris":{"android":"levelo://app?vid=97f7ee87-de5f-4692-9cf9-52586976a6ed","ios":"levelo://app?vid=97f7ee87-de5f-4692-9cf9-52586976a6ed"},"vehicle_type_id":"4","last_reported":1748009394,"current_range_meters":12400,"station_id":"ce4bhgp2rcd13ifvqfc0","pricing_plan_id":"cebpf4jnsgd1na2vs0mg"},{"bike_id":"fa529a29-8d21-4f13-9783-e1708a99c344","system_id":"levelo_inurba_marseille","lat":43.246516,"lon":5.388955,"is_reserved":false,"is_disabled":false,"rental_uris":{"android":"levelo://app?vid=fa529a29-8d21-4f13-9783-e1708a99c344","ios":"levelo://app?vid=fa529a29-8d21-4f13-9783-e1708a99c344"},"vehicle_type_id":"4","last_reported":1748009394,"current_range_meters":12400,"station_id":"ce4bhlh2rcd13ifvqgig","pricing_plan_id":"cebpf4jnsgd1na2vs0mg"},{"bike_id":"51d7e9e2-d9b2-4a0d-9003-5e749118f3bc","system_id":"levelo_inurba_marseille","lat":43.231414,"lon":5.437314,"is_reserved":false,"is_disabled":false,"rental_uris":{"android":"levelo://app?vid=51d7e9e2-d9b2-4a0d-9003-5e749118f3bc","ios":"levelo://app?vid=51d7e9e2-d9b2-4a0d-9003-5e749118f3bc"},"vehicle_type_id":"4","last_reported":1748009394,"current_range_meters":12400,"station_id":"ce4bhmp2rcd13ifvqgog","pricing_plan_id":"cebpf4jnsgd1na2vs0mg"},{"bike_id":"3b54cc37-8499-4bb4-b631-db94667d6644","system_id":"levelo_inurba_marseille","lat":43.31485,"lon":5.37298,"is_reserved":false,"is_disabled":false,"rental_uris":{"android":"levelo://app?vid=3b54cc37-8499-4bb4-b631-db94667d6644","ios":"levelo://app?vid=3b54cc37-8499-4bb4-b631-db94667d6644"},"vehicle_type_id":"4","last_reported":1748009394,"current_range_meters":12800,"station_id":"ce4bgt12rcd13ifvqcd0","pricing_plan_id":"cebpf4jnsgd1na2vs0mg"},{"bike_id":"7511d166-89e3-46ec-bfe7-5b5f6ccae87a","system_id":"levelo_inurba_marseille","lat":43.2668,"lon":5.38267,"is_reserved":false,"is_disabled":false,"rental_uris":{"android":"levelo://app?vid=7511d166-89e3-46ec-bfe7-5b5f6ccae87a","ios":"levelo://app?vid=7511d166-89e3-46ec-bfe7-5b5f6ccae87a"},"vehicle_type_id":"4","last_reported":1748009394,"current_range_meters":12800,"station_id":"ce4bhg92rcd13ifvqf90","pricing_plan_id":"cebpf4jnsgd1na2vs0mg"},{"bike_id":"7613c1e8-492b-49a5-83c7-07f0b72ec412","system_id":"levelo_inurba_marseille","lat":43.24068,"lon":5.37754,"is_reserved":false,"is_disabled":false,"rental_uris":{"android":"levelo://app?vid=7613c1e8-492b-49a5-83c7-07f0b72ec412","ios":"levelo://app?vid=7613c1e8-492b-49a5-83c7-07f0b72ec412"},"vehicle_type_id":"4","last_reported":1748009394,"current_range_meters":12800,"station_id":"ce4bhnp2rcd13ifvqgvg","pricing_plan_id":"cebpf4jnsgd1na2vs0mg"},{"bike_id":"8a29e2cb-f572-476a-88f1-733e1ccabc83","system_id":"levelo_inurba_marseille","lat":43.30417,"lon":5.41292,"is_reserved":false,"is_disabled":false,"rental_uris":{"android":"levelo://app?vid=8a29e2cb-f572-476a-88f1-733e1ccabc83","ios":"levelo://app?vid=8a29e2cb-f572-476a-88f1-733e1ccabc83"},"vehicle_type_id":"4","last_reported":1748009394,"current_range_meters":12800,"station_id":"ce4bhop2rcd13ifvqh8g","pricing_plan_id":"cebpf4jnsgd1na2vs0mg"},{"bike_id":"13638be8-9f42-40a3-b7f5-0f9ddf4a0fbf","system_id":"levelo_inurba_marseille","lat":43.33736,"lon":5.39172,"is_reserved":false,"is_disabled":false,"rental_uris":{"android":"levelo://app?vid=13638be8-9f42-40a3-b7f5-0f9ddf4a0fbf","ios":"levelo://app?vid=13638be8-9f42-40a3-b7f5-0f9ddf4a0fbf"},"vehicle_type_id":"4","last_reported":1748009394,"current_range_meters":12800,"station_id":"ce4bhr92rcd13ifvqhsg","pricing_plan_id":"cebpf4jnsgd1na2vs0mg"},{"bike_id":"f84e7850-4e38-4a2f-8058-4b5888bcc49b","system_id":"levelo_inurba_marseille","lat":43.32094,"lon":5.36773,"is_reserved":false,"is_disabled":false,"rental_uris":{"android":"levelo://app?vid=f84e7850-4e38-4a2f-8058-4b5888bcc49b","ios":"levelo://app?vid=f84e7850-4e38-4a2f-8058-4b5888bcc49b"},"vehicle_type_id":"4","last_reported":1748009394,"current_range_meters":12800,"station_id":"ce4bhrh2rcd13ifvqhug","pricing_plan_id":"cebpf4jnsgd1na2vs0mg"},{"bike_id":"f8f6d816-6cfb-4bd0-a7dc-b4a321b7b84c","system_id":"levelo_inurba_marseille","lat":43.28416,"lon":5.375,"is_reserved":false,"is_disabled":false,"rental_uris":{"android":"levelo://app?vid=f8f6d816-6cfb-4bd0-a7dc-b4a321b7b84c","ios":"levelo://app?vid=f8f6d816-6cfb-4bd0-a7dc-b4a321b7b84c"},"vehicle_type_id":"4","last_reported":1748009394,"current_range_meters":13600,"station_id":"ce4bh412rcd13ifvqds0","pricing_plan_id":"cebpf4jnsgd1na2vs0mg"},{"bike_id":"9fa406f6-2afd-4470-b1a9-5f1173f3d2ac","system_id":"levelo_inurba_marseille","lat":43.29011,"lon":5.35617,"is_reserved":false,"is_disabled":false,"rental_uris":{"android":"levelo://app?vid=9fa406f6-2afd-4470-b1a9-5f1173f3d2ac","ios":"levelo://app?vid=9fa406f6-2afd-4470-b1a9-5f1173f3d2ac"},"vehicle_type_id":"4","last_reported":1748009394,"current_range_meters":13600,"station_id":"ce4bhb92rcd13ifvqen0","pricing_plan_id":"cebpf4jnsgd1na2vs0mg"},{"bike_id":"b977ad7e-1ef4-4ce6-b53b-9f0918d7452c","system_id":"levelo_inurba_marseille","lat":43.28619,"lon":5.351,"is_reserved":false,"is_disabled":false,"rental_uris":{"android":"levelo://app?vid=b977ad7e-1ef4-4ce6-b53b-9f0918d7452c","ios":"levelo://app?vid=b977ad7e-1ef4-4ce6-b53b-9f0918d7452c"},"vehicle_type_id":"4","last_reported":1748009394,"current_range_meters":13600,"station_id":"ce4bhch2rcd13ifvqeug","pricing_plan_id":"cebpf4jnsgd1na2vs0mg"},{"bike_id":"4db8c448-bd2e-4a44-ac89-632aa17dae9c","system_id":"levelo_inurba_marseille","lat":43.265,"lon":5.39539,"is_reserved":false,"is_disabled":false,"rental_uris":{"android":"levelo://app?vid=4db8c448-bd2e-4a44-ac89-632aa17dae9c","ios":"levelo://app?vid=4db8c448-bd2e-4a44-ac89-632aa17dae9c"},"vehicle_type_id":"4","last_reported":1748009394,"current_range_meters":14000,"station_id":"ce4bhi12rcd13ifvqfq0","pricing_plan_id":"cebpf4jnsgd1na2vs0mg"},{"bike_id":"a34d3b32-51fa-4913-a288-115505672fb0","system_id":"levelo_inurba_marseille","lat":43.23181,"lon":5.39984,"is_reserved":false,"is_disabled":false,"rental_uris":{"android":"levelo://app?vid=a34d3b32-51fa-4913-a288-115505672fb0","ios":"levelo://app?vid=a34d3b32-51fa-4913-a288-115505672fb0"},"vehicle_type_id":"4","last_reported":1748009394,"current_range_meters":14000,"station_id":"ce4bhn12rcd13ifvqgqg","pricing_plan_id":"cebpf4jnsgd1na2vs0mg"},{"bike_id":"e85710d8-0451-4310-9d43-3629429d8bc9","system_id":"levelo_inurba_marseille","lat":43.309109,"lon":5.368836,"is_reserved":false,"is_disabled":false,"rental_uris":{"android":"levelo://app?vid=e85710d8-0451-4310-9d43-3629429d8bc9","ios":"levelo://app?vid=e85710d8-0451-4310-9d43-3629429d8bc9"},"vehicle_type_id":"4","last_reported":1748009394,"current_range_meters":14400,"station_id":"ce4bgn92rcd13ifvqbvg","pricing_plan_id":"cebpf4jnsgd1na2vs0mg"},{"bike_id":"ee83a4a1-c222-4b73-90fe-409529730f12","system_id":"levelo_inurba_marseille","lat":43.27066,"lon":5.40256,"is_reserved":false,"is_disabled":false,"rental_uris":{"android":"levelo://app?vid=ee83a4a1-c222-4b73-90fe-409529730f12","ios":"levelo://app?vid=ee83a4a1-c222-4b73-90fe-409529730f12"},"vehicle_type_id":"4","last_reported":1748009394,"current_range_meters":14400,"station_id":"ce4bhk92rcd13ifvqgc0","pricing_plan_id":"cebpf4jnsgd1na2vs0mg"},{"bike_id":"f9b8de3e-f216-4a97-a31c-9c85d23db479","system_id":"levelo_inurba_marseille","lat":43.286476,"lon":5.351712,"is_reserved":false,"is_disabled":false,"rental_uris":{"android":"levelo://app?vid=f9b8de3e-f216-4a97-a31c-9c85d23db479","ios":"levelo://app?vid=f9b8de3e-f216-4a97-a31c-9c85d23db479"},"vehicle_type_id":"4","last_reported":1748009394,"current_range_meters":14800,"station_id":"","pricing_plan_id":"cebpf4jnsgd1na2vs0mg"},{"bike_id":"1a7b409e-f787-4792-ae89-7ef41984e471","system_id":"levelo_inurba_marseille","lat":43.250029,"lon":5.389259,"is_reserved":false,"is_disabled":false,"rental_uris":{"android":"levelo://app?vid=1a7b409e-f787-4792-ae89-7ef41984e471","ios":"levelo://app?vid=1a7b409e-f787-4792-ae89-7ef41984e471"},"vehicle_type_id":"4","last_reported":1748009394,"current_range_meters":14800,"station_id":"ce4bhgp2rcd13ifvqfd0","pricing_plan_id":"cebpf4jnsgd1na2vs0mg"},{"bike_id":"ebf9ba4a-ad61-4035-a51e-6df11a55ab3c","system_id":"levelo_inurba_marseille","lat":43.27319,"lon":5.39102,"is_reserved":false,"is_disabled":false,"rental_uris":{"android":"levelo://app?vid=ebf9ba4a-ad61-4035-a51e-6df11a55ab3c","ios":"levelo://app?vid=ebf9ba4a-ad61-4035-a51e-6df11a55ab3c"},"vehicle_type_id":"4","last_reported":1748009394,"current_range_meters":14800,"station_id":"ce4bhgp2rcd13ifvqfe0","pricing_plan_id":"cebpf4jnsgd1na2vs0mg"},{"bike_id":"fc8c72ad-ca61-42c6-ae90-f61b57e45328","system_id":"levelo_inurba_marseille","lat":43.27912,"lon":5.41867,"is_reserved":false,"is_disabled":false,"rental_uris":{"android":"levelo://app?vid=fc8c72ad-ca61-42c6-ae90-f61b57e45328","ios":"levelo://app?vid=fc8c72ad-ca61-42c6-ae90-f61b57e45328"},"vehicle_type_id":"4","last_reported":1748009394,"current_range_meters":15200,"station_id":"","pricing_plan_id":"cebpf4jnsgd1na2vs0mg"},{"bike_id":"7878bdd3-2a0a-4e34-8ecb-8f8490da8eaf","system_id":"levelo_inurba_marseille","lat":43.29258,"lon":5.40916,"is_reserved":false,"is_disabled":false,"rental_uris":{"android":"levelo://app?vid=7878bdd3-2a0a-4e34-8ecb-8f8490da8eaf","ios":"levelo://app?vid=7878bdd3-2a0a-4e34-8ecb-8f8490da8eaf"},"vehicle_type_id":"4","last_reported":1748009394,"current_range_meters":15200,"station_id":"ce4bh192rcd13ifvqdc0","pricing_plan_id":"cebpf4jnsgd1na2vs0mg"},{"bike_id":"4a05223f-f745-40a2-8d0c-547bee8031f1","system_id":"levelo_inurba_marseille","lat":43.28404,"lon":5.3751,"is_reserved":false,"is_disabled":false,"rental_uris":{"android":"levelo://app?vid=4a05223f-f745-40a2-8d0c-547bee8031f1","ios":"levelo://app?vid=4a05223f-f745-40a2-8d0c-547bee8031f1"},"vehicle_type_id":"4","last_reported":1748009394,"current_range_meters":15200,"station_id":"ce4bh412rcd13ifvqds0","pricing_plan_id":"cebpf4jnsgd1na2vs0mg"},{"bike_id":"1170fcf4-2a0d-4938-a582-46e39135031d","system_id":"levelo_inurba_marseille","lat":43.28407,"lon":5.35015,"is_reserved":false,"is_disabled":false,"rental_uris":{"android":"levelo://app?vid=1170fcf4-2a0d-4938-a582-46e39135031d","ios":"levelo://app?vid=1170fcf4-2a0d-4938-a582-46e39135031d"},"vehicle_type_id":"4","last_reported":1748009394,"current_range_meters":15200,"station_id":"ce4bhbh2rcd13ifvqepg","pricing_plan_id":"cebpf4jnsgd1na2vs0mg"},{"bike_id":"bed28a03-b908-4e85-a6f2-c3d3e4ead109","system_id":"levelo_inurba_marseille","lat":43.28152,"lon":5.42642,"is_reserved":false,"is_disabled":false,"rental_uris":{"android":"levelo://app?vid=bed28a03-b908-4e85-a6f2-c3d3e4ead109","ios":"levelo://app?vid=bed28a03-b908-4e85-a6f2-c3d3e4ead109"},"vehicle_type_id":"4","last_reported":1748009394,"current_range_meters":15200,"station_id":"ce4bhnh2rcd13ifvqgug","pricing_plan_id":"cebpf4jnsgd1na2vs0mg"},{"bike_id":"37fafddd-135b-49fc-81d1-5386139a0464","system_id":"levelo_inurba_marseille","lat":43.28078,"lon":5.39655,"is_reserved":false,"is_disabled":false,"rental_uris":{"android":"levelo://app?vid=37fafddd-135b-49fc-81d1-5386139a0464","ios":"levelo://app?vid=37fafddd-135b-49fc-81d1-5386139a0464"},"vehicle_type_id":"4","last_reported":1748009394,"current_range_meters":15200,"station_id":"ce4bho12rcd13ifvqh2g","pricing_plan_id":"cebpf4jnsgd1na2vs0mg"},{"bike_id":"9c5786ab-f880-4811-a809-ca4758267ae9","system_id":"levelo_inurba_marseille","lat":43.3247,"lon":5.36578,"is_reserved":false,"is_disabled":false,"rental_uris":{"android":"levelo://app?vid=9c5786ab-f880-4811-a809-ca4758267ae9","ios":"levelo://app?vid=9c5786ab-f880-4811-a809-ca4758267ae9"},"vehicle_type_id":"4","last_reported":1748009394,"current_range_meters":15200,"station_id":"ce4bhs12rcd13ifvqhvg","pricing_plan_id":"cebpf4jnsgd1na2vs0mg"},{"bike_id":"6dabdc28-1516-4526-a634-0d1125235cd1","system_id":"levelo_inurba_marseille","lat":43.2173,"lon":5.34632,"is_reserved":false,"is_disabled":false,"rental_uris":{"android":"levelo://app?vid=6dabdc28-1516-4526-a634-0d1125235cd1","ios":"levelo://app?vid=6dabdc28-1516-4526-a634-0d1125235cd1"},"vehicle_type_id":"4","last_reported":1748009394,"current_range_meters":15200,"station_id":"st_cvj6r9ubvosntc0bgbag","pricing_plan_id":"cebpf4jnsgd1na2vs0mg"},{"bike_id":"c68068cb-1e46-45e9-a477-328abce92844","system_id":"levelo_inurba_marseille","lat":43.2175,"lon":5.345948,"is_reserved":false,"is_disabled":false,"rental_uris":{"android":"levelo://app?vid=c68068cb-1e46-45e9-a477-328abce92844","ios":"levelo://app?vid=c68068cb-1e46-45e9-a477-328abce92844"},"vehicle_type_id":"4","last_reported":1748009394,"current_range_meters":16000,"station_id":"","pricing_plan_id":"cebpf4jnsgd1na2vs0mg"},{"bike_id":"75e91607-f093-41b1-947a-69b62fe724b6","system_id":"levelo_inurba_marseille","lat":43.3469,"lon":5.345354,"is_reserved":false,"is_disabled":false,"rental_uris":{"android":"levelo://app?vid=75e91607-f093-41b1-947a-69b62fe724b6","ios":"levelo://app?vid=75e91607-f093-41b1-947a-69b62fe724b6"},"vehicle_type_id":"4","last_reported":1748009394,"current_range_meters":16000,"station_id":"","pricing_plan_id":"cebpf4jnsgd1na2vs0mg"},{"bike_id":"d4a24075-3436-4205-bc50-01e9dc17c6ea","system_id":"levelo_inurba_marseille","lat":43.2823,"lon":5.39072,"is_reserved":false,"is_disabled":false,"rental_uris":{"android":"levelo://app?vid=d4a24075-3436-4205-bc50-01e9dc17c6ea","ios":"levelo://app?vid=d4a24075-3436-4205-bc50-01e9dc17c6ea"},"vehicle_type_id":"4","last_reported":1748009394,"current_range_meters":16000,"station_id":"","pricing_plan_id":"cebpf4jnsgd1na2vs0mg"},{"bike_id":"6e5a158f-7f1d-4312-9977-ede4602769a5","system_id":"levelo_inurba_marseille","lat":43.28218,"lon":5.39029,"is_reserved":false,"is_disabled":false,"rental_uris":{"android":"levelo://app?vid=6e5a158f-7f1d-4312-9977-ede4602769a5","ios":"levelo://app?vid=6e5a158f-7f1d-4312-9977-ede4602769a5"},"vehicle_type_id":"4","last_reported":1748009394,"current_range_meters":16000,"station_id":"","pricing_plan_id":"cebpf4jnsgd1na2vs0mg"},{"bike_id":"90ec855d-9257-4378-b235-9d6fb894719e","system_id":"levelo_inurba_marseille","lat":43.287194,"lon":5.37934,"is_reserved":false,"is_disabled":false,"rental_uris":{"android":"levelo://app?vid=90ec855d-9257-4378-b235-9d6fb894719e","ios":"levelo://app?vid=90ec855d-9257-4378-b235-9d6fb894719e"},"vehicle_type_id":"4","last_reported":1748009394,"current_range_meters":16000,"station_id":"ce4bh9p2rcd13ifvqec0","pricing_plan_id":"cebpf4jnsgd1na2vs0mg"},{"bike_id":"ec517c25-0bdc-4b77-8079-c2fca2788f8b","system_id":"levelo_inurba_marseille","lat":43.29271,"lon":5.36862,"is_reserved":false,"is_disabled":false,"rental_uris":{"android":"levelo://app?vid=ec517c25-0bdc-4b77-8079-c2fca2788f8b","ios":"levelo://app?vid=ec517c25-0bdc-4b77-8079-c2fca2788f8b"},"vehicle_type_id":"4","last_reported":1748009394,"current_range_meters":16000,"station_id":"ce4bhbp2rcd13ifvqesg","pricing_plan_id":"cebpf4jnsgd1na2vs0mg"},{"bike_id":"01c0716b-8957-4246-bdf6-67b363ea8382","system_id":"levelo_inurba_marseille","lat":43.28615,"lon":5.35106,"is_reserved":false,"is_disabled":false,"rental_uris":{"android":"levelo://app?vid=01c0716b-8957-4246-bdf6-67b363ea8382","ios":"levelo://app?vid=01c0716b-8957-4246-bdf6-67b363ea8382"},"vehicle_type_id":"4","last_reported":1748009394,"current_range_meters":16000,"station_id":"ce4bhch2rcd13ifvqeug","pricing_plan_id":"cebpf4jnsgd1na2vs0mg"},{"bike_id":"d303e727-939b-4ec5-8262-b61295e39131","system_id":"levelo_inurba_marseille","lat":43.28618,"lon":5.35105,"is_reserved":false,"is_disabled":false,"rental_uris":{"android":"levelo://app?vid=d303e727-939b-4ec5-8262-b61295e39131","ios":"levelo://app?vid=d303e727-939b-4ec5-8262-b61295e39131"},"vehicle_type_id":"4","last_reported":1748009394,"current_range_meters":16000,"station_id":"ce4bhch2rcd13ifvqeug","pricing_plan_id":"cebpf4jnsgd1na2vs0mg"},{"bike_id":"c0a2adb2-202b-4905-8624-f9af5a5c0fda","system_id":"levelo_inurba_marseille","lat":43.26194,"lon":5.37453,"is_reserved":false,"is_disabled":false,"rental_uris":{"android":"levelo://app?vid=c0a2adb2-202b-4905-8624-f9af5a5c0fda","ios":"levelo://app?vid=c0a2adb2-202b-4905-8624-f9af5a5c0fda"},"vehicle_type_id":"4","last_reported":1748009394,"current_range_meters":16000,"station_id":"ce4bhgp2rcd13ifvqfc0","pricing_plan_id":"cebpf4jnsgd1na2vs0mg"},{"bike_id":"3deee16d-d3d3-43b1-91ea-df3f4d8dc891","system_id":"levelo_inurba_marseille","lat":43.262,"lon":5.37448,"is_reserved":false,"is_disabled":false,"rental_uris":{"android":"levelo://app?vid=3deee16d-d3d3-43b1-91ea-df3f4d8dc891","ios":"levelo://app?vid=3deee16d-d3d3-43b1-91ea-df3f4d8dc891"},"vehicle_type_id":"4","last_reported":1748009394,"current_range_meters":16000,"station_id":"ce4bhgp2rcd13ifvqfc0","pricing_plan_id":"cebpf4jnsgd1na2vs0mg"},{"bike_id":"293d61e5-2bb1-407f-9e33-e203d0ecedbf","system_id":"levelo_inurba_marseille","lat":43.27997,"lon":5.40046,"is_reserved":false,"is_disabled":false,"rental_uris":{"android":"levelo://app?vid=293d61e5-2bb1-407f-9e33-e203d0ecedbf","ios":"levelo://app?vid=293d61e5-2bb1-407f-9e33-e203d0ecedbf"},"vehicle_type_id":"4","last_reported":1748009394,"current_range_meters":16000,"station_id":"ce4bho92rcd13ifvqh4g","pricing_plan_id":"cebpf4jnsgd1na2vs0mg"},{"bike_id":"b959a865-fc01-4964-9b1d-7e25b047370d","system_id":"levelo_inurba_marseille","lat":43.23224,"lon":5.35543,"is_reserved":false,"is_disabled":false,"rental_uris":{"android":"levelo://app?vid=b959a865-fc01-4964-9b1d-7e25b047370d","ios":"levelo://app?vid=b959a865-fc01-4964-9b1d-7e25b047370d"},"vehicle_type_id":"4","last_reported":1748009394,"current_range_meters":16000,"station_id":"ce4bhu92rcd13ifvqi70","pricing_plan_id":"cebpf4jnsgd1na2vs0mg"},{"bike_id":"8bf531c8-63c9-4599-a836-ffb8cfe6db01","system_id":"levelo_inurba_marseille","lat":43.24167,"lon":5.36396,"is_reserved":false,"is_disabled":false,"rental_uris":{"android":"levelo://app?vid=8bf531c8-63c9-4599-a836-ffb8cfe6db01","ios":"levelo://app?vid=8bf531c8-63c9-4599-a836-ffb8cfe6db01"},"vehicle_type_id":"4","last_reported":1748009394,"current_range_meters":16000,"station_id":"cpo36qri1sfpv3e86is0","pricing_plan_id":"cebpf4jnsgd1na2vs0mg"},{"bike_id":"ec6bcfb2-894a-48ce-b647-cd34224e8eea","system_id":"levelo_inurba_marseille","lat":43.30895,"lon":5.39639,"is_reserved":false,"is_disabled":false,"rental_uris":{"android":"levelo://app?vid=ec6bcfb2-894a-48ce-b647-cd34224e8eea","ios":"levelo://app?vid=ec6bcfb2-894a-48ce-b647-cd34224e8eea"},"vehicle_type_id":"4","last_reported":1748009394,"current_range_meters":16400,"station_id":"ce4bh012rcd13ifvqcv0","pricing_plan_id":"cebpf4jnsgd1na2vs0mg"},{"bike_id":"ad45e537-e49a-43c0-a03b-8b1cd1c8d4b6","system_id":"levelo_inurba_marseille","lat":43.27625,"lon":5.36112,"is_reserved":false,"is_disabled":false,"rental_uris":{"android":"levelo://app?vid=ad45e537-e49a-43c0-a03b-8b1cd1c8d4b6","ios":"levelo://app?vid=ad45e537-e49a-43c0-a03b-8b1cd1c8d4b6"},"vehicle_type_id":"4","last_reported":1748009394,"current_range_meters":16800,"station_id":"ce4bgj92rcd13ifvqbe0","pricing_plan_id":"cebpf4jnsgd1na2vs0mg"},{"bike_id":"1c960faf-d0f3-4e63-9b21-e35f107e1861","system_id":"levelo_inurba_marseille","lat":43.23962,"lon":5.36631,"is_reserved":false,"is_disabled":false,"rental_uris":{"android":"levelo://app?vid=1c960faf-d0f3-4e63-9b21-e35f107e1861","ios":"levelo://app?vid=1c960faf-d0f3-4e63-9b21-e35f107e1861"},"vehicle_type_id":"4","last_reported":1748009394,"current_range_meters":17200,"station_id":"","pricing_plan_id":"cebpf4jnsgd1na2vs0mg"},{"bike_id":"a15d376f-2236-4e6a-b729-b594f4d3c77f","system_id":"levelo_inurba_marseille","lat":43.29767,"lon":5.37108,"is_reserved":false,"is_disabled":false,"rental_uris":{"android":"levelo://app?vid=a15d376f-2236-4e6a-b729-b594f4d3c77f","ios":"levelo://app?vid=a15d376f-2236-4e6a-b729-b594f4d3c77f"},"vehicle_type_id":"4","last_reported":1748009394,"current_range_meters":17200,"station_id":"ce4bgop2rcd13ifvqc1g","pricing_plan_id":"cebpf4jnsgd1na2vs0mg"},{"bike_id":"a57eebf2-e2ad-49b0-91ce-6d23232fff60","system_id":"levelo_inurba_marseille","lat":43.287018,"lon":5.373831,"is_reserved":false,"is_disabled":false,"rental_uris":{"android":"levelo://app?vid=a57eebf2-e2ad-49b0-91ce-6d23232fff60","ios":"levelo://app?vid=a57eebf2-e2ad-49b0-91ce-6d23232fff60"},"vehicle_type_id":"4","last_reported":1748009394,"current_range_meters":17200,"station_id":"ce4bh3p2rcd13ifvqdq0","pricing_plan_id":"cebpf4jnsgd1na2vs0mg"},{"bike_id":"0e7e24c9-4343-4702-91df-1ff235496588","system_id":"levelo_inurba_marseille","lat":43.2737,"lon":5.36261,"is_reserved":false,"is_disabled":false,"rental_uris":{"android":"levelo://app?vid=0e7e24c9-4343-4702-91df-1ff235496588","ios":"levelo://app?vid=0e7e24c9-4343-4702-91df-1ff235496588"},"vehicle_type_id":"4","last_reported":1748009394,"current_range_meters":17200,"station_id":"ce4bhbh2rcd13ifvqeo0","pricing_plan_id":"cebpf4jnsgd1na2vs0mg"},{"bike_id":"aeaaf667-ded8-4a8f-99e7-13afd57998e9","system_id":"levelo_inurba_marseille","lat":43.28618,"lon":5.35105,"is_reserved":false,"is_disabled":false,"rental_uris":{"android":"levelo://app?vid=aeaaf667-ded8-4a8f-99e7-13afd57998e9","ios":"levelo://app?vid=aeaaf667-ded8-4a8f-99e7-13afd57998e9"},"vehicle_type_id":"4","last_reported":1748009394,"current_range_meters":17200,"station_id":"ce4bhch2rcd13ifvqeug","pricing_plan_id":"cebpf4jnsgd1na2vs0mg"},{"bike_id":"a8e47536-7885-432b-b4e5-d1829ade9144","system_id":"levelo_inurba_marseille","lat":43.25583,"lon":5.38274,"is_reserved":false,"is_disabled":false,"rental_uris":{"android":"levelo://app?vid=a8e47536-7885-432b-b4e5-d1829ade9144","ios":"levelo://app?vid=a8e47536-7885-432b-b4e5-d1829ade9144"},"vehicle_type_id":"4","last_reported":1748009394,"current_range_meters":17200,"station_id":"ce4bhih2rcd13ifvqfs0","pricing_plan_id":"cebpf4jnsgd1na2vs0mg"},{"bike_id":"c2a860e3-faae-4359-9cec-65d38c868680","system_id":"levelo_inurba_marseille","lat":43.25872,"lon":5.39889,"is_reserved":false,"is_disabled":false,"rental_uris":{"android":"levelo://app?vid=c2a860e3-faae-4359-9cec-65d38c868680","ios":"levelo://app?vid=c2a860e3-faae-4359-9cec-65d38c868680"},"vehicle_type_id":"4","last_reported":1748009394,"current_range_meters":17200,"station_id":"ce4bhl92rcd13ifvqghg","pricing_plan_id":"cebpf4jnsgd1na2vs0mg"},{"bike_id":"7fd131a4-6c0b-43b1-b910-144d336812bc","system_id":"levelo_inurba_marseille","lat":43.25087,"lon":5.39525,"is_reserved":false,"is_disabled":false,"rental_uris":{"android":"levelo://app?vid=7fd131a4-6c0b-43b1-b910-144d336812bc","ios":"levelo://app?vid=7fd131a4-6c0b-43b1-b910-144d336812bc"},"vehicle_type_id":"4","last_reported":1748009394,"current_range_meters":17200,"station_id":"ce4bhm12rcd13ifvqgkg","pricing_plan_id":"cebpf4jnsgd1na2vs0mg"},{"bike_id":"ec629ace-51dc-4e43-afb6-4420740d900e","system_id":"levelo_inurba_marseille","lat":43.26942,"lon":5.40249,"is_reserved":false,"is_disabled":false,"rental_uris":{"android":"levelo://app?vid=ec629ace-51dc-4e43-afb6-4420740d900e","ios":"levelo://app?vid=ec629ace-51dc-4e43-afb6-4420740d900e"},"vehicle_type_id":"4","last_reported":1748009394,"current_range_meters":17200,"station_id":"cjm6bp8fraef2m0cb0m0","pricing_plan_id":"cebpf4jnsgd1na2vs0mg"},{"bike_id":"319d6256-dd1c-4b86-98e2-3b32cb08f299","system_id":"levelo_inurba_marseille","lat":43.30892,"lon":5.36884,"is_reserved":false,"is_disabled":false,"rental_uris":{"android":"levelo://app?vid=319d6256-dd1c-4b86-98e2-3b32cb08f299","ios":"levelo://app?vid=319d6256-dd1c-4b86-98e2-3b32cb08f299"},"vehicle_type_id":"4","last_reported":1748009394,"current_range_meters":17600,"station_id":"ce4bgn92rcd13ifvqbvg","pricing_plan_id":"cebpf4jnsgd1na2vs0mg"},{"bike_id":"0ce2524b-44a0-456c-9b20-de6763bf24e5","system_id":"levelo_inurba_marseille","lat":43.30149,"lon":5.39848,"is_reserved":false,"is_disabled":false,"rental_uris":{"android":"levelo://app?vid=0ce2524b-44a0-456c-9b20-de6763bf24e5","ios":"levelo://app?vid=0ce2524b-44a0-456c-9b20-de6763bf24e5"},"vehicle_type_id":"4","last_reported":1748009394,"current_range_meters":17600,"station_id":"ce4bh0h2rcd13ifvqd40","pricing_plan_id":"cebpf4jnsgd1na2vs0mg"},{"bike_id":"0361e0f7-0d37-418d-84a6-4e80d570468b","system_id":"levelo_inurba_marseille","lat":43.29432,"lon":5.39751,"is_reserved":false,"is_disabled":false,"rental_uris":{"android":"levelo://app?vid=0361e0f7-0d37-418d-84a6-4e80d570468b","ios":"levelo://app?vid=0361e0f7-0d37-418d-84a6-4e80d570468b"},"vehicle_type_id":"4","last_reported":1748009394,"current_range_meters":17600,"station_id":"ce4bh3h2rcd13ifvqdo0","pricing_plan_id":"cebpf4jnsgd1na2vs0mg"},{"bike_id":"f18657b1-9366-4d96-9367-d888994baf11","system_id":"levelo_inurba_marseille","lat":43.26498,"lon":5.39542,"is_reserved":false,"is_disabled":false,"rental_uris":{"android":"levelo://app?vid=f18657b1-9366-4d96-9367-d888994baf11","ios":"levelo://app?vid=f18657b1-9366-4d96-9367-d888994baf11"},"vehicle_type_id":"4","last_reported":1748009394,"current_range_meters":17600,"station_id":"ce4bhi12rcd13ifvqfq0","pricing_plan_id":"cebpf4jnsgd1na2vs0mg"},{"bike_id":"54635c45-83d3-4db4-bf65-d3c5f6360af8","system_id":"levelo_inurba_marseille","lat":43.23141,"lon":5.43747,"is_reserved":false,"is_disabled":false,"rental_uris":{"android":"levelo://app?vid=54635c45-83d3-4db4-bf65-d3c5f6360af8","ios":"levelo://app?vid=54635c45-83d3-4db4-bf65-d3c5f6360af8"},"vehicle_type_id":"4","last_reported":1748009394,"current_range_meters":17600,"station_id":"ce4bhmp2rcd13ifvqgog","pricing_plan_id":"cebpf4jnsgd1na2vs0mg"},{"bike_id":"b3b61edd-affd-4826-b57d-ec49044f6245","system_id":"levelo_inurba_marseille","lat":43.33604,"lon":5.41035,"is_reserved":false,"is_disabled":false,"rental_uris":{"android":"levelo://app?vid=b3b61edd-affd-4826-b57d-ec49044f6245","ios":"levelo://app?vid=b3b61edd-affd-4826-b57d-ec49044f6245"},"vehicle_type_id":"4","last_reported":1748009394,"current_range_meters":17600,"station_id":"ce4bhqh2rcd13ifvqhmg","pricing_plan_id":"cebpf4jnsgd1na2vs0mg"},{"bike_id":"8928326c-648b-48ca-ac72-50af7132758b","system_id":"levelo_inurba_marseille","lat":43.229294,"lon":5.353832,"is_reserved":false,"is_disabled":false,"rental_uris":{"android":"levelo://app?vid=8928326c-648b-48ca-ac72-50af7132758b","ios":"levelo://app?vid=8928326c-648b-48ca-ac72-50af7132758b"},"vehicle_type_id":"4","last_reported":1748009394,"current_range_meters":17600,"station_id":"cpo3532slgdg3j2ikp40","pricing_plan_id":"cebpf4jnsgd1na2vs0mg"},{"bike_id":"6d7c935a-591a-4e31-aa91-6b540699765a","system_id":"levelo_inurba_marseille","lat":43.229343,"lon":5.353797,"is_reserved":false,"is_disabled":false,"rental_uris":{"android":"levelo://app?vid=6d7c935a-591a-4e31-aa91-6b540699765a","ios":"levelo://app?vid=6d7c935a-591a-4e31-aa91-6b540699765a"},"vehicle_type_id":"4","last_reported":1748009394,"current_range_meters":17600,"station_id":"cpo3532slgdg3j2ikp40","pricing_plan_id":"cebpf4jnsgd1na2vs0mg"},{"bike_id":"034ce18b-54c7-419d-bc93-0f5693aec2ed","system_id":"levelo_inurba_marseille","lat":43.229311,"lon":5.35396,"is_reserved":false,"is_disabled":false,"rental_uris":{"android":"levelo://app?vid=034ce18b-54c7-419d-bc93-0f5693aec2ed","ios":"levelo://app?vid=034ce18b-54c7-419d-bc93-0f5693aec2ed"},"vehicle_type_id":"4","last_reported":1748009394,"current_range_meters":17600,"station_id":"cpo3532slgdg3j2ikp40","pricing_plan_id":"cebpf4jnsgd1na2vs0mg"},{"bike_id":"e9438d85-cbc4-49fb-b976-af0ef346d708","system_id":"levelo_inurba_marseille","lat":43.21182,"lon":5.35097,"is_reserved":false,"is_disabled":false,"rental_uris":{"android":"levelo://app?vid=e9438d85-cbc4-49fb-b976-af0ef346d708","ios":"levelo://app?vid=e9438d85-cbc4-49fb-b976-af0ef346d708"},"vehicle_type_id":"4","last_reported":1748009394,"current_range_meters":17600,"station_id":"st_cvj6sg6p6f1abm77japg","pricing_plan_id":"cebpf4jnsgd1na2vs0mg"},{"bike_id":"da453a88-f81b-4e0f-9781-5a7f6c1d364c","system_id":"levelo_inurba_marseille","lat":43.337499,"lon":5.374469,"is_reserved":false,"is_disabled":false,"rental_uris":{"android":"levelo://app?vid=da453a88-f81b-4e0f-9781-5a7f6c1d364c","ios":"levelo://app?vid=da453a88-f81b-4e0f-9781-5a7f6c1d364c"},"vehicle_type_id":"4","last_reported":1748009394,"current_range_meters":18000,"station_id":"","pricing_plan_id":"cebpf4jnsgd1na2vs0mg"},{"bike_id":"88ac5a91-56d3-4573-b0f2-5c6bbb7d986b","system_id":"levelo_inurba_marseille","lat":43.26058,"lon":5.39644,"is_reserved":false,"is_disabled":false,"rental_uris":{"android":"levelo://app?vid=88ac5a91-56d3-4573-b0f2-5c6bbb7d986b","ios":"levelo://app?vid=88ac5a91-56d3-4573-b0f2-5c6bbb7d986b"},"vehicle_type_id":"4","last_reported":1748009394,"current_range_meters":18000,"station_id":"","pricing_plan_id":"cebpf4jnsgd1na2vs0mg"},{"bike_id":"246a303d-65ef-49e6-9e50-2e37cf092749","system_id":"levelo_inurba_marseille","lat":43.252949,"lon":5.392346,"is_reserved":false,"is_disabled":false,"rental_uris":{"android":"levelo://app?vid=246a303d-65ef-49e6-9e50-2e37cf092749","ios":"levelo://app?vid=246a303d-65ef-49e6-9e50-2e37cf092749"},"vehicle_type_id":"4","last_reported":1748009394,"current_range_meters":18000,"station_id":"","pricing_plan_id":"cebpf4jnsgd1na2vs0mg"},{"bike_id":"fd6ae210-0984-461b-a884-008ebac0602f","system_id":"levelo_inurba_marseille","lat":43.29798,"lon":5.40411,"is_reserved":false,"is_disabled":false,"rental_uris":{"android":"levelo://app?vid=fd6ae210-0984-461b-a884-008ebac0602f","ios":"levelo://app?vid=fd6ae210-0984-461b-a884-008ebac0602f"},"vehicle_type_id":"4","last_reported":1748009394,"current_range_meters":18000,"station_id":"ce4bh112rcd13ifvqd90","pricing_plan_id":"cebpf4jnsgd1na2vs0mg"},{"bike_id":"10078c27-0194-4729-94d6-6e244c47bc94","system_id":"levelo_inurba_marseille","lat":43.27316,"lon":5.39092,"is_reserved":false,"is_disabled":false,"rental_uris":{"android":"levelo://app?vid=10078c27-0194-4729-94d6-6e244c47bc94","ios":"levelo://app?vid=10078c27-0194-4729-94d6-6e244c47bc94"},"vehicle_type_id":"4","last_reported":1748009394,"current_range_meters":18000,"station_id":"ce4bhgp2rcd13ifvqfe0","pricing_plan_id":"cebpf4jnsgd1na2vs0mg"},{"bike_id":"edd7bbd0-6665-4b1f-ba18-c573669ad265","system_id":"levelo_inurba_marseille","lat":43.27319,"lon":5.39103,"is_reserved":false,"is_disabled":false,"rental_uris":{"android":"levelo://app?vid=edd7bbd0-6665-4b1f-ba18-c573669ad265","ios":"levelo://app?vid=edd7bbd0-6665-4b1f-ba18-c573669ad265"},"vehicle_type_id":"4","last_reported":1748009394,"current_range_meters":18000,"station_id":"ce4bhgp2rcd13ifvqfe0","pricing_plan_id":"cebpf4jnsgd1na2vs0mg"},{"bike_id":"1ecd6a5f-b496-4862-86bf-797f3b370d9a","system_id":"levelo_inurba_marseille","lat":43.32347,"lon":5.40623,"is_reserved":false,"is_disabled":false,"rental_uris":{"android":"levelo://app?vid=1ecd6a5f-b496-4862-86bf-797f3b370d9a","ios":"levelo://app?vid=1ecd6a5f-b496-4862-86bf-797f3b370d9a"},"vehicle_type_id":"4","last_reported":1748009394,"current_range_meters":18000,"station_id":"ce4bhq92rcd13ifvqhjg","pricing_plan_id":"cebpf4jnsgd1na2vs0mg"},{"bike_id":"b92a3c71-9ad6-4da4-9ce8-d6dfcfeae874","system_id":"levelo_inurba_marseille","lat":43.32467,"lon":5.36563,"is_reserved":false,"is_disabled":false,"rental_uris":{"android":"levelo://app?vid=b92a3c71-9ad6-4da4-9ce8-d6dfcfeae874","ios":"levelo://app?vid=b92a3c71-9ad6-4da4-9ce8-d6dfcfeae874"},"vehicle_type_id":"4","last_reported":1748009394,"current_range_meters":18000,"station_id":"ce4bhs12rcd13ifvqhvg","pricing_plan_id":"cebpf4jnsgd1na2vs0mg"},{"bike_id":"a44f2506-8dc2-4f85-9270-adfcca72358c","system_id":"levelo_inurba_marseille","lat":43.23159,"lon":5.35614,"is_reserved":false,"is_disabled":false,"rental_uris":{"android":"levelo://app?vid=a44f2506-8dc2-4f85-9270-adfcca72358c","ios":"levelo://app?vid=a44f2506-8dc2-4f85-9270-adfcca72358c"},"vehicle_type_id":"4","last_reported":1748009394,"current_range_meters":18800,"station_id":"","pricing_plan_id":"cebpf4jnsgd1na2vs0mg"},{"bike_id":"6b34f9aa-0b7d-41f2-a4bc-442bd39ee863","system_id":"levelo_inurba_marseille","lat":43.304104,"lon":5.397718,"is_reserved":false,"is_disabled":false,"rental_uris":{"android":"levelo://app?vid=6b34f9aa-0b7d-41f2-a4bc-442bd39ee863","ios":"levelo://app?vid=6b34f9aa-0b7d-41f2-a4bc-442bd39ee863"},"vehicle_type_id":"4","last_reported":1748009394,"current_range_meters":18800,"station_id":"ce4bh092rcd13ifvqd20","pricing_plan_id":"cebpf4jnsgd1na2vs0mg"},{"bike_id":"792b255a-d56a-40d7-b450-4184048bef31","system_id":"levelo_inurba_marseille","lat":43.28706,"lon":5.37395,"is_reserved":false,"is_disabled":false,"rental_uris":{"android":"levelo://app?vid=792b255a-d56a-40d7-b450-4184048bef31","ios":"levelo://app?vid=792b255a-d56a-40d7-b450-4184048bef31"},"vehicle_type_id":"4","last_reported":1748009394,"current_range_meters":18800,"station_id":"ce4bh3p2rcd13ifvqdq0","pricing_plan_id":"cebpf4jnsgd1na2vs0mg"},{"bike_id":"f9bd3725-a52f-4288-9bf9-1c3c7bc36a80","system_id":"levelo_inurba_marseille","lat":43.28408,"lon":5.34987,"is_reserved":false,"is_disabled":false,"rental_uris":{"android":"levelo://app?vid=f9bd3725-a52f-4288-9bf9-1c3c7bc36a80","ios":"levelo://app?vid=f9bd3725-a52f-4288-9bf9-1c3c7bc36a80"},"vehicle_type_id":"4","last_reported":1748009394,"current_range_meters":18800,"station_id":"ce4bhbh2rcd13ifvqepg","pricing_plan_id":"cebpf4jnsgd1na2vs0mg"},{"bike_id":"ef0eb30f-83da-4280-8109-578b4925239a","system_id":"levelo_inurba_marseille","lat":43.28617,"lon":5.35101,"is_reserved":false,"is_disabled":false,"rental_uris":{"android":"levelo://app?vid=ef0eb30f-83da-4280-8109-578b4925239a","ios":"levelo://app?vid=ef0eb30f-83da-4280-8109-578b4925239a"},"vehicle_type_id":"4","last_reported":1748009394,"current_range_meters":18800,"station_id":"ce4bhch2rcd13ifvqeug","pricing_plan_id":"cebpf4jnsgd1na2vs0mg"},{"bike_id":"de0c2c0b-dcd0-4b60-b11c-2acc134521f1","system_id":"levelo_inurba_marseille","lat":43.27319,"lon":5.39077,"is_reserved":false,"is_disabled":false,"rental_uris":{"android":"levelo://app?vid=de0c2c0b-dcd0-4b60-b11c-2acc134521f1","ios":"levelo://app?vid=de0c2c0b-dcd0-4b60-b11c-2acc134521f1"},"vehicle_type_id":"4","last_reported":1748009394,"current_range_meters":18800,"station_id":"ce4bhgp2rcd13ifvqfe0","pricing_plan_id":"cebpf4jnsgd1na2vs0mg"},{"bike_id":"267c30c9-32b9-4b1c-8cd2-c5d4bddf8070","system_id":"levelo_inurba_marseille","lat":43.2732,"lon":5.39068,"is_reserved":false,"is_disabled":false,"rental_uris":{"android":"levelo://app?vid=267c30c9-32b9-4b1c-8cd2-c5d4bddf8070","ios":"levelo://app?vid=267c30c9-32b9-4b1c-8cd2-c5d4bddf8070"},