{"last_updated":1730560164,"ttl":60,"version":"2.2","data":{"bikes":[{"bike_id":"73a9c093-182c-4378-9553-f042dbe43896","system_id":"levelo_inurba_marseille","lat":43.28612,"lon":5.35111,"is_reserved":false,"is_disabled":false,"rental_uris":{"android":"levelo://app?vid=73a9c093-182c-4378-9553-f042dbe43896","ios":"levelo://app?vid=73a9c093-182c-4378-9553-f042dbe43896"},"vehicle_type_id":"4","last_reported":1730560164,"current_range_meters":21600,"station_id":"ce4bhch2rcd13ifvqeug","pricing_plan_id":"cebpf4jnsgd1na2vs0mg"},{"bike_id":"e56120f1-3807-41fd-8d4a-7abc85cc6b48","system_id":"levelo_inurba_marseille","lat":43.2827,"lon":5.35078,"is_reserved":false,"is_disabled":false,"rental_uris":{"android":"levelo://app?vid=e56120f1-3807-41fd-8d4a-7abc85cc6b48","ios":"levelo://app?vid=e56120f1-3807-41fd-8d4a-7abc85cc6b48"},"vehicle_type_id":"4","last_reported":1730560164,"current_range_meters":26000,"station_id":"ce4bhbp2rcd13ifvqerg","pricing_plan_id":"cebpf4jnsgd1na2vs0mg"},{"bike_id":"37ce3ac7-0b91-4a47-adb7-42ccea57d3b2","system_id":"levelo_inurba_marseille","lat":43.27371,"lon":5.3626,"is_reserved":false,"is_disabled":false,"rental_uris":{"android":"levelo://app?vid=37ce3ac7-0b91-4a47-adb7-42ccea57d3b2","ios":"levelo://app?vid=37ce3ac7-0b91-4a47-adb7-42ccea57d3b2"},"vehicle_type_id":"4","last_reported":1730560164,"current_range_meters":18800,"station_id":"ce4bhbh2rcd13ifvqeo0","pricing_plan_id":"cebpf4jnsgd1na2vs0mg"},{"bike_id":"032c4db8-b3d6-4d60-bd9a-b02b04645aa6","system_id":"levelo_inurba_marseille","lat":43.27379,"lon":5.36262,"is_reserved":false,"is_disabled":false,"rental_uris":{"android":"levelo://app?vid=032c4db8-b3d6-4d60-bd9a-b02b04645aa6","ios":"levelo://app?vid=032c4db8-b3d6-4d60-bd9a-b02b04645aa6"},"vehicle_type_id":"4","last_reported":1730560164,"current_range_meters":24400,"station_id":"ce4bhbh2rcd13ifvqeo0","pricing_plan_id":"cebpf4jnsgd1na2vs0mg"},{"bike_id":"02fe0e86-bc31-4b56-981a-890ed6cd1c76","system_id":"levelo_inurba_marseille","lat":43.32662,"lon":5.40984,"is_reserved":false,"is_disabled":false,"rental_uris":{"android":"levelo://app?vid=02fe0e86-bc31-4b56-981a-890ed6cd1c76","ios":"levelo://app?vid=02fe0e86-bc31-4b56-981a-890ed6cd1c76"},"vehicle_type_id":"4","last_reported":1730560164,"current_range_meters":8000,"station_id":"ce4bhpp2rcd13ifvqhgg","pricing_plan_id":"cebpf4jnsgd1na2vs0mg"},{"bike_id":"8682c02d-b75e-4986-bf40-c0b0cf6578e7","system_id":"levelo_inurba_marseille","lat":43.32108,"lon":5.36775,"is_reserved":false,"is_disabled":false,"rental_uris":{"android":"levelo://app?vid=8682c02d-b75e-4986-bf40-c0b0cf6578e7","ios":"levelo://app?vid=8682c02d-b75e-4986-bf40-c0b0cf6578e7"},"vehicle_type_id":"4","last_reported":1730560164,"current_range_meters":37600,"station_id":"ce4bhrh2rcd13ifvqhug","pricing_plan_id":"cebpf4jnsgd1na2vs0mg"},{"bike_id":"dbd026cc-4570-4761-bfa1-68dae00b3a97","system_id":"levelo_inurba_marseille","lat":43.30529,"lon":5.36538,"is_reserved":false,"is_disabled":false,"rental_uris":{"android":"levelo://app?vid=dbd026cc-4570-4761-bfa1-68dae00b3a97","ios":"levelo://app?vid=dbd026cc-4570-4761-bfa1-68dae00b3a97"},"vehicle_type_id":"4","last_reported":1730560164,"current_range_meters":38800,"station_id":"ce4bgs12rcd13ifvqcag","pricing_plan_id":"cebpf4jnsgd1na2vs0mg"},{"bike_id":"9544e8e1-810b-40e5-8e45-0e98bf35fbaa","system_id":"levelo_inurba_marseille","lat":43.30135,"lon":5.37422,"is_reserved":false,"is_disabled":false,"rental_uris":{"android":"levelo://app?vid=9544e8e1-810b-40e5-8e45-0e98bf35fbaa","ios":"levelo://app?vid=9544e8e1-810b-40e5-8e45-0e98bf35fbaa"},"vehicle_type_id":"4","last_reported":1730560164,"current_range_meters":37600,"station_id":"ce4bgs92rcd13ifvqcc0","pricing_plan_id":"cebpf4jnsgd1na2vs0mg"},{"bike_id":"1c7235cb-2316-4435-98f3-50e51cf4474c","system_id":"levelo_inurba_marseille","lat":43.26558,"lon":5.3729,"is_reserved":false,"is_disabled":false,"rental_uris":{"android":"levelo://app?vid=1c7235cb-2316-4435-98f3-50e51cf4474c","ios":"levelo://app?vid=1c7235cb-2316-4435-98f3-50e51cf4474c"},"vehicle_type_id":"4","last_reported":1730560164,"current_range_meters":7200,"station_id":"ce4bhg12rcd13ifvqf70","pricing_plan_id":"cebpf4jnsgd1na2vs0mg"},{"bike_id":"ae2ccb33-795f-44d2-a6c0-9c58090a88ce","system_id":"levelo_inurba_marseille","lat":43.24387,"lon":5.37057,"is_reserved":false,"is_disabled":false,"rental_uris":{"android":"levelo://app?vid=ae2ccb33-795f-44d2-a6c0-9c58090a88ce","ios":"levelo://app?vid=ae2ccb33-795f-44d2-a6c0-9c58090a88ce"},"vehicle_type_id":"4","last_reported":1730560164,"current_range_meters":32400,"station_id":"ce4bhhh2rcd13ifvqfk0","pricing_plan_id":"cebpf4jnsgd1na2vs0mg"},{"bike_id":"b4c0cfa6-5ab2-4d3e-9d4f-03ad72539d61","system_id":"levelo_inurba_marseille","lat":43.26031,"lon":5.37574,"is_reserved":false,"is_disabled":false,"rental_uris":{"android":"levelo://app?vid=b4c0cfa6-5ab2-4d3e-9d4f-03ad72539d61","ios":"levelo://app?vid=b4c0cfa6-5ab2-4d3e-9d4f-03ad72539d61"},"vehicle_type_id":"4","last_reported":1730560164,"current_range_meters":12400,"station_id":"ce4bhgh2rcd13ifvqfa0","pricing_plan_id":"cebpf4jnsgd1na2vs0mg"},{"bike_id":"615d6bf6-418b-485f-937b-5a225c4b34f6","system_id":"levelo_inurba_marseille","lat":43.30453,"lon":5.37907,"is_reserved":false,"is_disabled":false,"rental_uris":{"android":"levelo://app?vid=615d6bf6-418b-485f-937b-5a225c4b34f6","ios":"levelo://app?vid=615d6bf6-418b-485f-937b-5a225c4b34f6"},"vehicle_type_id":"4","last_reported":1730560164,"current_range_meters":39200,"station_id":"ce4bgup2rcd13ifvqcn0","pricing_plan_id":"cebpf4jnsgd1na2vs0mg"},{"bike_id":"6cd618e5-fd0b-46e1-88fe-75112fd3d419","system_id":"levelo_inurba_marseille","lat":43.26994,"lon":5.38781,"is_reserved":false,"is_disabled":false,"rental_uris":{"android":"levelo://app?vid=6cd618e5-fd0b-46e1-88fe-75112fd3d419","ios":"levelo://app?vid=6cd618e5-fd0b-46e1-88fe-75112fd3d419"},"vehicle_type_id":"4","last_reported":1730560164,"current_range_meters":3200,"station_id":"ce4bhg12rcd13ifvqf70","pricing_plan_id":"cebpf4jnsgd1na2vs0mg"},{"bike_id":"cd3e86ad-d45b-4da8-8cd7-1ab0a47373f2","system_id":"levelo_inurba_marseille","lat":43.25715,"lon":5.41121,"is_reserved":false,"is_disabled":false,"rental_uris":{"android":"levelo://app?vid=cd3e86ad-d45b-4da8-8cd7-1ab0a47373f2","ios":"levelo://app?vid=cd3e86ad-d45b-4da8-8cd7-1ab0a47373f2"},"vehicle_type_id":"4","last_reported":1730560164,"current_range_meters":38800,"station_id":"ce4bhkp2rcd13ifvqgd0","pricing_plan_id":"cebpf4jnsgd1na2vs0mg"},{"bike_id":"91977d47-3816-4525-a25d-4cba6d0cb6a4","system_id":"levelo_inurba_marseille","lat":43.248,"lon":5.37454,"is_reserved":false,"is_disabled":false,"rental_uris":{"android":"levelo://app?vid=91977d47-3816-4525-a25d-4cba6d0cb6a4","ios":"levelo://app?vid=91977d47-3816-4525-a25d-4cba6d0cb6a4"},"vehicle_type_id":"4","last_reported":1730560164,"current_range_meters":22000,"station_id":"ce4bhgh2rcd13ifvqfb0","pricing_plan_id":"cebpf4jnsgd1na2vs0mg"},{"bike_id":"a4627486-a087-47d1-bdea-e9476cd49986","system_id":"levelo_inurba_marseille","lat":43.23197,"lon":5.3555,"is_reserved":false,"is_disabled":false,"rental_uris":{"android":"levelo://app?vid=a4627486-a087-47d1-bdea-e9476cd49986","ios":"levelo://app?vid=a4627486-a087-47d1-bdea-e9476cd49986"},"vehicle_type_id":"4","last_reported":1730560164,"current_range_meters":26800,"station_id":"ce4bhu92rcd13ifvqi70","pricing_plan_id":"cebpf4jnsgd1na2vs0mg"},{"bike_id":"50f35fcc-5108-4a2e-ad11-1cf401fd2a15","system_id":"levelo_inurba_marseille","lat":43.28611,"lon":5.35109,"is_reserved":false,"is_disabled":false,"rental_uris":{"android":"levelo://app?vid=50f35fcc-5108-4a2e-ad11-1cf401fd2a15","ios":"levelo://app?vid=50f35fcc-5108-4a2e-ad11-1cf401fd2a15"},"vehicle_type_id":"4","last_reported":1730560164,"current_range_meters":37600,"station_id":"ce4bhch2rcd13ifvqeug","pricing_plan_id":"cebpf4jnsgd1na2vs0mg"},{"bike_id":"116fa14f-f8de-4443-b9b8-162c7369b50a","system_id":"levelo_inurba_marseille","lat":43.24545,"lon":5.39529,"is_reserved":false,"is_disabled":false,"rental_uris":{"android":"levelo://app?vid=116fa14f-f8de-4443-b9b8-162c7369b50a","ios":"levelo://app?vid=116fa14f-f8de-4443-b9b8-162c7369b50a"},"vehicle_type_id":"4","last_reported":1730560164,"current_range_meters":28000,"station_id":"ce4bhlp2rcd13ifvqgjg","pricing_plan_id":"cebpf4jnsgd1na2vs0mg"},{"bike_id":"ac590f3e-986f-4cac-b7df-28ab3e35fdb0","system_id":"levelo_inurba_marseille","lat":43.30925,"lon":5.40148,"is_reserved":false,"is_disabled":false,"rental_uris":{"android":"levelo://app?vid=ac590f3e-986f-4cac-b7df-28ab3e35fdb0","ios":"levelo://app?vid=ac590f3e-986f-4cac-b7df-28ab3e35fdb0"},"vehicle_type_id":"4","last_reported":1730560164,"current_range_meters":30800,"station_id":"ce4bgvp2rcd13ifvqct0","pricing_plan_id":"cebpf4jnsgd1na2vs0mg"},{"bike_id":"198657cb-dfe2-4960-98ba-591830066bbd","system_id":"levelo_inurba_marseille","lat":43.28157,"lon":5.42644,"is_reserved":false,"is_disabled":false,"rental_uris":{"android":"levelo://app?vid=198657cb-dfe2-4960-98ba-591830066bbd","ios":"levelo://app?vid=198657cb-dfe2-4960-98ba-591830066bbd"},"vehicle_type_id":"4","last_reported":1730560164,"current_range_meters":9200,"station_id":"","pricing_plan_id":"cebpf4jnsgd1na2vs0mg"},{"bike_id":"c728b923-65ff-4f3c-af65-445c0ab5ad59","system_id":"levelo_inurba_marseille","lat":43.28614,"lon":5.35106,"is_reserved":false,"is_disabled":false,"rental_uris":{"android":"levelo://app?vid=c728b923-65ff-4f3c-af65-445c0ab5ad59","ios":"levelo://app?vid=c728b923-65ff-4f3c-af65-445c0ab5ad59"},"vehicle_type_id":"4","last_reported":1730560164,"current_range_meters":34000,"station_id":"ce4bhch2rcd13ifvqeug","pricing_plan_id":"cebpf4jnsgd1na2vs0mg"},{"bike_id":"fbc29d1b-26f3-47f9-9431-c018a6da7ed1","system_id":"levelo_inurba_marseille","lat":43.28947,"lon":5.36413,"is_reserved":false,"is_disabled":false,"rental_uris":{"android":"levelo://app?vid=fbc29d1b-26f3-47f9-9431-c018a6da7ed1","ios":"levelo://app?vid=fbc29d1b-26f3-47f9-9431-c018a6da7ed1"},"vehicle_type_id":"4","last_reported":1730560164,"current_range_meters":17600,"station_id":"ce4bhc92rcd13ifvqetg","pricing_plan_id":"cebpf4jnsgd1na2vs0mg"},{"bike_id":"586ef6be-f8d1-4683-82e3-7ccf1079dad8","system_id":"levelo_inurba_marseille","lat":43.23057,"lon":5.35493,"is_reserved":false,"is_disabled":false,"rental_uris":{"android":"levelo://app?vid=586ef6be-f8d1-4683-82e3-7ccf1079dad8","ios":"levelo://app?vid=586ef6be-f8d1-4683-82e3-7ccf1079dad8"},"vehicle_type_id":"4","last_reported":1730560164,"current_range_meters":16400,"station_id":"cpo3342slgdg3j2ifvpg","pricing_plan_id":"cebpf4jnsgd1na2vs0mg"},{"bike_id":"6aee0ce1-c7a0-45e8-a515-069ca31b3763","system_id":"levelo_inurba_marseille","lat":43.25734,"lon":5.41128,"is_reserved":false,"is_disabled":false,"rental_uris":{"android":"levelo://app?vid=6aee0ce1-c7a0-45e8-a515-069ca31b3763","ios":"levelo://app?vid=6aee0ce1-c7a0-45e8-a515-069ca31b3763"},"vehicle_type_id":"4","last_reported":1730560164,"current_range_meters":37600,"station_id":"ce4bhkp2rcd13ifvqgd0","pricing_plan_id":"cebpf4jnsgd1na2vs0mg"},{"bike_id":"03ecf539-acfb-438e-8e4a-2d04df101460","system_id":"levelo_inurba_marseille","lat":43.25492,"lon":5.37647,"is_reserved":false,"is_disabled":false,"rental_uris":{"android":"levelo://app?vid=03ecf539-acfb-438e-8e4a-2d04df101460","ios":"levelo://app?vid=03ecf539-acfb-438e-8e4a-2d04df101460"},"vehicle_type_id":"4","last_reported":1730560164,"current_range_meters":36000,"station_id":"ce4bhh12rcd13ifvqff0","pricing_plan_id":"cebpf4jnsgd1na2vs0mg"},{"bike_id":"69a055d4-3901-4523-825c-301a5890c89f","system_id":"levelo_inurba_marseille","lat":43.22927,"lon":5.35384,"is_reserved":false,"is_disabled":false,"rental_uris":{"android":"levelo://app?vid=69a055d4-3901-4523-825c-301a5890c89f","ios":"levelo://app?vid=69a055d4-3901-4523-825c-301a5890c89f"},"vehicle_type_id":"4","last_reported":1730560164,"current_range_meters":16400,"station_id":"cpo3532slgdg3j2ikp40","pricing_plan_id":"cebpf4jnsgd1na2vs0mg"},{"bike_id":"5ab17023-8660-410b-88a5-127d565b058c","system_id":"levelo_inurba_marseille","lat":43.24165,"lon":5.36396,"is_reserved":false,"is_disabled":false,"rental_uris":{"android":"levelo://app?vid=5ab17023-8660-410b-88a5-127d565b058c","ios":"levelo://app?vid=5ab17023-8660-410b-88a5-127d565b058c"},"vehicle_type_id":"4","last_reported":1730560164,"current_range_meters":19200,"station_id":"cpo36qri1sfpv3e86is0","pricing_plan_id":"cebpf4jnsgd1na2vs0mg"},{"bike_id":"27713976-1f39-4942-b945-2247f38c8d69","system_id":"levelo_inurba_marseille","lat":43.27369,"lon":5.36259,"is_reserved":false,"is_disabled":false,"rental_uris":{"android":"levelo://app?vid=27713976-1f39-4942-b945-2247f38c8d69","ios":"levelo://app?vid=27713976-1f39-4942-b945-2247f38c8d69"},"vehicle_type_id":"4","last_reported":1730560164,"current_range_meters":8400,"station_id":"ce4bhbh2rcd13ifvqeo0","pricing_plan_id":"cebpf4jnsgd1na2vs0mg"},{"bike_id":"1c6c4ea4-1422-4f95-9fb3-989475604eaf","system_id":"levelo_inurba_marseille","lat":43.28273,"lon":5.35077,"is_reserved":false,"is_disabled":false,"rental_uris":{"android":"levelo://app?vid=1c6c4ea4-1422-4f95-9fb3-989475604eaf","ios":"levelo://app?vid=1c6c4ea4-1422-4f95-9fb3-989475604eaf"},"vehicle_type_id":"4","last_reported":1730560164,"current_range_meters":37600,"station_id":"ce4bhbp2rcd13ifvqerg","pricing_plan_id":"cebpf4jnsgd1na2vs0mg"},{"bike_id":"7f5dab1e-719c-4732-bbf7-98e63f9f3e77","system_id":"levelo_inurba_marseille","lat":43.23188,"lon":5.35562,"is_reserved":false,"is_disabled":false,"rental_uris":{"android":"levelo://app?vid=7f5dab1e-719c-4732-bbf7-98e63f9f3e77","ios":"levelo://app?vid=7f5dab1e-719c-4732-bbf7-98e63f9f3e77"},"vehicle_type_id":"4","last_reported":1730560164,"current_range_meters":24400,"station_id":"ce4bhu92rcd13ifvqi70","pricing_plan_id":"cebpf4jnsgd1na2vs0mg"},{"bike_id":"415aad22-c206-4c34-b278-7a5c492c23e0","system_id":"levelo_inurba_marseille","lat":43.30835,"lon":5.37541,"is_reserved":false,"is_disabled":false,"rental_uris":{"android":"levelo://app?vid=415aad22-c206-4c34-b278-7a5c492c23e0","ios":"levelo://app?vid=415aad22-c206-4c34-b278-7a5c492c23e0"},"vehicle_type_id":"4","last_reported":1730560164,"current_range_meters":36000,"station_id":"","pricing_plan_id":"cebpf4jnsgd1na2vs0mg"},{"bike_id":"7f39b1a9-937f-4de6-9cb9-6fb824b11a9d","system_id":"levelo_inurba_marseille","lat":43.29269,"lon":5.36845,"is_reserved":false,"is_disabled":false,"rental_uris":{"android":"levelo://app?vid=7f39b1a9-937f-4de6-9cb9-6fb824b11a9d","ios":"levelo://app?vid=7f39b1a9-937f-4de6-9cb9-6fb824b11a9d"},"vehicle_type_id":"4","last_reported":1730560164,"current_range_meters":30000,"station_id":"ce4bhbp2rcd13ifvqesg","pricing_plan_id":"cebpf4jnsgd1na2vs0mg"},{"bike_id":"c0f9e7cc-9311-4a80-a452-3ffec7c1659e","system_id":"levelo_inurba_marseille","lat":43.25865,"lon":5.39911,"is_reserved":false,"is_disabled":false,"rental_uris":{"android":"levelo://app?vid=c0f9e7cc-9311-4a80-a452-3ffec7c1659e","ios":"levelo://app?vid=c0f9e7cc-9311-4a80-a452-3ffec7c1659e"},"vehicle_type_id":"4","last_reported":1730560164,"current_range_meters":24400,"station_id":"ce4bhl92rcd13ifvqghg","pricing_plan_id":"cebpf4jnsgd1na2vs0mg"},{"bike_id":"303264da-8516-41d7-898f-f3e338af2c69","system_id":"levelo_inurba_marseille","lat":43.2841,"lon":5.34985,"is_reserved":false,"is_disabled":false,"rental_uris":{"android":"levelo://app?vid=303264da-8516-41d7-898f-f3e338af2c69","ios":"levelo://app?vid=303264da-8516-41d7-898f-f3e338af2c69"},"vehicle_type_id":"4","last_reported":1730560164,"current_range_meters":2000,"station_id":"ce4bhbh2rcd13ifvqepg","pricing_plan_id":"cebpf4jnsgd1na2vs0mg"},{"bike_id":"e7ad88f0-ca92-4432-94b1-56674bde3399","system_id":"levelo_inurba_marseille","lat":43.30452,"lon":5.37914,"is_reserved":false,"is_disabled":false,"rental_uris":{"android":"levelo://app?vid=e7ad88f0-ca92-4432-94b1-56674bde3399","ios":"levelo://app?vid=e7ad88f0-ca92-4432-94b1-56674bde3399"},"vehicle_type_id":"4","last_reported":1730560164,"current_range_meters":32800,"station_id":"ce4bgup2rcd13ifvqcn0","pricing_plan_id":"cebpf4jnsgd1na2vs0mg"},{"bike_id":"4b7e39ca-f030-461d-8ec3-c7b62858ad2e","system_id":"levelo_inurba_marseille","lat":43.26197,"lon":5.37936,"is_reserved":false,"is_disabled":false,"rental_uris":{"android":"levelo://app?vid=4b7e39ca-f030-461d-8ec3-c7b62858ad2e","ios":"levelo://app?vid=4b7e39ca-f030-461d-8ec3-c7b62858ad2e"},"vehicle_type_id":"4","last_reported":1730560164,"current_range_meters":17600,"station_id":"ce4bhjp2rcd13ifvqg90","pricing_plan_id":"cebpf4jnsgd1na2vs0mg"},{"bike_id":"2bfa383b-a262-4c62-9118-35155dd7e893","system_id":"levelo_inurba_marseille","lat":43.299194,"lon":5.374222,"is_reserved":false,"is_disabled":false,"rental_uris":{"android":"levelo://app?vid=2bfa383b-a262-4c62-9118-35155dd7e893","ios":"levelo://app?vid=2bfa383b-a262-4c62-9118-35155dd7e893"},"vehicle_type_id":"4","last_reported":1730560164,"current_range_meters":4000,"station_id":"chh1huq6cuj3fo74tm60","pricing_plan_id":"cebpf4jnsgd1na2vs0mg"},{"bike_id":"52856f06-780d-4d88-b7d7-1645a212efd1","system_id":"levelo_inurba_marseille","lat":43.27618,"lon":5.36113,"is_reserved":false,"is_disabled":false,"rental_uris":{"android":"levelo://app?vid=52856f06-780d-4d88-b7d7-1645a212efd1","ios":"levelo://app?vid=52856f06-780d-4d88-b7d7-1645a212efd1"},"vehicle_type_id":"4","last_reported":1730560164,"current_range_meters":32400,"station_id":"ce4bgj92rcd13ifvqbe0","pricing_plan_id":"cebpf4jnsgd1na2vs0mg"},{"bike_id":"3447d8c3-6fe3-401f-b54b-f3c0a7c33af8","system_id":"levelo_inurba_marseille","lat":43.29223,"lon":5.36075,"is_reserved":false,"is_disabled":false,"rental_uris":{"android":"levelo://app?vid=3447d8c3-6fe3-401f-b54b-f3c0a7c33af8","ios":"levelo://app?vid=3447d8c3-6fe3-401f-b54b-f3c0a7c33af8"},"vehicle_type_id":"4","last_reported":1730560164,"current_range_meters":20000,"station_id":"ce4bhbh2rcd13ifvqeqg","pricing_plan_id":"cebpf4jnsgd1na2vs0mg"},{"bike_id":"7fa94125-a04a-42d6-9613-d8d610c50ff9","system_id":"levelo_inurba_marseille","lat":43.26781,"lon":5.39421,"is_reserved":false,"is_disabled":false,"rental_uris":{"android":"levelo://app?vid=7fa94125-a04a-42d6-9613-d8d610c50ff9","ios":"levelo://app?vid=7fa94125-a04a-42d6-9613-d8d610c50ff9"},"vehicle_type_id":"4","last_reported":1730560164,"current_range_meters":36800,"station_id":"ce4bhh12rcd13ifvqfg0","pricing_plan_id":"cebpf4jnsgd1na2vs0mg"},{"bike_id":"20865216-4847-4344-9de1-9ad460b01256","system_id":"levelo_inurba_marseille","lat":43.29573,"lon":5.37518,"is_reserved":false,"is_disabled":false,"rental_uris":{"android":"levelo://app?vid=20865216-4847-4344-9de1-9ad460b01256","ios":"levelo://app?vid=20865216-4847-4344-9de1-9ad460b01256"},"vehicle_type_id":"4","last_reported":1730560164,"current_range_meters":25200,"station_id":"ce4bgh92rcd13ifvqb50","pricing_plan_id":"cebpf4jnsgd1na2vs0mg"},{"bike_id":"890f66fc-50b2-4eb6-bdfd-179ac4802a60","system_id":"levelo_inurba_marseille","lat":43.31687,"lon":5.40468,"is_reserved":false,"is_disabled":false,"rental_uris":{"android":"levelo://app?vid=890f66fc-50b2-4eb6-bdfd-179ac4802a60","ios":"levelo://app?vid=890f66fc-50b2-4eb6-bdfd-179ac4802a60"},"vehicle_type_id":"4","last_reported":1730560164,"current_range_meters":38800,"station_id":"ce4bh012rcd13ifvqd00","pricing_plan_id":"cebpf4jnsgd1na2vs0mg"},{"bike_id":"757a0200-fd64-4bd5-b30b-7497747565df","system_id":"levelo_inurba_marseille","lat":43.30884,"lon":5.39661,"is_reserved":false,"is_disabled":false,"rental_uris":{"android":"levelo://app?vid=757a0200-fd64-4bd5-b30b-7497747565df","ios":"levelo://app?vid=757a0200-fd64-4bd5-b30b-7497747565df"},"vehicle_type_id":"4","last_reported":1730560164,"current_range_meters":36400,"station_id":"ce4bh012rcd13ifvqcv0","pricing_plan_id":"cebpf4jnsgd1na2vs0mg"},{"bike_id":"a13bd5d0-87ae-49e0-932e-53da327c5bf1","system_id":"levelo_inurba_marseille","lat":43.29085,"lon":5.38159,"is_reserved":false,"is_disabled":false,"rental_uris":{"android":"levelo://app?vid=a13bd5d0-87ae-49e0-932e-53da327c5bf1","ios":"levelo://app?vid=a13bd5d0-87ae-49e0-932e-53da327c5bf1"},"vehicle_type_id":"4","last_reported":1730560164,"current_range_meters":22800,"station_id":"ce4bh512rcd13ifvqe2g","pricing_plan_id":"cebpf4jnsgd1na2vs0mg"},{"bike_id":"ec041e88-1642-4b7c-83af-3d91919fb6c6","system_id":"levelo_inurba_marseille","lat":43.31326,"lon":5.39697,"is_reserved":false,"is_disabled":false,"rental_uris":{"android":"levelo://app?vid=ec041e88-1642-4b7c-83af-3d91919fb6c6","ios":"levelo://app?vid=ec041e88-1642-4b7c-83af-3d91919fb6c6"},"vehicle_type_id":"4","last_reported":1730560164,"current_range_meters":10800,"station_id":"ce4bgvp2rcd13ifvqcu0","pricing_plan_id":"cebpf4jnsgd1na2vs0mg"},{"bike_id":"ad27a309-825b-48cf-b531-54c6b8b4f6b8","system_id":"levelo_inurba_marseille","lat":43.27608,"lon":5.36123,"is_reserved":false,"is_disabled":false,"rental_uris":{"android":"levelo://app?vid=ad27a309-825b-48cf-b531-54c6b8b4f6b8","ios":"levelo://app?vid=ad27a309-825b-48cf-b531-54c6b8b4f6b8"},"vehicle_type_id":"4","last_reported":1730560164,"current_range_meters":12400,"station_id":"ce4bgj92rcd13ifvqbe0","pricing_plan_id":"cebpf4jnsgd1na2vs0mg"},{"bike_id":"4da70f1d-a1c8-4bd9-8f80-0435050b1581","system_id":"levelo_inurba_marseille","lat":43.29586,"lon":5.38111,"is_reserved":false,"is_disabled":false,"rental_uris":{"android":"levelo://app?vid=4da70f1d-a1c8-4bd9-8f80-0435050b1581","ios":"levelo://app?vid=4da70f1d-a1c8-4bd9-8f80-0435050b1581"},"vehicle_type_id":"4","last_reported":1730560164,"current_range_meters":36400,"station_id":"ce4bgl12rcd13ifvqbo0","pricing_plan_id":"cebpf4jnsgd1na2vs0mg"},{"bike_id":"d124e9fe-26af-4ac2-988c-bf6bb8d9a2de","system_id":"levelo_inurba_marseille","lat":43.31487,"lon":5.37316,"is_reserved":false,"is_disabled":false,"rental_uris":{"android":"levelo://app?vid=d124e9fe-26af-4ac2-988c-bf6bb8d9a2de","ios":"levelo://app?vid=d124e9fe-26af-4ac2-988c-bf6bb8d9a2de"},"vehicle_type_id":"4","last_reported":1730560164,"current_range_meters":30000,"station_id":"ce4bgt12rcd13ifvqcd0","pricing_plan_id":"cebpf4jnsgd1na2vs0mg"},{"bike_id":"c4548e2c-f32e-4b7c-848e-8f1478636b05","system_id":"levelo_inurba_marseille","lat":43.23964,"lon":5.36642,"is_reserved":false,"is_disabled":false,"rental_uris":{"android":"levelo://app?vid=c4548e2c-f32e-4b7c-848e-8f1478636b05","ios":"levelo://app?vid=c4548e2c-f32e-4b7c-848e-8f1478636b05"},"vehicle_type_id":"4","last_reported":1730560164,"current_range_meters":16400,"station_id":"ce4bhi12rcd13ifvqfp0","pricing_plan_id":"cebpf4jnsgd1na2vs0mg"},{"bike_id":"4dd74b80-423d-4a82-8b5a-fef5ebd97f46","system_id":"levelo_inurba_marseille","lat":43.24385,"lon":5.37056,"is_reserved":false,"is_disabled":false,"rental_uris":{"android":"levelo://app?vid=4dd74b80-423d-4a82-8b5a-fef5ebd97f46","ios":"levelo://app?vid=4dd74b80-423d-4a82-8b5a-fef5ebd97f46"},"vehicle_type_id":"4","last_reported":1730560164,"current_range_meters":22000,"station_id":"ce4bhhh2rcd13ifvqfk0","pricing_plan_id":"cebpf4jnsgd1na2vs0mg"},{"bike_id":"17e6ea14-dc13-49b8-b079-d5ebf40f086a","system_id":"levelo_inurba_marseille","lat":43.24165,"lon":5.36395,"is_reserved":false,"is_disabled":false,"rental_uris":{"android":"levelo://app?vid=17e6ea14-dc13-49b8-b079-d5ebf40f086a","ios":"levelo://app?vid=17e6ea14-dc13-49b8-b079-d5ebf40f086a"},"vehicle_type_id":"4","last_reported":1730560164,"current_range_meters":38400,"station_id":"cpo36qri1sfpv3e86is0","pricing_plan_id":"cebpf4jnsgd1na2vs0mg"},{"bike_id":"8332221e-497a-411c-8f4b-c7869bd3c71b","system_id":"levelo_inurba_marseille","lat":43.27822,"lon":5.39212,"is_reserved":false,"is_disabled":false,"rental_uris":{"android":"levelo://app?vid=8332221e-497a-411c-8f4b-c7869bd3c71b","ios":"levelo://app?vid=8332221e-497a-411c-8f4b-c7869bd3c71b"},"vehicle_type_id":"4","last_reported":1730560164,"current_range_meters":30800,"station_id":"ce4bhjp2rcd13ifvqga0","pricing_plan_id":"cebpf4jnsgd1na2vs0mg"},{"bike_id":"0c3b1e4f-c58b-480f-831c-f964672bdc90","system_id":"levelo_inurba_marseille","lat":43.30273,"lon":5.37722,"is_reserved":false,"is_disabled":false,"rental_uris":{"android":"levelo://app?vid=0c3b1e4f-c58b-480f-831c-f964672bdc90","ios":"levelo://app?vid=0c3b1e4f-c58b-480f-831c-f964672bdc90"},"vehicle_type_id":"4","last_reported":1730560164,"current_range_meters":14000,"station_id":"ce4bguh2rcd13ifvqcj0","pricing_plan_id":"cebpf4jnsgd1na2vs0mg"},{"bike_id":"ef0fadf0-9254-445a-a9d9-2f637fa0f364","system_id":"levelo_inurba_marseille","lat":43.28263,"lon":5.35067,"is_reserved":false,"is_disabled":false,"rental_uris":{"android":"levelo://app?vid=ef0fadf0-9254-445a-a9d9-2f637fa0f364","ios":"levelo://app?vid=ef0fadf0-9254-445a-a9d9-2f637fa0f364"},"vehicle_type_id":"4","last_reported":1730560164,"current_range_meters":4400,"station_id":"ce4bhbp2rcd13ifvqerg","pricing_plan_id":"cebpf4jnsgd1na2vs0mg"},{"bike_id":"ba745c96-3de6-45f0-92b1-f41c3a9382aa","system_id":"levelo_inurba_marseille","lat":43.2549,"lon":5.37658,"is_reserved":false,"is_disabled":false,"rental_uris":{"android":"levelo://app?vid=ba745c96-3de6-45f0-92b1-f41c3a9382aa","ios":"levelo://app?vid=ba745c96-3de6-45f0-92b1-f41c3a9382aa"},"vehicle_type_id":"4","last_reported":1730560164,"current_range_meters":11600,"station_id":"ce4bhh12rcd13ifvqff0","pricing_plan_id":"cebpf4jnsgd1na2vs0mg"},{"bike_id":"64cf70c7-3e50-4903-b4d2-95b4a4354be3","system_id":"levelo_inurba_marseille","lat":43.28612,"lon":5.3511,"is_reserved":false,"is_disabled":false,"rental_uris":{"android":"levelo://app?vid=64cf70c7-3e50-4903-b4d2-95b4a4354be3","ios":"levelo://app?vid=64cf70c7-3e50-4903-b4d2-95b4a4354be3"},"vehicle_type_id":"4","last_reported":1730560164,"current_range_meters":4800,"station_id":"ce4bhch2rcd13ifvqeug","pricing_plan_id":"cebpf4jnsgd1na2vs0mg"},{"bike_id":"f609db10-d365-48ba-8a60-631d29005da7","system_id":"levelo_inurba_marseille","lat":43.273813,"lon":5.362673,"is_reserved":false,"is_disabled":false,"rental_uris":{"android":"levelo://app?vid=f609db10-d365-48ba-8a60-631d29005da7","ios":"levelo://app?vid=f609db10-d365-48ba-8a60-631d29005da7"},"vehicle_type_id":"4","last_reported":1730560164,"current_range_meters":8800,"station_id":"ce4bhbh2rcd13ifvqeo0","pricing_plan_id":"cebpf4jnsgd1na2vs0mg"},{"bike_id":"cd9c51c3-66f1-4423-a637-2a576f24f89d","system_id":"levelo_inurba_marseille","lat":43.2707,"lon":5.42287,"is_reserved":false,"is_disabled":false,"rental_uris":{"android":"levelo://app?vid=cd9c51c3-66f1-4423-a637-2a576f24f89d","ios":"levelo://app?vid=cd9c51c3-66f1-4423-a637-2a576f24f89d"},"vehicle_type_id":"4","last_reported":1730560164,"current_range_meters":9600,"station_id":"ce4bhk92rcd13ifvqgb0","pricing_plan_id":"cebpf4jnsgd1na2vs0mg"},{"bike_id":"d69eef29-33f1-400b-9dbd-e583b4f600d8","system_id":"levelo_inurba_marseille","lat":43.2465,"lon":5.38904,"is_reserved":false,"is_disabled":false,"rental_uris":{"android":"levelo://app?vid=d69eef29-33f1-400b-9dbd-e583b4f600d8","ios":"levelo://app?vid=d69eef29-33f1-400b-9dbd-e583b4f600d8"},"vehicle_type_id":"4","last_reported":1730560164,"current_range_meters":38800,"station_id":"ce4bhg12rcd13ifvqf60","pricing_plan_id":"cebpf4jnsgd1na2vs0mg"},{"bike_id":"712fea05-9aca-4493-9bf3-dc5817e58bb6","system_id":"levelo_inurba_marseille","lat":43.29847,"lon":5.36292,"is_reserved":false,"is_disabled":false,"rental_uris":{"android":"levelo://app?vid=712fea05-9aca-4493-9bf3-dc5817e58bb6","ios":"levelo://app?vid=712fea05-9aca-4493-9bf3-dc5817e58bb6"},"vehicle_type_id":"4","last_reported":1730560164,"current_range_meters":24800,"station_id":"ce4bgpp2rcd13ifvqc3g","pricing_plan_id":"cebpf4jnsgd1na2vs0mg"},{"bike_id":"e515cc14-ec45-4493-a6ef-e8658b9cbc95","system_id":"levelo_inurba_marseille","lat":43.26206,"lon":5.37932,"is_reserved":false,"is_disabled":false,"rental_uris":{"android":"levelo://app?vid=e515cc14-ec45-4493-a6ef-e8658b9cbc95","ios":"levelo://app?vid=e515cc14-ec45-4493-a6ef-e8658b9cbc95"},"vehicle_type_id":"4","last_reported":1730560164,"current_range_meters":38400,"station_id":"ce4bhjp2rcd13ifvqg90","pricing_plan_id":"cebpf4jnsgd1na2vs0mg"},{"bike_id":"3c9b25a2-27ea-4952-ae38-cfc4538da70c","system_id":"levelo_inurba_marseille","lat":43.24169,"lon":5.36404,"is_reserved":false,"is_disabled":false,"rental_uris":{"android":"levelo://app?vid=3c9b25a2-27ea-4952-ae38-cfc4538da70c","ios":"levelo://app?vid=3c9b25a2-27ea-4952-ae38-cfc4538da70c"},"vehicle_type_id":"4","last_reported":1730560164,"current_range_meters":27200,"station_id":"cpo36qri1sfpv3e86is0","pricing_plan_id":"cebpf4jnsgd1na2vs0mg"},{"bike_id":"99b34e1f-9e1b-4352-a35e-54e99460fdd9","system_id":"levelo_inurba_marseille","lat":43.28267,"lon":5.35085,"is_reserved":false,"is_disabled":false,"rental_uris":{"android":"levelo://app?vid=99b34e1f-9e1b-4352-a35e-54e99460fdd9","ios":"levelo://app?vid=99b34e1f-9e1b-4352-a35e-54e99460fdd9"},"vehicle_type_id":"4","last_reported":1730560164,"current_range_meters":28000,"station_id":"ce4bhbp2rcd13ifvqerg","pricing_plan_id":"cebpf4jnsgd1na2vs0mg"},{"bike_id":"e4b88081-f550-450e-9550-62771326d677","system_id":"levelo_inurba_marseille","lat":43.30456,"lon":5.37915,"is_reserved":false,"is_disabled":false,"rental_uris":{"android":"levelo://app?vid=e4b88081-f550-450e-9550-62771326d677","ios":"levelo://app?vid=e4b88081-f550-450e-9550-62771326d677"},"vehicle_type_id":"4","last_reported":1730560164,"current_range_meters":36000,"station_id":"ce4bgup2rcd13ifvqcn0","pricing_plan_id":"cebpf4jnsgd1na2vs0mg"},{"bike_id":"e017614c-6f5d-469e-805a-693e0f22855c","system_id":"levelo_inurba_marseille","lat":43.30298,"lon":5.3688,"is_reserved":false,"is_disabled":false,"rental_uris":{"android":"levelo://app?vid=e017614c-6f5d-469e-805a-693e0f22855c","ios":"levelo://app?vid=e017614c-6f5d-469e-805a-693e0f22855c"},"vehicle_type_id":"4","last_reported":1730560164,"current_range_meters":25600,"station_id":"ce4bgqh2rcd13ifvqc5g","pricing_plan_id":"cebpf4jnsgd1na2vs0mg"},{"bike_id":"6c06e156-1e8f-418a-8055-90762e65eb89","system_id":"levelo_inurba_marseille","lat":43.29037,"lon":5.35915,"is_reserved":false,"is_disabled":false,"rental_uris":{"android":"levelo://app?vid=6c06e156-1e8f-418a-8055-90762e65eb89","ios":"levelo://app?vid=6c06e156-1e8f-418a-8055-90762e65eb89"},"vehicle_type_id":"4","last_reported":1730560164,"current_range_meters":16800,"station_id":"ce4bha92rcd13ifvqeg0","pricing_plan_id":"cebpf4jnsgd1na2vs0mg"},{"bike_id":"658dacf4-7ef3-4634-8126-9bbd88e5a6eb","system_id":"levelo_inurba_marseille","lat":43.23188,"lon":5.35552,"is_reserved":false,"is_disabled":false,"rental_uris":{"android":"levelo://app?vid=658dacf4-7ef3-4634-8126-9bbd88e5a6eb","ios":"levelo://app?vid=658dacf4-7ef3-4634-8126-9bbd88e5a6eb"},"vehicle_type_id":"4","last_reported":1730560164,"current_range_meters":18800,"station_id":"ce4bhu92rcd13ifvqi70","pricing_plan_id":"cebpf4jnsgd1na2vs0mg"},{"bike_id":"bc11bdb2-ddf6-44d0-94af-7e87c9bb8b3f","system_id":"levelo_inurba_marseille","lat":43.24802,"lon":5.37458,"is_reserved":false,"is_disabled":false,"rental_uris":{"android":"levelo://app?vid=bc11bdb2-ddf6-44d0-94af-7e87c9bb8b3f","ios":"levelo://app?vid=bc11bdb2-ddf6-44d0-94af-7e87c9bb8b3f"},"vehicle_type_id":"4","last_reported":1730560164,"current_range_meters":22000,"station_id":"ce4bhgh2rcd13ifvqfb0","pricing_plan_id":"cebpf4jnsgd1na2vs0mg"},{"bike_id":"4a6b7fbc-59dc-421a-90d8-ad8582113b32","system_id":"levelo_inurba_marseille","lat":43.27995,"lon":5.41665,"is_reserved":false,"is_disabled":false,"rental_uris":{"android":"levelo://app?vid=4a6b7fbc-59dc-421a-90d8-ad8582113b32","ios":"levelo://app?vid=4a6b7fbc-59dc-421a-90d8-ad8582113b32"},"vehicle_type_id":"4","last_reported":1730560164,"current_range_meters":29600,"station_id":"ce4bho12rcd13ifvqh1g","pricing_plan_id":"cebpf4jnsgd1na2vs0mg"},{"bike_id":"1c5a55f6-fa70-42a9-8229-60ea5f15ac2f","system_id":"levelo_inurba_marseille","lat":43.26057,"lon":5.39405,"is_reserved":false,"is_disabled":false,"rental_uris":{"android":"levelo://app?vid=1c5a55f6-fa70-42a9-8229-60ea5f15ac2f","ios":"levelo://app?vid=1c5a55f6-fa70-42a9-8229-60ea5f15ac2f"},"vehicle_type_id":"4","last_reported":1730560164,"current_range_meters":22000,"station_id":"ce4bhh92rcd13ifvqfj0","pricing_plan_id":"cebpf4jnsgd1na2vs0mg"},{"bike_id":"631396d8-ead8-45c9-903a-97416a56eb08","system_id":"levelo_inurba_marseille","lat":43.2692,"lon":5.38916,"is_reserved":false,"is_disabled":false,"rental_uris":{"android":"levelo://app?vid=631396d8-ead8-45c9-903a-97416a56eb08","ios":"levelo://app?vid=631396d8-ead8-45c9-903a-97416a56eb08"},"vehicle_type_id":"4","last_reported":1730560164,"current_range_meters":28800,"station_id":"ce4bhhh2rcd13ifvqfl0","pricing_plan_id":"cebpf4jnsgd1na2vs0mg"},{"bike_id":"b36c1dc6-4f09-4cc1-97f1-02557e940b39","system_id":"levelo_inurba_marseille","lat":43.2706,"lon":5.40263,"is_reserved":false,"is_disabled":false,"rental_uris":{"android":"levelo://app?vid=b36c1dc6-4f09-4cc1-97f1-02557e940b39","ios":"levelo://app?vid=b36c1dc6-4f09-4cc1-97f1-02557e940b39"},"vehicle_type_id":"4","last_reported":1730560164,"current_range_meters":38000,"station_id":"ce4bhk92rcd13ifvqgc0","pricing_plan_id":"cebpf4jnsgd1na2vs0mg"},{"bike_id":"2e8907c0-8f4f-4707-98c8-0128b04eb2a4","system_id":"levelo_inurba_marseille","lat":43.28416,"lon":5.34996,"is_reserved":false,"is_disabled":false,"rental_uris":{"android":"levelo://app?vid=2e8907c0-8f4f-4707-98c8-0128b04eb2a4","ios":"levelo://app?vid=2e8907c0-8f4f-4707-98c8-0128b04eb2a4"},"vehicle_type_id":"4","last_reported":1730560164,"current_range_meters":16400,"station_id":"ce4bhbh2rcd13ifvqepg","pricing_plan_id":"cebpf4jnsgd1na2vs0mg"},{"bike_id":"6640aa3a-02bb-4c2e-9f47-fe86732bdb56","system_id":"levelo_inurba_marseille","lat":43.29219,"lon":5.36066,"is_reserved":false,"is_disabled":false,"rental_uris":{"android":"levelo://app?vid=6640aa3a-02bb-4c2e-9f47-fe86732bdb56","ios":"levelo://app?vid=6640aa3a-02bb-4c2e-9f47-fe86732bdb56"},"vehicle_type_id":"4","last_reported":1730560164,"current_range_meters":28800,"station_id":"ce4bhbh2rcd13ifvqeqg","pricing_plan_id":"cebpf4jnsgd1na2vs0mg"},{"bike_id":"09f8c9ea-6bdd-4327-9ea0-75869ddaf452","system_id":"levelo_inurba_marseille","lat":43.25082,"lon":5.39523,"is_reserved":false,"is_disabled":false,"rental_uris":{"android":"levelo://app?vid=09f8c9ea-6bdd-4327-9ea0-75869ddaf452","ios":"levelo://app?vid=09f8c9ea-6bdd-4327-9ea0-75869ddaf452"},"vehicle_type_id":"4","last_reported":1730560164,"current_range_meters":12000,"station_id":"ce4bhm12rcd13ifvqgkg","pricing_plan_id":"cebpf4jnsgd1na2vs0mg"},{"bike_id":"ede1852f-10df-46f9-98c9-0855d423e691","system_id":"levelo_inurba_marseille","lat":43.29604,"lon":5.37716,"is_reserved":false,"is_disabled":false,"rental_uris":{"android":"levelo://app?vid=ede1852f-10df-46f9-98c9-0855d423e691","ios":"levelo://app?vid=ede1852f-10df-46f9-98c9-0855d423e691"},"vehicle_type_id":"4","last_reported":1730560164,"current_range_meters":36000,"station_id":"ce4bgi92rcd13ifvqb90","pricing_plan_id":"cebpf4jnsgd1na2vs0mg"},{"bike_id":"d3f56f17-ac1a-464c-b9d7-9bc3311153ab","system_id":"levelo_inurba_marseille","lat":43.24665,"lon":5.38163,"is_reserved":false,"is_disabled":false,"rental_uris":{"android":"levelo://app?vid=d3f56f17-ac1a-464c-b9d7-9bc3311153ab","ios":"levelo://app?vid=d3f56f17-ac1a-464c-b9d7-9bc3311153ab"},"vehicle_type_id":"4","last_reported":1730560164,"current_range_meters":9200,"station_id":"ce4bhih2rcd13ifvqfr0","pricing_plan_id":"cebpf4jnsgd1na2vs0mg"},{"bike_id":"a926ed35-de48-4ee4-b33e-cc192e61e403","system_id":"levelo_inurba_marseille","lat":43.28269,"lon":5.35064,"is_reserved":false,"is_disabled":false,"rental_uris":{"android":"levelo://app?vid=a926ed35-de48-4ee4-b33e-cc192e61e403","ios":"levelo://app?vid=a926ed35-de48-4ee4-b33e-cc192e61e403"},"vehicle_type_id":"4","last_reported":1730560164,"current_range_meters":13600,"station_id":"ce4bhbp2rcd13ifvqerg","pricing_plan_id":"cebpf4jnsgd1na2vs0mg"},{"bike_id":"41b96aca-2ea4-4301-87f9-c7535c49534b","system_id":"levelo_inurba_marseille","lat":43.29007,"lon":5.35626,"is_reserved":false,"is_disabled":false,"rental_uris":{"android":"levelo://app?vid=41b96aca-2ea4-4301-87f9-c7535c49534b","ios":"levelo://app?vid=41b96aca-2ea4-4301-87f9-c7535c49534b"},"vehicle_type_id":"4","last_reported":1730560164,"current_range_meters":32400,"station_id":"ce4bhb92rcd13ifvqen0","pricing_plan_id":"cebpf4jnsgd1na2vs0mg"},{"bike_id":"b3b29265-e84e-410c-a997-68760fe49032","system_id":"levelo_inurba_marseille","lat":43.273858,"lon":5.362634,"is_reserved":false,"is_disabled":false,"rental_uris":{"android":"levelo://app?vid=b3b29265-e84e-410c-a997-68760fe49032","ios":"levelo://app?vid=b3b29265-e84e-410c-a997-68760fe49032"},"vehicle_type_id":"4","last_reported":1730560164,"current_range_meters":32400,"station_id":"ce4bhbh2rcd13ifvqeo0","pricing_plan_id":"cebpf4jnsgd1na2vs0mg"},{"bike_id":"5e44d605-11a8-4f8d-9aa4-546da490b30f","system_id":"levelo_inurba_marseille","lat":43.28723,"lon":5.36095,"is_reserved":false,"is_disabled":false,"rental_uris":{"android":"levelo://app?vid=5e44d605-11a8-4f8d-9aa4-546da490b30f","ios":"levelo://app?vid=5e44d605-11a8-4f8d-9aa4-546da490b30f"},"vehicle_type_id":"4","last_reported":1730560164,"current_range_meters":33600,"station_id":"cki0cbj6b192h4jlfktg","pricing_plan_id":"cebpf4jnsgd1na2vs0mg"},{"bike_id":"e7f59d36-b4d3-482d-b5fb-9da08c3ef485","system_id":"levelo_inurba_marseille","lat":43.23151,"lon":5.43721,"is_reserved":false,"is_disabled":false,"rental_uris":{"android":"levelo://app?vid=e7f59d36-b4d3-482d-b5fb-9da08c3ef485","ios":"levelo://app?vid=e7f59d36-b4d3-482d-b5fb-9da08c3ef485"},"vehicle_type_id":"4","last_reported":1730560164,"current_range_meters":6000,"station_id":"ce4bhmp2rcd13ifvqgog","pricing_plan_id":"cebpf4jnsgd1na2vs0mg"},{"bike_id":"7eac6086-9c55-491f-b51a-f6d316539019","system_id":"levelo_inurba_marseille","lat":43.28615,"lon":5.35116,"is_reserved":false,"is_disabled":false,"rental_uris":{"android":"levelo://app?vid=7eac6086-9c55-491f-b51a-f6d316539019","ios":"levelo://app?vid=7eac6086-9c55-491f-b51a-f6d316539019"},"vehicle_type_id":"4","last_reported":1730560164,"current_range_meters":27200,"station_id":"ce4bhch2rcd13ifvqeug","pricing_plan_id":"cebpf4jnsgd1na2vs0mg"},{"bike_id":"e897136e-8c37-4f90-8788-9b6a3c81507d","system_id":"levelo_inurba_marseille","lat":43.23059,"lon":5.35493,"is_reserved":false,"is_disabled":false,"rental_uris":{"android":"levelo://app?vid=e897136e-8c37-4f90-8788-9b6a3c81507d","ios":"levelo://app?vid=e897136e-8c37-4f90-8788-9b6a3c81507d"},"vehicle_type_id":"4","last_reported":1730560164,"current_range_meters":29600,"station_id":"cpo3342slgdg3j2ifvpg","pricing_plan_id":"cebpf4jnsgd1na2vs0mg"},{"bike_id":"fcd7e3fa-17ff-40e5-a952-325907fb39f5","system_id":"levelo_inurba_marseille","lat":43.29712,"lon":5.37693,"is_reserved":false,"is_disabled":false,"rental_uris":{"android":"levelo://app?vid=fcd7e3fa-17ff-40e5-a952-325907fb39f5","ios":"levelo://app?vid=fcd7e3fa-17ff-40e5-a952-325907fb39f5"},"vehicle_type_id":"4","last_reported":1730560164,"current_range_meters":19600,"station_id":"ce4bgkh2rcd13ifvqbl0","pricing_plan_id":"cebpf4jnsgd1na2vs0mg"},{"bike_id":"80ae2b46-4f31-484a-a9fd-2807760d6c9c","system_id":"levelo_inurba_marseille","lat":43.276184,"lon":5.361167,"is_reserved":false,"is_disabled":false,"rental_uris":{"android":"levelo://app?vid=80ae2b46-4f31-484a-a9fd-2807760d6c9c","ios":"levelo://app?vid=80ae2b46-4f31-484a-a9fd-2807760d6c9c"},"vehicle_type_id":"4","last_reported":1730560164,"current_range_meters":13600,"station_id":"ce4bgj92rcd13ifvqbe0","pricing_plan_id":"cebpf4jnsgd1na2vs0mg"},{"bike_id":"acd06192-4915-4784-9790-c9d2c7627dbb","system_id":"levelo_inurba_marseille","lat":43.32032,"lon":5.41565,"is_reserved":false,"is_disabled":false,"rental_uris":{"android":"levelo://app?vid=acd06192-4915-4784-9790-c9d2c7627dbb","ios":"levelo://app?vid=acd06192-4915-4784-9790-c9d2c7627dbb"},"vehicle_type_id":"4","last_reported":1730560164,"current_range_meters":37600,"station_id":"ce4bhq92rcd13ifvqhkg","pricing_plan_id":"cebpf4jnsgd1na2vs0mg"},{"bike_id":"153476c6-6a67-41ff-9311-75e3ae94b2ba","system_id":"levelo_inurba_marseille","lat":43.2621,"lon":5.37446,"is_reserved":false,"is_disabled":false,"rental_uris":{"android":"levelo://app?vid=153476c6-6a67-41ff-9311-75e3ae94b2ba","ios":"levelo://app?vid=153476c6-6a67-41ff-9311-75e3ae94b2ba"},"vehicle_type_id":"4","last_reported":1730560164,"current_range_meters":10000,"station_id":"ce4bhgp2rcd13ifvqfc0","pricing_plan_id":"cebpf4jnsgd1na2vs0mg"},{"bike_id":"b00c8440-cafd-4882-ad82-1b0eb85cfbfc","system_id":"levelo_inurba_marseille","lat":43.30555,"lon":5.36555,"is_reserved":false,"is_disabled":false,"rental_uris":{"android":"levelo://app?vid=b00c8440-cafd-4882-ad82-1b0eb85cfbfc","ios":"levelo://app?vid=b00c8440-cafd-4882-ad82-1b0eb85cfbfc"},"vehicle_type_id":"4","last_reported":1730560164,"current_range_meters":4400,"station_id":"ce4bgs12rcd13ifvqcag","pricing_plan_id":"cebpf4jnsgd1na2vs0mg"},{"bike_id":"8c622829-1f02-4b98-a8c4-2ddf804c17cc","system_id":"levelo_inurba_marseille","lat":43.28411,"lon":5.34976,"is_reserved":false,"is_disabled":false,"rental_uris":{"android":"levelo://app?vid=8c622829-1f02-4b98-a8c4-2ddf804c17cc","ios":"levelo://app?vid=8c622829-1f02-4b98-a8c4-2ddf804c17cc"},"vehicle_type_id":"4","last_reported":1730560164,"current_range_meters":4000,"station_id":"ce4bhbh2rcd13ifvqepg","pricing_plan_id":"cebpf4jnsgd1na2vs0mg"},{"bike_id":"5d49116d-9ac2-4fe3-b140-1c8daccc859c","system_id":"levelo_inurba_marseille","lat":43.302763,"lon":5.377089,"is_reserved":false,"is_disabled":false,"rental_uris":{"android":"levelo://app?vid=5d49116d-9ac2-4fe3-b140-1c8daccc859c","ios":"levelo://app?vid=5d49116d-9ac2-4fe3-b140-1c8daccc859c"},"vehicle_type_id":"4","last_reported":1730560164,"current_range_meters":38800,"station_id":"ce4bguh2rcd13ifvqcj0","pricing_plan_id":"cebpf4jnsgd1na2vs0mg"},{"bike_id":"8801d648-fc69-49cc-b287-26db96386ecd","system_id":"levelo_inurba_marseille","lat":43.26944,"lon":5.40253,"is_reserved":false,"is_disabled":false,"rental_uris":{"android":"levelo://app?vid=8801d648-fc69-49cc-b287-26db96386ecd","ios":"levelo://app?vid=8801d648-fc69-49cc-b287-26db96386ecd"},"vehicle_type_id":"4","last_reported":1730560164,"current_range_meters":20400,"station_id":"cjm6bp8fraef2m0cb0m0","pricing_plan_id":"cebpf4jnsgd1na2vs0mg"},{"bike_id":"35d46a3f-1202-4e04-b92a-c98502adb1df","system_id":"levelo_inurba_marseille","lat":43.30534,"lon":5.36559,"is_reserved":false,"is_disabled":false,"rental_uris":{"android":"levelo://app?vid=35d46a3f-1202-4e04-b92a-c98502adb1df","ios":"levelo://app?vid=35d46a3f-1202-4e04-b92a-c98502adb1df"},"vehicle_type_id":"4","last_reported":1730560164,"current_range_meters":17600,"station_id":"ce4bgs12rcd13ifvqcag","pricing_plan_id":"cebpf4jnsgd1na2vs0mg"},{"bike_id":"11cdf20f-5b5f-4879-9af2-34d18e598ea4","system_id":"levelo_inurba_marseille","lat":43.25493,"lon":5.37661,"is_reserved":false,"is_disabled":false,"rental_uris":{"android":"levelo://app?vid=11cdf20f-5b5f-4879-9af2-34d18e598ea4","ios":"levelo://app?vid=11cdf20f-5b5f-4879-9af2-34d18e598ea4"},"vehicle_type_id":"4","last_reported":1730560164,"current_range_meters":35200,"station_id":"ce4bhh12rcd13ifvqff0","pricing_plan_id":"cebpf4jnsgd1na2vs0mg"},{"bike_id":"aa310a5a-41c8-4da1-a1b5-abc344fd5ec1","system_id":"levelo_inurba_marseille","lat":43.22928,"lon":5.35374,"is_reserved":false,"is_disabled":false,"rental_uris":{"android":"levelo://app?vid=aa310a5a-41c8-4da1-a1b5-abc344fd5ec1","ios":"levelo://app?vid=aa310a5a-41c8-4da1-a1b5-abc344fd5ec1"},"vehicle_type_id":"4","last_reported":1730560164,"current_range_meters":9200,"station_id":"cpo3532slgdg3j2ikp40","pricing_plan_id":"cebpf4jnsgd1na2vs0mg"},{"bike_id":"6eaa2dbe-2228-4b69-8462-634d74f7bcad","system_id":"levelo_inurba_marseille","lat":43.22926,"lon":5.35371,"is_reserved":false,"is_disabled":false,"rental_uris":{"android":"levelo://app?vid=6eaa2dbe-2228-4b69-8462-634d74f7bcad","ios":"levelo://app?vid=6eaa2dbe-2228-4b69-8462-634d74f7bcad"},"vehicle_type_id":"4","last_reported":1730560164,"current_range_meters":24800,"station_id":"cpo3532slgdg3j2ikp40","pricing_plan_id":"cebpf4jnsgd1na2vs0mg"},{"bike_id":"25efdd14-e5a3-4f02-a8ea-e62e3c219fa3","system_id":"levelo_inurba_marseille","lat":43.2815,"lon":5.42648,"is_reserved":false,"is_disabled":false,"rental_uris":{"android":"levelo://app?vid=25efdd14-e5a3-4f02-a8ea-e62e3c219fa3","ios":"levelo://app?vid=25efdd14-e5a3-4f02-a8ea-e62e3c219fa3"},"vehicle_type_id":"4","last_reported":1730560164,"current_range_meters":38800,"station_id":"ce4bhnh2rcd13ifvqgug","pricing_plan_id":"cebpf4jnsgd1na2vs0mg"},{"bike_id":"a7539dfc-e8ec-47cd-8dbc-d48543cf053d","system_id":"levelo_inurba_marseille","lat":43.30528,"lon":5.36543,"is_reserved":false,"is_disabled":false,"rental_uris":{"android":"levelo://app?vid=a7539dfc-e8ec-47cd-8dbc-d48543cf053d","ios":"levelo://app?vid=a7539dfc-e8ec-47cd-8dbc-d48543cf053d"},"vehicle_type_id":"4","last_reported":1730560164,"current_range_meters":38800,"station_id":"ce4bgs12rcd13ifvqcag","pricing_plan_id":"cebpf4jnsgd1na2vs0mg"},{"bike_id":"18402065-9e87-476b-95ad-30853de181a0","system_id":"levelo_inurba_marseille","lat":43.32455,"lon":5.45557,"is_reserved":false,"is_disabled":false,"rental_uris":{"android":"levelo://app?vid=18402065-9e87-476b-95ad-30853de181a0","ios":"levelo://app?vid=18402065-9e87-476b-95ad-30853de181a0"},"vehicle_type_id":"4","last_reported":1730560164,"current_range_meters":7200,"station_id":"","pricing_plan_id":"cebpf4jnsgd1na2vs0mg"},{"bike_id":"004e98f2-575c-4f6c-b840-5cb6196fe2a0","system_id":"levelo_inurba_marseille","lat":43.24175,"lon":5.39736,"is_reserved":false,"is_disabled":false,"rental_uris":{"android":"levelo://app?vid=004e98f2-575c-4f6c-b840-5cb6196fe2a0","ios":"levelo://app?vid=004e98f2-575c-4f6c-b840-5cb6196fe2a0"},"vehicle_type_id":"4","last_reported":1730560164,"current_range_meters":17600,"station_id":"ce4bhn12rcd13ifvqgpg","pricing_plan_id":"cebpf4jnsgd1na2vs0mg"},{"bike_id":"e6988a12-fd58-42fa-bed3-ba030800fec6","system_id":"levelo_inurba_marseille","lat":43.313641,"lon":5.396928,"is_reserved":false,"is_disabled":false,"rental_uris":{"android":"levelo://app?vid=e6988a12-fd58-42fa-bed3-ba030800fec6","ios":"levelo://app?vid=e6988a12-fd58-42fa-bed3-ba030800fec6"},"vehicle_type_id":"4","last_reported":1730560164,"current_range_meters":8000,"station_id":"ce4bgvp2rcd13ifvqcu0","pricing_plan_id":"cebpf4jnsgd1na2vs0mg"},{"bike_id":"d3000a21-b694-416b-8ccd-2f41074bc5b0","system_id":"levelo_inurba_marseille","lat":43.24658,"lon":5.38899,"is_reserved":false,"is_disabled":false,"rental_uris":{"android":"levelo://app?vid=d3000a21-b694-416b-8ccd-2f41074bc5b0","ios":"levelo://app?vid=d3000a21-b694-416b-8ccd-2f41074bc5b0"},"vehicle_type_id":"4","last_reported":1730560164,"current_range_meters":2000,"station_id":"ce4bhg12rcd13ifvqf60","pricing_plan_id":"cebpf4jnsgd1na2vs0mg"},{"bike_id":"1034806c-6c6f-4a1d-8b43-365ef47030de","system_id":"levelo_inurba_marseille","lat":43.29913,"lon":5.37484,"is_reserved":false,"is_disabled":false,"rental_uris":{"android":"levelo://app?vid=1034806c-6c6f-4a1d-8b43-365ef47030de","ios":"levelo://app?vid=1034806c-6c6f-4a1d-8b43-365ef47030de"},"vehicle_type_id":"4","last_reported":1730560164,"current_range_meters":35600,"station_id":"ce4bgjh2rcd13ifvqbg0","pricing_plan_id":"cebpf4jnsgd1na2vs0mg"},{"bike_id":"dacfe6ba-8dfe-4116-bd83-fc287feed698","system_id":"levelo_inurba_marseille","lat":43.29704,"lon":5.37695,"is_reserved":false,"is_disabled":false,"rental_uris":{"android":"levelo://app?vid=dacfe6ba-8dfe-4116-bd83-fc287feed698","ios":"levelo://app?vid=dacfe6ba-8dfe-4116-bd83-fc287feed698"},"vehicle_type_id":"4","last_reported":1730560164,"current_range_meters":30800,"station_id":"ce4bgkh2rcd13ifvqbl0","pricing_plan_id":"cebpf4jnsgd1na2vs0mg"},{"bike_id":"c7a6a60a-ebc3-43dc-847c-5817f23f3b49","system_id":"levelo_inurba_marseille","lat":43.25725,"lon":5.41125,"is_reserved":false,"is_disabled":false,"rental_uris":{"android":"levelo://app?vid=c7a6a60a-ebc3-43dc-847c-5817f23f3b49","ios":"levelo://app?vid=c7a6a60a-ebc3-43dc-847c-5817f23f3b49"},"vehicle_type_id":"4","last_reported":1730560164,"current_range_meters":10800,"station_id":"ce4bhkp2rcd13ifvqgd0","pricing_plan_id":"cebpf4jnsgd1na2vs0mg"},{"bike_id":"ee696a84-11fb-44d7-af85-9736a3a12808","system_id":"levelo_inurba_marseille","lat":43.27992,"lon":5.41673,"is_reserved":false,"is_disabled":false,"rental_uris":{"android":"levelo://app?vid=ee696a84-11fb-44d7-af85-9736a3a12808","ios":"levelo://app?vid=ee696a84-11fb-44d7-af85-9736a3a12808"},"vehicle_type_id":"4","last_reported":1730560164,"current_range_meters":35600,"station_id":"ce4bho12rcd13ifvqh1g","pricing_plan_id":"cebpf4jnsgd1na2vs0mg"},{"bike_id":"f94357ea-b767-4b0e-8683-f7c7562a9c20","system_id":"levelo_inurba_marseille","lat":43.23343,"lon":5.35794,"is_reserved":false,"is_disabled":false,"rental_uris":{"android":"levelo://app?vid=f94357ea-b767-4b0e-8683-f7c7562a9c20","ios":"levelo://app?vid=f94357ea-b767-4b0e-8683-f7c7562a9c20"},"vehicle_type_id":"4","last_reported":1730560164,"current_range_meters":2800,"station_id":"","pricing_plan_id":"cebpf4jnsgd1na2vs0mg"},{"bike_id":"56f2d66b-9c06-42d7-b325-8eb03b4cc8bb","system_id":"levelo_inurba_marseille","lat":43.28261,"lon":5.35073,"is_reserved":false,"is_disabled":false,"rental_uris":{"android":"levelo://app?vid=56f2d66b-9c06-42d7-b325-8eb03b4cc8bb","ios":"levelo://app?vid=56f2d66b-9c06-42d7-b325-8eb03b4cc8bb"},"vehicle_type_id":"4","last_reported":1730560164,"current_range_meters":17200,"station_id":"ce4bhbp2rcd13ifvqerg","pricing_plan_id":"cebpf4jnsgd1na2vs0mg"},{"bike_id":"b497b502-42e6-495a-9d87-cccccec74c8a","system_id":"levelo_inurba_marseille","lat":43.29063,"lon":5.37162,"is_reserved":false,"is_disabled":false,"rental_uris":{"android":"levelo://app?vid=b497b502-42e6-495a-9d87-cccccec74c8a","ios":"levelo://app?vid=b497b502-42e6-495a-9d87-cccccec74c8a"},"vehicle_type_id":"4","last_reported":1730560164,"current_range_meters":37600,"station_id":"ce4bh5p2rcd13ifvqe4g","pricing_plan_id":"cebpf4jnsgd1na2vs0mg"},{"bike_id":"ececee42-739b-4e6e-9167-4d9d3a851220","system_id":"levelo_inurba_marseille","lat":43.30455,"lon":5.37909,"is_reserved":false,"is_disabled":false,"rental_uris":{"android":"levelo://app?vid=ececee42-739b-4e6e-9167-4d9d3a851220","ios":"levelo://app?vid=ececee42-739b-4e6e-9167-4d9d3a851220"},"vehicle_type_id":"4","last_reported":1730560164,"current_range_meters":38800,"station_id":"ce4bgup2rcd13ifvqcn0","pricing_plan_id":"cebpf4jnsgd1na2vs0mg"},{"bike_id":"1317620c-3f85-44fd-816d-772ba081118d","system_id":"levelo_inurba_marseille","lat":43.28367,"lon":5.38635,"is_reserved":false,"is_disabled":false,"rental_uris":{"android":"levelo://app?vid=1317620c-3f85-44fd-816d-772ba081118d","ios":"levelo://app?vid=1317620c-3f85-44fd-816d-772ba081118d"},"vehicle_type_id":"4","last_reported":1730560164,"current_range_meters":4400,"station_id":"ce4bh492rcd13ifvqdvg","pricing_plan_id":"cebpf4jnsgd1na2vs0mg"},{"bike_id":"8add54e9-0b6c-4217-98ac-eb78fee3bfce","system_id":"levelo_inurba_marseille","lat":43.26059,"lon":5.39392,"is_reserved":false,"is_disabled":false,"rental_uris":{"android":"levelo://app?vid=8add54e9-0b6c-4217-98ac-eb78fee3bfce","ios":"levelo://app?vid=8add54e9-0b6c-4217-98ac-eb78fee3bfce"},"vehicle_type_id":"4","last_reported":1730560164,"current_range_meters":32400,"station_id":"ce4bhh92rcd13ifvqfj0","pricing_plan_id":"cebpf4jnsgd1na2vs0mg"},{"bike_id":"6a73a468-ee4e-4504-97ad-7d286c4beb89","system_id":"levelo_inurba_marseille","lat":43.28615,"lon":5.35109,"is_reserved":false,"is_disabled":false,"rental_uris":{"android":"levelo://app?vid=6a73a468-ee4e-4504-97ad-7d286c4beb89","ios":"levelo://app?vid=6a73a468-ee4e-4504-97ad-7d286c4beb89"},"vehicle_type_id":"4","last_reported":1730560164,"current_range_meters":38800,"station_id":"ce4bhch2rcd13ifvqeug","pricing_plan_id":"cebpf4jnsgd1na2vs0mg"},{"bike_id":"9a230089-497c-44f8-88a6-09fb64413580","system_id":"levelo_inurba_marseille","lat":43.29913,"lon":5.37484,"is_reserved":false,"is_disabled":false,"rental_uris":{"android":"levelo://app?vid=9a230089-497c-44f8-88a6-09fb64413580","ios":"levelo://app?vid=9a230089-497c-44f8-88a6-09fb64413580"},"vehicle_type_id":"4","last_reported":1730560164,"current_range_meters":30400,"station_id":"ce4bgjh2rcd13ifvqbg0","pricing_plan_id":"cebpf4jnsgd1na2vs0mg"},{"bike_id":"039a64d6-5e87-4141-81e3-2e1ffc1e11a5","system_id":"levelo_inurba_marseille","lat":43.27998,"lon":5.40016,"is_reserved":false,"is_disabled":false,"rental_uris":{"android":"levelo://app?vid=039a64d6-5e87-4141-81e3-2e1ffc1e11a5","ios":"levelo://app?vid=039a64d6-5e87-4141-81e3-2e1ffc1e11a5"},"vehicle_type_id":"4","last_reported":1730560164,"current_range_meters":38800,"station_id":"ce4bho92rcd13ifvqh4g","pricing_plan_id":"cebpf4jnsgd1na2vs0mg"},{"bike_id":"111024f0-372d-4685-9a7f-5cbcba6ca5e4","system_id":"levelo_inurba_marseille","lat":43.25009,"lon":5.38913,"is_reserved":false,"is_disabled":false,"rental_uris":{"android":"levelo://app?vid=111024f0-372d-4685-9a7f-5cbcba6ca5e4","ios":"levelo://app?vid=111024f0-372d-4685-9a7f-5cbcba6ca5e4"},"vehicle_type_id":"4","last_reported":1730560164,"current_range_meters":37600,"station_id":"ce4bhgp2rcd13ifvqfd0","pricing_plan_id":"cebpf4jnsgd1na2vs0mg"},{"bike_id":"75968a9a-818d-4467-8ac4-d296b7248db9","system_id":"levelo_inurba_marseille","lat":43.2904,"lon":5.35923,"is_reserved":false,"is_disabled":false,"rental_uris":{"android":"levelo://app?vid=75968a9a-818d-4467-8ac4-d296b7248db9","ios":"levelo://app?vid=75968a9a-818d-4467-8ac4-d296b7248db9"},"vehicle_type_id":"4","last_reported":1730560164,"current_range_meters":26800,"station_id":"ce4bha92rcd13ifvqeg0","pricing_plan_id":"cebpf4jnsgd1na2vs0mg"},{"bike_id":"7f17982b-36f5-4d90-b1be-eb793cb933c4","system_id":"levelo_inurba_marseille","lat":43.2842,"lon":5.34998,"is_reserved":false,"is_disabled":false,"rental_uris":{"android":"levelo://app?vid=7f17982b-36f5-4d90-b1be-eb793cb933c4","ios":"levelo://app?vid=7f17982b-36f5-4d90-b1be-eb793cb933c4"},"vehicle_type_id":"4","last_reported":1730560164,"current_range_meters":38800,"station_id":"ce4bhbh2rcd13ifvqepg","pricing_plan_id":"cebpf4jnsgd1na2vs0mg"},{"bike_id":"2e12b85d-7398-40c6-a74a-e48caf0dc5b1","system_id":"levelo_inurba_marseille","lat":43.29568,"lon":5.37528,"is_reserved":false,"is_disabled":false,"rental_uris":{"android":"levelo://app?vid=2e12b85d-7398-40c6-a74a-e48caf0dc5b1","ios":"levelo://app?vid=2e12b85d-7398-40c6-a74a-e48caf0dc5b1"},"vehicle_type_id":"4","last_reported":1730560164,"current_range_meters":20000,"station_id":"ce4bgh92rcd13ifvqb50","pricing_plan_id":"cebpf4jnsgd1na2vs0mg"},{"bike_id":"bb3b3972-b416-484b-8713-129813feea0f","system_id":"levelo_inurba_marseille","lat":43.26773,"lon":5.39419,"is_reserved":false,"is_disabled":false,"rental_uris":{"android":"levelo://app?vid=bb3b3972-b416-484b-8713-129813feea0f","ios":"levelo://app?vid=bb3b3972-b416-484b-8713-129813feea0f"},"vehicle_type_id":"4","last_reported":1730560164,"current_range_meters":36800,"station_id":"ce4bhh12rcd13ifvqfg0","pricing_plan_id":"cebpf4jnsgd1na2vs0mg"},{"bike_id":"e74f712e-8cad-4a9d-9601-4cfc15e43810","system_id":"levelo_inurba_marseille","lat":43.27176,"lon":5.40998,"is_reserved":false,"is_disabled":false,"rental_uris":{"android":"levelo://app?vid=e74f712e-8cad-4a9d-9601-4cfc15e43810","ios":"levelo://app?vid=e74f712e-8cad-4a9d-9601-4cfc15e43810"},"vehicle_type_id":"4","last_reported":1730560164,"current_range_meters":8800,"station_id":"ce4bhl12rcd13ifvqgf0","pricing_plan_id":"cebpf4jnsgd1na2vs0mg"},{"bike_id":"98ba1371-0982-47f7-aa01-fb99ce10a129","system_id":"levelo_inurba_marseille","lat":43.28997,"lon":5.35618,"is_reserved":false,"is_disabled":false,"rental_uris":{"android":"levelo://app?vid=98ba1371-0982-47f7-aa01-fb99ce10a129","ios":"levelo://app?vid=98ba1371-0982-47f7-aa01-fb99ce10a129"},"vehicle_type_id":"4","last_reported":1730560164,"current_range_meters":12000,"station_id":"ce4bhb92rcd13ifvqen0","pricing_plan_id":"cebpf4jnsgd1na2vs0mg"},{"bike_id":"c64bc634-5699-440b-9029-134a7a65a134","system_id":"levelo_inurba_marseille","lat":43.27372,"lon":5.36263,"is_reserved":false,"is_disabled":false,"rental_uris":{"android":"levelo://app?vid=c64bc634-5699-440b-9029-134a7a65a134","ios":"levelo://app?vid=c64bc634-5699-440b-9029-134a7a65a134"},"vehicle_type_id":"4","last_reported":1730560164,"current_range_meters":38800,"station_id":"ce4bhbh2rcd13ifvqeo0","pricing_plan_id":"cebpf4jnsgd1na2vs0mg"},{"bike_id":"d82d6e2b-1165-4273-a5f4-2471dcf3ace3","system_id":"levelo_inurba_marseille","lat":43.29924,"lon":5.36566,"is_reserved":false,"is_disabled":false,"rental_uris":{"android":"levelo://app?vid=d82d6e2b-1165-4273-a5f4-2471dcf3ace3","ios":"levelo://app?vid=d82d6e2b-1165-4273-a5f4-2471dcf3ace3"},"vehicle_type_id":"4","last_reported":1730560164,"current_range_meters":38800,"station_id":"ce4bgm92rcd13ifvqbr0","pricing_plan_id":"cebpf4jnsgd1na2vs0mg"},{"bike_id":"9c510165-3fd2-45d1-85c8-68b221c6f474","system_id":"levelo_inurba_marseille","lat":43.23967,"lon":5.36632,"is_reserved":false,"is_disabled":false,"rental_uris":{"android":"levelo://app?vid=9c510165-3fd2-45d1-85c8-68b221c6f474","ios":"levelo://app?vid=9c510165-3fd2-45d1-85c8-68b221c6f474"},"vehicle_type_id":"4","last_reported":1730560164,"current_range_meters":38800,"station_id":"ce4bhi12rcd13ifvqfp0","pricing_plan_id":"cebpf4jnsgd1na2vs0mg"},{"bike_id":"7afcf2f8-ab2b-4b27-be04-40cb878a0005","system_id":"levelo_inurba_marseille","lat":43.2866,"lon":5.36367,"is_reserved":false,"is_disabled":false,"rental_uris":{"android":"levelo://app?vid=7afcf2f8-ab2b-4b27-be04-40cb878a0005","ios":"levelo://app?vid=7afcf2f8-ab2b-4b27-be04-40cb878a0005"},"vehicle_type_id":"4","last_reported":1730560164,"current_range_meters":18800,"station_id":"ce4bhah2rcd13ifvqej0","pricing_plan_id":"cebpf4jnsgd1na2vs0mg"},{"bike_id":"3f3eaede-5f91-423c-b731-bb0b8617a9e9","system_id":"levelo_inurba_marseille","lat":43.273712,"lon":5.362637,"is_reserved":false,"is_disabled":false,"rental_uris":{"android":"levelo://app?vid=3f3eaede-5f91-423c-b731-bb0b8617a9e9","ios":"levelo://app?vid=3f3eaede-5f91-423c-b731-bb0b8617a9e9"},"vehicle_type_id":"4","last_reported":1730560164,"current_range_meters":38000,"station_id":"ce4bhbh2rcd13ifvqeo0","pricing_plan_id":"cebpf4jnsgd1na2vs0mg"},{"bike_id":"dbfc27fb-cb97-4ca1-bf7a-15da0f969d35","system_id":"levelo_inurba_marseille","lat":43.25721,"lon":5.41114,"is_reserved":false,"is_disabled":false,"rental_uris":{"android":"levelo://app?vid=dbfc27fb-cb97-4ca1-bf7a-15da0f969d35","ios":"levelo://app?vid=dbfc27fb-cb97-4ca1-bf7a-15da0f969d35"},"vehicle_type_id":"4","last_reported":1730560164,"current_range_meters":4800,"station_id":"ce4bhkp2rcd13ifvqgd0","pricing_plan_id":"cebpf4jnsgd1na2vs0mg"},{"bike_id":"a28f4f4d-0802-4cd3-8906-2deb2289567c","system_id":"levelo_inurba_marseille","lat":43.28851,"lon":5.39304,"is_reserved":false,"is_disabled":false,"rental_uris":{"android":"levelo://app?vid=a28f4f4d-0802-4cd3-8906-2deb2289567c","ios":"levelo://app?vid=a28f4f4d-0802-4cd3-8906-2deb2289567c"},"vehicle_type_id":"4","last_reported":1730560164,"current_range_meters":14000,"station_id":"ce4bgnh2rcd13ifvqc0g","pricing_plan_id":"cebpf4jnsgd1na2vs0mg"},{"bike_id":"8c67d340-801d-46e5-b910-2f8aff3ff078","system_id":"levelo_inurba_marseille","lat":43.33339,"lon":5.37054,"is_reserved":false,"is_disabled":false,"rental_uris":{"android":"levelo://app?vid=8c67d340-801d-46e5-b910-2f8aff3ff078","ios":"levelo://app?vid=8c67d340-801d-46e5-b910-2f8aff3ff078"},"vehicle_type_id":"4","last_reported":1730560164,"current_range_meters":10000,"station_id":"","pricing_plan_id":"cebpf4jnsgd1na2vs0mg"},{"bike_id":"b38056e6-29ae-4c91-b3fa-c477f4b8b816","system_id":"levelo_inurba_marseille","lat":43.28608,"lon":5.35115,"is_reserved":false,"is_disabled":false,"rental_uris":{"android":"levelo://app?vid=b38056e6-29ae-4c91-b3fa-c477f4b8b816","ios":"levelo://app?vid=b38056e6-29ae-4c91-b3fa-c477f4b8b816"},"vehicle_type_id":"4","last_reported":1730560164,"current_range_meters":9600,"station_id":"ce4bhch2rcd13ifvqeug","pricing_plan_id":"cebpf4jnsgd1na2vs0mg"},{"bike_id":"7d01a510-5e2b-4c88-b75b-c21454af335e","system_id":"levelo_inurba_marseille","lat":43.22919,"lon":5.35377,"is_reserved":false,"is_disabled":false,"rental_uris":{"android":"levelo://app?vid=7d01a510-5e2b-4c88-b75b-c21454af335e","ios":"levelo://app?vid=7d01a510-5e2b-4c88-b75b-c21454af335e"},"vehicle_type_id":"4","last_reported":1730560164,"current_range_meters":38800,"station_id":"cpo3532slgdg3j2ikp40","pricing_plan_id":"cebpf4jnsgd1na2vs0mg"},{"bike_id":"df63b9c4-e15c-4263-a5c8-6ddf8c81a210","system_id":"levelo_inurba_marseille","lat":43.2605,"lon":5.39389,"is_reserved":false,"is_disabled":false,"rental_uris":{"android":"levelo://app?vid=df63b9c4-e15c-4263-a5c8-6ddf8c81a210","ios":"levelo://app?vid=df63b9c4-e15c-4263-a5c8-6ddf8c81a210"},"vehicle_type_id":"4","last_reported":1730560164,"current_range_meters":39200,"station_id":"ce4bhh92rcd13ifvqfj0","pricing_plan_id":"cebpf4jnsgd1na2vs0mg"},{"bike_id":"e4ea768f-c877-4e21-89bd-a5c946605e3b","system_id":"levelo_inurba_marseille","lat":43.23188,"lon":5.35567,"is_reserved":false,"is_disabled":false,"rental_uris":{"android":"levelo://app?vid=e4ea768f-c877-4e21-89bd-a5c946605e3b","ios":"levelo://app?vid=e4ea768f-c877-4e21-89bd-a5c946605e3b"},"vehicle_type_id":"4","last_reported":1730560164,"current_range_meters":17200,"station_id":"ce4bhu92rcd13ifvqi70","pricing_plan_id":"cebpf4jnsgd1na2vs0mg"},{"bike_id":"19e6008c-0743-45ac-b4bf-fc683ef0e14c","system_id":"levelo_inurba_marseille","lat":43.25721,"lon":5.41112,"is_reserved":false,"is_disabled":false,"rental_uris":{"android":"levelo://app?vid=19e6008c-0743-45ac-b4bf-fc683ef0e14c","ios":"levelo://app?vid=19e6008c-0743-45ac-b4bf-fc683ef0e14c"},"vehicle_type_id":"4","last_reported":1730560164,"current_range_meters":25200,"station_id":"ce4bhkp2rcd13ifvqgd0","pricing_plan_id":"cebpf4jnsgd1na2vs0mg"},{"bike_id":"1fc28198-1c17-47be-887b-58439e4191f0","system_id":"levelo_inurba_marseille","lat":43.23142,"lon":5.43723,"is_reserved":false,"is_disabled":false,"rental_uris":{"android":"levelo://app?vid=1fc28198-1c17-47be-887b-58439e4191f0","ios":"levelo://app?vid=1fc28198-1c17-47be-887b-58439e4191f0"},"vehicle_type_id":"4","last_reported":1730560164,"current_range_meters":4400,"station_id":"ce4bhmp2rcd13ifvqgog","pricing_plan_id":"cebpf4jnsgd1na2vs0mg"},{"bike_id":"26574e1c-e666-4101-80c7-05eddc55232c","system_id":"levelo_inurba_marseille","lat":43.24804,"lon":5.37461,"is_reserved":false,"is_disabled":false,"rental_uris":{"android":"levelo://app?vid=26574e1c-e666-4101-80c7-05eddc55232c","ios":"levelo://app?vid=26574e1c-e666-4101-80c7-05eddc55232c"},"vehicle_type_id":"4","last_reported":1730560164,"current_range_meters":38800,"station_id":"ce4bhgh2rcd13ifvqfb0","pricing_plan_id":"cebpf4jnsgd1na2vs0mg"},{"bike_id":"df3ba2d0-dbf5-4b3b-abf0-8c06b9369963","system_id":"levelo_inurba_marseille","lat":43.2922,"lon":5.3606,"is_reserved":false,"is_disabled":false,"rental_uris":{"android":"levelo://app?vid=df3ba2d0-dbf5-4b3b-abf0-8c06b9369963","ios":"levelo://app?vid=df3ba2d0-dbf5-4b3b-abf0-8c06b9369963"},"vehicle_type_id":"4","last_reported":1730560164,"current_range_meters":17600,"station_id":"ce4bhbh2rcd13ifvqeqg","pricing_plan_id":"cebpf4jnsgd1na2vs0mg"},{"bike_id":"70d74a6c-9736-4264-9961-1bcc13d9ba15","system_id":"levelo_inurba_marseille","lat":43.30132,"lon":5.38806,"is_reserved":false,"is_disabled":false,"rental_uris":{"android":"levelo://app?vid=70d74a6c-9736-4264-9961-1bcc13d9ba15","ios":"levelo://app?vid=70d74a6c-9736-4264-9961-1bcc13d9ba15"},"vehicle_type_id":"4","last_reported":1730560164,"current_range_meters":36400,"station_id":"ce4bghh2rcd13ifvqb60","pricing_plan_id":"cebpf4jnsgd1na2vs0mg"},{"bike_id":"4188b78f-bd34-443d-9b77-5b1edf37b34b","system_id":"levelo_inurba_marseille","lat":43.23055,"lon":5.35494,"is_reserved":false,"is_disabled":false,"rental_uris":{"android":"levelo://app?vid=4188b78f-bd34-443d-9b77-5b1edf37b34b","ios":"levelo://app?vid=4188b78f-bd34-443d-9b77-5b1edf37b34b"},"vehicle_type_id":"4","last_reported":1730560164,"current_range_meters":19200,"station_id":"cpo3342slgdg3j2ifvpg","pricing_plan_id":"cebpf4jnsgd1na2vs0mg"},{"bike_id":"7efb9cd7-f03e-4c1d-b63f-e87ffe819639","system_id":"levelo_inurba_marseille","lat":43.22933,"lon":5.35374,"is_reserved":false,"is_disabled":false,"rental_uris":{"android":"levelo://app?vid=7efb9cd7-f03e-4c1d-b63f-e87ffe819639","ios":"levelo://app?vid=7efb9cd7-f03e-4c1d-b63f-e87ffe819639"},"vehicle_type_id":"4","last_reported":1730560164,"current_range_meters":25600,"station_id":"cpo3532slgdg3j2ikp40","pricing_plan_id":"cebpf4jnsgd1na2vs0mg"},{"bike_id":"6c387352-7466-4f96-a4b3-8df4d9956144","system_id":"levelo_inurba_marseille","lat":43.29549,"lon":5.42294,"is_reserved":false,"is_disabled":false,"rental_uris":{"android":"levelo://app?vid=6c387352-7466-4f96-a4b3-8df4d9956144","ios":"levelo://app?vid=6c387352-7466-4f96-a4b3-8df4d9956144"},"vehicle_type_id":"4","last_reported":1730560164,"current_range_meters":38800,"station_id":"ce4bhph2rcd13ifvqhdg","pricing_plan_id":"cebpf4jnsgd1na2vs0mg"},{"bike_id":"a91b1265-f250-47ee-90a0-21052cd30f56","system_id":"levelo_inurba_marseille","lat":43.30453,"lon":5.37927,"is_reserved":false,"is_disabled":false,"rental_uris":{"android":"levelo://app?vid=a91b1265-f250-47ee-90a0-21052cd30f56","ios":"levelo://app?vid=a91b1265-f250-47ee-90a0-21052cd30f56"},"vehicle_type_id":"4","last_reported":1730560164,"current_range_meters":16800,"station_id":"ce4bgup2rcd13ifvqcn0","pricing_plan_id":"cebpf4jnsgd1na2vs0mg"},{"bike_id":"91dfd9cb-2175-467d-8ea9-cb6d546eecd8","system_id":"levelo_inurba_marseille","lat":43.29619,"lon":5.37153,"is_reserved":false,"is_disabled":false,"rental_uris":{"android":"levelo://app?vid=91dfd9cb-2175-467d-8ea9-cb6d546eecd8","ios":"levelo://app?vid=91dfd9cb-2175-467d-8ea9-cb6d546eecd8"},"vehicle_type_id":"4","last_reported":1730560164,"current_range_meters":37600,"station_id":"ce4bgnh2rcd13ifvqc0g","pricing_plan_id":"cebpf4jnsgd1na2vs0mg"},{"bike_id":"64583204-9bc3-4b69-b0de-6cfd6e5fd459","system_id":"levelo_inurba_marseille","lat":43.27369,"lon":5.36255,"is_reserved":false,"is_disabled":false,"rental_uris":{"android":"levelo://app?vid=64583204-9bc3-4b69-b0de-6cfd6e5fd459","ios":"levelo://app?vid=64583204-9bc3-4b69-b0de-6cfd6e5fd459"},"vehicle_type_id":"4","last_reported":1730560164,"current_range_meters":38000,"station_id":"ce4bhbh2rcd13ifvqeo0","pricing_plan_id":"cebpf4jnsgd1na2vs0mg"},{"bike_id":"84c54c15-b283-4df4-8ef5-7137112968a7","system_id":"levelo_inurba_marseille","lat":43.28264,"lon":5.35077,"is_reserved":false,"is_disabled":false,"rental_uris":{"android":"levelo://app?vid=84c54c15-b283-4df4-8ef5-7137112968a7","ios":"levelo://app?vid=84c54c15-b283-4df4-8ef5-7137112968a7"},"vehicle_type_id":"4","last_reported":1730560164,"current_range_meters":19600,"station_id":"ce4bhbp2rcd13ifvqerg","pricing_plan_id":"cebpf4jnsgd1na2vs0mg"},{"bike_id":"a319becd-84f6-4fa3-8f37-f8af98cfe3d9","system_id":"levelo_inurba_marseille","lat":43.27376,"lon":5.36262,"is_reserved":false,"is_disabled":false,"rental_uris":{"android":"levelo://app?vid=a319becd-84f6-4fa3-8f37-f8af98cfe3d9","ios":"levelo://app?vid=a319becd-84f6-4fa3-8f37-f8af98cfe3d9"},"vehicle_type_id":"4","last_reported":1730560164,"current_range_meters":33600,"station_id":"ce4bhbh2rcd13ifvqeo0","pricing_plan_id":"cebpf4jnsgd1na2vs0mg"},{"bike_id":"5e658862-f025-4948-ad81-ab765993bce0","system_id":"levelo_inurba_marseille","lat":43.27374,"lon":5.36251,"is_reserved":false,"is_disabled":false,"rental_uris":{"android":"levelo://app?vid=5e658862-f025-4948-ad81-ab765993bce0","ios":"levelo://app?vid=5e658862-f025-4948-ad81-ab765993bce0"},"vehicle_type_id":"4","last_reported":1730560164,"current_range_meters":30000,"station_id":"ce4bhbh2rcd13ifvqeo0","pricing_plan_id":"cebpf4jnsgd1na2vs0mg"},{"bike_id":"70b0cfe0-5ebd-452c-a7e3-6af013d3e8b7","system_id":"levelo_inurba_marseille","lat":43.26938,"lon":5.40251,"is_reserved":false,"is_disabled":false,"rental_uris":{"android":"levelo://app?vid=70b0cfe0-5ebd-452c-a7e3-6af013d3e8b7","ios":"levelo://app?vid=70b0cfe0-5ebd-452c-a7e3-6af013d3e8b7"},"vehicle_type_id":"4","last_reported":1730560164,"current_range_meters":36000,"station_id":"cjm6bp8fraef2m0cb0m0","pricing_plan_id":"cebpf4jnsgd1na2vs0mg"},{"bike_id":"b72f6100-a034-42a8-a455-afdfb8db92af","system_id":"levelo_inurba_marseille","lat":43.29303,"lon":5.37183,"is_reserved":false,"is_disabled":false,"rental_uris":{"android":"levelo://app?vid=b72f6100-a034-42a8-a455-afdfb8db92af","ios":"levelo://app?vid=b72f6100-a034-42a8-a455-afdfb8db92af"},"vehicle_type_id":"4","last_reported":1730560164,"current_range_meters":8000,"station_id":"ce4bgh92rcd13ifvqb40","pricing_plan_id":"cebpf4jnsgd1na2vs0mg"},{"bike_id":"74e3715e-b844-4180-8ba0-50b9e962470d","system_id":"levelo_inurba_marseille","lat":43.26559,"lon":5.39021,"is_reserved":false,"is_disabled":false,"rental_uris":{"android":"levelo://app?vid=74e3715e-b844-4180-8ba0-50b9e962470d","ios":"levelo://app?vid=74e3715e-b844-4180-8ba0-50b9e962470d"},"vehicle_type_id":"4","last_reported":1730560164,"current_range_meters":30000,"station_id":"ce4bhe12rcd13ifvqf30","pricing_plan_id":"cebpf4jnsgd1na2vs0mg"},{"bike_id":"7dfac259-0d7a-4851-8dc1-10e4ad4823d3","system_id":"levelo_inurba_marseille","lat":43.29386,"lon":5.375,"is_reserved":false,"is_disabled":false,"rental_uris":{"android":"levelo://app?vid=7dfac259-0d7a-4851-8dc1-10e4ad4823d3","ios":"levelo://app?vid=7dfac259-0d7a-4851-8dc1-10e4ad4823d3"},"vehicle_type_id":"4","last_reported":1730560164,"current_range_meters":9200,"station_id":"ce4bgnh2rcd13ifvqc0g","pricing_plan_id":"cebpf4jnsgd1na2vs0mg"},{"bike_id":"fe4c198c-817a-4251-91e3-516f1ee16e19","system_id":"levelo_inurba_marseille","lat":43.29191,"lon":5.35809,"is_reserved":false,"is_disabled":false,"rental_uris":{"android":"levelo://app?vid=fe4c198c-817a-4251-91e3-516f1ee16e19","ios":"levelo://app?vid=fe4c198c-817a-4251-91e3-516f1ee16e19"},"vehicle_type_id":"4","last_reported":1730560164,"current_range_meters":38800,"station_id":"ce4bhb12rcd13ifvqel0","pricing_plan_id":"cebpf4jnsgd1na2vs0mg"},{"bike_id":"27fa8bc9-2c85-4a58-8444-d006798259a2","system_id":"levelo_inurba_marseille","lat":43.27379,"lon":5.36262,"is_reserved":false,"is_disabled":false,"rental_uris":{"android":"levelo://app?vid=27fa8bc9-2c85-4a58-8444-d006798259a2","ios":"levelo://app?vid=27fa8bc9-2c85-4a58-8444-d006798259a2"},"vehicle_type_id":"4","last_reported":1730560164,"current_range_meters":38800,"station_id":"ce4bhbh2rcd13ifvqeo0","pricing_plan_id":"cebpf4jnsgd1na2vs0mg"},{"bike_id":"c491dade-f47a-4071-a612-c395bc6cbd21","system_id":"levelo_inurba_marseille","lat":43.27203,"lon":5.39177,"is_reserved":false,"is_disabled":false,"rental_uris":{"android":"levelo://app?vid=c491dade-f47a-4071-a612-c395bc6cbd21","ios":"levelo://app?vid=c491dade-f47a-4071-a612-c395bc6cbd21"},"vehicle_type_id":"4","last_reported":1730560164,"current_range_meters":6400,"station_id":"ce4bhhp2rcd13ifvqfm0","pricing_plan_id":"cebpf4jnsgd1na2vs0mg"},{"bike_id":"522f2288-79a0-4763-a1e8-55a9ccfe67a8","system_id":"levelo_inurba_marseille","lat":43.24804,"lon":5.37456,"is_reserved":false,"is_disabled":false,"rental_uris":{"android":"levelo://app?vid=522f2288-79a0-4763-a1e8-55a9ccfe67a8","ios":"levelo://app?vid=522f2288-79a0-4763-a1e8-55a9ccfe67a8"},"vehicle_type_id":"4","last_reported":1730560164,"current_range_meters":35600,"station_id":"ce4bhgh2rcd13ifvqfb0","pricing_plan_id":"cebpf4jnsgd1na2vs0mg"},{"bike_id":"10f9ba4b-9b49-4148-b7f1-372208c6c423","system_id":"levelo_inurba_marseille","lat":43.3229,"lon":5.38267,"is_reserved":false,"is_disabled":false,"rental_uris":{"android":"levelo://app?vid=10f9ba4b-9b49-4148-b7f1-372208c6c423","ios":"levelo://app?vid=10f9ba4b-9b49-4148-b7f1-372208c6c423"},"vehicle_type_id":"4","last_reported":1730560164,"current_range_meters":23200,"station_id":"ce4bhr12rcd13ifvqhqg","pricing_plan_id":"cebpf4jnsgd1na2vs0mg"},{"bike_id":"b4122f83-8b60-4a55-9598-049b82bd6206","system_id":"levelo_inurba_marseille","lat":43.30947,"lon":5.3903,"is_reserved":false,"is_disabled":false,"rental_uris":{"android":"levelo://app?vid=b4122f83-8b60-4a55-9598-049b82bd6206","ios":"levelo://app?vid=b4122f83-8b60-4a55-9598-049b82bd6206"},"vehicle_type_id":"4","last_reported":1730560164,"current_range_meters":4800,"station_id":"ce4bgup2rcd13ifvqco0","pricing_plan_id":"cebpf4jnsgd1na2vs0mg"},{"bike_id":"990a6c7f-40ea-40f3-98af-286f0e972115","system_id":"levelo_inurba_marseille","lat":43.30553,"lon":5.36553,"is_reserved":false,"is_disabled":false,"rental_uris":{"android":"levelo://app?vid=990a6c7f-40ea-40f3-98af-286f0e972115","ios":"levelo://app?vid=990a6c7f-40ea-40f3-98af-286f0e972115"},"vehicle_type_id":"4","last_reported":1730560164,"current_range_meters":8800,"station_id":"ce4bgs12rcd13ifvqcag","pricing_plan_id":"cebpf4jnsgd1na2vs0mg"},{"bike_id":"21f2e1a5-2667-4bb2-8534-086ac0007def","system_id":"levelo_inurba_marseille","lat":43.28419,"lon":5.34991,"is_reserved":false,"is_disabled":false,"rental_uris":{"android":"levelo://app?vid=21f2e1a5-2667-4bb2-8534-086ac0007def","ios":"levelo://app?vid=21f2e1a5-2667-4bb2-8534-086ac0007def"},"vehicle_type_id":"4","last_reported":1730560164,"current_range_meters":2800,"station_id":"ce4bhbh2rcd13ifvqepg","pricing_plan_id":"cebpf4jnsgd1na2vs0mg"},{"bike_id":"ace6ce99-29be-40d4-9b62-ff3331bf021c","system_id":"levelo_inurba_marseille","lat":43.22923,"lon":5.3538,"is_reserved":false,"is_disabled":false,"rental_uris":{"android":"levelo://app?vid=ace6ce99-29be-40d4-9b62-ff3331bf021c","ios":"levelo://app?vid=ace6ce99-29be-40d4-9b62-ff3331bf021c"},"vehicle_type_id":"4","last_reported":1730560164,"current_range_meters":28400,"station_id":"cpo3532slgdg3j2ikp40","pricing_plan_id":"cebpf4jnsgd1na2vs0mg"},{"bike_id":"715ca43e-0ff6-4674-a6a9-97920232d968","system_id":"levelo_inurba_marseille","lat":43.27998,"lon":5.41669,"is_reserved":false,"is_disabled":false,"rental_uris":{"android":"levelo://app?vid=715ca43e-0ff6-4674-a6a9-97920232d968","ios":"levelo://app?vid=715ca43e-0ff6-4674-a6a9-97920232d968"},"vehicle_type_id":"4","last_reported":1730560164,"current_range_meters":37600,"station_id":"ce4bho12rcd13ifvqh1g","pricing_plan_id":"cebpf4jnsgd1na2vs0mg"},{"bike_id":"7ac7c584-fcca-4e1d-84e1-6d965bdcf576","system_id":"levelo_inurba_marseille","lat":43.23064,"lon":5.35495,"is_reserved":false,"is_disabled":false,"rental_uris":{"android":"levelo://app?vid=7ac7c584-fcca-4e1d-84e1-6d965bdcf576","ios":"levelo://app?vid=7ac7c584-fcca-4e1d-84e1-6d965bdcf576"},"vehicle_type_id":"4","last_reported":1730560164,"current_range_meters":38800,"station_id":"cpo3342slgdg3j2ifvpg","pricing_plan_id":"cebpf4jnsgd1na2vs0mg"},{"bike_id":"b27b6b18-d801-4b0b-a4e3-bc55bc4a9aed","system_id":"levelo_inurba_marseille","lat":43.25721,"lon":5.41115,"is_reserved":false,"is_disabled":false,"rental_uris":{"android":"levelo://app?vid=b27b6b18-d801-4b0b-a4e3-bc55bc4a9aed","ios":"levelo://app?vid=b27b6b18-d801-4b0b-a4e3-bc55bc4a9aed"},"vehicle_type_id":"4","last_reported":1730560164,"current_range_meters":37600,"station_id":"ce4bhkp2rcd13ifvqgd0","pricing_plan_id":"cebpf4jnsgd1na2vs0mg"},{"bike_id":"1c126182-dc04-457d-b8ff-a9075ab3fd00","system_id":"levelo_inurba_marseille","lat":43.30139,"lon":5.37431,"is_reserved":false,"is_disabled":false,"rental_uris":{"android":"levelo://app?vid=1c126182-dc04-457d-b8ff-a9075ab3fd00","ios":"levelo://app?vid=1c126182-dc04-457d-b8ff-a9075ab3fd00"},"vehicle_type_id":"4","last_reported":1730560164,"current_range_meters":26000,"station_id":"ce4bgs92rcd13ifvqcc0","pricing_plan_id":"cebpf4jnsgd1na2vs0mg"},{"bike_id":"a2ae5f19-2d53-48c7-a388-c9ab0e9aa17a","system_id":"levelo_inurba_marseille","lat":43.2396,"lon":5.36632,"is_reserved":false,"is_disabled":false,"rental_uris":{"android":"levelo://app?vid=a2ae5f19-2d53-48c7-a388-c9ab0e9aa17a","ios":"levelo://app?vid=a2ae5f19-2d53-48c7-a388-c9ab0e9aa17a"},"vehicle_type_id":"4","last_reported":1730560164,"current_range_meters":27200,"station_id":"ce4bhi12rcd13ifvqfp0","pricing_plan_id":"cebpf4jnsgd1na2vs0mg"},{"bike_id":"49a2726b-cb29-421e-8302-ebcfd8b7be4e","system_id":"levelo_inurba_marseille","lat":43.2887,"lon":5.39302,"is_reserved":false,"is_disabled":false,"rental_uris":{"android":"levelo://app?vid=49a2726b-cb29-421e-8302-ebcfd8b7be4e","ios":"levelo://app?vid=49a2726b-cb29-421e-8302-ebcfd8b7be4e"},"vehicle_type_id":"4","last_reported":1730560164,"current_range_meters":28400,"station_id":"ce4bh2p2rcd13ifvqdi0","pricing_plan_id":"cebpf4jnsgd1na2vs0mg"},{"bike_id":"94279a57-03c0-47b7-abe3-7226e86fd3b0","system_id":"levelo_inurba_marseille","lat":43.27614,"lon":5.36117,"is_reserved":false,"is_disabled":false,"rental_uris":{"android":"levelo://app?vid=94279a57-03c0-47b7-abe3-7226e86fd3b0","ios":"levelo://app?vid=94279a57-03c0-47b7-abe3-7226e86fd3b0"},"vehicle_type_id":"4","last_reported":1730560164,"current_range_meters":19200,"station_id":"ce4bgj92rcd13ifvqbe0","pricing_plan_id":"cebpf4jnsgd1na2vs0mg"},{"bike_id":"5ba8e5a8-09bf-412b-b182-000192a6d1f7","system_id":"levelo_inurba_marseille","lat":43.33016,"lon":5.39051,"is_reserved":false,"is_disabled":false,"rental_uris":{"android":"levelo://app?vid=5ba8e5a8-09bf-412b-b182-000192a6d1f7","ios":"levelo://app?vid=5ba8e5a8-09bf-412b-b182-000192a6d1f7"},"vehicle_type_id":"4","last_reported":1730560164,"current_range_meters":21600,"station_id":"ce4bhr92rcd13ifvqhrg","pricing_plan_id":"cebpf4jnsgd1na2vs0mg"},{"bike_id":"56e38add-0f78-4341-b643-7b0849d3280d","system_id":"levelo_inurba_marseille","lat":43.22931,"lon":5.35382,"is_reserved":false,"is_disabled":false,"rental_uris":{"android":"levelo://app?vid=56e38add-0f78-4341-b643-7b0849d3280d","ios":"levelo://app?vid=56e38add-0f78-4341-b643-7b0849d3280d"},"vehicle_type_id":"4","last_reported":1730560164,"current_range_meters":39200,"station_id":"cpo3532slgdg3j2ikp40","pricing_plan_id":"cebpf4jnsgd1na2vs0mg"},{"bike_id":"8a94a266-bbd6-4081-aa2d-b5b7a6a174ec","system_id":"levelo_inurba_marseille","lat":43.28609,"lon":5.3512,"is_reserved":false,"is_disabled":false,"rental_uris":{"android":"levelo://app?vid=8a94a266-bbd6-4081-aa2d-b5b7a6a174ec","ios":"levelo://app?vid=8a94a266-bbd6-4081-aa2d-b5b7a6a174ec"},"vehicle_type_id":"4","last_reported":1730560164,"current_range_meters":6400,"station_id":"ce4bhch2rcd13ifvqeug","pricing_plan_id":"cebpf4jnsgd1na2vs0mg"},{"bike_id":"a3c1c9e8-a631-4e35-a31b-9f7ad4a5cc1f","system_id":"levelo_inurba_marseille","lat":43.29704,"lon":5.37607,"is_reserved":false,"is_disabled":false,"rental_uris":{"android":"levelo://app?vid=a3c1c9e8-a631-4e35-a31b-9f7ad4a5cc1f","ios":"levelo://app?vid=a3c1c9e8-a631-4e35-a31b-9f7ad4a5cc1f"},"vehicle_type_id":"4","last_reported":1730560164,"current_range_meters":22800,"station_id":"ce4bgrp2rcd13ifvqc9g","pricing_plan_id":"cebpf4jnsgd1na2vs0mg"},{"bike_id":"b7e5fcd4-fccc-4a36-ac73-b4f28d59aa73","system_id":"levelo_inurba_marseille","lat":43.28416,"lon":5.34991,"is_reserved":false,"is_disabled":false,"rental_uris":{"android":"levelo://app?vid=b7e5fcd4-fccc-4a36-ac73-b4f28d59aa73","ios":"levelo://app?vid=b7e5fcd4-fccc-4a36-ac73-b4f28d59aa73"},"vehicle_type_id":"4","last_reported":1730560164,"current_range_meters":28800,"station_id":"ce4bhbh2rcd13ifvqepg","pricing_plan_id":"cebpf4jnsgd1na2vs0mg"},{"bike_id":"394f6ca2-b1c3-4d1d-9bb3-e2f54349cdc3","system_id":"levelo_inurba_marseille","lat":43.2826,"lon":5.35067,"is_reserved":false,"is_disabled":false,"rental_uris":{"android":"levelo://app?vid=394f6ca2-b1c3-4d1d-9bb3-e2f54349cdc3","ios":"levelo://app?vid=394f6ca2-b1c3-4d1d-9bb3-e2f54349cdc3"},"vehicle_type_id":"4","last_reported":1730560164,"current_range_meters":8000,"station_id":"ce4bhbp2rcd13ifvqerg","pricing_plan_id":"cebpf4jnsgd1na2vs0mg"},{"bike_id":"daf0938f-e5d6-4f31-a90a-9775939d8424","system_id":"levelo_inurba_marseille","lat":43.308,"lon":5.43527,"is_reserved":false,"is_disabled":false,"rental_uris":{"android":"levelo://app?vid=daf0938f-e5d6-4f31-a90a-9775939d8424","ios":"levelo://app?vid=daf0938f-e5d6-4f31-a90a-9775939d8424"},"vehicle_type_id":"4","last_reported":1730560164,"current_range_meters":30400,"station_id":"ce4bhph2rcd13ifvqheg","pricing_plan_id":"cebpf4jnsgd1na2vs0mg"},{"bike_id":"d827ac39-20e0-49b1-aa6c-c6305c07d278","system_id":"levelo_inurba_marseille","lat":43.30457,"lon":5.37906,"is_reserved":false,"is_disabled":false,"rental_uris":{"android":"levelo://app?vid=d827ac39-20e0-49b1-aa6c-c6305c07d278","ios":"levelo://app?vid=d827ac39-20e0-49b1-aa6c-c6305c07d278"},"vehicle_type_id":"4","last_reported":1730560164,"current_range_meters":27200,"station_id":"ce4bgup2rcd13ifvqcn0","pricing_plan_id":"cebpf4jnsgd1na2vs0mg"},{"bike_id":"edca4c81-7f4d-4bbe-9bd2-5ce4df69403f","system_id":"levelo_inurba_marseille","lat":43.23194,"lon":5.35558,"is_reserved":false,"is_disabled":false,"rental_uris":{"android":"levelo://app?vid=edca4c81-7f4d-4bbe-9bd2-5ce4df69403f","ios":"levelo://app?vid=edca4c81-7f4d-4bbe-9bd2-5ce4df69403f"},"vehicle_type_id":"4","last_reported":1730560164,"current_range_meters":17600,"station_id":"ce4bhu92rcd13ifvqi70","pricing_plan_id":"cebpf4jnsgd1na2vs0mg"},{"bike_id":"8157b3f0-5a93-4c23-8036-d1cf8b0917b0","system_id":"levelo_inurba_marseille","lat":43.30458,"lon":5.37901,"is_reserved":false,"is_disabled":false,"rental_uris":{"android":"levelo://app?vid=8157b3f0-5a93-4c23-8036-d1cf8b0917b0","ios":"levelo://app?vid=8157b3f0-5a93-4c23-8036-d1cf8b0917b0"},"vehicle_type_id":"4","last_reported":1730560164,"current_range_meters":38800,"station_id":"ce4bgup2rcd13ifvqcn0","pricing_plan_id":"cebpf4jnsgd1na2vs0mg"},{"bike_id":"ae110895-6348-4658-8063-090abedce7e7","system_id":"levelo_inurba_marseille","lat":43.284637,"lon":5.358893,"is_reserved":false,"is_disabled":false,"rental_uris":{"android":"levelo://app?vid=ae110895-6348-4658-8063-090abedce7e7","ios":"levelo://app?vid=ae110895-6348-4658-8063-090abedce7e7"},"vehicle_type_id":"4","last_reported":1730560164,"current_range_meters":6800,"station_id":"ce4bhgp2rcd13ifvqfe0","pricing_plan_id":"cebpf4jnsgd1na2vs0mg"},{"bike_id":"ba652f20-335e-499c-9c5f-09c9b18a178e","system_id":"levelo_inurba_marseille","lat":43.27069,"lon":5.42281,"is_reserved":false,"is_disabled":false,"rental_uris":{"android":"levelo://app?vid=ba652f20-335e-499c-9c5f-09c9b18a178e","ios":"levelo://app?vid=ba652f20-335e-499c-9c5f-09c9b18a178e"},"vehicle_type_id":"4","last_reported":1730560164,"current_range_meters":26000,"station_id":"ce4bhk92rcd13ifvqgb0","pricing_plan_id":"cebpf4jnsgd1na2vs0mg"},{"bike_id":"e7f67fe6-5489-4f37-9e9a-e64eb886b288","system_id":"levelo_inurba_marseille","lat":43.32288,"lon":5.3828,"is_reserved":false,"is_disabled":false,"rental_uris":{"android":"levelo://app?vid=e7f67fe6-5489-4f37-9e9a-e64eb886b288","ios":"levelo://app?vid=e7f67fe6-5489-4f37-9e9a-e64eb886b288"},"vehicle_type_id":"4","last_reported":1730560164,"current_range_meters":38000,"station_id":"ce4bhr12rcd13ifvqhqg","pricing_plan_id":"cebpf4jnsgd1na2vs0mg"},{"bike_id":"4b248e7e-3e32-4ddc-a3ce-00f4adbb6b95","system_id":"levelo_inurba_marseille","lat":43.230566,"lon":5.354938,"is_reserved":false,"is_disabled":false,"rental_uris":{"android":"levelo://app?vid=4b248e7e-3e32-4ddc-a3ce-00f4adbb6b95","ios":"levelo://app?vid=4b248e7e-3e32-4ddc-a3ce-00f4adbb6b95"},"vehicle_type_id":"4","last_reported":1730560164,"current_range_meters":27200,"station_id":"cpo3342slgdg3j2ifvpg","pricing_plan_id":"cebpf4jnsgd1na2vs0mg"},{"bike_id":"0178118f-16d6-4b79-a1f4-3b8ef2389522","system_id":"levelo_inurba_marseille","lat":43.28611,"lon":5.35108,"is_reserved":false,"is_disabled":false,"rental_uris":{"android":"levelo://app?vid=0178118f-16d6-4b79-a1f4-3b8ef2389522","ios":"levelo://app?vid=0178118f-16d6-4b79-a1f4-3b8ef2389522"},"vehicle_type_id":"4","last_reported":1730560164,"current_range_meters":36400,"station_id":"ce4bhch2rcd13ifvqeug","pricing_plan_id":"cebpf4jnsgd1na2vs0mg"},{"bike_id":"0e6a5012-9b0b-4949-bd7c-98dc2b9aad0a","system_id":"levelo_inurba_marseille","lat":43.28419,"lon":5.34994,"is_reserved":false,"is_disabled":false,"rental_uris":{"android":"levelo://app?vid=0e6a5012-9b0b-4949-bd7c-98dc2b9aad0a","ios":"levelo://app?vid=0e6a5012-9b0b-4949-bd7c-98dc2b9aad0a"},"vehicle_type_id":"4","last_reported":1730560164,"current_range_meters":34800,"station_id":"ce4bhbh2rcd13ifvqepg","pricing_plan_id":"cebpf4jnsgd1na2vs0mg"},{"bike_id":"5e9f6621-d14a-49ca-9104-d59162d2e75c","system_id":"levelo_inurba_marseille","lat":43.26803,"lon":5.40272,"is_reserved":false,"is_disabled":false,"rental_uris":{"android":"levelo://app?vid=5e9f6621-d14a-49ca-9104-d59162d2e75c","ios":"levelo://app?vid=5e9f6621-d14a-49ca-9104-d59162d2e75c"},"vehicle_type_id":"4","last_reported":1730560164,"current_range_meters":29600,"station_id":"ce501612rcd8frsf0b60","pricing_plan_id":"cebpf4jnsgd1na2vs0mg"},{"bike_id":"79793e0a-482e-46c3-9382-3c3ce5037467","system_id":"levelo_inurba_marseille","lat":43.29256,"lon":5.40907,"is_reserved":false,"is_disabled":false,"rental_uris":{"android":"levelo://app?vid=79793e0a-482e-46c3-9382-3c3ce5037467","ios":"levelo://app?vid=79793e0a-482e-46c3-9382-3c3ce5037467"},"vehicle_type_id":"4","last_reported":1730560164,"current_range_meters":4800,"station_id":"ce4bh192rcd13ifvqdc0","pricing_plan_id":"cebpf4jnsgd1na2vs0mg"},{"bike_id":"b66ece50-bc4f-4a5d-b2a3-ef5f9aba4661","system_id":"levelo_inurba_marseille","lat":43.29269,"lon":5.36838,"is_reserved":false,"is_disabled":false,"rental_uris":{"android":"levelo://app?vid=b66ece50-bc4f-4a5d-b2a3-ef5f9aba4661","ios":"levelo://app?vid=b66ece50-bc4f-4a5d-b2a3-ef5f9aba4661"},"vehicle_type_id":"4","last_reported":1730560164,"current_range_meters":38800,"station_id":"ce4bhbp2rcd13ifvqesg","pricing_plan_id":"cebpf4jnsgd1na2vs0mg"},{"bike_id":"be3e39dd-ba2b-4ec9-87c0-24eda0d85e9d","system_id":"levelo_inurba_marseille","lat":43.27376,"lon":5.36269,"is_reserved":false,"is_disabled":false,"rental_uris":{"android":"levelo://app?vid=be3e39dd-ba2b-4ec9-87c0-24eda0d85e9d","ios":"levelo://app?vid=be3e39dd-ba2b-4ec9-87c0-24eda0d85e9d"},"vehicle_type_id":"4","last_reported":1730560164,"current_range_meters":22400,"station_id":"ce4bhbh2rcd13ifvqeo0","pricing_plan_id":"cebpf4jnsgd1na2vs0mg"},{"bike_id":"75c4ea2d-7f0a-470d-b5e0-ffece40d0797","system_id":"levelo_inurba_marseille","lat":43.23962,"lon":5.36642,"is_reserved":false,"is_disabled":false,"rental_uris":{"android":"levelo://app?vid=75c4ea2d-7f0a-470d-b5e0-ffece40d0797","ios":"levelo://app?vid=75c4ea2d-7f0a-470d-b5e0-ffece40d0797"},"vehicle_type_id":"4","last_reported":1730560164,"current_range_meters":20800,"station_id":"ce4bhi12rcd13ifvqfp0","pricing_plan_id":"cebpf4jnsgd1na2vs0mg"},{"bike_id":"dd85fdee-7b4e-41ea-9ba5-3da808cd5ca6","system_id":"levelo_inurba_marseille","lat":43.22924,"lon":5.35381,"is_reserved":false,"is_disabled":false,"rental_uris":{"android":"levelo://app?vid=dd85fdee-7b4e-41ea-9ba5-3da808cd5ca6","ios":"levelo://app?vid=dd85fdee-7b4e-41ea-9ba5-3da808cd5ca6"},"vehicle_type_id":"4","last_reported":1730560164,"current_range_meters":39200,"station_id":"cpo3532slgdg3j2ikp40","pricing_plan_id":"cebpf4jnsgd1na2vs0mg"},{"bike_id":"513d14f4-5afd-4b94-9007-d500e8f033d7","system_id":"levelo_inurba_marseille","lat":43.24386,"lon":5.37047,"is_reserved":false,"is_disabled":false,"rental_uris":{"android":"levelo://app?vid=513d14f4-5afd-4b94-9007-d500e8f033d7","ios":"levelo://app?vid=513d14f4-5afd-4b94-9007-d500e8f033d7"},"vehicle_type_id":"4","last_reported":1730560164,"current_range_meters":25200,"station_id":"ce4bhhh2rcd13ifvqfk0","pricing_plan_id":"cebpf4jnsgd1na2vs0mg"},{"bike_id":"fa0d0175-496c-492e-bcfc-001ea3bdf18e","system_id":"levelo_inurba_marseille","lat":43.2952,"lon":5.37511,"is_reserved":false,"is_disabled":false,"rental_uris":{"android":"levelo://app?vid=fa0d0175-496c-492e-bcfc-001ea3bdf18e","ios":"levelo://app?vid=fa0d0175-496c-492e-bcfc-001ea3bdf18e"},"vehicle_type_id":"4","last_reported":1730560164,"current_range_meters":38400,"station_id":"ce4bgkp2rcd13ifvqbmg","pricing_plan_id":"cebpf4jnsgd1na2vs0mg"},{"bike_id":"f5299b18-8e1f-40a1-8e83-e243db44259a","system_id":"levelo_inurba_marseille","lat":43.26196,"lon":5.37937,"is_reserved":false,"is_disabled":false,"rental_uris":{"android":"levelo://app?vid=f5299b18-8e1f-40a1-8e83-e243db44259a","ios":"levelo://app?vid=f5299b18-8e1f-40a1-8e83-e243db44259a"},"vehicle_type_id":"4","last_reported":1730560164,"current_range_meters":20000,"station_id":"ce4bhjp2rcd13ifvqg90","pricing_plan_id":"cebpf4jnsgd1na2vs0mg"},{"bike_id":"f4af9b65-ead8-42b6-9aff-96dcb65810b8","system_id":"levelo_inurba_marseille","lat":43.26933,"lon":5.4026,"is_reserved":false,"is_disabled":false,"rental_uris":{"android":"levelo://app?vid=f4af9b65-ead8-42b6-9aff-96dcb65810b8","ios":"levelo://app?vid=f4af9b65-ead8-42b6-9aff-96dcb65810b8"},"vehicle_type_id":"4","last_reported":1730560164,"current_range_meters":30000,"station_id":"cjm6bp8fraef2m0cb0m0","pricing_plan_id":"cebpf4jnsgd1na2vs0mg"},{"bike_id":"1e6d9429-363f-4bc1-a31c-233f354ab15d","system_id":"levelo_inurba_marseille","lat":43.23962,"lon":5.36634,"is_reserved":false,"is_disabled":false,"rental_uris":{"android":"levelo://app?vid=1e6d9429-363f-4bc1-a31c-233f354ab15d","ios":"levelo://app?vid=1e6d9429-363f-4bc1-a31c-233f354ab15d"},"vehicle_type_id":"4","last_reported":1730560164,"current_range_meters":32000,"station_id":"ce4bhi12rcd13ifvqfp0","pricing_plan_id":"cebpf4jnsgd1na2vs0mg"},{"bike_id":"321c4d31-12ad-4375-9041-becaa3cb05da","system_id":"levelo_inurba_marseille","lat":43.27495,"lon":5.42462,"is_reserved":false,"is_disabled":false,"rental_uris":{"android":"levelo://app?vid=321c4d31-12ad-4375-9041-becaa3cb05da","ios":"levelo://app?vid=321c4d31-12ad-4375-9041-becaa3cb05da"},"vehicle_type_id":"4","last_reported":1730560164,"current_range_meters":38000,"station_id":"ce4bhn92rcd13ifvqgrg","pricing_plan_id":"cebpf4jnsgd1na2vs0mg"},{"bike_id":"4bc0b6f0-5e48-4d94-b163-51276014c780","system_id":"levelo_inurba_marseille","lat":43.30185,"lon":5.36619,"is_reserved":false,"is_disabled":false,"rental_uris":{"android":"levelo://app?vid=4bc0b6f0-5e48-4d94-b163-51276014c780","ios":"levelo://app?vid=4bc0b6f0-5e48-4d94-b163-51276014c780"},"vehicle_type_id":"4","last_reported":1730560164,"current_range_meters":38800,"station_id":"ce4bgrh2rcd13ifvqc8g","pricing_plan_id":"cebpf4jnsgd1na2vs0mg"},{"bike_id":"4a9fb076-52cf-4f3a-a4dc-4536b05804cd","system_id":"levelo_inurba_marseille","lat":43.28262,"lon":5.35085,"is_reserved":false,"is_disabled":false,"rental_uris":{"android":"levelo://app?vid=4a9fb076-52cf-4f3a-a4dc-4536b05804cd","ios":"levelo://app?vid=4a9fb076-52cf-4f3a-a4dc-4536b05804cd"},"vehicle_type_id":"4","last_reported":1730560164,"current_range_meters":37600,"station_id":"ce4bhbp2rcd13ifvqerg","pricing_plan_id":"cebpf4jnsgd1na2vs0mg"},{"bike_id":"fba35eaf-570a-46a8-917f-b0c8cafbe735","system_id":"levelo_inurba_marseille","lat":43.27174,"lon":5.40998,"is_reserved":false,"is_disabled":false,"rental_uris":{"android":"levelo://app?vid=fba35eaf-570a-46a8-917f-b0c8cafbe735","ios":"levelo://app?vid=fba35eaf-570a-46a8-917f-b0c8cafbe735"},"vehicle_type_id":"4","last_reported":1730560164,"current_range_meters":38800,"station_id":"ce4bhl12rcd13ifvqgf0","pricing_plan_id":"cebpf4jnsgd1na2vs0mg"},{"bike_id":"b8c4b104-f130-4889-80a7-2d5b5f02035d","system_id":"levelo_inurba_marseille","lat":43.2842,"lon":5.34995,"is_reserved":false,"is_disabled":false,"rental_uris":{"android":"levelo://app?vid=b8c4b104-f130-4889-80a7-2d5b5f02035d","ios":"levelo://app?vid=b8c4b104-f130-4889-80a7-2d5b5f02035d"},"vehicle_type_id":"4","last_reported":1730560164,"current_range_meters":38000,"station_id":"ce4bhbh2rcd13ifvqepg","pricing_plan_id":"cebpf4jnsgd1na2vs0mg"},{"bike_id":"bb903235-10f7-432d-bddc-ce7ccf0f3776","system_id":"levelo_inurba_marseille","lat":43.27052,"lon":5.40274,"is_reserved":false,"is_disabled":false,"rental_uris":{"android":"levelo://app?vid=bb903235-10f7-432d-bddc-ce7ccf0f3776","ios":"levelo://app?vid=bb903235-10f7-432d-bddc-ce7ccf0f3776"},"vehicle_type_id":"4","last_reported":1730560164,"current_range_meters":36800,"station_id":"ce4bhk92rcd13ifvqgc0","pricing_plan_id":"cebpf4jnsgd1na2vs0mg"},{"bike_id":"d1836a9b-c994-405a-81fd-676837d90764","system_id":"levelo_inurba_marseille","lat":43.2955,"lon":5.42291,"is_reserved":false,"is_disabled":false,"rental_uris":{"android":"levelo://app?vid=d1836a9b-c994-405a-81fd-676837d90764","ios":"levelo://app?vid=d1836a9b-c994-405a-81fd-676837d90764"},"vehicle_type_id":"4","last_reported":1730560164,"current_range_meters":38000,"station_id":"ce4bhph2rcd13ifvqhdg","pricing_plan_id":"cebpf4jnsgd1na2vs0mg"},{"bike_id":"067780c8-11d9-4757-a538-96c45bc4100a","system_id":"levelo_inurba_marseille","lat":43.28417,"lon":5.34981,"is_reserved":false,"is_disabled":false,"rental_uris":{"android":"levelo://app?vid=067780c8-11d9-4757-a538-96c45bc4100a","ios":"levelo://app?vid=067780c8-11d9-4757-a538-96c45bc4100a"},"vehicle_type_id":"4","last_reported":1730560164,"current_range_meters":38800,"station_id":"ce4bhbh2rcd13ifvqepg","pricing_plan_id":"cebpf4jnsgd1na2vs0mg"},{"bike_id":"c085e585-3807-4067-8841-1a78494ee531","system_id":"levelo_inurba_marseille","lat":43.25496,"lon":5.37647,"is_reserved":false,"is_disabled":false,"rental_uris":{"android":"levelo://app?vid=c085e585-3807-4067-8841-1a78494ee531","ios":"levelo://app?vid=c085e585-3807-4067-8841-1a78494ee531"},"vehicle_type_id":"4","last_reported":1730560164,"current_range_meters":15200,"station_id":"ce4bhh12rcd13ifvqff0","pricing_plan_id":"cebpf4jnsgd1na2vs0mg"},{"bike_id":"9deaab64-1edc-489c-9445-a7bbb456b236","system_id":"levelo_inurba_marseille","lat":43.29001,"lon":5.35617,"is_reserved":false,"is_disabled":false,"rental_uris":{"android":"levelo://app?vid=9deaab64-1edc-489c-9445-a7bbb456b236","ios":"levelo://app?vid=9deaab64-1edc-489c-9445-a7bbb456b236"},"vehicle_type_id":"4","last_reported":1730560164,"current_range_meters":38000,"station_id":"ce4bhb92rcd13ifvqen0","pricing_plan_id":"cebpf4jnsgd1na2vs0mg"},{"bike_id":"eaa72850-5999-45c6-adfb-e6e80988c15e","system_id":"levelo_inurba_marseille","lat":43.27051,"lon":5.40274,"is_reserved":false,"is_disabled":false,"rental_uris":{"android":"levelo://app?vid=eaa72850-5999-45c6-adfb-e6e80988c15e","ios":"levelo://app?vid=eaa72850-5999-45c6-adfb-e6e80988c15e"},"vehicle_type_id":"4","last_reported":1730560164,"current_range_meters":37600,"station_id":"ce4bhk92rcd13ifvqgc0","pricing_plan_id":"cebpf4jnsgd1na2vs0mg"},{"bike_id":"186bf8d5-bc84-45bf-89df-f3cf5560ff25","system_id":"levelo_inurba_marseille","lat":43.28151,"lon":5.42648,"is_reserved":false,"is_disabled":false,"rental_uris":{"android":"levelo://app?vid=186bf8d5-bc84-45bf-89df-f3cf5560ff25","ios":"levelo://app?vid=186bf8d5-bc84-45bf-89df-f3cf5560ff25"},"vehicle_type_id":"4","last_reported":1730560164,"current_range_meters":19200,"station_id":"ce4bhnh2rcd13ifvqgug","pricing_plan_id":"cebpf4jnsgd1na2vs0mg"},{"bike_id":"7d80838f-ddd1-4936-82d8-035e0f61d8dc","system_id":"levelo_inurba_marseille","lat":43.23062,"lon":5.35495,"is_reserved":false,"is_disabled":false,"rental_uris":{"android":"levelo://app?vid=7d80838f-ddd1-4936-82d8-035e0f61d8dc","ios":"levelo://app?vid=7d80838f-ddd1-4936-82d8-035e0f61d8dc"},"vehicle_type_id":"4","last_reported":1730560164,"current_range_meters":16400,"station_id":"cpo3342slgdg3j2ifvpg","pricing_plan_id":"cebpf4jnsgd1na2vs0mg"},{"bike_id":"85d05f76-c0f4-48a0-a1be-338782c6e111","system_id":"levelo_inurba_marseille","lat":43.28151,"lon":5.42644,"is_reserved":false,"is_disabled":false,"rental_uris":{"android":"levelo://app?vid=85d05f76-c0f4-48a0-a1be-338782c6e111","ios":"levelo://app?vid=85d05f76-c0f4-48a0-a1be-338782c6e111"},"vehicle_type_id":"4","last_reported":1730560164,"current_range_meters":38400,"station_id":"ce4bhnh2rcd13ifvqgug","pricing_plan_id":"cebpf4jnsgd1na2vs0mg"},{"bike_id":"69582ec4-a536-468d-867c-efb681073e52","system_id":"levelo_inurba_marseille","lat":43.28157,"lon":5.42648,"is_reserved":false,"is_disabled":false,"rental_uris":{"android":"levelo://app?vid=69582ec4-a536-468d-867c-efb681073e52","ios":"levelo://app?vid=69582ec4-a536-468d-867c-efb681073e52"},"vehicle_type_id":"4","last_reported":1730560164,"current_range_meters":38800,"station_id":"ce4bhnh2rcd13ifvqgug","pricing_plan_id":"cebpf4jnsgd1na2vs0mg"},{"bike_id":"b31f8962-21fa-4ac7-9a50-33be6d54ffe4","system_id":"levelo_inurba_marseille","lat":43.29191,"lon":5.3581,"is_reserved":false,"is_disabled":false,"rental_uris":{"android":"levelo://app?vid=b31f8962-21fa-4ac7-9a50-33be6d54ffe4","ios":"levelo://app?vid=b31f8962-21fa-4ac7-9a50-33be6d54ffe4"},"vehicle_type_id":"4","last_reported":1730560164,"current_range_meters":33200,"station_id":"ce4bhb12rcd13ifvqel0","pricing_plan_id":"cebpf4jnsgd1na2vs0mg"},{"bike_id":"0f5f4a5e-d5e5-4f9f-a634-2f9428e83c2c","system_id":"levelo_inurba_marseille","lat":43.27803,"lon":5.40726,"is_reserved":false,"is_disabled":false,"rental_uris":{"android":"levelo://app?vid=0f5f4a5e-d5e5-4f9f-a634-2f9428e83c2c","ios":"levelo://app?vid=0f5f4a5e-d5e5-4f9f-a634-2f9428e83c2c"},"vehicle_type_id":"4","last_reported":1730560164,"current_range_meters":37600,"station_id":"ce4bhnh2rcd13ifvqgtg","pricing_plan_id":"cebpf4jnsgd1na2vs0mg"},{"bike_id":"4462a1e9-7adc-4b88-856d-ab742c338669","system_id":"levelo_inurba_marseille","lat":43.27374,"lon":5.36262,"is_reserved":false,"is_disabled":false,"rental_uris":{"android":"levelo://app?vid=4462a1e9-7adc-4b88-856d-ab742c338669","ios":"levelo://app?vid=4462a1e9-7adc-4b88-856d-ab742c338669"},"vehicle_type_id":"4","last_reported":1730560164,"current_range_meters":32800,"station_id":"ce4bhbh2rcd13ifvqeo0","pricing_plan_id":"cebpf4jnsgd1na2vs0mg"},{"bike_id":"6b1e8166-579a-4034-9594-772d0c9ad45b","system_id":"levelo_inurba_marseille","lat":43.3133,"lon":5.39711,"is_reserved":false,"is_disabled":false,"rental_uris":{"android":"levelo://app?vid=6b1e8166-579a-4034-9594-772d0c9ad45b","ios":"levelo://app?vid=6b1e8166-579a-4034-9594-772d0c9ad45b"},"vehicle_type_id":"4","last_reported":1730560164,"current_range_meters":32400,"station_id":"ce4bgvp2rcd13ifvqcu0","pricing_plan_id":"cebpf4jnsgd1na2vs0mg"},{"bike_id":"8cf2d7b1-2b35-4b8c-8863-894dd3fe2f79","system_id":"levelo_inurba_marseille","lat":43.22922,"lon":5.3538,"is_reserved":false,"is_disabled":false,"rental_uris":{"android":"levelo://app?vid=8cf2d7b1-2b35-4b8c-8863-894dd3fe2f79","ios":"levelo://app?vid=8cf2d7b1-2b35-4b8c-8863-894dd3fe2f79"},"vehicle_type_id":"4","last_reported":1730560164,"current_range_meters":25200,"station_id":"cpo3532slgdg3j2ikp40","pricing_plan_id":"cebpf4jnsgd1na2vs0mg"},{"bike_id":"a736eb14-322a-4db6-8378-3b19b72258b0","system_id":"levelo_inurba_marseille","lat":43.29447,"lon":5.3831,"is_reserved":false,"is_disabled":false,"rental_uris":{"android":"levelo://app?vid=a736eb14-322a-4db6-8378-3b19b72258b0","ios":"levelo://app?vid=a736eb14-322a-4db6-8378-3b19b72258b0"},"vehicle_type_id":"4","last_reported":1730560164,"current_range_meters":29600,"station_id":"","pricing_plan_id":"cebpf4jnsgd1na2vs0mg"},{"bike_id":"21547dd9-ea26-4947-8e74-3aaf58bc700c","system_id":"levelo_inurba_marseille","lat":43.27383,"lon":5.3627,"is_reserved":false,"is_disabled":false,"rental_uris":{"android":"levelo://app?vid=21547dd9-ea26-4947-8e74-3aaf58bc700c","ios":"levelo://app?vid=21547dd9-ea26-4947-8e74-3aaf58bc700c"},"vehicle_type_id":"4","last_reported":1730560164,"current_range_meters":24400,"station_id":"ce4bhbh2rcd13ifvqeo0","pricing_plan_id":"cebpf4jnsgd1na2vs0mg"},{"bike_id":"0a3218f5-bb46-4ff7-b332-6998aebed226","system_id":"levelo_inurba_marseille","lat":43.32661,"lon":5.40993,"is_reserved":false,"is_disabled":false,"rental_uris":{"android":"levelo://app?vid=0a3218f5-bb46-4ff7-b332-6998aebed226","ios":"levelo://app?vid=0a3218f5-bb46-4ff7-b332-6998aebed226"},"vehicle_type_id":"4","last_reported":1730560164,"current_range_meters":38800,"station_id":"ce4bhpp2rcd13ifvqhgg","pricing_plan_id":"cebpf4jnsgd1na2vs0mg"},{"bike_id":"c12412a2-33a2-461c-96aa-ffddfb52d714","system_id":"levelo_inurba_marseille","lat":43.27047,"lon":5.40266,"is_reserved":false,"is_disabled":false,"rental_uris":{"android":"levelo://app?vid=c12412a2-33a2-461c-96aa-ffddfb52d714","ios":"levelo://app?vid=c12412a2-33a2-461c-96aa-ffddfb52d714"},"vehicle_type_id":"4","last_reported":1730560164,"current_range_meters":38800,"station_id":"ce4bhk92rcd13ifvqgc0","pricing_plan_id":"cebpf4jnsgd1na2vs0mg"},