{"last_updated":1741216157,"ttl":60,"version":"2.2","data":{"bikes":[{"bike_id":"a359dd29-ac52-4e46-b7f0-b84a38fdb645","system_id":"levelo_inurba_marseille","lat":43.28035,"lon":5.36956,"is_reserved":false,"is_disabled":false,"rental_uris":{"android":"levelo://app?vid=a359dd29-ac52-4e46-b7f0-b84a38fdb645","ios":"levelo://app?vid=a359dd29-ac52-4e46-b7f0-b84a38fdb645"},"vehicle_type_id":"4","last_reported":1741216157,"current_range_meters":3200,"station_id":"ce4bha12rcd13ifvqef0","pricing_plan_id":"cebpf4jnsgd1na2vs0mg"},{"bike_id":"b59a58dc-7dde-4167-8f75-1c44bad051c1","system_id":"levelo_inurba_marseille","lat":43.29064,"lon":5.3715,"is_reserved":false,"is_disabled":false,"rental_uris":{"android":"levelo://app?vid=b59a58dc-7dde-4167-8f75-1c44bad051c1","ios":"levelo://app?vid=b59a58dc-7dde-4167-8f75-1c44bad051c1"},"vehicle_type_id":"4","last_reported":1741216157,"current_range_meters":3600,"station_id":"ce4bh5p2rcd13ifvqe4g","pricing_plan_id":"cebpf4jnsgd1na2vs0mg"},{"bike_id":"417ef343-9a8c-48c7-b985-bc218f65292b","system_id":"levelo_inurba_marseille","lat":43.24046,"lon":5.37735,"is_reserved":false,"is_disabled":false,"rental_uris":{"android":"levelo://app?vid=417ef343-9a8c-48c7-b985-bc218f65292b","ios":"levelo://app?vid=417ef343-9a8c-48c7-b985-bc218f65292b"},"vehicle_type_id":"4","last_reported":1741216157,"current_range_meters":3600,"station_id":"ce4bhnp2rcd13ifvqgvg","pricing_plan_id":"cebpf4jnsgd1na2vs0mg"},{"bike_id":"1dfd9dc3-4ac7-4246-bb53-a5c1cb36f26a","system_id":"levelo_inurba_marseille","lat":43.28568,"lon":5.39497,"is_reserved":false,"is_disabled":false,"rental_uris":{"android":"levelo://app?vid=1dfd9dc3-4ac7-4246-bb53-a5c1cb36f26a","ios":"levelo://app?vid=1dfd9dc3-4ac7-4246-bb53-a5c1cb36f26a"},"vehicle_type_id":"4","last_reported":1741216157,"current_range_meters":4000,"station_id":"ce4bh292rcd13ifvqdg0","pricing_plan_id":"cebpf4jnsgd1na2vs0mg"},{"bike_id":"7844d250-ca6a-4c32-8fee-ece7a0d782a8","system_id":"levelo_inurba_marseille","lat":43.28935,"lon":5.36638,"is_reserved":false,"is_disabled":false,"rental_uris":{"android":"levelo://app?vid=7844d250-ca6a-4c32-8fee-ece7a0d782a8","ios":"levelo://app?vid=7844d250-ca6a-4c32-8fee-ece7a0d782a8"},"vehicle_type_id":"4","last_reported":1741216157,"current_range_meters":4000,"station_id":"ce4bhap2rcd13ifvqek0","pricing_plan_id":"cebpf4jnsgd1na2vs0mg"},{"bike_id":"790e16de-5154-45ac-a20e-b8d2405684fc","system_id":"levelo_inurba_marseille","lat":43.29435,"lon":5.39753,"is_reserved":false,"is_disabled":false,"rental_uris":{"android":"levelo://app?vid=790e16de-5154-45ac-a20e-b8d2405684fc","ios":"levelo://app?vid=790e16de-5154-45ac-a20e-b8d2405684fc"},"vehicle_type_id":"4","last_reported":1741216157,"current_range_meters":4400,"station_id":"ce4bh3h2rcd13ifvqdo0","pricing_plan_id":"cebpf4jnsgd1na2vs0mg"},{"bike_id":"3b62786c-32b6-486a-8858-2d35026d1b78","system_id":"levelo_inurba_marseille","lat":43.28685,"lon":5.38657,"is_reserved":false,"is_disabled":false,"rental_uris":{"android":"levelo://app?vid=3b62786c-32b6-486a-8858-2d35026d1b78","ios":"levelo://app?vid=3b62786c-32b6-486a-8858-2d35026d1b78"},"vehicle_type_id":"4","last_reported":1741216157,"current_range_meters":4400,"station_id":"ce4bh492rcd13ifvqdug","pricing_plan_id":"cebpf4jnsgd1na2vs0mg"},{"bike_id":"8fe93df6-2fe6-41ee-aeb3-48d22ff05290","system_id":"levelo_inurba_marseille","lat":43.29182,"lon":5.38599,"is_reserved":false,"is_disabled":false,"rental_uris":{"android":"levelo://app?vid=8fe93df6-2fe6-41ee-aeb3-48d22ff05290","ios":"levelo://app?vid=8fe93df6-2fe6-41ee-aeb3-48d22ff05290"},"vehicle_type_id":"4","last_reported":1741216157,"current_range_meters":4800,"station_id":"","pricing_plan_id":"cebpf4jnsgd1na2vs0mg"},{"bike_id":"c95430ac-dd11-4fa2-a2ad-82b48573bf5b","system_id":"levelo_inurba_marseille","lat":43.29557,"lon":5.39955,"is_reserved":false,"is_disabled":false,"rental_uris":{"android":"levelo://app?vid=c95430ac-dd11-4fa2-a2ad-82b48573bf5b","ios":"levelo://app?vid=c95430ac-dd11-4fa2-a2ad-82b48573bf5b"},"vehicle_type_id":"4","last_reported":1741216157,"current_range_meters":4800,"station_id":"ce4bh312rcd13ifvqdj0","pricing_plan_id":"cebpf4jnsgd1na2vs0mg"},{"bike_id":"dfcf7507-41d1-4d8b-b298-9685f03bd643","system_id":"levelo_inurba_marseille","lat":43.26496,"lon":5.3954,"is_reserved":false,"is_disabled":false,"rental_uris":{"android":"levelo://app?vid=dfcf7507-41d1-4d8b-b298-9685f03bd643","ios":"levelo://app?vid=dfcf7507-41d1-4d8b-b298-9685f03bd643"},"vehicle_type_id":"4","last_reported":1741216157,"current_range_meters":4800,"station_id":"ce4bhi12rcd13ifvqfq0","pricing_plan_id":"cebpf4jnsgd1na2vs0mg"},{"bike_id":"ee1d2ad1-36ca-49dd-a328-f2a9a9994ecb","system_id":"levelo_inurba_marseille","lat":43.31079,"lon":5.38115,"is_reserved":false,"is_disabled":false,"rental_uris":{"android":"levelo://app?vid=ee1d2ad1-36ca-49dd-a328-f2a9a9994ecb","ios":"levelo://app?vid=ee1d2ad1-36ca-49dd-a328-f2a9a9994ecb"},"vehicle_type_id":"4","last_reported":1741216157,"current_range_meters":5600,"station_id":"","pricing_plan_id":"cebpf4jnsgd1na2vs0mg"},{"bike_id":"7d4d8a43-dec8-4f8d-9bcf-7d16d87581cb","system_id":"levelo_inurba_marseille","lat":43.32087,"lon":5.41502,"is_reserved":false,"is_disabled":false,"rental_uris":{"android":"levelo://app?vid=7d4d8a43-dec8-4f8d-9bcf-7d16d87581cb","ios":"levelo://app?vid=7d4d8a43-dec8-4f8d-9bcf-7d16d87581cb"},"vehicle_type_id":"4","last_reported":1741216157,"current_range_meters":5600,"station_id":"","pricing_plan_id":"cebpf4jnsgd1na2vs0mg"},{"bike_id":"35cfe75e-a39f-4834-b61a-a1bdc0f11c88","system_id":"levelo_inurba_marseille","lat":43.28367,"lon":5.38629,"is_reserved":false,"is_disabled":false,"rental_uris":{"android":"levelo://app?vid=35cfe75e-a39f-4834-b61a-a1bdc0f11c88","ios":"levelo://app?vid=35cfe75e-a39f-4834-b61a-a1bdc0f11c88"},"vehicle_type_id":"4","last_reported":1741216157,"current_range_meters":5600,"station_id":"","pricing_plan_id":"cebpf4jnsgd1na2vs0mg"},{"bike_id":"35be5dd3-0f73-4d0a-bef3-58a8799fc6f0","system_id":"levelo_inurba_marseille","lat":43.28032,"lon":5.39752,"is_reserved":false,"is_disabled":false,"rental_uris":{"android":"levelo://app?vid=35be5dd3-0f73-4d0a-bef3-58a8799fc6f0","ios":"levelo://app?vid=35be5dd3-0f73-4d0a-bef3-58a8799fc6f0"},"vehicle_type_id":"4","last_reported":1741216157,"current_range_meters":5600,"station_id":"ce4bho12rcd13ifvqh2g","pricing_plan_id":"cebpf4jnsgd1na2vs0mg"},{"bike_id":"172bbbdd-4a99-4187-9a69-6d6e66a5b2dc","system_id":"levelo_inurba_marseille","lat":43.27051,"lon":5.40261,"is_reserved":false,"is_disabled":false,"rental_uris":{"android":"levelo://app?vid=172bbbdd-4a99-4187-9a69-6d6e66a5b2dc","ios":"levelo://app?vid=172bbbdd-4a99-4187-9a69-6d6e66a5b2dc"},"vehicle_type_id":"4","last_reported":1741216157,"current_range_meters":6000,"station_id":"ce4bhk92rcd13ifvqgc0","pricing_plan_id":"cebpf4jnsgd1na2vs0mg"},{"bike_id":"f0258200-7fe0-428a-b201-2b59b28feba3","system_id":"levelo_inurba_marseille","lat":43.28346,"lon":5.38106,"is_reserved":false,"is_disabled":false,"rental_uris":{"android":"levelo://app?vid=f0258200-7fe0-428a-b201-2b59b28feba3","ios":"levelo://app?vid=f0258200-7fe0-428a-b201-2b59b28feba3"},"vehicle_type_id":"4","last_reported":1741216157,"current_range_meters":6000,"station_id":"ce4bh412rcd13ifvqdr0","pricing_plan_id":"cebpf4jnsgd1na2vs0mg"},{"bike_id":"d6a7690f-05a2-45bc-bfc1-fc5ae56e7bff","system_id":"levelo_inurba_marseille","lat":43.30196,"lon":5.39483,"is_reserved":false,"is_disabled":false,"rental_uris":{"android":"levelo://app?vid=d6a7690f-05a2-45bc-bfc1-fc5ae56e7bff","ios":"levelo://app?vid=d6a7690f-05a2-45bc-bfc1-fc5ae56e7bff"},"vehicle_type_id":"4","last_reported":1741216157,"current_range_meters":6000,"station_id":"ce4bh0p2rcd13ifvqd70","pricing_plan_id":"cebpf4jnsgd1na2vs0mg"},{"bike_id":"54991513-f878-4116-a08f-541b88281cf9","system_id":"levelo_inurba_marseille","lat":43.27976,"lon":5.40023,"is_reserved":false,"is_disabled":true,"rental_uris":{"android":"levelo://app?vid=54991513-f878-4116-a08f-541b88281cf9","ios":"levelo://app?vid=54991513-f878-4116-a08f-541b88281cf9"},"vehicle_type_id":"4","last_reported":1741216157,"current_range_meters":6000,"station_id":"ce4bho92rcd13ifvqh4g","pricing_plan_id":"cebpf4jnsgd1na2vs0mg"},{"bike_id":"aeae0725-18e5-45c0-930d-65fcf691c0ec","system_id":"levelo_inurba_marseille","lat":43.26214,"lon":5.40444,"is_reserved":false,"is_disabled":false,"rental_uris":{"android":"levelo://app?vid=aeae0725-18e5-45c0-930d-65fcf691c0ec","ios":"levelo://app?vid=aeae0725-18e5-45c0-930d-65fcf691c0ec"},"vehicle_type_id":"4","last_reported":1741216157,"current_range_meters":6000,"station_id":"ce4bhmh2rcd13ifvqgmg","pricing_plan_id":"cebpf4jnsgd1na2vs0mg"},{"bike_id":"f6662bde-1632-4b0f-a966-f86b33b7c3b9","system_id":"levelo_inurba_marseille","lat":43.33765,"lon":5.37479,"is_reserved":false,"is_disabled":false,"rental_uris":{"android":"levelo://app?vid=f6662bde-1632-4b0f-a966-f86b33b7c3b9","ios":"levelo://app?vid=f6662bde-1632-4b0f-a966-f86b33b7c3b9"},"vehicle_type_id":"4","last_reported":1741216157,"current_range_meters":6400,"station_id":"","pricing_plan_id":"cebpf4jnsgd1na2vs0mg"},{"bike_id":"c3e12cd0-5b55-4fa8-9b46-bb2eb8bd5487","system_id":"levelo_inurba_marseille","lat":43.30907,"lon":5.40179,"is_reserved":false,"is_disabled":true,"rental_uris":{"android":"levelo://app?vid=c3e12cd0-5b55-4fa8-9b46-bb2eb8bd5487","ios":"levelo://app?vid=c3e12cd0-5b55-4fa8-9b46-bb2eb8bd5487"},"vehicle_type_id":"4","last_reported":1741216157,"current_range_meters":6400,"station_id":"ce4bgvp2rcd13ifvqct0","pricing_plan_id":"cebpf4jnsgd1na2vs0mg"},{"bike_id":"a00e1ce6-254a-4bb1-a996-2f404856539a","system_id":"levelo_inurba_marseille","lat":43.28084,"lon":5.39656,"is_reserved":false,"is_disabled":false,"rental_uris":{"android":"levelo://app?vid=a00e1ce6-254a-4bb1-a996-2f404856539a","ios":"levelo://app?vid=a00e1ce6-254a-4bb1-a996-2f404856539a"},"vehicle_type_id":"4","last_reported":1741216157,"current_range_meters":6800,"station_id":"ce4bho12rcd13ifvqh2g","pricing_plan_id":"cebpf4jnsgd1na2vs0mg"},{"bike_id":"48d40220-424a-4860-8daf-c5e8475c9ac8","system_id":"levelo_inurba_marseille","lat":43.29197,"lon":5.35794,"is_reserved":false,"is_disabled":false,"rental_uris":{"android":"levelo://app?vid=48d40220-424a-4860-8daf-c5e8475c9ac8","ios":"levelo://app?vid=48d40220-424a-4860-8daf-c5e8475c9ac8"},"vehicle_type_id":"4","last_reported":1741216157,"current_range_meters":6800,"station_id":"ce4bhb12rcd13ifvqel0","pricing_plan_id":"cebpf4jnsgd1na2vs0mg"},{"bike_id":"541b7efd-860a-4d8b-831a-30746bc829c1","system_id":"levelo_inurba_marseille","lat":43.3238,"lon":5.38868,"is_reserved":false,"is_disabled":false,"rental_uris":{"android":"levelo://app?vid=541b7efd-860a-4d8b-831a-30746bc829c1","ios":"levelo://app?vid=541b7efd-860a-4d8b-831a-30746bc829c1"},"vehicle_type_id":"4","last_reported":1741216157,"current_range_meters":6800,"station_id":"ce4bhqp2rcd13ifvqhog","pricing_plan_id":"cebpf4jnsgd1na2vs0mg"},{"bike_id":"f381cdbb-622d-48b1-95ac-8ffd39c84a79","system_id":"levelo_inurba_marseille","lat":43.29984,"lon":5.38472,"is_reserved":false,"is_disabled":false,"rental_uris":{"android":"levelo://app?vid=f381cdbb-622d-48b1-95ac-8ffd39c84a79","ios":"levelo://app?vid=f381cdbb-622d-48b1-95ac-8ffd39c84a79"},"vehicle_type_id":"4","last_reported":1741216157,"current_range_meters":6800,"station_id":"ce4bgj92rcd13ifvqbd0","pricing_plan_id":"cebpf4jnsgd1na2vs0mg"},{"bike_id":"ec825988-595a-4005-9c60-d0137fc2d893","system_id":"levelo_inurba_marseille","lat":43.31171,"lon":5.38718,"is_reserved":false,"is_disabled":false,"rental_uris":{"android":"levelo://app?vid=ec825988-595a-4005-9c60-d0137fc2d893","ios":"levelo://app?vid=ec825988-595a-4005-9c60-d0137fc2d893"},"vehicle_type_id":"4","last_reported":1741216157,"current_range_meters":6800,"station_id":"ce4bgv12rcd13ifvqcp0","pricing_plan_id":"cebpf4jnsgd1na2vs0mg"},{"bike_id":"de44d09a-d4db-4ce3-a2dd-62f4dc2e96ab","system_id":"levelo_inurba_marseille","lat":43.2817,"lon":5.42767,"is_reserved":false,"is_disabled":false,"rental_uris":{"android":"levelo://app?vid=de44d09a-d4db-4ce3-a2dd-62f4dc2e96ab","ios":"levelo://app?vid=de44d09a-d4db-4ce3-a2dd-62f4dc2e96ab"},"vehicle_type_id":"4","last_reported":1741216157,"current_range_meters":6800,"station_id":"","pricing_plan_id":"cebpf4jnsgd1na2vs0mg"},{"bike_id":"2f617cd9-3efc-47a3-a843-17ede9fd2cdf","system_id":"levelo_inurba_marseille","lat":43.30665,"lon":5.39469,"is_reserved":false,"is_disabled":false,"rental_uris":{"android":"levelo://app?vid=2f617cd9-3efc-47a3-a843-17ede9fd2cdf","ios":"levelo://app?vid=2f617cd9-3efc-47a3-a843-17ede9fd2cdf"},"vehicle_type_id":"4","last_reported":1741216157,"current_range_meters":6800,"station_id":"","pricing_plan_id":"cebpf4jnsgd1na2vs0mg"},{"bike_id":"8698972e-96ac-456d-a00f-04447f94932f","system_id":"levelo_inurba_marseille","lat":43.28408,"lon":5.37526,"is_reserved":false,"is_disabled":false,"rental_uris":{"android":"levelo://app?vid=8698972e-96ac-456d-a00f-04447f94932f","ios":"levelo://app?vid=8698972e-96ac-456d-a00f-04447f94932f"},"vehicle_type_id":"4","last_reported":1741216157,"current_range_meters":6800,"station_id":"ce4bh412rcd13ifvqds0","pricing_plan_id":"cebpf4jnsgd1na2vs0mg"},{"bike_id":"37245f92-27b0-4d71-94ad-9f00978bde25","system_id":"levelo_inurba_marseille","lat":43.27985,"lon":5.40009,"is_reserved":false,"is_disabled":true,"rental_uris":{"android":"levelo://app?vid=37245f92-27b0-4d71-94ad-9f00978bde25","ios":"levelo://app?vid=37245f92-27b0-4d71-94ad-9f00978bde25"},"vehicle_type_id":"4","last_reported":1741216157,"current_range_meters":6800,"station_id":"ce4bho92rcd13ifvqh4g","pricing_plan_id":"cebpf4jnsgd1na2vs0mg"},{"bike_id":"44a7153b-0fd7-4509-836b-676bbf84fb06","system_id":"levelo_inurba_marseille","lat":43.23198,"lon":5.35563,"is_reserved":false,"is_disabled":false,"rental_uris":{"android":"levelo://app?vid=44a7153b-0fd7-4509-836b-676bbf84fb06","ios":"levelo://app?vid=44a7153b-0fd7-4509-836b-676bbf84fb06"},"vehicle_type_id":"4","last_reported":1741216157,"current_range_meters":6800,"station_id":"ce4bhu92rcd13ifvqi70","pricing_plan_id":"cebpf4jnsgd1na2vs0mg"},{"bike_id":"ed663efe-074b-4aba-b0e9-f846e4bd3747","system_id":"levelo_inurba_marseille","lat":43.2928,"lon":5.40923,"is_reserved":false,"is_disabled":false,"rental_uris":{"android":"levelo://app?vid=ed663efe-074b-4aba-b0e9-f846e4bd3747","ios":"levelo://app?vid=ed663efe-074b-4aba-b0e9-f846e4bd3747"},"vehicle_type_id":"4","last_reported":1741216157,"current_range_meters":7200,"station_id":"ce4bh192rcd13ifvqdc0","pricing_plan_id":"cebpf4jnsgd1na2vs0mg"},{"bike_id":"5d327b88-d8a2-4c59-9a43-4a7a4b07402a","system_id":"levelo_inurba_marseille","lat":43.29533,"lon":5.39018,"is_reserved":false,"is_disabled":true,"rental_uris":{"android":"levelo://app?vid=5d327b88-d8a2-4c59-9a43-4a7a4b07402a","ios":"levelo://app?vid=5d327b88-d8a2-4c59-9a43-4a7a4b07402a"},"vehicle_type_id":"4","last_reported":1741216157,"current_range_meters":7200,"station_id":"ce4bh3p2rcd13ifvqdp0","pricing_plan_id":"cebpf4jnsgd1na2vs0mg"},{"bike_id":"c0fb0a61-40db-4418-99bb-8d675c9683a4","system_id":"levelo_inurba_marseille","lat":43.2921,"lon":5.39323,"is_reserved":false,"is_disabled":false,"rental_uris":{"android":"levelo://app?vid=c0fb0a61-40db-4418-99bb-8d675c9683a4","ios":"levelo://app?vid=c0fb0a61-40db-4418-99bb-8d675c9683a4"},"vehicle_type_id":"4","last_reported":1741216157,"current_range_meters":7200,"station_id":"ce4bh192rcd13ifvqdd0","pricing_plan_id":"cebpf4jnsgd1na2vs0mg"},{"bike_id":"b01210cf-2593-45eb-a900-af2ad463f3cf","system_id":"levelo_inurba_marseille","lat":43.25112,"lon":5.4033,"is_reserved":false,"is_disabled":false,"rental_uris":{"android":"levelo://app?vid=b01210cf-2593-45eb-a900-af2ad463f3cf","ios":"levelo://app?vid=b01210cf-2593-45eb-a900-af2ad463f3cf"},"vehicle_type_id":"4","last_reported":1741216157,"current_range_meters":7200,"station_id":"ce4bhlh2rcd13ifvqgig","pricing_plan_id":"cebpf4jnsgd1na2vs0mg"},{"bike_id":"11d42f75-af65-4149-a7c8-a151c5683df3","system_id":"levelo_inurba_marseille","lat":43.28707,"lon":5.39991,"is_reserved":false,"is_disabled":false,"rental_uris":{"android":"levelo://app?vid=11d42f75-af65-4149-a7c8-a151c5683df3","ios":"levelo://app?vid=11d42f75-af65-4149-a7c8-a151c5683df3"},"vehicle_type_id":"4","last_reported":1741216157,"current_range_meters":2000,"station_id":"ce4bho92rcd13ifvqh3g","pricing_plan_id":"cebpf4jnsgd1na2vs0mg"},{"bike_id":"7f3767e1-0b9d-4bb2-883f-156510d457d1","system_id":"levelo_inurba_marseille","lat":43.27906,"lon":5.37993,"is_reserved":false,"is_disabled":false,"rental_uris":{"android":"levelo://app?vid=7f3767e1-0b9d-4bb2-883f-156510d457d1","ios":"levelo://app?vid=7f3767e1-0b9d-4bb2-883f-156510d457d1"},"vehicle_type_id":"4","last_reported":1741216157,"current_range_meters":7200,"station_id":"ce4bhf92rcd13ifvqf50","pricing_plan_id":"cebpf4jnsgd1na2vs0mg"},{"bike_id":"b0603f8c-190f-4853-a7e5-0d0ca367341f","system_id":"levelo_inurba_marseille","lat":43.28173,"lon":5.42645,"is_reserved":false,"is_disabled":false,"rental_uris":{"android":"levelo://app?vid=b0603f8c-190f-4853-a7e5-0d0ca367341f","ios":"levelo://app?vid=b0603f8c-190f-4853-a7e5-0d0ca367341f"},"vehicle_type_id":"4","last_reported":1741216157,"current_range_meters":7200,"station_id":"ce4bhnh2rcd13ifvqgug","pricing_plan_id":"cebpf4jnsgd1na2vs0mg"},{"bike_id":"77ffa3d5-066c-44fb-b7d9-95396f0e5b2a","system_id":"levelo_inurba_marseille","lat":43.29274,"lon":5.36842,"is_reserved":false,"is_disabled":false,"rental_uris":{"android":"levelo://app?vid=77ffa3d5-066c-44fb-b7d9-95396f0e5b2a","ios":"levelo://app?vid=77ffa3d5-066c-44fb-b7d9-95396f0e5b2a"},"vehicle_type_id":"4","last_reported":1741216157,"current_range_meters":8000,"station_id":"ce4bhbp2rcd13ifvqesg","pricing_plan_id":"cebpf4jnsgd1na2vs0mg"},{"bike_id":"8d9ccc4a-1011-4c35-8110-21069259a7d9","system_id":"levelo_inurba_marseille","lat":43.29086,"lon":5.3815,"is_reserved":false,"is_disabled":true,"rental_uris":{"android":"levelo://app?vid=8d9ccc4a-1011-4c35-8110-21069259a7d9","ios":"levelo://app?vid=8d9ccc4a-1011-4c35-8110-21069259a7d9"},"vehicle_type_id":"4","last_reported":1741216157,"current_range_meters":8000,"station_id":"ce4bh512rcd13ifvqe2g","pricing_plan_id":"cebpf4jnsgd1na2vs0mg"},{"bike_id":"e713224a-efe1-4a17-9c98-f37c14588b5c","system_id":"levelo_inurba_marseille","lat":43.25084,"lon":5.39532,"is_reserved":false,"is_disabled":false,"rental_uris":{"android":"levelo://app?vid=e713224a-efe1-4a17-9c98-f37c14588b5c","ios":"levelo://app?vid=e713224a-efe1-4a17-9c98-f37c14588b5c"},"vehicle_type_id":"4","last_reported":1741216157,"current_range_meters":8000,"station_id":"ce4bhm12rcd13ifvqgkg","pricing_plan_id":"cebpf4jnsgd1na2vs0mg"},{"bike_id":"97399946-e3e6-4c82-9064-b3472fe1a6d0","system_id":"levelo_inurba_marseille","lat":43.26217,"lon":5.40461,"is_reserved":false,"is_disabled":true,"rental_uris":{"android":"levelo://app?vid=97399946-e3e6-4c82-9064-b3472fe1a6d0","ios":"levelo://app?vid=97399946-e3e6-4c82-9064-b3472fe1a6d0"},"vehicle_type_id":"4","last_reported":1741216157,"current_range_meters":8000,"station_id":"","pricing_plan_id":"cebpf4jnsgd1na2vs0mg"},{"bike_id":"3443eac2-7ae9-4091-a67b-242d2bc2f915","system_id":"levelo_inurba_marseille","lat":43.25084,"lon":5.39542,"is_reserved":false,"is_disabled":false,"rental_uris":{"android":"levelo://app?vid=3443eac2-7ae9-4091-a67b-242d2bc2f915","ios":"levelo://app?vid=3443eac2-7ae9-4091-a67b-242d2bc2f915"},"vehicle_type_id":"4","last_reported":1741216157,"current_range_meters":8000,"station_id":"ce4bhm12rcd13ifvqgkg","pricing_plan_id":"cebpf4jnsgd1na2vs0mg"},{"bike_id":"9506e6a0-a2d5-4881-a618-ef7e215e5225","system_id":"levelo_inurba_marseille","lat":43.30884,"lon":5.39638,"is_reserved":false,"is_disabled":false,"rental_uris":{"android":"levelo://app?vid=9506e6a0-a2d5-4881-a618-ef7e215e5225","ios":"levelo://app?vid=9506e6a0-a2d5-4881-a618-ef7e215e5225"},"vehicle_type_id":"4","last_reported":1741216157,"current_range_meters":8000,"station_id":"ce4bh012rcd13ifvqcv0","pricing_plan_id":"cebpf4jnsgd1na2vs0mg"},{"bike_id":"2ffa0399-d3a5-446b-8c8d-184e1dc625d5","system_id":"levelo_inurba_marseille","lat":43.31712,"lon":5.3774,"is_reserved":false,"is_disabled":false,"rental_uris":{"android":"levelo://app?vid=2ffa0399-d3a5-446b-8c8d-184e1dc625d5","ios":"levelo://app?vid=2ffa0399-d3a5-446b-8c8d-184e1dc625d5"},"vehicle_type_id":"4","last_reported":1741216157,"current_range_meters":8000,"station_id":"ce4bgth2rcd13ifvqch0","pricing_plan_id":"cebpf4jnsgd1na2vs0mg"},{"bike_id":"3439a580-4b13-4596-bc3a-9d40342307f1","system_id":"levelo_inurba_marseille","lat":43.32103,"lon":5.36762,"is_reserved":false,"is_disabled":false,"rental_uris":{"android":"levelo://app?vid=3439a580-4b13-4596-bc3a-9d40342307f1","ios":"levelo://app?vid=3439a580-4b13-4596-bc3a-9d40342307f1"},"vehicle_type_id":"4","last_reported":1741216157,"current_range_meters":8000,"station_id":"ce4bhrh2rcd13ifvqhug","pricing_plan_id":"cebpf4jnsgd1na2vs0mg"},{"bike_id":"6f9f418f-eed5-442f-9d63-d94181e20d2b","system_id":"levelo_inurba_marseille","lat":43.30878,"lon":5.39637,"is_reserved":false,"is_disabled":false,"rental_uris":{"android":"levelo://app?vid=6f9f418f-eed5-442f-9d63-d94181e20d2b","ios":"levelo://app?vid=6f9f418f-eed5-442f-9d63-d94181e20d2b"},"vehicle_type_id":"4","last_reported":1741216157,"current_range_meters":8400,"station_id":"ce4bh012rcd13ifvqcv0","pricing_plan_id":"cebpf4jnsgd1na2vs0mg"},{"bike_id":"36643d42-9828-48f3-99e5-c38691345cc5","system_id":"levelo_inurba_marseille","lat":43.32036,"lon":5.41539,"is_reserved":false,"is_disabled":false,"rental_uris":{"android":"levelo://app?vid=36643d42-9828-48f3-99e5-c38691345cc5","ios":"levelo://app?vid=36643d42-9828-48f3-99e5-c38691345cc5"},"vehicle_type_id":"4","last_reported":1741216157,"current_range_meters":8400,"station_id":"ce4bhq92rcd13ifvqhkg","pricing_plan_id":"cebpf4jnsgd1na2vs0mg"},{"bike_id":"55f3137e-de59-4df3-bc43-34575a42bfd9","system_id":"levelo_inurba_marseille","lat":43.24121,"lon":5.37684,"is_reserved":false,"is_disabled":false,"rental_uris":{"android":"levelo://app?vid=55f3137e-de59-4df3-bc43-34575a42bfd9","ios":"levelo://app?vid=55f3137e-de59-4df3-bc43-34575a42bfd9"},"vehicle_type_id":"4","last_reported":1741216157,"current_range_meters":8400,"station_id":"","pricing_plan_id":"cebpf4jnsgd1na2vs0mg"},{"bike_id":"931dbda0-5b3f-48fa-8441-4dcb748976d6","system_id":"levelo_inurba_marseille","lat":43.29577,"lon":5.3997,"is_reserved":false,"is_disabled":false,"rental_uris":{"android":"levelo://app?vid=931dbda0-5b3f-48fa-8441-4dcb748976d6","ios":"levelo://app?vid=931dbda0-5b3f-48fa-8441-4dcb748976d6"},"vehicle_type_id":"4","last_reported":1741216157,"current_range_meters":8400,"station_id":"ce4bh312rcd13ifvqdj0","pricing_plan_id":"cebpf4jnsgd1na2vs0mg"},{"bike_id":"04602ea3-ac36-4387-91cd-683c524f904f","system_id":"levelo_inurba_marseille","lat":43.27991,"lon":5.39998,"is_reserved":false,"is_disabled":true,"rental_uris":{"android":"levelo://app?vid=04602ea3-ac36-4387-91cd-683c524f904f","ios":"levelo://app?vid=04602ea3-ac36-4387-91cd-683c524f904f"},"vehicle_type_id":"4","last_reported":1741216157,"current_range_meters":8400,"station_id":"ce4bho92rcd13ifvqh4g","pricing_plan_id":"cebpf4jnsgd1na2vs0mg"},{"bike_id":"7d0376fc-3863-49a9-b6cd-b6d78ab7d7d0","system_id":"levelo_inurba_marseille","lat":43.28113,"lon":5.37855,"is_reserved":false,"is_disabled":false,"rental_uris":{"android":"levelo://app?vid=7d0376fc-3863-49a9-b6cd-b6d78ab7d7d0","ios":"levelo://app?vid=7d0376fc-3863-49a9-b6cd-b6d78ab7d7d0"},"vehicle_type_id":"4","last_reported":1741216157,"current_range_meters":8400,"station_id":"ce4bha12rcd13ifvqee0","pricing_plan_id":"cebpf4jnsgd1na2vs0mg"},{"bike_id":"466033f8-ea52-4086-be4d-613149ddf7f7","system_id":"levelo_inurba_marseille","lat":43.26234,"lon":5.40468,"is_reserved":false,"is_disabled":false,"rental_uris":{"android":"levelo://app?vid=466033f8-ea52-4086-be4d-613149ddf7f7","ios":"levelo://app?vid=466033f8-ea52-4086-be4d-613149ddf7f7"},"vehicle_type_id":"4","last_reported":1741216157,"current_range_meters":8400,"station_id":"ce4bhmh2rcd13ifvqgmg","pricing_plan_id":"cebpf4jnsgd1na2vs0mg"},{"bike_id":"8ae6e0ce-bfc3-4f64-b9ad-ef5602c01ff6","system_id":"levelo_inurba_marseille","lat":43.308,"lon":5.37646,"is_reserved":false,"is_disabled":false,"rental_uris":{"android":"levelo://app?vid=8ae6e0ce-bfc3-4f64-b9ad-ef5602c01ff6","ios":"levelo://app?vid=8ae6e0ce-bfc3-4f64-b9ad-ef5602c01ff6"},"vehicle_type_id":"4","last_reported":1741216157,"current_range_meters":8400,"station_id":"ce4bgv92rcd13ifvqcq0","pricing_plan_id":"cebpf4jnsgd1na2vs0mg"},{"bike_id":"ff22ac5f-4107-4c43-91dd-83932ff30650","system_id":"levelo_inurba_marseille","lat":43.26681,"lon":5.38285,"is_reserved":false,"is_disabled":true,"rental_uris":{"android":"levelo://app?vid=ff22ac5f-4107-4c43-91dd-83932ff30650","ios":"levelo://app?vid=ff22ac5f-4107-4c43-91dd-83932ff30650"},"vehicle_type_id":"4","last_reported":1741216157,"current_range_meters":8400,"station_id":"ce4bhg92rcd13ifvqf90","pricing_plan_id":"cebpf4jnsgd1na2vs0mg"},{"bike_id":"1d1a5219-3491-4dfc-8d1d-fecbc2b5114e","system_id":"levelo_inurba_marseille","lat":43.290256,"lon":5.386479,"is_reserved":false,"is_disabled":false,"rental_uris":{"android":"levelo://app?vid=1d1a5219-3491-4dfc-8d1d-fecbc2b5114e","ios":"levelo://app?vid=1d1a5219-3491-4dfc-8d1d-fecbc2b5114e"},"vehicle_type_id":"4","last_reported":1741216157,"current_range_meters":8400,"station_id":"ce4bh4p2rcd13ifvqe0g","pricing_plan_id":"cebpf4jnsgd1na2vs0mg"},{"bike_id":"2065d1a1-e18b-449c-9fe3-978a1c3bd96e","system_id":"levelo_inurba_marseille","lat":43.30922,"lon":5.40143,"is_reserved":false,"is_disabled":false,"rental_uris":{"android":"levelo://app?vid=2065d1a1-e18b-449c-9fe3-978a1c3bd96e","ios":"levelo://app?vid=2065d1a1-e18b-449c-9fe3-978a1c3bd96e"},"vehicle_type_id":"4","last_reported":1741216157,"current_range_meters":8400,"station_id":"ce4bgvp2rcd13ifvqct0","pricing_plan_id":"cebpf4jnsgd1na2vs0mg"},{"bike_id":"695828ba-2cea-49da-8d0e-3782d691adc5","system_id":"levelo_inurba_marseille","lat":43.27184,"lon":5.40976,"is_reserved":false,"is_disabled":false,"rental_uris":{"android":"levelo://app?vid=695828ba-2cea-49da-8d0e-3782d691adc5","ios":"levelo://app?vid=695828ba-2cea-49da-8d0e-3782d691adc5"},"vehicle_type_id":"4","last_reported":1741216157,"current_range_meters":8400,"station_id":"ce4bhl12rcd13ifvqgf0","pricing_plan_id":"cebpf4jnsgd1na2vs0mg"},{"bike_id":"67bea12d-33fd-4eac-b275-4a5b5dd193e3","system_id":"levelo_inurba_marseille","lat":43.2718,"lon":5.40975,"is_reserved":false,"is_disabled":false,"rental_uris":{"android":"levelo://app?vid=67bea12d-33fd-4eac-b275-4a5b5dd193e3","ios":"levelo://app?vid=67bea12d-33fd-4eac-b275-4a5b5dd193e3"},"vehicle_type_id":"4","last_reported":1741216157,"current_range_meters":8800,"station_id":"ce4bhl12rcd13ifvqgf0","pricing_plan_id":"cebpf4jnsgd1na2vs0mg"},{"bike_id":"c55557ad-1ed5-4997-aee7-ac92107f14b6","system_id":"levelo_inurba_marseille","lat":43.26472,"lon":5.37502,"is_reserved":false,"is_disabled":false,"rental_uris":{"android":"levelo://app?vid=c55557ad-1ed5-4997-aee7-ac92107f14b6","ios":"levelo://app?vid=c55557ad-1ed5-4997-aee7-ac92107f14b6"},"vehicle_type_id":"4","last_reported":1741216157,"current_range_meters":8800,"station_id":"","pricing_plan_id":"cebpf4jnsgd1na2vs0mg"},{"bike_id":"157d15cb-b814-4a1d-b08a-8e6a6378b3f0","system_id":"levelo_inurba_marseille","lat":43.25114,"lon":5.40334,"is_reserved":false,"is_disabled":false,"rental_uris":{"android":"levelo://app?vid=157d15cb-b814-4a1d-b08a-8e6a6378b3f0","ios":"levelo://app?vid=157d15cb-b814-4a1d-b08a-8e6a6378b3f0"},"vehicle_type_id":"4","last_reported":1741216157,"current_range_meters":8800,"station_id":"ce4bhlh2rcd13ifvqgig","pricing_plan_id":"cebpf4jnsgd1na2vs0mg"},{"bike_id":"c3c9ecad-94db-4438-9fd2-f695a5cc6950","system_id":"levelo_inurba_marseille","lat":43.26205,"lon":5.40456,"is_reserved":false,"is_disabled":false,"rental_uris":{"android":"levelo://app?vid=c3c9ecad-94db-4438-9fd2-f695a5cc6950","ios":"levelo://app?vid=c3c9ecad-94db-4438-9fd2-f695a5cc6950"},"vehicle_type_id":"4","last_reported":1741216157,"current_range_meters":8800,"station_id":"ce4bhmh2rcd13ifvqgmg","pricing_plan_id":"cebpf4jnsgd1na2vs0mg"},{"bike_id":"9548d517-ed1a-4141-b121-9a4d747b08a1","system_id":"levelo_inurba_marseille","lat":43.29278,"lon":5.36842,"is_reserved":false,"is_disabled":false,"rental_uris":{"android":"levelo://app?vid=9548d517-ed1a-4141-b121-9a4d747b08a1","ios":"levelo://app?vid=9548d517-ed1a-4141-b121-9a4d747b08a1"},"vehicle_type_id":"4","last_reported":1741216157,"current_range_meters":8800,"station_id":"ce4bhbp2rcd13ifvqesg","pricing_plan_id":"cebpf4jnsgd1na2vs0mg"},{"bike_id":"4e8e4afc-90ed-44e1-b551-2fd0902805f8","system_id":"levelo_inurba_marseille","lat":43.28725,"lon":5.37383,"is_reserved":false,"is_disabled":false,"rental_uris":{"android":"levelo://app?vid=4e8e4afc-90ed-44e1-b551-2fd0902805f8","ios":"levelo://app?vid=4e8e4afc-90ed-44e1-b551-2fd0902805f8"},"vehicle_type_id":"4","last_reported":1741216157,"current_range_meters":8800,"station_id":"ce4bh3p2rcd13ifvqdq0","pricing_plan_id":"cebpf4jnsgd1na2vs0mg"},{"bike_id":"1bad045b-6ab3-484d-a893-50827840f29c","system_id":"levelo_inurba_marseille","lat":43.29257,"lon":5.38284,"is_reserved":false,"is_disabled":false,"rental_uris":{"android":"levelo://app?vid=1bad045b-6ab3-484d-a893-50827840f29c","ios":"levelo://app?vid=1bad045b-6ab3-484d-a893-50827840f29c"},"vehicle_type_id":"4","last_reported":1741216157,"current_range_meters":8800,"station_id":"","pricing_plan_id":"cebpf4jnsgd1na2vs0mg"},{"bike_id":"d6ba82be-90e6-4543-b298-a7d041946b68","system_id":"levelo_inurba_marseille","lat":43.31176,"lon":5.3871,"is_reserved":false,"is_disabled":false,"rental_uris":{"android":"levelo://app?vid=d6ba82be-90e6-4543-b298-a7d041946b68","ios":"levelo://app?vid=d6ba82be-90e6-4543-b298-a7d041946b68"},"vehicle_type_id":"4","last_reported":1741216157,"current_range_meters":8800,"station_id":"ce4bgv12rcd13ifvqcp0","pricing_plan_id":"cebpf4jnsgd1na2vs0mg"},{"bike_id":"35a63d3f-3cf5-4e65-898f-16f1f00b237d","system_id":"levelo_inurba_marseille","lat":43.31163,"lon":5.38727,"is_reserved":false,"is_disabled":false,"rental_uris":{"android":"levelo://app?vid=35a63d3f-3cf5-4e65-898f-16f1f00b237d","ios":"levelo://app?vid=35a63d3f-3cf5-4e65-898f-16f1f00b237d"},"vehicle_type_id":"4","last_reported":1741216157,"current_range_meters":8800,"station_id":"ce4bgv12rcd13ifvqcp0","pricing_plan_id":"cebpf4jnsgd1na2vs0mg"},{"bike_id":"b856d987-6ff3-4a2a-ade4-5981a1908c4c","system_id":"levelo_inurba_marseille","lat":43.29267,"lon":5.38434,"is_reserved":false,"is_disabled":false,"rental_uris":{"android":"levelo://app?vid=b856d987-6ff3-4a2a-ade4-5981a1908c4c","ios":"levelo://app?vid=b856d987-6ff3-4a2a-ade4-5981a1908c4c"},"vehicle_type_id":"4","last_reported":1741216157,"current_range_meters":9200,"station_id":"ce4bh692rcd13ifvqea0","pricing_plan_id":"cebpf4jnsgd1na2vs0mg"},{"bike_id":"2559b77d-c845-4f4b-b064-1a5e15203c14","system_id":"levelo_inurba_marseille","lat":43.3089,"lon":5.39661,"is_reserved":false,"is_disabled":false,"rental_uris":{"android":"levelo://app?vid=2559b77d-c845-4f4b-b064-1a5e15203c14","ios":"levelo://app?vid=2559b77d-c845-4f4b-b064-1a5e15203c14"},"vehicle_type_id":"4","last_reported":1741216157,"current_range_meters":9200,"station_id":"ce4bh012rcd13ifvqcv0","pricing_plan_id":"cebpf4jnsgd1na2vs0mg"},{"bike_id":"301728fb-e011-4fc7-851f-5794c7956cca","system_id":"levelo_inurba_marseille","lat":43.2808,"lon":5.39631,"is_reserved":false,"is_disabled":false,"rental_uris":{"android":"levelo://app?vid=301728fb-e011-4fc7-851f-5794c7956cca","ios":"levelo://app?vid=301728fb-e011-4fc7-851f-5794c7956cca"},"vehicle_type_id":"4","last_reported":1741216157,"current_range_meters":9200,"station_id":"ce4bho12rcd13ifvqh2g","pricing_plan_id":"cebpf4jnsgd1na2vs0mg"},{"bike_id":"61a6adcd-dca9-42c7-a4d3-4975e7039d7e","system_id":"levelo_inurba_marseille","lat":43.28077,"lon":5.39648,"is_reserved":false,"is_disabled":false,"rental_uris":{"android":"levelo://app?vid=61a6adcd-dca9-42c7-a4d3-4975e7039d7e","ios":"levelo://app?vid=61a6adcd-dca9-42c7-a4d3-4975e7039d7e"},"vehicle_type_id":"4","last_reported":1741216157,"current_range_meters":9200,"station_id":"ce4bho12rcd13ifvqh2g","pricing_plan_id":"cebpf4jnsgd1na2vs0mg"},{"bike_id":"b14e61c0-b102-40bc-8ab8-4b6b40a5b831","system_id":"levelo_inurba_marseille","lat":43.25077,"lon":5.39508,"is_reserved":false,"is_disabled":false,"rental_uris":{"android":"levelo://app?vid=b14e61c0-b102-40bc-8ab8-4b6b40a5b831","ios":"levelo://app?vid=b14e61c0-b102-40bc-8ab8-4b6b40a5b831"},"vehicle_type_id":"4","last_reported":1741216157,"current_range_meters":9200,"station_id":"ce4bhm12rcd13ifvqgkg","pricing_plan_id":"cebpf4jnsgd1na2vs0mg"},{"bike_id":"82cfcb7e-a676-4400-b17b-48fb6d49c6fd","system_id":"levelo_inurba_marseille","lat":43.30888,"lon":5.39653,"is_reserved":false,"is_disabled":false,"rental_uris":{"android":"levelo://app?vid=82cfcb7e-a676-4400-b17b-48fb6d49c6fd","ios":"levelo://app?vid=82cfcb7e-a676-4400-b17b-48fb6d49c6fd"},"vehicle_type_id":"4","last_reported":1741216157,"current_range_meters":9200,"station_id":"ce4bh012rcd13ifvqcv0","pricing_plan_id":"cebpf4jnsgd1na2vs0mg"},{"bike_id":"7b4f8cff-ffb9-4dae-8741-5123a474b481","system_id":"levelo_inurba_marseille","lat":43.27919,"lon":5.39573,"is_reserved":false,"is_disabled":false,"rental_uris":{"android":"levelo://app?vid=7b4f8cff-ffb9-4dae-8741-5123a474b481","ios":"levelo://app?vid=7b4f8cff-ffb9-4dae-8741-5123a474b481"},"vehicle_type_id":"4","last_reported":1741216157,"current_range_meters":9200,"station_id":"ce4bhf92rcd13ifvqf40","pricing_plan_id":"cebpf4jnsgd1na2vs0mg"},{"bike_id":"983eb5f5-44ab-41a8-b99b-2892fcb7622b","system_id":"levelo_inurba_marseille","lat":43.29189,"lon":5.39321,"is_reserved":false,"is_disabled":false,"rental_uris":{"android":"levelo://app?vid=983eb5f5-44ab-41a8-b99b-2892fcb7622b","ios":"levelo://app?vid=983eb5f5-44ab-41a8-b99b-2892fcb7622b"},"vehicle_type_id":"4","last_reported":1741216157,"current_range_meters":9200,"station_id":"ce4bh192rcd13ifvqdd0","pricing_plan_id":"cebpf4jnsgd1na2vs0mg"},{"bike_id":"64545096-741a-4346-b021-9cf26822c442","system_id":"levelo_inurba_marseille","lat":43.29276,"lon":5.36841,"is_reserved":false,"is_disabled":false,"rental_uris":{"android":"levelo://app?vid=64545096-741a-4346-b021-9cf26822c442","ios":"levelo://app?vid=64545096-741a-4346-b021-9cf26822c442"},"vehicle_type_id":"4","last_reported":1741216157,"current_range_meters":9200,"station_id":"ce4bhbp2rcd13ifvqesg","pricing_plan_id":"cebpf4jnsgd1na2vs0mg"},{"bike_id":"1491f781-a73e-4cda-9d45-779c1be45f56","system_id":"levelo_inurba_marseille","lat":43.28401,"lon":5.34998,"is_reserved":false,"is_disabled":false,"rental_uris":{"android":"levelo://app?vid=1491f781-a73e-4cda-9d45-779c1be45f56","ios":"levelo://app?vid=1491f781-a73e-4cda-9d45-779c1be45f56"},"vehicle_type_id":"4","last_reported":1741216157,"current_range_meters":9600,"station_id":"ce4bhbh2rcd13ifvqepg","pricing_plan_id":"cebpf4jnsgd1na2vs0mg"},{"bike_id":"f8a818ec-b7e9-4d1f-9bec-510cc5e6b980","system_id":"levelo_inurba_marseille","lat":43.27297,"lon":5.39198,"is_reserved":false,"is_disabled":true,"rental_uris":{"android":"levelo://app?vid=f8a818ec-b7e9-4d1f-9bec-510cc5e6b980","ios":"levelo://app?vid=f8a818ec-b7e9-4d1f-9bec-510cc5e6b980"},"vehicle_type_id":"4","last_reported":1741216157,"current_range_meters":9600,"station_id":"","pricing_plan_id":"cebpf4jnsgd1na2vs0mg"},{"bike_id":"50d5929c-1fb5-401e-9d25-d9d9a5fc00bd","system_id":"levelo_inurba_marseille","lat":43.31366,"lon":5.38499,"is_reserved":false,"is_disabled":false,"rental_uris":{"android":"levelo://app?vid=50d5929c-1fb5-401e-9d25-d9d9a5fc00bd","ios":"levelo://app?vid=50d5929c-1fb5-401e-9d25-d9d9a5fc00bd"},"vehicle_type_id":"4","last_reported":1741216157,"current_range_meters":9600,"station_id":"ce4bgt92rcd13ifvqcf0","pricing_plan_id":"cebpf4jnsgd1na2vs0mg"},{"bike_id":"dd77cf1f-213c-4462-b964-b64fe4e4eb17","system_id":"levelo_inurba_marseille","lat":43.298,"lon":5.37102,"is_reserved":false,"is_disabled":false,"rental_uris":{"android":"levelo://app?vid=dd77cf1f-213c-4462-b964-b64fe4e4eb17","ios":"levelo://app?vid=dd77cf1f-213c-4462-b964-b64fe4e4eb17"},"vehicle_type_id":"4","last_reported":1741216157,"current_range_meters":9600,"station_id":"ce4bgop2rcd13ifvqc1g","pricing_plan_id":"cebpf4jnsgd1na2vs0mg"},{"bike_id":"a3e68f67-a016-4853-b449-983ecd5c8454","system_id":"levelo_inurba_marseille","lat":43.250064,"lon":5.38926,"is_reserved":false,"is_disabled":false,"rental_uris":{"android":"levelo://app?vid=a3e68f67-a016-4853-b449-983ecd5c8454","ios":"levelo://app?vid=a3e68f67-a016-4853-b449-983ecd5c8454"},"vehicle_type_id":"4","last_reported":1741216157,"current_range_meters":9600,"station_id":"ce4bhgp2rcd13ifvqfd0","pricing_plan_id":"cebpf4jnsgd1na2vs0mg"},{"bike_id":"8e67c6c2-1f86-420e-855b-676e159ed831","system_id":"levelo_inurba_marseille","lat":43.230623,"lon":5.354913,"is_reserved":false,"is_disabled":false,"rental_uris":{"android":"levelo://app?vid=8e67c6c2-1f86-420e-855b-676e159ed831","ios":"levelo://app?vid=8e67c6c2-1f86-420e-855b-676e159ed831"},"vehicle_type_id":"4","last_reported":1741216157,"current_range_meters":10000,"station_id":"cpo3342slgdg3j2ifvpg","pricing_plan_id":"cebpf4jnsgd1na2vs0mg"},{"bike_id":"8fc82f2a-7938-4250-a30d-1b7f0bd8f0d7","system_id":"levelo_inurba_marseille","lat":43.29704,"lon":5.36619,"is_reserved":false,"is_disabled":false,"rental_uris":{"android":"levelo://app?vid=8fc82f2a-7938-4250-a30d-1b7f0bd8f0d7","ios":"levelo://app?vid=8fc82f2a-7938-4250-a30d-1b7f0bd8f0d7"},"vehicle_type_id":"4","last_reported":1741216157,"current_range_meters":10000,"station_id":"ce4bgn12rcd13ifvqbt0","pricing_plan_id":"cebpf4jnsgd1na2vs0mg"},{"bike_id":"9167ef72-f974-46cb-834f-0a29c07fbf59","system_id":"levelo_inurba_marseille","lat":43.28398,"lon":5.37528,"is_reserved":false,"is_disabled":false,"rental_uris":{"android":"levelo://app?vid=9167ef72-f974-46cb-834f-0a29c07fbf59","ios":"levelo://app?vid=9167ef72-f974-46cb-834f-0a29c07fbf59"},"vehicle_type_id":"4","last_reported":1741216157,"current_range_meters":10000,"station_id":"ce4bh412rcd13ifvqds0","pricing_plan_id":"cebpf4jnsgd1na2vs0mg"},{"bike_id":"c83f8419-a8fa-497a-adc8-6cf7f975a06c","system_id":"levelo_inurba_marseille","lat":43.30881,"lon":5.3962,"is_reserved":false,"is_disabled":false,"rental_uris":{"android":"levelo://app?vid=c83f8419-a8fa-497a-adc8-6cf7f975a06c","ios":"levelo://app?vid=c83f8419-a8fa-497a-adc8-6cf7f975a06c"},"vehicle_type_id":"4","last_reported":1741216157,"current_range_meters":10000,"station_id":"ce4bh012rcd13ifvqcv0","pricing_plan_id":"cebpf4jnsgd1na2vs0mg"},{"bike_id":"67a86198-a3ee-4779-8045-74ddf30f3228","system_id":"levelo_inurba_marseille","lat":43.3112,"lon":5.37765,"is_reserved":false,"is_disabled":false,"rental_uris":{"android":"levelo://app?vid=67a86198-a3ee-4779-8045-74ddf30f3228","ios":"levelo://app?vid=67a86198-a3ee-4779-8045-74ddf30f3228"},"vehicle_type_id":"4","last_reported":1741216157,"current_range_meters":10800,"station_id":"ce4bgt92rcd13ifvqcg0","pricing_plan_id":"cebpf4jnsgd1na2vs0mg"},{"bike_id":"cdb3f317-3e6f-4519-a3e2-a7e6f00f166d","system_id":"levelo_inurba_marseille","lat":43.31179,"lon":5.38732,"is_reserved":false,"is_disabled":false,"rental_uris":{"android":"levelo://app?vid=cdb3f317-3e6f-4519-a3e2-a7e6f00f166d","ios":"levelo://app?vid=cdb3f317-3e6f-4519-a3e2-a7e6f00f166d"},"vehicle_type_id":"4","last_reported":1741216157,"current_range_meters":10800,"station_id":"ce4bgv12rcd13ifvqcp0","pricing_plan_id":"cebpf4jnsgd1na2vs0mg"},{"bike_id":"4b37d7b2-e4f0-4881-ae4a-14e74b2ab8e7","system_id":"levelo_inurba_marseille","lat":43.29442,"lon":5.39738,"is_reserved":false,"is_disabled":true,"rental_uris":{"android":"levelo://app?vid=4b37d7b2-e4f0-4881-ae4a-14e74b2ab8e7","ios":"levelo://app?vid=4b37d7b2-e4f0-4881-ae4a-14e74b2ab8e7"},"vehicle_type_id":"4","last_reported":1741216157,"current_range_meters":10800,"station_id":"ce4bh3h2rcd13ifvqdo0","pricing_plan_id":"cebpf4jnsgd1na2vs0mg"},{"bike_id":"41fc5ccf-7cae-4a19-ab3c-a6c8d7cf741a","system_id":"levelo_inurba_marseille","lat":43.240673,"lon":5.377606,"is_reserved":false,"is_disabled":false,"rental_uris":{"android":"levelo://app?vid=41fc5ccf-7cae-4a19-ab3c-a6c8d7cf741a","ios":"levelo://app?vid=41fc5ccf-7cae-4a19-ab3c-a6c8d7cf741a"},"vehicle_type_id":"4","last_reported":1741216157,"current_range_meters":10800,"station_id":"ce4bhnp2rcd13ifvqgvg","pricing_plan_id":"cebpf4jnsgd1na2vs0mg"},{"bike_id":"7be10eac-e616-4904-8cdc-c543b04d589f","system_id":"levelo_inurba_marseille","lat":43.24176,"lon":5.36388,"is_reserved":false,"is_disabled":false,"rental_uris":{"android":"levelo://app?vid=7be10eac-e616-4904-8cdc-c543b04d589f","ios":"levelo://app?vid=7be10eac-e616-4904-8cdc-c543b04d589f"},"vehicle_type_id":"4","last_reported":1741216157,"current_range_meters":10800,"station_id":"cpo36qri1sfpv3e86is0","pricing_plan_id":"cebpf4jnsgd1na2vs0mg"},{"bike_id":"20a6bdbd-65c6-4950-9704-b68c9f02327b","system_id":"levelo_inurba_marseille","lat":43.30638,"lon":5.40068,"is_reserved":false,"is_disabled":false,"rental_uris":{"android":"levelo://app?vid=20a6bdbd-65c6-4950-9704-b68c9f02327b","ios":"levelo://app?vid=20a6bdbd-65c6-4950-9704-b68c9f02327b"},"vehicle_type_id":"4","last_reported":1741216157,"current_range_meters":10800,"station_id":"ce4bh112rcd13ifvqda0","pricing_plan_id":"cebpf4jnsgd1na2vs0mg"},{"bike_id":"d7184b7d-81b1-4152-8eec-6faee4073379","system_id":"levelo_inurba_marseille","lat":43.28399,"lon":5.37548,"is_reserved":false,"is_disabled":false,"rental_uris":{"android":"levelo://app?vid=d7184b7d-81b1-4152-8eec-6faee4073379","ios":"levelo://app?vid=d7184b7d-81b1-4152-8eec-6faee4073379"},"vehicle_type_id":"4","last_reported":1741216157,"current_range_meters":10800,"station_id":"ce4bh412rcd13ifvqds0","pricing_plan_id":"cebpf4jnsgd1na2vs0mg"},{"bike_id":"0c435379-2d96-40d9-86a6-885a9070a563","system_id":"levelo_inurba_marseille","lat":43.30634,"lon":5.40073,"is_reserved":false,"is_disabled":false,"rental_uris":{"android":"levelo://app?vid=0c435379-2d96-40d9-86a6-885a9070a563","ios":"levelo://app?vid=0c435379-2d96-40d9-86a6-885a9070a563"},"vehicle_type_id":"4","last_reported":1741216157,"current_range_meters":10800,"station_id":"ce4bh112rcd13ifvqda0","pricing_plan_id":"cebpf4jnsgd1na2vs0mg"},{"bike_id":"4aa1a903-875d-473d-a45d-6e3eb07245cd","system_id":"levelo_inurba_marseille","lat":43.31163,"lon":5.38732,"is_reserved":false,"is_disabled":false,"rental_uris":{"android":"levelo://app?vid=4aa1a903-875d-473d-a45d-6e3eb07245cd","ios":"levelo://app?vid=4aa1a903-875d-473d-a45d-6e3eb07245cd"},"vehicle_type_id":"4","last_reported":1741216157,"current_range_meters":10800,"station_id":"ce4bgv12rcd13ifvqcp0","pricing_plan_id":"cebpf4jnsgd1na2vs0mg"},{"bike_id":"8c48da4b-9328-4edb-ad72-2503b82997d8","system_id":"levelo_inurba_marseille","lat":43.319941,"lon":5.381506,"is_reserved":false,"is_disabled":false,"rental_uris":{"android":"levelo://app?vid=8c48da4b-9328-4edb-ad72-2503b82997d8","ios":"levelo://app?vid=8c48da4b-9328-4edb-ad72-2503b82997d8"},"vehicle_type_id":"4","last_reported":1741216157,"current_range_meters":10800,"station_id":"ce4bhr12rcd13ifvqhpg","pricing_plan_id":"cebpf4jnsgd1na2vs0mg"},{"bike_id":"9e8d6abb-cc2e-4148-a2c8-9167ba8f4897","system_id":"levelo_inurba_marseille","lat":43.30934,"lon":5.40139,"is_reserved":false,"is_disabled":false,"rental_uris":{"android":"levelo://app?vid=9e8d6abb-cc2e-4148-a2c8-9167ba8f4897","ios":"levelo://app?vid=9e8d6abb-cc2e-4148-a2c8-9167ba8f4897"},"vehicle_type_id":"4","last_reported":1741216157,"current_range_meters":10800,"station_id":"ce4bgvp2rcd13ifvqct0","pricing_plan_id":"cebpf4jnsgd1na2vs0mg"},{"bike_id":"c302fe7e-a063-44df-aec9-69f00e06e0ee","system_id":"levelo_inurba_marseille","lat":43.27912,"lon":5.39581,"is_reserved":false,"is_disabled":false,"rental_uris":{"android":"levelo://app?vid=c302fe7e-a063-44df-aec9-69f00e06e0ee","ios":"levelo://app?vid=c302fe7e-a063-44df-aec9-69f00e06e0ee"},"vehicle_type_id":"4","last_reported":1741216157,"current_range_meters":10800,"station_id":"ce4bhf92rcd13ifvqf40","pricing_plan_id":"cebpf4jnsgd1na2vs0mg"},{"bike_id":"1541c923-478d-4331-a6bc-dc30e8a96065","system_id":"levelo_inurba_marseille","lat":43.28958,"lon":5.36413,"is_reserved":false,"is_disabled":false,"rental_uris":{"android":"levelo://app?vid=1541c923-478d-4331-a6bc-dc30e8a96065","ios":"levelo://app?vid=1541c923-478d-4331-a6bc-dc30e8a96065"},"vehicle_type_id":"4","last_reported":1741216157,"current_range_meters":11200,"station_id":"ce4bhc92rcd13ifvqetg","pricing_plan_id":"cebpf4jnsgd1na2vs0mg"},{"bike_id":"a91949e8-ceed-4f64-874e-98e204602e93","system_id":"levelo_inurba_marseille","lat":43.27983,"lon":5.4166,"is_reserved":false,"is_disabled":false,"rental_uris":{"android":"levelo://app?vid=a91949e8-ceed-4f64-874e-98e204602e93","ios":"levelo://app?vid=a91949e8-ceed-4f64-874e-98e204602e93"},"vehicle_type_id":"4","last_reported":1741216157,"current_range_meters":11200,"station_id":"ce4bho12rcd13ifvqh1g","pricing_plan_id":"cebpf4jnsgd1na2vs0mg"},{"bike_id":"54f1730f-8217-492c-9fff-91b949c67a5b","system_id":"levelo_inurba_marseille","lat":43.28985,"lon":5.35599,"is_reserved":false,"is_disabled":false,"rental_uris":{"android":"levelo://app?vid=54f1730f-8217-492c-9fff-91b949c67a5b","ios":"levelo://app?vid=54f1730f-8217-492c-9fff-91b949c67a5b"},"vehicle_type_id":"4","last_reported":1741216157,"current_range_meters":11200,"station_id":"ce4bhb92rcd13ifvqen0","pricing_plan_id":"cebpf4jnsgd1na2vs0mg"},{"bike_id":"10140528-a858-4ead-97b4-fbca8c53015b","system_id":"levelo_inurba_marseille","lat":43.27073,"lon":5.4228,"is_reserved":false,"is_disabled":false,"rental_uris":{"android":"levelo://app?vid=10140528-a858-4ead-97b4-fbca8c53015b","ios":"levelo://app?vid=10140528-a858-4ead-97b4-fbca8c53015b"},"vehicle_type_id":"4","last_reported":1741216157,"current_range_meters":11200,"station_id":"ce4bhk92rcd13ifvqgb0","pricing_plan_id":"cebpf4jnsgd1na2vs0mg"},{"bike_id":"19707f4e-57a0-487d-a0fd-b6e158a12fa5","system_id":"levelo_inurba_marseille","lat":43.28113,"lon":5.37829,"is_reserved":false,"is_disabled":false,"rental_uris":{"android":"levelo://app?vid=19707f4e-57a0-487d-a0fd-b6e158a12fa5","ios":"levelo://app?vid=19707f4e-57a0-487d-a0fd-b6e158a12fa5"},"vehicle_type_id":"4","last_reported":1741216157,"current_range_meters":11200,"station_id":"ce4bha12rcd13ifvqee0","pricing_plan_id":"cebpf4jnsgd1na2vs0mg"},{"bike_id":"fa98af60-ad58-4ccc-a5a0-6ebd1ae22394","system_id":"levelo_inurba_marseille","lat":43.28107,"lon":5.37844,"is_reserved":false,"is_disabled":false,"rental_uris":{"android":"levelo://app?vid=fa98af60-ad58-4ccc-a5a0-6ebd1ae22394","ios":"levelo://app?vid=fa98af60-ad58-4ccc-a5a0-6ebd1ae22394"},"vehicle_type_id":"4","last_reported":1741216157,"current_range_meters":11200,"station_id":"ce4bha12rcd13ifvqee0","pricing_plan_id":"cebpf4jnsgd1na2vs0mg"},{"bike_id":"4a0bd736-57eb-4c56-a8a7-96515f09f9d3","system_id":"levelo_inurba_marseille","lat":43.241492,"lon":5.368637,"is_reserved":false,"is_disabled":false,"rental_uris":{"android":"levelo://app?vid=4a0bd736-57eb-4c56-a8a7-96515f09f9d3","ios":"levelo://app?vid=4a0bd736-57eb-4c56-a8a7-96515f09f9d3"},"vehicle_type_id":"4","last_reported":1741216157,"current_range_meters":11200,"station_id":"ce4bhhh2rcd13ifvqfk0","pricing_plan_id":"cebpf4jnsgd1na2vs0mg"},{"bike_id":"f1969ae6-398f-4ca1-9c4a-74f3b1e55c0e","system_id":"levelo_inurba_marseille","lat":43.30898,"lon":5.39647,"is_reserved":false,"is_disabled":true,"rental_uris":{"android":"levelo://app?vid=f1969ae6-398f-4ca1-9c4a-74f3b1e55c0e","ios":"levelo://app?vid=f1969ae6-398f-4ca1-9c4a-74f3b1e55c0e"},"vehicle_type_id":"4","last_reported":1741216157,"current_range_meters":11600,"station_id":"ce4bh012rcd13ifvqcv0","pricing_plan_id":"cebpf4jnsgd1na2vs0mg"},{"bike_id":"5b9116fe-0eda-4e2c-8f48-26d3c7135734","system_id":"levelo_inurba_marseille","lat":43.287163,"lon":5.379476,"is_reserved":false,"is_disabled":false,"rental_uris":{"android":"levelo://app?vid=5b9116fe-0eda-4e2c-8f48-26d3c7135734","ios":"levelo://app?vid=5b9116fe-0eda-4e2c-8f48-26d3c7135734"},"vehicle_type_id":"4","last_reported":1741216157,"current_range_meters":11600,"station_id":"","pricing_plan_id":"cebpf4jnsgd1na2vs0mg"},{"bike_id":"88f1cdf8-d5f9-4bd1-9807-7495f7918208","system_id":"levelo_inurba_marseille","lat":43.31174,"lon":5.36884,"is_reserved":false,"is_disabled":false,"rental_uris":{"android":"levelo://app?vid=88f1cdf8-d5f9-4bd1-9807-7495f7918208","ios":"levelo://app?vid=88f1cdf8-d5f9-4bd1-9807-7495f7918208"},"vehicle_type_id":"4","last_reported":1741216157,"current_range_meters":11600,"station_id":"","pricing_plan_id":"cebpf4jnsgd1na2vs0mg"},{"bike_id":"d2c86759-c403-4c7c-88f9-b29ee0f9435b","system_id":"levelo_inurba_marseille","lat":43.30924,"lon":5.40149,"is_reserved":false,"is_disabled":false,"rental_uris":{"android":"levelo://app?vid=d2c86759-c403-4c7c-88f9-b29ee0f9435b","ios":"levelo://app?vid=d2c86759-c403-4c7c-88f9-b29ee0f9435b"},"vehicle_type_id":"4","last_reported":1741216157,"current_range_meters":11600,"station_id":"ce4bgvp2rcd13ifvqct0","pricing_plan_id":"cebpf4jnsgd1na2vs0mg"},{"bike_id":"b15f024f-b12d-4e55-95cd-761f75f6d2bb","system_id":"levelo_inurba_marseille","lat":43.29784,"lon":5.39346,"is_reserved":false,"is_disabled":false,"rental_uris":{"android":"levelo://app?vid=b15f024f-b12d-4e55-95cd-761f75f6d2bb","ios":"levelo://app?vid=b15f024f-b12d-4e55-95cd-761f75f6d2bb"},"vehicle_type_id":"4","last_reported":1741216157,"current_range_meters":11600,"station_id":"chh1huq6cuj3fo74tm60","pricing_plan_id":"cebpf4jnsgd1na2vs0mg"},{"bike_id":"93e360f6-914d-4f2f-9f62-13fa240ce1c4","system_id":"levelo_inurba_marseille","lat":43.28935,"lon":5.38421,"is_reserved":false,"is_disabled":false,"rental_uris":{"android":"levelo://app?vid=93e360f6-914d-4f2f-9f62-13fa240ce1c4","ios":"levelo://app?vid=93e360f6-914d-4f2f-9f62-13fa240ce1c4"},"vehicle_type_id":"4","last_reported":1741216157,"current_range_meters":11600,"station_id":"ce4bh612rcd13ifvqe6g","pricing_plan_id":"cebpf4jnsgd1na2vs0mg"},{"bike_id":"45d42749-bb1f-4519-afb3-ca4cc8cb8a67","system_id":"levelo_inurba_marseille","lat":43.30651,"lon":5.40112,"is_reserved":false,"is_disabled":false,"rental_uris":{"android":"levelo://app?vid=45d42749-bb1f-4519-afb3-ca4cc8cb8a67","ios":"levelo://app?vid=45d42749-bb1f-4519-afb3-ca4cc8cb8a67"},"vehicle_type_id":"4","last_reported":1741216157,"current_range_meters":11600,"station_id":"ce4bh112rcd13ifvqda0","pricing_plan_id":"cebpf4jnsgd1na2vs0mg"},{"bike_id":"3acabc1e-11c2-491e-bc5d-b11d8884d3d4","system_id":"levelo_inurba_marseille","lat":43.28679,"lon":5.38668,"is_reserved":false,"is_disabled":false,"rental_uris":{"android":"levelo://app?vid=3acabc1e-11c2-491e-bc5d-b11d8884d3d4","ios":"levelo://app?vid=3acabc1e-11c2-491e-bc5d-b11d8884d3d4"},"vehicle_type_id":"4","last_reported":1741216157,"current_range_meters":12000,"station_id":"ce4bh492rcd13ifvqdug","pricing_plan_id":"cebpf4jnsgd1na2vs0mg"},{"bike_id":"74a63579-bd95-4004-bc32-847563b58f84","system_id":"levelo_inurba_marseille","lat":43.2928,"lon":5.40153,"is_reserved":false,"is_disabled":false,"rental_uris":{"android":"levelo://app?vid=74a63579-bd95-4004-bc32-847563b58f84","ios":"levelo://app?vid=74a63579-bd95-4004-bc32-847563b58f84"},"vehicle_type_id":"4","last_reported":1741216157,"current_range_meters":12000,"station_id":"ce4bh312rcd13ifvqdk0","pricing_plan_id":"cebpf4jnsgd1na2vs0mg"},{"bike_id":"42f3fd83-d5cd-45ba-afcf-0a822294d812","system_id":"levelo_inurba_marseille","lat":43.28581,"lon":5.42993,"is_reserved":false,"is_disabled":true,"rental_uris":{"android":"levelo://app?vid=42f3fd83-d5cd-45ba-afcf-0a822294d812","ios":"levelo://app?vid=42f3fd83-d5cd-45ba-afcf-0a822294d812"},"vehicle_type_id":"4","last_reported":1741216157,"current_range_meters":12000,"station_id":"","pricing_plan_id":"cebpf4jnsgd1na2vs0mg"},{"bike_id":"68ef834d-889d-4e9d-a3ec-8ff7b2ee7906","system_id":"levelo_inurba_marseille","lat":43.26943,"lon":5.4026,"is_reserved":false,"is_disabled":false,"rental_uris":{"android":"levelo://app?vid=68ef834d-889d-4e9d-a3ec-8ff7b2ee7906","ios":"levelo://app?vid=68ef834d-889d-4e9d-a3ec-8ff7b2ee7906"},"vehicle_type_id":"4","last_reported":1741216157,"current_range_meters":12000,"station_id":"cjm6bp8fraef2m0cb0m0","pricing_plan_id":"cebpf4jnsgd1na2vs0mg"},{"bike_id":"a04945a2-f46f-4a31-934c-e5afa1784de6","system_id":"levelo_inurba_marseille","lat":43.28655,"lon":5.36339,"is_reserved":false,"is_disabled":false,"rental_uris":{"android":"levelo://app?vid=a04945a2-f46f-4a31-934c-e5afa1784de6","ios":"levelo://app?vid=a04945a2-f46f-4a31-934c-e5afa1784de6"},"vehicle_type_id":"4","last_reported":1741216157,"current_range_meters":12000,"station_id":"ce4bhah2rcd13ifvqej0","pricing_plan_id":"cebpf4jnsgd1na2vs0mg"},{"bike_id":"e728093b-3b35-4216-b7be-152e2148a5ab","system_id":"levelo_inurba_marseille","lat":43.3118,"lon":5.38703,"is_reserved":false,"is_disabled":false,"rental_uris":{"android":"levelo://app?vid=e728093b-3b35-4216-b7be-152e2148a5ab","ios":"levelo://app?vid=e728093b-3b35-4216-b7be-152e2148a5ab"},"vehicle_type_id":"4","last_reported":1741216157,"current_range_meters":12000,"station_id":"ce4bgv12rcd13ifvqcp0","pricing_plan_id":"cebpf4jnsgd1na2vs0mg"},{"bike_id":"bc1ff28f-0226-4fe1-bb42-0a1e2869659e","system_id":"levelo_inurba_marseille","lat":43.323635,"lon":5.388955,"is_reserved":false,"is_disabled":false,"rental_uris":{"android":"levelo://app?vid=bc1ff28f-0226-4fe1-bb42-0a1e2869659e","ios":"levelo://app?vid=bc1ff28f-0226-4fe1-bb42-0a1e2869659e"},"vehicle_type_id":"4","last_reported":1741216157,"current_range_meters":12000,"station_id":"ce4bhqp2rcd13ifvqhog","pricing_plan_id":"cebpf4jnsgd1na2vs0mg"},{"bike_id":"6bb40379-a505-4b1d-9282-b739c69ec956","system_id":"levelo_inurba_marseille","lat":43.286123,"lon":5.351003,"is_reserved":false,"is_disabled":false,"rental_uris":{"android":"levelo://app?vid=6bb40379-a505-4b1d-9282-b739c69ec956","ios":"levelo://app?vid=6bb40379-a505-4b1d-9282-b739c69ec956"},"vehicle_type_id":"4","last_reported":1741216157,"current_range_meters":12400,"station_id":"ce4bhch2rcd13ifvqeug","pricing_plan_id":"cebpf4jnsgd1na2vs0mg"},{"bike_id":"f1de27ae-3d8e-4836-97b8-6107465c3cf9","system_id":"levelo_inurba_marseille","lat":43.31287,"lon":5.40163,"is_reserved":false,"is_disabled":false,"rental_uris":{"android":"levelo://app?vid=f1de27ae-3d8e-4836-97b8-6107465c3cf9","ios":"levelo://app?vid=f1de27ae-3d8e-4836-97b8-6107465c3cf9"},"vehicle_type_id":"4","last_reported":1741216157,"current_range_meters":12400,"station_id":"ce4bh092rcd13ifvqd30","pricing_plan_id":"cebpf4jnsgd1na2vs0mg"},{"bike_id":"ee66fa00-5e3e-4f40-8479-381855f5cd2f","system_id":"levelo_inurba_marseille","lat":43.31275,"lon":5.40168,"is_reserved":false,"is_disabled":false,"rental_uris":{"android":"levelo://app?vid=ee66fa00-5e3e-4f40-8479-381855f5cd2f","ios":"levelo://app?vid=ee66fa00-5e3e-4f40-8479-381855f5cd2f"},"vehicle_type_id":"4","last_reported":1741216157,"current_range_meters":12400,"station_id":"ce4bh092rcd13ifvqd30","pricing_plan_id":"cebpf4jnsgd1na2vs0mg"},{"bike_id":"914147a8-d380-43d5-983f-713a517df702","system_id":"levelo_inurba_marseille","lat":43.28047,"lon":5.36947,"is_reserved":false,"is_disabled":false,"rental_uris":{"android":"levelo://app?vid=914147a8-d380-43d5-983f-713a517df702","ios":"levelo://app?vid=914147a8-d380-43d5-983f-713a517df702"},"vehicle_type_id":"4","last_reported":1741216157,"current_range_meters":12400,"station_id":"ce4bha12rcd13ifvqef0","pricing_plan_id":"cebpf4jnsgd1na2vs0mg"},{"bike_id":"fa793503-34be-4099-bcaf-634c852293fa","system_id":"levelo_inurba_marseille","lat":43.2928,"lon":5.40908,"is_reserved":false,"is_disabled":false,"rental_uris":{"android":"levelo://app?vid=fa793503-34be-4099-bcaf-634c852293fa","ios":"levelo://app?vid=fa793503-34be-4099-bcaf-634c852293fa"},"vehicle_type_id":"4","last_reported":1741216157,"current_range_meters":12400,"station_id":"ce4bh192rcd13ifvqdc0","pricing_plan_id":"cebpf4jnsgd1na2vs0mg"},{"bike_id":"deccb326-0579-4f88-8ded-8a796f163b88","system_id":"levelo_inurba_marseille","lat":43.31425,"lon":5.37604,"is_reserved":false,"is_disabled":false,"rental_uris":{"android":"levelo://app?vid=deccb326-0579-4f88-8ded-8a796f163b88","ios":"levelo://app?vid=deccb326-0579-4f88-8ded-8a796f163b88"},"vehicle_type_id":"4","last_reported":1741216157,"current_range_meters":12400,"station_id":"","pricing_plan_id":"cebpf4jnsgd1na2vs0mg"},{"bike_id":"be74d6e7-9922-4500-b00d-d407c7efd950","system_id":"levelo_inurba_marseille","lat":43.29165,"lon":5.39324,"is_reserved":false,"is_disabled":false,"rental_uris":{"android":"levelo://app?vid=be74d6e7-9922-4500-b00d-d407c7efd950","ios":"levelo://app?vid=be74d6e7-9922-4500-b00d-d407c7efd950"},"vehicle_type_id":"4","last_reported":1741216157,"current_range_meters":12400,"station_id":"ce4bh192rcd13ifvqdd0","pricing_plan_id":"cebpf4jnsgd1na2vs0mg"},{"bike_id":"58e06900-8a07-44fe-9b07-04dcd95039bb","system_id":"levelo_inurba_marseille","lat":43.29526,"lon":5.39033,"is_reserved":false,"is_disabled":false,"rental_uris":{"android":"levelo://app?vid=58e06900-8a07-44fe-9b07-04dcd95039bb","ios":"levelo://app?vid=58e06900-8a07-44fe-9b07-04dcd95039bb"},"vehicle_type_id":"4","last_reported":1741216157,"current_range_meters":12400,"station_id":"ce4bh3p2rcd13ifvqdp0","pricing_plan_id":"cebpf4jnsgd1na2vs0mg"},{"bike_id":"e0c0bec3-454a-410d-a60f-3aed516ec149","system_id":"levelo_inurba_marseille","lat":43.23193,"lon":5.35544,"is_reserved":false,"is_disabled":false,"rental_uris":{"android":"levelo://app?vid=e0c0bec3-454a-410d-a60f-3aed516ec149","ios":"levelo://app?vid=e0c0bec3-454a-410d-a60f-3aed516ec149"},"vehicle_type_id":"4","last_reported":1741216157,"current_range_meters":12800,"station_id":"ce4bhu92rcd13ifvqi70","pricing_plan_id":"cebpf4jnsgd1na2vs0mg"},{"bike_id":"ff2e342c-3d88-42ae-91bf-190182bc0dd6","system_id":"levelo_inurba_marseille","lat":43.29248,"lon":5.38249,"is_reserved":false,"is_disabled":false,"rental_uris":{"android":"levelo://app?vid=ff2e342c-3d88-42ae-91bf-190182bc0dd6","ios":"levelo://app?vid=ff2e342c-3d88-42ae-91bf-190182bc0dd6"},"vehicle_type_id":"4","last_reported":1741216157,"current_range_meters":12800,"station_id":"","pricing_plan_id":"cebpf4jnsgd1na2vs0mg"},{"bike_id":"6394fffa-9b9b-4bbe-9197-995fa28b7814","system_id":"levelo_inurba_marseille","lat":43.25114,"lon":5.40326,"is_reserved":false,"is_disabled":false,"rental_uris":{"android":"levelo://app?vid=6394fffa-9b9b-4bbe-9197-995fa28b7814","ios":"levelo://app?vid=6394fffa-9b9b-4bbe-9197-995fa28b7814"},"vehicle_type_id":"4","last_reported":1741216157,"current_range_meters":12800,"station_id":"ce4bhlh2rcd13ifvqgig","pricing_plan_id":"cebpf4jnsgd1na2vs0mg"},{"bike_id":"86e22e2e-1377-40d8-98ad-809a6dd0ba82","system_id":"levelo_inurba_marseille","lat":43.29523,"lon":5.39041,"is_reserved":false,"is_disabled":false,"rental_uris":{"android":"levelo://app?vid=86e22e2e-1377-40d8-98ad-809a6dd0ba82","ios":"levelo://app?vid=86e22e2e-1377-40d8-98ad-809a6dd0ba82"},"vehicle_type_id":"4","last_reported":1741216157,"current_range_meters":12800,"station_id":"ce4bh3p2rcd13ifvqdp0","pricing_plan_id":"cebpf4jnsgd1na2vs0mg"},{"bike_id":"7f1905bf-da4d-4f13-af14-c5d46804e585","system_id":"levelo_inurba_marseille","lat":43.23191,"lon":5.35553,"is_reserved":false,"is_disabled":false,"rental_uris":{"android":"levelo://app?vid=7f1905bf-da4d-4f13-af14-c5d46804e585","ios":"levelo://app?vid=7f1905bf-da4d-4f13-af14-c5d46804e585"},"vehicle_type_id":"4","last_reported":1741216157,"current_range_meters":12800,"station_id":"ce4bhu92rcd13ifvqi70","pricing_plan_id":"cebpf4jnsgd1na2vs0mg"},{"bike_id":"0b3cb245-c1ab-4265-9e03-36f6b9bfa685","system_id":"levelo_inurba_marseille","lat":43.230661,"lon":5.354963,"is_reserved":false,"is_disabled":false,"rental_uris":{"android":"levelo://app?vid=0b3cb245-c1ab-4265-9e03-36f6b9bfa685","ios":"levelo://app?vid=0b3cb245-c1ab-4265-9e03-36f6b9bfa685"},"vehicle_type_id":"4","last_reported":1741216157,"current_range_meters":12800,"station_id":"cpo3342slgdg3j2ifvpg","pricing_plan_id":"cebpf4jnsgd1na2vs0mg"},{"bike_id":"ff51cf58-fb92-49b3-99ce-0d368460e499","system_id":"levelo_inurba_marseille","lat":43.28728,"lon":5.36082,"is_reserved":false,"is_disabled":false,"rental_uris":{"android":"levelo://app?vid=ff51cf58-fb92-49b3-99ce-0d368460e499","ios":"levelo://app?vid=ff51cf58-fb92-49b3-99ce-0d368460e499"},"vehicle_type_id":"4","last_reported":1741216157,"current_range_meters":12800,"station_id":"cki0cbj6b192h4jlfktg","pricing_plan_id":"cebpf4jnsgd1na2vs0mg"},{"bike_id":"be5b5be4-7dee-46a7-ab79-b3a611383c0a","system_id":"levelo_inurba_marseille","lat":43.29273,"lon":5.3684,"is_reserved":false,"is_disabled":false,"rental_uris":{"android":"levelo://app?vid=be5b5be4-7dee-46a7-ab79-b3a611383c0a","ios":"levelo://app?vid=be5b5be4-7dee-46a7-ab79-b3a611383c0a"},"vehicle_type_id":"4","last_reported":1741216157,"current_range_meters":12800,"station_id":"ce4bhbp2rcd13ifvqesg","pricing_plan_id":"cebpf4jnsgd1na2vs0mg"},{"bike_id":"51a8be7e-5a3d-48ec-85be-f518408342f1","system_id":"levelo_inurba_marseille","lat":43.28557,"lon":5.3948,"is_reserved":false,"is_disabled":false,"rental_uris":{"android":"levelo://app?vid=51a8be7e-5a3d-48ec-85be-f518408342f1","ios":"levelo://app?vid=51a8be7e-5a3d-48ec-85be-f518408342f1"},"vehicle_type_id":"4","last_reported":1741216157,"current_range_meters":13600,"station_id":"ce4bh292rcd13ifvqdg0","pricing_plan_id":"cebpf4jnsgd1na2vs0mg"},{"bike_id":"be729f67-932d-49df-8d81-8923a9f58426","system_id":"levelo_inurba_marseille","lat":43.301452,"lon":5.380824,"is_reserved":false,"is_disabled":false,"rental_uris":{"android":"levelo://app?vid=be729f67-932d-49df-8d81-8923a9f58426","ios":"levelo://app?vid=be729f67-932d-49df-8d81-8923a9f58426"},"vehicle_type_id":"4","last_reported":1741216157,"current_range_meters":13600,"station_id":"ce4bh692rcd13ifvqea0","pricing_plan_id":"cebpf4jnsgd1na2vs0mg"},{"bike_id":"798f52ab-1bd2-434a-bdbb-3aa2b12aba00","system_id":"levelo_inurba_marseille","lat":43.30308,"lon":5.39214,"is_reserved":false,"is_disabled":false,"rental_uris":{"android":"levelo://app?vid=798f52ab-1bd2-434a-bdbb-3aa2b12aba00","ios":"levelo://app?vid=798f52ab-1bd2-434a-bdbb-3aa2b12aba00"},"vehicle_type_id":"4","last_reported":1741216157,"current_range_meters":13600,"station_id":"ce4bgkh2rcd13ifvqbk0","pricing_plan_id":"cebpf4jnsgd1na2vs0mg"},{"bike_id":"a0d8f949-6ee3-4689-9b5f-0c06c75b65f6","system_id":"levelo_inurba_marseille","lat":43.28083,"lon":5.39659,"is_reserved":false,"is_disabled":false,"rental_uris":{"android":"levelo://app?vid=a0d8f949-6ee3-4689-9b5f-0c06c75b65f6","ios":"levelo://app?vid=a0d8f949-6ee3-4689-9b5f-0c06c75b65f6"},"vehicle_type_id":"4","last_reported":1741216157,"current_range_meters":13600,"station_id":"ce4bho12rcd13ifvqh2g","pricing_plan_id":"cebpf4jnsgd1na2vs0mg"},{"bike_id":"f9db2d5e-0699-4d6b-9624-26432a2c1bca","system_id":"levelo_inurba_marseille","lat":43.31461,"lon":5.37397,"is_reserved":false,"is_disabled":false,"rental_uris":{"android":"levelo://app?vid=f9db2d5e-0699-4d6b-9624-26432a2c1bca","ios":"levelo://app?vid=f9db2d5e-0699-4d6b-9624-26432a2c1bca"},"vehicle_type_id":"4","last_reported":1741216157,"current_range_meters":14000,"station_id":"","pricing_plan_id":"cebpf4jnsgd1na2vs0mg"},{"bike_id":"dcb948dd-915a-4b7e-9b88-af73b6bfe74d","system_id":"levelo_inurba_marseille","lat":43.30139,"lon":5.38777,"is_reserved":false,"is_disabled":false,"rental_uris":{"android":"levelo://app?vid=dcb948dd-915a-4b7e-9b88-af73b6bfe74d","ios":"levelo://app?vid=dcb948dd-915a-4b7e-9b88-af73b6bfe74d"},"vehicle_type_id":"4","last_reported":1741216157,"current_range_meters":16000,"station_id":"ce4bghh2rcd13ifvqb60","pricing_plan_id":"cebpf4jnsgd1na2vs0mg"},{"bike_id":"fb9f92fa-9ac6-4487-92af-ff1b787a937a","system_id":"levelo_inurba_marseille","lat":43.28945,"lon":5.36394,"is_reserved":false,"is_disabled":false,"rental_uris":{"android":"levelo://app?vid=fb9f92fa-9ac6-4487-92af-ff1b787a937a","ios":"levelo://app?vid=fb9f92fa-9ac6-4487-92af-ff1b787a937a"},"vehicle_type_id":"4","last_reported":1741216157,"current_range_meters":14000,"station_id":"ce4bhc92rcd13ifvqetg","pricing_plan_id":"cebpf4jnsgd1na2vs0mg"},{"bike_id":"7e0cefc8-f6d3-4bec-982e-6298590db47b","system_id":"levelo_inurba_marseille","lat":43.31325,"lon":5.39682,"is_reserved":false,"is_disabled":false,"rental_uris":{"android":"levelo://app?vid=7e0cefc8-f6d3-4bec-982e-6298590db47b","ios":"levelo://app?vid=7e0cefc8-f6d3-4bec-982e-6298590db47b"},"vehicle_type_id":"4","last_reported":1741216157,"current_range_meters":14000,"station_id":"ce4bgvp2rcd13ifvqcu0","pricing_plan_id":"cebpf4jnsgd1na2vs0mg"},{"bike_id":"d03f70ac-e3d9-456e-98a8-9f729a774a45","system_id":"levelo_inurba_marseille","lat":43.24394,"lon":5.37057,"is_reserved":false,"is_disabled":false,"rental_uris":{"android":"levelo://app?vid=d03f70ac-e3d9-456e-98a8-9f729a774a45","ios":"levelo://app?vid=d03f70ac-e3d9-456e-98a8-9f729a774a45"},"vehicle_type_id":"4","last_reported":1741216157,"current_range_meters":14400,"station_id":"ce4bhhh2rcd13ifvqfk0","pricing_plan_id":"cebpf4jnsgd1na2vs0mg"},{"bike_id":"2718847d-082f-4b81-ac5a-e40d2905b2cf","system_id":"levelo_inurba_marseille","lat":43.29262,"lon":5.36844,"is_reserved":false,"is_disabled":false,"rental_uris":{"android":"levelo://app?vid=2718847d-082f-4b81-ac5a-e40d2905b2cf","ios":"levelo://app?vid=2718847d-082f-4b81-ac5a-e40d2905b2cf"},"vehicle_type_id":"4","last_reported":1741216157,"current_range_meters":14400,"station_id":"ce4bhbp2rcd13ifvqesg","pricing_plan_id":"cebpf4jnsgd1na2vs0mg"},{"bike_id":"6a10ab3a-3ca6-4b1f-815c-473ed184eb58","system_id":"levelo_inurba_marseille","lat":43.296933,"lon":5.376993,"is_reserved":false,"is_disabled":true,"rental_uris":{"android":"levelo://app?vid=6a10ab3a-3ca6-4b1f-815c-473ed184eb58","ios":"levelo://app?vid=6a10ab3a-3ca6-4b1f-815c-473ed184eb58"},"vehicle_type_id":"4","last_reported":1741216157,"current_range_meters":14400,"station_id":"ce4bgkh2rcd13ifvqbl0","pricing_plan_id":"cebpf4jnsgd1na2vs0mg"},{"bike_id":"256ec39e-52a0-462f-859c-5a80cf63590f","system_id":"levelo_inurba_marseille","lat":43.28176,"lon":5.42643,"is_reserved":false,"is_disabled":false,"rental_uris":{"android":"levelo://app?vid=256ec39e-52a0-462f-859c-5a80cf63590f","ios":"levelo://app?vid=256ec39e-52a0-462f-859c-5a80cf63590f"},"vehicle_type_id":"4","last_reported":1741216157,"current_range_meters":14400,"station_id":"ce4bhnh2rcd13ifvqgug","pricing_plan_id":"cebpf4jnsgd1na2vs0mg"},{"bike_id":"878123d8-d52c-4fdd-9ba7-0d773e16eb8e","system_id":"levelo_inurba_marseille","lat":43.29986,"lon":5.38485,"is_reserved":false,"is_disabled":false,"rental_uris":{"android":"levelo://app?vid=878123d8-d52c-4fdd-9ba7-0d773e16eb8e","ios":"levelo://app?vid=878123d8-d52c-4fdd-9ba7-0d773e16eb8e"},"vehicle_type_id":"4","last_reported":1741216157,"current_range_meters":14400,"station_id":"ce4bgj92rcd13ifvqbd0","pricing_plan_id":"cebpf4jnsgd1na2vs0mg"},{"bike_id":"5767adce-4b87-4fa6-ab5a-cd6bc1f79831","system_id":"levelo_inurba_marseille","lat":43.29598,"lon":5.40213,"is_reserved":false,"is_disabled":false,"rental_uris":{"android":"levelo://app?vid=5767adce-4b87-4fa6-ab5a-cd6bc1f79831","ios":"levelo://app?vid=5767adce-4b87-4fa6-ab5a-cd6bc1f79831"},"vehicle_type_id":"4","last_reported":1741216157,"current_range_meters":14400,"station_id":"","pricing_plan_id":"cebpf4jnsgd1na2vs0mg"},{"bike_id":"0517a25a-d00b-4054-b951-373e8b48f78e","system_id":"levelo_inurba_marseille","lat":43.2978,"lon":5.37097,"is_reserved":false,"is_disabled":false,"rental_uris":{"android":"levelo://app?vid=0517a25a-d00b-4054-b951-373e8b48f78e","ios":"levelo://app?vid=0517a25a-d00b-4054-b951-373e8b48f78e"},"vehicle_type_id":"4","last_reported":1741216157,"current_range_meters":14400,"station_id":"ce4bgop2rcd13ifvqc1g","pricing_plan_id":"cebpf4jnsgd1na2vs0mg"},{"bike_id":"724e87ed-cb25-4934-9e86-2688c0a65c03","system_id":"levelo_inurba_marseille","lat":43.30891,"lon":5.39647,"is_reserved":false,"is_disabled":false,"rental_uris":{"android":"levelo://app?vid=724e87ed-cb25-4934-9e86-2688c0a65c03","ios":"levelo://app?vid=724e87ed-cb25-4934-9e86-2688c0a65c03"},"vehicle_type_id":"4","last_reported":1741216157,"current_range_meters":14800,"station_id":"ce4bh012rcd13ifvqcv0","pricing_plan_id":"cebpf4jnsgd1na2vs0mg"},{"bike_id":"fc73acfd-664c-4967-92b1-6ee1fdf4bc1d","system_id":"levelo_inurba_marseille","lat":43.31076,"lon":5.3835,"is_reserved":false,"is_disabled":false,"rental_uris":{"android":"levelo://app?vid=fc73acfd-664c-4967-92b1-6ee1fdf4bc1d","ios":"levelo://app?vid=fc73acfd-664c-4967-92b1-6ee1fdf4bc1d"},"vehicle_type_id":"4","last_reported":1741216157,"current_range_meters":14800,"station_id":"ce4bgv92rcd13ifvqcr0","pricing_plan_id":"cebpf4jnsgd1na2vs0mg"},{"bike_id":"4e1cdc49-af7b-47c8-9d94-cfe80a7f541e","system_id":"levelo_inurba_marseille","lat":43.28909,"lon":5.36438,"is_reserved":false,"is_disabled":false,"rental_uris":{"android":"levelo://app?vid=4e1cdc49-af7b-47c8-9d94-cfe80a7f541e","ios":"levelo://app?vid=4e1cdc49-af7b-47c8-9d94-cfe80a7f541e"},"vehicle_type_id":"4","last_reported":1741216157,"current_range_meters":14800,"station_id":"","pricing_plan_id":"cebpf4jnsgd1na2vs0mg"},{"bike_id":"d3f2ea16-6d7c-48f4-b8ec-0a80ff6f7a15","system_id":"levelo_inurba_marseille","lat":43.29889,"lon":5.39753,"is_reserved":false,"is_disabled":false,"rental_uris":{"android":"levelo://app?vid=d3f2ea16-6d7c-48f4-b8ec-0a80ff6f7a15","ios":"levelo://app?vid=d3f2ea16-6d7c-48f4-b8ec-0a80ff6f7a15"},"vehicle_type_id":"4","last_reported":1741216157,"current_range_meters":14800,"station_id":"ce4bh0h2rcd13ifvqd50","pricing_plan_id":"cebpf4jnsgd1na2vs0mg"},{"bike_id":"b155d284-1c54-43f5-8fb2-ad80469ed17b","system_id":"levelo_inurba_marseille","lat":43.30122,"lon":5.37407,"is_reserved":false,"is_disabled":false,"rental_uris":{"android":"levelo://app?vid=b155d284-1c54-43f5-8fb2-ad80469ed17b","ios":"levelo://app?vid=b155d284-1c54-43f5-8fb2-ad80469ed17b"},"vehicle_type_id":"4","last_reported":1741216157,"current_range_meters":14800,"station_id":"ce4bgs92rcd13ifvqcc0","pricing_plan_id":"cebpf4jnsgd1na2vs0mg"},{"bike_id":"6b0ab485-d469-4369-87d5-d8a589ffc853","system_id":"levelo_inurba_marseille","lat":43.31166,"lon":5.38714,"is_reserved":false,"is_disabled":false,"rental_uris":{"android":"levelo://app?vid=6b0ab485-d469-4369-87d5-d8a589ffc853","ios":"levelo://app?vid=6b0ab485-d469-4369-87d5-d8a589ffc853"},"vehicle_type_id":"4","last_reported":1741216157,"current_range_meters":15200,"station_id":"ce4bgv12rcd13ifvqcp0","pricing_plan_id":"cebpf4jnsgd1na2vs0mg"},{"bike_id":"cb23fa5e-5019-40d7-a239-c075baf0c85b","system_id":"levelo_inurba_marseille","lat":43.28942,"lon":5.36622,"is_reserved":false,"is_disabled":false,"rental_uris":{"android":"levelo://app?vid=cb23fa5e-5019-40d7-a239-c075baf0c85b","ios":"levelo://app?vid=cb23fa5e-5019-40d7-a239-c075baf0c85b"},"vehicle_type_id":"4","last_reported":1741216157,"current_range_meters":16000,"station_id":"ce4bhap2rcd13ifvqek0","pricing_plan_id":"cebpf4jnsgd1na2vs0mg"},{"bike_id":"e968ab12-e24e-4ebd-b6f9-fd2efbd300aa","system_id":"levelo_inurba_marseille","lat":43.28411,"lon":5.37544,"is_reserved":false,"is_disabled":false,"rental_uris":{"android":"levelo://app?vid=e968ab12-e24e-4ebd-b6f9-fd2efbd300aa","ios":"levelo://app?vid=e968ab12-e24e-4ebd-b6f9-fd2efbd300aa"},"vehicle_type_id":"4","last_reported":1741216157,"current_range_meters":15200,"station_id":"ce4bh412rcd13ifvqds0","pricing_plan_id":"cebpf4jnsgd1na2vs0mg"},{"bike_id":"4b5578d7-475b-4974-bf94-ea90abd6dfb2","system_id":"levelo_inurba_marseille","lat":43.292622,"lon":5.384355,"is_reserved":false,"is_disabled":false,"rental_uris":{"android":"levelo://app?vid=4b5578d7-475b-4974-bf94-ea90abd6dfb2","ios":"levelo://app?vid=4b5578d7-475b-4974-bf94-ea90abd6dfb2"},"vehicle_type_id":"4","last_reported":1741216157,"current_range_meters":15200,"station_id":"ce4bh412rcd13ifvqdr0","pricing_plan_id":"cebpf4jnsgd1na2vs0mg"},{"bike_id":"c70eb9b9-6298-4221-9ef7-c3cac70a59e9","system_id":"levelo_inurba_marseille","lat":43.31127,"lon":5.37757,"is_reserved":false,"is_disabled":false,"rental_uris":{"android":"levelo://app?vid=c70eb9b9-6298-4221-9ef7-c3cac70a59e9","ios":"levelo://app?vid=c70eb9b9-6298-4221-9ef7-c3cac70a59e9"},"vehicle_type_id":"4","last_reported":1741216157,"current_range_meters":15200,"station_id":"ce4bgt92rcd13ifvqcg0","pricing_plan_id":"cebpf4jnsgd1na2vs0mg"},{"bike_id":"acf20595-7755-43d3-8c8f-296b234b0f1b","system_id":"levelo_inurba_marseille","lat":43.25096,"lon":5.41063,"is_reserved":false,"is_disabled":false,"rental_uris":{"android":"levelo://app?vid=acf20595-7755-43d3-8c8f-296b234b0f1b","ios":"levelo://app?vid=acf20595-7755-43d3-8c8f-296b234b0f1b"},"vehicle_type_id":"4","last_reported":1741216157,"current_range_meters":15200,"station_id":"","pricing_plan_id":"cebpf4jnsgd1na2vs0mg"},{"bike_id":"ad05156c-dca3-4b58-ab47-0d31971b1af7","system_id":"levelo_inurba_marseille","lat":43.28035,"lon":5.36952,"is_reserved":false,"is_disabled":false,"rental_uris":{"android":"levelo://app?vid=ad05156c-dca3-4b58-ab47-0d31971b1af7","ios":"levelo://app?vid=ad05156c-dca3-4b58-ab47-0d31971b1af7"},"vehicle_type_id":"4","last_reported":1741216157,"current_range_meters":15200,"station_id":"ce4bha12rcd13ifvqef0","pricing_plan_id":"cebpf4jnsgd1na2vs0mg"},{"bike_id":"7cb5d2b6-f1df-489c-aae3-6fd46b81c378","system_id":"levelo_inurba_marseille","lat":43.30803,"lon":5.4352,"is_reserved":false,"is_disabled":false,"rental_uris":{"android":"levelo://app?vid=7cb5d2b6-f1df-489c-aae3-6fd46b81c378","ios":"levelo://app?vid=7cb5d2b6-f1df-489c-aae3-6fd46b81c378"},"vehicle_type_id":"4","last_reported":1741216157,"current_range_meters":15200,"station_id":"ce4bhph2rcd13ifvqheg","pricing_plan_id":"cebpf4jnsgd1na2vs0mg"},{"bike_id":"d38d2814-fddd-4741-82cf-424351788984","system_id":"levelo_inurba_marseille","lat":43.30895,"lon":5.39627,"is_reserved":false,"is_disabled":false,"rental_uris":{"android":"levelo://app?vid=d38d2814-fddd-4741-82cf-424351788984","ios":"levelo://app?vid=d38d2814-fddd-4741-82cf-424351788984"},"vehicle_type_id":"4","last_reported":1741216157,"current_range_meters":16000,"station_id":"ce4bh012rcd13ifvqcv0","pricing_plan_id":"cebpf4jnsgd1na2vs0mg"},{"bike_id":"d86f8736-019e-42bc-8e26-7fa7feba3e20","system_id":"levelo_inurba_marseille","lat":43.31175,"lon":5.38727,"is_reserved":false,"is_disabled":false,"rental_uris":{"android":"levelo://app?vid=d86f8736-019e-42bc-8e26-7fa7feba3e20","ios":"levelo://app?vid=d86f8736-019e-42bc-8e26-7fa7feba3e20"},"vehicle_type_id":"4","last_reported":1741216157,"current_range_meters":16000,"station_id":"ce4bgv12rcd13ifvqcp0","pricing_plan_id":"cebpf4jnsgd1na2vs0mg"},{"bike_id":"ef33791b-fe73-41a7-bfe2-2c890402d267","system_id":"levelo_inurba_marseille","lat":43.25118,"lon":5.4033,"is_reserved":false,"is_disabled":false,"rental_uris":{"android":"levelo://app?vid=ef33791b-fe73-41a7-bfe2-2c890402d267","ios":"levelo://app?vid=ef33791b-fe73-41a7-bfe2-2c890402d267"},"vehicle_type_id":"4","last_reported":1741216157,"current_range_meters":16000,"station_id":"ce4bhlh2rcd13ifvqgig","pricing_plan_id":"cebpf4jnsgd1na2vs0mg"},{"bike_id":"98a1abc3-601b-4576-b2df-57cfbfeb024d","system_id":"levelo_inurba_marseille","lat":43.28113,"lon":5.37851,"is_reserved":false,"is_disabled":false,"rental_uris":{"android":"levelo://app?vid=98a1abc3-601b-4576-b2df-57cfbfeb024d","ios":"levelo://app?vid=98a1abc3-601b-4576-b2df-57cfbfeb024d"},"vehicle_type_id":"4","last_reported":1741216157,"current_range_meters":16000,"station_id":"ce4bha12rcd13ifvqee0","pricing_plan_id":"cebpf4jnsgd1na2vs0mg"},{"bike_id":"802b43c6-5d88-4b4d-a6cb-b145221d4110","system_id":"levelo_inurba_marseille","lat":43.2811,"lon":5.39882,"is_reserved":false,"is_disabled":false,"rental_uris":{"android":"levelo://app?vid=802b43c6-5d88-4b4d-a6cb-b145221d4110","ios":"levelo://app?vid=802b43c6-5d88-4b4d-a6cb-b145221d4110"},"vehicle_type_id":"4","last_reported":1741216157,"current_range_meters":16000,"station_id":"","pricing_plan_id":"cebpf4jnsgd1na2vs0mg"},{"bike_id":"2c4b72f9-e647-4fd3-91da-cf17b9f18912","system_id":"levelo_inurba_marseille","lat":43.28456,"lon":5.35889,"is_reserved":false,"is_disabled":false,"rental_uris":{"android":"levelo://app?vid=2c4b72f9-e647-4fd3-91da-cf17b9f18912","ios":"levelo://app?vid=2c4b72f9-e647-4fd3-91da-cf17b9f18912"},"vehicle_type_id":"4","last_reported":1741216157,"current_range_meters":16400,"station_id":"ce4bhah2rcd13ifvqei0","pricing_plan_id":"cebpf4jnsgd1na2vs0mg"},{"bike_id":"eb349d4a-0d99-4439-8882-617b17acaea4","system_id":"levelo_inurba_marseille","lat":43.29168,"lon":5.35786,"is_reserved":false,"is_disabled":false,"rental_uris":{"android":"levelo://app?vid=eb349d4a-0d99-4439-8882-617b17acaea4","ios":"levelo://app?vid=eb349d4a-0d99-4439-8882-617b17acaea4"},"vehicle_type_id":"4","last_reported":1741216157,"current_range_meters":16400,"station_id":"ce4bhb12rcd13ifvqel0","pricing_plan_id":"cebpf4jnsgd1na2vs0mg"},{"bike_id":"8f593b2b-33d3-4438-b2b3-24a50b84e470","system_id":"levelo_inurba_marseille","lat":43.2871,"lon":5.37402,"is_reserved":false,"is_disabled":false,"rental_uris":{"android":"levelo://app?vid=8f593b2b-33d3-4438-b2b3-24a50b84e470","ios":"levelo://app?vid=8f593b2b-33d3-4438-b2b3-24a50b84e470"},"vehicle_type_id":"4","last_reported":1741216157,"current_range_meters":16400,"station_id":"ce4bh3p2rcd13ifvqdq0","pricing_plan_id":"cebpf4jnsgd1na2vs0mg"},{"bike_id":"c14b6503-2e17-44b7-94d1-bab10892ad04","system_id":"levelo_inurba_marseille","lat":43.30432,"lon":5.3889,"is_reserved":false,"is_disabled":false,"rental_uris":{"android":"levelo://app?vid=c14b6503-2e17-44b7-94d1-bab10892ad04","ios":"levelo://app?vid=c14b6503-2e17-44b7-94d1-bab10892ad04"},"vehicle_type_id":"4","last_reported":1741216157,"current_range_meters":16400,"station_id":"ce4bgk12rcd13ifvqbi0","pricing_plan_id":"cebpf4jnsgd1na2vs0mg"},{"bike_id":"070f0b28-933a-491f-9593-eed632e613d2","system_id":"levelo_inurba_marseille","lat":43.3373,"lon":5.3919,"is_reserved":false,"is_disabled":false,"rental_uris":{"android":"levelo://app?vid=070f0b28-933a-491f-9593-eed632e613d2","ios":"levelo://app?vid=070f0b28-933a-491f-9593-eed632e613d2"},"vehicle_type_id":"4","last_reported":1741216157,"current_range_meters":16400,"station_id":"ce4bhr92rcd13ifvqhsg","pricing_plan_id":"cebpf4jnsgd1na2vs0mg"},{"bike_id":"1bc0c6d0-7e10-4b8d-a0c9-084dbeb3f1f3","system_id":"levelo_inurba_marseille","lat":43.30904,"lon":5.39648,"is_reserved":false,"is_disabled":false,"rental_uris":{"android":"levelo://app?vid=1bc0c6d0-7e10-4b8d-a0c9-084dbeb3f1f3","ios":"levelo://app?vid=1bc0c6d0-7e10-4b8d-a0c9-084dbeb3f1f3"},"vehicle_type_id":"4","last_reported":1741216157,"current_range_meters":16400,"station_id":"ce4bh012rcd13ifvqcv0","pricing_plan_id":"cebpf4jnsgd1na2vs0mg"},{"bike_id":"dae77719-96f1-4615-ae17-b42ddec1f9e5","system_id":"levelo_inurba_marseille","lat":43.30928,"lon":5.40152,"is_reserved":false,"is_disabled":false,"rental_uris":{"android":"levelo://app?vid=dae77719-96f1-4615-ae17-b42ddec1f9e5","ios":"levelo://app?vid=dae77719-96f1-4615-ae17-b42ddec1f9e5"},"vehicle_type_id":"4","last_reported":1741216157,"current_range_meters":16400,"station_id":"ce4bgvp2rcd13ifvqct0","pricing_plan_id":"cebpf4jnsgd1na2vs0mg"},{"bike_id":"534f692f-ad8d-4728-8091-3677e2e78a71","system_id":"levelo_inurba_marseille","lat":43.31282,"lon":5.40163,"is_reserved":false,"is_disabled":false,"rental_uris":{"android":"levelo://app?vid=534f692f-ad8d-4728-8091-3677e2e78a71","ios":"levelo://app?vid=534f692f-ad8d-4728-8091-3677e2e78a71"},"vehicle_type_id":"4","last_reported":1741216157,"current_range_meters":16400,"station_id":"ce4bh092rcd13ifvqd30","pricing_plan_id":"cebpf4jnsgd1na2vs0mg"},{"bike_id":"79768bc4-4d0f-4898-a41b-3cd47d9fd307","system_id":"levelo_inurba_marseille","lat":43.29186,"lon":5.3932,"is_reserved":false,"is_disabled":false,"rental_uris":{"android":"levelo://app?vid=79768bc4-4d0f-4898-a41b-3cd47d9fd307","ios":"levelo://app?vid=79768bc4-4d0f-4898-a41b-3cd47d9fd307"},"vehicle_type_id":"4","last_reported":1741216157,"current_range_meters":16800,"station_id":"ce4bh192rcd13ifvqdd0","pricing_plan_id":"cebpf4jnsgd1na2vs0mg"},{"bike_id":"c51db13a-a06f-4139-8d70-19d1ca743b27","system_id":"levelo_inurba_marseille","lat":43.29244,"lon":5.40907,"is_reserved":false,"is_disabled":false,"rental_uris":{"android":"levelo://app?vid=c51db13a-a06f-4139-8d70-19d1ca743b27","ios":"levelo://app?vid=c51db13a-a06f-4139-8d70-19d1ca743b27"},"vehicle_type_id":"4","last_reported":1741216157,"current_range_meters":16400,"station_id":"ce4bh192rcd13ifvqdc0","pricing_plan_id":"cebpf4jnsgd1na2vs0mg"},{"bike_id":"23714e89-8ebe-4845-b4cd-a367dd2ec934","system_id":"levelo_inurba_marseille","lat":43.28033,"lon":5.36942,"is_reserved":false,"is_disabled":false,"rental_uris":{"android":"levelo://app?vid=23714e89-8ebe-4845-b4cd-a367dd2ec934","ios":"levelo://app?vid=23714e89-8ebe-4845-b4cd-a367dd2ec934"},"vehicle_type_id":"4","last_reported":1741216157,"current_range_meters":16800,"station_id":"ce4bha12rcd13ifvqef0","pricing_plan_id":"cebpf4jnsgd1na2vs0mg"},{"bike_id":"7b03c6e1-c2ef-42d4-aa33-4839f4aab7d8","system_id":"levelo_inurba_marseille","lat":43.31178,"lon":5.38725,"is_reserved":false,"is_disabled":false,"rental_uris":{"android":"levelo://app?vid=7b03c6e1-c2ef-42d4-aa33-4839f4aab7d8","ios":"levelo://app?vid=7b03c6e1-c2ef-42d4-aa33-4839f4aab7d8"},"vehicle_type_id":"4","last_reported":1741216157,"current_range_meters":16800,"station_id":"ce4bgv12rcd13ifvqcp0","pricing_plan_id":"cebpf4jnsgd1na2vs0mg"},{"bike_id":"7940066d-cd24-41b6-836e-1355fc2b9e03","system_id":"levelo_inurba_marseille","lat":43.23199,"lon":5.35555,"is_reserved":false,"is_disabled":false,"rental_uris":{"android":"levelo://app?vid=7940066d-cd24-41b6-836e-1355fc2b9e03","ios":"levelo://app?vid=7940066d-cd24-41b6-836e-1355fc2b9e03"},"vehicle_type_id":"4","last_reported":1741216157,"current_range_meters":16800,"station_id":"ce4bhu92rcd13ifvqi70","pricing_plan_id":"cebpf4jnsgd1na2vs0mg"},{"bike_id":"b4eca92e-f557-43df-a620-caa0a4c6d751","system_id":"levelo_inurba_marseille","lat":43.28346,"lon":5.38121,"is_reserved":false,"is_disabled":false,"rental_uris":{"android":"levelo://app?vid=b4eca92e-f557-43df-a620-caa0a4c6d751","ios":"levelo://app?vid=b4eca92e-f557-43df-a620-caa0a4c6d751"},"vehicle_type_id":"4","last_reported":1741216157,"current_range_meters":16800,"station_id":"ce4bh412rcd13ifvqdr0","pricing_plan_id":"cebpf4jnsgd1na2vs0mg"},{"bike_id":"c0b7ddde-74bf-4be4-b818-5eb6dcd58992","system_id":"levelo_inurba_marseille","lat":43.30472,"lon":5.36885,"is_reserved":false,"is_disabled":false,"rental_uris":{"android":"levelo://app?vid=c0b7ddde-74bf-4be4-b818-5eb6dcd58992","ios":"levelo://app?vid=c0b7ddde-74bf-4be4-b818-5eb6dcd58992"},"vehicle_type_id":"4","last_reported":1741216157,"current_range_meters":16800,"station_id":"","pricing_plan_id":"cebpf4jnsgd1na2vs0mg"},{"bike_id":"f927a9c8-5d84-472f-b8fd-88f2fc3bc3e6","system_id":"levelo_inurba_marseille","lat":43.29889,"lon":5.43661,"is_reserved":false,"is_disabled":false,"rental_uris":{"android":"levelo://app?vid=f927a9c8-5d84-472f-b8fd-88f2fc3bc3e6","ios":"levelo://app?vid=f927a9c8-5d84-472f-b8fd-88f2fc3bc3e6"},"vehicle_type_id":"4","last_reported":1741216157,"current_range_meters":16800,"station_id":"ce4bhpp2rcd13ifvqhfg","pricing_plan_id":"cebpf4jnsgd1na2vs0mg"},{"bike_id":"e6990386-06c3-4397-8da9-81e5924527f9","system_id":"levelo_inurba_marseille","lat":43.30881,"lon":5.39618,"is_reserved":false,"is_disabled":false,"rental_uris":{"android":"levelo://app?vid=e6990386-06c3-4397-8da9-81e5924527f9","ios":"levelo://app?vid=e6990386-06c3-4397-8da9-81e5924527f9"},"vehicle_type_id":"4","last_reported":1741216157,"current_range_meters":16800,"station_id":"ce4bh012rcd13ifvqcv0","pricing_plan_id":"cebpf4jnsgd1na2vs0mg"},{"bike_id":"e901a469-bda6-426c-b33a-0c54ede01695","system_id":"levelo_inurba_marseille","lat":43.28747,"lon":5.39942,"is_reserved":false,"is_disabled":false,"rental_uris":{"android":"levelo://app?vid=e901a469-bda6-426c-b33a-0c54ede01695","ios":"levelo://app?vid=e901a469-bda6-426c-b33a-0c54ede01695"},"vehicle_type_id":"4","last_reported":1741216157,"current_range_meters":16800,"station_id":"ce4bho92rcd13ifvqh3g","pricing_plan_id":"cebpf4jnsgd1na2vs0mg"},{"bike_id":"c7cc2e21-7839-4548-a071-c42358a9f239","system_id":"levelo_inurba_marseille","lat":43.23181,"lon":5.39994,"is_reserved":false,"is_disabled":false,"rental_uris":{"android":"levelo://app?vid=c7cc2e21-7839-4548-a071-c42358a9f239","ios":"levelo://app?vid=c7cc2e21-7839-4548-a071-c42358a9f239"},"vehicle_type_id":"4","last_reported":1741216157,"current_range_meters":16800,"station_id":"ce4bhn12rcd13ifvqgqg","pricing_plan_id":"cebpf4jnsgd1na2vs0mg"},{"bike_id":"52b19b0a-896e-4508-971e-9b8862ef11d0","system_id":"levelo_inurba_marseille","lat":43.23062,"lon":5.35516,"is_reserved":false,"is_disabled":false,"rental_uris":{"android":"levelo://app?vid=52b19b0a-896e-4508-971e-9b8862ef11d0","ios":"levelo://app?vid=52b19b0a-896e-4508-971e-9b8862ef11d0"},"vehicle_type_id":"4","last_reported":1741216157,"current_range_meters":17200,"station_id":"cpo3342slgdg3j2ifvpg","pricing_plan_id":"cebpf4jnsgd1na2vs0mg"},{"bike_id":"f2896ecd-b24b-46c4-8d75-7e3bebc05adf","system_id":"levelo_inurba_marseille","lat":43.295322,"lon":5.385532,"is_reserved":false,"is_disabled":true,"rental_uris":{"android":"levelo://app?vid=f2896ecd-b24b-46c4-8d75-7e3bebc05adf","ios":"levelo://app?vid=f2896ecd-b24b-46c4-8d75-7e3bebc05adf"},"vehicle_type_id":"4","last_reported":1741216157,"current_range_meters":17200,"station_id":"ce4bgih2rcd13ifvqba0","pricing_plan_id":"cebpf4jnsgd1na2vs0mg"},{"bike_id":"e0954015-a7a6-4b57-aae3-24a6e2b0aa77","system_id":"levelo_inurba_marseille","lat":43.31179,"lon":5.38741,"is_reserved":false,"is_disabled":false,"rental_uris":{"android":"levelo://app?vid=e0954015-a7a6-4b57-aae3-24a6e2b0aa77","ios":"levelo://app?vid=e0954015-a7a6-4b57-aae3-24a6e2b0aa77"},"vehicle_type_id":"4","last_reported":1741216157,"current_range_meters":17200,"station_id":"ce4bgv12rcd13ifvqcp0","pricing_plan_id":"cebpf4jnsgd1na2vs0mg"},{"bike_id":"5d8f97c1-37e7-4fec-9109-7a661427c571","system_id":"levelo_inurba_marseille","lat":43.25854,"lon":5.39938,"is_reserved":false,"is_disabled":false,"rental_uris":{"android":"levelo://app?vid=5d8f97c1-37e7-4fec-9109-7a661427c571","ios":"levelo://app?vid=5d8f97c1-37e7-4fec-9109-7a661427c571"},"vehicle_type_id":"4","last_reported":1741216157,"current_range_meters":17200,"station_id":"ce4bhl92rcd13ifvqghg","pricing_plan_id":"cebpf4jnsgd1na2vs0mg"},{"bike_id":"8be95900-fe01-4e0f-bcd3-986662e5ae74","system_id":"levelo_inurba_marseille","lat":43.29793,"lon":5.39341,"is_reserved":false,"is_disabled":false,"rental_uris":{"android":"levelo://app?vid=8be95900-fe01-4e0f-bcd3-986662e5ae74","ios":"levelo://app?vid=8be95900-fe01-4e0f-bcd3-986662e5ae74"},"vehicle_type_id":"4","last_reported":1741216157,"current_range_meters":17200,"station_id":"chh1huq6cuj3fo74tm60","pricing_plan_id":"cebpf4jnsgd1na2vs0mg"},{"bike_id":"1b4345f6-bcd7-41e8-9b81-bc19e085535b","system_id":"levelo_inurba_marseille","lat":43.30208,"lon":5.39472,"is_reserved":false,"is_disabled":false,"rental_uris":{"android":"levelo://app?vid=1b4345f6-bcd7-41e8-9b81-bc19e085535b","ios":"levelo://app?vid=1b4345f6-bcd7-41e8-9b81-bc19e085535b"},"vehicle_type_id":"4","last_reported":1741216157,"current_range_meters":17200,"station_id":"ce4bh0p2rcd13ifvqd70","pricing_plan_id":"cebpf4jnsgd1na2vs0mg"},{"bike_id":"559455e8-8bf3-4d72-8a6f-807575181c13","system_id":"levelo_inurba_marseille","lat":43.307821,"lon":5.376551,"is_reserved":false,"is_disabled":false,"rental_uris":{"android":"levelo://app?vid=559455e8-8bf3-4d72-8a6f-807575181c13","ios":"levelo://app?vid=559455e8-8bf3-4d72-8a6f-807575181c13"},"vehicle_type_id":"4","last_reported":1741216157,"current_range_meters":17200,"station_id":"ce4bgv92rcd13ifvqcq0","pricing_plan_id":"cebpf4jnsgd1na2vs0mg"},{"bike_id":"56b1f576-c4c6-45e7-96df-e53d1aac2436","system_id":"levelo_inurba_marseille","lat":43.2417,"lon":5.39726,"is_reserved":false,"is_disabled":false,"rental_uris":{"android":"levelo://app?vid=56b1f576-c4c6-45e7-96df-e53d1aac2436","ios":"levelo://app?vid=56b1f576-c4c6-45e7-96df-e53d1aac2436"},"vehicle_type_id":"4","last_reported":1741216157,"current_range_meters":17200,"station_id":"ce4bhn12rcd13ifvqgpg","pricing_plan_id":"cebpf4jnsgd1na2vs0mg"},{"bike_id":"1ce73fc8-5e6a-426a-a749-9c319445278a","system_id":"levelo_inurba_marseille","lat":43.30932,"lon":5.40155,"is_reserved":false,"is_disabled":false,"rental_uris":{"android":"levelo://app?vid=1ce73fc8-5e6a-426a-a749-9c319445278a","ios":"levelo://app?vid=1ce73fc8-5e6a-426a-a749-9c319445278a"},"vehicle_type_id":"4","last_reported":1741216157,"current_range_meters":17200,"station_id":"ce4bgvp2rcd13ifvqct0","pricing_plan_id":"cebpf4jnsgd1na2vs0mg"},{"bike_id":"da06cee7-9c66-4de6-ae2d-a635f3494258","system_id":"levelo_inurba_marseille","lat":43.23205,"lon":5.39974,"is_reserved":false,"is_disabled":false,"rental_uris":{"android":"levelo://app?vid=da06cee7-9c66-4de6-ae2d-a635f3494258","ios":"levelo://app?vid=da06cee7-9c66-4de6-ae2d-a635f3494258"},"vehicle_type_id":"4","last_reported":1741216157,"current_range_meters":17200,"station_id":"ce4bhn12rcd13ifvqgqg","pricing_plan_id":"cebpf4jnsgd1na2vs0mg"},{"bike_id":"bb28022a-4355-4afa-b83a-4eae974deb26","system_id":"levelo_inurba_marseille","lat":43.29936,"lon":5.36563,"is_reserved":false,"is_disabled":false,"rental_uris":{"android":"levelo://app?vid=bb28022a-4355-4afa-b83a-4eae974deb26","ios":"levelo://app?vid=bb28022a-4355-4afa-b83a-4eae974deb26"},"vehicle_type_id":"4","last_reported":1741216157,"current_range_meters":17600,"station_id":"ce4bgm92rcd13ifvqbr0","pricing_plan_id":"cebpf4jnsgd1na2vs0mg"},{"bike_id":"0c42294f-59cf-49a6-8c3e-a35ca1a75377","system_id":"levelo_inurba_marseille","lat":43.23147,"lon":5.43723,"is_reserved":false,"is_disabled":false,"rental_uris":{"android":"levelo://app?vid=0c42294f-59cf-49a6-8c3e-a35ca1a75377","ios":"levelo://app?vid=0c42294f-59cf-49a6-8c3e-a35ca1a75377"},"vehicle_type_id":"4","last_reported":1741216157,"current_range_meters":17600,"station_id":"ce4bhmp2rcd13ifvqgog","pricing_plan_id":"cebpf4jnsgd1na2vs0mg"},{"bike_id":"594cc1b1-cc9e-4a36-b127-5c66c54f3649","system_id":"levelo_inurba_marseille","lat":43.28093,"lon":5.37867,"is_reserved":false,"is_disabled":false,"rental_uris":{"android":"levelo://app?vid=594cc1b1-cc9e-4a36-b127-5c66c54f3649","ios":"levelo://app?vid=594cc1b1-cc9e-4a36-b127-5c66c54f3649"},"vehicle_type_id":"4","last_reported":1741216157,"current_range_meters":17600,"station_id":"ce4bha12rcd13ifvqee0","pricing_plan_id":"cebpf4jnsgd1na2vs0mg"},{"bike_id":"ed0a1c87-782b-4da6-8bf9-56d35209e4f5","system_id":"levelo_inurba_marseille","lat":43.30932,"lon":5.40144,"is_reserved":false,"is_disabled":false,"rental_uris":{"android":"levelo://app?vid=ed0a1c87-782b-4da6-8bf9-56d35209e4f5","ios":"levelo://app?vid=ed0a1c87-782b-4da6-8bf9-56d35209e4f5"},"vehicle_type_id":"4","last_reported":1741216157,"current_range_meters":17600,"station_id":"ce4bgvp2rcd13ifvqct0","pricing_plan_id":"cebpf4jnsgd1na2vs0mg"},{"bike_id":"e1d60e05-43d1-4849-943e-84ad91ebb194","system_id":"levelo_inurba_marseille","lat":43.28656,"lon":5.36358,"is_reserved":false,"is_disabled":false,"rental_uris":{"android":"levelo://app?vid=e1d60e05-43d1-4849-943e-84ad91ebb194","ios":"levelo://app?vid=e1d60e05-43d1-4849-943e-84ad91ebb194"},"vehicle_type_id":"4","last_reported":1741216157,"current_range_meters":17600,"station_id":"ce4bhah2rcd13ifvqej0","pricing_plan_id":"cebpf4jnsgd1na2vs0mg"},{"bike_id":"00c9bea9-7d78-4435-8261-fa49c68fd27f","system_id":"levelo_inurba_marseille","lat":43.26032,"lon":5.41751,"is_reserved":false,"is_disabled":false,"rental_uris":{"android":"levelo://app?vid=00c9bea9-7d78-4435-8261-fa49c68fd27f","ios":"levelo://app?vid=00c9bea9-7d78-4435-8261-fa49c68fd27f"},"vehicle_type_id":"4","last_reported":1741216157,"current_range_meters":17600,"station_id":"","pricing_plan_id":"cebpf4jnsgd1na2vs0mg"},{"bike_id":"5364eef5-c670-47e5-972f-0e98a92c6b40","system_id":"levelo_inurba_marseille","lat":43.28926,"lon":5.36407,"is_reserved":false,"is_disabled":false,"rental_uris":{"android":"levelo://app?vid=5364eef5-c670-47e5-972f-0e98a92c6b40","ios":"levelo://app?vid=5364eef5-c670-47e5-972f-0e98a92c6b40"},"vehicle_type_id":"4","last_reported":1741216157,"current_range_meters":17600,"station_id":"ce4bhc92rcd13ifvqetg","pricing_plan_id":"cebpf4jnsgd1na2vs0mg"},{"bike_id":"f7336e5a-04ed-4c03-9d25-b8e9e2da06c5","system_id":"levelo_inurba_marseille","lat":43.30931,"lon":5.40144,"is_reserved":false,"is_disabled":false,"rental_uris":{"android":"levelo://app?vid=f7336e5a-04ed-4c03-9d25-b8e9e2da06c5","ios":"levelo://app?vid=f7336e5a-04ed-4c03-9d25-b8e9e2da06c5"},"vehicle_type_id":"4","last_reported":1741216157,"current_range_meters":18000,"station_id":"ce4bgvp2rcd13ifvqct0","pricing_plan_id":"cebpf4jnsgd1na2vs0mg"},{"bike_id":"319edd99-d3cc-4c44-8d21-08fc748866cd","system_id":"levelo_inurba_marseille","lat":43.28457,"lon":5.3588,"is_reserved":false,"is_disabled":false,"rental_uris":{"android":"levelo://app?vid=319edd99-d3cc-4c44-8d21-08fc748866cd","ios":"levelo://app?vid=319edd99-d3cc-4c44-8d21-08fc748866cd"},"vehicle_type_id":"4","last_reported":1741216157,"current_range_meters":18000,"station_id":"ce4bhah2rcd13ifvqei0","pricing_plan_id":"cebpf4jnsgd1na2vs0mg"},{"bike_id":"5f2ddb45-c527-40e0-a86d-ac468676d5da","system_id":"levelo_inurba_marseille","lat":43.29053,"lon":5.35907,"is_reserved":false,"is_disabled":false,"rental_uris":{"android":"levelo://app?vid=5f2ddb45-c527-40e0-a86d-ac468676d5da","ios":"levelo://app?vid=5f2ddb45-c527-40e0-a86d-ac468676d5da"},"vehicle_type_id":"4","last_reported":1741216157,"current_range_meters":18000,"station_id":"ce4bha92rcd13ifvqeg0","pricing_plan_id":"cebpf4jnsgd1na2vs0mg"},{"bike_id":"d9ff3617-2120-408e-a9c1-1c1d3bb9c3b6","system_id":"levelo_inurba_marseille","lat":43.27916,"lon":5.39577,"is_reserved":false,"is_disabled":false,"rental_uris":{"android":"levelo://app?vid=d9ff3617-2120-408e-a9c1-1c1d3bb9c3b6","ios":"levelo://app?vid=d9ff3617-2120-408e-a9c1-1c1d3bb9c3b6"},"vehicle_type_id":"4","last_reported":1741216157,"current_range_meters":18000,"station_id":"ce4bhf92rcd13ifvqf40","pricing_plan_id":"cebpf4jnsgd1na2vs0mg"},{"bike_id":"724c5348-33ed-4db7-9ad0-9a1f4ce43d05","system_id":"levelo_inurba_marseille","lat":43.28917,"lon":5.36408,"is_reserved":false,"is_disabled":true,"rental_uris":{"android":"levelo://app?vid=724c5348-33ed-4db7-9ad0-9a1f4ce43d05","ios":"levelo://app?vid=724c5348-33ed-4db7-9ad0-9a1f4ce43d05"},"vehicle_type_id":"4","last_reported":1741216157,"current_range_meters":18000,"station_id":"ce4bhc92rcd13ifvqetg","pricing_plan_id":"cebpf4jnsgd1na2vs0mg"},{"bike_id":"6fe0f6ed-f530-4c71-91f5-a455f448fc7f","system_id":"levelo_inurba_marseille","lat":43.28937,"lon":5.38388,"is_reserved":false,"is_disabled":false,"rental_uris":{"android":"levelo://app?vid=6fe0f6ed-f530-4c71-91f5-a455f448fc7f","ios":"levelo://app?vid=6fe0f6ed-f530-4c71-91f5-a455f448fc7f"},"vehicle_type_id":"4","last_reported":1741216157,"current_range_meters":18000,"station_id":"ce4bh612rcd13ifvqe6g","pricing_plan_id":"cebpf4jnsgd1na2vs0mg"},{"bike_id":"d0873e3f-ad6e-42a7-84f7-5e0b2b855259","system_id":"levelo_inurba_marseille","lat":43.28501,"lon":5.39395,"is_reserved":false,"is_disabled":false,"rental_uris":{"android":"levelo://app?vid=d0873e3f-ad6e-42a7-84f7-5e0b2b855259","ios":"levelo://app?vid=d0873e3f-ad6e-42a7-84f7-5e0b2b855259"},"vehicle_type_id":"4","last_reported":1741216157,"current_range_meters":18000,"station_id":"ce4bh292rcd13ifvqdg0","pricing_plan_id":"cebpf4jnsgd1na2vs0mg"},{"bike_id":"a5c3b538-be82-4a26-aeba-688246823df6","system_id":"levelo_inurba_marseille","lat":43.31261,"lon":5.40181,"is_reserved":false,"is_disabled":false,"rental_uris":{"android":"levelo://app?vid=a5c3b538-be82-4a26-aeba-688246823df6","ios":"levelo://app?vid=a5c3b538-be82-4a26-aeba-688246823df6"},"vehicle_type_id":"4","last_reported":1741216157,"current_range_meters":18000,"station_id":"ce4bh092rcd13ifvqd30","pricing_plan_id":"cebpf4jnsgd1na2vs0mg"},{"bike_id":"f3ebaab3-470b-494d-91aa-9a14d4c7b5fa","system_id":"levelo_inurba_marseille","lat":43.28297,"lon":5.35068,"is_reserved":false,"is_disabled":false,"rental_uris":{"android":"levelo://app?vid=f3ebaab3-470b-494d-91aa-9a14d4c7b5fa","ios":"levelo://app?vid=f3ebaab3-470b-494d-91aa-9a14d4c7b5fa"},"vehicle_type_id":"4","last_reported":1741216157,"current_range_meters":18000,"station_id":"ce4bhbp2rcd13ifvqerg","pricing_plan_id":"cebpf4jnsgd1na2vs0mg"},{"bike_id":"f6886864-24d9-446e-843a-3a8c7cbefacd","system_id":"levelo_inurba_marseille","lat":43.27819,"lon":5.40724,"is_reserved":false,"is_disabled":false,"rental_uris":{"android":"levelo://app?vid=f6886864-24d9-446e-843a-3a8c7cbefacd","ios":"levelo://app?vid=f6886864-24d9-446e-843a-3a8c7cbefacd"},"vehicle_type_id":"4","last_reported":1741216157,"current_range_meters":18000,"station_id":"ce4bhnh2rcd13ifvqgtg","pricing_plan_id":"cebpf4jnsgd1na2vs0mg"},{"bike_id":"94512417-7e3b-48f9-b4db-2d349dac6212","system_id":"levelo_inurba_marseille","lat":43.31517,"lon":5.38049,"is_reserved":false,"is_disabled":false,"rental_uris":{"android":"levelo://app?vid=94512417-7e3b-48f9-b4db-2d349dac6212","ios":"levelo://app?vid=94512417-7e3b-48f9-b4db-2d349dac6212"},"vehicle_type_id":"4","last_reported":1741216157,"current_range_meters":18000,"station_id":"ce4bhsp2rcd13ifvqi50","pricing_plan_id":"cebpf4jnsgd1na2vs0mg"},{"bike_id":"d61b0e05-07ad-495c-8b81-ddc5d0307d04","system_id":"levelo_inurba_marseille","lat":43.30222,"lon":5.39472,"is_reserved":false,"is_disabled":false,"rental_uris":{"android":"levelo://app?vid=d61b0e05-07ad-495c-8b81-ddc5d0307d04","ios":"levelo://app?vid=d61b0e05-07ad-495c-8b81-ddc5d0307d04"},"vehicle_type_id":"4","last_reported":1741216157,"current_range_meters":18000,"station_id":"ce4bh0p2rcd13ifvqd70","pricing_plan_id":"cebpf4jnsgd1na2vs0mg"},{"bike_id":"32428e74-aaf3-46fb-b5a3-338ee9ed579c","system_id":"levelo_inurba_marseille","lat":43.29277,"lon":5.40121,"is_reserved":false,"is_disabled":false,"rental_uris":{"android":"levelo://app?vid=32428e74-aaf3-46fb-b5a3-338ee9ed579c","ios":"levelo://app?vid=32428e74-aaf3-46fb-b5a3-338ee9ed579c"},"vehicle_type_id":"4","last_reported":1741216157,"current_range_meters":18800,"station_id":"ce4bh312rcd13ifvqdk0","pricing_plan_id":"cebpf4jnsgd1na2vs0mg"},{"bike_id":"830f04a5-5c9e-4b8c-bb73-f391c53d8390","system_id":"levelo_inurba_marseille","lat":43.30663,"lon":5.40068,"is_reserved":false,"is_disabled":false,"rental_uris":{"android":"levelo://app?vid=830f04a5-5c9e-4b8c-bb73-f391c53d8390","ios":"levelo://app?vid=830f04a5-5c9e-4b8c-bb73-f391c53d8390"},"vehicle_type_id":"4","last_reported":1741216157,"current_range_meters":18000,"station_id":"ce4bh112rcd13ifvqda0","pricing_plan_id":"cebpf4jnsgd1na2vs0mg"},{"bike_id":"7489127a-2ef8-4410-a21b-9225697c6d41","system_id":"levelo_inurba_marseille","lat":43.29277,"lon":5.40111,"is_reserved":false,"is_disabled":false,"rental_uris":{"android":"levelo://app?vid=7489127a-2ef8-4410-a21b-9225697c6d41","ios":"levelo://app?vid=7489127a-2ef8-4410-a21b-9225697c6d41"},"vehicle_type_id":"4","last_reported":1741216157,"current_range_meters":18800,"station_id":"ce4bh312rcd13ifvqdk0","pricing_plan_id":"cebpf4jnsgd1na2vs0mg"},{"bike_id":"9d97ec4c-5b38-4abb-92a8-bb83304dccf9","system_id":"levelo_inurba_marseille","lat":43.30792,"lon":5.37638,"is_reserved":false,"is_disabled":false,"rental_uris":{"android":"levelo://app?vid=9d97ec4c-5b38-4abb-92a8-bb83304dccf9","ios":"levelo://app?vid=9d97ec4c-5b38-4abb-92a8-bb83304dccf9"},"vehicle_type_id":"4","last_reported":1741216157,"current_range_meters":18800,"station_id":"ce4bgv92rcd13ifvqcq0","pricing_plan_id":"cebpf4jnsgd1na2vs0mg"},{"bike_id":"96dc0f48-2896-436c-8466-a121faff54f7","system_id":"levelo_inurba_marseille","lat":43.25086,"lon":5.39515,"is_reserved":false,"is_disabled":false,"rental_uris":{"android":"levelo://app?vid=96dc0f48-2896-436c-8466-a121faff54f7","ios":"levelo://app?vid=96dc0f48-2896-436c-8466-a121faff54f7"},