{"last_updated":1712405551,"ttl":30,"version":"2.2","data":{"bikes":[{"bike_id":"b1051b96-f9db-4e22-9114-9f5ece26613d","system_id":"levelo_inurba_marseille","lat":43.312239,"lon":5.368562,"is_reserved":false,"is_disabled":false,"rental_uris":{"android":"levelo://app?vid=b1051b96-f9db-4e22-9114-9f5ece26613d","ios":"levelo://app?vid=b1051b96-f9db-4e22-9114-9f5ece26613d"},"vehicle_type_id":"4","last_reported":1712405551,"current_range_meters":10000,"station_id":"ce4bgl92rcd13ifvqbq0","pricing_plan_id":"cebpf4jnsgd1na2vs0mg"},{"bike_id":"1ce600df-de7b-464a-8189-eac083a6584c","system_id":"levelo_inurba_marseille","lat":43.309076,"lon":5.368465,"is_reserved":false,"is_disabled":false,"rental_uris":{"android":"levelo://app?vid=1ce600df-de7b-464a-8189-eac083a6584c","ios":"levelo://app?vid=1ce600df-de7b-464a-8189-eac083a6584c"},"vehicle_type_id":"4","last_reported":1712405551,"current_range_meters":31600,"station_id":"ce4bgn92rcd13ifvqbvg","pricing_plan_id":"cebpf4jnsgd1na2vs0mg"},{"bike_id":"28e8a185-7e94-4342-b158-55a4661a18a0","system_id":"levelo_inurba_marseille","lat":43.314811,"lon":5.373103,"is_reserved":false,"is_disabled":false,"rental_uris":{"android":"levelo://app?vid=28e8a185-7e94-4342-b158-55a4661a18a0","ios":"levelo://app?vid=28e8a185-7e94-4342-b158-55a4661a18a0"},"vehicle_type_id":"4","last_reported":1712405551,"current_range_meters":29200,"station_id":"ce4bgt12rcd13ifvqcd0","pricing_plan_id":"cebpf4jnsgd1na2vs0mg"},{"bike_id":"f449b44d-8b8b-4900-96da-144c519b9da8","system_id":"levelo_inurba_marseille","lat":43.314811,"lon":5.373103,"is_reserved":false,"is_disabled":false,"rental_uris":{"android":"levelo://app?vid=f449b44d-8b8b-4900-96da-144c519b9da8","ios":"levelo://app?vid=f449b44d-8b8b-4900-96da-144c519b9da8"},"vehicle_type_id":"4","last_reported":1712405551,"current_range_meters":19200,"station_id":"ce4bgt12rcd13ifvqcd0","pricing_plan_id":"cebpf4jnsgd1na2vs0mg"},{"bike_id":"fdd7702b-bfb8-48c2-9765-52c9616d24d8","system_id":"levelo_inurba_marseille","lat":43.314811,"lon":5.373104,"is_reserved":false,"is_disabled":false,"rental_uris":{"android":"levelo://app?vid=fdd7702b-bfb8-48c2-9765-52c9616d24d8","ios":"levelo://app?vid=fdd7702b-bfb8-48c2-9765-52c9616d24d8"},"vehicle_type_id":"4","last_reported":1712405551,"current_range_meters":24400,"station_id":"ce4bgt12rcd13ifvqcd0","pricing_plan_id":"cebpf4jnsgd1na2vs0mg"},{"bike_id":"7b5fc869-0496-4b6c-ad3a-09578e33bba1","system_id":"levelo_inurba_marseille","lat":43.309039,"lon":5.371797,"is_reserved":false,"is_disabled":false,"rental_uris":{"android":"levelo://app?vid=7b5fc869-0496-4b6c-ad3a-09578e33bba1","ios":"levelo://app?vid=7b5fc869-0496-4b6c-ad3a-09578e33bba1"},"vehicle_type_id":"4","last_reported":1712405551,"current_range_meters":24400,"station_id":"ce4bguh2rcd13ifvqckg","pricing_plan_id":"cebpf4jnsgd1na2vs0mg"},{"bike_id":"673f0179-9581-40f6-a667-a3172f99006f","system_id":"levelo_inurba_marseille","lat":43.30538,"lon":5.36531,"is_reserved":false,"is_disabled":false,"rental_uris":{"android":"levelo://app?vid=673f0179-9581-40f6-a667-a3172f99006f","ios":"levelo://app?vid=673f0179-9581-40f6-a667-a3172f99006f"},"vehicle_type_id":"4","last_reported":1712405551,"current_range_meters":12400,"station_id":"ce4bgs12rcd13ifvqcag","pricing_plan_id":"cebpf4jnsgd1na2vs0mg"},{"bike_id":"e462ef97-07cf-4637-ac63-fa0bd8c8fcfa","system_id":"levelo_inurba_marseille","lat":43.30537,"lon":5.36534,"is_reserved":false,"is_disabled":false,"rental_uris":{"android":"levelo://app?vid=e462ef97-07cf-4637-ac63-fa0bd8c8fcfa","ios":"levelo://app?vid=e462ef97-07cf-4637-ac63-fa0bd8c8fcfa"},"vehicle_type_id":"4","last_reported":1712405551,"current_range_meters":13600,"station_id":"ce4bgs12rcd13ifvqcag","pricing_plan_id":"cebpf4jnsgd1na2vs0mg"},{"bike_id":"8790fc84-e63d-4f32-bd3b-f276645c4baa","system_id":"levelo_inurba_marseille","lat":43.305714,"lon":5.365633,"is_reserved":false,"is_disabled":false,"rental_uris":{"android":"levelo://app?vid=8790fc84-e63d-4f32-bd3b-f276645c4baa","ios":"levelo://app?vid=8790fc84-e63d-4f32-bd3b-f276645c4baa"},"vehicle_type_id":"4","last_reported":1712405551,"current_range_meters":26400,"station_id":"ce4bgs12rcd13ifvqcag","pricing_plan_id":"cebpf4jnsgd1na2vs0mg"},{"bike_id":"c2e286c2-b43b-4785-859a-5a1e8b5a0cca","system_id":"levelo_inurba_marseille","lat":43.30536,"lon":5.36537,"is_reserved":false,"is_disabled":false,"rental_uris":{"android":"levelo://app?vid=c2e286c2-b43b-4785-859a-5a1e8b5a0cca","ios":"levelo://app?vid=c2e286c2-b43b-4785-859a-5a1e8b5a0cca"},"vehicle_type_id":"4","last_reported":1712405551,"current_range_meters":27200,"station_id":"ce4bgs12rcd13ifvqcag","pricing_plan_id":"cebpf4jnsgd1na2vs0mg"},{"bike_id":"3c8ca875-ed62-4f5b-8d16-48c5ca1e0019","system_id":"levelo_inurba_marseille","lat":43.30534,"lon":5.3655,"is_reserved":false,"is_disabled":false,"rental_uris":{"android":"levelo://app?vid=3c8ca875-ed62-4f5b-8d16-48c5ca1e0019","ios":"levelo://app?vid=3c8ca875-ed62-4f5b-8d16-48c5ca1e0019"},"vehicle_type_id":"4","last_reported":1712405551,"current_range_meters":8400,"station_id":"ce4bgs12rcd13ifvqcag","pricing_plan_id":"cebpf4jnsgd1na2vs0mg"},{"bike_id":"d61c8383-bbd8-4ad5-9461-c76c4b5f19f2","system_id":"levelo_inurba_marseille","lat":43.305989,"lon":5.37225,"is_reserved":false,"is_disabled":false,"rental_uris":{"android":"levelo://app?vid=d61c8383-bbd8-4ad5-9461-c76c4b5f19f2","ios":"levelo://app?vid=d61c8383-bbd8-4ad5-9461-c76c4b5f19f2"},"vehicle_type_id":"4","last_reported":1712405551,"current_range_meters":29200,"station_id":"ce4bgqh2rcd13ifvqc4g","pricing_plan_id":"cebpf4jnsgd1na2vs0mg"},{"bike_id":"6232382d-7af8-41cf-8289-def0ea28bd1a","system_id":"levelo_inurba_marseille","lat":43.305989,"lon":5.37225,"is_reserved":false,"is_disabled":false,"rental_uris":{"android":"levelo://app?vid=6232382d-7af8-41cf-8289-def0ea28bd1a","ios":"levelo://app?vid=6232382d-7af8-41cf-8289-def0ea28bd1a"},"vehicle_type_id":"4","last_reported":1712405551,"current_range_meters":20800,"station_id":"ce4bgqh2rcd13ifvqc4g","pricing_plan_id":"cebpf4jnsgd1na2vs0mg"},{"bike_id":"1152e4f9-6801-4be4-b3e0-88b11decf9d4","system_id":"levelo_inurba_marseille","lat":43.305989,"lon":5.37225,"is_reserved":false,"is_disabled":false,"rental_uris":{"android":"levelo://app?vid=1152e4f9-6801-4be4-b3e0-88b11decf9d4","ios":"levelo://app?vid=1152e4f9-6801-4be4-b3e0-88b11decf9d4"},"vehicle_type_id":"4","last_reported":1712405551,"current_range_meters":22800,"station_id":"ce4bgqh2rcd13ifvqc4g","pricing_plan_id":"cebpf4jnsgd1na2vs0mg"},{"bike_id":"3838b448-e377-4c3a-ae60-710378497f95","system_id":"levelo_inurba_marseille","lat":43.305989,"lon":5.37225,"is_reserved":false,"is_disabled":false,"rental_uris":{"android":"levelo://app?vid=3838b448-e377-4c3a-ae60-710378497f95","ios":"levelo://app?vid=3838b448-e377-4c3a-ae60-710378497f95"},"vehicle_type_id":"4","last_reported":1712405551,"current_range_meters":30800,"station_id":"ce4bgqh2rcd13ifvqc4g","pricing_plan_id":"cebpf4jnsgd1na2vs0mg"},{"bike_id":"b1dc5edf-af26-4b36-a1d9-1c649dd1b703","system_id":"levelo_inurba_marseille","lat":43.305989,"lon":5.37225,"is_reserved":false,"is_disabled":false,"rental_uris":{"android":"levelo://app?vid=b1dc5edf-af26-4b36-a1d9-1c649dd1b703","ios":"levelo://app?vid=b1dc5edf-af26-4b36-a1d9-1c649dd1b703"},"vehicle_type_id":"4","last_reported":1712405551,"current_range_meters":0,"station_id":"ce4bgqh2rcd13ifvqc4g","pricing_plan_id":"cebpf4jnsgd1na2vs0mg"},{"bike_id":"980a418b-e568-4b81-97ca-bee4ddcdfbee","system_id":"levelo_inurba_marseille","lat":43.292644,"lon":5.384257,"is_reserved":false,"is_disabled":false,"rental_uris":{"android":"levelo://app?vid=980a418b-e568-4b81-97ca-bee4ddcdfbee","ios":"levelo://app?vid=980a418b-e568-4b81-97ca-bee4ddcdfbee"},"vehicle_type_id":"4","last_reported":1712405551,"current_range_meters":16400,"station_id":"ce4bh692rcd13ifvqea0","pricing_plan_id":"cebpf4jnsgd1na2vs0mg"},{"bike_id":"30562d06-5757-4339-9dc8-01abb1661ee9","system_id":"levelo_inurba_marseille","lat":43.311131,"lon":5.377651,"is_reserved":false,"is_disabled":false,"rental_uris":{"android":"levelo://app?vid=30562d06-5757-4339-9dc8-01abb1661ee9","ios":"levelo://app?vid=30562d06-5757-4339-9dc8-01abb1661ee9"},"vehicle_type_id":"4","last_reported":1712405551,"current_range_meters":7600,"station_id":"ce4bgt92rcd13ifvqcg0","pricing_plan_id":"cebpf4jnsgd1na2vs0mg"},{"bike_id":"cf66f74c-f5b8-41e4-81b0-ec5ec085ed81","system_id":"levelo_inurba_marseille","lat":43.311131,"lon":5.377651,"is_reserved":false,"is_disabled":false,"rental_uris":{"android":"levelo://app?vid=cf66f74c-f5b8-41e4-81b0-ec5ec085ed81","ios":"levelo://app?vid=cf66f74c-f5b8-41e4-81b0-ec5ec085ed81"},"vehicle_type_id":"4","last_reported":1712405551,"current_range_meters":10400,"station_id":"ce4bgt92rcd13ifvqcg0","pricing_plan_id":"cebpf4jnsgd1na2vs0mg"},{"bike_id":"e3917534-45c7-4356-aab1-3a0cb7da6c53","system_id":"levelo_inurba_marseille","lat":43.305989,"lon":5.37225,"is_reserved":false,"is_disabled":false,"rental_uris":{"android":"levelo://app?vid=e3917534-45c7-4356-aab1-3a0cb7da6c53","ios":"levelo://app?vid=e3917534-45c7-4356-aab1-3a0cb7da6c53"},"vehicle_type_id":"4","last_reported":1712405551,"current_range_meters":20800,"station_id":"ce4bgqh2rcd13ifvqc4g","pricing_plan_id":"cebpf4jnsgd1na2vs0mg"},{"bike_id":"e6cf3ca5-d9a1-412f-b945-defdf5ace169","system_id":"levelo_inurba_marseille","lat":43.307945,"lon":5.376487,"is_reserved":false,"is_disabled":false,"rental_uris":{"android":"levelo://app?vid=e6cf3ca5-d9a1-412f-b945-defdf5ace169","ios":"levelo://app?vid=e6cf3ca5-d9a1-412f-b945-defdf5ace169"},"vehicle_type_id":"4","last_reported":1712405551,"current_range_meters":15200,"station_id":"ce4bgv92rcd13ifvqcq0","pricing_plan_id":"cebpf4jnsgd1na2vs0mg"},{"bike_id":"10b6e677-6f10-4220-9cdc-488f8a849cab","system_id":"levelo_inurba_marseille","lat":43.311518,"lon":5.378436,"is_reserved":false,"is_disabled":false,"rental_uris":{"android":"levelo://app?vid=10b6e677-6f10-4220-9cdc-488f8a849cab","ios":"levelo://app?vid=10b6e677-6f10-4220-9cdc-488f8a849cab"},"vehicle_type_id":"4","last_reported":1712405551,"current_range_meters":0,"station_id":"","pricing_plan_id":"cebpf4jnsgd1na2vs0mg"},{"bike_id":"bbfed310-f5ca-41c8-bf3a-f83cd6959697","system_id":"levelo_inurba_marseille","lat":43.313254,"lon":5.37881,"is_reserved":false,"is_disabled":false,"rental_uris":{"android":"levelo://app?vid=bbfed310-f5ca-41c8-bf3a-f83cd6959697","ios":"levelo://app?vid=bbfed310-f5ca-41c8-bf3a-f83cd6959697"},"vehicle_type_id":"4","last_reported":1712405551,"current_range_meters":1600,"station_id":"","pricing_plan_id":"cebpf4jnsgd1na2vs0mg"},{"bike_id":"a649763d-11ee-4161-838d-efdf81ce8df7","system_id":"levelo_inurba_marseille","lat":43.308012,"lon":5.381511,"is_reserved":false,"is_disabled":false,"rental_uris":{"android":"levelo://app?vid=a649763d-11ee-4161-838d-efdf81ce8df7","ios":"levelo://app?vid=a649763d-11ee-4161-838d-efdf81ce8df7"},"vehicle_type_id":"4","last_reported":1712405551,"current_range_meters":21600,"station_id":"ce4bgt12rcd13ifvqce0","pricing_plan_id":"cebpf4jnsgd1na2vs0mg"},{"bike_id":"50007995-a724-45eb-ba04-0e1b0f2d0db6","system_id":"levelo_inurba_marseille","lat":43.304606,"lon":5.379026,"is_reserved":false,"is_disabled":false,"rental_uris":{"android":"levelo://app?vid=50007995-a724-45eb-ba04-0e1b0f2d0db6","ios":"levelo://app?vid=50007995-a724-45eb-ba04-0e1b0f2d0db6"},"vehicle_type_id":"4","last_reported":1712405551,"current_range_meters":18800,"station_id":"ce4bgup2rcd13ifvqcn0","pricing_plan_id":"cebpf4jnsgd1na2vs0mg"},{"bike_id":"a380718f-7f58-4cf9-8f51-a5f83e78e7cd","system_id":"levelo_inurba_marseille","lat":43.304606,"lon":5.379026,"is_reserved":false,"is_disabled":false,"rental_uris":{"android":"levelo://app?vid=a380718f-7f58-4cf9-8f51-a5f83e78e7cd","ios":"levelo://app?vid=a380718f-7f58-4cf9-8f51-a5f83e78e7cd"},"vehicle_type_id":"4","last_reported":1712405551,"current_range_meters":7200,"station_id":"ce4bgup2rcd13ifvqcn0","pricing_plan_id":"cebpf4jnsgd1na2vs0mg"},{"bike_id":"88e73151-b556-4056-87f4-41c3e0e01874","system_id":"levelo_inurba_marseille","lat":43.304606,"lon":5.379026,"is_reserved":false,"is_disabled":false,"rental_uris":{"android":"levelo://app?vid=88e73151-b556-4056-87f4-41c3e0e01874","ios":"levelo://app?vid=88e73151-b556-4056-87f4-41c3e0e01874"},"vehicle_type_id":"4","last_reported":1712405551,"current_range_meters":7200,"station_id":"ce4bgup2rcd13ifvqcn0","pricing_plan_id":"cebpf4jnsgd1na2vs0mg"},{"bike_id":"fd691b18-2198-452c-9c6a-78a3eb656fe2","system_id":"levelo_inurba_marseille","lat":43.304606,"lon":5.379026,"is_reserved":false,"is_disabled":false,"rental_uris":{"android":"levelo://app?vid=fd691b18-2198-452c-9c6a-78a3eb656fe2","ios":"levelo://app?vid=fd691b18-2198-452c-9c6a-78a3eb656fe2"},"vehicle_type_id":"4","last_reported":1712405551,"current_range_meters":11200,"station_id":"ce4bgup2rcd13ifvqcn0","pricing_plan_id":"cebpf4jnsgd1na2vs0mg"},{"bike_id":"72e056e2-fb67-4641-ab49-2a665cdf41c5","system_id":"levelo_inurba_marseille","lat":43.324741,"lon":5.365596,"is_reserved":false,"is_disabled":false,"rental_uris":{"android":"levelo://app?vid=72e056e2-fb67-4641-ab49-2a665cdf41c5","ios":"levelo://app?vid=72e056e2-fb67-4641-ab49-2a665cdf41c5"},"vehicle_type_id":"4","last_reported":1712405551,"current_range_meters":12000,"station_id":"ce4bhs12rcd13ifvqhvg","pricing_plan_id":"cebpf4jnsgd1na2vs0mg"},{"bike_id":"b74864f1-f387-41ad-82d1-87bf6c8990b3","system_id":"levelo_inurba_marseille","lat":43.304606,"lon":5.379026,"is_reserved":false,"is_disabled":false,"rental_uris":{"android":"levelo://app?vid=b74864f1-f387-41ad-82d1-87bf6c8990b3","ios":"levelo://app?vid=b74864f1-f387-41ad-82d1-87bf6c8990b3"},"vehicle_type_id":"4","last_reported":1712405551,"current_range_meters":11600,"station_id":"ce4bgup2rcd13ifvqcn0","pricing_plan_id":"cebpf4jnsgd1na2vs0mg"},{"bike_id":"baeba22e-8148-4db8-9b58-9bb8f2649397","system_id":"levelo_inurba_marseille","lat":43.304547,"lon":5.379071,"is_reserved":false,"is_disabled":false,"rental_uris":{"android":"levelo://app?vid=baeba22e-8148-4db8-9b58-9bb8f2649397","ios":"levelo://app?vid=baeba22e-8148-4db8-9b58-9bb8f2649397"},"vehicle_type_id":"4","last_reported":1712405551,"current_range_meters":22000,"station_id":"ce4bgup2rcd13ifvqcn0","pricing_plan_id":"cebpf4jnsgd1na2vs0mg"},{"bike_id":"94d78da4-06e1-4b17-ba77-7b3b262f5d9d","system_id":"levelo_inurba_marseille","lat":43.324771,"lon":5.36557,"is_reserved":false,"is_disabled":false,"rental_uris":{"android":"levelo://app?vid=94d78da4-06e1-4b17-ba77-7b3b262f5d9d","ios":"levelo://app?vid=94d78da4-06e1-4b17-ba77-7b3b262f5d9d"},"vehicle_type_id":"4","last_reported":1712405551,"current_range_meters":14000,"station_id":"ce4bhs12rcd13ifvqhvg","pricing_plan_id":"cebpf4jnsgd1na2vs0mg"},{"bike_id":"21f3a45e-1526-42f1-90c0-76ae1fdd7d43","system_id":"levelo_inurba_marseille","lat":43.32485,"lon":5.36556,"is_reserved":false,"is_disabled":false,"rental_uris":{"android":"levelo://app?vid=21f3a45e-1526-42f1-90c0-76ae1fdd7d43","ios":"levelo://app?vid=21f3a45e-1526-42f1-90c0-76ae1fdd7d43"},"vehicle_type_id":"4","last_reported":1712405551,"current_range_meters":15600,"station_id":"ce4bhs12rcd13ifvqhvg","pricing_plan_id":"cebpf4jnsgd1na2vs0mg"},{"bike_id":"4eca8582-1b3b-4390-817f-e9b1adebf443","system_id":"levelo_inurba_marseille","lat":43.31073,"lon":5.38348,"is_reserved":false,"is_disabled":false,"rental_uris":{"android":"levelo://app?vid=4eca8582-1b3b-4390-817f-e9b1adebf443","ios":"levelo://app?vid=4eca8582-1b3b-4390-817f-e9b1adebf443"},"vehicle_type_id":"4","last_reported":1712405551,"current_range_meters":29600,"station_id":"ce4bgv92rcd13ifvqcr0","pricing_plan_id":"cebpf4jnsgd1na2vs0mg"},{"bike_id":"60c0e4a1-d5e0-4743-b677-c378ebce208d","system_id":"levelo_inurba_marseille","lat":43.31076,"lon":5.3835,"is_reserved":false,"is_disabled":false,"rental_uris":{"android":"levelo://app?vid=60c0e4a1-d5e0-4743-b677-c378ebce208d","ios":"levelo://app?vid=60c0e4a1-d5e0-4743-b677-c378ebce208d"},"vehicle_type_id":"4","last_reported":1712405551,"current_range_meters":28400,"station_id":"ce4bgv92rcd13ifvqcr0","pricing_plan_id":"cebpf4jnsgd1na2vs0mg"},{"bike_id":"43523707-b524-4278-ada0-5eb00f5016d8","system_id":"levelo_inurba_marseille","lat":43.310677,"lon":5.383537,"is_reserved":false,"is_disabled":false,"rental_uris":{"android":"levelo://app?vid=43523707-b524-4278-ada0-5eb00f5016d8","ios":"levelo://app?vid=43523707-b524-4278-ada0-5eb00f5016d8"},"vehicle_type_id":"4","last_reported":1712405551,"current_range_meters":800,"station_id":"ce4bgv92rcd13ifvqcr0","pricing_plan_id":"cebpf4jnsgd1na2vs0mg"},{"bike_id":"ed1b50d7-16ab-4f29-a8af-14b173f1b067","system_id":"levelo_inurba_marseille","lat":43.31076,"lon":5.38358,"is_reserved":false,"is_disabled":false,"rental_uris":{"android":"levelo://app?vid=ed1b50d7-16ab-4f29-a8af-14b173f1b067","ios":"levelo://app?vid=ed1b50d7-16ab-4f29-a8af-14b173f1b067"},"vehicle_type_id":"4","last_reported":1712405551,"current_range_meters":0,"station_id":"ce4bgv92rcd13ifvqcr0","pricing_plan_id":"cebpf4jnsgd1na2vs0mg"},{"bike_id":"149560a7-b8c5-4ec7-9803-5a8f2f407831","system_id":"levelo_inurba_marseille","lat":43.302784,"lon":5.377158,"is_reserved":false,"is_disabled":false,"rental_uris":{"android":"levelo://app?vid=149560a7-b8c5-4ec7-9803-5a8f2f407831","ios":"levelo://app?vid=149560a7-b8c5-4ec7-9803-5a8f2f407831"},"vehicle_type_id":"4","last_reported":1712405551,"current_range_meters":31600,"station_id":"ce4bguh2rcd13ifvqcj0","pricing_plan_id":"cebpf4jnsgd1na2vs0mg"},{"bike_id":"54896ec9-9131-400d-b056-f03ff64f95fe","system_id":"levelo_inurba_marseille","lat":43.302784,"lon":5.377158,"is_reserved":false,"is_disabled":false,"rental_uris":{"android":"levelo://app?vid=54896ec9-9131-400d-b056-f03ff64f95fe","ios":"levelo://app?vid=54896ec9-9131-400d-b056-f03ff64f95fe"},"vehicle_type_id":"4","last_reported":1712405551,"current_range_meters":31600,"station_id":"ce4bguh2rcd13ifvqcj0","pricing_plan_id":"cebpf4jnsgd1na2vs0mg"},{"bike_id":"35fab69c-6065-4aae-9e9a-ad6cf97a84ea","system_id":"levelo_inurba_marseille","lat":43.302784,"lon":5.377158,"is_reserved":false,"is_disabled":false,"rental_uris":{"android":"levelo://app?vid=35fab69c-6065-4aae-9e9a-ad6cf97a84ea","ios":"levelo://app?vid=35fab69c-6065-4aae-9e9a-ad6cf97a84ea"},"vehicle_type_id":"4","last_reported":1712405551,"current_range_meters":19600,"station_id":"ce4bguh2rcd13ifvqcj0","pricing_plan_id":"cebpf4jnsgd1na2vs0mg"},{"bike_id":"3f752e7f-a9b6-4a4b-bc13-56650d59b965","system_id":"levelo_inurba_marseille","lat":43.302784,"lon":5.377158,"is_reserved":false,"is_disabled":false,"rental_uris":{"android":"levelo://app?vid=3f752e7f-a9b6-4a4b-bc13-56650d59b965","ios":"levelo://app?vid=3f752e7f-a9b6-4a4b-bc13-56650d59b965"},"vehicle_type_id":"4","last_reported":1712405551,"current_range_meters":28000,"station_id":"ce4bguh2rcd13ifvqcj0","pricing_plan_id":"cebpf4jnsgd1na2vs0mg"},{"bike_id":"d9583b12-0b53-450a-892d-e144f49398fa","system_id":"levelo_inurba_marseille","lat":43.302784,"lon":5.377158,"is_reserved":false,"is_disabled":false,"rental_uris":{"android":"levelo://app?vid=d9583b12-0b53-450a-892d-e144f49398fa","ios":"levelo://app?vid=d9583b12-0b53-450a-892d-e144f49398fa"},"vehicle_type_id":"4","last_reported":1712405551,"current_range_meters":24800,"station_id":"ce4bguh2rcd13ifvqcj0","pricing_plan_id":"cebpf4jnsgd1na2vs0mg"},{"bike_id":"42a21ed6-4ee6-45cc-9c8a-92075f46f77c","system_id":"levelo_inurba_marseille","lat":43.302784,"lon":5.377158,"is_reserved":false,"is_disabled":false,"rental_uris":{"android":"levelo://app?vid=42a21ed6-4ee6-45cc-9c8a-92075f46f77c","ios":"levelo://app?vid=42a21ed6-4ee6-45cc-9c8a-92075f46f77c"},"vehicle_type_id":"4","last_reported":1712405551,"current_range_meters":31600,"station_id":"ce4bguh2rcd13ifvqcj0","pricing_plan_id":"cebpf4jnsgd1na2vs0mg"},{"bike_id":"5b5abcee-0089-4b6e-bbf9-3eb5c3742d65","system_id":"levelo_inurba_marseille","lat":43.302784,"lon":5.377158,"is_reserved":false,"is_disabled":false,"rental_uris":{"android":"levelo://app?vid=5b5abcee-0089-4b6e-bbf9-3eb5c3742d65","ios":"levelo://app?vid=5b5abcee-0089-4b6e-bbf9-3eb5c3742d65"},"vehicle_type_id":"4","last_reported":1712405551,"current_range_meters":31600,"station_id":"ce4bguh2rcd13ifvqcj0","pricing_plan_id":"cebpf4jnsgd1na2vs0mg"},{"bike_id":"965da3e5-4381-4937-b0d3-63520e7116c5","system_id":"levelo_inurba_marseille","lat":43.302784,"lon":5.377158,"is_reserved":false,"is_disabled":false,"rental_uris":{"android":"levelo://app?vid=965da3e5-4381-4937-b0d3-63520e7116c5","ios":"levelo://app?vid=965da3e5-4381-4937-b0d3-63520e7116c5"},"vehicle_type_id":"4","last_reported":1712405551,"current_range_meters":24800,"station_id":"ce4bguh2rcd13ifvqcj0","pricing_plan_id":"cebpf4jnsgd1na2vs0mg"},{"bike_id":"4e2645f4-7acd-46a7-9664-846e69d646c2","system_id":"levelo_inurba_marseille","lat":43.302784,"lon":5.377158,"is_reserved":false,"is_disabled":false,"rental_uris":{"android":"levelo://app?vid=4e2645f4-7acd-46a7-9664-846e69d646c2","ios":"levelo://app?vid=4e2645f4-7acd-46a7-9664-846e69d646c2"},"vehicle_type_id":"4","last_reported":1712405551,"current_range_meters":28000,"station_id":"ce4bguh2rcd13ifvqcj0","pricing_plan_id":"cebpf4jnsgd1na2vs0mg"},{"bike_id":"df2ec8ce-2fa5-4877-a780-bb408dd36b67","system_id":"levelo_inurba_marseille","lat":43.301429,"lon":5.37413,"is_reserved":false,"is_disabled":false,"rental_uris":{"android":"levelo://app?vid=df2ec8ce-2fa5-4877-a780-bb408dd36b67","ios":"levelo://app?vid=df2ec8ce-2fa5-4877-a780-bb408dd36b67"},"vehicle_type_id":"4","last_reported":1712405551,"current_range_meters":29600,"station_id":"ce4bgs92rcd13ifvqcc0","pricing_plan_id":"cebpf4jnsgd1na2vs0mg"},{"bike_id":"cfaf0db3-0551-4de2-8b16-9da7b14d3e33","system_id":"levelo_inurba_marseille","lat":43.30143,"lon":5.37413,"is_reserved":false,"is_disabled":false,"rental_uris":{"android":"levelo://app?vid=cfaf0db3-0551-4de2-8b16-9da7b14d3e33","ios":"levelo://app?vid=cfaf0db3-0551-4de2-8b16-9da7b14d3e33"},"vehicle_type_id":"4","last_reported":1712405551,"current_range_meters":800,"station_id":"ce4bgs92rcd13ifvqcc0","pricing_plan_id":"cebpf4jnsgd1na2vs0mg"},{"bike_id":"c4f2aee7-184d-4a6b-b382-b7d5128484ab","system_id":"levelo_inurba_marseille","lat":43.30143,"lon":5.37413,"is_reserved":false,"is_disabled":false,"rental_uris":{"android":"levelo://app?vid=c4f2aee7-184d-4a6b-b382-b7d5128484ab","ios":"levelo://app?vid=c4f2aee7-184d-4a6b-b382-b7d5128484ab"},"vehicle_type_id":"4","last_reported":1712405551,"current_range_meters":10400,"station_id":"ce4bgs92rcd13ifvqcc0","pricing_plan_id":"cebpf4jnsgd1na2vs0mg"},{"bike_id":"540319b4-15d2-428a-81e6-d36896050f9a","system_id":"levelo_inurba_marseille","lat":43.30143,"lon":5.37413,"is_reserved":false,"is_disabled":false,"rental_uris":{"android":"levelo://app?vid=540319b4-15d2-428a-81e6-d36896050f9a","ios":"levelo://app?vid=540319b4-15d2-428a-81e6-d36896050f9a"},"vehicle_type_id":"4","last_reported":1712405551,"current_range_meters":7600,"station_id":"ce4bgs92rcd13ifvqcc0","pricing_plan_id":"cebpf4jnsgd1na2vs0mg"},{"bike_id":"3c030494-9c42-4403-a339-25290673562b","system_id":"levelo_inurba_marseille","lat":43.30143,"lon":5.37413,"is_reserved":false,"is_disabled":false,"rental_uris":{"android":"levelo://app?vid=3c030494-9c42-4403-a339-25290673562b","ios":"levelo://app?vid=3c030494-9c42-4403-a339-25290673562b"},"vehicle_type_id":"4","last_reported":1712405551,"current_range_meters":12000,"station_id":"ce4bgs92rcd13ifvqcc0","pricing_plan_id":"cebpf4jnsgd1na2vs0mg"},{"bike_id":"4df775da-22c7-429e-9ba9-f7d4f5bbd28c","system_id":"levelo_inurba_marseille","lat":43.301429,"lon":5.37413,"is_reserved":false,"is_disabled":false,"rental_uris":{"android":"levelo://app?vid=4df775da-22c7-429e-9ba9-f7d4f5bbd28c","ios":"levelo://app?vid=4df775da-22c7-429e-9ba9-f7d4f5bbd28c"},"vehicle_type_id":"4","last_reported":1712405551,"current_range_meters":21200,"station_id":"ce4bgs92rcd13ifvqcc0","pricing_plan_id":"cebpf4jnsgd1na2vs0mg"},{"bike_id":"6920eb6a-6545-46c8-ab6f-a7e0189a9542","system_id":"levelo_inurba_marseille","lat":43.319908,"lon":5.381544,"is_reserved":false,"is_disabled":false,"rental_uris":{"android":"levelo://app?vid=6920eb6a-6545-46c8-ab6f-a7e0189a9542","ios":"levelo://app?vid=6920eb6a-6545-46c8-ab6f-a7e0189a9542"},"vehicle_type_id":"4","last_reported":1712405551,"current_range_meters":800,"station_id":"ce4bhr12rcd13ifvqhpg","pricing_plan_id":"cebpf4jnsgd1na2vs0mg"},{"bike_id":"d5c962e3-ea23-4ac1-8552-997c62e2397b","system_id":"levelo_inurba_marseille","lat":43.313571,"lon":5.384829,"is_reserved":false,"is_disabled":false,"rental_uris":{"android":"levelo://app?vid=d5c962e3-ea23-4ac1-8552-997c62e2397b","ios":"levelo://app?vid=d5c962e3-ea23-4ac1-8552-997c62e2397b"},"vehicle_type_id":"4","last_reported":1712405551,"current_range_meters":8800,"station_id":"ce4bgt92rcd13ifvqcf0","pricing_plan_id":"cebpf4jnsgd1na2vs0mg"},{"bike_id":"456367e0-9851-4742-aad7-3a7006b2c8b6","system_id":"levelo_inurba_marseille","lat":43.299222,"lon":5.365554,"is_reserved":false,"is_disabled":false,"rental_uris":{"android":"levelo://app?vid=456367e0-9851-4742-aad7-3a7006b2c8b6","ios":"levelo://app?vid=456367e0-9851-4742-aad7-3a7006b2c8b6"},"vehicle_type_id":"4","last_reported":1712405551,"current_range_meters":14800,"station_id":"ce4bgm92rcd13ifvqbr0","pricing_plan_id":"cebpf4jnsgd1na2vs0mg"},{"bike_id":"185cadb7-2d76-4323-8a09-0ce9037f526e","system_id":"levelo_inurba_marseille","lat":43.299222,"lon":5.365554,"is_reserved":false,"is_disabled":false,"rental_uris":{"android":"levelo://app?vid=185cadb7-2d76-4323-8a09-0ce9037f526e","ios":"levelo://app?vid=185cadb7-2d76-4323-8a09-0ce9037f526e"},"vehicle_type_id":"4","last_reported":1712405551,"current_range_meters":29200,"station_id":"ce4bgm92rcd13ifvqbr0","pricing_plan_id":"cebpf4jnsgd1na2vs0mg"},{"bike_id":"22b6a58c-1ae5-43b4-b9a1-14f3a18f66ca","system_id":"levelo_inurba_marseille","lat":43.299222,"lon":5.365554,"is_reserved":false,"is_disabled":false,"rental_uris":{"android":"levelo://app?vid=22b6a58c-1ae5-43b4-b9a1-14f3a18f66ca","ios":"levelo://app?vid=22b6a58c-1ae5-43b4-b9a1-14f3a18f66ca"},"vehicle_type_id":"4","last_reported":1712405551,"current_range_meters":22800,"station_id":"ce4bgm92rcd13ifvqbr0","pricing_plan_id":"cebpf4jnsgd1na2vs0mg"},{"bike_id":"34c7a93b-184c-4121-ac19-6fb2ce943796","system_id":"levelo_inurba_marseille","lat":43.299222,"lon":5.365554,"is_reserved":false,"is_disabled":false,"rental_uris":{"android":"levelo://app?vid=34c7a93b-184c-4121-ac19-6fb2ce943796","ios":"levelo://app?vid=34c7a93b-184c-4121-ac19-6fb2ce943796"},"vehicle_type_id":"4","last_reported":1712405551,"current_range_meters":28400,"station_id":"ce4bgm92rcd13ifvqbr0","pricing_plan_id":"cebpf4jnsgd1na2vs0mg"},{"bike_id":"52ef7a6f-67e6-42b1-9d6b-dd49549b8876","system_id":"levelo_inurba_marseille","lat":43.299222,"lon":5.365554,"is_reserved":false,"is_disabled":false,"rental_uris":{"android":"levelo://app?vid=52ef7a6f-67e6-42b1-9d6b-dd49549b8876","ios":"levelo://app?vid=52ef7a6f-67e6-42b1-9d6b-dd49549b8876"},"vehicle_type_id":"4","last_reported":1712405551,"current_range_meters":14400,"station_id":"ce4bgm92rcd13ifvqbr0","pricing_plan_id":"cebpf4jnsgd1na2vs0mg"},{"bike_id":"d7388031-88c9-4b36-b38f-263a7d3c8de1","system_id":"levelo_inurba_marseille","lat":43.299222,"lon":5.365554,"is_reserved":false,"is_disabled":false,"rental_uris":{"android":"levelo://app?vid=d7388031-88c9-4b36-b38f-263a7d3c8de1","ios":"levelo://app?vid=d7388031-88c9-4b36-b38f-263a7d3c8de1"},"vehicle_type_id":"4","last_reported":1712405551,"current_range_meters":2400,"station_id":"ce4bgm92rcd13ifvqbr0","pricing_plan_id":"cebpf4jnsgd1na2vs0mg"},{"bike_id":"a095bbc0-1f82-466f-bb08-a5b68d8b9dc2","system_id":"levelo_inurba_marseille","lat":43.299724,"lon":5.371829,"is_reserved":false,"is_disabled":false,"rental_uris":{"android":"levelo://app?vid=a095bbc0-1f82-466f-bb08-a5b68d8b9dc2","ios":"levelo://app?vid=a095bbc0-1f82-466f-bb08-a5b68d8b9dc2"},"vehicle_type_id":"4","last_reported":1712405551,"current_range_meters":15200,"station_id":"ce4bgr92rcd13ifvqc7g","pricing_plan_id":"cebpf4jnsgd1na2vs0mg"},{"bike_id":"aab00efd-c3c0-4d9c-8a7f-9cd485261b51","system_id":"levelo_inurba_marseille","lat":43.297163,"lon":5.365866,"is_reserved":false,"is_disabled":false,"rental_uris":{"android":"levelo://app?vid=aab00efd-c3c0-4d9c-8a7f-9cd485261b51","ios":"levelo://app?vid=aab00efd-c3c0-4d9c-8a7f-9cd485261b51"},"vehicle_type_id":"4","last_reported":1712405551,"current_range_meters":14400,"station_id":"ce4bgn12rcd13ifvqbt0","pricing_plan_id":"cebpf4jnsgd1na2vs0mg"},{"bike_id":"85e9b22f-7cd9-4175-8730-5f783427b8a6","system_id":"levelo_inurba_marseille","lat":43.298511,"lon":5.3629,"is_reserved":false,"is_disabled":false,"rental_uris":{"android":"levelo://app?vid=85e9b22f-7cd9-4175-8730-5f783427b8a6","ios":"levelo://app?vid=85e9b22f-7cd9-4175-8730-5f783427b8a6"},"vehicle_type_id":"4","last_reported":1712405551,"current_range_meters":12000,"station_id":"","pricing_plan_id":"cebpf4jnsgd1na2vs0mg"},{"bike_id":"842e8194-48f6-401c-b397-083a04d0f060","system_id":"levelo_inurba_marseille","lat":43.29851,"lon":5.36286,"is_reserved":false,"is_disabled":false,"rental_uris":{"android":"levelo://app?vid=842e8194-48f6-401c-b397-083a04d0f060","ios":"levelo://app?vid=842e8194-48f6-401c-b397-083a04d0f060"},"vehicle_type_id":"4","last_reported":1712405551,"current_range_meters":31200,"station_id":"ce4bgpp2rcd13ifvqc3g","pricing_plan_id":"cebpf4jnsgd1na2vs0mg"},{"bike_id":"29f98c7a-aeeb-446b-9381-952e99c40eb4","system_id":"levelo_inurba_marseille","lat":43.29848,"lon":5.36289,"is_reserved":false,"is_disabled":false,"rental_uris":{"android":"levelo://app?vid=29f98c7a-aeeb-446b-9381-952e99c40eb4","ios":"levelo://app?vid=29f98c7a-aeeb-446b-9381-952e99c40eb4"},"vehicle_type_id":"4","last_reported":1712405551,"current_range_meters":0,"station_id":"ce4bgpp2rcd13ifvqc3g","pricing_plan_id":"cebpf4jnsgd1na2vs0mg"},{"bike_id":"c72b0d24-7d3a-4fa0-badf-ea80db9f9b8d","system_id":"levelo_inurba_marseille","lat":43.29848,"lon":5.36283,"is_reserved":false,"is_disabled":false,"rental_uris":{"android":"levelo://app?vid=c72b0d24-7d3a-4fa0-badf-ea80db9f9b8d","ios":"levelo://app?vid=c72b0d24-7d3a-4fa0-badf-ea80db9f9b8d"},"vehicle_type_id":"4","last_reported":1712405551,"current_range_meters":28800,"station_id":"ce4bgpp2rcd13ifvqc3g","pricing_plan_id":"cebpf4jnsgd1na2vs0mg"},{"bike_id":"bd9aeed9-b096-4b47-aa72-a0d4dcf5048c","system_id":"levelo_inurba_marseille","lat":43.29846,"lon":5.36279,"is_reserved":false,"is_disabled":false,"rental_uris":{"android":"levelo://app?vid=bd9aeed9-b096-4b47-aa72-a0d4dcf5048c","ios":"levelo://app?vid=bd9aeed9-b096-4b47-aa72-a0d4dcf5048c"},"vehicle_type_id":"4","last_reported":1712405551,"current_range_meters":2800,"station_id":"ce4bgpp2rcd13ifvqc3g","pricing_plan_id":"cebpf4jnsgd1na2vs0mg"},{"bike_id":"45aa253a-2f09-4637-b97e-2f416e1e5925","system_id":"levelo_inurba_marseille","lat":43.29846,"lon":5.36273,"is_reserved":false,"is_disabled":false,"rental_uris":{"android":"levelo://app?vid=45aa253a-2f09-4637-b97e-2f416e1e5925","ios":"levelo://app?vid=45aa253a-2f09-4637-b97e-2f416e1e5925"},"vehicle_type_id":"4","last_reported":1712405551,"current_range_meters":11200,"station_id":"ce4bgpp2rcd13ifvqc3g","pricing_plan_id":"cebpf4jnsgd1na2vs0mg"},{"bike_id":"00ab1aee-e36b-4f02-b053-d6dd1c4b8f26","system_id":"levelo_inurba_marseille","lat":43.29845,"lon":5.36277,"is_reserved":false,"is_disabled":false,"rental_uris":{"android":"levelo://app?vid=00ab1aee-e36b-4f02-b053-d6dd1c4b8f26","ios":"levelo://app?vid=00ab1aee-e36b-4f02-b053-d6dd1c4b8f26"},"vehicle_type_id":"4","last_reported":1712405551,"current_range_meters":31200,"station_id":"ce4bgpp2rcd13ifvqc3g","pricing_plan_id":"cebpf4jnsgd1na2vs0mg"},{"bike_id":"21ab9371-38e6-4e1b-8503-d666a462d780","system_id":"levelo_inurba_marseille","lat":43.29845,"lon":5.36275,"is_reserved":false,"is_disabled":false,"rental_uris":{"android":"levelo://app?vid=21ab9371-38e6-4e1b-8503-d666a462d780","ios":"levelo://app?vid=21ab9371-38e6-4e1b-8503-d666a462d780"},"vehicle_type_id":"4","last_reported":1712405551,"current_range_meters":31600,"station_id":"ce4bgpp2rcd13ifvqc3g","pricing_plan_id":"cebpf4jnsgd1na2vs0mg"},{"bike_id":"ed27a1ba-a8df-4443-a47e-2b168810cfe3","system_id":"levelo_inurba_marseille","lat":43.29845,"lon":5.36274,"is_reserved":false,"is_disabled":false,"rental_uris":{"android":"levelo://app?vid=ed27a1ba-a8df-4443-a47e-2b168810cfe3","ios":"levelo://app?vid=ed27a1ba-a8df-4443-a47e-2b168810cfe3"},"vehicle_type_id":"4","last_reported":1712405551,"current_range_meters":4400,"station_id":"ce4bgpp2rcd13ifvqc3g","pricing_plan_id":"cebpf4jnsgd1na2vs0mg"},{"bike_id":"bfc356ff-9ceb-444d-885f-9058cea196e8","system_id":"levelo_inurba_marseille","lat":43.29844,"lon":5.36275,"is_reserved":false,"is_disabled":false,"rental_uris":{"android":"levelo://app?vid=bfc356ff-9ceb-444d-885f-9058cea196e8","ios":"levelo://app?vid=bfc356ff-9ceb-444d-885f-9058cea196e8"},"vehicle_type_id":"4","last_reported":1712405551,"current_range_meters":23200,"station_id":"ce4bgpp2rcd13ifvqc3g","pricing_plan_id":"cebpf4jnsgd1na2vs0mg"},{"bike_id":"5542569a-9371-4d00-bf35-2fcb4ccc4c8c","system_id":"levelo_inurba_marseille","lat":43.298433,"lon":5.362774,"is_reserved":false,"is_disabled":false,"rental_uris":{"android":"levelo://app?vid=5542569a-9371-4d00-bf35-2fcb4ccc4c8c","ios":"levelo://app?vid=5542569a-9371-4d00-bf35-2fcb4ccc4c8c"},"vehicle_type_id":"4","last_reported":1712405551,"current_range_meters":15200,"station_id":"ce4bgpp2rcd13ifvqc3g","pricing_plan_id":"cebpf4jnsgd1na2vs0mg"},{"bike_id":"e426fb23-ad1e-4707-a523-f3b9a45f6bfd","system_id":"levelo_inurba_marseille","lat":43.311841,"lon":5.387096,"is_reserved":false,"is_disabled":false,"rental_uris":{"android":"levelo://app?vid=e426fb23-ad1e-4707-a523-f3b9a45f6bfd","ios":"levelo://app?vid=e426fb23-ad1e-4707-a523-f3b9a45f6bfd"},"vehicle_type_id":"4","last_reported":1712405551,"current_range_meters":28800,"station_id":"ce4bgv12rcd13ifvqcp0","pricing_plan_id":"cebpf4jnsgd1na2vs0mg"},{"bike_id":"5652a4fc-c5f7-4c1d-9b79-9480dfb81f57","system_id":"levelo_inurba_marseille","lat":43.299243,"lon":5.37481,"is_reserved":false,"is_disabled":false,"rental_uris":{"android":"levelo://app?vid=5652a4fc-c5f7-4c1d-9b79-9480dfb81f57","ios":"levelo://app?vid=5652a4fc-c5f7-4c1d-9b79-9480dfb81f57"},"vehicle_type_id":"4","last_reported":1712405551,"current_range_meters":18800,"station_id":"ce4bgjh2rcd13ifvqbg0","pricing_plan_id":"cebpf4jnsgd1na2vs0mg"},{"bike_id":"59ff6220-f83e-4c62-b40e-0639782abe19","system_id":"levelo_inurba_marseille","lat":43.311834,"lon":5.387128,"is_reserved":false,"is_disabled":false,"rental_uris":{"android":"levelo://app?vid=59ff6220-f83e-4c62-b40e-0639782abe19","ios":"levelo://app?vid=59ff6220-f83e-4c62-b40e-0639782abe19"},"vehicle_type_id":"4","last_reported":1712405551,"current_range_meters":29600,"station_id":"ce4bgv12rcd13ifvqcp0","pricing_plan_id":"cebpf4jnsgd1na2vs0mg"},{"bike_id":"1fac1ca6-317d-4664-a542-3843f074e297","system_id":"levelo_inurba_marseille","lat":43.298433,"lon":5.362774,"is_reserved":false,"is_disabled":false,"rental_uris":{"android":"levelo://app?vid=1fac1ca6-317d-4664-a542-3843f074e297","ios":"levelo://app?vid=1fac1ca6-317d-4664-a542-3843f074e297"},"vehicle_type_id":"4","last_reported":1712405551,"current_range_meters":31600,"station_id":"ce4bgpp2rcd13ifvqc3g","pricing_plan_id":"cebpf4jnsgd1na2vs0mg"},{"bike_id":"f24f4455-5978-4642-a0f0-3cbb2c7ee76b","system_id":"levelo_inurba_marseille","lat":43.299243,"lon":5.37481,"is_reserved":false,"is_disabled":false,"rental_uris":{"android":"levelo://app?vid=f24f4455-5978-4642-a0f0-3cbb2c7ee76b","ios":"levelo://app?vid=f24f4455-5978-4642-a0f0-3cbb2c7ee76b"},"vehicle_type_id":"4","last_reported":1712405551,"current_range_meters":22800,"station_id":"ce4bgjh2rcd13ifvqbg0","pricing_plan_id":"cebpf4jnsgd1na2vs0mg"},{"bike_id":"64f6661c-b16f-40e2-b5de-42d869d415ab","system_id":"levelo_inurba_marseille","lat":43.311689,"lon":5.387192,"is_reserved":false,"is_disabled":false,"rental_uris":{"android":"levelo://app?vid=64f6661c-b16f-40e2-b5de-42d869d415ab","ios":"levelo://app?vid=64f6661c-b16f-40e2-b5de-42d869d415ab"},"vehicle_type_id":"4","last_reported":1712405551,"current_range_meters":2400,"station_id":"ce4bgv12rcd13ifvqcp0","pricing_plan_id":"cebpf4jnsgd1na2vs0mg"},{"bike_id":"015753d9-bf7a-40be-94e0-0c8c0ee247ae","system_id":"levelo_inurba_marseille","lat":43.311722,"lon":5.387247,"is_reserved":false,"is_disabled":false,"rental_uris":{"android":"levelo://app?vid=015753d9-bf7a-40be-94e0-0c8c0ee247ae","ios":"levelo://app?vid=015753d9-bf7a-40be-94e0-0c8c0ee247ae"},"vehicle_type_id":"4","last_reported":1712405551,"current_range_meters":17600,"station_id":"ce4bgv12rcd13ifvqcp0","pricing_plan_id":"cebpf4jnsgd1na2vs0mg"},{"bike_id":"5f3b4b36-aea9-4aeb-bd06-2084946bf6e4","system_id":"levelo_inurba_marseille","lat":43.322872,"lon":5.382756,"is_reserved":false,"is_disabled":false,"rental_uris":{"android":"levelo://app?vid=5f3b4b36-aea9-4aeb-bd06-2084946bf6e4","ios":"levelo://app?vid=5f3b4b36-aea9-4aeb-bd06-2084946bf6e4"},"vehicle_type_id":"4","last_reported":1712405551,"current_range_meters":10000,"station_id":"ce4bhr12rcd13ifvqhqg","pricing_plan_id":"cebpf4jnsgd1na2vs0mg"},{"bike_id":"4563a85a-2ba6-4f52-9017-c14f58cb3aa5","system_id":"levelo_inurba_marseille","lat":43.297774,"lon":5.370875,"is_reserved":false,"is_disabled":false,"rental_uris":{"android":"levelo://app?vid=4563a85a-2ba6-4f52-9017-c14f58cb3aa5","ios":"levelo://app?vid=4563a85a-2ba6-4f52-9017-c14f58cb3aa5"},"vehicle_type_id":"4","last_reported":1712405551,"current_range_meters":0,"station_id":"ce4bgop2rcd13ifvqc1g","pricing_plan_id":"cebpf4jnsgd1na2vs0mg"},{"bike_id":"27d84a8c-3e1d-42cc-8b8f-a1cd38a0d6e2","system_id":"levelo_inurba_marseille","lat":43.322886,"lon":5.382592,"is_reserved":false,"is_disabled":false,"rental_uris":{"android":"levelo://app?vid=27d84a8c-3e1d-42cc-8b8f-a1cd38a0d6e2","ios":"levelo://app?vid=27d84a8c-3e1d-42cc-8b8f-a1cd38a0d6e2"},"vehicle_type_id":"4","last_reported":1712405551,"current_range_meters":10800,"station_id":"ce4bhr12rcd13ifvqhqg","pricing_plan_id":"cebpf4jnsgd1na2vs0mg"},{"bike_id":"f9cbb650-aadf-49f6-a3e7-b397f3d0f9e2","system_id":"levelo_inurba_marseille","lat":43.322872,"lon":5.382756,"is_reserved":false,"is_disabled":false,"rental_uris":{"android":"levelo://app?vid=f9cbb650-aadf-49f6-a3e7-b397f3d0f9e2","ios":"levelo://app?vid=f9cbb650-aadf-49f6-a3e7-b397f3d0f9e2"},"vehicle_type_id":"4","last_reported":1712405551,"current_range_meters":7200,"station_id":"ce4bhr12rcd13ifvqhqg","pricing_plan_id":"cebpf4jnsgd1na2vs0mg"},{"bike_id":"9341832e-29cc-450d-89c4-a72177065648","system_id":"levelo_inurba_marseille","lat":43.32288,"lon":5.38261,"is_reserved":false,"is_disabled":false,"rental_uris":{"android":"levelo://app?vid=9341832e-29cc-450d-89c4-a72177065648","ios":"levelo://app?vid=9341832e-29cc-450d-89c4-a72177065648"},"vehicle_type_id":"4","last_reported":1712405551,"current_range_meters":15200,"station_id":"ce4bhr12rcd13ifvqhqg","pricing_plan_id":"cebpf4jnsgd1na2vs0mg"},{"bike_id":"3f2835e5-a51e-4529-8eba-48f6b95ac4a9","system_id":"levelo_inurba_marseille","lat":43.322872,"lon":5.382756,"is_reserved":false,"is_disabled":false,"rental_uris":{"android":"levelo://app?vid=3f2835e5-a51e-4529-8eba-48f6b95ac4a9","ios":"levelo://app?vid=3f2835e5-a51e-4529-8eba-48f6b95ac4a9"},"vehicle_type_id":"4","last_reported":1712405551,"current_range_meters":18400,"station_id":"ce4bhr12rcd13ifvqhqg","pricing_plan_id":"cebpf4jnsgd1na2vs0mg"},{"bike_id":"18651e73-a960-43da-bdae-371146c35a92","system_id":"levelo_inurba_marseille","lat":43.322872,"lon":5.382756,"is_reserved":false,"is_disabled":false,"rental_uris":{"android":"levelo://app?vid=18651e73-a960-43da-bdae-371146c35a92","ios":"levelo://app?vid=18651e73-a960-43da-bdae-371146c35a92"},"vehicle_type_id":"4","last_reported":1712405551,"current_range_meters":31600,"station_id":"ce4bhr12rcd13ifvqhqg","pricing_plan_id":"cebpf4jnsgd1na2vs0mg"},{"bike_id":"53aeea8d-3968-4010-9930-be882125170b","system_id":"levelo_inurba_marseille","lat":43.322872,"lon":5.382756,"is_reserved":false,"is_disabled":false,"rental_uris":{"android":"levelo://app?vid=53aeea8d-3968-4010-9930-be882125170b","ios":"levelo://app?vid=53aeea8d-3968-4010-9930-be882125170b"},"vehicle_type_id":"4","last_reported":1712405551,"current_range_meters":4400,"station_id":"ce4bhr12rcd13ifvqhqg","pricing_plan_id":"cebpf4jnsgd1na2vs0mg"},{"bike_id":"d9d0fad4-bb5e-4fd7-aa14-bc36fdd7e62b","system_id":"levelo_inurba_marseille","lat":43.322872,"lon":5.382756,"is_reserved":false,"is_disabled":false,"rental_uris":{"android":"levelo://app?vid=d9d0fad4-bb5e-4fd7-aa14-bc36fdd7e62b","ios":"levelo://app?vid=d9d0fad4-bb5e-4fd7-aa14-bc36fdd7e62b"},"vehicle_type_id":"4","last_reported":1712405551,"current_range_meters":31600,"station_id":"ce4bhr12rcd13ifvqhqg","pricing_plan_id":"cebpf4jnsgd1na2vs0mg"},{"bike_id":"142ac18d-3726-4341-b0e2-b2efce5130e8","system_id":"levelo_inurba_marseille","lat":43.297794,"lon":5.370888,"is_reserved":false,"is_disabled":false,"rental_uris":{"android":"levelo://app?vid=142ac18d-3726-4341-b0e2-b2efce5130e8","ios":"levelo://app?vid=142ac18d-3726-4341-b0e2-b2efce5130e8"},"vehicle_type_id":"4","last_reported":1712405551,"current_range_meters":12800,"station_id":"ce4bgop2rcd13ifvqc1g","pricing_plan_id":"cebpf4jnsgd1na2vs0mg"},{"bike_id":"12868420-cd43-4d41-9cd6-9b5eadd40bbb","system_id":"levelo_inurba_marseille","lat":43.322872,"lon":5.382756,"is_reserved":false,"is_disabled":false,"rental_uris":{"android":"levelo://app?vid=12868420-cd43-4d41-9cd6-9b5eadd40bbb","ios":"levelo://app?vid=12868420-cd43-4d41-9cd6-9b5eadd40bbb"},"vehicle_type_id":"4","last_reported":1712405551,"current_range_meters":31600,"station_id":"ce4bhr12rcd13ifvqhqg","pricing_plan_id":"cebpf4jnsgd1na2vs0mg"},{"bike_id":"79a09dc1-a136-4553-b035-ca9b20a658e5","system_id":"levelo_inurba_marseille","lat":43.30181,"lon":5.3818,"is_reserved":false,"is_disabled":false,"rental_uris":{"android":"levelo://app?vid=79a09dc1-a136-4553-b035-ca9b20a658e5","ios":"levelo://app?vid=79a09dc1-a136-4553-b035-ca9b20a658e5"},"vehicle_type_id":"4","last_reported":1712405551,"current_range_meters":13200,"station_id":"","pricing_plan_id":"cebpf4jnsgd1na2vs0mg"},{"bike_id":"5b206aed-8a0c-4d35-a31c-5e10a6c67b3c","system_id":"levelo_inurba_marseille","lat":43.296129,"lon":5.370777,"is_reserved":false,"is_disabled":false,"rental_uris":{"android":"levelo://app?vid=5b206aed-8a0c-4d35-a31c-5e10a6c67b3c","ios":"levelo://app?vid=5b206aed-8a0c-4d35-a31c-5e10a6c67b3c"},"vehicle_type_id":"4","last_reported":1712405551,"current_range_meters":27200,"station_id":"ce4bgnh2rcd13ifvqc0g","pricing_plan_id":"cebpf4jnsgd1na2vs0mg"},{"bike_id":"dc413095-526f-461c-87f9-8ff3ccfe895e","system_id":"levelo_inurba_marseille","lat":43.292005,"lon":5.357875,"is_reserved":false,"is_disabled":false,"rental_uris":{"android":"levelo://app?vid=dc413095-526f-461c-87f9-8ff3ccfe895e","ios":"levelo://app?vid=dc413095-526f-461c-87f9-8ff3ccfe895e"},"vehicle_type_id":"4","last_reported":1712405551,"current_range_meters":18400,"station_id":"ce4bhb12rcd13ifvqel0","pricing_plan_id":"cebpf4jnsgd1na2vs0mg"},{"bike_id":"d984fbf0-e0fb-4387-b706-a89602a1b031","system_id":"levelo_inurba_marseille","lat":43.286039,"lon":5.370681,"is_reserved":false,"is_disabled":false,"rental_uris":{"android":"levelo://app?vid=d984fbf0-e0fb-4387-b706-a89602a1b031","ios":"levelo://app?vid=d984fbf0-e0fb-4387-b706-a89602a1b031"},"vehicle_type_id":"4","last_reported":1712405551,"current_range_meters":21600,"station_id":"ce4bht12rcd13ifvqi60","pricing_plan_id":"cebpf4jnsgd1na2vs0mg"},{"bike_id":"738d3ffc-60e8-4f7e-8861-bee3db1d3a02","system_id":"levelo_inurba_marseille","lat":43.29628,"lon":5.372,"is_reserved":false,"is_disabled":false,"rental_uris":{"android":"levelo://app?vid=738d3ffc-60e8-4f7e-8861-bee3db1d3a02","ios":"levelo://app?vid=738d3ffc-60e8-4f7e-8861-bee3db1d3a02"},"vehicle_type_id":"4","last_reported":1712405551,"current_range_meters":12400,"station_id":"","pricing_plan_id":"cebpf4jnsgd1na2vs0mg"},{"bike_id":"1d69afd5-d78d-44f1-b6bc-80eda7b5c4fa","system_id":"levelo_inurba_marseille","lat":43.296131,"lon":5.370773,"is_reserved":false,"is_disabled":false,"rental_uris":{"android":"levelo://app?vid=1d69afd5-d78d-44f1-b6bc-80eda7b5c4fa","ios":"levelo://app?vid=1d69afd5-d78d-44f1-b6bc-80eda7b5c4fa"},"vehicle_type_id":"4","last_reported":1712405551,"current_range_meters":8400,"station_id":"ce4bgnh2rcd13ifvqc0g","pricing_plan_id":"cebpf4jnsgd1na2vs0mg"},{"bike_id":"580b9e59-0d7a-4e9b-9bbc-492de1581dae","system_id":"levelo_inurba_marseille","lat":43.29573,"lon":5.367355,"is_reserved":false,"is_disabled":false,"rental_uris":{"android":"levelo://app?vid=580b9e59-0d7a-4e9b-9bbc-492de1581dae","ios":"levelo://app?vid=580b9e59-0d7a-4e9b-9bbc-492de1581dae"},"vehicle_type_id":"4","last_reported":1712405551,"current_range_meters":0,"station_id":"ce4bgph2rcd13ifvqc2g","pricing_plan_id":"cebpf4jnsgd1na2vs0mg"},{"bike_id":"c7b7a2d6-993c-49ff-a4be-9e9f4ee4b6bd","system_id":"levelo_inurba_marseille","lat":43.29573,"lon":5.367355,"is_reserved":false,"is_disabled":false,"rental_uris":{"android":"levelo://app?vid=c7b7a2d6-993c-49ff-a4be-9e9f4ee4b6bd","ios":"levelo://app?vid=c7b7a2d6-993c-49ff-a4be-9e9f4ee4b6bd"},"vehicle_type_id":"4","last_reported":1712405551,"current_range_meters":20400,"station_id":"ce4bgph2rcd13ifvqc2g","pricing_plan_id":"cebpf4jnsgd1na2vs0mg"},{"bike_id":"abc8fccc-d50f-496e-8d5b-63dcca79a5f7","system_id":"levelo_inurba_marseille","lat":43.29573,"lon":5.367355,"is_reserved":false,"is_disabled":false,"rental_uris":{"android":"levelo://app?vid=abc8fccc-d50f-496e-8d5b-63dcca79a5f7","ios":"levelo://app?vid=abc8fccc-d50f-496e-8d5b-63dcca79a5f7"},"vehicle_type_id":"4","last_reported":1712405551,"current_range_meters":22800,"station_id":"ce4bgph2rcd13ifvqc2g","pricing_plan_id":"cebpf4jnsgd1na2vs0mg"},{"bike_id":"2890d9ad-4939-4260-8497-0456b5085673","system_id":"levelo_inurba_marseille","lat":43.29579,"lon":5.36742,"is_reserved":false,"is_disabled":false,"rental_uris":{"android":"levelo://app?vid=2890d9ad-4939-4260-8497-0456b5085673","ios":"levelo://app?vid=2890d9ad-4939-4260-8497-0456b5085673"},"vehicle_type_id":"4","last_reported":1712405551,"current_range_meters":20400,"station_id":"ce4bgph2rcd13ifvqc2g","pricing_plan_id":"cebpf4jnsgd1na2vs0mg"},{"bike_id":"f7ffcecc-fd6f-44a9-9e9e-cf6a332db384","system_id":"levelo_inurba_marseille","lat":43.296935,"lon":5.376544,"is_reserved":false,"is_disabled":false,"rental_uris":{"android":"levelo://app?vid=f7ffcecc-fd6f-44a9-9e9e-cf6a332db384","ios":"levelo://app?vid=f7ffcecc-fd6f-44a9-9e9e-cf6a332db384"},"vehicle_type_id":"4","last_reported":1712405551,"current_range_meters":4800,"station_id":"ce4bgkh2rcd13ifvqbl0","pricing_plan_id":"cebpf4jnsgd1na2vs0mg"},{"bike_id":"31d3ed1e-5091-4d49-a87e-255892dab418","system_id":"levelo_inurba_marseille","lat":43.299222,"lon":5.365554,"is_reserved":false,"is_disabled":false,"rental_uris":{"android":"levelo://app?vid=31d3ed1e-5091-4d49-a87e-255892dab418","ios":"levelo://app?vid=31d3ed1e-5091-4d49-a87e-255892dab418"},"vehicle_type_id":"4","last_reported":1712405551,"current_range_meters":15600,"station_id":"ce4bgm92rcd13ifvqbr0","pricing_plan_id":"cebpf4jnsgd1na2vs0mg"},{"bike_id":"b4d68a50-1502-4c7a-b4d2-c993ec1ac73b","system_id":"levelo_inurba_marseille","lat":43.309589,"lon":5.390258,"is_reserved":false,"is_disabled":false,"rental_uris":{"android":"levelo://app?vid=b4d68a50-1502-4c7a-b4d2-c993ec1ac73b","ios":"levelo://app?vid=b4d68a50-1502-4c7a-b4d2-c993ec1ac73b"},"vehicle_type_id":"4","last_reported":1712405551,"current_range_meters":1200,"station_id":"ce4bgup2rcd13ifvqco0","pricing_plan_id":"cebpf4jnsgd1na2vs0mg"},{"bike_id":"65574f0c-45c7-49b4-9c21-d3d3f1be9153","system_id":"levelo_inurba_marseille","lat":43.309589,"lon":5.390258,"is_reserved":false,"is_disabled":false,"rental_uris":{"android":"levelo://app?vid=65574f0c-45c7-49b4-9c21-d3d3f1be9153","ios":"levelo://app?vid=65574f0c-45c7-49b4-9c21-d3d3f1be9153"},"vehicle_type_id":"4","last_reported":1712405551,"current_range_meters":21600,"station_id":"ce4bgup2rcd13ifvqco0","pricing_plan_id":"cebpf4jnsgd1na2vs0mg"},{"bike_id":"1ad26eb4-b9d1-4057-974f-481c24db2d8a","system_id":"levelo_inurba_marseille","lat":43.309589,"lon":5.390258,"is_reserved":false,"is_disabled":false,"rental_uris":{"android":"levelo://app?vid=1ad26eb4-b9d1-4057-974f-481c24db2d8a","ios":"levelo://app?vid=1ad26eb4-b9d1-4057-974f-481c24db2d8a"},"vehicle_type_id":"4","last_reported":1712405551,"current_range_meters":400,"station_id":"ce4bgup2rcd13ifvqco0","pricing_plan_id":"cebpf4jnsgd1na2vs0mg"},{"bike_id":"4705bb23-7f33-404c-b01e-1f1afa0ad77b","system_id":"levelo_inurba_marseille","lat":43.309589,"lon":5.390258,"is_reserved":false,"is_disabled":false,"rental_uris":{"android":"levelo://app?vid=4705bb23-7f33-404c-b01e-1f1afa0ad77b","ios":"levelo://app?vid=4705bb23-7f33-404c-b01e-1f1afa0ad77b"},"vehicle_type_id":"4","last_reported":1712405551,"current_range_meters":15600,"station_id":"ce4bgup2rcd13ifvqco0","pricing_plan_id":"cebpf4jnsgd1na2vs0mg"},{"bike_id":"d0eff70c-02fd-4678-acfa-14a9e7e5ade2","system_id":"levelo_inurba_marseille","lat":43.309589,"lon":5.390258,"is_reserved":false,"is_disabled":false,"rental_uris":{"android":"levelo://app?vid=d0eff70c-02fd-4678-acfa-14a9e7e5ade2","ios":"levelo://app?vid=d0eff70c-02fd-4678-acfa-14a9e7e5ade2"},"vehicle_type_id":"4","last_reported":1712405551,"current_range_meters":9600,"station_id":"ce4bgup2rcd13ifvqco0","pricing_plan_id":"cebpf4jnsgd1na2vs0mg"},{"bike_id":"a1fdf148-3717-4d97-b5cb-035d8786778c","system_id":"levelo_inurba_marseille","lat":43.317557,"lon":5.390173,"is_reserved":false,"is_disabled":false,"rental_uris":{"android":"levelo://app?vid=a1fdf148-3717-4d97-b5cb-035d8786778c","ios":"levelo://app?vid=a1fdf148-3717-4d97-b5cb-035d8786778c"},"vehicle_type_id":"4","last_reported":1712405551,"current_range_meters":31200,"station_id":"ce4bhqp2rcd13ifvqhng","pricing_plan_id":"cebpf4jnsgd1na2vs0mg"},{"bike_id":"8289c3a7-edcf-4c87-bd51-76fadf5947cd","system_id":"levelo_inurba_marseille","lat":43.309589,"lon":5.390258,"is_reserved":false,"is_disabled":false,"rental_uris":{"android":"levelo://app?vid=8289c3a7-edcf-4c87-bd51-76fadf5947cd","ios":"levelo://app?vid=8289c3a7-edcf-4c87-bd51-76fadf5947cd"},"vehicle_type_id":"4","last_reported":1712405551,"current_range_meters":6800,"station_id":"ce4bgup2rcd13ifvqco0","pricing_plan_id":"cebpf4jnsgd1na2vs0mg"},{"bike_id":"4c9f7959-0e48-46ee-9a56-2edb3d0d955d","system_id":"levelo_inurba_marseille","lat":43.297794,"lon":5.370888,"is_reserved":false,"is_disabled":false,"rental_uris":{"android":"levelo://app?vid=4c9f7959-0e48-46ee-9a56-2edb3d0d955d","ios":"levelo://app?vid=4c9f7959-0e48-46ee-9a56-2edb3d0d955d"},"vehicle_type_id":"4","last_reported":1712405551,"current_range_meters":14000,"station_id":"ce4bgop2rcd13ifvqc1g","pricing_plan_id":"cebpf4jnsgd1na2vs0mg"},{"bike_id":"425db324-cf9b-4130-863e-5aeb60888759","system_id":"levelo_inurba_marseille","lat":43.298037,"lon":5.381066,"is_reserved":false,"is_disabled":false,"rental_uris":{"android":"levelo://app?vid=425db324-cf9b-4130-863e-5aeb60888759","ios":"levelo://app?vid=425db324-cf9b-4130-863e-5aeb60888759"},"vehicle_type_id":"4","last_reported":1712405551,"current_range_meters":13200,"station_id":"ce4bgip2rcd13ifvqbb0","pricing_plan_id":"cebpf4jnsgd1na2vs0mg"},{"bike_id":"3a02d89e-6126-4a18-b49e-a792bade63ab","system_id":"levelo_inurba_marseille","lat":43.298051,"lon":5.380878,"is_reserved":false,"is_disabled":false,"rental_uris":{"android":"levelo://app?vid=3a02d89e-6126-4a18-b49e-a792bade63ab","ios":"levelo://app?vid=3a02d89e-6126-4a18-b49e-a792bade63ab"},"vehicle_type_id":"4","last_reported":1712405551,"current_range_meters":30000,"station_id":"","pricing_plan_id":"cebpf4jnsgd1na2vs0mg"},{"bike_id":"2f44c6ae-84bd-4b53-8abc-b9120f079571","system_id":"levelo_inurba_marseille","lat":43.290103,"lon":5.356114,"is_reserved":false,"is_disabled":false,"rental_uris":{"android":"levelo://app?vid=2f44c6ae-84bd-4b53-8abc-b9120f079571","ios":"levelo://app?vid=2f44c6ae-84bd-4b53-8abc-b9120f079571"},"vehicle_type_id":"4","last_reported":1712405551,"current_range_meters":0,"station_id":"ce4bhb92rcd13ifvqen0","pricing_plan_id":"cebpf4jnsgd1na2vs0mg"},{"bike_id":"9ffa8a54-9130-4906-8bb8-f4f61e5f590b","system_id":"levelo_inurba_marseille","lat":43.298037,"lon":5.381066,"is_reserved":false,"is_disabled":false,"rental_uris":{"android":"levelo://app?vid=9ffa8a54-9130-4906-8bb8-f4f61e5f590b","ios":"levelo://app?vid=9ffa8a54-9130-4906-8bb8-f4f61e5f590b"},"vehicle_type_id":"4","last_reported":1712405551,"current_range_meters":14000,"station_id":"ce4bgip2rcd13ifvqbb0","pricing_plan_id":"cebpf4jnsgd1na2vs0mg"},{"bike_id":"1b881938-f3d3-4863-839b-3d62d6230062","system_id":"levelo_inurba_marseille","lat":43.295748,"lon":5.37522,"is_reserved":false,"is_disabled":false,"rental_uris":{"android":"levelo://app?vid=1b881938-f3d3-4863-839b-3d62d6230062","ios":"levelo://app?vid=1b881938-f3d3-4863-839b-3d62d6230062"},"vehicle_type_id":"4","last_reported":1712405551,"current_range_meters":0,"station_id":"ce4bgh92rcd13ifvqb50","pricing_plan_id":"cebpf4jnsgd1na2vs0mg"},{"bike_id":"02ef03f1-4f7b-4876-84db-d0c25fc5d0ea","system_id":"levelo_inurba_marseille","lat":43.296277,"lon":5.377108,"is_reserved":false,"is_disabled":false,"rental_uris":{"android":"levelo://app?vid=02ef03f1-4f7b-4876-84db-d0c25fc5d0ea","ios":"levelo://app?vid=02ef03f1-4f7b-4876-84db-d0c25fc5d0ea"},"vehicle_type_id":"4","last_reported":1712405551,"current_range_meters":26400,"station_id":"ce4bgi92rcd13ifvqb90","pricing_plan_id":"cebpf4jnsgd1na2vs0mg"},{"bike_id":"1c8334b7-4e8e-4142-b7db-9bbc2d8d1c64","system_id":"levelo_inurba_marseille","lat":43.284214,"lon":5.349706,"is_reserved":false,"is_disabled":false,"rental_uris":{"android":"levelo://app?vid=1c8334b7-4e8e-4142-b7db-9bbc2d8d1c64","ios":"levelo://app?vid=1c8334b7-4e8e-4142-b7db-9bbc2d8d1c64"},"vehicle_type_id":"4","last_reported":1712405551,"current_range_meters":26400,"station_id":"ce4bhbh2rcd13ifvqepg","pricing_plan_id":"cebpf4jnsgd1na2vs0mg"},{"bike_id":"9747e17f-2160-4259-a864-82e14f06d429","system_id":"levelo_inurba_marseille","lat":43.295279,"lon":5.375048,"is_reserved":false,"is_disabled":false,"rental_uris":{"android":"levelo://app?vid=9747e17f-2160-4259-a864-82e14f06d429","ios":"levelo://app?vid=9747e17f-2160-4259-a864-82e14f06d429"},"vehicle_type_id":"4","last_reported":1712405551,"current_range_meters":0,"station_id":"ce4bgkp2rcd13ifvqbmg","pricing_plan_id":"cebpf4jnsgd1na2vs0mg"},{"bike_id":"987d0676-a1cb-45c3-ab53-3afb80b2673b","system_id":"levelo_inurba_marseille","lat":43.3236,"lon":5.38877,"is_reserved":false,"is_disabled":false,"rental_uris":{"android":"levelo://app?vid=987d0676-a1cb-45c3-ab53-3afb80b2673b","ios":"levelo://app?vid=987d0676-a1cb-45c3-ab53-3afb80b2673b"},"vehicle_type_id":"4","last_reported":1712405551,"current_range_meters":8400,"station_id":"ce4bhqp2rcd13ifvqhog","pricing_plan_id":"cebpf4jnsgd1na2vs0mg"},{"bike_id":"f2ecb6d4-ca17-49b7-8b59-c57655864632","system_id":"levelo_inurba_marseille","lat":43.32359,"lon":5.38879,"is_reserved":false,"is_disabled":false,"rental_uris":{"android":"levelo://app?vid=f2ecb6d4-ca17-49b7-8b59-c57655864632","ios":"levelo://app?vid=f2ecb6d4-ca17-49b7-8b59-c57655864632"},"vehicle_type_id":"4","last_reported":1712405551,"current_range_meters":7200,"station_id":"ce4bhqp2rcd13ifvqhog","pricing_plan_id":"cebpf4jnsgd1na2vs0mg"},{"bike_id":"ef95e66e-e894-4c47-af3b-a3b6eb491c17","system_id":"levelo_inurba_marseille","lat":43.323593,"lon":5.388825,"is_reserved":false,"is_disabled":false,"rental_uris":{"android":"levelo://app?vid=ef95e66e-e894-4c47-af3b-a3b6eb491c17","ios":"levelo://app?vid=ef95e66e-e894-4c47-af3b-a3b6eb491c17"},"vehicle_type_id":"4","last_reported":1712405551,"current_range_meters":30800,"station_id":"ce4bhqp2rcd13ifvqhog","pricing_plan_id":"cebpf4jnsgd1na2vs0mg"},{"bike_id":"ca489e1a-76bb-408d-a414-6afa997460b0","system_id":"levelo_inurba_marseille","lat":43.323626,"lon":5.388821,"is_reserved":false,"is_disabled":false,"rental_uris":{"android":"levelo://app?vid=ca489e1a-76bb-408d-a414-6afa997460b0","ios":"levelo://app?vid=ca489e1a-76bb-408d-a414-6afa997460b0"},"vehicle_type_id":"4","last_reported":1712405551,"current_range_meters":30800,"station_id":"ce4bhqp2rcd13ifvqhog","pricing_plan_id":"cebpf4jnsgd1na2vs0mg"},{"bike_id":"19a778c6-84de-43b4-9ee5-617e57525e2c","system_id":"levelo_inurba_marseille","lat":43.323588,"lon":5.388865,"is_reserved":false,"is_disabled":false,"rental_uris":{"android":"levelo://app?vid=19a778c6-84de-43b4-9ee5-617e57525e2c","ios":"levelo://app?vid=19a778c6-84de-43b4-9ee5-617e57525e2c"},"vehicle_type_id":"4","last_reported":1712405551,"current_range_meters":30000,"station_id":"ce4bhqp2rcd13ifvqhog","pricing_plan_id":"cebpf4jnsgd1na2vs0mg"},{"bike_id":"c7c8d46c-5a4a-4cca-ac41-95e7db9cc197","system_id":"levelo_inurba_marseille","lat":43.323636,"lon":5.388831,"is_reserved":false,"is_disabled":false,"rental_uris":{"android":"levelo://app?vid=c7c8d46c-5a4a-4cca-ac41-95e7db9cc197","ios":"levelo://app?vid=c7c8d46c-5a4a-4cca-ac41-95e7db9cc197"},"vehicle_type_id":"4","last_reported":1712405551,"current_range_meters":29200,"station_id":"ce4bhqp2rcd13ifvqhog","pricing_plan_id":"cebpf4jnsgd1na2vs0mg"},{"bike_id":"941a5afb-594d-47ec-8c61-fec50f33c0ee","system_id":"levelo_inurba_marseille","lat":43.32364,"lon":5.38884,"is_reserved":false,"is_disabled":false,"rental_uris":{"android":"levelo://app?vid=941a5afb-594d-47ec-8c61-fec50f33c0ee","ios":"levelo://app?vid=941a5afb-594d-47ec-8c61-fec50f33c0ee"},"vehicle_type_id":"4","last_reported":1712405551,"current_range_meters":29200,"station_id":"ce4bhqp2rcd13ifvqhog","pricing_plan_id":"cebpf4jnsgd1na2vs0mg"},{"bike_id":"8c53dfd4-294b-4745-8a22-fdf2bf20f21b","system_id":"levelo_inurba_marseille","lat":43.32369,"lon":5.3888,"is_reserved":false,"is_disabled":false,"rental_uris":{"android":"levelo://app?vid=8c53dfd4-294b-4745-8a22-fdf2bf20f21b","ios":"levelo://app?vid=8c53dfd4-294b-4745-8a22-fdf2bf20f21b"},"vehicle_type_id":"4","last_reported":1712405551,"current_range_meters":24000,"station_id":"ce4bhqp2rcd13ifvqhog","pricing_plan_id":"cebpf4jnsgd1na2vs0mg"},{"bike_id":"cd93fb89-8201-4e6f-a051-31d7e592475f","system_id":"levelo_inurba_marseille","lat":43.323621,"lon":5.388889,"is_reserved":false,"is_disabled":false,"rental_uris":{"android":"levelo://app?vid=cd93fb89-8201-4e6f-a051-31d7e592475f","ios":"levelo://app?vid=cd93fb89-8201-4e6f-a051-31d7e592475f"},"vehicle_type_id":"4","last_reported":1712405551,"current_range_meters":17200,"station_id":"ce4bhqp2rcd13ifvqhog","pricing_plan_id":"cebpf4jnsgd1na2vs0mg"},{"bike_id":"c4433137-a155-4c9c-92fd-007eb25cafce","system_id":"levelo_inurba_marseille","lat":43.323689,"lon":5.388846,"is_reserved":false,"is_disabled":false,"rental_uris":{"android":"levelo://app?vid=c4433137-a155-4c9c-92fd-007eb25cafce","ios":"levelo://app?vid=c4433137-a155-4c9c-92fd-007eb25cafce"},"vehicle_type_id":"4","last_reported":1712405551,"current_range_meters":29200,"station_id":"ce4bhqp2rcd13ifvqhog","pricing_plan_id":"cebpf4jnsgd1na2vs0mg"},{"bike_id":"41405296-cc57-4517-995e-a1d8f1fd6e67","system_id":"levelo_inurba_marseille","lat":43.32367,"lon":5.388836,"is_reserved":false,"is_disabled":false,"rental_uris":{"android":"levelo://app?vid=41405296-cc57-4517-995e-a1d8f1fd6e67","ios":"levelo://app?vid=41405296-cc57-4517-995e-a1d8f1fd6e67"},"vehicle_type_id":"4","last_reported":1712405551,"current_range_meters":17200,"station_id":"ce4bhqp2rcd13ifvqhog","pricing_plan_id":"cebpf4jnsgd1na2vs0mg"},{"bike_id":"6ef31ad6-3fda-440e-8b53-a17ec5a3c380","system_id":"levelo_inurba_marseille","lat":43.296082,"lon":5.381089,"is_reserved":false,"is_disabled":false,"rental_uris":{"android":"levelo://app?vid=6ef31ad6-3fda-440e-8b53-a17ec5a3c380","ios":"levelo://app?vid=6ef31ad6-3fda-440e-8b53-a17ec5a3c380"},"vehicle_type_id":"4","last_reported":1712405551,"current_range_meters":8800,"station_id":"ce4bgl12rcd13ifvqbo0","pricing_plan_id":"cebpf4jnsgd1na2vs0mg"},{"bike_id":"db439e4d-a08a-4ca7-b978-84d3fe07dbb4","system_id":"levelo_inurba_marseille","lat":43.29602,"lon":5.381084,"is_reserved":false,"is_disabled":false,"rental_uris":{"android":"levelo://app?vid=db439e4d-a08a-4ca7-b978-84d3fe07dbb4","ios":"levelo://app?vid=db439e4d-a08a-4ca7-b978-84d3fe07dbb4"},"vehicle_type_id":"4","last_reported":1712405551,"current_range_meters":18400,"station_id":"ce4bgl12rcd13ifvqbo0","pricing_plan_id":"cebpf4jnsgd1na2vs0mg"},{"bike_id":"9c582d73-6f5c-4355-960f-613ed90aaf1b","system_id":"levelo_inurba_marseille","lat":43.293259,"lon":5.371586,"is_reserved":false,"is_disabled":false,"rental_uris":{"android":"levelo://app?vid=9c582d73-6f5c-4355-960f-613ed90aaf1b","ios":"levelo://app?vid=9c582d73-6f5c-4355-960f-613ed90aaf1b"},"vehicle_type_id":"4","last_reported":1712405551,"current_range_meters":1200,"station_id":"ce4bgh92rcd13ifvqb40","pricing_plan_id":"cebpf4jnsgd1na2vs0mg"},{"bike_id":"2ea3e940-b5ae-43bc-894d-573c205275e2","system_id":"levelo_inurba_marseille","lat":43.29263,"lon":5.36845,"is_reserved":false,"is_disabled":false,"rental_uris":{"android":"levelo://app?vid=2ea3e940-b5ae-43bc-894d-573c205275e2","ios":"levelo://app?vid=2ea3e940-b5ae-43bc-894d-573c205275e2"},"vehicle_type_id":"4","last_reported":1712405551,"current_range_meters":0,"station_id":"ce4bhbp2rcd13ifvqesg","pricing_plan_id":"cebpf4jnsgd1na2vs0mg"},{"bike_id":"7991b26f-08e1-4179-a718-ba0c52332cf8","system_id":"levelo_inurba_marseille","lat":43.292329,"lon":5.36847,"is_reserved":false,"is_disabled":false,"rental_uris":{"android":"levelo://app?vid=7991b26f-08e1-4179-a718-ba0c52332cf8","ios":"levelo://app?vid=7991b26f-08e1-4179-a718-ba0c52332cf8"},"vehicle_type_id":"4","last_reported":1712405551,"current_range_meters":7200,"station_id":"","pricing_plan_id":"cebpf4jnsgd1na2vs0mg"},{"bike_id":"7f2f7aa3-56bf-4fb0-9119-199b3a48b4ae","system_id":"levelo_inurba_marseille","lat":43.292311,"lon":5.360731,"is_reserved":false,"is_disabled":false,"rental_uris":{"android":"levelo://app?vid=7f2f7aa3-56bf-4fb0-9119-199b3a48b4ae","ios":"levelo://app?vid=7f2f7aa3-56bf-4fb0-9119-199b3a48b4ae"},"vehicle_type_id":"4","last_reported":1712405551,"current_range_meters":0,"station_id":"ce4bhbh2rcd13ifvqeqg","pricing_plan_id":"cebpf4jnsgd1na2vs0mg"},{"bike_id":"87e5f589-3340-4729-ae4f-23b82b0601a8","system_id":"levelo_inurba_marseille","lat":43.293009,"lon":5.374584,"is_reserved":false,"is_disabled":false,"rental_uris":{"android":"levelo://app?vid=87e5f589-3340-4729-ae4f-23b82b0601a8","ios":"levelo://app?vid=87e5f589-3340-4729-ae4f-23b82b0601a8"},"vehicle_type_id":"4","last_reported":1712405551,"current_range_meters":23200,"station_id":"ce4bgi12rcd13ifvqb70","pricing_plan_id":"cebpf4jnsgd1na2vs0mg"},{"bike_id":"ac30e2ae-a423-49d1-8ca4-5be76b6f5748","system_id":"levelo_inurba_marseille","lat":43.30143,"lon":5.37413,"is_reserved":false,"is_disabled":false,"rental_uris":{"android":"levelo://app?vid=ac30e2ae-a423-49d1-8ca4-5be76b6f5748","ios":"levelo://app?vid=ac30e2ae-a423-49d1-8ca4-5be76b6f5748"},"vehicle_type_id":"4","last_reported":1712405551,"current_range_meters":14400,"station_id":"ce4bgs92rcd13ifvqcc0","pricing_plan_id":"cebpf4jnsgd1na2vs0mg"},{"bike_id":"231f3221-7c2b-449e-91b1-e5cc78f65e8d","system_id":"levelo_inurba_marseille","lat":43.30299,"lon":5.39205,"is_reserved":false,"is_disabled":false,"rental_uris":{"android":"levelo://app?vid=231f3221-7c2b-449e-91b1-e5cc78f65e8d","ios":"levelo://app?vid=231f3221-7c2b-449e-91b1-e5cc78f65e8d"},"vehicle_type_id":"4","last_reported":1712405551,"current_range_meters":0,"station_id":"ce4bgkh2rcd13ifvqbk0","pricing_plan_id":"cebpf4jnsgd1na2vs0mg"},{"bike_id":"e7bec0f1-433e-4190-8c7f-d0dcd4e7f9a0","system_id":"levelo_inurba_marseille","lat":43.2936,"lon":5.37835,"is_reserved":false,"is_disabled":false,"rental_uris":{"android":"levelo://app?vid=e7bec0f1-433e-4190-8c7f-d0dcd4e7f9a0","ios":"levelo://app?vid=e7bec0f1-433e-4190-8c7f-d0dcd4e7f9a0"},"vehicle_type_id":"4","last_reported":1712405551,"current_range_meters":0,"station_id":"ce4bgjh2rcd13ifvqbf0","pricing_plan_id":"cebpf4jnsgd1na2vs0mg"},{"bike_id":"9e0b8454-ded2-4972-848f-60c491a6bdf3","system_id":"levelo_inurba_marseille","lat":43.298764,"lon":5.388973,"is_reserved":false,"is_disabled":false,"rental_uris":{"android":"levelo://app?vid=9e0b8454-ded2-4972-848f-60c491a6bdf3","ios":"levelo://app?vid=9e0b8454-ded2-4972-848f-60c491a6bdf3"},"vehicle_type_id":"4","last_reported":1712405551,"current_range_meters":25200,"station_id":"ce4bh392rcd13ifvqdl0","pricing_plan_id":"cebpf4jnsgd1na2vs0mg"},{"bike_id":"6e2d52ff-2a7e-46e4-8e69-92803547185f","system_id":"levelo_inurba_marseille","lat":43.29194,"lon":5.35805,"is_reserved":false,"is_disabled":false,"rental_uris":{"android":"levelo://app?vid=6e2d52ff-2a7e-46e4-8e69-92803547185f","ios":"levelo://app?vid=6e2d52ff-2a7e-46e4-8e69-92803547185f"},"vehicle_type_id":"4","last_reported":1712405551,"current_range_meters":0,"station_id":"ce4bhb12rcd13ifvqel0","pricing_plan_id":"cebpf4jnsgd1na2vs0mg"},{"bike_id":"ea9b3540-2d70-4d01-b803-d16467541bf4","system_id":"levelo_inurba_marseille","lat":43.29191,"lon":5.35793,"is_reserved":false,"is_disabled":false,"rental_uris":{"android":"levelo://app?vid=ea9b3540-2d70-4d01-b803-d16467541bf4","ios":"levelo://app?vid=ea9b3540-2d70-4d01-b803-d16467541bf4"},"vehicle_type_id":"4","last_reported":1712405551,"current_range_meters":1200,"station_id":"ce4bhb12rcd13ifvqel0","pricing_plan_id":"cebpf4jnsgd1na2vs0mg"},{"bike_id":"fe004d7f-2e6d-41da-8d22-e49fa5f08e2f","system_id":"levelo_inurba_marseille","lat":43.2919,"lon":5.35795,"is_reserved":false,"is_disabled":false,"rental_uris":{"android":"levelo://app?vid=fe004d7f-2e6d-41da-8d22-e49fa5f08e2f","ios":"levelo://app?vid=fe004d7f-2e6d-41da-8d22-e49fa5f08e2f"},"vehicle_type_id":"4","last_reported":1712405551,"current_range_meters":23600,"station_id":"ce4bhb12rcd13ifvqel0","pricing_plan_id":"cebpf4jnsgd1na2vs0mg"},{"bike_id":"a6da5fa5-6a9f-490b-8033-7a2660490a1c","system_id":"levelo_inurba_marseille","lat":43.2919,"lon":5.35788,"is_reserved":false,"is_disabled":false,"rental_uris":{"android":"levelo://app?vid=a6da5fa5-6a9f-490b-8033-7a2660490a1c","ios":"levelo://app?vid=a6da5fa5-6a9f-490b-8033-7a2660490a1c"},"vehicle_type_id":"4","last_reported":1712405551,"current_range_meters":400,"station_id":"ce4bhb12rcd13ifvqel0","pricing_plan_id":"cebpf4jnsgd1na2vs0mg"},{"bike_id":"fb0c7a94-0658-4b89-977f-33b033ec5252","system_id":"levelo_inurba_marseille","lat":43.29188,"lon":5.35792,"is_reserved":false,"is_disabled":false,"rental_uris":{"android":"levelo://app?vid=fb0c7a94-0658-4b89-977f-33b033ec5252","ios":"levelo://app?vid=fb0c7a94-0658-4b89-977f-33b033ec5252"},"vehicle_type_id":"4","last_reported":1712405551,"current_range_meters":2800,"station_id":"ce4bhb12rcd13ifvqel0","pricing_plan_id":"cebpf4jnsgd1na2vs0mg"},{"bike_id":"57d8c177-f187-4a22-8ca6-7f5b1b483715","system_id":"levelo_inurba_marseille","lat":43.291879,"lon":5.357915,"is_reserved":false,"is_disabled":false,"rental_uris":{"android":"levelo://app?vid=57d8c177-f187-4a22-8ca6-7f5b1b483715","ios":"levelo://app?vid=57d8c177-f187-4a22-8ca6-7f5b1b483715"},"vehicle_type_id":"4","last_reported":1712405551,"current_range_meters":24400,"station_id":"ce4bhb12rcd13ifvqel0","pricing_plan_id":"cebpf4jnsgd1na2vs0mg"},{"bike_id":"0f64ca3a-cc31-4d52-83c0-86e89730a7b8","system_id":"levelo_inurba_marseille","lat":43.29186,"lon":5.35792,"is_reserved":false,"is_disabled":false,"rental_uris":{"android":"levelo://app?vid=0f64ca3a-cc31-4d52-83c0-86e89730a7b8","ios":"levelo://app?vid=0f64ca3a-cc31-4d52-83c0-86e89730a7b8"},"vehicle_type_id":"4","last_reported":1712405551,"current_range_meters":26800,"station_id":"ce4bhb12rcd13ifvqel0","pricing_plan_id":"cebpf4jnsgd1na2vs0mg"},{"bike_id":"5efb1ceb-6872-495b-8d52-21f1dac9a5e8","system_id":"levelo_inurba_marseille","lat":43.313291,"lon":5.396838,"is_reserved":false,"is_disabled":false,"rental_uris":{"android":"levelo://app?vid=5efb1ceb-6872-495b-8d52-21f1dac9a5e8","ios":"levelo://app?vid=5efb1ceb-6872-495b-8d52-21f1dac9a5e8"},"vehicle_type_id":"4","last_reported":1712405551,"current_range_meters":6000,"station_id":"ce4bgvp2rcd13ifvqcu0","pricing_plan_id":"cebpf4jnsgd1na2vs0mg"},{"bike_id":"f3edbc25-44f0-420c-ada6-0a8a78ec809a","system_id":"levelo_inurba_marseille","lat":43.29529,"lon":5.385581,"is_reserved":false,"is_disabled":false,"rental_uris":{"android":"levelo://app?vid=f3edbc25-44f0-420c-ada6-0a8a78ec809a","ios":"levelo://app?vid=f3edbc25-44f0-420c-ada6-0a8a78ec809a"},"vehicle_type_id":"4","last_reported":1712405551,"current_range_meters":0,"station_id":"ce4bgih2rcd13ifvqba0","pricing_plan_id":"cebpf4jnsgd1na2vs0mg"},{"bike_id":"b7417c79-a48c-4d07-9e01-8d8c30418543","system_id":"levelo_inurba_marseille","lat":43.290779,"lon":5.371482,"is_reserved":false,"is_disabled":false,"rental_uris":{"android":"levelo://app?vid=b7417c79-a48c-4d07-9e01-8d8c30418543","ios":"levelo://app?vid=b7417c79-a48c-4d07-9e01-8d8c30418543"},"vehicle_type_id":"4","last_reported":1712405551,"current_range_meters":26400,"station_id":"ce4bh5p2rcd13ifvqe4g","pricing_plan_id":"cebpf4jnsgd1na2vs0mg"},{"bike_id":"9c54fbe5-e0a9-4c96-a73e-84d6217ddb23","system_id":"levelo_inurba_marseille","lat":43.290624,"lon":5.359245,"is_reserved":false,"is_disabled":false,"rental_uris":{"android":"levelo://app?vid=9c54fbe5-e0a9-4c96-a73e-84d6217ddb23","ios":"levelo://app?vid=9c54fbe5-e0a9-4c96-a73e-84d6217ddb23"},"vehicle_type_id":"4","last_reported":1712405551,"current_range_meters":4800,"station_id":"ce4bha92rcd13ifvqeg0","pricing_plan_id":"cebpf4jnsgd1na2vs0mg"},{"bike_id":"453b607b-0917-4ecb-9429-3ce4d3a24dd8","system_id":"levelo_inurba_marseille","lat":43.292704,"lon":5.384386,"is_reserved":false,"is_disabled":false,"rental_uris":{"android":"levelo://app?vid=453b607b-0917-4ecb-9429-3ce4d3a24dd8","ios":"levelo://app?vid=453b607b-0917-4ecb-9429-3ce4d3a24dd8"},"vehicle_type_id":"4","last_reported":1712405551,"current_range_meters":14400,"station_id":"ce4bhch2rcd13ifvqeug","pricing_plan_id":"cebpf4jnsgd1na2vs0mg"},{"bike_id":"149be663-ef3b-4c34-bbfc-63bf45273d9f","system_id":"levelo_inurba_marseille","lat":43.292642,"lon":5.384254,"is_reserved":false,"is_disabled":false,"rental_uris":{"android":"levelo://app?vid=149be663-ef3b-4c34-bbfc-63bf45273d9f","ios":"levelo://app?vid=149be663-ef3b-4c34-bbfc-63bf45273d9f"},"vehicle_type_id":"4","last_reported":1712405551,"current_range_meters":22400,"station_id":"ce4bh692rcd13ifvqea0","pricing_plan_id":"cebpf4jnsgd1na2vs0mg"},{"bike_id":"efa33755-ab2c-4831-ace3-7154a3822649","system_id":"levelo_inurba_marseille","lat":43.290104,"lon":5.356111,"is_reserved":false,"is_disabled":false,"rental_uris":{"android":"levelo://app?vid=efa33755-ab2c-4831-ace3-7154a3822649","ios":"levelo://app?vid=efa33755-ab2c-4831-ace3-7154a3822649"},"vehicle_type_id":"4","last_reported":1712405551,"current_range_meters":11600,"station_id":"ce4bhb92rcd13ifvqen0","pricing_plan_id":"cebpf4jnsgd1na2vs0mg"},{"bike_id":"d7fca6c5-8080-4c07-9087-2e8fbd912991","system_id":"levelo_inurba_marseille","lat":43.284217,"lon":5.349697,"is_reserved":false,"is_disabled":false,"rental_uris":{"android":"levelo://app?vid=d7fca6c5-8080-4c07-9087-2e8fbd912991","ios":"levelo://app?vid=d7fca6c5-8080-4c07-9087-2e8fbd912991"},"vehicle_type_id":"4","last_reported":1712405551,"current_range_meters":7200,"station_id":"ce4bhbh2rcd13ifvqepg","pricing_plan_id":"cebpf4jnsgd1na2vs0mg"},{"bike_id":"347d1f46-f135-40c9-81a4-7e1a5cd0ff3f","system_id":"levelo_inurba_marseille","lat":43.33017,"lon":5.39034,"is_reserved":false,"is_disabled":false,"rental_uris":{"android":"levelo://app?vid=347d1f46-f135-40c9-81a4-7e1a5cd0ff3f","ios":"levelo://app?vid=347d1f46-f135-40c9-81a4-7e1a5cd0ff3f"},"vehicle_type_id":"4","last_reported":1712405551,"current_range_meters":5200,"station_id":"ce4bhr92rcd13ifvqhrg","pricing_plan_id":"cebpf4jnsgd1na2vs0mg"},{"bike_id":"cf0de3df-9bc9-437d-bc82-95d59dc9a0b5","system_id":"levelo_inurba_marseille","lat":43.295169,"lon":5.390426,"is_reserved":false,"is_disabled":false,"rental_uris":{"android":"levelo://app?vid=cf0de3df-9bc9-437d-bc82-95d59dc9a0b5","ios":"levelo://app?vid=cf0de3df-9bc9-437d-bc82-95d59dc9a0b5"},"vehicle_type_id":"4","last_reported":1712405551,"current_range_meters":30400,"station_id":"ce4bh3p2rcd13ifvqdp0","pricing_plan_id":"cebpf4jnsgd1na2vs0mg"},{"bike_id":"6ac9564e-4732-4ccb-81c9-5b65459a7ed5","system_id":"levelo_inurba_marseille","lat":43.295169,"lon":5.390426,"is_reserved":false,"is_disabled":false,"rental_uris":{"android":"levelo://app?vid=6ac9564e-4732-4ccb-81c9-5b65459a7ed5","ios":"levelo://app?vid=6ac9564e-4732-4ccb-81c9-5b65459a7ed5"},"vehicle_type_id":"4","last_reported":1712405551,"current_range_meters":17200,"station_id":"ce4bh3p2rcd13ifvqdp0","pricing_plan_id":"cebpf4jnsgd1na2vs0mg"},{"bike_id":"dce5cc7f-245f-4696-b41f-0b0a834e724c","system_id":"levelo_inurba_marseille","lat":43.3302,"lon":5.39032,"is_reserved":false,"is_disabled":false,"rental_uris":{"android":"levelo://app?vid=dce5cc7f-245f-4696-b41f-0b0a834e724c","ios":"levelo://app?vid=dce5cc7f-245f-4696-b41f-0b0a834e724c"},"vehicle_type_id":"4","last_reported":1712405551,"current_range_meters":8800,"station_id":"ce4bhr92rcd13ifvqhrg","pricing_plan_id":"cebpf4jnsgd1na2vs0mg"},{"bike_id":"a326837c-0775-4f84-94f7-95df8af05c55","system_id":"levelo_inurba_marseille","lat":43.283494,"lon":5.380945,"is_reserved":false,"is_disabled":false,"rental_uris":{"android":"levelo://app?vid=a326837c-0775-4f84-94f7-95df8af05c55","ios":"levelo://app?vid=a326837c-0775-4f84-94f7-95df8af05c55"},"vehicle_type_id":"4","last_reported":1712405551,"current_range_meters":400,"station_id":"ce4bh412rcd13ifvqdr0","pricing_plan_id":"cebpf4jnsgd1na2vs0mg"},{"bike_id":"51100bf3-a1c9-4109-8461-0302ab0d4978","system_id":"levelo_inurba_marseille","lat":43.33022,"lon":5.39038,"is_reserved":false,"is_disabled":false,"rental_uris":{"android":"levelo://app?vid=51100bf3-a1c9-4109-8461-0302ab0d4978","ios":"levelo://app?vid=51100bf3-a1c9-4109-8461-0302ab0d4978"},"vehicle_type_id":"4","last_reported":1712405551,"current_range_meters":4000,"station_id":"ce4bhr92rcd13ifvqhrg","pricing_plan_id":"cebpf4jnsgd1na2vs0mg"},{"bike_id":"feda6a47-460d-4cc8-b8fd-38edbc200cf8","system_id":"levelo_inurba_marseille","lat":43.33025,"lon":5.39037,"is_reserved":false,"is_disabled":false,"rental_uris":{"android":"levelo://app?vid=feda6a47-460d-4cc8-b8fd-38edbc200cf8","ios":"levelo://app?vid=feda6a47-460d-4cc8-b8fd-38edbc200cf8"},"vehicle_type_id":"4","last_reported":1712405551,"current_range_meters":8000,"station_id":"ce4bhr92rcd13ifvqhrg","pricing_plan_id":"cebpf4jnsgd1na2vs0mg"},{"bike_id":"de0defe0-72d9-4f04-ac52-dcf4c789878f","system_id":"levelo_inurba_marseille","lat":43.330442,"lon":5.389148,"is_reserved":false,"is_disabled":false,"rental_uris":{"android":"levelo://app?vid=de0defe0-72d9-4f04-ac52-dcf4c789878f","ios":"levelo://app?vid=de0defe0-72d9-4f04-ac52-dcf4c789878f"},"vehicle_type_id":"4","last_reported":1712405551,"current_range_meters":4400,"station_id":"ce4bhr92rcd13ifvqhrg","pricing_plan_id":"cebpf4jnsgd1na2vs0mg"},{"bike_id":"03420a97-229e-48e8-9a95-3ffc9a63ae9f","system_id":"levelo_inurba_marseille","lat":43.33024,"lon":5.39044,"is_reserved":false,"is_disabled":false,"rental_uris":{"android":"levelo://app?vid=03420a97-229e-48e8-9a95-3ffc9a63ae9f","ios":"levelo://app?vid=03420a97-229e-48e8-9a95-3ffc9a63ae9f"},"vehicle_type_id":"4","last_reported":1712405551,"current_range_meters":0,"station_id":"ce4bhr92rcd13ifvqhrg","pricing_plan_id":"cebpf4jnsgd1na2vs0mg"},{"bike_id":"c335a38a-fce8-4385-b008-f1b42b3e9ac9","system_id":"levelo_inurba_marseille","lat":43.330442,"lon":5.389148,"is_reserved":false,"is_disabled":false,"rental_uris":{"android":"levelo://app?vid=c335a38a-fce8-4385-b008-f1b42b3e9ac9","ios":"levelo://app?vid=c335a38a-fce8-4385-b008-f1b42b3e9ac9"},"vehicle_type_id":"4","last_reported":1712405551,"current_range_meters":31600,"station_id":"ce4bhr92rcd13ifvqhrg","pricing_plan_id":"cebpf4jnsgd1na2vs0mg"},{"bike_id":"2b8033c3-c130-43cd-b402-e467fc5e83b2","system_id":"levelo_inurba_marseille","lat":43.302709,"lon":5.397606,"is_reserved":false,"is_disabled":false,"rental_uris":{"android":"levelo://app?vid=2b8033c3-c130-43cd-b402-e467fc5e83b2","ios":"levelo://app?vid=2b8033c3-c130-43cd-b402-e467fc5e83b2"},"vehicle_type_id":"4","last_reported":1712405551,"current_range_meters":19200,"station_id":"","pricing_plan_id":"cebpf4jnsgd1na2vs0mg"},{"bike_id":"a6d35766-e0a9-48f8-93fa-e416dc84cf89","system_id":"levelo_inurba_marseille","lat":43.330442,"lon":5.389148,"is_reserved":false,"is_disabled":false,"rental_uris":{"android":"levelo://app?vid=a6d35766-e0a9-48f8-93fa-e416dc84cf89","ios":"levelo://app?vid=a6d35766-e0a9-48f8-93fa-e416dc84cf89"},"vehicle_type_id":"4","last_reported":1712405551,"current_range_meters":4400,"station_id":"ce4bhr92rcd13ifvqhrg","pricing_plan_id":"cebpf4jnsgd1na2vs0mg"},{"bike_id":"8298480c-a999-4cc6-a0f7-58458394ccd9","system_id":"levelo_inurba_marseille","lat":43.33023,"lon":5.39053,"is_reserved":false,"is_disabled":false,"rental_uris":{"android":"levelo://app?vid=8298480c-a999-4cc6-a0f7-58458394ccd9","ios":"levelo://app?vid=8298480c-a999-4cc6-a0f7-58458394ccd9"},"vehicle_type_id":"4","last_reported":1712405551,"current_range_meters":0,"station_id":"ce4bhr92rcd13ifvqhrg","pricing_plan_id":"cebpf4jnsgd1na2vs0mg"},{"bike_id":"1dce9aa1-5232-4b74-8ce2-5f74a5bbde23","system_id":"levelo_inurba_marseille","lat":43.33113,"lon":5.38923,"is_reserved":false,"is_disabled":false,"rental_uris":{"android":"levelo://app?vid=1dce9aa1-5232-4b74-8ce2-5f74a5bbde23","ios":"levelo://app?vid=1dce9aa1-5232-4b74-8ce2-5f74a5bbde23"},"vehicle_type_id":"4","last_reported":1712405551,"current_range_meters":17200,"station_id":"","pricing_plan_id":"cebpf4jnsgd1na2vs0mg"},{"bike_id":"29a0d463-0b5a-4dee-856d-01c0581c56b4","system_id":"levelo_inurba_marseille","lat":43.33023,"lon":5.39056,"is_reserved":false,"is_disabled":false,"rental_uris":{"android":"levelo://app?vid=29a0d463-0b5a-4dee-856d-01c0581c56b4","ios":"levelo://app?vid=29a0d463-0b5a-4dee-856d-01c0581c56b4"},"vehicle_type_id":"4","last_reported":1712405551,"current_range_meters":2800,"station_id":"ce4bhr92rcd13ifvqhrg","pricing_plan_id":"cebpf4jnsgd1na2vs0mg"},{"bike_id":"3b87a693-8ce6-42e3-8ed8-1fbf50b15285","system_id":"levelo_inurba_marseille","lat":43.33659,"lon":5.37508,"is_reserved":false,"is_disabled":false,"rental_uris":{"android":"levelo://app?vid=3b87a693-8ce6-42e3-8ed8-1fbf50b15285","ios":"levelo://app?vid=3b87a693-8ce6-42e3-8ed8-1fbf50b15285"},"vehicle_type_id":"4","last_reported":1712405551,"current_range_meters":0,"station_id":"","pricing_plan_id":"cebpf4jnsgd1na2vs0mg"},{"bike_id":"407ec065-5a03-4123-b8ec-f2863ae8019e","system_id":"levelo_inurba_marseille","lat":43.284787,"lon":5.384116,"is_reserved":false,"is_disabled":false,"rental_uris":{"android":"levelo://app?vid=407ec065-5a03-4123-b8ec-f2863ae8019e","ios":"levelo://app?vid=407ec065-5a03-4123-b8ec-f2863ae8019e"},"vehicle_type_id":"4","last_reported":1712405551,"current_range_meters":1200,"station_id":"ce4bh512rcd13ifvqe3g","pricing_plan_id":"cebpf4jnsgd1na2vs0mg"},{"bike_id":"a9cadb0b-4bf0-437e-adb0-cf5f8c3bb5e2","system_id":"levelo_inurba_marseille","lat":43.28856,"lon":5.358371,"is_reserved":false,"is_disabled":false,"rental_uris":{"android":"levelo://app?vid=a9cadb0b-4bf0-437e-adb0-cf5f8c3bb5e2","ios":"levelo://app?vid=a9cadb0b-4bf0-437e-adb0-cf5f8c3bb5e2"},"vehicle_type_id":"4","last_reported":1712405551,"current_range_meters":3600,"station_id":"ce4bhb12rcd13ifvqem0","pricing_plan_id":"cebpf4jnsgd1na2vs0mg"},{"bike_id":"ea2de427-1b48-49ed-b988-0ea8ed4b7d9a","system_id":"levelo_inurba_marseille","lat":43.28856,"lon":5.358371,"is_reserved":false,"is_disabled":false,"rental_uris":{"android":"levelo://app?vid=ea2de427-1b48-49ed-b988-0ea8ed4b7d9a","ios":"levelo://app?vid=ea2de427-1b48-49ed-b988-0ea8ed4b7d9a"},"vehicle_type_id":"4","last_reported":1712405551,"current_range_meters":17600,"station_id":"ce4bhb12rcd13ifvqem0","pricing_plan_id":"cebpf4jnsgd1na2vs0mg"},{"bike_id":"88a445e3-bb4a-4d6a-93b3-46a62286b76f","system_id":"levelo_inurba_marseille","lat":43.28856,"lon":5.358371,"is_reserved":false,"is_disabled":false,"rental_uris":{"android":"levelo://app?vid=88a445e3-bb4a-4d6a-93b3-46a62286b76f","ios":"levelo://app?vid=88a445e3-bb4a-4d6a-93b3-46a62286b76f"},"vehicle_type_id":"4","last_reported":1712405551,"current_range_meters":17200,"station_id":"ce4bhb12rcd13ifvqem0","pricing_plan_id":"cebpf4jnsgd1na2vs0mg"},{"bike_id":"348eb98c-3da9-4ba2-8022-71e7c9ef3d75","system_id":"levelo_inurba_marseille","lat":43.28856,"lon":5.358371,"is_reserved":false,"is_disabled":false,"rental_uris":{"android":"levelo://app?vid=348eb98c-3da9-4ba2-8022-71e7c9ef3d75","ios":"levelo://app?vid=348eb98c-3da9-4ba2-8022-71e7c9ef3d75"},"vehicle_type_id":"4","last_reported":1712405551,"current_range_meters":23200,"station_id":"ce4bhb12rcd13ifvqem0","pricing_plan_id":"cebpf4jnsgd1na2vs0mg"},{"bike_id":"979ae432-9ff5-4588-908b-a7c2ac444746","system_id":"levelo_inurba_marseille","lat":43.33757,"lon":5.37464,"is_reserved":false,"is_disabled":false,"rental_uris":{"android":"levelo://app?vid=979ae432-9ff5-4588-908b-a7c2ac444746","ios":"levelo://app?vid=979ae432-9ff5-4588-908b-a7c2ac444746"},"vehicle_type_id":"4","last_reported":1712405551,"current_range_meters":29600,"station_id":"","pricing_plan_id":"cebpf4jnsgd1na2vs0mg"},{"bike_id":"32b7a2d7-d304-4b5c-b97b-d6f9fda4565f","system_id":"levelo_inurba_marseille","lat":43.33767,"lon":5.3744,"is_reserved":false,"is_disabled":false,"rental_uris":{"android":"levelo://app?vid=32b7a2d7-d304-4b5c-b97b-d6f9fda4565f","ios":"levelo://app?vid=32b7a2d7-d304-4b5c-b97b-d6f9fda4565f"},"vehicle_type_id":"4","last_reported":1712405551,"current_range_meters":30800,"station_id":"","pricing_plan_id":"cebpf4jnsgd1na2vs0mg"},{"bike_id":"360bd2c7-190d-4c44-bcdb-dc122f574b59","system_id":"levelo_inurba_marseille","lat":43.28727,"lon":5.36078,"is_reserved":false,"is_disabled":false,"rental_uris":{"android":"levelo://app?vid=360bd2c7-190d-4c44-bcdb-dc122f574b59","ios":"levelo://app?vid=360bd2c7-190d-4c44-bcdb-dc122f574b59"},"vehicle_type_id":"4","last_reported":1712405551,"current_range_meters":9600,"station_id":"cki0cbj6b192h4jlfktg","pricing_plan_id":"cebpf4jnsgd1na2vs0mg"},{"bike_id":"176af191-a381-45cc-9b22-130b84dcca6a","system_id":"levelo_inurba_marseille","lat":43.28727,"lon":5.36078,"is_reserved":false,"is_disabled":false,"rental_uris":{"android":"levelo://app?vid=176af191-a381-45cc-9b22-130b84dcca6a","ios":"levelo://app?vid=176af191-a381-45cc-9b22-130b84dcca6a"},"vehicle_type_id":"4","last_reported":1712405551,"current_range_meters":21200,"station_id":"cki0cbj6b192h4jlfktg","pricing_plan_id":"cebpf4jnsgd1na2vs0mg"},{"bike_id":"53b773da-7b96-41c7-8de8-ca27a36e04e6","system_id":"levelo_inurba_marseille","lat":43.286591,"lon":5.363346,"is_reserved":false,"is_disabled":false,"rental_uris":{"android":"levelo://app?vid=53b773da-7b96-41c7-8de8-ca27a36e04e6","ios":"levelo://app?vid=53b773da-7b96-41c7-8de8-ca27a36e04e6"},"vehicle_type_id":"4","last_reported":1712405551,"current_range_meters":27600,"station_id":"ce4bhah2rcd13ifvqej0","pricing_plan_id":"cebpf4jnsgd1na2vs0mg"},{"bike_id":"35d38001-0d50-472d-958d-2c160bebfbfc","system_id":"levelo_inurba_marseille","lat":43.298681,"lon":5.397225,"is_reserved":false,"is_disabled":false,"rental_uris":{"android":"levelo://app?vid=35d38001-0d50-472d-958d-2c160bebfbfc","ios":"levelo://app?vid=35d38001-0d50-472d-958d-2c160bebfbfc"},"vehicle_type_id":"4","last_reported":1712405551,"current_range_meters":24800,"station_id":"ce4bh0h2rcd13ifvqd50","pricing_plan_id":"cebpf4jnsgd1na2vs0mg"},{"bike_id":"bae70127-2895-4fee-8be6-5be00326b0a2","system_id":"levelo_inurba_marseille","lat":43.286961,"lon":5.373785,"is_reserved":false,"is_disabled":false,"rental_uris":{"android":"levelo://app?vid=bae70127-2895-4fee-8be6-5be00326b0a2","ios":"levelo://app?vid=bae70127-2895-4fee-8be6-5be00326b0a2"},"vehicle_type_id":"4","last_reported":1712405551,"current_range_meters":2000,"station_id":"ce4bh3p2rcd13ifvqdq0","pricing_plan_id":"cebpf4jnsgd1na2vs0mg"},{"bike_id":"f4ba6daf-289e-4548-bca3-93e524ba3b6c","system_id":"levelo_inurba_marseille","lat":43.286591,"lon":5.363346,"is_reserved":false,"is_disabled":false,"rental_uris":{"android":"levelo://app?vid=f4ba6daf-289e-4548-bca3-93e524ba3b6c","ios":"levelo://app?vid=f4ba6daf-289e-4548-bca3-93e524ba3b6c"},"vehicle_type_id":"4","last_reported":1712405551,"current_range_meters":9200,"station_id":"ce4bhah2rcd13ifvqej0","pricing_plan_id":"cebpf4jnsgd1na2vs0mg"},{"bike_id":"e656383c-6d5b-4fdc-aff5-3291e6a36692","system_id":"levelo_inurba_marseille","lat":43.286961,"lon":5.373785,"is_reserved":false,"is_disabled":false,"rental_uris":{"android":"levelo://app?vid=e656383c-6d5b-4fdc-aff5-3291e6a36692","ios":"levelo://app?vid=e656383c-6d5b-4fdc-aff5-3291e6a36692"},"vehicle_type_id":"4","last_reported":1712405551,"current_range_meters":10000,"station_id":"ce4bh3p2rcd13ifvqdq0","pricing_plan_id":"cebpf4jnsgd1na2vs0mg"},{"bike_id":"0ad3ec05-ff03-4e71-87fc-ee594c62e0d5","system_id":"levelo_inurba_marseille","lat":43.290336,"lon":5.386425,"is_reserved":false,"is_disabled":false,"rental_uris":{"android":"levelo://app?vid=0ad3ec05-ff03-4e71-87fc-ee594c62e0d5","ios":"levelo://app?vid=0ad3ec05-ff03-4e71-87fc-ee594c62e0d5"},"vehicle_type_id":"4","last_reported":1712405551,"current_range_meters":30000,"station_id":"ce4bh4p2rcd13ifvqe0g","pricing_plan_id":"cebpf4jnsgd1na2vs0mg"},{"bike_id":"e5f0c2ac-a63b-49c4-8302-cdeea681357c","system_id":"levelo_inurba_marseille","lat":43.29012,"lon":5.38626,"is_reserved":false,"is_disabled":false,"rental_uris":{"android":"levelo://app?vid=e5f0c2ac-a63b-49c4-8302-cdeea681357c","ios":"levelo://app?vid=e5f0c2ac-a63b-49c4-8302-cdeea681357c"},"vehicle_type_id":"4","last_reported":1712405551,"current_range_meters":14400,"station_id":"","pricing_plan_id":"cebpf4jnsgd1na2vs0mg"},{"bike_id":"39a4f0a3-3c31-4b8e-9a65-402ff0a63abf","system_id":"levelo_inurba_marseille","lat":43.286039,"lon":5.370681,"is_reserved":false,"is_disabled":false,"rental_uris":{"android":"levelo://app?vid=39a4f0a3-3c31-4b8e-9a65-402ff0a63abf","ios":"levelo://app?vid=39a4f0a3-3c31-4b8e-9a65-402ff0a63abf"},"vehicle_type_id":"4","last_reported":1712405551,"current_range_meters":10000,"station_id":"ce4bht12rcd13ifvqi60","pricing_plan_id":"cebpf4jnsgd1na2vs0mg"},{"bike_id":"5621a998-7275-489d-bb12-74f055c3f4aa","system_id":"levelo_inurba_marseille","lat":43.286039,"lon":5.370681,"is_reserved":false,"is_disabled":false,"rental_uris":{"android":"levelo://app?vid=5621a998-7275-489d-bb12-74f055c3f4aa","ios":"levelo://app?vid=5621a998-7275-489d-bb12-74f055c3f4aa"},"vehicle_type_id":"4","last_reported":1712405551,"current_range_meters":14400,"station_id":"ce4bht12rcd13ifvqi60","pricing_plan_id":"cebpf4jnsgd1na2vs0mg"},{"bike_id":"0290d3b3-1ac9-4234-92f1-15cebcb767ad","system_id":"levelo_inurba_marseille","lat":43.289307,"lon":5.38406,"is_reserved":false,"is_disabled":false,"rental_uris":{"android":"levelo://app?vid=0290d3b3-1ac9-4234-92f1-15cebcb767ad","ios":"levelo://app?vid=0290d3b3-1ac9-4234-92f1-15cebcb767ad"},"vehicle_type_id":"4","last_reported":1712405551,"current_range_meters":400,"station_id":"ce4bh612rcd13ifvqe6g","pricing_plan_id":"cebpf4jnsgd1na2vs0mg"},{"bike_id":"cd9bf42c-3e73-491d-9ee4-7da7e2fc10fa","system_id":"levelo_inurba_marseille","lat":43.287168,"lon":5.379275,"is_reserved":false,"is_disabled":false,"rental_uris":{"android":"levelo://app?vid=cd9bf42c-3e73-491d-9ee4-7da7e2fc10fa","ios":"levelo://app?vid=cd9bf42c-3e73-491d-9ee4-7da7e2fc10fa"},"vehicle_type_id":"4","last_reported":1712405551,"current_range_meters":27600,"station_id":"ce4bh9p2rcd13ifvqec0","pricing_plan_id":"cebpf4jnsgd1na2vs0mg"},{"bike_id":"30fc54ca-2c81-4768-ae52-5b05dec1c01c","system_id":"levelo_inurba_marseille","lat":43.287184,"lon":5.37937,"is_reserved":false,"is_disabled":false,"rental_uris":{"android":"levelo://app?vid=30fc54ca-2c81-4768-ae52-5b05dec1c01c","ios":"levelo://app?vid=30fc54ca-2c81-4768-ae52-5b05dec1c01c"},"vehicle_type_id":"4","last_reported":1712405551,"current_range_meters":10000,"station_id":"ce4bh9p2rcd13ifvqec0","pricing_plan_id":"cebpf4jnsgd1na2vs0mg"},{"bike_id":"b08a7dda-74b5-4284-a1a4-12fe445f3684","system_id":"levelo_inurba_marseille","lat":43.31697,"lon":5.40472,"is_reserved":false,"is_disabled":false,"rental_uris":{"android":"levelo://app?vid=b08a7dda-74b5-4284-a1a4-12fe445f3684","ios":"levelo://app?vid=b08a7dda-74b5-4284-a1a4-12fe445f3684"},"vehicle_type_id":"4","last_reported":1712405551,"current_range_meters":400,"station_id":"ce4bh012rcd13ifvqd00","pricing_plan_id":"cebpf4jnsgd1na2vs0mg"},{"bike_id":"0bab4868-d86c-448a-9ebf-7e2b6ac474f0","system_id":"levelo_inurba_marseille","lat":43.317017,"lon":5.404773,"is_reserved":false,"is_disabled":false,"rental_uris":{"android":"levelo://app?vid=0bab4868-d86c-448a-9ebf-7e2b6ac474f0","ios":"levelo://app?vid=0bab4868-d86c-448a-9ebf-7e2b6ac474f0"},"vehicle_type_id":"4","last_reported":1712405551,"current_range_meters":16000,"station_id":"ce4bh012rcd13ifvqd00","pricing_plan_id":"cebpf4jnsgd1na2vs0mg"},{"bike_id":"55ccf70e-6204-43ae-9c38-00499e8dae7c","system_id":"levelo_inurba_marseille","lat":43.284538,"lon":5.358657,"is_reserved":false,"is_disabled":false,"rental_uris":{"android":"levelo://app?vid=55ccf70e-6204-43ae-9c38-00499e8dae7c","ios":"levelo://app?vid=55ccf70e-6204-43ae-9c38-00499e8dae7c"},"vehicle_type_id":"4","last_reported":1712405551,"current_range_meters":12400,"station_id":"ce4bhah2rcd13ifvqei0","pricing_plan_id":"cebpf4jnsgd1na2vs0mg"},{"bike_id":"be7544e3-c9d9-46c6-aace-f290ae00f27b","system_id":"levelo_inurba_marseille","lat":43.284538,"lon":5.358657,"is_reserved":false,"is_disabled":false,"rental_uris":{"android":"levelo://app?vid=be7544e3-c9d9-46c6-aace-f290ae00f27b","ios":"levelo://app?vid=be7544e3-c9d9-46c6-aace-f290ae00f27b"},"vehicle_type_id":"4","last_reported":1712405551,"current_range_meters":26800,"station_id":"ce4bhah2rcd13ifvqei0","pricing_plan_id":"cebpf4jnsgd1na2vs0mg"},{"bike_id":"c9df10c6-2f24-4fd8-b112-36b9777b8893","system_id":"levelo_inurba_marseille","lat":43.28457,"lon":5.3588,"is_reserved":false,"is_disabled":false,"rental_uris":{"android":"levelo://app?vid=c9df10c6-2f24-4fd8-b112-36b9777b8893","ios":"levelo://app?vid=c9df10c6-2f24-4fd8-b112-36b9777b8893"},"vehicle_type_id":"4","last_reported":1712405551,"current_range_meters":7200,"station_id":"","pricing_plan_id":"cebpf4jnsgd1na2vs0mg"},{"bike_id":"2466ba66-4eee-49ae-92bb-bdfa8f90241e","system_id":"levelo_inurba_marseille","lat":43.28618,"lon":5.35114,"is_reserved":false,"is_disabled":false,"rental_uris":{"android":"levelo://app?vid=2466ba66-4eee-49ae-92bb-bdfa8f90241e","ios":"levelo://app?vid=2466ba66-4eee-49ae-92bb-bdfa8f90241e"},"vehicle_type_id":"4","last_reported":1712405551,"current_range_meters":9600,"station_id":"ce4bhch2rcd13ifvqeug","pricing_plan_id":"cebpf4jnsgd1na2vs0mg"},{"bike_id":"d1c97b77-06f1-4f89-8028-71fdaf51b4bd","system_id":"levelo_inurba_marseille","lat":43.28618,"lon":5.35109,"is_reserved":false,"is_disabled":false,"rental_uris":{"android":"levelo://app?vid=d1c97b77-06f1-4f89-8028-71fdaf51b4bd","ios":"levelo://app?vid=d1c97b77-06f1-4f89-8028-71fdaf51b4bd"},"vehicle_type_id":"4","last_reported":1712405551,"current_range_meters":14800,"station_id":"ce4bhch2rcd13ifvqeug","pricing_plan_id":"cebpf4jnsgd1na2vs0mg"},{"bike_id":"ef3aa5b4-3d69-457d-aaa2-53882b437fb2","system_id":"levelo_inurba_marseille","lat":43.28618,"lon":5.35106,"is_reserved":false,"is_disabled":false,"rental_uris":{"android":"levelo://app?vid=ef3aa5b4-3d69-457d-aaa2-53882b437fb2","ios":"levelo://app?vid=ef3aa5b4-3d69-457d-aaa2-53882b437fb2"},"vehicle_type_id":"4","last_reported":1712405551,"current_range_meters":2800,"station_id":"ce4bhch2rcd13ifvqeug","pricing_plan_id":"cebpf4jnsgd1na2vs0mg"},{"bike_id":"1bac264e-98b2-4bce-8009-94c9dcc5ed97","system_id":"levelo_inurba_marseille","lat":43.28617,"lon":5.35109,"is_reserved":false,"is_disabled":false,"rental_uris":{"android":"levelo://app?vid=1bac264e-98b2-4bce-8009-94c9dcc5ed97","ios":"levelo://app?vid=1bac264e-98b2-4bce-8009-94c9dcc5ed97"},"vehicle_type_id":"4","last_reported":1712405551,"current_range_meters":20000,"station_id":"ce4bhch2rcd13ifvqeug","pricing_plan_id":"cebpf4jnsgd1na2vs0mg"},{"bike_id":"60b308dc-bdbb-44bf-ba89-4a92098c8d08","system_id":"levelo_inurba_marseille","lat":43.28617,"lon":5.35107,"is_reserved":false,"is_disabled":false,"rental_uris":{"android":"levelo://app?vid=60b308dc-bdbb-44bf-ba89-4a92098c8d08","ios":"levelo://app?vid=60b308dc-bdbb-44bf-ba89-4a92098c8d08"},"vehicle_type_id":"4","last_reported":1712405551,"current_range_meters":10000,"station_id":"ce4bhch2rcd13ifvqeug","pricing_plan_id":"cebpf4jnsgd1na2vs0mg"},{"bike_id":"1c8c60be-0b4b-46b4-82b2-46a1056e75e0","system_id":"levelo_inurba_marseille","lat":43.28617,"lon":5.35105,"is_reserved":false,"is_disabled":false,"rental_uris":{"android":"levelo://app?vid=1c8c60be-0b4b-46b4-82b2-46a1056e75e0","ios":"levelo://app?vid=1c8c60be-0b4b-46b4-82b2-46a1056e75e0"},"vehicle_type_id":"4","last_reported":1712405551,"current_range_meters":0,"station_id":"ce4bhch2rcd13ifvqeug","pricing_plan_id":"cebpf4jnsgd1na2vs0mg"},{"bike_id":"7ebaab5f-993f-4bf0-a29c-28e7f6e723b3","system_id":"levelo_inurba_marseille","lat":43.28614,"lon":5.351073,"is_reserved":false,"is_disabled":false,"rental_uris":{"android":"levelo://app?vid=7ebaab5f-993f-4bf0-a29c-28e7f6e723b3","ios":"levelo://app?vid=7ebaab5f-993f-4bf0-a29c-28e7f6e723b3"},"vehicle_type_id":"4","last_reported":1712405551,"current_range_meters":10800,"station_id":"ce4bhch2rcd13ifvqeug","pricing_plan_id":"cebpf4jnsgd1na2vs0mg"},{"bike_id":"3922c0e5-b253-4843-93ca-9f61a64e3bb8","system_id":"levelo_inurba_marseille","lat":43.28614,"lon":5.35107,"is_reserved":false,"is_disabled":false,"rental_uris":{"android":"levelo://app?vid=3922c0e5-b253-4843-93ca-9f61a64e3bb8","ios":"levelo://app?vid=3922c0e5-b253-4843-93ca-9f61a64e3bb8"},"vehicle_type_id":"4","last_reported":1712405551,"current_range_meters":16000,"station_id":"ce4bhch2rcd13ifvqeug","pricing_plan_id":"cebpf4jnsgd1na2vs0mg"},{"bike_id":"3ae1ef38-8729-415a-a051-72ac64074c0a","system_id":"levelo_inurba_marseille","lat":43.28613,"lon":5.35107,"is_reserved":false,"is_disabled":false,"rental_uris":{"android":"levelo://app?vid=3ae1ef38-8729-415a-a051-72ac64074c0a","ios":"levelo://app?vid=3ae1ef38-8729-415a-a051-72ac64074c0a"},"vehicle_type_id":"4","last_reported":1712405551,"current_range_meters":23600,"station_id":"ce4bhch2rcd13ifvqeug","pricing_plan_id":"cebpf4jnsgd1na2vs0mg"},{"bike_id":"b1fc98fb-5b8c-4645-9de4-b12a5cb8bcfe","system_id":"levelo_inurba_marseille","lat":43.285848,"lon":5.350787,"is_reserved":false,"is_disabled":false,"rental_uris":{"android":"levelo://app?vid=b1fc98fb-5b8c-4645-9de4-b12a5cb8bcfe","ios":"levelo://app?vid=b1fc98fb-5b8c-4645-9de4-b12a5cb8bcfe"},"vehicle_type_id":"4","last_reported":1712405551,"current_range_meters":16800,"station_id":"ce4bhch2rcd13ifvqeug","pricing_plan_id":"cebpf4jnsgd1na2vs0mg"},{"bike_id":"e5fd84a8-5228-4c9c-b67b-8332905fe962","system_id":"levelo_inurba_marseille","lat":43.28613,"lon":5.35103,"is_reserved":false,"is_disabled":false,"rental_uris":{"android":"levelo://app?vid=e5fd84a8-5228-4c9c-b67b-8332905fe962","ios":"levelo://app?vid=e5fd84a8-5228-4c9c-b67b-8332905fe962"},"vehicle_type_id":"4","last_reported":1712405551,"current_range_meters":21200,"station_id":"ce4bhch2rcd13ifvqeug","pricing_plan_id":"cebpf4jnsgd1na2vs0mg"},{"bike_id":"731995c1-ef4e-427f-8d1d-625e49b468cf","system_id":"levelo_inurba_marseille","lat":43.286103,"lon":5.351057,"is_reserved":false,"is_disabled":false,"rental_uris":{"android":"levelo://app?vid=731995c1-ef4e-427f-8d1d-625e49b468cf","ios":"levelo://app?vid=731995c1-ef4e-427f-8d1d-625e49b468cf"},"vehicle_type_id":"4","last_reported":1712405551,"current_range_meters":7200,"station_id":"ce4bhch2rcd13ifvqeug","pricing_plan_id":"cebpf4jnsgd1na2vs0mg"},{"bike_id":"a1da5e08-5077-4c61-96bf-d7606cf09067","system_id":"levelo_inurba_marseille","lat":43.283998,"lon":5.375062,"is_reserved":false,"is_disabled":false,"rental_uris":{"android":"levelo://app?vid=a1da5e08-5077-4c61-96bf-d7606cf09067","ios":"levelo://app?vid=a1da5e08-5077-4c61-96bf-d7606cf09067"},"vehicle_type_id":"4","last_reported":1712405551,"current_range_meters":0,"station_id":"ce4bh412rcd13ifvqds0","pricing_plan_id":"cebpf4jnsgd1na2vs0mg"},{"bike_id":"67084123-503a-492f-aaf5-b2ff69133a20","system_id":"levelo_inurba_marseille","lat":43.29575,"lon":5.39968,"is_reserved":false,"is_disabled":false,"rental_uris":{"android":"levelo://app?vid=67084123-503a-492f-aaf5-b2ff69133a20","ios":"levelo://app?vid=67084123-503a-492f-aaf5-b2ff69133a20"},"vehicle_type_id":"4","last_reported":1712405551,"current_range_meters":1200,"station_id":"ce4bhgp2rcd13ifvqfc0","pricing_plan_id":"cebpf4jnsgd1na2vs0mg"},{"bike_id":"2995551b-01e6-47b7-88fe-13e7dc94c982","system_id":"levelo_inurba_marseille","lat":43.284793,"lon":5.384119,"is_reserved":false,"is_disabled":false,"rental_uris":{"android":"levelo://app?vid=2995551b-01e6-47b7-88fe-13e7dc94c982","ios":"levelo://app?vid=2995551b-01e6-47b7-88fe-13e7dc94c982"},"vehicle_type_id":"4","last_reported":1712405551,"current_range_meters":25600,"station_id":"ce4bh512rcd13ifvqe3g","pricing_plan_id":"cebpf4jnsgd1na2vs0mg"},{"bike_id":"e13d7fb3-314f-45c6-a2ae-1961a8a5dc9b","system_id":"levelo_inurba_marseille","lat":43.286595,"lon":5.386795,"is_reserved":false,"is_disabled":false,"rental_uris":{"android":"levelo://app?vid=e13d7fb3-314f-45c6-a2ae-1961a8a5dc9b","ios":"levelo://app?vid=e13d7fb3-314f-45c6-a2ae-1961a8a5dc9b"},"vehicle_type_id":"4","last_reported":1712405551,"current_range_meters":16000,"station_id":"ce4bh492rcd13ifvqdug","pricing_plan_id":"cebpf4jnsgd1na2vs0mg"},{"bike_id":"db905246-f797-4c12-9dc0-8f89a69918e4","system_id":"levelo_inurba_marseille","lat":43.286595,"lon":5.386795,"is_reserved":false,"is_disabled":false,"rental_uris":{"android":"levelo://app?vid=db905246-f797-4c12-9dc0-8f89a69918e4","ios":"levelo://app?vid=db905246-f797-4c12-9dc0-8f89a69918e4"},"vehicle_type_id":"4","last_reported":1712405551,"current_range_meters":3600,"station_id":"ce4bh492rcd13ifvqdug","pricing_plan_id":"cebpf4jnsgd1na2vs0mg"},{"bike_id":"6a6d992d-10c0-4a41-a4da-df7d4e0628e1","system_id":"levelo_inurba_marseille","lat":43.319179,"lon":5.407725,"is_reserved":false,"is_disabled":false,"rental_uris":{"android":"levelo://app?vid=6a6d992d-10c0-4a41-a4da-df7d4e0628e1","ios":"levelo://app?vid=6a6d992d-10c0-4a41-a4da-df7d4e0628e1"},"vehicle_type_id":"4","last_reported":1712405551,"current_range_meters":30000,"station_id":"ce4bhq12rcd13ifvqhig","pricing_plan_id":"cebpf4jnsgd1na2vs0mg"},{"bike_id":"f812a27d-d08a-42f6-bbb1-3b4446cd36b5","system_id":"levelo_inurba_marseille","lat":43.319179,"lon":5.407725,"is_reserved":false,"is_disabled":false,"rental_uris":{"android":"levelo://app?vid=f812a27d-d08a-42f6-bbb1-3b4446cd36b5","ios":"levelo://app?vid=f812a27d-d08a-42f6-bbb1-3b4446cd36b5"},"vehicle_type_id":"4","last_reported":1712405551,"current_range_meters":8400,"station_id":"ce4bhq12rcd13ifvqhig","pricing_plan_id":"cebpf4jnsgd1na2vs0mg"},{"bike_id":"c5c0d990-19bb-4244-9804-bfc36259b72b","system_id":"levelo_inurba_marseille","lat":43.33717,"lon":5.391857,"is_reserved":false,"is_disabled":false,"rental_uris":{"android":"levelo://app?vid=c5c0d990-19bb-4244-9804-bfc36259b72b","ios":"levelo://app?vid=c5c0d990-19bb-4244-9804-bfc36259b72b"},"vehicle_type_id":"4","last_reported":1712405551,"current_range_meters":25200,"station_id":"ce4bhr92rcd13ifvqhsg","pricing_plan_id":"cebpf4jnsgd1na2vs0mg"},{"bike_id":"87abc62f-b0a5-446b-8759-833c01d3b540","system_id":"levelo_inurba_marseille","lat":43.323464,"lon":5.406297,"is_reserved":false,"is_disabled":false,"rental_uris":{"android":"levelo://app?vid=87abc62f-b0a5-446b-8759-833c01d3b540","ios":"levelo://app?vid=87abc62f-b0a5-446b-8759-833c01d3b540"},"vehicle_type_id":"4","last_reported":1712405551,"current_range_meters":23600,"station_id":"ce4bhq92rcd13ifvqhjg","pricing_plan_id":"cebpf4jnsgd1na2vs0mg"},