{"last_updated":1730383729,"ttl":60,"version":"2.2","data":{"bikes":[{"bike_id":"e4bbc832-436f-482e-8a94-66135373f59d","system_id":"levelo_inurba_marseille","lat":43.31355,"lon":5.3674,"is_reserved":false,"is_disabled":false,"rental_uris":{"android":"levelo://app?vid=e4bbc832-436f-482e-8a94-66135373f59d","ios":"levelo://app?vid=e4bbc832-436f-482e-8a94-66135373f59d"},"vehicle_type_id":"4","last_reported":1730383729,"current_range_meters":38000,"station_id":"ce4bgr92rcd13ifvqc6g","pricing_plan_id":"cebpf4jnsgd1na2vs0mg"},{"bike_id":"e36513f8-eb97-4b97-ab7b-45b82b211f60","system_id":"levelo_inurba_marseille","lat":43.25587,"lon":5.38242,"is_reserved":false,"is_disabled":false,"rental_uris":{"android":"levelo://app?vid=e36513f8-eb97-4b97-ab7b-45b82b211f60","ios":"levelo://app?vid=e36513f8-eb97-4b97-ab7b-45b82b211f60"},"vehicle_type_id":"4","last_reported":1730383729,"current_range_meters":39200,"station_id":"ce4bhih2rcd13ifvqfs0","pricing_plan_id":"cebpf4jnsgd1na2vs0mg"},{"bike_id":"874b1dbe-9552-496d-9bc1-26d2fcb8136c","system_id":"levelo_inurba_marseille","lat":43.30914,"lon":5.36853,"is_reserved":false,"is_disabled":false,"rental_uris":{"android":"levelo://app?vid=874b1dbe-9552-496d-9bc1-26d2fcb8136c","ios":"levelo://app?vid=874b1dbe-9552-496d-9bc1-26d2fcb8136c"},"vehicle_type_id":"4","last_reported":1730383729,"current_range_meters":32000,"station_id":"ce4bgn92rcd13ifvqbvg","pricing_plan_id":"cebpf4jnsgd1na2vs0mg"},{"bike_id":"313a1616-f9f2-4d16-a928-eb2c875662ce","system_id":"levelo_inurba_marseille","lat":43.30139,"lon":5.3743,"is_reserved":false,"is_disabled":false,"rental_uris":{"android":"levelo://app?vid=313a1616-f9f2-4d16-a928-eb2c875662ce","ios":"levelo://app?vid=313a1616-f9f2-4d16-a928-eb2c875662ce"},"vehicle_type_id":"4","last_reported":1730383729,"current_range_meters":38000,"station_id":"ce4bgs92rcd13ifvqcc0","pricing_plan_id":"cebpf4jnsgd1na2vs0mg"},{"bike_id":"f64c1e7d-3ae9-4dfc-8ec2-0a90d036364f","system_id":"levelo_inurba_marseille","lat":43.32117,"lon":5.36774,"is_reserved":false,"is_disabled":false,"rental_uris":{"android":"levelo://app?vid=f64c1e7d-3ae9-4dfc-8ec2-0a90d036364f","ios":"levelo://app?vid=f64c1e7d-3ae9-4dfc-8ec2-0a90d036364f"},"vehicle_type_id":"4","last_reported":1730383729,"current_range_meters":21600,"station_id":"ce4bhrh2rcd13ifvqhug","pricing_plan_id":"cebpf4jnsgd1na2vs0mg"},{"bike_id":"814f16ea-a19c-4094-a8eb-66ab1aeb24bc","system_id":"levelo_inurba_marseille","lat":43.273229,"lon":5.390762,"is_reserved":false,"is_disabled":false,"rental_uris":{"android":"levelo://app?vid=814f16ea-a19c-4094-a8eb-66ab1aeb24bc","ios":"levelo://app?vid=814f16ea-a19c-4094-a8eb-66ab1aeb24bc"},"vehicle_type_id":"4","last_reported":1730383729,"current_range_meters":34800,"station_id":"ce4bhgp2rcd13ifvqfe0","pricing_plan_id":"cebpf4jnsgd1na2vs0mg"},{"bike_id":"06512352-6143-4529-a7a6-8b0eb922906a","system_id":"levelo_inurba_marseille","lat":43.28275,"lon":5.35059,"is_reserved":false,"is_disabled":false,"rental_uris":{"android":"levelo://app?vid=06512352-6143-4529-a7a6-8b0eb922906a","ios":"levelo://app?vid=06512352-6143-4529-a7a6-8b0eb922906a"},"vehicle_type_id":"4","last_reported":1730383729,"current_range_meters":38000,"station_id":"ce4bhbp2rcd13ifvqerg","pricing_plan_id":"cebpf4jnsgd1na2vs0mg"},{"bike_id":"4dcd4a75-bf8f-4be9-b3b4-d576071bb127","system_id":"levelo_inurba_marseille","lat":43.30907,"lon":5.36846,"is_reserved":false,"is_disabled":false,"rental_uris":{"android":"levelo://app?vid=4dcd4a75-bf8f-4be9-b3b4-d576071bb127","ios":"levelo://app?vid=4dcd4a75-bf8f-4be9-b3b4-d576071bb127"},"vehicle_type_id":"4","last_reported":1730383729,"current_range_meters":28000,"station_id":"ce4bgn92rcd13ifvqbvg","pricing_plan_id":"cebpf4jnsgd1na2vs0mg"},{"bike_id":"8ed3bf52-a167-4a02-ab69-e6e16965e9fa","system_id":"levelo_inurba_marseille","lat":43.29024,"lon":5.3814,"is_reserved":false,"is_disabled":false,"rental_uris":{"android":"levelo://app?vid=8ed3bf52-a167-4a02-ab69-e6e16965e9fa","ios":"levelo://app?vid=8ed3bf52-a167-4a02-ab69-e6e16965e9fa"},"vehicle_type_id":"4","last_reported":1730383729,"current_range_meters":38800,"station_id":"ce4bh4p2rcd13ifvqe1g","pricing_plan_id":"cebpf4jnsgd1na2vs0mg"},{"bike_id":"5a630d2f-334a-434e-9444-556db0f632d1","system_id":"levelo_inurba_marseille","lat":43.30214,"lon":5.39467,"is_reserved":false,"is_disabled":false,"rental_uris":{"android":"levelo://app?vid=5a630d2f-334a-434e-9444-556db0f632d1","ios":"levelo://app?vid=5a630d2f-334a-434e-9444-556db0f632d1"},"vehicle_type_id":"4","last_reported":1730383729,"current_range_meters":7200,"station_id":"ce4bh0p2rcd13ifvqd70","pricing_plan_id":"cebpf4jnsgd1na2vs0mg"},{"bike_id":"a4627486-a087-47d1-bdea-e9476cd49986","system_id":"levelo_inurba_marseille","lat":43.23193,"lon":5.35548,"is_reserved":false,"is_disabled":false,"rental_uris":{"android":"levelo://app?vid=a4627486-a087-47d1-bdea-e9476cd49986","ios":"levelo://app?vid=a4627486-a087-47d1-bdea-e9476cd49986"},"vehicle_type_id":"4","last_reported":1730383729,"current_range_meters":4400,"station_id":"ce4bhu92rcd13ifvqi70","pricing_plan_id":"cebpf4jnsgd1na2vs0mg"},{"bike_id":"a4913636-2ab4-4f65-b3b2-827376776b2c","system_id":"levelo_inurba_marseille","lat":43.22931,"lon":5.35372,"is_reserved":false,"is_disabled":false,"rental_uris":{"android":"levelo://app?vid=a4913636-2ab4-4f65-b3b2-827376776b2c","ios":"levelo://app?vid=a4913636-2ab4-4f65-b3b2-827376776b2c"},"vehicle_type_id":"4","last_reported":1730383729,"current_range_meters":14000,"station_id":"cpo3532slgdg3j2ikp40","pricing_plan_id":"cebpf4jnsgd1na2vs0mg"},{"bike_id":"42181739-fbf5-416f-9cbf-c577856a36df","system_id":"levelo_inurba_marseille","lat":43.337444,"lon":5.374475,"is_reserved":false,"is_disabled":false,"rental_uris":{"android":"levelo://app?vid=42181739-fbf5-416f-9cbf-c577856a36df","ios":"levelo://app?vid=42181739-fbf5-416f-9cbf-c577856a36df"},"vehicle_type_id":"4","last_reported":1730383729,"current_range_meters":20400,"station_id":"","pricing_plan_id":"cebpf4jnsgd1na2vs0mg"},{"bike_id":"18bcff1e-3b95-4fb6-99e1-0164a90e8729","system_id":"levelo_inurba_marseille","lat":43.25582,"lon":5.38231,"is_reserved":false,"is_disabled":false,"rental_uris":{"android":"levelo://app?vid=18bcff1e-3b95-4fb6-99e1-0164a90e8729","ios":"levelo://app?vid=18bcff1e-3b95-4fb6-99e1-0164a90e8729"},"vehicle_type_id":"4","last_reported":1730383729,"current_range_meters":15200,"station_id":"ce4bhih2rcd13ifvqfs0","pricing_plan_id":"cebpf4jnsgd1na2vs0mg"},{"bike_id":"4075e605-7e2d-4335-883e-4292dc011012","system_id":"levelo_inurba_marseille","lat":43.23969,"lon":5.36621,"is_reserved":false,"is_disabled":false,"rental_uris":{"android":"levelo://app?vid=4075e605-7e2d-4335-883e-4292dc011012","ios":"levelo://app?vid=4075e605-7e2d-4335-883e-4292dc011012"},"vehicle_type_id":"4","last_reported":1730383729,"current_range_meters":6000,"station_id":"ce4bhi12rcd13ifvqfp0","pricing_plan_id":"cebpf4jnsgd1na2vs0mg"},{"bike_id":"604871c7-01b3-4e91-ad66-3472f5cb2bd9","system_id":"levelo_inurba_marseille","lat":43.24166,"lon":5.36395,"is_reserved":false,"is_disabled":false,"rental_uris":{"android":"levelo://app?vid=604871c7-01b3-4e91-ad66-3472f5cb2bd9","ios":"levelo://app?vid=604871c7-01b3-4e91-ad66-3472f5cb2bd9"},"vehicle_type_id":"4","last_reported":1730383729,"current_range_meters":32000,"station_id":"cpo36qri1sfpv3e86is0","pricing_plan_id":"cebpf4jnsgd1na2vs0mg"},{"bike_id":"66f87c05-90dc-43a7-acd2-2870fbee0cc8","system_id":"levelo_inurba_marseille","lat":43.23151,"lon":5.43715,"is_reserved":false,"is_disabled":false,"rental_uris":{"android":"levelo://app?vid=66f87c05-90dc-43a7-acd2-2870fbee0cc8","ios":"levelo://app?vid=66f87c05-90dc-43a7-acd2-2870fbee0cc8"},"vehicle_type_id":"4","last_reported":1730383729,"current_range_meters":37600,"station_id":"ce4bhmp2rcd13ifvqgog","pricing_plan_id":"cebpf4jnsgd1na2vs0mg"},{"bike_id":"4a3b511d-83ca-4eb6-8608-09c624a528ad","system_id":"levelo_inurba_marseille","lat":43.30421,"lon":5.39746,"is_reserved":false,"is_disabled":false,"rental_uris":{"android":"levelo://app?vid=4a3b511d-83ca-4eb6-8608-09c624a528ad","ios":"levelo://app?vid=4a3b511d-83ca-4eb6-8608-09c624a528ad"},"vehicle_type_id":"4","last_reported":1730383729,"current_range_meters":38800,"station_id":"ce4bh092rcd13ifvqd20","pricing_plan_id":"cebpf4jnsgd1na2vs0mg"},{"bike_id":"78c92784-8cfa-44dc-a54b-81a6da07add0","system_id":"levelo_inurba_marseille","lat":43.316803,"lon":5.39001,"is_reserved":false,"is_disabled":false,"rental_uris":{"android":"levelo://app?vid=78c92784-8cfa-44dc-a54b-81a6da07add0","ios":"levelo://app?vid=78c92784-8cfa-44dc-a54b-81a6da07add0"},"vehicle_type_id":"4","last_reported":1730383729,"current_range_meters":22000,"station_id":"ce4bhqp2rcd13ifvqhng","pricing_plan_id":"cebpf4jnsgd1na2vs0mg"},{"bike_id":"587272ea-bc76-443c-98ad-a3eba9488ef8","system_id":"levelo_inurba_marseille","lat":43.30136,"lon":5.39877,"is_reserved":false,"is_disabled":false,"rental_uris":{"android":"levelo://app?vid=587272ea-bc76-443c-98ad-a3eba9488ef8","ios":"levelo://app?vid=587272ea-bc76-443c-98ad-a3eba9488ef8"},"vehicle_type_id":"4","last_reported":1730383729,"current_range_meters":37600,"station_id":"ce4bh0h2rcd13ifvqd40","pricing_plan_id":"cebpf4jnsgd1na2vs0mg"},{"bike_id":"a3f96a9a-9d15-4a14-8312-cd4203db9dfa","system_id":"levelo_inurba_marseille","lat":43.28858,"lon":5.39306,"is_reserved":false,"is_disabled":false,"rental_uris":{"android":"levelo://app?vid=a3f96a9a-9d15-4a14-8312-cd4203db9dfa","ios":"levelo://app?vid=a3f96a9a-9d15-4a14-8312-cd4203db9dfa"},"vehicle_type_id":"4","last_reported":1730383729,"current_range_meters":38800,"station_id":"ce4bh2p2rcd13ifvqdi0","pricing_plan_id":"cebpf4jnsgd1na2vs0mg"},{"bike_id":"6e68dc19-dedc-495b-9422-66bbfa8cbb0a","system_id":"levelo_inurba_marseille","lat":43.24392,"lon":5.37057,"is_reserved":false,"is_disabled":false,"rental_uris":{"android":"levelo://app?vid=6e68dc19-dedc-495b-9422-66bbfa8cbb0a","ios":"levelo://app?vid=6e68dc19-dedc-495b-9422-66bbfa8cbb0a"},"vehicle_type_id":"4","last_reported":1730383729,"current_range_meters":35200,"station_id":"ce4bhhh2rcd13ifvqfk0","pricing_plan_id":"cebpf4jnsgd1na2vs0mg"},{"bike_id":"26526880-9924-44a8-9c9b-748580ceb7eb","system_id":"levelo_inurba_marseille","lat":43.29049,"lon":5.39973,"is_reserved":false,"is_disabled":false,"rental_uris":{"android":"levelo://app?vid=26526880-9924-44a8-9c9b-748580ceb7eb","ios":"levelo://app?vid=26526880-9924-44a8-9c9b-748580ceb7eb"},"vehicle_type_id":"4","last_reported":1730383729,"current_range_meters":18800,"station_id":"ce4bh392rcd13ifvqdm0","pricing_plan_id":"cebpf4jnsgd1na2vs0mg"},{"bike_id":"c0ebdfab-7fba-4b64-af6f-7d757095fa16","system_id":"levelo_inurba_marseille","lat":43.27816,"lon":5.40729,"is_reserved":false,"is_disabled":false,"rental_uris":{"android":"levelo://app?vid=c0ebdfab-7fba-4b64-af6f-7d757095fa16","ios":"levelo://app?vid=c0ebdfab-7fba-4b64-af6f-7d757095fa16"},"vehicle_type_id":"4","last_reported":1730383729,"current_range_meters":36800,"station_id":"ce4bhnh2rcd13ifvqgtg","pricing_plan_id":"cebpf4jnsgd1na2vs0mg"},{"bike_id":"b5297106-f719-424e-8021-d5c77e9265b0","system_id":"levelo_inurba_marseille","lat":43.26781,"lon":5.39422,"is_reserved":false,"is_disabled":false,"rental_uris":{"android":"levelo://app?vid=b5297106-f719-424e-8021-d5c77e9265b0","ios":"levelo://app?vid=b5297106-f719-424e-8021-d5c77e9265b0"},"vehicle_type_id":"4","last_reported":1730383729,"current_range_meters":31200,"station_id":"ce4bhh12rcd13ifvqfg0","pricing_plan_id":"cebpf4jnsgd1na2vs0mg"},{"bike_id":"bc4a3de8-cef8-4a70-9c87-938fac1b2548","system_id":"levelo_inurba_marseille","lat":43.2885,"lon":5.35863,"is_reserved":false,"is_disabled":false,"rental_uris":{"android":"levelo://app?vid=bc4a3de8-cef8-4a70-9c87-938fac1b2548","ios":"levelo://app?vid=bc4a3de8-cef8-4a70-9c87-938fac1b2548"},"vehicle_type_id":"4","last_reported":1730383729,"current_range_meters":20400,"station_id":"ce4bhb12rcd13ifvqem0","pricing_plan_id":"cebpf4jnsgd1na2vs0mg"},{"bike_id":"60dbf5d2-7e98-4960-aab5-8fb8cb71004d","system_id":"levelo_inurba_marseille","lat":43.29567,"lon":5.39968,"is_reserved":false,"is_disabled":false,"rental_uris":{"android":"levelo://app?vid=60dbf5d2-7e98-4960-aab5-8fb8cb71004d","ios":"levelo://app?vid=60dbf5d2-7e98-4960-aab5-8fb8cb71004d"},"vehicle_type_id":"4","last_reported":1730383729,"current_range_meters":36800,"station_id":"ce4bh312rcd13ifvqdj0","pricing_plan_id":"cebpf4jnsgd1na2vs0mg"},{"bike_id":"516078c7-5dda-49bb-babc-50d50be44140","system_id":"levelo_inurba_marseille","lat":43.27621,"lon":5.36113,"is_reserved":false,"is_disabled":false,"rental_uris":{"android":"levelo://app?vid=516078c7-5dda-49bb-babc-50d50be44140","ios":"levelo://app?vid=516078c7-5dda-49bb-babc-50d50be44140"},"vehicle_type_id":"4","last_reported":1730383729,"current_range_meters":38800,"station_id":"ce4bgj92rcd13ifvqbe0","pricing_plan_id":"cebpf4jnsgd1na2vs0mg"},{"bike_id":"02bc29e1-9976-44ef-bcb8-2f90d43f13d4","system_id":"levelo_inurba_marseille","lat":43.29004,"lon":5.35609,"is_reserved":false,"is_disabled":false,"rental_uris":{"android":"levelo://app?vid=02bc29e1-9976-44ef-bcb8-2f90d43f13d4","ios":"levelo://app?vid=02bc29e1-9976-44ef-bcb8-2f90d43f13d4"},"vehicle_type_id":"4","last_reported":1730383729,"current_range_meters":32000,"station_id":"ce4bhb92rcd13ifvqen0","pricing_plan_id":"cebpf4jnsgd1na2vs0mg"},{"bike_id":"6a843341-6254-43a7-a7e3-53d208a383c6","system_id":"levelo_inurba_marseille","lat":43.28863,"lon":5.39322,"is_reserved":false,"is_disabled":false,"rental_uris":{"android":"levelo://app?vid=6a843341-6254-43a7-a7e3-53d208a383c6","ios":"levelo://app?vid=6a843341-6254-43a7-a7e3-53d208a383c6"},"vehicle_type_id":"4","last_reported":1730383729,"current_range_meters":8000,"station_id":"ce4bh2p2rcd13ifvqdi0","pricing_plan_id":"cebpf4jnsgd1na2vs0mg"},{"bike_id":"4d66156f-b0d7-486c-8d7d-7d9c54804c63","system_id":"levelo_inurba_marseille","lat":43.28081,"lon":5.39656,"is_reserved":false,"is_disabled":false,"rental_uris":{"android":"levelo://app?vid=4d66156f-b0d7-486c-8d7d-7d9c54804c63","ios":"levelo://app?vid=4d66156f-b0d7-486c-8d7d-7d9c54804c63"},"vehicle_type_id":"4","last_reported":1730383729,"current_range_meters":26000,"station_id":"ce4bho12rcd13ifvqh2g","pricing_plan_id":"cebpf4jnsgd1na2vs0mg"},{"bike_id":"ac2eccd0-69ff-4ddb-ac24-7558056fa7be","system_id":"levelo_inurba_marseille","lat":43.24174,"lon":5.36394,"is_reserved":false,"is_disabled":false,"rental_uris":{"android":"levelo://app?vid=ac2eccd0-69ff-4ddb-ac24-7558056fa7be","ios":"levelo://app?vid=ac2eccd0-69ff-4ddb-ac24-7558056fa7be"},"vehicle_type_id":"4","last_reported":1730383729,"current_range_meters":22800,"station_id":"cpo36qri1sfpv3e86is0","pricing_plan_id":"cebpf4jnsgd1na2vs0mg"},{"bike_id":"039237a1-62b7-49b0-b923-049575bce6ab","system_id":"levelo_inurba_marseille","lat":43.29195,"lon":5.35796,"is_reserved":false,"is_disabled":false,"rental_uris":{"android":"levelo://app?vid=039237a1-62b7-49b0-b923-049575bce6ab","ios":"levelo://app?vid=039237a1-62b7-49b0-b923-049575bce6ab"},"vehicle_type_id":"4","last_reported":1730383729,"current_range_meters":38800,"station_id":"ce4bhb12rcd13ifvqel0","pricing_plan_id":"cebpf4jnsgd1na2vs0mg"},{"bike_id":"997a96a5-d68a-4466-bc4c-f23b6552b4a1","system_id":"levelo_inurba_marseille","lat":43.26496,"lon":5.39562,"is_reserved":false,"is_disabled":false,"rental_uris":{"android":"levelo://app?vid=997a96a5-d68a-4466-bc4c-f23b6552b4a1","ios":"levelo://app?vid=997a96a5-d68a-4466-bc4c-f23b6552b4a1"},"vehicle_type_id":"4","last_reported":1730383729,"current_range_meters":26800,"station_id":"ce4bhi12rcd13ifvqfq0","pricing_plan_id":"cebpf4jnsgd1na2vs0mg"},{"bike_id":"42e61598-64ce-4f84-97eb-90c09ebd9abe","system_id":"levelo_inurba_marseille","lat":43.23189,"lon":5.39994,"is_reserved":false,"is_disabled":false,"rental_uris":{"android":"levelo://app?vid=42e61598-64ce-4f84-97eb-90c09ebd9abe","ios":"levelo://app?vid=42e61598-64ce-4f84-97eb-90c09ebd9abe"},"vehicle_type_id":"4","last_reported":1730383729,"current_range_meters":9600,"station_id":"ce4bhn12rcd13ifvqgqg","pricing_plan_id":"cebpf4jnsgd1na2vs0mg"},{"bike_id":"750f63de-4a1f-4a52-aacb-cf0c010fdd50","system_id":"levelo_inurba_marseille","lat":43.29262,"lon":5.36852,"is_reserved":false,"is_disabled":false,"rental_uris":{"android":"levelo://app?vid=750f63de-4a1f-4a52-aacb-cf0c010fdd50","ios":"levelo://app?vid=750f63de-4a1f-4a52-aacb-cf0c010fdd50"},"vehicle_type_id":"4","last_reported":1730383729,"current_range_meters":20400,"station_id":"ce4bhbp2rcd13ifvqesg","pricing_plan_id":"cebpf4jnsgd1na2vs0mg"},{"bike_id":"726efdfa-49a1-462c-9f10-6196d0e33aab","system_id":"levelo_inurba_marseille","lat":43.31328,"lon":5.39691,"is_reserved":false,"is_disabled":false,"rental_uris":{"android":"levelo://app?vid=726efdfa-49a1-462c-9f10-6196d0e33aab","ios":"levelo://app?vid=726efdfa-49a1-462c-9f10-6196d0e33aab"},"vehicle_type_id":"4","last_reported":1730383729,"current_range_meters":13600,"station_id":"ce4bgvp2rcd13ifvqcu0","pricing_plan_id":"cebpf4jnsgd1na2vs0mg"},{"bike_id":"f3f14d54-8baf-4873-9362-56ef26f1ed8c","system_id":"levelo_inurba_marseille","lat":43.30282,"lon":5.37715,"is_reserved":false,"is_disabled":false,"rental_uris":{"android":"levelo://app?vid=f3f14d54-8baf-4873-9362-56ef26f1ed8c","ios":"levelo://app?vid=f3f14d54-8baf-4873-9362-56ef26f1ed8c"},"vehicle_type_id":"4","last_reported":1730383729,"current_range_meters":26000,"station_id":"ce4bguh2rcd13ifvqcj0","pricing_plan_id":"cebpf4jnsgd1na2vs0mg"},{"bike_id":"91d44c68-ee9c-452d-b3c7-49d901d1c02e","system_id":"levelo_inurba_marseille","lat":43.2811,"lon":5.37843,"is_reserved":false,"is_disabled":false,"rental_uris":{"android":"levelo://app?vid=91d44c68-ee9c-452d-b3c7-49d901d1c02e","ios":"levelo://app?vid=91d44c68-ee9c-452d-b3c7-49d901d1c02e"},"vehicle_type_id":"4","last_reported":1730383729,"current_range_meters":8400,"station_id":"ce4bha12rcd13ifvqee0","pricing_plan_id":"cebpf4jnsgd1na2vs0mg"},{"bike_id":"c573c73f-75e4-475a-bcd6-666ce297695e","system_id":"levelo_inurba_marseille","lat":43.23187,"lon":5.39994,"is_reserved":false,"is_disabled":false,"rental_uris":{"android":"levelo://app?vid=c573c73f-75e4-475a-bcd6-666ce297695e","ios":"levelo://app?vid=c573c73f-75e4-475a-bcd6-666ce297695e"},"vehicle_type_id":"4","last_reported":1730383729,"current_range_meters":26000,"station_id":"ce4bhn12rcd13ifvqgqg","pricing_plan_id":"cebpf4jnsgd1na2vs0mg"},{"bike_id":"ae821726-a095-4718-a299-3975ab0a7cd4","system_id":"levelo_inurba_marseille","lat":43.2862,"lon":5.35105,"is_reserved":false,"is_disabled":false,"rental_uris":{"android":"levelo://app?vid=ae821726-a095-4718-a299-3975ab0a7cd4","ios":"levelo://app?vid=ae821726-a095-4718-a299-3975ab0a7cd4"},"vehicle_type_id":"4","last_reported":1730383729,"current_range_meters":28400,"station_id":"ce4bhch2rcd13ifvqeug","pricing_plan_id":"cebpf4jnsgd1na2vs0mg"},{"bike_id":"a65b7600-bc14-4cb1-bd98-91e0257743b9","system_id":"levelo_inurba_marseille","lat":43.24077,"lon":5.37763,"is_reserved":false,"is_disabled":false,"rental_uris":{"android":"levelo://app?vid=a65b7600-bc14-4cb1-bd98-91e0257743b9","ios":"levelo://app?vid=a65b7600-bc14-4cb1-bd98-91e0257743b9"},"vehicle_type_id":"4","last_reported":1730383729,"current_range_meters":5600,"station_id":"ce4bhnp2rcd13ifvqgvg","pricing_plan_id":"cebpf4jnsgd1na2vs0mg"},{"bike_id":"ffd60997-01db-4877-8c29-97ed39c0b0aa","system_id":"levelo_inurba_marseille","lat":43.26676,"lon":5.38268,"is_reserved":false,"is_disabled":false,"rental_uris":{"android":"levelo://app?vid=ffd60997-01db-4877-8c29-97ed39c0b0aa","ios":"levelo://app?vid=ffd60997-01db-4877-8c29-97ed39c0b0aa"},"vehicle_type_id":"4","last_reported":1730383729,"current_range_meters":3600,"station_id":"ce4bhg92rcd13ifvqf90","pricing_plan_id":"cebpf4jnsgd1na2vs0mg"},{"bike_id":"b03dfabb-7f3f-4176-96ea-4ddf0a08b1e0","system_id":"levelo_inurba_marseille","lat":43.28418,"lon":5.34993,"is_reserved":false,"is_disabled":false,"rental_uris":{"android":"levelo://app?vid=b03dfabb-7f3f-4176-96ea-4ddf0a08b1e0","ios":"levelo://app?vid=b03dfabb-7f3f-4176-96ea-4ddf0a08b1e0"},"vehicle_type_id":"4","last_reported":1730383729,"current_range_meters":38800,"station_id":"ce4bhbh2rcd13ifvqepg","pricing_plan_id":"cebpf4jnsgd1na2vs0mg"},{"bike_id":"1549777b-33eb-4a32-9567-d6c31d0710f5","system_id":"levelo_inurba_marseille","lat":43.32481,"lon":5.3657,"is_reserved":false,"is_disabled":false,"rental_uris":{"android":"levelo://app?vid=1549777b-33eb-4a32-9567-d6c31d0710f5","ios":"levelo://app?vid=1549777b-33eb-4a32-9567-d6c31d0710f5"},"vehicle_type_id":"4","last_reported":1730383729,"current_range_meters":35600,"station_id":"ce4bhs12rcd13ifvqhvg","pricing_plan_id":"cebpf4jnsgd1na2vs0mg"},{"bike_id":"60b71c7c-4918-47ba-8287-329d23746782","system_id":"levelo_inurba_marseille","lat":43.29897,"lon":5.43665,"is_reserved":false,"is_disabled":false,"rental_uris":{"android":"levelo://app?vid=60b71c7c-4918-47ba-8287-329d23746782","ios":"levelo://app?vid=60b71c7c-4918-47ba-8287-329d23746782"},"vehicle_type_id":"4","last_reported":1730383729,"current_range_meters":37600,"station_id":"ce4bhpp2rcd13ifvqhfg","pricing_plan_id":"cebpf4jnsgd1na2vs0mg"},{"bike_id":"ba76ec2a-1392-4a03-9d97-caf931a24170","system_id":"levelo_inurba_marseille","lat":43.29004,"lon":5.35616,"is_reserved":false,"is_disabled":false,"rental_uris":{"android":"levelo://app?vid=ba76ec2a-1392-4a03-9d97-caf931a24170","ios":"levelo://app?vid=ba76ec2a-1392-4a03-9d97-caf931a24170"},"vehicle_type_id":"4","last_reported":1730383729,"current_range_meters":37600,"station_id":"ce4bhb92rcd13ifvqen0","pricing_plan_id":"cebpf4jnsgd1na2vs0mg"},{"bike_id":"7402b7e8-b1f4-4735-bca8-18b131717534","system_id":"levelo_inurba_marseille","lat":43.24388,"lon":5.3705,"is_reserved":false,"is_disabled":false,"rental_uris":{"android":"levelo://app?vid=7402b7e8-b1f4-4735-bca8-18b131717534","ios":"levelo://app?vid=7402b7e8-b1f4-4735-bca8-18b131717534"},"vehicle_type_id":"4","last_reported":1730383729,"current_range_meters":38800,"station_id":"ce4bhhh2rcd13ifvqfk0","pricing_plan_id":"cebpf4jnsgd1na2vs0mg"},{"bike_id":"ad87ce43-6139-408f-af05-15195ecc3e15","system_id":"levelo_inurba_marseille","lat":43.29719,"lon":5.37707,"is_reserved":false,"is_disabled":false,"rental_uris":{"android":"levelo://app?vid=ad87ce43-6139-408f-af05-15195ecc3e15","ios":"levelo://app?vid=ad87ce43-6139-408f-af05-15195ecc3e15"},"vehicle_type_id":"4","last_reported":1730383729,"current_range_meters":37600,"station_id":"ce4bgkh2rcd13ifvqbl0","pricing_plan_id":"cebpf4jnsgd1na2vs0mg"},{"bike_id":"f6b87f4a-05b5-4c72-be1c-1a29215db386","system_id":"levelo_inurba_marseille","lat":43.29052,"lon":5.35912,"is_reserved":false,"is_disabled":false,"rental_uris":{"android":"levelo://app?vid=f6b87f4a-05b5-4c72-be1c-1a29215db386","ios":"levelo://app?vid=f6b87f4a-05b5-4c72-be1c-1a29215db386"},"vehicle_type_id":"4","last_reported":1730383729,"current_range_meters":38000,"station_id":"ce4bha92rcd13ifvqeg0","pricing_plan_id":"cebpf4jnsgd1na2vs0mg"},{"bike_id":"5d03e529-1577-4eb0-bbed-839d10f76dd1","system_id":"levelo_inurba_marseille","lat":43.31233,"lon":5.36869,"is_reserved":false,"is_disabled":false,"rental_uris":{"android":"levelo://app?vid=5d03e529-1577-4eb0-bbed-839d10f76dd1","ios":"levelo://app?vid=5d03e529-1577-4eb0-bbed-839d10f76dd1"},"vehicle_type_id":"4","last_reported":1730383729,"current_range_meters":27600,"station_id":"ce4bgl92rcd13ifvqbq0","pricing_plan_id":"cebpf4jnsgd1na2vs0mg"},{"bike_id":"1f6e67d5-b756-4f72-ba9e-3fad8535a7b9","system_id":"levelo_inurba_marseille","lat":43.26682,"lon":5.38269,"is_reserved":false,"is_disabled":false,"rental_uris":{"android":"levelo://app?vid=1f6e67d5-b756-4f72-ba9e-3fad8535a7b9","ios":"levelo://app?vid=1f6e67d5-b756-4f72-ba9e-3fad8535a7b9"},"vehicle_type_id":"4","last_reported":1730383729,"current_range_meters":38800,"station_id":"ce4bhg92rcd13ifvqf90","pricing_plan_id":"cebpf4jnsgd1na2vs0mg"},{"bike_id":"e097a33c-2c22-46ab-8ca7-78ef23f95842","system_id":"levelo_inurba_marseille","lat":43.31342,"lon":5.36737,"is_reserved":false,"is_disabled":false,"rental_uris":{"android":"levelo://app?vid=e097a33c-2c22-46ab-8ca7-78ef23f95842","ios":"levelo://app?vid=e097a33c-2c22-46ab-8ca7-78ef23f95842"},"vehicle_type_id":"4","last_reported":1730383729,"current_range_meters":38800,"station_id":"ce4bgr92rcd13ifvqc6g","pricing_plan_id":"cebpf4jnsgd1na2vs0mg"},{"bike_id":"af20e6f9-b99f-48ed-9b4e-e720b3e223be","system_id":"levelo_inurba_marseille","lat":43.29235,"lon":5.36068,"is_reserved":false,"is_disabled":false,"rental_uris":{"android":"levelo://app?vid=af20e6f9-b99f-48ed-9b4e-e720b3e223be","ios":"levelo://app?vid=af20e6f9-b99f-48ed-9b4e-e720b3e223be"},"vehicle_type_id":"4","last_reported":1730383729,"current_range_meters":18800,"station_id":"ce4bhbh2rcd13ifvqeqg","pricing_plan_id":"cebpf4jnsgd1na2vs0mg"},{"bike_id":"9de16edf-21a4-4850-aa0b-d90776dbc3f5","system_id":"levelo_inurba_marseille","lat":43.29043,"lon":5.39983,"is_reserved":false,"is_disabled":false,"rental_uris":{"android":"levelo://app?vid=9de16edf-21a4-4850-aa0b-d90776dbc3f5","ios":"levelo://app?vid=9de16edf-21a4-4850-aa0b-d90776dbc3f5"},"vehicle_type_id":"4","last_reported":1730383729,"current_range_meters":33200,"station_id":"ce4bh392rcd13ifvqdm0","pricing_plan_id":"cebpf4jnsgd1na2vs0mg"},{"bike_id":"ae463b9e-bb42-4144-87c5-7d0c55eb15fd","system_id":"levelo_inurba_marseille","lat":43.25875,"lon":5.39907,"is_reserved":false,"is_disabled":false,"rental_uris":{"android":"levelo://app?vid=ae463b9e-bb42-4144-87c5-7d0c55eb15fd","ios":"levelo://app?vid=ae463b9e-bb42-4144-87c5-7d0c55eb15fd"},"vehicle_type_id":"4","last_reported":1730383729,"current_range_meters":21600,"station_id":"ce4bhl92rcd13ifvqghg","pricing_plan_id":"cebpf4jnsgd1na2vs0mg"},{"bike_id":"14a32348-52ca-4dcf-904f-32b4cff5751e","system_id":"levelo_inurba_marseille","lat":43.28724,"lon":5.36102,"is_reserved":false,"is_disabled":false,"rental_uris":{"android":"levelo://app?vid=14a32348-52ca-4dcf-904f-32b4cff5751e","ios":"levelo://app?vid=14a32348-52ca-4dcf-904f-32b4cff5751e"},"vehicle_type_id":"4","last_reported":1730383729,"current_range_meters":27200,"station_id":"cki0cbj6b192h4jlfktg","pricing_plan_id":"cebpf4jnsgd1na2vs0mg"},{"bike_id":"685504a2-153f-4316-8878-284b7a0ae828","system_id":"levelo_inurba_marseille","lat":43.28568,"lon":5.39494,"is_reserved":false,"is_disabled":false,"rental_uris":{"android":"levelo://app?vid=685504a2-153f-4316-8878-284b7a0ae828","ios":"levelo://app?vid=685504a2-153f-4316-8878-284b7a0ae828"},"vehicle_type_id":"4","last_reported":1730383729,"current_range_meters":32000,"station_id":"ce4bh292rcd13ifvqdg0","pricing_plan_id":"cebpf4jnsgd1na2vs0mg"},{"bike_id":"e42bef7f-79fb-4725-aa76-4cfacfbf4654","system_id":"levelo_inurba_marseille","lat":43.31724,"lon":5.42396,"is_reserved":false,"is_disabled":false,"rental_uris":{"android":"levelo://app?vid=e42bef7f-79fb-4725-aa76-4cfacfbf4654","ios":"levelo://app?vid=e42bef7f-79fb-4725-aa76-4cfacfbf4654"},"vehicle_type_id":"4","last_reported":1730383729,"current_range_meters":3600,"station_id":"ce4bhp92rcd13ifvqhbg","pricing_plan_id":"cebpf4jnsgd1na2vs0mg"},{"bike_id":"2d34fd4d-5591-48c6-8249-c63e9e212e89","system_id":"levelo_inurba_marseille","lat":43.24391,"lon":5.3706,"is_reserved":false,"is_disabled":false,"rental_uris":{"android":"levelo://app?vid=2d34fd4d-5591-48c6-8249-c63e9e212e89","ios":"levelo://app?vid=2d34fd4d-5591-48c6-8249-c63e9e212e89"},"vehicle_type_id":"4","last_reported":1730383729,"current_range_meters":14400,"station_id":"ce4bhhh2rcd13ifvqfk0","pricing_plan_id":"cebpf4jnsgd1na2vs0mg"},{"bike_id":"f8ce6fef-4c7a-4df0-a357-9bf1554f09aa","system_id":"levelo_inurba_marseille","lat":43.26199,"lon":5.37449,"is_reserved":false,"is_disabled":false,"rental_uris":{"android":"levelo://app?vid=f8ce6fef-4c7a-4df0-a357-9bf1554f09aa","ios":"levelo://app?vid=f8ce6fef-4c7a-4df0-a357-9bf1554f09aa"},"vehicle_type_id":"4","last_reported":1730383729,"current_range_meters":38800,"station_id":"ce4bhgp2rcd13ifvqfc0","pricing_plan_id":"cebpf4jnsgd1na2vs0mg"},{"bike_id":"92adf987-4779-4b78-ad9c-8e29ab9175f3","system_id":"levelo_inurba_marseille","lat":43.23191,"lon":5.35551,"is_reserved":false,"is_disabled":false,"rental_uris":{"android":"levelo://app?vid=92adf987-4779-4b78-ad9c-8e29ab9175f3","ios":"levelo://app?vid=92adf987-4779-4b78-ad9c-8e29ab9175f3"},"vehicle_type_id":"4","last_reported":1730383729,"current_range_meters":7200,"station_id":"ce4bhu92rcd13ifvqi70","pricing_plan_id":"cebpf4jnsgd1na2vs0mg"},{"bike_id":"5b31eb61-3ff9-41a4-8bab-289545e59deb","system_id":"levelo_inurba_marseille","lat":43.24178,"lon":5.39722,"is_reserved":false,"is_disabled":false,"rental_uris":{"android":"levelo://app?vid=5b31eb61-3ff9-41a4-8bab-289545e59deb","ios":"levelo://app?vid=5b31eb61-3ff9-41a4-8bab-289545e59deb"},"vehicle_type_id":"4","last_reported":1730383729,"current_range_meters":38800,"station_id":"ce4bhn12rcd13ifvqgpg","pricing_plan_id":"cebpf4jnsgd1na2vs0mg"},{"bike_id":"35fd6368-8d63-497d-8a6e-4a321956ebd8","system_id":"levelo_inurba_marseille","lat":43.26488,"lon":5.3955,"is_reserved":false,"is_disabled":false,"rental_uris":{"android":"levelo://app?vid=35fd6368-8d63-497d-8a6e-4a321956ebd8","ios":"levelo://app?vid=35fd6368-8d63-497d-8a6e-4a321956ebd8"},"vehicle_type_id":"4","last_reported":1730383729,"current_range_meters":30000,"station_id":"ce4bhi12rcd13ifvqfq0","pricing_plan_id":"cebpf4jnsgd1na2vs0mg"},{"bike_id":"46b98672-f4a0-442b-afd3-336f9765a463","system_id":"levelo_inurba_marseille","lat":43.30132,"lon":5.39859,"is_reserved":false,"is_disabled":false,"rental_uris":{"android":"levelo://app?vid=46b98672-f4a0-442b-afd3-336f9765a463","ios":"levelo://app?vid=46b98672-f4a0-442b-afd3-336f9765a463"},"vehicle_type_id":"4","last_reported":1730383729,"current_range_meters":21600,"station_id":"ce4bh0h2rcd13ifvqd40","pricing_plan_id":"cebpf4jnsgd1na2vs0mg"},{"bike_id":"7dfaf496-2e50-463a-a103-b8570a0c6a9a","system_id":"levelo_inurba_marseille","lat":43.24389,"lon":5.37053,"is_reserved":false,"is_disabled":false,"rental_uris":{"android":"levelo://app?vid=7dfaf496-2e50-463a-a103-b8570a0c6a9a","ios":"levelo://app?vid=7dfaf496-2e50-463a-a103-b8570a0c6a9a"},"vehicle_type_id":"4","last_reported":1730383729,"current_range_meters":39200,"station_id":"ce4bhhh2rcd13ifvqfk0","pricing_plan_id":"cebpf4jnsgd1na2vs0mg"},{"bike_id":"93821c65-0b40-4fdb-a059-8e450694f6ef","system_id":"levelo_inurba_marseille","lat":43.29374,"lon":5.37858,"is_reserved":false,"is_disabled":false,"rental_uris":{"android":"levelo://app?vid=93821c65-0b40-4fdb-a059-8e450694f6ef","ios":"levelo://app?vid=93821c65-0b40-4fdb-a059-8e450694f6ef"},"vehicle_type_id":"4","last_reported":1730383729,"current_range_meters":16400,"station_id":"ce4bgjh2rcd13ifvqbf0","pricing_plan_id":"cebpf4jnsgd1na2vs0mg"},{"bike_id":"24a3fc8d-a701-41e4-a6f9-e05ffa473525","system_id":"levelo_inurba_marseille","lat":43.30426,"lon":5.39754,"is_reserved":false,"is_disabled":false,"rental_uris":{"android":"levelo://app?vid=24a3fc8d-a701-41e4-a6f9-e05ffa473525","ios":"levelo://app?vid=24a3fc8d-a701-41e4-a6f9-e05ffa473525"},"vehicle_type_id":"4","last_reported":1730383729,"current_range_meters":9200,"station_id":"ce4bh092rcd13ifvqd20","pricing_plan_id":"cebpf4jnsgd1na2vs0mg"},{"bike_id":"d67c2a8c-5175-4ec6-a54b-8e643d3e99bf","system_id":"levelo_inurba_marseille","lat":43.27494,"lon":5.42459,"is_reserved":false,"is_disabled":false,"rental_uris":{"android":"levelo://app?vid=d67c2a8c-5175-4ec6-a54b-8e643d3e99bf","ios":"levelo://app?vid=d67c2a8c-5175-4ec6-a54b-8e643d3e99bf"},"vehicle_type_id":"4","last_reported":1730383729,"current_range_meters":37600,"station_id":"ce4bhn92rcd13ifvqgrg","pricing_plan_id":"cebpf4jnsgd1na2vs0mg"},{"bike_id":"903305da-0676-4faf-9430-6904c985fcb9","system_id":"levelo_inurba_marseille","lat":43.24173,"lon":5.36394,"is_reserved":false,"is_disabled":false,"rental_uris":{"android":"levelo://app?vid=903305da-0676-4faf-9430-6904c985fcb9","ios":"levelo://app?vid=903305da-0676-4faf-9430-6904c985fcb9"},"vehicle_type_id":"4","last_reported":1730383729,"current_range_meters":3200,"station_id":"cpo36qri1sfpv3e86is0","pricing_plan_id":"cebpf4jnsgd1na2vs0mg"},{"bike_id":"39e11cc6-f378-4d7f-b57e-a020cc93671b","system_id":"levelo_inurba_marseille","lat":43.27056,"lon":5.40265,"is_reserved":false,"is_disabled":false,"rental_uris":{"android":"levelo://app?vid=39e11cc6-f378-4d7f-b57e-a020cc93671b","ios":"levelo://app?vid=39e11cc6-f378-4d7f-b57e-a020cc93671b"},"vehicle_type_id":"4","last_reported":1730383729,"current_range_meters":5600,"station_id":"ce4bhk92rcd13ifvqgc0","pricing_plan_id":"cebpf4jnsgd1na2vs0mg"},{"bike_id":"8a8eb0df-1a97-4365-bc2c-776a610d560a","system_id":"levelo_inurba_marseille","lat":43.26572,"lon":5.39013,"is_reserved":false,"is_disabled":false,"rental_uris":{"android":"levelo://app?vid=8a8eb0df-1a97-4365-bc2c-776a610d560a","ios":"levelo://app?vid=8a8eb0df-1a97-4365-bc2c-776a610d560a"},"vehicle_type_id":"4","last_reported":1730383729,"current_range_meters":3200,"station_id":"ce4bhe12rcd13ifvqf30","pricing_plan_id":"cebpf4jnsgd1na2vs0mg"},{"bike_id":"4e1856cc-2887-465e-abd5-df099e1e1bd2","system_id":"levelo_inurba_marseille","lat":43.29003,"lon":5.35609,"is_reserved":false,"is_disabled":false,"rental_uris":{"android":"levelo://app?vid=4e1856cc-2887-465e-abd5-df099e1e1bd2","ios":"levelo://app?vid=4e1856cc-2887-465e-abd5-df099e1e1bd2"},"vehicle_type_id":"4","last_reported":1730383729,"current_range_meters":9200,"station_id":"ce4bhb92rcd13ifvqen0","pricing_plan_id":"cebpf4jnsgd1na2vs0mg"},{"bike_id":"c9a49a0a-1d50-453b-833d-4f68ee000596","system_id":"levelo_inurba_marseille","lat":43.26959,"lon":5.38634,"is_reserved":false,"is_disabled":false,"rental_uris":{"android":"levelo://app?vid=c9a49a0a-1d50-453b-833d-4f68ee000596","ios":"levelo://app?vid=c9a49a0a-1d50-453b-833d-4f68ee000596"},"vehicle_type_id":"4","last_reported":1730383729,"current_range_meters":25600,"station_id":"ce4bhh92rcd13ifvqfh0","pricing_plan_id":"cebpf4jnsgd1na2vs0mg"},{"bike_id":"34fc0a34-1013-4b4c-82d8-3fae046fa458","system_id":"levelo_inurba_marseille","lat":43.30143,"lon":5.38783,"is_reserved":false,"is_disabled":false,"rental_uris":{"android":"levelo://app?vid=34fc0a34-1013-4b4c-82d8-3fae046fa458","ios":"levelo://app?vid=34fc0a34-1013-4b4c-82d8-3fae046fa458"},"vehicle_type_id":"4","last_reported":1730383729,"current_range_meters":37600,"station_id":"ce4bghh2rcd13ifvqb60","pricing_plan_id":"cebpf4jnsgd1na2vs0mg"},{"bike_id":"d37efc20-37ec-4f19-a40b-f11f8a55d345","system_id":"levelo_inurba_marseille","lat":43.28351,"lon":5.38108,"is_reserved":false,"is_disabled":false,"rental_uris":{"android":"levelo://app?vid=d37efc20-37ec-4f19-a40b-f11f8a55d345","ios":"levelo://app?vid=d37efc20-37ec-4f19-a40b-f11f8a55d345"},"vehicle_type_id":"4","last_reported":1730383729,"current_range_meters":36800,"station_id":"ce4bh412rcd13ifvqdr0","pricing_plan_id":"cebpf4jnsgd1na2vs0mg"},{"bike_id":"760142da-0242-4394-aabe-1acac80fc2c0","system_id":"levelo_inurba_marseille","lat":43.33027,"lon":5.39043,"is_reserved":false,"is_disabled":false,"rental_uris":{"android":"levelo://app?vid=760142da-0242-4394-aabe-1acac80fc2c0","ios":"levelo://app?vid=760142da-0242-4394-aabe-1acac80fc2c0"},"vehicle_type_id":"4","last_reported":1730383729,"current_range_meters":6400,"station_id":"ce4bhr92rcd13ifvqhrg","pricing_plan_id":"cebpf4jnsgd1na2vs0mg"},{"bike_id":"4f808683-e5f7-490f-b911-7d1edf2a1bbb","system_id":"levelo_inurba_marseille","lat":43.28851,"lon":5.3932,"is_reserved":false,"is_disabled":false,"rental_uris":{"android":"levelo://app?vid=4f808683-e5f7-490f-b911-7d1edf2a1bbb","ios":"levelo://app?vid=4f808683-e5f7-490f-b911-7d1edf2a1bbb"},"vehicle_type_id":"4","last_reported":1730383729,"current_range_meters":10000,"station_id":"ce4bh2p2rcd13ifvqdi0","pricing_plan_id":"cebpf4jnsgd1na2vs0mg"},{"bike_id":"eb2b7550-af04-4e5a-a491-9967bf738317","system_id":"levelo_inurba_marseille","lat":43.2679,"lon":5.39413,"is_reserved":false,"is_disabled":false,"rental_uris":{"android":"levelo://app?vid=eb2b7550-af04-4e5a-a491-9967bf738317","ios":"levelo://app?vid=eb2b7550-af04-4e5a-a491-9967bf738317"},"vehicle_type_id":"4","last_reported":1730383729,"current_range_meters":24800,"station_id":"ce4bhh12rcd13ifvqfg0","pricing_plan_id":"cebpf4jnsgd1na2vs0mg"},{"bike_id":"2370a04e-d358-4a29-b67a-890bf50b34fd","system_id":"levelo_inurba_marseille","lat":43.24168,"lon":5.364,"is_reserved":false,"is_disabled":false,"rental_uris":{"android":"levelo://app?vid=2370a04e-d358-4a29-b67a-890bf50b34fd","ios":"levelo://app?vid=2370a04e-d358-4a29-b67a-890bf50b34fd"},"vehicle_type_id":"4","last_reported":1730383729,"current_range_meters":37600,"station_id":"cpo36qri1sfpv3e86is0","pricing_plan_id":"cebpf4jnsgd1na2vs0mg"},{"bike_id":"7e5d6a6f-dd62-40e9-b955-8d406147be37","system_id":"levelo_inurba_marseille","lat":43.30312,"lon":5.36901,"is_reserved":false,"is_disabled":false,"rental_uris":{"android":"levelo://app?vid=7e5d6a6f-dd62-40e9-b955-8d406147be37","ios":"levelo://app?vid=7e5d6a6f-dd62-40e9-b955-8d406147be37"},"vehicle_type_id":"4","last_reported":1730383729,"current_range_meters":37600,"station_id":"ce4bgqh2rcd13ifvqc5g","pricing_plan_id":"cebpf4jnsgd1na2vs0mg"},{"bike_id":"870323a0-4358-4158-9ab6-04058acad512","system_id":"levelo_inurba_marseille","lat":43.30555,"lon":5.36541,"is_reserved":false,"is_disabled":false,"rental_uris":{"android":"levelo://app?vid=870323a0-4358-4158-9ab6-04058acad512","ios":"levelo://app?vid=870323a0-4358-4158-9ab6-04058acad512"},"vehicle_type_id":"4","last_reported":1730383729,"current_range_meters":30000,"station_id":"ce4bgs12rcd13ifvqcag","pricing_plan_id":"cebpf4jnsgd1na2vs0mg"},{"bike_id":"92ba3382-76c6-4e24-801f-c8dbf2820c93","system_id":"levelo_inurba_marseille","lat":43.26196,"lon":5.40444,"is_reserved":false,"is_disabled":false,"rental_uris":{"android":"levelo://app?vid=92ba3382-76c6-4e24-801f-c8dbf2820c93","ios":"levelo://app?vid=92ba3382-76c6-4e24-801f-c8dbf2820c93"},"vehicle_type_id":"4","last_reported":1730383729,"current_range_meters":35600,"station_id":"","pricing_plan_id":"cebpf4jnsgd1na2vs0mg"},{"bike_id":"6cfc4f8d-c411-4439-b454-6734fe7d88c3","system_id":"levelo_inurba_marseille","lat":43.33022,"lon":5.39041,"is_reserved":false,"is_disabled":false,"rental_uris":{"android":"levelo://app?vid=6cfc4f8d-c411-4439-b454-6734fe7d88c3","ios":"levelo://app?vid=6cfc4f8d-c411-4439-b454-6734fe7d88c3"},"vehicle_type_id":"4","last_reported":1730383729,"current_range_meters":29600,"station_id":"ce4bhr92rcd13ifvqhrg","pricing_plan_id":"cebpf4jnsgd1na2vs0mg"},{"bike_id":"bf1d78bf-3b6b-44a1-91f0-2ad18b398e7b","system_id":"levelo_inurba_marseille","lat":43.33028,"lon":5.39047,"is_reserved":false,"is_disabled":false,"rental_uris":{"android":"levelo://app?vid=bf1d78bf-3b6b-44a1-91f0-2ad18b398e7b","ios":"levelo://app?vid=bf1d78bf-3b6b-44a1-91f0-2ad18b398e7b"},"vehicle_type_id":"4","last_reported":1730383729,"current_range_meters":19200,"station_id":"ce4bhr92rcd13ifvqhrg","pricing_plan_id":"cebpf4jnsgd1na2vs0mg"},{"bike_id":"428675c5-62bc-486f-bd65-2f9ac70da0b4","system_id":"levelo_inurba_marseille","lat":43.2963,"lon":5.40601,"is_reserved":false,"is_disabled":false,"rental_uris":{"android":"levelo://app?vid=428675c5-62bc-486f-bd65-2f9ac70da0b4","ios":"levelo://app?vid=428675c5-62bc-486f-bd65-2f9ac70da0b4"},"vehicle_type_id":"4","last_reported":1730383729,"current_range_meters":39200,"station_id":"ce4bh0h2rcd13ifvqd60","pricing_plan_id":"cebpf4jnsgd1na2vs0mg"},{"bike_id":"9523fac6-8682-4efb-98d2-562240b36d56","system_id":"levelo_inurba_marseille","lat":43.26491,"lon":5.39546,"is_reserved":false,"is_disabled":false,"rental_uris":{"android":"levelo://app?vid=9523fac6-8682-4efb-98d2-562240b36d56","ios":"levelo://app?vid=9523fac6-8682-4efb-98d2-562240b36d56"},"vehicle_type_id":"4","last_reported":1730383729,"current_range_meters":36400,"station_id":"ce4bhi12rcd13ifvqfq0","pricing_plan_id":"cebpf4jnsgd1na2vs0mg"},{"bike_id":"68d70b7d-ad7d-4f85-bf3d-e60a9bdb5234","system_id":"levelo_inurba_marseille","lat":43.23154,"lon":5.43707,"is_reserved":false,"is_disabled":false,"rental_uris":{"android":"levelo://app?vid=68d70b7d-ad7d-4f85-bf3d-e60a9bdb5234","ios":"levelo://app?vid=68d70b7d-ad7d-4f85-bf3d-e60a9bdb5234"},"vehicle_type_id":"4","last_reported":1730383729,"current_range_meters":20000,"station_id":"ce4bhmp2rcd13ifvqgog","pricing_plan_id":"cebpf4jnsgd1na2vs0mg"},{"bike_id":"2074bf2c-abe6-416b-8ac6-0453ab94f8bf","system_id":"levelo_inurba_marseille","lat":43.31354,"lon":5.36742,"is_reserved":false,"is_disabled":false,"rental_uris":{"android":"levelo://app?vid=2074bf2c-abe6-416b-8ac6-0453ab94f8bf","ios":"levelo://app?vid=2074bf2c-abe6-416b-8ac6-0453ab94f8bf"},"vehicle_type_id":"4","last_reported":1730383729,"current_range_meters":33200,"station_id":"ce4bgr92rcd13ifvqc6g","pricing_plan_id":"cebpf4jnsgd1na2vs0mg"},{"bike_id":"37069e8b-4451-4121-b3bf-4614fb7136a7","system_id":"levelo_inurba_marseille","lat":43.32291,"lon":5.38263,"is_reserved":false,"is_disabled":false,"rental_uris":{"android":"levelo://app?vid=37069e8b-4451-4121-b3bf-4614fb7136a7","ios":"levelo://app?vid=37069e8b-4451-4121-b3bf-4614fb7136a7"},"vehicle_type_id":"4","last_reported":1730383729,"current_range_meters":25200,"station_id":"ce4bhr12rcd13ifvqhqg","pricing_plan_id":"cebpf4jnsgd1na2vs0mg"},{"bike_id":"789ff565-989d-4f3b-9ac2-7b221b0f5089","system_id":"levelo_inurba_marseille","lat":43.284901,"lon":5.385491,"is_reserved":false,"is_disabled":false,"rental_uris":{"android":"levelo://app?vid=789ff565-989d-4f3b-9ac2-7b221b0f5089","ios":"levelo://app?vid=789ff565-989d-4f3b-9ac2-7b221b0f5089"},"vehicle_type_id":"4","last_reported":1730383729,"current_range_meters":12800,"station_id":"ce4bgkh2rcd13ifvqbk0","pricing_plan_id":"cebpf4jnsgd1na2vs0mg"},{"bike_id":"8f187250-044c-4a41-90ea-c9ecea0b6581","system_id":"levelo_inurba_marseille","lat":43.26945,"lon":5.40262,"is_reserved":false,"is_disabled":false,"rental_uris":{"android":"levelo://app?vid=8f187250-044c-4a41-90ea-c9ecea0b6581","ios":"levelo://app?vid=8f187250-044c-4a41-90ea-c9ecea0b6581"},"vehicle_type_id":"4","last_reported":1730383729,"current_range_meters":9600,"station_id":"cjm6bp8fraef2m0cb0m0","pricing_plan_id":"cebpf4jnsgd1na2vs0mg"},{"bike_id":"122231cb-4422-4960-b5b8-3c4780eb61fd","system_id":"levelo_inurba_marseille","lat":43.27371,"lon":5.36262,"is_reserved":false,"is_disabled":false,"rental_uris":{"android":"levelo://app?vid=122231cb-4422-4960-b5b8-3c4780eb61fd","ios":"levelo://app?vid=122231cb-4422-4960-b5b8-3c4780eb61fd"},"vehicle_type_id":"4","last_reported":1730383729,"current_range_meters":16800,"station_id":"ce4bhbh2rcd13ifvqeo0","pricing_plan_id":"cebpf4jnsgd1na2vs0mg"},{"bike_id":"5266335c-fb51-4166-a0ab-8099a4c09e4b","system_id":"levelo_inurba_marseille","lat":43.32283,"lon":5.38291,"is_reserved":false,"is_disabled":false,"rental_uris":{"android":"levelo://app?vid=5266335c-fb51-4166-a0ab-8099a4c09e4b","ios":"levelo://app?vid=5266335c-fb51-4166-a0ab-8099a4c09e4b"},"vehicle_type_id":"4","last_reported":1730383729,"current_range_meters":37600,"station_id":"ce4bhr12rcd13ifvqhqg","pricing_plan_id":"cebpf4jnsgd1na2vs0mg"},{"bike_id":"bffe13b1-628f-46fb-a744-2c665807146f","system_id":"levelo_inurba_marseille","lat":43.30542,"lon":5.36561,"is_reserved":false,"is_disabled":false,"rental_uris":{"android":"levelo://app?vid=bffe13b1-628f-46fb-a744-2c665807146f","ios":"levelo://app?vid=bffe13b1-628f-46fb-a744-2c665807146f"},"vehicle_type_id":"4","last_reported":1730383729,"current_range_meters":17200,"station_id":"ce4bgs12rcd13ifvqcag","pricing_plan_id":"cebpf4jnsgd1na2vs0mg"},{"bike_id":"1d049270-233c-4960-ba93-d152bc4bf621","system_id":"levelo_inurba_marseille","lat":43.28424,"lon":5.35003,"is_reserved":false,"is_disabled":false,"rental_uris":{"android":"levelo://app?vid=1d049270-233c-4960-ba93-d152bc4bf621","ios":"levelo://app?vid=1d049270-233c-4960-ba93-d152bc4bf621"},"vehicle_type_id":"4","last_reported":1730383729,"current_range_meters":11200,"station_id":"ce4bhbh2rcd13ifvqepg","pricing_plan_id":"cebpf4jnsgd1na2vs0mg"},{"bike_id":"a0a5299b-33e0-43a9-ba95-113a594509a5","system_id":"levelo_inurba_marseille","lat":43.25502,"lon":5.37655,"is_reserved":false,"is_disabled":false,"rental_uris":{"android":"levelo://app?vid=a0a5299b-33e0-43a9-ba95-113a594509a5","ios":"levelo://app?vid=a0a5299b-33e0-43a9-ba95-113a594509a5"},"vehicle_type_id":"4","last_reported":1730383729,"current_range_meters":32000,"station_id":"ce4bhh12rcd13ifvqff0","pricing_plan_id":"cebpf4jnsgd1na2vs0mg"},{"bike_id":"f57657d3-a1e8-4d12-a53d-4e113da22641","system_id":"levelo_inurba_marseille","lat":43.32483,"lon":5.36572,"is_reserved":false,"is_disabled":false,"rental_uris":{"android":"levelo://app?vid=f57657d3-a1e8-4d12-a53d-4e113da22641","ios":"levelo://app?vid=f57657d3-a1e8-4d12-a53d-4e113da22641"},"vehicle_type_id":"4","last_reported":1730383729,"current_range_meters":8400,"station_id":"ce4bhs12rcd13ifvqhvg","pricing_plan_id":"cebpf4jnsgd1na2vs0mg"},{"bike_id":"aa26a647-c4e0-4b9d-ad63-8a4860aee162","system_id":"levelo_inurba_marseille","lat":43.27076,"lon":5.4228,"is_reserved":false,"is_disabled":false,"rental_uris":{"android":"levelo://app?vid=aa26a647-c4e0-4b9d-ad63-8a4860aee162","ios":"levelo://app?vid=aa26a647-c4e0-4b9d-ad63-8a4860aee162"},"vehicle_type_id":"4","last_reported":1730383729,"current_range_meters":8000,"station_id":"ce4bhk92rcd13ifvqgb0","pricing_plan_id":"cebpf4jnsgd1na2vs0mg"},{"bike_id":"f2a1088c-8b12-4c5b-8c82-201515163d2e","system_id":"levelo_inurba_marseille","lat":43.31343,"lon":5.36739,"is_reserved":false,"is_disabled":false,"rental_uris":{"android":"levelo://app?vid=f2a1088c-8b12-4c5b-8c82-201515163d2e","ios":"levelo://app?vid=f2a1088c-8b12-4c5b-8c82-201515163d2e"},"vehicle_type_id":"4","last_reported":1730383729,"current_range_meters":27200,"station_id":"ce4bgr92rcd13ifvqc6g","pricing_plan_id":"cebpf4jnsgd1na2vs0mg"},{"bike_id":"3e692e43-3af1-42b8-8b96-6599a0d2e03e","system_id":"levelo_inurba_marseille","lat":43.29557,"lon":5.42292,"is_reserved":false,"is_disabled":false,"rental_uris":{"android":"levelo://app?vid=3e692e43-3af1-42b8-8b96-6599a0d2e03e","ios":"levelo://app?vid=3e692e43-3af1-42b8-8b96-6599a0d2e03e"},"vehicle_type_id":"4","last_reported":1730383729,"current_range_meters":20000,"station_id":"ce4bhph2rcd13ifvqhdg","pricing_plan_id":"cebpf4jnsgd1na2vs0mg"},{"bike_id":"53facf4a-a53f-4009-81d5-6390ac637137","system_id":"levelo_inurba_marseille","lat":43.32484,"lon":5.36563,"is_reserved":false,"is_disabled":false,"rental_uris":{"android":"levelo://app?vid=53facf4a-a53f-4009-81d5-6390ac637137","ios":"levelo://app?vid=53facf4a-a53f-4009-81d5-6390ac637137"},"vehicle_type_id":"4","last_reported":1730383729,"current_range_meters":38000,"station_id":"ce4bhs12rcd13ifvqhvg","pricing_plan_id":"cebpf4jnsgd1na2vs0mg"},{"bike_id":"6befc4bf-a30e-4f12-b448-09b588578734","system_id":"levelo_inurba_marseille","lat":43.27379,"lon":5.36249,"is_reserved":false,"is_disabled":false,"rental_uris":{"android":"levelo://app?vid=6befc4bf-a30e-4f12-b448-09b588578734","ios":"levelo://app?vid=6befc4bf-a30e-4f12-b448-09b588578734"},"vehicle_type_id":"4","last_reported":1730383729,"current_range_meters":29600,"station_id":"ce4bhbh2rcd13ifvqeo0","pricing_plan_id":"cebpf4jnsgd1na2vs0mg"},{"bike_id":"0f6741cb-2341-4d60-91dc-994c9fb689a2","system_id":"levelo_inurba_marseille","lat":43.24804,"lon":5.37453,"is_reserved":false,"is_disabled":false,"rental_uris":{"android":"levelo://app?vid=0f6741cb-2341-4d60-91dc-994c9fb689a2","ios":"levelo://app?vid=0f6741cb-2341-4d60-91dc-994c9fb689a2"},"vehicle_type_id":"4","last_reported":1730383729,"current_range_meters":39200,"station_id":"ce4bhgh2rcd13ifvqfb0","pricing_plan_id":"cebpf4jnsgd1na2vs0mg"},{"bike_id":"67b75dc5-76e9-47e8-9f50-b697c520c036","system_id":"levelo_inurba_marseille","lat":43.24667,"lon":5.38155,"is_reserved":false,"is_disabled":false,"rental_uris":{"android":"levelo://app?vid=67b75dc5-76e9-47e8-9f50-b697c520c036","ios":"levelo://app?vid=67b75dc5-76e9-47e8-9f50-b697c520c036"},"vehicle_type_id":"4","last_reported":1730383729,"current_range_meters":34000,"station_id":"ce4bhih2rcd13ifvqfr0","pricing_plan_id":"cebpf4jnsgd1na2vs0mg"},{"bike_id":"4a82329a-8105-4e04-b60b-e1128c4b5f85","system_id":"levelo_inurba_marseille","lat":43.28426,"lon":5.34985,"is_reserved":false,"is_disabled":false,"rental_uris":{"android":"levelo://app?vid=4a82329a-8105-4e04-b60b-e1128c4b5f85","ios":"levelo://app?vid=4a82329a-8105-4e04-b60b-e1128c4b5f85"},"vehicle_type_id":"4","last_reported":1730383729,"current_range_meters":28000,"station_id":"ce4bhbh2rcd13ifvqepg","pricing_plan_id":"cebpf4jnsgd1na2vs0mg"},{"bike_id":"15219ef7-7b02-4e83-b641-42bb8e183cd3","system_id":"levelo_inurba_marseille","lat":43.28425,"lon":5.34987,"is_reserved":false,"is_disabled":false,"rental_uris":{"android":"levelo://app?vid=15219ef7-7b02-4e83-b641-42bb8e183cd3","ios":"levelo://app?vid=15219ef7-7b02-4e83-b641-42bb8e183cd3"},"vehicle_type_id":"4","last_reported":1730383729,"current_range_meters":10000,"station_id":"ce4bhbh2rcd13ifvqepg","pricing_plan_id":"cebpf4jnsgd1na2vs0mg"},{"bike_id":"5b3e1547-5d66-4445-8aa1-64bb840fe5a9","system_id":"levelo_inurba_marseille","lat":43.27622,"lon":5.3611,"is_reserved":false,"is_disabled":false,"rental_uris":{"android":"levelo://app?vid=5b3e1547-5d66-4445-8aa1-64bb840fe5a9","ios":"levelo://app?vid=5b3e1547-5d66-4445-8aa1-64bb840fe5a9"},"vehicle_type_id":"4","last_reported":1730383729,"current_range_meters":38800,"station_id":"ce4bgj92rcd13ifvqbe0","pricing_plan_id":"cebpf4jnsgd1na2vs0mg"},{"bike_id":"4e6c31da-8511-48a7-b2ab-9f8b4f93652b","system_id":"levelo_inurba_marseille","lat":43.28614,"lon":5.35105,"is_reserved":false,"is_disabled":false,"rental_uris":{"android":"levelo://app?vid=4e6c31da-8511-48a7-b2ab-9f8b4f93652b","ios":"levelo://app?vid=4e6c31da-8511-48a7-b2ab-9f8b4f93652b"},"vehicle_type_id":"4","last_reported":1730383729,"current_range_meters":24400,"station_id":"ce4bhch2rcd13ifvqeug","pricing_plan_id":"cebpf4jnsgd1na2vs0mg"},{"bike_id":"912b1f87-ab79-408f-bb8c-2245bdaa137d","system_id":"levelo_inurba_marseille","lat":43.31759,"lon":5.39023,"is_reserved":false,"is_disabled":false,"rental_uris":{"android":"levelo://app?vid=912b1f87-ab79-408f-bb8c-2245bdaa137d","ios":"levelo://app?vid=912b1f87-ab79-408f-bb8c-2245bdaa137d"},"vehicle_type_id":"4","last_reported":1730383729,"current_range_meters":24400,"station_id":"ce4bhqp2rcd13ifvqhng","pricing_plan_id":"cebpf4jnsgd1na2vs0mg"},{"bike_id":"9c395b3c-eab9-481b-bea9-652e2c8128d9","system_id":"levelo_inurba_marseille","lat":43.27814,"lon":5.40715,"is_reserved":false,"is_disabled":false,"rental_uris":{"android":"levelo://app?vid=9c395b3c-eab9-481b-bea9-652e2c8128d9","ios":"levelo://app?vid=9c395b3c-eab9-481b-bea9-652e2c8128d9"},"vehicle_type_id":"4","last_reported":1730383729,"current_range_meters":36800,"station_id":"ce4bhnh2rcd13ifvqgtg","pricing_plan_id":"cebpf4jnsgd1na2vs0mg"},{"bike_id":"5a991495-bfc0-4411-a2d7-97dec39ff12f","system_id":"levelo_inurba_marseille","lat":43.29803,"lon":5.40406,"is_reserved":false,"is_disabled":false,"rental_uris":{"android":"levelo://app?vid=5a991495-bfc0-4411-a2d7-97dec39ff12f","ios":"levelo://app?vid=5a991495-bfc0-4411-a2d7-97dec39ff12f"},"vehicle_type_id":"4","last_reported":1730383729,"current_range_meters":38800,"station_id":"ce4bh112rcd13ifvqd90","pricing_plan_id":"cebpf4jnsgd1na2vs0mg"},{"bike_id":"bb3ae408-ec19-449f-81ab-454cdd7690e8","system_id":"levelo_inurba_marseille","lat":43.30907,"lon":5.39655,"is_reserved":false,"is_disabled":false,"rental_uris":{"android":"levelo://app?vid=bb3ae408-ec19-449f-81ab-454cdd7690e8","ios":"levelo://app?vid=bb3ae408-ec19-449f-81ab-454cdd7690e8"},"vehicle_type_id":"4","last_reported":1730383729,"current_range_meters":38800,"station_id":"ce4bh012rcd13ifvqcv0","pricing_plan_id":"cebpf4jnsgd1na2vs0mg"},{"bike_id":"58588f98-d979-4a89-a14d-d0d4a329cc8e","system_id":"levelo_inurba_marseille","lat":43.26808,"lon":5.40263,"is_reserved":false,"is_disabled":false,"rental_uris":{"android":"levelo://app?vid=58588f98-d979-4a89-a14d-d0d4a329cc8e","ios":"levelo://app?vid=58588f98-d979-4a89-a14d-d0d4a329cc8e"},"vehicle_type_id":"4","last_reported":1730383729,"current_range_meters":39200,"station_id":"ce501612rcd8frsf0b60","pricing_plan_id":"cebpf4jnsgd1na2vs0mg"},{"bike_id":"8922bf80-9ffc-4438-acda-6d35e498f0d5","system_id":"levelo_inurba_marseille","lat":43.26212,"lon":5.37438,"is_reserved":false,"is_disabled":false,"rental_uris":{"android":"levelo://app?vid=8922bf80-9ffc-4438-acda-6d35e498f0d5","ios":"levelo://app?vid=8922bf80-9ffc-4438-acda-6d35e498f0d5"},"vehicle_type_id":"4","last_reported":1730383729,"current_range_meters":4000,"station_id":"ce4bhgp2rcd13ifvqfc0","pricing_plan_id":"cebpf4jnsgd1na2vs0mg"},{"bike_id":"6a3fd0b4-535d-476c-b022-6f6f89886087","system_id":"levelo_inurba_marseille","lat":43.27813,"lon":5.40723,"is_reserved":false,"is_disabled":false,"rental_uris":{"android":"levelo://app?vid=6a3fd0b4-535d-476c-b022-6f6f89886087","ios":"levelo://app?vid=6a3fd0b4-535d-476c-b022-6f6f89886087"},"vehicle_type_id":"4","last_reported":1730383729,"current_range_meters":8800,"station_id":"ce4bhnh2rcd13ifvqgtg","pricing_plan_id":"cebpf4jnsgd1na2vs0mg"},{"bike_id":"5ff74640-5d39-40f8-808a-e5695df59fd4","system_id":"levelo_inurba_marseille","lat":43.27197,"lon":5.41024,"is_reserved":false,"is_disabled":false,"rental_uris":{"android":"levelo://app?vid=5ff74640-5d39-40f8-808a-e5695df59fd4","ios":"levelo://app?vid=5ff74640-5d39-40f8-808a-e5695df59fd4"},"vehicle_type_id":"4","last_reported":1730383729,"current_range_meters":7200,"station_id":"ce4bhl12rcd13ifvqgf0","pricing_plan_id":"cebpf4jnsgd1na2vs0mg"},{"bike_id":"84e2b042-2c79-4878-a2d2-5d6cd154cfca","system_id":"levelo_inurba_marseille","lat":43.28421,"lon":5.349835,"is_reserved":false,"is_disabled":false,"rental_uris":{"android":"levelo://app?vid=84e2b042-2c79-4878-a2d2-5d6cd154cfca","ios":"levelo://app?vid=84e2b042-2c79-4878-a2d2-5d6cd154cfca"},"vehicle_type_id":"4","last_reported":1730383729,"current_range_meters":39200,"station_id":"ce4bhbh2rcd13ifvqepg","pricing_plan_id":"cebpf4jnsgd1na2vs0mg"},{"bike_id":"d4829a7e-16fe-4e76-9a47-d409e1283694","system_id":"levelo_inurba_marseille","lat":43.25719,"lon":5.4111,"is_reserved":false,"is_disabled":false,"rental_uris":{"android":"levelo://app?vid=d4829a7e-16fe-4e76-9a47-d409e1283694","ios":"levelo://app?vid=d4829a7e-16fe-4e76-9a47-d409e1283694"},"vehicle_type_id":"4","last_reported":1730383729,"current_range_meters":19200,"station_id":"ce4bhkp2rcd13ifvqgd0","pricing_plan_id":"cebpf4jnsgd1na2vs0mg"},{"bike_id":"38e45b10-b07b-495c-a028-28fb68d2d661","system_id":"levelo_inurba_marseille","lat":43.30806,"lon":5.43527,"is_reserved":false,"is_disabled":false,"rental_uris":{"android":"levelo://app?vid=38e45b10-b07b-495c-a028-28fb68d2d661","ios":"levelo://app?vid=38e45b10-b07b-495c-a028-28fb68d2d661"},"vehicle_type_id":"4","last_reported":1730383729,"current_range_meters":30800,"station_id":"ce4bhph2rcd13ifvqheg","pricing_plan_id":"cebpf4jnsgd1na2vs0mg"},{"bike_id":"e7508c56-00b5-465a-b34c-3d5dd98061b3","system_id":"levelo_inurba_marseille","lat":43.28465,"lon":5.37409,"is_reserved":false,"is_disabled":false,"rental_uris":{"android":"levelo://app?vid=e7508c56-00b5-465a-b34c-3d5dd98061b3","ios":"levelo://app?vid=e7508c56-00b5-465a-b34c-3d5dd98061b3"},"vehicle_type_id":"4","last_reported":1730383729,"current_range_meters":28800,"station_id":"ce4bh412rcd13ifvqds0","pricing_plan_id":"cebpf4jnsgd1na2vs0mg"},{"bike_id":"7db770ee-9990-4db8-b28d-c9e37af8c67a","system_id":"levelo_inurba_marseille","lat":43.286652,"lon":5.363396,"is_reserved":false,"is_disabled":false,"rental_uris":{"android":"levelo://app?vid=7db770ee-9990-4db8-b28d-c9e37af8c67a","ios":"levelo://app?vid=7db770ee-9990-4db8-b28d-c9e37af8c67a"},"vehicle_type_id":"4","last_reported":1730383729,"current_range_meters":17200,"station_id":"ce4bhah2rcd13ifvqej0","pricing_plan_id":"cebpf4jnsgd1na2vs0mg"},{"bike_id":"ab498042-4f5d-42b2-b128-984a9a9883e7","system_id":"levelo_inurba_marseille","lat":43.31717,"lon":5.43714,"is_reserved":false,"is_disabled":false,"rental_uris":{"android":"levelo://app?vid=ab498042-4f5d-42b2-b128-984a9a9883e7","ios":"levelo://app?vid=ab498042-4f5d-42b2-b128-984a9a9883e7"},"vehicle_type_id":"4","last_reported":1730383729,"current_range_meters":37600,"station_id":"ce4bhp92rcd13ifvqhcg","pricing_plan_id":"cebpf4jnsgd1na2vs0mg"},{"bike_id":"ba6ac000-4a0e-40b4-a334-74650f7f40a4","system_id":"levelo_inurba_marseille","lat":43.292267,"lon":5.360579,"is_reserved":false,"is_disabled":false,"rental_uris":{"android":"levelo://app?vid=ba6ac000-4a0e-40b4-a334-74650f7f40a4","ios":"levelo://app?vid=ba6ac000-4a0e-40b4-a334-74650f7f40a4"},"vehicle_type_id":"4","last_reported":1730383729,"current_range_meters":20800,"station_id":"ce4bhbh2rcd13ifvqeqg","pricing_plan_id":"cebpf4jnsgd1na2vs0mg"},{"bike_id":"654e6c85-c7a0-4fba-b228-17b6bfa33ba6","system_id":"levelo_inurba_marseille","lat":43.24191,"lon":5.39723,"is_reserved":false,"is_disabled":false,"rental_uris":{"android":"levelo://app?vid=654e6c85-c7a0-4fba-b228-17b6bfa33ba6","ios":"levelo://app?vid=654e6c85-c7a0-4fba-b228-17b6bfa33ba6"},"vehicle_type_id":"4","last_reported":1730383729,"current_range_meters":36400,"station_id":"ce4bhn12rcd13ifvqgpg","pricing_plan_id":"cebpf4jnsgd1na2vs0mg"},{"bike_id":"7265bb35-d2ff-4e68-a14c-12906361f4fb","system_id":"levelo_inurba_marseille","lat":43.26197,"lon":5.37453,"is_reserved":false,"is_disabled":false,"rental_uris":{"android":"levelo://app?vid=7265bb35-d2ff-4e68-a14c-12906361f4fb","ios":"levelo://app?vid=7265bb35-d2ff-4e68-a14c-12906361f4fb"},"vehicle_type_id":"4","last_reported":1730383729,"current_range_meters":21600,"station_id":"ce4bhgp2rcd13ifvqfc0","pricing_plan_id":"cebpf4jnsgd1na2vs0mg"},{"bike_id":"3998c2d7-91a5-4d44-9a9a-9052ff445560","system_id":"levelo_inurba_marseille","lat":43.30551,"lon":5.36535,"is_reserved":false,"is_disabled":false,"rental_uris":{"android":"levelo://app?vid=3998c2d7-91a5-4d44-9a9a-9052ff445560","ios":"levelo://app?vid=3998c2d7-91a5-4d44-9a9a-9052ff445560"},"vehicle_type_id":"4","last_reported":1730383729,"current_range_meters":17200,"station_id":"ce4bgs12rcd13ifvqcag","pricing_plan_id":"cebpf4jnsgd1na2vs0mg"},{"bike_id":"cc43bf4d-496d-47ec-aa99-164bc1536ac8","system_id":"levelo_inurba_marseille","lat":43.25002,"lon":5.38943,"is_reserved":false,"is_disabled":false,"rental_uris":{"android":"levelo://app?vid=cc43bf4d-496d-47ec-aa99-164bc1536ac8","ios":"levelo://app?vid=cc43bf4d-496d-47ec-aa99-164bc1536ac8"},"vehicle_type_id":"4","last_reported":1730383729,"current_range_meters":32400,"station_id":"ce4bhgp2rcd13ifvqfd0","pricing_plan_id":"cebpf4jnsgd1na2vs0mg"},{"bike_id":"34af1e9b-a27b-4b2c-b4c8-b72a27fd0792","system_id":"levelo_inurba_marseille","lat":43.2955,"lon":5.42289,"is_reserved":false,"is_disabled":false,"rental_uris":{"android":"levelo://app?vid=34af1e9b-a27b-4b2c-b4c8-b72a27fd0792","ios":"levelo://app?vid=34af1e9b-a27b-4b2c-b4c8-b72a27fd0792"},"vehicle_type_id":"4","last_reported":1730383729,"current_range_meters":30400,"station_id":"ce4bhph2rcd13ifvqhdg","pricing_plan_id":"cebpf4jnsgd1na2vs0mg"},{"bike_id":"36856790-de9c-4c45-b618-c1abf664d260","system_id":"levelo_inurba_marseille","lat":43.27574,"lon":5.38438,"is_reserved":false,"is_disabled":false,"rental_uris":{"android":"levelo://app?vid=36856790-de9c-4c45-b618-c1abf664d260","ios":"levelo://app?vid=36856790-de9c-4c45-b618-c1abf664d260"},"vehicle_type_id":"4","last_reported":1730383729,"current_range_meters":37600,"station_id":"ce4bhh92rcd13ifvqfi0","pricing_plan_id":"cebpf4jnsgd1na2vs0mg"},{"bike_id":"3271d7f6-0f65-475f-8b65-c5efde785335","system_id":"levelo_inurba_marseille","lat":43.2319,"lon":5.35553,"is_reserved":false,"is_disabled":false,"rental_uris":{"android":"levelo://app?vid=3271d7f6-0f65-475f-8b65-c5efde785335","ios":"levelo://app?vid=3271d7f6-0f65-475f-8b65-c5efde785335"},"vehicle_type_id":"4","last_reported":1730383729,"current_range_meters":35600,"station_id":"ce4bhu92rcd13ifvqi70","pricing_plan_id":"cebpf4jnsgd1na2vs0mg"},{"bike_id":"2bb1b4fc-e27a-484c-99c6-81418b8e5a8f","system_id":"levelo_inurba_marseille","lat":43.28425,"lon":5.34988,"is_reserved":false,"is_disabled":false,"rental_uris":{"android":"levelo://app?vid=2bb1b4fc-e27a-484c-99c6-81418b8e5a8f","ios":"levelo://app?vid=2bb1b4fc-e27a-484c-99c6-81418b8e5a8f"},"vehicle_type_id":"4","last_reported":1730383729,"current_range_meters":38800,"station_id":"ce4bhbh2rcd13ifvqepg","pricing_plan_id":"cebpf4jnsgd1na2vs0mg"},{"bike_id":"9d4a9c2f-1465-4e65-a770-9f3018d14a2d","system_id":"levelo_inurba_marseille","lat":43.28615,"lon":5.35108,"is_reserved":false,"is_disabled":false,"rental_uris":{"android":"levelo://app?vid=9d4a9c2f-1465-4e65-a770-9f3018d14a2d","ios":"levelo://app?vid=9d4a9c2f-1465-4e65-a770-9f3018d14a2d"},"vehicle_type_id":"4","last_reported":1730383729,"current_range_meters":35600,"station_id":"ce4bhch2rcd13ifvqeug","pricing_plan_id":"cebpf4jnsgd1na2vs0mg"},{"bike_id":"f82d6e99-2d3a-47e6-a97a-feadb35dd14a","system_id":"levelo_inurba_marseille","lat":43.29583,"lon":5.37505,"is_reserved":false,"is_disabled":false,"rental_uris":{"android":"levelo://app?vid=f82d6e99-2d3a-47e6-a97a-feadb35dd14a","ios":"levelo://app?vid=f82d6e99-2d3a-47e6-a97a-feadb35dd14a"},"vehicle_type_id":"4","last_reported":1730383729,"current_range_meters":36400,"station_id":"ce4bgh92rcd13ifvqb50","pricing_plan_id":"cebpf4jnsgd1na2vs0mg"},{"bike_id":"955d71ec-3346-4f99-b1c9-b93efca53e2c","system_id":"levelo_inurba_marseille","lat":43.276231,"lon":5.36111,"is_reserved":false,"is_disabled":false,"rental_uris":{"android":"levelo://app?vid=955d71ec-3346-4f99-b1c9-b93efca53e2c","ios":"levelo://app?vid=955d71ec-3346-4f99-b1c9-b93efca53e2c"},"vehicle_type_id":"4","last_reported":1730383729,"current_range_meters":26800,"station_id":"ce4bgj92rcd13ifvqbe0","pricing_plan_id":"cebpf4jnsgd1na2vs0mg"},{"bike_id":"f99547b6-e0b7-4a86-b4bb-f600f8ca5cb2","system_id":"levelo_inurba_marseille","lat":43.24168,"lon":5.36401,"is_reserved":false,"is_disabled":false,"rental_uris":{"android":"levelo://app?vid=f99547b6-e0b7-4a86-b4bb-f600f8ca5cb2","ios":"levelo://app?vid=f99547b6-e0b7-4a86-b4bb-f600f8ca5cb2"},"vehicle_type_id":"4","last_reported":1730383729,"current_range_meters":10800,"station_id":"cpo36qri1sfpv3e86is0","pricing_plan_id":"cebpf4jnsgd1na2vs0mg"},{"bike_id":"9298f723-256e-4d48-b8aa-78d8543b7b76","system_id":"levelo_inurba_marseille","lat":43.30554,"lon":5.36734,"is_reserved":false,"is_disabled":false,"rental_uris":{"android":"levelo://app?vid=9298f723-256e-4d48-b8aa-78d8543b7b76","ios":"levelo://app?vid=9298f723-256e-4d48-b8aa-78d8543b7b76"},"vehicle_type_id":"4","last_reported":1730383729,"current_range_meters":14800,"station_id":"ce4bgrp2rcd13ifvqc9g","pricing_plan_id":"cebpf4jnsgd1na2vs0mg"},{"bike_id":"1d4a509c-fcf8-48f3-9240-ea1f79b55127","system_id":"levelo_inurba_marseille","lat":43.26502,"lon":5.39539,"is_reserved":false,"is_disabled":false,"rental_uris":{"android":"levelo://app?vid=1d4a509c-fcf8-48f3-9240-ea1f79b55127","ios":"levelo://app?vid=1d4a509c-fcf8-48f3-9240-ea1f79b55127"},"vehicle_type_id":"4","last_reported":1730383729,"current_range_meters":24400,"station_id":"ce4bhi12rcd13ifvqfq0","pricing_plan_id":"cebpf4jnsgd1na2vs0mg"},{"bike_id":"6bbf7eea-db33-426a-a150-71256804695b","system_id":"levelo_inurba_marseille","lat":43.30428,"lon":5.39758,"is_reserved":false,"is_disabled":false,"rental_uris":{"android":"levelo://app?vid=6bbf7eea-db33-426a-a150-71256804695b","ios":"levelo://app?vid=6bbf7eea-db33-426a-a150-71256804695b"},"vehicle_type_id":"4","last_reported":1730383729,"current_range_meters":38400,"station_id":"ce4bh092rcd13ifvqd20","pricing_plan_id":"cebpf4jnsgd1na2vs0mg"},{"bike_id":"72e37474-1bc8-4568-aec8-ce5464e6b828","system_id":"levelo_inurba_marseille","lat":43.2319,"lon":5.35549,"is_reserved":false,"is_disabled":false,"rental_uris":{"android":"levelo://app?vid=72e37474-1bc8-4568-aec8-ce5464e6b828","ios":"levelo://app?vid=72e37474-1bc8-4568-aec8-ce5464e6b828"},"vehicle_type_id":"4","last_reported":1730383729,"current_range_meters":24800,"station_id":"ce4bhu92rcd13ifvqi70","pricing_plan_id":"cebpf4jnsgd1na2vs0mg"},{"bike_id":"f738117b-8ab3-49cc-9ce8-8f47fa6c3af7","system_id":"levelo_inurba_marseille","lat":43.29304,"lon":5.37175,"is_reserved":false,"is_disabled":false,"rental_uris":{"android":"levelo://app?vid=f738117b-8ab3-49cc-9ce8-8f47fa6c3af7","ios":"levelo://app?vid=f738117b-8ab3-49cc-9ce8-8f47fa6c3af7"},"vehicle_type_id":"4","last_reported":1730383729,"current_range_meters":6400,"station_id":"ce4bgh92rcd13ifvqb40","pricing_plan_id":"cebpf4jnsgd1na2vs0mg"},{"bike_id":"1205d633-4986-4c67-9432-2d423a89c40d","system_id":"levelo_inurba_marseille","lat":43.27181,"lon":5.40992,"is_reserved":false,"is_disabled":false,"rental_uris":{"android":"levelo://app?vid=1205d633-4986-4c67-9432-2d423a89c40d","ios":"levelo://app?vid=1205d633-4986-4c67-9432-2d423a89c40d"},"vehicle_type_id":"4","last_reported":1730383729,"current_range_meters":34000,"station_id":"ce4bhl12rcd13ifvqgf0","pricing_plan_id":"cebpf4jnsgd1na2vs0mg"},{"bike_id":"ff0b9635-80db-4ddf-8cbd-0aed72fe4647","system_id":"levelo_inurba_marseille","lat":43.2901,"lon":5.35606,"is_reserved":false,"is_disabled":false,"rental_uris":{"android":"levelo://app?vid=ff0b9635-80db-4ddf-8cbd-0aed72fe4647","ios":"levelo://app?vid=ff0b9635-80db-4ddf-8cbd-0aed72fe4647"},"vehicle_type_id":"4","last_reported":1730383729,"current_range_meters":16000,"station_id":"ce4bhb92rcd13ifvqen0","pricing_plan_id":"cebpf4jnsgd1na2vs0mg"},{"bike_id":"3c07b76a-6f9b-42d9-b43a-98d28ab9aacb","system_id":"levelo_inurba_marseille","lat":43.28421,"lon":5.34988,"is_reserved":false,"is_disabled":false,"rental_uris":{"android":"levelo://app?vid=3c07b76a-6f9b-42d9-b43a-98d28ab9aacb","ios":"levelo://app?vid=3c07b76a-6f9b-42d9-b43a-98d28ab9aacb"},"vehicle_type_id":"4","last_reported":1730383729,"current_range_meters":27600,"station_id":"ce4bhbh2rcd13ifvqepg","pricing_plan_id":"cebpf4jnsgd1na2vs0mg"},{"bike_id":"ae2483f7-c772-4197-b371-4e2c0dbec98b","system_id":"levelo_inurba_marseille","lat":43.30652,"lon":5.40084,"is_reserved":false,"is_disabled":false,"rental_uris":{"android":"levelo://app?vid=ae2483f7-c772-4197-b371-4e2c0dbec98b","ios":"levelo://app?vid=ae2483f7-c772-4197-b371-4e2c0dbec98b"},"vehicle_type_id":"4","last_reported":1730383729,"current_range_meters":37600,"station_id":"ce4bh112rcd13ifvqda0","pricing_plan_id":"cebpf4jnsgd1na2vs0mg"},{"bike_id":"88dc58c8-a632-450d-98e1-c0f672ee9cc5","system_id":"levelo_inurba_marseille","lat":43.24389,"lon":5.37059,"is_reserved":false,"is_disabled":false,"rental_uris":{"android":"levelo://app?vid=88dc58c8-a632-450d-98e1-c0f672ee9cc5","ios":"levelo://app?vid=88dc58c8-a632-450d-98e1-c0f672ee9cc5"},"vehicle_type_id":"4","last_reported":1730383729,"current_range_meters":36000,"station_id":"ce4bhhh2rcd13ifvqfk0","pricing_plan_id":"cebpf4jnsgd1na2vs0mg"},{"bike_id":"1d66c052-5042-407a-9628-fc346b55e04c","system_id":"levelo_inurba_marseille","lat":43.30615,"lon":5.37235,"is_reserved":false,"is_disabled":false,"rental_uris":{"android":"levelo://app?vid=1d66c052-5042-407a-9628-fc346b55e04c","ios":"levelo://app?vid=1d66c052-5042-407a-9628-fc346b55e04c"},"vehicle_type_id":"4","last_reported":1730383729,"current_range_meters":21600,"station_id":"ce4bgqh2rcd13ifvqc4g","pricing_plan_id":"cebpf4jnsgd1na2vs0mg"},{"bike_id":"aac4c3cf-b8ec-4996-b2ee-ae97f67f8b8b","system_id":"levelo_inurba_marseille","lat":43.265,"lon":5.39549,"is_reserved":false,"is_disabled":false,"rental_uris":{"android":"levelo://app?vid=aac4c3cf-b8ec-4996-b2ee-ae97f67f8b8b","ios":"levelo://app?vid=aac4c3cf-b8ec-4996-b2ee-ae97f67f8b8b"},"vehicle_type_id":"4","last_reported":1730383729,"current_range_meters":35600,"station_id":"ce4bhi12rcd13ifvqfq0","pricing_plan_id":"cebpf4jnsgd1na2vs0mg"},{"bike_id":"ef5c5713-2ed5-40ed-80ce-3e51e9b36a3d","system_id":"levelo_inurba_marseille","lat":43.29877,"lon":5.3974,"is_reserved":false,"is_disabled":false,"rental_uris":{"android":"levelo://app?vid=ef5c5713-2ed5-40ed-80ce-3e51e9b36a3d","ios":"levelo://app?vid=ef5c5713-2ed5-40ed-80ce-3e51e9b36a3d"},"vehicle_type_id":"4","last_reported":1730383729,"current_range_meters":32400,"station_id":"ce4bh0h2rcd13ifvqd50","pricing_plan_id":"cebpf4jnsgd1na2vs0mg"},{"bike_id":"56604c5c-f315-4fd1-afc7-6bbb18f08509","system_id":"levelo_inurba_marseille","lat":43.28279,"lon":5.35069,"is_reserved":false,"is_disabled":false,"rental_uris":{"android":"levelo://app?vid=56604c5c-f315-4fd1-afc7-6bbb18f08509","ios":"levelo://app?vid=56604c5c-f315-4fd1-afc7-6bbb18f08509"},"vehicle_type_id":"4","last_reported":1730383729,"current_range_meters":36800,"station_id":"ce4bhbp2rcd13ifvqerg","pricing_plan_id":"cebpf4jnsgd1na2vs0mg"},{"bike_id":"afbdb5bf-0e3e-49a1-9426-d223ea6f373a","system_id":"levelo_inurba_marseille","lat":43.31497,"lon":5.37307,"is_reserved":false,"is_disabled":false,"rental_uris":{"android":"levelo://app?vid=afbdb5bf-0e3e-49a1-9426-d223ea6f373a","ios":"levelo://app?vid=afbdb5bf-0e3e-49a1-9426-d223ea6f373a"},"vehicle_type_id":"4","last_reported":1730383729,"current_range_meters":6800,"station_id":"ce4bgt12rcd13ifvqcd0","pricing_plan_id":"cebpf4jnsgd1na2vs0mg"},{"bike_id":"8a170140-27ad-45e7-90e2-b5e584fc7cc7","system_id":"levelo_inurba_marseille","lat":43.32362,"lon":5.38879,"is_reserved":false,"is_disabled":false,"rental_uris":{"android":"levelo://app?vid=8a170140-27ad-45e7-90e2-b5e584fc7cc7","ios":"levelo://app?vid=8a170140-27ad-45e7-90e2-b5e584fc7cc7"},"vehicle_type_id":"4","last_reported":1730383729,"current_range_meters":20800,"station_id":"ce4bhqp2rcd13ifvqhog","pricing_plan_id":"cebpf4jnsgd1na2vs0mg"},{"bike_id":"aa9d88a0-daf2-4d34-8ddb-f0c8bb7d59e8","system_id":"levelo_inurba_marseille","lat":43.28282,"lon":5.35077,"is_reserved":false,"is_disabled":false,"rental_uris":{"android":"levelo://app?vid=aa9d88a0-daf2-4d34-8ddb-f0c8bb7d59e8","ios":"levelo://app?vid=aa9d88a0-daf2-4d34-8ddb-f0c8bb7d59e8"},"vehicle_type_id":"4","last_reported":1730383729,"current_range_meters":30800,"station_id":"ce4bhbp2rcd13ifvqerg","pricing_plan_id":"cebpf4jnsgd1na2vs0mg"},{"bike_id":"77109f5f-47ee-4c29-b48f-5b6b5c2a01ab","system_id":"levelo_inurba_marseille","lat":43.2988,"lon":5.39733,"is_reserved":false,"is_disabled":false,"rental_uris":{"android":"levelo://app?vid=77109f5f-47ee-4c29-b48f-5b6b5c2a01ab","ios":"levelo://app?vid=77109f5f-47ee-4c29-b48f-5b6b5c2a01ab"},"vehicle_type_id":"4","last_reported":1730383729,"current_range_meters":34800,"station_id":"ce4bh0h2rcd13ifvqd50","pricing_plan_id":"cebpf4jnsgd1na2vs0mg"},{"bike_id":"4a81e707-37f0-4c72-9cf0-6fba4814c95e","system_id":"levelo_inurba_marseille","lat":43.29229,"lon":5.36065,"is_reserved":false,"is_disabled":false,"rental_uris":{"android":"levelo://app?vid=4a81e707-37f0-4c72-9cf0-6fba4814c95e","ios":"levelo://app?vid=4a81e707-37f0-4c72-9cf0-6fba4814c95e"},"vehicle_type_id":"4","last_reported":1730383729,"current_range_meters":35600,"station_id":"ce4bhbh2rcd13ifvqeqg","pricing_plan_id":"cebpf4jnsgd1na2vs0mg"},{"bike_id":"991eeddd-8ee0-4756-a5aa-cbc3d3b68a12","system_id":"levelo_inurba_marseille","lat":43.25867,"lon":5.39903,"is_reserved":false,"is_disabled":false,"rental_uris":{"android":"levelo://app?vid=991eeddd-8ee0-4756-a5aa-cbc3d3b68a12","ios":"levelo://app?vid=991eeddd-8ee0-4756-a5aa-cbc3d3b68a12"},"vehicle_type_id":"4","last_reported":1730383729,"current_range_meters":38800,"station_id":"ce4bhl92rcd13ifvqghg","pricing_plan_id":"cebpf4jnsgd1na2vs0mg"},{"bike_id":"ab1a3bd0-e350-434a-8eda-6776a81d3ab4","system_id":"levelo_inurba_marseille","lat":43.29864,"lon":5.39746,"is_reserved":false,"is_disabled":false,"rental_uris":{"android":"levelo://app?vid=ab1a3bd0-e350-434a-8eda-6776a81d3ab4","ios":"levelo://app?vid=ab1a3bd0-e350-434a-8eda-6776a81d3ab4"},"vehicle_type_id":"4","last_reported":1730383729,"current_range_meters":25200,"station_id":"ce4bgkh2rcd13ifvqbl0","pricing_plan_id":"cebpf4jnsgd1na2vs0mg"},{"bike_id":"ac2bb9db-3934-4540-9307-2fe9eb833ccb","system_id":"levelo_inurba_marseille","lat":43.27379,"lon":5.36256,"is_reserved":false,"is_disabled":false,"rental_uris":{"android":"levelo://app?vid=ac2bb9db-3934-4540-9307-2fe9eb833ccb","ios":"levelo://app?vid=ac2bb9db-3934-4540-9307-2fe9eb833ccb"},"vehicle_type_id":"4","last_reported":1730383729,"current_range_meters":24400,"station_id":"ce4bhbh2rcd13ifvqeo0","pricing_plan_id":"cebpf4jnsgd1na2vs0mg"},{"bike_id":"8d39de38-24a9-4d96-9dd4-dbfee281f5b6","system_id":"levelo_inurba_marseille","lat":43.29638,"lon":5.40599,"is_reserved":false,"is_disabled":false,"rental_uris":{"android":"levelo://app?vid=8d39de38-24a9-4d96-9dd4-dbfee281f5b6","ios":"levelo://app?vid=8d39de38-24a9-4d96-9dd4-dbfee281f5b6"},"vehicle_type_id":"4","last_reported":1730383729,"current_range_meters":35600,"station_id":"ce4bh0h2rcd13ifvqd60","pricing_plan_id":"cebpf4jnsgd1na2vs0mg"},{"bike_id":"1b64776f-f512-4452-b71f-7052bea2e840","system_id":"levelo_inurba_marseille","lat":43.24174,"lon":5.39748,"is_reserved":false,"is_disabled":false,"rental_uris":{"android":"levelo://app?vid=1b64776f-f512-4452-b71f-7052bea2e840","ios":"levelo://app?vid=1b64776f-f512-4452-b71f-7052bea2e840"},"vehicle_type_id":"4","last_reported":1730383729,"current_range_meters":38800,"station_id":"ce4bhn12rcd13ifvqgpg","pricing_plan_id":"cebpf4jnsgd1na2vs0mg"},{"bike_id":"82231044-abe7-4f38-a041-0c64d577f12f","system_id":"levelo_inurba_marseille","lat":43.299103,"lon":5.387527,"is_reserved":false,"is_disabled":false,"rental_uris":{"android":"levelo://app?vid=82231044-abe7-4f38-a041-0c64d577f12f","ios":"levelo://app?vid=82231044-abe7-4f38-a041-0c64d577f12f"},"vehicle_type_id":"4","last_reported":1730383729,"current_range_meters":19600,"station_id":"ce4bh392rcd13ifvqdl0","pricing_plan_id":"cebpf4jnsgd1na2vs0mg"},{"bike_id":"52563110-2d73-4ab5-b9a1-1ca0e241a93d","system_id":"levelo_inurba_marseille","lat":43.29374,"lon":5.37858,"is_reserved":false,"is_disabled":false,"rental_uris":{"android":"levelo://app?vid=52563110-2d73-4ab5-b9a1-1ca0e241a93d","ios":"levelo://app?vid=52563110-2d73-4ab5-b9a1-1ca0e241a93d"},"vehicle_type_id":"4","last_reported":1730383729,"current_range_meters":10800,"station_id":"ce4bgjh2rcd13ifvqbf0","pricing_plan_id":"cebpf4jnsgd1na2vs0mg"},{"bike_id":"42c8309e-8907-4758-bf73-ba9af8778c73","system_id":"levelo_inurba_marseille","lat":43.30149,"lon":5.38078,"is_reserved":false,"is_disabled":false,"rental_uris":{"android":"levelo://app?vid=42c8309e-8907-4758-bf73-ba9af8778c73","ios":"levelo://app?vid=42c8309e-8907-4758-bf73-ba9af8778c73"},"vehicle_type_id":"4","last_reported":1730383729,"current_range_meters":7200,"station_id":"ce4bgjp2rcd13ifvqbh0","pricing_plan_id":"cebpf4jnsgd1na2vs0mg"},{"bike_id":"b503c5a4-0789-4753-98eb-4d5bd5fe28a7","system_id":"levelo_inurba_marseille","lat":43.30549,"lon":5.36686,"is_reserved":false,"is_disabled":false,"rental_uris":{"android":"levelo://app?vid=b503c5a4-0789-4753-98eb-4d5bd5fe28a7","ios":"levelo://app?vid=b503c5a4-0789-4753-98eb-4d5bd5fe28a7"},"vehicle_type_id":"4","last_reported":1730383729,"current_range_meters":39200,"station_id":"ce4bgrp2rcd13ifvqc9g","pricing_plan_id":"cebpf4jnsgd1na2vs0mg"},{"bike_id":"115c2c03-b2c5-4071-a92a-0a2c122a5063","system_id":"levelo_inurba_marseille","lat":43.29008,"lon":5.35611,"is_reserved":false,"is_disabled":false,"rental_uris":{"android":"levelo://app?vid=115c2c03-b2c5-4071-a92a-0a2c122a5063","ios":"levelo://app?vid=115c2c03-b2c5-4071-a92a-0a2c122a5063"},"vehicle_type_id":"4","last_reported":1730383729,"current_range_meters":33200,"station_id":"ce4bhb92rcd13ifvqen0","pricing_plan_id":"cebpf4jnsgd1na2vs0mg"},{"bike_id":"ec887f96-3e7c-4cc5-bffc-e14c99385849","system_id":"levelo_inurba_marseille","lat":43.32103,"lon":5.36779,"is_reserved":false,"is_disabled":false,"rental_uris":{"android":"levelo://app?vid=ec887f96-3e7c-4cc5-bffc-e14c99385849","ios":"levelo://app?vid=ec887f96-3e7c-4cc5-bffc-e14c99385849"},"vehicle_type_id":"4","last_reported":1730383729,"current_range_meters":8800,"station_id":"ce4bhrh2rcd13ifvqhug","pricing_plan_id":"cebpf4jnsgd1na2vs0mg"},{"bike_id":"3d47724b-d743-47eb-a53e-33a559a28cc6","system_id":"levelo_inurba_marseille","lat":43.30922,"lon":5.36861,"is_reserved":false,"is_disabled":false,"rental_uris":{"android":"levelo://app?vid=3d47724b-d743-47eb-a53e-33a559a28cc6","ios":"levelo://app?vid=3d47724b-d743-47eb-a53e-33a559a28cc6"},"vehicle_type_id":"4","last_reported":1730383729,"current_range_meters":37600,"station_id":"ce4bgn92rcd13ifvqbvg","pricing_plan_id":"cebpf4jnsgd1na2vs0mg"},{"bike_id":"1995d42f-9bb2-423e-a419-1706f5fab24e","system_id":"levelo_inurba_marseille","lat":43.2707,"lon":5.42279,"is_reserved":false,"is_disabled":false,"rental_uris":{"android":"levelo://app?vid=1995d42f-9bb2-423e-a419-1706f5fab24e","ios":"levelo://app?vid=1995d42f-9bb2-423e-a419-1706f5fab24e"},"vehicle_type_id":"4","last_reported":1730383729,"current_range_meters":28400,"station_id":"ce4bhk92rcd13ifvqgb0","pricing_plan_id":"cebpf4jnsgd1na2vs0mg"},{"bike_id":"46673534-1607-465f-be05-a4758453bcbe","system_id":"levelo_inurba_marseille","lat":43.27904,"lon":5.38015,"is_reserved":false,"is_disabled":false,"rental_uris":{"android":"levelo://app?vid=46673534-1607-465f-be05-a4758453bcbe","ios":"levelo://app?vid=46673534-1607-465f-be05-a4758453bcbe"},"vehicle_type_id":"4","last_reported":1730383729,"current_range_meters":20400,"station_id":"ce4bhf92rcd13ifvqf50","pricing_plan_id":"cebpf4jnsgd1na2vs0mg"},{"bike_id":"1ea8470e-2800-45eb-8434-f4430167395d","system_id":"levelo_inurba_marseille","lat":43.28942,"lon":5.36413,"is_reserved":false,"is_disabled":false,"rental_uris":{"android":"levelo://app?vid=1ea8470e-2800-45eb-8434-f4430167395d","ios":"levelo://app?vid=1ea8470e-2800-45eb-8434-f4430167395d"},"vehicle_type_id":"4","last_reported":1730383729,"current_range_meters":8000,"station_id":"ce4bhc92rcd13ifvqetg","pricing_plan_id":"cebpf4jnsgd1na2vs0mg"},{"bike_id":"834f8f9b-e760-45e1-b462-bfd37bb527d3","system_id":"levelo_inurba_marseille","lat":43.26196,"lon":5.37454,"is_reserved":false,"is_disabled":false,"rental_uris":{"android":"levelo://app?vid=834f8f9b-e760-45e1-b462-bfd37bb527d3","ios":"levelo://app?vid=834f8f9b-e760-45e1-b462-bfd37bb527d3"},"vehicle_type_id":"4","last_reported":1730383729,"current_range_meters":24800,"station_id":"ce4bhgp2rcd13ifvqfc0","pricing_plan_id":"cebpf4jnsgd1na2vs0mg"},{"bike_id":"257ae5f3-c207-46eb-a81f-4da2c80f5e52","system_id":"levelo_inurba_marseille","lat":43.30165,"lon":5.37404,"is_reserved":false,"is_disabled":false,"rental_uris":{"android":"levelo://app?vid=257ae5f3-c207-46eb-a81f-4da2c80f5e52","ios":"levelo://app?vid=257ae5f3-c207-46eb-a81f-4da2c80f5e52"},"vehicle_type_id":"4","last_reported":1730383729,"current_range_meters":28000,"station_id":"ce4bgs92rcd13ifvqcc0","pricing_plan_id":"cebpf4jnsgd1na2vs0mg"},{"bike_id":"7106e636-7ce7-47f1-ad5d-21c18986c647","system_id":"levelo_inurba_marseille","lat":43.29549,"lon":5.42297,"is_reserved":false,"is_disabled":false,"rental_uris":{"android":"levelo://app?vid=7106e636-7ce7-47f1-ad5d-21c18986c647","ios":"levelo://app?vid=7106e636-7ce7-47f1-ad5d-21c18986c647"},"vehicle_type_id":"4","last_reported":1730383729,"current_range_meters":16400,"station_id":"ce4bhph2rcd13ifvqhdg","pricing_plan_id":"cebpf4jnsgd1na2vs0mg"},{"bike_id":"c6607736-05c6-487f-bbcd-2b3e2d88b3a9","system_id":"levelo_inurba_marseille","lat":43.29007,"lon":5.35616,"is_reserved":false,"is_disabled":false,"rental_uris":{"android":"levelo://app?vid=c6607736-05c6-487f-bbcd-2b3e2d88b3a9","ios":"levelo://app?vid=c6607736-05c6-487f-bbcd-2b3e2d88b3a9"},"vehicle_type_id":"4","last_reported":1730383729,"current_range_meters":34000,"station_id":"ce4bhb92rcd13ifvqen0","pricing_plan_id":"cebpf4jnsgd1na2vs0mg"},{"bike_id":"1841362e-0140-49dd-ac0c-d688725c0aa4","system_id":"levelo_inurba_marseille","lat":43.29558,"lon":5.42298,"is_reserved":false,"is_disabled":false,"rental_uris":{"android":"levelo://app?vid=1841362e-0140-49dd-ac0c-d688725c0aa4","ios":"levelo://app?vid=1841362e-0140-49dd-ac0c-d688725c0aa4"},"vehicle_type_id":"4","last_reported":1730383729,"current_range_meters":38800,"station_id":"ce4bhph2rcd13ifvqhdg","pricing_plan_id":"cebpf4jnsgd1na2vs0mg"},{"bike_id":"11c70acf-f94f-4752-b704-491bbb791041","system_id":"levelo_inurba_marseille","lat":43.31174,"lon":5.38717,"is_reserved":false,"is_disabled":false,"rental_uris":{"android":"levelo://app?vid=11c70acf-f94f-4752-b704-491bbb791041","ios":"levelo://app?vid=11c70acf-f94f-4752-b704-491bbb791041"},"vehicle_type_id":"4","last_reported":1730383729,"current_range_meters":38800,"station_id":"ce4bgv12rcd13ifvqcp0","pricing_plan_id":"cebpf4jnsgd1na2vs0mg"},{"bike_id":"943f2cb7-cf89-48de-9984-d84cecfe8fec","system_id":"levelo_inurba_marseille","lat":43.25865,"lon":5.39901,"is_reserved":false,"is_disabled":false,"rental_uris":{"android":"levelo://app?vid=943f2cb7-cf89-48de-9984-d84cecfe8fec","ios":"levelo://app?vid=943f2cb7-cf89-48de-9984-d84cecfe8fec"},"vehicle_type_id":"4","last_reported":1730383729,"current_range_meters":32000,"station_id":"ce4bhl92rcd13ifvqghg","pricing_plan_id":"cebpf4jnsgd1na2vs0mg"},{"bike_id":"94279a57-03c0-47b7-abe3-7226e86fd3b0","system_id":"levelo_inurba_marseille","lat":43.2762,"lon":5.36111,"is_reserved":false,"is_disabled":false,"rental_uris":{"android":"levelo://app?vid=94279a57-03c0-47b7-abe3-7226e86fd3b0","ios":"levelo://app?vid=94279a57-03c0-47b7-abe3-7226e86fd3b0"},"vehicle_type_id":"4","last_reported":1730383729,"current_range_meters":28800,"station_id":"ce4bgj92rcd13ifvqbe0","pricing_plan_id":"cebpf4jnsgd1na2vs0mg"},{"bike_id":"1ace14c5-1992-46b1-87cf-4a1d3c62f592","system_id":"levelo_inurba_marseille","lat":43.28155,"lon":5.4264,"is_reserved":false,"is_disabled":false,"rental_uris":{"android":"levelo://app?vid=1ace14c5-1992-46b1-87cf-4a1d3c62f592","ios":"levelo://app?vid=1ace14c5-1992-46b1-87cf-4a1d3c62f592"},"vehicle_type_id":"4","last_reported":1730383729,"current_range_meters":16400,"station_id":"ce4bhnh2rcd13ifvqgug","pricing_plan_id":"cebpf4jnsgd1na2vs0mg"},{"bike_id":"793f707b-629f-4c82-9f4d-ac9f160515d8","system_id":"levelo_inurba_marseille","lat":43.31493,"lon":5.37312,"is_reserved":false,"is_disabled":false,"rental_uris":{"android":"levelo://app?vid=793f707b-629f-4c82-9f4d-ac9f160515d8","ios":"levelo://app?vid=793f707b-629f-4c82-9f4d-ac9f160515d8"},"vehicle_type_id":"4","last_reported":1730383729,"current_range_meters":8000,"station_id":"ce4bgt12rcd13ifvqcd0","pricing_plan_id":"cebpf4jnsgd1na2vs0mg"},{"bike_id":"2b7ad954-2153-42d9-a62a-cf7d63fc6b0e","system_id":"levelo_inurba_marseille","lat":43.2842,"lon":5.34994,"is_reserved":false,"is_disabled":false,"rental_uris":{"android":"levelo://app?vid=2b7ad954-2153-42d9-a62a-cf7d63fc6b0e","ios":"levelo://app?vid=2b7ad954-2153-42d9-a62a-cf7d63fc6b0e"},"vehicle_type_id":"4","last_reported":1730383729,"current_range_meters":38800,"station_id":"ce4bhbh2rcd13ifvqepg","pricing_plan_id":"cebpf4jnsgd1na2vs0mg"},{"bike_id":"9e9467dc-08bd-4540-a622-7c942da68b8d","system_id":"levelo_inurba_marseille","lat":43.25576,"lon":5.38234,"is_reserved":false,"is_disabled":false,"rental_uris":{"android":"levelo://app?vid=9e9467dc-08bd-4540-a622-7c942da68b8d","ios":"levelo://app?vid=9e9467dc-08bd-4540-a622-7c942da68b8d"},"vehicle_type_id":"4","last_reported":1730383729,"current_range_meters":4000,"station_id":"ce4bhih2rcd13ifvqfs0","pricing_plan_id":"cebpf4jnsgd1na2vs0mg"},{"bike_id":"91ab86ec-081e-420a-bc11-75e3d405a074","system_id":"levelo_inurba_marseille","lat":43.29609,"lon":5.37713,"is_reserved":false,"is_disabled":false,"rental_uris":{"android":"levelo://app?vid=91ab86ec-081e-420a-bc11-75e3d405a074","ios":"levelo://app?vid=91ab86ec-081e-420a-bc11-75e3d405a074"},"vehicle_type_id":"4","last_reported":1730383729,"current_range_meters":30000,"station_id":"ce4bgi92rcd13ifvqb90","pricing_plan_id":"cebpf4jnsgd1na2vs0mg"},{"bike_id":"50209b06-4e76-4fa3-8673-d6858cf5b9fa","system_id":"levelo_inurba_marseille","lat":43.3009,"lon":5.39084,"is_reserved":false,"is_disabled":false,"rental_uris":{"android":"levelo://app?vid=50209b06-4e76-4fa3-8673-d6858cf5b9fa","ios":"levelo://app?vid=50209b06-4e76-4fa3-8673-d6858cf5b9fa"},"vehicle_type_id":"4","last_reported":1730383729,"current_range_meters":28800,"station_id":"ce4bh192rcd13ifvqdb0","pricing_plan_id":"cebpf4jnsgd1na2vs0mg"},{"bike_id":"0e6dd02c-46ea-478c-9dc6-e1b5bd3823e1","system_id":"levelo_inurba_marseille","lat":43.30135,"lon":5.37417,"is_reserved":false,"is_disabled":false,"rental_uris":{"android":"levelo://app?vid=0e6dd02c-46ea-478c-9dc6-e1b5bd3823e1","ios":"levelo://app?vid=0e6dd02c-46ea-478c-9dc6-e1b5bd3823e1"},"vehicle_type_id":"4","last_reported":1730383729,"current_range_meters":38800,"station_id":"ce4bgs92rcd13ifvqcc0","pricing_plan_id":"cebpf4jnsgd1na2vs0mg"},{"bike_id":"32d58396-c3f5-489f-88e0-b79de8d01d50","system_id":"levelo_inurba_marseille","lat":43.292419,"lon":5.374943,"is_reserved":false,"is_disabled":false,"rental_uris":{"android":"levelo://app?vid=32d58396-c3f5-489f-88e0-b79de8d01d50","ios":"levelo://app?vid=32d58396-c3f5-489f-88e0-b79de8d01d50"},"vehicle_type_id":"4","last_reported":1730383729,"current_range_meters":11600,"station_id":"ce4bgi12rcd13ifvqb70","pricing_plan_id":"cebpf4jnsgd1na2vs0mg"},{"bike_id":"908ceaf6-301d-4832-9030-e6710df0bce4","system_id":"levelo_inurba_marseille","lat":43.26211,"lon":5.37928,"is_reserved":false,"is_disabled":false,"rental_uris":{"android":"levelo://app?vid=908ceaf6-301d-4832-9030-e6710df0bce4","ios":"levelo://app?vid=908ceaf6-301d-4832-9030-e6710df0bce4"},"vehicle_type_id":"4","last_reported":1730383729,"current_range_meters":4400,"station_id":"ce4bhjp2rcd13ifvqg90","pricing_plan_id":"cebpf4jnsgd1na2vs0mg"},{"bike_id":"42ffdd3f-03b1-4afd-ac35-5390334ba104","system_id":"levelo_inurba_marseille","lat":43.28618,"lon":5.35105,"is_reserved":false,"is_disabled":false,"rental_uris":{"android":"levelo://app?vid=42ffdd3f-03b1-4afd-ac35-5390334ba104","ios":"levelo://app?vid=42ffdd3f-03b1-4afd-ac35-5390334ba104"},"vehicle_type_id":"4","last_reported":1730383729,"current_range_meters":4400,"station_id":"ce4bhch2rcd13ifvqeug","pricing_plan_id":"cebpf4jnsgd1na2vs0mg"},{"bike_id":"3e68ff33-06ed-4f58-92d6-c7e8e60269c9","system_id":"levelo_inurba_marseille","lat":43.32493,"lon":5.36562,"is_reserved":false,"is_disabled":false,"rental_uris":{"android":"levelo://app?vid=3e68ff33-06ed-4f58-92d6-c7e8e60269c9","ios":"levelo://app?vid=3e68ff33-06ed-4f58-92d6-c7e8e60269c9"},"vehicle_type_id":"4","last_reported":1730383729,"current_range_meters":36000,"station_id":"ce4bhs12rcd13ifvqhvg","pricing_plan_id":"cebpf4jnsgd1na2vs0mg"},{"bike_id":"36bba522-8064-491b-8462-210890cc5001","system_id":"levelo_inurba_marseille","lat":43.29003,"lon":5.3561,"is_reserved":false,"is_disabled":false,"rental_uris":{"android":"levelo://app?vid=36bba522-8064-491b-8462-210890cc5001","ios":"levelo://app?vid=36bba522-8064-491b-8462-210890cc5001"},"vehicle_type_id":"4","last_reported":1730383729,"current_range_meters":3200,"station_id":"ce4bhb92rcd13ifvqen0","pricing_plan_id":"cebpf4jnsgd1na2vs0mg"},{"bike_id":"2cba9557-49ab-4c59-bcdf-10fe686fbcd9","system_id":"levelo_inurba_marseille","lat":43.28267,"lon":5.3507,"is_reserved":false,"is_disabled":false,"rental_uris":{"android":"levelo://app?vid=2cba9557-49ab-4c59-bcdf-10fe686fbcd9","ios":"levelo://app?vid=2cba9557-49ab-4c59-bcdf-10fe686fbcd9"},"vehicle_type_id":"4","last_reported":1730383729,"current_range_meters":25600,"station_id":"ce4bhbp2rcd13ifvqerg","pricing_plan_id":"cebpf4jnsgd1na2vs0mg"},{"bike_id":"0b8ed408-0c1d-4ce3-af8c-05c9a872ed51","system_id":"levelo_inurba_marseille","lat":43.24387,"lon":5.37061,"is_reserved":false,"is_disabled":false,"rental_uris":{"android":"levelo://app?vid=0b8ed408-0c1d-4ce3-af8c-05c9a872ed51","ios":"levelo://app?vid=0b8ed408-0c1d-4ce3-af8c-05c9a872ed51"},"vehicle_type_id":"4","last_reported":1730383729,"current_range_meters":31200,"station_id":"ce4bhhh2rcd13ifvqfk0","pricing_plan_id":"cebpf4jnsgd1na2vs0mg"},{"bike_id":"8fbee397-c726-4d42-ae6d-7e6a955a3eb5","system_id":"levelo_inurba_marseille","lat":43.23062,"lon":5.35491,"is_reserved":false,"is_disabled":false,"rental_uris":{"android":"levelo://app?vid=8fbee397-c726-4d42-ae6d-7e6a955a3eb5","ios":"levelo://app?vid=8fbee397-c726-4d42-ae6d-7e6a955a3eb5"},"vehicle_type_id":"4","last_reported":1730383729,"current_range_meters":36800,"station_id":"cpo3342slgdg3j2ifvpg","pricing_plan_id":"cebpf4jnsgd1na2vs0mg"},{"bike_id":"bce7a1a5-7cbe-4550-b6d4-d0502c4836a7","system_id":"levelo_inurba_marseille","lat":43.31137,"lon":5.40153,"is_reserved":false,"is_disabled":false,"rental_uris":{"android":"levelo://app?vid=bce7a1a5-7cbe-4550-b6d4-d0502c4836a7","ios":"levelo://app?vid=bce7a1a5-7cbe-4550-b6d4-d0502c4836a7"},"vehicle_type_id":"4","last_reported":1730383729,"current_range_meters":13600,"station_id":"","pricing_plan_id":"cebpf4jnsgd1na2vs0mg"},{"bike_id":"2b299ac7-e58c-48b7-b952-73929743dba2","system_id":"levelo_inurba_marseille","lat":43.27327,"lon":5.39093,"is_reserved":false,"is_disabled":false,"rental_uris":{"android":"levelo://app?vid=2b299ac7-e58c-48b7-b952-73929743dba2","ios":"levelo://app?vid=2b299ac7-e58c-48b7-b952-73929743dba2"},"vehicle_type_id":"4","last_reported":1730383729,"current_range_meters":36400,"station_id":"ce4bhgp2rcd13ifvqfe0","pricing_plan_id":"cebpf4jnsgd1na2vs0mg"},{"bike_id":"fea23d88-9bbb-4ffa-af08-7b03ca37348f","system_id":"levelo_inurba_marseille","lat":43.23194,"lon":5.39999,"is_reserved":false,"is_disabled":false,"rental_uris":{"android":"levelo://app?vid=fea23d88-9bbb-4ffa-af08-7b03ca37348f","ios":"levelo://app?vid=fea23d88-9bbb-4ffa-af08-7b03ca37348f"},"vehicle_type_id":"4","last_reported":1730383729,"current_range_meters":25600,"station_id":"ce4bhn12rcd13ifvqgqg","pricing_plan_id":"cebpf4jnsgd1na2vs0mg"},{"bike_id":"02e39b18-963f-467b-8c5c-cef232d22c0c","system_id":"levelo_inurba_marseille","lat":43.30187,"lon":5.36616,"is_reserved":false,"is_disabled":false,"rental_uris":{"android":"levelo://app?vid=02e39b18-963f-467b-8c5c-cef232d22c0c","ios":"levelo://app?vid=02e39b18-963f-467b-8c5c-cef232d22c0c"},"vehicle_type_id":"4","last_reported":1730383729,"current_range_meters":29600,"station_id":"ce4bgrh2rcd13ifvqc8g","pricing_plan_id":"cebpf4jnsgd1na2vs0mg"},{"bike_id":"160c3125-d109-49e3-a687-ede78b99dea2","system_id":"levelo_inurba_marseille","lat":43.23204,"lon":5.35547,"is_reserved":false,"is_disabled":false,"rental_uris":{"android":"levelo://app?vid=160c3125-d109-49e3-a687-ede78b99dea2","ios":"levelo://app?vid=160c3125-d109-49e3-a687-ede78b99dea2"},"vehicle_type_id":"4","last_reported":1730383729,"current_range_meters":35200,"station_id":"ce4bhu92rcd13ifvqi70","pricing_plan_id":"cebpf4jnsgd1na2vs0mg"},{"bike_id":"d93ceb2b-2576-4335-8e1c-fe39a92d1174","system_id":"levelo_inurba_marseille","lat":43.27185,"lon":5.4099,"is_reserved":false,"is_disabled":false,"rental_uris":{"android":"levelo://app?vid=d93ceb2b-2576-4335-8e1c-fe39a92d1174","ios":"levelo://app?vid=d93ceb2b-2576-4335-8e1c-fe39a92d1174"},"vehicle_type_id":"4","last_reported":1730383729,"current_range_meters":9600,"station_id":"ce4bhl12rcd13ifvqgf0","pricing_plan_id":"cebpf4jnsgd1na2vs0mg"},{"bike_id":"4df14804-116d-42c4-a419-d8f3580e9f09","system_id":"levelo_inurba_marseille","lat":43.25002,"lon":5.38928,"is_reserved":false,"is_disabled":false,"rental_uris":{"android":"levelo://app?vid=4df14804-116d-42c4-a419-d8f3580e9f09","ios":"levelo://app?vid=4df14804-116d-42c4-a419-d8f3580e9f09"},"vehicle_type_id":"4","last_reported":1730383729,"current_range_meters":8000,"station_id":"ce4bhgp2rcd13ifvqfd0","pricing_plan_id":"cebpf4jnsgd1na2vs0mg"},{"bike_id":"95d12996-cf4e-4df2-9763-ea4892bdbfb6","system_id":"levelo_inurba_marseille","lat":43.30563,"lon":5.36534,"is_reserved":false,"is_disabled":false,"rental_uris":{"android":"levelo://app?vid=95d12996-cf4e-4df2-9763-ea4892bdbfb6","ios":"levelo://app?vid=95d12996-cf4e-4df2-9763-ea4892bdbfb6"},"vehicle_type_id":"4","last_reported":1730383729,"current_range_meters":25600,"station_id":"ce4bgs12rcd13ifvqcag","pricing_plan_id":"cebpf4jnsgd1na2vs0mg"},{"bike_id":"71d10f41-2ffe-4394-bc10-bfa4bb58be1e","system_id":"levelo_inurba_marseille","lat":43.32341,"lon":5.40625,"is_reserved":false,"is_disabled":false,"rental_uris":{"android":"levelo://app?vid=71d10f41-2ffe-4394-bc10-bfa4bb58be1e","ios":"levelo://app?vid=71d10f41-2ffe-4394-bc10-bfa4bb58be1e"},"vehicle_type_id":"4","last_reported":1730383729,"current_range_meters":28400,"station_id":"ce4bhq92rcd13ifvqhjg","pricing_plan_id":"cebpf4jnsgd1na2vs0mg"},{"bike_id":"271b2fb8-e155-4e83-9382-80713bf86b5a","system_id":"levelo_inurba_marseille","lat":43.28859,"lon":5.39314,"is_reserved":false,"is_disabled":false,"rental_uris":{"android":"levelo://app?vid=271b2fb8-e155-4e83-9382-80713bf86b5a","ios":"levelo://app?vid=271b2fb8-e155-4e83-9382-80713bf86b5a"},"vehicle_type_id":"4","last_reported":1730383729,"current_range_meters":31200,"station_id":"ce4bh2p2rcd13ifvqdi0","pricing_plan_id":"cebpf4jnsgd1na2vs0mg"},{"bike_id":"ecc03056-e0f1-43a6-bffa-0b96062beec5","system_id":"levelo_inurba_marseille","lat":43.26787,"lon":5.39413,"is_reserved":false,"is_disabled":false,"rental_uris":{"android":"levelo://app?vid=ecc03056-e0f1-43a6-bffa-0b96062beec5","ios":"levelo://app?vid=ecc03056-e0f1-43a6-bffa-0b96062beec5"},"vehicle_type_id":"4","last_reported":1730383729,"current_range_meters":24400,"station_id":"ce4bhh12rcd13ifvqfg0","pricing_plan_id":"cebpf4jnsgd1na2vs0mg"},{"bike_id":"1678655c-ba87-46ee-9e52-89fd32ac976e","system_id":"levelo_inurba_marseille","lat":43.28428,"lon":5.35007,"is_reserved":false,"is_disabled":false,"rental_uris":{"android":"levelo://app?vid=1678655c-ba87-46ee-9e52-89fd32ac976e","ios":"levelo://app?vid=1678655c-ba87-46ee-9e52-89fd32ac976e"},"vehicle_type_id":"4","last_reported":1730383729,"current_range_meters":38800,"station_id":"ce4bhbh2rcd13ifvqepg","pricing_plan_id":"cebpf4jnsgd1na2vs0mg"},{"bike_id":"7c763de4-e7ce-4040-b15f-5fc817fb3972","system_id":"levelo_inurba_marseille","lat":43.26805,"lon":5.40269,"is_reserved":false,"is_disabled":false,"rental_uris":{"android":"levelo://app?vid=7c763de4-e7ce-4040-b15f-5fc817fb3972","ios":"levelo://app?vid=7c763de4-e7ce-4040-b15f-5fc817fb3972"},"vehicle_type_id":"4","last_reported":1730383729,"current_range_meters":38800,"station_id":"ce501612rcd8frsf0b60","pricing_plan_id":"cebpf4jnsgd1na2vs0mg"},{"bike_id":"27af1fb6-354f-4701-9f1a-cb63120973cd","system_id":"levelo_inurba_marseille","lat":43.26024,"lon":5.3755,"is_reserved":false,"is_disabled":false,"rental_uris":{"android":"levelo://app?vid=27af1fb6-354f-4701-9f1a-cb63120973cd","ios":"levelo://app?vid=27af1fb6-354f-4701-9f1a-cb63120973cd"},"vehicle_type_id":"4","last_reported":1730383729,"current_range_meters":16400,"station_id":"ce4bhgh2rcd13ifvqfa0","pricing_plan_id":"cebpf4jnsgd1na2vs0mg"},{"bike_id":"5117c6bc-c17f-4e5a-9ba8-4894fe7bd438","system_id":"levelo_inurba_marseille","lat":43.24667,"lon":5.38162,"is_reserved":false,"is_disabled":false,"rental_uris":{"android":"levelo://app?vid=5117c6bc-c17f-4e5a-9ba8-4894fe7bd438","ios":"levelo://app?vid=5117c6bc-c17f-4e5a-9ba8-4894fe7bd438"},"vehicle_type_id":"4","last_reported":1730383729,"current_range_meters":34800,"station_id":"ce4bhih2rcd13ifvqfr0","pricing_plan_id":"cebpf4jnsgd1na2vs0mg"},{"bike_id":"bb4d0123-f0fd-41b7-9099-a5bb2a5e0bc6","system_id":"levelo_inurba_marseille","lat":43.29616,"lon":5.37721,"is_reserved":false,"is_disabled":false,"rental_uris":{"android":"levelo://app?vid=bb4d0123-f0fd-41b7-9099-a5bb2a5e0bc6","ios":"levelo://app?vid=bb4d0123-f0fd-41b7-9099-a5bb2a5e0bc6"},"vehicle_type_id":"4","last_reported":1730383729,"current_range_meters":38000,"station_id":"ce4bgi92rcd13ifvqb90","pricing_plan_id":"cebpf4jnsgd1na2vs0mg"},{"bike_id":"624f5ad5-67d1-47fe-9083-dbdce04424a7","system_id":"levelo_inurba_marseille","lat":43.28615,"lon":5.35102,"is_reserved":false,"is_disabled":false,"rental_uris":{"android":"levelo://app?vid=624f5ad5-67d1-47fe-9083-dbdce04424a7","ios":"levelo://app?vid=624f5ad5-67d1-47fe-9083-dbdce04424a7"},"vehicle_type_id":"4","last_reported":1730383729,"current_range_meters":38000,"station_id":"ce4bhch2rcd13ifvqeug","pricing_plan_id":"cebpf4jnsgd1na2vs0mg"},{"bike_id":"aeaab20f-d580-46f9-b771-cdfa3192d1a2","system_id":"levelo_inurba_marseille","lat":43.3018,"lon":5.36604,"is_reserved":false,"is_disabled":false,"rental_uris":{"android":"levelo://app?vid=aeaab20f-d580-46f9-b771-cdfa3192d1a2","ios":"levelo://app?vid=aeaab20f-d580-46f9-b771-cdfa3192d1a2"},"vehicle_type_id":"4","last_reported":1730383729,"current_range_meters":38400,"station_id":"ce4bgrh2rcd13ifvqc8g","pricing_plan_id":"cebpf4jnsgd1na2vs0mg"},{"bike_id":"a3d2ad47-fb88-4fa4-9d59-0bda3d0a2b85","system_id":"levelo_inurba_marseille","lat":43.33603,"lon":5.4104,"is_reserved":false,"is_disabled":false,"rental_uris":{"android":"levelo://app?vid=a3d2ad47-fb88-4fa4-9d59-0bda3d0a2b85","ios":"levelo://app?vid=a3d2ad47-fb88-4fa4-9d59-0bda3d0a2b85"},"vehicle_type_id":"4","last_reported":1730383729,"current_range_meters":37600,"station_id":"ce4bhqh2rcd13ifvqhmg","pricing_plan_id":"cebpf4jnsgd1na2vs0mg"},{"bike_id":"e8293b4e-059a-4396-9bed-846c599622d5","system_id":"levelo_inurba_marseille","lat":43.27179,"lon":5.40988,"is_reserved":false,"is_disabled":false,"rental_uris":{"android":"levelo://app?vid=e8293b4e-059a-4396-9bed-846c599622d5","ios":"levelo://app?vid=e8293b4e-059a-4396-9bed-846c599622d5"},"vehicle_type_id":"4","last_reported":1730383729,"current_range_meters":39200,"station_id":"ce4bhl12rcd13ifvqgf0","pricing_plan_id":"cebpf4jnsgd1na2vs0mg"},{"bike_id":"1f891675-16b0-4a24-aaa3-e59260de9b4e","system_id":"levelo_inurba_marseille","lat":43.2593,"lon":5.40907,"is_reserved":false,"is_disabled":false,"rental_uris":{"android":"levelo://app?vid=1f891675-16b0-4a24-aaa3-e59260de9b4e","ios":"levelo://app?vid=1f891675-16b0-4a24-aaa3-e59260de9b4e"},"vehicle_type_id":"4","last_reported":1730383729,"current_range_meters":32000,"station_id":"ce4bhm92rcd13ifvqglg","pricing_plan_id":"cebpf4jnsgd1na2vs0mg"},{"bike_id":"e3015adc-66bc-4d3d-ba28-84e499260fd3","system_id":"levelo_inurba_marseille","lat":43.31338,"lon":5.36732,"is_reserved":false,"is_disabled":false,"rental_uris":{"android":"levelo://app?vid=e3015adc-66bc-4d3d-ba28-84e499260fd3","ios":"levelo://app?vid=e3015adc-66bc-4d3d-ba28-84e499260fd3"},"vehicle_type_id":"4","last_reported":1730383729,"current_range_meters":24000,"station_id":"ce4bgr92rcd13ifvqc6g","pricing_plan_id":"cebpf4jnsgd1na2vs0mg"},{"bike_id":"2e679aa2-6222-4666-94d2-8febbbac34cf","system_id":"levelo_inurba_marseille","lat":43.28955,"lon":5.48078,"is_reserved":false,"is_disabled":false,"rental_uris":{"android":"levelo://app?vid=2e679aa2-6222-4666-94d2-8febbbac34cf","ios":"levelo://app?vid=2e679aa2-6222-4666-94d2-8febbbac34cf"},"vehicle_type_id":"4","last_reported":1730383729,"current_range_meters":11600,"station_id":"ce4bgvp2rcd13ifvqct0","pricing_plan_id":"cebpf4jnsgd1na2vs0mg"},{"bike_id":"0639926c-ca4c-48d7-997c-17be1c92ba7e","system_id":"levelo_inurba_marseille","lat":43.25113,"lon":5.40325,"is_reserved":false,"is_disabled":false,"rental_uris":{"android":"levelo://app?vid=0639926c-ca4c-48d7-997c-17be1c92ba7e","ios":"levelo://app?vid=0639926c-ca4c-48d7-997c-17be1c92ba7e"},"vehicle_type_id":"4","last_reported":1730383729,"current_range_meters":33600,"station_id":"ce4bhlh2rcd13ifvqgig","pricing_plan_id":"cebpf4jnsgd1na2vs0mg"},{"bike_id":"db0511b5-cb00-466e-898c-58cdf5484c31","system_id":"levelo_inurba_marseille","lat":43.30139,"lon":5.39864,"is_reserved":false,"is_disabled":false,"rental_uris":{"android":"levelo://app?vid=db0511b5-cb00-466e-898c-58cdf5484c31","ios":"levelo://app?vid=db0511b5-cb00-466e-898c-58cdf5484c31"},"vehicle_type_id":"4","last_reported":1730383729,"current_range_meters":4400,"station_id":"ce4bh0h2rcd13ifvqd40","pricing_plan_id":"cebpf4jnsgd1na2vs0mg"},{"bike_id":"09873ff2-4333-4bd6-be70-4addfeebc05a","system_id":"levelo_inurba_marseille","lat":43.28418,"lon":5.34995,"is_reserved":false,"is_disabled":false,"rental_uris":{"android":"levelo://app?vid=09873ff2-4333-4bd6-be70-4addfeebc05a","ios":"levelo://app?vid=09873ff2-4333-4bd6-be70-4addfeebc05a"},