{"last_updated":1751458870,"ttl":60,"version":"2.2","data":{"bikes":[{"bike_id":"3da29fb8-fc97-44c6-b9ac-31dd456b2fd4","system_id":"levelo_inurba_marseille","lat":43.33771,"lon":5.37424,"is_reserved":false,"is_disabled":true,"rental_uris":{"android":"levelo://app?vid=3da29fb8-fc97-44c6-b9ac-31dd456b2fd4","ios":"levelo://app?vid=3da29fb8-fc97-44c6-b9ac-31dd456b2fd4"},"vehicle_type_id":"4","last_reported":1751458870,"current_range_meters":0,"station_id":"","pricing_plan_id":"cebpf4jnsgd1na2vs0mg"},{"bike_id":"01861ad8-a8d7-4be6-816e-651927c87584","system_id":"levelo_inurba_marseille","lat":43.33751,"lon":5.37456,"is_reserved":false,"is_disabled":true,"rental_uris":{"android":"levelo://app?vid=01861ad8-a8d7-4be6-816e-651927c87584","ios":"levelo://app?vid=01861ad8-a8d7-4be6-816e-651927c87584"},"vehicle_type_id":"4","last_reported":1751458870,"current_range_meters":0,"station_id":"","pricing_plan_id":"cebpf4jnsgd1na2vs0mg"},{"bike_id":"78f27901-7679-47ea-b177-7186955bca70","system_id":"levelo_inurba_marseille","lat":43.311203,"lon":5.377743,"is_reserved":false,"is_disabled":true,"rental_uris":{"android":"levelo://app?vid=78f27901-7679-47ea-b177-7186955bca70","ios":"levelo://app?vid=78f27901-7679-47ea-b177-7186955bca70"},"vehicle_type_id":"4","last_reported":1751458870,"current_range_meters":0,"station_id":"ce4bgt92rcd13ifvqcg0","pricing_plan_id":"cebpf4jnsgd1na2vs0mg"},{"bike_id":"30b36fc6-26b7-446f-bc8b-84c3f0b992a7","system_id":"levelo_inurba_marseille","lat":43.28416,"lon":5.37501,"is_reserved":false,"is_disabled":true,"rental_uris":{"android":"levelo://app?vid=30b36fc6-26b7-446f-bc8b-84c3f0b992a7","ios":"levelo://app?vid=30b36fc6-26b7-446f-bc8b-84c3f0b992a7"},"vehicle_type_id":"4","last_reported":1751458870,"current_range_meters":0,"station_id":"ce4bh412rcd13ifvqds0","pricing_plan_id":"cebpf4jnsgd1na2vs0mg"},{"bike_id":"e60cadb3-785a-444f-ab8e-5e50d01b24df","system_id":"levelo_inurba_marseille","lat":43.28622,"lon":5.35108,"is_reserved":false,"is_disabled":true,"rental_uris":{"android":"levelo://app?vid=e60cadb3-785a-444f-ab8e-5e50d01b24df","ios":"levelo://app?vid=e60cadb3-785a-444f-ab8e-5e50d01b24df"},"vehicle_type_id":"4","last_reported":1751458870,"current_range_meters":0,"station_id":"ce4bhch2rcd13ifvqeug","pricing_plan_id":"cebpf4jnsgd1na2vs0mg"},{"bike_id":"bbe57bee-8aed-4067-a3b3-cccc56191207","system_id":"levelo_inurba_marseille","lat":43.28614,"lon":5.351,"is_reserved":false,"is_disabled":true,"rental_uris":{"android":"levelo://app?vid=bbe57bee-8aed-4067-a3b3-cccc56191207","ios":"levelo://app?vid=bbe57bee-8aed-4067-a3b3-cccc56191207"},"vehicle_type_id":"4","last_reported":1751458870,"current_range_meters":0,"station_id":"ce4bhch2rcd13ifvqeug","pricing_plan_id":"cebpf4jnsgd1na2vs0mg"},{"bike_id":"d5b16757-b09e-4652-a1cd-cbe958a9740c","system_id":"levelo_inurba_marseille","lat":43.23155,"lon":5.43723,"is_reserved":false,"is_disabled":true,"rental_uris":{"android":"levelo://app?vid=d5b16757-b09e-4652-a1cd-cbe958a9740c","ios":"levelo://app?vid=d5b16757-b09e-4652-a1cd-cbe958a9740c"},"vehicle_type_id":"4","last_reported":1751458870,"current_range_meters":0,"station_id":"ce4bhmp2rcd13ifvqgog","pricing_plan_id":"cebpf4jnsgd1na2vs0mg"},{"bike_id":"dc24cb85-f64b-40c5-b603-dc729fbf2c9a","system_id":"levelo_inurba_marseille","lat":43.27964,"lon":5.41065,"is_reserved":false,"is_disabled":true,"rental_uris":{"android":"levelo://app?vid=dc24cb85-f64b-40c5-b603-dc729fbf2c9a","ios":"levelo://app?vid=dc24cb85-f64b-40c5-b603-dc729fbf2c9a"},"vehicle_type_id":"4","last_reported":1751458870,"current_range_meters":0,"station_id":"ce4bhnp2rcd13ifvqh0g","pricing_plan_id":"cebpf4jnsgd1na2vs0mg"},{"bike_id":"2b79eac2-8d7f-455a-ab7b-57d1965acf5f","system_id":"levelo_inurba_marseille","lat":43.32022,"lon":5.38131,"is_reserved":false,"is_disabled":true,"rental_uris":{"android":"levelo://app?vid=2b79eac2-8d7f-455a-ab7b-57d1965acf5f","ios":"levelo://app?vid=2b79eac2-8d7f-455a-ab7b-57d1965acf5f"},"vehicle_type_id":"4","last_reported":1751458870,"current_range_meters":0,"station_id":"ce4bhr12rcd13ifvqhpg","pricing_plan_id":"cebpf4jnsgd1na2vs0mg"},{"bike_id":"b935900f-5f6a-4a69-affa-25d81d88fa6a","system_id":"levelo_inurba_marseille","lat":43.29066,"lon":5.37174,"is_reserved":false,"is_disabled":true,"rental_uris":{"android":"levelo://app?vid=b935900f-5f6a-4a69-affa-25d81d88fa6a","ios":"levelo://app?vid=b935900f-5f6a-4a69-affa-25d81d88fa6a"},"vehicle_type_id":"4","last_reported":1751458870,"current_range_meters":400,"station_id":"ce4bh5p2rcd13ifvqe4g","pricing_plan_id":"cebpf4jnsgd1na2vs0mg"},{"bike_id":"737f04cb-609a-4f47-ade4-fd260a160bde","system_id":"levelo_inurba_marseille","lat":43.28483,"lon":5.38425,"is_reserved":false,"is_disabled":true,"rental_uris":{"android":"levelo://app?vid=737f04cb-609a-4f47-ade4-fd260a160bde","ios":"levelo://app?vid=737f04cb-609a-4f47-ade4-fd260a160bde"},"vehicle_type_id":"4","last_reported":1751458870,"current_range_meters":800,"station_id":"ce4bh512rcd13ifvqe3g","pricing_plan_id":"cebpf4jnsgd1na2vs0mg"},{"bike_id":"153f8781-1766-4214-a5f9-1b991b8e9b42","system_id":"levelo_inurba_marseille","lat":43.28459,"lon":5.35884,"is_reserved":false,"is_disabled":true,"rental_uris":{"android":"levelo://app?vid=153f8781-1766-4214-a5f9-1b991b8e9b42","ios":"levelo://app?vid=153f8781-1766-4214-a5f9-1b991b8e9b42"},"vehicle_type_id":"4","last_reported":1751458870,"current_range_meters":800,"station_id":"ce4bhah2rcd13ifvqei0","pricing_plan_id":"cebpf4jnsgd1na2vs0mg"},{"bike_id":"23ee17ea-f28f-4d1b-9b89-4c1248a80c98","system_id":"levelo_inurba_marseille","lat":43.27942,"lon":5.4105,"is_reserved":false,"is_disabled":true,"rental_uris":{"android":"levelo://app?vid=23ee17ea-f28f-4d1b-9b89-4c1248a80c98","ios":"levelo://app?vid=23ee17ea-f28f-4d1b-9b89-4c1248a80c98"},"vehicle_type_id":"4","last_reported":1751458870,"current_range_meters":800,"station_id":"ce4bhnp2rcd13ifvqh0g","pricing_plan_id":"cebpf4jnsgd1na2vs0mg"},{"bike_id":"162af4e6-d224-4240-aeac-6cb0ae06de53","system_id":"levelo_inurba_marseille","lat":43.29882,"lon":5.37856,"is_reserved":false,"is_disabled":true,"rental_uris":{"android":"levelo://app?vid=162af4e6-d224-4240-aeac-6cb0ae06de53","ios":"levelo://app?vid=162af4e6-d224-4240-aeac-6cb0ae06de53"},"vehicle_type_id":"4","last_reported":1751458870,"current_range_meters":1200,"station_id":"","pricing_plan_id":"cebpf4jnsgd1na2vs0mg"},{"bike_id":"da004e71-5cd1-4a3e-b044-618d884971ba","system_id":"levelo_inurba_marseille","lat":43.29276,"lon":5.37641,"is_reserved":false,"is_disabled":true,"rental_uris":{"android":"levelo://app?vid=da004e71-5cd1-4a3e-b044-618d884971ba","ios":"levelo://app?vid=da004e71-5cd1-4a3e-b044-618d884971ba"},"vehicle_type_id":"4","last_reported":1751458870,"current_range_meters":1200,"station_id":"ce4bgi12rcd13ifvqb80","pricing_plan_id":"cebpf4jnsgd1na2vs0mg"},{"bike_id":"423886e9-2823-4aab-bf6d-71762ee5f958","system_id":"levelo_inurba_marseille","lat":43.30966,"lon":5.39059,"is_reserved":false,"is_disabled":true,"rental_uris":{"android":"levelo://app?vid=423886e9-2823-4aab-bf6d-71762ee5f958","ios":"levelo://app?vid=423886e9-2823-4aab-bf6d-71762ee5f958"},"vehicle_type_id":"4","last_reported":1751458870,"current_range_meters":1200,"station_id":"ce4bgup2rcd13ifvqco0","pricing_plan_id":"cebpf4jnsgd1na2vs0mg"},{"bike_id":"60d60dd8-0d61-4f26-abf3-14bb4ce34d52","system_id":"levelo_inurba_marseille","lat":43.281552,"lon":5.426503,"is_reserved":false,"is_disabled":true,"rental_uris":{"android":"levelo://app?vid=60d60dd8-0d61-4f26-abf3-14bb4ce34d52","ios":"levelo://app?vid=60d60dd8-0d61-4f26-abf3-14bb4ce34d52"},"vehicle_type_id":"4","last_reported":1751458870,"current_range_meters":1200,"station_id":"ce4bhnh2rcd13ifvqgug","pricing_plan_id":"cebpf4jnsgd1na2vs0mg"},{"bike_id":"b7d7410f-e866-43f1-a7ea-51cb6d0f49bb","system_id":"levelo_inurba_marseille","lat":43.29193,"lon":5.35811,"is_reserved":false,"is_disabled":true,"rental_uris":{"android":"levelo://app?vid=b7d7410f-e866-43f1-a7ea-51cb6d0f49bb","ios":"levelo://app?vid=b7d7410f-e866-43f1-a7ea-51cb6d0f49bb"},"vehicle_type_id":"4","last_reported":1751458870,"current_range_meters":2000,"station_id":"ce4bhb12rcd13ifvqel0","pricing_plan_id":"cebpf4jnsgd1na2vs0mg"},{"bike_id":"d31d4436-0d2e-4107-bb09-66e5b1f80296","system_id":"levelo_inurba_marseille","lat":43.26223,"lon":5.40454,"is_reserved":false,"is_disabled":true,"rental_uris":{"android":"levelo://app?vid=d31d4436-0d2e-4107-bb09-66e5b1f80296","ios":"levelo://app?vid=d31d4436-0d2e-4107-bb09-66e5b1f80296"},"vehicle_type_id":"4","last_reported":1751458870,"current_range_meters":2000,"station_id":"ce4bhmh2rcd13ifvqgmg","pricing_plan_id":"cebpf4jnsgd1na2vs0mg"},{"bike_id":"0e3bf4f5-fcbf-4c44-af42-055b2971e3aa","system_id":"levelo_inurba_marseille","lat":43.23156,"lon":5.43702,"is_reserved":false,"is_disabled":true,"rental_uris":{"android":"levelo://app?vid=0e3bf4f5-fcbf-4c44-af42-055b2971e3aa","ios":"levelo://app?vid=0e3bf4f5-fcbf-4c44-af42-055b2971e3aa"},"vehicle_type_id":"4","last_reported":1751458870,"current_range_meters":2000,"station_id":"ce4bhmp2rcd13ifvqgog","pricing_plan_id":"cebpf4jnsgd1na2vs0mg"},{"bike_id":"cab5f1a2-95f4-44e9-a92c-b91b86b13994","system_id":"levelo_inurba_marseille","lat":43.291994,"lon":5.358036,"is_reserved":false,"is_disabled":false,"rental_uris":{"android":"levelo://app?vid=cab5f1a2-95f4-44e9-a92c-b91b86b13994","ios":"levelo://app?vid=cab5f1a2-95f4-44e9-a92c-b91b86b13994"},"vehicle_type_id":"4","last_reported":1751458870,"current_range_meters":3600,"station_id":"ce4bhb12rcd13ifvqel0","pricing_plan_id":"cebpf4jnsgd1na2vs0mg"},{"bike_id":"bc4a6159-e4b7-4f3d-93e1-cff4f68dcde3","system_id":"levelo_inurba_marseille","lat":43.2511,"lon":5.40321,"is_reserved":false,"is_disabled":false,"rental_uris":{"android":"levelo://app?vid=bc4a6159-e4b7-4f3d-93e1-cff4f68dcde3","ios":"levelo://app?vid=bc4a6159-e4b7-4f3d-93e1-cff4f68dcde3"},"vehicle_type_id":"4","last_reported":1751458870,"current_range_meters":3600,"station_id":"ce4bhlh2rcd13ifvqgig","pricing_plan_id":"cebpf4jnsgd1na2vs0mg"},{"bike_id":"e6b39716-4cb9-4ccc-8b0b-fd664a5dbf93","system_id":"levelo_inurba_marseille","lat":43.22926,"lon":5.35377,"is_reserved":false,"is_disabled":false,"rental_uris":{"android":"levelo://app?vid=e6b39716-4cb9-4ccc-8b0b-fd664a5dbf93","ios":"levelo://app?vid=e6b39716-4cb9-4ccc-8b0b-fd664a5dbf93"},"vehicle_type_id":"4","last_reported":1751458870,"current_range_meters":4000,"station_id":"cpo3532slgdg3j2ikp40","pricing_plan_id":"cebpf4jnsgd1na2vs0mg"},{"bike_id":"867e0e55-eaf0-4ccc-90be-356c4443c131","system_id":"levelo_inurba_marseille","lat":43.25121,"lon":5.40318,"is_reserved":false,"is_disabled":false,"rental_uris":{"android":"levelo://app?vid=867e0e55-eaf0-4ccc-90be-356c4443c131","ios":"levelo://app?vid=867e0e55-eaf0-4ccc-90be-356c4443c131"},"vehicle_type_id":"4","last_reported":1751458870,"current_range_meters":4400,"station_id":"ce4bhlh2rcd13ifvqgig","pricing_plan_id":"cebpf4jnsgd1na2vs0mg"},{"bike_id":"e9497a27-6e1d-4fe1-b21d-2c97e21c8559","system_id":"levelo_inurba_marseille","lat":43.32069,"lon":5.41566,"is_reserved":false,"is_disabled":false,"rental_uris":{"android":"levelo://app?vid=e9497a27-6e1d-4fe1-b21d-2c97e21c8559","ios":"levelo://app?vid=e9497a27-6e1d-4fe1-b21d-2c97e21c8559"},"vehicle_type_id":"4","last_reported":1751458870,"current_range_meters":4400,"station_id":"ce4bhq92rcd13ifvqhkg","pricing_plan_id":"cebpf4jnsgd1na2vs0mg"},{"bike_id":"bc97f6ee-e198-4492-a476-eab5b0ed9378","system_id":"levelo_inurba_marseille","lat":43.26956,"lon":5.38636,"is_reserved":false,"is_disabled":false,"rental_uris":{"android":"levelo://app?vid=bc97f6ee-e198-4492-a476-eab5b0ed9378","ios":"levelo://app?vid=bc97f6ee-e198-4492-a476-eab5b0ed9378"},"vehicle_type_id":"4","last_reported":1751458870,"current_range_meters":4800,"station_id":"ce4bhh92rcd13ifvqfh0","pricing_plan_id":"cebpf4jnsgd1na2vs0mg"},{"bike_id":"8252b44a-d048-4379-9209-2efa2e627825","system_id":"levelo_inurba_marseille","lat":43.2923,"lon":5.40569,"is_reserved":false,"is_disabled":false,"rental_uris":{"android":"levelo://app?vid=8252b44a-d048-4379-9209-2efa2e627825","ios":"levelo://app?vid=8252b44a-d048-4379-9209-2efa2e627825"},"vehicle_type_id":"4","last_reported":1751458870,"current_range_meters":5600,"station_id":"","pricing_plan_id":"cebpf4jnsgd1na2vs0mg"},{"bike_id":"0b74faa0-1312-4d3d-9966-739eabbbc6ef","system_id":"levelo_inurba_marseille","lat":43.297892,"lon":5.37108,"is_reserved":false,"is_disabled":false,"rental_uris":{"android":"levelo://app?vid=0b74faa0-1312-4d3d-9966-739eabbbc6ef","ios":"levelo://app?vid=0b74faa0-1312-4d3d-9966-739eabbbc6ef"},"vehicle_type_id":"4","last_reported":1751458870,"current_range_meters":5600,"station_id":"ce4bgop2rcd13ifvqc1g","pricing_plan_id":"cebpf4jnsgd1na2vs0mg"},{"bike_id":"c00580b3-a072-4b4d-833f-7a38cefcb219","system_id":"levelo_inurba_marseille","lat":43.32654,"lon":5.41004,"is_reserved":false,"is_disabled":false,"rental_uris":{"android":"levelo://app?vid=c00580b3-a072-4b4d-833f-7a38cefcb219","ios":"levelo://app?vid=c00580b3-a072-4b4d-833f-7a38cefcb219"},"vehicle_type_id":"4","last_reported":1751458870,"current_range_meters":6000,"station_id":"ce4bhpp2rcd13ifvqhgg","pricing_plan_id":"cebpf4jnsgd1na2vs0mg"},{"bike_id":"af45e992-38f9-4969-8dcf-1e064c257847","system_id":"levelo_inurba_marseille","lat":43.319978,"lon":5.381537,"is_reserved":false,"is_disabled":false,"rental_uris":{"android":"levelo://app?vid=af45e992-38f9-4969-8dcf-1e064c257847","ios":"levelo://app?vid=af45e992-38f9-4969-8dcf-1e064c257847"},"vehicle_type_id":"4","last_reported":1751458870,"current_range_meters":6400,"station_id":"ce4bhr12rcd13ifvqhpg","pricing_plan_id":"cebpf4jnsgd1na2vs0mg"},{"bike_id":"da3d5b30-012a-4326-86f5-47df920838e1","system_id":"levelo_inurba_marseille","lat":43.21749,"lon":5.34607,"is_reserved":false,"is_disabled":false,"rental_uris":{"android":"levelo://app?vid=da3d5b30-012a-4326-86f5-47df920838e1","ios":"levelo://app?vid=da3d5b30-012a-4326-86f5-47df920838e1"},"vehicle_type_id":"4","last_reported":1751458870,"current_range_meters":6400,"station_id":"st_cvj6r9ubvosntc0bgbag","pricing_plan_id":"cebpf4jnsgd1na2vs0mg"},{"bike_id":"e6e7aea5-8aa8-48bc-8a3d-bbea45ebf4f9","system_id":"levelo_inurba_marseille","lat":43.30189,"lon":5.36629,"is_reserved":false,"is_disabled":false,"rental_uris":{"android":"levelo://app?vid=e6e7aea5-8aa8-48bc-8a3d-bbea45ebf4f9","ios":"levelo://app?vid=e6e7aea5-8aa8-48bc-8a3d-bbea45ebf4f9"},"vehicle_type_id":"4","last_reported":1751458870,"current_range_meters":6800,"station_id":"ce4bgrh2rcd13ifvqc8g","pricing_plan_id":"cebpf4jnsgd1na2vs0mg"},{"bike_id":"55037949-c8a3-4f32-852e-c6c896b42ee0","system_id":"levelo_inurba_marseille","lat":43.30142,"lon":5.38775,"is_reserved":false,"is_disabled":false,"rental_uris":{"android":"levelo://app?vid=55037949-c8a3-4f32-852e-c6c896b42ee0","ios":"levelo://app?vid=55037949-c8a3-4f32-852e-c6c896b42ee0"},"vehicle_type_id":"4","last_reported":1751458870,"current_range_meters":7200,"station_id":"ce4bghh2rcd13ifvqb60","pricing_plan_id":"cebpf4jnsgd1na2vs0mg"},{"bike_id":"b9eac662-875e-4c89-b2d9-cb21b0ec9181","system_id":"levelo_inurba_marseille","lat":43.29626,"lon":5.3772,"is_reserved":false,"is_disabled":false,"rental_uris":{"android":"levelo://app?vid=b9eac662-875e-4c89-b2d9-cb21b0ec9181","ios":"levelo://app?vid=b9eac662-875e-4c89-b2d9-cb21b0ec9181"},"vehicle_type_id":"4","last_reported":1751458870,"current_range_meters":7200,"station_id":"ce4bgi92rcd13ifvqb90","pricing_plan_id":"cebpf4jnsgd1na2vs0mg"},{"bike_id":"5c1ae897-42e4-4952-8ac0-f5afc47b0467","system_id":"levelo_inurba_marseille","lat":43.28662,"lon":5.38662,"is_reserved":false,"is_disabled":false,"rental_uris":{"android":"levelo://app?vid=5c1ae897-42e4-4952-8ac0-f5afc47b0467","ios":"levelo://app?vid=5c1ae897-42e4-4952-8ac0-f5afc47b0467"},"vehicle_type_id":"4","last_reported":1751458870,"current_range_meters":8000,"station_id":"ce4bh492rcd13ifvqdug","pricing_plan_id":"cebpf4jnsgd1na2vs0mg"},{"bike_id":"3f640484-8bf5-4ffd-b92a-e64745484e29","system_id":"levelo_inurba_marseille","lat":43.28931,"lon":5.36644,"is_reserved":false,"is_disabled":false,"rental_uris":{"android":"levelo://app?vid=3f640484-8bf5-4ffd-b92a-e64745484e29","ios":"levelo://app?vid=3f640484-8bf5-4ffd-b92a-e64745484e29"},"vehicle_type_id":"4","last_reported":1751458870,"current_range_meters":8000,"station_id":"ce4bhap2rcd13ifvqek0","pricing_plan_id":"cebpf4jnsgd1na2vs0mg"},{"bike_id":"e943da54-3501-401d-992b-b15d62930450","system_id":"levelo_inurba_marseille","lat":43.273694,"lon":5.362635,"is_reserved":false,"is_disabled":false,"rental_uris":{"android":"levelo://app?vid=e943da54-3501-401d-992b-b15d62930450","ios":"levelo://app?vid=e943da54-3501-401d-992b-b15d62930450"},"vehicle_type_id":"4","last_reported":1751458870,"current_range_meters":8000,"station_id":"ce4bhbh2rcd13ifvqeo0","pricing_plan_id":"cebpf4jnsgd1na2vs0mg"},{"bike_id":"545151e9-8df9-4d6d-9d2f-2cecd25cc805","system_id":"levelo_inurba_marseille","lat":43.286154,"lon":5.351098,"is_reserved":false,"is_disabled":false,"rental_uris":{"android":"levelo://app?vid=545151e9-8df9-4d6d-9d2f-2cecd25cc805","ios":"levelo://app?vid=545151e9-8df9-4d6d-9d2f-2cecd25cc805"},"vehicle_type_id":"4","last_reported":1751458870,"current_range_meters":8000,"station_id":"ce4bhch2rcd13ifvqeug","pricing_plan_id":"cebpf4jnsgd1na2vs0mg"},{"bike_id":"39c383d3-0f43-484e-904a-440da63afe96","system_id":"levelo_inurba_marseille","lat":43.26208,"lon":5.37441,"is_reserved":false,"is_disabled":false,"rental_uris":{"android":"levelo://app?vid=39c383d3-0f43-484e-904a-440da63afe96","ios":"levelo://app?vid=39c383d3-0f43-484e-904a-440da63afe96"},"vehicle_type_id":"4","last_reported":1751458870,"current_range_meters":8000,"station_id":"ce4bhgp2rcd13ifvqfc0","pricing_plan_id":"cebpf4jnsgd1na2vs0mg"},{"bike_id":"b2ec7371-4e1a-4f7b-ae6c-60c5a54c237b","system_id":"levelo_inurba_marseille","lat":43.211998,"lon":5.35063,"is_reserved":false,"is_disabled":false,"rental_uris":{"android":"levelo://app?vid=b2ec7371-4e1a-4f7b-ae6c-60c5a54c237b","ios":"levelo://app?vid=b2ec7371-4e1a-4f7b-ae6c-60c5a54c237b"},"vehicle_type_id":"4","last_reported":1751458870,"current_range_meters":8000,"station_id":"st_cvj6sg6p6f1abm77japg","pricing_plan_id":"cebpf4jnsgd1na2vs0mg"},{"bike_id":"188639bf-3c72-420f-b1cc-c8b210882123","system_id":"levelo_inurba_marseille","lat":43.2119,"lon":5.3507,"is_reserved":false,"is_disabled":false,"rental_uris":{"android":"levelo://app?vid=188639bf-3c72-420f-b1cc-c8b210882123","ios":"levelo://app?vid=188639bf-3c72-420f-b1cc-c8b210882123"},"vehicle_type_id":"4","last_reported":1751458870,"current_range_meters":8000,"station_id":"st_cvj6sg6p6f1abm77japg","pricing_plan_id":"cebpf4jnsgd1na2vs0mg"},{"bike_id":"c2b72fe0-bae6-4c7b-ad48-9e771b203dc8","system_id":"levelo_inurba_marseille","lat":43.313525,"lon":5.384626,"is_reserved":false,"is_disabled":false,"rental_uris":{"android":"levelo://app?vid=c2b72fe0-bae6-4c7b-ad48-9e771b203dc8","ios":"levelo://app?vid=c2b72fe0-bae6-4c7b-ad48-9e771b203dc8"},"vehicle_type_id":"4","last_reported":1751458870,"current_range_meters":8800,"station_id":"ce4bgt92rcd13ifvqcf0","pricing_plan_id":"cebpf4jnsgd1na2vs0mg"},{"bike_id":"f666ad11-b2df-4c6d-8ba4-943f0fd1a905","system_id":"levelo_inurba_marseille","lat":43.301,"lon":5.39067,"is_reserved":false,"is_disabled":false,"rental_uris":{"android":"levelo://app?vid=f666ad11-b2df-4c6d-8ba4-943f0fd1a905","ios":"levelo://app?vid=f666ad11-b2df-4c6d-8ba4-943f0fd1a905"},"vehicle_type_id":"4","last_reported":1751458870,"current_range_meters":8800,"station_id":"ce4bh192rcd13ifvqdb0","pricing_plan_id":"cebpf4jnsgd1na2vs0mg"},{"bike_id":"a8b35fbe-de2e-4c11-8048-ad5f5d6eea00","system_id":"levelo_inurba_marseille","lat":43.25719,"lon":5.41115,"is_reserved":false,"is_disabled":false,"rental_uris":{"android":"levelo://app?vid=a8b35fbe-de2e-4c11-8048-ad5f5d6eea00","ios":"levelo://app?vid=a8b35fbe-de2e-4c11-8048-ad5f5d6eea00"},"vehicle_type_id":"4","last_reported":1751458870,"current_range_meters":8800,"station_id":"ce4bhkp2rcd13ifvqgd0","pricing_plan_id":"cebpf4jnsgd1na2vs0mg"},{"bike_id":"6ba38175-db1d-4078-866e-9db541d45b90","system_id":"levelo_inurba_marseille","lat":43.26942,"lon":5.40248,"is_reserved":false,"is_disabled":false,"rental_uris":{"android":"levelo://app?vid=6ba38175-db1d-4078-866e-9db541d45b90","ios":"levelo://app?vid=6ba38175-db1d-4078-866e-9db541d45b90"},"vehicle_type_id":"4","last_reported":1751458870,"current_range_meters":8800,"station_id":"cjm6bp8fraef2m0cb0m0","pricing_plan_id":"cebpf4jnsgd1na2vs0mg"},{"bike_id":"b17fc6fb-d31b-4c72-91dd-f8e10ff9036a","system_id":"levelo_inurba_marseille","lat":43.32482,"lon":5.36587,"is_reserved":false,"is_disabled":false,"rental_uris":{"android":"levelo://app?vid=b17fc6fb-d31b-4c72-91dd-f8e10ff9036a","ios":"levelo://app?vid=b17fc6fb-d31b-4c72-91dd-f8e10ff9036a"},"vehicle_type_id":"4","last_reported":1751458870,"current_range_meters":9200,"station_id":"ce4bhs12rcd13ifvqhvg","pricing_plan_id":"cebpf4jnsgd1na2vs0mg"},{"bike_id":"6cf3edc5-f8b2-49d1-8d18-70baf6d76c28","system_id":"levelo_inurba_marseille","lat":43.30143,"lon":5.37416,"is_reserved":false,"is_disabled":false,"rental_uris":{"android":"levelo://app?vid=6cf3edc5-f8b2-49d1-8d18-70baf6d76c28","ios":"levelo://app?vid=6cf3edc5-f8b2-49d1-8d18-70baf6d76c28"},"vehicle_type_id":"4","last_reported":1751458870,"current_range_meters":9600,"station_id":"ce4bgs92rcd13ifvqcc0","pricing_plan_id":"cebpf4jnsgd1na2vs0mg"},{"bike_id":"bb7177e9-3780-479d-b2a1-b9d6aa6bc1f3","system_id":"levelo_inurba_marseille","lat":43.26943,"lon":5.40259,"is_reserved":false,"is_disabled":false,"rental_uris":{"android":"levelo://app?vid=bb7177e9-3780-479d-b2a1-b9d6aa6bc1f3","ios":"levelo://app?vid=bb7177e9-3780-479d-b2a1-b9d6aa6bc1f3"},"vehicle_type_id":"4","last_reported":1751458870,"current_range_meters":9600,"station_id":"cjm6bp8fraef2m0cb0m0","pricing_plan_id":"cebpf4jnsgd1na2vs0mg"},{"bike_id":"c60f5e9d-2bb7-4b07-bd18-bd400d9e6468","system_id":"levelo_inurba_marseille","lat":43.29858,"lon":5.36289,"is_reserved":false,"is_disabled":false,"rental_uris":{"android":"levelo://app?vid=c60f5e9d-2bb7-4b07-bd18-bd400d9e6468","ios":"levelo://app?vid=c60f5e9d-2bb7-4b07-bd18-bd400d9e6468"},"vehicle_type_id":"4","last_reported":1751458870,"current_range_meters":10000,"station_id":"ce4bgpp2rcd13ifvqc3g","pricing_plan_id":"cebpf4jnsgd1na2vs0mg"},{"bike_id":"b917032b-95fa-41aa-a021-328e2767f72e","system_id":"levelo_inurba_marseille","lat":43.283611,"lon":5.381024,"is_reserved":false,"is_disabled":false,"rental_uris":{"android":"levelo://app?vid=b917032b-95fa-41aa-a021-328e2767f72e","ios":"levelo://app?vid=b917032b-95fa-41aa-a021-328e2767f72e"},"vehicle_type_id":"4","last_reported":1751458870,"current_range_meters":10000,"station_id":"ce4bh412rcd13ifvqdr0","pricing_plan_id":"cebpf4jnsgd1na2vs0mg"},{"bike_id":"c61036a9-1a66-4480-8bd4-cd2fb585b287","system_id":"levelo_inurba_marseille","lat":43.269891,"lon":5.405578,"is_reserved":false,"is_disabled":false,"rental_uris":{"android":"levelo://app?vid=c61036a9-1a66-4480-8bd4-cd2fb585b287","ios":"levelo://app?vid=c61036a9-1a66-4480-8bd4-cd2fb585b287"},"vehicle_type_id":"4","last_reported":1751458870,"current_range_meters":10800,"station_id":"","pricing_plan_id":"cebpf4jnsgd1na2vs0mg"},{"bike_id":"9d51fb29-1b8c-4bab-8c96-33e72b68712d","system_id":"levelo_inurba_marseille","lat":43.27613,"lon":5.36105,"is_reserved":false,"is_disabled":false,"rental_uris":{"android":"levelo://app?vid=9d51fb29-1b8c-4bab-8c96-33e72b68712d","ios":"levelo://app?vid=9d51fb29-1b8c-4bab-8c96-33e72b68712d"},"vehicle_type_id":"4","last_reported":1751458870,"current_range_meters":10800,"station_id":"ce4bgj92rcd13ifvqbe0","pricing_plan_id":"cebpf4jnsgd1na2vs0mg"},{"bike_id":"87f8bbaf-4a1d-4326-8fe8-a465c959014c","system_id":"levelo_inurba_marseille","lat":43.30536,"lon":5.36712,"is_reserved":false,"is_disabled":false,"rental_uris":{"android":"levelo://app?vid=87f8bbaf-4a1d-4326-8fe8-a465c959014c","ios":"levelo://app?vid=87f8bbaf-4a1d-4326-8fe8-a465c959014c"},"vehicle_type_id":"4","last_reported":1751458870,"current_range_meters":11200,"station_id":"ce4bgrp2rcd13ifvqc9g","pricing_plan_id":"cebpf4jnsgd1na2vs0mg"},{"bike_id":"e1e059ef-e26b-4f21-8754-21dedddabd48","system_id":"levelo_inurba_marseille","lat":43.30296,"lon":5.39204,"is_reserved":false,"is_disabled":false,"rental_uris":{"android":"levelo://app?vid=e1e059ef-e26b-4f21-8754-21dedddabd48","ios":"levelo://app?vid=e1e059ef-e26b-4f21-8754-21dedddabd48"},"vehicle_type_id":"4","last_reported":1751458870,"current_range_meters":11600,"station_id":"ce4bgkh2rcd13ifvqbk0","pricing_plan_id":"cebpf4jnsgd1na2vs0mg"},{"bike_id":"ff536445-fdcc-48ee-9156-10cc3c9ce080","system_id":"levelo_inurba_marseille","lat":43.30886,"lon":5.40243,"is_reserved":false,"is_disabled":false,"rental_uris":{"android":"levelo://app?vid=ff536445-fdcc-48ee-9156-10cc3c9ce080","ios":"levelo://app?vid=ff536445-fdcc-48ee-9156-10cc3c9ce080"},"vehicle_type_id":"4","last_reported":1751458870,"current_range_meters":11600,"station_id":"ce4bgvp2rcd13ifvqct0","pricing_plan_id":"cebpf4jnsgd1na2vs0mg"},{"bike_id":"ae70686e-eb27-42da-a593-b59818a4b8cf","system_id":"levelo_inurba_marseille","lat":43.3065,"lon":5.40109,"is_reserved":false,"is_disabled":false,"rental_uris":{"android":"levelo://app?vid=ae70686e-eb27-42da-a593-b59818a4b8cf","ios":"levelo://app?vid=ae70686e-eb27-42da-a593-b59818a4b8cf"},"vehicle_type_id":"4","last_reported":1751458870,"current_range_meters":11600,"station_id":"ce4bh112rcd13ifvqda0","pricing_plan_id":"cebpf4jnsgd1na2vs0mg"},{"bike_id":"240a3b1a-bf9e-4d7f-a4ae-7d187dc39c7c","system_id":"levelo_inurba_marseille","lat":43.28456,"lon":5.35888,"is_reserved":false,"is_disabled":false,"rental_uris":{"android":"levelo://app?vid=240a3b1a-bf9e-4d7f-a4ae-7d187dc39c7c","ios":"levelo://app?vid=240a3b1a-bf9e-4d7f-a4ae-7d187dc39c7c"},"vehicle_type_id":"4","last_reported":1751458870,"current_range_meters":11600,"station_id":"ce4bhah2rcd13ifvqei0","pricing_plan_id":"cebpf4jnsgd1na2vs0mg"},{"bike_id":"866060ef-85cb-4809-9ff5-4426ac515ff0","system_id":"levelo_inurba_marseille","lat":43.28396,"lon":5.34984,"is_reserved":false,"is_disabled":false,"rental_uris":{"android":"levelo://app?vid=866060ef-85cb-4809-9ff5-4426ac515ff0","ios":"levelo://app?vid=866060ef-85cb-4809-9ff5-4426ac515ff0"},"vehicle_type_id":"4","last_reported":1751458870,"current_range_meters":11600,"station_id":"ce4bhbh2rcd13ifvqepg","pricing_plan_id":"cebpf4jnsgd1na2vs0mg"},{"bike_id":"32b6fda1-dd37-40a5-8a76-9a483d8c09dd","system_id":"levelo_inurba_marseille","lat":43.266342,"lon":5.382072,"is_reserved":false,"is_disabled":false,"rental_uris":{"android":"levelo://app?vid=32b6fda1-dd37-40a5-8a76-9a483d8c09dd","ios":"levelo://app?vid=32b6fda1-dd37-40a5-8a76-9a483d8c09dd"},"vehicle_type_id":"4","last_reported":1751458870,"current_range_meters":11600,"station_id":"ce4bhg92rcd13ifvqf90","pricing_plan_id":"cebpf4jnsgd1na2vs0mg"},{"bike_id":"5ea1dd93-3c49-4f8f-bb7f-00d3c982b0ae","system_id":"levelo_inurba_marseille","lat":43.229332,"lon":5.353679,"is_reserved":false,"is_disabled":false,"rental_uris":{"android":"levelo://app?vid=5ea1dd93-3c49-4f8f-bb7f-00d3c982b0ae","ios":"levelo://app?vid=5ea1dd93-3c49-4f8f-bb7f-00d3c982b0ae"},"vehicle_type_id":"4","last_reported":1751458870,"current_range_meters":11600,"station_id":"cpo3532slgdg3j2ikp40","pricing_plan_id":"cebpf4jnsgd1na2vs0mg"},{"bike_id":"c1512e23-ee20-42da-9506-e9b8b7bd2371","system_id":"levelo_inurba_marseille","lat":43.303,"lon":5.39204,"is_reserved":false,"is_disabled":false,"rental_uris":{"android":"levelo://app?vid=c1512e23-ee20-42da-9506-e9b8b7bd2371","ios":"levelo://app?vid=c1512e23-ee20-42da-9506-e9b8b7bd2371"},"vehicle_type_id":"4","last_reported":1751458870,"current_range_meters":12000,"station_id":"ce4bgkh2rcd13ifvqbk0","pricing_plan_id":"cebpf4jnsgd1na2vs0mg"},{"bike_id":"5fcd5aae-72ca-4b0d-b02c-6a7d7825bdce","system_id":"levelo_inurba_marseille","lat":43.263096,"lon":5.377097,"is_reserved":false,"is_disabled":false,"rental_uris":{"android":"levelo://app?vid=5fcd5aae-72ca-4b0d-b02c-6a7d7825bdce","ios":"levelo://app?vid=5fcd5aae-72ca-4b0d-b02c-6a7d7825bdce"},"vehicle_type_id":"4","last_reported":1751458870,"current_range_meters":12000,"station_id":"ce4bhh12rcd13ifvqff0","pricing_plan_id":"cebpf4jnsgd1na2vs0mg"},{"bike_id":"5770f2c8-8013-480a-88d0-9eff8590ad47","system_id":"levelo_inurba_marseille","lat":43.23154,"lon":5.43721,"is_reserved":false,"is_disabled":false,"rental_uris":{"android":"levelo://app?vid=5770f2c8-8013-480a-88d0-9eff8590ad47","ios":"levelo://app?vid=5770f2c8-8013-480a-88d0-9eff8590ad47"},"vehicle_type_id":"4","last_reported":1751458870,"current_range_meters":12000,"station_id":"ce4bhmp2rcd13ifvqgog","pricing_plan_id":"cebpf4jnsgd1na2vs0mg"},{"bike_id":"6a7be1c4-8a84-470e-b47a-a8f397efbe95","system_id":"levelo_inurba_marseille","lat":43.305298,"lon":5.366978,"is_reserved":false,"is_disabled":false,"rental_uris":{"android":"levelo://app?vid=6a7be1c4-8a84-470e-b47a-a8f397efbe95","ios":"levelo://app?vid=6a7be1c4-8a84-470e-b47a-a8f397efbe95"},"vehicle_type_id":"4","last_reported":1751458870,"current_range_meters":12400,"station_id":"ce4bgrp2rcd13ifvqc9g","pricing_plan_id":"cebpf4jnsgd1na2vs0mg"},{"bike_id":"547281c2-b2c3-4277-b095-5b91b7140ff4","system_id":"levelo_inurba_marseille","lat":43.28421,"lon":5.35006,"is_reserved":false,"is_disabled":false,"rental_uris":{"android":"levelo://app?vid=547281c2-b2c3-4277-b095-5b91b7140ff4","ios":"levelo://app?vid=547281c2-b2c3-4277-b095-5b91b7140ff4"},"vehicle_type_id":"4","last_reported":1751458870,"current_range_meters":12400,"station_id":"ce4bhbh2rcd13ifvqepg","pricing_plan_id":"cebpf4jnsgd1na2vs0mg"},{"bike_id":"a3039387-5ca4-4a84-b728-9feb1c4d4462","system_id":"levelo_inurba_marseille","lat":43.26954,"lon":5.3864,"is_reserved":false,"is_disabled":false,"rental_uris":{"android":"levelo://app?vid=a3039387-5ca4-4a84-b728-9feb1c4d4462","ios":"levelo://app?vid=a3039387-5ca4-4a84-b728-9feb1c4d4462"},"vehicle_type_id":"4","last_reported":1751458870,"current_range_meters":12800,"station_id":"ce4bhh92rcd13ifvqfh0","pricing_plan_id":"cebpf4jnsgd1na2vs0mg"},{"bike_id":"6dbb36a1-7323-47e8-ae1c-025fa369b2bb","system_id":"levelo_inurba_marseille","lat":43.24547,"lon":5.39523,"is_reserved":false,"is_disabled":false,"rental_uris":{"android":"levelo://app?vid=6dbb36a1-7323-47e8-ae1c-025fa369b2bb","ios":"levelo://app?vid=6dbb36a1-7323-47e8-ae1c-025fa369b2bb"},"vehicle_type_id":"4","last_reported":1751458870,"current_range_meters":12800,"station_id":"ce4bhlp2rcd13ifvqgjg","pricing_plan_id":"cebpf4jnsgd1na2vs0mg"},{"bike_id":"4028f159-81b0-4232-a181-a28f37f6328b","system_id":"levelo_inurba_marseille","lat":43.32046,"lon":5.41557,"is_reserved":false,"is_disabled":false,"rental_uris":{"android":"levelo://app?vid=4028f159-81b0-4232-a181-a28f37f6328b","ios":"levelo://app?vid=4028f159-81b0-4232-a181-a28f37f6328b"},"vehicle_type_id":"4","last_reported":1751458870,"current_range_meters":12800,"station_id":"ce4bhq92rcd13ifvqhkg","pricing_plan_id":"cebpf4jnsgd1na2vs0mg"},{"bike_id":"ee0317a9-0b3d-4631-9294-b4dddc155611","system_id":"levelo_inurba_marseille","lat":43.323595,"lon":5.367548,"is_reserved":false,"is_disabled":false,"rental_uris":{"android":"levelo://app?vid=ee0317a9-0b3d-4631-9294-b4dddc155611","ios":"levelo://app?vid=ee0317a9-0b3d-4631-9294-b4dddc155611"},"vehicle_type_id":"4","last_reported":1751458870,"current_range_meters":12800,"station_id":"ce4bhsh2rcd13ifvqi2g","pricing_plan_id":"cebpf4jnsgd1na2vs0mg"},{"bike_id":"c2cc3873-3136-4ba7-984d-6514f2a6bcc2","system_id":"levelo_inurba_marseille","lat":43.26692,"lon":5.3827,"is_reserved":false,"is_disabled":false,"rental_uris":{"android":"levelo://app?vid=c2cc3873-3136-4ba7-984d-6514f2a6bcc2","ios":"levelo://app?vid=c2cc3873-3136-4ba7-984d-6514f2a6bcc2"},"vehicle_type_id":"4","last_reported":1751458870,"current_range_meters":13600,"station_id":"ce4bhg92rcd13ifvqf90","pricing_plan_id":"cebpf4jnsgd1na2vs0mg"},{"bike_id":"77e652d2-27e3-4b7e-8763-af4a4bbd0999","system_id":"levelo_inurba_marseille","lat":43.26208,"lon":5.37438,"is_reserved":false,"is_disabled":false,"rental_uris":{"android":"levelo://app?vid=77e652d2-27e3-4b7e-8763-af4a4bbd0999","ios":"levelo://app?vid=77e652d2-27e3-4b7e-8763-af4a4bbd0999"},"vehicle_type_id":"4","last_reported":1751458870,"current_range_meters":13600,"station_id":"ce4bhgp2rcd13ifvqfc0","pricing_plan_id":"cebpf4jnsgd1na2vs0mg"},{"bike_id":"0125968d-70a3-4ff8-82bd-e8f13f78b2f1","system_id":"levelo_inurba_marseille","lat":43.25489,"lon":5.37657,"is_reserved":false,"is_disabled":false,"rental_uris":{"android":"levelo://app?vid=0125968d-70a3-4ff8-82bd-e8f13f78b2f1","ios":"levelo://app?vid=0125968d-70a3-4ff8-82bd-e8f13f78b2f1"},"vehicle_type_id":"4","last_reported":1751458870,"current_range_meters":13600,"station_id":"ce4bhh12rcd13ifvqff0","pricing_plan_id":"cebpf4jnsgd1na2vs0mg"},{"bike_id":"c899bdeb-e8c8-487d-a5a5-00dc09ddabfe","system_id":"levelo_inurba_marseille","lat":43.34158,"lon":5.40917,"is_reserved":false,"is_disabled":false,"rental_uris":{"android":"levelo://app?vid=c899bdeb-e8c8-487d-a5a5-00dc09ddabfe","ios":"levelo://app?vid=c899bdeb-e8c8-487d-a5a5-00dc09ddabfe"},"vehicle_type_id":"4","last_reported":1751458870,"current_range_meters":13600,"station_id":"ce4bhqh2rcd13ifvqhlg","pricing_plan_id":"cebpf4jnsgd1na2vs0mg"},{"bike_id":"d16b9dec-c438-4000-91c8-6cda5b0545dc","system_id":"levelo_inurba_marseille","lat":43.248903,"lon":5.375222,"is_reserved":false,"is_disabled":false,"rental_uris":{"android":"levelo://app?vid=d16b9dec-c438-4000-91c8-6cda5b0545dc","ios":"levelo://app?vid=d16b9dec-c438-4000-91c8-6cda5b0545dc"},"vehicle_type_id":"4","last_reported":1751458870,"current_range_meters":14000,"station_id":"","pricing_plan_id":"cebpf4jnsgd1na2vs0mg"},{"bike_id":"b4418ad6-f82b-42e3-b3ca-dad62f1dbcb0","system_id":"levelo_inurba_marseille","lat":43.30467,"lon":5.37915,"is_reserved":false,"is_disabled":false,"rental_uris":{"android":"levelo://app?vid=b4418ad6-f82b-42e3-b3ca-dad62f1dbcb0","ios":"levelo://app?vid=b4418ad6-f82b-42e3-b3ca-dad62f1dbcb0"},"vehicle_type_id":"4","last_reported":1751458870,"current_range_meters":14000,"station_id":"ce4bgup2rcd13ifvqcn0","pricing_plan_id":"cebpf4jnsgd1na2vs0mg"},{"bike_id":"f00e3044-9bd1-48b5-b342-151af21b34fa","system_id":"levelo_inurba_marseille","lat":43.299843,"lon":5.374186,"is_reserved":false,"is_disabled":false,"rental_uris":{"android":"levelo://app?vid=f00e3044-9bd1-48b5-b342-151af21b34fa","ios":"levelo://app?vid=f00e3044-9bd1-48b5-b342-151af21b34fa"},"vehicle_type_id":"4","last_reported":1751458870,"current_range_meters":14400,"station_id":"","pricing_plan_id":"cebpf4jnsgd1na2vs0mg"},{"bike_id":"57733d63-5a2f-43b7-bac4-74e57d9385ed","system_id":"levelo_inurba_marseille","lat":43.30307,"lon":5.36905,"is_reserved":false,"is_disabled":false,"rental_uris":{"android":"levelo://app?vid=57733d63-5a2f-43b7-bac4-74e57d9385ed","ios":"levelo://app?vid=57733d63-5a2f-43b7-bac4-74e57d9385ed"},"vehicle_type_id":"4","last_reported":1751458870,"current_range_meters":14400,"station_id":"ce4bgqh2rcd13ifvqc5g","pricing_plan_id":"cebpf4jnsgd1na2vs0mg"},{"bike_id":"8383b8e3-a181-4c81-9581-8c595dbf6c30","system_id":"levelo_inurba_marseille","lat":43.30184,"lon":5.37448,"is_reserved":false,"is_disabled":false,"rental_uris":{"android":"levelo://app?vid=8383b8e3-a181-4c81-9581-8c595dbf6c30","ios":"levelo://app?vid=8383b8e3-a181-4c81-9581-8c595dbf6c30"},"vehicle_type_id":"4","last_reported":1751458870,"current_range_meters":14400,"station_id":"ce4bgs92rcd13ifvqcc0","pricing_plan_id":"cebpf4jnsgd1na2vs0mg"},{"bike_id":"5f0aa697-f237-431c-ac43-8fe80befae56","system_id":"levelo_inurba_marseille","lat":43.309525,"lon":5.390392,"is_reserved":false,"is_disabled":false,"rental_uris":{"android":"levelo://app?vid=5f0aa697-f237-431c-ac43-8fe80befae56","ios":"levelo://app?vid=5f0aa697-f237-431c-ac43-8fe80befae56"},"vehicle_type_id":"4","last_reported":1751458870,"current_range_meters":14400,"station_id":"ce4bgup2rcd13ifvqco0","pricing_plan_id":"cebpf4jnsgd1na2vs0mg"},{"bike_id":"d9a5ff44-c38a-44a8-9927-ddd00d1c8517","system_id":"levelo_inurba_marseille","lat":43.25111,"lon":5.40337,"is_reserved":false,"is_disabled":false,"rental_uris":{"android":"levelo://app?vid=d9a5ff44-c38a-44a8-9927-ddd00d1c8517","ios":"levelo://app?vid=d9a5ff44-c38a-44a8-9927-ddd00d1c8517"},"vehicle_type_id":"4","last_reported":1751458870,"current_range_meters":14400,"station_id":"ce4bhlh2rcd13ifvqgig","pricing_plan_id":"cebpf4jnsgd1na2vs0mg"},{"bike_id":"5736d3b1-7298-4471-a99d-f5bb0a7e8852","system_id":"levelo_inurba_marseille","lat":43.25876,"lon":5.38439,"is_reserved":false,"is_disabled":false,"rental_uris":{"android":"levelo://app?vid=5736d3b1-7298-4471-a99d-f5bb0a7e8852","ios":"levelo://app?vid=5736d3b1-7298-4471-a99d-f5bb0a7e8852"},"vehicle_type_id":"4","last_reported":1751458870,"current_range_meters":14800,"station_id":"","pricing_plan_id":"cebpf4jnsgd1na2vs0mg"},{"bike_id":"150da376-d03e-474f-8446-9705b1587657","system_id":"levelo_inurba_marseille","lat":43.28463,"lon":5.35894,"is_reserved":false,"is_disabled":false,"rental_uris":{"android":"levelo://app?vid=150da376-d03e-474f-8446-9705b1587657","ios":"levelo://app?vid=150da376-d03e-474f-8446-9705b1587657"},"vehicle_type_id":"4","last_reported":1751458870,"current_range_meters":14800,"station_id":"ce4bhah2rcd13ifvqei0","pricing_plan_id":"cebpf4jnsgd1na2vs0mg"},{"bike_id":"9526ac88-b6fe-4770-90cc-daed562b3acd","system_id":"levelo_inurba_marseille","lat":43.24559,"lon":5.3954,"is_reserved":false,"is_disabled":false,"rental_uris":{"android":"levelo://app?vid=9526ac88-b6fe-4770-90cc-daed562b3acd","ios":"levelo://app?vid=9526ac88-b6fe-4770-90cc-daed562b3acd"},"vehicle_type_id":"4","last_reported":1751458870,"current_range_meters":14800,"station_id":"ce4bhlp2rcd13ifvqgjg","pricing_plan_id":"cebpf4jnsgd1na2vs0mg"},{"bike_id":"dbe6a7d8-6edc-4015-8658-f68eeb46a661","system_id":"levelo_inurba_marseille","lat":43.335765,"lon":5.398711,"is_reserved":false,"is_disabled":false,"rental_uris":{"android":"levelo://app?vid=dbe6a7d8-6edc-4015-8658-f68eeb46a661","ios":"levelo://app?vid=dbe6a7d8-6edc-4015-8658-f68eeb46a661"},"vehicle_type_id":"4","last_reported":1751458870,"current_range_meters":15200,"station_id":"","pricing_plan_id":"cebpf4jnsgd1na2vs0mg"},{"bike_id":"b28aa0a0-791c-4a08-9a16-c7bf6ea0ed5a","system_id":"levelo_inurba_marseille","lat":43.22506,"lon":5.34784,"is_reserved":false,"is_disabled":false,"rental_uris":{"android":"levelo://app?vid=b28aa0a0-791c-4a08-9a16-c7bf6ea0ed5a","ios":"levelo://app?vid=b28aa0a0-791c-4a08-9a16-c7bf6ea0ed5a"},"vehicle_type_id":"4","last_reported":1751458870,"current_range_meters":15200,"station_id":"","pricing_plan_id":"cebpf4jnsgd1na2vs0mg"},{"bike_id":"74086abf-7924-4386-9df0-71adc23ccd58","system_id":"levelo_inurba_marseille","lat":43.29619,"lon":5.37736,"is_reserved":false,"is_disabled":false,"rental_uris":{"android":"levelo://app?vid=74086abf-7924-4386-9df0-71adc23ccd58","ios":"levelo://app?vid=74086abf-7924-4386-9df0-71adc23ccd58"},"vehicle_type_id":"4","last_reported":1751458870,"current_range_meters":15200,"station_id":"ce4bgi92rcd13ifvqb90","pricing_plan_id":"cebpf4jnsgd1na2vs0mg"},{"bike_id":"8e8cddb0-8397-4022-8248-f9f14cc3d8a3","system_id":"levelo_inurba_marseille","lat":43.29544,"lon":5.37512,"is_reserved":false,"is_disabled":false,"rental_uris":{"android":"levelo://app?vid=8e8cddb0-8397-4022-8248-f9f14cc3d8a3","ios":"levelo://app?vid=8e8cddb0-8397-4022-8248-f9f14cc3d8a3"},"vehicle_type_id":"4","last_reported":1751458870,"current_range_meters":15200,"station_id":"ce4bgkp2rcd13ifvqbmg","pricing_plan_id":"cebpf4jnsgd1na2vs0mg"},{"bike_id":"7d1bbfbb-c70e-48d3-8f4b-baf5b1ca8b77","system_id":"levelo_inurba_marseille","lat":43.28423,"lon":5.34976,"is_reserved":false,"is_disabled":false,"rental_uris":{"android":"levelo://app?vid=7d1bbfbb-c70e-48d3-8f4b-baf5b1ca8b77","ios":"levelo://app?vid=7d1bbfbb-c70e-48d3-8f4b-baf5b1ca8b77"},"vehicle_type_id":"4","last_reported":1751458870,"current_range_meters":15200,"station_id":"ce4bhbh2rcd13ifvqepg","pricing_plan_id":"cebpf4jnsgd1na2vs0mg"},{"bike_id":"b6db9e3f-26b1-4030-aaa1-6ee95deb3e82","system_id":"levelo_inurba_marseille","lat":43.250096,"lon":5.389089,"is_reserved":false,"is_disabled":false,"rental_uris":{"android":"levelo://app?vid=b6db9e3f-26b1-4030-aaa1-6ee95deb3e82","ios":"levelo://app?vid=b6db9e3f-26b1-4030-aaa1-6ee95deb3e82"},"vehicle_type_id":"4","last_reported":1751458870,"current_range_meters":15200,"station_id":"ce4bhgp2rcd13ifvqfd0","pricing_plan_id":"cebpf4jnsgd1na2vs0mg"},{"bike_id":"a6413d69-72b2-4506-ab68-ce224060e43a","system_id":"levelo_inurba_marseille","lat":43.25722,"lon":5.41105,"is_reserved":false,"is_disabled":false,"rental_uris":{"android":"levelo://app?vid=a6413d69-72b2-4506-ab68-ce224060e43a","ios":"levelo://app?vid=a6413d69-72b2-4506-ab68-ce224060e43a"},"vehicle_type_id":"4","last_reported":1751458870,"current_range_meters":15200,"station_id":"ce4bhkp2rcd13ifvqgd0","pricing_plan_id":"cebpf4jnsgd1na2vs0mg"},{"bike_id":"cdc38397-36f1-4ceb-89b2-7ef75755fc16","system_id":"levelo_inurba_marseille","lat":43.32349,"lon":5.36747,"is_reserved":false,"is_disabled":false,"rental_uris":{"android":"levelo://app?vid=cdc38397-36f1-4ceb-89b2-7ef75755fc16","ios":"levelo://app?vid=cdc38397-36f1-4ceb-89b2-7ef75755fc16"},"vehicle_type_id":"4","last_reported":1751458870,"current_range_meters":15200,"station_id":"ce4bhsh2rcd13ifvqi2g","pricing_plan_id":"cebpf4jnsgd1na2vs0mg"},{"bike_id":"7e62b058-a7ed-4634-80f1-04d3de596de7","system_id":"levelo_inurba_marseille","lat":43.29838,"lon":5.36815,"is_reserved":false,"is_disabled":false,"rental_uris":{"android":"levelo://app?vid=7e62b058-a7ed-4634-80f1-04d3de596de7","ios":"levelo://app?vid=7e62b058-a7ed-4634-80f1-04d3de596de7"},"vehicle_type_id":"4","last_reported":1751458870,"current_range_meters":16000,"station_id":"","pricing_plan_id":"cebpf4jnsgd1na2vs0mg"},{"bike_id":"d6e90a4e-c2a2-487c-bca7-cf9938068776","system_id":"levelo_inurba_marseille","lat":43.30945,"lon":5.36866,"is_reserved":false,"is_disabled":false,"rental_uris":{"android":"levelo://app?vid=d6e90a4e-c2a2-487c-bca7-cf9938068776","ios":"levelo://app?vid=d6e90a4e-c2a2-487c-bca7-cf9938068776"},"vehicle_type_id":"4","last_reported":1751458870,"current_range_meters":16000,"station_id":"ce4bgn92rcd13ifvqbvg","pricing_plan_id":"cebpf4jnsgd1na2vs0mg"},{"bike_id":"ac1a331a-b18f-4fdd-8466-da8cabf4a6ed","system_id":"levelo_inurba_marseille","lat":43.29011,"lon":5.38142,"is_reserved":false,"is_disabled":false,"rental_uris":{"android":"levelo://app?vid=ac1a331a-b18f-4fdd-8466-da8cabf4a6ed","ios":"levelo://app?vid=ac1a331a-b18f-4fdd-8466-da8cabf4a6ed"},"vehicle_type_id":"4","last_reported":1751458870,"current_range_meters":16000,"station_id":"ce4bh4p2rcd13ifvqe1g","pricing_plan_id":"cebpf4jnsgd1na2vs0mg"},{"bike_id":"17ad145c-f881-4017-969d-c8638a36a818","system_id":"levelo_inurba_marseille","lat":43.26535,"lon":5.39002,"is_reserved":false,"is_disabled":false,"rental_uris":{"android":"levelo://app?vid=17ad145c-f881-4017-969d-c8638a36a818","ios":"levelo://app?vid=17ad145c-f881-4017-969d-c8638a36a818"},"vehicle_type_id":"4","last_reported":1751458870,"current_range_meters":16000,"station_id":"ce4bhe12rcd13ifvqf30","pricing_plan_id":"cebpf4jnsgd1na2vs0mg"},{"bike_id":"56eb3fdf-ea87-4fcf-85df-3680fa66363e","system_id":"levelo_inurba_marseille","lat":43.2249,"lon":5.34791,"is_reserved":false,"is_disabled":false,"rental_uris":{"android":"levelo://app?vid=56eb3fdf-ea87-4fcf-85df-3680fa66363e","ios":"levelo://app?vid=56eb3fdf-ea87-4fcf-85df-3680fa66363e"},"vehicle_type_id":"4","last_reported":1751458870,"current_range_meters":16000,"station_id":"st_cvj5dfep6f1abm77gieg","pricing_plan_id":"cebpf4jnsgd1na2vs0mg"},{"bike_id":"16a8afe6-e43e-4d1b-a7bd-ed83d113735a","system_id":"levelo_inurba_marseille","lat":43.32436,"lon":5.41185,"is_reserved":false,"is_disabled":false,"rental_uris":{"android":"levelo://app?vid=16a8afe6-e43e-4d1b-a7bd-ed83d113735a","ios":"levelo://app?vid=16a8afe6-e43e-4d1b-a7bd-ed83d113735a"},"vehicle_type_id":"4","last_reported":1751458870,"current_range_meters":16400,"station_id":"","pricing_plan_id":"cebpf4jnsgd1na2vs0mg"},{"bike_id":"1b53d3d5-a315-4806-afa5-3fe77c71a342","system_id":"levelo_inurba_marseille","lat":43.30281,"lon":5.37693,"is_reserved":false,"is_disabled":false,"rental_uris":{"android":"levelo://app?vid=1b53d3d5-a315-4806-afa5-3fe77c71a342","ios":"levelo://app?vid=1b53d3d5-a315-4806-afa5-3fe77c71a342"},"vehicle_type_id":"4","last_reported":1751458870,"current_range_meters":16400,"station_id":"ce4bguh2rcd13ifvqcj0","pricing_plan_id":"cebpf4jnsgd1na2vs0mg"},{"bike_id":"331745a6-416e-4697-a3b9-8b6ec98fb01a","system_id":"levelo_inurba_marseille","lat":43.28394,"lon":5.34977,"is_reserved":false,"is_disabled":false,"rental_uris":{"android":"levelo://app?vid=331745a6-416e-4697-a3b9-8b6ec98fb01a","ios":"levelo://app?vid=331745a6-416e-4697-a3b9-8b6ec98fb01a"},"vehicle_type_id":"4","last_reported":1751458870,"current_range_meters":16400,"station_id":"ce4bhbh2rcd13ifvqepg","pricing_plan_id":"cebpf4jnsgd1na2vs0mg"},{"bike_id":"a4fa0864-a85b-4e58-80fb-f707fbcf1f52","system_id":"levelo_inurba_marseille","lat":43.28419,"lon":5.35007,"is_reserved":false,"is_disabled":false,"rental_uris":{"android":"levelo://app?vid=a4fa0864-a85b-4e58-80fb-f707fbcf1f52","ios":"levelo://app?vid=a4fa0864-a85b-4e58-80fb-f707fbcf1f52"},"vehicle_type_id":"4","last_reported":1751458870,"current_range_meters":16400,"station_id":"ce4bhbh2rcd13ifvqepg","pricing_plan_id":"cebpf4jnsgd1na2vs0mg"},{"bike_id":"c79c87d1-3919-4435-933c-db072f3802cd","system_id":"levelo_inurba_marseille","lat":43.26029,"lon":5.3756,"is_reserved":false,"is_disabled":false,"rental_uris":{"android":"levelo://app?vid=c79c87d1-3919-4435-933c-db072f3802cd","ios":"levelo://app?vid=c79c87d1-3919-4435-933c-db072f3802cd"},"vehicle_type_id":"4","last_reported":1751458870,"current_range_meters":16400,"station_id":"ce4bhgh2rcd13ifvqfa0","pricing_plan_id":"cebpf4jnsgd1na2vs0mg"},{"bike_id":"bcfd0eda-b9ab-4bec-9ca3-3f2b86617415","system_id":"levelo_inurba_marseille","lat":43.211895,"lon":5.350741,"is_reserved":false,"is_disabled":false,"rental_uris":{"android":"levelo://app?vid=bcfd0eda-b9ab-4bec-9ca3-3f2b86617415","ios":"levelo://app?vid=bcfd0eda-b9ab-4bec-9ca3-3f2b86617415"},"vehicle_type_id":"4","last_reported":1751458870,"current_range_meters":16400,"station_id":"st_cvj6sg6p6f1abm77japg","pricing_plan_id":"cebpf4jnsgd1na2vs0mg"},{"bike_id":"a0cef316-ad95-4855-8f78-a31341a2b90e","system_id":"levelo_inurba_marseille","lat":43.31288,"lon":5.37764,"is_reserved":false,"is_disabled":false,"rental_uris":{"android":"levelo://app?vid=a0cef316-ad95-4855-8f78-a31341a2b90e","ios":"levelo://app?vid=a0cef316-ad95-4855-8f78-a31341a2b90e"},"vehicle_type_id":"4","last_reported":1751458870,"current_range_meters":16800,"station_id":"","pricing_plan_id":"cebpf4jnsgd1na2vs0mg"},{"bike_id":"0e030323-4386-4e72-9a0d-0f6a2ff539de","system_id":"levelo_inurba_marseille","lat":43.29609,"lon":5.40579,"is_reserved":false,"is_disabled":false,"rental_uris":{"android":"levelo://app?vid=0e030323-4386-4e72-9a0d-0f6a2ff539de","ios":"levelo://app?vid=0e030323-4386-4e72-9a0d-0f6a2ff539de"},"vehicle_type_id":"4","last_reported":1751458870,"current_range_meters":16800,"station_id":"ce4bh0h2rcd13ifvqd60","pricing_plan_id":"cebpf4jnsgd1na2vs0mg"},{"bike_id":"8d441264-cbb2-455f-8390-5ff353e1e979","system_id":"levelo_inurba_marseille","lat":43.23155,"lon":5.43711,"is_reserved":false,"is_disabled":false,"rental_uris":{"android":"levelo://app?vid=8d441264-cbb2-455f-8390-5ff353e1e979","ios":"levelo://app?vid=8d441264-cbb2-455f-8390-5ff353e1e979"},"vehicle_type_id":"4","last_reported":1751458870,"current_range_meters":16800,"station_id":"ce4bhmp2rcd13ifvqgog","pricing_plan_id":"cebpf4jnsgd1na2vs0mg"},{"bike_id":"110be0f7-19b6-4419-935c-8afdb1f29359","system_id":"levelo_inurba_marseille","lat":43.21199,"lon":5.35075,"is_reserved":false,"is_disabled":false,"rental_uris":{"android":"levelo://app?vid=110be0f7-19b6-4419-935c-8afdb1f29359","ios":"levelo://app?vid=110be0f7-19b6-4419-935c-8afdb1f29359"},"vehicle_type_id":"4","last_reported":1751458870,"current_range_meters":16800,"station_id":"st_cvj6sg6p6f1abm77japg","pricing_plan_id":"cebpf4jnsgd1na2vs0mg"},{"bike_id":"959e6f20-8ed0-4d36-bc1d-3efb82d6190b","system_id":"levelo_inurba_marseille","lat":43.21174,"lon":5.3508,"is_reserved":false,"is_disabled":false,"rental_uris":{"android":"levelo://app?vid=959e6f20-8ed0-4d36-bc1d-3efb82d6190b","ios":"levelo://app?vid=959e6f20-8ed0-4d36-bc1d-3efb82d6190b"},"vehicle_type_id":"4","last_reported":1751458870,"current_range_meters":16800,"station_id":"st_cvj6sg6p6f1abm77japg","pricing_plan_id":"cebpf4jnsgd1na2vs0mg"},{"bike_id":"381edc2f-8723-48b6-9caa-5585047483e3","system_id":"levelo_inurba_marseille","lat":43.2996,"lon":5.38488,"is_reserved":false,"is_disabled":false,"rental_uris":{"android":"levelo://app?vid=381edc2f-8723-48b6-9caa-5585047483e3","ios":"levelo://app?vid=381edc2f-8723-48b6-9caa-5585047483e3"},"vehicle_type_id":"4","last_reported":1751458870,"current_range_meters":17200,"station_id":"ce4bgj92rcd13ifvqbd0","pricing_plan_id":"cebpf4jnsgd1na2vs0mg"},{"bike_id":"c891a8a9-6cee-47e2-ba82-eb733400cd8c","system_id":"levelo_inurba_marseille","lat":43.30552,"lon":5.36711,"is_reserved":false,"is_disabled":false,"rental_uris":{"android":"levelo://app?vid=c891a8a9-6cee-47e2-ba82-eb733400cd8c","ios":"levelo://app?vid=c891a8a9-6cee-47e2-ba82-eb733400cd8c"},"vehicle_type_id":"4","last_reported":1751458870,"current_range_meters":17200,"station_id":"ce4bgrp2rcd13ifvqc9g","pricing_plan_id":"cebpf4jnsgd1na2vs0mg"},{"bike_id":"09a94feb-8911-4d3d-9f22-a7f611710ea1","system_id":"levelo_inurba_marseille","lat":43.211936,"lon":5.350711,"is_reserved":false,"is_disabled":false,"rental_uris":{"android":"levelo://app?vid=09a94feb-8911-4d3d-9f22-a7f611710ea1","ios":"levelo://app?vid=09a94feb-8911-4d3d-9f22-a7f611710ea1"},"vehicle_type_id":"4","last_reported":1751458870,"current_range_meters":17200,"station_id":"st_cvj6sg6p6f1abm77japg","pricing_plan_id":"cebpf4jnsgd1na2vs0mg"},{"bike_id":"c01e3b9f-4ddb-4ab7-bfd0-b1e138673679","system_id":"levelo_inurba_marseille","lat":43.286765,"lon":5.386655,"is_reserved":false,"is_disabled":false,"rental_uris":{"android":"levelo://app?vid=c01e3b9f-4ddb-4ab7-bfd0-b1e138673679","ios":"levelo://app?vid=c01e3b9f-4ddb-4ab7-bfd0-b1e138673679"},"vehicle_type_id":"4","last_reported":1751458870,"current_range_meters":17600,"station_id":"ce4bh492rcd13ifvqdug","pricing_plan_id":"cebpf4jnsgd1na2vs0mg"},{"bike_id":"ee286f28-f86e-4af6-96fc-b3febfb7ed08","system_id":"levelo_inurba_marseille","lat":43.28373,"lon":5.38644,"is_reserved":false,"is_disabled":false,"rental_uris":{"android":"levelo://app?vid=ee286f28-f86e-4af6-96fc-b3febfb7ed08","ios":"levelo://app?vid=ee286f28-f86e-4af6-96fc-b3febfb7ed08"},"vehicle_type_id":"4","last_reported":1751458870,"current_range_meters":17600,"station_id":"ce4bh492rcd13ifvqdvg","pricing_plan_id":"cebpf4jnsgd1na2vs0mg"},{"bike_id":"8bf0d992-d2a0-428e-940a-091ee9b7c2a4","system_id":"levelo_inurba_marseille","lat":43.2119,"lon":5.35073,"is_reserved":false,"is_disabled":false,"rental_uris":{"android":"levelo://app?vid=8bf0d992-d2a0-428e-940a-091ee9b7c2a4","ios":"levelo://app?vid=8bf0d992-d2a0-428e-940a-091ee9b7c2a4"},"vehicle_type_id":"4","last_reported":1751458870,"current_range_meters":17600,"station_id":"st_cvj6sg6p6f1abm77japg","pricing_plan_id":"cebpf4jnsgd1na2vs0mg"},{"bike_id":"b0847cd6-3da2-4c96-b631-22dc7523d236","system_id":"levelo_inurba_marseille","lat":43.30604,"lon":5.36662,"is_reserved":false,"is_disabled":false,"rental_uris":{"android":"levelo://app?vid=b0847cd6-3da2-4c96-b631-22dc7523d236","ios":"levelo://app?vid=b0847cd6-3da2-4c96-b631-22dc7523d236"},"vehicle_type_id":"4","last_reported":1751458870,"current_range_meters":18000,"station_id":"","pricing_plan_id":"cebpf4jnsgd1na2vs0mg"},{"bike_id":"6d2da863-a742-45db-855b-55a94467cfa4","system_id":"levelo_inurba_marseille","lat":43.32597,"lon":5.42737,"is_reserved":false,"is_disabled":false,"rental_uris":{"android":"levelo://app?vid=6d2da863-a742-45db-855b-55a94467cfa4","ios":"levelo://app?vid=6d2da863-a742-45db-855b-55a94467cfa4"},"vehicle_type_id":"4","last_reported":1751458870,"current_range_meters":18000,"station_id":"","pricing_plan_id":"cebpf4jnsgd1na2vs0mg"},{"bike_id":"0b52d53f-0bd6-47f1-b5e3-7fc98dc501bd","system_id":"levelo_inurba_marseille","lat":43.30572,"lon":5.36548,"is_reserved":false,"is_disabled":false,"rental_uris":{"android":"levelo://app?vid=0b52d53f-0bd6-47f1-b5e3-7fc98dc501bd","ios":"levelo://app?vid=0b52d53f-0bd6-47f1-b5e3-7fc98dc501bd"},"vehicle_type_id":"4","last_reported":1751458870,"current_range_meters":18000,"station_id":"ce4bgs12rcd13ifvqcag","pricing_plan_id":"cebpf4jnsgd1na2vs0mg"},{"bike_id":"e68f149c-fca1-4547-bb40-f5389f2c2750","system_id":"levelo_inurba_marseille","lat":43.30943,"lon":5.39037,"is_reserved":false,"is_disabled":false,"rental_uris":{"android":"levelo://app?vid=e68f149c-fca1-4547-bb40-f5389f2c2750","ios":"levelo://app?vid=e68f149c-fca1-4547-bb40-f5389f2c2750"},"vehicle_type_id":"4","last_reported":1751458870,"current_range_meters":18000,"station_id":"ce4bgup2rcd13ifvqco0","pricing_plan_id":"cebpf4jnsgd1na2vs0mg"},{"bike_id":"eaa22bcc-3a54-4661-870c-6ce230ed1f31","system_id":"levelo_inurba_marseille","lat":43.30649,"lon":5.40097,"is_reserved":false,"is_disabled":false,"rental_uris":{"android":"levelo://app?vid=eaa22bcc-3a54-4661-870c-6ce230ed1f31","ios":"levelo://app?vid=eaa22bcc-3a54-4661-870c-6ce230ed1f31"},"vehicle_type_id":"4","last_reported":1751458870,"current_range_meters":18000,"station_id":"ce4bh112rcd13ifvqda0","pricing_plan_id":"cebpf4jnsgd1na2vs0mg"},{"bike_id":"596e73ce-9efd-49b8-a122-03aa281c849b","system_id":"levelo_inurba_marseille","lat":43.2621,"lon":5.37445,"is_reserved":false,"is_disabled":false,"rental_uris":{"android":"levelo://app?vid=596e73ce-9efd-49b8-a122-03aa281c849b","ios":"levelo://app?vid=596e73ce-9efd-49b8-a122-03aa281c849b"},"vehicle_type_id":"4","last_reported":1751458870,"current_range_meters":18000,"station_id":"ce4bhgp2rcd13ifvqfc0","pricing_plan_id":"cebpf4jnsgd1na2vs0mg"},{"bike_id":"f048db52-6f32-4b62-81ca-29b673e2a0b0","system_id":"levelo_inurba_marseille","lat":43.26203,"lon":5.37926,"is_reserved":false,"is_disabled":false,"rental_uris":{"android":"levelo://app?vid=f048db52-6f32-4b62-81ca-29b673e2a0b0","ios":"levelo://app?vid=f048db52-6f32-4b62-81ca-29b673e2a0b0"},"vehicle_type_id":"4","last_reported":1751458870,"current_range_meters":18000,"station_id":"ce4bhjp2rcd13ifvqg90","pricing_plan_id":"cebpf4jnsgd1na2vs0mg"},{"bike_id":"5e1c6398-e71f-4a16-91bb-3ea30cb6651c","system_id":"levelo_inurba_marseille","lat":43.25708,"lon":5.41124,"is_reserved":false,"is_disabled":false,"rental_uris":{"android":"levelo://app?vid=5e1c6398-e71f-4a16-91bb-3ea30cb6651c","ios":"levelo://app?vid=5e1c6398-e71f-4a16-91bb-3ea30cb6651c"},"vehicle_type_id":"4","last_reported":1751458870,"current_range_meters":18000,"station_id":"ce4bhkp2rcd13ifvqgd0","pricing_plan_id":"cebpf4jnsgd1na2vs0mg"},{"bike_id":"64ba98f3-6c38-4f8d-8066-be947e94c6d6","system_id":"levelo_inurba_marseille","lat":43.32044,"lon":5.415585,"is_reserved":false,"is_disabled":false,"rental_uris":{"android":"levelo://app?vid=64ba98f3-6c38-4f8d-8066-be947e94c6d6","ios":"levelo://app?vid=64ba98f3-6c38-4f8d-8066-be947e94c6d6"},"vehicle_type_id":"4","last_reported":1751458870,"current_range_meters":18000,"station_id":"ce4bhq92rcd13ifvqhkg","pricing_plan_id":"cebpf4jnsgd1na2vs0mg"},{"bike_id":"c10a4283-320d-4e64-8d75-ff83e94026ba","system_id":"levelo_inurba_marseille","lat":43.211934,"lon":5.350759,"is_reserved":false,"is_disabled":false,"rental_uris":{"android":"levelo://app?vid=c10a4283-320d-4e64-8d75-ff83e94026ba","ios":"levelo://app?vid=c10a4283-320d-4e64-8d75-ff83e94026ba"},"vehicle_type_id":"4","last_reported":1751458870,"current_range_meters":18000,"station_id":"st_cvj6sg6p6f1abm77japg","pricing_plan_id":"cebpf4jnsgd1na2vs0mg"},{"bike_id":"8a74f5cd-9efa-4362-bea7-a32db4dcc85c","system_id":"levelo_inurba_marseille","lat":43.211934,"lon":5.350741,"is_reserved":false,"is_disabled":false,"rental_uris":{"android":"levelo://app?vid=8a74f5cd-9efa-4362-bea7-a32db4dcc85c","ios":"levelo://app?vid=8a74f5cd-9efa-4362-bea7-a32db4dcc85c"},"vehicle_type_id":"4","last_reported":1751458870,"current_range_meters":18000,"station_id":"st_cvj6sg6p6f1abm77japg","pricing_plan_id":"cebpf4jnsgd1na2vs0mg"},{"bike_id":"3b086ff7-7b39-42eb-b376-e6a88f374acd","system_id":"levelo_inurba_marseille","lat":43.24533,"lon":5.39511,"is_reserved":false,"is_disabled":false,"rental_uris":{"android":"levelo://app?vid=3b086ff7-7b39-42eb-b376-e6a88f374acd","ios":"levelo://app?vid=3b086ff7-7b39-42eb-b376-e6a88f374acd"},"vehicle_type_id":"4","last_reported":1751458870,"current_range_meters":18800,"station_id":"ce4bhlp2rcd13ifvqgjg","pricing_plan_id":"cebpf4jnsgd1na2vs0mg"},{"bike_id":"bfa88f67-5f5b-49db-81cc-e4921c6889b1","system_id":"levelo_inurba_marseille","lat":43.321096,"lon":5.367775,"is_reserved":false,"is_disabled":false,"rental_uris":{"android":"levelo://app?vid=bfa88f67-5f5b-49db-81cc-e4921c6889b1","ios":"levelo://app?vid=bfa88f67-5f5b-49db-81cc-e4921c6889b1"},"vehicle_type_id":"4","last_reported":1751458870,"current_range_meters":18800,"station_id":"ce4bhrh2rcd13ifvqhug","pricing_plan_id":"cebpf4jnsgd1na2vs0mg"},{"bike_id":"d393009a-4549-46b8-9394-75871ff606d4","system_id":"levelo_inurba_marseille","lat":43.32364,"lon":5.36762,"is_reserved":false,"is_disabled":false,"rental_uris":{"android":"levelo://app?vid=d393009a-4549-46b8-9394-75871ff606d4","ios":"levelo://app?vid=d393009a-4549-46b8-9394-75871ff606d4"},"vehicle_type_id":"4","last_reported":1751458870,"current_range_meters":18800,"station_id":"ce4bhsh2rcd13ifvqi2g","pricing_plan_id":"cebpf4jnsgd1na2vs0mg"},{"bike_id":"abd907c8-9706-4fba-a5c1-b51525ba1727","system_id":"levelo_inurba_marseille","lat":43.23194,"lon":5.35555,"is_reserved":false,"is_disabled":false,"rental_uris":{"android":"levelo://app?vid=abd907c8-9706-4fba-a5c1-b51525ba1727","ios":"levelo://app?vid=abd907c8-9706-4fba-a5c1-b51525ba1727"},"vehicle_type_id":"4","last_reported":1751458870,"current_range_meters":18800,"station_id":"ce4bhu92rcd13ifvqi70","pricing_plan_id":"cebpf4jnsgd1na2vs0mg"},{"bike_id":"d88192fb-44f9-4fd5-bf74-78a235baed47","system_id":"levelo_inurba_marseille","lat":43.31713,"lon":5.37756,"is_reserved":false,"is_disabled":false,"rental_uris":{"android":"levelo://app?vid=d88192fb-44f9-4fd5-bf74-78a235baed47","ios":"levelo://app?vid=d88192fb-44f9-4fd5-bf74-78a235baed47"},"vehicle_type_id":"4","last_reported":1751458870,"current_range_meters":19200,"station_id":"ce4bgth2rcd13ifvqch0","pricing_plan_id":"cebpf4jnsgd1na2vs0mg"},{"bike_id":"08f4cf4b-a4b2-4c7d-adb6-b675ad9e2571","system_id":"levelo_inurba_marseille","lat":43.29047,"lon":5.39945,"is_reserved":false,"is_disabled":false,"rental_uris":{"android":"levelo://app?vid=08f4cf4b-a4b2-4c7d-adb6-b675ad9e2571","ios":"levelo://app?vid=08f4cf4b-a4b2-4c7d-adb6-b675ad9e2571"},"vehicle_type_id":"4","last_reported":1751458870,"current_range_meters":19200,"station_id":"ce4bh392rcd13ifvqdm0","pricing_plan_id":"cebpf4jnsgd1na2vs0mg"},{"bike_id":"436f9256-4b18-4651-9d95-9872284ccade","system_id":"levelo_inurba_marseille","lat":43.28716,"lon":5.38681,"is_reserved":false,"is_disabled":false,"rental_uris":{"android":"levelo://app?vid=436f9256-4b18-4651-9d95-9872284ccade","ios":"levelo://app?vid=436f9256-4b18-4651-9d95-9872284ccade"},"vehicle_type_id":"4","last_reported":1751458870,"current_range_meters":19200,"station_id":"ce4bh492rcd13ifvqdug","pricing_plan_id":"cebpf4jnsgd1na2vs0mg"},{"bike_id":"a5dd1495-37bd-4d52-bdbd-ac33ef851954","system_id":"levelo_inurba_marseille","lat":43.23155,"lon":5.43717,"is_reserved":false,"is_disabled":false,"rental_uris":{"android":"levelo://app?vid=a5dd1495-37bd-4d52-bdbd-ac33ef851954","ios":"levelo://app?vid=a5dd1495-37bd-4d52-bdbd-ac33ef851954"},"vehicle_type_id":"4","last_reported":1751458870,"current_range_meters":19200,"station_id":"ce4bhmp2rcd13ifvqgog","pricing_plan_id":"cebpf4jnsgd1na2vs0mg"},{"bike_id":"b7c4f4e7-ddbb-4243-982d-1ca4f75e59a6","system_id":"levelo_inurba_marseille","lat":43.32367,"lon":5.36752,"is_reserved":false,"is_disabled":false,"rental_uris":{"android":"levelo://app?vid=b7c4f4e7-ddbb-4243-982d-1ca4f75e59a6","ios":"levelo://app?vid=b7c4f4e7-ddbb-4243-982d-1ca4f75e59a6"},"vehicle_type_id":"4","last_reported":1751458870,"current_range_meters":19200,"station_id":"ce4bhsh2rcd13ifvqi2g","pricing_plan_id":"cebpf4jnsgd1na2vs0mg"},{"bike_id":"0f590c2a-c81e-469d-a7d1-2741de3642a2","system_id":"levelo_inurba_marseille","lat":43.211944,"lon":5.350709,"is_reserved":false,"is_disabled":false,"rental_uris":{"android":"levelo://app?vid=0f590c2a-c81e-469d-a7d1-2741de3642a2","ios":"levelo://app?vid=0f590c2a-c81e-469d-a7d1-2741de3642a2"},"vehicle_type_id":"4","last_reported":1751458870,"current_range_meters":19200,"station_id":"st_cvj6sg6p6f1abm77japg","pricing_plan_id":"cebpf4jnsgd1na2vs0mg"},{"bike_id":"fe84177e-dc24-423c-bc2b-77abf3163fe9","system_id":"levelo_inurba_marseille","lat":43.30237,"lon":5.38241,"is_reserved":false,"is_disabled":false,"rental_uris":{"android":"levelo://app?vid=fe84177e-dc24-423c-bc2b-77abf3163fe9","ios":"levelo://app?vid=fe84177e-dc24-423c-bc2b-77abf3163fe9"},"vehicle_type_id":"4","last_reported":1751458870,"current_range_meters":19600,"station_id":"","pricing_plan_id":"cebpf4jnsgd1na2vs0mg"},{"bike_id":"b2325bea-9a74-459a-a713-509c2ba84f3e","system_id":"levelo_inurba_marseille","lat":43.283219,"lon":5.412856,"is_reserved":false,"is_disabled":false,"rental_uris":{"android":"levelo://app?vid=b2325bea-9a74-459a-a713-509c2ba84f3e","ios":"levelo://app?vid=b2325bea-9a74-459a-a713-509c2ba84f3e"},"vehicle_type_id":"4","last_reported":1751458870,"current_range_meters":19600,"station_id":"","pricing_plan_id":"cebpf4jnsgd1na2vs0mg"},{"bike_id":"6c36efce-05da-4334-951f-f8bbdd10c352","system_id":"levelo_inurba_marseille","lat":43.31719,"lon":5.37755,"is_reserved":false,"is_disabled":false,"rental_uris":{"android":"levelo://app?vid=6c36efce-05da-4334-951f-f8bbdd10c352","ios":"levelo://app?vid=6c36efce-05da-4334-951f-f8bbdd10c352"},"vehicle_type_id":"4","last_reported":1751458870,"current_range_meters":19600,"station_id":"ce4bgth2rcd13ifvqch0","pricing_plan_id":"cebpf4jnsgd1na2vs0mg"},{"bike_id":"90deedad-5729-44ac-95e8-3f24aa141e8f","system_id":"levelo_inurba_marseille","lat":43.30946,"lon":5.39027,"is_reserved":false,"is_disabled":false,"rental_uris":{"android":"levelo://app?vid=90deedad-5729-44ac-95e8-3f24aa141e8f","ios":"levelo://app?vid=90deedad-5729-44ac-95e8-3f24aa141e8f"},"vehicle_type_id":"4","last_reported":1751458870,"current_range_meters":19600,"station_id":"ce4bgup2rcd13ifvqco0","pricing_plan_id":"cebpf4jnsgd1na2vs0mg"},{"bike_id":"d63ffcb4-ecf7-404f-98c5-dba7b07b7cba","system_id":"levelo_inurba_marseille","lat":43.32044,"lon":5.41561,"is_reserved":false,"is_disabled":false,"rental_uris":{"android":"levelo://app?vid=d63ffcb4-ecf7-404f-98c5-dba7b07b7cba","ios":"levelo://app?vid=d63ffcb4-ecf7-404f-98c5-dba7b07b7cba"},"vehicle_type_id":"4","last_reported":1751458870,"current_range_meters":19600,"station_id":"ce4bhq92rcd13ifvqhkg","pricing_plan_id":"cebpf4jnsgd1na2vs0mg"},{"bike_id":"10b0b860-bb51-4240-bd79-57112e19f6af","system_id":"levelo_inurba_marseille","lat":43.21749,"lon":5.34603,"is_reserved":false,"is_disabled":false,"rental_uris":{"android":"levelo://app?vid=10b0b860-bb51-4240-bd79-57112e19f6af","ios":"levelo://app?vid=10b0b860-bb51-4240-bd79-57112e19f6af"},"vehicle_type_id":"4","last_reported":1751458870,"current_range_meters":19600,"station_id":"st_cvj6r9ubvosntc0bgbag","pricing_plan_id":"cebpf4jnsgd1na2vs0mg"},{"bike_id":"11389e61-2b3c-4119-9ff4-2ee3aa279101","system_id":"levelo_inurba_marseille","lat":43.3046,"lon":5.37912,"is_reserved":false,"is_disabled":false,"rental_uris":{"android":"levelo://app?vid=11389e61-2b3c-4119-9ff4-2ee3aa279101","ios":"levelo://app?vid=11389e61-2b3c-4119-9ff4-2ee3aa279101"},"vehicle_type_id":"4","last_reported":1751458870,"current_range_meters":20000,"station_id":"","pricing_plan_id":"cebpf4jnsgd1na2vs0mg"},{"bike_id":"19bff631-31d3-4738-b5de-8c3655155c50","system_id":"levelo_inurba_marseille","lat":43.2978,"lon":5.38132,"is_reserved":false,"is_disabled":false,"rental_uris":{"android":"levelo://app?vid=19bff631-31d3-4738-b5de-8c3655155c50","ios":"levelo://app?vid=19bff631-31d3-4738-b5de-8c3655155c50"},"vehicle_type_id":"4","last_reported":1751458870,"current_range_meters":20000,"station_id":"ce4bgip2rcd13ifvqbb0","pricing_plan_id":"cebpf4jnsgd1na2vs0mg"},{"bike_id":"79a3aeb2-a2b2-4cad-9b86-ba6ca4824427","system_id":"levelo_inurba_marseille","lat":43.30133,"lon":5.38092,"is_reserved":false,"is_disabled":false,"rental_uris":{"android":"levelo://app?vid=79a3aeb2-a2b2-4cad-9b86-ba6ca4824427","ios":"levelo://app?vid=79a3aeb2-a2b2-4cad-9b86-ba6ca4824427"},"vehicle_type_id":"4","last_reported":1751458870,"current_range_meters":20000,"station_id":"ce4bgjp2rcd13ifvqbh0","pricing_plan_id":"cebpf4jnsgd1na2vs0mg"},{"bike_id":"e073fe96-43d2-4247-ba8c-f9c0e2c784ff","system_id":"levelo_inurba_marseille","lat":43.29871,"lon":5.36253,"is_reserved":false,"is_disabled":false,"rental_uris":{"android":"levelo://app?vid=e073fe96-43d2-4247-ba8c-f9c0e2c784ff","ios":"levelo://app?vid=e073fe96-43d2-4247-ba8c-f9c0e2c784ff"},"vehicle_type_id":"4","last_reported":1751458870,"current_range_meters":20000,"station_id":"ce4bgpp2rcd13ifvqc3g","pricing_plan_id":"cebpf4jnsgd1na2vs0mg"},{"bike_id":"b0496903-e4e2-480d-b2e6-4fcaae2cd474","system_id":"levelo_inurba_marseille","lat":43.31357,"lon":5.36757,"is_reserved":false,"is_disabled":false,"rental_uris":{"android":"levelo://app?vid=b0496903-e4e2-480d-b2e6-4fcaae2cd474","ios":"levelo://app?vid=b0496903-e4e2-480d-b2e6-4fcaae2cd474"},"vehicle_type_id":"4","last_reported":1751458870,"current_range_meters":20000,"station_id":"ce4bgr92rcd13ifvqc6g","pricing_plan_id":"cebpf4jnsgd1na2vs0mg"},{"bike_id":"3be62267-12fe-43bf-bd19-64ff695cb725","system_id":"levelo_inurba_marseille","lat":43.30551,"lon":5.36546,"is_reserved":false,"is_disabled":false,"rental_uris":{"android":"levelo://app?vid=3be62267-12fe-43bf-bd19-64ff695cb725","ios":"levelo://app?vid=3be62267-12fe-43bf-bd19-64ff695cb725"},"vehicle_type_id":"4","last_reported":1751458870,"current_range_meters":20000,"station_id":"ce4bgs12rcd13ifvqcag","pricing_plan_id":"cebpf4jnsgd1na2vs0mg"},{"bike_id":"88da0a8a-c235-4518-8971-4d82c75fdca3","system_id":"levelo_inurba_marseille","lat":43.28428,"lon":5.34999,"is_reserved":false,"is_disabled":false,"rental_uris":{"android":"levelo://app?vid=88da0a8a-c235-4518-8971-4d82c75fdca3","ios":"levelo://app?vid=88da0a8a-c235-4518-8971-4d82c75fdca3"},"vehicle_type_id":"4","last_reported":1751458870,"current_range_meters":20000,"station_id":"ce4bhbh2rcd13ifvqepg","pricing_plan_id":"cebpf4jnsgd1na2vs0mg"},{"bike_id":"5eff832e-c78a-448d-99c0-d4ac89c64acc","system_id":"levelo_inurba_marseille","lat":43.286117,"lon":5.351077,"is_reserved":false,"is_disabled":false,"rental_uris":{"android":"levelo://app?vid=5eff832e-c78a-448d-99c0-d4ac89c64acc","ios":"levelo://app?vid=5eff832e-c78a-448d-99c0-d4ac89c64acc"},"vehicle_type_id":"4","last_reported":1751458870,"current_range_meters":20000,"station_id":"ce4bhch2rcd13ifvqeug","pricing_plan_id":"cebpf4jnsgd1na2vs0mg"},{"bike_id":"c86c5dee-d7c3-492c-a9c7-789d5d7520ab","system_id":"levelo_inurba_marseille","lat":43.286136,"lon":5.351122,"is_reserved":false,"is_disabled":false,"rental_uris":{"android":"levelo://app?vid=c86c5dee-d7c3-492c-a9c7-789d5d7520ab","ios":"levelo://app?vid=c86c5dee-d7c3-492c-a9c7-789d5d7520ab"},"vehicle_type_id":"4","last_reported":1751458870,"current_range_meters":20000,"station_id":"ce4bhch2rcd13ifvqeug","pricing_plan_id":"cebpf4jnsgd1na2vs0mg"},{"bike_id":"48a8b866-9a64-4b58-8b3a-d988de0d4af0","system_id":"levelo_inurba_marseille","lat":43.24176,"lon":5.36426,"is_reserved":false,"is_disabled":false,"rental_uris":{"android":"levelo://app?vid=48a8b866-9a64-4b58-8b3a-d988de0d4af0","ios":"levelo://app?vid=48a8b866-9a64-4b58-8b3a-d988de0d4af0"},"vehicle_type_id":"4","last_reported":1751458870,"current_range_meters":20000,"station_id":"cpo36qri1sfpv3e86is0","pricing_plan_id":"cebpf4jnsgd1na2vs0mg"},{"bike_id":"37b84a38-055a-4a6e-a56a-8ff3d0c1b2ec","system_id":"levelo_inurba_marseille","lat":43.21192,"lon":5.35097,"is_reserved":false,"is_disabled":false,"rental_uris":{"android":"levelo://app?vid=37b84a38-055a-4a6e-a56a-8ff3d0c1b2ec","ios":"levelo://app?vid=37b84a38-055a-4a6e-a56a-8ff3d0c1b2ec"},"vehicle_type_id":"4","last_reported":1751458870,"current_range_meters":20000,"station_id":"st_cvj6sg6p6f1abm77japg","pricing_plan_id":"cebpf4jnsgd1na2vs0mg"},{"bike_id":"2d7ab8c9-ccb6-4168-91f8-ffbbd54cc09d","system_id":"levelo_inurba_marseille","lat":43.297454,"lon":5.369793,"is_reserved":false,"is_disabled":false,"rental_uris":{"android":"levelo://app?vid=2d7ab8c9-ccb6-4168-91f8-ffbbd54cc09d","ios":"levelo://app?vid=2d7ab8c9-ccb6-4168-91f8-ffbbd54cc09d"},"vehicle_type_id":"4","last_reported":1751458870,"current_range_meters":20400,"station_id":"","pricing_plan_id":"cebpf4jnsgd1na2vs0mg"},{"bike_id":"aaae32df-99f5-43e3-813f-c870b5943dc8","system_id":"levelo_inurba_marseille","lat":43.3051,"lon":5.36504,"is_reserved":false,"is_disabled":false,"rental_uris":{"android":"levelo://app?vid=aaae32df-99f5-43e3-813f-c870b5943dc8","ios":"levelo://app?vid=aaae32df-99f5-43e3-813f-c870b5943dc8"},"vehicle_type_id":"4","last_reported":1751458870,"current_range_meters":20400,"station_id":"","pricing_plan_id":"cebpf4jnsgd1na2vs0mg"},{"bike_id":"5543184e-341f-410b-b74f-4a4554e0fca3","system_id":"levelo_inurba_marseille","lat":43.29682,"lon":5.37304,"is_reserved":false,"is_disabled":false,"rental_uris":{"android":"levelo://app?vid=5543184e-341f-410b-b74f-4a4554e0fca3","ios":"levelo://app?vid=5543184e-341f-410b-b74f-4a4554e0fca3"},"vehicle_type_id":"4","last_reported":1751458870,"current_range_meters":20400,"station_id":"ce4bgk12rcd13ifvqbj0","pricing_plan_id":"cebpf4jnsgd1na2vs0mg"},{"bike_id":"c2883da1-4714-4a14-8fbb-112370059b97","system_id":"levelo_inurba_marseille","lat":43.25003,"lon":5.38924,"is_reserved":false,"is_disabled":false,"rental_uris":{"android":"levelo://app?vid=c2883da1-4714-4a14-8fbb-112370059b97","ios":"levelo://app?vid=c2883da1-4714-4a14-8fbb-112370059b97"},"vehicle_type_id":"4","last_reported":1751458870,"current_range_meters":20400,"station_id":"ce4bhgp2rcd13ifvqfd0","pricing_plan_id":"cebpf4jnsgd1na2vs0mg"},{"bike_id":"21e2c51d-4563-4efd-afbf-0ddeff93c862","system_id":"levelo_inurba_marseille","lat":43.217553,"lon":5.34595,"is_reserved":false,"is_disabled":false,"rental_uris":{"android":"levelo://app?vid=21e2c51d-4563-4efd-afbf-0ddeff93c862","ios":"levelo://app?vid=21e2c51d-4563-4efd-afbf-0ddeff93c862"},"vehicle_type_id":"4","last_reported":1751458870,"current_range_meters":20400,"station_id":"st_cvj6r9ubvosntc0bgbag","pricing_plan_id":"cebpf4jnsgd1na2vs0mg"},{"bike_id":"12210edd-cb8c-4e48-84ea-41a71c4fc3a5","system_id":"levelo_inurba_marseille","lat":43.29642,"lon":5.37757,"is_reserved":false,"is_disabled":false,"rental_uris":{"android":"levelo://app?vid=12210edd-cb8c-4e48-84ea-41a71c4fc3a5","ios":"levelo://app?vid=12210edd-cb8c-4e48-84ea-41a71c4fc3a5"},"vehicle_type_id":"4","last_reported":1751458870,"current_range_meters":20800,"station_id":"ce4bgi92rcd13ifvqb90","pricing_plan_id":"cebpf4jnsgd1na2vs0mg"},{"bike_id":"9ffd360a-cbbf-4e76-ad28-d7abb260045a","system_id":"levelo_inurba_marseille","lat":43.29917,"lon":5.3749,"is_reserved":false,"is_disabled":false,"rental_uris":{"android":"levelo://app?vid=9ffd360a-cbbf-4e76-ad28-d7abb260045a","ios":"levelo://app?vid=9ffd360a-cbbf-4e76-ad28-d7abb260045a"},"vehicle_type_id":"4","last_reported":1751458870,"current_range_meters":20800,"station_id":"ce4bgjh2rcd13ifvqbg0","pricing_plan_id":"cebpf4jnsgd1na2vs0mg"},{"bike_id":"abc79353-75d5-47b1-b17d-92b92d888679","system_id":"levelo_inurba_marseille","lat":43.30626,"lon":5.40093,"is_reserved":false,"is_disabled":false,"rental_uris":{"android":"levelo://app?vid=abc79353-75d5-47b1-b17d-92b92d888679","ios":"levelo://app?vid=abc79353-75d5-47b1-b17d-92b92d888679"},"vehicle_type_id":"4","last_reported":1751458870,"current_range_meters":20800,"station_id":"ce4bh112rcd13ifvqda0","pricing_plan_id":"cebpf4jnsgd1na2vs0mg"},{"bike_id":"92ce571e-8bb4-4eab-9f9e-809fb7433bc6","system_id":"levelo_inurba_marseille","lat":43.27371,"lon":5.36257,"is_reserved":false,"is_disabled":false,"rental_uris":{"android":"levelo://app?vid=92ce571e-8bb4-4eab-9f9e-809fb7433bc6","ios":"levelo://app?vid=92ce571e-8bb4-4eab-9f9e-809fb7433bc6"},"vehicle_type_id":"4","last_reported":1751458870,"current_range_meters":20800,"station_id":"ce4bhbh2rcd13ifvqeo0","pricing_plan_id":"cebpf4jnsgd1na2vs0mg"},{"bike_id":"9796a8d1-9d58-4fd8-8a18-676239ebd72b","system_id":"levelo_inurba_marseille","lat":43.26776,"lon":5.39435,"is_reserved":false,"is_disabled":false,"rental_uris":{"android":"levelo://app?vid=9796a8d1-9d58-4fd8-8a18-676239ebd72b","ios":"levelo://app?vid=9796a8d1-9d58-4fd8-8a18-676239ebd72b"},"vehicle_type_id":"4","last_reported":1751458870,"current_range_meters":20800,"station_id":"ce4bhh12rcd13ifvqfg0","pricing_plan_id":"cebpf4jnsgd1na2vs0mg"},{"bike_id":"a6715104-7492-4ec6-a996-23050baf8551","system_id":"levelo_inurba_marseille","lat":43.225,"lon":5.34778,"is_reserved":false,"is_disabled":false,"rental_uris":{"android":"levelo://app?vid=a6715104-7492-4ec6-a996-23050baf8551","ios":"levelo://app?vid=a6715104-7492-4ec6-a996-23050baf8551"},"vehicle_type_id":"4","last_reported":1751458870,"current_range_meters":20800,"station_id":"st_cvj5dfep6f1abm77gieg","pricing_plan_id":"cebpf4jnsgd1na2vs0mg"},{"bike_id":"4d4995e7-0bba-4ac2-a238-afd84a5e99b5","system_id":"levelo_inurba_marseille","lat":43.304848,"lon":5.398345,"is_reserved":false,"is_disabled":false,"rental_uris":{"android":"levelo://app?vid=4d4995e7-0bba-4ac2-a238-afd84a5e99b5","ios":"levelo://app?vid=4d4995e7-0bba-4ac2-a238-afd84a5e99b5"},"vehicle_type_id":"4","last_reported":1751458870,"current_range_meters":21600,"station_id":"","pricing_plan_id":"cebpf4jnsgd1na2vs0mg"},{"bike_id":"50bb0fdb-2cc1-4d8d-af26-b7febba54985","system_id":"levelo_inurba_marseille","lat":43.274139,"lon":5.39007,"is_reserved":false,"is_disabled":false,"rental_uris":{"android":"levelo://app?vid=50bb0fdb-2cc1-4d8d-af26-b7febba54985","ios":"levelo://app?vid=50bb0fdb-2cc1-4d8d-af26-b7febba54985"},"vehicle_type_id":"4","last_reported":1751458870,"current_range_meters":21600,"station_id":"","pricing_plan_id":"cebpf4jnsgd1na2vs0mg"},{"bike_id":"ef355420-5a20-4635-bce2-02e0fdd3ba3a","system_id":"levelo_inurba_marseille","lat":43.30552,"lon":5.36559,"is_reserved":false,"is_disabled":false,"rental_uris":{"android":"levelo://app?vid=ef355420-5a20-4635-bce2-02e0fdd3ba3a","ios":"levelo://app?vid=ef355420-5a20-4635-bce2-02e0fdd3ba3a"},"vehicle_type_id":"4","last_reported":1751458870,"current_range_meters":21600,"station_id":"ce4bgs12rcd13ifvqcag","pricing_plan_id":"cebpf4jnsgd1na2vs0mg"},{"bike_id":"c7bb077d-9a0c-4461-87cb-18fc13758de5","system_id":"levelo_inurba_marseille","lat":43.24068,"lon":5.37765,"is_reserved":false,"is_disabled":false,"rental_uris":{"android":"levelo://app?vid=c7bb077d-9a0c-4461-87cb-18fc13758de5","ios":"levelo://app?vid=c7bb077d-9a0c-4461-87cb-18fc13758de5"},"vehicle_type_id":"4","last_reported":1751458870,"current_range_meters":21600,"station_id":"ce4bhnp2rcd13ifvqgvg","pricing_plan_id":"cebpf4jnsgd1na2vs0mg"},{"bike_id":"47d30eaa-7064-4301-b4fd-2f92dd279bdf","system_id":"levelo_inurba_marseille","lat":43.30555,"lon":5.36699,"is_reserved":false,"is_disabled":false,"rental_uris":{"android":"levelo://app?vid=47d30eaa-7064-4301-b4fd-2f92dd279bdf","ios":"levelo://app?vid=47d30eaa-7064-4301-b4fd-2f92dd279bdf"},"vehicle_type_id":"4","last_reported":1751458870,"current_range_meters":22000,"station_id":"ce4bgrp2rcd13ifvqc9g","pricing_plan_id":"cebpf4jnsgd1na2vs0mg"},{"bike_id":"7411bfc0-a478-4244-8897-a9a0c5089af3","system_id":"levelo_inurba_marseille","lat":43.28459,"lon":5.35892,"is_reserved":false,"is_disabled":false,"rental_uris":{"android":"levelo://app?vid=7411bfc0-a478-4244-8897-a9a0c5089af3","ios":"levelo://app?vid=7411bfc0-a478-4244-8897-a9a0c5089af3"},"vehicle_type_id":"4","last_reported":1751458870,"current_range_meters":22000,"station_id":"ce4bhah2rcd13ifvqei0","pricing_plan_id":"cebpf4jnsgd1na2vs0mg"},{"bike_id":"edf98d87-002f-4f7b-8f61-ebfda37f340e","system_id":"levelo_inurba_marseille","lat":43.25004,"lon":5.38923,"is_reserved":false,"is_disabled":false,"rental_uris":{"android":"levelo://app?vid=edf98d87-002f-4f7b-8f61-ebfda37f340e","ios":"levelo://app?vid=edf98d87-002f-4f7b-8f61-ebfda37f340e"},"vehicle_type_id":"4","last_reported":1751458870,"current_range_meters":22000,"station_id":"ce4bhgp2rcd13ifvqfd0","pricing_plan_id":"cebpf4jnsgd1na2vs0mg"},{"bike_id":"295e24d6-0cf4-40e8-94ca-c831c6afcd19","system_id":"levelo_inurba_marseille","lat":43.272,"lon":5.3916,"is_reserved":false,"is_disabled":false,"rental_uris":{"android":"levelo://app?vid=295e24d6-0cf4-40e8-94ca-c831c6afcd19","ios":"levelo://app?vid=295e24d6-0cf4-40e8-94ca-c831c6afcd19"},"vehicle_type_id":"4","last_reported":1751458870,"current_range_meters":22000,"station_id":"ce4bhhp2rcd13ifvqfm0","pricing_plan_id":"cebpf4jnsgd1na2vs0mg"},{"bike_id":"26e1cd53-ce80-4f26-8f93-18bdcecac2a5","system_id":"levelo_inurba_marseille","lat":43.30543,"lon":5.36543,"is_reserved":false,"is_disabled":false,"rental_uris":{"android":"levelo://app?vid=26e1cd53-ce80-4f26-8f93-18bdcecac2a5","ios":"levelo://app?vid=26e1cd53-ce80-4f26-8f93-18bdcecac2a5"},"vehicle_type_id":"4","last_reported":1751458870,"current_range_meters":22400,"station_id":"ce4bgs12rcd13ifvqcag","pricing_plan_id":"cebpf4jnsgd1na2vs0mg"},{"bike_id":"7240ec2e-578a-4730-99ce-9f906d19e054","system_id":"levelo_inurba_marseille","lat":43.33024,"lon":5.39048,"is_reserved":false,"is_disabled":false,"rental_uris":{"android":"levelo://app?vid=7240ec2e-578a-4730-99ce-9f906d19e054","ios":"levelo://app?vid=7240ec2e-578a-4730-99ce-9f906d19e054"},"vehicle_type_id":"4","last_reported":1751458870,"current_range_meters":22400,"station_id":"ce4bhr92rcd13ifvqhrg","pricing_plan_id":"cebpf4jnsgd1na2vs0mg"},{"bike_id":"bed3e8a6-b151-4512-8ecd-b49dd3969a2c","system_id":"levelo_inurba_marseille","lat":43.32112,"lon":5.3679,"is_reserved":false,"is_disabled":false,"rental_uris":{"android":"levelo://app?vid=bed3e8a6-b151-4512-8ecd-b49dd3969a2c","ios":"levelo://app?vid=bed3e8a6-b151-4512-8ecd-b49dd3969a2c"},"vehicle_type_id":"4","last_reported":1751458870,"current_range_meters":22400,"station_id":"ce4bhrh2rcd13ifvqhug","pricing_plan_id":"cebpf4jnsgd1na2vs0mg"},{"bike_id":"b2ce53ca-166b-417e-9d70-9bee393f75bb","system_id":"levelo_inurba_marseille","lat":43.21192,"lon":5.35071,"is_reserved":false,"is_disabled":false,"rental_uris":{"android":"levelo://app?vid=b2ce53ca-166b-417e-9d70-9bee393f75bb","ios":"levelo://app?vid=b2ce53ca-166b-417e-9d70-9bee393f75bb"},"vehicle_type_id":"4","last_reported":1751458870,"current_range_meters":22400,"station_id":"st_cvj6sg6p6f1abm77japg","pricing_plan_id":"cebpf4jnsgd1na2vs0mg"},{"bike_id":"cf278666-cda3-4d20-bd52-fec1b5386fc8","system_id":"levelo_inurba_marseille","lat":43.292984,"lon":5.374663,"is_reserved":false,"is_disabled":false,"rental_uris":{"android":"levelo://app?vid=cf278666-cda3-4d20-bd52-fec1b5386fc8","ios":"levelo://app?vid=cf278666-cda3-4d20-bd52-fec1b5386fc8"},"vehicle_type_id":"4","last_reported":1751458870,"current_range_meters":22800,"station_id":"ce4bgi12rcd13ifvqb70","pricing_plan_id":"cebpf4jnsgd1na2vs0mg"},{"bike_id":"ce156c84-be5f-4d34-878f-647d82209ce2","system_id":"levelo_inurba_marseille","lat":43.29891,"lon":5.38132,"is_reserved":false,"is_disabled":false,"rental_uris":{"android":"levelo://app?vid=ce156c84-be5f-4d34-878f-647d82209ce2","ios":"levelo://app?vid=ce156c84-be5f-4d34-878f-647d82209ce2"},"vehicle_type_id":"4","last_reported":1751458870,"current_range_meters":22800,"station_id":"ce4bgj12rcd13ifvqbc0","pricing_plan_id":"cebpf4jnsgd1na2vs0mg"},{"bike_id":"caec532c-fdfc-47d5-895f-d56f13e73a26","system_id":"levelo_inurba_marseille","lat":43.25002,"lon":5.38923,"is_reserved":false,"is_disabled":false,"rental_uris":{"android":"levelo://app?vid=caec532c-fdfc-47d5-895f-d56f13e73a26","ios":"levelo://app?vid=caec532c-fdfc-47d5-895f-d56f13e73a26"},"vehicle_type_id":"4","last_reported":1751458870,"current_range_meters":22800,"station_id":"ce4bhgp2rcd13ifvqfd0","pricing_plan_id":"cebpf4jnsgd1na2vs0mg"},{"bike_id":"a0480f1d-3573-45b7-8d76-2022e256c551","system_id":"levelo_inurba_marseille","lat":43.259115,"lon":5.409015,"is_reserved":false,"is_disabled":false,"rental_uris":{"android":"levelo://app?vid=a0480f1d-3573-45b7-8d76-2022e256c551","ios":"levelo://app?vid=a0480f1d-3573-45b7-8d76-2022e256c551"},"vehicle_type_id":"4","last_reported":1751458870,"current_range_meters":22800,"station_id":"ce4bhm92rcd13ifvqglg","pricing_plan_id":"cebpf4jnsgd1na2vs0mg"},{"bike_id":"cc04118e-9312-4bf8-9106-d64e829afbaa","system_id":"levelo_inurba_marseille","lat":43.211974,"lon":5.350745,"is_reserved":false,"is_disabled":false,"rental_uris":{"android":"levelo://app?vid=cc04118e-9312-4bf8-9106-d64e829afbaa","ios":"levelo://app?vid=cc04118e-9312-4bf8-9106-d64e829afbaa"},"vehicle_type_id":"4","last_reported":1751458870,"current_range_meters":22800,"station_id":"st_cvj6sg6p6f1abm77japg","pricing_plan_id":"cebpf4jnsgd1na2vs0mg"},{"bike_id":"1c8ab180-05fd-405f-9922-b2b2c2d5142f","system_id":"levelo_inurba_marseille","lat":43.338018,"lon":5.381131,"is_reserved":false,"is_disabled":false,"rental_uris":{"android":"levelo://app?vid=1c8ab180-05fd-405f-9922-b2b2c2d5142f","ios":"levelo://app?vid=1c8ab180-05fd-405f-9922-b2b2c2d5142f"},"vehicle_type_id":"4","last_reported":1751458870,"current_range_meters":23200,"station_id":"","pricing_plan_id":"cebpf4jnsgd1na2vs0mg"},{"bike_id":"0a6db884-de5b-44bd-b30b-d9566f92101b","system_id":"levelo_inurba_marseille","lat":43.295171,"lon":5.390382,"is_reserved":false,"is_disabled":false,"rental_uris":{"android":"levelo://app?vid=0a6db884-de5b-44bd-b30b-d9566f92101b","ios":"levelo://app?vid=0a6db884-de5b-44bd-b30b-d9566f92101b"},"vehicle_type_id":"4","last_reported":1751458870,"current_range_meters":23200,"station_id":"ce4bh3p2rcd13ifvqdp0","pricing_plan_id":"cebpf4jnsgd1na2vs0mg"},{"bike_id":"5958b7a1-7395-44fe-892b-2f858ae78dbf","system_id":"levelo_inurba_marseille","lat":43.28361,"lon":5.3864,"is_reserved":false,"is_disabled":false,"rental_uris":{"android":"levelo://app?vid=5958b7a1-7395-44fe-892b-2f858ae78dbf","ios":"levelo://app?vid=5958b7a1-7395-44fe-892b-2f858ae78dbf"},"vehicle_type_id":"4","last_reported":1751458870,"current_range_meters":23200,"station_id":"ce4bh492rcd13ifvqdvg","pricing_plan_id":"cebpf4jnsgd1na2vs0mg"},{"bike_id":"3d7a446a-0c98-451e-962f-e764da1933e8","system_id":"levelo_inurba_marseille","lat":43.29164,"lon":5.37179,"is_reserved":false,"is_disabled":false,"rental_uris":{"android":"levelo://app?vid=3d7a446a-0c98-451e-962f-e764da1933e8","ios":"levelo://app?vid=3d7a446a-0c98-451e-962f-e764da1933e8"},"vehicle_type_id":"4","last_reported":1751458870,"current_range_meters":23200,"station_id":"ce4bha92rcd13ifvqeh0","pricing_plan_id":"cebpf4jnsgd1na2vs0mg"},{"bike_id":"65e3d840-faa6-40f2-be9b-c49f12e4f83d","system_id":"levelo_inurba_marseille","lat":43.28614,"lon":5.35099,"is_reserved":false,"is_disabled":false,"rental_uris":{"android":"levelo://app?vid=65e3d840-faa6-40f2-be9b-c49f12e4f83d","ios":"levelo://app?vid=65e3d840-faa6-40f2-be9b-c49f12e4f83d"},"vehicle_type_id":"4","last_reported":1751458870,"current_range_meters":23200,"station_id":"ce4bhch2rcd13ifvqeug","pricing_plan_id":"cebpf4jnsgd1na2vs0mg"},{"bike_id":"80d6404f-4a8e-4138-b523-4d171794159b","system_id":"levelo_inurba_marseille","lat":43.27914,"lon":5.3958,"is_reserved":false,"is_disabled":false,"rental_uris":{"android":"levelo://app?vid=80d6404f-4a8e-4138-b523-4d171794159b","ios":"levelo://app?vid=80d6404f-4a8e-4138-b523-4d171794159b"},"vehicle_type_id":"4","last_reported":1751458870,"current_range_meters":23200,"station_id":"ce4bhf92rcd13ifvqf40","pricing_plan_id":"cebpf4jnsgd1na2vs0mg"},{"bike_id":"26ea36f0-4bc6-4834-ad15-df6df86c753d","system_id":"levelo_inurba_marseille","lat":43.26695,"lon":5.38281,"is_reserved":false,"is_disabled":false,"rental_uris":{"android":"levelo://app?vid=26ea36f0-4bc6-4834-ad15-df6df86c753d","ios":"levelo://app?vid=26ea36f0-4bc6-4834-ad15-df6df86c753d"},"vehicle_type_id":"4","last_reported":1751458870,"current_range_meters":23200,"station_id":"ce4bhg92rcd13ifvqf90","pricing_plan_id":"cebpf4jnsgd1na2vs0mg"},{"bike_id":"8ff53f83-329b-4f41-9561-3c88c9b3212b","system_id":"levelo_inurba_marseille","lat":43.26493,"lon":5.39543,"is_reserved":false,"is_disabled":false,"rental_uris":{"android":"levelo://app?vid=8ff53f83-329b-4f41-9561-3c88c9b3212b","ios":"levelo://app?vid=8ff53f83-329b-4f41-9561-3c88c9b3212b"},"vehicle_type_id":"4","last_reported":1751458870,"current_range_meters":23200,"station_id":"ce4bhi12rcd13ifvqfq0","pricing_plan_id":"cebpf4jnsgd1na2vs0mg"},{"bike_id":"d58715e7-44cf-4b78-9cc5-5010aafd8b86","system_id":"levelo_inurba_marseille","lat":43.29594,"lon":5.38132,"is_reserved":false,"is_disabled":false,"rental_uris":{"android":"levelo://app?vid=d58715e7-44cf-4b78-9cc5-5010aafd8b86","ios":"levelo://app?vid=d58715e7-44cf-4b78-9cc5-5010aafd8b86"},"vehicle_type_id":"4","last_reported":1751458870,"current_range_meters":24000,"station_id":"ce4bgl12rcd13ifvqbo0","pricing_plan_id":"cebpf4jnsgd1na2vs0mg"},{"bike_id":"13030e96-dd69-45c1-b4d7-8b560758c324","system_id":"levelo_inurba_marseille","lat":43.31485,"lon":5.37313,"is_reserved":false,"is_disabled":false,"rental_uris":{"android":"levelo://app?vid=13030e96-dd69-45c1-b4d7-8b560758c324","ios":"levelo://app?vid=13030e96-dd69-45c1-b4d7-8b560758c324"},"vehicle_type_id":"4","last_reported":1751458870,"current_range_meters":24000,"station_id":"ce4bgt12rcd13ifvqcd0","pricing_plan_id":"cebpf4jnsgd1na2vs0mg"},{"bike_id":"7443f92e-09dc-4ac2-8942-9d7728c529d3","system_id":"levelo_inurba_marseille","lat":43.29037,"lon":5.38655,"is_reserved":false,"is_disabled":false,"rental_uris":{"android":"levelo://app?vid=7443f92e-09dc-4ac2-8942-9d7728c529d3","ios":"levelo://app?vid=7443f92e-09dc-4ac2-8942-9d7728c529d3"},"vehicle_type_id":"4","last_reported":1751458870,"current_range_meters":24000,"station_id":"ce4bh4p2rcd13ifvqe0g","pricing_plan_id":"cebpf4jnsgd1na2vs0mg"},{"bike_id":"2079a3bc-2800-4acf-8843-fca1c0d8af56","system_id":"levelo_inurba_marseille","lat":43.23155,"lon":5.43717,"is_reserved":false,"is_disabled":false,"rental_uris":{"android":"levelo://app?vid=2079a3bc-2800-4acf-8843-fca1c0d8af56","ios":"levelo://app?vid=2079a3bc-2800-4acf-8843-fca1c0d8af56"},"vehicle_type_id":"4","last_reported":1751458870,"current_range_meters":24000,"station_id":"ce4bhmp2rcd13ifvqgog","pricing_plan_id":"cebpf4jnsgd1na2vs0mg"},{"bike_id":"e1e7c15b-5724-49e7-b0fb-d736d8c51249","system_id":"levelo_inurba_marseille","lat":43.24173,"lon":5.39727,"is_reserved":false,"is_disabled":false,"rental_uris":{"android":"levelo://app?vid=e1e7c15b-5724-49e7-b0fb-d736d8c51249","ios":"levelo://app?vid=e1e7c15b-5724-49e7-b0fb-d736d8c51249"},"vehicle_type_id":"4","last_reported":1751458870,"current_range_meters":24000,"station_id":"ce4bhn12rcd13ifvqgpg","pricing_plan_id":"cebpf4jnsgd1na2vs0mg"},{"bike_id":"5f1e5526-9ff8-4075-8194-48a897f058b4","system_id":"levelo_inurba_marseille","lat":43.211966,"lon":5.350656,"is_reserved":false,"is_disabled":false,"rental_uris":{"android":"levelo://app?vid=5f1e5526-9ff8-4075-8194-48a897f058b4","ios":"levelo://app?vid=5f1e5526-9ff8-4075-8194-48a897f058b4"},"vehicle_type_id":"4","last_reported":1751458870,"current_range_meters":24000,"station_id":"st_cvj6sg6p6f1abm77japg","pricing_plan_id":"cebpf4jnsgd1na2vs0mg"},{"bike_id":"3eabe1e2-f9f5-41cb-a4ed-73ca7f909c5c","system_id":"levelo_inurba_marseille","lat":43.21191,"lon":5.35073,"is_reserved":false,"is_disabled":false,"rental_uris":{"android":"levelo://app?vid=3eabe1e2-f9f5-41cb-a4ed-73ca7f909c5c","ios":"levelo://app?vid=3eabe1e2-f9f5-41cb-a4ed-73ca7f909c5c"},"vehicle_type_id":"4","last_reported":1751458870,"current_range_meters":24000,"station_id":"st_cvj6sg6p6f1abm77japg","pricing_plan_id":"cebpf4jnsgd1na2vs0mg"},{"bike_id":"6a1ec410-e9bf-434a-9b14-90ec13e5e5a3","system_id":"levelo_inurba_marseille","lat":43.284094,"lon":5.349811,"is_reserved":false,"is_disabled":false,"rental_uris":{"android":"levelo://app?vid=6a1ec410-e9bf-434a-9b14-90ec13e5e5a3","ios":"levelo://app?vid=6a1ec410-e9bf-434a-9b14-90ec13e5e5a3"},"vehicle_type_id":"4","last_reported":1751458870,"current_range_meters":24400,"station_id":"","pricing_plan_id":"cebpf4jnsgd1na2vs0mg"},{"bike_id":"3ef0f6c0-6718-45d6-88a7-9a832740f9fe","system_id":"levelo_inurba_marseille","lat":43.30144,"lon":5.38081,"is_reserved":false,"is_disabled":false,"rental_uris":{"android":"levelo://app?vid=3ef0f6c0-6718-45d6-88a7-9a832740f9fe","ios":"levelo://app?vid=3ef0f6c0-6718-45d6-88a7-9a832740f9fe"},"vehicle_type_id":"4","last_reported":1751458870,"current_range_meters":24400,"station_id":"ce4bgjp2rcd13ifvqbh0","pricing_plan_id":"cebpf4jnsgd1na2vs0mg"},{"bike_id":"31b34b6b-193d-41ec-8c44-cd3ef5bbd64a","system_id":"levelo_inurba_marseille","lat":43.29036,"lon":5.37567,"is_reserved":false,"is_disabled":false,"rental_uris":{"android":"levelo://app?vid=31b34b6b-193d-41ec-8c44-cd3ef5bbd64a","ios":"levelo://app?vid=31b34b6b-193d-41ec-8c44-cd3ef5bbd64a"},"vehicle_type_id":"4","last_reported":1751458870,"current_range_meters":24400,"station_id":"ce4bh692rcd13ifvqe90","pricing_plan_id":"cebpf4jnsgd1na2vs0mg"},{"bike_id":"bf0491e9-a69f-493e-8da1-46af98e17e7e","system_id":"levelo_inurba_marseille","lat":43.2655,"lon":5.37288,"is_reserved":false,"is_disabled":false,"rental_uris":{"android":"levelo://app?vid=bf0491e9-a69f-493e-8da1-46af98e17e7e","ios":"levelo://app?vid=bf0491e9-a69f-493e-8da1-46af98e17e7e"},"vehicle_type_id":"4","last_reported":1751458870,"current_range_meters":24400,"station_id":"ce4bhg12rcd13ifvqf70","pricing_plan_id":"cebpf4jnsgd1na2vs0mg"},{"bike_id":"f39b85de-0410-47ff-b2f4-30d13c91286c","system_id":"levelo_inurba_marseille","lat":43.27839,"lon":5.39219,"is_reserved":false,"is_disabled":false,"rental_uris":{"android":"levelo://app?vid=f39b85de-0410-47ff-b2f4-30d13c91286c","ios":"levelo://app?vid=f39b85de-0410-47ff-b2f4-30d13c91286c"},"vehicle_type_id":"4","last_reported":1751458870,"current_range_meters":24400,"station_id":"ce4bhjp2rcd13ifvqga0","pricing_plan_id":"cebpf4jnsgd1na2vs0mg"},{"bike_id":"f89c4b4e-8496-4009-a879-494292d7747b","system_id":"levelo_inurba_marseille","lat":43.2457,"lon":5.39492,"is_reserved":false,"is_disabled":false,"rental_uris":{"android":"levelo://app?vid=f89c4b4e-8496-4009-a879-494292d7747b","ios":"levelo://app?vid=f89c4b4e-8496-4009-a879-494292d7747b"},"vehicle_type_id":"4","last_reported":1751458870,"current_range_meters":24400,"station_id":"ce4bhlp2rcd13ifvqgjg","pricing_plan_id":"cebpf4jnsgd1na2vs0mg"},{"bike_id":"31fab6ac-cee8-4404-87e8-15e94cf1944e","system_id":"levelo_inurba_marseille","lat":43.24173,"lon":5.36404,"is_reserved":false,"is_disabled":false,"rental_uris":{"android":"levelo://app?vid=31fab6ac-cee8-4404-87e8-15e94cf1944e","ios":"levelo://app?vid=31fab6ac-cee8-4404-87e8-15e94cf1944e"},"vehicle_type_id":"4","last_reported":1751458870,"current_range_meters":24400,"station_id":"cpo36qri1sfpv3e86is0","pricing_plan_id":"cebpf4jnsgd1na2vs0mg"},{"bike_id":"ba926bfc-9632-4680-b0ed-32a040d6fb83","system_id":"levelo_inurba_marseille","lat":43.211874,"lon":5.350779,"is_reserved":false,"is_disabled":false,"rental_uris":{"android":"levelo://app?vid=ba926bfc-9632-4680-b0ed-32a040d6fb83","ios":"levelo://app?vid=ba926bfc-9632-4680-b0ed-32a040d6fb83"},"vehicle_type_id":"4","last_reported":1751458870,"current_range_meters":24400,"station_id":"st_cvj6sg6p6f1abm77japg","pricing_plan_id":"cebpf4jnsgd1na2vs0mg"},{"bike_id":"b13877a6-4825-4d82-b46b-67fa8ad66c5d","system_id":"levelo_inurba_marseille","lat":43.212012,"lon":5.350658,"is_reserved":false,"is_disabled":false,"rental_uris":{"android":"levelo://app?vid=b13877a6-4825-4d82-b46b-67fa8ad66c5d","ios":"levelo://app?vid=b13877a6-4825-4d82-b46b-67fa8ad66c5d"},"vehicle_type_id":"4","last_reported":1751458870,"current_range_meters":24400,"station_id":"st_cvj6sg6p6f1abm77japg","pricing_plan_id":"cebpf4jnsgd1na2vs0mg"},{"bike_id":"7712491c-e18b-4b09-bb79-30880b357c07","system_id":"levelo_inurba_marseille","lat":43.21195,"lon":5.35079,"is_reserved":false,"is_disabled":false,"rental_uris":{"android":"levelo://app?vid=7712491c-e18b-4b09-bb79-30880b357c07","ios":"levelo://app?vid=7712491c-e18b-4b09-bb79-30880b357c07"},"vehicle_type_id":"4","last_reported":1751458870,"current_range_meters":24400,"station_id":"st_cvj6sg6p6f1abm77japg","pricing_plan_id":"cebpf4jnsgd1na2vs0mg"},{"bike_id":"7af9f78b-8216-43ee-a369-4a24baea425e","system_id":"levelo_inurba_marseille","lat":43.31364,"lon":5.36743,"is_reserved":false,"is_disabled":false,"rental_uris":{"android":"levelo://app?vid=7af9f78b-8216-43ee-a369-4a24baea425e","ios":"levelo://app?vid=7af9f78b-8216-43ee-a369-4a24baea425e"},"vehicle_type_id":"4","last_reported":1751458870,"current_range_meters":24800,"station_id":"ce4bgr92rcd13ifvqc6g","pricing_plan_id":"cebpf4jnsgd1na2vs0mg"},{"bike_id":"0a3dfcb1-1042-49e8-989a-145199f2ad51","system_id":"levelo_inurba_marseille","lat":43.305634,"lon":5.367039,"is_reserved":false,"is_disabled":false,"rental_uris":{"android":"levelo://app?vid=0a3dfcb1-1042-49e8-989a-145199f2ad51","ios":"levelo://app?vid=0a3dfcb1-1042-49e8-989a-145199f2ad51"},"vehicle_type_id":"4","last_reported":1751458870,"current_range_meters":24800,"station_id":"ce4bgrp2rcd13ifvqc9g","pricing_plan_id":"cebpf4jnsgd1na2vs0mg"},{"bike_id":"4810ea37-96e2-4658-a4ae-61ecf5afcf05","system_id":"levelo_inurba_marseille","lat":43.25926,"lon":5.40893,"is_reserved":false,"is_disabled":false,"rental_uris":{"android":"levelo://app?vid=4810ea37-96e2-4658-a4ae-61ecf5afcf05","ios":"levelo://app?vid=4810ea37-96e2-4658-a4ae-61ecf5afcf05"},"vehicle_type_id":"4","last_reported":1751458870,"current_range_meters":24800,"station_id":"ce4bhm92rcd13ifvqglg","pricing_plan_id":"cebpf4jnsgd1na2vs0mg"},{"bike_id":"559ed6ee-7ed1-41b8-a7b9-94151f20221c","system_id":"levelo_inurba_marseille","lat":43.32113,"lon":5.367814,"is_reserved":false,"is_disabled":false,"rental_uris":{"android":"levelo://app?vid=559ed6ee-7ed1-41b8-a7b9-94151f20221c","ios":"levelo://app?vid=559ed6ee-7ed1-41b8-a7b9-94151f20221c"},"vehicle_type_id":"4","last_reported":1751458870,"current_range_meters":24800,"station_id":"ce4bhrh2rcd13ifvqhug","pricing_plan_id":"cebpf4jnsgd1na2vs0mg"},{"bike_id":"c9cd1ed4-febf-4f0f-8537-8f86861c9beb","system_id":"levelo_inurba_marseille","lat":43.211961,"lon":5.350701,"is_reserved":false,"is_disabled":false,"rental_uris":{"android":"levelo://app?vid=c9cd1ed4-febf-4f0f-8537-8f86861c9beb","ios":"levelo://app?vid=c9cd1ed4-febf-4f0f-8537-8f86861c9beb"},"vehicle_type_id":"4","last_reported":1751458870,"current_range_meters":24800,"station_id":"st_cvj6sg6p6f1abm77japg","pricing_plan_id":"cebpf4jnsgd1na2vs0mg"},{"bike_id":"c9f39888-5614-431d-b5d6-ab01b2c2f00b","system_id":"levelo_inurba_marseille","lat":43.29201,"lon":5.39329,"is_reserved":false,"is_disabled":false,"rental_uris":{"android":"levelo://app?vid=c9f39888-5614-431d-b5d6-ab01b2c2f00b","ios":"levelo://app?vid=c9f39888-5614-431d-b5d6-ab01b2c2f00b"},"vehicle_type_id":"4","last_reported":1751458870,"current_range_meters":25200,"station_id":"ce4bh192rcd13ifvqdd0","pricing_plan_id":"cebpf4jnsgd1na2vs0mg"},{"bike_id":"9a99bb6d-63c4-49ed-b89b-7e34262bbc5d","system_id":"levelo_inurba_marseille","lat":43.2654,"lon":5.37296,"is_reserved":false,"is_disabled":false,"rental_uris":{"android":"levelo://app?vid=9a99bb6d-63c4-49ed-b89b-7e34262bbc5d","ios":"levelo://app?vid=9a99bb6d-63c4-49ed-b89b-7e34262bbc5d"},"vehicle_type_id":"4","last_reported":1751458870,"current_range_meters":25200,"station_id":"ce4bhg12rcd13ifvqf70","pricing_plan_id":"cebpf4jnsgd1na2vs0mg"},{"bike_id":"abd1416b-81f1-4449-a615-560af9c0d4f4","system_id":"levelo_inurba_marseille","lat":43.32352,"lon":5.36753,"is_reserved":false,"is_disabled":false,"rental_uris":{"android":"levelo://app?vid=abd1416b-81f1-4449-a615-560af9c0d4f4","ios":"levelo://app?vid=abd1416b-81f1-4449-a615-560af9c0d4f4"},"vehicle_type_id":"4","last_reported":1751458870,"current_range_meters":25200,"station_id":"ce4bhsh2rcd13ifvqi2g","pricing_plan_id":"cebpf4jnsgd1na2vs0mg"},{"bike_id":"47071393-6407-461a-bc57-7f776e86d630","system_id":"levelo_inurba_marseille","lat":43.28614,"lon":5.37063,"is_reserved":false,"is_disabled":false,"rental_uris":{"android":"levelo://app?vid=47071393-6407-461a-bc57-7f776e86d630","ios":"levelo://app?vid=47071393-6407-461a-bc57-7f776e86d630"},"vehicle_type_id":"4","last_reported":1751458870,"current_range_meters":25200,"station_id":"ce4bht12rcd13ifvqi60","pricing_plan_id":"cebpf4jnsgd1na2vs0mg"},{"bike_id":"1c1b460a-f28f-4998-8896-997c68c68489","system_id":"levelo_inurba_marseille","lat":43.23196,"lon":5.35556,"is_reserved":false,"is_disabled":false,"rental_uris":{"android":"levelo://app?vid=1c1b460a-f28f-4998-8896-997c68c68489","ios":"levelo://app?vid=1c1b460a-f28f-4998-8896-997c68c68489"},"vehicle_type_id":"4","last_reported":1751458870,"current_range_meters":25200,"station_id":"ce4bhu92rcd13ifvqi70","pricing_plan_id":"cebpf4jnsgd1na2vs0mg"},{"bike_id":"66311bb7-5b65-4f88-b45e-b2acc43acce2","system_id":"levelo_inurba_marseille","lat":43.21741,"lon":5.34608,"is_reserved":false,"is_disabled":false,"rental_uris":{"android":"levelo://app?vid=66311bb7-5b65-4f88-b45e-b2acc43acce2","ios":"levelo://app?vid=66311bb7-5b65-4f88-b45e-b2acc43acce2"},"vehicle_type_id":"4","last_reported":1751458870,"current_range_meters":25200,"station_id":"st_cvj6r9ubvosntc0bgbag","pricing_plan_id":"cebpf4jnsgd1na2vs0mg"},{"bike_id":"b3d7a6ac-4ad8-404e-91ae-53d96dbbd9fb","system_id":"levelo_inurba_marseille","lat":43.21204,"lon":5.35067,"is_reserved":false,"is_disabled":false,"rental_uris":{"android":"levelo://app?vid=b3d7a6ac-4ad8-404e-91ae-53d96dbbd9fb","ios":"levelo://app?vid=b3d7a6ac-4ad8-404e-91ae-53d96dbbd9fb"},"vehicle_type_id":"4","last_reported":1751458870,"current_range_meters":25200,"station_id":"st_cvj6sg6p6f1abm77japg","pricing_plan_id":"cebpf4jnsgd1na2vs0mg"},{"bike_id":"4b8da722-ee9e-48a4-a5e5-3a8a10364708","system_id":"levelo_inurba_marseille","lat":43.312283,"lon":5.378258,"is_reserved":false,"is_disabled":false,"rental_uris":{"android":"levelo://app?vid=4b8da722-ee9e-48a4-a5e5-3a8a10364708","ios":"levelo://app?vid=4b8da722-ee9e-48a4-a5e5-3a8a10364708"},"vehicle_type_id":"4","last_reported":1751458870,"current_range_meters":25600,"station_id":"","pricing_plan_id":"cebpf4jnsgd1na2vs0mg"},{"bike_id":"9c5f6f2b-b4fe-4abd-90e1-346377586e8a","system_id":"levelo_inurba_marseille","lat":43.23969,"lon":5.36638,"is_reserved":false,"is_disabled":false,"rental_uris":{"android":"levelo://app?vid=9c5f6f2b-b4fe-4abd-90e1-346377586e8a","ios":"levelo://app?vid=9c5f6f2b-b4fe-4abd-90e1-346377586e8a"},"vehicle_type_id":"4","last_reported":1751458870,"current_range_meters":25600,"station_id":"ce4bhi12rcd13ifvqfp0","pricing_plan_id":"cebpf4jnsgd1na2vs0mg"},{"bike_id":"575184ce-9a60-48f7-8044-77d82e7fe8a1","system_id":"levelo_inurba_marseille","lat":43.25896,"lon":5.4088,"is_reserved":false,"is_disabled":false,"rental_uris":{"android":"levelo://app?vid=575184ce-9a60-48f7-8044-77d82e7fe8a1","ios":"levelo://app?vid=575184ce-9a60-48f7-8044-77d82e7fe8a1"},"vehicle_type_id":"4","last_reported":1751458870,"current_range_meters":25600,"station_id":"ce4bhm92rcd13ifvqglg","pricing_plan_id":"cebpf4jnsgd1na2vs0mg"},{"bike_id":"f3d578d9-a7ae-45df-b7a8-93985e3d3c0a","system_id":"levelo_inurba_marseille","lat":43.32103,"lon":5.36795,"is_reserved":false,"is_disabled":false,"rental_uris":{"android":"levelo://app?vid=f3d578d9-a7ae-45df-b7a8-93985e3d3c0a","ios":"levelo://app?vid=f3d578d9-a7ae-45df-b7a8-93985e3d3c0a"},