{"last_updated":1732727285,"ttl":60,"version":"2.2","data":{"bikes":[{"bike_id":"de94f814-aa40-4e25-87cc-3f20151cf77f","system_id":"levelo_inurba_marseille","lat":43.28692,"lon":5.37402,"is_reserved":false,"is_disabled":false,"rental_uris":{"android":"levelo://app?vid=de94f814-aa40-4e25-87cc-3f20151cf77f","ios":"levelo://app?vid=de94f814-aa40-4e25-87cc-3f20151cf77f"},"vehicle_type_id":"4","last_reported":1732727285,"current_range_meters":28400,"station_id":"ce4bh3p2rcd13ifvqdq0","pricing_plan_id":"cebpf4jnsgd1na2vs0mg"},{"bike_id":"b856c8b4-412d-4c25-bdd4-e6b29aed04cb","system_id":"levelo_inurba_marseille","lat":43.22932,"lon":5.35384,"is_reserved":false,"is_disabled":false,"rental_uris":{"android":"levelo://app?vid=b856c8b4-412d-4c25-bdd4-e6b29aed04cb","ios":"levelo://app?vid=b856c8b4-412d-4c25-bdd4-e6b29aed04cb"},"vehicle_type_id":"4","last_reported":1732727285,"current_range_meters":39200,"station_id":"cpo3532slgdg3j2ikp40","pricing_plan_id":"cebpf4jnsgd1na2vs0mg"},{"bike_id":"0d47fb7f-9267-413e-9e66-7159b4653236","system_id":"levelo_inurba_marseille","lat":43.28713,"lon":5.36085,"is_reserved":false,"is_disabled":false,"rental_uris":{"android":"levelo://app?vid=0d47fb7f-9267-413e-9e66-7159b4653236","ios":"levelo://app?vid=0d47fb7f-9267-413e-9e66-7159b4653236"},"vehicle_type_id":"4","last_reported":1732727285,"current_range_meters":39200,"station_id":"cki0cbj6b192h4jlfktg","pricing_plan_id":"cebpf4jnsgd1na2vs0mg"},{"bike_id":"d2cf7a78-7eb1-4d32-aa77-ae8ed51e3e3f","system_id":"levelo_inurba_marseille","lat":43.33765,"lon":5.37432,"is_reserved":false,"is_disabled":false,"rental_uris":{"android":"levelo://app?vid=d2cf7a78-7eb1-4d32-aa77-ae8ed51e3e3f","ios":"levelo://app?vid=d2cf7a78-7eb1-4d32-aa77-ae8ed51e3e3f"},"vehicle_type_id":"4","last_reported":1732727285,"current_range_meters":17600,"station_id":"","pricing_plan_id":"cebpf4jnsgd1na2vs0mg"},{"bike_id":"1375f2a3-ec68-426b-a53e-6a666ff8f86c","system_id":"levelo_inurba_marseille","lat":43.23153,"lon":5.43709,"is_reserved":false,"is_disabled":false,"rental_uris":{"android":"levelo://app?vid=1375f2a3-ec68-426b-a53e-6a666ff8f86c","ios":"levelo://app?vid=1375f2a3-ec68-426b-a53e-6a666ff8f86c"},"vehicle_type_id":"4","last_reported":1732727285,"current_range_meters":16400,"station_id":"ce4bhmp2rcd13ifvqgog","pricing_plan_id":"cebpf4jnsgd1na2vs0mg"},{"bike_id":"a8f72556-0910-4cee-bb7d-938fe8eb47bf","system_id":"levelo_inurba_marseille","lat":43.2945,"lon":5.39749,"is_reserved":false,"is_disabled":false,"rental_uris":{"android":"levelo://app?vid=a8f72556-0910-4cee-bb7d-938fe8eb47bf","ios":"levelo://app?vid=a8f72556-0910-4cee-bb7d-938fe8eb47bf"},"vehicle_type_id":"4","last_reported":1732727285,"current_range_meters":11600,"station_id":"ce4bh3h2rcd13ifvqdo0","pricing_plan_id":"cebpf4jnsgd1na2vs0mg"},{"bike_id":"612e33b9-daea-4064-aee5-ff5f1d785efe","system_id":"levelo_inurba_marseille","lat":43.3042,"lon":5.41282,"is_reserved":false,"is_disabled":false,"rental_uris":{"android":"levelo://app?vid=612e33b9-daea-4064-aee5-ff5f1d785efe","ios":"levelo://app?vid=612e33b9-daea-4064-aee5-ff5f1d785efe"},"vehicle_type_id":"4","last_reported":1732727285,"current_range_meters":36800,"station_id":"ce4bhop2rcd13ifvqh8g","pricing_plan_id":"cebpf4jnsgd1na2vs0mg"},{"bike_id":"e2fcd88a-5b50-4059-b110-891c7847ea5f","system_id":"levelo_inurba_marseille","lat":43.30666,"lon":5.36859,"is_reserved":false,"is_disabled":true,"rental_uris":{"android":"levelo://app?vid=e2fcd88a-5b50-4059-b110-891c7847ea5f","ios":"levelo://app?vid=e2fcd88a-5b50-4059-b110-891c7847ea5f"},"vehicle_type_id":"4","last_reported":1732727285,"current_range_meters":0,"station_id":"","pricing_plan_id":"cebpf4jnsgd1na2vs0mg"},{"bike_id":"58f5923a-726d-43ae-a1f5-b6f01a43ddd3","system_id":"levelo_inurba_marseille","lat":43.30938,"lon":5.40144,"is_reserved":false,"is_disabled":false,"rental_uris":{"android":"levelo://app?vid=58f5923a-726d-43ae-a1f5-b6f01a43ddd3","ios":"levelo://app?vid=58f5923a-726d-43ae-a1f5-b6f01a43ddd3"},"vehicle_type_id":"4","last_reported":1732727285,"current_range_meters":38800,"station_id":"ce4bgvp2rcd13ifvqct0","pricing_plan_id":"cebpf4jnsgd1na2vs0mg"},{"bike_id":"ce15a521-8a1d-47b7-92c8-091ca367d00e","system_id":"levelo_inurba_marseille","lat":43.33754,"lon":5.37447,"is_reserved":false,"is_disabled":false,"rental_uris":{"android":"levelo://app?vid=ce15a521-8a1d-47b7-92c8-091ca367d00e","ios":"levelo://app?vid=ce15a521-8a1d-47b7-92c8-091ca367d00e"},"vehicle_type_id":"4","last_reported":1732727285,"current_range_meters":38800,"station_id":"","pricing_plan_id":"cebpf4jnsgd1na2vs0mg"},{"bike_id":"e3edc257-506d-48c5-a728-60fad5fc863e","system_id":"levelo_inurba_marseille","lat":43.30784,"lon":5.37657,"is_reserved":false,"is_disabled":false,"rental_uris":{"android":"levelo://app?vid=e3edc257-506d-48c5-a728-60fad5fc863e","ios":"levelo://app?vid=e3edc257-506d-48c5-a728-60fad5fc863e"},"vehicle_type_id":"4","last_reported":1732727285,"current_range_meters":25200,"station_id":"ce4bgv92rcd13ifvqcq0","pricing_plan_id":"cebpf4jnsgd1na2vs0mg"},{"bike_id":"88bc3b85-98c9-4394-bed6-61a09e438729","system_id":"levelo_inurba_marseille","lat":43.26788,"lon":5.3941,"is_reserved":false,"is_disabled":true,"rental_uris":{"android":"levelo://app?vid=88bc3b85-98c9-4394-bed6-61a09e438729","ios":"levelo://app?vid=88bc3b85-98c9-4394-bed6-61a09e438729"},"vehicle_type_id":"4","last_reported":1732727285,"current_range_meters":0,"station_id":"ce4bhh12rcd13ifvqfg0","pricing_plan_id":"cebpf4jnsgd1na2vs0mg"},{"bike_id":"0338a168-3a46-442c-a778-00318a9252d7","system_id":"levelo_inurba_marseille","lat":43.23197,"lon":5.35558,"is_reserved":false,"is_disabled":false,"rental_uris":{"android":"levelo://app?vid=0338a168-3a46-442c-a778-00318a9252d7","ios":"levelo://app?vid=0338a168-3a46-442c-a778-00318a9252d7"},"vehicle_type_id":"4","last_reported":1732727285,"current_range_meters":5600,"station_id":"ce4bhu92rcd13ifvqi70","pricing_plan_id":"cebpf4jnsgd1na2vs0mg"},{"bike_id":"7a4329b9-23b9-4290-94ff-b65ad4d24039","system_id":"levelo_inurba_marseille","lat":43.2991,"lon":5.37473,"is_reserved":false,"is_disabled":true,"rental_uris":{"android":"levelo://app?vid=7a4329b9-23b9-4290-94ff-b65ad4d24039","ios":"levelo://app?vid=7a4329b9-23b9-4290-94ff-b65ad4d24039"},"vehicle_type_id":"4","last_reported":1732727285,"current_range_meters":32800,"station_id":"ce4bgjh2rcd13ifvqbg0","pricing_plan_id":"cebpf4jnsgd1na2vs0mg"},{"bike_id":"159bac19-9cba-45ce-a9ad-1f0b29b7ead8","system_id":"levelo_inurba_marseille","lat":43.28005,"lon":5.4166,"is_reserved":false,"is_disabled":false,"rental_uris":{"android":"levelo://app?vid=159bac19-9cba-45ce-a9ad-1f0b29b7ead8","ios":"levelo://app?vid=159bac19-9cba-45ce-a9ad-1f0b29b7ead8"},"vehicle_type_id":"4","last_reported":1732727285,"current_range_meters":33600,"station_id":"ce4bho12rcd13ifvqh1g","pricing_plan_id":"cebpf4jnsgd1na2vs0mg"},{"bike_id":"a733fb32-967a-4599-a44f-e9b1eb967eb2","system_id":"levelo_inurba_marseille","lat":43.28162,"lon":5.42626,"is_reserved":false,"is_disabled":false,"rental_uris":{"android":"levelo://app?vid=a733fb32-967a-4599-a44f-e9b1eb967eb2","ios":"levelo://app?vid=a733fb32-967a-4599-a44f-e9b1eb967eb2"},"vehicle_type_id":"4","last_reported":1732727285,"current_range_meters":20400,"station_id":"ce4bhnh2rcd13ifvqgug","pricing_plan_id":"cebpf4jnsgd1na2vs0mg"},{"bike_id":"dd4d37fd-527d-4c39-afdd-3d019c17cebf","system_id":"levelo_inurba_marseille","lat":43.286,"lon":5.3706,"is_reserved":false,"is_disabled":false,"rental_uris":{"android":"levelo://app?vid=dd4d37fd-527d-4c39-afdd-3d019c17cebf","ios":"levelo://app?vid=dd4d37fd-527d-4c39-afdd-3d019c17cebf"},"vehicle_type_id":"4","last_reported":1732727285,"current_range_meters":38800,"station_id":"ce4bht12rcd13ifvqi60","pricing_plan_id":"cebpf4jnsgd1na2vs0mg"},{"bike_id":"d2c565c3-49ac-41f0-9d7b-7fe3e42952fe","system_id":"levelo_inurba_marseille","lat":43.28103,"lon":5.37835,"is_reserved":false,"is_disabled":false,"rental_uris":{"android":"levelo://app?vid=d2c565c3-49ac-41f0-9d7b-7fe3e42952fe","ios":"levelo://app?vid=d2c565c3-49ac-41f0-9d7b-7fe3e42952fe"},"vehicle_type_id":"4","last_reported":1732727285,"current_range_meters":27200,"station_id":"ce4bha12rcd13ifvqee0","pricing_plan_id":"cebpf4jnsgd1na2vs0mg"},{"bike_id":"6f7949e1-de87-4a49-8620-fec27e04447f","system_id":"levelo_inurba_marseille","lat":43.33717,"lon":5.39182,"is_reserved":false,"is_disabled":false,"rental_uris":{"android":"levelo://app?vid=6f7949e1-de87-4a49-8620-fec27e04447f","ios":"levelo://app?vid=6f7949e1-de87-4a49-8620-fec27e04447f"},"vehicle_type_id":"4","last_reported":1732727285,"current_range_meters":38000,"station_id":"ce4bhr92rcd13ifvqhsg","pricing_plan_id":"cebpf4jnsgd1na2vs0mg"},{"bike_id":"4a1d5113-430f-45da-b354-afd7cc72a37e","system_id":"levelo_inurba_marseille","lat":43.30128,"lon":5.38777,"is_reserved":false,"is_disabled":true,"rental_uris":{"android":"levelo://app?vid=4a1d5113-430f-45da-b354-afd7cc72a37e","ios":"levelo://app?vid=4a1d5113-430f-45da-b354-afd7cc72a37e"},"vehicle_type_id":"4","last_reported":1732727285,"current_range_meters":0,"station_id":"ce4bghh2rcd13ifvqb60","pricing_plan_id":"cebpf4jnsgd1na2vs0mg"},{"bike_id":"b935d459-99de-4d43-af2d-c6281db05845","system_id":"levelo_inurba_marseille","lat":43.27378,"lon":5.36248,"is_reserved":false,"is_disabled":false,"rental_uris":{"android":"levelo://app?vid=b935d459-99de-4d43-af2d-c6281db05845","ios":"levelo://app?vid=b935d459-99de-4d43-af2d-c6281db05845"},"vehicle_type_id":"4","last_reported":1732727285,"current_range_meters":37600,"station_id":"ce4bhbh2rcd13ifvqeo0","pricing_plan_id":"cebpf4jnsgd1na2vs0mg"},{"bike_id":"e34a061f-de5e-4b98-8258-22fb9ff32112","system_id":"levelo_inurba_marseille","lat":43.29527,"lon":5.39034,"is_reserved":false,"is_disabled":false,"rental_uris":{"android":"levelo://app?vid=e34a061f-de5e-4b98-8258-22fb9ff32112","ios":"levelo://app?vid=e34a061f-de5e-4b98-8258-22fb9ff32112"},"vehicle_type_id":"4","last_reported":1732727285,"current_range_meters":27600,"station_id":"ce4bh3p2rcd13ifvqdp0","pricing_plan_id":"cebpf4jnsgd1na2vs0mg"},{"bike_id":"88c0a23c-decf-469d-95fc-e70f9cd8eb3b","system_id":"levelo_inurba_marseille","lat":43.33744,"lon":5.37438,"is_reserved":false,"is_disabled":false,"rental_uris":{"android":"levelo://app?vid=88c0a23c-decf-469d-95fc-e70f9cd8eb3b","ios":"levelo://app?vid=88c0a23c-decf-469d-95fc-e70f9cd8eb3b"},"vehicle_type_id":"4","last_reported":1732727285,"current_range_meters":35200,"station_id":"","pricing_plan_id":"cebpf4jnsgd1na2vs0mg"},{"bike_id":"d93067c3-4848-4450-992d-7925dfe41b1d","system_id":"levelo_inurba_marseille","lat":43.25583,"lon":5.38241,"is_reserved":false,"is_disabled":false,"rental_uris":{"android":"levelo://app?vid=d93067c3-4848-4450-992d-7925dfe41b1d","ios":"levelo://app?vid=d93067c3-4848-4450-992d-7925dfe41b1d"},"vehicle_type_id":"4","last_reported":1732727285,"current_range_meters":38800,"station_id":"ce4bhih2rcd13ifvqfs0","pricing_plan_id":"cebpf4jnsgd1na2vs0mg"},{"bike_id":"8c471198-5bbf-4563-a1f8-22b542a69c53","system_id":"levelo_inurba_marseille","lat":43.28464,"lon":5.35892,"is_reserved":false,"is_disabled":false,"rental_uris":{"android":"levelo://app?vid=8c471198-5bbf-4563-a1f8-22b542a69c53","ios":"levelo://app?vid=8c471198-5bbf-4563-a1f8-22b542a69c53"},"vehicle_type_id":"4","last_reported":1732727285,"current_range_meters":16800,"station_id":"ce4bhah2rcd13ifvqei0","pricing_plan_id":"cebpf4jnsgd1na2vs0mg"},{"bike_id":"d208b70b-cfeb-47de-81b0-222dbd574cb7","system_id":"levelo_inurba_marseille","lat":43.23069,"lon":5.35496,"is_reserved":false,"is_disabled":true,"rental_uris":{"android":"levelo://app?vid=d208b70b-cfeb-47de-81b0-222dbd574cb7","ios":"levelo://app?vid=d208b70b-cfeb-47de-81b0-222dbd574cb7"},"vehicle_type_id":"4","last_reported":1732727285,"current_range_meters":0,"station_id":"cpo3342slgdg3j2ifvpg","pricing_plan_id":"cebpf4jnsgd1na2vs0mg"},{"bike_id":"930f5252-2979-4faf-b29e-71a154faf38b","system_id":"levelo_inurba_marseille","lat":43.27312,"lon":5.3908,"is_reserved":false,"is_disabled":false,"rental_uris":{"android":"levelo://app?vid=930f5252-2979-4faf-b29e-71a154faf38b","ios":"levelo://app?vid=930f5252-2979-4faf-b29e-71a154faf38b"},"vehicle_type_id":"4","last_reported":1732727285,"current_range_meters":8000,"station_id":"ce4bhgp2rcd13ifvqfe0","pricing_plan_id":"cebpf4jnsgd1na2vs0mg"},{"bike_id":"5249c720-4ecf-407f-95ee-f4da1041dcb5","system_id":"levelo_inurba_marseille","lat":43.26682,"lon":5.3827,"is_reserved":false,"is_disabled":true,"rental_uris":{"android":"levelo://app?vid=5249c720-4ecf-407f-95ee-f4da1041dcb5","ios":"levelo://app?vid=5249c720-4ecf-407f-95ee-f4da1041dcb5"},"vehicle_type_id":"4","last_reported":1732727285,"current_range_meters":33600,"station_id":"ce4bhg92rcd13ifvqf90","pricing_plan_id":"cebpf4jnsgd1na2vs0mg"},{"bike_id":"813cded9-64a9-4f61-b428-4f87def47696","system_id":"levelo_inurba_marseille","lat":43.31726,"lon":5.42421,"is_reserved":false,"is_disabled":false,"rental_uris":{"android":"levelo://app?vid=813cded9-64a9-4f61-b428-4f87def47696","ios":"levelo://app?vid=813cded9-64a9-4f61-b428-4f87def47696"},"vehicle_type_id":"4","last_reported":1732727285,"current_range_meters":38000,"station_id":"ce4bhp92rcd13ifvqhbg","pricing_plan_id":"cebpf4jnsgd1na2vs0mg"},{"bike_id":"4709c438-f4af-415a-a919-d27302b75dca","system_id":"levelo_inurba_marseille","lat":43.23196,"lon":5.35555,"is_reserved":false,"is_disabled":true,"rental_uris":{"android":"levelo://app?vid=4709c438-f4af-415a-a919-d27302b75dca","ios":"levelo://app?vid=4709c438-f4af-415a-a919-d27302b75dca"},"vehicle_type_id":"4","last_reported":1732727285,"current_range_meters":0,"station_id":"ce4bhu92rcd13ifvqi70","pricing_plan_id":"cebpf4jnsgd1na2vs0mg"},{"bike_id":"1278d076-d3cf-4c3a-b659-8577b61b408d","system_id":"levelo_inurba_marseille","lat":43.29274,"lon":5.36848,"is_reserved":false,"is_disabled":false,"rental_uris":{"android":"levelo://app?vid=1278d076-d3cf-4c3a-b659-8577b61b408d","ios":"levelo://app?vid=1278d076-d3cf-4c3a-b659-8577b61b408d"},"vehicle_type_id":"4","last_reported":1732727285,"current_range_meters":38800,"station_id":"ce4bhbp2rcd13ifvqesg","pricing_plan_id":"cebpf4jnsgd1na2vs0mg"},{"bike_id":"35940c90-8855-433b-866b-aea08114c322","system_id":"levelo_inurba_marseille","lat":43.31537,"lon":5.38036,"is_reserved":false,"is_disabled":false,"rental_uris":{"android":"levelo://app?vid=35940c90-8855-433b-866b-aea08114c322","ios":"levelo://app?vid=35940c90-8855-433b-866b-aea08114c322"},"vehicle_type_id":"4","last_reported":1732727285,"current_range_meters":16400,"station_id":"ce4bhsp2rcd13ifvqi50","pricing_plan_id":"cebpf4jnsgd1na2vs0mg"},{"bike_id":"869146c7-107f-4a8d-a9de-076457eea766","system_id":"levelo_inurba_marseille","lat":43.21672,"lon":5.34643,"is_reserved":false,"is_disabled":false,"rental_uris":{"android":"levelo://app?vid=869146c7-107f-4a8d-a9de-076457eea766","ios":"levelo://app?vid=869146c7-107f-4a8d-a9de-076457eea766"},"vehicle_type_id":"4","last_reported":1732727285,"current_range_meters":16000,"station_id":"","pricing_plan_id":"cebpf4jnsgd1na2vs0mg"},{"bike_id":"d6d1854d-c533-4e21-aac0-8992e9ca1ced","system_id":"levelo_inurba_marseille","lat":43.28934,"lon":5.36398,"is_reserved":false,"is_disabled":false,"rental_uris":{"android":"levelo://app?vid=d6d1854d-c533-4e21-aac0-8992e9ca1ced","ios":"levelo://app?vid=d6d1854d-c533-4e21-aac0-8992e9ca1ced"},"vehicle_type_id":"4","last_reported":1732727285,"current_range_meters":26800,"station_id":"ce4bhc92rcd13ifvqetg","pricing_plan_id":"cebpf4jnsgd1na2vs0mg"},{"bike_id":"20078036-1043-4eba-af7c-7b289a18c12a","system_id":"levelo_inurba_marseille","lat":43.28467,"lon":5.35896,"is_reserved":false,"is_disabled":false,"rental_uris":{"android":"levelo://app?vid=20078036-1043-4eba-af7c-7b289a18c12a","ios":"levelo://app?vid=20078036-1043-4eba-af7c-7b289a18c12a"},"vehicle_type_id":"4","last_reported":1732727285,"current_range_meters":12800,"station_id":"ce4bhah2rcd13ifvqei0","pricing_plan_id":"cebpf4jnsgd1na2vs0mg"},{"bike_id":"dce9e62c-7a30-4c9e-bdeb-4296c4711245","system_id":"levelo_inurba_marseille","lat":43.28941,"lon":5.36629,"is_reserved":false,"is_disabled":false,"rental_uris":{"android":"levelo://app?vid=dce9e62c-7a30-4c9e-bdeb-4296c4711245","ios":"levelo://app?vid=dce9e62c-7a30-4c9e-bdeb-4296c4711245"},"vehicle_type_id":"4","last_reported":1732727285,"current_range_meters":38800,"station_id":"ce4bhap2rcd13ifvqek0","pricing_plan_id":"cebpf4jnsgd1na2vs0mg"},{"bike_id":"816f7628-36cf-4fdc-afe5-1734046c5937","system_id":"levelo_inurba_marseille","lat":43.26802,"lon":5.39408,"is_reserved":false,"is_disabled":true,"rental_uris":{"android":"levelo://app?vid=816f7628-36cf-4fdc-afe5-1734046c5937","ios":"levelo://app?vid=816f7628-36cf-4fdc-afe5-1734046c5937"},"vehicle_type_id":"4","last_reported":1732727285,"current_range_meters":0,"station_id":"ce4bhh12rcd13ifvqfg0","pricing_plan_id":"cebpf4jnsgd1na2vs0mg"},{"bike_id":"775aba22-baf5-4ce5-b645-5941a20cb104","system_id":"levelo_inurba_marseille","lat":43.27379,"lon":5.36252,"is_reserved":false,"is_disabled":true,"rental_uris":{"android":"levelo://app?vid=775aba22-baf5-4ce5-b645-5941a20cb104","ios":"levelo://app?vid=775aba22-baf5-4ce5-b645-5941a20cb104"},"vehicle_type_id":"4","last_reported":1732727285,"current_range_meters":38800,"station_id":"ce4bhbh2rcd13ifvqeo0","pricing_plan_id":"cebpf4jnsgd1na2vs0mg"},{"bike_id":"319ab403-ae1c-45a4-b891-4fbb26af7805","system_id":"levelo_inurba_marseille","lat":43.30281,"lon":5.37696,"is_reserved":false,"is_disabled":true,"rental_uris":{"android":"levelo://app?vid=319ab403-ae1c-45a4-b891-4fbb26af7805","ios":"levelo://app?vid=319ab403-ae1c-45a4-b891-4fbb26af7805"},"vehicle_type_id":"4","last_reported":1732727285,"current_range_meters":800,"station_id":"ce4bguh2rcd13ifvqcj0","pricing_plan_id":"cebpf4jnsgd1na2vs0mg"},{"bike_id":"10515226-3d19-49b0-b8c2-7bbf5cbf72e4","system_id":"levelo_inurba_marseille","lat":43.29001,"lon":5.35613,"is_reserved":false,"is_disabled":true,"rental_uris":{"android":"levelo://app?vid=10515226-3d19-49b0-b8c2-7bbf5cbf72e4","ios":"levelo://app?vid=10515226-3d19-49b0-b8c2-7bbf5cbf72e4"},"vehicle_type_id":"4","last_reported":1732727285,"current_range_meters":28400,"station_id":"ce4bhb92rcd13ifvqen0","pricing_plan_id":"cebpf4jnsgd1na2vs0mg"},{"bike_id":"44d0ce5b-7340-4813-8bf1-a2d0f001d8ae","system_id":"levelo_inurba_marseille","lat":43.2919,"lon":5.35809,"is_reserved":false,"is_disabled":false,"rental_uris":{"android":"levelo://app?vid=44d0ce5b-7340-4813-8bf1-a2d0f001d8ae","ios":"levelo://app?vid=44d0ce5b-7340-4813-8bf1-a2d0f001d8ae"},"vehicle_type_id":"4","last_reported":1732727285,"current_range_meters":38400,"station_id":"ce4bhb12rcd13ifvqel0","pricing_plan_id":"cebpf4jnsgd1na2vs0mg"},{"bike_id":"4d4c884f-6933-49c0-8899-f9856d90f44d","system_id":"levelo_inurba_marseille","lat":43.29748,"lon":5.37971,"is_reserved":false,"is_disabled":true,"rental_uris":{"android":"levelo://app?vid=4d4c884f-6933-49c0-8899-f9856d90f44d","ios":"levelo://app?vid=4d4c884f-6933-49c0-8899-f9856d90f44d"},"vehicle_type_id":"4","last_reported":1732727285,"current_range_meters":0,"station_id":"","pricing_plan_id":"cebpf4jnsgd1na2vs0mg"},{"bike_id":"9c9363cd-5aa7-407a-9720-bbd048bddba3","system_id":"levelo_inurba_marseille","lat":43.28929,"lon":5.36651,"is_reserved":false,"is_disabled":false,"rental_uris":{"android":"levelo://app?vid=9c9363cd-5aa7-407a-9720-bbd048bddba3","ios":"levelo://app?vid=9c9363cd-5aa7-407a-9720-bbd048bddba3"},"vehicle_type_id":"4","last_reported":1732727285,"current_range_meters":22800,"station_id":"ce4bhap2rcd13ifvqek0","pricing_plan_id":"cebpf4jnsgd1na2vs0mg"},{"bike_id":"9009be37-c6b1-406b-b0a8-fbab355f715e","system_id":"levelo_inurba_marseille","lat":43.33761,"lon":5.37497,"is_reserved":false,"is_disabled":false,"rental_uris":{"android":"levelo://app?vid=9009be37-c6b1-406b-b0a8-fbab355f715e","ios":"levelo://app?vid=9009be37-c6b1-406b-b0a8-fbab355f715e"},"vehicle_type_id":"4","last_reported":1732727285,"current_range_meters":38400,"station_id":"","pricing_plan_id":"cebpf4jnsgd1na2vs0mg"},{"bike_id":"12195c7e-c593-444c-b413-5faa4ae74731","system_id":"levelo_inurba_marseille","lat":43.29035,"lon":5.38638,"is_reserved":false,"is_disabled":false,"rental_uris":{"android":"levelo://app?vid=12195c7e-c593-444c-b413-5faa4ae74731","ios":"levelo://app?vid=12195c7e-c593-444c-b413-5faa4ae74731"},"vehicle_type_id":"4","last_reported":1732727285,"current_range_meters":34800,"station_id":"ce4bh4p2rcd13ifvqe0g","pricing_plan_id":"cebpf4jnsgd1na2vs0mg"},{"bike_id":"79e0b48c-a0ec-44c8-b7cc-20d7d7adc530","system_id":"levelo_inurba_marseille","lat":43.31994,"lon":5.38151,"is_reserved":false,"is_disabled":false,"rental_uris":{"android":"levelo://app?vid=79e0b48c-a0ec-44c8-b7cc-20d7d7adc530","ios":"levelo://app?vid=79e0b48c-a0ec-44c8-b7cc-20d7d7adc530"},"vehicle_type_id":"4","last_reported":1732727285,"current_range_meters":39200,"station_id":"ce4bhr12rcd13ifvqhpg","pricing_plan_id":"cebpf4jnsgd1na2vs0mg"},{"bike_id":"787da3e5-5eaa-466d-a942-f9510f3bbd6d","system_id":"levelo_inurba_marseille","lat":43.27922,"lon":5.39588,"is_reserved":false,"is_disabled":true,"rental_uris":{"android":"levelo://app?vid=787da3e5-5eaa-466d-a942-f9510f3bbd6d","ios":"levelo://app?vid=787da3e5-5eaa-466d-a942-f9510f3bbd6d"},"vehicle_type_id":"4","last_reported":1732727285,"current_range_meters":0,"station_id":"ce4bhf92rcd13ifvqf40","pricing_plan_id":"cebpf4jnsgd1na2vs0mg"},{"bike_id":"299f58fd-6e29-4e06-a65a-1ba6949f2bdc","system_id":"levelo_inurba_marseille","lat":43.33786,"lon":5.37392,"is_reserved":false,"is_disabled":false,"rental_uris":{"android":"levelo://app?vid=299f58fd-6e29-4e06-a65a-1ba6949f2bdc","ios":"levelo://app?vid=299f58fd-6e29-4e06-a65a-1ba6949f2bdc"},"vehicle_type_id":"4","last_reported":1732727285,"current_range_meters":35600,"station_id":"","pricing_plan_id":"cebpf4jnsgd1na2vs0mg"},{"bike_id":"4d809776-4d2b-4bf5-8aa6-666b5b1fd18f","system_id":"levelo_inurba_marseille","lat":43.33725,"lon":5.39185,"is_reserved":false,"is_disabled":false,"rental_uris":{"android":"levelo://app?vid=4d809776-4d2b-4bf5-8aa6-666b5b1fd18f","ios":"levelo://app?vid=4d809776-4d2b-4bf5-8aa6-666b5b1fd18f"},"vehicle_type_id":"4","last_reported":1732727285,"current_range_meters":37600,"station_id":"ce4bhr92rcd13ifvqhsg","pricing_plan_id":"cebpf4jnsgd1na2vs0mg"},{"bike_id":"d54fecca-4b0f-4c8c-b86f-8e0b2deee676","system_id":"levelo_inurba_marseille","lat":43.2926,"lon":5.38442,"is_reserved":false,"is_disabled":false,"rental_uris":{"android":"levelo://app?vid=d54fecca-4b0f-4c8c-b86f-8e0b2deee676","ios":"levelo://app?vid=d54fecca-4b0f-4c8c-b86f-8e0b2deee676"},"vehicle_type_id":"4","last_reported":1732727285,"current_range_meters":38800,"station_id":"ce4bh692rcd13ifvqea0","pricing_plan_id":"cebpf4jnsgd1na2vs0mg"},{"bike_id":"7397c5dd-bc44-4036-b25c-2e280838c38d","system_id":"levelo_inurba_marseille","lat":43.29262,"lon":5.4091,"is_reserved":false,"is_disabled":false,"rental_uris":{"android":"levelo://app?vid=7397c5dd-bc44-4036-b25c-2e280838c38d","ios":"levelo://app?vid=7397c5dd-bc44-4036-b25c-2e280838c38d"},"vehicle_type_id":"4","last_reported":1732727285,"current_range_meters":17600,"station_id":"ce4bh192rcd13ifvqdc0","pricing_plan_id":"cebpf4jnsgd1na2vs0mg"},{"bike_id":"24b2d706-14f2-4a05-a5fd-2a7358cbae81","system_id":"levelo_inurba_marseille","lat":43.246435,"lon":5.388897,"is_reserved":false,"is_disabled":true,"rental_uris":{"android":"levelo://app?vid=24b2d706-14f2-4a05-a5fd-2a7358cbae81","ios":"levelo://app?vid=24b2d706-14f2-4a05-a5fd-2a7358cbae81"},"vehicle_type_id":"4","last_reported":1732727285,"current_range_meters":2800,"station_id":"ce4bhg12rcd13ifvqf60","pricing_plan_id":"cebpf4jnsgd1na2vs0mg"},{"bike_id":"7dccca16-9c81-46ba-8ec7-8ac114550316","system_id":"levelo_inurba_marseille","lat":43.337444,"lon":5.374475,"is_reserved":false,"is_disabled":false,"rental_uris":{"android":"levelo://app?vid=7dccca16-9c81-46ba-8ec7-8ac114550316","ios":"levelo://app?vid=7dccca16-9c81-46ba-8ec7-8ac114550316"},"vehicle_type_id":"4","last_reported":1732727285,"current_range_meters":36800,"station_id":"","pricing_plan_id":"cebpf4jnsgd1na2vs0mg"},{"bike_id":"1697880b-530a-4ef4-aae7-9e8087057a05","system_id":"levelo_inurba_marseille","lat":43.28939,"lon":5.36633,"is_reserved":false,"is_disabled":false,"rental_uris":{"android":"levelo://app?vid=1697880b-530a-4ef4-aae7-9e8087057a05","ios":"levelo://app?vid=1697880b-530a-4ef4-aae7-9e8087057a05"},"vehicle_type_id":"4","last_reported":1732727285,"current_range_meters":24000,"station_id":"ce4bhap2rcd13ifvqek0","pricing_plan_id":"cebpf4jnsgd1na2vs0mg"},{"bike_id":"a47e3d53-51d2-41e2-ab0a-09d2d97de65e","system_id":"levelo_inurba_marseille","lat":43.30112,"lon":5.38784,"is_reserved":false,"is_disabled":false,"rental_uris":{"android":"levelo://app?vid=a47e3d53-51d2-41e2-ab0a-09d2d97de65e","ios":"levelo://app?vid=a47e3d53-51d2-41e2-ab0a-09d2d97de65e"},"vehicle_type_id":"4","last_reported":1732727285,"current_range_meters":17600,"station_id":"","pricing_plan_id":"cebpf4jnsgd1na2vs0mg"},{"bike_id":"dace7007-1751-41b0-a44b-b909aa597fba","system_id":"levelo_inurba_marseille","lat":43.28941,"lon":5.36642,"is_reserved":false,"is_disabled":false,"rental_uris":{"android":"levelo://app?vid=dace7007-1751-41b0-a44b-b909aa597fba","ios":"levelo://app?vid=dace7007-1751-41b0-a44b-b909aa597fba"},"vehicle_type_id":"4","last_reported":1732727285,"current_range_meters":20400,"station_id":"ce4bhap2rcd13ifvqek0","pricing_plan_id":"cebpf4jnsgd1na2vs0mg"},{"bike_id":"1e965ffb-5809-4382-8532-fa0e409a6982","system_id":"levelo_inurba_marseille","lat":43.29926,"lon":5.37465,"is_reserved":false,"is_disabled":false,"rental_uris":{"android":"levelo://app?vid=1e965ffb-5809-4382-8532-fa0e409a6982","ios":"levelo://app?vid=1e965ffb-5809-4382-8532-fa0e409a6982"},"vehicle_type_id":"4","last_reported":1732727285,"current_range_meters":7200,"station_id":"ce4bgjh2rcd13ifvqbg0","pricing_plan_id":"cebpf4jnsgd1na2vs0mg"},{"bike_id":"7b45e0d0-86a8-47b5-8420-74a05761af04","system_id":"levelo_inurba_marseille","lat":43.27918,"lon":5.39573,"is_reserved":false,"is_disabled":true,"rental_uris":{"android":"levelo://app?vid=7b45e0d0-86a8-47b5-8420-74a05761af04","ios":"levelo://app?vid=7b45e0d0-86a8-47b5-8420-74a05761af04"},"vehicle_type_id":"4","last_reported":1732727285,"current_range_meters":0,"station_id":"ce4bhf92rcd13ifvqf40","pricing_plan_id":"cebpf4jnsgd1na2vs0mg"},{"bike_id":"de376f6f-452b-4e39-a040-fd4dd2d8d59c","system_id":"levelo_inurba_marseille","lat":43.29193,"lon":5.35815,"is_reserved":false,"is_disabled":false,"rental_uris":{"android":"levelo://app?vid=de376f6f-452b-4e39-a040-fd4dd2d8d59c","ios":"levelo://app?vid=de376f6f-452b-4e39-a040-fd4dd2d8d59c"},"vehicle_type_id":"4","last_reported":1732727285,"current_range_meters":24000,"station_id":"ce4bhb12rcd13ifvqel0","pricing_plan_id":"cebpf4jnsgd1na2vs0mg"},{"bike_id":"8c4430f2-0850-4b5d-b4d9-d7491dacde54","system_id":"levelo_inurba_marseille","lat":43.30798,"lon":5.38161,"is_reserved":false,"is_disabled":false,"rental_uris":{"android":"levelo://app?vid=8c4430f2-0850-4b5d-b4d9-d7491dacde54","ios":"levelo://app?vid=8c4430f2-0850-4b5d-b4d9-d7491dacde54"},"vehicle_type_id":"4","last_reported":1732727285,"current_range_meters":4800,"station_id":"ce4bgt12rcd13ifvqce0","pricing_plan_id":"cebpf4jnsgd1na2vs0mg"},{"bike_id":"ae27d36e-a736-4bd0-9e1e-8d7ee12e2e51","system_id":"levelo_inurba_marseille","lat":43.29602,"lon":5.37718,"is_reserved":false,"is_disabled":true,"rental_uris":{"android":"levelo://app?vid=ae27d36e-a736-4bd0-9e1e-8d7ee12e2e51","ios":"levelo://app?vid=ae27d36e-a736-4bd0-9e1e-8d7ee12e2e51"},"vehicle_type_id":"4","last_reported":1732727285,"current_range_meters":33200,"station_id":"ce4bgi92rcd13ifvqb90","pricing_plan_id":"cebpf4jnsgd1na2vs0mg"},{"bike_id":"08d87c7f-e149-4eab-bef9-b2a2ad42d73d","system_id":"levelo_inurba_marseille","lat":43.27299,"lon":5.39085,"is_reserved":false,"is_disabled":false,"rental_uris":{"android":"levelo://app?vid=08d87c7f-e149-4eab-bef9-b2a2ad42d73d","ios":"levelo://app?vid=08d87c7f-e149-4eab-bef9-b2a2ad42d73d"},"vehicle_type_id":"4","last_reported":1732727285,"current_range_meters":14000,"station_id":"ce4bhgp2rcd13ifvqfe0","pricing_plan_id":"cebpf4jnsgd1na2vs0mg"},{"bike_id":"6c6a93bf-e171-448f-8ea9-1241abd089a1","system_id":"levelo_inurba_marseille","lat":43.27812,"lon":5.40712,"is_reserved":false,"is_disabled":true,"rental_uris":{"android":"levelo://app?vid=6c6a93bf-e171-448f-8ea9-1241abd089a1","ios":"levelo://app?vid=6c6a93bf-e171-448f-8ea9-1241abd089a1"},"vehicle_type_id":"4","last_reported":1732727285,"current_range_meters":0,"station_id":"ce4bhnh2rcd13ifvqgtg","pricing_plan_id":"cebpf4jnsgd1na2vs0mg"},{"bike_id":"5651a39b-8d82-4c0b-8a80-5a77b9d40861","system_id":"levelo_inurba_marseille","lat":43.26203,"lon":5.37423,"is_reserved":false,"is_disabled":false,"rental_uris":{"android":"levelo://app?vid=5651a39b-8d82-4c0b-8a80-5a77b9d40861","ios":"levelo://app?vid=5651a39b-8d82-4c0b-8a80-5a77b9d40861"},"vehicle_type_id":"4","last_reported":1732727285,"current_range_meters":25200,"station_id":"ce4bhgp2rcd13ifvqfc0","pricing_plan_id":"cebpf4jnsgd1na2vs0mg"},{"bike_id":"39b04c21-6a6a-40a7-a489-741c2b67c9bd","system_id":"levelo_inurba_marseille","lat":43.33732,"lon":5.39196,"is_reserved":false,"is_disabled":false,"rental_uris":{"android":"levelo://app?vid=39b04c21-6a6a-40a7-a489-741c2b67c9bd","ios":"levelo://app?vid=39b04c21-6a6a-40a7-a489-741c2b67c9bd"},"vehicle_type_id":"4","last_reported":1732727285,"current_range_meters":9200,"station_id":"ce4bhr92rcd13ifvqhsg","pricing_plan_id":"cebpf4jnsgd1na2vs0mg"},{"bike_id":"792fdbf5-23f6-43fa-bef0-cbc93d0216d2","system_id":"levelo_inurba_marseille","lat":43.27815,"lon":5.40712,"is_reserved":false,"is_disabled":false,"rental_uris":{"android":"levelo://app?vid=792fdbf5-23f6-43fa-bef0-cbc93d0216d2","ios":"levelo://app?vid=792fdbf5-23f6-43fa-bef0-cbc93d0216d2"},"vehicle_type_id":"4","last_reported":1732727285,"current_range_meters":39200,"station_id":"ce4bhnh2rcd13ifvqgtg","pricing_plan_id":"cebpf4jnsgd1na2vs0mg"},{"bike_id":"59310c24-aada-47db-9c55-db87d9c8f60e","system_id":"levelo_inurba_marseille","lat":43.2898,"lon":5.37832,"is_reserved":false,"is_disabled":true,"rental_uris":{"android":"levelo://app?vid=59310c24-aada-47db-9c55-db87d9c8f60e","ios":"levelo://app?vid=59310c24-aada-47db-9c55-db87d9c8f60e"},"vehicle_type_id":"4","last_reported":1732727285,"current_range_meters":8000,"station_id":"ce4bh9p2rcd13ifvqed0","pricing_plan_id":"cebpf4jnsgd1na2vs0mg"},{"bike_id":"ddfd1ce1-0cd7-4ab5-bbe3-73efb36cb424","system_id":"levelo_inurba_marseille","lat":43.32287,"lon":5.38271,"is_reserved":false,"is_disabled":false,"rental_uris":{"android":"levelo://app?vid=ddfd1ce1-0cd7-4ab5-bbe3-73efb36cb424","ios":"levelo://app?vid=ddfd1ce1-0cd7-4ab5-bbe3-73efb36cb424"},"vehicle_type_id":"4","last_reported":1732727285,"current_range_meters":36000,"station_id":"ce4bhr12rcd13ifvqhqg","pricing_plan_id":"cebpf4jnsgd1na2vs0mg"},{"bike_id":"ae3d4ffe-33fc-407f-ad2d-28c698437b25","system_id":"levelo_inurba_marseille","lat":43.248034,"lon":5.374543,"is_reserved":false,"is_disabled":false,"rental_uris":{"android":"levelo://app?vid=ae3d4ffe-33fc-407f-ad2d-28c698437b25","ios":"levelo://app?vid=ae3d4ffe-33fc-407f-ad2d-28c698437b25"},"vehicle_type_id":"4","last_reported":1732727285,"current_range_meters":39200,"station_id":"ce4bhgh2rcd13ifvqfb0","pricing_plan_id":"cebpf4jnsgd1na2vs0mg"},{"bike_id":"62cd45f4-2e20-4b9f-a856-4639e9b3cdb9","system_id":"levelo_inurba_marseille","lat":43.26792,"lon":5.39405,"is_reserved":false,"is_disabled":false,"rental_uris":{"android":"levelo://app?vid=62cd45f4-2e20-4b9f-a856-4639e9b3cdb9","ios":"levelo://app?vid=62cd45f4-2e20-4b9f-a856-4639e9b3cdb9"},"vehicle_type_id":"4","last_reported":1732727285,"current_range_meters":12400,"station_id":"ce4bhh12rcd13ifvqfg0","pricing_plan_id":"cebpf4jnsgd1na2vs0mg"},{"bike_id":"8589275c-8ab7-478e-938a-0935b0c6313b","system_id":"levelo_inurba_marseille","lat":43.29003,"lon":5.35618,"is_reserved":false,"is_disabled":false,"rental_uris":{"android":"levelo://app?vid=8589275c-8ab7-478e-938a-0935b0c6313b","ios":"levelo://app?vid=8589275c-8ab7-478e-938a-0935b0c6313b"},"vehicle_type_id":"4","last_reported":1732727285,"current_range_meters":18800,"station_id":"ce4bhb92rcd13ifvqen0","pricing_plan_id":"cebpf4jnsgd1na2vs0mg"},{"bike_id":"6cfa1451-8ba9-4922-9658-2ba2ff8ff1fe","system_id":"levelo_inurba_marseille","lat":43.30331,"lon":5.40449,"is_reserved":false,"is_disabled":false,"rental_uris":{"android":"levelo://app?vid=6cfa1451-8ba9-4922-9658-2ba2ff8ff1fe","ios":"levelo://app?vid=6cfa1451-8ba9-4922-9658-2ba2ff8ff1fe"},"vehicle_type_id":"4","last_reported":1732727285,"current_range_meters":36800,"station_id":"ce4bh012rcd13ifvqd10","pricing_plan_id":"cebpf4jnsgd1na2vs0mg"},{"bike_id":"36296f5c-0176-4be0-97c8-7930cda9c369","system_id":"levelo_inurba_marseille","lat":43.32105,"lon":5.3678,"is_reserved":false,"is_disabled":false,"rental_uris":{"android":"levelo://app?vid=36296f5c-0176-4be0-97c8-7930cda9c369","ios":"levelo://app?vid=36296f5c-0176-4be0-97c8-7930cda9c369"},"vehicle_type_id":"4","last_reported":1732727285,"current_range_meters":16000,"station_id":"ce4bhrh2rcd13ifvqhug","pricing_plan_id":"cebpf4jnsgd1na2vs0mg"},{"bike_id":"96cdd0ad-a1a2-4470-b55e-ba37c4b1b839","system_id":"levelo_inurba_marseille","lat":43.30426,"lon":5.38883,"is_reserved":false,"is_disabled":false,"rental_uris":{"android":"levelo://app?vid=96cdd0ad-a1a2-4470-b55e-ba37c4b1b839","ios":"levelo://app?vid=96cdd0ad-a1a2-4470-b55e-ba37c4b1b839"},"vehicle_type_id":"4","last_reported":1732727285,"current_range_meters":38400,"station_id":"ce4bgk12rcd13ifvqbi0","pricing_plan_id":"cebpf4jnsgd1na2vs0mg"},{"bike_id":"0b8e1245-2730-4471-b8e7-22d31143385b","system_id":"levelo_inurba_marseille","lat":43.29624,"lon":5.40595,"is_reserved":false,"is_disabled":false,"rental_uris":{"android":"levelo://app?vid=0b8e1245-2730-4471-b8e7-22d31143385b","ios":"levelo://app?vid=0b8e1245-2730-4471-b8e7-22d31143385b"},"vehicle_type_id":"4","last_reported":1732727285,"current_range_meters":36800,"station_id":"ce4bh0h2rcd13ifvqd60","pricing_plan_id":"cebpf4jnsgd1na2vs0mg"},{"bike_id":"0dfc904e-a146-44c9-a17e-2ecbd1f3dd3e","system_id":"levelo_inurba_marseille","lat":43.30888,"lon":5.39651,"is_reserved":false,"is_disabled":false,"rental_uris":{"android":"levelo://app?vid=0dfc904e-a146-44c9-a17e-2ecbd1f3dd3e","ios":"levelo://app?vid=0dfc904e-a146-44c9-a17e-2ecbd1f3dd3e"},"vehicle_type_id":"4","last_reported":1732727285,"current_range_meters":31200,"station_id":"ce4bh012rcd13ifvqcv0","pricing_plan_id":"cebpf4jnsgd1na2vs0mg"},{"bike_id":"c5f7ae2e-93ef-4ffa-99b5-c2ca035e7f99","system_id":"levelo_inurba_marseille","lat":43.25871,"lon":5.39897,"is_reserved":false,"is_disabled":true,"rental_uris":{"android":"levelo://app?vid=c5f7ae2e-93ef-4ffa-99b5-c2ca035e7f99","ios":"levelo://app?vid=c5f7ae2e-93ef-4ffa-99b5-c2ca035e7f99"},"vehicle_type_id":"4","last_reported":1732727285,"current_range_meters":2000,"station_id":"ce4bhl92rcd13ifvqghg","pricing_plan_id":"cebpf4jnsgd1na2vs0mg"},{"bike_id":"d06aaab7-4a56-4e9c-b023-2a6fced4e218","system_id":"levelo_inurba_marseille","lat":43.23152,"lon":5.43706,"is_reserved":false,"is_disabled":true,"rental_uris":{"android":"levelo://app?vid=d06aaab7-4a56-4e9c-b023-2a6fced4e218","ios":"levelo://app?vid=d06aaab7-4a56-4e9c-b023-2a6fced4e218"},"vehicle_type_id":"4","last_reported":1732727285,"current_range_meters":0,"station_id":"ce4bhmp2rcd13ifvqgog","pricing_plan_id":"cebpf4jnsgd1na2vs0mg"},{"bike_id":"464e6a70-f3c3-4364-bc90-2f451fe0efe1","system_id":"levelo_inurba_marseille","lat":43.27671,"lon":5.38911,"is_reserved":false,"is_disabled":false,"rental_uris":{"android":"levelo://app?vid=464e6a70-f3c3-4364-bc90-2f451fe0efe1","ios":"levelo://app?vid=464e6a70-f3c3-4364-bc90-2f451fe0efe1"},"vehicle_type_id":"4","last_reported":1732727285,"current_range_meters":39200,"station_id":"ce4bhi12rcd13ifvqfo0","pricing_plan_id":"cebpf4jnsgd1na2vs0mg"},{"bike_id":"1cd78e3c-eca2-430e-a00b-3450b52eb373","system_id":"levelo_inurba_marseille","lat":43.22928,"lon":5.3538,"is_reserved":false,"is_disabled":false,"rental_uris":{"android":"levelo://app?vid=1cd78e3c-eca2-430e-a00b-3450b52eb373","ios":"levelo://app?vid=1cd78e3c-eca2-430e-a00b-3450b52eb373"},"vehicle_type_id":"4","last_reported":1732727285,"current_range_meters":36800,"station_id":"cpo3532slgdg3j2ikp40","pricing_plan_id":"cebpf4jnsgd1na2vs0mg"},{"bike_id":"e880ec50-a13a-4284-90b8-6f79648e0ca2","system_id":"levelo_inurba_marseille","lat":43.27575,"lon":5.38426,"is_reserved":false,"is_disabled":true,"rental_uris":{"android":"levelo://app?vid=e880ec50-a13a-4284-90b8-6f79648e0ca2","ios":"levelo://app?vid=e880ec50-a13a-4284-90b8-6f79648e0ca2"},"vehicle_type_id":"4","last_reported":1732727285,"current_range_meters":1200,"station_id":"ce4bhh92rcd13ifvqfi0","pricing_plan_id":"cebpf4jnsgd1na2vs0mg"},{"bike_id":"681460a9-806c-471b-88e8-ce403c82f10b","system_id":"levelo_inurba_marseille","lat":43.30649,"lon":5.36865,"is_reserved":false,"is_disabled":true,"rental_uris":{"android":"levelo://app?vid=681460a9-806c-471b-88e8-ce403c82f10b","ios":"levelo://app?vid=681460a9-806c-471b-88e8-ce403c82f10b"},"vehicle_type_id":"4","last_reported":1732727285,"current_range_meters":0,"station_id":"","pricing_plan_id":"cebpf4jnsgd1na2vs0mg"},{"bike_id":"3ee2ee69-2f7f-4883-9174-a42c45bcb3a9","system_id":"levelo_inurba_marseille","lat":43.25114,"lon":5.40325,"is_reserved":false,"is_disabled":false,"rental_uris":{"android":"levelo://app?vid=3ee2ee69-2f7f-4883-9174-a42c45bcb3a9","ios":"levelo://app?vid=3ee2ee69-2f7f-4883-9174-a42c45bcb3a9"},"vehicle_type_id":"4","last_reported":1732727285,"current_range_meters":8400,"station_id":"ce4bhlh2rcd13ifvqgig","pricing_plan_id":"cebpf4jnsgd1na2vs0mg"},{"bike_id":"871b1643-a2c2-4938-8362-9aaf2516618d","system_id":"levelo_inurba_marseille","lat":43.27809,"lon":5.4072,"is_reserved":false,"is_disabled":false,"rental_uris":{"android":"levelo://app?vid=871b1643-a2c2-4938-8362-9aaf2516618d","ios":"levelo://app?vid=871b1643-a2c2-4938-8362-9aaf2516618d"},"vehicle_type_id":"4","last_reported":1732727285,"current_range_meters":28400,"station_id":"ce4bhnh2rcd13ifvqgtg","pricing_plan_id":"cebpf4jnsgd1na2vs0mg"},{"bike_id":"167292f2-22f2-42e1-8439-588daccc0073","system_id":"levelo_inurba_marseille","lat":43.30144,"lon":5.39891,"is_reserved":false,"is_disabled":false,"rental_uris":{"android":"levelo://app?vid=167292f2-22f2-42e1-8439-588daccc0073","ios":"levelo://app?vid=167292f2-22f2-42e1-8439-588daccc0073"},"vehicle_type_id":"4","last_reported":1732727285,"current_range_meters":16400,"station_id":"ce4bh0h2rcd13ifvqd40","pricing_plan_id":"cebpf4jnsgd1na2vs0mg"},{"bike_id":"16b91fb6-0183-4522-bf5d-e70055a57b27","system_id":"levelo_inurba_marseille","lat":43.2717,"lon":5.41003,"is_reserved":false,"is_disabled":false,"rental_uris":{"android":"levelo://app?vid=16b91fb6-0183-4522-bf5d-e70055a57b27","ios":"levelo://app?vid=16b91fb6-0183-4522-bf5d-e70055a57b27"},"vehicle_type_id":"4","last_reported":1732727285,"current_range_meters":11200,"station_id":"ce4bhl12rcd13ifvqgf0","pricing_plan_id":"cebpf4jnsgd1na2vs0mg"},{"bike_id":"146859be-050c-4fa7-9473-10d8176aeefd","system_id":"levelo_inurba_marseille","lat":43.25935,"lon":5.40906,"is_reserved":false,"is_disabled":true,"rental_uris":{"android":"levelo://app?vid=146859be-050c-4fa7-9473-10d8176aeefd","ios":"levelo://app?vid=146859be-050c-4fa7-9473-10d8176aeefd"},"vehicle_type_id":"4","last_reported":1732727285,"current_range_meters":0,"station_id":"ce4bhm92rcd13ifvqglg","pricing_plan_id":"cebpf4jnsgd1na2vs0mg"},{"bike_id":"cb02ae7e-40a6-479b-85b9-69dd50265eae","system_id":"levelo_inurba_marseille","lat":43.29626,"lon":5.37722,"is_reserved":false,"is_disabled":true,"rental_uris":{"android":"levelo://app?vid=cb02ae7e-40a6-479b-85b9-69dd50265eae","ios":"levelo://app?vid=cb02ae7e-40a6-479b-85b9-69dd50265eae"},"vehicle_type_id":"4","last_reported":1732727285,"current_range_meters":0,"station_id":"ce4bgi92rcd13ifvqb90","pricing_plan_id":"cebpf4jnsgd1na2vs0mg"},{"bike_id":"56c4d4bc-8ba6-453e-8066-6a024efb3331","system_id":"levelo_inurba_marseille","lat":43.29625,"lon":5.37155,"is_reserved":false,"is_disabled":false,"rental_uris":{"android":"levelo://app?vid=56c4d4bc-8ba6-453e-8066-6a024efb3331","ios":"levelo://app?vid=56c4d4bc-8ba6-453e-8066-6a024efb3331"},"vehicle_type_id":"4","last_reported":1732727285,"current_range_meters":33200,"station_id":"ce4bgnh2rcd13ifvqc0g","pricing_plan_id":"cebpf4jnsgd1na2vs0mg"},{"bike_id":"94cac0ed-73e3-450f-93fc-5de0fda36988","system_id":"levelo_inurba_marseille","lat":43.29259,"lon":5.40912,"is_reserved":false,"is_disabled":false,"rental_uris":{"android":"levelo://app?vid=94cac0ed-73e3-450f-93fc-5de0fda36988","ios":"levelo://app?vid=94cac0ed-73e3-450f-93fc-5de0fda36988"},"vehicle_type_id":"4","last_reported":1732727285,"current_range_meters":38400,"station_id":"ce4bh192rcd13ifvqdc0","pricing_plan_id":"cebpf4jnsgd1na2vs0mg"},{"bike_id":"7acf64e6-102c-4b24-bfca-4cd2f2ab9f83","system_id":"levelo_inurba_marseille","lat":43.30543,"lon":5.36538,"is_reserved":false,"is_disabled":true,"rental_uris":{"android":"levelo://app?vid=7acf64e6-102c-4b24-bfca-4cd2f2ab9f83","ios":"levelo://app?vid=7acf64e6-102c-4b24-bfca-4cd2f2ab9f83"},"vehicle_type_id":"4","last_reported":1732727285,"current_range_meters":800,"station_id":"ce4bgs12rcd13ifvqcag","pricing_plan_id":"cebpf4jnsgd1na2vs0mg"},{"bike_id":"2e95a691-d7d8-426b-8dba-47b6b56c6a41","system_id":"levelo_inurba_marseille","lat":43.2815,"lon":5.4265,"is_reserved":false,"is_disabled":true,"rental_uris":{"android":"levelo://app?vid=2e95a691-d7d8-426b-8dba-47b6b56c6a41","ios":"levelo://app?vid=2e95a691-d7d8-426b-8dba-47b6b56c6a41"},"vehicle_type_id":"4","last_reported":1732727285,"current_range_meters":800,"station_id":"ce4bhnh2rcd13ifvqgug","pricing_plan_id":"cebpf4jnsgd1na2vs0mg"},{"bike_id":"a9bd81bc-1a83-4473-974e-981cb377e02e","system_id":"levelo_inurba_marseille","lat":43.33021,"lon":5.3904,"is_reserved":false,"is_disabled":false,"rental_uris":{"android":"levelo://app?vid=a9bd81bc-1a83-4473-974e-981cb377e02e","ios":"levelo://app?vid=a9bd81bc-1a83-4473-974e-981cb377e02e"},"vehicle_type_id":"4","last_reported":1732727285,"current_range_meters":39200,"station_id":"ce4bhr92rcd13ifvqhrg","pricing_plan_id":"cebpf4jnsgd1na2vs0mg"},{"bike_id":"a5848fc1-9c38-4c0f-8cd3-7a1f74903e08","system_id":"levelo_inurba_marseille","lat":43.23189,"lon":5.39994,"is_reserved":false,"is_disabled":false,"rental_uris":{"android":"levelo://app?vid=a5848fc1-9c38-4c0f-8cd3-7a1f74903e08","ios":"levelo://app?vid=a5848fc1-9c38-4c0f-8cd3-7a1f74903e08"},"vehicle_type_id":"4","last_reported":1732727285,"current_range_meters":38800,"station_id":"ce4bhn12rcd13ifvqgqg","pricing_plan_id":"cebpf4jnsgd1na2vs0mg"},{"bike_id":"55e15566-684a-42d7-9707-0f322411184a","system_id":"levelo_inurba_marseille","lat":43.30324,"lon":5.40429,"is_reserved":false,"is_disabled":false,"rental_uris":{"android":"levelo://app?vid=55e15566-684a-42d7-9707-0f322411184a","ios":"levelo://app?vid=55e15566-684a-42d7-9707-0f322411184a"},"vehicle_type_id":"4","last_reported":1732727285,"current_range_meters":33200,"station_id":"ce4bh012rcd13ifvqd10","pricing_plan_id":"cebpf4jnsgd1na2vs0mg"},{"bike_id":"d3cb82ba-23b2-48c9-9ee7-8ccf0544ff45","system_id":"levelo_inurba_marseille","lat":43.2795,"lon":5.41046,"is_reserved":false,"is_disabled":true,"rental_uris":{"android":"levelo://app?vid=d3cb82ba-23b2-48c9-9ee7-8ccf0544ff45","ios":"levelo://app?vid=d3cb82ba-23b2-48c9-9ee7-8ccf0544ff45"},"vehicle_type_id":"4","last_reported":1732727285,"current_range_meters":0,"station_id":"ce4bhnp2rcd13ifvqh0g","pricing_plan_id":"cebpf4jnsgd1na2vs0mg"},{"bike_id":"858b65e1-94fc-4151-a71e-8b168cb19dcb","system_id":"levelo_inurba_marseille","lat":43.32249,"lon":5.39241,"is_reserved":false,"is_disabled":true,"rental_uris":{"android":"levelo://app?vid=858b65e1-94fc-4151-a71e-8b168cb19dcb","ios":"levelo://app?vid=858b65e1-94fc-4151-a71e-8b168cb19dcb"},"vehicle_type_id":"4","last_reported":1732727285,"current_range_meters":0,"station_id":"","pricing_plan_id":"cebpf4jnsgd1na2vs0mg"},{"bike_id":"01b93923-340e-49e1-bd86-d2463565502f","system_id":"levelo_inurba_marseille","lat":43.29309,"lon":5.38569,"is_reserved":false,"is_disabled":true,"rental_uris":{"android":"levelo://app?vid=01b93923-340e-49e1-bd86-d2463565502f","ios":"levelo://app?vid=01b93923-340e-49e1-bd86-d2463565502f"},"vehicle_type_id":"4","last_reported":1732727285,"current_range_meters":0,"station_id":"","pricing_plan_id":"cebpf4jnsgd1na2vs0mg"},{"bike_id":"e51b2acb-d883-446b-9ce9-347608453ece","system_id":"levelo_inurba_marseille","lat":43.2293,"lon":5.35372,"is_reserved":false,"is_disabled":false,"rental_uris":{"android":"levelo://app?vid=e51b2acb-d883-446b-9ce9-347608453ece","ios":"levelo://app?vid=e51b2acb-d883-446b-9ce9-347608453ece"},"vehicle_type_id":"4","last_reported":1732727285,"current_range_meters":36400,"station_id":"cpo3532slgdg3j2ikp40","pricing_plan_id":"cebpf4jnsgd1na2vs0mg"},{"bike_id":"844ec8e9-1291-4e83-a299-880eb52e8b86","system_id":"levelo_inurba_marseille","lat":43.28053,"lon":5.39563,"is_reserved":false,"is_disabled":true,"rental_uris":{"android":"levelo://app?vid=844ec8e9-1291-4e83-a299-880eb52e8b86","ios":"levelo://app?vid=844ec8e9-1291-4e83-a299-880eb52e8b86"},"vehicle_type_id":"4","last_reported":1732727285,"current_range_meters":0,"station_id":"","pricing_plan_id":"cebpf4jnsgd1na2vs0mg"},{"bike_id":"795fc8a0-ff37-4bc9-bd3e-494273e73949","system_id":"levelo_inurba_marseille","lat":43.25112,"lon":5.40324,"is_reserved":false,"is_disabled":true,"rental_uris":{"android":"levelo://app?vid=795fc8a0-ff37-4bc9-bd3e-494273e73949","ios":"levelo://app?vid=795fc8a0-ff37-4bc9-bd3e-494273e73949"},"vehicle_type_id":"4","last_reported":1732727285,"current_range_meters":1200,"station_id":"ce4bhlh2rcd13ifvqgig","pricing_plan_id":"cebpf4jnsgd1na2vs0mg"},{"bike_id":"07e999cf-40a8-4a01-b969-68cbfc768052","system_id":"levelo_inurba_marseille","lat":43.28158,"lon":5.42644,"is_reserved":false,"is_disabled":true,"rental_uris":{"android":"levelo://app?vid=07e999cf-40a8-4a01-b969-68cbfc768052","ios":"levelo://app?vid=07e999cf-40a8-4a01-b969-68cbfc768052"},"vehicle_type_id":"4","last_reported":1732727285,"current_range_meters":0,"station_id":"ce4bhnh2rcd13ifvqgug","pricing_plan_id":"cebpf4jnsgd1na2vs0mg"},{"bike_id":"0cb9348b-9f34-411b-b81f-bb93938546b3","system_id":"levelo_inurba_marseille","lat":43.30595,"lon":5.39343,"is_reserved":false,"is_disabled":true,"rental_uris":{"android":"levelo://app?vid=0cb9348b-9f34-411b-b81f-bb93938546b3","ios":"levelo://app?vid=0cb9348b-9f34-411b-b81f-bb93938546b3"},"vehicle_type_id":"4","last_reported":1732727285,"current_range_meters":27600,"station_id":"ce4bh0p2rcd13ifvqd80","pricing_plan_id":"cebpf4jnsgd1na2vs0mg"},{"bike_id":"14837e5f-d08d-4634-8999-5c331e74e733","system_id":"levelo_inurba_marseille","lat":43.315029,"lon":5.373143,"is_reserved":false,"is_disabled":false,"rental_uris":{"android":"levelo://app?vid=14837e5f-d08d-4634-8999-5c331e74e733","ios":"levelo://app?vid=14837e5f-d08d-4634-8999-5c331e74e733"},"vehicle_type_id":"4","last_reported":1732727285,"current_range_meters":35200,"station_id":"ce4bgt12rcd13ifvqcd0","pricing_plan_id":"cebpf4jnsgd1na2vs0mg"},{"bike_id":"fdd9f2ba-1259-476c-bc7a-829eae57b734","system_id":"levelo_inurba_marseille","lat":43.29028,"lon":5.38641,"is_reserved":false,"is_disabled":false,"rental_uris":{"android":"levelo://app?vid=fdd9f2ba-1259-476c-bc7a-829eae57b734","ios":"levelo://app?vid=fdd9f2ba-1259-476c-bc7a-829eae57b734"},"vehicle_type_id":"4","last_reported":1732727285,"current_range_meters":30000,"station_id":"ce4bh4p2rcd13ifvqe0g","pricing_plan_id":"cebpf4jnsgd1na2vs0mg"},{"bike_id":"f7f3756c-1ec7-4782-9c87-6273f87b6774","system_id":"levelo_inurba_marseille","lat":43.337444,"lon":5.374475,"is_reserved":false,"is_disabled":true,"rental_uris":{"android":"levelo://app?vid=f7f3756c-1ec7-4782-9c87-6273f87b6774","ios":"levelo://app?vid=f7f3756c-1ec7-4782-9c87-6273f87b6774"},"vehicle_type_id":"4","last_reported":1732727285,"current_range_meters":14000,"station_id":"","pricing_plan_id":"cebpf4jnsgd1na2vs0mg"},{"bike_id":"9a7fc65c-a473-4df1-8da8-b97e38cbdb89","system_id":"levelo_inurba_marseille","lat":43.23146,"lon":5.43711,"is_reserved":false,"is_disabled":false,"rental_uris":{"android":"levelo://app?vid=9a7fc65c-a473-4df1-8da8-b97e38cbdb89","ios":"levelo://app?vid=9a7fc65c-a473-4df1-8da8-b97e38cbdb89"},"vehicle_type_id":"4","last_reported":1732727285,"current_range_meters":38800,"station_id":"ce4bhmp2rcd13ifvqgog","pricing_plan_id":"cebpf4jnsgd1na2vs0mg"},{"bike_id":"703e8aa1-dcfb-4cea-8282-43c583c4255c","system_id":"levelo_inurba_marseille","lat":43.24544,"lon":5.39527,"is_reserved":false,"is_disabled":true,"rental_uris":{"android":"levelo://app?vid=703e8aa1-dcfb-4cea-8282-43c583c4255c","ios":"levelo://app?vid=703e8aa1-dcfb-4cea-8282-43c583c4255c"},"vehicle_type_id":"4","last_reported":1732727285,"current_range_meters":1200,"station_id":"ce4bhlp2rcd13ifvqgjg","pricing_plan_id":"cebpf4jnsgd1na2vs0mg"},{"bike_id":"36e71be3-591e-41df-b393-dafcab23c079","system_id":"levelo_inurba_marseille","lat":43.31089,"lon":5.42428,"is_reserved":false,"is_disabled":false,"rental_uris":{"android":"levelo://app?vid=36e71be3-591e-41df-b393-dafcab23c079","ios":"levelo://app?vid=36e71be3-591e-41df-b393-dafcab23c079"},"vehicle_type_id":"4","last_reported":1732727285,"current_range_meters":24800,"station_id":"ce4bhp92rcd13ifvqhag","pricing_plan_id":"cebpf4jnsgd1na2vs0mg"},{"bike_id":"8f43ee39-f010-4299-82b1-a29724be626b","system_id":"levelo_inurba_marseille","lat":43.27953,"lon":5.41046,"is_reserved":false,"is_disabled":true,"rental_uris":{"android":"levelo://app?vid=8f43ee39-f010-4299-82b1-a29724be626b","ios":"levelo://app?vid=8f43ee39-f010-4299-82b1-a29724be626b"},"vehicle_type_id":"4","last_reported":1732727285,"current_range_meters":800,"station_id":"ce4bhnp2rcd13ifvqh0g","pricing_plan_id":"cebpf4jnsgd1na2vs0mg"},{"bike_id":"07e712af-bcd5-4b37-9b48-5482f489187d","system_id":"levelo_inurba_marseille","lat":43.2792,"lon":5.39581,"is_reserved":false,"is_disabled":false,"rental_uris":{"android":"levelo://app?vid=07e712af-bcd5-4b37-9b48-5482f489187d","ios":"levelo://app?vid=07e712af-bcd5-4b37-9b48-5482f489187d"},"vehicle_type_id":"4","last_reported":1732727285,"current_range_meters":8400,"station_id":"ce4bhf92rcd13ifvqf40","pricing_plan_id":"cebpf4jnsgd1na2vs0mg"},{"bike_id":"1e31f8bb-0e61-4c72-bf42-c0f77bf16f26","system_id":"levelo_inurba_marseille","lat":43.23561,"lon":5.43615,"is_reserved":false,"is_disabled":false,"rental_uris":{"android":"levelo://app?vid=1e31f8bb-0e61-4c72-bf42-c0f77bf16f26","ios":"levelo://app?vid=1e31f8bb-0e61-4c72-bf42-c0f77bf16f26"},"vehicle_type_id":"4","last_reported":1732727285,"current_range_meters":32000,"station_id":"ce4bhgp2rcd13ifvqfe0","pricing_plan_id":"cebpf4jnsgd1na2vs0mg"},{"bike_id":"28d47fe9-b09e-45c5-86e3-4c6bc6d90280","system_id":"levelo_inurba_marseille","lat":43.25101,"lon":5.40328,"is_reserved":false,"is_disabled":false,"rental_uris":{"android":"levelo://app?vid=28d47fe9-b09e-45c5-86e3-4c6bc6d90280","ios":"levelo://app?vid=28d47fe9-b09e-45c5-86e3-4c6bc6d90280"},"vehicle_type_id":"4","last_reported":1732727285,"current_range_meters":24400,"station_id":"ce4bhlh2rcd13ifvqgig","pricing_plan_id":"cebpf4jnsgd1na2vs0mg"},{"bike_id":"dc65d38a-6822-4f34-b22f-40093f5ca5fa","system_id":"levelo_inurba_marseille","lat":43.28426,"lon":5.37524,"is_reserved":false,"is_disabled":false,"rental_uris":{"android":"levelo://app?vid=dc65d38a-6822-4f34-b22f-40093f5ca5fa","ios":"levelo://app?vid=dc65d38a-6822-4f34-b22f-40093f5ca5fa"},"vehicle_type_id":"4","last_reported":1732727285,"current_range_meters":38800,"station_id":"ce4bh412rcd13ifvqds0","pricing_plan_id":"cebpf4jnsgd1na2vs0mg"},{"bike_id":"67dfe3d7-e290-4b1e-9f5e-90cca73a4f4a","system_id":"levelo_inurba_marseille","lat":43.27387,"lon":5.36257,"is_reserved":false,"is_disabled":false,"rental_uris":{"android":"levelo://app?vid=67dfe3d7-e290-4b1e-9f5e-90cca73a4f4a","ios":"levelo://app?vid=67dfe3d7-e290-4b1e-9f5e-90cca73a4f4a"},"vehicle_type_id":"4","last_reported":1732727285,"current_range_meters":35200,"station_id":"ce4bhbh2rcd13ifvqeo0","pricing_plan_id":"cebpf4jnsgd1na2vs0mg"},{"bike_id":"2a0d7837-e233-4916-aaf4-05678e021d1c","system_id":"levelo_inurba_marseille","lat":43.25579,"lon":5.38232,"is_reserved":false,"is_disabled":false,"rental_uris":{"android":"levelo://app?vid=2a0d7837-e233-4916-aaf4-05678e021d1c","ios":"levelo://app?vid=2a0d7837-e233-4916-aaf4-05678e021d1c"},"vehicle_type_id":"4","last_reported":1732727285,"current_range_meters":26800,"station_id":"ce4bhih2rcd13ifvqfs0","pricing_plan_id":"cebpf4jnsgd1na2vs0mg"},{"bike_id":"c1350596-c129-49e7-897e-0d0932369655","system_id":"levelo_inurba_marseille","lat":43.31113,"lon":5.37773,"is_reserved":false,"is_disabled":true,"rental_uris":{"android":"levelo://app?vid=c1350596-c129-49e7-897e-0d0932369655","ios":"levelo://app?vid=c1350596-c129-49e7-897e-0d0932369655"},"vehicle_type_id":"4","last_reported":1732727285,"current_range_meters":800,"station_id":"ce4bgt92rcd13ifvqcg0","pricing_plan_id":"cebpf4jnsgd1na2vs0mg"},{"bike_id":"a5909545-3e09-4859-9fda-9ffe4e6e4883","system_id":"levelo_inurba_marseille","lat":43.23065,"lon":5.35491,"is_reserved":false,"is_disabled":false,"rental_uris":{"android":"levelo://app?vid=a5909545-3e09-4859-9fda-9ffe4e6e4883","ios":"levelo://app?vid=a5909545-3e09-4859-9fda-9ffe4e6e4883"},"vehicle_type_id":"4","last_reported":1732727285,"current_range_meters":26800,"station_id":"cpo3342slgdg3j2ifvpg","pricing_plan_id":"cebpf4jnsgd1na2vs0mg"},{"bike_id":"6dbd3a17-eea2-4c08-a6e2-6eb55e8b816a","system_id":"levelo_inurba_marseille","lat":43.27216,"lon":5.39182,"is_reserved":false,"is_disabled":false,"rental_uris":{"android":"levelo://app?vid=6dbd3a17-eea2-4c08-a6e2-6eb55e8b816a","ios":"levelo://app?vid=6dbd3a17-eea2-4c08-a6e2-6eb55e8b816a"},"vehicle_type_id":"4","last_reported":1732727285,"current_range_meters":16400,"station_id":"ce4bhhp2rcd13ifvqfm0","pricing_plan_id":"cebpf4jnsgd1na2vs0mg"},{"bike_id":"83c3e380-8cd3-4b83-926c-c46bc2ac6fd0","system_id":"levelo_inurba_marseille","lat":43.28725,"lon":5.36087,"is_reserved":false,"is_disabled":false,"rental_uris":{"android":"levelo://app?vid=83c3e380-8cd3-4b83-926c-c46bc2ac6fd0","ios":"levelo://app?vid=83c3e380-8cd3-4b83-926c-c46bc2ac6fd0"},"vehicle_type_id":"4","last_reported":1732727285,"current_range_meters":39200,"station_id":"cki0cbj6b192h4jlfktg","pricing_plan_id":"cebpf4jnsgd1na2vs0mg"},{"bike_id":"636c38c7-b57f-44ef-879f-37f296bc8e0a","system_id":"levelo_inurba_marseille","lat":43.32095,"lon":5.36808,"is_reserved":false,"is_disabled":false,"rental_uris":{"android":"levelo://app?vid=636c38c7-b57f-44ef-879f-37f296bc8e0a","ios":"levelo://app?vid=636c38c7-b57f-44ef-879f-37f296bc8e0a"},"vehicle_type_id":"4","last_reported":1732727285,"current_range_meters":22800,"station_id":"ce4bhrh2rcd13ifvqhug","pricing_plan_id":"cebpf4jnsgd1na2vs0mg"},{"bike_id":"067fa05f-104c-454c-aa07-e227f2f2c2d2","system_id":"levelo_inurba_marseille","lat":43.23192,"lon":5.39985,"is_reserved":false,"is_disabled":false,"rental_uris":{"android":"levelo://app?vid=067fa05f-104c-454c-aa07-e227f2f2c2d2","ios":"levelo://app?vid=067fa05f-104c-454c-aa07-e227f2f2c2d2"},"vehicle_type_id":"4","last_reported":1732727285,"current_range_meters":10000,"station_id":"ce4bhn12rcd13ifvqgqg","pricing_plan_id":"cebpf4jnsgd1na2vs0mg"},{"bike_id":"e5951ee3-4a5a-4ebb-b469-096c5188dfa3","system_id":"levelo_inurba_marseille","lat":43.23198,"lon":5.35569,"is_reserved":false,"is_disabled":false,"rental_uris":{"android":"levelo://app?vid=e5951ee3-4a5a-4ebb-b469-096c5188dfa3","ios":"levelo://app?vid=e5951ee3-4a5a-4ebb-b469-096c5188dfa3"},"vehicle_type_id":"4","last_reported":1732727285,"current_range_meters":30800,"station_id":"ce4bhu92rcd13ifvqi70","pricing_plan_id":"cebpf4jnsgd1na2vs0mg"},{"bike_id":"4b4e5291-1ed0-4958-b855-356c624c9827","system_id":"levelo_inurba_marseille","lat":43.31115,"lon":5.37767,"is_reserved":false,"is_disabled":true,"rental_uris":{"android":"levelo://app?vid=4b4e5291-1ed0-4958-b855-356c624c9827","ios":"levelo://app?vid=4b4e5291-1ed0-4958-b855-356c624c9827"},"vehicle_type_id":"4","last_reported":1732727285,"current_range_meters":0,"station_id":"ce4bgt92rcd13ifvqcg0","pricing_plan_id":"cebpf4jnsgd1na2vs0mg"},{"bike_id":"b83f7f70-ec07-4fd7-b0a7-be8d7ef4fa8e","system_id":"levelo_inurba_marseille","lat":43.27997,"lon":5.40018,"is_reserved":false,"is_disabled":false,"rental_uris":{"android":"levelo://app?vid=b83f7f70-ec07-4fd7-b0a7-be8d7ef4fa8e","ios":"levelo://app?vid=b83f7f70-ec07-4fd7-b0a7-be8d7ef4fa8e"},"vehicle_type_id":"4","last_reported":1732727285,"current_range_meters":28400,"station_id":"ce4bho92rcd13ifvqh4g","pricing_plan_id":"cebpf4jnsgd1na2vs0mg"},{"bike_id":"6c948e9c-d5b3-4fe5-a918-1bd2f7c83b02","system_id":"levelo_inurba_marseille","lat":43.32112,"lon":5.36772,"is_reserved":false,"is_disabled":false,"rental_uris":{"android":"levelo://app?vid=6c948e9c-d5b3-4fe5-a918-1bd2f7c83b02","ios":"levelo://app?vid=6c948e9c-d5b3-4fe5-a918-1bd2f7c83b02"},"vehicle_type_id":"4","last_reported":1732727285,"current_range_meters":11600,"station_id":"ce4bhrh2rcd13ifvqhug","pricing_plan_id":"cebpf4jnsgd1na2vs0mg"},{"bike_id":"52d76038-c55e-433e-bbf6-dcccffb9f14b","system_id":"levelo_inurba_marseille","lat":43.31325,"lon":5.39713,"is_reserved":false,"is_disabled":false,"rental_uris":{"android":"levelo://app?vid=52d76038-c55e-433e-bbf6-dcccffb9f14b","ios":"levelo://app?vid=52d76038-c55e-433e-bbf6-dcccffb9f14b"},"vehicle_type_id":"4","last_reported":1732727285,"current_range_meters":39200,"station_id":"ce4bgvp2rcd13ifvqcu0","pricing_plan_id":"cebpf4jnsgd1na2vs0mg"},{"bike_id":"de019ccb-fa60-48df-bb87-590d32808d12","system_id":"levelo_inurba_marseille","lat":43.26561,"lon":5.39018,"is_reserved":false,"is_disabled":false,"rental_uris":{"android":"levelo://app?vid=de019ccb-fa60-48df-bb87-590d32808d12","ios":"levelo://app?vid=de019ccb-fa60-48df-bb87-590d32808d12"},"vehicle_type_id":"4","last_reported":1732727285,"current_range_meters":9600,"station_id":"ce4bhe12rcd13ifvqf30","pricing_plan_id":"cebpf4jnsgd1na2vs0mg"},{"bike_id":"316e3843-12b7-40af-9e24-646cb01c71c6","system_id":"levelo_inurba_marseille","lat":43.33606,"lon":5.41035,"is_reserved":false,"is_disabled":false,"rental_uris":{"android":"levelo://app?vid=316e3843-12b7-40af-9e24-646cb01c71c6","ios":"levelo://app?vid=316e3843-12b7-40af-9e24-646cb01c71c6"},"vehicle_type_id":"4","last_reported":1732727285,"current_range_meters":4800,"station_id":"ce4bhqh2rcd13ifvqhmg","pricing_plan_id":"cebpf4jnsgd1na2vs0mg"},{"bike_id":"5c53cfbd-2547-413a-b79a-f8cc3b1ca992","system_id":"levelo_inurba_marseille","lat":43.32114,"lon":5.36768,"is_reserved":false,"is_disabled":false,"rental_uris":{"android":"levelo://app?vid=5c53cfbd-2547-413a-b79a-f8cc3b1ca992","ios":"levelo://app?vid=5c53cfbd-2547-413a-b79a-f8cc3b1ca992"},"vehicle_type_id":"4","last_reported":1732727285,"current_range_meters":27200,"station_id":"ce4bhrh2rcd13ifvqhug","pricing_plan_id":"cebpf4jnsgd1na2vs0mg"},{"bike_id":"c4987dba-0cbc-4dd4-a827-c2f4db399f59","system_id":"levelo_inurba_marseille","lat":43.28725,"lon":5.36096,"is_reserved":false,"is_disabled":false,"rental_uris":{"android":"levelo://app?vid=c4987dba-0cbc-4dd4-a827-c2f4db399f59","ios":"levelo://app?vid=c4987dba-0cbc-4dd4-a827-c2f4db399f59"},"vehicle_type_id":"4","last_reported":1732727285,"current_range_meters":20800,"station_id":"cki0cbj6b192h4jlfktg","pricing_plan_id":"cebpf4jnsgd1na2vs0mg"},{"bike_id":"b8ceb241-0ec2-49fe-b1a3-00091de5157c","system_id":"levelo_inurba_marseille","lat":43.28466,"lon":5.35888,"is_reserved":false,"is_disabled":false,"rental_uris":{"android":"levelo://app?vid=b8ceb241-0ec2-49fe-b1a3-00091de5157c","ios":"levelo://app?vid=b8ceb241-0ec2-49fe-b1a3-00091de5157c"},"vehicle_type_id":"4","last_reported":1732727285,"current_range_meters":12800,"station_id":"ce4bhah2rcd13ifvqei0","pricing_plan_id":"cebpf4jnsgd1na2vs0mg"},{"bike_id":"c552db15-f85b-4d67-abae-f889f15c8993","system_id":"levelo_inurba_marseille","lat":43.29417,"lon":5.38628,"is_reserved":false,"is_disabled":false,"rental_uris":{"android":"levelo://app?vid=c552db15-f85b-4d67-abae-f889f15c8993","ios":"levelo://app?vid=c552db15-f85b-4d67-abae-f889f15c8993"},"vehicle_type_id":"4","last_reported":1732727285,"current_range_meters":17200,"station_id":"ce4bh2h2rcd13ifvqdh0","pricing_plan_id":"cebpf4jnsgd1na2vs0mg"},{"bike_id":"c32aafd8-8905-4559-a1d0-f74aa7efcf0e","system_id":"levelo_inurba_marseille","lat":43.338,"lon":5.37474,"is_reserved":false,"is_disabled":false,"rental_uris":{"android":"levelo://app?vid=c32aafd8-8905-4559-a1d0-f74aa7efcf0e","ios":"levelo://app?vid=c32aafd8-8905-4559-a1d0-f74aa7efcf0e"},"vehicle_type_id":"4","last_reported":1732727285,"current_range_meters":36800,"station_id":"","pricing_plan_id":"cebpf4jnsgd1na2vs0mg"},{"bike_id":"110511e7-d418-46d7-a5e9-c916da14f3dc","system_id":"levelo_inurba_marseille","lat":43.31496,"lon":5.37306,"is_reserved":false,"is_disabled":true,"rental_uris":{"android":"levelo://app?vid=110511e7-d418-46d7-a5e9-c916da14f3dc","ios":"levelo://app?vid=110511e7-d418-46d7-a5e9-c916da14f3dc"},"vehicle_type_id":"4","last_reported":1732727285,"current_range_meters":400,"station_id":"ce4bgt12rcd13ifvqcd0","pricing_plan_id":"cebpf4jnsgd1na2vs0mg"},{"bike_id":"156f5214-4a6c-44e8-830d-5b264dd28be3","system_id":"levelo_inurba_marseille","lat":43.28614,"lon":5.35104,"is_reserved":false,"is_disabled":false,"rental_uris":{"android":"levelo://app?vid=156f5214-4a6c-44e8-830d-5b264dd28be3","ios":"levelo://app?vid=156f5214-4a6c-44e8-830d-5b264dd28be3"},"vehicle_type_id":"4","last_reported":1732727285,"current_range_meters":38800,"station_id":"ce4bhch2rcd13ifvqeug","pricing_plan_id":"cebpf4jnsgd1na2vs0mg"},{"bike_id":"b0532d77-a652-43de-8ae1-079cd29bfc13","system_id":"levelo_inurba_marseille","lat":43.32362,"lon":5.38883,"is_reserved":false,"is_disabled":false,"rental_uris":{"android":"levelo://app?vid=b0532d77-a652-43de-8ae1-079cd29bfc13","ios":"levelo://app?vid=b0532d77-a652-43de-8ae1-079cd29bfc13"},"vehicle_type_id":"4","last_reported":1732727285,"current_range_meters":18800,"station_id":"ce4bhqp2rcd13ifvqhog","pricing_plan_id":"cebpf4jnsgd1na2vs0mg"},{"bike_id":"43746d86-8a13-4845-9faf-ae69b548d714","system_id":"levelo_inurba_marseille","lat":43.29459,"lon":5.37917,"is_reserved":false,"is_disabled":true,"rental_uris":{"android":"levelo://app?vid=43746d86-8a13-4845-9faf-ae69b548d714","ios":"levelo://app?vid=43746d86-8a13-4845-9faf-ae69b548d714"},"vehicle_type_id":"4","last_reported":1732727285,"current_range_meters":0,"station_id":"","pricing_plan_id":"cebpf4jnsgd1na2vs0mg"},{"bike_id":"8c7708d7-7406-4c39-81c6-17425f7e2cad","system_id":"levelo_inurba_marseille","lat":43.26927,"lon":5.38912,"is_reserved":false,"is_disabled":false,"rental_uris":{"android":"levelo://app?vid=8c7708d7-7406-4c39-81c6-17425f7e2cad","ios":"levelo://app?vid=8c7708d7-7406-4c39-81c6-17425f7e2cad"},"vehicle_type_id":"4","last_reported":1732727285,"current_range_meters":28800,"station_id":"ce4bhhh2rcd13ifvqfl0","pricing_plan_id":"cebpf4jnsgd1na2vs0mg"},{"bike_id":"c4a7e894-f878-4bab-a8aa-1db498e677c5","system_id":"levelo_inurba_marseille","lat":43.26801,"lon":5.40268,"is_reserved":false,"is_disabled":true,"rental_uris":{"android":"levelo://app?vid=c4a7e894-f878-4bab-a8aa-1db498e677c5","ios":"levelo://app?vid=c4a7e894-f878-4bab-a8aa-1db498e677c5"},"vehicle_type_id":"4","last_reported":1732727285,"current_range_meters":0,"station_id":"ce501612rcd8frsf0b60","pricing_plan_id":"cebpf4jnsgd1na2vs0mg"},{"bike_id":"df76b7bf-b879-4e94-9796-439ee296ef0a","system_id":"levelo_inurba_marseille","lat":43.22925,"lon":5.35381,"is_reserved":false,"is_disabled":false,"rental_uris":{"android":"levelo://app?vid=df76b7bf-b879-4e94-9796-439ee296ef0a","ios":"levelo://app?vid=df76b7bf-b879-4e94-9796-439ee296ef0a"},"vehicle_type_id":"4","last_reported":1732727285,"current_range_meters":36800,"station_id":"cpo3532slgdg3j2ikp40","pricing_plan_id":"cebpf4jnsgd1na2vs0mg"},{"bike_id":"547450ed-1342-4774-b61c-58dd1a12754d","system_id":"levelo_inurba_marseille","lat":43.27206,"lon":5.39192,"is_reserved":false,"is_disabled":false,"rental_uris":{"android":"levelo://app?vid=547450ed-1342-4774-b61c-58dd1a12754d","ios":"levelo://app?vid=547450ed-1342-4774-b61c-58dd1a12754d"},"vehicle_type_id":"4","last_reported":1732727285,"current_range_meters":16800,"station_id":"ce4bhhp2rcd13ifvqfm0","pricing_plan_id":"cebpf4jnsgd1na2vs0mg"},{"bike_id":"5788765d-95df-41e6-aee7-441b101e7925","system_id":"levelo_inurba_marseille","lat":43.28442,"lon":5.37505,"is_reserved":false,"is_disabled":false,"rental_uris":{"android":"levelo://app?vid=5788765d-95df-41e6-aee7-441b101e7925","ios":"levelo://app?vid=5788765d-95df-41e6-aee7-441b101e7925"},"vehicle_type_id":"4","last_reported":1732727285,"current_range_meters":27600,"station_id":"ce4bh412rcd13ifvqds0","pricing_plan_id":"cebpf4jnsgd1na2vs0mg"},{"bike_id":"71891532-38d9-4e3f-82c6-4557025799ef","system_id":"levelo_inurba_marseille","lat":43.29683,"lon":5.37285,"is_reserved":false,"is_disabled":false,"rental_uris":{"android":"levelo://app?vid=71891532-38d9-4e3f-82c6-4557025799ef","ios":"levelo://app?vid=71891532-38d9-4e3f-82c6-4557025799ef"},"vehicle_type_id":"4","last_reported":1732727285,"current_range_meters":5600,"station_id":"ce4bgk12rcd13ifvqbj0","pricing_plan_id":"cebpf4jnsgd1na2vs0mg"},{"bike_id":"7850b5a3-047b-4ac7-ba36-9800297e2ebc","system_id":"levelo_inurba_marseille","lat":43.27381,"lon":5.36259,"is_reserved":false,"is_disabled":false,"rental_uris":{"android":"levelo://app?vid=7850b5a3-047b-4ac7-ba36-9800297e2ebc","ios":"levelo://app?vid=7850b5a3-047b-4ac7-ba36-9800297e2ebc"},"vehicle_type_id":"4","last_reported":1732727285,"current_range_meters":30000,"station_id":"ce4bhbh2rcd13ifvqeo0","pricing_plan_id":"cebpf4jnsgd1na2vs0mg"},{"bike_id":"87cf6746-eed8-407f-9e18-4dd4a8d6c7c5","system_id":"levelo_inurba_marseille","lat":43.3055,"lon":5.3654,"is_reserved":false,"is_disabled":false,"rental_uris":{"android":"levelo://app?vid=87cf6746-eed8-407f-9e18-4dd4a8d6c7c5","ios":"levelo://app?vid=87cf6746-eed8-407f-9e18-4dd4a8d6c7c5"},"vehicle_type_id":"4","last_reported":1732727285,"current_range_meters":14400,"station_id":"ce4bgs12rcd13ifvqcag","pricing_plan_id":"cebpf4jnsgd1na2vs0mg"},{"bike_id":"c7c8eb9f-a72f-46cc-a7d7-36fb49eb8a83","system_id":"levelo_inurba_marseille","lat":43.337444,"lon":5.374475,"is_reserved":false,"is_disabled":true,"rental_uris":{"android":"levelo://app?vid=c7c8eb9f-a72f-46cc-a7d7-36fb49eb8a83","ios":"levelo://app?vid=c7c8eb9f-a72f-46cc-a7d7-36fb49eb8a83"},"vehicle_type_id":"4","last_reported":1732727285,"current_range_meters":0,"station_id":"","pricing_plan_id":"cebpf4jnsgd1na2vs0mg"},{"bike_id":"cf298d8c-a0c9-4883-b341-ff4459ca7832","system_id":"levelo_inurba_marseille","lat":43.22932,"lon":5.35378,"is_reserved":false,"is_disabled":false,"rental_uris":{"android":"levelo://app?vid=cf298d8c-a0c9-4883-b341-ff4459ca7832","ios":"levelo://app?vid=cf298d8c-a0c9-4883-b341-ff4459ca7832"},"vehicle_type_id":"4","last_reported":1732727285,"current_range_meters":37600,"station_id":"cpo3532slgdg3j2ikp40","pricing_plan_id":"cebpf4jnsgd1na2vs0mg"},{"bike_id":"b03f88eb-68dd-4f5e-9780-bea08d3e85c6","system_id":"levelo_inurba_marseille","lat":43.33752,"lon":5.37423,"is_reserved":false,"is_disabled":false,"rental_uris":{"android":"levelo://app?vid=b03f88eb-68dd-4f5e-9780-bea08d3e85c6","ios":"levelo://app?vid=b03f88eb-68dd-4f5e-9780-bea08d3e85c6"},"vehicle_type_id":"4","last_reported":1732727285,"current_range_meters":12400,"station_id":"","pricing_plan_id":"cebpf4jnsgd1na2vs0mg"},{"bike_id":"85edf41c-90ec-4047-8977-b176b18d7319","system_id":"levelo_inurba_marseille","lat":43.29039,"lon":5.3757,"is_reserved":false,"is_disabled":false,"rental_uris":{"android":"levelo://app?vid=85edf41c-90ec-4047-8977-b176b18d7319","ios":"levelo://app?vid=85edf41c-90ec-4047-8977-b176b18d7319"},"vehicle_type_id":"4","last_reported":1732727285,"current_range_meters":10800,"station_id":"ce4bh692rcd13ifvqe90","pricing_plan_id":"cebpf4jnsgd1na2vs0mg"},{"bike_id":"3bda0192-441f-448b-a44b-62afdb2df3e6","system_id":"levelo_inurba_marseille","lat":43.27811,"lon":5.4072,"is_reserved":false,"is_disabled":true,"rental_uris":{"android":"levelo://app?vid=3bda0192-441f-448b-a44b-62afdb2df3e6","ios":"levelo://app?vid=3bda0192-441f-448b-a44b-62afdb2df3e6"},"vehicle_type_id":"4","last_reported":1732727285,"current_range_meters":39200,"station_id":"ce4bhnh2rcd13ifvqgtg","pricing_plan_id":"cebpf4jnsgd1na2vs0mg"},{"bike_id":"c88f8730-1176-4717-97e2-17c27b15274f","system_id":"levelo_inurba_marseille","lat":43.23196,"lon":5.35552,"is_reserved":false,"is_disabled":true,"rental_uris":{"android":"levelo://app?vid=c88f8730-1176-4717-97e2-17c27b15274f","ios":"levelo://app?vid=c88f8730-1176-4717-97e2-17c27b15274f"},"vehicle_type_id":"4","last_reported":1732727285,"current_range_meters":400,"station_id":"ce4bhu92rcd13ifvqi70","pricing_plan_id":"cebpf4jnsgd1na2vs0mg"},{"bike_id":"78a2bcf0-2687-4099-8ea8-7df9e90e87d9","system_id":"levelo_inurba_marseille","lat":43.31064,"lon":5.3836,"is_reserved":false,"is_disabled":false,"rental_uris":{"android":"levelo://app?vid=78a2bcf0-2687-4099-8ea8-7df9e90e87d9","ios":"levelo://app?vid=78a2bcf0-2687-4099-8ea8-7df9e90e87d9"},"vehicle_type_id":"4","last_reported":1732727285,"current_range_meters":15200,"station_id":"ce4bgv92rcd13ifvqcr0","pricing_plan_id":"cebpf4jnsgd1na2vs0mg"},{"bike_id":"45cc0129-d320-4c4f-95cc-6b85bf99203c","system_id":"levelo_inurba_marseille","lat":43.32296,"lon":5.3827,"is_reserved":false,"is_disabled":false,"rental_uris":{"android":"levelo://app?vid=45cc0129-d320-4c4f-95cc-6b85bf99203c","ios":"levelo://app?vid=45cc0129-d320-4c4f-95cc-6b85bf99203c"},"vehicle_type_id":"4","last_reported":1732727285,"current_range_meters":25200,"station_id":"ce4bhr12rcd13ifvqhqg","pricing_plan_id":"cebpf4jnsgd1na2vs0mg"},{"bike_id":"41e79c18-7027-4aef-9bf3-34a3670c747e","system_id":"levelo_inurba_marseille","lat":43.2987,"lon":5.3973,"is_reserved":false,"is_disabled":false,"rental_uris":{"android":"levelo://app?vid=41e79c18-7027-4aef-9bf3-34a3670c747e","ios":"levelo://app?vid=41e79c18-7027-4aef-9bf3-34a3670c747e"},"vehicle_type_id":"4","last_reported":1732727285,"current_range_meters":36800,"station_id":"ce4bh0h2rcd13ifvqd50","pricing_plan_id":"cebpf4jnsgd1na2vs0mg"},{"bike_id":"f8227e8b-c036-47dc-b2bb-1f8ce8d936f6","system_id":"levelo_inurba_marseille","lat":43.2816,"lon":5.42642,"is_reserved":false,"is_disabled":false,"rental_uris":{"android":"levelo://app?vid=f8227e8b-c036-47dc-b2bb-1f8ce8d936f6","ios":"levelo://app?vid=f8227e8b-c036-47dc-b2bb-1f8ce8d936f6"},"vehicle_type_id":"4","last_reported":1732727285,"current_range_meters":34800,"station_id":"ce4bhnh2rcd13ifvqgug","pricing_plan_id":"cebpf4jnsgd1na2vs0mg"},{"bike_id":"5383479e-e9f1-48cf-b76c-b49cd29dcdeb","system_id":"levelo_inurba_marseille","lat":43.27375,"lon":5.36259,"is_reserved":false,"is_disabled":false,"rental_uris":{"android":"levelo://app?vid=5383479e-e9f1-48cf-b76c-b49cd29dcdeb","ios":"levelo://app?vid=5383479e-e9f1-48cf-b76c-b49cd29dcdeb"},"vehicle_type_id":"4","last_reported":1732727285,"current_range_meters":29600,"station_id":"ce4bhbh2rcd13ifvqeo0","pricing_plan_id":"cebpf4jnsgd1na2vs0mg"},{"bike_id":"1b2543aa-dc44-4873-b4b0-d166a6544c05","system_id":"levelo_inurba_marseille","lat":43.27374,"lon":5.3626,"is_reserved":false,"is_disabled":false,"rental_uris":{"android":"levelo://app?vid=1b2543aa-dc44-4873-b4b0-d166a6544c05","ios":"levelo://app?vid=1b2543aa-dc44-4873-b4b0-d166a6544c05"},"vehicle_type_id":"4","last_reported":1732727285,"current_range_meters":38000,"station_id":"ce4bhbh2rcd13ifvqeo0","pricing_plan_id":"cebpf4jnsgd1na2vs0mg"},{"bike_id":"1614e2a5-eff6-4651-9d69-3a3985cf0ea9","system_id":"levelo_inurba_marseille","lat":43.28218,"lon":5.39844,"is_reserved":false,"is_disabled":false,"rental_uris":{"android":"levelo://app?vid=1614e2a5-eff6-4651-9d69-3a3985cf0ea9","ios":"levelo://app?vid=1614e2a5-eff6-4651-9d69-3a3985cf0ea9"},"vehicle_type_id":"4","last_reported":1732727285,"current_range_meters":9600,"station_id":"","pricing_plan_id":"cebpf4jnsgd1na2vs0mg"},{"bike_id":"b9caf0eb-1b1c-4644-8f1c-4c5f07062a04","system_id":"levelo_inurba_marseille","lat":43.28106,"lon":5.37833,"is_reserved":false,"is_disabled":false,"rental_uris":{"android":"levelo://app?vid=b9caf0eb-1b1c-4644-8f1c-4c5f07062a04","ios":"levelo://app?vid=b9caf0eb-1b1c-4644-8f1c-4c5f07062a04"},"vehicle_type_id":"4","last_reported":1732727285,"current_range_meters":32400,"station_id":"ce4bha12rcd13ifvqee0","pricing_plan_id":"cebpf4jnsgd1na2vs0mg"},{"bike_id":"58b50c9c-260b-4434-8186-1b36d2d0d447","system_id":"levelo_inurba_marseille","lat":43.25001,"lon":5.38929,"is_reserved":false,"is_disabled":false,"rental_uris":{"android":"levelo://app?vid=58b50c9c-260b-4434-8186-1b36d2d0d447","ios":"levelo://app?vid=58b50c9c-260b-4434-8186-1b36d2d0d447"},"vehicle_type_id":"4","last_reported":1732727285,"current_range_meters":22400,"station_id":"ce4bhgp2rcd13ifvqfd0","pricing_plan_id":"cebpf4jnsgd1na2vs0mg"},{"bike_id":"87e468c3-796f-4da9-84a8-1fba91871def","system_id":"levelo_inurba_marseille","lat":43.29514,"lon":5.423,"is_reserved":false,"is_disabled":false,"rental_uris":{"android":"levelo://app?vid=87e468c3-796f-4da9-84a8-1fba91871def","ios":"levelo://app?vid=87e468c3-796f-4da9-84a8-1fba91871def"},"vehicle_type_id":"4","last_reported":1732727285,"current_range_meters":37600,"station_id":"ce4bhph2rcd13ifvqhdg","pricing_plan_id":"cebpf4jnsgd1na2vs0mg"},{"bike_id":"4c79d9a9-6ff6-41c5-baad-233d4aa061ac","system_id":"levelo_inurba_marseille","lat":43.33612,"lon":5.41027,"is_reserved":false,"is_disabled":true,"rental_uris":{"android":"levelo://app?vid=4c79d9a9-6ff6-41c5-baad-233d4aa061ac","ios":"levelo://app?vid=4c79d9a9-6ff6-41c5-baad-233d4aa061ac"},"vehicle_type_id":"4","last_reported":1732727285,"current_range_meters":26800,"station_id":"ce4bhqh2rcd13ifvqhmg","pricing_plan_id":"cebpf4jnsgd1na2vs0mg"},{"bike_id":"8ecf62bb-5b5a-4481-bb23-c30b8b8fc5c3","system_id":"levelo_inurba_marseille","lat":43.26959,"lon":5.38643,"is_reserved":false,"is_disabled":false,"rental_uris":{"android":"levelo://app?vid=8ecf62bb-5b5a-4481-bb23-c30b8b8fc5c3","ios":"levelo://app?vid=8ecf62bb-5b5a-4481-bb23-c30b8b8fc5c3"},"vehicle_type_id":"4","last_reported":1732727285,"current_range_meters":2800,"station_id":"ce4bhh92rcd13ifvqfh0","pricing_plan_id":"cebpf4jnsgd1na2vs0mg"},{"bike_id":"32554001-4849-4b98-91fc-7600c30c1478","system_id":"levelo_inurba_marseille","lat":43.31761,"lon":5.39013,"is_reserved":false,"is_disabled":false,"rental_uris":{"android":"levelo://app?vid=32554001-4849-4b98-91fc-7600c30c1478","ios":"levelo://app?vid=32554001-4849-4b98-91fc-7600c30c1478"},"vehicle_type_id":"4","last_reported":1732727285,"current_range_meters":11200,"station_id":"ce4bhqp2rcd13ifvqhng","pricing_plan_id":"cebpf4jnsgd1na2vs0mg"},{"bike_id":"65c5b7a0-2741-4674-9e62-324f44553665","system_id":"levelo_inurba_marseille","lat":43.27956,"lon":5.38715,"is_reserved":false,"is_disabled":true,"rental_uris":{"android":"levelo://app?vid=65c5b7a0-2741-4674-9e62-324f44553665","ios":"levelo://app?vid=65c5b7a0-2741-4674-9e62-324f44553665"},"vehicle_type_id":"4","last_reported":1732727285,"current_range_meters":0,"station_id":"ce4bhg12rcd13ifvqf80","pricing_plan_id":"cebpf4jnsgd1na2vs0mg"},{"bike_id":"1fb5eb45-1e12-464a-b3e4-dcf3f6d95f6c","system_id":"levelo_inurba_marseille","lat":43.29371,"lon":5.37832,"is_reserved":false,"is_disabled":false,"rental_uris":{"android":"levelo://app?vid=1fb5eb45-1e12-464a-b3e4-dcf3f6d95f6c","ios":"levelo://app?vid=1fb5eb45-1e12-464a-b3e4-dcf3f6d95f6c"},"vehicle_type_id":"4","last_reported":1732727285,"current_range_meters":16800,"station_id":"ce4bgjh2rcd13ifvqbf0","pricing_plan_id":"cebpf4jnsgd1na2vs0mg"},{"bike_id":"562a76b4-6ab9-4ff0-9faf-2020d86f5e9a","system_id":"levelo_inurba_marseille","lat":43.24188,"lon":5.39721,"is_reserved":false,"is_disabled":true,"rental_uris":{"android":"levelo://app?vid=562a76b4-6ab9-4ff0-9faf-2020d86f5e9a","ios":"levelo://app?vid=562a76b4-6ab9-4ff0-9faf-2020d86f5e9a"},"vehicle_type_id":"4","last_reported":1732727285,"current_range_meters":0,"station_id":"ce4bhn12rcd13ifvqgpg","pricing_plan_id":"cebpf4jnsgd1na2vs0mg"},{"bike_id":"b93eb2de-7e68-4bd1-9523-87a9321d78da","system_id":"levelo_inurba_marseille","lat":43.28665,"lon":5.36352,"is_reserved":false,"is_disabled":false,"rental_uris":{"android":"levelo://app?vid=b93eb2de-7e68-4bd1-9523-87a9321d78da","ios":"levelo://app?vid=b93eb2de-7e68-4bd1-9523-87a9321d78da"},"vehicle_type_id":"4","last_reported":1732727285,"current_range_meters":38000,"station_id":"ce4bhah2rcd13ifvqej0","pricing_plan_id":"cebpf4jnsgd1na2vs0mg"},{"bike_id":"8831458c-bbd6-4692-84c4-531474636899","system_id":"levelo_inurba_marseille","lat":43.30806,"lon":5.43521,"is_reserved":false,"is_disabled":false,"rental_uris":{"android":"levelo://app?vid=8831458c-bbd6-4692-84c4-531474636899","ios":"levelo://app?vid=8831458c-bbd6-4692-84c4-531474636899"},"vehicle_type_id":"4","last_reported":1732727285,"current_range_meters":9200,"station_id":"ce4bhph2rcd13ifvqheg","pricing_plan_id":"cebpf4jnsgd1na2vs0mg"},{"bike_id":"7db9c639-3177-4805-92ec-95540cb7e1d6","system_id":"levelo_inurba_marseille","lat":43.3055,"lon":5.36711,"is_reserved":false,"is_disabled":true,"rental_uris":{"android":"levelo://app?vid=7db9c639-3177-4805-92ec-95540cb7e1d6","ios":"levelo://app?vid=7db9c639-3177-4805-92ec-95540cb7e1d6"},"vehicle_type_id":"4","last_reported":1732727285,"current_range_meters":14800,"station_id":"ce4bgrp2rcd13ifvqc9g","pricing_plan_id":"cebpf4jnsgd1na2vs0mg"},{"bike_id":"d5791249-5f02-4813-827a-4842c8bb74da","system_id":"levelo_inurba_marseille","lat":43.30884,"lon":5.39656,"is_reserved":false,"is_disabled":false,"rental_uris":{"android":"levelo://app?vid=d5791249-5f02-4813-827a-4842c8bb74da","ios":"levelo://app?vid=d5791249-5f02-4813-827a-4842c8bb74da"},"vehicle_type_id":"4","last_reported":1732727285,"current_range_meters":15200,"station_id":"ce4bh012rcd13ifvqcv0","pricing_plan_id":"cebpf4jnsgd1na2vs0mg"},{"bike_id":"9ff44567-daff-4103-8231-0f6c22304872","system_id":"levelo_inurba_marseille","lat":43.30598,"lon":5.37225,"is_reserved":false,"is_disabled":false,"rental_uris":{"android":"levelo://app?vid=9ff44567-daff-4103-8231-0f6c22304872","ios":"levelo://app?vid=9ff44567-daff-4103-8231-0f6c22304872"},"vehicle_type_id":"4","last_reported":1732727285,"current_range_meters":22400,"station_id":"ce4bgqh2rcd13ifvqc4g","pricing_plan_id":"cebpf4jnsgd1na2vs0mg"},{"bike_id":"6750b9cd-cd24-4a46-bbda-74483ad14e78","system_id":"levelo_inurba_marseille","lat":43.27497,"lon":5.4245,"is_reserved":false,"is_disabled":false,"rental_uris":{"android":"levelo://app?vid=6750b9cd-cd24-4a46-bbda-74483ad14e78","ios":"levelo://app?vid=6750b9cd-cd24-4a46-bbda-74483ad14e78"},"vehicle_type_id":"4","last_reported":1732727285,"current_range_meters":20800,"station_id":"ce4bhn92rcd13ifvqgrg","pricing_plan_id":"cebpf4jnsgd1na2vs0mg"},{"bike_id":"9e944db9-d48e-4848-b5fa-4af701aee80b","system_id":"levelo_inurba_marseille","lat":48.80795,"lon":2.40135,"is_reserved":false,"is_disabled":true,"rental_uris":{"android":"levelo://app?vid=9e944db9-d48e-4848-b5fa-4af701aee80b","ios":"levelo://app?vid=9e944db9-d48e-4848-b5fa-4af701aee80b"},"vehicle_type_id":"4","last_reported":1732727285,"current_range_meters":27200,"station_id":"","pricing_plan_id":"cebpf4jnsgd1na2vs0mg"},{"bike_id":"097bb7d3-1b6b-4f12-b4c6-2c68e92cd4ac","system_id":"levelo_inurba_marseille","lat":43.27173,"lon":5.40992,"is_reserved":false,"is_disabled":false,"rental_uris":{"android":"levelo://app?vid=097bb7d3-1b6b-4f12-b4c6-2c68e92cd4ac","ios":"levelo://app?vid=097bb7d3-1b6b-4f12-b4c6-2c68e92cd4ac"},"vehicle_type_id":"4","last_reported":1732727285,"current_range_meters":32000,"station_id":"ce4bhl12rcd13ifvqgf0","pricing_plan_id":"cebpf4jnsgd1na2vs0mg"},{"bike_id":"4dac2358-5cf1-4402-9453-071571b244ea","system_id":"levelo_inurba_marseille","lat":43.29419,"lon":5.38632,"is_reserved":false,"is_disabled":false,"rental_uris":{"android":"levelo://app?vid=4dac2358-5cf1-4402-9453-071571b244ea","ios":"levelo://app?vid=4dac2358-5cf1-4402-9453-071571b244ea"},"vehicle_type_id":"4","last_reported":1732727285,"current_range_meters":11200,"station_id":"ce4bh2h2rcd13ifvqdh0","pricing_plan_id":"cebpf4jnsgd1na2vs0mg"},{"bike_id":"0d769446-bfee-444c-bc89-bf1ae7c28259","system_id":"levelo_inurba_marseille","lat":43.29256,"lon":5.40917,"is_reserved":false,"is_disabled":true,"rental_uris":{"android":"levelo://app?vid=0d769446-bfee-444c-bc89-bf1ae7c28259","ios":"levelo://app?vid=0d769446-bfee-444c-bc89-bf1ae7c28259"},"vehicle_type_id":"4","last_reported":1732727285,"current_range_meters":0,"station_id":"ce4bh192rcd13ifvqdc0","pricing_plan_id":"cebpf4jnsgd1na2vs0mg"},{"bike_id":"853dce9c-704d-4c69-8665-fee2463ece47","system_id":"levelo_inurba_marseille","lat":43.32365,"lon":5.38878,"is_reserved":false,"is_disabled":false,"rental_uris":{"android":"levelo://app?vid=853dce9c-704d-4c69-8665-fee2463ece47","ios":"levelo://app?vid=853dce9c-704d-4c69-8665-fee2463ece47"},"vehicle_type_id":"4","last_reported":1732727285,"current_range_meters":8400,"station_id":"ce4bhqp2rcd13ifvqhog","pricing_plan_id":"cebpf4jnsgd1na2vs0mg"},{"bike_id":"9f131acf-0dc0-4bb5-afd1-e7d3c47ab64a","system_id":"levelo_inurba_marseille","lat":43.28269,"lon":5.35067,"is_reserved":false,"is_disabled":true,"rental_uris":{"android":"levelo://app?vid=9f131acf-0dc0-4bb5-afd1-e7d3c47ab64a","ios":"levelo://app?vid=9f131acf-0dc0-4bb5-afd1-e7d3c47ab64a"},"vehicle_type_id":"4","last_reported":1732727285,"current_range_meters":12000,"station_id":"ce4bhbp2rcd13ifvqerg","pricing_plan_id":"cebpf4jnsgd1na2vs0mg"},{"bike_id":"a9c734e2-d87a-4f81-afc9-bcb264dacbba","system_id":"levelo_inurba_marseille","lat":43.25728,"lon":5.4112,"is_reserved":false,"is_disabled":false,"rental_uris":{"android":"levelo://app?vid=a9c734e2-d87a-4f81-afc9-bcb264dacbba","ios":"levelo://app?vid=a9c734e2-d87a-4f81-afc9-bcb264dacbba"},"vehicle_type_id":"4","last_reported":1732727285,"current_range_meters":6000,"station_id":"ce4bhkp2rcd13ifvqgd0","pricing_plan_id":"cebpf4jnsgd1na2vs0mg"},{"bike_id":"85c6807d-adb2-4c55-89d5-379a914608be","system_id":"levelo_inurba_marseille","lat":43.337444,"lon":5.374475,"is_reserved":false,"is_disabled":false,"rental_uris":{"android":"levelo://app?vid=85c6807d-adb2-4c55-89d5-379a914608be","ios":"levelo://app?vid=85c6807d-adb2-4c55-89d5-379a914608be"},"vehicle_type_id":"4","last_reported":1732727285,"current_range_meters":36800,"station_id":"","pricing_plan_id":"cebpf4jnsgd1na2vs0mg"},{"bike_id":"02284b27-5d3f-4bc4-9f29-a2331c330a00","system_id":"levelo_inurba_marseille","lat":43.29976,"lon":5.38498,"is_reserved":false,"is_disabled":false,"rental_uris":{"android":"levelo://app?vid=02284b27-5d3f-4bc4-9f29-a2331c330a00","ios":"levelo://app?vid=02284b27-5d3f-4bc4-9f29-a2331c330a00"},"vehicle_type_id":"4","last_reported":1732727285,"current_range_meters":39200,"station_id":"ce4bgj92rcd13ifvqbd0","pricing_plan_id":"cebpf4jnsgd1na2vs0mg"},{"bike_id":"ba241fdf-ff20-4fab-8660-56e9a9cfe334","system_id":"levelo_inurba_marseille","lat":43.32368,"lon":5.38889,"is_reserved":false,"is_disabled":false,"rental_uris":{"android":"levelo://app?vid=ba241fdf-ff20-4fab-8660-56e9a9cfe334","ios":"levelo://app?vid=ba241fdf-ff20-4fab-8660-56e9a9cfe334"},"vehicle_type_id":"4","last_reported":1732727285,"current_range_meters":9200,"station_id":"ce4bhqp2rcd13ifvqhog","pricing_plan_id":"cebpf4jnsgd1na2vs0mg"},{"bike_id":"36c16893-33cf-4d17-8b2c-5b6888027cf2","system_id":"levelo_inurba_marseille","lat":43.29174,"lon":5.37166,"is_reserved":false,"is_disabled":false,"rental_uris":{"android":"levelo://app?vid=36c16893-33cf-4d17-8b2c-5b6888027cf2","ios":"levelo://app?vid=36c16893-33cf-4d17-8b2c-5b6888027cf2"},"vehicle_type_id":"4","last_reported":1732727285,"current_range_meters":34000,"station_id":"ce4bha92rcd13ifvqeh0","pricing_plan_id":"cebpf4jnsgd1na2vs0mg"},{"bike_id":"f7f6a96a-20cb-4e65-816d-53e397856901","system_id":"levelo_inurba_marseille","lat":43.2718,"lon":5.40991,"is_reserved":false,"is_disabled":false,"rental_uris":{"android":"levelo://app?vid=f7f6a96a-20cb-4e65-816d-53e397856901","ios":"levelo://app?vid=f7f6a96a-20cb-4e65-816d-53e397856901"},"vehicle_type_id":"4","last_reported":1732727285,"current_range_meters":30800,"station_id":"ce4bhl12rcd13ifvqgf0","pricing_plan_id":"cebpf4jnsgd1na2vs0mg"},{"bike_id":"6d2978ce-1088-4c7f-8b65-bbddc0b38a71","system_id":"levelo_inurba_marseille","lat":43.28833,"lon":5.39341,"is_reserved":false,"is_disabled":false,"rental_uris":{"android":"levelo://app?vid=6d2978ce-1088-4c7f-8b65-bbddc0b38a71","ios":"levelo://app?vid=6d2978ce-1088-4c7f-8b65-bbddc0b38a71"},"vehicle_type_id":"4","last_reported":1732727285,"current_range_meters":14000,"station_id":"ce4bh2p2rcd13ifvqdi0","pricing_plan_id":"cebpf4jnsgd1na2vs0mg"},{"bike_id":"7a3c8073-4799-43ae-8cbb-c96d441ba2c2","system_id":"levelo_inurba_marseille","lat":43.3081,"lon":5.38162,"is_reserved":false,"is_disabled":true,"rental_uris":{"android":"levelo://app?vid=7a3c8073-4799-43ae-8cbb-c96d441ba2c2","ios":"levelo://app?vid=7a3c8073-4799-43ae-8cbb-c96d441ba2c2"},"vehicle_type_id":"4","last_reported":1732727285,"current_range_meters":0,"station_id":"ce4bgt12rcd13ifvqce0","pricing_plan_id":"cebpf4jnsgd1na2vs0mg"},{"bike_id":"3eafc924-53d4-412f-b006-29a343f2da41","system_id":"levelo_inurba_marseille","lat":43.289671,"lon":5.366372,"is_reserved":false,"is_disabled":false,"rental_uris":{"android":"levelo://app?vid=3eafc924-53d4-412f-b006-29a343f2da41","ios":"levelo://app?vid=3eafc924-53d4-412f-b006-29a343f2da41"},"vehicle_type_id":"4","last_reported":1732727285,"current_range_meters":36400,"station_id":"ce4bhap2rcd13ifvqek0","pricing_plan_id":"cebpf4jnsgd1na2vs0mg"},{"bike_id":"1d53b8a4-d427-47ed-a67e-5baca0b22496","system_id":"levelo_inurba_marseille","lat":43.29559,"lon":5.37502,"is_reserved":false,"is_disabled":true,"rental_uris":{"android":"levelo://app?vid=1d53b8a4-d427-47ed-a67e-5baca0b22496","ios":"levelo://app?vid=1d53b8a4-d427-47ed-a67e-5baca0b22496"},"vehicle_type_id":"4","last_reported":1732727285,"current_range_meters":36400,"station_id":"ce4bgh92rcd13ifvqb50","pricing_plan_id":"cebpf4jnsgd1na2vs0mg"},{"bike_id":"6f1f8dda-57ee-4778-a172-f1293520ef6e","system_id":"levelo_inurba_marseille","lat":43.32285,"lon":5.38272,"is_reserved":false,"is_disabled":false,"rental_uris":{"android":"levelo://app?vid=6f1f8dda-57ee-4778-a172-f1293520ef6e","ios":"levelo://app?vid=6f1f8dda-57ee-4778-a172-f1293520ef6e"},"vehicle_type_id":"4","last_reported":1732727285,"current_range_meters":38800,"station_id":"ce4bhr12rcd13ifvqhqg","pricing_plan_id":"cebpf4jnsgd1na2vs0mg"},{"bike_id":"6a183b96-1b96-4d88-9308-3239877e209c","system_id":"levelo_inurba_marseille","lat":43.30421,"lon":5.41293,"is_reserved":false,"is_disabled":false,"rental_uris":{"android":"levelo://app?vid=6a183b96-1b96-4d88-9308-3239877e209c","ios":"levelo://app?vid=6a183b96-1b96-4d88-9308-3239877e209c"},"vehicle_type_id":"4","last_reported":1732727285,"current_range_meters":39200,"station_id":"ce4bhop2rcd13ifvqh8g","pricing_plan_id":"cebpf4jnsgd1na2vs0mg"},{"bike_id":"11e33eb7-9888-468a-a37e-59711cc3dd96","system_id":"levelo_inurba_marseille","lat":43.3049,"lon":5.37087,"is_reserved":false,"is_disabled":false,"rental_uris":{"android":"levelo://app?vid=11e33eb7-9888-468a-a37e-59711cc3dd96","ios":"levelo://app?vid=11e33eb7-9888-468a-a37e-59711cc3dd96"},"vehicle_type_id":"4","last_reported":1732727285,"current_range_meters":37600,"station_id":"","pricing_plan_id":"cebpf4jnsgd1na2vs0mg"},{"bike_id":"8d6ab0c3-4ad6-4f9b-92aa-9369625158f9","system_id":"levelo_inurba_marseille","lat":43.29979,"lon":5.38497,"is_reserved":false,"is_disabled":false,"rental_uris":{"android":"levelo://app?vid=8d6ab0c3-4ad6-4f9b-92aa-9369625158f9","ios":"levelo://app?vid=8d6ab0c3-4ad6-4f9b-92aa-9369625158f9"},"vehicle_type_id":"4","last_reported":1732727285,"current_range_meters":36400,"station_id":"ce4bgj92rcd13ifvqbd0","pricing_plan_id":"cebpf4jnsgd1na2vs0mg"},{"bike_id":"c6828b55-cae9-42a1-9bbb-26e0215d826b","system_id":"levelo_inurba_marseille","lat":43.33026,"lon":5.39043,"is_reserved":false,"is_disabled":false,"rental_uris":{"android":"levelo://app?vid=c6828b55-cae9-42a1-9bbb-26e0215d826b","ios":"levelo://app?vid=c6828b55-cae9-42a1-9bbb-26e0215d826b"},"vehicle_type_id":"4","last_reported":1732727285,"current_range_meters":38800,"station_id":"ce4bhr92rcd13ifvqhrg","pricing_plan_id":"cebpf4jnsgd1na2vs0mg"},{"bike_id":"fa87c63e-b59b-4a5e-870d-81f8aaec5938","system_id":"levelo_inurba_marseille","lat":43.31991,"lon":5.38147,"is_reserved":false,"is_disabled":false,"rental_uris":{"android":"levelo://app?vid=fa87c63e-b59b-4a5e-870d-81f8aaec5938","ios":"levelo://app?vid=fa87c63e-b59b-4a5e-870d-81f8aaec5938"},"vehicle_type_id":"4","last_reported":1732727285,"current_range_meters":38800,"station_id":"ce4bhr12rcd13ifvqhpg","pricing_plan_id":"cebpf4jnsgd1na2vs0mg"},{"bike_id":"7aafe616-e636-4c5d-88c3-28fdbe46d98a","system_id":"levelo_inurba_marseille","lat":43.2418,"lon":5.39733,"is_reserved":false,"is_disabled":false,"rental_uris":{"android":"levelo://app?vid=7aafe616-e636-4c5d-88c3-28fdbe46d98a","ios":"levelo://app?vid=7aafe616-e636-4c5d-88c3-28fdbe46d98a"},"vehicle_type_id":"4","last_reported":1732727285,"current_range_meters":6000,"station_id":"ce4bhn12rcd13ifvqgpg","pricing_plan_id":"cebpf4jnsgd1na2vs0mg"},{"bike_id":"5df56a47-47ee-41a8-a84f-6d6cb0e240a4","system_id":"levelo_inurba_marseille","lat":43.32295,"lon":5.38269,"is_reserved":false,"is_disabled":false,"rental_uris":{"android":"levelo://app?vid=5df56a47-47ee-41a8-a84f-6d6cb0e240a4","ios":"levelo://app?vid=5df56a47-47ee-41a8-a84f-6d6cb0e240a4"},"vehicle_type_id":"4","last_reported":1732727285,"current_range_meters":39200,"station_id":"ce4bhr12rcd13ifvqhqg","pricing_plan_id":"cebpf4jnsgd1na2vs0mg"},{"bike_id":"ccf54889-0718-41e6-8a88-ddb636f9cbca","system_id":"levelo_inurba_marseille","lat":43.30415,"lon":5.41288,"is_reserved":false,"is_disabled":false,"rental_uris":{"android":"levelo://app?vid=ccf54889-0718-41e6-8a88-ddb636f9cbca","ios":"levelo://app?vid=ccf54889-0718-41e6-8a88-ddb636f9cbca"},"vehicle_type_id":"4","last_reported":1732727285,"current_range_meters":39200,"station_id":"ce4bhop2rcd13ifvqh8g","pricing_plan_id":"cebpf4jnsgd1na2vs0mg"},{"bike_id":"070fe0b5-cefd-4257-8564-069bd7c9636a","system_id":"levelo_inurba_marseille","lat":43.27369,"lon":5.36253,"is_reserved":false,"is_disabled":false,"rental_uris":{"android":"levelo://app?vid=070fe0b5-cefd-4257-8564-069bd7c9636a","ios":"levelo://app?vid=070fe0b5-cefd-4257-8564-069bd7c9636a"},"vehicle_type_id":"4","last_reported":1732727285,"current_range_meters":38800,"station_id":"ce4bhbh2rcd13ifvqeo0","pricing_plan_id":"cebpf4jnsgd1na2vs0mg"},{"bike_id":"02bf57ec-7cf6-48eb-9b85-e586a19c8f00","system_id":"levelo_inurba_marseille","lat":43.2657,"lon":5.39004,"is_reserved":false,"is_disabled":false,"rental_uris":{"android":"levelo://app?vid=02bf57ec-7cf6-48eb-9b85-e586a19c8f00","ios":"levelo://app?vid=02bf57ec-7cf6-48eb-9b85-e586a19c8f00"},"vehicle_type_id":"4","last_reported":1732727285,"current_range_meters":16800,"station_id":"ce4bhe12rcd13ifvqf30","pricing_plan_id":"cebpf4jnsgd1na2vs0mg"},{"bike_id":"11c1d44c-9fc7-42d8-aeba-e76086731794","system_id":"levelo_inurba_marseille","lat":43.28924,"lon":5.38397,"is_reserved":false,"is_disabled":false,"rental_uris":{"android":"levelo://app?vid=11c1d44c-9fc7-42d8-aeba-e76086731794","ios":"levelo://app?vid=11c1d44c-9fc7-42d8-aeba-e76086731794"},"vehicle_type_id":"4","last_reported":1732727285,"current_range_meters":37600,"station_id":"ce4bh612rcd13ifvqe6g","pricing_plan_id":"cebpf4jnsgd1na2vs0mg"},{"bike_id":"c5086e97-1714-40e5-8396-231e5b41a2c1","system_id":"levelo_inurba_marseille","lat":43.33729,"lon":5.39178,"is_reserved":false,"is_disabled":false,"rental_uris":{"android":"levelo://app?vid=c5086e97-1714-40e5-8396-231e5b41a2c1","ios":"levelo://app?vid=c5086e97-1714-40e5-8396-231e5b41a2c1"},"vehicle_type_id":"4","last_reported":1732727285,"current_range_meters":32800,"station_id":"ce4bhr92rcd13ifvqhsg","pricing_plan_id":"cebpf4jnsgd1na2vs0mg"},{"bike_id":"a80b7d57-0204-4674-a43b-c3bdc91e1951","system_id":"levelo_inurba_marseille","lat":43.31759,"lon":5.39013,"is_reserved":false,"is_disabled":false,"rental_uris":{"android":"levelo://app?vid=a80b7d57-0204-4674-a43b-c3bdc91e1951","ios":"levelo://app?vid=a80b7d57-0204-4674-a43b-c3bdc91e1951"},"vehicle_type_id":"4","last_reported":1732727285,"current_range_meters":14400,"station_id":"ce4bhqp2rcd13ifvqhng","pricing_plan_id":"cebpf4jnsgd1na2vs0mg"},{"bike_id":"9e906672-e335-4d0b-aef1-dc3c9ab5683e","system_id":"levelo_inurba_marseille","lat":43.2587,"lon":5.39898,"is_reserved":false,"is_disabled":false,"rental_uris":{"android":"levelo://app?vid=9e906672-e335-4d0b-aef1-dc3c9ab5683e","ios":"levelo://app?vid=9e906672-e335-4d0b-aef1-dc3c9ab5683e"},"vehicle_type_id":"4","last_reported":1732727285,"current_range_meters":35200,"station_id":"ce4bhl92rcd13ifvqghg","pricing_plan_id":"cebpf4jnsgd1na2vs0mg"},{"bike_id":"79692c65-4af1-48dc-970a-7a01b620c535","system_id":"levelo_inurba_marseille","lat":43.26955,"lon":5.38644,"is_reserved":false,"is_disabled":false,"rental_uris":{"android":"levelo://app?vid=79692c65-4af1-48dc-970a-7a01b620c535","ios":"levelo://app?vid=79692c65-4af1-48dc-970a-7a01b620c535"},"vehicle_type_id":"4","last_reported":1732727285,"current_range_meters":3200,"station_id":"ce4bhh92rcd13ifvqfh0","pricing_plan_id":"cebpf4jnsgd1na2vs0mg"},{"bike_id":"f4e6993b-9236-4a7a-8329-da449625342e","system_id":"levelo_inurba_marseille","lat":43.28928,"lon":5.38392,"is_reserved":false,"is_disabled":false,"rental_uris":{"android":"levelo://app?vid=f4e6993b-9236-4a7a-8329-da449625342e","ios":"levelo://app?vid=f4e6993b-9236-4a7a-8329-da449625342e"},"vehicle_type_id":"4","last_reported":1732727285,"current_range_meters":36800,"station_id":"ce4bh612rcd13ifvqe6g","pricing_plan_id":"cebpf4jnsgd1na2vs0mg"},{"bike_id":"dd16f8da-464d-4dcb-a1dc-9b35bc1b8b9b","system_id":"levelo_inurba_marseille","lat":43.29222,"lon":5.36046,"is_reserved":false,"is_disabled":false,"rental_uris":{"android":"levelo://app?vid=dd16f8da-464d-4dcb-a1dc-9b35bc1b8b9b","ios":"levelo://app?vid=dd16f8da-464d-4dcb-a1dc-9b35bc1b8b9b"},"vehicle_type_id":"4","last_reported":1732727285,"current_range_meters":14000,"station_id":"ce4bhbh2rcd13ifvqeqg","pricing_plan_id":"cebpf4jnsgd1na2vs0mg"},{"bike_id":"1b465152-708f-40b4-af1c-57b6bd01d68e","system_id":"levelo_inurba_marseille","lat":43.28279,"lon":5.35068,"is_reserved":false,"is_disabled":true,"rental_uris":{"android":"levelo://app?vid=1b465152-708f-40b4-af1c-57b6bd01d68e","ios":"levelo://app?vid=1b465152-708f-40b4-af1c-57b6bd01d68e"},"vehicle_type_id":"4","last_reported":1732727285,"current_range_meters":16000,"station_id":"ce4bhbp2rcd13ifvqerg","pricing_plan_id":"cebpf4jnsgd1na2vs0mg"},{"bike_id":"95d13948-6dc6-43eb-aec7-38c6008d3995","system_id":"levelo_inurba_marseille","lat":43.26945,"lon":5.40251,"is_reserved":false,"is_disabled":true,"rental_uris":{"android":"levelo://app?vid=95d13948-6dc6-43eb-aec7-38c6008d3995","ios":"levelo://app?vid=95d13948-6dc6-43eb-aec7-38c6008d3995"},"vehicle_type_id":"4","last_reported":1732727285,"current_range_meters":1600,"station_id":"cjm6bp8fraef2m0cb0m0","pricing_plan_id":"cebpf4jnsgd1na2vs0mg"},{"bike_id":"b7b4dc7b-4c24-42d9-8e2d-e3afd1b0615d","system_id":"levelo_inurba_marseille","lat":43.281513,"lon":5.42646,"is_reserved":false,"is_disabled":false,"rental_uris":{"android":"levelo://app?vid=b7b4dc7b-4c24-42d9-8e2d-e3afd1b0615d","ios":"levelo://app?vid=b7b4dc7b-4c24-42d9-8e2d-e3afd1b0615d"},"vehicle_type_id":"4","last_reported":1732727285,"current_range_meters":9600,"station_id":"ce4bhnh2rcd13ifvqgug","pricing_plan_id":"cebpf4jnsgd1na2vs0mg"},{"bike_id":"c77c3287-96eb-49fb-a979-2af810276084","system_id":"levelo_inurba_marseille","lat":43.28607,"lon":5.37066,"is_reserved":false,"is_disabled":false,"rental_uris":{"android":"levelo://app?vid=c77c3287-96eb-49fb-a979-2af810276084","ios":"levelo://app?vid=c77c3287-96eb-49fb-a979-2af810276084"},"vehicle_type_id":"4","last_reported":1732727285,"current_range_meters":15200,"station_id":"ce4bht12rcd13ifvqi60","pricing_plan_id":"cebpf4jnsgd1na2vs0mg"},{"bike_id":"d0accadd-1e4b-45f2-ad9d-fd3a86b57663","system_id":"levelo_inurba_marseille","lat":43.33028,"lon":5.39047,"is_reserved":false,"is_disabled":false,"rental_uris":{"android":"levelo://app?vid=d0accadd-1e4b-45f2-ad9d-fd3a86b57663","ios":"levelo://app?vid=d0accadd-1e4b-45f2-ad9d-fd3a86b57663"},"vehicle_type_id":"4","last_reported":1732727285,"current_range_meters":6400,"station_id":"ce4bhr92rcd13ifvqhrg","pricing_plan_id":"cebpf4jnsgd1na2vs0mg"},{"bike_id":"1fbfd29e-cbdd-4d92-b5a0-bac951f96406","system_id":"levelo_inurba_marseille","lat":43.26034,"lon":5.37549,"is_reserved":false,"is_disabled":false,"rental_uris":{"android":"levelo://app?vid=1fbfd29e-cbdd-4d92-b5a0-bac951f96406","ios":"levelo://app?vid=1fbfd29e-cbdd-4d92-b5a0-bac951f96406"},"vehicle_type_id":"4","last_reported":1732727285,"current_range_meters":38800,"station_id":"ce4bhgh2rcd13ifvqfa0","pricing_plan_id":"cebpf4jnsgd1na2vs0mg"},{"bike_id":"3b093374-5ffd-48d1-80b1-6cb6ad1c7666","system_id":"levelo_inurba_marseille","lat":43.29622,"lon":5.37149,"is_reserved":false,"is_disabled":false,"rental_uris":{"android":"levelo://app?vid=3b093374-5ffd-48d1-80b1-6cb6ad1c7666","ios":"levelo://app?vid=3b093374-5ffd-48d1-80b1-6cb6ad1c7666"},"vehicle_type_id":"4","last_reported":1732727285,"current_range_meters":4000,"station_id":"ce4bgnh2rcd13ifvqc0g","pricing_plan_id":"cebpf4jnsgd1na2vs0mg"},{"bike_id":"bc2dbbf3-12f2-4066-80dd-fba1d516aca2","system_id":"levelo_inurba_marseille","lat":43.26936,"lon":5.40255,"is_reserved":false,"is_disabled":false,"rental_uris":{"android":"levelo://app?vid=bc2dbbf3-12f2-4066-80dd-fba1d516aca2","ios":"levelo://app?vid=bc2dbbf3-12f2-4066-80dd-fba1d516aca2"},"vehicle_type_id":"4","last_reported":1732727285,"current_range_meters":32800,"station_id":"cjm6bp8fraef2m0cb0m0","pricing_plan_id":"cebpf4jnsgd1na2vs0mg"},{"bike_id":"facd2445-e42d-4a69-a67b-e567c1a1e701","system_id":"levelo_inurba_marseille","lat":43.2582,"lon":5.3943,"is_reserved":false,"is_disabled":true,"rental_uris":{"android":"levelo://app?vid=facd2445-e42d-4a69-a67b-e567c1a1e701","ios":"levelo://app?vid=facd2445-e42d-4a69-a67b-e567c1a1e701"},"vehicle_type_id":"4","last_reported":1732727285,"current_range_meters":400,"station_id":"ce4bhip2rcd13ifvqft0","pricing_plan_id":"cebpf4jnsgd1na2vs0mg"},{"bike_id":"0682acdd-e4ef-4f7b-a998-0bc80aa3db0c","system_id":"levelo_inurba_marseille","lat":43.30332,"lon":5.40434,"is_reserved":false,"is_disabled":true,"rental_uris":{"android":"levelo://app?vid=0682acdd-e4ef-4f7b-a998-0bc80aa3db0c","ios":"levelo://app?vid=0682acdd-e4ef-4f7b-a998-0bc80aa3db0c"},"vehicle_type_id":"4","last_reported":1732727285,"current_range_meters":0,"station_id":"ce4bh012rcd13ifvqd10","pricing_plan_id":"cebpf4jnsgd1na2vs0mg"},{"bike_id":"dd4002c0-20f2-4e36-9570-65b77bd645b6","system_id":"levelo_inurba_marseille","lat":43.28945,"lon":5.39635,"is_reserved":false,"is_disabled":true,"rental_uris":{"android":"levelo://app?vid=dd4002c0-20f2-4e36-9570-65b77bd645b6","ios":"levelo://app?vid=dd4002c0-20f2-4e36-9570-65b77bd645b6"},"vehicle_type_id":"4","last_reported":1732727285,"current_range_meters":36000,"station_id":"ce4bh3h2rcd13ifvqdn0","pricing_plan_id":"cebpf4jnsgd1na2vs0mg"},{"bike_id":"2ce0ba19-98bf-46a0-8e55-3fa91a45fe30","system_id":"levelo_inurba_marseille","lat":43.27952,"lon":5.41052,"is_reserved":false,"is_disabled":false,"rental_uris":{"android":"levelo://app?vid=2ce0ba19-98bf-46a0-8e55-3fa91a45fe30","ios":"levelo://app?vid=2ce0ba19-98bf-46a0-8e55-3fa91a45fe30"},"vehicle_type_id":"4","last_reported":1732727285,"current_range_meters":33200,"station_id":"ce4bhnp2rcd13ifvqh0g","pricing_plan_id":"cebpf4jnsgd1na2vs0mg"},