{"last_updated":1744359243,"ttl":60,"version":"2.2","data":{"bikes":[{"bike_id":"7ff793b1-090f-4abd-8b4e-38ce6cb2e03b","system_id":"levelo_inurba_marseille","lat":43.29558,"lon":5.37543,"is_reserved":false,"is_disabled":false,"rental_uris":{"android":"levelo://app?vid=7ff793b1-090f-4abd-8b4e-38ce6cb2e03b","ios":"levelo://app?vid=7ff793b1-090f-4abd-8b4e-38ce6cb2e03b"},"vehicle_type_id":"4","last_reported":1744359243,"current_range_meters":2800,"station_id":"ce4bgh92rcd13ifvqb50","pricing_plan_id":"cebpf4jnsgd1na2vs0mg"},{"bike_id":"9b704737-af43-40c2-b70e-9e4ddeb764b6","system_id":"levelo_inurba_marseille","lat":43.23073,"lon":5.3549,"is_reserved":false,"is_disabled":false,"rental_uris":{"android":"levelo://app?vid=9b704737-af43-40c2-b70e-9e4ddeb764b6","ios":"levelo://app?vid=9b704737-af43-40c2-b70e-9e4ddeb764b6"},"vehicle_type_id":"4","last_reported":1744359243,"current_range_meters":3200,"station_id":"cpo3342slgdg3j2ifvpg","pricing_plan_id":"cebpf4jnsgd1na2vs0mg"},{"bike_id":"237d0581-005e-4676-9dbd-328f2d7dc2a1","system_id":"levelo_inurba_marseille","lat":43.26213,"lon":5.40463,"is_reserved":false,"is_disabled":false,"rental_uris":{"android":"levelo://app?vid=237d0581-005e-4676-9dbd-328f2d7dc2a1","ios":"levelo://app?vid=237d0581-005e-4676-9dbd-328f2d7dc2a1"},"vehicle_type_id":"4","last_reported":1744359243,"current_range_meters":3200,"station_id":"ce4bhmh2rcd13ifvqgmg","pricing_plan_id":"cebpf4jnsgd1na2vs0mg"},{"bike_id":"06c19568-93da-4fdc-8f40-261b1cf7dc30","system_id":"levelo_inurba_marseille","lat":43.24654,"lon":5.38895,"is_reserved":false,"is_disabled":false,"rental_uris":{"android":"levelo://app?vid=06c19568-93da-4fdc-8f40-261b1cf7dc30","ios":"levelo://app?vid=06c19568-93da-4fdc-8f40-261b1cf7dc30"},"vehicle_type_id":"4","last_reported":1744359243,"current_range_meters":3200,"station_id":"ce4bhg12rcd13ifvqf60","pricing_plan_id":"cebpf4jnsgd1na2vs0mg"},{"bike_id":"74fb6ada-5912-4908-9bc3-7b7c6b0830fc","system_id":"levelo_inurba_marseille","lat":43.24716,"lon":5.41205,"is_reserved":false,"is_disabled":false,"rental_uris":{"android":"levelo://app?vid=74fb6ada-5912-4908-9bc3-7b7c6b0830fc","ios":"levelo://app?vid=74fb6ada-5912-4908-9bc3-7b7c6b0830fc"},"vehicle_type_id":"4","last_reported":1744359243,"current_range_meters":3200,"station_id":"","pricing_plan_id":"cebpf4jnsgd1na2vs0mg"},{"bike_id":"d19f1fc8-a445-4226-b2ff-5edf5ca34317","system_id":"levelo_inurba_marseille","lat":43.28916,"lon":5.39629,"is_reserved":false,"is_disabled":false,"rental_uris":{"android":"levelo://app?vid=d19f1fc8-a445-4226-b2ff-5edf5ca34317","ios":"levelo://app?vid=d19f1fc8-a445-4226-b2ff-5edf5ca34317"},"vehicle_type_id":"4","last_reported":1744359243,"current_range_meters":3600,"station_id":"ce4bh3h2rcd13ifvqdn0","pricing_plan_id":"cebpf4jnsgd1na2vs0mg"},{"bike_id":"e603639e-a62c-44aa-a79c-d35ecc3461cd","system_id":"levelo_inurba_marseille","lat":43.24185,"lon":5.36383,"is_reserved":false,"is_disabled":false,"rental_uris":{"android":"levelo://app?vid=e603639e-a62c-44aa-a79c-d35ecc3461cd","ios":"levelo://app?vid=e603639e-a62c-44aa-a79c-d35ecc3461cd"},"vehicle_type_id":"4","last_reported":1744359243,"current_range_meters":3600,"station_id":"cpo36qri1sfpv3e86is0","pricing_plan_id":"cebpf4jnsgd1na2vs0mg"},{"bike_id":"ae034a6b-f0f8-41b0-bb76-062851fa4bf0","system_id":"levelo_inurba_marseille","lat":43.29267,"lon":5.37629,"is_reserved":false,"is_disabled":false,"rental_uris":{"android":"levelo://app?vid=ae034a6b-f0f8-41b0-bb76-062851fa4bf0","ios":"levelo://app?vid=ae034a6b-f0f8-41b0-bb76-062851fa4bf0"},"vehicle_type_id":"4","last_reported":1744359243,"current_range_meters":4000,"station_id":"ce4bgi12rcd13ifvqb80","pricing_plan_id":"cebpf4jnsgd1na2vs0mg"},{"bike_id":"6a141ebd-a9bd-43eb-b960-ad9f27ee0078","system_id":"levelo_inurba_marseille","lat":43.24993,"lon":5.3893,"is_reserved":false,"is_disabled":false,"rental_uris":{"android":"levelo://app?vid=6a141ebd-a9bd-43eb-b960-ad9f27ee0078","ios":"levelo://app?vid=6a141ebd-a9bd-43eb-b960-ad9f27ee0078"},"vehicle_type_id":"4","last_reported":1744359243,"current_range_meters":4400,"station_id":"ce4bhgp2rcd13ifvqfd0","pricing_plan_id":"cebpf4jnsgd1na2vs0mg"},{"bike_id":"6ed8c447-0d46-400c-8cef-ef3fc1240aee","system_id":"levelo_inurba_marseille","lat":43.28844,"lon":5.35848,"is_reserved":false,"is_disabled":false,"rental_uris":{"android":"levelo://app?vid=6ed8c447-0d46-400c-8cef-ef3fc1240aee","ios":"levelo://app?vid=6ed8c447-0d46-400c-8cef-ef3fc1240aee"},"vehicle_type_id":"4","last_reported":1744359243,"current_range_meters":5600,"station_id":"ce4bhb12rcd13ifvqem0","pricing_plan_id":"cebpf4jnsgd1na2vs0mg"},{"bike_id":"bca30a32-8733-4ce0-a063-c552e68fc0ca","system_id":"levelo_inurba_marseille","lat":43.31225,"lon":5.36843,"is_reserved":false,"is_disabled":false,"rental_uris":{"android":"levelo://app?vid=bca30a32-8733-4ce0-a063-c552e68fc0ca","ios":"levelo://app?vid=bca30a32-8733-4ce0-a063-c552e68fc0ca"},"vehicle_type_id":"4","last_reported":1744359243,"current_range_meters":5600,"station_id":"ce4bgl92rcd13ifvqbq0","pricing_plan_id":"cebpf4jnsgd1na2vs0mg"},{"bike_id":"3d2b8ff4-325c-49bf-b719-fc7495a3fb03","system_id":"levelo_inurba_marseille","lat":43.23154,"lon":5.43724,"is_reserved":false,"is_disabled":false,"rental_uris":{"android":"levelo://app?vid=3d2b8ff4-325c-49bf-b719-fc7495a3fb03","ios":"levelo://app?vid=3d2b8ff4-325c-49bf-b719-fc7495a3fb03"},"vehicle_type_id":"4","last_reported":1744359243,"current_range_meters":5600,"station_id":"ce4bhmp2rcd13ifvqgog","pricing_plan_id":"cebpf4jnsgd1na2vs0mg"},{"bike_id":"c243072f-6bd2-4d94-ba83-04162cf2a05c","system_id":"levelo_inurba_marseille","lat":43.27183,"lon":5.40141,"is_reserved":false,"is_disabled":false,"rental_uris":{"android":"levelo://app?vid=c243072f-6bd2-4d94-ba83-04162cf2a05c","ios":"levelo://app?vid=c243072f-6bd2-4d94-ba83-04162cf2a05c"},"vehicle_type_id":"4","last_reported":1744359243,"current_range_meters":5600,"station_id":"","pricing_plan_id":"cebpf4jnsgd1na2vs0mg"},{"bike_id":"83c132b1-a954-4d5a-a32d-9f99af4faa3c","system_id":"levelo_inurba_marseille","lat":43.30923,"lon":5.41511,"is_reserved":false,"is_disabled":false,"rental_uris":{"android":"levelo://app?vid=83c132b1-a954-4d5a-a32d-9f99af4faa3c","ios":"levelo://app?vid=83c132b1-a954-4d5a-a32d-9f99af4faa3c"},"vehicle_type_id":"4","last_reported":1744359243,"current_range_meters":6000,"station_id":"","pricing_plan_id":"cebpf4jnsgd1na2vs0mg"},{"bike_id":"3c2504ea-a138-48b4-af9e-ffd5de0b9c7c","system_id":"levelo_inurba_marseille","lat":43.29047,"lon":5.35909,"is_reserved":false,"is_disabled":false,"rental_uris":{"android":"levelo://app?vid=3c2504ea-a138-48b4-af9e-ffd5de0b9c7c","ios":"levelo://app?vid=3c2504ea-a138-48b4-af9e-ffd5de0b9c7c"},"vehicle_type_id":"4","last_reported":1744359243,"current_range_meters":6000,"station_id":"ce4bha92rcd13ifvqeg0","pricing_plan_id":"cebpf4jnsgd1na2vs0mg"},{"bike_id":"52f51aa5-d894-4cd7-a6f9-b96a96240bbd","system_id":"levelo_inurba_marseille","lat":43.31068,"lon":5.38351,"is_reserved":false,"is_disabled":false,"rental_uris":{"android":"levelo://app?vid=52f51aa5-d894-4cd7-a6f9-b96a96240bbd","ios":"levelo://app?vid=52f51aa5-d894-4cd7-a6f9-b96a96240bbd"},"vehicle_type_id":"4","last_reported":1744359243,"current_range_meters":6000,"station_id":"ce4bgv92rcd13ifvqcr0","pricing_plan_id":"cebpf4jnsgd1na2vs0mg"},{"bike_id":"42644588-78be-46b9-9121-1119a7c91922","system_id":"levelo_inurba_marseille","lat":43.32478,"lon":5.36574,"is_reserved":false,"is_disabled":false,"rental_uris":{"android":"levelo://app?vid=42644588-78be-46b9-9121-1119a7c91922","ios":"levelo://app?vid=42644588-78be-46b9-9121-1119a7c91922"},"vehicle_type_id":"4","last_reported":1744359243,"current_range_meters":6000,"station_id":"ce4bhs12rcd13ifvqhvg","pricing_plan_id":"cebpf4jnsgd1na2vs0mg"},{"bike_id":"8d2cc3bc-f300-4d85-a294-39c0424490bd","system_id":"levelo_inurba_marseille","lat":43.30547,"lon":5.36543,"is_reserved":false,"is_disabled":false,"rental_uris":{"android":"levelo://app?vid=8d2cc3bc-f300-4d85-a294-39c0424490bd","ios":"levelo://app?vid=8d2cc3bc-f300-4d85-a294-39c0424490bd"},"vehicle_type_id":"4","last_reported":1744359243,"current_range_meters":6000,"station_id":"ce4bgs12rcd13ifvqcag","pricing_plan_id":"cebpf4jnsgd1na2vs0mg"},{"bike_id":"e0571aa6-a0ae-4b88-9de0-bbb7c20d2948","system_id":"levelo_inurba_marseille","lat":43.29604,"lon":5.38103,"is_reserved":false,"is_disabled":false,"rental_uris":{"android":"levelo://app?vid=e0571aa6-a0ae-4b88-9de0-bbb7c20d2948","ios":"levelo://app?vid=e0571aa6-a0ae-4b88-9de0-bbb7c20d2948"},"vehicle_type_id":"4","last_reported":1744359243,"current_range_meters":6400,"station_id":"ce4bgl12rcd13ifvqbo0","pricing_plan_id":"cebpf4jnsgd1na2vs0mg"},{"bike_id":"49c36f6a-1574-4130-b300-770d9be5d5a0","system_id":"levelo_inurba_marseille","lat":43.30546,"lon":5.36544,"is_reserved":false,"is_disabled":false,"rental_uris":{"android":"levelo://app?vid=49c36f6a-1574-4130-b300-770d9be5d5a0","ios":"levelo://app?vid=49c36f6a-1574-4130-b300-770d9be5d5a0"},"vehicle_type_id":"4","last_reported":1744359243,"current_range_meters":6400,"station_id":"ce4bgs12rcd13ifvqcag","pricing_plan_id":"cebpf4jnsgd1na2vs0mg"},{"bike_id":"b8794014-a418-416f-97dc-9de298ff8d18","system_id":"levelo_inurba_marseille","lat":43.30325,"lon":5.40435,"is_reserved":false,"is_disabled":false,"rental_uris":{"android":"levelo://app?vid=b8794014-a418-416f-97dc-9de298ff8d18","ios":"levelo://app?vid=b8794014-a418-416f-97dc-9de298ff8d18"},"vehicle_type_id":"4","last_reported":1744359243,"current_range_meters":6400,"station_id":"ce4bh012rcd13ifvqd10","pricing_plan_id":"cebpf4jnsgd1na2vs0mg"},{"bike_id":"3102b6c5-7de9-4edb-84c1-78cca2d45726","system_id":"levelo_inurba_marseille","lat":43.2716,"lon":5.40991,"is_reserved":false,"is_disabled":false,"rental_uris":{"android":"levelo://app?vid=3102b6c5-7de9-4edb-84c1-78cca2d45726","ios":"levelo://app?vid=3102b6c5-7de9-4edb-84c1-78cca2d45726"},"vehicle_type_id":"4","last_reported":1744359243,"current_range_meters":6400,"station_id":"ce4bhl12rcd13ifvqgf0","pricing_plan_id":"cebpf4jnsgd1na2vs0mg"},{"bike_id":"19b142e7-c3ad-4749-8195-3ff260270f04","system_id":"levelo_inurba_marseille","lat":43.29418,"lon":5.38614,"is_reserved":false,"is_disabled":false,"rental_uris":{"android":"levelo://app?vid=19b142e7-c3ad-4749-8195-3ff260270f04","ios":"levelo://app?vid=19b142e7-c3ad-4749-8195-3ff260270f04"},"vehicle_type_id":"4","last_reported":1744359243,"current_range_meters":6400,"station_id":"ce4bh2h2rcd13ifvqdh0","pricing_plan_id":"cebpf4jnsgd1na2vs0mg"},{"bike_id":"77681eb7-0ca7-4181-8f4d-dc0d81e04ff3","system_id":"levelo_inurba_marseille","lat":43.24169,"lon":5.3639,"is_reserved":false,"is_disabled":false,"rental_uris":{"android":"levelo://app?vid=77681eb7-0ca7-4181-8f4d-dc0d81e04ff3","ios":"levelo://app?vid=77681eb7-0ca7-4181-8f4d-dc0d81e04ff3"},"vehicle_type_id":"4","last_reported":1744359243,"current_range_meters":6400,"station_id":"cpo36qri1sfpv3e86is0","pricing_plan_id":"cebpf4jnsgd1na2vs0mg"},{"bike_id":"4c3ceadd-ac7b-46db-bcf8-4b3dbf00e719","system_id":"levelo_inurba_marseille","lat":43.265366,"lon":5.372937,"is_reserved":false,"is_disabled":false,"rental_uris":{"android":"levelo://app?vid=4c3ceadd-ac7b-46db-bcf8-4b3dbf00e719","ios":"levelo://app?vid=4c3ceadd-ac7b-46db-bcf8-4b3dbf00e719"},"vehicle_type_id":"4","last_reported":1744359243,"current_range_meters":6800,"station_id":"ce4bhg12rcd13ifvqf70","pricing_plan_id":"cebpf4jnsgd1na2vs0mg"},{"bike_id":"4c1f7691-a169-4713-b675-2a5153227ffe","system_id":"levelo_inurba_marseille","lat":43.27824,"lon":5.4071,"is_reserved":false,"is_disabled":false,"rental_uris":{"android":"levelo://app?vid=4c1f7691-a169-4713-b675-2a5153227ffe","ios":"levelo://app?vid=4c1f7691-a169-4713-b675-2a5153227ffe"},"vehicle_type_id":"4","last_reported":1744359243,"current_range_meters":6800,"station_id":"ce4bhnh2rcd13ifvqgtg","pricing_plan_id":"cebpf4jnsgd1na2vs0mg"},{"bike_id":"804f9788-3173-4f66-8926-c5ba23a1836c","system_id":"levelo_inurba_marseille","lat":43.25944,"lon":5.40893,"is_reserved":false,"is_disabled":false,"rental_uris":{"android":"levelo://app?vid=804f9788-3173-4f66-8926-c5ba23a1836c","ios":"levelo://app?vid=804f9788-3173-4f66-8926-c5ba23a1836c"},"vehicle_type_id":"4","last_reported":1744359243,"current_range_meters":6800,"station_id":"ce4bhm92rcd13ifvqglg","pricing_plan_id":"cebpf4jnsgd1na2vs0mg"},{"bike_id":"b1966882-052f-47ac-8c2f-00f16d0c9d48","system_id":"levelo_inurba_marseille","lat":43.29262,"lon":5.37616,"is_reserved":false,"is_disabled":false,"rental_uris":{"android":"levelo://app?vid=b1966882-052f-47ac-8c2f-00f16d0c9d48","ios":"levelo://app?vid=b1966882-052f-47ac-8c2f-00f16d0c9d48"},"vehicle_type_id":"4","last_reported":1744359243,"current_range_meters":6800,"station_id":"ce4bgi12rcd13ifvqb80","pricing_plan_id":"cebpf4jnsgd1na2vs0mg"},{"bike_id":"23609fae-170c-4b85-bf85-8634f59b36d2","system_id":"levelo_inurba_marseille","lat":43.2418,"lon":5.39723,"is_reserved":false,"is_disabled":false,"rental_uris":{"android":"levelo://app?vid=23609fae-170c-4b85-bf85-8634f59b36d2","ios":"levelo://app?vid=23609fae-170c-4b85-bf85-8634f59b36d2"},"vehicle_type_id":"4","last_reported":1744359243,"current_range_meters":7200,"station_id":"ce4bhn12rcd13ifvqgpg","pricing_plan_id":"cebpf4jnsgd1na2vs0mg"},{"bike_id":"4a3e0919-27c2-445a-a961-2bd3243a227d","system_id":"levelo_inurba_marseille","lat":43.31666,"lon":5.3731,"is_reserved":false,"is_disabled":false,"rental_uris":{"android":"levelo://app?vid=4a3e0919-27c2-445a-a961-2bd3243a227d","ios":"levelo://app?vid=4a3e0919-27c2-445a-a961-2bd3243a227d"},"vehicle_type_id":"4","last_reported":1744359243,"current_range_meters":7200,"station_id":"","pricing_plan_id":"cebpf4jnsgd1na2vs0mg"},{"bike_id":"d0a8e340-5ce5-445a-97dc-245aaf2fa477","system_id":"levelo_inurba_marseille","lat":43.3229,"lon":5.40606,"is_reserved":false,"is_disabled":true,"rental_uris":{"android":"levelo://app?vid=d0a8e340-5ce5-445a-97dc-245aaf2fa477","ios":"levelo://app?vid=d0a8e340-5ce5-445a-97dc-245aaf2fa477"},"vehicle_type_id":"4","last_reported":1744359243,"current_range_meters":7200,"station_id":"","pricing_plan_id":"cebpf4jnsgd1na2vs0mg"},{"bike_id":"06227bcb-a576-4f38-b63e-ae489aac9380","system_id":"levelo_inurba_marseille","lat":43.28341,"lon":5.3809,"is_reserved":false,"is_disabled":false,"rental_uris":{"android":"levelo://app?vid=06227bcb-a576-4f38-b63e-ae489aac9380","ios":"levelo://app?vid=06227bcb-a576-4f38-b63e-ae489aac9380"},"vehicle_type_id":"4","last_reported":1744359243,"current_range_meters":7200,"station_id":"ce4bh412rcd13ifvqdr0","pricing_plan_id":"cebpf4jnsgd1na2vs0mg"},{"bike_id":"cab51c86-3706-46bc-bbae-409c8d6f3b2c","system_id":"levelo_inurba_marseille","lat":43.29261,"lon":5.38434,"is_reserved":false,"is_disabled":false,"rental_uris":{"android":"levelo://app?vid=cab51c86-3706-46bc-bbae-409c8d6f3b2c","ios":"levelo://app?vid=cab51c86-3706-46bc-bbae-409c8d6f3b2c"},"vehicle_type_id":"4","last_reported":1744359243,"current_range_meters":7200,"station_id":"ce4bh692rcd13ifvqea0","pricing_plan_id":"cebpf4jnsgd1na2vs0mg"},{"bike_id":"9ce80678-2ca4-4baa-a7d2-19d4fc944020","system_id":"levelo_inurba_marseille","lat":43.24138,"lon":5.36396,"is_reserved":false,"is_disabled":false,"rental_uris":{"android":"levelo://app?vid=9ce80678-2ca4-4baa-a7d2-19d4fc944020","ios":"levelo://app?vid=9ce80678-2ca4-4baa-a7d2-19d4fc944020"},"vehicle_type_id":"4","last_reported":1744359243,"current_range_meters":7200,"station_id":"cpo36qri1sfpv3e86is0","pricing_plan_id":"cebpf4jnsgd1na2vs0mg"},{"bike_id":"ba2c16f2-a8de-459f-a35d-6bd74f3cc715","system_id":"levelo_inurba_marseille","lat":43.23083,"lon":5.35483,"is_reserved":false,"is_disabled":false,"rental_uris":{"android":"levelo://app?vid=ba2c16f2-a8de-459f-a35d-6bd74f3cc715","ios":"levelo://app?vid=ba2c16f2-a8de-459f-a35d-6bd74f3cc715"},"vehicle_type_id":"4","last_reported":1744359243,"current_range_meters":8000,"station_id":"cpo3342slgdg3j2ifvpg","pricing_plan_id":"cebpf4jnsgd1na2vs0mg"},{"bike_id":"bff67837-c676-4b88-9fdc-8db7fe587121","system_id":"levelo_inurba_marseille","lat":43.30255,"lon":5.40059,"is_reserved":false,"is_disabled":true,"rental_uris":{"android":"levelo://app?vid=bff67837-c676-4b88-9fdc-8db7fe587121","ios":"levelo://app?vid=bff67837-c676-4b88-9fdc-8db7fe587121"},"vehicle_type_id":"4","last_reported":1744359243,"current_range_meters":8000,"station_id":"ce4bgvh2rcd13ifvqcs0","pricing_plan_id":"cebpf4jnsgd1na2vs0mg"},{"bike_id":"67a136ec-6ef1-4daf-8996-9778f5b32dad","system_id":"levelo_inurba_marseille","lat":43.337444,"lon":5.374475,"is_reserved":false,"is_disabled":false,"rental_uris":{"android":"levelo://app?vid=67a136ec-6ef1-4daf-8996-9778f5b32dad","ios":"levelo://app?vid=67a136ec-6ef1-4daf-8996-9778f5b32dad"},"vehicle_type_id":"4","last_reported":1744359243,"current_range_meters":8000,"station_id":"ce4bh0p2rcd13ifvqd70","pricing_plan_id":"cebpf4jnsgd1na2vs0mg"},{"bike_id":"3864ca11-eba3-4ea9-aa8d-c2b29b8c6d15","system_id":"levelo_inurba_marseille","lat":43.27201,"lon":5.40983,"is_reserved":false,"is_disabled":false,"rental_uris":{"android":"levelo://app?vid=3864ca11-eba3-4ea9-aa8d-c2b29b8c6d15","ios":"levelo://app?vid=3864ca11-eba3-4ea9-aa8d-c2b29b8c6d15"},"vehicle_type_id":"4","last_reported":1744359243,"current_range_meters":8400,"station_id":"ce4bhl12rcd13ifvqgf0","pricing_plan_id":"cebpf4jnsgd1na2vs0mg"},{"bike_id":"c7922c9e-df40-4d6f-92a1-640cc6bd2ff7","system_id":"levelo_inurba_marseille","lat":43.24162,"lon":5.36398,"is_reserved":false,"is_disabled":false,"rental_uris":{"android":"levelo://app?vid=c7922c9e-df40-4d6f-92a1-640cc6bd2ff7","ios":"levelo://app?vid=c7922c9e-df40-4d6f-92a1-640cc6bd2ff7"},"vehicle_type_id":"4","last_reported":1744359243,"current_range_meters":8400,"station_id":"cpo36qri1sfpv3e86is0","pricing_plan_id":"cebpf4jnsgd1na2vs0mg"},{"bike_id":"eb085f6d-e7d7-4df6-8cda-61a264d3977d","system_id":"levelo_inurba_marseille","lat":43.28107,"lon":5.3784,"is_reserved":false,"is_disabled":false,"rental_uris":{"android":"levelo://app?vid=eb085f6d-e7d7-4df6-8cda-61a264d3977d","ios":"levelo://app?vid=eb085f6d-e7d7-4df6-8cda-61a264d3977d"},"vehicle_type_id":"4","last_reported":1744359243,"current_range_meters":8400,"station_id":"ce4bha12rcd13ifvqee0","pricing_plan_id":"cebpf4jnsgd1na2vs0mg"},{"bike_id":"e3826ea7-fe13-444e-9279-3c8bb503bace","system_id":"levelo_inurba_marseille","lat":43.30417,"lon":5.41286,"is_reserved":false,"is_disabled":false,"rental_uris":{"android":"levelo://app?vid=e3826ea7-fe13-444e-9279-3c8bb503bace","ios":"levelo://app?vid=e3826ea7-fe13-444e-9279-3c8bb503bace"},"vehicle_type_id":"4","last_reported":1744359243,"current_range_meters":8400,"station_id":"ce4bhop2rcd13ifvqh8g","pricing_plan_id":"cebpf4jnsgd1na2vs0mg"},{"bike_id":"eb2a2906-4519-49e5-b09f-221125aa377a","system_id":"levelo_inurba_marseille","lat":43.30409,"lon":5.41291,"is_reserved":false,"is_disabled":false,"rental_uris":{"android":"levelo://app?vid=eb2a2906-4519-49e5-b09f-221125aa377a","ios":"levelo://app?vid=eb2a2906-4519-49e5-b09f-221125aa377a"},"vehicle_type_id":"4","last_reported":1744359243,"current_range_meters":8800,"station_id":"ce4bhop2rcd13ifvqh8g","pricing_plan_id":"cebpf4jnsgd1na2vs0mg"},{"bike_id":"2e3fc202-4684-4d64-b201-b745cfc357fe","system_id":"levelo_inurba_marseille","lat":43.247911,"lon":5.374779,"is_reserved":false,"is_disabled":false,"rental_uris":{"android":"levelo://app?vid=2e3fc202-4684-4d64-b201-b745cfc357fe","ios":"levelo://app?vid=2e3fc202-4684-4d64-b201-b745cfc357fe"},"vehicle_type_id":"4","last_reported":1744359243,"current_range_meters":8800,"station_id":"ce4bhgh2rcd13ifvqfb0","pricing_plan_id":"cebpf4jnsgd1na2vs0mg"},{"bike_id":"54da1cc9-cfd8-4409-b7c5-dca93e1b8636","system_id":"levelo_inurba_marseille","lat":43.26673,"lon":5.38261,"is_reserved":false,"is_disabled":false,"rental_uris":{"android":"levelo://app?vid=54da1cc9-cfd8-4409-b7c5-dca93e1b8636","ios":"levelo://app?vid=54da1cc9-cfd8-4409-b7c5-dca93e1b8636"},"vehicle_type_id":"4","last_reported":1744359243,"current_range_meters":8800,"station_id":"ce4bhg92rcd13ifvqf90","pricing_plan_id":"cebpf4jnsgd1na2vs0mg"},{"bike_id":"4e47d0fb-2760-4784-8c81-8e8fb738bf29","system_id":"levelo_inurba_marseille","lat":43.25865,"lon":5.39902,"is_reserved":false,"is_disabled":false,"rental_uris":{"android":"levelo://app?vid=4e47d0fb-2760-4784-8c81-8e8fb738bf29","ios":"levelo://app?vid=4e47d0fb-2760-4784-8c81-8e8fb738bf29"},"vehicle_type_id":"4","last_reported":1744359243,"current_range_meters":8800,"station_id":"ce4bhl92rcd13ifvqghg","pricing_plan_id":"cebpf4jnsgd1na2vs0mg"},{"bike_id":"82522d85-616f-4b70-b6f0-591320032371","system_id":"levelo_inurba_marseille","lat":43.31729,"lon":5.42391,"is_reserved":false,"is_disabled":false,"rental_uris":{"android":"levelo://app?vid=82522d85-616f-4b70-b6f0-591320032371","ios":"levelo://app?vid=82522d85-616f-4b70-b6f0-591320032371"},"vehicle_type_id":"4","last_reported":1744359243,"current_range_meters":8800,"station_id":"ce4bhp92rcd13ifvqhbg","pricing_plan_id":"cebpf4jnsgd1na2vs0mg"},{"bike_id":"2920a34a-85aa-438d-b849-3a7b3d3ef837","system_id":"levelo_inurba_marseille","lat":43.298681,"lon":5.397354,"is_reserved":false,"is_disabled":false,"rental_uris":{"android":"levelo://app?vid=2920a34a-85aa-438d-b849-3a7b3d3ef837","ios":"levelo://app?vid=2920a34a-85aa-438d-b849-3a7b3d3ef837"},"vehicle_type_id":"4","last_reported":1744359243,"current_range_meters":9200,"station_id":"ce4bh0h2rcd13ifvqd50","pricing_plan_id":"cebpf4jnsgd1na2vs0mg"},{"bike_id":"5afba03e-e657-4c6e-b88f-f404d866524b","system_id":"levelo_inurba_marseille","lat":43.30949,"lon":5.39035,"is_reserved":false,"is_disabled":false,"rental_uris":{"android":"levelo://app?vid=5afba03e-e657-4c6e-b88f-f404d866524b","ios":"levelo://app?vid=5afba03e-e657-4c6e-b88f-f404d866524b"},"vehicle_type_id":"4","last_reported":1744359243,"current_range_meters":9200,"station_id":"ce4bgup2rcd13ifvqco0","pricing_plan_id":"cebpf4jnsgd1na2vs0mg"},{"bike_id":"f84d37d2-52e0-4244-84d2-e716c155fcbd","system_id":"levelo_inurba_marseille","lat":43.23967,"lon":5.36626,"is_reserved":false,"is_disabled":false,"rental_uris":{"android":"levelo://app?vid=f84d37d2-52e0-4244-84d2-e716c155fcbd","ios":"levelo://app?vid=f84d37d2-52e0-4244-84d2-e716c155fcbd"},"vehicle_type_id":"4","last_reported":1744359243,"current_range_meters":9600,"station_id":"ce4bhi12rcd13ifvqfp0","pricing_plan_id":"cebpf4jnsgd1na2vs0mg"},{"bike_id":"4c9eba50-c9a7-4e00-b383-d632795a22ba","system_id":"levelo_inurba_marseille","lat":43.24994,"lon":5.38937,"is_reserved":false,"is_disabled":false,"rental_uris":{"android":"levelo://app?vid=4c9eba50-c9a7-4e00-b383-d632795a22ba","ios":"levelo://app?vid=4c9eba50-c9a7-4e00-b383-d632795a22ba"},"vehicle_type_id":"4","last_reported":1744359243,"current_range_meters":9600,"station_id":"ce4bhgp2rcd13ifvqfd0","pricing_plan_id":"cebpf4jnsgd1na2vs0mg"},{"bike_id":"fb616cd3-23a4-48e3-9a4e-7023a427b4b8","system_id":"levelo_inurba_marseille","lat":43.29672,"lon":5.39586,"is_reserved":false,"is_disabled":false,"rental_uris":{"android":"levelo://app?vid=fb616cd3-23a4-48e3-9a4e-7023a427b4b8","ios":"levelo://app?vid=fb616cd3-23a4-48e3-9a4e-7023a427b4b8"},"vehicle_type_id":"4","last_reported":1744359243,"current_range_meters":10000,"station_id":"","pricing_plan_id":"cebpf4jnsgd1na2vs0mg"},{"bike_id":"e3912051-d5ee-4edc-8596-d7e68ef17110","system_id":"levelo_inurba_marseille","lat":43.295279,"lon":5.390468,"is_reserved":false,"is_disabled":false,"rental_uris":{"android":"levelo://app?vid=e3912051-d5ee-4edc-8596-d7e68ef17110","ios":"levelo://app?vid=e3912051-d5ee-4edc-8596-d7e68ef17110"},"vehicle_type_id":"4","last_reported":1744359243,"current_range_meters":10000,"station_id":"ce4bh3p2rcd13ifvqdp0","pricing_plan_id":"cebpf4jnsgd1na2vs0mg"},{"bike_id":"0eea4067-3027-4a4b-881e-c22a104ff77c","system_id":"levelo_inurba_marseille","lat":43.29246,"lon":5.40901,"is_reserved":false,"is_disabled":false,"rental_uris":{"android":"levelo://app?vid=0eea4067-3027-4a4b-881e-c22a104ff77c","ios":"levelo://app?vid=0eea4067-3027-4a4b-881e-c22a104ff77c"},"vehicle_type_id":"4","last_reported":1744359243,"current_range_meters":10000,"station_id":"ce4bh192rcd13ifvqdc0","pricing_plan_id":"cebpf4jnsgd1na2vs0mg"},{"bike_id":"eab6cbfa-cb8e-47d7-b0d6-226ab7facec7","system_id":"levelo_inurba_marseille","lat":43.31713,"lon":5.42408,"is_reserved":false,"is_disabled":true,"rental_uris":{"android":"levelo://app?vid=eab6cbfa-cb8e-47d7-b0d6-226ab7facec7","ios":"levelo://app?vid=eab6cbfa-cb8e-47d7-b0d6-226ab7facec7"},"vehicle_type_id":"4","last_reported":1744359243,"current_range_meters":10000,"station_id":"ce4bhp92rcd13ifvqhbg","pricing_plan_id":"cebpf4jnsgd1na2vs0mg"},{"bike_id":"36dd2f5e-4014-41b9-8f6e-aa54636e0b8b","system_id":"levelo_inurba_marseille","lat":43.24163,"lon":5.36397,"is_reserved":false,"is_disabled":false,"rental_uris":{"android":"levelo://app?vid=36dd2f5e-4014-41b9-8f6e-aa54636e0b8b","ios":"levelo://app?vid=36dd2f5e-4014-41b9-8f6e-aa54636e0b8b"},"vehicle_type_id":"4","last_reported":1744359243,"current_range_meters":10000,"station_id":"cpo36qri1sfpv3e86is0","pricing_plan_id":"cebpf4jnsgd1na2vs0mg"},{"bike_id":"8c01c616-33d3-4f21-a94b-3bf76ab48ae7","system_id":"levelo_inurba_marseille","lat":43.28929,"lon":5.36651,"is_reserved":false,"is_disabled":false,"rental_uris":{"android":"levelo://app?vid=8c01c616-33d3-4f21-a94b-3bf76ab48ae7","ios":"levelo://app?vid=8c01c616-33d3-4f21-a94b-3bf76ab48ae7"},"vehicle_type_id":"4","last_reported":1744359243,"current_range_meters":10800,"station_id":"ce4bhap2rcd13ifvqek0","pricing_plan_id":"cebpf4jnsgd1na2vs0mg"},{"bike_id":"de07953f-a368-43dd-aba2-34a7197efe50","system_id":"levelo_inurba_marseille","lat":43.256115,"lon":5.405147,"is_reserved":false,"is_disabled":true,"rental_uris":{"android":"levelo://app?vid=de07953f-a368-43dd-aba2-34a7197efe50","ios":"levelo://app?vid=de07953f-a368-43dd-aba2-34a7197efe50"},"vehicle_type_id":"4","last_reported":1744359243,"current_range_meters":10800,"station_id":"","pricing_plan_id":"cebpf4jnsgd1na2vs0mg"},{"bike_id":"e4584e81-d0ff-45d4-a366-ed824c8de9b6","system_id":"levelo_inurba_marseille","lat":43.23145,"lon":5.43719,"is_reserved":false,"is_disabled":true,"rental_uris":{"android":"levelo://app?vid=e4584e81-d0ff-45d4-a366-ed824c8de9b6","ios":"levelo://app?vid=e4584e81-d0ff-45d4-a366-ed824c8de9b6"},"vehicle_type_id":"4","last_reported":1744359243,"current_range_meters":10800,"station_id":"ce4bhmp2rcd13ifvqgog","pricing_plan_id":"cebpf4jnsgd1na2vs0mg"},{"bike_id":"c533e34b-d77d-4480-9fe0-26a9546e81db","system_id":"levelo_inurba_marseille","lat":43.28611,"lon":5.37066,"is_reserved":false,"is_disabled":false,"rental_uris":{"android":"levelo://app?vid=c533e34b-d77d-4480-9fe0-26a9546e81db","ios":"levelo://app?vid=c533e34b-d77d-4480-9fe0-26a9546e81db"},"vehicle_type_id":"4","last_reported":1744359243,"current_range_meters":10800,"station_id":"ce4bht12rcd13ifvqi60","pricing_plan_id":"cebpf4jnsgd1na2vs0mg"},{"bike_id":"6c6438f6-9507-4705-a243-5daaf4cc09af","system_id":"levelo_inurba_marseille","lat":43.30732,"lon":5.42434,"is_reserved":false,"is_disabled":false,"rental_uris":{"android":"levelo://app?vid=6c6438f6-9507-4705-a243-5daaf4cc09af","ios":"levelo://app?vid=6c6438f6-9507-4705-a243-5daaf4cc09af"},"vehicle_type_id":"4","last_reported":1744359243,"current_range_meters":10800,"station_id":"st_cvj6ca6bvosntc0bfgr0","pricing_plan_id":"cebpf4jnsgd1na2vs0mg"},{"bike_id":"f960aa00-83ad-493a-b0ad-c401b24799e7","system_id":"levelo_inurba_marseille","lat":43.24177,"lon":5.39725,"is_reserved":false,"is_disabled":false,"rental_uris":{"android":"levelo://app?vid=f960aa00-83ad-493a-b0ad-c401b24799e7","ios":"levelo://app?vid=f960aa00-83ad-493a-b0ad-c401b24799e7"},"vehicle_type_id":"4","last_reported":1744359243,"current_range_meters":11200,"station_id":"ce4bhn12rcd13ifvqgpg","pricing_plan_id":"cebpf4jnsgd1na2vs0mg"},{"bike_id":"82d3762f-dbcd-4c6c-bd48-3e7c9a4f527d","system_id":"levelo_inurba_marseille","lat":43.29269,"lon":5.37591,"is_reserved":false,"is_disabled":false,"rental_uris":{"android":"levelo://app?vid=82d3762f-dbcd-4c6c-bd48-3e7c9a4f527d","ios":"levelo://app?vid=82d3762f-dbcd-4c6c-bd48-3e7c9a4f527d"},"vehicle_type_id":"4","last_reported":1744359243,"current_range_meters":11200,"station_id":"ce4bgi12rcd13ifvqb80","pricing_plan_id":"cebpf4jnsgd1na2vs0mg"},{"bike_id":"d869c51f-ca54-489a-b77c-2cec7df9da48","system_id":"levelo_inurba_marseille","lat":43.31219,"lon":5.3685,"is_reserved":false,"is_disabled":false,"rental_uris":{"android":"levelo://app?vid=d869c51f-ca54-489a-b77c-2cec7df9da48","ios":"levelo://app?vid=d869c51f-ca54-489a-b77c-2cec7df9da48"},"vehicle_type_id":"4","last_reported":1744359243,"current_range_meters":11200,"station_id":"ce4bgl92rcd13ifvqbq0","pricing_plan_id":"cebpf4jnsgd1na2vs0mg"},{"bike_id":"0922821c-4e1d-4817-9469-860e55f8f0d1","system_id":"levelo_inurba_marseille","lat":43.22503,"lon":5.34783,"is_reserved":false,"is_disabled":false,"rental_uris":{"android":"levelo://app?vid=0922821c-4e1d-4817-9469-860e55f8f0d1","ios":"levelo://app?vid=0922821c-4e1d-4817-9469-860e55f8f0d1"},"vehicle_type_id":"4","last_reported":1744359243,"current_range_meters":11200,"station_id":"st_cvj5dfep6f1abm77gieg","pricing_plan_id":"cebpf4jnsgd1na2vs0mg"},{"bike_id":"23718e9a-5ce7-4d28-99a5-8f754f56e13c","system_id":"levelo_inurba_marseille","lat":43.22498,"lon":5.34815,"is_reserved":false,"is_disabled":true,"rental_uris":{"android":"levelo://app?vid=23718e9a-5ce7-4d28-99a5-8f754f56e13c","ios":"levelo://app?vid=23718e9a-5ce7-4d28-99a5-8f754f56e13c"},"vehicle_type_id":"4","last_reported":1744359243,"current_range_meters":11600,"station_id":"st_cvj5dfep6f1abm77gieg","pricing_plan_id":"cebpf4jnsgd1na2vs0mg"},{"bike_id":"c266cdc4-c7b8-499b-9979-d13187952b82","system_id":"levelo_inurba_marseille","lat":43.26935,"lon":5.38921,"is_reserved":false,"is_disabled":false,"rental_uris":{"android":"levelo://app?vid=c266cdc4-c7b8-499b-9979-d13187952b82","ios":"levelo://app?vid=c266cdc4-c7b8-499b-9979-d13187952b82"},"vehicle_type_id":"4","last_reported":1744359243,"current_range_meters":11600,"station_id":"ce4bhhh2rcd13ifvqfl0","pricing_plan_id":"cebpf4jnsgd1na2vs0mg"},{"bike_id":"9aac65b8-8f8f-49f0-b49e-a5d1465af970","system_id":"levelo_inurba_marseille","lat":43.30953,"lon":5.39058,"is_reserved":false,"is_disabled":false,"rental_uris":{"android":"levelo://app?vid=9aac65b8-8f8f-49f0-b49e-a5d1465af970","ios":"levelo://app?vid=9aac65b8-8f8f-49f0-b49e-a5d1465af970"},"vehicle_type_id":"4","last_reported":1744359243,"current_range_meters":11600,"station_id":"ce4bgup2rcd13ifvqco0","pricing_plan_id":"cebpf4jnsgd1na2vs0mg"},{"bike_id":"1a952879-6c88-4fe1-be76-32006d5594ff","system_id":"levelo_inurba_marseille","lat":43.29151,"lon":5.4003,"is_reserved":false,"is_disabled":false,"rental_uris":{"android":"levelo://app?vid=1a952879-6c88-4fe1-be76-32006d5594ff","ios":"levelo://app?vid=1a952879-6c88-4fe1-be76-32006d5594ff"},"vehicle_type_id":"4","last_reported":1744359243,"current_range_meters":11600,"station_id":"","pricing_plan_id":"cebpf4jnsgd1na2vs0mg"},{"bike_id":"4f3acd91-ce8e-4583-bef1-d80af5069254","system_id":"levelo_inurba_marseille","lat":43.24175,"lon":5.39735,"is_reserved":false,"is_disabled":false,"rental_uris":{"android":"levelo://app?vid=4f3acd91-ce8e-4583-bef1-d80af5069254","ios":"levelo://app?vid=4f3acd91-ce8e-4583-bef1-d80af5069254"},"vehicle_type_id":"4","last_reported":1744359243,"current_range_meters":12000,"station_id":"ce4bhn12rcd13ifvqgpg","pricing_plan_id":"cebpf4jnsgd1na2vs0mg"},{"bike_id":"a53b4f86-3984-4b3c-86c3-5a7e2637abf6","system_id":"levelo_inurba_marseille","lat":43.28348,"lon":5.38101,"is_reserved":false,"is_disabled":false,"rental_uris":{"android":"levelo://app?vid=a53b4f86-3984-4b3c-86c3-5a7e2637abf6","ios":"levelo://app?vid=a53b4f86-3984-4b3c-86c3-5a7e2637abf6"},"vehicle_type_id":"4","last_reported":1744359243,"current_range_meters":12000,"station_id":"ce4bh412rcd13ifvqdr0","pricing_plan_id":"cebpf4jnsgd1na2vs0mg"},{"bike_id":"190bed17-6627-4f7f-9040-d999c64b1fa9","system_id":"levelo_inurba_marseille","lat":43.30414,"lon":5.41287,"is_reserved":false,"is_disabled":false,"rental_uris":{"android":"levelo://app?vid=190bed17-6627-4f7f-9040-d999c64b1fa9","ios":"levelo://app?vid=190bed17-6627-4f7f-9040-d999c64b1fa9"},"vehicle_type_id":"4","last_reported":1744359243,"current_range_meters":12000,"station_id":"ce4bhop2rcd13ifvqh8g","pricing_plan_id":"cebpf4jnsgd1na2vs0mg"},{"bike_id":"46d16022-28be-4959-87dc-6761d956b292","system_id":"levelo_inurba_marseille","lat":43.30524,"lon":5.36536,"is_reserved":false,"is_disabled":false,"rental_uris":{"android":"levelo://app?vid=46d16022-28be-4959-87dc-6761d956b292","ios":"levelo://app?vid=46d16022-28be-4959-87dc-6761d956b292"},"vehicle_type_id":"4","last_reported":1744359243,"current_range_meters":12000,"station_id":"ce4bgs12rcd13ifvqcag","pricing_plan_id":"cebpf4jnsgd1na2vs0mg"},{"bike_id":"b0a4d105-d53b-4248-b768-fd73230a760b","system_id":"levelo_inurba_marseille","lat":43.26948,"lon":5.38643,"is_reserved":false,"is_disabled":false,"rental_uris":{"android":"levelo://app?vid=b0a4d105-d53b-4248-b768-fd73230a760b","ios":"levelo://app?vid=b0a4d105-d53b-4248-b768-fd73230a760b"},"vehicle_type_id":"4","last_reported":1744359243,"current_range_meters":12400,"station_id":"ce4bhh92rcd13ifvqfh0","pricing_plan_id":"cebpf4jnsgd1na2vs0mg"},{"bike_id":"94455896-0f19-4fae-bd72-9879f01fcd6e","system_id":"levelo_inurba_marseille","lat":43.29549,"lon":5.42285,"is_reserved":false,"is_disabled":true,"rental_uris":{"android":"levelo://app?vid=94455896-0f19-4fae-bd72-9879f01fcd6e","ios":"levelo://app?vid=94455896-0f19-4fae-bd72-9879f01fcd6e"},"vehicle_type_id":"4","last_reported":1744359243,"current_range_meters":12400,"station_id":"ce4bhph2rcd13ifvqhdg","pricing_plan_id":"cebpf4jnsgd1na2vs0mg"},{"bike_id":"e040405b-cc66-411d-870a-81bea7da5828","system_id":"levelo_inurba_marseille","lat":43.30569,"lon":5.36531,"is_reserved":false,"is_disabled":false,"rental_uris":{"android":"levelo://app?vid=e040405b-cc66-411d-870a-81bea7da5828","ios":"levelo://app?vid=e040405b-cc66-411d-870a-81bea7da5828"},"vehicle_type_id":"4","last_reported":1744359243,"current_range_meters":12000,"station_id":"ce4bgs12rcd13ifvqcag","pricing_plan_id":"cebpf4jnsgd1na2vs0mg"},{"bike_id":"c8e8c673-cf38-4e54-846c-380cb950ff4e","system_id":"levelo_inurba_marseille","lat":43.24175,"lon":5.39705,"is_reserved":false,"is_disabled":false,"rental_uris":{"android":"levelo://app?vid=c8e8c673-cf38-4e54-846c-380cb950ff4e","ios":"levelo://app?vid=c8e8c673-cf38-4e54-846c-380cb950ff4e"},"vehicle_type_id":"4","last_reported":1744359243,"current_range_meters":12400,"station_id":"ce4bhn12rcd13ifvqgpg","pricing_plan_id":"cebpf4jnsgd1na2vs0mg"},{"bike_id":"a4cb75f8-85cb-4f4a-8281-971d890f52c2","system_id":"levelo_inurba_marseille","lat":43.24804,"lon":5.37463,"is_reserved":false,"is_disabled":false,"rental_uris":{"android":"levelo://app?vid=a4cb75f8-85cb-4f4a-8281-971d890f52c2","ios":"levelo://app?vid=a4cb75f8-85cb-4f4a-8281-971d890f52c2"},"vehicle_type_id":"4","last_reported":1744359243,"current_range_meters":12800,"station_id":"ce4bhgh2rcd13ifvqfb0","pricing_plan_id":"cebpf4jnsgd1na2vs0mg"},{"bike_id":"da6a57ea-c38f-48a5-89c8-6054329a947b","system_id":"levelo_inurba_marseille","lat":43.27172,"lon":5.40992,"is_reserved":false,"is_disabled":false,"rental_uris":{"android":"levelo://app?vid=da6a57ea-c38f-48a5-89c8-6054329a947b","ios":"levelo://app?vid=da6a57ea-c38f-48a5-89c8-6054329a947b"},"vehicle_type_id":"4","last_reported":1744359243,"current_range_meters":12800,"station_id":"ce4bhl12rcd13ifvqgf0","pricing_plan_id":"cebpf4jnsgd1na2vs0mg"},{"bike_id":"6ae42d22-449e-430c-b887-6a8836aa2696","system_id":"levelo_inurba_marseille","lat":43.30543,"lon":5.36533,"is_reserved":false,"is_disabled":false,"rental_uris":{"android":"levelo://app?vid=6ae42d22-449e-430c-b887-6a8836aa2696","ios":"levelo://app?vid=6ae42d22-449e-430c-b887-6a8836aa2696"},"vehicle_type_id":"4","last_reported":1744359243,"current_range_meters":12800,"station_id":"ce4bgs12rcd13ifvqcag","pricing_plan_id":"cebpf4jnsgd1na2vs0mg"},{"bike_id":"af822ce9-4aa0-4c01-94e7-6b75bab907bc","system_id":"levelo_inurba_marseille","lat":43.29803,"lon":5.39047,"is_reserved":false,"is_disabled":false,"rental_uris":{"android":"levelo://app?vid=af822ce9-4aa0-4c01-94e7-6b75bab907bc","ios":"levelo://app?vid=af822ce9-4aa0-4c01-94e7-6b75bab907bc"},"vehicle_type_id":"4","last_reported":1744359243,"current_range_meters":12800,"station_id":"ce4bh3p2rcd13ifvqdp0","pricing_plan_id":"cebpf4jnsgd1na2vs0mg"},{"bike_id":"feb04d1c-c2bd-4d38-91ca-a0075a753750","system_id":"levelo_inurba_marseille","lat":43.28417,"lon":5.34975,"is_reserved":false,"is_disabled":false,"rental_uris":{"android":"levelo://app?vid=feb04d1c-c2bd-4d38-91ca-a0075a753750","ios":"levelo://app?vid=feb04d1c-c2bd-4d38-91ca-a0075a753750"},"vehicle_type_id":"4","last_reported":1744359243,"current_range_meters":12800,"station_id":"ce4bhbh2rcd13ifvqepg","pricing_plan_id":"cebpf4jnsgd1na2vs0mg"},{"bike_id":"078a6dc5-3c98-4f01-aecd-ecf8c0f132d9","system_id":"levelo_inurba_marseille","lat":43.29982,"lon":5.38502,"is_reserved":false,"is_disabled":true,"rental_uris":{"android":"levelo://app?vid=078a6dc5-3c98-4f01-aecd-ecf8c0f132d9","ios":"levelo://app?vid=078a6dc5-3c98-4f01-aecd-ecf8c0f132d9"},"vehicle_type_id":"4","last_reported":1744359243,"current_range_meters":12800,"station_id":"ce4bgj92rcd13ifvqbd0","pricing_plan_id":"cebpf4jnsgd1na2vs0mg"},{"bike_id":"76454009-dfc9-4f8e-9f37-499a2bf937c2","system_id":"levelo_inurba_marseille","lat":43.28483,"lon":5.38418,"is_reserved":false,"is_disabled":false,"rental_uris":{"android":"levelo://app?vid=76454009-dfc9-4f8e-9f37-499a2bf937c2","ios":"levelo://app?vid=76454009-dfc9-4f8e-9f37-499a2bf937c2"},"vehicle_type_id":"4","last_reported":1744359243,"current_range_meters":12800,"station_id":"ce4bh512rcd13ifvqe3g","pricing_plan_id":"cebpf4jnsgd1na2vs0mg"},{"bike_id":"6c0daaf5-9843-42da-91c6-13f2f56788ce","system_id":"levelo_inurba_marseille","lat":43.303254,"lon":5.404198,"is_reserved":false,"is_disabled":false,"rental_uris":{"android":"levelo://app?vid=6c0daaf5-9843-42da-91c6-13f2f56788ce","ios":"levelo://app?vid=6c0daaf5-9843-42da-91c6-13f2f56788ce"},"vehicle_type_id":"4","last_reported":1744359243,"current_range_meters":13600,"station_id":"ce4bh0p2rcd13ifvqd70","pricing_plan_id":"cebpf4jnsgd1na2vs0mg"},{"bike_id":"33551090-e6d0-4b4b-819a-3dbf58b9aa84","system_id":"levelo_inurba_marseille","lat":43.28612,"lon":5.35107,"is_reserved":false,"is_disabled":false,"rental_uris":{"android":"levelo://app?vid=33551090-e6d0-4b4b-819a-3dbf58b9aa84","ios":"levelo://app?vid=33551090-e6d0-4b4b-819a-3dbf58b9aa84"},"vehicle_type_id":"4","last_reported":1744359243,"current_range_meters":13600,"station_id":"ce4bhch2rcd13ifvqeug","pricing_plan_id":"cebpf4jnsgd1na2vs0mg"},{"bike_id":"4bcdcc82-d58d-4172-b626-a8c82408681c","system_id":"levelo_inurba_marseille","lat":43.31226,"lon":5.3685,"is_reserved":false,"is_disabled":true,"rental_uris":{"android":"levelo://app?vid=4bcdcc82-d58d-4172-b626-a8c82408681c","ios":"levelo://app?vid=4bcdcc82-d58d-4172-b626-a8c82408681c"},"vehicle_type_id":"4","last_reported":1744359243,"current_range_meters":13600,"station_id":"ce4bgl92rcd13ifvqbq0","pricing_plan_id":"cebpf4jnsgd1na2vs0mg"},{"bike_id":"d1de17d8-8473-459c-ab85-65418194e22a","system_id":"levelo_inurba_marseille","lat":43.26559,"lon":5.39017,"is_reserved":false,"is_disabled":false,"rental_uris":{"android":"levelo://app?vid=d1de17d8-8473-459c-ab85-65418194e22a","ios":"levelo://app?vid=d1de17d8-8473-459c-ab85-65418194e22a"},"vehicle_type_id":"4","last_reported":1744359243,"current_range_meters":13600,"station_id":"ce4bhe12rcd13ifvqf30","pricing_plan_id":"cebpf4jnsgd1na2vs0mg"},{"bike_id":"463b41fd-37bb-48c0-a6e4-12f737a3d7cf","system_id":"levelo_inurba_marseille","lat":43.26999,"lon":5.40307,"is_reserved":false,"is_disabled":true,"rental_uris":{"android":"levelo://app?vid=463b41fd-37bb-48c0-a6e4-12f737a3d7cf","ios":"levelo://app?vid=463b41fd-37bb-48c0-a6e4-12f737a3d7cf"},"vehicle_type_id":"4","last_reported":1744359243,"current_range_meters":14000,"station_id":"cjm6bp8fraef2m0cb0m0","pricing_plan_id":"cebpf4jnsgd1na2vs0mg"},{"bike_id":"8db8f393-5835-431a-a7f0-5e2c128a8603","system_id":"levelo_inurba_marseille","lat":43.2961,"lon":5.37727,"is_reserved":false,"is_disabled":false,"rental_uris":{"android":"levelo://app?vid=8db8f393-5835-431a-a7f0-5e2c128a8603","ios":"levelo://app?vid=8db8f393-5835-431a-a7f0-5e2c128a8603"},"vehicle_type_id":"4","last_reported":1744359243,"current_range_meters":13600,"station_id":"ce4bgi92rcd13ifvqb90","pricing_plan_id":"cebpf4jnsgd1na2vs0mg"},{"bike_id":"2d2e31a1-75bd-4ef3-8efc-056c6e4199ac","system_id":"levelo_inurba_marseille","lat":43.28614,"lon":5.3511,"is_reserved":false,"is_disabled":false,"rental_uris":{"android":"levelo://app?vid=2d2e31a1-75bd-4ef3-8efc-056c6e4199ac","ios":"levelo://app?vid=2d2e31a1-75bd-4ef3-8efc-056c6e4199ac"},"vehicle_type_id":"4","last_reported":1744359243,"current_range_meters":14400,"station_id":"ce4bhch2rcd13ifvqeug","pricing_plan_id":"cebpf4jnsgd1na2vs0mg"},{"bike_id":"cafab32f-8313-4739-adab-d722a6b3450c","system_id":"levelo_inurba_marseille","lat":43.297133,"lon":5.366144,"is_reserved":false,"is_disabled":false,"rental_uris":{"android":"levelo://app?vid=cafab32f-8313-4739-adab-d722a6b3450c","ios":"levelo://app?vid=cafab32f-8313-4739-adab-d722a6b3450c"},"vehicle_type_id":"4","last_reported":1744359243,"current_range_meters":14000,"station_id":"ce4bhbh2rcd13ifvqeqg","pricing_plan_id":"cebpf4jnsgd1na2vs0mg"},{"bike_id":"c5b9f1cf-9da7-4cc8-b39f-953698218f78","system_id":"levelo_inurba_marseille","lat":43.32547,"lon":5.41428,"is_reserved":false,"is_disabled":false,"rental_uris":{"android":"levelo://app?vid=c5b9f1cf-9da7-4cc8-b39f-953698218f78","ios":"levelo://app?vid=c5b9f1cf-9da7-4cc8-b39f-953698218f78"},"vehicle_type_id":"4","last_reported":1744359243,"current_range_meters":14400,"station_id":"ce4bhq12rcd13ifvqhhg","pricing_plan_id":"cebpf4jnsgd1na2vs0mg"},{"bike_id":"6d1f80b1-80e0-4012-99d1-3f8172cadb63","system_id":"levelo_inurba_marseille","lat":43.24176,"lon":5.36385,"is_reserved":false,"is_disabled":false,"rental_uris":{"android":"levelo://app?vid=6d1f80b1-80e0-4012-99d1-3f8172cadb63","ios":"levelo://app?vid=6d1f80b1-80e0-4012-99d1-3f8172cadb63"},"vehicle_type_id":"4","last_reported":1744359243,"current_range_meters":14400,"station_id":"cpo36qri1sfpv3e86is0","pricing_plan_id":"cebpf4jnsgd1na2vs0mg"},{"bike_id":"8def42d5-7601-461e-b69f-dd41878701ec","system_id":"levelo_inurba_marseille","lat":43.30457,"lon":5.37909,"is_reserved":false,"is_disabled":false,"rental_uris":{"android":"levelo://app?vid=8def42d5-7601-461e-b69f-dd41878701ec","ios":"levelo://app?vid=8def42d5-7601-461e-b69f-dd41878701ec"},"vehicle_type_id":"4","last_reported":1744359243,"current_range_meters":14400,"station_id":"ce4bgup2rcd13ifvqcn0","pricing_plan_id":"cebpf4jnsgd1na2vs0mg"},{"bike_id":"992d1a55-4112-4754-aa45-20117fd71689","system_id":"levelo_inurba_marseille","lat":43.31276,"lon":5.40173,"is_reserved":false,"is_disabled":false,"rental_uris":{"android":"levelo://app?vid=992d1a55-4112-4754-aa45-20117fd71689","ios":"levelo://app?vid=992d1a55-4112-4754-aa45-20117fd71689"},"vehicle_type_id":"4","last_reported":1744359243,"current_range_meters":14800,"station_id":"ce4bh092rcd13ifvqd30","pricing_plan_id":"cebpf4jnsgd1na2vs0mg"},{"bike_id":"6eb8c57a-4190-4f8d-86a1-123baf9063f7","system_id":"levelo_inurba_marseille","lat":43.30556,"lon":5.36529,"is_reserved":false,"is_disabled":false,"rental_uris":{"android":"levelo://app?vid=6eb8c57a-4190-4f8d-86a1-123baf9063f7","ios":"levelo://app?vid=6eb8c57a-4190-4f8d-86a1-123baf9063f7"},"vehicle_type_id":"4","last_reported":1744359243,"current_range_meters":14800,"station_id":"ce4bgs12rcd13ifvqcag","pricing_plan_id":"cebpf4jnsgd1na2vs0mg"},{"bike_id":"627403f8-4468-4a41-8798-323347b58cc9","system_id":"levelo_inurba_marseille","lat":43.27171,"lon":5.41002,"is_reserved":false,"is_disabled":false,"rental_uris":{"android":"levelo://app?vid=627403f8-4468-4a41-8798-323347b58cc9","ios":"levelo://app?vid=627403f8-4468-4a41-8798-323347b58cc9"},"vehicle_type_id":"4","last_reported":1744359243,"current_range_meters":14800,"station_id":"ce4bhl12rcd13ifvqgf0","pricing_plan_id":"cebpf4jnsgd1na2vs0mg"},{"bike_id":"64048e4a-ad96-4bc6-927c-a054e8ead51f","system_id":"levelo_inurba_marseille","lat":43.31255,"lon":5.36895,"is_reserved":false,"is_disabled":false,"rental_uris":{"android":"levelo://app?vid=64048e4a-ad96-4bc6-927c-a054e8ead51f","ios":"levelo://app?vid=64048e4a-ad96-4bc6-927c-a054e8ead51f"},"vehicle_type_id":"4","last_reported":1744359243,"current_range_meters":14800,"station_id":"ce4bgl92rcd13ifvqbq0","pricing_plan_id":"cebpf4jnsgd1na2vs0mg"},{"bike_id":"09b23838-ef8a-400d-9175-f211d64a4290","system_id":"levelo_inurba_marseille","lat":43.25719,"lon":5.41089,"is_reserved":false,"is_disabled":false,"rental_uris":{"android":"levelo://app?vid=09b23838-ef8a-400d-9175-f211d64a4290","ios":"levelo://app?vid=09b23838-ef8a-400d-9175-f211d64a4290"},"vehicle_type_id":"4","last_reported":1744359243,"current_range_meters":14800,"station_id":"ce4bhkp2rcd13ifvqgd0","pricing_plan_id":"cebpf4jnsgd1na2vs0mg"},{"bike_id":"1b28a96e-ff57-4bf5-85d0-8da089b3d3cd","system_id":"levelo_inurba_marseille","lat":43.26687,"lon":5.38269,"is_reserved":false,"is_disabled":true,"rental_uris":{"android":"levelo://app?vid=1b28a96e-ff57-4bf5-85d0-8da089b3d3cd","ios":"levelo://app?vid=1b28a96e-ff57-4bf5-85d0-8da089b3d3cd"},"vehicle_type_id":"4","last_reported":1744359243,"current_range_meters":14800,"station_id":"ce4bhg92rcd13ifvqf90","pricing_plan_id":"cebpf4jnsgd1na2vs0mg"},{"bike_id":"a3192118-2f40-468a-8388-203822909bd5","system_id":"levelo_inurba_marseille","lat":43.28252,"lon":5.35077,"is_reserved":false,"is_disabled":false,"rental_uris":{"android":"levelo://app?vid=a3192118-2f40-468a-8388-203822909bd5","ios":"levelo://app?vid=a3192118-2f40-468a-8388-203822909bd5"},"vehicle_type_id":"4","last_reported":1744359243,"current_range_meters":14400,"station_id":"ce4bhbp2rcd13ifvqerg","pricing_plan_id":"cebpf4jnsgd1na2vs0mg"},{"bike_id":"b1adeab2-35e9-4de3-a932-d299ab2dcb4a","system_id":"levelo_inurba_marseille","lat":43.29789,"lon":5.37101,"is_reserved":false,"is_disabled":false,"rental_uris":{"android":"levelo://app?vid=b1adeab2-35e9-4de3-a932-d299ab2dcb4a","ios":"levelo://app?vid=b1adeab2-35e9-4de3-a932-d299ab2dcb4a"},"vehicle_type_id":"4","last_reported":1744359243,"current_range_meters":14800,"station_id":"ce4bgop2rcd13ifvqc1g","pricing_plan_id":"cebpf4jnsgd1na2vs0mg"},{"bike_id":"238f5de3-13e7-466c-9d9f-206547f0107c","system_id":"levelo_inurba_marseille","lat":43.30559,"lon":5.36529,"is_reserved":false,"is_disabled":false,"rental_uris":{"android":"levelo://app?vid=238f5de3-13e7-466c-9d9f-206547f0107c","ios":"levelo://app?vid=238f5de3-13e7-466c-9d9f-206547f0107c"},"vehicle_type_id":"4","last_reported":1744359243,"current_range_meters":15200,"station_id":"ce4bgs12rcd13ifvqcag","pricing_plan_id":"cebpf4jnsgd1na2vs0mg"},{"bike_id":"34c220b9-aac1-404e-869e-fa2ce4ec3740","system_id":"levelo_inurba_marseille","lat":43.30273,"lon":5.37724,"is_reserved":false,"is_disabled":false,"rental_uris":{"android":"levelo://app?vid=34c220b9-aac1-404e-869e-fa2ce4ec3740","ios":"levelo://app?vid=34c220b9-aac1-404e-869e-fa2ce4ec3740"},"vehicle_type_id":"4","last_reported":1744359243,"current_range_meters":15200,"station_id":"ce4bguh2rcd13ifvqcj0","pricing_plan_id":"cebpf4jnsgd1na2vs0mg"},{"bike_id":"d3733724-f81e-49a0-9b35-7f1e48992c30","system_id":"levelo_inurba_marseille","lat":43.3188,"lon":5.40746,"is_reserved":false,"is_disabled":false,"rental_uris":{"android":"levelo://app?vid=d3733724-f81e-49a0-9b35-7f1e48992c30","ios":"levelo://app?vid=d3733724-f81e-49a0-9b35-7f1e48992c30"},"vehicle_type_id":"4","last_reported":1744359243,"current_range_meters":15200,"station_id":"ce4bhq12rcd13ifvqhig","pricing_plan_id":"cebpf4jnsgd1na2vs0mg"},{"bike_id":"da74cb24-1f19-429e-a8f0-5f15e1840b81","system_id":"levelo_inurba_marseille","lat":43.30208,"lon":5.39468,"is_reserved":false,"is_disabled":false,"rental_uris":{"android":"levelo://app?vid=da74cb24-1f19-429e-a8f0-5f15e1840b81","ios":"levelo://app?vid=da74cb24-1f19-429e-a8f0-5f15e1840b81"},"vehicle_type_id":"4","last_reported":1744359243,"current_range_meters":16000,"station_id":"ce4bh0p2rcd13ifvqd70","pricing_plan_id":"cebpf4jnsgd1na2vs0mg"},{"bike_id":"7ecb8ede-57ca-44aa-8298-85b1b4a01d10","system_id":"levelo_inurba_marseille","lat":43.25107,"lon":5.40335,"is_reserved":false,"is_disabled":false,"rental_uris":{"android":"levelo://app?vid=7ecb8ede-57ca-44aa-8298-85b1b4a01d10","ios":"levelo://app?vid=7ecb8ede-57ca-44aa-8298-85b1b4a01d10"},"vehicle_type_id":"4","last_reported":1744359243,"current_range_meters":16000,"station_id":"ce4bhlh2rcd13ifvqgig","pricing_plan_id":"cebpf4jnsgd1na2vs0mg"},{"bike_id":"7d3b44e2-e41b-45a7-b28a-d5034c0720d0","system_id":"levelo_inurba_marseille","lat":43.29044,"lon":5.39957,"is_reserved":false,"is_disabled":false,"rental_uris":{"android":"levelo://app?vid=7d3b44e2-e41b-45a7-b28a-d5034c0720d0","ios":"levelo://app?vid=7d3b44e2-e41b-45a7-b28a-d5034c0720d0"},"vehicle_type_id":"4","last_reported":1744359243,"current_range_meters":16000,"station_id":"ce4bh392rcd13ifvqdm0","pricing_plan_id":"cebpf4jnsgd1na2vs0mg"},{"bike_id":"549918be-d79a-4899-a870-6473907900ee","system_id":"levelo_inurba_marseille","lat":43.2986,"lon":5.36282,"is_reserved":false,"is_disabled":true,"rental_uris":{"android":"levelo://app?vid=549918be-d79a-4899-a870-6473907900ee","ios":"levelo://app?vid=549918be-d79a-4899-a870-6473907900ee"},"vehicle_type_id":"4","last_reported":1744359243,"current_range_meters":16000,"station_id":"ce4bgpp2rcd13ifvqc3g","pricing_plan_id":"cebpf4jnsgd1na2vs0mg"},{"bike_id":"0a12228f-61f9-48c1-9f2f-bd8159dce7a6","system_id":"levelo_inurba_marseille","lat":43.2623,"lon":5.37452,"is_reserved":false,"is_disabled":true,"rental_uris":{"android":"levelo://app?vid=0a12228f-61f9-48c1-9f2f-bd8159dce7a6","ios":"levelo://app?vid=0a12228f-61f9-48c1-9f2f-bd8159dce7a6"},"vehicle_type_id":"4","last_reported":1744359243,"current_range_meters":16000,"station_id":"","pricing_plan_id":"cebpf4jnsgd1na2vs0mg"},{"bike_id":"55f56f92-131a-48ea-be0d-6935144846b3","system_id":"levelo_inurba_marseille","lat":43.310799,"lon":5.424406,"is_reserved":false,"is_disabled":false,"rental_uris":{"android":"levelo://app?vid=55f56f92-131a-48ea-be0d-6935144846b3","ios":"levelo://app?vid=55f56f92-131a-48ea-be0d-6935144846b3"},"vehicle_type_id":"4","last_reported":1744359243,"current_range_meters":16000,"station_id":"ce4bhp92rcd13ifvqhag","pricing_plan_id":"cebpf4jnsgd1na2vs0mg"},{"bike_id":"af220120-6e79-4169-b499-fb8b002d79de","system_id":"levelo_inurba_marseille","lat":43.28152,"lon":5.42637,"is_reserved":false,"is_disabled":false,"rental_uris":{"android":"levelo://app?vid=af220120-6e79-4169-b499-fb8b002d79de","ios":"levelo://app?vid=af220120-6e79-4169-b499-fb8b002d79de"},"vehicle_type_id":"4","last_reported":1744359243,"current_range_meters":16000,"station_id":"ce4bhnh2rcd13ifvqgug","pricing_plan_id":"cebpf4jnsgd1na2vs0mg"},{"bike_id":"a2ccb75d-7eb9-4d9d-8094-c61f30338d98","system_id":"levelo_inurba_marseille","lat":43.29046,"lon":5.39989,"is_reserved":false,"is_disabled":false,"rental_uris":{"android":"levelo://app?vid=a2ccb75d-7eb9-4d9d-8094-c61f30338d98","ios":"levelo://app?vid=a2ccb75d-7eb9-4d9d-8094-c61f30338d98"},"vehicle_type_id":"4","last_reported":1744359243,"current_range_meters":16000,"station_id":"ce4bh392rcd13ifvqdm0","pricing_plan_id":"cebpf4jnsgd1na2vs0mg"},{"bike_id":"c85b286c-a834-41ba-b350-5f84b9024963","system_id":"levelo_inurba_marseille","lat":43.23154,"lon":5.4372,"is_reserved":false,"is_disabled":false,"rental_uris":{"android":"levelo://app?vid=c85b286c-a834-41ba-b350-5f84b9024963","ios":"levelo://app?vid=c85b286c-a834-41ba-b350-5f84b9024963"},"vehicle_type_id":"4","last_reported":1744359243,"current_range_meters":16400,"station_id":"ce4bhmp2rcd13ifvqgog","pricing_plan_id":"cebpf4jnsgd1na2vs0mg"},{"bike_id":"d749252e-b7e3-45bc-bf9c-b0ffb2fbc06b","system_id":"levelo_inurba_marseille","lat":43.23172,"lon":5.39974,"is_reserved":false,"is_disabled":false,"rental_uris":{"android":"levelo://app?vid=d749252e-b7e3-45bc-bf9c-b0ffb2fbc06b","ios":"levelo://app?vid=d749252e-b7e3-45bc-bf9c-b0ffb2fbc06b"},"vehicle_type_id":"4","last_reported":1744359243,"current_range_meters":16400,"station_id":"ce4bhn12rcd13ifvqgqg","pricing_plan_id":"cebpf4jnsgd1na2vs0mg"},{"bike_id":"6f123411-76f3-4a20-8ba6-a82179b22284","system_id":"levelo_inurba_marseille","lat":43.287201,"lon":5.379278,"is_reserved":false,"is_disabled":false,"rental_uris":{"android":"levelo://app?vid=6f123411-76f3-4a20-8ba6-a82179b22284","ios":"levelo://app?vid=6f123411-76f3-4a20-8ba6-a82179b22284"},"vehicle_type_id":"4","last_reported":1744359243,"current_range_meters":16000,"station_id":"ce4bhip2rcd13ifvqft0","pricing_plan_id":"cebpf4jnsgd1na2vs0mg"},{"bike_id":"4c893399-b4ed-40ed-a49f-713da320f269","system_id":"levelo_inurba_marseille","lat":43.29861,"lon":5.37841,"is_reserved":false,"is_disabled":false,"rental_uris":{"android":"levelo://app?vid=4c893399-b4ed-40ed-a49f-713da320f269","ios":"levelo://app?vid=4c893399-b4ed-40ed-a49f-713da320f269"},"vehicle_type_id":"4","last_reported":1744359243,"current_range_meters":16400,"station_id":"","pricing_plan_id":"cebpf4jnsgd1na2vs0mg"},{"bike_id":"6e57f3de-03d0-46de-822c-30606a5abdac","system_id":"levelo_inurba_marseille","lat":43.30187,"lon":5.36616,"is_reserved":false,"is_disabled":false,"rental_uris":{"android":"levelo://app?vid=6e57f3de-03d0-46de-822c-30606a5abdac","ios":"levelo://app?vid=6e57f3de-03d0-46de-822c-30606a5abdac"},"vehicle_type_id":"4","last_reported":1744359243,"current_range_meters":16400,"station_id":"ce4bgrh2rcd13ifvqc8g","pricing_plan_id":"cebpf4jnsgd1na2vs0mg"},{"bike_id":"8c58f2fa-99e1-41f8-bf90-9c1648b679b1","system_id":"levelo_inurba_marseille","lat":43.27317,"lon":5.41463,"is_reserved":false,"is_disabled":false,"rental_uris":{"android":"levelo://app?vid=8c58f2fa-99e1-41f8-bf90-9c1648b679b1","ios":"levelo://app?vid=8c58f2fa-99e1-41f8-bf90-9c1648b679b1"},"vehicle_type_id":"4","last_reported":1744359243,"current_range_meters":16400,"station_id":"","pricing_plan_id":"cebpf4jnsgd1na2vs0mg"},{"bike_id":"9e51d317-42da-45eb-b7bf-3cc75d71f609","system_id":"levelo_inurba_marseille","lat":43.30919,"lon":5.36852,"is_reserved":false,"is_disabled":false,"rental_uris":{"android":"levelo://app?vid=9e51d317-42da-45eb-b7bf-3cc75d71f609","ios":"levelo://app?vid=9e51d317-42da-45eb-b7bf-3cc75d71f609"},"vehicle_type_id":"4","last_reported":1744359243,"current_range_meters":16400,"station_id":"ce4bgn92rcd13ifvqbvg","pricing_plan_id":"cebpf4jnsgd1na2vs0mg"},{"bike_id":"80870c0a-2918-46cd-b324-2c5de8bd50c0","system_id":"levelo_inurba_marseille","lat":43.30902,"lon":5.3684,"is_reserved":false,"is_disabled":false,"rental_uris":{"android":"levelo://app?vid=80870c0a-2918-46cd-b324-2c5de8bd50c0","ios":"levelo://app?vid=80870c0a-2918-46cd-b324-2c5de8bd50c0"},"vehicle_type_id":"4","last_reported":1744359243,"current_range_meters":16400,"station_id":"ce4bgn92rcd13ifvqbvg","pricing_plan_id":"cebpf4jnsgd1na2vs0mg"},{"bike_id":"f4c869aa-66cd-4d6c-8b94-ecf6ae1111a8","system_id":"levelo_inurba_marseille","lat":43.29503,"lon":5.41838,"is_reserved":false,"is_disabled":true,"rental_uris":{"android":"levelo://app?vid=f4c869aa-66cd-4d6c-8b94-ecf6ae1111a8","ios":"levelo://app?vid=f4c869aa-66cd-4d6c-8b94-ecf6ae1111a8"},"vehicle_type_id":"4","last_reported":1744359243,"current_range_meters":16800,"station_id":"","pricing_plan_id":"cebpf4jnsgd1na2vs0mg"},{"bike_id":"8392334b-e286-437a-9c79-8d582b183e8b","system_id":"levelo_inurba_marseille","lat":43.25094,"lon":5.40376,"is_reserved":false,"is_disabled":false,"rental_uris":{"android":"levelo://app?vid=8392334b-e286-437a-9c79-8d582b183e8b","ios":"levelo://app?vid=8392334b-e286-437a-9c79-8d582b183e8b"},"vehicle_type_id":"4","last_reported":1744359243,"current_range_meters":16400,"station_id":"ce4bhlh2rcd13ifvqgig","pricing_plan_id":"cebpf4jnsgd1na2vs0mg"},{"bike_id":"ef291804-1477-432e-b153-82ea15725418","system_id":"levelo_inurba_marseille","lat":43.33742,"lon":5.37454,"is_reserved":false,"is_disabled":false,"rental_uris":{"android":"levelo://app?vid=ef291804-1477-432e-b153-82ea15725418","ios":"levelo://app?vid=ef291804-1477-432e-b153-82ea15725418"},"vehicle_type_id":"4","last_reported":1744359243,"current_range_meters":16800,"station_id":"","pricing_plan_id":"cebpf4jnsgd1na2vs0mg"},{"bike_id":"f0ba6c1e-70db-4813-a78c-75d3cb8fbbd1","system_id":"levelo_inurba_marseille","lat":43.29515,"lon":5.39044,"is_reserved":false,"is_disabled":false,"rental_uris":{"android":"levelo://app?vid=f0ba6c1e-70db-4813-a78c-75d3cb8fbbd1","ios":"levelo://app?vid=f0ba6c1e-70db-4813-a78c-75d3cb8fbbd1"},"vehicle_type_id":"4","last_reported":1744359243,"current_range_meters":17200,"station_id":"ce4bh3p2rcd13ifvqdp0","pricing_plan_id":"cebpf4jnsgd1na2vs0mg"},{"bike_id":"b23c94b8-d5d3-4e0b-8152-41fe9d7297e8","system_id":"levelo_inurba_marseille","lat":43.32365,"lon":5.36749,"is_reserved":false,"is_disabled":false,"rental_uris":{"android":"levelo://app?vid=b23c94b8-d5d3-4e0b-8152-41fe9d7297e8","ios":"levelo://app?vid=b23c94b8-d5d3-4e0b-8152-41fe9d7297e8"},"vehicle_type_id":"4","last_reported":1744359243,"current_range_meters":17200,"station_id":"ce4bhsh2rcd13ifvqi2g","pricing_plan_id":"cebpf4jnsgd1na2vs0mg"},{"bike_id":"54a7d26a-c5f8-4008-b945-bcc5a036c746","system_id":"levelo_inurba_marseille","lat":43.23314,"lon":5.3615,"is_reserved":false,"is_disabled":false,"rental_uris":{"android":"levelo://app?vid=54a7d26a-c5f8-4008-b945-bcc5a036c746","ios":"levelo://app?vid=54a7d26a-c5f8-4008-b945-bcc5a036c746"},"vehicle_type_id":"4","last_reported":1744359243,"current_range_meters":17200,"station_id":"","pricing_plan_id":"cebpf4jnsgd1na2vs0mg"},{"bike_id":"b2ce936b-391b-47f6-a1f9-02af9a4ea3b0","system_id":"levelo_inurba_marseille","lat":43.31243,"lon":5.36816,"is_reserved":false,"is_disabled":false,"rental_uris":{"android":"levelo://app?vid=b2ce936b-391b-47f6-a1f9-02af9a4ea3b0","ios":"levelo://app?vid=b2ce936b-391b-47f6-a1f9-02af9a4ea3b0"},"vehicle_type_id":"4","last_reported":1744359243,"current_range_meters":17200,"station_id":"ce4bgl92rcd13ifvqbq0","pricing_plan_id":"cebpf4jnsgd1na2vs0mg"},{"bike_id":"84b31b9a-3639-4a49-ba1b-b8657db4f117","system_id":"levelo_inurba_marseille","lat":43.30933,"lon":5.36843,"is_reserved":false,"is_disabled":false,"rental_uris":{"android":"levelo://app?vid=84b31b9a-3639-4a49-ba1b-b8657db4f117","ios":"levelo://app?vid=84b31b9a-3639-4a49-ba1b-b8657db4f117"},"vehicle_type_id":"4","last_reported":1744359243,"current_range_meters":17200,"station_id":"ce4bgn92rcd13ifvqbvg","pricing_plan_id":"cebpf4jnsgd1na2vs0mg"},{"bike_id":"fa41e670-ca70-492c-9ee8-9c22cf5eb519","system_id":"levelo_inurba_marseille","lat":43.248027,"lon":5.374585,"is_reserved":false,"is_disabled":false,"rental_uris":{"android":"levelo://app?vid=fa41e670-ca70-492c-9ee8-9c22cf5eb519","ios":"levelo://app?vid=fa41e670-ca70-492c-9ee8-9c22cf5eb519"},"vehicle_type_id":"4","last_reported":1744359243,"current_range_meters":17200,"station_id":"ce4bhmp2rcd13ifvqgog","pricing_plan_id":"cebpf4jnsgd1na2vs0mg"},{"bike_id":"56830533-4ee2-44ba-a0aa-f5a935a86a02","system_id":"levelo_inurba_marseille","lat":43.217505,"lon":5.345997,"is_reserved":false,"is_disabled":false,"rental_uris":{"android":"levelo://app?vid=56830533-4ee2-44ba-a0aa-f5a935a86a02","ios":"levelo://app?vid=56830533-4ee2-44ba-a0aa-f5a935a86a02"},"vehicle_type_id":"4","last_reported":1744359243,"current_range_meters":17200,"station_id":"","pricing_plan_id":"cebpf4jnsgd1na2vs0mg"},{"bike_id":"4a05cad5-be68-4c2a-afe1-9ca04e143b41","system_id":"levelo_inurba_marseille","lat":43.292759,"lon":5.401213,"is_reserved":false,"is_disabled":false,"rental_uris":{"android":"levelo://app?vid=4a05cad5-be68-4c2a-afe1-9ca04e143b41","ios":"levelo://app?vid=4a05cad5-be68-4c2a-afe1-9ca04e143b41"},"vehicle_type_id":"4","last_reported":1744359243,"current_range_meters":17200,"station_id":"ce4bgth2rcd13ifvqch0","pricing_plan_id":"cebpf4jnsgd1na2vs0mg"},{"bike_id":"46437bc3-d6e2-4d0e-9af4-ba573ce7dfb3","system_id":"levelo_inurba_marseille","lat":43.30932,"lon":5.40167,"is_reserved":false,"is_disabled":false,"rental_uris":{"android":"levelo://app?vid=46437bc3-d6e2-4d0e-9af4-ba573ce7dfb3","ios":"levelo://app?vid=46437bc3-d6e2-4d0e-9af4-ba573ce7dfb3"},"vehicle_type_id":"4","last_reported":1744359243,"current_range_meters":17600,"station_id":"ce4bgvp2rcd13ifvqct0","pricing_plan_id":"cebpf4jnsgd1na2vs0mg"},{"bike_id":"94285f83-3b5d-462b-97b6-1d5eba6c8ae0","system_id":"levelo_inurba_marseille","lat":43.30451,"lon":5.37905,"is_reserved":false,"is_disabled":false,"rental_uris":{"android":"levelo://app?vid=94285f83-3b5d-462b-97b6-1d5eba6c8ae0","ios":"levelo://app?vid=94285f83-3b5d-462b-97b6-1d5eba6c8ae0"},"vehicle_type_id":"4","last_reported":1744359243,"current_range_meters":17600,"station_id":"ce4bgup2rcd13ifvqcn0","pricing_plan_id":"cebpf4jnsgd1na2vs0mg"},{"bike_id":"7a293ee3-733d-49e5-b348-710ee7572cab","system_id":"levelo_inurba_marseille","lat":43.2918,"lon":5.35799,"is_reserved":false,"is_disabled":false,"rental_uris":{"android":"levelo://app?vid=7a293ee3-733d-49e5-b348-710ee7572cab","ios":"levelo://app?vid=7a293ee3-733d-49e5-b348-710ee7572cab"},"vehicle_type_id":"4","last_reported":1744359243,"current_range_meters":17600,"station_id":"ce4bhb12rcd13ifvqel0","pricing_plan_id":"cebpf4jnsgd1na2vs0mg"},{"bike_id":"5b77a833-8185-45c2-9fe3-07eb40df54ca","system_id":"levelo_inurba_marseille","lat":43.33995,"lon":5.38057,"is_reserved":false,"is_disabled":false,"rental_uris":{"android":"levelo://app?vid=5b77a833-8185-45c2-9fe3-07eb40df54ca","ios":"levelo://app?vid=5b77a833-8185-45c2-9fe3-07eb40df54ca"},"vehicle_type_id":"4","last_reported":1744359243,"current_range_meters":17600,"station_id":"","pricing_plan_id":"cebpf4jnsgd1na2vs0mg"},{"bike_id":"82fcf910-44f9-45ca-b471-7d424315cf9b","system_id":"levelo_inurba_marseille","lat":43.28367,"lon":5.386453,"is_reserved":false,"is_disabled":false,"rental_uris":{"android":"levelo://app?vid=82fcf910-44f9-45ca-b471-7d424315cf9b","ios":"levelo://app?vid=82fcf910-44f9-45ca-b471-7d424315cf9b"},"vehicle_type_id":"4","last_reported":1744359243,"current_range_meters":18000,"station_id":"ce4bh492rcd13ifvqdvg","pricing_plan_id":"cebpf4jnsgd1na2vs0mg"},{"bike_id":"d1ec29d7-f0f7-463e-bf62-a85dac36cbbe","system_id":"levelo_inurba_marseille","lat":43.30136,"lon":5.38104,"is_reserved":false,"is_disabled":false,"rental_uris":{"android":"levelo://app?vid=d1ec29d7-f0f7-463e-bf62-a85dac36cbbe","ios":"levelo://app?vid=d1ec29d7-f0f7-463e-bf62-a85dac36cbbe"},"vehicle_type_id":"4","last_reported":1744359243,"current_range_meters":18000,"station_id":"ce4bgjp2rcd13ifvqbh0","pricing_plan_id":"cebpf4jnsgd1na2vs0mg"},{"bike_id":"4e955291-5863-47d7-a9e9-f49f4992d116","system_id":"levelo_inurba_marseille","lat":43.27821,"lon":5.39211,"is_reserved":false,"is_disabled":false,"rental_uris":{"android":"levelo://app?vid=4e955291-5863-47d7-a9e9-f49f4992d116","ios":"levelo://app?vid=4e955291-5863-47d7-a9e9-f49f4992d116"},"vehicle_type_id":"4","last_reported":1744359243,"current_range_meters":18000,"station_id":"ce4bhjp2rcd13ifvqga0","pricing_plan_id":"cebpf4jnsgd1na2vs0mg"},{"bike_id":"d84383a4-5328-4d1e-a7da-fa935d604b9b","system_id":"levelo_inurba_marseille","lat":43.290054,"lon":5.381183,"is_reserved":false,"is_disabled":false,"rental_uris":{"android":"levelo://app?vid=d84383a4-5328-4d1e-a7da-fa935d604b9b","ios":"levelo://app?vid=d84383a4-5328-4d1e-a7da-fa935d604b9b"},"vehicle_type_id":"4","last_reported":1744359243,"current_range_meters":17600,"station_id":"ce4bh4p2rcd13ifvqe1g","pricing_plan_id":"cebpf4jnsgd1na2vs0mg"},{"bike_id":"f46a49ca-1b9d-47bc-aed6-4fa281bfffb1","system_id":"levelo_inurba_marseille","lat":43.30537,"lon":5.36537,"is_reserved":false,"is_disabled":false,"rental_uris":{"android":"levelo://app?vid=f46a49ca-1b9d-47bc-aed6-4fa281bfffb1","ios":"levelo://app?vid=f46a49ca-1b9d-47bc-aed6-4fa281bfffb1"},"vehicle_type_id":"4","last_reported":1744359243,"current_range_meters":18000,"station_id":"ce4bgs12rcd13ifvqcag","pricing_plan_id":"cebpf4jnsgd1na2vs0mg"},{"bike_id":"0e7bf4ae-5aed-4055-a1f8-96debbb9847e","system_id":"levelo_inurba_marseille","lat":43.24164,"lon":5.36411,"is_reserved":false,"is_disabled":false,"rental_uris":{"android":"levelo://app?vid=0e7bf4ae-5aed-4055-a1f8-96debbb9847e","ios":"levelo://app?vid=0e7bf4ae-5aed-4055-a1f8-96debbb9847e"},"vehicle_type_id":"4","last_reported":1744359243,"current_range_meters":18000,"station_id":"cpo36qri1sfpv3e86is0","pricing_plan_id":"cebpf4jnsgd1na2vs0mg"},{"bike_id":"c7618aae-a918-4dbc-9908-a066748aae03","system_id":"levelo_inurba_marseille","lat":43.29554,"lon":5.39477,"is_reserved":false,"is_disabled":true,"rental_uris":{"android":"levelo://app?vid=c7618aae-a918-4dbc-9908-a066748aae03","ios":"levelo://app?vid=c7618aae-a918-4dbc-9908-a066748aae03"},"vehicle_type_id":"4","last_reported":1744359243,"current_range_meters":18800,"station_id":"ce4bh292rcd13ifvqdf0","pricing_plan_id":"cebpf4jnsgd1na2vs0mg"},{"bike_id":"7c4545c3-c1b1-465e-91cc-14a8c8097af0","system_id":"levelo_inurba_marseille","lat":43.30606,"lon":5.39337,"is_reserved":false,"is_disabled":true,"rental_uris":{"android":"levelo://app?vid=7c4545c3-c1b1-465e-91cc-14a8c8097af0","ios":"levelo://app?vid=7c4545c3-c1b1-465e-91cc-14a8c8097af0"},"vehicle_type_id":"4","last_reported":1744359243,"current_range_meters":18800,"station_id":"ce4bh0p2rcd13ifvqd80","pricing_plan_id":"cebpf4jnsgd1na2vs0mg"},{"bike_id":"7a5c9c76-4e30-46ad-a0c8-64088d059970","system_id":"levelo_inurba_marseille","lat":43.24079,"lon":5.37702,"is_reserved":false,"is_disabled":false,"rental_uris":{"android":"levelo://app?vid=7a5c9c76-4e30-46ad-a0c8-64088d059970","ios":"levelo://app?vid=7a5c9c76-4e30-46ad-a0c8-64088d059970"},"vehicle_type_id":"4","last_reported":1744359243,"current_range_meters":18800,"station_id":"ce4bhnp2rcd13ifvqgvg","pricing_plan_id":"cebpf4jnsgd1na2vs0mg"},{"bike_id":"dc0228df-9275-40cc-b778-d9c4fce66618","system_id":"levelo_inurba_marseille","lat":43.2621,"lon":5.37916,"is_reserved":false,"is_disabled":false,"rental_uris":{"android":"levelo://app?vid=dc0228df-9275-40cc-b778-d9c4fce66618","ios":"levelo://app?vid=dc0228df-9275-40cc-b778-d9c4fce66618"},"vehicle_type_id":"4","last_reported":1744359243,"current_range_meters":19200,"station_id":"ce4bhjp2rcd13ifvqg90","pricing_plan_id":"cebpf4jnsgd1na2vs0mg"},{"bike_id":"ae2b16a9-bf4c-4094-9fda-8d249d692cd8","system_id":"levelo_inurba_marseille","lat":43.29517,"lon":5.41742,"is_reserved":false,"is_disabled":false,"rental_uris":{"android":"levelo://app?vid=ae2b16a9-bf4c-4094-9fda-8d249d692cd8","ios":"levelo://app?vid=ae2b16a9-bf4c-4094-9fda-8d249d692cd8"},"vehicle_type_id":"4","last_reported":1744359243,"current_range_meters":19200,"station_id":"","pricing_plan_id":"cebpf4jnsgd1na2vs0mg"},{"bike_id":"5bd863cc-d59d-4b6c-ba8c-d49cf5648d89","system_id":"levelo_inurba_marseille","lat":43.30952,"lon":5.39035,"is_reserved":false,"is_disabled":false,"rental_uris":{"android":"levelo://app?vid=5bd863cc-d59d-4b6c-ba8c-d49cf5648d89","ios":"levelo://app?vid=5bd863cc-d59d-4b6c-ba8c-d49cf5648d89"},"vehicle_type_id":"4","last_reported":1744359243,"current_range_meters":19200,"station_id":"ce4bgup2rcd13ifvqco0","pricing_plan_id":"cebpf4jnsgd1na2vs0mg"},{"bike_id":"714fa122-32ec-4881-b866-da0c3c53ccab","system_id":"levelo_inurba_marseille","lat":43.29868,"lon":5.39737,"is_reserved":false,"is_disabled":false,"rental_uris":{"android":"levelo://app?vid=714fa122-32ec-4881-b866-da0c3c53ccab","ios":"levelo://app?vid=714fa122-32ec-4881-b866-da0c3c53ccab"},"vehicle_type_id":"4","last_reported":1744359243,"current_range_meters":19200,"station_id":"ce4bh0h2rcd13ifvqd50","pricing_plan_id":"cebpf4jnsgd1na2vs0mg"},{"bike_id":"d7432441-6442-40ee-bcf3-fe0c0e929ab3","system_id":"levelo_inurba_marseille","lat":43.29523,"lon":5.39034,"is_reserved":false,"is_disabled":false,"rental_uris":{"android":"levelo://app?vid=d7432441-6442-40ee-bcf3-fe0c0e929ab3","ios":"levelo://app?vid=d7432441-6442-40ee-bcf3-fe0c0e929ab3"},"vehicle_type_id":"4","last_reported":1744359243,"current_range_meters":18800,"station_id":"ce4bh3p2rcd13ifvqdp0","pricing_plan_id":"cebpf4jnsgd1na2vs0mg"},{"bike_id":"b9691b3b-248f-4d55-af29-2cf3f1cb9910","system_id":"levelo_inurba_marseille","lat":43.28437,"lon":5.39185,"is_reserved":false,"is_disabled":false,"rental_uris":{"android":"levelo://app?vid=b9691b3b-248f-4d55-af29-2cf3f1cb9910","ios":"levelo://app?vid=b9691b3b-248f-4d55-af29-2cf3f1cb9910"},"vehicle_type_id":"4","last_reported":1744359243,"current_range_meters":19200,"station_id":"ce4bhoh2rcd13ifvqh5g","pricing_plan_id":"cebpf4jnsgd1na2vs0mg"},{"bike_id":"90cddebc-2506-42ee-9df1-36a6154dff75","system_id":"levelo_inurba_marseille","lat":43.24171,"lon":5.36387,"is_reserved":false,"is_disabled":false,"rental_uris":{"android":"levelo://app?vid=90cddebc-2506-42ee-9df1-36a6154dff75","ios":"levelo://app?vid=90cddebc-2506-42ee-9df1-36a6154dff75"},"vehicle_type_id":"4","last_reported":1744359243,"current_range_meters":19200,"station_id":"cpo36qri1sfpv3e86is0","pricing_plan_id":"cebpf4jnsgd1na2vs0mg"},{"bike_id":"6da7ed18-5a5f-467e-8b00-c46a534110a8","system_id":"levelo_inurba_marseille","lat":43.29898,"lon":5.43639,"is_reserved":false,"is_disabled":false,"rental_uris":{"android":"levelo://app?vid=6da7ed18-5a5f-467e-8b00-c46a534110a8","ios":"levelo://app?vid=6da7ed18-5a5f-467e-8b00-c46a534110a8"},"vehicle_type_id":"4","last_reported":1744359243,"current_range_meters":19600,"station_id":"ce4bhpp2rcd13ifvqhfg","pricing_plan_id":"cebpf4jnsgd1na2vs0mg"},{"bike_id":"dc174997-ea3b-4bf2-a886-4ffb632e992c","system_id":"levelo_inurba_marseille","lat":43.30959,"lon":5.39044,"is_reserved":false,"is_disabled":false,"rental_uris":{"android":"levelo://app?vid=dc174997-ea3b-4bf2-a886-4ffb632e992c","ios":"levelo://app?vid=dc174997-ea3b-4bf2-a886-4ffb632e992c"},"vehicle_type_id":"4","last_reported":1744359243,"current_range_meters":19600,"station_id":"ce4bgup2rcd13ifvqco0","pricing_plan_id":"cebpf4jnsgd1na2vs0mg"},{"bike_id":"15caa18c-ff16-46cf-9983-05ecc1cb9672","system_id":"levelo_inurba_marseille","lat":43.24615,"lon":5.38909,"is_reserved":false,"is_disabled":false,"rental_uris":{"android":"levelo://app?vid=15caa18c-ff16-46cf-9983-05ecc1cb9672","ios":"levelo://app?vid=15caa18c-ff16-46cf-9983-05ecc1cb9672"},"vehicle_type_id":"4","last_reported":1744359243,"current_range_meters":19600,"station_id":"ce4bho12rcd13ifvqh1g","pricing_plan_id":"cebpf4jnsgd1na2vs0mg"},{"bike_id":"663b2732-4e40-469c-b29d-1168df3c33a7","system_id":"levelo_inurba_marseille","lat":43.30911,"lon":5.36839,"is_reserved":false,"is_disabled":false,"rental_uris":{"android":"levelo://app?vid=663b2732-4e40-469c-b29d-1168df3c33a7","ios":"levelo://app?vid=663b2732-4e40-469c-b29d-1168df3c33a7"},"vehicle_type_id":"4","last_reported":1744359243,"current_range_meters":19600,"station_id":"ce4bgn92rcd13ifvqbvg","pricing_plan_id":"cebpf4jnsgd1na2vs0mg"},{"bike_id":"77185fc0-a19b-442f-bf82-b4c11e1cb990","system_id":"levelo_inurba_marseille","lat":43.30605,"lon":5.37212,"is_reserved":false,"is_disabled":false,"rental_uris":{"android":"levelo://app?vid=77185fc0-a19b-442f-bf82-b4c11e1cb990","ios":"levelo://app?vid=77185fc0-a19b-442f-bf82-b4c11e1cb990"},"vehicle_type_id":"4","last_reported":1744359243,"current_range_meters":19600,"station_id":"ce4bgqh2rcd13ifvqc4g","pricing_plan_id":"cebpf4jnsgd1na2vs0mg"},{"bike_id":"cb52d92e-a03e-4925-ab03-4e0266b08337","system_id":"levelo_inurba_marseille","lat":43.30956,"lon":5.39043,"is_reserved":false,"is_disabled":false,"rental_uris":{"android":"levelo://app?vid=cb52d92e-a03e-4925-ab03-4e0266b08337","ios":"levelo://app?vid=cb52d92e-a03e-4925-ab03-4e0266b08337"},"vehicle_type_id":"4","last_reported":1744359243,"current_range_meters":19600,"station_id":"ce4bgup2rcd13ifvqco0","pricing_plan_id":"cebpf4jnsgd1na2vs0mg"},{"bike_id":"a52d7977-ba45-464c-88c5-c9fa8f536b42","system_id":"levelo_inurba_marseille","lat":43.22503,"lon":5.347864,"is_reserved":false,"is_disabled":true,"rental_uris":{"android":"levelo://app?vid=a52d7977-ba45-464c-88c5-c9fa8f536b42","ios":"levelo://app?vid=a52d7977-ba45-464c-88c5-c9fa8f536b42"},"vehicle_type_id":"4","last_reported":1744359243,"current_range_meters":19600,"station_id":"st_cvj5dfep6f1abm77gieg","pricing_plan_id":"cebpf4jnsgd1na2vs0mg"},{"bike_id":"7e6d3f46-871c-4b3e-b8fa-63f8b918fdf6","system_id":"levelo_inurba_marseille","lat":43.27375,"lon":5.36253,"is_reserved":false,"is_disabled":false,"rental_uris":{"android":"levelo://app?vid=7e6d3f46-871c-4b3e-b8fa-63f8b918fdf6","ios":"levelo://app?vid=7e6d3f46-871c-4b3e-b8fa-63f8b918fdf6"},"vehicle_type_id":"4","last_reported":1744359243,"current_range_meters":19600,"station_id":"ce4bhbh2rcd13ifvqeo0","pricing_plan_id":"cebpf4jnsgd1na2vs0mg"},{"bike_id":"96172b5f-e812-48db-8ad2-ef6082700512","system_id":"levelo_inurba_marseille","lat":43.3095,"lon":5.39037,"is_reserved":false,"is_disabled":false,"rental_uris":{"android":"levelo://app?vid=96172b5f-e812-48db-8ad2-ef6082700512","ios":"levelo://app?vid=96172b5f-e812-48db-8ad2-ef6082700512"},"vehicle_type_id":"4","last_reported":1744359243,"current_range_meters":19600,"station_id":"ce4bgup2rcd13ifvqco0","pricing_plan_id":"cebpf4jnsgd1na2vs0mg"},{"bike_id":"ffe7368e-3ec2-4ee6-89c1-36e1d55be809","system_id":"levelo_inurba_marseille","lat":43.272074,"lon":5.391789,"is_reserved":false,"is_disabled":false,"rental_uris":{"android":"levelo://app?vid=ffe7368e-3ec2-4ee6-89c1-36e1d55be809","ios":"levelo://app?vid=ffe7368e-3ec2-4ee6-89c1-36e1d55be809"},"vehicle_type_id":"4","last_reported":1744359243,"current_range_meters":20000,"station_id":"ce4bhg12rcd13ifvqf60","pricing_plan_id":"cebpf4jnsgd1na2vs0mg"},{"bike_id":"c1363969-980a-4af9-bfb4-f57a2139419c","system_id":"levelo_inurba_marseille","lat":43.29271,"lon":5.401285,"is_reserved":false,"is_disabled":false,"rental_uris":{"android":"levelo://app?vid=c1363969-980a-4af9-bfb4-f57a2139419c","ios":"levelo://app?vid=c1363969-980a-4af9-bfb4-f57a2139419c"},"vehicle_type_id":"4","last_reported":1744359243,"current_range_meters":20000,"station_id":"ce4bh312rcd13ifvqdk0","pricing_plan_id":"cebpf4jnsgd1na2vs0mg"},{"bike_id":"863ee797-f277-457c-99b8-1ef98b09cd05","system_id":"levelo_inurba_marseille","lat":43.26682,"lon":5.38267,"is_reserved":false,"is_disabled":false,"rental_uris":{"android":"levelo://app?vid=863ee797-f277-457c-99b8-1ef98b09cd05","ios":"levelo://app?vid=863ee797-f277-457c-99b8-1ef98b09cd05"},"vehicle_type_id":"4","last_reported":1744359243,"current_range_meters":20000,"station_id":"ce4bhg92rcd13ifvqf90","pricing_plan_id":"cebpf4jnsgd1na2vs0mg"},{"bike_id":"02f61854-4ff4-41ab-98d9-c8014eeb5e67","system_id":"levelo_inurba_marseille","lat":43.33015,"lon":5.3904,"is_reserved":false,"is_disabled":false,"rental_uris":{"android":"levelo://app?vid=02f61854-4ff4-41ab-98d9-c8014eeb5e67","ios":"levelo://app?vid=02f61854-4ff4-41ab-98d9-c8014eeb5e67"},"vehicle_type_id":"4","last_reported":1744359243,"current_range_meters":20000,"station_id":"ce4bhr92rcd13ifvqhrg","pricing_plan_id":"cebpf4jnsgd1na2vs0mg"},{"bike_id":"35731db3-6912-402e-a623-b72e3ccb4de5","system_id":"levelo_inurba_marseille","lat":43.23151,"lon":5.43717,"is_reserved":false,"is_disabled":false,"rental_uris":{"android":"levelo://app?vid=35731db3-6912-402e-a623-b72e3ccb4de5","ios":"levelo://app?vid=35731db3-6912-402e-a623-b72e3ccb4de5"},"vehicle_type_id":"4","last_reported":1744359243,"current_range_meters":20000,"station_id":"ce4bhmp2rcd13ifvqgog","pricing_plan_id":"cebpf4jnsgd1na2vs0mg"},{"bike_id":"44ea3182-88eb-4a7d-bbc8-aa868967f1bc","system_id":"levelo_inurba_marseille","lat":43.31296,"lon":5.36841,"is_reserved":false,"is_disabled":true,"rental_uris":{"android":"levelo://app?vid=44ea3182-88eb-4a7d-bbc8-aa868967f1bc","ios":"levelo://app?vid=44ea3182-88eb-4a7d-bbc8-aa868967f1bc"},"vehicle_type_id":"4","last_reported":1744359243,"current_range_meters":20000,"station_id":"","pricing_plan_id":"cebpf4jnsgd1na2vs0mg"},{"bike_id":"3c5d7518-06b1-44ad-bbb8-467694106957","system_id":"levelo_inurba_marseille","lat":43.303005,"lon":5.392164,"is_reserved":false,"is_disabled":false,"rental_uris":{"android":"levelo://app?vid=3c5d7518-06b1-44ad-bbb8-467694106957","ios":"levelo://app?vid=3c5d7518-06b1-44ad-bbb8-467694106957"},"vehicle_type_id":"4","last_reported":1744359243,"current_range_meters":20400,"station_id":"ce4bgkh2rcd13ifvqbk0","pricing_plan_id":"cebpf4jnsgd1na2vs0mg"},{"bike_id":"d447dcab-53dc-4f57-8bb2-4145811365b2","system_id":"levelo_inurba_marseille","lat":43.23153,"lon":5.43722,"is_reserved":false,"is_disabled":false,"rental_uris":{"android":"levelo://app?vid=d447dcab-53dc-4f57-8bb2-4145811365b2","ios":"levelo://app?vid=d447dcab-53dc-4f57-8bb2-4145811365b2"},"vehicle_type_id":"4","last_reported":1744359243,"current_range_meters":20400,"station_id":"ce4bhmp2rcd13ifvqgog","pricing_plan_id":"cebpf4jnsgd1na2vs0mg"},{"bike_id":"4548da5e-0c7d-4f7e-a15a-bc037d8de47c","system_id":"levelo_inurba_marseille","lat":43.296,"lon":5.3674,"is_reserved":false,"is_disabled":false,"rental_uris":{"android":"levelo://app?vid=4548da5e-0c7d-4f7e-a15a-bc037d8de47c","ios":"levelo://app?vid=4548da5e-0c7d-4f7e-a15a-bc037d8de47c"},"vehicle_type_id":"4","last_reported":1744359243,"current_range_meters":20400,"station_id":"ce4bgph2rcd13ifvqc2g","pricing_plan_id":"cebpf4jnsgd1na2vs0mg"},{"bike_id":"e7d64116-368f-421d-902b-041b68f32a12","system_id":"levelo_inurba_marseille","lat":43.30557,"lon":5.36567,"is_reserved":false,"is_disabled":false,"rental_uris":{"android":"levelo://app?vid=e7d64116-368f-421d-902b-041b68f32a12","ios":"levelo://app?vid=e7d64116-368f-421d-902b-041b68f32a12"},"vehicle_type_id":"4","last_reported":1744359243,"current_range_meters":20400,"station_id":"ce4bgs12rcd13ifvqcag","pricing_plan_id":"cebpf4jnsgd1na2vs0mg"},{"bike_id":"b3240f5b-d093-46d1-a9cc-f38b2d11fbcd","system_id":"levelo_inurba_marseille","lat":43.31705,"lon":5.437,"is_reserved":false,"is_disabled":false,"rental_uris":{"android":"levelo://app?vid=b3240f5b-d093-46d1-a9cc-f38b2d11fbcd","ios":"levelo://app?vid=b3240f5b-d093-46d1-a9cc-f38b2d11fbcd"},"vehicle_type_id":"4","last_reported":1744359243,"current_range_meters":20400,"station_id":"ce4bhp92rcd13ifvqhcg","pricing_plan_id":"cebpf4jnsgd1na2vs0mg"},{"bike_id":"ba4c7cdd-5ef3-4e5b-b638-3c3cf7c4ea5a","system_id":"levelo_inurba_marseille","lat":43.32359,"lon":5.38351,"is_reserved":false,"is_disabled":true,"rental_uris":{"android":"levelo://app?vid=ba4c7cdd-5ef3-4e5b-b638-3c3cf7c4ea5a","ios":"levelo://app?vid=ba4c7cdd-5ef3-4e5b-b638-3c3cf7c4ea5a"},"vehicle_type_id":"4","last_reported":1744359243,"current_range_meters":20400,"station_id":"","pricing_plan_id":"cebpf4jnsgd1na2vs0mg"},{"bike_id":"5c466ed0-1dde-4a33-8f60-4b02329b6750","system_id":"levelo_inurba_marseille","lat":43.30878,"lon":5.37195,"is_reserved":false,"is_disabled":false,"rental_uris":{"android":"levelo://app?vid=5c466ed0-1dde-4a33-8f60-4b02329b6750","ios":"levelo://app?vid=5c466ed0-1dde-4a33-8f60-4b02329b6750"},"vehicle_type_id":"4","last_reported":1744359243,"current_range_meters":20000,"station_id":"ce4bguh2rcd13ifvqckg","pricing_plan_id":"cebpf4jnsgd1na2vs0mg"},{"bike_id":"d2a0ed9a-4e24-46ff-834d-52e5db495827","system_id":"levelo_inurba_marseille","lat":43.30911,"lon":5.36834,"is_reserved":false,"is_disabled":false,"rental_uris":{"android":"levelo://app?vid=d2a0ed9a-4e24-46ff-834d-52e5db495827","ios":"levelo://app?vid=d2a0ed9a-4e24-46ff-834d-52e5db495827"},"vehicle_type_id":"4","last_reported":1744359243,"current_range_meters":20800,"station_id":"ce4bgn92rcd13ifvqbvg","pricing_plan_id":"cebpf4jnsgd1na2vs0mg"},{"bike_id":"5d83850f-ed39-49b2-bcf4-9abe84cb9b8f","system_id":"levelo_inurba_marseille","lat":43.30312,"lon":5.36912,"is_reserved":false,"is_disabled":false,"rental_uris":{"android":"levelo://app?vid=5d83850f-ed39-49b2-bcf4-9abe84cb9b8f","ios":"levelo://app?vid=5d83850f-ed39-49b2-bcf4-9abe84cb9b8f"},"vehicle_type_id":"4","last_reported":1744359243,"current_range_meters":20800,"station_id":"ce4bgqh2rcd13ifvqc5g","pricing_plan_id":"cebpf4jnsgd1na2vs0mg"},{"bike_id":"873a345f-ac07-415b-8aab-c6473351c455","system_id":"levelo_inurba_marseille","lat":43.30454,"lon":5.37914,"is_reserved":false,"is_disabled":false,"rental_uris":{"android":"levelo://app?vid=873a345f-ac07-415b-8aab-c6473351c455","ios":"levelo://app?vid=873a345f-ac07-415b-8aab-c6473351c455"},"vehicle_type_id":"4","last_reported":1744359243,"current_range_meters":21600,"station_id":"ce4bgup2rcd13ifvqcn0","pricing_plan_id":"cebpf4jnsgd1na2vs0mg"},{"bike_id":"a945cbf3-38e6-4aa3-9aa1-d414d6c834b5","system_id":"levelo_inurba_marseille","lat":43.31903,"lon":5.40743,"is_reserved":false,"is_disabled":true,"rental_uris":{"android":"levelo://app?vid=a945cbf3-38e6-4aa3-9aa1-d414d6c834b5","ios":"levelo://app?vid=a945cbf3-38e6-4aa3-9aa1-d414d6c834b5"},"vehicle_type_id":"4","last_reported":1744359243,"current_range_meters":21600,"station_id":"ce4bhq12rcd13ifvqhig","pricing_plan_id":"cebpf4jnsgd1na2vs0mg"},{"bike_id":"56b322a4-08f7-40d0-86e9-e6f8f9d873f2","system_id":"levelo_inurba_marseille","lat":43.29028,"lon":5.38648,"is_reserved":false,"is_disabled":false,"rental_uris":{"android":"levelo://app?vid=56b322a4-08f7-40d0-86e9-e6f8f9d873f2","ios":"levelo://app?vid=56b322a4-08f7-40d0-86e9-e6f8f9d873f2"},"vehicle_type_id":"4","last_reported":1744359243,"current_range_meters":21600,"station_id":"ce4bh4p2rcd13ifvqe0g","pricing_plan_id":"cebpf4jnsgd1na2vs0mg"},{"bike_id":"4692d833-19b8-42c9-bc42-de146fee55da","system_id":"levelo_inurba_marseille","lat":43.241804,"lon":5.397426,"is_reserved":false,"is_disabled":false,"rental_uris":{"android":"levelo://app?vid=4692d833-19b8-42c9-bc42-de146fee55da","ios":"levelo://app?vid=4692d833-19b8-42c9-bc42-de146fee55da"},"vehicle_type_id":"4","last_reported":1744359243,"current_range_meters":21600,"station_id":"ce4bhn12rcd13ifvqgpg","pricing_plan_id":"cebpf4jnsgd1na2vs0mg"},{"bike_id":"a7c58a60-a5c5-4a4e-b362-dc7feaea63d7","system_id":"levelo_inurba_marseille","lat":43.319954,"lon":5.381508,"is_reserved":false,"is_disabled":true,"rental_uris":{"android":"levelo://app?vid=a7c58a60-a5c5-4a4e-b362-dc7feaea63d7","ios":"levelo://app?vid=a7c58a60-a5c5-4a4e-b362-dc7feaea63d7"},"vehicle_type_id":"4","last_reported":1744359243,"current_range_meters":21600,"station_id":"ce4bhr12rcd13ifvqhpg","pricing_plan_id":"cebpf4jnsgd1na2vs0mg"},{"bike_id":"b6a1381b-8352-4059-9c1a-b539c9353938","system_id":"levelo_inurba_marseille","lat":43.28942,"lon":5.36635,"is_reserved":false,"is_disabled":false,"rental_uris":{"android":"levelo://app?vid=b6a1381b-8352-4059-9c1a-b539c9353938","ios":"levelo://app?vid=b6a1381b-8352-4059-9c1a-b539c9353938"},"vehicle_type_id":"4","last_reported":1744359243,"current_range_meters":21600,"station_id":"ce4bhap2rcd13ifvqek0","pricing_plan_id":"cebpf4jnsgd1na2vs0mg"},{"bike_id":"af788835-bf44-4a08-af32-3c0327e31191","system_id":"levelo_inurba_marseille","lat":43.31352,"lon":5.36716,"is_reserved":false,"is_disabled":false,"rental_uris":{"android":"levelo://app?vid=af788835-bf44-4a08-af32-3c0327e31191","ios":"levelo://app?vid=af788835-bf44-4a08-af32-3c0327e31191"},"vehicle_type_id":"4","last_reported":1744359243,"current_range_meters":21600,"station_id":"ce4bgr92rcd13ifvqc6g","pricing_plan_id":"cebpf4jnsgd1na2vs0mg"},{"bike_id":"a6fb9ac6-0321-4123-b718-f7bd24b8337c","system_id":"levelo_inurba_marseille","lat":43.24171,"lon":5.39725,"is_reserved":false,"is_disabled":false,"rental_uris":{"android":"levelo://app?vid=a6fb9ac6-0321-4123-b718-f7bd24b8337c","ios":"levelo://app?vid=a6fb9ac6-0321-4123-b718-f7bd24b8337c"},"vehicle_type_id":"4","last_reported":1744359243,"current_range_meters":22000,"station_id":"ce4bhn12rcd13ifvqgpg","pricing_plan_id":"cebpf4jnsgd1na2vs0mg"},{"bike_id":"bb9bfd71-1af1-4da6-8bb7-2c3c5d5dfaf7","system_id":"levelo_inurba_marseille","lat":43.28677,"lon":5.38657,"is_reserved":false,"is_disabled":false,"rental_uris":{"android":"levelo://app?vid=bb9bfd71-1af1-4da6-8bb7-2c3c5d5dfaf7","ios":"levelo://app?vid=bb9bfd71-1af1-4da6-8bb7-2c3c5d5dfaf7"},"vehicle_type_id":"4","last_reported":1744359243,"current_range_meters":21600,"station_id":"ce4bh492rcd13ifvqdug","pricing_plan_id":"cebpf4jnsgd1na2vs0mg"},{"bike_id":"a9f41225-afc1-4664-b1d2-fc661ba5d6c9","system_id":"levelo_inurba_marseille","lat":43.23152,"lon":5.43718,"is_reserved":false,"is_disabled":false,"rental_uris":{"android":"levelo://app?vid=a9f41225-afc1-4664-b1d2-fc661ba5d6c9","ios":"levelo://app?vid=a9f41225-afc1-4664-b1d2-fc661ba5d6c9"},"vehicle_type_id":"4","last_reported":1744359243,"current_range_meters":22000,"station_id":"ce4bhmp2rcd13ifvqgog","pricing_plan_id":"cebpf4jnsgd1na2vs0mg"},{"bike_id":"020e9999-d552-48d0-ae5f-b725af0dbea2","system_id":"levelo_inurba_marseille","lat":43.29921,"lon":5.43746,"is_reserved":false,"is_disabled":false,"rental_uris":{"android":"levelo://app?vid=020e9999-d552-48d0-ae5f-b725af0dbea2","ios":"levelo://app?vid=020e9999-d552-48d0-ae5f-b725af0dbea2"},"vehicle_type_id":"4","last_reported":1744359243,"current_range_meters":22000,"station_id":"","pricing_plan_id":"cebpf4jnsgd1na2vs0mg"},{"bike_id":"497fc74f-99f7-4b35-9f2f-3b38b7118fe5","system_id":"levelo_inurba_marseille","lat":43.284804,"lon":5.384305,"is_reserved":false,"is_disabled":false,"rental_uris":{"android":"levelo://app?vid=497fc74f-99f7-4b35-9f2f-3b38b7118fe5","ios":"levelo://app?vid=497fc74f-99f7-4b35-9f2f-3b38b7118fe5"},"vehicle_type_id":"4","last_reported":1744359243,"current_range_meters":22000,"station_id":"ce4bh2p2rcd13ifvqdi0","pricing_plan_id":"cebpf4jnsgd1na2vs0mg"},{"bike_id":"dd4f30ec-655f-42a0-9740-dc393c7cd628","system_id":"levelo_inurba_marseille","lat":43.31375,"lon":5.3674,"is_reserved":false,"is_disabled":false,"rental_uris":{"android":"levelo://app?vid=dd4f30ec-655f-42a0-9740-dc393c7cd628","ios":"levelo://app?vid=dd4f30ec-655f-42a0-9740-dc393c7cd628"},"vehicle_type_id":"4","last_reported":1744359243,"current_range_meters":22000,"station_id":"ce4bgr92rcd13ifvqc6g","pricing_plan_id":"cebpf4jnsgd1na2vs0mg"},{"bike_id":"131c0868-e576-4c9b-a4f0-0a39915c36d0","system_id":"levelo_inurba_marseille","lat":43.33728,"lon":5.39183,"is_reserved":false,"is_disabled":false,"rental_uris":{"android":"levelo://app?vid=131c0868-e576-4c9b-a4f0-0a39915c36d0","ios":"levelo://app?vid=131c0868-e576-4c9b-a4f0-0a39915c36d0"},"vehicle_type_id":"4","last_reported":1744359243,"current_range_meters":21600,"station_id":"ce4bhr92rcd13ifvqhsg","pricing_plan_id":"cebpf4jnsgd1na2vs0mg"},{"bike_id":"13a25287-012d-4f1b-98dd-eb2e7be941af","system_id":"levelo_inurba_marseille","lat":43.30181,"lon":5.36625,"is_reserved":false,"is_disabled":false,"rental_uris":{"android":"levelo://app?vid=13a25287-012d-4f1b-98dd-eb2e7be941af","ios":"levelo://app?vid=13a25287-012d-4f1b-98dd-eb2e7be941af"},"vehicle_type_id":"4","last_reported":1744359243,"current_range_meters":22000,"station_id":"ce4bgrh2rcd13ifvqc8g","pricing_plan_id":"cebpf4jnsgd1na2vs0mg"},{"bike_id":"3236a17b-87bc-4827-b557-be034a694ecb","system_id":"levelo_inurba_marseille","lat":43.30545,"lon":5.365523,"is_reserved":false,"is_disabled":false,"rental_uris":{"android":"levelo://app?vid=3236a17b-87bc-4827-b557-be034a694ecb","ios":"levelo://app?vid=3236a17b-87bc-4827-b557-be034a694ecb"},"vehicle_type_id":"4","last_reported":1744359243,"current_range_meters":22000,"station_id":"ce4bgs12rcd13ifvqcag","pricing_plan_id":"cebpf4jnsgd1na2vs0mg"},{"bike_id":"880c50ae-a07c-46a7-8311-e5b4428c5ea2","system_id":"levelo_inurba_marseille","lat":43.30467,"lon":5.37908,"is_reserved":false,"is_disabled":false,"rental_uris":{"android":"levelo://app?vid=880c50ae-a07c-46a7-8311-e5b4428c5ea2","ios":"levelo://app?vid=880c50ae-a07c-46a7-8311-e5b4428c5ea2"},"vehicle_type_id":"4","last_reported":1744359243,"current_range_meters":22000,"station_id":"ce4bgup2rcd13ifvqcn0","pricing_plan_id":"cebpf4jnsgd1na2vs0mg"},{"bike_id":"1d55dd05-ff1a-4a72-baa0-d81e5fc0e4f6","system_id":"levelo_inurba_marseille","lat":43.26592,"lon":5.3964,"is_reserved":false,"is_disabled":false,"rental_uris":{"android":"levelo://app?vid=1d55dd05-ff1a-4a72-baa0-d81e5fc0e4f6","ios":"levelo://app?vid=1d55dd05-ff1a-4a72-baa0-d81e5fc0e4f6"},"vehicle_type_id":"4","last_reported":1744359243,"current_range_meters":22000,"station_id":"","pricing_plan_id":"cebpf4jnsgd1na2vs0mg"},{"bike_id":"8b6713eb-074a-489c-bc72-7d4867529454","system_id":"levelo_inurba_marseille","lat":43.30883,"lon":5.37189,"is_reserved":false,"is_disabled":false,"rental_uris":{"android":"levelo://app?vid=8b6713eb-074a-489c-bc72-7d4867529454","ios":"levelo://app?vid=8b6713eb-074a-489c-bc72-7d4867529454"},"vehicle_type_id":"4","last_reported":1744359243,"current_range_meters":22000,"station_id":"ce4bguh2rcd13ifvqckg","pricing_plan_id":"cebpf4jnsgd1na2vs0mg"},{"bike_id":"b2c8e62c-3a96-4311-a47d-0b0aff4817c1","system_id":"levelo_inurba_marseille","lat":43.21208,"lon":5.35069,"is_reserved":false,"is_disabled":false,"rental_uris":{"android":"levelo://app?vid=b2c8e62c-3a96-4311-a47d-0b0aff4817c1","ios":"levelo://app?vid=b2c8e62c-3a96-4311-a47d-0b0aff4817c1"},"vehicle_type_id":"4","last_reported":1744359243,"current_range_meters":22400,"station_id":"st_cvj6sg6p6f1abm77japg","pricing_plan_id":"cebpf4jnsgd1na2vs0mg"},{"bike_id":"f59b59e1-0b84-400d-adb7-0621d9177a6d","system_id":"levelo_inurba_marseille","lat":43.30304,"lon":5.36888,"is_reserved":false,"is_disabled":false,"rental_uris":{"android":"levelo://app?vid=f59b59e1-0b84-400d-adb7-0621d9177a6d","ios":"levelo://app?vid=f59b59e1-0b84-400d-adb7-0621d9177a6d"},"vehicle_type_id":"4","last_reported":1744359243,"current_range_meters":22400,"station_id":"ce4bgqh2rcd13ifvqc5g","pricing_plan_id":"cebpf4jnsgd1na2vs0mg"},{"bike_id":"e5decea5-9a82-47f0-b8b5-dcf675f19be5","system_id":"levelo_inurba_marseille","lat":43.2679,"lon":5.39415,"is_reserved":false,"is_disabled":false,"rental_uris":{"android":"levelo://app?vid=e5decea5-9a82-47f0-b8b5-dcf675f19be5","ios":"levelo://app?vid=e5decea5-9a82-47f0-b8b5-dcf675f19be5"},"vehicle_type_id":"4","last_reported":1744359243,"current_range_meters":22400,"station_id":"ce4bhh12rcd13ifvqfg0","pricing_plan_id":"cebpf4jnsgd1na2vs0mg"},{"bike_id":"ed9fcd3f-ed4b-47df-9abc-6088750d314c","system_id":"levelo_inurba_marseille","lat":43.24175,"lon":5.39735,"is_reserved":false,"is_disabled":false,"rental_uris":{"android":"levelo://app?vid=ed9fcd3f-ed4b-47df-9abc-6088750d314c","ios":"levelo://app?vid=ed9fcd3f-ed4b-47df-9abc-6088750d314c"},"vehicle_type_id":"4","last_reported":1744359243,"current_range_meters":22400,"station_id":"ce4bhn12rcd13ifvqgpg","pricing_plan_id":"cebpf4jnsgd1na2vs0mg"},{"bike_id":"5d13175f-d7fe-460c-88b1-05bcc256f6fb","system_id":"levelo_inurba_marseille","lat":43.29624,"lon":5.37721,"is_reserved":false,"is_disabled":false,"rental_uris":{"android":"levelo://app?vid=5d13175f-d7fe-460c-88b1-05bcc256f6fb","ios":"levelo://app?vid=5d13175f-d7fe-460c-88b1-05bcc256f6fb"},"vehicle_type_id":"4","last_reported":1744359243,"current_range_meters":22400,"station_id":"ce4bgi92rcd13ifvqb90","pricing_plan_id":"cebpf4jnsgd1na2vs0mg"},{"bike_id":"67380e52-d3c3-4b4b-89cc-b2cc89f0280c","system_id":"levelo_inurba_marseille","lat":43.2558,"lon":5.382259,"is_reserved":false,"is_disabled":false,"rental_uris":{"android":"levelo://app?vid=67380e52-d3c3-4b4b-89cc-b2cc89f0280c","ios":"levelo://app?vid=67380e52-d3c3-4b4b-89cc-b2cc89f0280c"},"vehicle_type_id":"4","last_reported":1744359243,"current_range_meters":22400,"station_id":"ce4bhih2rcd13ifvqfs0","pricing_plan_id":"cebpf4jnsgd1na2vs0mg"},{"bike_id":"ad1e157c-b785-42e2-b003-13862b3c166e","system_id":"levelo_inurba_marseille","lat":43.30324,"lon":5.36908,"is_reserved":false,"is_disabled":false,"rental_uris":{"android":"levelo://app?vid=ad1e157c-b785-42e2-b003-13862b3c166e","ios":"levelo://app?vid=ad1e157c-b785-42e2-b003-13862b3c166e"},"vehicle_type_id":"4","last_reported":1744359243,"current_range_meters":22400,"station_id":"ce4bgqh2rcd13ifvqc5g","pricing_plan_id":"cebpf4jnsgd1na2vs0mg"},{"bike_id":"d8b9884b-4022-4710-9f87-50e0dbfd421d","system_id":"levelo_inurba_marseille","lat":43.24166,"lon":5.36396,"is_reserved":false,"is_disabled":false,"rental_uris":{"android":"levelo://app?vid=d8b9884b-4022-4710-9f87-50e0dbfd421d","ios":"levelo://app?vid=d8b9884b-4022-4710-9f87-50e0dbfd421d"},"vehicle_type_id":"4","last_reported":1744359243,"current_range_meters":22800,"station_id":"cpo36qri1sfpv3e86is0","pricing_plan_id":"cebpf4jnsgd1na2vs0mg"},{"bike_id":"1018c5c6-4cae-458c-9460-0c5e743e291a","system_id":"levelo_inurba_marseille","lat":43.28487,"lon":5.38417,"is_reserved":false,"is_disabled":false,"rental_uris":{"android":"levelo://app?vid=1018c5c6-4cae-458c-9460-0c5e743e291a","ios":"levelo://app?vid=1018c5c6-4cae-458c-9460-0c5e743e291a"},"vehicle_type_id":"4","last_reported":1744359243,"current_range_meters":22800,"station_id":"ce4bh512rcd13ifvqe3g","pricing_plan_id":"cebpf4jnsgd1na2vs0mg"},{"bike_id":"8f762f3d-142c-4240-93cc-090fd3b54b95","system_id":"levelo_inurba_marseille","lat":43.229154,"lon":5.441036,"is_reserved":false,"is_disabled":false,"rental_uris":{"android":"levelo://app?vid=8f762f3d-142c-4240-93cc-090fd3b54b95","ios":"levelo://app?vid=8f762f3d-142c-4240-93cc-090fd3b54b95"},"vehicle_type_id":"4","last_reported":1744359243,"current_range_meters":22800,"station_id":"","pricing_plan_id":"cebpf4jnsgd1na2vs0mg"},{"bike_id":"06baecc4-cd39-465e-9b7e-c452e4e95d0c","system_id":"levelo_inurba_marseille","lat":43.29224,"lon":5.36064,"is_reserved":false,"is_disabled":false,"rental_uris":{"android":"levelo://app?vid=06baecc4-cd39-465e-9b7e-c452e4e95d0c","ios":"levelo://app?vid=06baecc4-cd39-465e-9b7e-c452e4e95d0c"},"vehicle_type_id":"4","last_reported":1744359243,"current_range_meters":22800,"station_id":"ce4bhbh2rcd13ifvqeqg","pricing_plan_id":"cebpf4jnsgd1na2vs0mg"},{"bike_id":"10d8ccf0-dbe2-42f2-b1ea-dca276f9544c","system_id":"levelo_inurba_marseille","lat":43.29032,"lon":5.39951,"is_reserved":false,"is_disabled":false,"rental_uris":{"android":"levelo://app?vid=10d8ccf0-dbe2-42f2-b1ea-dca276f9544c","ios":"levelo://app?vid=10d8ccf0-dbe2-42f2-b1ea-dca276f9544c"},"vehicle_type_id":"4","last_reported":1744359243,"current_range_meters":22800,"station_id":"ce4bh392rcd13ifvqdm0","pricing_plan_id":"cebpf4jnsgd1na2vs0mg"},{"bike_id":"b23a45be-8afb-4587-8742-4c6556c71c5e","system_id":"levelo_inurba_marseille","lat":43.32104,"lon":5.36775,"is_reserved":false,"is_disabled":false,"rental_uris":{"android":"levelo://app?vid=b23a45be-8afb-4587-8742-4c6556c71c5e","ios":"levelo://app?vid=b23a45be-8afb-4587-8742-4c6556c71c5e"},"vehicle_type_id":"4","last_reported":1744359243,"current_range_meters":22800,"station_id":"ce4bhrh2rcd13ifvqhug","pricing_plan_id":"cebpf4jnsgd1na2vs0mg"},{"bike_id":"5a78769f-035a-415e-8867-5751edc6f5ce","system_id":"levelo_inurba_marseille","lat":43.26227,"lon":5.40444,"is_reserved":false,"is_disabled":false,"rental_uris":{"android":"levelo://app?vid=5a78769f-035a-415e-8867-5751edc6f5ce","ios":"levelo://app?vid=5a78769f-035a-415e-8867-5751edc6f5ce"},"vehicle_type_id":"4","last_reported":1744359243,"current_range_meters":23200,"station_id":"ce4bhmh2rcd13ifvqgmg","pricing_plan_id":"cebpf4jnsgd1na2vs0mg"},{"bike_id":"54250a3b-654c-4018-bbe0-2ee630531376","system_id":"levelo_inurba_marseille","lat":43.2895,"lon":5.36634,"is_reserved":false,"is_disabled":false,"rental_uris":{"android":"levelo://app?vid=54250a3b-654c-4018-bbe0-2ee630531376","ios":"levelo://app?vid=54250a3b-654c-4018-bbe0-2ee630531376"},"vehicle_type_id":"4","last_reported":1744359243,"current_range_meters":23200,"station_id":"ce4bhap2rcd13ifvqek0","pricing_plan_id":"cebpf4jnsgd1na2vs0mg"},{"bike_id":"9b7c60a2-fc6b-4cd4-bc36-15ba30d30ffb","system_id":"levelo_inurba_marseille","lat":43.33724,"lon":5.39191,"is_reserved":false,"is_disabled":false,"rental_uris":{"android":"levelo://app?vid=9b7c60a2-fc6b-4cd4-bc36-15ba30d30ffb","ios":"levelo://app?vid=9b7c60a2-fc6b-4cd4-bc36-15ba30d30ffb"},"vehicle_type_id":"4","last_reported":1744359243,"current_range_meters":22800,"station_id":"ce4bhr92rcd13ifvqhsg","pricing_plan_id":"cebpf4jnsgd1na2vs0mg"},{"bike_id":"6ee9f4f4-2b89-4c8a-bb41-24b111547b04","system_id":"levelo_inurba_marseille","lat":43.31204,"lon":5.36842,"is_reserved":false,"is_disabled":false,"rental_uris":{"android":"levelo://app?vid=6ee9f4f4-2b89-4c8a-bb41-24b111547b04","ios":"levelo://app?vid=6ee9f4f4-2b89-4c8a-bb41-24b111547b04"},"vehicle_type_id":"4","last_reported":1744359243,"current_range_meters":23200,"station_id":"ce4bgl92rcd13ifvqbq0","pricing_plan_id":"cebpf4jnsgd1na2vs0mg"},{"bike_id":"1bda3591-54cd-4772-8c7f-2c7a66299e38","system_id":"levelo_inurba_marseille","lat":43.29228,"lon":5.36066,"is_reserved":false,"is_disabled":false,"rental_uris":{"android":"levelo://app?vid=1bda3591-54cd-4772-8c7f-2c7a66299e38","ios":"levelo://app?vid=1bda3591-54cd-4772-8c7f-2c7a66299e38"},"vehicle_type_id":"4","last_reported":1744359243,"current_range_meters":23200,"station_id":"ce4bhbh2rcd13ifvqeqg","pricing_plan_id":"cebpf4jnsgd1na2vs0mg"},{"bike_id":"d9f9dbd2-c229-4471-9f29-bbd33fef3ef3","system_id":"levelo_inurba_marseille","lat":43.30316,"lon":5.36909,"is_reserved":false,"is_disabled":false,"rental_uris":{"android":"levelo://app?vid=d9f9dbd2-c229-4471-9f29-bbd33fef3ef3","ios":"levelo://app?vid=d9f9dbd2-c229-4471-9f29-bbd33fef3ef3"},"vehicle_type_id":"4","last_reported":1744359243,"current_range_meters":23200,"station_id":"ce4bgqh2rcd13ifvqc5g","pricing_plan_id":"cebpf4jnsgd1na2vs0mg"},{"bike_id":"1c19acc6-06c8-405c-a0d7-db769e0083a6","system_id":"levelo_inurba_marseille","lat":43.23152,"lon":5.43719,"is_reserved":false,"is_disabled":false,"rental_uris":{"android":"levelo://app?vid=1c19acc6-06c8-405c-a0d7-db769e0083a6","ios":"levelo://app?vid=1c19acc6-06c8-405c-a0d7-db769e0083a6"},"vehicle_type_id":"4","last_reported":1744359243,"current_range_meters":23200,"station_id":"ce4bhmp2rcd13ifvqgog","pricing_plan_id":"cebpf4jnsgd1na2vs0mg"},{"bike_id":"dbdf266d-0659-48bb-8f17-2e4254e0b96a","system_id":"levelo_inurba_marseille","lat":43.30403,"lon":5.41293,"is_reserved":false,"is_disabled":false,"rental_uris":{"android":"levelo://app?vid=dbdf266d-0659-48bb-8f17-2e4254e0b96a","ios":"levelo://app?vid=dbdf266d-0659-48bb-8f17-2e4254e0b96a"},"vehicle_type_id":"4","last_reported":1744359243,"current_range_meters":24000,"station_id":"ce4bhop2rcd13ifvqh8g","pricing_plan_id":"cebpf4jnsgd1na2vs0mg"},{"bike_id":"53181377-06fd-420d-9af7-b1de5cf20780","system_id":"levelo_inurba_marseille","lat":43.30198,"lon":5.39577,"is_reserved":false,"is_disabled":false,"rental_uris":{"android":"levelo://app?vid=53181377-06fd-420d-9af7-b1de5cf20780","ios":"levelo://app?vid=53181377-06fd-420d-9af7-b1de5cf20780"},"vehicle_type_id":"4","last_reported":1744359243,"current_range_meters":24000,"station_id":"ce4bh3p2rcd13ifvqdp0","pricing_plan_id":"cebpf4jnsgd1na2vs0mg"},{"bike_id":"1fbd14e2-09d9-4385-a1f0-e9fed6ba06a0","system_id":"levelo_inurba_marseille","lat":43.29244,"lon":5.36048,"is_reserved":false,"is_disabled":false,"rental_uris":{"android":"levelo://app?vid=1fbd14e2-09d9-4385-a1f0-e9fed6ba06a0","ios":"levelo://app?vid=1fbd14e2-09d9-4385-a1f0-e9fed6ba06a0"},"vehicle_type_id":"4","last_reported":1744359243,"current_range_meters":24000,"station_id":"ce4bhbh2rcd13ifvqeqg","pricing_plan_id":"cebpf4jnsgd1na2vs0mg"},{"bike_id":"0cb9933a-d606-4316-9348-77da3d5f840b","system_id":"levelo_inurba_marseille","lat":43.21191,"lon":5.35072,"is_reserved":false,"is_disabled":false,"rental_uris":{"android":"levelo://app?vid=0cb9933a-d606-4316-9348-77da3d5f840b","ios":"levelo://app?vid=0cb9933a-d606-4316-9348-77da3d5f840b"},"vehicle_type_id":"4","last_reported":1744359243,"current_range_meters":24000,"station_id":"st_cvj6sg6p6f1abm77japg","pricing_plan_id":"cebpf4jnsgd1na2vs0mg"},{"bike_id":"5591936e-ca63-41c7-89f3-9c9493c86f89","system_id":"levelo_inurba_marseille","lat":43.241782,"lon":5.364051,"is_reserved":false,"is_disabled":false,"rental_uris":{"android":"levelo://app?vid=5591936e-ca63-41c7-89f3-9c9493c86f89","ios":"levelo://app?vid=5591936e-ca63-41c7-89f3-9c9493c86f89"},