{"last_updated":1702062331,"ttl":30,"version":"2.2","data":{"bikes":[{"bike_id":"9532ba03-4944-40ae-af7d-5e0993cd94a9","system_id":"levelo_inurba_marseille","lat":43.3123,"lon":5.36848,"is_reserved":false,"is_disabled":false,"rental_uris":{"android":"levelo://app?vid=9532ba03-4944-40ae-af7d-5e0993cd94a9","ios":"levelo://app?vid=9532ba03-4944-40ae-af7d-5e0993cd94a9"},"vehicle_type_id":"4","last_reported":1702062331,"current_range_meters":17200,"station_id":"ce4bgl92rcd13ifvqbq0","pricing_plan_id":"free"},{"bike_id":"4cec0a5d-552d-4e11-b6d1-20ef51e25022","system_id":"levelo_inurba_marseille","lat":43.312239,"lon":5.368562,"is_reserved":false,"is_disabled":false,"rental_uris":{"android":"levelo://app?vid=4cec0a5d-552d-4e11-b6d1-20ef51e25022","ios":"levelo://app?vid=4cec0a5d-552d-4e11-b6d1-20ef51e25022"},"vehicle_type_id":"4","last_reported":1702062331,"current_range_meters":27200,"station_id":"ce4bgl92rcd13ifvqbq0","pricing_plan_id":"free"},{"bike_id":"ecd343a8-99d7-4faa-8988-4489dd79c926","system_id":"levelo_inurba_marseille","lat":43.314811,"lon":5.373103,"is_reserved":false,"is_disabled":false,"rental_uris":{"android":"levelo://app?vid=ecd343a8-99d7-4faa-8988-4489dd79c926","ios":"levelo://app?vid=ecd343a8-99d7-4faa-8988-4489dd79c926"},"vehicle_type_id":"4","last_reported":1702062331,"current_range_meters":18800,"station_id":"ce4bgt12rcd13ifvqcd0","pricing_plan_id":"free"},{"bike_id":"3eb15a5e-0340-46c2-9700-50237859dea0","system_id":"levelo_inurba_marseille","lat":43.314811,"lon":5.373103,"is_reserved":false,"is_disabled":false,"rental_uris":{"android":"levelo://app?vid=3eb15a5e-0340-46c2-9700-50237859dea0","ios":"levelo://app?vid=3eb15a5e-0340-46c2-9700-50237859dea0"},"vehicle_type_id":"4","last_reported":1702062331,"current_range_meters":23200,"station_id":"ce4bgt12rcd13ifvqcd0","pricing_plan_id":"free"},{"bike_id":"a24d1daa-d80d-4bdb-8c1f-50bbc35a2809","system_id":"levelo_inurba_marseille","lat":43.31493,"lon":5.37307,"is_reserved":false,"is_disabled":false,"rental_uris":{"android":"levelo://app?vid=a24d1daa-d80d-4bdb-8c1f-50bbc35a2809","ios":"levelo://app?vid=a24d1daa-d80d-4bdb-8c1f-50bbc35a2809"},"vehicle_type_id":"4","last_reported":1702062331,"current_range_meters":1200,"station_id":"ce4bgt12rcd13ifvqcd0","pricing_plan_id":"free"},{"bike_id":"802b213c-44c5-4bd8-ae80-84c38275ef39","system_id":"levelo_inurba_marseille","lat":43.309039,"lon":5.371797,"is_reserved":false,"is_disabled":false,"rental_uris":{"android":"levelo://app?vid=802b213c-44c5-4bd8-ae80-84c38275ef39","ios":"levelo://app?vid=802b213c-44c5-4bd8-ae80-84c38275ef39"},"vehicle_type_id":"4","last_reported":1702062331,"current_range_meters":13600,"station_id":"ce4bguh2rcd13ifvqckg","pricing_plan_id":"free"},{"bike_id":"cbf9cd0a-0fc4-4fd2-96e4-38743a45840f","system_id":"levelo_inurba_marseille","lat":43.30549,"lon":5.36697,"is_reserved":false,"is_disabled":false,"rental_uris":{"android":"levelo://app?vid=cbf9cd0a-0fc4-4fd2-96e4-38743a45840f","ios":"levelo://app?vid=cbf9cd0a-0fc4-4fd2-96e4-38743a45840f"},"vehicle_type_id":"4","last_reported":1702062331,"current_range_meters":0,"station_id":"ce4bgrp2rcd13ifvqc9g","pricing_plan_id":"free"},{"bike_id":"7dda2776-d45a-4f4f-a56a-6d3afba77537","system_id":"levelo_inurba_marseille","lat":43.305368,"lon":5.367343,"is_reserved":false,"is_disabled":false,"rental_uris":{"android":"levelo://app?vid=7dda2776-d45a-4f4f-a56a-6d3afba77537","ios":"levelo://app?vid=7dda2776-d45a-4f4f-a56a-6d3afba77537"},"vehicle_type_id":"4","last_reported":1702062331,"current_range_meters":17200,"station_id":"ce4bgrp2rcd13ifvqc9g","pricing_plan_id":"free"},{"bike_id":"2822fd74-0e44-4879-9f1e-e27ce9549055","system_id":"levelo_inurba_marseille","lat":43.307945,"lon":5.376487,"is_reserved":false,"is_disabled":false,"rental_uris":{"android":"levelo://app?vid=2822fd74-0e44-4879-9f1e-e27ce9549055","ios":"levelo://app?vid=2822fd74-0e44-4879-9f1e-e27ce9549055"},"vehicle_type_id":"4","last_reported":1702062331,"current_range_meters":25200,"station_id":"ce4bgv92rcd13ifvqcq0","pricing_plan_id":"free"},{"bike_id":"5c5e5f68-dbec-47fc-95f2-14d8951aa83c","system_id":"levelo_inurba_marseille","lat":43.317075,"lon":5.377367,"is_reserved":false,"is_disabled":false,"rental_uris":{"android":"levelo://app?vid=5c5e5f68-dbec-47fc-95f2-14d8951aa83c","ios":"levelo://app?vid=5c5e5f68-dbec-47fc-95f2-14d8951aa83c"},"vehicle_type_id":"4","last_reported":1702062331,"current_range_meters":27600,"station_id":"ce4bgth2rcd13ifvqch0","pricing_plan_id":"free"},{"bike_id":"1ea60f58-75f7-4484-b705-1156df4b02ad","system_id":"levelo_inurba_marseille","lat":43.30282,"lon":5.37353,"is_reserved":false,"is_disabled":false,"rental_uris":{"android":"levelo://app?vid=1ea60f58-75f7-4484-b705-1156df4b02ad","ios":"levelo://app?vid=1ea60f58-75f7-4484-b705-1156df4b02ad"},"vehicle_type_id":"4","last_reported":1702062331,"current_range_meters":0,"station_id":"","pricing_plan_id":"free"},{"bike_id":"c83f822c-8748-4dd5-bf01-535f08b56426","system_id":"levelo_inurba_marseille","lat":43.30807,"lon":5.381435,"is_reserved":false,"is_disabled":false,"rental_uris":{"android":"levelo://app?vid=c83f822c-8748-4dd5-bf01-535f08b56426","ios":"levelo://app?vid=c83f822c-8748-4dd5-bf01-535f08b56426"},"vehicle_type_id":"4","last_reported":1702062331,"current_range_meters":12800,"station_id":"ce4bgt12rcd13ifvqce0","pricing_plan_id":"free"},{"bike_id":"df555ed4-b6dd-431e-a78f-0107a80975ba","system_id":"levelo_inurba_marseille","lat":43.319837,"lon":5.381533,"is_reserved":false,"is_disabled":false,"rental_uris":{"android":"levelo://app?vid=df555ed4-b6dd-431e-a78f-0107a80975ba","ios":"levelo://app?vid=df555ed4-b6dd-431e-a78f-0107a80975ba"},"vehicle_type_id":"4","last_reported":1702062331,"current_range_meters":0,"station_id":"ce4bhr12rcd13ifvqhpg","pricing_plan_id":"free"},{"bike_id":"1a0136a9-4484-4e81-aee1-898dad973c50","system_id":"levelo_inurba_marseille","lat":43.31344,"lon":5.38496,"is_reserved":false,"is_disabled":false,"rental_uris":{"android":"levelo://app?vid=1a0136a9-4484-4e81-aee1-898dad973c50","ios":"levelo://app?vid=1a0136a9-4484-4e81-aee1-898dad973c50"},"vehicle_type_id":"4","last_reported":1702062331,"current_range_meters":23200,"station_id":"ce4bgt92rcd13ifvqcf0","pricing_plan_id":"free"},{"bike_id":"072dee8f-e1b5-4037-a5ff-e05acc51e651","system_id":"levelo_inurba_marseille","lat":43.311722,"lon":5.387247,"is_reserved":false,"is_disabled":false,"rental_uris":{"android":"levelo://app?vid=072dee8f-e1b5-4037-a5ff-e05acc51e651","ios":"levelo://app?vid=072dee8f-e1b5-4037-a5ff-e05acc51e651"},"vehicle_type_id":"4","last_reported":1702062331,"current_range_meters":24800,"station_id":"ce4bgv12rcd13ifvqcp0","pricing_plan_id":"free"},{"bike_id":"4614d27c-05a5-4f8e-9b70-aa40aef3db3d","system_id":"levelo_inurba_marseille","lat":43.311722,"lon":5.387247,"is_reserved":false,"is_disabled":false,"rental_uris":{"android":"levelo://app?vid=4614d27c-05a5-4f8e-9b70-aa40aef3db3d","ios":"levelo://app?vid=4614d27c-05a5-4f8e-9b70-aa40aef3db3d"},"vehicle_type_id":"4","last_reported":1702062331,"current_range_meters":15200,"station_id":"ce4bgv12rcd13ifvqcp0","pricing_plan_id":"free"},{"bike_id":"ef97e934-397e-405e-a5d1-967e459973a3","system_id":"levelo_inurba_marseille","lat":43.311722,"lon":5.387247,"is_reserved":false,"is_disabled":false,"rental_uris":{"android":"levelo://app?vid=ef97e934-397e-405e-a5d1-967e459973a3","ios":"levelo://app?vid=ef97e934-397e-405e-a5d1-967e459973a3"},"vehicle_type_id":"4","last_reported":1702062331,"current_range_meters":19600,"station_id":"ce4bgv12rcd13ifvqcp0","pricing_plan_id":"free"},{"bike_id":"35c91d6b-3de5-49ed-9764-44868555430c","system_id":"levelo_inurba_marseille","lat":43.311722,"lon":5.387247,"is_reserved":false,"is_disabled":false,"rental_uris":{"android":"levelo://app?vid=35c91d6b-3de5-49ed-9764-44868555430c","ios":"levelo://app?vid=35c91d6b-3de5-49ed-9764-44868555430c"},"vehicle_type_id":"4","last_reported":1702062331,"current_range_meters":0,"station_id":"ce4bgv12rcd13ifvqcp0","pricing_plan_id":"free"},{"bike_id":"ed6d25ef-ff6e-41e1-a0b4-6cee0f945f6b","system_id":"levelo_inurba_marseille","lat":43.297774,"lon":5.370875,"is_reserved":false,"is_disabled":false,"rental_uris":{"android":"levelo://app?vid=ed6d25ef-ff6e-41e1-a0b4-6cee0f945f6b","ios":"levelo://app?vid=ed6d25ef-ff6e-41e1-a0b4-6cee0f945f6b"},"vehicle_type_id":"4","last_reported":1702062331,"current_range_meters":30000,"station_id":"ce4bgop2rcd13ifvqc1g","pricing_plan_id":"free"},{"bike_id":"991448e4-6851-4d1a-aba1-4b6e7cd051db","system_id":"levelo_inurba_marseille","lat":43.322872,"lon":5.382756,"is_reserved":false,"is_disabled":false,"rental_uris":{"android":"levelo://app?vid=991448e4-6851-4d1a-aba1-4b6e7cd051db","ios":"levelo://app?vid=991448e4-6851-4d1a-aba1-4b6e7cd051db"},"vehicle_type_id":"4","last_reported":1702062331,"current_range_meters":17600,"station_id":"ce4bhr12rcd13ifvqhqg","pricing_plan_id":"free"},{"bike_id":"160a80a5-3522-45f9-af87-7fda3b626ddb","system_id":"levelo_inurba_marseille","lat":43.322872,"lon":5.382756,"is_reserved":false,"is_disabled":false,"rental_uris":{"android":"levelo://app?vid=160a80a5-3522-45f9-af87-7fda3b626ddb","ios":"levelo://app?vid=160a80a5-3522-45f9-af87-7fda3b626ddb"},"vehicle_type_id":"4","last_reported":1702062331,"current_range_meters":26000,"station_id":"ce4bhr12rcd13ifvqhqg","pricing_plan_id":"free"},{"bike_id":"a80312d7-2035-41c9-b519-92db02a72c60","system_id":"levelo_inurba_marseille","lat":43.322872,"lon":5.382756,"is_reserved":false,"is_disabled":false,"rental_uris":{"android":"levelo://app?vid=a80312d7-2035-41c9-b519-92db02a72c60","ios":"levelo://app?vid=a80312d7-2035-41c9-b519-92db02a72c60"},"vehicle_type_id":"4","last_reported":1702062331,"current_range_meters":18800,"station_id":"ce4bhr12rcd13ifvqhqg","pricing_plan_id":"free"},{"bike_id":"7b04c468-d67d-486d-aa31-b467eddee7c0","system_id":"levelo_inurba_marseille","lat":43.323,"lon":5.3826,"is_reserved":false,"is_disabled":false,"rental_uris":{"android":"levelo://app?vid=7b04c468-d67d-486d-aa31-b467eddee7c0","ios":"levelo://app?vid=7b04c468-d67d-486d-aa31-b467eddee7c0"},"vehicle_type_id":"4","last_reported":1702062331,"current_range_meters":1600,"station_id":"ce4bhr12rcd13ifvqhqg","pricing_plan_id":"free"},{"bike_id":"6ac675f1-e0be-498c-ad2f-b742a949d4b0","system_id":"levelo_inurba_marseille","lat":43.298218,"lon":5.374416,"is_reserved":false,"is_disabled":false,"rental_uris":{"android":"levelo://app?vid=6ac675f1-e0be-498c-ad2f-b742a949d4b0","ios":"levelo://app?vid=6ac675f1-e0be-498c-ad2f-b742a949d4b0"},"vehicle_type_id":"4","last_reported":1702062331,"current_range_meters":5200,"station_id":"","pricing_plan_id":"free"},{"bike_id":"ce348601-67e8-4d55-bc61-6334c9a32f91","system_id":"levelo_inurba_marseille","lat":43.296131,"lon":5.370791,"is_reserved":false,"is_disabled":false,"rental_uris":{"android":"levelo://app?vid=ce348601-67e8-4d55-bc61-6334c9a32f91","ios":"levelo://app?vid=ce348601-67e8-4d55-bc61-6334c9a32f91"},"vehicle_type_id":"4","last_reported":1702062331,"current_range_meters":3600,"station_id":"ce4bgnh2rcd13ifvqc0g","pricing_plan_id":"free"},{"bike_id":"92dc65d6-6823-4de3-93d4-056f738f090c","system_id":"levelo_inurba_marseille","lat":43.316538,"lon":5.38954,"is_reserved":false,"is_disabled":false,"rental_uris":{"android":"levelo://app?vid=92dc65d6-6823-4de3-93d4-056f738f090c","ios":"levelo://app?vid=92dc65d6-6823-4de3-93d4-056f738f090c"},"vehicle_type_id":"4","last_reported":1702062331,"current_range_meters":800,"station_id":"","pricing_plan_id":"free"},{"bike_id":"71d947b2-e4a5-4ac0-b149-848869e1b4b9","system_id":"levelo_inurba_marseille","lat":43.296131,"lon":5.370791,"is_reserved":false,"is_disabled":false,"rental_uris":{"android":"levelo://app?vid=71d947b2-e4a5-4ac0-b149-848869e1b4b9","ios":"levelo://app?vid=71d947b2-e4a5-4ac0-b149-848869e1b4b9"},"vehicle_type_id":"4","last_reported":1702062331,"current_range_meters":4800,"station_id":"ce4bgnh2rcd13ifvqc0g","pricing_plan_id":"free"},{"bike_id":"74deb890-3bca-4c0a-a11c-22f27ae0060e","system_id":"levelo_inurba_marseille","lat":43.296935,"lon":5.376544,"is_reserved":false,"is_disabled":false,"rental_uris":{"android":"levelo://app?vid=74deb890-3bca-4c0a-a11c-22f27ae0060e","ios":"levelo://app?vid=74deb890-3bca-4c0a-a11c-22f27ae0060e"},"vehicle_type_id":"4","last_reported":1702062331,"current_range_meters":12800,"station_id":"ce4bgkh2rcd13ifvqbl0","pricing_plan_id":"free"},{"bike_id":"e5a7bd12-1ba6-4957-909c-6d5e6f1024e9","system_id":"levelo_inurba_marseille","lat":43.309589,"lon":5.390258,"is_reserved":false,"is_disabled":false,"rental_uris":{"android":"levelo://app?vid=e5a7bd12-1ba6-4957-909c-6d5e6f1024e9","ios":"levelo://app?vid=e5a7bd12-1ba6-4957-909c-6d5e6f1024e9"},"vehicle_type_id":"4","last_reported":1702062331,"current_range_meters":2400,"station_id":"ce4bgup2rcd13ifvqco0","pricing_plan_id":"free"},{"bike_id":"8489dd99-fc25-49db-bb77-6bc78767af74","system_id":"levelo_inurba_marseille","lat":43.304278,"lon":5.388868,"is_reserved":false,"is_disabled":false,"rental_uris":{"android":"levelo://app?vid=8489dd99-fc25-49db-bb77-6bc78767af74","ios":"levelo://app?vid=8489dd99-fc25-49db-bb77-6bc78767af74"},"vehicle_type_id":"4","last_reported":1702062331,"current_range_meters":20400,"station_id":"ce4bgk12rcd13ifvqbi0","pricing_plan_id":"free"},{"bike_id":"2973eada-b976-43eb-8b55-e1135e0136d1","system_id":"levelo_inurba_marseille","lat":43.299707,"lon":5.384859,"is_reserved":false,"is_disabled":false,"rental_uris":{"android":"levelo://app?vid=2973eada-b976-43eb-8b55-e1135e0136d1","ios":"levelo://app?vid=2973eada-b976-43eb-8b55-e1135e0136d1"},"vehicle_type_id":"4","last_reported":1702062331,"current_range_meters":1600,"station_id":"ce4bgj92rcd13ifvqbd0","pricing_plan_id":"free"},{"bike_id":"0c36b66f-c435-491f-9e1c-abd1cf7e6d7b","system_id":"levelo_inurba_marseille","lat":43.294779,"lon":5.375799,"is_reserved":false,"is_disabled":false,"rental_uris":{"android":"levelo://app?vid=0c36b66f-c435-491f-9e1c-abd1cf7e6d7b","ios":"levelo://app?vid=0c36b66f-c435-491f-9e1c-abd1cf7e6d7b"},"vehicle_type_id":"4","last_reported":1702062331,"current_range_meters":26800,"station_id":"","pricing_plan_id":"free"},{"bike_id":"b66d3e71-3ef7-4c4b-971e-f6c19c9d08f1","system_id":"levelo_inurba_marseille","lat":43.293259,"lon":5.371586,"is_reserved":false,"is_disabled":false,"rental_uris":{"android":"levelo://app?vid=b66d3e71-3ef7-4c4b-971e-f6c19c9d08f1","ios":"levelo://app?vid=b66d3e71-3ef7-4c4b-971e-f6c19c9d08f1"},"vehicle_type_id":"4","last_reported":1702062331,"current_range_meters":29200,"station_id":"ce4bgh92rcd13ifvqb40","pricing_plan_id":"free"},{"bike_id":"cb329897-b320-4e03-851a-1ebd9252ceff","system_id":"levelo_inurba_marseille","lat":43.293259,"lon":5.371586,"is_reserved":false,"is_disabled":false,"rental_uris":{"android":"levelo://app?vid=cb329897-b320-4e03-851a-1ebd9252ceff","ios":"levelo://app?vid=cb329897-b320-4e03-851a-1ebd9252ceff"},"vehicle_type_id":"4","last_reported":1702062331,"current_range_meters":11600,"station_id":"ce4bgh92rcd13ifvqb40","pricing_plan_id":"free"},{"bike_id":"f49ece6b-44b6-411d-9b14-a67300f1b18c","system_id":"levelo_inurba_marseille","lat":43.292749,"lon":5.368402,"is_reserved":false,"is_disabled":false,"rental_uris":{"android":"levelo://app?vid=f49ece6b-44b6-411d-9b14-a67300f1b18c","ios":"levelo://app?vid=f49ece6b-44b6-411d-9b14-a67300f1b18c"},"vehicle_type_id":"4","last_reported":1702062331,"current_range_meters":13600,"station_id":"ce4bhbp2rcd13ifvqesg","pricing_plan_id":"free"},{"bike_id":"00180005-6fc4-410f-9548-21dc4395b3ea","system_id":"levelo_inurba_marseille","lat":43.296746,"lon":5.384019,"is_reserved":false,"is_disabled":false,"rental_uris":{"android":"levelo://app?vid=00180005-6fc4-410f-9548-21dc4395b3ea","ios":"levelo://app?vid=00180005-6fc4-410f-9548-21dc4395b3ea"},"vehicle_type_id":"4","last_reported":1702062331,"current_range_meters":400,"station_id":"","pricing_plan_id":"free"},{"bike_id":"ffe8e861-9583-46be-9da3-462d5c1037ee","system_id":"levelo_inurba_marseille","lat":43.29289,"lon":5.37444,"is_reserved":false,"is_disabled":false,"rental_uris":{"android":"levelo://app?vid=ffe8e861-9583-46be-9da3-462d5c1037ee","ios":"levelo://app?vid=ffe8e861-9583-46be-9da3-462d5c1037ee"},"vehicle_type_id":"4","last_reported":1702062331,"current_range_meters":16400,"station_id":"ce4bgi12rcd13ifvqb70","pricing_plan_id":"free"},{"bike_id":"f54cce81-24e4-44b7-978b-713350a2404c","system_id":"levelo_inurba_marseille","lat":43.2987,"lon":5.38898,"is_reserved":false,"is_disabled":false,"rental_uris":{"android":"levelo://app?vid=f54cce81-24e4-44b7-978b-713350a2404c","ios":"levelo://app?vid=f54cce81-24e4-44b7-978b-713350a2404c"},"vehicle_type_id":"4","last_reported":1702062331,"current_range_meters":0,"station_id":"","pricing_plan_id":"free"},{"bike_id":"2a7d65f0-99a7-4822-9b2e-28e84dc02f7c","system_id":"levelo_inurba_marseille","lat":43.291994,"lon":5.357886,"is_reserved":false,"is_disabled":false,"rental_uris":{"android":"levelo://app?vid=2a7d65f0-99a7-4822-9b2e-28e84dc02f7c","ios":"levelo://app?vid=2a7d65f0-99a7-4822-9b2e-28e84dc02f7c"},"vehicle_type_id":"4","last_reported":1702062331,"current_range_meters":1600,"station_id":"ce4bhb12rcd13ifvqel0","pricing_plan_id":"free"},{"bike_id":"52f2a95a-7a0a-4575-a531-3c9e06a2a8c1","system_id":"levelo_inurba_marseille","lat":43.313291,"lon":5.396838,"is_reserved":false,"is_disabled":false,"rental_uris":{"android":"levelo://app?vid=52f2a95a-7a0a-4575-a531-3c9e06a2a8c1","ios":"levelo://app?vid=52f2a95a-7a0a-4575-a531-3c9e06a2a8c1"},"vehicle_type_id":"4","last_reported":1702062331,"current_range_meters":15600,"station_id":"ce4bgvp2rcd13ifvqcu0","pricing_plan_id":"free"},{"bike_id":"955c69a7-e28b-4e7d-9b3e-50a3796c12d4","system_id":"levelo_inurba_marseille","lat":43.29187,"lon":5.35797,"is_reserved":false,"is_disabled":false,"rental_uris":{"android":"levelo://app?vid=955c69a7-e28b-4e7d-9b3e-50a3796c12d4","ios":"levelo://app?vid=955c69a7-e28b-4e7d-9b3e-50a3796c12d4"},"vehicle_type_id":"4","last_reported":1702062331,"current_range_meters":19600,"station_id":"ce4bhb12rcd13ifvqel0","pricing_plan_id":"free"},{"bike_id":"6b58f088-8e1d-4df5-b2f7-1e298ea1d5ce","system_id":"levelo_inurba_marseille","lat":43.29538,"lon":5.38546,"is_reserved":false,"is_disabled":false,"rental_uris":{"android":"levelo://app?vid=6b58f088-8e1d-4df5-b2f7-1e298ea1d5ce","ios":"levelo://app?vid=6b58f088-8e1d-4df5-b2f7-1e298ea1d5ce"},"vehicle_type_id":"4","last_reported":1702062331,"current_range_meters":7200,"station_id":"ce4bgih2rcd13ifvqba0","pricing_plan_id":"free"},{"bike_id":"156b02e8-0bc6-4b3b-ac4b-a85bc914224a","system_id":"levelo_inurba_marseille","lat":43.290631,"lon":5.359244,"is_reserved":false,"is_disabled":false,"rental_uris":{"android":"levelo://app?vid=156b02e8-0bc6-4b3b-ac4b-a85bc914224a","ios":"levelo://app?vid=156b02e8-0bc6-4b3b-ac4b-a85bc914224a"},"vehicle_type_id":"4","last_reported":1702062331,"current_range_meters":9200,"station_id":"ce4bha92rcd13ifvqeg0","pricing_plan_id":"free"},{"bike_id":"d50c18de-db12-48fa-95f0-ab0fb91232ef","system_id":"levelo_inurba_marseille","lat":43.289184,"lon":5.366408,"is_reserved":false,"is_disabled":false,"rental_uris":{"android":"levelo://app?vid=d50c18de-db12-48fa-95f0-ab0fb91232ef","ios":"levelo://app?vid=d50c18de-db12-48fa-95f0-ab0fb91232ef"},"vehicle_type_id":"4","last_reported":1702062331,"current_range_meters":4000,"station_id":"ce4bhap2rcd13ifvqek0","pricing_plan_id":"free"},{"bike_id":"0c784ecf-2d49-402e-b68b-03d079bb2750","system_id":"levelo_inurba_marseille","lat":43.294153,"lon":5.386305,"is_reserved":false,"is_disabled":false,"rental_uris":{"android":"levelo://app?vid=0c784ecf-2d49-402e-b68b-03d079bb2750","ios":"levelo://app?vid=0c784ecf-2d49-402e-b68b-03d079bb2750"},"vehicle_type_id":"4","last_reported":1702062331,"current_range_meters":7600,"station_id":"ce4bh2h2rcd13ifvqdh0","pricing_plan_id":"free"},{"bike_id":"3d92b370-148f-4217-8b87-dc7bbdaa67c1","system_id":"levelo_inurba_marseille","lat":43.294153,"lon":5.386305,"is_reserved":false,"is_disabled":false,"rental_uris":{"android":"levelo://app?vid=3d92b370-148f-4217-8b87-dc7bbdaa67c1","ios":"levelo://app?vid=3d92b370-148f-4217-8b87-dc7bbdaa67c1"},"vehicle_type_id":"4","last_reported":1702062331,"current_range_meters":12000,"station_id":"ce4bh2h2rcd13ifvqdh0","pricing_plan_id":"free"},{"bike_id":"e97bbc68-a1d0-4086-94c0-442125edfba5","system_id":"levelo_inurba_marseille","lat":43.294153,"lon":5.386305,"is_reserved":false,"is_disabled":false,"rental_uris":{"android":"levelo://app?vid=e97bbc68-a1d0-4086-94c0-442125edfba5","ios":"levelo://app?vid=e97bbc68-a1d0-4086-94c0-442125edfba5"},"vehicle_type_id":"4","last_reported":1702062331,"current_range_meters":19600,"station_id":"ce4bh2h2rcd13ifvqdh0","pricing_plan_id":"free"},{"bike_id":"90009372-90dc-445d-a4f3-8713bbec8825","system_id":"levelo_inurba_marseille","lat":43.294153,"lon":5.386305,"is_reserved":false,"is_disabled":false,"rental_uris":{"android":"levelo://app?vid=90009372-90dc-445d-a4f3-8713bbec8825","ios":"levelo://app?vid=90009372-90dc-445d-a4f3-8713bbec8825"},"vehicle_type_id":"4","last_reported":1702062331,"current_range_meters":23200,"station_id":"ce4bh2h2rcd13ifvqdh0","pricing_plan_id":"free"},{"bike_id":"34184a08-712e-46e8-ac83-86a8ed9823c0","system_id":"levelo_inurba_marseille","lat":43.28945,"lon":5.36627,"is_reserved":false,"is_disabled":false,"rental_uris":{"android":"levelo://app?vid=34184a08-712e-46e8-ac83-86a8ed9823c0","ios":"levelo://app?vid=34184a08-712e-46e8-ac83-86a8ed9823c0"},"vehicle_type_id":"4","last_reported":1702062331,"current_range_meters":21600,"station_id":"ce4bhap2rcd13ifvqek0","pricing_plan_id":"free"},{"bike_id":"d83253f4-eeb5-426d-bdbe-4680ca82af54","system_id":"levelo_inurba_marseille","lat":43.294162,"lon":5.386292,"is_reserved":false,"is_disabled":false,"rental_uris":{"android":"levelo://app?vid=d83253f4-eeb5-426d-bdbe-4680ca82af54","ios":"levelo://app?vid=d83253f4-eeb5-426d-bdbe-4680ca82af54"},"vehicle_type_id":"4","last_reported":1702062331,"current_range_meters":10400,"station_id":"ce4bh2h2rcd13ifvqdh0","pricing_plan_id":"free"},{"bike_id":"6bda7641-af0f-49a9-b5e0-966f95bc1108","system_id":"levelo_inurba_marseille","lat":43.294162,"lon":5.386292,"is_reserved":false,"is_disabled":false,"rental_uris":{"android":"levelo://app?vid=6bda7641-af0f-49a9-b5e0-966f95bc1108","ios":"levelo://app?vid=6bda7641-af0f-49a9-b5e0-966f95bc1108"},"vehicle_type_id":"4","last_reported":1702062331,"current_range_meters":3600,"station_id":"ce4bh2h2rcd13ifvqdh0","pricing_plan_id":"free"},{"bike_id":"99584675-ce47-4c00-bf3b-91a07b55b353","system_id":"levelo_inurba_marseille","lat":43.294162,"lon":5.386292,"is_reserved":false,"is_disabled":false,"rental_uris":{"android":"levelo://app?vid=99584675-ce47-4c00-bf3b-91a07b55b353","ios":"levelo://app?vid=99584675-ce47-4c00-bf3b-91a07b55b353"},"vehicle_type_id":"4","last_reported":1702062331,"current_range_meters":21600,"station_id":"ce4bh2h2rcd13ifvqdh0","pricing_plan_id":"free"},{"bike_id":"1b66c1b9-d0ff-4e13-8db3-5330c52583a7","system_id":"levelo_inurba_marseille","lat":43.289184,"lon":5.366408,"is_reserved":false,"is_disabled":false,"rental_uris":{"android":"levelo://app?vid=1b66c1b9-d0ff-4e13-8db3-5330c52583a7","ios":"levelo://app?vid=1b66c1b9-d0ff-4e13-8db3-5330c52583a7"},"vehicle_type_id":"4","last_reported":1702062331,"current_range_meters":21200,"station_id":"ce4bhap2rcd13ifvqek0","pricing_plan_id":"free"},{"bike_id":"e1d5aafc-faea-4c63-aaeb-6e78dbdcb666","system_id":"levelo_inurba_marseille","lat":43.28927,"lon":5.36638,"is_reserved":false,"is_disabled":false,"rental_uris":{"android":"levelo://app?vid=e1d5aafc-faea-4c63-aaeb-6e78dbdcb666","ios":"levelo://app?vid=e1d5aafc-faea-4c63-aaeb-6e78dbdcb666"},"vehicle_type_id":"4","last_reported":1702062331,"current_range_meters":31200,"station_id":"ce4bhap2rcd13ifvqek0","pricing_plan_id":"free"},{"bike_id":"a02a1b20-1fb1-4951-988a-77389649024d","system_id":"levelo_inurba_marseille","lat":43.289259,"lon":5.366364,"is_reserved":false,"is_disabled":false,"rental_uris":{"android":"levelo://app?vid=a02a1b20-1fb1-4951-988a-77389649024d","ios":"levelo://app?vid=a02a1b20-1fb1-4951-988a-77389649024d"},"vehicle_type_id":"4","last_reported":1702062331,"current_range_meters":14800,"station_id":"","pricing_plan_id":"free"},{"bike_id":"4b9ae10b-6d3f-446c-94bd-5ff76770ba63","system_id":"levelo_inurba_marseille","lat":43.292644,"lon":5.384257,"is_reserved":false,"is_disabled":false,"rental_uris":{"android":"levelo://app?vid=4b9ae10b-6d3f-446c-94bd-5ff76770ba63","ios":"levelo://app?vid=4b9ae10b-6d3f-446c-94bd-5ff76770ba63"},"vehicle_type_id":"4","last_reported":1702062331,"current_range_meters":7200,"station_id":"ce4bh692rcd13ifvqea0","pricing_plan_id":"free"},{"bike_id":"92ed0d02-f3ed-4ac2-91b1-1610285e163a","system_id":"levelo_inurba_marseille","lat":43.292644,"lon":5.384257,"is_reserved":false,"is_disabled":false,"rental_uris":{"android":"levelo://app?vid=92ed0d02-f3ed-4ac2-91b1-1610285e163a","ios":"levelo://app?vid=92ed0d02-f3ed-4ac2-91b1-1610285e163a"},"vehicle_type_id":"4","last_reported":1702062331,"current_range_meters":9200,"station_id":"ce4bh692rcd13ifvqea0","pricing_plan_id":"free"},{"bike_id":"e4eef4bf-ae58-467e-9cb8-c8952329e838","system_id":"levelo_inurba_marseille","lat":43.33042,"lon":5.38916,"is_reserved":false,"is_disabled":false,"rental_uris":{"android":"levelo://app?vid=e4eef4bf-ae58-467e-9cb8-c8952329e838","ios":"levelo://app?vid=e4eef4bf-ae58-467e-9cb8-c8952329e838"},"vehicle_type_id":"4","last_reported":1702062331,"current_range_meters":20000,"station_id":"ce4bhr92rcd13ifvqhrg","pricing_plan_id":"free"},{"bike_id":"a03ee93d-1a6a-4bb0-b91e-51235d478d91","system_id":"levelo_inurba_marseille","lat":43.33042,"lon":5.38921,"is_reserved":false,"is_disabled":false,"rental_uris":{"android":"levelo://app?vid=a03ee93d-1a6a-4bb0-b91e-51235d478d91","ios":"levelo://app?vid=a03ee93d-1a6a-4bb0-b91e-51235d478d91"},"vehicle_type_id":"4","last_reported":1702062331,"current_range_meters":13600,"station_id":"ce4bhr92rcd13ifvqhrg","pricing_plan_id":"free"},{"bike_id":"c1d5bb95-27c5-435a-a770-3e5c153950cf","system_id":"levelo_inurba_marseille","lat":43.33045,"lon":5.38917,"is_reserved":false,"is_disabled":false,"rental_uris":{"android":"levelo://app?vid=c1d5bb95-27c5-435a-a770-3e5c153950cf","ios":"levelo://app?vid=c1d5bb95-27c5-435a-a770-3e5c153950cf"},"vehicle_type_id":"4","last_reported":1702062331,"current_range_meters":22000,"station_id":"ce4bhr92rcd13ifvqhrg","pricing_plan_id":"free"},{"bike_id":"a99dd9b6-3fd7-4a31-8d24-a751688c73dc","system_id":"levelo_inurba_marseille","lat":43.33044,"lon":5.38919,"is_reserved":false,"is_disabled":false,"rental_uris":{"android":"levelo://app?vid=a99dd9b6-3fd7-4a31-8d24-a751688c73dc","ios":"levelo://app?vid=a99dd9b6-3fd7-4a31-8d24-a751688c73dc"},"vehicle_type_id":"4","last_reported":1702062331,"current_range_meters":3600,"station_id":"ce4bhr92rcd13ifvqhrg","pricing_plan_id":"free"},{"bike_id":"1001995b-7b23-446f-a094-13c26bf8fae8","system_id":"levelo_inurba_marseille","lat":43.290995,"lon":5.381361,"is_reserved":false,"is_disabled":false,"rental_uris":{"android":"levelo://app?vid=1001995b-7b23-446f-a094-13c26bf8fae8","ios":"levelo://app?vid=1001995b-7b23-446f-a094-13c26bf8fae8"},"vehicle_type_id":"4","last_reported":1702062331,"current_range_meters":21200,"station_id":"ce4bh512rcd13ifvqe2g","pricing_plan_id":"free"},{"bike_id":"6fd4da80-6b9c-47ac-be9f-8bf3c522c2dc","system_id":"levelo_inurba_marseille","lat":43.29787,"lon":5.39338,"is_reserved":false,"is_disabled":false,"rental_uris":{"android":"levelo://app?vid=6fd4da80-6b9c-47ac-be9f-8bf3c522c2dc","ios":"levelo://app?vid=6fd4da80-6b9c-47ac-be9f-8bf3c522c2dc"},"vehicle_type_id":"4","last_reported":1702062331,"current_range_meters":8800,"station_id":"chh1huq6cuj3fo74tm60","pricing_plan_id":"free"},{"bike_id":"e3014082-74d5-4c33-91b5-c6101503c4a1","system_id":"levelo_inurba_marseille","lat":43.295169,"lon":5.390426,"is_reserved":false,"is_disabled":false,"rental_uris":{"android":"levelo://app?vid=e3014082-74d5-4c33-91b5-c6101503c4a1","ios":"levelo://app?vid=e3014082-74d5-4c33-91b5-c6101503c4a1"},"vehicle_type_id":"4","last_reported":1702062331,"current_range_meters":0,"station_id":"ce4bh3p2rcd13ifvqdp0","pricing_plan_id":"free"},{"bike_id":"7c41cc07-f05e-4794-83eb-57a6c3332f36","system_id":"levelo_inurba_marseille","lat":43.33735,"lon":5.37445,"is_reserved":false,"is_disabled":false,"rental_uris":{"android":"levelo://app?vid=7c41cc07-f05e-4794-83eb-57a6c3332f36","ios":"levelo://app?vid=7c41cc07-f05e-4794-83eb-57a6c3332f36"},"vehicle_type_id":"4","last_reported":1702062331,"current_range_meters":30000,"station_id":"","pricing_plan_id":"free"},{"bike_id":"471b4678-35f1-474c-b8fc-35e042446a1e","system_id":"levelo_inurba_marseille","lat":43.33743,"lon":5.3745,"is_reserved":false,"is_disabled":false,"rental_uris":{"android":"levelo://app?vid=471b4678-35f1-474c-b8fc-35e042446a1e","ios":"levelo://app?vid=471b4678-35f1-474c-b8fc-35e042446a1e"},"vehicle_type_id":"4","last_reported":1702062331,"current_range_meters":25200,"station_id":"","pricing_plan_id":"free"},{"bike_id":"107cd510-c82e-44b7-9f1c-8e6ee9198a1b","system_id":"levelo_inurba_marseille","lat":43.30926,"lon":5.40147,"is_reserved":false,"is_disabled":false,"rental_uris":{"android":"levelo://app?vid=107cd510-c82e-44b7-9f1c-8e6ee9198a1b","ios":"levelo://app?vid=107cd510-c82e-44b7-9f1c-8e6ee9198a1b"},"vehicle_type_id":"4","last_reported":1702062331,"current_range_meters":9200,"station_id":"ce4bgvp2rcd13ifvqct0","pricing_plan_id":"free"},{"bike_id":"64cbca64-719d-4329-8aa0-5236a40c63e1","system_id":"levelo_inurba_marseille","lat":43.301117,"lon":5.398795,"is_reserved":false,"is_disabled":false,"rental_uris":{"android":"levelo://app?vid=64cbca64-719d-4329-8aa0-5236a40c63e1","ios":"levelo://app?vid=64cbca64-719d-4329-8aa0-5236a40c63e1"},"vehicle_type_id":"4","last_reported":1702062331,"current_range_meters":18000,"station_id":"ce4bh0h2rcd13ifvqd40","pricing_plan_id":"free"},{"bike_id":"3e17be62-0d32-4bac-97e8-5bd4dd12338c","system_id":"levelo_inurba_marseille","lat":43.28727,"lon":5.36078,"is_reserved":false,"is_disabled":false,"rental_uris":{"android":"levelo://app?vid=3e17be62-0d32-4bac-97e8-5bd4dd12338c","ios":"levelo://app?vid=3e17be62-0d32-4bac-97e8-5bd4dd12338c"},"vehicle_type_id":"4","last_reported":1702062331,"current_range_meters":15600,"station_id":"cki0cbj6b192h4jlfktg","pricing_plan_id":"free"},{"bike_id":"5dccf7dc-1d4f-4acc-87af-dcbf3c650519","system_id":"levelo_inurba_marseille","lat":43.28718,"lon":5.36079,"is_reserved":false,"is_disabled":false,"rental_uris":{"android":"levelo://app?vid=5dccf7dc-1d4f-4acc-87af-dcbf3c650519","ios":"levelo://app?vid=5dccf7dc-1d4f-4acc-87af-dcbf3c650519"},"vehicle_type_id":"4","last_reported":1702062331,"current_range_meters":16800,"station_id":"cki0cbj6b192h4jlfktg","pricing_plan_id":"free"},{"bike_id":"f27c6db7-92f0-4288-9360-5a319fc818c7","system_id":"levelo_inurba_marseille","lat":43.298681,"lon":5.397225,"is_reserved":false,"is_disabled":false,"rental_uris":{"android":"levelo://app?vid=f27c6db7-92f0-4288-9360-5a319fc818c7","ios":"levelo://app?vid=f27c6db7-92f0-4288-9360-5a319fc818c7"},"vehicle_type_id":"4","last_reported":1702062331,"current_range_meters":6000,"station_id":"ce4bh0h2rcd13ifvqd50","pricing_plan_id":"free"},{"bike_id":"742e40bc-6bad-4f7f-ac40-24390e73fc75","system_id":"levelo_inurba_marseille","lat":43.302759,"lon":5.400793,"is_reserved":false,"is_disabled":false,"rental_uris":{"android":"levelo://app?vid=742e40bc-6bad-4f7f-ac40-24390e73fc75","ios":"levelo://app?vid=742e40bc-6bad-4f7f-ac40-24390e73fc75"},"vehicle_type_id":"4","last_reported":1702062331,"current_range_meters":6000,"station_id":"ce4bgvh2rcd13ifvqcs0","pricing_plan_id":"free"},{"bike_id":"30f946f0-c7cb-462e-bff2-dc4805d2693d","system_id":"levelo_inurba_marseille","lat":43.286039,"lon":5.370681,"is_reserved":false,"is_disabled":false,"rental_uris":{"android":"levelo://app?vid=30f946f0-c7cb-462e-bff2-dc4805d2693d","ios":"levelo://app?vid=30f946f0-c7cb-462e-bff2-dc4805d2693d"},"vehicle_type_id":"4","last_reported":1702062331,"current_range_meters":14400,"station_id":"ce4bht12rcd13ifvqi60","pricing_plan_id":"free"},{"bike_id":"3d9bf17b-04bf-40bb-abf5-58d3ef0adfb6","system_id":"levelo_inurba_marseille","lat":43.284538,"lon":5.358657,"is_reserved":false,"is_disabled":false,"rental_uris":{"android":"levelo://app?vid=3d9bf17b-04bf-40bb-abf5-58d3ef0adfb6","ios":"levelo://app?vid=3d9bf17b-04bf-40bb-abf5-58d3ef0adfb6"},"vehicle_type_id":"4","last_reported":1702062331,"current_range_meters":19200,"station_id":"ce4bhah2rcd13ifvqei0","pricing_plan_id":"free"},{"bike_id":"640d39b3-7eb1-45bd-a2b4-f74401e2ed74","system_id":"levelo_inurba_marseille","lat":43.284538,"lon":5.358657,"is_reserved":false,"is_disabled":false,"rental_uris":{"android":"levelo://app?vid=640d39b3-7eb1-45bd-a2b4-f74401e2ed74","ios":"levelo://app?vid=640d39b3-7eb1-45bd-a2b4-f74401e2ed74"},"vehicle_type_id":"4","last_reported":1702062331,"current_range_meters":5600,"station_id":"ce4bhah2rcd13ifvqei0","pricing_plan_id":"free"},{"bike_id":"efb5ef21-08cb-4e56-b40f-629b654d45e9","system_id":"levelo_inurba_marseille","lat":43.285856,"lon":5.350771,"is_reserved":false,"is_disabled":false,"rental_uris":{"android":"levelo://app?vid=efb5ef21-08cb-4e56-b40f-629b654d45e9","ios":"levelo://app?vid=efb5ef21-08cb-4e56-b40f-629b654d45e9"},"vehicle_type_id":"4","last_reported":1702062331,"current_range_meters":9200,"station_id":"ce4bhch2rcd13ifvqeug","pricing_plan_id":"free"},{"bike_id":"ff40c8df-16df-438b-83d5-9cbc49257fe4","system_id":"levelo_inurba_marseille","lat":43.28616,"lon":5.35102,"is_reserved":false,"is_disabled":false,"rental_uris":{"android":"levelo://app?vid=ff40c8df-16df-438b-83d5-9cbc49257fe4","ios":"levelo://app?vid=ff40c8df-16df-438b-83d5-9cbc49257fe4"},"vehicle_type_id":"4","last_reported":1702062331,"current_range_meters":4000,"station_id":"ce4bhch2rcd13ifvqeug","pricing_plan_id":"free"},{"bike_id":"fc75298f-98dc-43c8-9ac0-3baa025d364d","system_id":"levelo_inurba_marseille","lat":43.286153,"lon":5.35101,"is_reserved":false,"is_disabled":false,"rental_uris":{"android":"levelo://app?vid=fc75298f-98dc-43c8-9ac0-3baa025d364d","ios":"levelo://app?vid=fc75298f-98dc-43c8-9ac0-3baa025d364d"},"vehicle_type_id":"4","last_reported":1702062331,"current_range_meters":5200,"station_id":"ce4bhch2rcd13ifvqeug","pricing_plan_id":"free"},{"bike_id":"3b44b279-4508-4e90-b4ff-6cbec8acfee3","system_id":"levelo_inurba_marseille","lat":43.284637,"lon":5.38044,"is_reserved":false,"is_disabled":false,"rental_uris":{"android":"levelo://app?vid=3b44b279-4508-4e90-b4ff-6cbec8acfee3","ios":"levelo://app?vid=3b44b279-4508-4e90-b4ff-6cbec8acfee3"},"vehicle_type_id":"4","last_reported":1702062331,"current_range_meters":20000,"station_id":"","pricing_plan_id":"free"},{"bike_id":"394e7ef0-8795-4b05-b68f-3db5b0a2f588","system_id":"levelo_inurba_marseille","lat":43.33717,"lon":5.391857,"is_reserved":false,"is_disabled":false,"rental_uris":{"android":"levelo://app?vid=394e7ef0-8795-4b05-b68f-3db5b0a2f588","ios":"levelo://app?vid=394e7ef0-8795-4b05-b68f-3db5b0a2f588"},"vehicle_type_id":"4","last_reported":1702062331,"current_range_meters":22400,"station_id":"ce4bhr92rcd13ifvqhsg","pricing_plan_id":"free"},{"bike_id":"efe9d2cc-d0eb-4e85-b313-6bf62b4d4d4c","system_id":"levelo_inurba_marseille","lat":43.33726,"lon":5.39193,"is_reserved":false,"is_disabled":false,"rental_uris":{"android":"levelo://app?vid=efe9d2cc-d0eb-4e85-b313-6bf62b4d4d4c","ios":"levelo://app?vid=efe9d2cc-d0eb-4e85-b313-6bf62b4d4d4c"},"vehicle_type_id":"4","last_reported":1702062331,"current_range_meters":2800,"station_id":"ce4bhr92rcd13ifvqhsg","pricing_plan_id":"free"},{"bike_id":"fea61f53-cc1d-4b8d-a553-f69dbf3e3f3f","system_id":"levelo_inurba_marseille","lat":43.284793,"lon":5.384113,"is_reserved":false,"is_disabled":false,"rental_uris":{"android":"levelo://app?vid=fea61f53-cc1d-4b8d-a553-f69dbf3e3f3f","ios":"levelo://app?vid=fea61f53-cc1d-4b8d-a553-f69dbf3e3f3f"},"vehicle_type_id":"4","last_reported":1702062331,"current_range_meters":14400,"station_id":"ce4bh512rcd13ifvqe3g","pricing_plan_id":"free"},{"bike_id":"7a7b210a-f03d-40ce-aca7-448ac7739566","system_id":"levelo_inurba_marseille","lat":43.297946,"lon":5.404063,"is_reserved":false,"is_disabled":false,"rental_uris":{"android":"levelo://app?vid=7a7b210a-f03d-40ce-aca7-448ac7739566","ios":"levelo://app?vid=7a7b210a-f03d-40ce-aca7-448ac7739566"},"vehicle_type_id":"4","last_reported":1702062331,"current_range_meters":6400,"station_id":"ce4bh112rcd13ifvqd90","pricing_plan_id":"free"},{"bike_id":"a68b88f4-2ffe-4dde-870f-8470e5c029f7","system_id":"levelo_inurba_marseille","lat":43.288501,"lon":5.393087,"is_reserved":false,"is_disabled":false,"rental_uris":{"android":"levelo://app?vid=a68b88f4-2ffe-4dde-870f-8470e5c029f7","ios":"levelo://app?vid=a68b88f4-2ffe-4dde-870f-8470e5c029f7"},"vehicle_type_id":"4","last_reported":1702062331,"current_range_meters":2000,"station_id":"ce4bh2p2rcd13ifvqdi0","pricing_plan_id":"free"},{"bike_id":"81965f14-66ae-4664-b4e5-cfa91b2f3acd","system_id":"levelo_inurba_marseille","lat":43.284217,"lon":5.349697,"is_reserved":false,"is_disabled":false,"rental_uris":{"android":"levelo://app?vid=81965f14-66ae-4664-b4e5-cfa91b2f3acd","ios":"levelo://app?vid=81965f14-66ae-4664-b4e5-cfa91b2f3acd"},"vehicle_type_id":"4","last_reported":1702062331,"current_range_meters":28000,"station_id":"ce4bhbh2rcd13ifvqepg","pricing_plan_id":"free"},{"bike_id":"5f38088f-251c-41dd-8ffe-cd991369c38b","system_id":"levelo_inurba_marseille","lat":43.281044,"lon":5.378308,"is_reserved":false,"is_disabled":false,"rental_uris":{"android":"levelo://app?vid=5f38088f-251c-41dd-8ffe-cd991369c38b","ios":"levelo://app?vid=5f38088f-251c-41dd-8ffe-cd991369c38b"},"vehicle_type_id":"4","last_reported":1702062331,"current_range_meters":23600,"station_id":"ce4bha12rcd13ifvqee0","pricing_plan_id":"free"},{"bike_id":"a78d5458-7f89-49f3-9e9c-277d880ae451","system_id":"levelo_inurba_marseille","lat":43.258224,"lon":5.394369,"is_reserved":false,"is_disabled":false,"rental_uris":{"android":"levelo://app?vid=a78d5458-7f89-49f3-9e9c-277d880ae451","ios":"levelo://app?vid=a78d5458-7f89-49f3-9e9c-277d880ae451"},"vehicle_type_id":"4","last_reported":1702062331,"current_range_meters":11200,"station_id":"ce4bhip2rcd13ifvqft0","pricing_plan_id":"free"},{"bike_id":"9a17bc20-62e4-465e-b137-7b5d7d0449ec","system_id":"levelo_inurba_marseille","lat":43.283502,"lon":5.386471,"is_reserved":false,"is_disabled":false,"rental_uris":{"android":"levelo://app?vid=9a17bc20-62e4-465e-b137-7b5d7d0449ec","ios":"levelo://app?vid=9a17bc20-62e4-465e-b137-7b5d7d0449ec"},"vehicle_type_id":"4","last_reported":1702062331,"current_range_meters":12400,"station_id":"ce4bh492rcd13ifvqdvg","pricing_plan_id":"free"},{"bike_id":"7d6afa9a-2929-4189-ab76-6f7a34af73b3","system_id":"levelo_inurba_marseille","lat":43.280382,"lon":5.369291,"is_reserved":false,"is_disabled":false,"rental_uris":{"android":"levelo://app?vid=7d6afa9a-2929-4189-ab76-6f7a34af73b3","ios":"levelo://app?vid=7d6afa9a-2929-4189-ab76-6f7a34af73b3"},"vehicle_type_id":"4","last_reported":1702062331,"current_range_meters":14000,"station_id":"ce4bha12rcd13ifvqef0","pricing_plan_id":"free"},{"bike_id":"dbaa8d01-05e0-4778-b647-6d4af5354590","system_id":"levelo_inurba_marseille","lat":43.280382,"lon":5.369291,"is_reserved":false,"is_disabled":false,"rental_uris":{"android":"levelo://app?vid=dbaa8d01-05e0-4778-b647-6d4af5354590","ios":"levelo://app?vid=dbaa8d01-05e0-4778-b647-6d4af5354590"},"vehicle_type_id":"4","last_reported":1702062331,"current_range_meters":0,"station_id":"ce4bha12rcd13ifvqef0","pricing_plan_id":"free"},{"bike_id":"9228b2ed-c4c2-40a3-809f-807831775fc9","system_id":"levelo_inurba_marseille","lat":43.281044,"lon":5.378308,"is_reserved":false,"is_disabled":false,"rental_uris":{"android":"levelo://app?vid=9228b2ed-c4c2-40a3-809f-807831775fc9","ios":"levelo://app?vid=9228b2ed-c4c2-40a3-809f-807831775fc9"},"vehicle_type_id":"4","last_reported":1702062331,"current_range_meters":15600,"station_id":"ce4bha12rcd13ifvqee0","pricing_plan_id":"free"},{"bike_id":"993f6636-7178-4467-8ea7-32387afc05b7","system_id":"levelo_inurba_marseille","lat":43.281044,"lon":5.378308,"is_reserved":false,"is_disabled":false,"rental_uris":{"android":"levelo://app?vid=993f6636-7178-4467-8ea7-32387afc05b7","ios":"levelo://app?vid=993f6636-7178-4467-8ea7-32387afc05b7"},"vehicle_type_id":"4","last_reported":1702062331,"current_range_meters":6800,"station_id":"ce4bha12rcd13ifvqee0","pricing_plan_id":"free"},{"bike_id":"7d75c673-7d01-4024-a0d7-6aef6878f78a","system_id":"levelo_inurba_marseille","lat":43.281044,"lon":5.378308,"is_reserved":false,"is_disabled":false,"rental_uris":{"android":"levelo://app?vid=7d75c673-7d01-4024-a0d7-6aef6878f78a","ios":"levelo://app?vid=7d75c673-7d01-4024-a0d7-6aef6878f78a"},"vehicle_type_id":"4","last_reported":1702062331,"current_range_meters":8400,"station_id":"ce4bha12rcd13ifvqee0","pricing_plan_id":"free"},{"bike_id":"8feb032d-7075-486b-b0fd-366524b808b8","system_id":"levelo_inurba_marseille","lat":43.284462,"lon":5.392121,"is_reserved":false,"is_disabled":false,"rental_uris":{"android":"levelo://app?vid=8feb032d-7075-486b-b0fd-366524b808b8","ios":"levelo://app?vid=8feb032d-7075-486b-b0fd-366524b808b8"},"vehicle_type_id":"4","last_reported":1702062331,"current_range_meters":2000,"station_id":"ce4bhoh2rcd13ifvqh5g","pricing_plan_id":"free"},{"bike_id":"49b7c10c-6c28-433b-951e-f27cbf9519b6","system_id":"levelo_inurba_marseille","lat":43.28573,"lon":5.394992,"is_reserved":false,"is_disabled":false,"rental_uris":{"android":"levelo://app?vid=49b7c10c-6c28-433b-951e-f27cbf9519b6","ios":"levelo://app?vid=49b7c10c-6c28-433b-951e-f27cbf9519b6"},"vehicle_type_id":"4","last_reported":1702062331,"current_range_meters":29600,"station_id":"ce4bh292rcd13ifvqdg0","pricing_plan_id":"free"},{"bike_id":"b26c8630-323c-4045-8811-b7bc791c08ad","system_id":"levelo_inurba_marseille","lat":43.27801,"lon":5.36243,"is_reserved":false,"is_disabled":false,"rental_uris":{"android":"levelo://app?vid=b26c8630-323c-4045-8811-b7bc791c08ad","ios":"levelo://app?vid=b26c8630-323c-4045-8811-b7bc791c08ad"},"vehicle_type_id":"4","last_reported":1702062331,"current_range_meters":26800,"station_id":"","pricing_plan_id":"free"},{"bike_id":"6f030f03-7aaa-4bab-abfa-e2a6cef65cfc","system_id":"levelo_inurba_marseille","lat":43.279087,"lon":5.380114,"is_reserved":false,"is_disabled":false,"rental_uris":{"android":"levelo://app?vid=6f030f03-7aaa-4bab-abfa-e2a6cef65cfc","ios":"levelo://app?vid=6f030f03-7aaa-4bab-abfa-e2a6cef65cfc"},"vehicle_type_id":"4","last_reported":1702062331,"current_range_meters":24000,"station_id":"ce4bhf92rcd13ifvqf50","pricing_plan_id":"free"},{"bike_id":"65c002a2-5a39-4ee9-bf1b-6b5b77e862f7","system_id":"levelo_inurba_marseille","lat":43.279087,"lon":5.380114,"is_reserved":false,"is_disabled":false,"rental_uris":{"android":"levelo://app?vid=65c002a2-5a39-4ee9-bf1b-6b5b77e862f7","ios":"levelo://app?vid=65c002a2-5a39-4ee9-bf1b-6b5b77e862f7"},"vehicle_type_id":"4","last_reported":1702062331,"current_range_meters":4000,"station_id":"ce4bhf92rcd13ifvqf50","pricing_plan_id":"free"},{"bike_id":"717b3759-fa29-4259-9b07-c8a36c0da807","system_id":"levelo_inurba_marseille","lat":43.287154,"lon":5.399979,"is_reserved":false,"is_disabled":false,"rental_uris":{"android":"levelo://app?vid=717b3759-fa29-4259-9b07-c8a36c0da807","ios":"levelo://app?vid=717b3759-fa29-4259-9b07-c8a36c0da807"},"vehicle_type_id":"4","last_reported":1702062331,"current_range_meters":0,"station_id":"ce4bho92rcd13ifvqh3g","pricing_plan_id":"free"},{"bike_id":"51fdf4a9-5f99-49b6-9601-b089ec9a3fa6","system_id":"levelo_inurba_marseille","lat":43.292633,"lon":5.40918,"is_reserved":false,"is_disabled":false,"rental_uris":{"android":"levelo://app?vid=51fdf4a9-5f99-49b6-9601-b089ec9a3fa6","ios":"levelo://app?vid=51fdf4a9-5f99-49b6-9601-b089ec9a3fa6"},"vehicle_type_id":"4","last_reported":1702062331,"current_range_meters":15600,"station_id":"ce4bh192rcd13ifvqdc0","pricing_plan_id":"free"},{"bike_id":"73d8f6d9-a5f6-4801-abb1-bed58a917ae3","system_id":"levelo_inurba_marseille","lat":43.27618,"lon":5.361009,"is_reserved":false,"is_disabled":false,"rental_uris":{"android":"levelo://app?vid=73d8f6d9-a5f6-4801-abb1-bed58a917ae3","ios":"levelo://app?vid=73d8f6d9-a5f6-4801-abb1-bed58a917ae3"},"vehicle_type_id":"4","last_reported":1702062331,"current_range_meters":29200,"station_id":"ce4bgj92rcd13ifvqbe0","pricing_plan_id":"free"},{"bike_id":"d81229ad-7ea7-4266-8d19-5d7e02ab3041","system_id":"levelo_inurba_marseille","lat":43.280784,"lon":5.396622,"is_reserved":false,"is_disabled":false,"rental_uris":{"android":"levelo://app?vid=d81229ad-7ea7-4266-8d19-5d7e02ab3041","ios":"levelo://app?vid=d81229ad-7ea7-4266-8d19-5d7e02ab3041"},"vehicle_type_id":"4","last_reported":1702062331,"current_range_meters":27200,"station_id":"ce4bho12rcd13ifvqh2g","pricing_plan_id":"free"},{"bike_id":"9f13b79a-78f9-4e00-8665-b7445f0be391","system_id":"levelo_inurba_marseille","lat":43.303837,"lon":5.418724,"is_reserved":false,"is_disabled":false,"rental_uris":{"android":"levelo://app?vid=9f13b79a-78f9-4e00-8665-b7445f0be391","ios":"levelo://app?vid=9f13b79a-78f9-4e00-8665-b7445f0be391"},"vehicle_type_id":"4","last_reported":1702062331,"current_range_meters":16000,"station_id":"ce4bhop2rcd13ifvqh7g","pricing_plan_id":"free"},{"bike_id":"7f7e97a2-a41e-4916-9bcb-8bb0579093e4","system_id":"levelo_inurba_marseille","lat":43.303837,"lon":5.418724,"is_reserved":false,"is_disabled":false,"rental_uris":{"android":"levelo://app?vid=7f7e97a2-a41e-4916-9bcb-8bb0579093e4","ios":"levelo://app?vid=7f7e97a2-a41e-4916-9bcb-8bb0579093e4"},"vehicle_type_id":"4","last_reported":1702062331,"current_range_meters":14400,"station_id":"ce4bhop2rcd13ifvqh7g","pricing_plan_id":"free"},{"bike_id":"02a5014f-2f5f-46ac-98e1-c8e1cce18a60","system_id":"levelo_inurba_marseille","lat":43.33612,"lon":5.410321,"is_reserved":false,"is_disabled":false,"rental_uris":{"android":"levelo://app?vid=02a5014f-2f5f-46ac-98e1-c8e1cce18a60","ios":"levelo://app?vid=02a5014f-2f5f-46ac-98e1-c8e1cce18a60"},"vehicle_type_id":"4","last_reported":1702062331,"current_range_meters":5200,"station_id":"ce4bhqh2rcd13ifvqhmg","pricing_plan_id":"free"},{"bike_id":"910f7144-726d-4917-b1b5-03635c0159cd","system_id":"levelo_inurba_marseille","lat":43.275625,"lon":5.384392,"is_reserved":false,"is_disabled":false,"rental_uris":{"android":"levelo://app?vid=910f7144-726d-4917-b1b5-03635c0159cd","ios":"levelo://app?vid=910f7144-726d-4917-b1b5-03635c0159cd"},"vehicle_type_id":"4","last_reported":1702062331,"current_range_meters":2000,"station_id":"ce4bhh92rcd13ifvqfi0","pricing_plan_id":"free"},{"bike_id":"1c186b30-4de3-4233-b917-1c0a71ba9dc3","system_id":"levelo_inurba_marseille","lat":43.275625,"lon":5.384392,"is_reserved":false,"is_disabled":false,"rental_uris":{"android":"levelo://app?vid=1c186b30-4de3-4233-b917-1c0a71ba9dc3","ios":"levelo://app?vid=1c186b30-4de3-4233-b917-1c0a71ba9dc3"},"vehicle_type_id":"4","last_reported":1702062331,"current_range_meters":23600,"station_id":"ce4bhh92rcd13ifvqfi0","pricing_plan_id":"free"},{"bike_id":"1f5dca12-6e84-4152-96c5-5eeac8088d5e","system_id":"levelo_inurba_marseille","lat":43.279952,"lon":5.400085,"is_reserved":false,"is_disabled":false,"rental_uris":{"android":"levelo://app?vid=1f5dca12-6e84-4152-96c5-5eeac8088d5e","ios":"levelo://app?vid=1f5dca12-6e84-4152-96c5-5eeac8088d5e"},"vehicle_type_id":"4","last_reported":1702062331,"current_range_meters":10800,"station_id":"ce4bho92rcd13ifvqh4g","pricing_plan_id":"free"},{"bike_id":"49eedf0f-10a6-4faa-a1bb-a8fca34629e4","system_id":"levelo_inurba_marseille","lat":43.28001,"lon":5.40005,"is_reserved":false,"is_disabled":false,"rental_uris":{"android":"levelo://app?vid=49eedf0f-10a6-4faa-a1bb-a8fca34629e4","ios":"levelo://app?vid=49eedf0f-10a6-4faa-a1bb-a8fca34629e4"},"vehicle_type_id":"4","last_reported":1702062331,"current_range_meters":4800,"station_id":"ce4bho92rcd13ifvqh4g","pricing_plan_id":"free"},{"bike_id":"e49d7e71-ca50-4ea8-a948-45bff29c0080","system_id":"levelo_inurba_marseille","lat":43.279985,"lon":5.40006,"is_reserved":false,"is_disabled":false,"rental_uris":{"android":"levelo://app?vid=e49d7e71-ca50-4ea8-a948-45bff29c0080","ios":"levelo://app?vid=e49d7e71-ca50-4ea8-a948-45bff29c0080"},"vehicle_type_id":"4","last_reported":1702062331,"current_range_meters":16000,"station_id":"ce4bho92rcd13ifvqh4g","pricing_plan_id":"free"},{"bike_id":"93ac8d39-8541-43a3-8880-e4c735dc8b4d","system_id":"levelo_inurba_marseille","lat":43.27998,"lon":5.40006,"is_reserved":false,"is_disabled":false,"rental_uris":{"android":"levelo://app?vid=93ac8d39-8541-43a3-8880-e4c735dc8b4d","ios":"levelo://app?vid=93ac8d39-8541-43a3-8880-e4c735dc8b4d"},"vehicle_type_id":"4","last_reported":1702062331,"current_range_meters":26800,"station_id":"ce4bho92rcd13ifvqh4g","pricing_plan_id":"free"},{"bike_id":"93226352-2010-4def-9d7a-564d481896ff","system_id":"levelo_inurba_marseille","lat":43.279988,"lon":5.400086,"is_reserved":false,"is_disabled":false,"rental_uris":{"android":"levelo://app?vid=93226352-2010-4def-9d7a-564d481896ff","ios":"levelo://app?vid=93226352-2010-4def-9d7a-564d481896ff"},"vehicle_type_id":"4","last_reported":1702062331,"current_range_meters":10000,"station_id":"","pricing_plan_id":"free"},{"bike_id":"f964f646-a5c9-4011-a751-1fce1e55f551","system_id":"levelo_inurba_marseille","lat":43.279997,"lon":5.40011,"is_reserved":false,"is_disabled":false,"rental_uris":{"android":"levelo://app?vid=f964f646-a5c9-4011-a751-1fce1e55f551","ios":"levelo://app?vid=f964f646-a5c9-4011-a751-1fce1e55f551"},"vehicle_type_id":"4","last_reported":1702062331,"current_range_meters":14800,"station_id":"ce4bho92rcd13ifvqh4g","pricing_plan_id":"free"},{"bike_id":"ad7be816-4733-49ed-86f8-c55abb1687ae","system_id":"levelo_inurba_marseille","lat":43.279952,"lon":5.400085,"is_reserved":false,"is_disabled":false,"rental_uris":{"android":"levelo://app?vid=ad7be816-4733-49ed-86f8-c55abb1687ae","ios":"levelo://app?vid=ad7be816-4733-49ed-86f8-c55abb1687ae"},"vehicle_type_id":"4","last_reported":1702062331,"current_range_meters":12000,"station_id":"ce4bho92rcd13ifvqh4g","pricing_plan_id":"free"},{"bike_id":"f093167a-7b1c-4657-a857-543ec0c803d3","system_id":"levelo_inurba_marseille","lat":43.279952,"lon":5.400085,"is_reserved":false,"is_disabled":false,"rental_uris":{"android":"levelo://app?vid=f093167a-7b1c-4657-a857-543ec0c803d3","ios":"levelo://app?vid=f093167a-7b1c-4657-a857-543ec0c803d3"},"vehicle_type_id":"4","last_reported":1702062331,"current_range_meters":8400,"station_id":"ce4bho92rcd13ifvqh4g","pricing_plan_id":"free"},{"bike_id":"c58024d2-cabc-4012-868c-d0b5976a6bb0","system_id":"levelo_inurba_marseille","lat":43.3172,"lon":5.42389,"is_reserved":false,"is_disabled":false,"rental_uris":{"android":"levelo://app?vid=c58024d2-cabc-4012-868c-d0b5976a6bb0","ios":"levelo://app?vid=c58024d2-cabc-4012-868c-d0b5976a6bb0"},"vehicle_type_id":"4","last_reported":1702062331,"current_range_meters":28000,"station_id":"ce4bhp92rcd13ifvqhbg","pricing_plan_id":"free"},{"bike_id":"fc4bcc5b-5f4e-42a1-8cca-78d5c651475f","system_id":"levelo_inurba_marseille","lat":43.317121,"lon":5.423936,"is_reserved":false,"is_disabled":false,"rental_uris":{"android":"levelo://app?vid=fc4bcc5b-5f4e-42a1-8cca-78d5c651475f","ios":"levelo://app?vid=fc4bcc5b-5f4e-42a1-8cca-78d5c651475f"},"vehicle_type_id":"4","last_reported":1702062331,"current_range_meters":0,"station_id":"ce4bhp92rcd13ifvqhbg","pricing_plan_id":"free"},{"bike_id":"0f7a9644-c470-46e7-ae97-75a010349f8b","system_id":"levelo_inurba_marseille","lat":43.317157,"lon":5.423943,"is_reserved":false,"is_disabled":false,"rental_uris":{"android":"levelo://app?vid=0f7a9644-c470-46e7-ae97-75a010349f8b","ios":"levelo://app?vid=0f7a9644-c470-46e7-ae97-75a010349f8b"},"vehicle_type_id":"4","last_reported":1702062331,"current_range_meters":26400,"station_id":"","pricing_plan_id":"free"},{"bike_id":"129c9215-3406-45b6-ab91-7d5c8f1bc76b","system_id":"levelo_inurba_marseille","lat":43.310785,"lon":5.424305,"is_reserved":false,"is_disabled":false,"rental_uris":{"android":"levelo://app?vid=129c9215-3406-45b6-ab91-7d5c8f1bc76b","ios":"levelo://app?vid=129c9215-3406-45b6-ab91-7d5c8f1bc76b"},"vehicle_type_id":"4","last_reported":1702062331,"current_range_meters":30400,"station_id":"ce4bhp92rcd13ifvqhag","pricing_plan_id":"free"},{"bike_id":"80038031-3601-4c51-b66a-c6c9131d41d1","system_id":"levelo_inurba_marseille","lat":43.310785,"lon":5.424305,"is_reserved":false,"is_disabled":false,"rental_uris":{"android":"levelo://app?vid=80038031-3601-4c51-b66a-c6c9131d41d1","ios":"levelo://app?vid=80038031-3601-4c51-b66a-c6c9131d41d1"},"vehicle_type_id":"4","last_reported":1702062331,"current_range_meters":16000,"station_id":"ce4bhp92rcd13ifvqhag","pricing_plan_id":"free"},{"bike_id":"2bf1bc61-40a7-4947-b63a-5c27ce37e646","system_id":"levelo_inurba_marseille","lat":43.310805,"lon":5.424302,"is_reserved":false,"is_disabled":false,"rental_uris":{"android":"levelo://app?vid=2bf1bc61-40a7-4947-b63a-5c27ce37e646","ios":"levelo://app?vid=2bf1bc61-40a7-4947-b63a-5c27ce37e646"},"vehicle_type_id":"4","last_reported":1702062331,"current_range_meters":14400,"station_id":"","pricing_plan_id":"free"},{"bike_id":"a7d7c71e-5575-4755-bfc1-6143967af57a","system_id":"levelo_inurba_marseille","lat":43.310812,"lon":5.424304,"is_reserved":false,"is_disabled":false,"rental_uris":{"android":"levelo://app?vid=a7d7c71e-5575-4755-bfc1-6143967af57a","ios":"levelo://app?vid=a7d7c71e-5575-4755-bfc1-6143967af57a"},"vehicle_type_id":"4","last_reported":1702062331,"current_range_meters":14400,"station_id":"","pricing_plan_id":"free"},{"bike_id":"3382fddf-23bf-43e2-9be0-1a0233fdea3a","system_id":"levelo_inurba_marseille","lat":43.310785,"lon":5.424305,"is_reserved":false,"is_disabled":false,"rental_uris":{"android":"levelo://app?vid=3382fddf-23bf-43e2-9be0-1a0233fdea3a","ios":"levelo://app?vid=3382fddf-23bf-43e2-9be0-1a0233fdea3a"},"vehicle_type_id":"4","last_reported":1702062331,"current_range_meters":31200,"station_id":"ce4bhp92rcd13ifvqhag","pricing_plan_id":"free"},{"bike_id":"e6ff414d-6f05-44d2-b7c6-4a89a6fc64e2","system_id":"levelo_inurba_marseille","lat":43.310785,"lon":5.424305,"is_reserved":false,"is_disabled":false,"rental_uris":{"android":"levelo://app?vid=e6ff414d-6f05-44d2-b7c6-4a89a6fc64e2","ios":"levelo://app?vid=e6ff414d-6f05-44d2-b7c6-4a89a6fc64e2"},"vehicle_type_id":"4","last_reported":1702062331,"current_range_meters":8000,"station_id":"ce4bhp92rcd13ifvqhag","pricing_plan_id":"free"},{"bike_id":"48e3df08-57dc-434d-a06c-f6f751cd351f","system_id":"levelo_inurba_marseille","lat":43.310785,"lon":5.424305,"is_reserved":false,"is_disabled":false,"rental_uris":{"android":"levelo://app?vid=48e3df08-57dc-434d-a06c-f6f751cd351f","ios":"levelo://app?vid=48e3df08-57dc-434d-a06c-f6f751cd351f"},"vehicle_type_id":"4","last_reported":1702062331,"current_range_meters":23200,"station_id":"ce4bhp92rcd13ifvqhag","pricing_plan_id":"free"},{"bike_id":"dd860398-f66c-4ee2-9bf8-6345305d0079","system_id":"levelo_inurba_marseille","lat":43.34353,"lon":5.40583,"is_reserved":false,"is_disabled":false,"rental_uris":{"android":"levelo://app?vid=dd860398-f66c-4ee2-9bf8-6345305d0079","ios":"levelo://app?vid=dd860398-f66c-4ee2-9bf8-6345305d0079"},"vehicle_type_id":"4","last_reported":1702062331,"current_range_meters":2000,"station_id":"","pricing_plan_id":"free"},{"bike_id":"63133364-316e-458e-b234-bbd4926c63fc","system_id":"levelo_inurba_marseille","lat":43.27583,"lon":5.39474,"is_reserved":false,"is_disabled":false,"rental_uris":{"android":"levelo://app?vid=63133364-316e-458e-b234-bbd4926c63fc","ios":"levelo://app?vid=63133364-316e-458e-b234-bbd4926c63fc"},"vehicle_type_id":"4","last_reported":1702062331,"current_range_meters":11600,"station_id":"","pricing_plan_id":"free"},{"bike_id":"4f9e48a0-eacd-4e63-bd3c-330b19e5c041","system_id":"levelo_inurba_marseille","lat":43.295511,"lon":5.422926,"is_reserved":false,"is_disabled":false,"rental_uris":{"android":"levelo://app?vid=4f9e48a0-eacd-4e63-bd3c-330b19e5c041","ios":"levelo://app?vid=4f9e48a0-eacd-4e63-bd3c-330b19e5c041"},"vehicle_type_id":"4","last_reported":1702062331,"current_range_meters":8800,"station_id":"ce4bhph2rcd13ifvqhdg","pricing_plan_id":"free"},{"bike_id":"5ed4ca3b-e38e-4196-acea-f278768787eb","system_id":"levelo_inurba_marseille","lat":43.295511,"lon":5.422926,"is_reserved":false,"is_disabled":false,"rental_uris":{"android":"levelo://app?vid=5ed4ca3b-e38e-4196-acea-f278768787eb","ios":"levelo://app?vid=5ed4ca3b-e38e-4196-acea-f278768787eb"},"vehicle_type_id":"4","last_reported":1702062331,"current_range_meters":7200,"station_id":"ce4bhph2rcd13ifvqhdg","pricing_plan_id":"free"},{"bike_id":"b0ace1ee-48c1-47ff-b8ca-0f59683651a4","system_id":"levelo_inurba_marseille","lat":43.295523,"lon":5.422926,"is_reserved":false,"is_disabled":false,"rental_uris":{"android":"levelo://app?vid=b0ace1ee-48c1-47ff-b8ca-0f59683651a4","ios":"levelo://app?vid=b0ace1ee-48c1-47ff-b8ca-0f59683651a4"},"vehicle_type_id":"4","last_reported":1702062331,"current_range_meters":28000,"station_id":"ce4bhph2rcd13ifvqhdg","pricing_plan_id":"free"},{"bike_id":"aed20910-2f26-49bf-9766-c6bdcb7981dd","system_id":"levelo_inurba_marseille","lat":43.295511,"lon":5.422926,"is_reserved":false,"is_disabled":false,"rental_uris":{"android":"levelo://app?vid=aed20910-2f26-49bf-9766-c6bdcb7981dd","ios":"levelo://app?vid=aed20910-2f26-49bf-9766-c6bdcb7981dd"},"vehicle_type_id":"4","last_reported":1702062331,"current_range_meters":3600,"station_id":"ce4bhph2rcd13ifvqhdg","pricing_plan_id":"free"},{"bike_id":"3c34ace0-a167-431d-ac31-db6cfbba04a9","system_id":"levelo_inurba_marseille","lat":43.272116,"lon":5.391747,"is_reserved":false,"is_disabled":false,"rental_uris":{"android":"levelo://app?vid=3c34ace0-a167-431d-ac31-db6cfbba04a9","ios":"levelo://app?vid=3c34ace0-a167-431d-ac31-db6cfbba04a9"},"vehicle_type_id":"4","last_reported":1702062331,"current_range_meters":18800,"station_id":"ce4bhhp2rcd13ifvqfm0","pricing_plan_id":"free"},{"bike_id":"8f021145-48f8-459b-aef0-f8921e18b0a0","system_id":"levelo_inurba_marseille","lat":43.27214,"lon":5.3925,"is_reserved":false,"is_disabled":false,"rental_uris":{"android":"levelo://app?vid=8f021145-48f8-459b-aef0-f8921e18b0a0","ios":"levelo://app?vid=8f021145-48f8-459b-aef0-f8921e18b0a0"},"vehicle_type_id":"4","last_reported":1702062331,"current_range_meters":4400,"station_id":"","pricing_plan_id":"free"},{"bike_id":"d69b3421-d7df-4a4c-8735-bfc4694286bb","system_id":"levelo_inurba_marseille","lat":43.278128,"lon":5.407195,"is_reserved":false,"is_disabled":false,"rental_uris":{"android":"levelo://app?vid=d69b3421-d7df-4a4c-8735-bfc4694286bb","ios":"levelo://app?vid=d69b3421-d7df-4a4c-8735-bfc4694286bb"},"vehicle_type_id":"4","last_reported":1702062331,"current_range_meters":24400,"station_id":"ce4bhnh2rcd13ifvqgtg","pricing_plan_id":"free"},{"bike_id":"c103b478-e4fe-4671-a366-d10af3e865c2","system_id":"levelo_inurba_marseille","lat":43.279465,"lon":5.410561,"is_reserved":false,"is_disabled":false,"rental_uris":{"android":"levelo://app?vid=c103b478-e4fe-4671-a366-d10af3e865c2","ios":"levelo://app?vid=c103b478-e4fe-4671-a366-d10af3e865c2"},"vehicle_type_id":"4","last_reported":1702062331,"current_range_meters":1200,"station_id":"ce4bhnp2rcd13ifvqh0g","pricing_plan_id":"free"},{"bike_id":"5934d825-14b1-42a1-9779-33d238710290","system_id":"levelo_inurba_marseille","lat":43.26681,"lon":5.382694,"is_reserved":false,"is_disabled":false,"rental_uris":{"android":"levelo://app?vid=5934d825-14b1-42a1-9779-33d238710290","ios":"levelo://app?vid=5934d825-14b1-42a1-9779-33d238710290"},"vehicle_type_id":"4","last_reported":1702062331,"current_range_meters":3600,"station_id":"ce4bhg92rcd13ifvqf90","pricing_plan_id":"free"},{"bike_id":"12001040-7707-4d86-9b54-664e00437e73","system_id":"levelo_inurba_marseille","lat":43.279881,"lon":5.416579,"is_reserved":false,"is_disabled":false,"rental_uris":{"android":"levelo://app?vid=12001040-7707-4d86-9b54-664e00437e73","ios":"levelo://app?vid=12001040-7707-4d86-9b54-664e00437e73"},"vehicle_type_id":"4","last_reported":1702062331,"current_range_meters":6000,"station_id":"ce4bho12rcd13ifvqh1g","pricing_plan_id":"free"},{"bike_id":"139d5a25-9461-4d96-8287-d16974f10fd8","system_id":"levelo_inurba_marseille","lat":43.27985,"lon":5.41659,"is_reserved":false,"is_disabled":false,"rental_uris":{"android":"levelo://app?vid=139d5a25-9461-4d96-8287-d16974f10fd8","ios":"levelo://app?vid=139d5a25-9461-4d96-8287-d16974f10fd8"},"vehicle_type_id":"4","last_reported":1702062331,"current_range_meters":6000,"station_id":"ce4bho12rcd13ifvqh1g","pricing_plan_id":"free"},{"bike_id":"c093cb8e-b269-4722-98ba-8b40c84479b4","system_id":"levelo_inurba_marseille","lat":43.267966,"lon":5.393976,"is_reserved":false,"is_disabled":false,"rental_uris":{"android":"levelo://app?vid=c093cb8e-b269-4722-98ba-8b40c84479b4","ios":"levelo://app?vid=c093cb8e-b269-4722-98ba-8b40c84479b4"},"vehicle_type_id":"4","last_reported":1702062331,"current_range_meters":13200,"station_id":"ce4bhh12rcd13ifvqfg0","pricing_plan_id":"free"},{"bike_id":"57f667b8-3870-4664-a2c0-e1e7a4b409ed","system_id":"levelo_inurba_marseille","lat":43.26941,"lon":5.4025,"is_reserved":false,"is_disabled":false,"rental_uris":{"android":"levelo://app?vid=57f667b8-3870-4664-a2c0-e1e7a4b409ed","ios":"levelo://app?vid=57f667b8-3870-4664-a2c0-e1e7a4b409ed"},"vehicle_type_id":"4","last_reported":1702062331,"current_range_meters":29600,"station_id":"cjm6bp8fraef2m0cb0m0","pricing_plan_id":"free"},{"bike_id":"10bd98e0-d0a2-4a25-a407-cc97034aa68c","system_id":"levelo_inurba_marseille","lat":43.3171,"lon":5.43701,"is_reserved":false,"is_disabled":false,"rental_uris":{"android":"levelo://app?vid=10bd98e0-d0a2-4a25-a407-cc97034aa68c","ios":"levelo://app?vid=10bd98e0-d0a2-4a25-a407-cc97034aa68c"},"vehicle_type_id":"4","last_reported":1702062331,"current_range_meters":12800,"station_id":"ce4bhp92rcd13ifvqhcg","pricing_plan_id":"free"},{"bike_id":"f540ad6b-67db-486c-afdd-adb8d74f86ba","system_id":"levelo_inurba_marseille","lat":43.317104,"lon":5.436818,"is_reserved":false,"is_disabled":false,"rental_uris":{"android":"levelo://app?vid=f540ad6b-67db-486c-afdd-adb8d74f86ba","ios":"levelo://app?vid=f540ad6b-67db-486c-afdd-adb8d74f86ba"},"vehicle_type_id":"4","last_reported":1702062331,"current_range_meters":22000,"station_id":"ce4bhp92rcd13ifvqhcg","pricing_plan_id":"free"},{"bike_id":"845e2a9a-ed30-4c21-9d40-21952560eea0","system_id":"levelo_inurba_marseille","lat":43.317104,"lon":5.436818,"is_reserved":false,"is_disabled":false,"rental_uris":{"android":"levelo://app?vid=845e2a9a-ed30-4c21-9d40-21952560eea0","ios":"levelo://app?vid=845e2a9a-ed30-4c21-9d40-21952560eea0"},"vehicle_type_id":"4","last_reported":1702062331,"current_range_meters":22800,"station_id":"ce4bhp92rcd13ifvqhcg","pricing_plan_id":"free"},{"bike_id":"26a316ce-cbd3-4799-8b70-99bfb6f0c11e","system_id":"levelo_inurba_marseille","lat":43.317104,"lon":5.436818,"is_reserved":false,"is_disabled":false,"rental_uris":{"android":"levelo://app?vid=26a316ce-cbd3-4799-8b70-99bfb6f0c11e","ios":"levelo://app?vid=26a316ce-cbd3-4799-8b70-99bfb6f0c11e"},"vehicle_type_id":"4","last_reported":1702062331,"current_range_meters":29600,"station_id":"ce4bhp92rcd13ifvqhcg","pricing_plan_id":"free"},{"bike_id":"b55f1520-7d10-4662-a0d1-297eaf087bd5","system_id":"levelo_inurba_marseille","lat":43.26202,"lon":5.379299,"is_reserved":false,"is_disabled":false,"rental_uris":{"android":"levelo://app?vid=b55f1520-7d10-4662-a0d1-297eaf087bd5","ios":"levelo://app?vid=b55f1520-7d10-4662-a0d1-297eaf087bd5"},"vehicle_type_id":"4","last_reported":1702062331,"current_range_meters":30800,"station_id":"ce4bhjp2rcd13ifvqg90","pricing_plan_id":"free"},{"bike_id":"2c28e409-64d2-48bf-b235-80e7348c2064","system_id":"levelo_inurba_marseille","lat":43.271368,"lon":5.40928,"is_reserved":false,"is_disabled":false,"rental_uris":{"android":"levelo://app?vid=2c28e409-64d2-48bf-b235-80e7348c2064","ios":"levelo://app?vid=2c28e409-64d2-48bf-b235-80e7348c2064"},"vehicle_type_id":"4","last_reported":1702062331,"current_range_meters":16400,"station_id":"ce4bhl12rcd13ifvqgf0","pricing_plan_id":"free"},{"bike_id":"c7243c68-1ec1-41a1-b9f1-d075e1e538d2","system_id":"levelo_inurba_marseille","lat":43.267959,"lon":5.402685,"is_reserved":false,"is_disabled":false,"rental_uris":{"android":"levelo://app?vid=c7243c68-1ec1-41a1-b9f1-d075e1e538d2","ios":"levelo://app?vid=c7243c68-1ec1-41a1-b9f1-d075e1e538d2"},"vehicle_type_id":"4","last_reported":1702062331,"current_range_meters":21600,"station_id":"ce501612rcd8frsf0b60","pricing_plan_id":"free"},{"bike_id":"5215ad78-0811-4492-88ee-04afc35bf3a5","system_id":"levelo_inurba_marseille","lat":43.298768,"lon":5.43643,"is_reserved":false,"is_disabled":false,"rental_uris":{"android":"levelo://app?vid=5215ad78-0811-4492-88ee-04afc35bf3a5","ios":"levelo://app?vid=5215ad78-0811-4492-88ee-04afc35bf3a5"},"vehicle_type_id":"4","last_reported":1702062331,"current_range_meters":31200,"station_id":"ce4bhpp2rcd13ifvqhfg","pricing_plan_id":"free"},{"bike_id":"4f68f183-a711-4386-a731-e8ea8e2f115e","system_id":"levelo_inurba_marseille","lat":43.298768,"lon":5.43643,"is_reserved":false,"is_disabled":false,"rental_uris":{"android":"levelo://app?vid=4f68f183-a711-4386-a731-e8ea8e2f115e","ios":"levelo://app?vid=4f68f183-a711-4386-a731-e8ea8e2f115e"},"vehicle_type_id":"4","last_reported":1702062331,"current_range_meters":26000,"station_id":"ce4bhpp2rcd13ifvqhfg","pricing_plan_id":"free"},{"bike_id":"ca4db8a8-5b98-4b78-bc3d-514f38028a3d","system_id":"levelo_inurba_marseille","lat":43.298768,"lon":5.43643,"is_reserved":false,"is_disabled":false,"rental_uris":{"android":"levelo://app?vid=ca4db8a8-5b98-4b78-bc3d-514f38028a3d","ios":"levelo://app?vid=ca4db8a8-5b98-4b78-bc3d-514f38028a3d"},"vehicle_type_id":"4","last_reported":1702062331,"current_range_meters":31200,"station_id":"ce4bhpp2rcd13ifvqhfg","pricing_plan_id":"free"},{"bike_id":"83e2018e-7127-4415-8bbf-2e347a9c6750","system_id":"levelo_inurba_marseille","lat":43.298927,"lon":5.436631,"is_reserved":false,"is_disabled":false,"rental_uris":{"android":"levelo://app?vid=83e2018e-7127-4415-8bbf-2e347a9c6750","ios":"levelo://app?vid=83e2018e-7127-4415-8bbf-2e347a9c6750"},"vehicle_type_id":"4","last_reported":1702062331,"current_range_meters":2400,"station_id":"ce4bhpp2rcd13ifvqhfg","pricing_plan_id":"free"},{"bike_id":"6b17b896-99f2-456b-929e-df3811eeb274","system_id":"levelo_inurba_marseille","lat":43.298768,"lon":5.43643,"is_reserved":false,"is_disabled":false,"rental_uris":{"android":"levelo://app?vid=6b17b896-99f2-456b-929e-df3811eeb274","ios":"levelo://app?vid=6b17b896-99f2-456b-929e-df3811eeb274"},"vehicle_type_id":"4","last_reported":1702062331,"current_range_meters":28400,"station_id":"ce4bhpp2rcd13ifvqhfg","pricing_plan_id":"free"},{"bike_id":"fefd6292-44ce-4157-bbe2-869eef8e483b","system_id":"levelo_inurba_marseille","lat":43.298768,"lon":5.43643,"is_reserved":false,"is_disabled":false,"rental_uris":{"android":"levelo://app?vid=fefd6292-44ce-4157-bbe2-869eef8e483b","ios":"levelo://app?vid=fefd6292-44ce-4157-bbe2-869eef8e483b"},"vehicle_type_id":"4","last_reported":1702062331,"current_range_meters":26400,"station_id":"ce4bhpp2rcd13ifvqhfg","pricing_plan_id":"free"},{"bike_id":"c226204f-0f4e-4955-b3e1-64dc0be8bfe8","system_id":"levelo_inurba_marseille","lat":43.281548,"lon":5.42643,"is_reserved":false,"is_disabled":false,"rental_uris":{"android":"levelo://app?vid=c226204f-0f4e-4955-b3e1-64dc0be8bfe8","ios":"levelo://app?vid=c226204f-0f4e-4955-b3e1-64dc0be8bfe8"},"vehicle_type_id":"4","last_reported":1702062331,"current_range_meters":26400,"station_id":"ce4bhnh2rcd13ifvqgug","pricing_plan_id":"free"},{"bike_id":"f56607a5-8c0d-4214-a86e-b954d1fd309d","system_id":"levelo_inurba_marseille","lat":43.28151,"lon":5.42638,"is_reserved":false,"is_disabled":false,"rental_uris":{"android":"levelo://app?vid=f56607a5-8c0d-4214-a86e-b954d1fd309d","ios":"levelo://app?vid=f56607a5-8c0d-4214-a86e-b954d1fd309d"},"vehicle_type_id":"4","last_reported":1702062331,"current_range_meters":3200,"station_id":"ce4bhnh2rcd13ifvqgug","pricing_plan_id":"free"},{"bike_id":"86bc8df8-5e9a-4a89-b89e-a3cbca0f6c7b","system_id":"levelo_inurba_marseille","lat":43.281548,"lon":5.42643,"is_reserved":false,"is_disabled":false,"rental_uris":{"android":"levelo://app?vid=86bc8df8-5e9a-4a89-b89e-a3cbca0f6c7b","ios":"levelo://app?vid=86bc8df8-5e9a-4a89-b89e-a3cbca0f6c7b"},"vehicle_type_id":"4","last_reported":1702062331,"current_range_meters":7200,"station_id":"ce4bhnh2rcd13ifvqgug","pricing_plan_id":"free"},{"bike_id":"668edf61-6960-468f-942e-6a5cc5a21a93","system_id":"levelo_inurba_marseille","lat":43.271388,"lon":5.409269,"is_reserved":false,"is_disabled":false,"rental_uris":{"android":"levelo://app?vid=668edf61-6960-468f-942e-6a5cc5a21a93","ios":"levelo://app?vid=668edf61-6960-468f-942e-6a5cc5a21a93"},"vehicle_type_id":"4","last_reported":1702062331,"current_range_meters":17600,"station_id":"ce4bhl12rcd13ifvqgf0","pricing_plan_id":"free"},{"bike_id":"000acef0-d2f9-45d3-985c-f854071a0283","system_id":"levelo_inurba_marseille","lat":43.275028,"lon":5.424534,"is_reserved":false,"is_disabled":false,"rental_uris":{"android":"levelo://app?vid=000acef0-d2f9-45d3-985c-f854071a0283","ios":"levelo://app?vid=000acef0-d2f9-45d3-985c-f854071a0283"},"vehicle_type_id":"4","last_reported":1702062331,"current_range_meters":27200,"station_id":"ce4bhn92rcd13ifvqgrg","pricing_plan_id":"free"},{"bike_id":"da69c03d-8b1e-42a8-b760-dd4ff8060f1e","system_id":"levelo_inurba_marseille","lat":43.254947,"lon":5.376454,"is_reserved":false,"is_disabled":false,"rental_uris":{"android":"levelo://app?vid=da69c03d-8b1e-42a8-b760-dd4ff8060f1e","ios":"levelo://app?vid=da69c03d-8b1e-42a8-b760-dd4ff8060f1e"},"vehicle_type_id":"4","last_reported":1702062331,"current_range_meters":20800,"station_id":"ce4bhh12rcd13ifvqff0","pricing_plan_id":"free"},{"bike_id":"79d72040-463c-43ff-88c0-21796986e83d","system_id":"levelo_inurba_marseille","lat":43.25488,"lon":5.37645,"is_reserved":false,"is_disabled":false,"rental_uris":{"android":"levelo://app?vid=79d72040-463c-43ff-88c0-21796986e83d","ios":"levelo://app?vid=79d72040-463c-43ff-88c0-21796986e83d"},"vehicle_type_id":"4","last_reported":1702062331,"current_range_meters":10000,"station_id":"ce4bhh12rcd13ifvqff0","pricing_plan_id":"free"},{"bike_id":"4bea3748-70d0-4f45-9e78-0d35b55884f7","system_id":"levelo_inurba_marseille","lat":43.250009,"lon":5.389195,"is_reserved":false,"is_disabled":false,"rental_uris":{"android":"levelo://app?vid=4bea3748-70d0-4f45-9e78-0d35b55884f7","ios":"levelo://app?vid=4bea3748-70d0-4f45-9e78-0d35b55884f7"},"vehicle_type_id":"4","last_reported":1702062331,"current_range_meters":2800,"station_id":"ce4bhgp2rcd13ifvqfd0","pricing_plan_id":"free"},{"bike_id":"f8a7bf31-9d1a-49f5-bce1-a960e3b93f47","system_id":"levelo_inurba_marseille","lat":43.250009,"lon":5.389195,"is_reserved":false,"is_disabled":false,"rental_uris":{"android":"levelo://app?vid=f8a7bf31-9d1a-49f5-bce1-a960e3b93f47","ios":"levelo://app?vid=f8a7bf31-9d1a-49f5-bce1-a960e3b93f47"},"vehicle_type_id":"4","last_reported":1702062331,"current_range_meters":22400,"station_id":"ce4bhgp2rcd13ifvqfd0","pricing_plan_id":"free"},{"bike_id":"b539aa01-f84d-40b7-8dcf-725be71dd7fe","system_id":"levelo_inurba_marseille","lat":43.250009,"lon":5.389195,"is_reserved":false,"is_disabled":false,"rental_uris":{"android":"levelo://app?vid=b539aa01-f84d-40b7-8dcf-725be71dd7fe","ios":"levelo://app?vid=b539aa01-f84d-40b7-8dcf-725be71dd7fe"},"vehicle_type_id":"4","last_reported":1702062331,"current_range_meters":20400,"station_id":"ce4bhgp2rcd13ifvqfd0","pricing_plan_id":"free"},{"bike_id":"63afb3f1-bdd3-406a-87f7-77dbf418796d","system_id":"levelo_inurba_marseille","lat":43.250023,"lon":5.38919,"is_reserved":false,"is_disabled":false,"rental_uris":{"android":"levelo://app?vid=63afb3f1-bdd3-406a-87f7-77dbf418796d","ios":"levelo://app?vid=63afb3f1-bdd3-406a-87f7-77dbf418796d"},"vehicle_type_id":"4","last_reported":1702062331,"current_range_meters":25600,"station_id":"ce4bhgp2rcd13ifvqfd0","pricing_plan_id":"free"},{"bike_id":"a2f80c33-8abb-4083-aab3-c8e9b44781d1","system_id":"levelo_inurba_marseille","lat":43.2479,"lon":5.374457,"is_reserved":false,"is_disabled":false,"rental_uris":{"android":"levelo://app?vid=a2f80c33-8abb-4083-aab3-c8e9b44781d1","ios":"levelo://app?vid=a2f80c33-8abb-4083-aab3-c8e9b44781d1"},"vehicle_type_id":"4","last_reported":1702062331,"current_range_meters":21200,"station_id":"ce4bhgh2rcd13ifvqfb0","pricing_plan_id":"free"},{"bike_id":"7d1ab110-4282-4e4e-89fe-f12a65b8b76b","system_id":"levelo_inurba_marseille","lat":43.25089,"lon":5.3951,"is_reserved":false,"is_disabled":false,"rental_uris":{"android":"levelo://app?vid=7d1ab110-4282-4e4e-89fe-f12a65b8b76b","ios":"levelo://app?vid=7d1ab110-4282-4e4e-89fe-f12a65b8b76b"},"vehicle_type_id":"4","last_reported":1702062331,"current_range_meters":20400,"station_id":"ce4bhm12rcd13ifvqgkg","pricing_plan_id":"free"},{"bike_id":"0bd03824-9245-4880-842a-a0ef87e69368","system_id":"levelo_inurba_marseille","lat":43.250966,"lon":5.395186,"is_reserved":false,"is_disabled":false,"rental_uris":{"android":"levelo://app?vid=0bd03824-9245-4880-842a-a0ef87e69368","ios":"levelo://app?vid=0bd03824-9245-4880-842a-a0ef87e69368"},"vehicle_type_id":"4","last_reported":1702062331,"current_range_meters":19200,"station_id":"ce4bhm12rcd13ifvqgkg","pricing_plan_id":"free"},{"bike_id":"9c0e9007-0f6c-4f8b-adbb-953844c9fbac","system_id":"levelo_inurba_marseille","lat":43.24665,"lon":5.38169,"is_reserved":false,"is_disabled":false,"rental_uris":{"android":"levelo://app?vid=9c0e9007-0f6c-4f8b-adbb-953844c9fbac","ios":"levelo://app?vid=9c0e9007-0f6c-4f8b-adbb-953844c9fbac"},"vehicle_type_id":"4","last_reported":1702062331,"current_range_meters":20400,"station_id":"ce4bhih2rcd13ifvqfr0","pricing_plan_id":"free"},{"bike_id":"1374c76f-d6a2-4c6e-bccb-718d428b20a1","system_id":"levelo_inurba_marseille","lat":43.246461,"lon":5.389014,"is_reserved":false,"is_disabled":false,"rental_uris":{"android":"levelo://app?vid=1374c76f-d6a2-4c6e-bccb-718d428b20a1","ios":"levelo://app?vid=1374c76f-d6a2-4c6e-bccb-718d428b20a1"},"vehicle_type_id":"4","last_reported":1702062331,"current_range_meters":12800,"station_id":"ce4bhg12rcd13ifvqf60","pricing_plan_id":"free"},{"bike_id":"6e3051cd-c13d-4c4b-87d7-89c9242161fe","system_id":"levelo_inurba_marseille","lat":43.243884,"lon":5.370737,"is_reserved":false,"is_disabled":false,"rental_uris":{"android":"levelo://app?vid=6e3051cd-c13d-4c4b-87d7-89c9242161fe","ios":"levelo://app?vid=6e3051cd-c13d-4c4b-87d7-89c9242161fe"},"vehicle_type_id":"4","last_reported":1702062331,"current_range_meters":25200,"station_id":"ce4bhhh2rcd13ifvqfk0","pricing_plan_id":"free"},{"bike_id":"f08d953e-8a8c-4fcd-b768-411a2f96e9cb","system_id":"levelo_inurba_marseille","lat":43.243884,"lon":5.370737,"is_reserved":false,"is_disabled":false,"rental_uris":{"android":"levelo://app?vid=f08d953e-8a8c-4fcd-b768-411a2f96e9cb","ios":"levelo://app?vid=f08d953e-8a8c-4fcd-b768-411a2f96e9cb"},"vehicle_type_id":"4","last_reported":1702062331,"current_range_meters":8800,"station_id":"ce4bhhh2rcd13ifvqfk0","pricing_plan_id":"free"},{"bike_id":"1f7f2605-d14b-4381-8f1a-f2f1d368b836","system_id":"levelo_inurba_marseille","lat":43.245581,"lon":5.395069,"is_reserved":false,"is_disabled":false,"rental_uris":{"android":"levelo://app?vid=1f7f2605-d14b-4381-8f1a-f2f1d368b836","ios":"levelo://app?vid=1f7f2605-d14b-4381-8f1a-f2f1d368b836"},"vehicle_type_id":"4","last_reported":1702062331,"current_range_meters":11600,"station_id":"ce4bhlp2rcd13ifvqgjg","pricing_plan_id":"free"},{"bike_id":"509f30c2-caad-4dd0-997d-5a6b34523b31","system_id":"levelo_inurba_marseille","lat":43.245581,"lon":5.395069,"is_reserved":false,"is_disabled":false,"rental_uris":{"android":"levelo://app?vid=509f30c2-caad-4dd0-997d-5a6b34523b31","ios":"levelo://app?vid=509f30c2-caad-4dd0-997d-5a6b34523b31"},"vehicle_type_id":"4","last_reported":1702062331,"current_range_meters":26000,"station_id":"ce4bhlp2rcd13ifvqgjg","pricing_plan_id":"free"},{"bike_id":"b3705516-da65-4902-b345-4cc53e261fdf","system_id":"levelo_inurba_marseille","lat":43.2408,"lon":5.37759,"is_reserved":false,"is_disabled":false,"rental_uris":{"android":"levelo://app?vid=b3705516-da65-4902-b345-4cc53e261fdf","ios":"levelo://app?vid=b3705516-da65-4902-b345-4cc53e261fdf"},"vehicle_type_id":"4","last_reported":1702062331,"current_range_meters":21200,"station_id":"","pricing_plan_id":"free"},{"bike_id":"07f04f98-06c9-4309-b3fe-4415621f48f3","system_id":"levelo_inurba_marseille","lat":43.239588,"lon":5.366238,"is_reserved":false,"is_disabled":false,"rental_uris":{"android":"levelo://app?vid=07f04f98-06c9-4309-b3fe-4415621f48f3","ios":"levelo://app?vid=07f04f98-06c9-4309-b3fe-4415621f48f3"},"vehicle_type_id":"4","last_reported":1702062331,"current_range_meters":6000,"station_id":"ce4bhi12rcd13ifvqfp0","pricing_plan_id":"free"},{"bike_id":"93954539-37ab-42cb-8148-c6cd6174d0ce","system_id":"levelo_inurba_marseille","lat":43.239588,"lon":5.366238,"is_reserved":false,"is_disabled":false,"rental_uris":{"android":"levelo://app?vid=93954539-37ab-42cb-8148-c6cd6174d0ce","ios":"levelo://app?vid=93954539-37ab-42cb-8148-c6cd6174d0ce"},"vehicle_type_id":"4","last_reported":1702062331,"current_range_meters":31200,"station_id":"ce4bhi12rcd13ifvqfp0","pricing_plan_id":"free"},{"bike_id":"f5f49356-7f62-4498-b336-3fe2625cb31e","system_id":"levelo_inurba_marseille","lat":43.239588,"lon":5.366238,"is_reserved":false,"is_disabled":false,"rental_uris":{"android":"levelo://app?vid=f5f49356-7f62-4498-b336-3fe2625cb31e","ios":"levelo://app?vid=f5f49356-7f62-4498-b336-3fe2625cb31e"},"vehicle_type_id":"4","last_reported":1702062331,"current_range_meters":400,"station_id":"ce4bhi12rcd13ifvqfp0","pricing_plan_id":"free"},{"bike_id":"19de1d90-0ef7-4697-bd3a-3e98bd2bf2e7","system_id":"levelo_inurba_marseille","lat":43.239588,"lon":5.366238,"is_reserved":false,"is_disabled":false,"rental_uris":{"android":"levelo://app?vid=19de1d90-0ef7-4697-bd3a-3e98bd2bf2e7","ios":"levelo://app?vid=19de1d90-0ef7-4697-bd3a-3e98bd2bf2e7"},"vehicle_type_id":"4","last_reported":1702062331,"current_range_meters":31200,"station_id":"ce4bhi12rcd13ifvqfp0","pricing_plan_id":"free"},{"bike_id":"5c4c14b0-15b0-4600-8dc6-cdbde00bef8b","system_id":"levelo_inurba_marseille","lat":43.231794,"lon":5.400052,"is_reserved":false,"is_disabled":false,"rental_uris":{"android":"levelo://app?vid=5c4c14b0-15b0-4600-8dc6-cdbde00bef8b","ios":"levelo://app?vid=5c4c14b0-15b0-4600-8dc6-cdbde00bef8b"},"vehicle_type_id":"4","last_reported":1702062331,"current_range_meters":6000,"station_id":"ce4bhn12rcd13ifvqgqg","pricing_plan_id":"free"},{"bike_id":"97560a92-af21-4d84-af2f-9a915168f03f","system_id":"levelo_inurba_marseille","lat":43.24181,"lon":5.39724,"is_reserved":false,"is_disabled":false,"rental_uris":{"android":"levelo://app?vid=97560a92-af21-4d84-af2f-9a915168f03f","ios":"levelo://app?vid=97560a92-af21-4d84-af2f-9a915168f03f"},"vehicle_type_id":"4","last_reported":1702062331,"current_range_meters":18800,"station_id":"ce4bhn12rcd13ifvqgpg","pricing_plan_id":"free"},{"bike_id":"1bf4b846-9312-4a75-8ae5-b2e3b3c8260b","system_id":"levelo_inurba_marseille","lat":43.241782,"lon":5.397261,"is_reserved":false,"is_disabled":false,"rental_uris":{"android":"levelo://app?vid=1bf4b846-9312-4a75-8ae5-b2e3b3c8260b","ios":"levelo://app?vid=1bf4b846-9312-4a75-8ae5-b2e3b3c8260b"},"vehicle_type_id":"4","last_reported":1702062331,"current_range_meters":16400,"station_id":"ce4bhn12rcd13ifvqgpg","pricing_plan_id":"free"},{"bike_id":"c6004eb4-873a-4661-a0e7-ea9140f6bd61","system_id":"levelo_inurba_marseille","lat":43.231919,"lon":5.355532,"is_reserved":false,"is_disabled":false,"rental_uris":{"android":"levelo://app?vid=c6004eb4-873a-4661-a0e7-ea9140f6bd61","ios":"levelo://app?vid=c6004eb4-873a-4661-a0e7-ea9140f6bd61"},"vehicle_type_id":"4","last_reported":1702062331,"current_range_meters":27600,"station_id":"ce4bhu92rcd13ifvqi70","pricing_plan_id":"free"},{"bike_id":"be845917-f52e-4a9f-83ff-909546a09332","system_id":"levelo_inurba_marseille","lat":43.231794,"lon":5.400052,"is_reserved":false,"is_disabled":false,"rental_uris":{"android":"levelo://app?vid=be845917-f52e-4a9f-83ff-909546a09332","ios":"levelo://app?vid=be845917-f52e-4a9f-83ff-909546a09332"},"vehicle_type_id":"4","last_reported":1702062331,"current_range_meters":31600,"station_id":"ce4bhn12rcd13ifvqgqg","pricing_plan_id":"free"},{"bike_id":"1c690641-a72b-433d-b1af-d36beaec8f2e","system_id":"levelo_inurba_marseille","lat":43.23187,"lon":5.39988,"is_reserved":false,"is_disabled":false,"rental_uris":{"android":"levelo://app?vid=1c690641-a72b-433d-b1af-d36beaec8f2e","ios":"levelo://app?vid=1c690641-a72b-433d-b1af-d36beaec8f2e"},"vehicle_type_id":"4","last_reported":1702062331,"current_range_meters":30400,"station_id":"ce4bhn12rcd13ifvqgqg","pricing_plan_id":"free"},{"bike_id":"6c4620c0-0d4d-493f-9950-4fd3c4457696","system_id":"levelo_inurba_marseille","lat":43.231794,"lon":5.400052,"is_reserved":false,"is_disabled":false,"rental_uris":{"android":"levelo://app?vid=6c4620c0-0d4d-493f-9950-4fd3c4457696","ios":"levelo://app?vid=6c4620c0-0d4d-493f-9950-4fd3c4457696"},"vehicle_type_id":"4","last_reported":1702062331,"current_range_meters":31600,"station_id":"ce4bhn12rcd13ifvqgqg","pricing_plan_id":"free"},{"bike_id":"1364bb53-1feb-4c66-bc1b-fe1d777b1c2f","system_id":"levelo_inurba_marseille","lat":43.23181,"lon":5.39992,"is_reserved":false,"is_disabled":false,"rental_uris":{"android":"levelo://app?vid=1364bb53-1feb-4c66-bc1b-fe1d777b1c2f","ios":"levelo://app?vid=1364bb53-1feb-4c66-bc1b-fe1d777b1c2f"},"vehicle_type_id":"4","last_reported":1702062331,"current_range_meters":5600,"station_id":"ce4bhn12rcd13ifvqgqg","pricing_plan_id":"free"},{"bike_id":"d7354235-71f2-4aeb-aa26-9572f0d131ef","system_id":"levelo_inurba_marseille","lat":43.231794,"lon":5.400052,"is_reserved":false,"is_disabled":false,"rental_uris":{"android":"levelo://app?vid=d7354235-71f2-4aeb-aa26-9572f0d131ef","ios":"levelo://app?vid=d7354235-71f2-4aeb-aa26-9572f0d131ef"},"vehicle_type_id":"4","last_reported":1702062331,"current_range_meters":6800,"station_id":"ce4bhn12rcd13ifvqgqg","pricing_plan_id":"free"},{"bike_id":"6d43085e-34e4-49e6-b24c-3b9997422e74","system_id":"levelo_inurba_marseille","lat":43.231562,"lon":5.436933,"is_reserved":false,"is_disabled":false,"rental_uris":{"android":"levelo://app?vid=6d43085e-34e4-49e6-b24c-3b9997422e74","ios":"levelo://app?vid=6d43085e-34e4-49e6-b24c-3b9997422e74"},"vehicle_type_id":"4","last_reported":1702062331,"current_range_meters":15200,"station_id":"ce4bhmp2rcd13ifvqgog","pricing_plan_id":"free"},{"bike_id":"dd3a6846-e009-4a2b-9715-3e42670dbb1b","system_id":"levelo_inurba_marseille","lat":43.231562,"lon":5.436933,"is_reserved":false,"is_disabled":false,"rental_uris":{"android":"levelo://app?vid=dd3a6846-e009-4a2b-9715-3e42670dbb1b","ios":"levelo://app?vid=dd3a6846-e009-4a2b-9715-3e42670dbb1b"},"vehicle_type_id":"4","last_reported":1702062331,"current_range_meters":14000,"station_id":"ce4bhmp2rcd13ifvqgog","pricing_plan_id":"free"}]}}