{"last_updated":1687381608,"ttl":30,"version":"2.2","data":{"bikes":[{"bike_id":"d5e4659d-a77e-43fd-a86e-38f924df40d0","system_id":"levelo_inurba_marseille","lat":43.313391,"lon":5.36706,"is_reserved":false,"is_disabled":false,"rental_uris":{"android":"levelo://app?vid=d5e4659d-a77e-43fd-a86e-38f924df40d0","ios":"levelo://app?vid=d5e4659d-a77e-43fd-a86e-38f924df40d0"},"vehicle_type_id":"4","last_reported":1687381609,"current_range_meters":13600,"station_id":"ce4bgr92rcd13ifvqc6g","pricing_plan_id":"free"},{"bike_id":"6e4fd040-1866-4783-872c-dd21a7ae18af","system_id":"levelo_inurba_marseille","lat":43.31363,"lon":5.37069,"is_reserved":false,"is_disabled":false,"rental_uris":{"android":"levelo://app?vid=6e4fd040-1866-4783-872c-dd21a7ae18af","ios":"levelo://app?vid=6e4fd040-1866-4783-872c-dd21a7ae18af"},"vehicle_type_id":"4","last_reported":1687381609,"current_range_meters":7600,"station_id":"","pricing_plan_id":"free"},{"bike_id":"2cdea5d8-cb7c-46d4-abc5-5e9145ea432a","system_id":"levelo_inurba_marseille","lat":43.314811,"lon":5.373103,"is_reserved":false,"is_disabled":false,"rental_uris":{"android":"levelo://app?vid=2cdea5d8-cb7c-46d4-abc5-5e9145ea432a","ios":"levelo://app?vid=2cdea5d8-cb7c-46d4-abc5-5e9145ea432a"},"vehicle_type_id":"4","last_reported":1687381609,"current_range_meters":0,"station_id":"ce4bgt12rcd13ifvqcd0","pricing_plan_id":"free"},{"bike_id":"2b43fa27-a724-44b1-81c9-df8d97158ccd","system_id":"levelo_inurba_marseille","lat":43.308606,"lon":5.372099,"is_reserved":false,"is_disabled":false,"rental_uris":{"android":"levelo://app?vid=2b43fa27-a724-44b1-81c9-df8d97158ccd","ios":"levelo://app?vid=2b43fa27-a724-44b1-81c9-df8d97158ccd"},"vehicle_type_id":"4","last_reported":1687381609,"current_range_meters":18800,"station_id":"ce4bguh2rcd13ifvqckg","pricing_plan_id":"free"},{"bike_id":"756eeb9a-4a2c-4c8b-b0c3-af157ca5170a","system_id":"levelo_inurba_marseille","lat":43.308606,"lon":5.372099,"is_reserved":false,"is_disabled":false,"rental_uris":{"android":"levelo://app?vid=756eeb9a-4a2c-4c8b-b0c3-af157ca5170a","ios":"levelo://app?vid=756eeb9a-4a2c-4c8b-b0c3-af157ca5170a"},"vehicle_type_id":"4","last_reported":1687381609,"current_range_meters":17200,"station_id":"ce4bguh2rcd13ifvqckg","pricing_plan_id":"free"},{"bike_id":"db86a085-8c89-448a-ab53-4123463a7cdd","system_id":"levelo_inurba_marseille","lat":43.305989,"lon":5.37225,"is_reserved":false,"is_disabled":false,"rental_uris":{"android":"levelo://app?vid=db86a085-8c89-448a-ab53-4123463a7cdd","ios":"levelo://app?vid=db86a085-8c89-448a-ab53-4123463a7cdd"},"vehicle_type_id":"4","last_reported":1687381609,"current_range_meters":25600,"station_id":"ce4bgqh2rcd13ifvqc4g","pricing_plan_id":"free"},{"bike_id":"ad48b884-ac5a-4aa0-9566-fa08deb3ee20","system_id":"levelo_inurba_marseille","lat":43.305989,"lon":5.37225,"is_reserved":false,"is_disabled":false,"rental_uris":{"android":"levelo://app?vid=ad48b884-ac5a-4aa0-9566-fa08deb3ee20","ios":"levelo://app?vid=ad48b884-ac5a-4aa0-9566-fa08deb3ee20"},"vehicle_type_id":"4","last_reported":1687381609,"current_range_meters":18000,"station_id":"ce4bgqh2rcd13ifvqc4g","pricing_plan_id":"free"},{"bike_id":"26e9f0e6-86e0-41f6-bed4-f41bd0fd8cc9","system_id":"levelo_inurba_marseille","lat":43.311131,"lon":5.377651,"is_reserved":false,"is_disabled":false,"rental_uris":{"android":"levelo://app?vid=26e9f0e6-86e0-41f6-bed4-f41bd0fd8cc9","ios":"levelo://app?vid=26e9f0e6-86e0-41f6-bed4-f41bd0fd8cc9"},"vehicle_type_id":"4","last_reported":1687381609,"current_range_meters":0,"station_id":"ce4bgt92rcd13ifvqcg0","pricing_plan_id":"free"},{"bike_id":"f0d77819-72d8-461f-bd9d-aec8d6fe9b93","system_id":"levelo_inurba_marseille","lat":43.311131,"lon":5.377651,"is_reserved":false,"is_disabled":false,"rental_uris":{"android":"levelo://app?vid=f0d77819-72d8-461f-bd9d-aec8d6fe9b93","ios":"levelo://app?vid=f0d77819-72d8-461f-bd9d-aec8d6fe9b93"},"vehicle_type_id":"4","last_reported":1687381609,"current_range_meters":18800,"station_id":"ce4bgt92rcd13ifvqcg0","pricing_plan_id":"free"},{"bike_id":"de8acbc3-a78e-4e10-9372-041763c52aad","system_id":"levelo_inurba_marseille","lat":43.303046,"lon":5.368981,"is_reserved":false,"is_disabled":false,"rental_uris":{"android":"levelo://app?vid=de8acbc3-a78e-4e10-9372-041763c52aad","ios":"levelo://app?vid=de8acbc3-a78e-4e10-9372-041763c52aad"},"vehicle_type_id":"4","last_reported":1687381609,"current_range_meters":18800,"station_id":"ce4bgqh2rcd13ifvqc5g","pricing_plan_id":"free"},{"bike_id":"9401679d-9d64-4719-bf3c-b3071e6afbfe","system_id":"levelo_inurba_marseille","lat":43.315289,"lon":5.380349,"is_reserved":false,"is_disabled":false,"rental_uris":{"android":"levelo://app?vid=9401679d-9d64-4719-bf3c-b3071e6afbfe","ios":"levelo://app?vid=9401679d-9d64-4719-bf3c-b3071e6afbfe"},"vehicle_type_id":"4","last_reported":1687381609,"current_range_meters":0,"station_id":"ce4bhsp2rcd13ifvqi50","pricing_plan_id":"free"},{"bike_id":"ae33307b-fcd5-479b-9ae1-9002ed226c6e","system_id":"levelo_inurba_marseille","lat":43.30798,"lon":5.38155,"is_reserved":false,"is_disabled":false,"rental_uris":{"android":"levelo://app?vid=ae33307b-fcd5-479b-9ae1-9002ed226c6e","ios":"levelo://app?vid=ae33307b-fcd5-479b-9ae1-9002ed226c6e"},"vehicle_type_id":"4","last_reported":1687381609,"current_range_meters":14400,"station_id":"ce4bgt12rcd13ifvqce0","pricing_plan_id":"free"},{"bike_id":"43fc693e-f2a9-4aec-8fd9-d094bb02cb70","system_id":"levelo_inurba_marseille","lat":43.304606,"lon":5.379026,"is_reserved":false,"is_disabled":false,"rental_uris":{"android":"levelo://app?vid=43fc693e-f2a9-4aec-8fd9-d094bb02cb70","ios":"levelo://app?vid=43fc693e-f2a9-4aec-8fd9-d094bb02cb70"},"vehicle_type_id":"4","last_reported":1687381609,"current_range_meters":4800,"station_id":"ce4bgup2rcd13ifvqcn0","pricing_plan_id":"free"},{"bike_id":"3d2fb23b-d7c7-4912-a567-9c086f8e21e8","system_id":"levelo_inurba_marseille","lat":43.319935,"lon":5.381699,"is_reserved":false,"is_disabled":false,"rental_uris":{"android":"levelo://app?vid=3d2fb23b-d7c7-4912-a567-9c086f8e21e8","ios":"levelo://app?vid=3d2fb23b-d7c7-4912-a567-9c086f8e21e8"},"vehicle_type_id":"4","last_reported":1687381609,"current_range_meters":0,"station_id":"ce4bhr12rcd13ifvqhpg","pricing_plan_id":"free"},{"bike_id":"404f5e93-aa2c-4f38-aa4f-41e4cdfcdd2f","system_id":"levelo_inurba_marseille","lat":43.299222,"lon":5.365554,"is_reserved":false,"is_disabled":false,"rental_uris":{"android":"levelo://app?vid=404f5e93-aa2c-4f38-aa4f-41e4cdfcdd2f","ios":"levelo://app?vid=404f5e93-aa2c-4f38-aa4f-41e4cdfcdd2f"},"vehicle_type_id":"4","last_reported":1687381609,"current_range_meters":10000,"station_id":"ce4bgm92rcd13ifvqbr0","pricing_plan_id":"free"},{"bike_id":"e98bd22f-ecdd-4cbe-9b5d-941df18981d5","system_id":"levelo_inurba_marseille","lat":43.299222,"lon":5.365554,"is_reserved":false,"is_disabled":false,"rental_uris":{"android":"levelo://app?vid=e98bd22f-ecdd-4cbe-9b5d-941df18981d5","ios":"levelo://app?vid=e98bd22f-ecdd-4cbe-9b5d-941df18981d5"},"vehicle_type_id":"4","last_reported":1687381609,"current_range_meters":0,"station_id":"ce4bgm92rcd13ifvqbr0","pricing_plan_id":"free"},{"bike_id":"ea372316-1322-4cab-adc8-27d2521d039c","system_id":"levelo_inurba_marseille","lat":43.32755,"lon":5.36709,"is_reserved":false,"is_disabled":false,"rental_uris":{"android":"levelo://app?vid=ea372316-1322-4cab-adc8-27d2521d039c","ios":"levelo://app?vid=ea372316-1322-4cab-adc8-27d2521d039c"},"vehicle_type_id":"4","last_reported":1687381609,"current_range_meters":25200,"station_id":"","pricing_plan_id":"free"},{"bike_id":"e6ea61d5-da20-4ad2-b344-94c2975133fa","system_id":"levelo_inurba_marseille","lat":43.32269,"lon":5.38202,"is_reserved":false,"is_disabled":false,"rental_uris":{"android":"levelo://app?vid=e6ea61d5-da20-4ad2-b344-94c2975133fa","ios":"levelo://app?vid=e6ea61d5-da20-4ad2-b344-94c2975133fa"},"vehicle_type_id":"4","last_reported":1687381609,"current_range_meters":5200,"station_id":"","pricing_plan_id":"free"},{"bike_id":"dcd3c987-6749-42b9-b1b9-4bd428bd8c60","system_id":"levelo_inurba_marseille","lat":43.29785,"lon":5.371,"is_reserved":false,"is_disabled":false,"rental_uris":{"android":"levelo://app?vid=dcd3c987-6749-42b9-b1b9-4bd428bd8c60","ios":"levelo://app?vid=dcd3c987-6749-42b9-b1b9-4bd428bd8c60"},"vehicle_type_id":"4","last_reported":1687381609,"current_range_meters":0,"station_id":"ce4bgop2rcd13ifvqc1g","pricing_plan_id":"free"},{"bike_id":"8897e648-9219-464f-b398-3cb0aec50553","system_id":"levelo_inurba_marseille","lat":43.29779,"lon":5.371,"is_reserved":false,"is_disabled":false,"rental_uris":{"android":"levelo://app?vid=8897e648-9219-464f-b398-3cb0aec50553","ios":"levelo://app?vid=8897e648-9219-464f-b398-3cb0aec50553"},"vehicle_type_id":"4","last_reported":1687381609,"current_range_meters":15600,"station_id":"ce4bgop2rcd13ifvqc1g","pricing_plan_id":"free"},{"bike_id":"c3339efb-c603-45cb-8da9-01d5c529aca8","system_id":"levelo_inurba_marseille","lat":43.32341,"lon":5.38194,"is_reserved":false,"is_disabled":false,"rental_uris":{"android":"levelo://app?vid=c3339efb-c603-45cb-8da9-01d5c529aca8","ios":"levelo://app?vid=c3339efb-c603-45cb-8da9-01d5c529aca8"},"vehicle_type_id":"4","last_reported":1687381609,"current_range_meters":18800,"station_id":"","pricing_plan_id":"free"},{"bike_id":"83c69af1-0d5e-4560-ace0-538d107a2e5f","system_id":"levelo_inurba_marseille","lat":43.328371,"lon":5.366909,"is_reserved":false,"is_disabled":false,"rental_uris":{"android":"levelo://app?vid=83c69af1-0d5e-4560-ace0-538d107a2e5f","ios":"levelo://app?vid=83c69af1-0d5e-4560-ace0-538d107a2e5f"},"vehicle_type_id":"4","last_reported":1687381609,"current_range_meters":19600,"station_id":"ce4bhs92rcd13ifvqi0g","pricing_plan_id":"free"},{"bike_id":"fd53ee84-24b3-4ec6-b22a-b4cac25a1233","system_id":"levelo_inurba_marseille","lat":43.328371,"lon":5.366909,"is_reserved":false,"is_disabled":false,"rental_uris":{"android":"levelo://app?vid=fd53ee84-24b3-4ec6-b22a-b4cac25a1233","ios":"levelo://app?vid=fd53ee84-24b3-4ec6-b22a-b4cac25a1233"},"vehicle_type_id":"4","last_reported":1687381609,"current_range_meters":400,"station_id":"ce4bhs92rcd13ifvqi0g","pricing_plan_id":"free"},{"bike_id":"4c7e5c93-2a48-4a72-a6cf-97c503c7a2fa","system_id":"levelo_inurba_marseille","lat":43.328371,"lon":5.366909,"is_reserved":false,"is_disabled":false,"rental_uris":{"android":"levelo://app?vid=4c7e5c93-2a48-4a72-a6cf-97c503c7a2fa","ios":"levelo://app?vid=4c7e5c93-2a48-4a72-a6cf-97c503c7a2fa"},"vehicle_type_id":"4","last_reported":1687381609,"current_range_meters":15600,"station_id":"ce4bhs92rcd13ifvqi0g","pricing_plan_id":"free"},{"bike_id":"11bfd3fe-e149-45d7-8fab-b36fe62e4e06","system_id":"levelo_inurba_marseille","lat":43.29865,"lon":5.37616,"is_reserved":false,"is_disabled":false,"rental_uris":{"android":"levelo://app?vid=11bfd3fe-e149-45d7-8fab-b36fe62e4e06","ios":"levelo://app?vid=11bfd3fe-e149-45d7-8fab-b36fe62e4e06"},"vehicle_type_id":"4","last_reported":1687381609,"current_range_meters":25200,"station_id":"","pricing_plan_id":"free"},{"bike_id":"d53ac161-c2c9-456e-8299-a39382b3d7f3","system_id":"levelo_inurba_marseille","lat":43.297163,"lon":5.365866,"is_reserved":false,"is_disabled":false,"rental_uris":{"android":"levelo://app?vid=d53ac161-c2c9-456e-8299-a39382b3d7f3","ios":"levelo://app?vid=d53ac161-c2c9-456e-8299-a39382b3d7f3"},"vehicle_type_id":"4","last_reported":1687381609,"current_range_meters":16800,"station_id":"ce4bgn12rcd13ifvqbt0","pricing_plan_id":"free"},{"bike_id":"b30f161c-291a-41f9-bf88-a03acebdc9e1","system_id":"levelo_inurba_marseille","lat":43.297163,"lon":5.365866,"is_reserved":false,"is_disabled":false,"rental_uris":{"android":"levelo://app?vid=b30f161c-291a-41f9-bf88-a03acebdc9e1","ios":"levelo://app?vid=b30f161c-291a-41f9-bf88-a03acebdc9e1"},"vehicle_type_id":"4","last_reported":1687381609,"current_range_meters":10000,"station_id":"ce4bgn12rcd13ifvqbt0","pricing_plan_id":"free"},{"bike_id":"176f4894-d7fc-460e-aa5d-7c8c1e206dc3","system_id":"levelo_inurba_marseille","lat":43.29703,"lon":5.36604,"is_reserved":false,"is_disabled":false,"rental_uris":{"android":"levelo://app?vid=176f4894-d7fc-460e-aa5d-7c8c1e206dc3","ios":"levelo://app?vid=176f4894-d7fc-460e-aa5d-7c8c1e206dc3"},"vehicle_type_id":"4","last_reported":1687381609,"current_range_meters":17600,"station_id":"ce4bgn12rcd13ifvqbt0","pricing_plan_id":"free"},{"bike_id":"165003dd-26ae-4ac7-8462-94a86b4b6522","system_id":"levelo_inurba_marseille","lat":43.29573,"lon":5.367355,"is_reserved":false,"is_disabled":false,"rental_uris":{"android":"levelo://app?vid=165003dd-26ae-4ac7-8462-94a86b4b6522","ios":"levelo://app?vid=165003dd-26ae-4ac7-8462-94a86b4b6522"},"vehicle_type_id":"4","last_reported":1687381609,"current_range_meters":2400,"station_id":"ce4bgph2rcd13ifvqc2g","pricing_plan_id":"free"},{"bike_id":"24f41ca5-b432-4feb-a0c8-a15026b97306","system_id":"levelo_inurba_marseille","lat":43.296131,"lon":5.370773,"is_reserved":false,"is_disabled":false,"rental_uris":{"android":"levelo://app?vid=24f41ca5-b432-4feb-a0c8-a15026b97306","ios":"levelo://app?vid=24f41ca5-b432-4feb-a0c8-a15026b97306"},"vehicle_type_id":"4","last_reported":1687381609,"current_range_meters":0,"station_id":"ce4bgnh2rcd13ifvqc0g","pricing_plan_id":"free"},{"bike_id":"702d403f-cee9-412d-8f30-4ce7d2bd137e","system_id":"levelo_inurba_marseille","lat":43.29575,"lon":5.36737,"is_reserved":false,"is_disabled":false,"rental_uris":{"android":"levelo://app?vid=702d403f-cee9-412d-8f30-4ce7d2bd137e","ios":"levelo://app?vid=702d403f-cee9-412d-8f30-4ce7d2bd137e"},"vehicle_type_id":"4","last_reported":1687381609,"current_range_meters":6000,"station_id":"ce4bgph2rcd13ifvqc2g","pricing_plan_id":"free"},{"bike_id":"041bc147-ef2f-419b-bb81-deca3bdf89e2","system_id":"levelo_inurba_marseille","lat":43.29611,"lon":5.36046,"is_reserved":false,"is_disabled":false,"rental_uris":{"android":"levelo://app?vid=041bc147-ef2f-419b-bb81-deca3bdf89e2","ios":"levelo://app?vid=041bc147-ef2f-419b-bb81-deca3bdf89e2"},"vehicle_type_id":"4","last_reported":1687381609,"current_range_meters":17200,"station_id":"","pricing_plan_id":"free"},{"bike_id":"d00b7d47-c1b5-4285-8c85-1963381a2842","system_id":"levelo_inurba_marseille","lat":43.299028,"lon":5.381509,"is_reserved":false,"is_disabled":false,"rental_uris":{"android":"levelo://app?vid=d00b7d47-c1b5-4285-8c85-1963381a2842","ios":"levelo://app?vid=d00b7d47-c1b5-4285-8c85-1963381a2842"},"vehicle_type_id":"4","last_reported":1687381609,"current_range_meters":2800,"station_id":"ce4bgj12rcd13ifvqbc0","pricing_plan_id":"free"},{"bike_id":"8c8f8e79-9a33-460e-99ea-dd247c512ff2","system_id":"levelo_inurba_marseille","lat":43.29658,"lon":5.37556,"is_reserved":false,"is_disabled":false,"rental_uris":{"android":"levelo://app?vid=8c8f8e79-9a33-460e-99ea-dd247c512ff2","ios":"levelo://app?vid=8c8f8e79-9a33-460e-99ea-dd247c512ff2"},"vehicle_type_id":"4","last_reported":1687381609,"current_range_meters":12000,"station_id":"","pricing_plan_id":"free"},{"bike_id":"dbeac264-0698-444f-aa8c-005ba34c9741","system_id":"levelo_inurba_marseille","lat":43.296921,"lon":5.376579,"is_reserved":false,"is_disabled":false,"rental_uris":{"android":"levelo://app?vid=dbeac264-0698-444f-aa8c-005ba34c9741","ios":"levelo://app?vid=dbeac264-0698-444f-aa8c-005ba34c9741"},"vehicle_type_id":"4","last_reported":1687381609,"current_range_meters":19600,"station_id":"ce4bgkh2rcd13ifvqbl0","pricing_plan_id":"free"},{"bike_id":"08825aa8-51a8-4d96-94bf-a64b9ffa0b57","system_id":"levelo_inurba_marseille","lat":43.317557,"lon":5.390173,"is_reserved":false,"is_disabled":false,"rental_uris":{"android":"levelo://app?vid=08825aa8-51a8-4d96-94bf-a64b9ffa0b57","ios":"levelo://app?vid=08825aa8-51a8-4d96-94bf-a64b9ffa0b57"},"vehicle_type_id":"4","last_reported":1687381609,"current_range_meters":11600,"station_id":"ce4bhqp2rcd13ifvqhng","pricing_plan_id":"free"},{"bike_id":"16e5fedd-6e86-436a-a0a2-72c7cd60a6ea","system_id":"levelo_inurba_marseille","lat":43.317557,"lon":5.390173,"is_reserved":false,"is_disabled":false,"rental_uris":{"android":"levelo://app?vid=16e5fedd-6e86-436a-a0a2-72c7cd60a6ea","ios":"levelo://app?vid=16e5fedd-6e86-436a-a0a2-72c7cd60a6ea"},"vehicle_type_id":"4","last_reported":1687381609,"current_range_meters":28800,"station_id":"ce4bhqp2rcd13ifvqhng","pricing_plan_id":"free"},{"bike_id":"d38c5de4-1b75-44fb-88b5-eb30bcdcd7d0","system_id":"levelo_inurba_marseille","lat":43.302008,"lon":5.394694,"is_reserved":false,"is_disabled":false,"rental_uris":{"android":"levelo://app?vid=d38c5de4-1b75-44fb-88b5-eb30bcdcd7d0","ios":"levelo://app?vid=d38c5de4-1b75-44fb-88b5-eb30bcdcd7d0"},"vehicle_type_id":"4","last_reported":1687381609,"current_range_meters":16800,"station_id":"ce4bh0p2rcd13ifvqd70","pricing_plan_id":"free"},{"bike_id":"b3ffd2c1-9d6a-47ab-8d66-bb5971e8052a","system_id":"levelo_inurba_marseille","lat":43.298037,"lon":5.381066,"is_reserved":false,"is_disabled":false,"rental_uris":{"android":"levelo://app?vid=b3ffd2c1-9d6a-47ab-8d66-bb5971e8052a","ios":"levelo://app?vid=b3ffd2c1-9d6a-47ab-8d66-bb5971e8052a"},"vehicle_type_id":"4","last_reported":1687381609,"current_range_meters":400,"station_id":"ce4bgip2rcd13ifvqbb0","pricing_plan_id":"free"},{"bike_id":"eeddcf8e-3b92-4ccc-9e13-20f7c8b330b6","system_id":"levelo_inurba_marseille","lat":43.298037,"lon":5.381066,"is_reserved":false,"is_disabled":false,"rental_uris":{"android":"levelo://app?vid=eeddcf8e-3b92-4ccc-9e13-20f7c8b330b6","ios":"levelo://app?vid=eeddcf8e-3b92-4ccc-9e13-20f7c8b330b6"},"vehicle_type_id":"4","last_reported":1687381609,"current_range_meters":21200,"station_id":"ce4bgip2rcd13ifvqbb0","pricing_plan_id":"free"},{"bike_id":"a2f87c1d-11b6-4205-9ed0-967d4b5fa277","system_id":"levelo_inurba_marseille","lat":43.295748,"lon":5.37522,"is_reserved":false,"is_disabled":false,"rental_uris":{"android":"levelo://app?vid=a2f87c1d-11b6-4205-9ed0-967d4b5fa277","ios":"levelo://app?vid=a2f87c1d-11b6-4205-9ed0-967d4b5fa277"},"vehicle_type_id":"4","last_reported":1687381609,"current_range_meters":3600,"station_id":"ce4bgh92rcd13ifvqb50","pricing_plan_id":"free"},{"bike_id":"250c8a96-8498-4211-b8f3-1b00a8d1fbaf","system_id":"levelo_inurba_marseille","lat":43.296477,"lon":5.37768,"is_reserved":false,"is_disabled":false,"rental_uris":{"android":"levelo://app?vid=250c8a96-8498-4211-b8f3-1b00a8d1fbaf","ios":"levelo://app?vid=250c8a96-8498-4211-b8f3-1b00a8d1fbaf"},"vehicle_type_id":"4","last_reported":1687381609,"current_range_meters":0,"station_id":"","pricing_plan_id":"free"},{"bike_id":"0891ece2-fc76-49b9-8c9d-7506721573b1","system_id":"levelo_inurba_marseille","lat":43.304274,"lon":5.388873,"is_reserved":false,"is_disabled":false,"rental_uris":{"android":"levelo://app?vid=0891ece2-fc76-49b9-8c9d-7506721573b1","ios":"levelo://app?vid=0891ece2-fc76-49b9-8c9d-7506721573b1"},"vehicle_type_id":"4","last_reported":1687381609,"current_range_meters":11200,"station_id":"ce4bgk12rcd13ifvqbi0","pricing_plan_id":"free"},{"bike_id":"37dc018f-83db-4790-9e62-9ce405bf61d6","system_id":"levelo_inurba_marseille","lat":43.304274,"lon":5.388873,"is_reserved":false,"is_disabled":false,"rental_uris":{"android":"levelo://app?vid=37dc018f-83db-4790-9e62-9ce405bf61d6","ios":"levelo://app?vid=37dc018f-83db-4790-9e62-9ce405bf61d6"},"vehicle_type_id":"4","last_reported":1687381609,"current_range_meters":13600,"station_id":"ce4bgk12rcd13ifvqbi0","pricing_plan_id":"free"},{"bike_id":"d7204c65-c915-4029-82dc-eaa86ee370c7","system_id":"levelo_inurba_marseille","lat":43.304274,"lon":5.388873,"is_reserved":false,"is_disabled":false,"rental_uris":{"android":"levelo://app?vid=d7204c65-c915-4029-82dc-eaa86ee370c7","ios":"levelo://app?vid=d7204c65-c915-4029-82dc-eaa86ee370c7"},"vehicle_type_id":"4","last_reported":1687381609,"current_range_meters":26000,"station_id":"ce4bgk12rcd13ifvqbi0","pricing_plan_id":"free"},{"bike_id":"945ee6ba-f238-42d1-aa78-e77b458dcb6d","system_id":"levelo_inurba_marseille","lat":43.304274,"lon":5.388873,"is_reserved":false,"is_disabled":false,"rental_uris":{"android":"levelo://app?vid=945ee6ba-f238-42d1-aa78-e77b458dcb6d","ios":"levelo://app?vid=945ee6ba-f238-42d1-aa78-e77b458dcb6d"},"vehicle_type_id":"4","last_reported":1687381609,"current_range_meters":21600,"station_id":"ce4bgk12rcd13ifvqbi0","pricing_plan_id":"free"},{"bike_id":"4cd4068d-5cd6-4369-8e06-d37e7c608128","system_id":"levelo_inurba_marseille","lat":43.304274,"lon":5.388873,"is_reserved":false,"is_disabled":false,"rental_uris":{"android":"levelo://app?vid=4cd4068d-5cd6-4369-8e06-d37e7c608128","ios":"levelo://app?vid=4cd4068d-5cd6-4369-8e06-d37e7c608128"},"vehicle_type_id":"4","last_reported":1687381609,"current_range_meters":0,"station_id":"ce4bgk12rcd13ifvqbi0","pricing_plan_id":"free"},{"bike_id":"0e467a9e-96f7-4d72-acfd-f26a116370ad","system_id":"levelo_inurba_marseille","lat":43.304274,"lon":5.388873,"is_reserved":false,"is_disabled":false,"rental_uris":{"android":"levelo://app?vid=0e467a9e-96f7-4d72-acfd-f26a116370ad","ios":"levelo://app?vid=0e467a9e-96f7-4d72-acfd-f26a116370ad"},"vehicle_type_id":"4","last_reported":1687381609,"current_range_meters":26000,"station_id":"ce4bgk12rcd13ifvqbi0","pricing_plan_id":"free"},{"bike_id":"d8369878-36eb-4185-87ff-22806e7c0c3a","system_id":"levelo_inurba_marseille","lat":43.304274,"lon":5.388873,"is_reserved":false,"is_disabled":false,"rental_uris":{"android":"levelo://app?vid=d8369878-36eb-4185-87ff-22806e7c0c3a","ios":"levelo://app?vid=d8369878-36eb-4185-87ff-22806e7c0c3a"},"vehicle_type_id":"4","last_reported":1687381609,"current_range_meters":0,"station_id":"ce4bgk12rcd13ifvqbi0","pricing_plan_id":"free"},{"bike_id":"3475d3ba-dfd3-441b-9da6-e7832907b434","system_id":"levelo_inurba_marseille","lat":43.29622,"lon":5.37727,"is_reserved":false,"is_disabled":false,"rental_uris":{"android":"levelo://app?vid=3475d3ba-dfd3-441b-9da6-e7832907b434","ios":"levelo://app?vid=3475d3ba-dfd3-441b-9da6-e7832907b434"},"vehicle_type_id":"4","last_reported":1687381609,"current_range_meters":18800,"station_id":"ce4bgi92rcd13ifvqb90","pricing_plan_id":"free"},{"bike_id":"d8919955-a592-4055-9320-71173577cb13","system_id":"levelo_inurba_marseille","lat":43.29614,"lon":5.3772,"is_reserved":false,"is_disabled":false,"rental_uris":{"android":"levelo://app?vid=d8919955-a592-4055-9320-71173577cb13","ios":"levelo://app?vid=d8919955-a592-4055-9320-71173577cb13"},"vehicle_type_id":"4","last_reported":1687381609,"current_range_meters":0,"station_id":"ce4bgi92rcd13ifvqb90","pricing_plan_id":"free"},{"bike_id":"16d9e65f-b27d-44d6-b2a4-799d3372a128","system_id":"levelo_inurba_marseille","lat":43.297774,"lon":5.370875,"is_reserved":false,"is_disabled":false,"rental_uris":{"android":"levelo://app?vid=16d9e65f-b27d-44d6-b2a4-799d3372a128","ios":"levelo://app?vid=16d9e65f-b27d-44d6-b2a4-799d3372a128"},"vehicle_type_id":"4","last_reported":1687381609,"current_range_meters":21200,"station_id":"ce4bgop2rcd13ifvqc1g","pricing_plan_id":"free"},{"bike_id":"99e55628-8ff2-4dbe-81d7-870a29105230","system_id":"levelo_inurba_marseille","lat":43.299707,"lon":5.384859,"is_reserved":false,"is_disabled":false,"rental_uris":{"android":"levelo://app?vid=99e55628-8ff2-4dbe-81d7-870a29105230","ios":"levelo://app?vid=99e55628-8ff2-4dbe-81d7-870a29105230"},"vehicle_type_id":"4","last_reported":1687381609,"current_range_meters":19600,"station_id":"ce4bgj92rcd13ifvqbd0","pricing_plan_id":"free"},{"bike_id":"f986c162-b91c-4bd9-ae08-97adf8c36420","system_id":"levelo_inurba_marseille","lat":43.29669,"lon":5.37907,"is_reserved":false,"is_disabled":false,"rental_uris":{"android":"levelo://app?vid=f986c162-b91c-4bd9-ae08-97adf8c36420","ios":"levelo://app?vid=f986c162-b91c-4bd9-ae08-97adf8c36420"},"vehicle_type_id":"4","last_reported":1687381609,"current_range_meters":4400,"station_id":"","pricing_plan_id":"free"},{"bike_id":"7345191e-4c1e-41c2-82bb-2cef63b688ee","system_id":"levelo_inurba_marseille","lat":43.29592,"lon":5.37701,"is_reserved":false,"is_disabled":false,"rental_uris":{"android":"levelo://app?vid=7345191e-4c1e-41c2-82bb-2cef63b688ee","ios":"levelo://app?vid=7345191e-4c1e-41c2-82bb-2cef63b688ee"},"vehicle_type_id":"4","last_reported":1687381609,"current_range_meters":0,"station_id":"","pricing_plan_id":"free"},{"bike_id":"858b3a1a-1330-4a7b-ac77-3f5b3bf328a0","system_id":"levelo_inurba_marseille","lat":43.299717,"lon":5.384845,"is_reserved":false,"is_disabled":false,"rental_uris":{"android":"levelo://app?vid=858b3a1a-1330-4a7b-ac77-3f5b3bf328a0","ios":"levelo://app?vid=858b3a1a-1330-4a7b-ac77-3f5b3bf328a0"},"vehicle_type_id":"4","last_reported":1687381609,"current_range_meters":0,"station_id":"ce4bgj92rcd13ifvqbd0","pricing_plan_id":"free"},{"bike_id":"7ae0a70b-b34b-4619-b999-d91fc3badad9","system_id":"levelo_inurba_marseille","lat":43.32367,"lon":5.388836,"is_reserved":false,"is_disabled":false,"rental_uris":{"android":"levelo://app?vid=7ae0a70b-b34b-4619-b999-d91fc3badad9","ios":"levelo://app?vid=7ae0a70b-b34b-4619-b999-d91fc3badad9"},"vehicle_type_id":"4","last_reported":1687381609,"current_range_meters":22400,"station_id":"ce4bhqp2rcd13ifvqhog","pricing_plan_id":"free"},{"bike_id":"07e16fb3-d2a9-448f-a2bf-2b98a5617d56","system_id":"levelo_inurba_marseille","lat":43.32367,"lon":5.388836,"is_reserved":false,"is_disabled":false,"rental_uris":{"android":"levelo://app?vid=07e16fb3-d2a9-448f-a2bf-2b98a5617d56","ios":"levelo://app?vid=07e16fb3-d2a9-448f-a2bf-2b98a5617d56"},"vehicle_type_id":"4","last_reported":1687381609,"current_range_meters":19600,"station_id":"ce4bhqp2rcd13ifvqhog","pricing_plan_id":"free"},{"bike_id":"e041460a-54ae-4871-ad9f-b6135e0ef88f","system_id":"levelo_inurba_marseille","lat":43.32367,"lon":5.388836,"is_reserved":false,"is_disabled":false,"rental_uris":{"android":"levelo://app?vid=e041460a-54ae-4871-ad9f-b6135e0ef88f","ios":"levelo://app?vid=e041460a-54ae-4871-ad9f-b6135e0ef88f"},"vehicle_type_id":"4","last_reported":1687381609,"current_range_meters":0,"station_id":"ce4bhqp2rcd13ifvqhog","pricing_plan_id":"free"},{"bike_id":"c3604234-a48c-408a-968a-d7396d834b5f","system_id":"levelo_inurba_marseille","lat":43.32367,"lon":5.388836,"is_reserved":false,"is_disabled":false,"rental_uris":{"android":"levelo://app?vid=c3604234-a48c-408a-968a-d7396d834b5f","ios":"levelo://app?vid=c3604234-a48c-408a-968a-d7396d834b5f"},"vehicle_type_id":"4","last_reported":1687381609,"current_range_meters":8800,"station_id":"ce4bhqp2rcd13ifvqhog","pricing_plan_id":"free"},{"bike_id":"e9a5f79a-69b5-4c7c-81b9-81e43f3bff7b","system_id":"levelo_inurba_marseille","lat":43.32367,"lon":5.388836,"is_reserved":false,"is_disabled":false,"rental_uris":{"android":"levelo://app?vid=e9a5f79a-69b5-4c7c-81b9-81e43f3bff7b","ios":"levelo://app?vid=e9a5f79a-69b5-4c7c-81b9-81e43f3bff7b"},"vehicle_type_id":"4","last_reported":1687381609,"current_range_meters":24000,"station_id":"ce4bhqp2rcd13ifvqhog","pricing_plan_id":"free"},{"bike_id":"62e1e21f-3f88-43a4-83a5-bbb9f2a86bae","system_id":"levelo_inurba_marseille","lat":43.32367,"lon":5.388836,"is_reserved":false,"is_disabled":false,"rental_uris":{"android":"levelo://app?vid=62e1e21f-3f88-43a4-83a5-bbb9f2a86bae","ios":"levelo://app?vid=62e1e21f-3f88-43a4-83a5-bbb9f2a86bae"},"vehicle_type_id":"4","last_reported":1687381609,"current_range_meters":19200,"station_id":"ce4bhqp2rcd13ifvqhog","pricing_plan_id":"free"},{"bike_id":"2416699f-f4ca-4fd7-861f-2eb65620cbe4","system_id":"levelo_inurba_marseille","lat":43.32367,"lon":5.388836,"is_reserved":false,"is_disabled":false,"rental_uris":{"android":"levelo://app?vid=2416699f-f4ca-4fd7-861f-2eb65620cbe4","ios":"levelo://app?vid=2416699f-f4ca-4fd7-861f-2eb65620cbe4"},"vehicle_type_id":"4","last_reported":1687381609,"current_range_meters":22000,"station_id":"ce4bhqp2rcd13ifvqhog","pricing_plan_id":"free"},{"bike_id":"9da04b77-8cbd-4ced-9933-390cc6bb4911","system_id":"levelo_inurba_marseille","lat":43.32367,"lon":5.388836,"is_reserved":false,"is_disabled":false,"rental_uris":{"android":"levelo://app?vid=9da04b77-8cbd-4ced-9933-390cc6bb4911","ios":"levelo://app?vid=9da04b77-8cbd-4ced-9933-390cc6bb4911"},"vehicle_type_id":"4","last_reported":1687381609,"current_range_meters":4800,"station_id":"ce4bhqp2rcd13ifvqhog","pricing_plan_id":"free"},{"bike_id":"3cd10ad7-a316-4ed6-a3d9-f31d3f3622ac","system_id":"levelo_inurba_marseille","lat":43.32367,"lon":5.388836,"is_reserved":false,"is_disabled":false,"rental_uris":{"android":"levelo://app?vid=3cd10ad7-a316-4ed6-a3d9-f31d3f3622ac","ios":"levelo://app?vid=3cd10ad7-a316-4ed6-a3d9-f31d3f3622ac"},"vehicle_type_id":"4","last_reported":1687381609,"current_range_meters":21200,"station_id":"ce4bhqp2rcd13ifvqhog","pricing_plan_id":"free"},{"bike_id":"36d2b6f2-8f38-4019-9d66-3d40f4a7a940","system_id":"levelo_inurba_marseille","lat":43.29601,"lon":5.381084,"is_reserved":false,"is_disabled":false,"rental_uris":{"android":"levelo://app?vid=36d2b6f2-8f38-4019-9d66-3d40f4a7a940","ios":"levelo://app?vid=36d2b6f2-8f38-4019-9d66-3d40f4a7a940"},"vehicle_type_id":"4","last_reported":1687381609,"current_range_meters":5600,"station_id":"ce4bgl12rcd13ifvqbo0","pricing_plan_id":"free"},{"bike_id":"70e359a3-bd3f-4453-ac5a-948a38c76180","system_id":"levelo_inurba_marseille","lat":43.29603,"lon":5.38099,"is_reserved":false,"is_disabled":false,"rental_uris":{"android":"levelo://app?vid=70e359a3-bd3f-4453-ac5a-948a38c76180","ios":"levelo://app?vid=70e359a3-bd3f-4453-ac5a-948a38c76180"},"vehicle_type_id":"4","last_reported":1687381609,"current_range_meters":14400,"station_id":"ce4bgl12rcd13ifvqbo0","pricing_plan_id":"free"},{"bike_id":"0ec72dfe-952a-454e-a2f7-8a6eae3cc97e","system_id":"levelo_inurba_marseille","lat":43.29602,"lon":5.381084,"is_reserved":false,"is_disabled":false,"rental_uris":{"android":"levelo://app?vid=0ec72dfe-952a-454e-a2f7-8a6eae3cc97e","ios":"levelo://app?vid=0ec72dfe-952a-454e-a2f7-8a6eae3cc97e"},"vehicle_type_id":"4","last_reported":1687381609,"current_range_meters":8400,"station_id":"ce4bgl12rcd13ifvqbo0","pricing_plan_id":"free"},{"bike_id":"c5e3d4f2-c674-4d24-9f94-3a16e70d6a74","system_id":"levelo_inurba_marseille","lat":43.293009,"lon":5.374584,"is_reserved":false,"is_disabled":false,"rental_uris":{"android":"levelo://app?vid=c5e3d4f2-c674-4d24-9f94-3a16e70d6a74","ios":"levelo://app?vid=c5e3d4f2-c674-4d24-9f94-3a16e70d6a74"},"vehicle_type_id":"4","last_reported":1687381609,"current_range_meters":20000,"station_id":"ce4bgi12rcd13ifvqb70","pricing_plan_id":"free"},{"bike_id":"26827f14-ebbb-498f-8162-40cc8ca84bf3","system_id":"levelo_inurba_marseille","lat":43.293009,"lon":5.374584,"is_reserved":false,"is_disabled":false,"rental_uris":{"android":"levelo://app?vid=26827f14-ebbb-498f-8162-40cc8ca84bf3","ios":"levelo://app?vid=26827f14-ebbb-498f-8162-40cc8ca84bf3"},"vehicle_type_id":"4","last_reported":1687381609,"current_range_meters":25200,"station_id":"ce4bgi12rcd13ifvqb70","pricing_plan_id":"free"},{"bike_id":"8c60c476-19f2-4b55-9ac0-79a5c71bbed6","system_id":"levelo_inurba_marseille","lat":43.29371,"lon":5.37844,"is_reserved":false,"is_disabled":false,"rental_uris":{"android":"levelo://app?vid=8c60c476-19f2-4b55-9ac0-79a5c71bbed6","ios":"levelo://app?vid=8c60c476-19f2-4b55-9ac0-79a5c71bbed6"},"vehicle_type_id":"4","last_reported":1687381609,"current_range_meters":0,"station_id":"ce4bgjh2rcd13ifvqbf0","pricing_plan_id":"free"},{"bike_id":"66b480a6-9947-4496-98e2-93e61a3244b4","system_id":"levelo_inurba_marseille","lat":43.30387,"lon":5.39319,"is_reserved":false,"is_disabled":false,"rental_uris":{"android":"levelo://app?vid=66b480a6-9947-4496-98e2-93e61a3244b4","ios":"levelo://app?vid=66b480a6-9947-4496-98e2-93e61a3244b4"},"vehicle_type_id":"4","last_reported":1687381609,"current_range_meters":30000,"station_id":"","pricing_plan_id":"free"},{"bike_id":"18306e2a-eccc-4ec8-91b6-97289f831e8c","system_id":"levelo_inurba_marseille","lat":43.29881,"lon":5.38902,"is_reserved":false,"is_disabled":false,"rental_uris":{"android":"levelo://app?vid=18306e2a-eccc-4ec8-91b6-97289f831e8c","ios":"levelo://app?vid=18306e2a-eccc-4ec8-91b6-97289f831e8c"},"vehicle_type_id":"4","last_reported":1687381609,"current_range_meters":26400,"station_id":"ce4bh392rcd13ifvqdl0","pricing_plan_id":"free"},{"bike_id":"d7822b50-d861-45c7-9606-3a2bb2b47d55","system_id":"levelo_inurba_marseille","lat":43.298764,"lon":5.388973,"is_reserved":false,"is_disabled":false,"rental_uris":{"android":"levelo://app?vid=d7822b50-d861-45c7-9606-3a2bb2b47d55","ios":"levelo://app?vid=d7822b50-d861-45c7-9606-3a2bb2b47d55"},"vehicle_type_id":"4","last_reported":1687381609,"current_range_meters":15200,"station_id":"ce4bh392rcd13ifvqdl0","pricing_plan_id":"free"},{"bike_id":"3e311d49-a990-499a-80b8-8f654973cc0e","system_id":"levelo_inurba_marseille","lat":43.29878,"lon":5.389,"is_reserved":false,"is_disabled":false,"rental_uris":{"android":"levelo://app?vid=3e311d49-a990-499a-80b8-8f654973cc0e","ios":"levelo://app?vid=3e311d49-a990-499a-80b8-8f654973cc0e"},"vehicle_type_id":"4","last_reported":1687381609,"current_range_meters":2400,"station_id":"ce4bh392rcd13ifvqdl0","pricing_plan_id":"free"},{"bike_id":"d7b894a1-bd71-4002-aa50-0025237c8a6f","system_id":"levelo_inurba_marseille","lat":43.30889,"lon":5.39631,"is_reserved":false,"is_disabled":false,"rental_uris":{"android":"levelo://app?vid=d7b894a1-bd71-4002-aa50-0025237c8a6f","ios":"levelo://app?vid=d7b894a1-bd71-4002-aa50-0025237c8a6f"},"vehicle_type_id":"4","last_reported":1687381609,"current_range_meters":0,"station_id":"ce4bh012rcd13ifvqcv0","pricing_plan_id":"free"},{"bike_id":"068fc60f-4716-4cd0-afc2-556cc1723478","system_id":"levelo_inurba_marseille","lat":43.30884,"lon":5.39632,"is_reserved":false,"is_disabled":false,"rental_uris":{"android":"levelo://app?vid=068fc60f-4716-4cd0-afc2-556cc1723478","ios":"levelo://app?vid=068fc60f-4716-4cd0-afc2-556cc1723478"},"vehicle_type_id":"4","last_reported":1687381609,"current_range_meters":0,"station_id":"","pricing_plan_id":"free"},{"bike_id":"319e7585-d7f2-4068-bc08-1126e7bfa104","system_id":"levelo_inurba_marseille","lat":43.30883,"lon":5.39636,"is_reserved":false,"is_disabled":false,"rental_uris":{"android":"levelo://app?vid=319e7585-d7f2-4068-bc08-1126e7bfa104","ios":"levelo://app?vid=319e7585-d7f2-4068-bc08-1126e7bfa104"},"vehicle_type_id":"4","last_reported":1687381609,"current_range_meters":16400,"station_id":"","pricing_plan_id":"free"},{"bike_id":"39caba74-4fb1-413c-baf8-b9baf1d46b2c","system_id":"levelo_inurba_marseille","lat":43.29542,"lon":5.38532,"is_reserved":false,"is_disabled":false,"rental_uris":{"android":"levelo://app?vid=39caba74-4fb1-413c-baf8-b9baf1d46b2c","ios":"levelo://app?vid=39caba74-4fb1-413c-baf8-b9baf1d46b2c"},"vehicle_type_id":"4","last_reported":1687381609,"current_range_meters":0,"station_id":"ce4bgih2rcd13ifvqba0","pricing_plan_id":"free"},{"bike_id":"1842f4d5-a465-4c02-9901-329ad8433b18","system_id":"levelo_inurba_marseille","lat":43.309038,"lon":5.396546,"is_reserved":false,"is_disabled":false,"rental_uris":{"android":"levelo://app?vid=1842f4d5-a465-4c02-9901-329ad8433b18","ios":"levelo://app?vid=1842f4d5-a465-4c02-9901-329ad8433b18"},"vehicle_type_id":"4","last_reported":1687381609,"current_range_meters":29600,"station_id":"ce4bh012rcd13ifvqcv0","pricing_plan_id":"free"},{"bike_id":"d62c593e-9083-42d7-a285-da5123f976ce","system_id":"levelo_inurba_marseille","lat":43.309038,"lon":5.396546,"is_reserved":false,"is_disabled":false,"rental_uris":{"android":"levelo://app?vid=d62c593e-9083-42d7-a285-da5123f976ce","ios":"levelo://app?vid=d62c593e-9083-42d7-a285-da5123f976ce"},"vehicle_type_id":"4","last_reported":1687381609,"current_range_meters":14800,"station_id":"ce4bh012rcd13ifvqcv0","pricing_plan_id":"free"},{"bike_id":"d43583b5-22a3-4d1b-b57c-4441737af27f","system_id":"levelo_inurba_marseille","lat":43.29543,"lon":5.38544,"is_reserved":false,"is_disabled":false,"rental_uris":{"android":"levelo://app?vid=d43583b5-22a3-4d1b-b57c-4441737af27f","ios":"levelo://app?vid=d43583b5-22a3-4d1b-b57c-4441737af27f"},"vehicle_type_id":"4","last_reported":1687381609,"current_range_meters":7600,"station_id":"ce4bgih2rcd13ifvqba0","pricing_plan_id":"free"},{"bike_id":"93f836d9-2a93-416a-96c9-05adefb4f086","system_id":"levelo_inurba_marseille","lat":43.29536,"lon":5.38536,"is_reserved":false,"is_disabled":false,"rental_uris":{"android":"levelo://app?vid=93f836d9-2a93-416a-96c9-05adefb4f086","ios":"levelo://app?vid=93f836d9-2a93-416a-96c9-05adefb4f086"},"vehicle_type_id":"4","last_reported":1687381609,"current_range_meters":12400,"station_id":"ce4bgih2rcd13ifvqba0","pricing_plan_id":"free"},{"bike_id":"7078e307-3a69-4259-b1bb-0239c5a8f292","system_id":"levelo_inurba_marseille","lat":43.29533,"lon":5.38536,"is_reserved":false,"is_disabled":false,"rental_uris":{"android":"levelo://app?vid=7078e307-3a69-4259-b1bb-0239c5a8f292","ios":"levelo://app?vid=7078e307-3a69-4259-b1bb-0239c5a8f292"},"vehicle_type_id":"4","last_reported":1687381609,"current_range_meters":6800,"station_id":"ce4bgih2rcd13ifvqba0","pricing_plan_id":"free"},{"bike_id":"fb2d4148-bb76-4f73-8845-22b2ac2ea15d","system_id":"levelo_inurba_marseille","lat":43.29534,"lon":5.38539,"is_reserved":false,"is_disabled":false,"rental_uris":{"android":"levelo://app?vid=fb2d4148-bb76-4f73-8845-22b2ac2ea15d","ios":"levelo://app?vid=fb2d4148-bb76-4f73-8845-22b2ac2ea15d"},"vehicle_type_id":"4","last_reported":1687381609,"current_range_meters":28400,"station_id":"ce4bgih2rcd13ifvqba0","pricing_plan_id":"free"},{"bike_id":"82710fb2-62a2-4d4c-b79d-5abbd25e96ee","system_id":"levelo_inurba_marseille","lat":43.29532,"lon":5.3854,"is_reserved":false,"is_disabled":false,"rental_uris":{"android":"levelo://app?vid=82710fb2-62a2-4d4c-b79d-5abbd25e96ee","ios":"levelo://app?vid=82710fb2-62a2-4d4c-b79d-5abbd25e96ee"},"vehicle_type_id":"4","last_reported":1687381609,"current_range_meters":19600,"station_id":"ce4bgih2rcd13ifvqba0","pricing_plan_id":"free"},{"bike_id":"1e1e1281-bacf-4e8c-ac6e-d2e12517db5e","system_id":"levelo_inurba_marseille","lat":43.29501,"lon":5.38752,"is_reserved":false,"is_disabled":false,"rental_uris":{"android":"levelo://app?vid=1e1e1281-bacf-4e8c-ac6e-d2e12517db5e","ios":"levelo://app?vid=1e1e1281-bacf-4e8c-ac6e-d2e12517db5e"},"vehicle_type_id":"4","last_reported":1687381609,"current_range_meters":18400,"station_id":"","pricing_plan_id":"free"},{"bike_id":"214917d7-df94-43f1-be92-414d3c3519e2","system_id":"levelo_inurba_marseille","lat":43.2942,"lon":5.38613,"is_reserved":false,"is_disabled":false,"rental_uris":{"android":"levelo://app?vid=214917d7-df94-43f1-be92-414d3c3519e2","ios":"levelo://app?vid=214917d7-df94-43f1-be92-414d3c3519e2"},"vehicle_type_id":"4","last_reported":1687381609,"current_range_meters":0,"station_id":"ce4bh2h2rcd13ifvqdh0","pricing_plan_id":"free"},{"bike_id":"4b017146-7c4c-4f06-9fab-b938fea8baa4","system_id":"levelo_inurba_marseille","lat":43.29423,"lon":5.38621,"is_reserved":false,"is_disabled":false,"rental_uris":{"android":"levelo://app?vid=4b017146-7c4c-4f06-9fab-b938fea8baa4","ios":"levelo://app?vid=4b017146-7c4c-4f06-9fab-b938fea8baa4"},"vehicle_type_id":"4","last_reported":1687381609,"current_range_meters":24400,"station_id":"ce4bh2h2rcd13ifvqdh0","pricing_plan_id":"free"},{"bike_id":"5e991787-5a24-4f7a-a834-4dfc56f55145","system_id":"levelo_inurba_marseille","lat":43.29422,"lon":5.38622,"is_reserved":false,"is_disabled":false,"rental_uris":{"android":"levelo://app?vid=5e991787-5a24-4f7a-a834-4dfc56f55145","ios":"levelo://app?vid=5e991787-5a24-4f7a-a834-4dfc56f55145"},"vehicle_type_id":"4","last_reported":1687381609,"current_range_meters":11200,"station_id":"ce4bh2h2rcd13ifvqdh0","pricing_plan_id":"free"},{"bike_id":"a66c9b66-f101-44c9-99e6-aad9aa69bc36","system_id":"levelo_inurba_marseille","lat":43.294162,"lon":5.386292,"is_reserved":false,"is_disabled":false,"rental_uris":{"android":"levelo://app?vid=a66c9b66-f101-44c9-99e6-aad9aa69bc36","ios":"levelo://app?vid=a66c9b66-f101-44c9-99e6-aad9aa69bc36"},"vehicle_type_id":"4","last_reported":1687381609,"current_range_meters":22000,"station_id":"ce4bh2h2rcd13ifvqdh0","pricing_plan_id":"free"},{"bike_id":"c0cb8f0e-9e76-4df0-9336-f4d5ebc1e527","system_id":"levelo_inurba_marseille","lat":43.29423,"lon":5.38626,"is_reserved":false,"is_disabled":false,"rental_uris":{"android":"levelo://app?vid=c0cb8f0e-9e76-4df0-9336-f4d5ebc1e527","ios":"levelo://app?vid=c0cb8f0e-9e76-4df0-9336-f4d5ebc1e527"},"vehicle_type_id":"4","last_reported":1687381609,"current_range_meters":6400,"station_id":"ce4bh2h2rcd13ifvqdh0","pricing_plan_id":"free"},{"bike_id":"0095433d-d062-4e1b-a76b-fb334aeb81ca","system_id":"levelo_inurba_marseille","lat":43.29422,"lon":5.38627,"is_reserved":false,"is_disabled":false,"rental_uris":{"android":"levelo://app?vid=0095433d-d062-4e1b-a76b-fb334aeb81ca","ios":"levelo://app?vid=0095433d-d062-4e1b-a76b-fb334aeb81ca"},"vehicle_type_id":"4","last_reported":1687381609,"current_range_meters":24000,"station_id":"ce4bh2h2rcd13ifvqdh0","pricing_plan_id":"free"},{"bike_id":"6e91b9a9-0d12-42d8-88a2-a36791541a8f","system_id":"levelo_inurba_marseille","lat":43.29422,"lon":5.38627,"is_reserved":false,"is_disabled":false,"rental_uris":{"android":"levelo://app?vid=6e91b9a9-0d12-42d8-88a2-a36791541a8f","ios":"levelo://app?vid=6e91b9a9-0d12-42d8-88a2-a36791541a8f"},"vehicle_type_id":"4","last_reported":1687381609,"current_range_meters":12800,"station_id":"ce4bh2h2rcd13ifvqdh0","pricing_plan_id":"free"},{"bike_id":"8e100d07-1d45-4acc-9f9c-3e0c51d329cc","system_id":"levelo_inurba_marseille","lat":43.29418,"lon":5.38621,"is_reserved":false,"is_disabled":false,"rental_uris":{"android":"levelo://app?vid=8e100d07-1d45-4acc-9f9c-3e0c51d329cc","ios":"levelo://app?vid=8e100d07-1d45-4acc-9f9c-3e0c51d329cc"},"vehicle_type_id":"4","last_reported":1687381609,"current_range_meters":24400,"station_id":"ce4bh2h2rcd13ifvqdh0","pricing_plan_id":"free"},{"bike_id":"4d6706b1-9d02-4ca4-8788-f980b715cfeb","system_id":"levelo_inurba_marseille","lat":43.29419,"lon":5.38623,"is_reserved":false,"is_disabled":false,"rental_uris":{"android":"levelo://app?vid=4d6706b1-9d02-4ca4-8788-f980b715cfeb","ios":"levelo://app?vid=4d6706b1-9d02-4ca4-8788-f980b715cfeb"},"vehicle_type_id":"4","last_reported":1687381609,"current_range_meters":16800,"station_id":"ce4bh2h2rcd13ifvqdh0","pricing_plan_id":"free"},{"bike_id":"7370cc3c-6c6e-4be2-a507-2cf855d50df1","system_id":"levelo_inurba_marseille","lat":43.29414,"lon":5.38614,"is_reserved":false,"is_disabled":false,"rental_uris":{"android":"levelo://app?vid=7370cc3c-6c6e-4be2-a507-2cf855d50df1","ios":"levelo://app?vid=7370cc3c-6c6e-4be2-a507-2cf855d50df1"},"vehicle_type_id":"4","last_reported":1687381609,"current_range_meters":6800,"station_id":"ce4bh2h2rcd13ifvqdh0","pricing_plan_id":"free"},{"bike_id":"f459f43d-1ca2-4ffb-a899-eced0352f326","system_id":"levelo_inurba_marseille","lat":43.294162,"lon":5.386292,"is_reserved":false,"is_disabled":false,"rental_uris":{"android":"levelo://app?vid=f459f43d-1ca2-4ffb-a899-eced0352f326","ios":"levelo://app?vid=f459f43d-1ca2-4ffb-a899-eced0352f326"},"vehicle_type_id":"4","last_reported":1687381609,"current_range_meters":0,"station_id":"ce4bh2h2rcd13ifvqdh0","pricing_plan_id":"free"},{"bike_id":"42e050f0-4374-4c5b-bd00-311b1c76cc9a","system_id":"levelo_inurba_marseille","lat":43.29417,"lon":5.38621,"is_reserved":false,"is_disabled":false,"rental_uris":{"android":"levelo://app?vid=42e050f0-4374-4c5b-bd00-311b1c76cc9a","ios":"levelo://app?vid=42e050f0-4374-4c5b-bd00-311b1c76cc9a"},"vehicle_type_id":"4","last_reported":1687381609,"current_range_meters":23600,"station_id":"ce4bh2h2rcd13ifvqdh0","pricing_plan_id":"free"},{"bike_id":"e1e56768-024a-48ae-93bf-9566ae315340","system_id":"levelo_inurba_marseille","lat":43.2942,"lon":5.38627,"is_reserved":false,"is_disabled":false,"rental_uris":{"android":"levelo://app?vid=e1e56768-024a-48ae-93bf-9566ae315340","ios":"levelo://app?vid=e1e56768-024a-48ae-93bf-9566ae315340"},"vehicle_type_id":"4","last_reported":1687381609,"current_range_meters":0,"station_id":"ce4bh2h2rcd13ifvqdh0","pricing_plan_id":"free"},{"bike_id":"f8d39ac3-4aa3-41c8-81e4-35e5a4974722","system_id":"levelo_inurba_marseille","lat":43.29412,"lon":5.38613,"is_reserved":false,"is_disabled":false,"rental_uris":{"android":"levelo://app?vid=f8d39ac3-4aa3-41c8-81e4-35e5a4974722","ios":"levelo://app?vid=f8d39ac3-4aa3-41c8-81e4-35e5a4974722"},"vehicle_type_id":"4","last_reported":1687381609,"current_range_meters":4400,"station_id":"ce4bh2h2rcd13ifvqdh0","pricing_plan_id":"free"},{"bike_id":"f667310b-6501-4e7d-b2d6-bbe451adc31e","system_id":"levelo_inurba_marseille","lat":43.2942,"lon":5.38628,"is_reserved":false,"is_disabled":false,"rental_uris":{"android":"levelo://app?vid=f667310b-6501-4e7d-b2d6-bbe451adc31e","ios":"levelo://app?vid=f667310b-6501-4e7d-b2d6-bbe451adc31e"},"vehicle_type_id":"4","last_reported":1687381609,"current_range_meters":1200,"station_id":"ce4bh2h2rcd13ifvqdh0","pricing_plan_id":"free"},{"bike_id":"6aa16cc1-12e8-4dab-805f-fc79b301ab8c","system_id":"levelo_inurba_marseille","lat":43.2942,"lon":5.38628,"is_reserved":false,"is_disabled":false,"rental_uris":{"android":"levelo://app?vid=6aa16cc1-12e8-4dab-805f-fc79b301ab8c","ios":"levelo://app?vid=6aa16cc1-12e8-4dab-805f-fc79b301ab8c"},"vehicle_type_id":"4","last_reported":1687381609,"current_range_meters":4400,"station_id":"ce4bh2h2rcd13ifvqdh0","pricing_plan_id":"free"},{"bike_id":"b878888f-1d5b-41aa-adb9-84081edce53c","system_id":"levelo_inurba_marseille","lat":43.29417,"lon":5.38623,"is_reserved":false,"is_disabled":false,"rental_uris":{"android":"levelo://app?vid=b878888f-1d5b-41aa-adb9-84081edce53c","ios":"levelo://app?vid=b878888f-1d5b-41aa-adb9-84081edce53c"},"vehicle_type_id":"4","last_reported":1687381609,"current_range_meters":9200,"station_id":"ce4bh2h2rcd13ifvqdh0","pricing_plan_id":"free"},{"bike_id":"0609f09b-61e5-40d1-a057-3a5b9409ddd1","system_id":"levelo_inurba_marseille","lat":43.294162,"lon":5.386292,"is_reserved":false,"is_disabled":false,"rental_uris":{"android":"levelo://app?vid=0609f09b-61e5-40d1-a057-3a5b9409ddd1","ios":"levelo://app?vid=0609f09b-61e5-40d1-a057-3a5b9409ddd1"},"vehicle_type_id":"4","last_reported":1687381609,"current_range_meters":30000,"station_id":"ce4bh2h2rcd13ifvqdh0","pricing_plan_id":"free"},{"bike_id":"5062e34e-114b-4cc1-a529-13c661e4d38e","system_id":"levelo_inurba_marseille","lat":43.2942,"lon":5.38629,"is_reserved":false,"is_disabled":false,"rental_uris":{"android":"levelo://app?vid=5062e34e-114b-4cc1-a529-13c661e4d38e","ios":"levelo://app?vid=5062e34e-114b-4cc1-a529-13c661e4d38e"},"vehicle_type_id":"4","last_reported":1687381609,"current_range_meters":8400,"station_id":"ce4bh2h2rcd13ifvqdh0","pricing_plan_id":"free"},{"bike_id":"64cc9ff4-f388-4c76-94dd-9b1f30158f5d","system_id":"levelo_inurba_marseille","lat":43.294162,"lon":5.386292,"is_reserved":false,"is_disabled":false,"rental_uris":{"android":"levelo://app?vid=64cc9ff4-f388-4c76-94dd-9b1f30158f5d","ios":"levelo://app?vid=64cc9ff4-f388-4c76-94dd-9b1f30158f5d"},"vehicle_type_id":"4","last_reported":1687381609,"current_range_meters":27600,"station_id":"ce4bh2h2rcd13ifvqdh0","pricing_plan_id":"free"},{"bike_id":"1fedf06c-b213-4b79-a0d8-fd2d5324150e","system_id":"levelo_inurba_marseille","lat":43.29416,"lon":5.38623,"is_reserved":false,"is_disabled":false,"rental_uris":{"android":"levelo://app?vid=1fedf06c-b213-4b79-a0d8-fd2d5324150e","ios":"levelo://app?vid=1fedf06c-b213-4b79-a0d8-fd2d5324150e"},"vehicle_type_id":"4","last_reported":1687381609,"current_range_meters":16400,"station_id":"ce4bh2h2rcd13ifvqdh0","pricing_plan_id":"free"},{"bike_id":"57862e7a-00d5-45c2-83c4-6aef1b9ef88e","system_id":"levelo_inurba_marseille","lat":43.29416,"lon":5.38624,"is_reserved":false,"is_disabled":false,"rental_uris":{"android":"levelo://app?vid=57862e7a-00d5-45c2-83c4-6aef1b9ef88e","ios":"levelo://app?vid=57862e7a-00d5-45c2-83c4-6aef1b9ef88e"},"vehicle_type_id":"4","last_reported":1687381609,"current_range_meters":26000,"station_id":"ce4bh2h2rcd13ifvqdh0","pricing_plan_id":"free"},{"bike_id":"c4b32fec-5f20-43ac-bd5b-5a6abe744602","system_id":"levelo_inurba_marseille","lat":43.29416,"lon":5.38624,"is_reserved":false,"is_disabled":false,"rental_uris":{"android":"levelo://app?vid=c4b32fec-5f20-43ac-bd5b-5a6abe744602","ios":"levelo://app?vid=c4b32fec-5f20-43ac-bd5b-5a6abe744602"},"vehicle_type_id":"4","last_reported":1687381609,"current_range_meters":400,"station_id":"ce4bh2h2rcd13ifvqdh0","pricing_plan_id":"free"},{"bike_id":"e424b1b1-a4ea-42b4-bf96-2333b919d643","system_id":"levelo_inurba_marseille","lat":43.29417,"lon":5.38626,"is_reserved":false,"is_disabled":false,"rental_uris":{"android":"levelo://app?vid=e424b1b1-a4ea-42b4-bf96-2333b919d643","ios":"levelo://app?vid=e424b1b1-a4ea-42b4-bf96-2333b919d643"},"vehicle_type_id":"4","last_reported":1687381609,"current_range_meters":6000,"station_id":"ce4bh2h2rcd13ifvqdh0","pricing_plan_id":"free"},{"bike_id":"3f8a925a-6a54-4259-a38f-9cf091aab246","system_id":"levelo_inurba_marseille","lat":43.294162,"lon":5.386292,"is_reserved":false,"is_disabled":false,"rental_uris":{"android":"levelo://app?vid=3f8a925a-6a54-4259-a38f-9cf091aab246","ios":"levelo://app?vid=3f8a925a-6a54-4259-a38f-9cf091aab246"},"vehicle_type_id":"4","last_reported":1687381609,"current_range_meters":31200,"station_id":"ce4bh2h2rcd13ifvqdh0","pricing_plan_id":"free"},{"bike_id":"23d93928-84bd-4706-a11b-2eca2dcb0356","system_id":"levelo_inurba_marseille","lat":43.294162,"lon":5.386292,"is_reserved":false,"is_disabled":false,"rental_uris":{"android":"levelo://app?vid=23d93928-84bd-4706-a11b-2eca2dcb0356","ios":"levelo://app?vid=23d93928-84bd-4706-a11b-2eca2dcb0356"},"vehicle_type_id":"4","last_reported":1687381609,"current_range_meters":27600,"station_id":"ce4bh2h2rcd13ifvqdh0","pricing_plan_id":"free"},{"bike_id":"b3f95771-49e1-4cd6-be92-7d54963182fe","system_id":"levelo_inurba_marseille","lat":43.294162,"lon":5.386292,"is_reserved":false,"is_disabled":false,"rental_uris":{"android":"levelo://app?vid=b3f95771-49e1-4cd6-be92-7d54963182fe","ios":"levelo://app?vid=b3f95771-49e1-4cd6-be92-7d54963182fe"},"vehicle_type_id":"4","last_reported":1687381609,"current_range_meters":30000,"station_id":"ce4bh2h2rcd13ifvqdh0","pricing_plan_id":"free"},{"bike_id":"8ff2364b-430e-4f07-b88d-b80219e898cb","system_id":"levelo_inurba_marseille","lat":43.29412,"lon":5.38619,"is_reserved":false,"is_disabled":false,"rental_uris":{"android":"levelo://app?vid=8ff2364b-430e-4f07-b88d-b80219e898cb","ios":"levelo://app?vid=8ff2364b-430e-4f07-b88d-b80219e898cb"},"vehicle_type_id":"4","last_reported":1687381609,"current_range_meters":6400,"station_id":"ce4bh2h2rcd13ifvqdh0","pricing_plan_id":"free"},{"bike_id":"64706ea7-01b4-4c91-89f6-02b74387ac1c","system_id":"levelo_inurba_marseille","lat":43.29418,"lon":5.38631,"is_reserved":false,"is_disabled":false,"rental_uris":{"android":"levelo://app?vid=64706ea7-01b4-4c91-89f6-02b74387ac1c","ios":"levelo://app?vid=64706ea7-01b4-4c91-89f6-02b74387ac1c"},"vehicle_type_id":"4","last_reported":1687381609,"current_range_meters":29200,"station_id":"ce4bh2h2rcd13ifvqdh0","pricing_plan_id":"free"},{"bike_id":"b1c64199-04ca-4a70-9de0-03cdd3939a6d","system_id":"levelo_inurba_marseille","lat":43.29414,"lon":5.38624,"is_reserved":false,"is_disabled":false,"rental_uris":{"android":"levelo://app?vid=b1c64199-04ca-4a70-9de0-03cdd3939a6d","ios":"levelo://app?vid=b1c64199-04ca-4a70-9de0-03cdd3939a6d"},"vehicle_type_id":"4","last_reported":1687381609,"current_range_meters":14000,"station_id":"ce4bh2h2rcd13ifvqdh0","pricing_plan_id":"free"},{"bike_id":"ea675191-68b8-4ceb-ae9b-667ed2553715","system_id":"levelo_inurba_marseille","lat":43.29415,"lon":5.38626,"is_reserved":false,"is_disabled":false,"rental_uris":{"android":"levelo://app?vid=ea675191-68b8-4ceb-ae9b-667ed2553715","ios":"levelo://app?vid=ea675191-68b8-4ceb-ae9b-667ed2553715"},"vehicle_type_id":"4","last_reported":1687381609,"current_range_meters":19200,"station_id":"ce4bh2h2rcd13ifvqdh0","pricing_plan_id":"free"},{"bike_id":"b55d046b-5f0d-4e9c-8522-7de85d7a1c61","system_id":"levelo_inurba_marseille","lat":43.29416,"lon":5.38629,"is_reserved":false,"is_disabled":false,"rental_uris":{"android":"levelo://app?vid=b55d046b-5f0d-4e9c-8522-7de85d7a1c61","ios":"levelo://app?vid=b55d046b-5f0d-4e9c-8522-7de85d7a1c61"},"vehicle_type_id":"4","last_reported":1687381609,"current_range_meters":22800,"station_id":"ce4bh2h2rcd13ifvqdh0","pricing_plan_id":"free"},{"bike_id":"57d0fe63-e93a-46ac-b11f-97260719e183","system_id":"levelo_inurba_marseille","lat":43.29414,"lon":5.38629,"is_reserved":false,"is_disabled":false,"rental_uris":{"android":"levelo://app?vid=57d0fe63-e93a-46ac-b11f-97260719e183","ios":"levelo://app?vid=57d0fe63-e93a-46ac-b11f-97260719e183"},"vehicle_type_id":"4","last_reported":1687381609,"current_range_meters":12000,"station_id":"ce4bh2h2rcd13ifvqdh0","pricing_plan_id":"free"},{"bike_id":"06b99c9b-892f-4336-a56e-6e06e426c81f","system_id":"levelo_inurba_marseille","lat":43.289184,"lon":5.366408,"is_reserved":false,"is_disabled":false,"rental_uris":{"android":"levelo://app?vid=06b99c9b-892f-4336-a56e-6e06e426c81f","ios":"levelo://app?vid=06b99c9b-892f-4336-a56e-6e06e426c81f"},"vehicle_type_id":"4","last_reported":1687381609,"current_range_meters":14400,"station_id":"ce4bhap2rcd13ifvqek0","pricing_plan_id":"free"},{"bike_id":"dcce7b26-512a-433d-bb47-2ef834fc3b6e","system_id":"levelo_inurba_marseille","lat":43.29412,"lon":5.3863,"is_reserved":false,"is_disabled":false,"rental_uris":{"android":"levelo://app?vid=dcce7b26-512a-433d-bb47-2ef834fc3b6e","ios":"levelo://app?vid=dcce7b26-512a-433d-bb47-2ef834fc3b6e"},"vehicle_type_id":"4","last_reported":1687381609,"current_range_meters":800,"station_id":"ce4bh2h2rcd13ifvqdh0","pricing_plan_id":"free"},{"bike_id":"d219d81f-dfee-44da-b923-bb5f0511daa3","system_id":"levelo_inurba_marseille","lat":43.2941,"lon":5.38628,"is_reserved":false,"is_disabled":false,"rental_uris":{"android":"levelo://app?vid=d219d81f-dfee-44da-b923-bb5f0511daa3","ios":"levelo://app?vid=d219d81f-dfee-44da-b923-bb5f0511daa3"},"vehicle_type_id":"4","last_reported":1687381609,"current_range_meters":4400,"station_id":"ce4bh2h2rcd13ifvqdh0","pricing_plan_id":"free"},{"bike_id":"0be0e509-9580-4be3-bcc7-e08c33957d22","system_id":"levelo_inurba_marseille","lat":43.289184,"lon":5.366408,"is_reserved":false,"is_disabled":false,"rental_uris":{"android":"levelo://app?vid=0be0e509-9580-4be3-bcc7-e08c33957d22","ios":"levelo://app?vid=0be0e509-9580-4be3-bcc7-e08c33957d22"},"vehicle_type_id":"4","last_reported":1687381609,"current_range_meters":31200,"station_id":"ce4bhap2rcd13ifvqek0","pricing_plan_id":"free"},{"bike_id":"0ff9a376-1352-417c-8971-1b9c2979a8cd","system_id":"levelo_inurba_marseille","lat":43.289184,"lon":5.366408,"is_reserved":false,"is_disabled":false,"rental_uris":{"android":"levelo://app?vid=0ff9a376-1352-417c-8971-1b9c2979a8cd","ios":"levelo://app?vid=0ff9a376-1352-417c-8971-1b9c2979a8cd"},"vehicle_type_id":"4","last_reported":1687381609,"current_range_meters":18800,"station_id":"ce4bhap2rcd13ifvqek0","pricing_plan_id":"free"},{"bike_id":"0474ee58-fdf5-484b-8b42-6cb24fe3ae43","system_id":"levelo_inurba_marseille","lat":43.289184,"lon":5.366408,"is_reserved":false,"is_disabled":false,"rental_uris":{"android":"levelo://app?vid=0474ee58-fdf5-484b-8b42-6cb24fe3ae43","ios":"levelo://app?vid=0474ee58-fdf5-484b-8b42-6cb24fe3ae43"},"vehicle_type_id":"4","last_reported":1687381609,"current_range_meters":31200,"station_id":"ce4bhap2rcd13ifvqek0","pricing_plan_id":"free"},{"bike_id":"305a3ce0-e658-4f98-be93-c3ab4537b965","system_id":"levelo_inurba_marseille","lat":43.289184,"lon":5.366408,"is_reserved":false,"is_disabled":false,"rental_uris":{"android":"levelo://app?vid=305a3ce0-e658-4f98-be93-c3ab4537b965","ios":"levelo://app?vid=305a3ce0-e658-4f98-be93-c3ab4537b965"},"vehicle_type_id":"4","last_reported":1687381609,"current_range_meters":29600,"station_id":"ce4bhap2rcd13ifvqek0","pricing_plan_id":"free"},{"bike_id":"3f38dfd5-dad9-48b2-b648-d858168ff98f","system_id":"levelo_inurba_marseille","lat":43.28933,"lon":5.36633,"is_reserved":false,"is_disabled":false,"rental_uris":{"android":"levelo://app?vid=3f38dfd5-dad9-48b2-b648-d858168ff98f","ios":"levelo://app?vid=3f38dfd5-dad9-48b2-b648-d858168ff98f"},"vehicle_type_id":"4","last_reported":1687381609,"current_range_meters":6000,"station_id":"ce4bhap2rcd13ifvqek0","pricing_plan_id":"free"},{"bike_id":"e053e4ef-c64c-49f1-833b-986400307407","system_id":"levelo_inurba_marseille","lat":43.29419,"lon":5.38673,"is_reserved":false,"is_disabled":false,"rental_uris":{"android":"levelo://app?vid=e053e4ef-c64c-49f1-833b-986400307407","ios":"levelo://app?vid=e053e4ef-c64c-49f1-833b-986400307407"},"vehicle_type_id":"4","last_reported":1687381609,"current_range_meters":10800,"station_id":"","pricing_plan_id":"free"},{"bike_id":"38eb09af-7166-42b9-865e-84246929498f","system_id":"levelo_inurba_marseille","lat":43.292644,"lon":5.384257,"is_reserved":false,"is_disabled":false,"rental_uris":{"android":"levelo://app?vid=38eb09af-7166-42b9-865e-84246929498f","ios":"levelo://app?vid=38eb09af-7166-42b9-865e-84246929498f"},"vehicle_type_id":"4","last_reported":1687381609,"current_range_meters":31600,"station_id":"ce4bh692rcd13ifvqea0","pricing_plan_id":"free"},{"bike_id":"a0c0fda6-17ac-4142-8682-e7bf68e5abe5","system_id":"levelo_inurba_marseille","lat":43.29266,"lon":5.38445,"is_reserved":false,"is_disabled":false,"rental_uris":{"android":"levelo://app?vid=a0c0fda6-17ac-4142-8682-e7bf68e5abe5","ios":"levelo://app?vid=a0c0fda6-17ac-4142-8682-e7bf68e5abe5"},"vehicle_type_id":"4","last_reported":1687381609,"current_range_meters":31600,"station_id":"ce4bh692rcd13ifvqea0","pricing_plan_id":"free"},{"bike_id":"cf6e217a-318a-4656-bed9-192447dbf053","system_id":"levelo_inurba_marseille","lat":43.29262,"lon":5.38437,"is_reserved":false,"is_disabled":false,"rental_uris":{"android":"levelo://app?vid=cf6e217a-318a-4656-bed9-192447dbf053","ios":"levelo://app?vid=cf6e217a-318a-4656-bed9-192447dbf053"},"vehicle_type_id":"4","last_reported":1687381609,"current_range_meters":31200,"station_id":"ce4bh692rcd13ifvqea0","pricing_plan_id":"free"},{"bike_id":"51c94ac5-ad35-4d1f-a04a-86afb72fa89e","system_id":"levelo_inurba_marseille","lat":43.29265,"lon":5.38444,"is_reserved":false,"is_disabled":false,"rental_uris":{"android":"levelo://app?vid=51c94ac5-ad35-4d1f-a04a-86afb72fa89e","ios":"levelo://app?vid=51c94ac5-ad35-4d1f-a04a-86afb72fa89e"},"vehicle_type_id":"4","last_reported":1687381609,"current_range_meters":23200,"station_id":"ce4bh692rcd13ifvqea0","pricing_plan_id":"free"},{"bike_id":"97832149-5705-4cd5-965a-a809c9d5b3c9","system_id":"levelo_inurba_marseille","lat":43.292609,"lon":5.384372,"is_reserved":false,"is_disabled":false,"rental_uris":{"android":"levelo://app?vid=97832149-5705-4cd5-965a-a809c9d5b3c9","ios":"levelo://app?vid=97832149-5705-4cd5-965a-a809c9d5b3c9"},"vehicle_type_id":"4","last_reported":1687381609,"current_range_meters":31200,"station_id":"ce4bh692rcd13ifvqea0","pricing_plan_id":"free"},{"bike_id":"a377c4eb-4c03-41d0-8422-734a5417ce69","system_id":"levelo_inurba_marseille","lat":43.29261,"lon":5.384376,"is_reserved":false,"is_disabled":false,"rental_uris":{"android":"levelo://app?vid=a377c4eb-4c03-41d0-8422-734a5417ce69","ios":"levelo://app?vid=a377c4eb-4c03-41d0-8422-734a5417ce69"},"vehicle_type_id":"4","last_reported":1687381609,"current_range_meters":18000,"station_id":"ce4bh692rcd13ifvqea0","pricing_plan_id":"free"},{"bike_id":"b369a2b4-c8f6-4cee-b117-b7fd1b804f87","system_id":"levelo_inurba_marseille","lat":43.29267,"lon":5.38451,"is_reserved":false,"is_disabled":false,"rental_uris":{"android":"levelo://app?vid=b369a2b4-c8f6-4cee-b117-b7fd1b804f87","ios":"levelo://app?vid=b369a2b4-c8f6-4cee-b117-b7fd1b804f87"},"vehicle_type_id":"4","last_reported":1687381609,"current_range_meters":8800,"station_id":"ce4bh692rcd13ifvqea0","pricing_plan_id":"free"},{"bike_id":"0d99b6ac-c0de-4800-8708-aefea650cd3e","system_id":"levelo_inurba_marseille","lat":43.292593,"lon":5.384344,"is_reserved":false,"is_disabled":false,"rental_uris":{"android":"levelo://app?vid=0d99b6ac-c0de-4800-8708-aefea650cd3e","ios":"levelo://app?vid=0d99b6ac-c0de-4800-8708-aefea650cd3e"},"vehicle_type_id":"4","last_reported":1687381609,"current_range_meters":11600,"station_id":"ce4bh692rcd13ifvqea0","pricing_plan_id":"free"},{"bike_id":"8e18da6a-0b90-4a2f-80c0-ffb63147bad0","system_id":"levelo_inurba_marseille","lat":43.292644,"lon":5.384257,"is_reserved":false,"is_disabled":false,"rental_uris":{"android":"levelo://app?vid=8e18da6a-0b90-4a2f-80c0-ffb63147bad0","ios":"levelo://app?vid=8e18da6a-0b90-4a2f-80c0-ffb63147bad0"},"vehicle_type_id":"4","last_reported":1687381609,"current_range_meters":0,"station_id":"ce4bh692rcd13ifvqea0","pricing_plan_id":"free"},{"bike_id":"c4a01258-d28c-4ec8-a5c0-5185a9110f39","system_id":"levelo_inurba_marseille","lat":43.29261,"lon":5.38439,"is_reserved":false,"is_disabled":false,"rental_uris":{"android":"levelo://app?vid=c4a01258-d28c-4ec8-a5c0-5185a9110f39","ios":"levelo://app?vid=c4a01258-d28c-4ec8-a5c0-5185a9110f39"},"vehicle_type_id":"4","last_reported":1687381609,"current_range_meters":11200,"station_id":"ce4bh692rcd13ifvqea0","pricing_plan_id":"free"},{"bike_id":"cb380ef2-11e7-48f7-b652-7c36d461954a","system_id":"levelo_inurba_marseille","lat":43.292605,"lon":5.384384,"is_reserved":false,"is_disabled":false,"rental_uris":{"android":"levelo://app?vid=cb380ef2-11e7-48f7-b652-7c36d461954a","ios":"levelo://app?vid=cb380ef2-11e7-48f7-b652-7c36d461954a"},"vehicle_type_id":"4","last_reported":1687381609,"current_range_meters":10400,"station_id":"ce4bh692rcd13ifvqea0","pricing_plan_id":"free"},{"bike_id":"90f3de37-aa8b-4550-b80d-2014e28238f4","system_id":"levelo_inurba_marseille","lat":43.292609,"lon":5.384395,"is_reserved":false,"is_disabled":false,"rental_uris":{"android":"levelo://app?vid=90f3de37-aa8b-4550-b80d-2014e28238f4","ios":"levelo://app?vid=90f3de37-aa8b-4550-b80d-2014e28238f4"},"vehicle_type_id":"4","last_reported":1687381609,"current_range_meters":30800,"station_id":"","pricing_plan_id":"free"},{"bike_id":"109df3f3-164e-4fc7-8886-65748a5bf27e","system_id":"levelo_inurba_marseille","lat":43.292644,"lon":5.384257,"is_reserved":false,"is_disabled":false,"rental_uris":{"android":"levelo://app?vid=109df3f3-164e-4fc7-8886-65748a5bf27e","ios":"levelo://app?vid=109df3f3-164e-4fc7-8886-65748a5bf27e"},"vehicle_type_id":"4","last_reported":1687381609,"current_range_meters":31200,"station_id":"ce4bh692rcd13ifvqea0","pricing_plan_id":"free"},{"bike_id":"fc488e7e-6f76-4707-bf83-66c59215fd0f","system_id":"levelo_inurba_marseille","lat":43.292597,"lon":5.384393,"is_reserved":false,"is_disabled":false,"rental_uris":{"android":"levelo://app?vid=fc488e7e-6f76-4707-bf83-66c59215fd0f","ios":"levelo://app?vid=fc488e7e-6f76-4707-bf83-66c59215fd0f"},"vehicle_type_id":"4","last_reported":1687381609,"current_range_meters":26000,"station_id":"ce4bh692rcd13ifvqea0","pricing_plan_id":"free"},{"bike_id":"901b023e-9aff-49e7-8cd5-710887367712","system_id":"levelo_inurba_marseille","lat":43.292644,"lon":5.384257,"is_reserved":false,"is_disabled":false,"rental_uris":{"android":"levelo://app?vid=901b023e-9aff-49e7-8cd5-710887367712","ios":"levelo://app?vid=901b023e-9aff-49e7-8cd5-710887367712"},"vehicle_type_id":"4","last_reported":1687381609,"current_range_meters":28800,"station_id":"ce4bh692rcd13ifvqea0","pricing_plan_id":"free"},{"bike_id":"4251fb05-98df-4c61-8945-a5dc7fa0e10b","system_id":"levelo_inurba_marseille","lat":43.29259,"lon":5.38442,"is_reserved":false,"is_disabled":false,"rental_uris":{"android":"levelo://app?vid=4251fb05-98df-4c61-8945-a5dc7fa0e10b","ios":"levelo://app?vid=4251fb05-98df-4c61-8945-a5dc7fa0e10b"},"vehicle_type_id":"4","last_reported":1687381609,"current_range_meters":22400,"station_id":"ce4bh692rcd13ifvqea0","pricing_plan_id":"free"},{"bike_id":"9fb4aa87-a12a-4757-bbf8-2596f546a0af","system_id":"levelo_inurba_marseille","lat":43.29259,"lon":5.38443,"is_reserved":false,"is_disabled":false,"rental_uris":{"android":"levelo://app?vid=9fb4aa87-a12a-4757-bbf8-2596f546a0af","ios":"levelo://app?vid=9fb4aa87-a12a-4757-bbf8-2596f546a0af"},"vehicle_type_id":"4","last_reported":1687381609,"current_range_meters":25200,"station_id":"ce4bh692rcd13ifvqea0","pricing_plan_id":"free"},{"bike_id":"8079a630-d4ae-4a66-871f-44130e577e34","system_id":"levelo_inurba_marseille","lat":43.29258,"lon":5.38444,"is_reserved":false,"is_disabled":false,"rental_uris":{"android":"levelo://app?vid=8079a630-d4ae-4a66-871f-44130e577e34","ios":"levelo://app?vid=8079a630-d4ae-4a66-871f-44130e577e34"},"vehicle_type_id":"4","last_reported":1687381609,"current_range_meters":31200,"station_id":"ce4bh692rcd13ifvqea0","pricing_plan_id":"free"},{"bike_id":"bf99b357-1923-4700-b7f6-4cadffdcae65","system_id":"levelo_inurba_marseille","lat":43.29258,"lon":5.38444,"is_reserved":false,"is_disabled":false,"rental_uris":{"android":"levelo://app?vid=bf99b357-1923-4700-b7f6-4cadffdcae65","ios":"levelo://app?vid=bf99b357-1923-4700-b7f6-4cadffdcae65"},"vehicle_type_id":"4","last_reported":1687381609,"current_range_meters":31200,"station_id":"ce4bh692rcd13ifvqea0","pricing_plan_id":"free"},{"bike_id":"810ccb79-f33e-49c8-859b-4346b58b24e8","system_id":"levelo_inurba_marseille","lat":43.29256,"lon":5.38443,"is_reserved":false,"is_disabled":false,"rental_uris":{"android":"levelo://app?vid=810ccb79-f33e-49c8-859b-4346b58b24e8","ios":"levelo://app?vid=810ccb79-f33e-49c8-859b-4346b58b24e8"},"vehicle_type_id":"4","last_reported":1687381609,"current_range_meters":21200,"station_id":"ce4bh692rcd13ifvqea0","pricing_plan_id":"free"},{"bike_id":"c0ca2879-9e77-4315-b57e-b7057524210d","system_id":"levelo_inurba_marseille","lat":43.292644,"lon":5.384257,"is_reserved":false,"is_disabled":false,"rental_uris":{"android":"levelo://app?vid=c0ca2879-9e77-4315-b57e-b7057524210d","ios":"levelo://app?vid=c0ca2879-9e77-4315-b57e-b7057524210d"},"vehicle_type_id":"4","last_reported":1687381609,"current_range_meters":22400,"station_id":"ce4bh692rcd13ifvqea0","pricing_plan_id":"free"},{"bike_id":"9ed30cc0-1b30-4094-be12-6f6f0a637ae9","system_id":"levelo_inurba_marseille","lat":43.29248,"lon":5.38436,"is_reserved":false,"is_disabled":false,"rental_uris":{"android":"levelo://app?vid=9ed30cc0-1b30-4094-be12-6f6f0a637ae9","ios":"levelo://app?vid=9ed30cc0-1b30-4094-be12-6f6f0a637ae9"},"vehicle_type_id":"4","last_reported":1687381609,"current_range_meters":31200,"station_id":"ce4bh692rcd13ifvqea0","pricing_plan_id":"free"},{"bike_id":"59d125af-16ef-419c-b0b1-36a03e1202e7","system_id":"levelo_inurba_marseille","lat":43.3304,"lon":5.38918,"is_reserved":false,"is_disabled":false,"rental_uris":{"android":"levelo://app?vid=59d125af-16ef-419c-b0b1-36a03e1202e7","ios":"levelo://app?vid=59d125af-16ef-419c-b0b1-36a03e1202e7"},"vehicle_type_id":"4","last_reported":1687381609,"current_range_meters":4400,"station_id":"ce4bhr92rcd13ifvqhrg","pricing_plan_id":"free"},{"bike_id":"64d533f9-d91b-46e3-b745-e7bd18ed4968","system_id":"levelo_inurba_marseille","lat":43.33043,"lon":5.3892,"is_reserved":false,"is_disabled":false,"rental_uris":{"android":"levelo://app?vid=64d533f9-d91b-46e3-b745-e7bd18ed4968","ios":"levelo://app?vid=64d533f9-d91b-46e3-b745-e7bd18ed4968"},"vehicle_type_id":"4","last_reported":1687381609,"current_range_meters":26000,"station_id":"ce4bhr92rcd13ifvqhrg","pricing_plan_id":"free"},{"bike_id":"e1a45b0a-bebd-4c51-9017-f46b52c8e6b7","system_id":"levelo_inurba_marseille","lat":43.33043,"lon":5.38922,"is_reserved":false,"is_disabled":false,"rental_uris":{"android":"levelo://app?vid=e1a45b0a-bebd-4c51-9017-f46b52c8e6b7","ios":"levelo://app?vid=e1a45b0a-bebd-4c51-9017-f46b52c8e6b7"},"vehicle_type_id":"4","last_reported":1687381609,"current_range_meters":0,"station_id":"ce4bhr92rcd13ifvqhrg","pricing_plan_id":"free"},{"bike_id":"82d6893e-eccb-4c72-a658-fa65b60e4f4a","system_id":"levelo_inurba_marseille","lat":43.33044,"lon":5.38921,"is_reserved":false,"is_disabled":false,"rental_uris":{"android":"levelo://app?vid=82d6893e-eccb-4c72-a658-fa65b60e4f4a","ios":"levelo://app?vid=82d6893e-eccb-4c72-a658-fa65b60e4f4a"},"vehicle_type_id":"4","last_reported":1687381609,"current_range_meters":0,"station_id":"ce4bhr92rcd13ifvqhrg","pricing_plan_id":"free"},{"bike_id":"eecd2494-173f-4b51-b6e5-fd02e527f284","system_id":"levelo_inurba_marseille","lat":43.290995,"lon":5.381361,"is_reserved":false,"is_disabled":false,"rental_uris":{"android":"levelo://app?vid=eecd2494-173f-4b51-b6e5-fd02e527f284","ios":"levelo://app?vid=eecd2494-173f-4b51-b6e5-fd02e527f284"},"vehicle_type_id":"4","last_reported":1687381609,"current_range_meters":4400,"station_id":"ce4bh512rcd13ifvqe2g","pricing_plan_id":"free"},{"bike_id":"d90efbf6-fe61-4788-97a6-35f799c750b6","system_id":"levelo_inurba_marseille","lat":43.290995,"lon":5.381361,"is_reserved":false,"is_disabled":false,"rental_uris":{"android":"levelo://app?vid=d90efbf6-fe61-4788-97a6-35f799c750b6","ios":"levelo://app?vid=d90efbf6-fe61-4788-97a6-35f799c750b6"},"vehicle_type_id":"4","last_reported":1687381609,"current_range_meters":400,"station_id":"ce4bh512rcd13ifvqe2g","pricing_plan_id":"free"},{"bike_id":"9cbdc011-9987-4b80-b84f-88772887a3b5","system_id":"levelo_inurba_marseille","lat":43.290995,"lon":5.381361,"is_reserved":false,"is_disabled":false,"rental_uris":{"android":"levelo://app?vid=9cbdc011-9987-4b80-b84f-88772887a3b5","ios":"levelo://app?vid=9cbdc011-9987-4b80-b84f-88772887a3b5"},"vehicle_type_id":"4","last_reported":1687381609,"current_range_meters":0,"station_id":"ce4bh512rcd13ifvqe2g","pricing_plan_id":"free"},{"bike_id":"ddf1e919-7d0d-4c59-8da5-79b6ddad8a23","system_id":"levelo_inurba_marseille","lat":43.297815,"lon":5.393548,"is_reserved":false,"is_disabled":false,"rental_uris":{"android":"levelo://app?vid=ddf1e919-7d0d-4c59-8da5-79b6ddad8a23","ios":"levelo://app?vid=ddf1e919-7d0d-4c59-8da5-79b6ddad8a23"},"vehicle_type_id":"4","last_reported":1687381609,"current_range_meters":6000,"station_id":"chh1huq6cuj3fo74tm60","pricing_plan_id":"free"},{"bike_id":"a4276458-af63-4124-95f4-05b6ff613413","system_id":"levelo_inurba_marseille","lat":43.289743,"lon":5.378304,"is_reserved":false,"is_disabled":false,"rental_uris":{"android":"levelo://app?vid=a4276458-af63-4124-95f4-05b6ff613413","ios":"levelo://app?vid=a4276458-af63-4124-95f4-05b6ff613413"},"vehicle_type_id":"4","last_reported":1687381609,"current_range_meters":22800,"station_id":"ce4bh9p2rcd13ifvqed0","pricing_plan_id":"free"},{"bike_id":"7a239c50-a32b-4980-96d2-37e95414f654","system_id":"levelo_inurba_marseille","lat":43.295169,"lon":5.390426,"is_reserved":false,"is_disabled":false,"rental_uris":{"android":"levelo://app?vid=7a239c50-a32b-4980-96d2-37e95414f654","ios":"levelo://app?vid=7a239c50-a32b-4980-96d2-37e95414f654"},"vehicle_type_id":"4","last_reported":1687381609,"current_range_meters":0,"station_id":"ce4bh3p2rcd13ifvqdp0","pricing_plan_id":"free"},{"bike_id":"2bae6adf-ba5a-49d2-9a4e-f594fc6656bc","system_id":"levelo_inurba_marseille","lat":43.295169,"lon":5.390426,"is_reserved":false,"is_disabled":false,"rental_uris":{"android":"levelo://app?vid=2bae6adf-ba5a-49d2-9a4e-f594fc6656bc","ios":"levelo://app?vid=2bae6adf-ba5a-49d2-9a4e-f594fc6656bc"},"vehicle_type_id":"4","last_reported":1687381609,"current_range_meters":14800,"station_id":"ce4bh3p2rcd13ifvqdp0","pricing_plan_id":"free"},{"bike_id":"e44b28cd-d0cb-4f3a-9b71-1db81deeb6e6","system_id":"levelo_inurba_marseille","lat":43.297815,"lon":5.393548,"is_reserved":false,"is_disabled":false,"rental_uris":{"android":"levelo://app?vid=e44b28cd-d0cb-4f3a-9b71-1db81deeb6e6","ios":"levelo://app?vid=e44b28cd-d0cb-4f3a-9b71-1db81deeb6e6"},"vehicle_type_id":"4","last_reported":1687381609,"current_range_meters":4800,"station_id":"chh1huq6cuj3fo74tm60","pricing_plan_id":"free"},{"bike_id":"f1de422c-b195-4920-8931-6151620bc1cc","system_id":"levelo_inurba_marseille","lat":43.295169,"lon":5.390426,"is_reserved":false,"is_disabled":false,"rental_uris":{"android":"levelo://app?vid=f1de422c-b195-4920-8931-6151620bc1cc","ios":"levelo://app?vid=f1de422c-b195-4920-8931-6151620bc1cc"},"vehicle_type_id":"4","last_reported":1687381609,"current_range_meters":31200,"station_id":"ce4bh3p2rcd13ifvqdp0","pricing_plan_id":"free"},{"bike_id":"14cf9a3d-ae7e-420d-bc4a-1d3d444c2deb","system_id":"levelo_inurba_marseille","lat":43.29512,"lon":5.3903,"is_reserved":false,"is_disabled":false,"rental_uris":{"android":"levelo://app?vid=14cf9a3d-ae7e-420d-bc4a-1d3d444c2deb","ios":"levelo://app?vid=14cf9a3d-ae7e-420d-bc4a-1d3d444c2deb"},"vehicle_type_id":"4","last_reported":1687381609,"current_range_meters":16800,"station_id":"ce4bh3p2rcd13ifvqdp0","pricing_plan_id":"free"},{"bike_id":"91e48ac0-582c-43ad-86a1-c147fe8d1c1c","system_id":"levelo_inurba_marseille","lat":43.29514,"lon":5.39035,"is_reserved":false,"is_disabled":false,"rental_uris":{"android":"levelo://app?vid=91e48ac0-582c-43ad-86a1-c147fe8d1c1c","ios":"levelo://app?vid=91e48ac0-582c-43ad-86a1-c147fe8d1c1c"},"vehicle_type_id":"4","last_reported":1687381609,"current_range_meters":4800,"station_id":"ce4bh3p2rcd13ifvqdp0","pricing_plan_id":"free"},{"bike_id":"9bd41c10-65fa-4118-9f56-322fbafa16ea","system_id":"levelo_inurba_marseille","lat":43.289741,"lon":5.378306,"is_reserved":false,"is_disabled":false,"rental_uris":{"android":"levelo://app?vid=9bd41c10-65fa-4118-9f56-322fbafa16ea","ios":"levelo://app?vid=9bd41c10-65fa-4118-9f56-322fbafa16ea"},"vehicle_type_id":"4","last_reported":1687381609,"current_range_meters":24800,"station_id":"ce4bh9p2rcd13ifvqed0","pricing_plan_id":"free"},{"bike_id":"54d1de27-0ed9-43da-8fd1-13cf999cfd37","system_id":"levelo_inurba_marseille","lat":43.295169,"lon":5.390426,"is_reserved":false,"is_disabled":false,"rental_uris":{"android":"levelo://app?vid=54d1de27-0ed9-43da-8fd1-13cf999cfd37","ios":"levelo://app?vid=54d1de27-0ed9-43da-8fd1-13cf999cfd37"},"vehicle_type_id":"4","last_reported":1687381609,"current_range_meters":22000,"station_id":"ce4bh3p2rcd13ifvqdp0","pricing_plan_id":"free"},{"bike_id":"150a39ec-460c-4ed6-bb00-a2ed5ca75f8f","system_id":"levelo_inurba_marseille","lat":43.2901,"lon":5.381269,"is_reserved":false,"is_disabled":false,"rental_uris":{"android":"levelo://app?vid=150a39ec-460c-4ed6-bb00-a2ed5ca75f8f","ios":"levelo://app?vid=150a39ec-460c-4ed6-bb00-a2ed5ca75f8f"},"vehicle_type_id":"4","last_reported":1687381609,"current_range_meters":4400,"station_id":"ce4bh4p2rcd13ifvqe1g","pricing_plan_id":"free"},{"bike_id":"908d2191-4668-4ebd-b32e-e90db37deecf","system_id":"levelo_inurba_marseille","lat":43.28859,"lon":5.35862,"is_reserved":false,"is_disabled":false,"rental_uris":{"android":"levelo://app?vid=908d2191-4668-4ebd-b32e-e90db37deecf","ios":"levelo://app?vid=908d2191-4668-4ebd-b32e-e90db37deecf"},"vehicle_type_id":"4","last_reported":1687381609,"current_range_meters":9600,"station_id":"ce4bhb12rcd13ifvqem0","pricing_plan_id":"free"},{"bike_id":"449ef148-30cd-442e-a082-b1e22e7b3327","system_id":"levelo_inurba_marseille","lat":43.29158,"lon":5.38497,"is_reserved":false,"is_disabled":false,"rental_uris":{"android":"levelo://app?vid=449ef148-30cd-442e-a082-b1e22e7b3327","ios":"levelo://app?vid=449ef148-30cd-442e-a082-b1e22e7b3327"},"vehicle_type_id":"4","last_reported":1687381609,"current_range_meters":13200,"station_id":"","pricing_plan_id":"free"},{"bike_id":"73318398-6110-4ccd-87ca-6a4f4f286501","system_id":"levelo_inurba_marseille","lat":43.28856,"lon":5.358371,"is_reserved":false,"is_disabled":false,"rental_uris":{"android":"levelo://app?vid=73318398-6110-4ccd-87ca-6a4f4f286501","ios":"levelo://app?vid=73318398-6110-4ccd-87ca-6a4f4f286501"},"vehicle_type_id":"4","last_reported":1687381609,"current_range_meters":28000,"station_id":"ce4bhb12rcd13ifvqem0","pricing_plan_id":"free"},{"bike_id":"e1c8fea9-5836-497f-a172-dd77c3bf9251","system_id":"levelo_inurba_marseille","lat":43.28856,"lon":5.358371,"is_reserved":false,"is_disabled":false,"rental_uris":{"android":"levelo://app?vid=e1c8fea9-5836-497f-a172-dd77c3bf9251","ios":"levelo://app?vid=e1c8fea9-5836-497f-a172-dd77c3bf9251"},"vehicle_type_id":"4","last_reported":1687381609,"current_range_meters":2800,"station_id":"ce4bhb12rcd13ifvqem0","pricing_plan_id":"free"},{"bike_id":"9a960567-a9e3-4f2a-9c59-16b3aca55b91","system_id":"levelo_inurba_marseille","lat":43.28856,"lon":5.358371,"is_reserved":false,"is_disabled":false,"rental_uris":{"android":"levelo://app?vid=9a960567-a9e3-4f2a-9c59-16b3aca55b91","ios":"levelo://app?vid=9a960567-a9e3-4f2a-9c59-16b3aca55b91"},"vehicle_type_id":"4","last_reported":1687381609,"current_range_meters":23600,"station_id":"ce4bhb12rcd13ifvqem0","pricing_plan_id":"free"},{"bike_id":"7e291ccf-2acf-46be-8aff-bba95cbfe0b1","system_id":"levelo_inurba_marseille","lat":43.28853,"lon":5.35845,"is_reserved":false,"is_disabled":false,"rental_uris":{"android":"levelo://app?vid=7e291ccf-2acf-46be-8aff-bba95cbfe0b1","ios":"levelo://app?vid=7e291ccf-2acf-46be-8aff-bba95cbfe0b1"},"vehicle_type_id":"4","last_reported":1687381609,"current_range_meters":3200,"station_id":"ce4bhb12rcd13ifvqem0","pricing_plan_id":"free"},{"bike_id":"acd926f6-38d2-4eb2-86fa-d1b2877955ab","system_id":"levelo_inurba_marseille","lat":43.28856,"lon":5.358371,"is_reserved":false,"is_disabled":false,"rental_uris":{"android":"levelo://app?vid=acd926f6-38d2-4eb2-86fa-d1b2877955ab","ios":"levelo://app?vid=acd926f6-38d2-4eb2-86fa-d1b2877955ab"},"vehicle_type_id":"4","last_reported":1687381609,"current_range_meters":26400,"station_id":"ce4bhb12rcd13ifvqem0","pricing_plan_id":"free"},{"bike_id":"920782a2-8a9d-4d1c-af2c-1049d257077f","system_id":"levelo_inurba_marseille","lat":43.28848,"lon":5.35848,"is_reserved":false,"is_disabled":false,"rental_uris":{"android":"levelo://app?vid=920782a2-8a9d-4d1c-af2c-1049d257077f","ios":"levelo://app?vid=920782a2-8a9d-4d1c-af2c-1049d257077f"},"vehicle_type_id":"4","last_reported":1687381609,"current_range_meters":13200,"station_id":"ce4bhb12rcd13ifvqem0","pricing_plan_id":"free"},{"bike_id":"b143243a-a885-42f6-8e50-f24606ee1f79","system_id":"levelo_inurba_marseille","lat":43.29327,"lon":5.38886,"is_reserved":false,"is_disabled":false,"rental_uris":{"android":"levelo://app?vid=b143243a-a885-42f6-8e50-f24606ee1f79","ios":"levelo://app?vid=b143243a-a885-42f6-8e50-f24606ee1f79"},"vehicle_type_id":"4","last_reported":1687381609,"current_range_meters":7200,"station_id":"","pricing_plan_id":"free"},{"bike_id":"d0b53b0a-ddfb-4bc3-9504-b18f650193e1","system_id":"levelo_inurba_marseille","lat":43.309371,"lon":5.401449,"is_reserved":false,"is_disabled":false,"rental_uris":{"android":"levelo://app?vid=d0b53b0a-ddfb-4bc3-9504-b18f650193e1","ios":"levelo://app?vid=d0b53b0a-ddfb-4bc3-9504-b18f650193e1"},"vehicle_type_id":"4","last_reported":1687381609,"current_range_meters":400,"station_id":"ce4bgvp2rcd13ifvqct0","pricing_plan_id":"free"},{"bike_id":"1b7eae18-e0f4-4dad-b436-bd2d92ae7318","system_id":"levelo_inurba_marseille","lat":43.306412,"lon":5.401035,"is_reserved":false,"is_disabled":false,"rental_uris":{"android":"levelo://app?vid=1b7eae18-e0f4-4dad-b436-bd2d92ae7318","ios":"levelo://app?vid=1b7eae18-e0f4-4dad-b436-bd2d92ae7318"},"vehicle_type_id":"4","last_reported":1687381609,"current_range_meters":11600,"station_id":"ce4bh112rcd13ifvqda0","pricing_plan_id":"free"},{"bike_id":"e98fd470-ba5c-4335-83c7-0d48f777407a","system_id":"levelo_inurba_marseille","lat":43.33752,"lon":5.37455,"is_reserved":false,"is_disabled":false,"rental_uris":{"android":"levelo://app?vid=e98fd470-ba5c-4335-83c7-0d48f777407a","ios":"levelo://app?vid=e98fd470-ba5c-4335-83c7-0d48f777407a"},"vehicle_type_id":"4","last_reported":1687381609,"current_range_meters":30000,"station_id":"","pricing_plan_id":"free"},{"bike_id":"b0bd3bcb-bd35-4f75-8285-8f528f09b8d5","system_id":"levelo_inurba_marseille","lat":43.337575,"lon":5.374489,"is_reserved":false,"is_disabled":false,"rental_uris":{"android":"levelo://app?vid=b0bd3bcb-bd35-4f75-8285-8f528f09b8d5","ios":"levelo://app?vid=b0bd3bcb-bd35-4f75-8285-8f528f09b8d5"},"vehicle_type_id":"4","last_reported":1687381609,"current_range_meters":18800,"station_id":"","pricing_plan_id":"free"},{"bike_id":"7bd51542-57bb-4656-87c8-cbc266ce0ded","system_id":"levelo_inurba_marseille","lat":43.28856,"lon":5.358371,"is_reserved":false,"is_disabled":false,"rental_uris":{"android":"levelo://app?vid=7bd51542-57bb-4656-87c8-cbc266ce0ded","ios":"levelo://app?vid=7bd51542-57bb-4656-87c8-cbc266ce0ded"},"vehicle_type_id":"4","last_reported":1687381609,"current_range_meters":22000,"station_id":"ce4bhb12rcd13ifvqem0","pricing_plan_id":"free"},{"bike_id":"960bc347-24ea-490f-93d4-ea52089baa22","system_id":"levelo_inurba_marseille","lat":43.337758,"lon":5.374363,"is_reserved":false,"is_disabled":false,"rental_uris":{"android":"levelo://app?vid=960bc347-24ea-490f-93d4-ea52089baa22","ios":"levelo://app?vid=960bc347-24ea-490f-93d4-ea52089baa22"},"vehicle_type_id":"4","last_reported":1687381609,"current_range_meters":31200,"station_id":"","pricing_plan_id":"free"},{"bike_id":"8e85f58c-0496-4f2a-929a-4209bbea1fca","system_id":"levelo_inurba_marseille","lat":43.306412,"lon":5.401035,"is_reserved":false,"is_disabled":false,"rental_uris":{"android":"levelo://app?vid=8e85f58c-0496-4f2a-929a-4209bbea1fca","ios":"levelo://app?vid=8e85f58c-0496-4f2a-929a-4209bbea1fca"},"vehicle_type_id":"4","last_reported":1687381609,"current_range_meters":400,"station_id":"ce4bh112rcd13ifvqda0","pricing_plan_id":"free"},{"bike_id":"818fb301-a18d-4a1e-a85c-556dc1d2eb1f","system_id":"levelo_inurba_marseille","lat":43.301117,"lon":5.398795,"is_reserved":false,"is_disabled":false,"rental_uris":{"android":"levelo://app?vid=818fb301-a18d-4a1e-a85c-556dc1d2eb1f","ios":"levelo://app?vid=818fb301-a18d-4a1e-a85c-556dc1d2eb1f"},"vehicle_type_id":"4","last_reported":1687381609,"current_range_meters":23600,"station_id":"ce4bh0h2rcd13ifvqd40","pricing_plan_id":"free"},{"bike_id":"40f18ab3-de4f-4fe7-8e6b-a1785a6f3ad8","system_id":"levelo_inurba_marseille","lat":43.28709,"lon":5.37395,"is_reserved":false,"is_disabled":false,"rental_uris":{"android":"levelo://app?vid=40f18ab3-de4f-4fe7-8e6b-a1785a6f3ad8","ios":"levelo://app?vid=40f18ab3-de4f-4fe7-8e6b-a1785a6f3ad8"},"vehicle_type_id":"4","last_reported":1687381609,"current_range_meters":21600,"station_id":"ce4bh3p2rcd13ifvqdq0","pricing_plan_id":"free"},{"bike_id":"f7d620f4-c89b-4784-9fad-80449c08b470","system_id":"levelo_inurba_marseille","lat":43.286591,"lon":5.363346,"is_reserved":false,"is_disabled":false,"rental_uris":{"android":"levelo://app?vid=f7d620f4-c89b-4784-9fad-80449c08b470","ios":"levelo://app?vid=f7d620f4-c89b-4784-9fad-80449c08b470"},"vehicle_type_id":"4","last_reported":1687381609,"current_range_meters":17600,"station_id":"ce4bhah2rcd13ifvqej0","pricing_plan_id":"free"},{"bike_id":"5ac9d796-b27a-4447-a4d6-792edb99c64a","system_id":"levelo_inurba_marseille","lat":43.286591,"lon":5.363346,"is_reserved":false,"is_disabled":false,"rental_uris":{"android":"levelo://app?vid=5ac9d796-b27a-4447-a4d6-792edb99c64a","ios":"levelo://app?vid=5ac9d796-b27a-4447-a4d6-792edb99c64a"},"vehicle_type_id":"4","last_reported":1687381609,"current_range_meters":9600,"station_id":"ce4bhah2rcd13ifvqej0","pricing_plan_id":"free"},{"bike_id":"7583b83a-fd6f-49bc-9afa-75c5f81f258e","system_id":"levelo_inurba_marseille","lat":43.286961,"lon":5.373785,"is_reserved":false,"is_disabled":false,"rental_uris":{"android":"levelo://app?vid=7583b83a-fd6f-49bc-9afa-75c5f81f258e","ios":"levelo://app?vid=7583b83a-fd6f-49bc-9afa-75c5f81f258e"},"vehicle_type_id":"4","last_reported":1687381609,"current_range_meters":11600,"station_id":"ce4bh3p2rcd13ifvqdq0","pricing_plan_id":"free"},{"bike_id":"3f1a31b1-69e1-48dd-8f3c-f6596435df83","system_id":"levelo_inurba_marseille","lat":43.295196,"lon":5.39397,"is_reserved":false,"is_disabled":false,"rental_uris":{"android":"levelo://app?vid=3f1a31b1-69e1-48dd-8f3c-f6596435df83","ios":"levelo://app?vid=3f1a31b1-69e1-48dd-8f3c-f6596435df83"},"vehicle_type_id":"4","last_reported":1687381609,"current_range_meters":13200,"station_id":"ce4bh292rcd13ifvqdf0","pricing_plan_id":"free"},{"bike_id":"7f8eb3ca-69ee-44dd-b21a-e5b6044780bb","system_id":"levelo_inurba_marseille","lat":43.290345,"lon":5.38646,"is_reserved":false,"is_disabled":false,"rental_uris":{"android":"levelo://app?vid=7f8eb3ca-69ee-44dd-b21a-e5b6044780bb","ios":"levelo://app?vid=7f8eb3ca-69ee-44dd-b21a-e5b6044780bb"},"vehicle_type_id":"4","last_reported":1687381609,"current_range_meters":0,"station_id":"ce4bh4p2rcd13ifvqe0g","pricing_plan_id":"free"},{"bike_id":"de3b8c3a-e169-42b2-9101-4e7405a73ecb","system_id":"levelo_inurba_marseille","lat":43.29035,"lon":5.38644,"is_reserved":false,"is_disabled":false,"rental_uris":{"android":"levelo://app?vid=de3b8c3a-e169-42b2-9101-4e7405a73ecb","ios":"levelo://app?vid=de3b8c3a-e169-42b2-9101-4e7405a73ecb"},"vehicle_type_id":"4","last_reported":1687381609,"current_range_meters":12400,"station_id":"ce4bh4p2rcd13ifvqe0g","pricing_plan_id":"free"},{"bike_id":"3f3ed052-fca4-4e1d-8dd0-2d6e213c353d","system_id":"levelo_inurba_marseille","lat":43.29027,"lon":5.38628,"is_reserved":false,"is_disabled":false,"rental_uris":{"android":"levelo://app?vid=3f3ed052-fca4-4e1d-8dd0-2d6e213c353d","ios":"levelo://app?vid=3f3ed052-fca4-4e1d-8dd0-2d6e213c353d"},"vehicle_type_id":"4","last_reported":1687381609,"current_range_meters":2800,"station_id":"ce4bh4p2rcd13ifvqe0g","pricing_plan_id":"free"},{"bike_id":"63b07e24-ee35-4860-bd6c-4d82912d791f","system_id":"levelo_inurba_marseille","lat":43.290345,"lon":5.38646,"is_reserved":false,"is_disabled":false,"rental_uris":{"android":"levelo://app?vid=63b07e24-ee35-4860-bd6c-4d82912d791f","ios":"levelo://app?vid=63b07e24-ee35-4860-bd6c-4d82912d791f"},"vehicle_type_id":"4","last_reported":1687381609,"current_range_meters":14800,"station_id":"ce4bh4p2rcd13ifvqe0g","pricing_plan_id":"free"},{"bike_id":"62061265-291b-4084-bf86-2aee4fb863e7","system_id":"levelo_inurba_marseille","lat":43.302759,"lon":5.400793,"is_reserved":false,"is_disabled":false,"rental_uris":{"android":"levelo://app?vid=62061265-291b-4084-bf86-2aee4fb863e7","ios":"levelo://app?vid=62061265-291b-4084-bf86-2aee4fb863e7"},"vehicle_type_id":"4","last_reported":1687381609,"current_range_meters":5200,"station_id":"ce4bgvh2rcd13ifvqcs0","pricing_plan_id":"free"},{"bike_id":"a8dd7c64-3ccd-41f4-a35e-c9e6cf2cbeb7","system_id":"levelo_inurba_marseille","lat":43.290345,"lon":5.38646,"is_reserved":false,"is_disabled":false,"rental_uris":{"android":"levelo://app?vid=a8dd7c64-3ccd-41f4-a35e-c9e6cf2cbeb7","ios":"levelo://app?vid=a8dd7c64-3ccd-41f4-a35e-c9e6cf2cbeb7"},"vehicle_type_id":"4","last_reported":1687381609,"current_range_meters":24800,"station_id":"ce4bh4p2rcd13ifvqe0g","pricing_plan_id":"free"},{"bike_id":"dad48eb2-18fe-47ca-a89f-2f7570d0df14","system_id":"levelo_inurba_marseille","lat":43.290345,"lon":5.38646,"is_reserved":false,"is_disabled":false,"rental_uris":{"android":"levelo://app?vid=dad48eb2-18fe-47ca-a89f-2f7570d0df14","ios":"levelo://app?vid=dad48eb2-18fe-47ca-a89f-2f7570d0df14"},"vehicle_type_id":"4","last_reported":1687381609,"current_range_meters":0,"station_id":"ce4bh4p2rcd13ifvqe0g","pricing_plan_id":"free"},{"bike_id":"604540ab-f43c-4820-be93-cb88e5d1f7b0","system_id":"levelo_inurba_marseille","lat":43.290345,"lon":5.38646,"is_reserved":false,"is_disabled":false,"rental_uris":{"android":"levelo://app?vid=604540ab-f43c-4820-be93-cb88e5d1f7b0","ios":"levelo://app?vid=604540ab-f43c-4820-be93-cb88e5d1f7b0"},"vehicle_type_id":"4","last_reported":1687381609,"current_range_meters":14400,"station_id":"ce4bh4p2rcd13ifvqe0g","pricing_plan_id":"free"},{"bike_id":"13ff0957-064f-4207-a9f7-471113d44d1f","system_id":"levelo_inurba_marseille","lat":43.286039,"lon":5.370679,"is_reserved":false,"is_disabled":false,"rental_uris":{"android":"levelo://app?vid=13ff0957-064f-4207-a9f7-471113d44d1f","ios":"levelo://app?vid=13ff0957-064f-4207-a9f7-471113d44d1f"},"vehicle_type_id":"4","last_reported":1687381609,"current_range_meters":16400,"station_id":"ce4bht12rcd13ifvqi60","pricing_plan_id":"free"},{"bike_id":"a69611a4-4427-48f1-8cf5-68e91a38613f","system_id":"levelo_inurba_marseille","lat":43.286132,"lon":5.370631,"is_reserved":false,"is_disabled":false,"rental_uris":{"android":"levelo://app?vid=a69611a4-4427-48f1-8cf5-68e91a38613f","ios":"levelo://app?vid=a69611a4-4427-48f1-8cf5-68e91a38613f"},"vehicle_type_id":"4","last_reported":1687381609,"current_range_meters":0,"station_id":"ce4bht12rcd13ifvqi60","pricing_plan_id":"free"},{"bike_id":"5942720f-225c-431f-9a4e-4e2cc97bb64d","system_id":"levelo_inurba_marseille","lat":43.286039,"lon":5.370679,"is_reserved":false,"is_disabled":false,"rental_uris":{"android":"levelo://app?vid=5942720f-225c-431f-9a4e-4e2cc97bb64d","ios":"levelo://app?vid=5942720f-225c-431f-9a4e-4e2cc97bb64d"},"vehicle_type_id":"4","last_reported":1687381609,"current_range_meters":29600,"station_id":"ce4bht12rcd13ifvqi60","pricing_plan_id":"free"},{"bike_id":"c6fc63c7-4026-4c2b-982f-8d63a8ba58d0","system_id":"levelo_inurba_marseille","lat":43.31493,"lon":5.40357,"is_reserved":false,"is_disabled":false,"rental_uris":{"android":"levelo://app?vid=c6fc63c7-4026-4c2b-982f-8d63a8ba58d0","ios":"levelo://app?vid=c6fc63c7-4026-4c2b-982f-8d63a8ba58d0"},"vehicle_type_id":"4","last_reported":1687381609,"current_range_meters":4000,"station_id":"","pricing_plan_id":"free"},{"bike_id":"2f435e18-b20f-4ced-a99d-40006f709dcc","system_id":"levelo_inurba_marseille","lat":43.28611,"lon":5.37072,"is_reserved":false,"is_disabled":false,"rental_uris":{"android":"levelo://app?vid=2f435e18-b20f-4ced-a99d-40006f709dcc","ios":"levelo://app?vid=2f435e18-b20f-4ced-a99d-40006f709dcc"},"vehicle_type_id":"4","last_reported":1687381609,"current_range_meters":31200,"station_id":"ce4bht12rcd13ifvqi60","pricing_plan_id":"free"},{"bike_id":"4ab8ba08-3880-4bb1-b404-c7e761c49448","system_id":"levelo_inurba_marseille","lat":43.28726,"lon":5.37932,"is_reserved":false,"is_disabled":false,"rental_uris":{"android":"levelo://app?vid=4ab8ba08-3880-4bb1-b404-c7e761c49448","ios":"levelo://app?vid=4ab8ba08-3880-4bb1-b404-c7e761c49448"},"vehicle_type_id":"4","last_reported":1687381609,"current_range_meters":4000,"station_id":"ce4bh9p2rcd13ifvqec0","pricing_plan_id":"free"},{"bike_id":"63903552-d28c-4298-b9b9-f280adc7862b","system_id":"levelo_inurba_marseille","lat":43.287185,"lon":5.379373,"is_reserved":false,"is_disabled":false,"rental_uris":{"android":"levelo://app?vid=63903552-d28c-4298-b9b9-f280adc7862b","ios":"levelo://app?vid=63903552-d28c-4298-b9b9-f280adc7862b"},"vehicle_type_id":"4","last_reported":1687381609,"current_range_meters":26000,"station_id":"ce4bh9p2rcd13ifvqec0","pricing_plan_id":"free"},{"bike_id":"7ee18311-e977-404c-8ef8-30ca3f65fcb8","system_id":"levelo_inurba_marseille","lat":43.287185,"lon":5.379373,"is_reserved":false,"is_disabled":false,"rental_uris":{"android":"levelo://app?vid=7ee18311-e977-404c-8ef8-30ca3f65fcb8","ios":"levelo://app?vid=7ee18311-e977-404c-8ef8-30ca3f65fcb8"},"vehicle_type_id":"4","last_reported":1687381609,"current_range_meters":4000,"station_id":"ce4bh9p2rcd13ifvqec0","pricing_plan_id":"free"},{"bike_id":"74d01747-b740-4984-9479-0ddde7109059","system_id":"levelo_inurba_marseille","lat":43.287185,"lon":5.379373,"is_reserved":false,"is_disabled":false,"rental_uris":{"android":"levelo://app?vid=74d01747-b740-4984-9479-0ddde7109059","ios":"levelo://app?vid=74d01747-b740-4984-9479-0ddde7109059"},"vehicle_type_id":"4","last_reported":1687381609,"current_range_meters":23600,"station_id":"ce4bh9p2rcd13ifvqec0","pricing_plan_id":"free"},{"bike_id":"53eb7bbf-71d0-4f7d-8edf-4a02b1736620","system_id":"levelo_inurba_marseille","lat":43.287185,"lon":5.379373,"is_reserved":false,"is_disabled":false,"rental_uris":{"android":"levelo://app?vid=53eb7bbf-71d0-4f7d-8edf-4a02b1736620","ios":"levelo://app?vid=53eb7bbf-71d0-4f7d-8edf-4a02b1736620"},"vehicle_type_id":"4","last_reported":1687381609,"current_range_meters":8400,"station_id":"ce4bh9p2rcd13ifvqec0","pricing_plan_id":"free"},{"bike_id":"943ff0f0-9828-488a-9159-75b59128a61a","system_id":"levelo_inurba_marseille","lat":43.291994,"lon":5.392907,"is_reserved":false,"is_disabled":false,"rental_uris":{"android":"levelo://app?vid=943ff0f0-9828-488a-9159-75b59128a61a","ios":"levelo://app?vid=943ff0f0-9828-488a-9159-75b59128a61a"},"vehicle_type_id":"4","last_reported":1687381609,"current_range_meters":26400,"station_id":"ce4bh192rcd13ifvqdd0","pricing_plan_id":"free"},{"bike_id":"ee8aca50-96bd-4651-891a-eb14a4e27700","system_id":"levelo_inurba_marseille","lat":43.284534,"lon":5.358662,"is_reserved":false,"is_disabled":false,"rental_uris":{"android":"levelo://app?vid=ee8aca50-96bd-4651-891a-eb14a4e27700","ios":"levelo://app?vid=ee8aca50-96bd-4651-891a-eb14a4e27700"},"vehicle_type_id":"4","last_reported":1687381609,"current_range_meters":3600,"station_id":"ce4bhah2rcd13ifvqei0","pricing_plan_id":"free"},{"bike_id":"a9108953-558a-493b-a03e-d9eda8cbbe41","system_id":"levelo_inurba_marseille","lat":43.28454,"lon":5.35882,"is_reserved":false,"is_disabled":false,"rental_uris":{"android":"levelo://app?vid=a9108953-558a-493b-a03e-d9eda8cbbe41","ios":"levelo://app?vid=a9108953-558a-493b-a03e-d9eda8cbbe41"},"vehicle_type_id":"4","last_reported":1687381609,"current_range_meters":5600,"station_id":"ce4bhah2rcd13ifvqei0","pricing_plan_id":"free"},{"bike_id":"39423e53-20df-49ea-8004-1971509d6fed","system_id":"levelo_inurba_marseille","lat":43.29448,"lon":5.39755,"is_reserved":false,"is_disabled":false,"rental_uris":{"android":"levelo://app?vid=39423e53-20df-49ea-8004-1971509d6fed","ios":"levelo://app?vid=39423e53-20df-49ea-8004-1971509d6fed"},"vehicle_type_id":"4","last_reported":1687381609,"current_range_meters":10800,"station_id":"ce4bh3h2rcd13ifvqdo0","pricing_plan_id":"free"},{"bike_id":"2272b5f7-c40c-443f-958e-ffc0e76cba09","system_id":"levelo_inurba_marseille","lat":43.29449,"lon":5.39758,"is_reserved":false,"is_disabled":false,"rental_uris":{"android":"levelo://app?vid=2272b5f7-c40c-443f-958e-ffc0e76cba09","ios":"levelo://app?vid=2272b5f7-c40c-443f-958e-ffc0e76cba09"},"vehicle_type_id":"4","last_reported":1687381609,"current_range_meters":13600,"station_id":"ce4bh3h2rcd13ifvqdo0","pricing_plan_id":"free"},{"bike_id":"5924eca5-b8cd-45b9-8c7c-dbfbf28beb02","system_id":"levelo_inurba_marseille","lat":43.29443,"lon":5.39756,"is_reserved":false,"is_disabled":false,"rental_uris":{"android":"levelo://app?vid=5924eca5-b8cd-45b9-8c7c-dbfbf28beb02","ios":"levelo://app?vid=5924eca5-b8cd-45b9-8c7c-dbfbf28beb02"},"vehicle_type_id":"4","last_reported":1687381609,"current_range_meters":18000,"station_id":"ce4bh3h2rcd13ifvqdo0","pricing_plan_id":"free"},{"bike_id":"db63aacf-e4c9-4825-bfb2-bf94df77efde","system_id":"levelo_inurba_marseille","lat":43.286159,"lon":5.35103,"is_reserved":false,"is_disabled":false,"rental_uris":{"android":"levelo://app?vid=db63aacf-e4c9-4825-bfb2-bf94df77efde","ios":"levelo://app?vid=db63aacf-e4c9-4825-bfb2-bf94df77efde"},"vehicle_type_id":"4","last_reported":1687381609,"current_range_meters":3200,"station_id":"","pricing_plan_id":"free"},{"bike_id":"5d72a4d6-8978-49b5-aa8e-9fc99a80ee87","system_id":"levelo_inurba_marseille","lat":43.29426,"lon":5.39764,"is_reserved":false,"is_disabled":false,"rental_uris":{"android":"levelo://app?vid=5d72a4d6-8978-49b5-aa8e-9fc99a80ee87","ios":"levelo://app?vid=5d72a4d6-8978-49b5-aa8e-9fc99a80ee87"},"vehicle_type_id":"4","last_reported":1687381609,"current_range_meters":8800,"station_id":"ce4bh3h2rcd13ifvqdo0","pricing_plan_id":"free"},{"bike_id":"db454341-e139-403e-9c6e-34857d02f05e","system_id":"levelo_inurba_marseille","lat":43.283998,"lon":5.375062,"is_reserved":false,"is_disabled":false,"rental_uris":{"android":"levelo://app?vid=db454341-e139-403e-9c6e-34857d02f05e","ios":"levelo://app?vid=db454341-e139-403e-9c6e-34857d02f05e"},"vehicle_type_id":"4","last_reported":1687381609,"current_range_meters":0,"station_id":"ce4bh412rcd13ifvqds0","pricing_plan_id":"free"},{"bike_id":"ed96a6d2-4583-42c4-b96c-c500ec5d3655","system_id":"levelo_inurba_marseille","lat":43.286595,"lon":5.386795,"is_reserved":false,"is_disabled":false,"rental_uris":{"android":"levelo://app?vid=ed96a6d2-4583-42c4-b96c-c500ec5d3655","ios":"levelo://app?vid=ed96a6d2-4583-42c4-b96c-c500ec5d3655"},"vehicle_type_id":"4","last_reported":1687381609,"current_range_meters":0,"station_id":"ce4bh492rcd13ifvqdug","pricing_plan_id":"free"},{"bike_id":"dd7e1255-a0df-4094-a55f-0befeea064ff","system_id":"levelo_inurba_marseille","lat":43.286595,"lon":5.386795,"is_reserved":false,"is_disabled":false,"rental_uris":{"android":"levelo://app?vid=dd7e1255-a0df-4094-a55f-0befeea064ff","ios":"levelo://app?vid=dd7e1255-a0df-4094-a55f-0befeea064ff"},"vehicle_type_id":"4","last_reported":1687381609,"current_range_meters":5600,"station_id":"ce4bh492rcd13ifvqdug","pricing_plan_id":"free"},{"bike_id":"cbef7d6a-c21e-4a1e-8c97-9bdaf6ba936f","system_id":"levelo_inurba_marseille","lat":43.28667,"lon":5.38655,"is_reserved":false,"is_disabled":false,"rental_uris":{"android":"levelo://app?vid=cbef7d6a-c21e-4a1e-8c97-9bdaf6ba936f","ios":"levelo://app?vid=cbef7d6a-c21e-4a1e-8c97-9bdaf6ba936f"},"vehicle_type_id":"4","last_reported":1687381609,"current_range_meters":8400,"station_id":"ce4bh492rcd13ifvqdug","pricing_plan_id":"free"},{"bike_id":"3c13619a-ccf7-47d2-b92a-f14789d5f7eb","system_id":"levelo_inurba_marseille","lat":43.286595,"lon":5.386795,"is_reserved":false,"is_disabled":false,"rental_uris":{"android":"levelo://app?vid=3c13619a-ccf7-47d2-b92a-f14789d5f7eb","ios":"levelo://app?vid=3c13619a-ccf7-47d2-b92a-f14789d5f7eb"},"vehicle_type_id":"4","last_reported":1687381609,"current_range_meters":18000,"station_id":"ce4bh492rcd13ifvqdug","pricing_plan_id":"free"},{"bike_id":"0f509c37-1714-47e5-9669-af37122f3f78","system_id":"levelo_inurba_marseille","lat":43.286595,"lon":5.386795,"is_reserved":false,"is_disabled":false,"rental_uris":{"android":"levelo://app?vid=0f509c37-1714-47e5-9669-af37122f3f78","ios":"levelo://app?vid=0f509c37-1714-47e5-9669-af37122f3f78"},"vehicle_type_id":"4","last_reported":1687381609,"current_range_meters":12800,"station_id":"ce4bh492rcd13ifvqdug","pricing_plan_id":"free"},{"bike_id":"abc80eb5-8e95-4fd4-8d00-b93ad1d8abc7","system_id":"levelo_inurba_marseille","lat":43.286595,"lon":5.386795,"is_reserved":false,"is_disabled":false,"rental_uris":{"android":"levelo://app?vid=abc80eb5-8e95-4fd4-8d00-b93ad1d8abc7","ios":"levelo://app?vid=abc80eb5-8e95-4fd4-8d00-b93ad1d8abc7"},"vehicle_type_id":"4","last_reported":1687381609,"current_range_meters":21200,"station_id":"ce4bh492rcd13ifvqdug","pricing_plan_id":"free"},{"bike_id":"0ad6107d-738d-4048-a9e2-b73bc9cadbfb","system_id":"levelo_inurba_marseille","lat":43.286595,"lon":5.386795,"is_reserved":false,"is_disabled":false,"rental_uris":{"android":"levelo://app?vid=0ad6107d-738d-4048-a9e2-b73bc9cadbfb","ios":"levelo://app?vid=0ad6107d-738d-4048-a9e2-b73bc9cadbfb"},"vehicle_type_id":"4","last_reported":1687381609,"current_range_meters":9200,"station_id":"ce4bh492rcd13ifvqdug","pricing_plan_id":"free"},{"bike_id":"f6fda2f2-04f1-4377-bae3-2fc212d95c47","system_id":"levelo_inurba_marseille","lat":43.3424,"lon":5.36181,"is_reserved":false,"is_disabled":false,"rental_uris":{"android":"levelo://app?vid=f6fda2f2-04f1-4377-bae3-2fc212d95c47","ios":"levelo://app?vid=f6fda2f2-04f1-4377-bae3-2fc212d95c47"},"vehicle_type_id":"4","last_reported":1687381609,"current_range_meters":4400,"station_id":"","pricing_plan_id":"free"},{"bike_id":"87dddf10-84ef-4c92-963f-13fd8975ced1","system_id":"levelo_inurba_marseille","lat":43.3067,"lon":5.40805,"is_reserved":false,"is_disabled":false,"rental_uris":{"android":"levelo://app?vid=87dddf10-84ef-4c92-963f-13fd8975ced1","ios":"levelo://app?vid=87dddf10-84ef-4c92-963f-13fd8975ced1"},"vehicle_type_id":"4","last_reported":1687381609,"current_range_meters":12800,"station_id":"","pricing_plan_id":"free"},{"bike_id":"92acb786-3265-4c54-8f46-03bcd23bbef4","system_id":"levelo_inurba_marseille","lat":43.284793,"lon":5.384113,"is_reserved":false,"is_disabled":false,"rental_uris":{"android":"levelo://app?vid=92acb786-3265-4c54-8f46-03bcd23bbef4","ios":"levelo://app?vid=92acb786-3265-4c54-8f46-03bcd23bbef4"},