{"last_updated":1700316333,"ttl":30,"version":"2.2","data":{"bikes":[{"bike_id":"85887611-71be-4f87-9deb-42011241733a","system_id":"levelo_inurba_marseille","lat":43.312239,"lon":5.368562,"is_reserved":false,"is_disabled":false,"rental_uris":{"android":"levelo://app?vid=85887611-71be-4f87-9deb-42011241733a","ios":"levelo://app?vid=85887611-71be-4f87-9deb-42011241733a"},"vehicle_type_id":"4","last_reported":1700316333,"current_range_meters":13600,"station_id":"ce4bgl92rcd13ifvqbq0","pricing_plan_id":"free"},{"bike_id":"7320965f-f1e5-4415-98d0-bce2305621cb","system_id":"levelo_inurba_marseille","lat":43.312239,"lon":5.368562,"is_reserved":false,"is_disabled":false,"rental_uris":{"android":"levelo://app?vid=7320965f-f1e5-4415-98d0-bce2305621cb","ios":"levelo://app?vid=7320965f-f1e5-4415-98d0-bce2305621cb"},"vehicle_type_id":"4","last_reported":1700316333,"current_range_meters":28800,"station_id":"ce4bgl92rcd13ifvqbq0","pricing_plan_id":"free"},{"bike_id":"6cee74a9-2968-4453-bf4c-26e8f0f8ebdf","system_id":"levelo_inurba_marseille","lat":43.312239,"lon":5.368562,"is_reserved":false,"is_disabled":false,"rental_uris":{"android":"levelo://app?vid=6cee74a9-2968-4453-bf4c-26e8f0f8ebdf","ios":"levelo://app?vid=6cee74a9-2968-4453-bf4c-26e8f0f8ebdf"},"vehicle_type_id":"4","last_reported":1700316333,"current_range_meters":31200,"station_id":"ce4bgl92rcd13ifvqbq0","pricing_plan_id":"free"},{"bike_id":"09477c03-ff7c-4c4f-a68c-b03e9375aa81","system_id":"levelo_inurba_marseille","lat":43.312239,"lon":5.368562,"is_reserved":false,"is_disabled":false,"rental_uris":{"android":"levelo://app?vid=09477c03-ff7c-4c4f-a68c-b03e9375aa81","ios":"levelo://app?vid=09477c03-ff7c-4c4f-a68c-b03e9375aa81"},"vehicle_type_id":"4","last_reported":1700316333,"current_range_meters":27600,"station_id":"ce4bgl92rcd13ifvqbq0","pricing_plan_id":"free"},{"bike_id":"943dfc2f-eec4-44b8-ae3a-bf8f278b58c3","system_id":"levelo_inurba_marseille","lat":43.311565,"lon":5.368845,"is_reserved":false,"is_disabled":false,"rental_uris":{"android":"levelo://app?vid=943dfc2f-eec4-44b8-ae3a-bf8f278b58c3","ios":"levelo://app?vid=943dfc2f-eec4-44b8-ae3a-bf8f278b58c3"},"vehicle_type_id":"4","last_reported":1700316333,"current_range_meters":400,"station_id":"","pricing_plan_id":"free"},{"bike_id":"795978b6-526d-4606-9088-89fcc8b8458b","system_id":"levelo_inurba_marseille","lat":43.309039,"lon":5.371797,"is_reserved":false,"is_disabled":false,"rental_uris":{"android":"levelo://app?vid=795978b6-526d-4606-9088-89fcc8b8458b","ios":"levelo://app?vid=795978b6-526d-4606-9088-89fcc8b8458b"},"vehicle_type_id":"4","last_reported":1700316333,"current_range_meters":10800,"station_id":"ce4bguh2rcd13ifvqckg","pricing_plan_id":"free"},{"bike_id":"3475d204-43b6-43d9-b615-ca1d0d58200e","system_id":"levelo_inurba_marseille","lat":43.30679,"lon":5.3679,"is_reserved":false,"is_disabled":false,"rental_uris":{"android":"levelo://app?vid=3475d204-43b6-43d9-b615-ca1d0d58200e","ios":"levelo://app?vid=3475d204-43b6-43d9-b615-ca1d0d58200e"},"vehicle_type_id":"4","last_reported":1700316333,"current_range_meters":14400,"station_id":"","pricing_plan_id":"free"},{"bike_id":"c89b6022-0b04-44f0-bb8d-00b8bddaa14f","system_id":"levelo_inurba_marseille","lat":43.31948,"lon":5.37103,"is_reserved":false,"is_disabled":false,"rental_uris":{"android":"levelo://app?vid=c89b6022-0b04-44f0-bb8d-00b8bddaa14f","ios":"levelo://app?vid=c89b6022-0b04-44f0-bb8d-00b8bddaa14f"},"vehicle_type_id":"4","last_reported":1700316333,"current_range_meters":5200,"station_id":"","pricing_plan_id":"free"},{"bike_id":"7301b02d-8d00-41a9-abd4-411c31776b4e","system_id":"levelo_inurba_marseille","lat":43.305706,"lon":5.365654,"is_reserved":false,"is_disabled":false,"rental_uris":{"android":"levelo://app?vid=7301b02d-8d00-41a9-abd4-411c31776b4e","ios":"levelo://app?vid=7301b02d-8d00-41a9-abd4-411c31776b4e"},"vehicle_type_id":"4","last_reported":1700316333,"current_range_meters":12400,"station_id":"ce4bgs12rcd13ifvqcag","pricing_plan_id":"free"},{"bike_id":"4b3a6261-223c-45f9-95f6-3054833ee351","system_id":"levelo_inurba_marseille","lat":43.305368,"lon":5.367343,"is_reserved":false,"is_disabled":false,"rental_uris":{"android":"levelo://app?vid=4b3a6261-223c-45f9-95f6-3054833ee351","ios":"levelo://app?vid=4b3a6261-223c-45f9-95f6-3054833ee351"},"vehicle_type_id":"4","last_reported":1700316333,"current_range_meters":0,"station_id":"ce4bgrp2rcd13ifvqc9g","pricing_plan_id":"free"},{"bike_id":"e6f31343-7422-4de0-9ada-33e6e18315db","system_id":"levelo_inurba_marseille","lat":43.305706,"lon":5.365654,"is_reserved":false,"is_disabled":false,"rental_uris":{"android":"levelo://app?vid=e6f31343-7422-4de0-9ada-33e6e18315db","ios":"levelo://app?vid=e6f31343-7422-4de0-9ada-33e6e18315db"},"vehicle_type_id":"4","last_reported":1700316333,"current_range_meters":800,"station_id":"ce4bgs12rcd13ifvqcag","pricing_plan_id":"free"},{"bike_id":"06cc1f51-dabd-48b5-a8d1-fd5f24d32f9d","system_id":"levelo_inurba_marseille","lat":43.30528,"lon":5.36726,"is_reserved":false,"is_disabled":false,"rental_uris":{"android":"levelo://app?vid=06cc1f51-dabd-48b5-a8d1-fd5f24d32f9d","ios":"levelo://app?vid=06cc1f51-dabd-48b5-a8d1-fd5f24d32f9d"},"vehicle_type_id":"4","last_reported":1700316333,"current_range_meters":10800,"station_id":"ce4bgrp2rcd13ifvqc9g","pricing_plan_id":"free"},{"bike_id":"6433dbe6-47e9-4f76-a501-46c1e97138aa","system_id":"levelo_inurba_marseille","lat":43.305989,"lon":5.37225,"is_reserved":false,"is_disabled":false,"rental_uris":{"android":"levelo://app?vid=6433dbe6-47e9-4f76-a501-46c1e97138aa","ios":"levelo://app?vid=6433dbe6-47e9-4f76-a501-46c1e97138aa"},"vehicle_type_id":"4","last_reported":1700316333,"current_range_meters":19600,"station_id":"ce4bgqh2rcd13ifvqc4g","pricing_plan_id":"free"},{"bike_id":"8d48d154-4dbb-4931-b2d4-2837ef657a88","system_id":"levelo_inurba_marseille","lat":43.305989,"lon":5.37225,"is_reserved":false,"is_disabled":false,"rental_uris":{"android":"levelo://app?vid=8d48d154-4dbb-4931-b2d4-2837ef657a88","ios":"levelo://app?vid=8d48d154-4dbb-4931-b2d4-2837ef657a88"},"vehicle_type_id":"4","last_reported":1700316333,"current_range_meters":23600,"station_id":"ce4bgqh2rcd13ifvqc4g","pricing_plan_id":"free"},{"bike_id":"ae0e609c-8a28-43cd-81b5-fcca341d728d","system_id":"levelo_inurba_marseille","lat":43.311131,"lon":5.377651,"is_reserved":false,"is_disabled":false,"rental_uris":{"android":"levelo://app?vid=ae0e609c-8a28-43cd-81b5-fcca341d728d","ios":"levelo://app?vid=ae0e609c-8a28-43cd-81b5-fcca341d728d"},"vehicle_type_id":"4","last_reported":1700316333,"current_range_meters":26400,"station_id":"ce4bgt92rcd13ifvqcg0","pricing_plan_id":"free"},{"bike_id":"14453bc6-820b-496a-91c5-bd1a7f559527","system_id":"levelo_inurba_marseille","lat":43.30823,"lon":5.37641,"is_reserved":false,"is_disabled":false,"rental_uris":{"android":"levelo://app?vid=14453bc6-820b-496a-91c5-bd1a7f559527","ios":"levelo://app?vid=14453bc6-820b-496a-91c5-bd1a7f559527"},"vehicle_type_id":"4","last_reported":1700316333,"current_range_meters":11200,"station_id":"ce4bgv92rcd13ifvqcq0","pricing_plan_id":"free"},{"bike_id":"2d49cb03-7339-4a21-98db-beedb60a2a4c","system_id":"levelo_inurba_marseille","lat":43.304939,"lon":5.370795,"is_reserved":false,"is_disabled":false,"rental_uris":{"android":"levelo://app?vid=2d49cb03-7339-4a21-98db-beedb60a2a4c","ios":"levelo://app?vid=2d49cb03-7339-4a21-98db-beedb60a2a4c"},"vehicle_type_id":"4","last_reported":1700316333,"current_range_meters":0,"station_id":"","pricing_plan_id":"free"},{"bike_id":"dcbf9c93-0758-41cf-8699-4ede01d69428","system_id":"levelo_inurba_marseille","lat":43.308195,"lon":5.37655,"is_reserved":false,"is_disabled":false,"rental_uris":{"android":"levelo://app?vid=dcbf9c93-0758-41cf-8699-4ede01d69428","ios":"levelo://app?vid=dcbf9c93-0758-41cf-8699-4ede01d69428"},"vehicle_type_id":"4","last_reported":1700316333,"current_range_meters":16000,"station_id":"ce4bgv92rcd13ifvqcq0","pricing_plan_id":"free"},{"bike_id":"93e7b0ad-5127-4931-9d0d-0ff9d6727531","system_id":"levelo_inurba_marseille","lat":43.3088,"lon":5.37721,"is_reserved":false,"is_disabled":false,"rental_uris":{"android":"levelo://app?vid=93e7b0ad-5127-4931-9d0d-0ff9d6727531","ios":"levelo://app?vid=93e7b0ad-5127-4931-9d0d-0ff9d6727531"},"vehicle_type_id":"4","last_reported":1700316333,"current_range_meters":16400,"station_id":"","pricing_plan_id":"free"},{"bike_id":"e0822400-5937-446b-acf0-cc2fe293a77c","system_id":"levelo_inurba_marseille","lat":43.30779,"lon":5.37649,"is_reserved":false,"is_disabled":false,"rental_uris":{"android":"levelo://app?vid=e0822400-5937-446b-acf0-cc2fe293a77c","ios":"levelo://app?vid=e0822400-5937-446b-acf0-cc2fe293a77c"},"vehicle_type_id":"4","last_reported":1700316333,"current_range_meters":31600,"station_id":"ce4bgv92rcd13ifvqcq0","pricing_plan_id":"free"},{"bike_id":"b07df4dc-5dee-47d2-9384-cdf7d13ef59f","system_id":"levelo_inurba_marseille","lat":43.320656,"lon":5.372201,"is_reserved":false,"is_disabled":false,"rental_uris":{"android":"levelo://app?vid=b07df4dc-5dee-47d2-9384-cdf7d13ef59f","ios":"levelo://app?vid=b07df4dc-5dee-47d2-9384-cdf7d13ef59f"},"vehicle_type_id":"4","last_reported":1700316333,"current_range_meters":23200,"station_id":"","pricing_plan_id":"free"},{"bike_id":"4ca66939-d7b1-4b53-a7c7-0172038e9d35","system_id":"levelo_inurba_marseille","lat":43.301916,"lon":5.366077,"is_reserved":false,"is_disabled":false,"rental_uris":{"android":"levelo://app?vid=4ca66939-d7b1-4b53-a7c7-0172038e9d35","ios":"levelo://app?vid=4ca66939-d7b1-4b53-a7c7-0172038e9d35"},"vehicle_type_id":"4","last_reported":1700316333,"current_range_meters":30400,"station_id":"ce4bgrh2rcd13ifvqc8g","pricing_plan_id":"free"},{"bike_id":"b75ab444-84a8-4a07-810e-07c42df78904","system_id":"levelo_inurba_marseille","lat":43.32205,"lon":5.37463,"is_reserved":false,"is_disabled":false,"rental_uris":{"android":"levelo://app?vid=b75ab444-84a8-4a07-810e-07c42df78904","ios":"levelo://app?vid=b75ab444-84a8-4a07-810e-07c42df78904"},"vehicle_type_id":"4","last_reported":1700316333,"current_range_meters":18800,"station_id":"","pricing_plan_id":"free"},{"bike_id":"8582e63c-68af-4a5e-a41b-a2e2d4df8807","system_id":"levelo_inurba_marseille","lat":43.324771,"lon":5.36557,"is_reserved":false,"is_disabled":false,"rental_uris":{"android":"levelo://app?vid=8582e63c-68af-4a5e-a41b-a2e2d4df8807","ios":"levelo://app?vid=8582e63c-68af-4a5e-a41b-a2e2d4df8807"},"vehicle_type_id":"4","last_reported":1700316333,"current_range_meters":8800,"station_id":"ce4bhs12rcd13ifvqhvg","pricing_plan_id":"free"},{"bike_id":"5a6db0fc-cfe2-47a7-ae76-d4e0529428ab","system_id":"levelo_inurba_marseille","lat":43.31991,"lon":5.381113,"is_reserved":false,"is_disabled":false,"rental_uris":{"android":"levelo://app?vid=5a6db0fc-cfe2-47a7-ae76-d4e0529428ab","ios":"levelo://app?vid=5a6db0fc-cfe2-47a7-ae76-d4e0529428ab"},"vehicle_type_id":"4","last_reported":1700316333,"current_range_meters":18000,"station_id":"ce4bhr12rcd13ifvqhpg","pricing_plan_id":"free"},{"bike_id":"cc9fc5c7-2c84-43cd-bc19-d8416ce949ef","system_id":"levelo_inurba_marseille","lat":43.29939,"lon":5.36549,"is_reserved":false,"is_disabled":false,"rental_uris":{"android":"levelo://app?vid=cc9fc5c7-2c84-43cd-bc19-d8416ce949ef","ios":"levelo://app?vid=cc9fc5c7-2c84-43cd-bc19-d8416ce949ef"},"vehicle_type_id":"4","last_reported":1700316333,"current_range_meters":27200,"station_id":"ce4bgm92rcd13ifvqbr0","pricing_plan_id":"free"},{"bike_id":"ad30026b-00bc-4ebd-901b-0e85bc7b2210","system_id":"levelo_inurba_marseille","lat":43.29936,"lon":5.36552,"is_reserved":false,"is_disabled":false,"rental_uris":{"android":"levelo://app?vid=ad30026b-00bc-4ebd-901b-0e85bc7b2210","ios":"levelo://app?vid=ad30026b-00bc-4ebd-901b-0e85bc7b2210"},"vehicle_type_id":"4","last_reported":1700316333,"current_range_meters":14800,"station_id":"ce4bgm92rcd13ifvqbr0","pricing_plan_id":"free"},{"bike_id":"e4476822-d908-4134-bf49-5004f9d45022","system_id":"levelo_inurba_marseille","lat":43.29932,"lon":5.36549,"is_reserved":false,"is_disabled":false,"rental_uris":{"android":"levelo://app?vid=e4476822-d908-4134-bf49-5004f9d45022","ios":"levelo://app?vid=e4476822-d908-4134-bf49-5004f9d45022"},"vehicle_type_id":"4","last_reported":1700316333,"current_range_meters":0,"station_id":"ce4bgm92rcd13ifvqbr0","pricing_plan_id":"free"},{"bike_id":"66963c79-9023-4e40-bef4-709c1b04f449","system_id":"levelo_inurba_marseille","lat":43.311588,"lon":5.38678,"is_reserved":false,"is_disabled":false,"rental_uris":{"android":"levelo://app?vid=66963c79-9023-4e40-bef4-709c1b04f449","ios":"levelo://app?vid=66963c79-9023-4e40-bef4-709c1b04f449"},"vehicle_type_id":"4","last_reported":1700316333,"current_range_meters":3600,"station_id":"ce4bgv12rcd13ifvqcp0","pricing_plan_id":"free"},{"bike_id":"5da9dea2-bd9f-4746-b637-56e44ea9e587","system_id":"levelo_inurba_marseille","lat":43.298489,"lon":5.362942,"is_reserved":false,"is_disabled":false,"rental_uris":{"android":"levelo://app?vid=5da9dea2-bd9f-4746-b637-56e44ea9e587","ios":"levelo://app?vid=5da9dea2-bd9f-4746-b637-56e44ea9e587"},"vehicle_type_id":"4","last_reported":1700316333,"current_range_meters":0,"station_id":"","pricing_plan_id":"free"},{"bike_id":"96ef1101-fd47-4a73-b7fa-0ad1147a44a2","system_id":"levelo_inurba_marseille","lat":43.298433,"lon":5.362774,"is_reserved":false,"is_disabled":false,"rental_uris":{"android":"levelo://app?vid=96ef1101-fd47-4a73-b7fa-0ad1147a44a2","ios":"levelo://app?vid=96ef1101-fd47-4a73-b7fa-0ad1147a44a2"},"vehicle_type_id":"4","last_reported":1700316333,"current_range_meters":800,"station_id":"ce4bgpp2rcd13ifvqc3g","pricing_plan_id":"free"},{"bike_id":"5ea94ab6-9a2c-4479-a2ab-925da65c4f86","system_id":"levelo_inurba_marseille","lat":43.298433,"lon":5.362774,"is_reserved":false,"is_disabled":false,"rental_uris":{"android":"levelo://app?vid=5ea94ab6-9a2c-4479-a2ab-925da65c4f86","ios":"levelo://app?vid=5ea94ab6-9a2c-4479-a2ab-925da65c4f86"},"vehicle_type_id":"4","last_reported":1700316333,"current_range_meters":18800,"station_id":"ce4bgpp2rcd13ifvqc3g","pricing_plan_id":"free"},{"bike_id":"74b15ebe-f849-48a0-b6a2-a789fc430ef8","system_id":"levelo_inurba_marseille","lat":43.298433,"lon":5.362774,"is_reserved":false,"is_disabled":false,"rental_uris":{"android":"levelo://app?vid=74b15ebe-f849-48a0-b6a2-a789fc430ef8","ios":"levelo://app?vid=74b15ebe-f849-48a0-b6a2-a789fc430ef8"},"vehicle_type_id":"4","last_reported":1700316333,"current_range_meters":3200,"station_id":"ce4bgpp2rcd13ifvqc3g","pricing_plan_id":"free"},{"bike_id":"83b4a712-5deb-4185-a2eb-cf504fb97aa1","system_id":"levelo_inurba_marseille","lat":43.299087,"lon":5.37535,"is_reserved":false,"is_disabled":false,"rental_uris":{"android":"levelo://app?vid=83b4a712-5deb-4185-a2eb-cf504fb97aa1","ios":"levelo://app?vid=83b4a712-5deb-4185-a2eb-cf504fb97aa1"},"vehicle_type_id":"4","last_reported":1700316333,"current_range_meters":17600,"station_id":"ce4bgjh2rcd13ifvqbg0","pricing_plan_id":"free"},{"bike_id":"50ec3121-a6e8-419a-a9c4-221d2f8224f4","system_id":"levelo_inurba_marseille","lat":43.298433,"lon":5.362774,"is_reserved":false,"is_disabled":false,"rental_uris":{"android":"levelo://app?vid=50ec3121-a6e8-419a-a9c4-221d2f8224f4","ios":"levelo://app?vid=50ec3121-a6e8-419a-a9c4-221d2f8224f4"},"vehicle_type_id":"4","last_reported":1700316333,"current_range_meters":0,"station_id":"ce4bgpp2rcd13ifvqc3g","pricing_plan_id":"free"},{"bike_id":"31682f68-9f19-4d8f-894c-c25c7ced512b","system_id":"levelo_inurba_marseille","lat":43.32827,"lon":5.36676,"is_reserved":false,"is_disabled":false,"rental_uris":{"android":"levelo://app?vid=31682f68-9f19-4d8f-894c-c25c7ced512b","ios":"levelo://app?vid=31682f68-9f19-4d8f-894c-c25c7ced512b"},"vehicle_type_id":"4","last_reported":1700316333,"current_range_meters":28000,"station_id":"ce4bhs92rcd13ifvqi0g","pricing_plan_id":"free"},{"bike_id":"b0bc5a2b-ee52-4745-9049-5d157e365412","system_id":"levelo_inurba_marseille","lat":43.32828,"lon":5.36679,"is_reserved":false,"is_disabled":false,"rental_uris":{"android":"levelo://app?vid=b0bc5a2b-ee52-4745-9049-5d157e365412","ios":"levelo://app?vid=b0bc5a2b-ee52-4745-9049-5d157e365412"},"vehicle_type_id":"4","last_reported":1700316333,"current_range_meters":12000,"station_id":"ce4bhs92rcd13ifvqi0g","pricing_plan_id":"free"},{"bike_id":"6f461906-1734-4a2d-9c3e-a93c6064dfd5","system_id":"levelo_inurba_marseille","lat":43.32828,"lon":5.36672,"is_reserved":false,"is_disabled":false,"rental_uris":{"android":"levelo://app?vid=6f461906-1734-4a2d-9c3e-a93c6064dfd5","ios":"levelo://app?vid=6f461906-1734-4a2d-9c3e-a93c6064dfd5"},"vehicle_type_id":"4","last_reported":1700316333,"current_range_meters":24800,"station_id":"ce4bhs92rcd13ifvqi0g","pricing_plan_id":"free"},{"bike_id":"1489be00-ff1f-45b4-916a-c56edcfba1f2","system_id":"levelo_inurba_marseille","lat":43.2968,"lon":5.37291,"is_reserved":false,"is_disabled":false,"rental_uris":{"android":"levelo://app?vid=1489be00-ff1f-45b4-916a-c56edcfba1f2","ios":"levelo://app?vid=1489be00-ff1f-45b4-916a-c56edcfba1f2"},"vehicle_type_id":"4","last_reported":1700316333,"current_range_meters":29600,"station_id":"ce4bgk12rcd13ifvqbj0","pricing_plan_id":"free"},{"bike_id":"d447991a-59b4-4778-a190-7d2b0920a414","system_id":"levelo_inurba_marseille","lat":43.32215,"lon":5.38613,"is_reserved":false,"is_disabled":false,"rental_uris":{"android":"levelo://app?vid=d447991a-59b4-4778-a190-7d2b0920a414","ios":"levelo://app?vid=d447991a-59b4-4778-a190-7d2b0920a414"},"vehicle_type_id":"4","last_reported":1700316333,"current_range_meters":0,"station_id":"","pricing_plan_id":"free"},{"bike_id":"f811538a-5955-4e49-9577-ef90dba33e6b","system_id":"levelo_inurba_marseille","lat":43.296131,"lon":5.370773,"is_reserved":false,"is_disabled":false,"rental_uris":{"android":"levelo://app?vid=f811538a-5955-4e49-9577-ef90dba33e6b","ios":"levelo://app?vid=f811538a-5955-4e49-9577-ef90dba33e6b"},"vehicle_type_id":"4","last_reported":1700316333,"current_range_meters":24400,"station_id":"ce4bgnh2rcd13ifvqc0g","pricing_plan_id":"free"},{"bike_id":"669c0968-eb68-44c9-9d61-6712ae2f5ec6","system_id":"levelo_inurba_marseille","lat":43.29573,"lon":5.367355,"is_reserved":false,"is_disabled":false,"rental_uris":{"android":"levelo://app?vid=669c0968-eb68-44c9-9d61-6712ae2f5ec6","ios":"levelo://app?vid=669c0968-eb68-44c9-9d61-6712ae2f5ec6"},"vehicle_type_id":"4","last_reported":1700316333,"current_range_meters":4800,"station_id":"ce4bgph2rcd13ifvqc2g","pricing_plan_id":"free"},{"bike_id":"f9b321d6-1a38-4689-8c1f-a92f5a51baa0","system_id":"levelo_inurba_marseille","lat":43.29573,"lon":5.367355,"is_reserved":false,"is_disabled":false,"rental_uris":{"android":"levelo://app?vid=f9b321d6-1a38-4689-8c1f-a92f5a51baa0","ios":"levelo://app?vid=f9b321d6-1a38-4689-8c1f-a92f5a51baa0"},"vehicle_type_id":"4","last_reported":1700316333,"current_range_meters":28000,"station_id":"ce4bgph2rcd13ifvqc2g","pricing_plan_id":"free"},{"bike_id":"79759283-a9b2-4304-97ef-849feabd6139","system_id":"levelo_inurba_marseille","lat":43.29573,"lon":5.367355,"is_reserved":false,"is_disabled":false,"rental_uris":{"android":"levelo://app?vid=79759283-a9b2-4304-97ef-849feabd6139","ios":"levelo://app?vid=79759283-a9b2-4304-97ef-849feabd6139"},"vehicle_type_id":"4","last_reported":1700316333,"current_range_meters":27600,"station_id":"ce4bgph2rcd13ifvqc2g","pricing_plan_id":"free"},{"bike_id":"cb73cc4a-fd25-46fe-a07e-a7f5ebcf3518","system_id":"levelo_inurba_marseille","lat":43.297068,"lon":5.376752,"is_reserved":false,"is_disabled":false,"rental_uris":{"android":"levelo://app?vid=cb73cc4a-fd25-46fe-a07e-a7f5ebcf3518","ios":"levelo://app?vid=cb73cc4a-fd25-46fe-a07e-a7f5ebcf3518"},"vehicle_type_id":"4","last_reported":1700316333,"current_range_meters":30400,"station_id":"ce4bgkh2rcd13ifvqbl0","pricing_plan_id":"free"},{"bike_id":"b6b22bd0-e977-4cf6-9818-f72dd4e3998d","system_id":"levelo_inurba_marseille","lat":43.299028,"lon":5.381509,"is_reserved":false,"is_disabled":false,"rental_uris":{"android":"levelo://app?vid=b6b22bd0-e977-4cf6-9818-f72dd4e3998d","ios":"levelo://app?vid=b6b22bd0-e977-4cf6-9818-f72dd4e3998d"},"vehicle_type_id":"4","last_reported":1700316333,"current_range_meters":0,"station_id":"ce4bgj12rcd13ifvqbc0","pricing_plan_id":"free"},{"bike_id":"a8b2ed87-97b8-45ef-a849-d3da1cae9222","system_id":"levelo_inurba_marseille","lat":43.299028,"lon":5.381509,"is_reserved":false,"is_disabled":false,"rental_uris":{"android":"levelo://app?vid=a8b2ed87-97b8-45ef-a849-d3da1cae9222","ios":"levelo://app?vid=a8b2ed87-97b8-45ef-a849-d3da1cae9222"},"vehicle_type_id":"4","last_reported":1700316333,"current_range_meters":27600,"station_id":"ce4bgj12rcd13ifvqbc0","pricing_plan_id":"free"},{"bike_id":"d2dced52-b7fb-4d11-ad33-56be009e3364","system_id":"levelo_inurba_marseille","lat":43.321847,"lon":5.388263,"is_reserved":false,"is_disabled":false,"rental_uris":{"android":"levelo://app?vid=d2dced52-b7fb-4d11-ad33-56be009e3364","ios":"levelo://app?vid=d2dced52-b7fb-4d11-ad33-56be009e3364"},"vehicle_type_id":"4","last_reported":1700316333,"current_range_meters":18800,"station_id":"","pricing_plan_id":"free"},{"bike_id":"85872b97-70e8-40dd-b498-ce7c1bcc5c76","system_id":"levelo_inurba_marseille","lat":43.298037,"lon":5.381066,"is_reserved":false,"is_disabled":false,"rental_uris":{"android":"levelo://app?vid=85872b97-70e8-40dd-b498-ce7c1bcc5c76","ios":"levelo://app?vid=85872b97-70e8-40dd-b498-ce7c1bcc5c76"},"vehicle_type_id":"4","last_reported":1700316333,"current_range_meters":3600,"station_id":"ce4bgip2rcd13ifvqbb0","pricing_plan_id":"free"},{"bike_id":"67ffd28a-0325-489b-a10f-d90500122751","system_id":"levelo_inurba_marseille","lat":43.295748,"lon":5.37522,"is_reserved":false,"is_disabled":false,"rental_uris":{"android":"levelo://app?vid=67ffd28a-0325-489b-a10f-d90500122751","ios":"levelo://app?vid=67ffd28a-0325-489b-a10f-d90500122751"},"vehicle_type_id":"4","last_reported":1700316333,"current_range_meters":30000,"station_id":"ce4bgh92rcd13ifvqb50","pricing_plan_id":"free"},{"bike_id":"3e3e92fe-39b7-4933-99ff-3747b28b5d69","system_id":"levelo_inurba_marseille","lat":43.328154,"lon":5.380034,"is_reserved":false,"is_disabled":false,"rental_uris":{"android":"levelo://app?vid=3e3e92fe-39b7-4933-99ff-3747b28b5d69","ios":"levelo://app?vid=3e3e92fe-39b7-4933-99ff-3747b28b5d69"},"vehicle_type_id":"4","last_reported":1700316333,"current_range_meters":9600,"station_id":"","pricing_plan_id":"free"},{"bike_id":"d5241583-125c-4b85-b4ae-262422bddf36","system_id":"levelo_inurba_marseille","lat":43.29527,"lon":5.37499,"is_reserved":false,"is_disabled":false,"rental_uris":{"android":"levelo://app?vid=d5241583-125c-4b85-b4ae-262422bddf36","ios":"levelo://app?vid=d5241583-125c-4b85-b4ae-262422bddf36"},"vehicle_type_id":"4","last_reported":1700316333,"current_range_meters":4400,"station_id":"ce4bgkp2rcd13ifvqbmg","pricing_plan_id":"free"},{"bike_id":"0fdba612-07ca-451d-8034-d84aa50bf61d","system_id":"levelo_inurba_marseille","lat":43.299717,"lon":5.384845,"is_reserved":false,"is_disabled":false,"rental_uris":{"android":"levelo://app?vid=0fdba612-07ca-451d-8034-d84aa50bf61d","ios":"levelo://app?vid=0fdba612-07ca-451d-8034-d84aa50bf61d"},"vehicle_type_id":"4","last_reported":1700316333,"current_range_meters":18800,"station_id":"ce4bgj92rcd13ifvqbd0","pricing_plan_id":"free"},{"bike_id":"077d24d9-fa60-479d-86fc-fdb8dbe2743d","system_id":"levelo_inurba_marseille","lat":43.299717,"lon":5.384845,"is_reserved":false,"is_disabled":false,"rental_uris":{"android":"levelo://app?vid=077d24d9-fa60-479d-86fc-fdb8dbe2743d","ios":"levelo://app?vid=077d24d9-fa60-479d-86fc-fdb8dbe2743d"},"vehicle_type_id":"4","last_reported":1700316333,"current_range_meters":0,"station_id":"ce4bgj92rcd13ifvqbd0","pricing_plan_id":"free"},{"bike_id":"e145a3f7-00ac-4f8f-bfe5-435bc38ccaf7","system_id":"levelo_inurba_marseille","lat":43.293801,"lon":5.363066,"is_reserved":false,"is_disabled":false,"rental_uris":{"android":"levelo://app?vid=e145a3f7-00ac-4f8f-bfe5-435bc38ccaf7","ios":"levelo://app?vid=e145a3f7-00ac-4f8f-bfe5-435bc38ccaf7"},"vehicle_type_id":"4","last_reported":1700316333,"current_range_meters":27200,"station_id":"","pricing_plan_id":"free"},{"bike_id":"ac84bbc3-fed9-4573-a0fe-8f2c98bb5a62","system_id":"levelo_inurba_marseille","lat":43.32367,"lon":5.388836,"is_reserved":false,"is_disabled":false,"rental_uris":{"android":"levelo://app?vid=ac84bbc3-fed9-4573-a0fe-8f2c98bb5a62","ios":"levelo://app?vid=ac84bbc3-fed9-4573-a0fe-8f2c98bb5a62"},"vehicle_type_id":"4","last_reported":1700316333,"current_range_meters":13600,"station_id":"ce4bhqp2rcd13ifvqhog","pricing_plan_id":"free"},{"bike_id":"72bbfb33-3774-4f93-815e-6903df7e3289","system_id":"levelo_inurba_marseille","lat":43.29273,"lon":5.36841,"is_reserved":false,"is_disabled":false,"rental_uris":{"android":"levelo://app?vid=72bbfb33-3774-4f93-815e-6903df7e3289","ios":"levelo://app?vid=72bbfb33-3774-4f93-815e-6903df7e3289"},"vehicle_type_id":"4","last_reported":1700316333,"current_range_meters":11600,"station_id":"ce4bhbp2rcd13ifvqesg","pricing_plan_id":"free"},{"bike_id":"fdb5ce49-cc2e-41b3-8420-2c37dd22eb68","system_id":"levelo_inurba_marseille","lat":43.293009,"lon":5.374584,"is_reserved":false,"is_disabled":false,"rental_uris":{"android":"levelo://app?vid=fdb5ce49-cc2e-41b3-8420-2c37dd22eb68","ios":"levelo://app?vid=fdb5ce49-cc2e-41b3-8420-2c37dd22eb68"},"vehicle_type_id":"4","last_reported":1700316333,"current_range_meters":1600,"station_id":"ce4bgi12rcd13ifvqb70","pricing_plan_id":"free"},{"bike_id":"326f0789-ce0b-4726-b913-cd14b5009e93","system_id":"levelo_inurba_marseille","lat":43.303002,"lon":5.392142,"is_reserved":false,"is_disabled":false,"rental_uris":{"android":"levelo://app?vid=326f0789-ce0b-4726-b913-cd14b5009e93","ios":"levelo://app?vid=326f0789-ce0b-4726-b913-cd14b5009e93"},"vehicle_type_id":"4","last_reported":1700316333,"current_range_meters":10000,"station_id":"ce4bgkh2rcd13ifvqbk0","pricing_plan_id":"free"},{"bike_id":"777590c1-ac06-4038-b024-75a2a1eec804","system_id":"levelo_inurba_marseille","lat":43.298764,"lon":5.388973,"is_reserved":false,"is_disabled":false,"rental_uris":{"android":"levelo://app?vid=777590c1-ac06-4038-b024-75a2a1eec804","ios":"levelo://app?vid=777590c1-ac06-4038-b024-75a2a1eec804"},"vehicle_type_id":"4","last_reported":1700316333,"current_range_meters":24400,"station_id":"ce4bh392rcd13ifvqdl0","pricing_plan_id":"free"},{"bike_id":"4eef38cc-64cf-4f4d-8d5b-99bd9d3b1b37","system_id":"levelo_inurba_marseille","lat":43.291675,"lon":5.371583,"is_reserved":false,"is_disabled":false,"rental_uris":{"android":"levelo://app?vid=4eef38cc-64cf-4f4d-8d5b-99bd9d3b1b37","ios":"levelo://app?vid=4eef38cc-64cf-4f4d-8d5b-99bd9d3b1b37"},"vehicle_type_id":"4","last_reported":1700316333,"current_range_meters":26800,"station_id":"ce4bha92rcd13ifvqeh0","pricing_plan_id":"free"},{"bike_id":"0fb3b39b-2af3-48be-ba66-c5db7e75c52b","system_id":"levelo_inurba_marseille","lat":43.313291,"lon":5.396838,"is_reserved":false,"is_disabled":false,"rental_uris":{"android":"levelo://app?vid=0fb3b39b-2af3-48be-ba66-c5db7e75c52b","ios":"levelo://app?vid=0fb3b39b-2af3-48be-ba66-c5db7e75c52b"},"vehicle_type_id":"4","last_reported":1700316333,"current_range_meters":6000,"station_id":"ce4bgvp2rcd13ifvqcu0","pricing_plan_id":"free"},{"bike_id":"54ae241c-6f39-42a7-a567-bdf7b23feb84","system_id":"levelo_inurba_marseille","lat":43.313291,"lon":5.396838,"is_reserved":false,"is_disabled":false,"rental_uris":{"android":"levelo://app?vid=54ae241c-6f39-42a7-a567-bdf7b23feb84","ios":"levelo://app?vid=54ae241c-6f39-42a7-a567-bdf7b23feb84"},"vehicle_type_id":"4","last_reported":1700316333,"current_range_meters":30800,"station_id":"ce4bgvp2rcd13ifvqcu0","pricing_plan_id":"free"},{"bike_id":"7be419a9-ee78-4d6a-b35b-43c3ddb0d163","system_id":"levelo_inurba_marseille","lat":43.31329,"lon":5.39693,"is_reserved":false,"is_disabled":false,"rental_uris":{"android":"levelo://app?vid=7be419a9-ee78-4d6a-b35b-43c3ddb0d163","ios":"levelo://app?vid=7be419a9-ee78-4d6a-b35b-43c3ddb0d163"},"vehicle_type_id":"4","last_reported":1700316333,"current_range_meters":31200,"station_id":"ce4bgvp2rcd13ifvqcu0","pricing_plan_id":"free"},{"bike_id":"fd07540d-6a99-4dfa-b0b5-7761a415dbaa","system_id":"levelo_inurba_marseille","lat":43.313291,"lon":5.396838,"is_reserved":false,"is_disabled":false,"rental_uris":{"android":"levelo://app?vid=fd07540d-6a99-4dfa-b0b5-7761a415dbaa","ios":"levelo://app?vid=fd07540d-6a99-4dfa-b0b5-7761a415dbaa"},"vehicle_type_id":"4","last_reported":1700316333,"current_range_meters":14400,"station_id":"ce4bgvp2rcd13ifvqcu0","pricing_plan_id":"free"},{"bike_id":"da1d495f-e20f-4691-a240-a683826c161a","system_id":"levelo_inurba_marseille","lat":43.29529,"lon":5.385581,"is_reserved":false,"is_disabled":false,"rental_uris":{"android":"levelo://app?vid=da1d495f-e20f-4691-a240-a683826c161a","ios":"levelo://app?vid=da1d495f-e20f-4691-a240-a683826c161a"},"vehicle_type_id":"4","last_reported":1700316333,"current_range_meters":24400,"station_id":"ce4bgih2rcd13ifvqba0","pricing_plan_id":"free"},{"bike_id":"76577728-dd51-4c15-83df-2007828f6c88","system_id":"levelo_inurba_marseille","lat":43.28949,"lon":5.36632,"is_reserved":false,"is_disabled":false,"rental_uris":{"android":"levelo://app?vid=76577728-dd51-4c15-83df-2007828f6c88","ios":"levelo://app?vid=76577728-dd51-4c15-83df-2007828f6c88"},"vehicle_type_id":"4","last_reported":1700316333,"current_range_meters":6000,"station_id":"ce4bhap2rcd13ifvqek0","pricing_plan_id":"free"},{"bike_id":"d1f059bb-405d-4699-a8ad-513885e011fc","system_id":"levelo_inurba_marseille","lat":43.290327,"lon":5.375711,"is_reserved":false,"is_disabled":false,"rental_uris":{"android":"levelo://app?vid=d1f059bb-405d-4699-a8ad-513885e011fc","ios":"levelo://app?vid=d1f059bb-405d-4699-a8ad-513885e011fc"},"vehicle_type_id":"4","last_reported":1700316333,"current_range_meters":25600,"station_id":"ce4bh692rcd13ifvqe90","pricing_plan_id":"free"},{"bike_id":"23375b6c-5ce3-484d-b508-28d25663294d","system_id":"levelo_inurba_marseille","lat":43.294162,"lon":5.386292,"is_reserved":false,"is_disabled":false,"rental_uris":{"android":"levelo://app?vid=23375b6c-5ce3-484d-b508-28d25663294d","ios":"levelo://app?vid=23375b6c-5ce3-484d-b508-28d25663294d"},"vehicle_type_id":"4","last_reported":1700316333,"current_range_meters":0,"station_id":"ce4bh2h2rcd13ifvqdh0","pricing_plan_id":"free"},{"bike_id":"035cfb5f-9488-4bbe-9083-29452bf1feb4","system_id":"levelo_inurba_marseille","lat":43.289184,"lon":5.366408,"is_reserved":false,"is_disabled":false,"rental_uris":{"android":"levelo://app?vid=035cfb5f-9488-4bbe-9083-29452bf1feb4","ios":"levelo://app?vid=035cfb5f-9488-4bbe-9083-29452bf1feb4"},"vehicle_type_id":"4","last_reported":1700316333,"current_range_meters":13200,"station_id":"ce4bhap2rcd13ifvqek0","pricing_plan_id":"free"},{"bike_id":"64305a3b-5980-4258-ad8c-27b2426a668c","system_id":"levelo_inurba_marseille","lat":43.28925,"lon":5.36388,"is_reserved":false,"is_disabled":false,"rental_uris":{"android":"levelo://app?vid=64305a3b-5980-4258-ad8c-27b2426a668c","ios":"levelo://app?vid=64305a3b-5980-4258-ad8c-27b2426a668c"},"vehicle_type_id":"4","last_reported":1700316333,"current_range_meters":14000,"station_id":"ce4bhc92rcd13ifvqetg","pricing_plan_id":"free"},{"bike_id":"25eb5ee7-ee64-4bf1-a2f7-2e88d19d2073","system_id":"levelo_inurba_marseille","lat":43.289468,"lon":5.363719,"is_reserved":false,"is_disabled":false,"rental_uris":{"android":"levelo://app?vid=25eb5ee7-ee64-4bf1-a2f7-2e88d19d2073","ios":"levelo://app?vid=25eb5ee7-ee64-4bf1-a2f7-2e88d19d2073"},"vehicle_type_id":"4","last_reported":1700316333,"current_range_meters":31200,"station_id":"ce4bhc92rcd13ifvqetg","pricing_plan_id":"free"},{"bike_id":"a524244e-9a03-4c36-b96d-34c4d258e11f","system_id":"levelo_inurba_marseille","lat":43.290104,"lon":5.356111,"is_reserved":false,"is_disabled":false,"rental_uris":{"android":"levelo://app?vid=a524244e-9a03-4c36-b96d-34c4d258e11f","ios":"levelo://app?vid=a524244e-9a03-4c36-b96d-34c4d258e11f"},"vehicle_type_id":"4","last_reported":1700316333,"current_range_meters":12000,"station_id":"ce4bhb92rcd13ifvqen0","pricing_plan_id":"free"},{"bike_id":"ef4b74ec-e64f-4b8c-a69b-b2e688e7a666","system_id":"levelo_inurba_marseille","lat":43.290103,"lon":5.356114,"is_reserved":false,"is_disabled":false,"rental_uris":{"android":"levelo://app?vid=ef4b74ec-e64f-4b8c-a69b-b2e688e7a666","ios":"levelo://app?vid=ef4b74ec-e64f-4b8c-a69b-b2e688e7a666"},"vehicle_type_id":"4","last_reported":1700316333,"current_range_meters":22400,"station_id":"ce4bhb92rcd13ifvqen0","pricing_plan_id":"free"},{"bike_id":"b085dfef-11af-4c47-a9ab-7294b2d6f66f","system_id":"levelo_inurba_marseille","lat":43.28856,"lon":5.358371,"is_reserved":false,"is_disabled":false,"rental_uris":{"android":"levelo://app?vid=b085dfef-11af-4c47-a9ab-7294b2d6f66f","ios":"levelo://app?vid=b085dfef-11af-4c47-a9ab-7294b2d6f66f"},"vehicle_type_id":"4","last_reported":1700316333,"current_range_meters":24000,"station_id":"ce4bhb12rcd13ifvqem0","pricing_plan_id":"free"},{"bike_id":"6016d48f-6aa0-4db5-9b31-47ddb4408ed6","system_id":"levelo_inurba_marseille","lat":43.33725,"lon":5.37511,"is_reserved":false,"is_disabled":false,"rental_uris":{"android":"levelo://app?vid=6016d48f-6aa0-4db5-9b31-47ddb4408ed6","ios":"levelo://app?vid=6016d48f-6aa0-4db5-9b31-47ddb4408ed6"},"vehicle_type_id":"4","last_reported":1700316333,"current_range_meters":21600,"station_id":"","pricing_plan_id":"free"},{"bike_id":"07202f70-50d7-46f0-a5bd-59712659d6a0","system_id":"levelo_inurba_marseille","lat":43.31251,"lon":5.40162,"is_reserved":false,"is_disabled":false,"rental_uris":{"android":"levelo://app?vid=07202f70-50d7-46f0-a5bd-59712659d6a0","ios":"levelo://app?vid=07202f70-50d7-46f0-a5bd-59712659d6a0"},"vehicle_type_id":"4","last_reported":1700316333,"current_range_meters":14800,"station_id":"","pricing_plan_id":"free"},{"bike_id":"dd677d89-f872-48b6-9189-ad010113377c","system_id":"levelo_inurba_marseille","lat":43.33743,"lon":5.37432,"is_reserved":false,"is_disabled":false,"rental_uris":{"android":"levelo://app?vid=dd677d89-f872-48b6-9189-ad010113377c","ios":"levelo://app?vid=dd677d89-f872-48b6-9189-ad010113377c"},"vehicle_type_id":"4","last_reported":1700316333,"current_range_meters":30800,"station_id":"","pricing_plan_id":"free"},{"bike_id":"b43eab9c-5eef-4a67-a0d9-3e343a1b2b2e","system_id":"levelo_inurba_marseille","lat":43.312609,"lon":5.401662,"is_reserved":false,"is_disabled":false,"rental_uris":{"android":"levelo://app?vid=b43eab9c-5eef-4a67-a0d9-3e343a1b2b2e","ios":"levelo://app?vid=b43eab9c-5eef-4a67-a0d9-3e343a1b2b2e"},"vehicle_type_id":"4","last_reported":1700316333,"current_range_meters":15200,"station_id":"ce4bh092rcd13ifvqd30","pricing_plan_id":"free"},{"bike_id":"b665eb7c-b1ed-4e6e-929a-d7ef15a629f4","system_id":"levelo_inurba_marseille","lat":43.312609,"lon":5.401662,"is_reserved":false,"is_disabled":false,"rental_uris":{"android":"levelo://app?vid=b665eb7c-b1ed-4e6e-929a-d7ef15a629f4","ios":"levelo://app?vid=b665eb7c-b1ed-4e6e-929a-d7ef15a629f4"},"vehicle_type_id":"4","last_reported":1700316333,"current_range_meters":6000,"station_id":"ce4bh092rcd13ifvqd30","pricing_plan_id":"free"},{"bike_id":"ad408412-26fc-4a8a-be4c-cfa5237ada3e","system_id":"levelo_inurba_marseille","lat":43.30642,"lon":5.401031,"is_reserved":false,"is_disabled":false,"rental_uris":{"android":"levelo://app?vid=ad408412-26fc-4a8a-be4c-cfa5237ada3e","ios":"levelo://app?vid=ad408412-26fc-4a8a-be4c-cfa5237ada3e"},"vehicle_type_id":"4","last_reported":1700316333,"current_range_meters":26000,"station_id":"ce4bh112rcd13ifvqda0","pricing_plan_id":"free"},{"bike_id":"a658574e-1bf1-48f5-887a-3a7077002ac4","system_id":"levelo_inurba_marseille","lat":43.306412,"lon":5.401035,"is_reserved":false,"is_disabled":false,"rental_uris":{"android":"levelo://app?vid=a658574e-1bf1-48f5-887a-3a7077002ac4","ios":"levelo://app?vid=a658574e-1bf1-48f5-887a-3a7077002ac4"},"vehicle_type_id":"4","last_reported":1700316333,"current_range_meters":0,"station_id":"ce4bh112rcd13ifvqda0","pricing_plan_id":"free"},{"bike_id":"0b46b1b4-f42b-4e67-9aef-2797da64a2b5","system_id":"levelo_inurba_marseille","lat":43.331037,"lon":5.39278,"is_reserved":false,"is_disabled":false,"rental_uris":{"android":"levelo://app?vid=0b46b1b4-f42b-4e67-9aef-2797da64a2b5","ios":"levelo://app?vid=0b46b1b4-f42b-4e67-9aef-2797da64a2b5"},"vehicle_type_id":"4","last_reported":1700316333,"current_range_meters":18400,"station_id":"","pricing_plan_id":"free"},{"bike_id":"b65c8e81-3504-41a0-bf0d-3359b8a9c1e3","system_id":"levelo_inurba_marseille","lat":43.286961,"lon":5.373785,"is_reserved":false,"is_disabled":false,"rental_uris":{"android":"levelo://app?vid=b65c8e81-3504-41a0-bf0d-3359b8a9c1e3","ios":"levelo://app?vid=b65c8e81-3504-41a0-bf0d-3359b8a9c1e3"},"vehicle_type_id":"4","last_reported":1700316333,"current_range_meters":23600,"station_id":"ce4bh3p2rcd13ifvqdq0","pricing_plan_id":"free"},{"bike_id":"e852daa8-955b-4565-a67d-4084e9d73269","system_id":"levelo_inurba_marseille","lat":43.28412,"lon":5.37517,"is_reserved":false,"is_disabled":false,"rental_uris":{"android":"levelo://app?vid=e852daa8-955b-4565-a67d-4084e9d73269","ios":"levelo://app?vid=e852daa8-955b-4565-a67d-4084e9d73269"},"vehicle_type_id":"4","last_reported":1700316333,"current_range_meters":0,"station_id":"ce4bh412rcd13ifvqds0","pricing_plan_id":"free"},{"bike_id":"32766e57-adff-43e6-b4c3-4acbb4516be2","system_id":"levelo_inurba_marseille","lat":43.295717,"lon":5.399697,"is_reserved":false,"is_disabled":false,"rental_uris":{"android":"levelo://app?vid=32766e57-adff-43e6-b4c3-4acbb4516be2","ios":"levelo://app?vid=32766e57-adff-43e6-b4c3-4acbb4516be2"},"vehicle_type_id":"4","last_reported":1700316333,"current_range_meters":13600,"station_id":"","pricing_plan_id":"free"},{"bike_id":"83817918-40fc-48a0-b4d2-4ca9f198594c","system_id":"levelo_inurba_marseille","lat":43.294538,"lon":5.39855,"is_reserved":false,"is_disabled":false,"rental_uris":{"android":"levelo://app?vid=83817918-40fc-48a0-b4d2-4ca9f198594c","ios":"levelo://app?vid=83817918-40fc-48a0-b4d2-4ca9f198594c"},"vehicle_type_id":"4","last_reported":1700316333,"current_range_meters":0,"station_id":"","pricing_plan_id":"free"},{"bike_id":"a8ef2eee-eec2-4d99-a596-521b9d3773b3","system_id":"levelo_inurba_marseille","lat":43.319179,"lon":5.407725,"is_reserved":false,"is_disabled":false,"rental_uris":{"android":"levelo://app?vid=a8ef2eee-eec2-4d99-a596-521b9d3773b3","ios":"levelo://app?vid=a8ef2eee-eec2-4d99-a596-521b9d3773b3"},"vehicle_type_id":"4","last_reported":1700316333,"current_range_meters":16000,"station_id":"ce4bhq12rcd13ifvqhig","pricing_plan_id":"free"},{"bike_id":"bff84aa3-7110-4345-a026-17d02edad2e6","system_id":"levelo_inurba_marseille","lat":43.319179,"lon":5.407725,"is_reserved":false,"is_disabled":false,"rental_uris":{"android":"levelo://app?vid=bff84aa3-7110-4345-a026-17d02edad2e6","ios":"levelo://app?vid=bff84aa3-7110-4345-a026-17d02edad2e6"},"vehicle_type_id":"4","last_reported":1700316333,"current_range_meters":0,"station_id":"ce4bhq12rcd13ifvqhig","pricing_plan_id":"free"},{"bike_id":"5974ad3b-da81-42ca-a08b-1b3632a47afa","system_id":"levelo_inurba_marseille","lat":43.33237,"lon":5.3985,"is_reserved":false,"is_disabled":false,"rental_uris":{"android":"levelo://app?vid=5974ad3b-da81-42ca-a08b-1b3632a47afa","ios":"levelo://app?vid=5974ad3b-da81-42ca-a08b-1b3632a47afa"},"vehicle_type_id":"4","last_reported":1700316333,"current_range_meters":5200,"station_id":"","pricing_plan_id":"free"},{"bike_id":"50d0e8bb-4fe0-47da-a0cf-dd0b77bc5f3a","system_id":"levelo_inurba_marseille","lat":43.323464,"lon":5.406297,"is_reserved":false,"is_disabled":false,"rental_uris":{"android":"levelo://app?vid=50d0e8bb-4fe0-47da-a0cf-dd0b77bc5f3a","ios":"levelo://app?vid=50d0e8bb-4fe0-47da-a0cf-dd0b77bc5f3a"},"vehicle_type_id":"4","last_reported":1700316333,"current_range_meters":2400,"station_id":"ce4bhq92rcd13ifvqhjg","pricing_plan_id":"free"},{"bike_id":"eb9667e1-a11e-4abd-b937-220f698db1ce","system_id":"levelo_inurba_marseille","lat":43.323464,"lon":5.406297,"is_reserved":false,"is_disabled":false,"rental_uris":{"android":"levelo://app?vid=eb9667e1-a11e-4abd-b937-220f698db1ce","ios":"levelo://app?vid=eb9667e1-a11e-4abd-b937-220f698db1ce"},"vehicle_type_id":"4","last_reported":1700316333,"current_range_meters":8000,"station_id":"ce4bhq92rcd13ifvqhjg","pricing_plan_id":"free"},{"bike_id":"d3dd3e3d-57b0-4c9e-949f-fddd56c2349c","system_id":"levelo_inurba_marseille","lat":43.32521,"lon":5.40575,"is_reserved":false,"is_disabled":false,"rental_uris":{"android":"levelo://app?vid=d3dd3e3d-57b0-4c9e-949f-fddd56c2349c","ios":"levelo://app?vid=d3dd3e3d-57b0-4c9e-949f-fddd56c2349c"},"vehicle_type_id":"4","last_reported":1700316333,"current_range_meters":2000,"station_id":"","pricing_plan_id":"free"},{"bike_id":"deba1f81-894e-4abf-a83a-20b793565687","system_id":"levelo_inurba_marseille","lat":43.28423,"lon":5.34992,"is_reserved":false,"is_disabled":false,"rental_uris":{"android":"levelo://app?vid=deba1f81-894e-4abf-a83a-20b793565687","ios":"levelo://app?vid=deba1f81-894e-4abf-a83a-20b793565687"},"vehicle_type_id":"4","last_reported":1700316333,"current_range_meters":0,"station_id":"ce4bhbh2rcd13ifvqepg","pricing_plan_id":"free"},{"bike_id":"5eeda5fb-de0e-4e79-a098-a0add4823c4e","system_id":"levelo_inurba_marseille","lat":43.282754,"lon":5.350519,"is_reserved":false,"is_disabled":false,"rental_uris":{"android":"levelo://app?vid=5eeda5fb-de0e-4e79-a098-a0add4823c4e","ios":"levelo://app?vid=5eeda5fb-de0e-4e79-a098-a0add4823c4e"},"vehicle_type_id":"4","last_reported":1700316333,"current_range_meters":16400,"station_id":"ce4bhbp2rcd13ifvqerg","pricing_plan_id":"free"},{"bike_id":"a16a2018-2fb3-4808-8abc-066a2907cfe7","system_id":"levelo_inurba_marseille","lat":43.283502,"lon":5.386471,"is_reserved":false,"is_disabled":false,"rental_uris":{"android":"levelo://app?vid=a16a2018-2fb3-4808-8abc-066a2907cfe7","ios":"levelo://app?vid=a16a2018-2fb3-4808-8abc-066a2907cfe7"},"vehicle_type_id":"4","last_reported":1700316333,"current_range_meters":2000,"station_id":"ce4bh492rcd13ifvqdvg","pricing_plan_id":"free"},{"bike_id":"1c076b2f-f293-4814-8742-d5bbecec7dfc","system_id":"levelo_inurba_marseille","lat":43.280365,"lon":5.369545,"is_reserved":false,"is_disabled":false,"rental_uris":{"android":"levelo://app?vid=1c076b2f-f293-4814-8742-d5bbecec7dfc","ios":"levelo://app?vid=1c076b2f-f293-4814-8742-d5bbecec7dfc"},"vehicle_type_id":"4","last_reported":1700316333,"current_range_meters":21200,"station_id":"ce4bha12rcd13ifvqef0","pricing_plan_id":"free"},{"bike_id":"84290a52-357c-4fb2-9d18-2181637eb39a","system_id":"levelo_inurba_marseille","lat":43.28039,"lon":5.369297,"is_reserved":false,"is_disabled":false,"rental_uris":{"android":"levelo://app?vid=84290a52-357c-4fb2-9d18-2181637eb39a","ios":"levelo://app?vid=84290a52-357c-4fb2-9d18-2181637eb39a"},"vehicle_type_id":"4","last_reported":1700316333,"current_range_meters":16000,"station_id":"ce4bha12rcd13ifvqef0","pricing_plan_id":"free"},{"bike_id":"f7ff05bf-b33e-464f-addf-05415bff3840","system_id":"levelo_inurba_marseille","lat":43.284462,"lon":5.392121,"is_reserved":false,"is_disabled":false,"rental_uris":{"android":"levelo://app?vid=f7ff05bf-b33e-464f-addf-05415bff3840","ios":"levelo://app?vid=f7ff05bf-b33e-464f-addf-05415bff3840"},"vehicle_type_id":"4","last_reported":1700316333,"current_range_meters":11200,"station_id":"ce4bhoh2rcd13ifvqh5g","pricing_plan_id":"free"},{"bike_id":"ccf9b17e-2fb6-47d5-b5cb-73ea08fcb6e5","system_id":"levelo_inurba_marseille","lat":43.28575,"lon":5.39498,"is_reserved":false,"is_disabled":false,"rental_uris":{"android":"levelo://app?vid=ccf9b17e-2fb6-47d5-b5cb-73ea08fcb6e5","ios":"levelo://app?vid=ccf9b17e-2fb6-47d5-b5cb-73ea08fcb6e5"},"vehicle_type_id":"4","last_reported":1700316333,"current_range_meters":800,"station_id":"ce4bh292rcd13ifvqdg0","pricing_plan_id":"free"},{"bike_id":"a6846988-07cd-47fc-9f34-4a99abba11c3","system_id":"levelo_inurba_marseille","lat":43.287154,"lon":5.399979,"is_reserved":false,"is_disabled":false,"rental_uris":{"android":"levelo://app?vid=a6846988-07cd-47fc-9f34-4a99abba11c3","ios":"levelo://app?vid=a6846988-07cd-47fc-9f34-4a99abba11c3"},"vehicle_type_id":"4","last_reported":1700316333,"current_range_meters":1200,"station_id":"ce4bho92rcd13ifvqh3g","pricing_plan_id":"free"},{"bike_id":"feca28d2-7019-4e39-96be-d7938cc29597","system_id":"levelo_inurba_marseille","lat":43.32435,"lon":5.4137,"is_reserved":false,"is_disabled":false,"rental_uris":{"android":"levelo://app?vid=feca28d2-7019-4e39-96be-d7938cc29597","ios":"levelo://app?vid=feca28d2-7019-4e39-96be-d7938cc29597"},"vehicle_type_id":"4","last_reported":1700316333,"current_range_meters":0,"station_id":"","pricing_plan_id":"free"},{"bike_id":"14ad6873-0666-4c2a-8ddc-98a18e1fe620","system_id":"levelo_inurba_marseille","lat":43.279742,"lon":5.38744,"is_reserved":false,"is_disabled":false,"rental_uris":{"android":"levelo://app?vid=14ad6873-0666-4c2a-8ddc-98a18e1fe620","ios":"levelo://app?vid=14ad6873-0666-4c2a-8ddc-98a18e1fe620"},"vehicle_type_id":"4","last_reported":1700316333,"current_range_meters":16800,"station_id":"ce4bhg12rcd13ifvqf80","pricing_plan_id":"free"},{"bike_id":"c0ec1e55-a523-4b08-aa67-789706f2ad3c","system_id":"levelo_inurba_marseille","lat":43.292571,"lon":5.409107,"is_reserved":false,"is_disabled":false,"rental_uris":{"android":"levelo://app?vid=c0ec1e55-a523-4b08-aa67-789706f2ad3c","ios":"levelo://app?vid=c0ec1e55-a523-4b08-aa67-789706f2ad3c"},"vehicle_type_id":"4","last_reported":1700316333,"current_range_meters":13600,"station_id":"ce4bh192rcd13ifvqdc0","pricing_plan_id":"free"},{"bike_id":"fd915399-be6c-4127-b7d4-e4c68b539f4a","system_id":"levelo_inurba_marseille","lat":43.276179,"lon":5.361009,"is_reserved":false,"is_disabled":false,"rental_uris":{"android":"levelo://app?vid=fd915399-be6c-4127-b7d4-e4c68b539f4a","ios":"levelo://app?vid=fd915399-be6c-4127-b7d4-e4c68b539f4a"},"vehicle_type_id":"4","last_reported":1700316333,"current_range_meters":30400,"station_id":"ce4bgj92rcd13ifvqbe0","pricing_plan_id":"free"},{"bike_id":"f1f78794-b5e0-45ba-abc5-2a79da2c827c","system_id":"levelo_inurba_marseille","lat":43.280784,"lon":5.396622,"is_reserved":false,"is_disabled":false,"rental_uris":{"android":"levelo://app?vid=f1f78794-b5e0-45ba-abc5-2a79da2c827c","ios":"levelo://app?vid=f1f78794-b5e0-45ba-abc5-2a79da2c827c"},"vehicle_type_id":"4","last_reported":1700316333,"current_range_meters":14800,"station_id":"ce4bho12rcd13ifvqh2g","pricing_plan_id":"free"},{"bike_id":"fea945b7-0bfd-41d9-9cb2-859b467d1383","system_id":"levelo_inurba_marseille","lat":43.303837,"lon":5.418724,"is_reserved":false,"is_disabled":false,"rental_uris":{"android":"levelo://app?vid=fea945b7-0bfd-41d9-9cb2-859b467d1383","ios":"levelo://app?vid=fea945b7-0bfd-41d9-9cb2-859b467d1383"},"vehicle_type_id":"4","last_reported":1700316333,"current_range_meters":20000,"station_id":"ce4bhop2rcd13ifvqh7g","pricing_plan_id":"free"},{"bike_id":"e4de1845-2246-48c0-8cc9-38a5ef55c497","system_id":"levelo_inurba_marseille","lat":43.27836,"lon":5.39208,"is_reserved":false,"is_disabled":false,"rental_uris":{"android":"levelo://app?vid=e4de1845-2246-48c0-8cc9-38a5ef55c497","ios":"levelo://app?vid=e4de1845-2246-48c0-8cc9-38a5ef55c497"},"vehicle_type_id":"4","last_reported":1700316333,"current_range_meters":25200,"station_id":"ce4bhjp2rcd13ifvqga0","pricing_plan_id":"free"},{"bike_id":"5e797549-0eae-433d-8eb2-8c381eeccef5","system_id":"levelo_inurba_marseille","lat":43.273609,"lon":5.362708,"is_reserved":false,"is_disabled":false,"rental_uris":{"android":"levelo://app?vid=5e797549-0eae-433d-8eb2-8c381eeccef5","ios":"levelo://app?vid=5e797549-0eae-433d-8eb2-8c381eeccef5"},"vehicle_type_id":"4","last_reported":1700316333,"current_range_meters":31200,"station_id":"ce4bhbh2rcd13ifvqeo0","pricing_plan_id":"free"},{"bike_id":"1a85fe04-1faa-465b-96b1-99879f216c8a","system_id":"levelo_inurba_marseille","lat":43.273609,"lon":5.362708,"is_reserved":false,"is_disabled":false,"rental_uris":{"android":"levelo://app?vid=1a85fe04-1faa-465b-96b1-99879f216c8a","ios":"levelo://app?vid=1a85fe04-1faa-465b-96b1-99879f216c8a"},"vehicle_type_id":"4","last_reported":1700316333,"current_range_meters":30400,"station_id":"ce4bhbh2rcd13ifvqeo0","pricing_plan_id":"free"},{"bike_id":"1ad4bac4-5418-4256-8ec1-771af925d1d3","system_id":"levelo_inurba_marseille","lat":43.33612,"lon":5.410321,"is_reserved":false,"is_disabled":false,"rental_uris":{"android":"levelo://app?vid=1ad4bac4-5418-4256-8ec1-771af925d1d3","ios":"levelo://app?vid=1ad4bac4-5418-4256-8ec1-771af925d1d3"},"vehicle_type_id":"4","last_reported":1700316333,"current_range_meters":22000,"station_id":"ce4bhqh2rcd13ifvqhmg","pricing_plan_id":"free"},{"bike_id":"1cb2a7a7-26e8-44e5-894e-0ccc0d8d8cc7","system_id":"levelo_inurba_marseille","lat":43.33612,"lon":5.410321,"is_reserved":false,"is_disabled":false,"rental_uris":{"android":"levelo://app?vid=1cb2a7a7-26e8-44e5-894e-0ccc0d8d8cc7","ios":"levelo://app?vid=1cb2a7a7-26e8-44e5-894e-0ccc0d8d8cc7"},"vehicle_type_id":"4","last_reported":1700316333,"current_range_meters":12800,"station_id":"ce4bhqh2rcd13ifvqhmg","pricing_plan_id":"free"},{"bike_id":"d10fa51c-e6d7-4dca-9949-555b5e907451","system_id":"levelo_inurba_marseille","lat":43.33612,"lon":5.410321,"is_reserved":false,"is_disabled":false,"rental_uris":{"android":"levelo://app?vid=d10fa51c-e6d7-4dca-9949-555b5e907451","ios":"levelo://app?vid=d10fa51c-e6d7-4dca-9949-555b5e907451"},"vehicle_type_id":"4","last_reported":1700316333,"current_range_meters":9200,"station_id":"ce4bhqh2rcd13ifvqhmg","pricing_plan_id":"free"},{"bike_id":"ef1c6620-0330-4606-96e5-6c5e1567f762","system_id":"levelo_inurba_marseille","lat":43.279952,"lon":5.400085,"is_reserved":false,"is_disabled":false,"rental_uris":{"android":"levelo://app?vid=ef1c6620-0330-4606-96e5-6c5e1567f762","ios":"levelo://app?vid=ef1c6620-0330-4606-96e5-6c5e1567f762"},"vehicle_type_id":"4","last_reported":1700316333,"current_range_meters":19200,"station_id":"ce4bho92rcd13ifvqh4g","pricing_plan_id":"free"},{"bike_id":"21a79381-c590-43fa-b57c-d9f763a4b9f0","system_id":"levelo_inurba_marseille","lat":43.279952,"lon":5.400085,"is_reserved":false,"is_disabled":false,"rental_uris":{"android":"levelo://app?vid=21a79381-c590-43fa-b57c-d9f763a4b9f0","ios":"levelo://app?vid=21a79381-c590-43fa-b57c-d9f763a4b9f0"},"vehicle_type_id":"4","last_reported":1700316333,"current_range_meters":24800,"station_id":"ce4bho92rcd13ifvqh4g","pricing_plan_id":"free"},{"bike_id":"d140335c-1c2c-43ee-93d2-09ee5fb522d0","system_id":"levelo_inurba_marseille","lat":43.279952,"lon":5.400085,"is_reserved":false,"is_disabled":false,"rental_uris":{"android":"levelo://app?vid=d140335c-1c2c-43ee-93d2-09ee5fb522d0","ios":"levelo://app?vid=d140335c-1c2c-43ee-93d2-09ee5fb522d0"},"vehicle_type_id":"4","last_reported":1700316333,"current_range_meters":25600,"station_id":"ce4bho92rcd13ifvqh4g","pricing_plan_id":"free"},{"bike_id":"fb22bd50-f0d2-4147-96d1-15b1701477ba","system_id":"levelo_inurba_marseille","lat":43.31718,"lon":5.42398,"is_reserved":false,"is_disabled":false,"rental_uris":{"android":"levelo://app?vid=fb22bd50-f0d2-4147-96d1-15b1701477ba","ios":"levelo://app?vid=fb22bd50-f0d2-4147-96d1-15b1701477ba"},"vehicle_type_id":"4","last_reported":1700316333,"current_range_meters":6800,"station_id":"ce4bhp92rcd13ifvqhbg","pricing_plan_id":"free"},{"bike_id":"1f675464-1fc9-4eb9-949d-be8a1f26b9d4","system_id":"levelo_inurba_marseille","lat":43.31081,"lon":5.42429,"is_reserved":false,"is_disabled":false,"rental_uris":{"android":"levelo://app?vid=1f675464-1fc9-4eb9-949d-be8a1f26b9d4","ios":"levelo://app?vid=1f675464-1fc9-4eb9-949d-be8a1f26b9d4"},"vehicle_type_id":"4","last_reported":1700316333,"current_range_meters":29600,"station_id":"ce4bhp92rcd13ifvqhag","pricing_plan_id":"free"},{"bike_id":"081ea462-2f4d-44b2-8e3e-1de5c090bd80","system_id":"levelo_inurba_marseille","lat":43.31082,"lon":5.4243,"is_reserved":false,"is_disabled":false,"rental_uris":{"android":"levelo://app?vid=081ea462-2f4d-44b2-8e3e-1de5c090bd80","ios":"levelo://app?vid=081ea462-2f4d-44b2-8e3e-1de5c090bd80"},"vehicle_type_id":"4","last_reported":1700316333,"current_range_meters":10400,"station_id":"ce4bhp92rcd13ifvqhag","pricing_plan_id":"free"},{"bike_id":"2eb9c8ea-eafc-4114-96e5-18995d764647","system_id":"levelo_inurba_marseille","lat":43.31081,"lon":5.4243,"is_reserved":false,"is_disabled":false,"rental_uris":{"android":"levelo://app?vid=2eb9c8ea-eafc-4114-96e5-18995d764647","ios":"levelo://app?vid=2eb9c8ea-eafc-4114-96e5-18995d764647"},"vehicle_type_id":"4","last_reported":1700316333,"current_range_meters":27600,"station_id":"ce4bhp92rcd13ifvqhag","pricing_plan_id":"free"},{"bike_id":"d066bff7-af41-45ef-bc79-7764f8a50f6c","system_id":"levelo_inurba_marseille","lat":43.31077,"lon":5.42432,"is_reserved":false,"is_disabled":false,"rental_uris":{"android":"levelo://app?vid=d066bff7-af41-45ef-bc79-7764f8a50f6c","ios":"levelo://app?vid=d066bff7-af41-45ef-bc79-7764f8a50f6c"},"vehicle_type_id":"4","last_reported":1700316333,"current_range_meters":2800,"station_id":"ce4bhp92rcd13ifvqhag","pricing_plan_id":"free"},{"bike_id":"8fb31842-3d9b-47a9-b6e3-f0634209736f","system_id":"levelo_inurba_marseille","lat":43.273125,"lon":5.390731,"is_reserved":false,"is_disabled":false,"rental_uris":{"android":"levelo://app?vid=8fb31842-3d9b-47a9-b6e3-f0634209736f","ios":"levelo://app?vid=8fb31842-3d9b-47a9-b6e3-f0634209736f"},"vehicle_type_id":"4","last_reported":1700316333,"current_range_meters":0,"station_id":"ce4bhgp2rcd13ifvqfe0","pricing_plan_id":"free"},{"bike_id":"f8db279d-aa51-481d-bafb-909bc3fe99cd","system_id":"levelo_inurba_marseille","lat":43.273125,"lon":5.390731,"is_reserved":false,"is_disabled":false,"rental_uris":{"android":"levelo://app?vid=f8db279d-aa51-481d-bafb-909bc3fe99cd","ios":"levelo://app?vid=f8db279d-aa51-481d-bafb-909bc3fe99cd"},"vehicle_type_id":"4","last_reported":1700316333,"current_range_meters":17200,"station_id":"ce4bhgp2rcd13ifvqfe0","pricing_plan_id":"free"},{"bike_id":"988a60b3-356a-4064-a52c-73f17ddf6451","system_id":"levelo_inurba_marseille","lat":43.274103,"lon":5.394016,"is_reserved":false,"is_disabled":false,"rental_uris":{"android":"levelo://app?vid=988a60b3-356a-4064-a52c-73f17ddf6451","ios":"levelo://app?vid=988a60b3-356a-4064-a52c-73f17ddf6451"},"vehicle_type_id":"4","last_reported":1700316333,"current_range_meters":23600,"station_id":"ce4bhdp2rcd13ifvqf20","pricing_plan_id":"free"},{"bike_id":"7d1f97b9-ee6c-4ac2-832f-ccde09d82150","system_id":"levelo_inurba_marseille","lat":43.295511,"lon":5.422926,"is_reserved":false,"is_disabled":false,"rental_uris":{"android":"levelo://app?vid=7d1f97b9-ee6c-4ac2-832f-ccde09d82150","ios":"levelo://app?vid=7d1f97b9-ee6c-4ac2-832f-ccde09d82150"},"vehicle_type_id":"4","last_reported":1700316333,"current_range_meters":12400,"station_id":"ce4bhph2rcd13ifvqhdg","pricing_plan_id":"free"},{"bike_id":"f8f5619a-a183-461d-b100-453fb972fcd4","system_id":"levelo_inurba_marseille","lat":43.272118,"lon":5.391758,"is_reserved":false,"is_disabled":false,"rental_uris":{"android":"levelo://app?vid=f8f5619a-a183-461d-b100-453fb972fcd4","ios":"levelo://app?vid=f8f5619a-a183-461d-b100-453fb972fcd4"},"vehicle_type_id":"4","last_reported":1700316333,"current_range_meters":28400,"station_id":"ce4bhhp2rcd13ifvqfm0","pricing_plan_id":"free"},{"bike_id":"f627a40f-ab98-4cb8-b34f-c30f718f922a","system_id":"levelo_inurba_marseille","lat":43.272116,"lon":5.391763,"is_reserved":false,"is_disabled":false,"rental_uris":{"android":"levelo://app?vid=f627a40f-ab98-4cb8-b34f-c30f718f922a","ios":"levelo://app?vid=f627a40f-ab98-4cb8-b34f-c30f718f922a"},"vehicle_type_id":"4","last_reported":1700316333,"current_range_meters":0,"station_id":"ce4bhhp2rcd13ifvqfm0","pricing_plan_id":"free"},{"bike_id":"139753b1-0b83-4c3a-80f1-5052bac15461","system_id":"levelo_inurba_marseille","lat":43.2722,"lon":5.39237,"is_reserved":false,"is_disabled":false,"rental_uris":{"android":"levelo://app?vid=139753b1-0b83-4c3a-80f1-5052bac15461","ios":"levelo://app?vid=139753b1-0b83-4c3a-80f1-5052bac15461"},"vehicle_type_id":"4","last_reported":1700316333,"current_range_meters":9600,"station_id":"","pricing_plan_id":"free"},{"bike_id":"8e9cebcc-1987-4348-87cf-10365cf07425","system_id":"levelo_inurba_marseille","lat":43.272183,"lon":5.39261,"is_reserved":false,"is_disabled":false,"rental_uris":{"android":"levelo://app?vid=8e9cebcc-1987-4348-87cf-10365cf07425","ios":"levelo://app?vid=8e9cebcc-1987-4348-87cf-10365cf07425"},"vehicle_type_id":"4","last_reported":1700316333,"current_range_meters":3200,"station_id":"","pricing_plan_id":"free"},{"bike_id":"fe139271-7817-4645-9ec4-f7eee743e805","system_id":"levelo_inurba_marseille","lat":43.271896,"lon":5.392307,"is_reserved":false,"is_disabled":false,"rental_uris":{"android":"levelo://app?vid=fe139271-7817-4645-9ec4-f7eee743e805","ios":"levelo://app?vid=fe139271-7817-4645-9ec4-f7eee743e805"},"vehicle_type_id":"4","last_reported":1700316333,"current_range_meters":0,"station_id":"ce4bhhp2rcd13ifvqfm0","pricing_plan_id":"free"},{"bike_id":"f0ed4531-078e-42fb-a007-3ed80505eb54","system_id":"levelo_inurba_marseille","lat":43.271891,"lon":5.392412,"is_reserved":false,"is_disabled":false,"rental_uris":{"android":"levelo://app?vid=f0ed4531-078e-42fb-a007-3ed80505eb54","ios":"levelo://app?vid=f0ed4531-078e-42fb-a007-3ed80505eb54"},"vehicle_type_id":"4","last_reported":1700316333,"current_range_meters":6800,"station_id":"","pricing_plan_id":"free"},{"bike_id":"c542c28d-3bc2-4983-a8b9-1804153e9e87","system_id":"levelo_inurba_marseille","lat":43.26977,"lon":5.3867,"is_reserved":false,"is_disabled":false,"rental_uris":{"android":"levelo://app?vid=c542c28d-3bc2-4983-a8b9-1804153e9e87","ios":"levelo://app?vid=c542c28d-3bc2-4983-a8b9-1804153e9e87"},"vehicle_type_id":"4","last_reported":1700316333,"current_range_meters":15600,"station_id":"ce4bhh92rcd13ifvqfh0","pricing_plan_id":"free"},{"bike_id":"f2e047b8-a8c4-45e3-b12f-8c8901b1d441","system_id":"levelo_inurba_marseille","lat":43.269467,"lon":5.386439,"is_reserved":false,"is_disabled":false,"rental_uris":{"android":"levelo://app?vid=f2e047b8-a8c4-45e3-b12f-8c8901b1d441","ios":"levelo://app?vid=f2e047b8-a8c4-45e3-b12f-8c8901b1d441"},"vehicle_type_id":"4","last_reported":1700316333,"current_range_meters":28400,"station_id":"ce4bhh92rcd13ifvqfh0","pricing_plan_id":"free"},{"bike_id":"462126be-b935-4202-aab0-db26edf447e2","system_id":"levelo_inurba_marseille","lat":43.326111,"lon":5.427105,"is_reserved":false,"is_disabled":false,"rental_uris":{"android":"levelo://app?vid=462126be-b935-4202-aab0-db26edf447e2","ios":"levelo://app?vid=462126be-b935-4202-aab0-db26edf447e2"},"vehicle_type_id":"4","last_reported":1700316333,"current_range_meters":11600,"station_id":"","pricing_plan_id":"free"},{"bike_id":"f9f019d5-2135-4be4-934c-fb07f580f7ed","system_id":"levelo_inurba_marseille","lat":43.265598,"lon":5.372792,"is_reserved":false,"is_disabled":false,"rental_uris":{"android":"levelo://app?vid=f9f019d5-2135-4be4-934c-fb07f580f7ed","ios":"levelo://app?vid=f9f019d5-2135-4be4-934c-fb07f580f7ed"},"vehicle_type_id":"4","last_reported":1700316333,"current_range_meters":20400,"station_id":"ce4bhg12rcd13ifvqf70","pricing_plan_id":"free"},{"bike_id":"601c6645-7a82-4610-a700-f791a1f95a5a","system_id":"levelo_inurba_marseille","lat":43.26681,"lon":5.382694,"is_reserved":false,"is_disabled":false,"rental_uris":{"android":"levelo://app?vid=601c6645-7a82-4610-a700-f791a1f95a5a","ios":"levelo://app?vid=601c6645-7a82-4610-a700-f791a1f95a5a"},"vehicle_type_id":"4","last_reported":1700316333,"current_range_meters":22000,"station_id":"ce4bhg92rcd13ifvqf90","pricing_plan_id":"free"},{"bike_id":"3d39e709-a556-4709-9c2e-8f2ebf0ca07f","system_id":"levelo_inurba_marseille","lat":43.26676,"lon":5.38269,"is_reserved":false,"is_disabled":false,"rental_uris":{"android":"levelo://app?vid=3d39e709-a556-4709-9c2e-8f2ebf0ca07f","ios":"levelo://app?vid=3d39e709-a556-4709-9c2e-8f2ebf0ca07f"},"vehicle_type_id":"4","last_reported":1700316333,"current_range_meters":0,"station_id":"ce4bhg92rcd13ifvqf90","pricing_plan_id":"free"},{"bike_id":"381a1fda-04c9-4584-b5b8-284c45bbe522","system_id":"levelo_inurba_marseille","lat":43.26551,"lon":5.37287,"is_reserved":false,"is_disabled":false,"rental_uris":{"android":"levelo://app?vid=381a1fda-04c9-4584-b5b8-284c45bbe522","ios":"levelo://app?vid=381a1fda-04c9-4584-b5b8-284c45bbe522"},"vehicle_type_id":"4","last_reported":1700316333,"current_range_meters":0,"station_id":"ce4bhg12rcd13ifvqf70","pricing_plan_id":"free"},{"bike_id":"c7758cb2-2a45-4f89-aa5c-0e391d845c76","system_id":"levelo_inurba_marseille","lat":43.326053,"lon":5.429943,"is_reserved":false,"is_disabled":false,"rental_uris":{"android":"levelo://app?vid=c7758cb2-2a45-4f89-aa5c-0e391d845c76","ios":"levelo://app?vid=c7758cb2-2a45-4f89-aa5c-0e391d845c76"},"vehicle_type_id":"4","last_reported":1700316333,"current_range_meters":4000,"station_id":"","pricing_plan_id":"free"},{"bike_id":"42871d3b-8c03-490f-baf1-f4b57c44a331","system_id":"levelo_inurba_marseille","lat":43.3263,"lon":5.430806,"is_reserved":false,"is_disabled":false,"rental_uris":{"android":"levelo://app?vid=42871d3b-8c03-490f-baf1-f4b57c44a331","ios":"levelo://app?vid=42871d3b-8c03-490f-baf1-f4b57c44a331"},"vehicle_type_id":"4","last_reported":1700316333,"current_range_meters":17200,"station_id":"","pricing_plan_id":"free"},{"bike_id":"a67322e1-89e0-4e4b-98f1-94f3e905e9b0","system_id":"levelo_inurba_marseille","lat":43.27996,"lon":5.416624,"is_reserved":false,"is_disabled":false,"rental_uris":{"android":"levelo://app?vid=a67322e1-89e0-4e4b-98f1-94f3e905e9b0","ios":"levelo://app?vid=a67322e1-89e0-4e4b-98f1-94f3e905e9b0"},"vehicle_type_id":"4","last_reported":1700316333,"current_range_meters":4800,"station_id":"ce4bho12rcd13ifvqh1g","pricing_plan_id":"free"},{"bike_id":"5c9955c0-8303-4a13-bb91-f6ce1376fcdd","system_id":"levelo_inurba_marseille","lat":43.26945,"lon":5.40244,"is_reserved":false,"is_disabled":false,"rental_uris":{"android":"levelo://app?vid=5c9955c0-8303-4a13-bb91-f6ce1376fcdd","ios":"levelo://app?vid=5c9955c0-8303-4a13-bb91-f6ce1376fcdd"},"vehicle_type_id":"4","last_reported":1700316333,"current_range_meters":0,"station_id":"cjm6bp8fraef2m0cb0m0","pricing_plan_id":"free"},{"bike_id":"085fe08f-317e-46d1-a2b7-ca5b37309f48","system_id":"levelo_inurba_marseille","lat":43.26949,"lon":5.40262,"is_reserved":false,"is_disabled":false,"rental_uris":{"android":"levelo://app?vid=085fe08f-317e-46d1-a2b7-ca5b37309f48","ios":"levelo://app?vid=085fe08f-317e-46d1-a2b7-ca5b37309f48"},"vehicle_type_id":"4","last_reported":1700316333,"current_range_meters":19200,"station_id":"cjm6bp8fraef2m0cb0m0","pricing_plan_id":"free"},{"bike_id":"f704d22a-a0f0-49b9-aa98-a1d54a1d1465","system_id":"levelo_inurba_marseille","lat":43.261782,"lon":5.374515,"is_reserved":false,"is_disabled":false,"rental_uris":{"android":"levelo://app?vid=f704d22a-a0f0-49b9-aa98-a1d54a1d1465","ios":"levelo://app?vid=f704d22a-a0f0-49b9-aa98-a1d54a1d1465"},"vehicle_type_id":"4","last_reported":1700316333,"current_range_meters":10000,"station_id":"ce4bhgp2rcd13ifvqfc0","pricing_plan_id":"free"},{"bike_id":"ec3da3bf-d9cb-444b-851d-83422d0bed0c","system_id":"levelo_inurba_marseille","lat":43.261782,"lon":5.374515,"is_reserved":false,"is_disabled":false,"rental_uris":{"android":"levelo://app?vid=ec3da3bf-d9cb-444b-851d-83422d0bed0c","ios":"levelo://app?vid=ec3da3bf-d9cb-444b-851d-83422d0bed0c"},"vehicle_type_id":"4","last_reported":1700316333,"current_range_meters":12800,"station_id":"ce4bhgp2rcd13ifvqfc0","pricing_plan_id":"free"},{"bike_id":"bab5133b-50ff-4fc8-8d96-d66f2e660d8f","system_id":"levelo_inurba_marseille","lat":43.261782,"lon":5.374515,"is_reserved":false,"is_disabled":false,"rental_uris":{"android":"levelo://app?vid=bab5133b-50ff-4fc8-8d96-d66f2e660d8f","ios":"levelo://app?vid=bab5133b-50ff-4fc8-8d96-d66f2e660d8f"},"vehicle_type_id":"4","last_reported":1700316333,"current_range_meters":1200,"station_id":"ce4bhgp2rcd13ifvqfc0","pricing_plan_id":"free"},{"bike_id":"f0bbb8a8-7fbb-4cd5-90dc-aa53da8fd44c","system_id":"levelo_inurba_marseille","lat":43.26184,"lon":5.37448,"is_reserved":false,"is_disabled":false,"rental_uris":{"android":"levelo://app?vid=f0bbb8a8-7fbb-4cd5-90dc-aa53da8fd44c","ios":"levelo://app?vid=f0bbb8a8-7fbb-4cd5-90dc-aa53da8fd44c"},"vehicle_type_id":"4","last_reported":1700316333,"current_range_meters":6400,"station_id":"ce4bhgp2rcd13ifvqfc0","pricing_plan_id":"free"},{"bike_id":"d077710c-062f-4bb5-bc07-f925193fbbe9","system_id":"levelo_inurba_marseille","lat":43.31711,"lon":5.43706,"is_reserved":false,"is_disabled":false,"rental_uris":{"android":"levelo://app?vid=d077710c-062f-4bb5-bc07-f925193fbbe9","ios":"levelo://app?vid=d077710c-062f-4bb5-bc07-f925193fbbe9"},"vehicle_type_id":"4","last_reported":1700316333,"current_range_meters":6800,"station_id":"ce4bhp92rcd13ifvqhcg","pricing_plan_id":"free"},{"bike_id":"802ce0a4-d556-447b-bd93-4352fcbc5e24","system_id":"levelo_inurba_marseille","lat":43.317104,"lon":5.436818,"is_reserved":false,"is_disabled":false,"rental_uris":{"android":"levelo://app?vid=802ce0a4-d556-447b-bd93-4352fcbc5e24","ios":"levelo://app?vid=802ce0a4-d556-447b-bd93-4352fcbc5e24"},"vehicle_type_id":"4","last_reported":1700316333,"current_range_meters":30000,"station_id":"ce4bhp92rcd13ifvqhcg","pricing_plan_id":"free"},{"bike_id":"784d80d8-896e-47bd-b3d7-848c15221843","system_id":"levelo_inurba_marseille","lat":43.3171,"lon":5.43708,"is_reserved":false,"is_disabled":false,"rental_uris":{"android":"levelo://app?vid=784d80d8-896e-47bd-b3d7-848c15221843","ios":"levelo://app?vid=784d80d8-896e-47bd-b3d7-848c15221843"},"vehicle_type_id":"4","last_reported":1700316333,"current_range_meters":29200,"station_id":"ce4bhp92rcd13ifvqhcg","pricing_plan_id":"free"},{"bike_id":"4b7596d7-db80-4dbb-bc64-56cbf096b932","system_id":"levelo_inurba_marseille","lat":43.31711,"lon":5.43708,"is_reserved":false,"is_disabled":false,"rental_uris":{"android":"levelo://app?vid=4b7596d7-db80-4dbb-bc64-56cbf096b932","ios":"levelo://app?vid=4b7596d7-db80-4dbb-bc64-56cbf096b932"},"vehicle_type_id":"4","last_reported":1700316333,"current_range_meters":5200,"station_id":"ce4bhp92rcd13ifvqhcg","pricing_plan_id":"free"},{"bike_id":"3e9ced98-14cb-44d0-9cef-8c230f99f038","system_id":"levelo_inurba_marseille","lat":43.271388,"lon":5.409269,"is_reserved":false,"is_disabled":false,"rental_uris":{"android":"levelo://app?vid=3e9ced98-14cb-44d0-9cef-8c230f99f038","ios":"levelo://app?vid=3e9ced98-14cb-44d0-9cef-8c230f99f038"},"vehicle_type_id":"4","last_reported":1700316333,"current_range_meters":12000,"station_id":"ce4bhl12rcd13ifvqgf0","pricing_plan_id":"free"},{"bike_id":"36493ce4-0d83-4fc4-9234-d00c435f602c","system_id":"levelo_inurba_marseille","lat":43.267959,"lon":5.402685,"is_reserved":false,"is_disabled":false,"rental_uris":{"android":"levelo://app?vid=36493ce4-0d83-4fc4-9234-d00c435f602c","ios":"levelo://app?vid=36493ce4-0d83-4fc4-9234-d00c435f602c"},"vehicle_type_id":"4","last_reported":1700316333,"current_range_meters":24800,"station_id":"ce501612rcd8frsf0b60","pricing_plan_id":"free"},{"bike_id":"74ce853b-0d8b-42c9-81c8-17a7564a4b34","system_id":"levelo_inurba_marseille","lat":43.31725,"lon":5.43786,"is_reserved":false,"is_disabled":false,"rental_uris":{"android":"levelo://app?vid=74ce853b-0d8b-42c9-81c8-17a7564a4b34","ios":"levelo://app?vid=74ce853b-0d8b-42c9-81c8-17a7564a4b34"},"vehicle_type_id":"4","last_reported":1700316333,"current_range_meters":18400,"station_id":"","pricing_plan_id":"free"},{"bike_id":"4f6880f4-3164-4fc2-9cf7-3c1358040f10","system_id":"levelo_inurba_marseille","lat":43.290501,"lon":5.433305,"is_reserved":false,"is_disabled":false,"rental_uris":{"android":"levelo://app?vid=4f6880f4-3164-4fc2-9cf7-3c1358040f10","ios":"levelo://app?vid=4f6880f4-3164-4fc2-9cf7-3c1358040f10"},"vehicle_type_id":"4","last_reported":1700316333,"current_range_meters":0,"station_id":"","pricing_plan_id":"free"},{"bike_id":"0e7d9356-4c6d-4c5c-b8dd-3be851203d88","system_id":"levelo_inurba_marseille","lat":43.281548,"lon":5.42643,"is_reserved":false,"is_disabled":false,"rental_uris":{"android":"levelo://app?vid=0e7d9356-4c6d-4c5c-b8dd-3be851203d88","ios":"levelo://app?vid=0e7d9356-4c6d-4c5c-b8dd-3be851203d88"},"vehicle_type_id":"4","last_reported":1700316333,"current_range_meters":31200,"station_id":"ce4bhnh2rcd13ifvqgug","pricing_plan_id":"free"},{"bike_id":"c687b984-17d3-4d86-b43e-f65a96a30c7c","system_id":"levelo_inurba_marseille","lat":43.281548,"lon":5.42643,"is_reserved":false,"is_disabled":false,"rental_uris":{"android":"levelo://app?vid=c687b984-17d3-4d86-b43e-f65a96a30c7c","ios":"levelo://app?vid=c687b984-17d3-4d86-b43e-f65a96a30c7c"},"vehicle_type_id":"4","last_reported":1700316333,"current_range_meters":30400,"station_id":"ce4bhnh2rcd13ifvqgug","pricing_plan_id":"free"},{"bike_id":"e519433d-e174-46ac-866c-5aa69d990273","system_id":"levelo_inurba_marseille","lat":43.281548,"lon":5.42643,"is_reserved":false,"is_disabled":false,"rental_uris":{"android":"levelo://app?vid=e519433d-e174-46ac-866c-5aa69d990273","ios":"levelo://app?vid=e519433d-e174-46ac-866c-5aa69d990273"},"vehicle_type_id":"4","last_reported":1700316333,"current_range_meters":23200,"station_id":"ce4bhnh2rcd13ifvqgug","pricing_plan_id":"free"},{"bike_id":"bb259881-9c2f-4a0e-b438-5971ada3587f","system_id":"levelo_inurba_marseille","lat":43.281548,"lon":5.42643,"is_reserved":false,"is_disabled":false,"rental_uris":{"android":"levelo://app?vid=bb259881-9c2f-4a0e-b438-5971ada3587f","ios":"levelo://app?vid=bb259881-9c2f-4a0e-b438-5971ada3587f"},"vehicle_type_id":"4","last_reported":1700316333,"current_range_meters":3200,"station_id":"ce4bhnh2rcd13ifvqgug","pricing_plan_id":"free"},{"bike_id":"8e47fb1c-8820-40c2-9716-703cc59fb835","system_id":"levelo_inurba_marseille","lat":43.281548,"lon":5.42643,"is_reserved":false,"is_disabled":false,"rental_uris":{"android":"levelo://app?vid=8e47fb1c-8820-40c2-9716-703cc59fb835","ios":"levelo://app?vid=8e47fb1c-8820-40c2-9716-703cc59fb835"},"vehicle_type_id":"4","last_reported":1700316333,"current_range_meters":31200,"station_id":"ce4bhnh2rcd13ifvqgug","pricing_plan_id":"free"},{"bike_id":"8e6f5f20-81b8-452e-8169-214f97831e53","system_id":"levelo_inurba_marseille","lat":43.281548,"lon":5.42643,"is_reserved":false,"is_disabled":false,"rental_uris":{"android":"levelo://app?vid=8e6f5f20-81b8-452e-8169-214f97831e53","ios":"levelo://app?vid=8e6f5f20-81b8-452e-8169-214f97831e53"},"vehicle_type_id":"4","last_reported":1700316333,"current_range_meters":31200,"station_id":"ce4bhnh2rcd13ifvqgug","pricing_plan_id":"free"},{"bike_id":"a0d59a27-45ae-4c52-95c3-c9f8994fc187","system_id":"levelo_inurba_marseille","lat":43.281548,"lon":5.42643,"is_reserved":false,"is_disabled":false,"rental_uris":{"android":"levelo://app?vid=a0d59a27-45ae-4c52-95c3-c9f8994fc187","ios":"levelo://app?vid=a0d59a27-45ae-4c52-95c3-c9f8994fc187"},"vehicle_type_id":"4","last_reported":1700316333,"current_range_meters":19200,"station_id":"ce4bhnh2rcd13ifvqgug","pricing_plan_id":"free"},{"bike_id":"67650160-3b05-4f79-94f5-55b3cdd7a959","system_id":"levelo_inurba_marseille","lat":43.281548,"lon":5.42643,"is_reserved":false,"is_disabled":false,"rental_uris":{"android":"levelo://app?vid=67650160-3b05-4f79-94f5-55b3cdd7a959","ios":"levelo://app?vid=67650160-3b05-4f79-94f5-55b3cdd7a959"},"vehicle_type_id":"4","last_reported":1700316333,"current_range_meters":20400,"station_id":"ce4bhnh2rcd13ifvqgug","pricing_plan_id":"free"},{"bike_id":"ba343a96-b108-42f1-a93c-b6a851b91747","system_id":"levelo_inurba_marseille","lat":43.281548,"lon":5.42643,"is_reserved":false,"is_disabled":false,"rental_uris":{"android":"levelo://app?vid=ba343a96-b108-42f1-a93c-b6a851b91747","ios":"levelo://app?vid=ba343a96-b108-42f1-a93c-b6a851b91747"},"vehicle_type_id":"4","last_reported":1700316333,"current_range_meters":31600,"station_id":"ce4bhnh2rcd13ifvqgug","pricing_plan_id":"free"},{"bike_id":"d88b6a73-531b-425a-9e55-b97c354f59a2","system_id":"levelo_inurba_marseille","lat":43.32276,"lon":5.43926,"is_reserved":false,"is_disabled":false,"rental_uris":{"android":"levelo://app?vid=d88b6a73-531b-425a-9e55-b97c354f59a2","ios":"levelo://app?vid=d88b6a73-531b-425a-9e55-b97c354f59a2"},"vehicle_type_id":"4","last_reported":1700316333,"current_range_meters":29600,"station_id":"","pricing_plan_id":"free"},{"bike_id":"52c2449e-ba19-42b2-a2b7-5e9532985598","system_id":"levelo_inurba_marseille","lat":43.32279,"lon":5.43926,"is_reserved":false,"is_disabled":false,"rental_uris":{"android":"levelo://app?vid=52c2449e-ba19-42b2-a2b7-5e9532985598","ios":"levelo://app?vid=52c2449e-ba19-42b2-a2b7-5e9532985598"},"vehicle_type_id":"4","last_reported":1700316333,"current_range_meters":16400,"station_id":"","pricing_plan_id":"free"},{"bike_id":"56c54364-216a-4eea-8fce-d6e40fd415c8","system_id":"levelo_inurba_marseille","lat":43.2607,"lon":5.393983,"is_reserved":false,"is_disabled":false,"rental_uris":{"android":"levelo://app?vid=56c54364-216a-4eea-8fce-d6e40fd415c8","ios":"levelo://app?vid=56c54364-216a-4eea-8fce-d6e40fd415c8"},"vehicle_type_id":"4","last_reported":1700316333,"current_range_meters":25200,"station_id":"ce4bhh92rcd13ifvqfj0","pricing_plan_id":"free"},{"bike_id":"10f99585-3923-45a6-9f7c-2fcd4f7b152c","system_id":"levelo_inurba_marseille","lat":43.2607,"lon":5.393983,"is_reserved":false,"is_disabled":false,"rental_uris":{"android":"levelo://app?vid=10f99585-3923-45a6-9f7c-2fcd4f7b152c","ios":"levelo://app?vid=10f99585-3923-45a6-9f7c-2fcd4f7b152c"},"vehicle_type_id":"4","last_reported":1700316333,"current_range_meters":22400,"station_id":"ce4bhh92rcd13ifvqfj0","pricing_plan_id":"free"},{"bike_id":"9a95e6bc-fcda-4506-812d-e368d36f4403","system_id":"levelo_inurba_marseille","lat":43.2607,"lon":5.393983,"is_reserved":false,"is_disabled":false,"rental_uris":{"android":"levelo://app?vid=9a95e6bc-fcda-4506-812d-e368d36f4403","ios":"levelo://app?vid=9a95e6bc-fcda-4506-812d-e368d36f4403"},"vehicle_type_id":"4","last_reported":1700316333,"current_range_meters":29600,"station_id":"ce4bhh92rcd13ifvqfj0","pricing_plan_id":"free"},{"bike_id":"e7a68780-c3b4-4477-83f3-c50c683b4451","system_id":"levelo_inurba_marseille","lat":43.274971,"lon":5.424543,"is_reserved":false,"is_disabled":false,"rental_uris":{"android":"levelo://app?vid=e7a68780-c3b4-4477-83f3-c50c683b4451","ios":"levelo://app?vid=e7a68780-c3b4-4477-83f3-c50c683b4451"},"vehicle_type_id":"4","last_reported":1700316333,"current_range_meters":31200,"station_id":"ce4bhn92rcd13ifvqgrg","pricing_plan_id":"free"},{"bike_id":"be4edc46-dccb-41a3-83cb-88e5c1542bbb","system_id":"levelo_inurba_marseille","lat":43.258224,"lon":5.394369,"is_reserved":false,"is_disabled":false,"rental_uris":{"android":"levelo://app?vid=be4edc46-dccb-41a3-83cb-88e5c1542bbb","ios":"levelo://app?vid=be4edc46-dccb-41a3-83cb-88e5c1542bbb"},"vehicle_type_id":"4","last_reported":1700316333,"current_range_meters":18400,"station_id":"ce4bhip2rcd13ifvqft0","pricing_plan_id":"free"},{"bike_id":"6d777f2a-1406-48b5-86a3-c3c6a6466486","system_id":"levelo_inurba_marseille","lat":43.270721,"lon":5.422764,"is_reserved":false,"is_disabled":false,"rental_uris":{"android":"levelo://app?vid=6d777f2a-1406-48b5-86a3-c3c6a6466486","ios":"levelo://app?vid=6d777f2a-1406-48b5-86a3-c3c6a6466486"},"vehicle_type_id":"4","last_reported":1700316333,"current_range_meters":22400,"station_id":"ce4bhk92rcd13ifvqgb0","pricing_plan_id":"free"},{"bike_id":"b29e84d3-af9f-4a2e-be4c-9c9106f6d123","system_id":"levelo_inurba_marseille","lat":43.259009,"lon":5.40929,"is_reserved":false,"is_disabled":false,"rental_uris":{"android":"levelo://app?vid=b29e84d3-af9f-4a2e-be4c-9c9106f6d123","ios":"levelo://app?vid=b29e84d3-af9f-4a2e-be4c-9c9106f6d123"},"vehicle_type_id":"4","last_reported":1700316333,"current_range_meters":11600,"station_id":"ce4bhm92rcd13ifvqglg","pricing_plan_id":"free"},{"bike_id":"8d1f8ca1-840c-4fe2-9003-41a95922d9d7","system_id":"levelo_inurba_marseille","lat":43.259009,"lon":5.40929,"is_reserved":false,"is_disabled":false,"rental_uris":{"android":"levelo://app?vid=8d1f8ca1-840c-4fe2-9003-41a95922d9d7","ios":"levelo://app?vid=8d1f8ca1-840c-4fe2-9003-41a95922d9d7"},"vehicle_type_id":"4","last_reported":1700316333,"current_range_meters":15200,"station_id":"ce4bhm92rcd13ifvqglg","pricing_plan_id":"free"},{"bike_id":"db8da4e2-4124-41d5-8c70-7aced5b1658c","system_id":"levelo_inurba_marseille","lat":43.25934,"lon":5.40909,"is_reserved":false,"is_disabled":false,"rental_uris":{"android":"levelo://app?vid=db8da4e2-4124-41d5-8c70-7aced5b1658c","ios":"levelo://app?vid=db8da4e2-4124-41d5-8c70-7aced5b1658c"},"vehicle_type_id":"4","last_reported":1700316333,"current_range_meters":27200,"station_id":"ce4bhm92rcd13ifvqglg","pricing_plan_id":"free"},{"bike_id":"80e9e8bc-834b-42bc-a974-3446e287c9cb","system_id":"levelo_inurba_marseille","lat":43.259306,"lon":5.409123,"is_reserved":false,"is_disabled":false,"rental_uris":{"android":"levelo://app?vid=80e9e8bc-834b-42bc-a974-3446e287c9cb","ios":"levelo://app?vid=80e9e8bc-834b-42bc-a974-3446e287c9cb"},"vehicle_type_id":"4","last_reported":1700316333,"current_range_meters":4400,"station_id":"ce4bhm92rcd13ifvqglg","pricing_plan_id":"free"},{"bike_id":"a76e997b-7ec2-4665-a52c-dad492e907f6","system_id":"levelo_inurba_marseille","lat":43.250009,"lon":5.389195,"is_reserved":false,"is_disabled":false,"rental_uris":{"android":"levelo://app?vid=a76e997b-7ec2-4665-a52c-dad492e907f6","ios":"levelo://app?vid=a76e997b-7ec2-4665-a52c-dad492e907f6"},"vehicle_type_id":"4","last_reported":1700316333,"current_range_meters":14400,"station_id":"ce4bhgp2rcd13ifvqfd0","pricing_plan_id":"free"},{"bike_id":"b07713ab-8a38-4416-a771-754da87afc04","system_id":"levelo_inurba_marseille","lat":43.257079,"lon":5.411051,"is_reserved":false,"is_disabled":false,"rental_uris":{"android":"levelo://app?vid=b07713ab-8a38-4416-a771-754da87afc04","ios":"levelo://app?vid=b07713ab-8a38-4416-a771-754da87afc04"},"vehicle_type_id":"4","last_reported":1700316333,"current_range_meters":30000,"station_id":"ce4bhkp2rcd13ifvqgd0","pricing_plan_id":"free"},{"bike_id":"32a65864-29ee-4f86-b14c-a2cc1e4765ac","system_id":"levelo_inurba_marseille","lat":43.257079,"lon":5.411051,"is_reserved":false,"is_disabled":false,"rental_uris":{"android":"levelo://app?vid=32a65864-29ee-4f86-b14c-a2cc1e4765ac","ios":"levelo://app?vid=32a65864-29ee-4f86-b14c-a2cc1e4765ac"},"vehicle_type_id":"4","last_reported":1700316333,"current_range_meters":18000,"station_id":"ce4bhkp2rcd13ifvqgd0","pricing_plan_id":"free"},{"bike_id":"d4034abc-f6cf-4e8c-882d-ba54165c7e87","system_id":"levelo_inurba_marseille","lat":43.257079,"lon":5.411051,"is_reserved":false,"is_disabled":false,"rental_uris":{"android":"levelo://app?vid=d4034abc-f6cf-4e8c-882d-ba54165c7e87","ios":"levelo://app?vid=d4034abc-f6cf-4e8c-882d-ba54165c7e87"},"vehicle_type_id":"4","last_reported":1700316333,"current_range_meters":8400,"station_id":"ce4bhkp2rcd13ifvqgd0","pricing_plan_id":"free"},{"bike_id":"e10ccc56-c434-4d97-890f-3b7a87495b93","system_id":"levelo_inurba_marseille","lat":43.2479,"lon":5.374457,"is_reserved":false,"is_disabled":false,"rental_uris":{"android":"levelo://app?vid=e10ccc56-c434-4d97-890f-3b7a87495b93","ios":"levelo://app?vid=e10ccc56-c434-4d97-890f-3b7a87495b93"},"vehicle_type_id":"4","last_reported":1700316333,"current_range_meters":12000,"station_id":"ce4bhgh2rcd13ifvqfb0","pricing_plan_id":"free"},{"bike_id":"0e8478e1-aca6-4ce0-aef6-bc497337bc6e","system_id":"levelo_inurba_marseille","lat":43.2479,"lon":5.374457,"is_reserved":false,"is_disabled":false,"rental_uris":{"android":"levelo://app?vid=0e8478e1-aca6-4ce0-aef6-bc497337bc6e","ios":"levelo://app?vid=0e8478e1-aca6-4ce0-aef6-bc497337bc6e"},"vehicle_type_id":"4","last_reported":1700316333,"current_range_meters":13600,"station_id":"ce4bhgh2rcd13ifvqfb0","pricing_plan_id":"free"},{"bike_id":"0a971f4d-998b-4069-a54f-774336481cee","system_id":"levelo_inurba_marseille","lat":43.25089,"lon":5.39513,"is_reserved":false,"is_disabled":false,"rental_uris":{"android":"levelo://app?vid=0a971f4d-998b-4069-a54f-774336481cee","ios":"levelo://app?vid=0a971f4d-998b-4069-a54f-774336481cee"},"vehicle_type_id":"4","last_reported":1700316333,"current_range_meters":3600,"station_id":"ce4bhm12rcd13ifvqgkg","pricing_plan_id":"free"},{"bike_id":"c4ccead2-ed66-46c0-a980-3e9ef6c4eee6","system_id":"levelo_inurba_marseille","lat":43.250966,"lon":5.395186,"is_reserved":false,"is_disabled":false,"rental_uris":{"android":"levelo://app?vid=c4ccead2-ed66-46c0-a980-3e9ef6c4eee6","ios":"levelo://app?vid=c4ccead2-ed66-46c0-a980-3e9ef6c4eee6"},"vehicle_type_id":"4","last_reported":1700316333,"current_range_meters":16000,"station_id":"ce4bhm12rcd13ifvqgkg","pricing_plan_id":"free"},{"bike_id":"b9044fce-dce8-490f-a02b-21e9c2c238be","system_id":"levelo_inurba_marseille","lat":43.250966,"lon":5.395186,"is_reserved":false,"is_disabled":false,"rental_uris":{"android":"levelo://app?vid=b9044fce-dce8-490f-a02b-21e9c2c238be","ios":"levelo://app?vid=b9044fce-dce8-490f-a02b-21e9c2c238be"},"vehicle_type_id":"4","last_reported":1700316333,"current_range_meters":31200,"station_id":"ce4bhm12rcd13ifvqgkg","pricing_plan_id":"free"},{"bike_id":"721af61d-7ad7-4ba9-a77e-cdee35ed38a9","system_id":"levelo_inurba_marseille","lat":43.250966,"lon":5.395186,"is_reserved":false,"is_disabled":false,"rental_uris":{"android":"levelo://app?vid=721af61d-7ad7-4ba9-a77e-cdee35ed38a9","ios":"levelo://app?vid=721af61d-7ad7-4ba9-a77e-cdee35ed38a9"},"vehicle_type_id":"4","last_reported":1700316333,"current_range_meters":29200,"station_id":"ce4bhm12rcd13ifvqgkg","pricing_plan_id":"free"},{"bike_id":"23ce0c52-9543-4aae-be64-c9ec5a3cfe6b","system_id":"levelo_inurba_marseille","lat":43.24767,"lon":5.37422,"is_reserved":false,"is_disabled":false,"rental_uris":{"android":"levelo://app?vid=23ce0c52-9543-4aae-be64-c9ec5a3cfe6b","ios":"levelo://app?vid=23ce0c52-9543-4aae-be64-c9ec5a3cfe6b"},"vehicle_type_id":"4","last_reported":1700316333,"current_range_meters":8800,"station_id":"ce4bhgh2rcd13ifvqfb0","pricing_plan_id":"free"},{"bike_id":"d5829577-5409-4b45-9752-eed05dd5f0cd","system_id":"levelo_inurba_marseille","lat":43.24671,"lon":5.3816,"is_reserved":false,"is_disabled":false,"rental_uris":{"android":"levelo://app?vid=d5829577-5409-4b45-9752-eed05dd5f0cd","ios":"levelo://app?vid=d5829577-5409-4b45-9752-eed05dd5f0cd"},"vehicle_type_id":"4","last_reported":1700316333,"current_range_meters":24400,"station_id":"ce4bhih2rcd13ifvqfr0","pricing_plan_id":"free"},{"bike_id":"78e51e39-d6b1-437c-b1f7-1ae68ab34f70","system_id":"levelo_inurba_marseille","lat":43.25102,"lon":5.403214,"is_reserved":false,"is_disabled":false,"rental_uris":{"android":"levelo://app?vid=78e51e39-d6b1-437c-b1f7-1ae68ab34f70","ios":"levelo://app?vid=78e51e39-d6b1-437c-b1f7-1ae68ab34f70"},"vehicle_type_id":"4","last_reported":1700316333,"current_range_meters":28800,"station_id":"ce4bhlh2rcd13ifvqgig","pricing_plan_id":"free"},{"bike_id":"a0ee78bf-fc4c-4ce5-9d56-0ca35602fc5f","system_id":"levelo_inurba_marseille","lat":43.24662,"lon":5.38158,"is_reserved":false,"is_disabled":false,"rental_uris":{"android":"levelo://app?vid=a0ee78bf-fc4c-4ce5-9d56-0ca35602fc5f","ios":"levelo://app?vid=a0ee78bf-fc4c-4ce5-9d56-0ca35602fc5f"},"vehicle_type_id":"4","last_reported":1700316333,"current_range_meters":5600,"station_id":"ce4bhih2rcd13ifvqfr0","pricing_plan_id":"free"},{"bike_id":"fdb00f46-de0d-4429-9655-3a9b1521e176","system_id":"levelo_inurba_marseille","lat":43.2466,"lon":5.38163,"is_reserved":false,"is_disabled":false,"rental_uris":{"android":"levelo://app?vid=fdb00f46-de0d-4429-9655-3a9b1521e176","ios":"levelo://app?vid=fdb00f46-de0d-4429-9655-3a9b1521e176"},"vehicle_type_id":"4","last_reported":1700316333,"current_range_meters":3600,"station_id":"ce4bhih2rcd13ifvqfr0","pricing_plan_id":"free"},{"bike_id":"97d44d2a-a603-4dd5-a596-33416c1dad96","system_id":"levelo_inurba_marseille","lat":43.24657,"lon":5.38161,"is_reserved":false,"is_disabled":false,"rental_uris":{"android":"levelo://app?vid=97d44d2a-a603-4dd5-a596-33416c1dad96","ios":"levelo://app?vid=97d44d2a-a603-4dd5-a596-33416c1dad96"},"vehicle_type_id":"4","last_reported":1700316333,"current_range_meters":0,"station_id":"ce4bhih2rcd13ifvqfr0","pricing_plan_id":"free"},{"bike_id":"48564273-cced-4095-8c5b-9eb688afc8c1","system_id":"levelo_inurba_marseille","lat":43.25102,"lon":5.403214,"is_reserved":false,"is_disabled":false,"rental_uris":{"android":"levelo://app?vid=48564273-cced-4095-8c5b-9eb688afc8c1","ios":"levelo://app?vid=48564273-cced-4095-8c5b-9eb688afc8c1"},"vehicle_type_id":"4","last_reported":1700316333,"current_range_meters":13600,"station_id":"ce4bhlh2rcd13ifvqgig","pricing_plan_id":"free"},{"bike_id":"163d7d70-0e5c-4e1d-8240-327a4de22b13","system_id":"levelo_inurba_marseille","lat":43.25102,"lon":5.403214,"is_reserved":false,"is_disabled":false,"rental_uris":{"android":"levelo://app?vid=163d7d70-0e5c-4e1d-8240-327a4de22b13","ios":"levelo://app?vid=163d7d70-0e5c-4e1d-8240-327a4de22b13"},"vehicle_type_id":"4","last_reported":1700316333,"current_range_meters":19600,"station_id":"ce4bhlh2rcd13ifvqgig","pricing_plan_id":"free"},{"bike_id":"dd27de55-0f15-47a0-97e5-dfa32d2158c2","system_id":"levelo_inurba_marseille","lat":43.243884,"lon":5.370736,"is_reserved":false,"is_disabled":false,"rental_uris":{"android":"levelo://app?vid=dd27de55-0f15-47a0-97e5-dfa32d2158c2","ios":"levelo://app?vid=dd27de55-0f15-47a0-97e5-dfa32d2158c2"},"vehicle_type_id":"4","last_reported":1700316333,"current_range_meters":28000,"station_id":"ce4bhhh2rcd13ifvqfk0","pricing_plan_id":"free"},{"bike_id":"3080e8e2-df89-4f6f-913f-1b118d7d14aa","system_id":"levelo_inurba_marseille","lat":43.243884,"lon":5.370737,"is_reserved":false,"is_disabled":false,"rental_uris":{"android":"levelo://app?vid=3080e8e2-df89-4f6f-913f-1b118d7d14aa","ios":"levelo://app?vid=3080e8e2-df89-4f6f-913f-1b118d7d14aa"},"vehicle_type_id":"4","last_reported":1700316333,"current_range_meters":28400,"station_id":"ce4bhhh2rcd13ifvqfk0","pricing_plan_id":"free"},{"bike_id":"13543a80-e679-4f1a-83cf-0c053174faf3","system_id":"levelo_inurba_marseille","lat":43.243884,"lon":5.370736,"is_reserved":false,"is_disabled":false,"rental_uris":{"android":"levelo://app?vid=13543a80-e679-4f1a-83cf-0c053174faf3","ios":"levelo://app?vid=13543a80-e679-4f1a-83cf-0c053174faf3"},"vehicle_type_id":"4","last_reported":1700316333,"current_range_meters":31200,"station_id":"ce4bhhh2rcd13ifvqfk0","pricing_plan_id":"free"},{"bike_id":"c1d0d561-b1e7-433a-81e5-7994cce53ec2","system_id":"levelo_inurba_marseille","lat":43.243884,"lon":5.370737,"is_reserved":false,"is_disabled":false,"rental_uris":{"android":"levelo://app?vid=c1d0d561-b1e7-433a-81e5-7994cce53ec2","ios":"levelo://app?vid=c1d0d561-b1e7-433a-81e5-7994cce53ec2"},"vehicle_type_id":"4","last_reported":1700316333,"current_range_meters":24400,"station_id":"ce4bhhh2rcd13ifvqfk0","pricing_plan_id":"free"},{"bike_id":"c9311f28-70e4-415f-8962-60cebf27fcb4","system_id":"levelo_inurba_marseille","lat":43.243884,"lon":5.370736,"is_reserved":false,"is_disabled":false,"rental_uris":{"android":"levelo://app?vid=c9311f28-70e4-415f-8962-60cebf27fcb4","ios":"levelo://app?vid=c9311f28-70e4-415f-8962-60cebf27fcb4"},"vehicle_type_id":"4","last_reported":1700316333,"current_range_meters":8000,"station_id":"ce4bhhh2rcd13ifvqfk0","pricing_plan_id":"free"},{"bike_id":"66052d23-3126-4071-a01f-4152027c9193","system_id":"levelo_inurba_marseille","lat":43.243884,"lon":5.370736,"is_reserved":false,"is_disabled":false,"rental_uris":{"android":"levelo://app?vid=66052d23-3126-4071-a01f-4152027c9193","ios":"levelo://app?vid=66052d23-3126-4071-a01f-4152027c9193"},"vehicle_type_id":"4","last_reported":1700316333,"current_range_meters":12800,"station_id":"ce4bhhh2rcd13ifvqfk0","pricing_plan_id":"free"},{"bike_id":"706a8841-eb9f-46c6-89e5-e969ca36aaa5","system_id":"levelo_inurba_marseille","lat":43.243884,"lon":5.370737,"is_reserved":false,"is_disabled":false,"rental_uris":{"android":"levelo://app?vid=706a8841-eb9f-46c6-89e5-e969ca36aaa5","ios":"levelo://app?vid=706a8841-eb9f-46c6-89e5-e969ca36aaa5"},"vehicle_type_id":"4","last_reported":1700316333,"current_range_meters":15200,"station_id":"ce4bhhh2rcd13ifvqfk0","pricing_plan_id":"free"},{"bike_id":"c1924608-cfc0-4286-8265-f3f6ae4a7a1a","system_id":"levelo_inurba_marseille","lat":43.243884,"lon":5.370737,"is_reserved":false,"is_disabled":false,"rental_uris":{"android":"levelo://app?vid=c1924608-cfc0-4286-8265-f3f6ae4a7a1a","ios":"levelo://app?vid=c1924608-cfc0-4286-8265-f3f6ae4a7a1a"},"vehicle_type_id":"4","last_reported":1700316333,"current_range_meters":17200,"station_id":"ce4bhhh2rcd13ifvqfk0","pricing_plan_id":"free"},{"bike_id":"171f1a59-2f19-4372-a644-cb268435038a","system_id":"levelo_inurba_marseille","lat":43.245581,"lon":5.395069,"is_reserved":false,"is_disabled":false,"rental_uris":{"android":"levelo://app?vid=171f1a59-2f19-4372-a644-cb268435038a","ios":"levelo://app?vid=171f1a59-2f19-4372-a644-cb268435038a"},"vehicle_type_id":"4","last_reported":1700316333,"current_range_meters":15600,"station_id":"ce4bhlp2rcd13ifvqgjg","pricing_plan_id":"free"},{"bike_id":"a652a650-ac0c-4109-ab19-73e652a82bde","system_id":"levelo_inurba_marseille","lat":43.245581,"lon":5.395069,"is_reserved":false,"is_disabled":false,"rental_uris":{"android":"levelo://app?vid=a652a650-ac0c-4109-ab19-73e652a82bde","ios":"levelo://app?vid=a652a650-ac0c-4109-ab19-73e652a82bde"},"vehicle_type_id":"4","last_reported":1700316333,"current_range_meters":20400,"station_id":"ce4bhlp2rcd13ifvqgjg","pricing_plan_id":"free"},{"bike_id":"5a980be7-c7ae-42db-bd64-63cc5cf9e0f6","system_id":"levelo_inurba_marseille","lat":43.240623,"lon":5.377642,"is_reserved":false,"is_disabled":false,"rental_uris":{"android":"levelo://app?vid=5a980be7-c7ae-42db-bd64-63cc5cf9e0f6","ios":"levelo://app?vid=5a980be7-c7ae-42db-bd64-63cc5cf9e0f6"},"vehicle_type_id":"4","last_reported":1700316333,"current_range_meters":7600,"station_id":"ce4bhnp2rcd13ifvqgvg","pricing_plan_id":"free"},{"bike_id":"ed419b13-266f-407c-bf9b-711a3ecbb865","system_id":"levelo_inurba_marseille","lat":43.240623,"lon":5.377642,"is_reserved":false,"is_disabled":false,"rental_uris":{"android":"levelo://app?vid=ed419b13-266f-407c-bf9b-711a3ecbb865","ios":"levelo://app?vid=ed419b13-266f-407c-bf9b-711a3ecbb865"},"vehicle_type_id":"4","last_reported":1700316333,"current_range_meters":24400,"station_id":"ce4bhnp2rcd13ifvqgvg","pricing_plan_id":"free"},{"bike_id":"abebece1-d35d-428e-b450-5f70fc7deb45","system_id":"levelo_inurba_marseille","lat":43.240623,"lon":5.377642,"is_reserved":false,"is_disabled":false,"rental_uris":{"android":"levelo://app?vid=abebece1-d35d-428e-b450-5f70fc7deb45","ios":"levelo://app?vid=abebece1-d35d-428e-b450-5f70fc7deb45"},"vehicle_type_id":"4","last_reported":1700316333,"current_range_meters":16400,"station_id":"ce4bhnp2rcd13ifvqgvg","pricing_plan_id":"free"},{"bike_id":"8f3a5da5-e450-44c1-b7f2-7006197e8e0e","system_id":"levelo_inurba_marseille","lat":43.240623,"lon":5.377642,"is_reserved":false,"is_disabled":false,"rental_uris":{"android":"levelo://app?vid=8f3a5da5-e450-44c1-b7f2-7006197e8e0e","ios":"levelo://app?vid=8f3a5da5-e450-44c1-b7f2-7006197e8e0e"},"vehicle_type_id":"4","last_reported":1700316333,"current_range_meters":27200,"station_id":"ce4bhnp2rcd13ifvqgvg","pricing_plan_id":"free"},{"bike_id":"3cc5da47-2ffd-4e24-8283-b9644a8e09df","system_id":"levelo_inurba_marseille","lat":43.240623,"lon":5.377642,"is_reserved":false,"is_disabled":false,"rental_uris":{"android":"levelo://app?vid=3cc5da47-2ffd-4e24-8283-b9644a8e09df","ios":"levelo://app?vid=3cc5da47-2ffd-4e24-8283-b9644a8e09df"},"vehicle_type_id":"4","last_reported":1700316333,"current_range_meters":23200,"station_id":"ce4bhnp2rcd13ifvqgvg","pricing_plan_id":"free"},{"bike_id":"2327da1c-891a-41f9-8c3c-3e35e075cb47","system_id":"levelo_inurba_marseille","lat":43.239588,"lon":5.366238,"is_reserved":false,"is_disabled":false,"rental_uris":{"android":"levelo://app?vid=2327da1c-891a-41f9-8c3c-3e35e075cb47","ios":"levelo://app?vid=2327da1c-891a-41f9-8c3c-3e35e075cb47"},"vehicle_type_id":"4","last_reported":1700316333,"current_range_meters":10400,"station_id":"ce4bhi12rcd13ifvqfp0","pricing_plan_id":"free"},{"bike_id":"32af766e-7e48-40b9-a8f5-594ae376cb30","system_id":"levelo_inurba_marseille","lat":43.239588,"lon":5.366238,"is_reserved":false,"is_disabled":false,"rental_uris":{"android":"levelo://app?vid=32af766e-7e48-40b9-a8f5-594ae376cb30","ios":"levelo://app?vid=32af766e-7e48-40b9-a8f5-594ae376cb30"},"vehicle_type_id":"4","last_reported":1700316333,"current_range_meters":11600,"station_id":"ce4bhi12rcd13ifvqfp0","pricing_plan_id":"free"},{"bike_id":"66ec2a23-8e5f-4e5e-b203-a106ddfb4d9d","system_id":"levelo_inurba_marseille","lat":43.239588,"lon":5.366238,"is_reserved":false,"is_disabled":false,"rental_uris":{"android":"levelo://app?vid=66ec2a23-8e5f-4e5e-b203-a106ddfb4d9d","ios":"levelo://app?vid=66ec2a23-8e5f-4e5e-b203-a106ddfb4d9d"},"vehicle_type_id":"4","last_reported":1700316333,"current_range_meters":14400,"station_id":"ce4bhi12rcd13ifvqfp0","pricing_plan_id":"free"},{"bike_id":"4370869b-0c59-4e1b-b4c7-59bf3a7bc50e","system_id":"levelo_inurba_marseille","lat":43.241782,"lon":5.397264,"is_reserved":false,"is_disabled":false,"rental_uris":{"android":"levelo://app?vid=4370869b-0c59-4e1b-b4c7-59bf3a7bc50e","ios":"levelo://app?vid=4370869b-0c59-4e1b-b4c7-59bf3a7bc50e"},"vehicle_type_id":"4","last_reported":1700316333,"current_range_meters":18800,"station_id":"ce4bhn12rcd13ifvqgpg","pricing_plan_id":"free"},{"bike_id":"eb3946df-2ea5-49c8-a025-92c2f519fb07","system_id":"levelo_inurba_marseille","lat":43.24179,"lon":5.39722,"is_reserved":false,"is_disabled":false,"rental_uris":{"android":"levelo://app?vid=eb3946df-2ea5-49c8-a025-92c2f519fb07","ios":"levelo://app?vid=eb3946df-2ea5-49c8-a025-92c2f519fb07"},"vehicle_type_id":"4","last_reported":1700316333,"current_range_meters":30000,"station_id":"ce4bhn12rcd13ifvqgpg","pricing_plan_id":"free"},{"bike_id":"4827344a-768f-4412-9430-45fc4b273517","system_id":"levelo_inurba_marseille","lat":43.24178,"lon":5.39727,"is_reserved":false,"is_disabled":false,"rental_uris":{"android":"levelo://app?vid=4827344a-768f-4412-9430-45fc4b273517","ios":"levelo://app?vid=4827344a-768f-4412-9430-45fc4b273517"},"vehicle_type_id":"4","last_reported":1700316333,"current_range_meters":24000,"station_id":"ce4bhn12rcd13ifvqgpg","pricing_plan_id":"free"},{"bike_id":"59ea8dcf-a66e-4c37-94b3-359821380b29","system_id":"levelo_inurba_marseille","lat":43.241782,"lon":5.397261,"is_reserved":false,"is_disabled":false,"rental_uris":{"android":"levelo://app?vid=59ea8dcf-a66e-4c37-94b3-359821380b29","ios":"levelo://app?vid=59ea8dcf-a66e-4c37-94b3-359821380b29"},"vehicle_type_id":"4","last_reported":1700316333,"current_range_meters":31200,"station_id":"ce4bhn12rcd13ifvqgpg","pricing_plan_id":"free"},{"bike_id":"5204b63f-bb60-4f6d-a38c-6c0ca3ef8579","system_id":"levelo_inurba_marseille","lat":43.24171,"lon":5.39741,"is_reserved":false,"is_disabled":false,"rental_uris":{"android":"levelo://app?vid=5204b63f-bb60-4f6d-a38c-6c0ca3ef8579","ios":"levelo://app?vid=5204b63f-bb60-4f6d-a38c-6c0ca3ef8579"},"vehicle_type_id":"4","last_reported":1700316333,"current_range_meters":31200,"station_id":"ce4bhn12rcd13ifvqgpg","pricing_plan_id":"free"},{"bike_id":"42c6911d-b5e7-4656-9c36-c43a2ac928e1","system_id":"levelo_inurba_marseille","lat":43.231919,"lon":5.355532,"is_reserved":false,"is_disabled":false,"rental_uris":{"android":"levelo://app?vid=42c6911d-b5e7-4656-9c36-c43a2ac928e1","ios":"levelo://app?vid=42c6911d-b5e7-4656-9c36-c43a2ac928e1"},"vehicle_type_id":"4","last_reported":1700316333,"current_range_meters":3600,"station_id":"ce4bhu92rcd13ifvqi70","pricing_plan_id":"free"},{"bike_id":"4343156f-f762-485a-b725-bd4393bfc855","system_id":"levelo_inurba_marseille","lat":43.23195,"lon":5.35546,"is_reserved":false,"is_disabled":false,"rental_uris":{"android":"levelo://app?vid=4343156f-f762-485a-b725-bd4393bfc855","ios":"levelo://app?vid=4343156f-f762-485a-b725-bd4393bfc855"},"vehicle_type_id":"4","last_reported":1700316333,"current_range_meters":27600,"station_id":"ce4bhu92rcd13ifvqi70","pricing_plan_id":"free"},{"bike_id":"2ab295cd-4c4e-4053-9594-235fc78df63b","system_id":"levelo_inurba_marseille","lat":43.23194,"lon":5.35552,"is_reserved":false,"is_disabled":false,"rental_uris":{"android":"levelo://app?vid=2ab295cd-4c4e-4053-9594-235fc78df63b","ios":"levelo://app?vid=2ab295cd-4c4e-4053-9594-235fc78df63b"},"vehicle_type_id":"4","last_reported":1700316333,"current_range_meters":4800,"station_id":"ce4bhu92rcd13ifvqi70","pricing_plan_id":"free"},{"bike_id":"1b83d734-fa30-461f-8a5f-93b3d935ab2c","system_id":"levelo_inurba_marseille","lat":43.23194,"lon":5.35547,"is_reserved":false,"is_disabled":false,"rental_uris":{"android":"levelo://app?vid=1b83d734-fa30-461f-8a5f-93b3d935ab2c","ios":"levelo://app?vid=1b83d734-fa30-461f-8a5f-93b3d935ab2c"},"vehicle_type_id":"4","last_reported":1700316333,"current_range_meters":30400,"station_id":"ce4bhu92rcd13ifvqi70","pricing_plan_id":"free"},{"bike_id":"54426b82-e2cf-4ca5-8158-47ebf27504f1","system_id":"levelo_inurba_marseille","lat":43.231919,"lon":5.355532,"is_reserved":false,"is_disabled":false,"rental_uris":{"android":"levelo://app?vid=54426b82-e2cf-4ca5-8158-47ebf27504f1","ios":"levelo://app?vid=54426b82-e2cf-4ca5-8158-47ebf27504f1"},"vehicle_type_id":"4","last_reported":1700316333,"current_range_meters":15600,"station_id":"ce4bhu92rcd13ifvqi70","pricing_plan_id":"free"},{"bike_id":"ef5b9621-bf95-4385-a103-fb58877cb690","system_id":"levelo_inurba_marseille","lat":43.231919,"lon":5.355532,"is_reserved":false,"is_disabled":false,"rental_uris":{"android":"levelo://app?vid=ef5b9621-bf95-4385-a103-fb58877cb690","ios":"levelo://app?vid=ef5b9621-bf95-4385-a103-fb58877cb690"},"vehicle_type_id":"4","last_reported":1700316333,"current_range_meters":800,"station_id":"ce4bhu92rcd13ifvqi70","pricing_plan_id":"free"},{"bike_id":"ffb77762-5589-4ab4-9369-7b5deaee8cb2","system_id":"levelo_inurba_marseille","lat":43.231919,"lon":5.355532,"is_reserved":false,"is_disabled":false,"rental_uris":{"android":"levelo://app?vid=ffb77762-5589-4ab4-9369-7b5deaee8cb2","ios":"levelo://app?vid=ffb77762-5589-4ab4-9369-7b5deaee8cb2"},"vehicle_type_id":"4","last_reported":1700316333,"current_range_meters":24800,"station_id":"ce4bhu92rcd13ifvqi70","pricing_plan_id":"free"},{"bike_id":"da0bcb51-355e-445f-8d7c-bf009e3b753b","system_id":"levelo_inurba_marseille","lat":43.231919,"lon":5.355532,"is_reserved":false,"is_disabled":false,"rental_uris":{"android":"levelo://app?vid=da0bcb51-355e-445f-8d7c-bf009e3b753b","ios":"levelo://app?vid=da0bcb51-355e-445f-8d7c-bf009e3b753b"},"vehicle_type_id":"4","last_reported":1700316333,"current_range_meters":2400,"station_id":"ce4bhu92rcd13ifvqi70","pricing_plan_id":"free"},{"bike_id":"9a853d43-fb5c-4c1a-9adf-b9a4684fbabf","system_id":"levelo_inurba_marseille","lat":43.23188,"lon":5.35543,"is_reserved":false,"is_disabled":false,"rental_uris":{"android":"levelo://app?vid=9a853d43-fb5c-4c1a-9adf-b9a4684fbabf","ios":"levelo://app?vid=9a853d43-fb5c-4c1a-9adf-b9a4684fbabf"},"vehicle_type_id":"4","last_reported":1700316333,"current_range_meters":29200,"station_id":"ce4bhu92rcd13ifvqi70","pricing_plan_id":"free"},{"bike_id":"5deb8ac0-68a2-4bcb-b80f-37e7814a98f3","system_id":"levelo_inurba_marseille","lat":43.231793,"lon":5.400044,"is_reserved":false,"is_disabled":false,"rental_uris":{"android":"levelo://app?vid=5deb8ac0-68a2-4bcb-b80f-37e7814a98f3","ios":"levelo://app?vid=5deb8ac0-68a2-4bcb-b80f-37e7814a98f3"},"vehicle_type_id":"4","last_reported":1700316333,"current_range_meters":24800,"station_id":"ce4bhn12rcd13ifvqgqg","pricing_plan_id":"free"},{"bike_id":"486fecf0-765d-4eee-9a85-898f8aa27175","system_id":"levelo_inurba_marseille","lat":43.231793,"lon":5.400044,"is_reserved":false,"is_disabled":false,"rental_uris":{"android":"levelo://app?vid=486fecf0-765d-4eee-9a85-898f8aa27175","ios":"levelo://app?vid=486fecf0-765d-4eee-9a85-898f8aa27175"},