{"last_updated":1778963943,"ttl":60,"version":"2.2","data":{"bikes":[{"bike_id":"6630fc19-2abd-480a-abc6-5b914fb1bd80","system_id":"levelo_inurba_marseille","lat":43.25492,"lon":5.37648,"is_reserved":false,"is_disabled":false,"rental_uris":{"android":"levelo://app?vid=6630fc19-2abd-480a-abc6-5b914fb1bd80","ios":"levelo://app?vid=6630fc19-2abd-480a-abc6-5b914fb1bd80"},"vehicle_type_id":"4","last_reported":1778963944,"current_range_meters":2800,"station_id":"ce4bhh12rcd13ifvqff0","pricing_plan_id":"cebpf4jnsgd1na2vs0mg"},{"bike_id":"f3cbfdb6-3a74-48dd-8738-884faa79acd8","system_id":"levelo_inurba_marseille","lat":43.29965,"lon":5.38497,"is_reserved":false,"is_disabled":false,"rental_uris":{"android":"levelo://app?vid=f3cbfdb6-3a74-48dd-8738-884faa79acd8","ios":"levelo://app?vid=f3cbfdb6-3a74-48dd-8738-884faa79acd8"},"vehicle_type_id":"4","last_reported":1778963944,"current_range_meters":2800,"station_id":"ce4bgj92rcd13ifvqbd0","pricing_plan_id":"cebpf4jnsgd1na2vs0mg"},{"bike_id":"62276a38-3cae-4c85-9b60-f6889e20578a","system_id":"levelo_inurba_marseille","lat":43.28167,"lon":5.40411,"is_reserved":false,"is_disabled":false,"rental_uris":{"android":"levelo://app?vid=62276a38-3cae-4c85-9b60-f6889e20578a","ios":"levelo://app?vid=62276a38-3cae-4c85-9b60-f6889e20578a"},"vehicle_type_id":"4","last_reported":1778963944,"current_range_meters":2800,"station_id":"","pricing_plan_id":"cebpf4jnsgd1na2vs0mg"},{"bike_id":"197f8590-4140-4e11-8b87-67ad98bb4bca","system_id":"levelo_inurba_marseille","lat":43.28613,"lon":5.37055,"is_reserved":false,"is_disabled":true,"rental_uris":{"android":"levelo://app?vid=197f8590-4140-4e11-8b87-67ad98bb4bca","ios":"levelo://app?vid=197f8590-4140-4e11-8b87-67ad98bb4bca"},"vehicle_type_id":"4","last_reported":1778963944,"current_range_meters":2800,"station_id":"ce4bht12rcd13ifvqi60","pricing_plan_id":"cebpf4jnsgd1na2vs0mg"},{"bike_id":"417bd26b-1701-485b-b896-bb7adc98bac9","system_id":"levelo_inurba_marseille","lat":43.23972,"lon":5.36608,"is_reserved":false,"is_disabled":true,"rental_uris":{"android":"levelo://app?vid=417bd26b-1701-485b-b896-bb7adc98bac9","ios":"levelo://app?vid=417bd26b-1701-485b-b896-bb7adc98bac9"},"vehicle_type_id":"4","last_reported":1778963944,"current_range_meters":2800,"station_id":"ce4bhi12rcd13ifvqfp0","pricing_plan_id":"cebpf4jnsgd1na2vs0mg"},{"bike_id":"4c1456b4-c5f4-49ed-bd33-6f63525d7c4f","system_id":"levelo_inurba_marseille","lat":43.27973,"lon":5.38712,"is_reserved":false,"is_disabled":true,"rental_uris":{"android":"levelo://app?vid=4c1456b4-c5f4-49ed-bd33-6f63525d7c4f","ios":"levelo://app?vid=4c1456b4-c5f4-49ed-bd33-6f63525d7c4f"},"vehicle_type_id":"4","last_reported":1778963944,"current_range_meters":2800,"station_id":"ce4bhg12rcd13ifvqf80","pricing_plan_id":"cebpf4jnsgd1na2vs0mg"},{"bike_id":"2331f939-601c-452e-b227-39b40101457a","system_id":"levelo_inurba_marseille","lat":43.30239,"lon":5.40038,"is_reserved":false,"is_disabled":false,"rental_uris":{"android":"levelo://app?vid=2331f939-601c-452e-b227-39b40101457a","ios":"levelo://app?vid=2331f939-601c-452e-b227-39b40101457a"},"vehicle_type_id":"4","last_reported":1778963944,"current_range_meters":2800,"station_id":"ce4bgvh2rcd13ifvqcs0","pricing_plan_id":"cebpf4jnsgd1na2vs0mg"},{"bike_id":"c15b7d9d-4d2e-4558-9fe7-1ee3f2efc7ae","system_id":"levelo_inurba_marseille","lat":43.29491,"lon":5.43305,"is_reserved":false,"is_disabled":false,"rental_uris":{"android":"levelo://app?vid=c15b7d9d-4d2e-4558-9fe7-1ee3f2efc7ae","ios":"levelo://app?vid=c15b7d9d-4d2e-4558-9fe7-1ee3f2efc7ae"},"vehicle_type_id":"4","last_reported":1778963944,"current_range_meters":2800,"station_id":"st_d3j5ugp08ojc73fj9d10","pricing_plan_id":"cebpf4jnsgd1na2vs0mg"},{"bike_id":"4a2c3714-352c-4346-85dd-db30f79950fd","system_id":"levelo_inurba_marseille","lat":43.24859,"lon":5.37481,"is_reserved":false,"is_disabled":false,"rental_uris":{"android":"levelo://app?vid=4a2c3714-352c-4346-85dd-db30f79950fd","ios":"levelo://app?vid=4a2c3714-352c-4346-85dd-db30f79950fd"},"vehicle_type_id":"4","last_reported":1778963944,"current_range_meters":2800,"station_id":"","pricing_plan_id":"cebpf4jnsgd1na2vs0mg"},{"bike_id":"5985f812-c761-49d3-96bb-4ff5675bc24e","system_id":"levelo_inurba_marseille","lat":43.3016,"lon":5.38078,"is_reserved":false,"is_disabled":false,"rental_uris":{"android":"levelo://app?vid=5985f812-c761-49d3-96bb-4ff5675bc24e","ios":"levelo://app?vid=5985f812-c761-49d3-96bb-4ff5675bc24e"},"vehicle_type_id":"4","last_reported":1778963944,"current_range_meters":2800,"station_id":"ce4bgjp2rcd13ifvqbh0","pricing_plan_id":"cebpf4jnsgd1na2vs0mg"},{"bike_id":"e5548365-1a4d-4417-a375-d0d3c226770b","system_id":"levelo_inurba_marseille","lat":43.29477,"lon":5.38542,"is_reserved":false,"is_disabled":false,"rental_uris":{"android":"levelo://app?vid=e5548365-1a4d-4417-a375-d0d3c226770b","ios":"levelo://app?vid=e5548365-1a4d-4417-a375-d0d3c226770b"},"vehicle_type_id":"4","last_reported":1778963944,"current_range_meters":3200,"station_id":"","pricing_plan_id":"cebpf4jnsgd1na2vs0mg"},{"bike_id":"305f8012-853c-4e5c-b4a3-badea1215a44","system_id":"levelo_inurba_marseille","lat":43.33754,"lon":5.37506,"is_reserved":false,"is_disabled":false,"rental_uris":{"android":"levelo://app?vid=305f8012-853c-4e5c-b4a3-badea1215a44","ios":"levelo://app?vid=305f8012-853c-4e5c-b4a3-badea1215a44"},"vehicle_type_id":"4","last_reported":1778963944,"current_range_meters":3200,"station_id":"","pricing_plan_id":"cebpf4jnsgd1na2vs0mg"},{"bike_id":"9683986e-4314-40de-86a1-59846036f2cb","system_id":"levelo_inurba_marseille","lat":43.29036,"lon":5.37554,"is_reserved":false,"is_disabled":false,"rental_uris":{"android":"levelo://app?vid=9683986e-4314-40de-86a1-59846036f2cb","ios":"levelo://app?vid=9683986e-4314-40de-86a1-59846036f2cb"},"vehicle_type_id":"4","last_reported":1778963944,"current_range_meters":3200,"station_id":"ce4bh692rcd13ifvqe90","pricing_plan_id":"cebpf4jnsgd1na2vs0mg"},{"bike_id":"7b64bf60-0aa5-4402-b524-02a2dc55ea99","system_id":"levelo_inurba_marseille","lat":43.25583,"lon":5.3822,"is_reserved":false,"is_disabled":true,"rental_uris":{"android":"levelo://app?vid=7b64bf60-0aa5-4402-b524-02a2dc55ea99","ios":"levelo://app?vid=7b64bf60-0aa5-4402-b524-02a2dc55ea99"},"vehicle_type_id":"4","last_reported":1778963944,"current_range_meters":3200,"station_id":"ce4bhih2rcd13ifvqfs0","pricing_plan_id":"cebpf4jnsgd1na2vs0mg"},{"bike_id":"f71c41f4-75b7-46bd-9428-5d62097684bc","system_id":"levelo_inurba_marseille","lat":43.24668,"lon":5.38157,"is_reserved":false,"is_disabled":false,"rental_uris":{"android":"levelo://app?vid=f71c41f4-75b7-46bd-9428-5d62097684bc","ios":"levelo://app?vid=f71c41f4-75b7-46bd-9428-5d62097684bc"},"vehicle_type_id":"4","last_reported":1778963944,"current_range_meters":3200,"station_id":"ce4bhih2rcd13ifvqfr0","pricing_plan_id":"cebpf4jnsgd1na2vs0mg"},{"bike_id":"18947c84-5235-4bd5-9ce6-23fdc3005741","system_id":"levelo_inurba_marseille","lat":43.28422,"lon":5.37522,"is_reserved":false,"is_disabled":false,"rental_uris":{"android":"levelo://app?vid=18947c84-5235-4bd5-9ce6-23fdc3005741","ios":"levelo://app?vid=18947c84-5235-4bd5-9ce6-23fdc3005741"},"vehicle_type_id":"4","last_reported":1778963944,"current_range_meters":3200,"station_id":"ce4bh412rcd13ifvqds0","pricing_plan_id":"cebpf4jnsgd1na2vs0mg"},{"bike_id":"af291f23-0964-4b6f-b635-d8b7e4293ab0","system_id":"levelo_inurba_marseille","lat":43.2724,"lon":5.39076,"is_reserved":false,"is_disabled":false,"rental_uris":{"android":"levelo://app?vid=af291f23-0964-4b6f-b635-d8b7e4293ab0","ios":"levelo://app?vid=af291f23-0964-4b6f-b635-d8b7e4293ab0"},"vehicle_type_id":"4","last_reported":1778963944,"current_range_meters":3200,"station_id":"","pricing_plan_id":"cebpf4jnsgd1na2vs0mg"},{"bike_id":"7804fe54-f0a3-4621-b7c7-2f9c723edb6c","system_id":"levelo_inurba_marseille","lat":43.2907,"lon":5.37163,"is_reserved":false,"is_disabled":false,"rental_uris":{"android":"levelo://app?vid=7804fe54-f0a3-4621-b7c7-2f9c723edb6c","ios":"levelo://app?vid=7804fe54-f0a3-4621-b7c7-2f9c723edb6c"},"vehicle_type_id":"4","last_reported":1778963944,"current_range_meters":3600,"station_id":"ce4bh5p2rcd13ifvqe4g","pricing_plan_id":"cebpf4jnsgd1na2vs0mg"},{"bike_id":"4fdf485c-8461-406f-8152-f602e1a5bbca","system_id":"levelo_inurba_marseille","lat":43.28508,"lon":5.38527,"is_reserved":false,"is_disabled":true,"rental_uris":{"android":"levelo://app?vid=4fdf485c-8461-406f-8152-f602e1a5bbca","ios":"levelo://app?vid=4fdf485c-8461-406f-8152-f602e1a5bbca"},"vehicle_type_id":"4","last_reported":1778963944,"current_range_meters":3600,"station_id":"ce4bh8p2rcd13ifvqeb0","pricing_plan_id":"cebpf4jnsgd1na2vs0mg"},{"bike_id":"1f27b9c7-f593-4ee3-b394-7ce199ed2756","system_id":"levelo_inurba_marseille","lat":43.309018,"lon":5.37188,"is_reserved":false,"is_disabled":false,"rental_uris":{"android":"levelo://app?vid=1f27b9c7-f593-4ee3-b394-7ce199ed2756","ios":"levelo://app?vid=1f27b9c7-f593-4ee3-b394-7ce199ed2756"},"vehicle_type_id":"4","last_reported":1778963944,"current_range_meters":3600,"station_id":"","pricing_plan_id":"cebpf4jnsgd1na2vs0mg"},{"bike_id":"76e33348-6a4a-4160-8477-e9650ddfdc10","system_id":"levelo_inurba_marseille","lat":43.2955,"lon":5.42295,"is_reserved":false,"is_disabled":false,"rental_uris":{"android":"levelo://app?vid=76e33348-6a4a-4160-8477-e9650ddfdc10","ios":"levelo://app?vid=76e33348-6a4a-4160-8477-e9650ddfdc10"},"vehicle_type_id":"4","last_reported":1778963944,"current_range_meters":3600,"station_id":"ce4bhph2rcd13ifvqhdg","pricing_plan_id":"cebpf4jnsgd1na2vs0mg"},{"bike_id":"0e85c2f5-b071-40b7-97c5-b8a041db4668","system_id":"levelo_inurba_marseille","lat":43.29496,"lon":5.37387,"is_reserved":false,"is_disabled":false,"rental_uris":{"android":"levelo://app?vid=0e85c2f5-b071-40b7-97c5-b8a041db4668","ios":"levelo://app?vid=0e85c2f5-b071-40b7-97c5-b8a041db4668"},"vehicle_type_id":"4","last_reported":1778963944,"current_range_meters":3600,"station_id":"","pricing_plan_id":"cebpf4jnsgd1na2vs0mg"},{"bike_id":"ca01c33c-99c8-4ff8-a274-d065c7262a1a","system_id":"levelo_inurba_marseille","lat":43.2641,"lon":5.3884,"is_reserved":false,"is_disabled":false,"rental_uris":{"android":"levelo://app?vid=ca01c33c-99c8-4ff8-a274-d065c7262a1a","ios":"levelo://app?vid=ca01c33c-99c8-4ff8-a274-d065c7262a1a"},"vehicle_type_id":"4","last_reported":1778963944,"current_range_meters":3600,"station_id":"","pricing_plan_id":"cebpf4jnsgd1na2vs0mg"},{"bike_id":"944172d9-a966-48e0-831d-55982dfbfa52","system_id":"levelo_inurba_marseille","lat":43.24469,"lon":5.42532,"is_reserved":false,"is_disabled":false,"rental_uris":{"android":"levelo://app?vid=944172d9-a966-48e0-831d-55982dfbfa52","ios":"levelo://app?vid=944172d9-a966-48e0-831d-55982dfbfa52"},"vehicle_type_id":"4","last_reported":1778963944,"current_range_meters":3600,"station_id":"st_d4a3vfp97mjs738cd8kg","pricing_plan_id":"cebpf4jnsgd1na2vs0mg"},{"bike_id":"adc2cc37-1bbd-4446-a01c-11faa5811597","system_id":"levelo_inurba_marseille","lat":43.23383,"lon":5.41245,"is_reserved":false,"is_disabled":false,"rental_uris":{"android":"levelo://app?vid=adc2cc37-1bbd-4446-a01c-11faa5811597","ios":"levelo://app?vid=adc2cc37-1bbd-4446-a01c-11faa5811597"},"vehicle_type_id":"4","last_reported":1778963944,"current_range_meters":3600,"station_id":"st_d75pvndhf9lc73cqq3eg","pricing_plan_id":"cebpf4jnsgd1na2vs0mg"},{"bike_id":"f1537fc7-0354-440d-ac1f-b8db587aa955","system_id":"levelo_inurba_marseille","lat":43.318939,"lon":5.368088,"is_reserved":false,"is_disabled":false,"rental_uris":{"android":"levelo://app?vid=f1537fc7-0354-440d-ac1f-b8db587aa955","ios":"levelo://app?vid=f1537fc7-0354-440d-ac1f-b8db587aa955"},"vehicle_type_id":"4","last_reported":1778963944,"current_range_meters":3600,"station_id":"st_d6o2h0d0559c73evc1b0","pricing_plan_id":"cebpf4jnsgd1na2vs0mg"},{"bike_id":"52fb7434-896e-4c97-817e-ac9657918ab4","system_id":"levelo_inurba_marseille","lat":43.33553,"lon":5.37453,"is_reserved":false,"is_disabled":false,"rental_uris":{"android":"levelo://app?vid=52fb7434-896e-4c97-817e-ac9657918ab4","ios":"levelo://app?vid=52fb7434-896e-4c97-817e-ac9657918ab4"},"vehicle_type_id":"4","last_reported":1778963944,"current_range_meters":3600,"station_id":"st_d46tts09ee8s73dlu43g","pricing_plan_id":"cebpf4jnsgd1na2vs0mg"},{"bike_id":"21ab58a6-61c2-48db-9e55-dae9987c9100","system_id":"levelo_inurba_marseille","lat":43.27943,"lon":5.41038,"is_reserved":false,"is_disabled":false,"rental_uris":{"android":"levelo://app?vid=21ab58a6-61c2-48db-9e55-dae9987c9100","ios":"levelo://app?vid=21ab58a6-61c2-48db-9e55-dae9987c9100"},"vehicle_type_id":"4","last_reported":1778963944,"current_range_meters":3600,"station_id":"ce4bhnp2rcd13ifvqh0g","pricing_plan_id":"cebpf4jnsgd1na2vs0mg"},{"bike_id":"68847b5c-d2d8-4a50-937d-1091915bc21c","system_id":"levelo_inurba_marseille","lat":43.28412,"lon":5.37521,"is_reserved":false,"is_disabled":false,"rental_uris":{"android":"levelo://app?vid=68847b5c-d2d8-4a50-937d-1091915bc21c","ios":"levelo://app?vid=68847b5c-d2d8-4a50-937d-1091915bc21c"},"vehicle_type_id":"4","last_reported":1778963944,"current_range_meters":3600,"station_id":"ce4bh412rcd13ifvqds0","pricing_plan_id":"cebpf4jnsgd1na2vs0mg"},{"bike_id":"90f6e610-3da8-406b-8c73-6721d712c0bb","system_id":"levelo_inurba_marseille","lat":43.29039,"lon":5.39982,"is_reserved":false,"is_disabled":false,"rental_uris":{"android":"levelo://app?vid=90f6e610-3da8-406b-8c73-6721d712c0bb","ios":"levelo://app?vid=90f6e610-3da8-406b-8c73-6721d712c0bb"},"vehicle_type_id":"4","last_reported":1778963944,"current_range_meters":3600,"station_id":"ce4bh392rcd13ifvqdm0","pricing_plan_id":"cebpf4jnsgd1na2vs0mg"},{"bike_id":"4b185152-b3d4-4641-b03d-396ce2d295e1","system_id":"levelo_inurba_marseille","lat":43.274921,"lon":5.415622,"is_reserved":false,"is_disabled":false,"rental_uris":{"android":"levelo://app?vid=4b185152-b3d4-4641-b03d-396ce2d295e1","ios":"levelo://app?vid=4b185152-b3d4-4641-b03d-396ce2d295e1"},"vehicle_type_id":"4","last_reported":1778963944,"current_range_meters":3600,"station_id":"st_d6im8g6chgec73a5pndg","pricing_plan_id":"cebpf4jnsgd1na2vs0mg"},{"bike_id":"fc3434ec-3f12-4fe2-a883-c7406c4652f9","system_id":"levelo_inurba_marseille","lat":43.29485,"lon":5.43309,"is_reserved":false,"is_disabled":false,"rental_uris":{"android":"levelo://app?vid=fc3434ec-3f12-4fe2-a883-c7406c4652f9","ios":"levelo://app?vid=fc3434ec-3f12-4fe2-a883-c7406c4652f9"},"vehicle_type_id":"4","last_reported":1778963944,"current_range_meters":4000,"station_id":"st_d3j5ugp08ojc73fj9d10","pricing_plan_id":"cebpf4jnsgd1na2vs0mg"},{"bike_id":"310313f9-4c8b-458d-834b-81e71f22dc3f","system_id":"levelo_inurba_marseille","lat":43.27915,"lon":5.39585,"is_reserved":false,"is_disabled":true,"rental_uris":{"android":"levelo://app?vid=310313f9-4c8b-458d-834b-81e71f22dc3f","ios":"levelo://app?vid=310313f9-4c8b-458d-834b-81e71f22dc3f"},"vehicle_type_id":"4","last_reported":1778963944,"current_range_meters":4000,"station_id":"ce4bhf92rcd13ifvqf40","pricing_plan_id":"cebpf4jnsgd1na2vs0mg"},{"bike_id":"f009459e-8bcb-4afa-9fb0-c977c93700f9","system_id":"levelo_inurba_marseille","lat":43.31707,"lon":5.42399,"is_reserved":false,"is_disabled":false,"rental_uris":{"android":"levelo://app?vid=f009459e-8bcb-4afa-9fb0-c977c93700f9","ios":"levelo://app?vid=f009459e-8bcb-4afa-9fb0-c977c93700f9"},"vehicle_type_id":"4","last_reported":1778963944,"current_range_meters":4000,"station_id":"ce4bhp92rcd13ifvqhbg","pricing_plan_id":"cebpf4jnsgd1na2vs0mg"},{"bike_id":"ff5af636-5e8f-4fe0-a7d9-70a25d86e069","system_id":"levelo_inurba_marseille","lat":43.21196,"lon":5.35078,"is_reserved":false,"is_disabled":false,"rental_uris":{"android":"levelo://app?vid=ff5af636-5e8f-4fe0-a7d9-70a25d86e069","ios":"levelo://app?vid=ff5af636-5e8f-4fe0-a7d9-70a25d86e069"},"vehicle_type_id":"4","last_reported":1778963944,"current_range_meters":4000,"station_id":"st_cvj6sg6p6f1abm77japg","pricing_plan_id":"cebpf4jnsgd1na2vs0mg"},{"bike_id":"fe51d235-289e-443a-8eab-faa4747a6bf1","system_id":"levelo_inurba_marseille","lat":43.27558,"lon":5.38415,"is_reserved":false,"is_disabled":false,"rental_uris":{"android":"levelo://app?vid=fe51d235-289e-443a-8eab-faa4747a6bf1","ios":"levelo://app?vid=fe51d235-289e-443a-8eab-faa4747a6bf1"},"vehicle_type_id":"4","last_reported":1778963944,"current_range_meters":4000,"station_id":"ce4bhh92rcd13ifvqfi0","pricing_plan_id":"cebpf4jnsgd1na2vs0mg"},{"bike_id":"db5ef7bc-1934-45c3-8160-80ea71746812","system_id":"levelo_inurba_marseille","lat":43.26224,"lon":5.40444,"is_reserved":false,"is_disabled":false,"rental_uris":{"android":"levelo://app?vid=db5ef7bc-1934-45c3-8160-80ea71746812","ios":"levelo://app?vid=db5ef7bc-1934-45c3-8160-80ea71746812"},"vehicle_type_id":"4","last_reported":1778963944,"current_range_meters":4000,"station_id":"ce4bhmh2rcd13ifvqgmg","pricing_plan_id":"cebpf4jnsgd1na2vs0mg"},{"bike_id":"90f0a7c2-f56e-4010-971c-b48f86757b94","system_id":"levelo_inurba_marseille","lat":43.292611,"lon":5.38428,"is_reserved":false,"is_disabled":false,"rental_uris":{"android":"levelo://app?vid=90f0a7c2-f56e-4010-971c-b48f86757b94","ios":"levelo://app?vid=90f0a7c2-f56e-4010-971c-b48f86757b94"},"vehicle_type_id":"4","last_reported":1778963944,"current_range_meters":4000,"station_id":"ce4bh692rcd13ifvqea0","pricing_plan_id":"cebpf4jnsgd1na2vs0mg"},{"bike_id":"46348466-df29-4488-880a-a1d0f4ebea0c","system_id":"levelo_inurba_marseille","lat":43.29603,"lon":5.37733,"is_reserved":false,"is_disabled":false,"rental_uris":{"android":"levelo://app?vid=46348466-df29-4488-880a-a1d0f4ebea0c","ios":"levelo://app?vid=46348466-df29-4488-880a-a1d0f4ebea0c"},"vehicle_type_id":"4","last_reported":1778963944,"current_range_meters":4000,"station_id":"ce4bgi92rcd13ifvqb90","pricing_plan_id":"cebpf4jnsgd1na2vs0mg"},{"bike_id":"b99255d8-2cb4-4c40-80a8-f34ddf79c7aa","system_id":"levelo_inurba_marseille","lat":43.33555,"lon":5.37485,"is_reserved":false,"is_disabled":false,"rental_uris":{"android":"levelo://app?vid=b99255d8-2cb4-4c40-80a8-f34ddf79c7aa","ios":"levelo://app?vid=b99255d8-2cb4-4c40-80a8-f34ddf79c7aa"},"vehicle_type_id":"4","last_reported":1778963944,"current_range_meters":4000,"station_id":"st_d46tts09ee8s73dlu43g","pricing_plan_id":"cebpf4jnsgd1na2vs0mg"},{"bike_id":"b7b5b41d-5b26-4c2b-8da2-b1e7cd5f3624","system_id":"levelo_inurba_marseille","lat":43.25334,"lon":5.42135,"is_reserved":false,"is_disabled":false,"rental_uris":{"android":"levelo://app?vid=b7b5b41d-5b26-4c2b-8da2-b1e7cd5f3624","ios":"levelo://app?vid=b7b5b41d-5b26-4c2b-8da2-b1e7cd5f3624"},"vehicle_type_id":"4","last_reported":1778963944,"current_range_meters":4000,"station_id":"st_d2m65c5bi1j21697t3ng","pricing_plan_id":"cebpf4jnsgd1na2vs0mg"},{"bike_id":"d68b029d-5819-4477-bfbc-0fd6ebf04e79","system_id":"levelo_inurba_marseille","lat":43.29514,"lon":5.39177,"is_reserved":false,"is_disabled":false,"rental_uris":{"android":"levelo://app?vid=d68b029d-5819-4477-bfbc-0fd6ebf04e79","ios":"levelo://app?vid=d68b029d-5819-4477-bfbc-0fd6ebf04e79"},"vehicle_type_id":"4","last_reported":1778963944,"current_range_meters":4000,"station_id":"","pricing_plan_id":"cebpf4jnsgd1na2vs0mg"},{"bike_id":"4dbbf5b6-00a7-412a-a5bd-9051f33d50bf","system_id":"levelo_inurba_marseille","lat":43.29003,"lon":5.35603,"is_reserved":false,"is_disabled":false,"rental_uris":{"android":"levelo://app?vid=4dbbf5b6-00a7-412a-a5bd-9051f33d50bf","ios":"levelo://app?vid=4dbbf5b6-00a7-412a-a5bd-9051f33d50bf"},"vehicle_type_id":"4","last_reported":1778963944,"current_range_meters":4000,"station_id":"ce4bhb92rcd13ifvqen0","pricing_plan_id":"cebpf4jnsgd1na2vs0mg"},{"bike_id":"ab0a65f4-6c36-4bcb-8328-0e0271f53a2d","system_id":"levelo_inurba_marseille","lat":43.28606,"lon":5.3707,"is_reserved":false,"is_disabled":false,"rental_uris":{"android":"levelo://app?vid=ab0a65f4-6c36-4bcb-8328-0e0271f53a2d","ios":"levelo://app?vid=ab0a65f4-6c36-4bcb-8328-0e0271f53a2d"},"vehicle_type_id":"4","last_reported":1778963944,"current_range_meters":4400,"station_id":"ce4bht12rcd13ifvqi60","pricing_plan_id":"cebpf4jnsgd1na2vs0mg"},{"bike_id":"8555689c-e2b4-44bb-a2cf-3cf014b18cfb","system_id":"levelo_inurba_marseille","lat":43.29025,"lon":5.39955,"is_reserved":false,"is_disabled":false,"rental_uris":{"android":"levelo://app?vid=8555689c-e2b4-44bb-a2cf-3cf014b18cfb","ios":"levelo://app?vid=8555689c-e2b4-44bb-a2cf-3cf014b18cfb"},"vehicle_type_id":"4","last_reported":1778963944,"current_range_meters":4400,"station_id":"ce4bh392rcd13ifvqdm0","pricing_plan_id":"cebpf4jnsgd1na2vs0mg"},{"bike_id":"23ecd78c-cd67-4d96-a473-8acd3218fef4","system_id":"levelo_inurba_marseille","lat":43.29176,"lon":5.35804,"is_reserved":false,"is_disabled":true,"rental_uris":{"android":"levelo://app?vid=23ecd78c-cd67-4d96-a473-8acd3218fef4","ios":"levelo://app?vid=23ecd78c-cd67-4d96-a473-8acd3218fef4"},"vehicle_type_id":"4","last_reported":1778963944,"current_range_meters":4400,"station_id":"ce4bhb12rcd13ifvqel0","pricing_plan_id":"cebpf4jnsgd1na2vs0mg"},{"bike_id":"eb4b2d73-f382-4d69-a5ec-bafbb4107d23","system_id":"levelo_inurba_marseille","lat":43.28356,"lon":5.3812,"is_reserved":false,"is_disabled":false,"rental_uris":{"android":"levelo://app?vid=eb4b2d73-f382-4d69-a5ec-bafbb4107d23","ios":"levelo://app?vid=eb4b2d73-f382-4d69-a5ec-bafbb4107d23"},"vehicle_type_id":"4","last_reported":1778963944,"current_range_meters":4400,"station_id":"ce4bh412rcd13ifvqdr0","pricing_plan_id":"cebpf4jnsgd1na2vs0mg"},{"bike_id":"6ed28fa0-f20b-450d-a789-f0b565e64f1b","system_id":"levelo_inurba_marseille","lat":43.29861,"lon":5.38299,"is_reserved":false,"is_disabled":false,"rental_uris":{"android":"levelo://app?vid=6ed28fa0-f20b-450d-a789-f0b565e64f1b","ios":"levelo://app?vid=6ed28fa0-f20b-450d-a789-f0b565e64f1b"},"vehicle_type_id":"4","last_reported":1778963944,"current_range_meters":4400,"station_id":"","pricing_plan_id":"cebpf4jnsgd1na2vs0mg"},{"bike_id":"16c63326-b9b4-4ebf-82e7-e800135e9a1c","system_id":"levelo_inurba_marseille","lat":43.29214,"lon":5.36047,"is_reserved":false,"is_disabled":false,"rental_uris":{"android":"levelo://app?vid=16c63326-b9b4-4ebf-82e7-e800135e9a1c","ios":"levelo://app?vid=16c63326-b9b4-4ebf-82e7-e800135e9a1c"},"vehicle_type_id":"4","last_reported":1778963944,"current_range_meters":4400,"station_id":"ce4bhbh2rcd13ifvqeqg","pricing_plan_id":"cebpf4jnsgd1na2vs0mg"},{"bike_id":"1c155cb8-50aa-4ad8-95d4-a32cca5f7a07","system_id":"levelo_inurba_marseille","lat":43.24463,"lon":5.4253,"is_reserved":false,"is_disabled":false,"rental_uris":{"android":"levelo://app?vid=1c155cb8-50aa-4ad8-95d4-a32cca5f7a07","ios":"levelo://app?vid=1c155cb8-50aa-4ad8-95d4-a32cca5f7a07"},"vehicle_type_id":"4","last_reported":1778963944,"current_range_meters":4400,"station_id":"st_d4a3vfp97mjs738cd8kg","pricing_plan_id":"cebpf4jnsgd1na2vs0mg"},{"bike_id":"04ea3f89-d526-46df-8866-3a77acf0c254","system_id":"levelo_inurba_marseille","lat":43.28272,"lon":5.35078,"is_reserved":false,"is_disabled":true,"rental_uris":{"android":"levelo://app?vid=04ea3f89-d526-46df-8866-3a77acf0c254","ios":"levelo://app?vid=04ea3f89-d526-46df-8866-3a77acf0c254"},"vehicle_type_id":"4","last_reported":1778963944,"current_range_meters":4400,"station_id":"ce4bhbp2rcd13ifvqerg","pricing_plan_id":"cebpf4jnsgd1na2vs0mg"},{"bike_id":"f031f5ba-700d-4074-949d-b476d47027d6","system_id":"levelo_inurba_marseille","lat":43.28612,"lon":5.37063,"is_reserved":false,"is_disabled":false,"rental_uris":{"android":"levelo://app?vid=f031f5ba-700d-4074-949d-b476d47027d6","ios":"levelo://app?vid=f031f5ba-700d-4074-949d-b476d47027d6"},"vehicle_type_id":"4","last_reported":1778963944,"current_range_meters":4800,"station_id":"ce4bht12rcd13ifvqi60","pricing_plan_id":"cebpf4jnsgd1na2vs0mg"},{"bike_id":"2c4e2c80-7a7f-49e7-8a11-230c3e37ee87","system_id":"levelo_inurba_marseille","lat":43.2257,"lon":5.41629,"is_reserved":false,"is_disabled":false,"rental_uris":{"android":"levelo://app?vid=2c4e2c80-7a7f-49e7-8a11-230c3e37ee87","ios":"levelo://app?vid=2c4e2c80-7a7f-49e7-8a11-230c3e37ee87"},"vehicle_type_id":"4","last_reported":1778963944,"current_range_meters":4800,"station_id":"st_d2o4gvlbi1j2169b742g","pricing_plan_id":"cebpf4jnsgd1na2vs0mg"},{"bike_id":"e191454c-916c-4e6d-bb9a-b71fe6d913bf","system_id":"levelo_inurba_marseille","lat":43.23189,"lon":5.3556,"is_reserved":false,"is_disabled":false,"rental_uris":{"android":"levelo://app?vid=e191454c-916c-4e6d-bb9a-b71fe6d913bf","ios":"levelo://app?vid=e191454c-916c-4e6d-bb9a-b71fe6d913bf"},"vehicle_type_id":"4","last_reported":1778963944,"current_range_meters":4800,"station_id":"ce4bhu92rcd13ifvqi70","pricing_plan_id":"cebpf4jnsgd1na2vs0mg"},{"bike_id":"1f2ef142-0059-4ee6-9c3b-bbdf112f236b","system_id":"levelo_inurba_marseille","lat":43.30595,"lon":5.36705,"is_reserved":false,"is_disabled":false,"rental_uris":{"android":"levelo://app?vid=1f2ef142-0059-4ee6-9c3b-bbdf112f236b","ios":"levelo://app?vid=1f2ef142-0059-4ee6-9c3b-bbdf112f236b"},"vehicle_type_id":"4","last_reported":1778963944,"current_range_meters":4800,"station_id":"","pricing_plan_id":"cebpf4jnsgd1na2vs0mg"},{"bike_id":"a5b8b8b9-67e8-49b2-bbd1-999bbafd3ba2","system_id":"levelo_inurba_marseille","lat":43.31329,"lon":5.39688,"is_reserved":false,"is_disabled":false,"rental_uris":{"android":"levelo://app?vid=a5b8b8b9-67e8-49b2-bbd1-999bbafd3ba2","ios":"levelo://app?vid=a5b8b8b9-67e8-49b2-bbd1-999bbafd3ba2"},"vehicle_type_id":"4","last_reported":1778963944,"current_range_meters":4800,"station_id":"ce4bgvp2rcd13ifvqcu0","pricing_plan_id":"cebpf4jnsgd1na2vs0mg"},{"bike_id":"df59be64-5cdb-4f85-abbc-ab731e671da0","system_id":"levelo_inurba_marseille","lat":43.24164,"lon":5.36388,"is_reserved":false,"is_disabled":false,"rental_uris":{"android":"levelo://app?vid=df59be64-5cdb-4f85-abbc-ab731e671da0","ios":"levelo://app?vid=df59be64-5cdb-4f85-abbc-ab731e671da0"},"vehicle_type_id":"4","last_reported":1778963944,"current_range_meters":4800,"station_id":"cpo36qri1sfpv3e86is0","pricing_plan_id":"cebpf4jnsgd1na2vs0mg"},{"bike_id":"fdacafe5-c916-488b-b87c-f84be7c88524","system_id":"levelo_inurba_marseille","lat":43.2835,"lon":5.38114,"is_reserved":false,"is_disabled":false,"rental_uris":{"android":"levelo://app?vid=fdacafe5-c916-488b-b87c-f84be7c88524","ios":"levelo://app?vid=fdacafe5-c916-488b-b87c-f84be7c88524"},"vehicle_type_id":"4","last_reported":1778963944,"current_range_meters":4800,"station_id":"ce4bh412rcd13ifvqdr0","pricing_plan_id":"cebpf4jnsgd1na2vs0mg"},{"bike_id":"40d52630-dac1-4e9c-ba9e-de16ed28d9c3","system_id":"levelo_inurba_marseille","lat":43.24822,"lon":5.3744,"is_reserved":false,"is_disabled":false,"rental_uris":{"android":"levelo://app?vid=40d52630-dac1-4e9c-ba9e-de16ed28d9c3","ios":"levelo://app?vid=40d52630-dac1-4e9c-ba9e-de16ed28d9c3"},"vehicle_type_id":"4","last_reported":1778963944,"current_range_meters":4800,"station_id":"ce4bhgh2rcd13ifvqfb0","pricing_plan_id":"cebpf4jnsgd1na2vs0mg"},{"bike_id":"a138f308-9702-4f03-aafd-186c8acd82cd","system_id":"levelo_inurba_marseille","lat":43.28945,"lon":5.36636,"is_reserved":false,"is_disabled":false,"rental_uris":{"android":"levelo://app?vid=a138f308-9702-4f03-aafd-186c8acd82cd","ios":"levelo://app?vid=a138f308-9702-4f03-aafd-186c8acd82cd"},"vehicle_type_id":"4","last_reported":1778963944,"current_range_meters":4800,"station_id":"ce4bhap2rcd13ifvqek0","pricing_plan_id":"cebpf4jnsgd1na2vs0mg"},{"bike_id":"e6adddb4-cf5a-45f0-9c7a-79e04b64ad00","system_id":"levelo_inurba_marseille","lat":43.231794,"lon":5.399707,"is_reserved":false,"is_disabled":false,"rental_uris":{"android":"levelo://app?vid=e6adddb4-cf5a-45f0-9c7a-79e04b64ad00","ios":"levelo://app?vid=e6adddb4-cf5a-45f0-9c7a-79e04b64ad00"},"vehicle_type_id":"4","last_reported":1778963944,"current_range_meters":5600,"station_id":"ce4bhn12rcd13ifvqgqg","pricing_plan_id":"cebpf4jnsgd1na2vs0mg"},{"bike_id":"74f12a6d-7a94-4ce3-8725-e3fbbe23ae70","system_id":"levelo_inurba_marseille","lat":43.33548,"lon":5.37478,"is_reserved":false,"is_disabled":false,"rental_uris":{"android":"levelo://app?vid=74f12a6d-7a94-4ce3-8725-e3fbbe23ae70","ios":"levelo://app?vid=74f12a6d-7a94-4ce3-8725-e3fbbe23ae70"},"vehicle_type_id":"4","last_reported":1778963944,"current_range_meters":5600,"station_id":"st_d46tts09ee8s73dlu43g","pricing_plan_id":"cebpf4jnsgd1na2vs0mg"},{"bike_id":"a56a8a0c-3ab9-465a-bdae-f5897ec1f98a","system_id":"levelo_inurba_marseille","lat":43.24154,"lon":5.36395,"is_reserved":false,"is_disabled":false,"rental_uris":{"android":"levelo://app?vid=a56a8a0c-3ab9-465a-bdae-f5897ec1f98a","ios":"levelo://app?vid=a56a8a0c-3ab9-465a-bdae-f5897ec1f98a"},"vehicle_type_id":"4","last_reported":1778963944,"current_range_meters":5600,"station_id":"cpo36qri1sfpv3e86is0","pricing_plan_id":"cebpf4jnsgd1na2vs0mg"},{"bike_id":"015aad6e-f7c0-4598-9ad7-38c4d3fee62c","system_id":"levelo_inurba_marseille","lat":43.28619,"lon":5.35101,"is_reserved":false,"is_disabled":false,"rental_uris":{"android":"levelo://app?vid=015aad6e-f7c0-4598-9ad7-38c4d3fee62c","ios":"levelo://app?vid=015aad6e-f7c0-4598-9ad7-38c4d3fee62c"},"vehicle_type_id":"4","last_reported":1778963944,"current_range_meters":5600,"station_id":"ce4bhch2rcd13ifvqeug","pricing_plan_id":"cebpf4jnsgd1na2vs0mg"},{"bike_id":"480491c8-82c0-4a00-b6a9-09dc0bb69833","system_id":"levelo_inurba_marseille","lat":43.30599,"lon":5.3723,"is_reserved":false,"is_disabled":false,"rental_uris":{"android":"levelo://app?vid=480491c8-82c0-4a00-b6a9-09dc0bb69833","ios":"levelo://app?vid=480491c8-82c0-4a00-b6a9-09dc0bb69833"},"vehicle_type_id":"4","last_reported":1778963944,"current_range_meters":5600,"station_id":"ce4bgqh2rcd13ifvqc4g","pricing_plan_id":"cebpf4jnsgd1na2vs0mg"},{"bike_id":"0e3fc9c6-e9e8-4d3e-ba41-a00d0e757b16","system_id":"levelo_inurba_marseille","lat":43.29281,"lon":5.38436,"is_reserved":false,"is_disabled":false,"rental_uris":{"android":"levelo://app?vid=0e3fc9c6-e9e8-4d3e-ba41-a00d0e757b16","ios":"levelo://app?vid=0e3fc9c6-e9e8-4d3e-ba41-a00d0e757b16"},"vehicle_type_id":"4","last_reported":1778963944,"current_range_meters":5600,"station_id":"ce4bh692rcd13ifvqea0","pricing_plan_id":"cebpf4jnsgd1na2vs0mg"},{"bike_id":"8e9e3a50-d8b1-4ff9-876a-6fdf349604d8","system_id":"levelo_inurba_marseille","lat":43.2482,"lon":5.37432,"is_reserved":false,"is_disabled":false,"rental_uris":{"android":"levelo://app?vid=8e9e3a50-d8b1-4ff9-876a-6fdf349604d8","ios":"levelo://app?vid=8e9e3a50-d8b1-4ff9-876a-6fdf349604d8"},"vehicle_type_id":"4","last_reported":1778963944,"current_range_meters":5600,"station_id":"ce4bhgh2rcd13ifvqfb0","pricing_plan_id":"cebpf4jnsgd1na2vs0mg"},{"bike_id":"2943fbe3-a159-4981-a389-c56caa3b261f","system_id":"levelo_inurba_marseille","lat":43.24805,"lon":5.37468,"is_reserved":false,"is_disabled":false,"rental_uris":{"android":"levelo://app?vid=2943fbe3-a159-4981-a389-c56caa3b261f","ios":"levelo://app?vid=2943fbe3-a159-4981-a389-c56caa3b261f"},"vehicle_type_id":"4","last_reported":1778963944,"current_range_meters":5600,"station_id":"ce4bhgh2rcd13ifvqfb0","pricing_plan_id":"cebpf4jnsgd1na2vs0mg"},{"bike_id":"fdfdb9ab-066d-482f-85ac-8662421ce155","system_id":"levelo_inurba_marseille","lat":43.24942,"lon":5.40485,"is_reserved":false,"is_disabled":false,"rental_uris":{"android":"levelo://app?vid=fdfdb9ab-066d-482f-85ac-8662421ce155","ios":"levelo://app?vid=fdfdb9ab-066d-482f-85ac-8662421ce155"},"vehicle_type_id":"4","last_reported":1778963944,"current_range_meters":5600,"station_id":"st_d2ngiaodas8pm72gd1h0","pricing_plan_id":"cebpf4jnsgd1na2vs0mg"},{"bike_id":"8e5fa8eb-0ac8-4a67-966c-22d5ecb68caf","system_id":"levelo_inurba_marseille","lat":43.29524,"lon":5.39045,"is_reserved":false,"is_disabled":false,"rental_uris":{"android":"levelo://app?vid=8e5fa8eb-0ac8-4a67-966c-22d5ecb68caf","ios":"levelo://app?vid=8e5fa8eb-0ac8-4a67-966c-22d5ecb68caf"},"vehicle_type_id":"4","last_reported":1778963944,"current_range_meters":5600,"station_id":"ce4bh3p2rcd13ifvqdp0","pricing_plan_id":"cebpf4jnsgd1na2vs0mg"},{"bike_id":"ba98b0c2-7ad5-4e2a-95fa-b07ff04276ee","system_id":"levelo_inurba_marseille","lat":43.28958,"lon":5.36406,"is_reserved":false,"is_disabled":false,"rental_uris":{"android":"levelo://app?vid=ba98b0c2-7ad5-4e2a-95fa-b07ff04276ee","ios":"levelo://app?vid=ba98b0c2-7ad5-4e2a-95fa-b07ff04276ee"},"vehicle_type_id":"4","last_reported":1778963944,"current_range_meters":5600,"station_id":"ce4bhc92rcd13ifvqetg","pricing_plan_id":"cebpf4jnsgd1na2vs0mg"},{"bike_id":"91566bbe-873a-4da9-86c2-41b6291fcfe2","system_id":"levelo_inurba_marseille","lat":43.21761,"lon":5.34596,"is_reserved":false,"is_disabled":false,"rental_uris":{"android":"levelo://app?vid=91566bbe-873a-4da9-86c2-41b6291fcfe2","ios":"levelo://app?vid=91566bbe-873a-4da9-86c2-41b6291fcfe2"},"vehicle_type_id":"4","last_reported":1778963944,"current_range_meters":5600,"station_id":"st_cvj6r9ubvosntc0bgbag","pricing_plan_id":"cebpf4jnsgd1na2vs0mg"},{"bike_id":"52a7111c-6ede-43eb-a09e-303ea019c1ff","system_id":"levelo_inurba_marseille","lat":43.29033,"lon":5.38623,"is_reserved":false,"is_disabled":false,"rental_uris":{"android":"levelo://app?vid=52a7111c-6ede-43eb-a09e-303ea019c1ff","ios":"levelo://app?vid=52a7111c-6ede-43eb-a09e-303ea019c1ff"},"vehicle_type_id":"4","last_reported":1778963944,"current_range_meters":5600,"station_id":"ce4bh4p2rcd13ifvqe0g","pricing_plan_id":"cebpf4jnsgd1na2vs0mg"},{"bike_id":"3bc3e170-b70d-464e-a0fc-26e24f8aea12","system_id":"levelo_inurba_marseille","lat":43.23961,"lon":5.36636,"is_reserved":false,"is_disabled":false,"rental_uris":{"android":"levelo://app?vid=3bc3e170-b70d-464e-a0fc-26e24f8aea12","ios":"levelo://app?vid=3bc3e170-b70d-464e-a0fc-26e24f8aea12"},"vehicle_type_id":"4","last_reported":1778963944,"current_range_meters":5600,"station_id":"ce4bhi12rcd13ifvqfp0","pricing_plan_id":"cebpf4jnsgd1na2vs0mg"},{"bike_id":"f7543221-24ce-49d7-9e9a-813368b633f9","system_id":"levelo_inurba_marseille","lat":43.24686,"lon":5.38146,"is_reserved":false,"is_disabled":false,"rental_uris":{"android":"levelo://app?vid=f7543221-24ce-49d7-9e9a-813368b633f9","ios":"levelo://app?vid=f7543221-24ce-49d7-9e9a-813368b633f9"},"vehicle_type_id":"4","last_reported":1778963944,"current_range_meters":5600,"station_id":"ce4bhih2rcd13ifvqfr0","pricing_plan_id":"cebpf4jnsgd1na2vs0mg"},{"bike_id":"255a8db9-6ac5-445d-8da2-584280160595","system_id":"levelo_inurba_marseille","lat":43.2998,"lon":5.36727,"is_reserved":false,"is_disabled":false,"rental_uris":{"android":"levelo://app?vid=255a8db9-6ac5-445d-8da2-584280160595","ios":"levelo://app?vid=255a8db9-6ac5-445d-8da2-584280160595"},"vehicle_type_id":"4","last_reported":1778963944,"current_range_meters":5600,"station_id":"","pricing_plan_id":"cebpf4jnsgd1na2vs0mg"},{"bike_id":"b78a5007-a3f9-4d4f-b4e5-799aa180d7f8","system_id":"levelo_inurba_marseille","lat":43.32051,"lon":5.41573,"is_reserved":false,"is_disabled":true,"rental_uris":{"android":"levelo://app?vid=b78a5007-a3f9-4d4f-b4e5-799aa180d7f8","ios":"levelo://app?vid=b78a5007-a3f9-4d4f-b4e5-799aa180d7f8"},"vehicle_type_id":"4","last_reported":1778963944,"current_range_meters":5600,"station_id":"ce4bhq92rcd13ifvqhkg","pricing_plan_id":"cebpf4jnsgd1na2vs0mg"},{"bike_id":"8c6e71ab-d6f2-4401-b36d-da7a375e2edf","system_id":"levelo_inurba_marseille","lat":43.24576,"lon":5.395,"is_reserved":false,"is_disabled":false,"rental_uris":{"android":"levelo://app?vid=8c6e71ab-d6f2-4401-b36d-da7a375e2edf","ios":"levelo://app?vid=8c6e71ab-d6f2-4401-b36d-da7a375e2edf"},"vehicle_type_id":"4","last_reported":1778963944,"current_range_meters":5600,"station_id":"ce4bhlp2rcd13ifvqgjg","pricing_plan_id":"cebpf4jnsgd1na2vs0mg"},{"bike_id":"052c5860-4a0d-4b5d-b01f-a0c27612baed","system_id":"levelo_inurba_marseille","lat":43.299381,"lon":5.365593,"is_reserved":false,"is_disabled":false,"rental_uris":{"android":"levelo://app?vid=052c5860-4a0d-4b5d-b01f-a0c27612baed","ios":"levelo://app?vid=052c5860-4a0d-4b5d-b01f-a0c27612baed"},"vehicle_type_id":"4","last_reported":1778963944,"current_range_meters":5600,"station_id":"ce4bgm92rcd13ifvqbr0","pricing_plan_id":"cebpf4jnsgd1na2vs0mg"},{"bike_id":"11cfcfb7-7cef-4ca3-94fd-d649299b0219","system_id":"levelo_inurba_marseille","lat":43.31723,"lon":5.4241,"is_reserved":false,"is_disabled":false,"rental_uris":{"android":"levelo://app?vid=11cfcfb7-7cef-4ca3-94fd-d649299b0219","ios":"levelo://app?vid=11cfcfb7-7cef-4ca3-94fd-d649299b0219"},"vehicle_type_id":"4","last_reported":1778963944,"current_range_meters":5600,"station_id":"ce4bhp92rcd13ifvqhbg","pricing_plan_id":"cebpf4jnsgd1na2vs0mg"},{"bike_id":"6b5f5f89-ab34-448a-b2c7-ae8a3e9a30f4","system_id":"levelo_inurba_marseille","lat":43.3189,"lon":5.40735,"is_reserved":false,"is_disabled":true,"rental_uris":{"android":"levelo://app?vid=6b5f5f89-ab34-448a-b2c7-ae8a3e9a30f4","ios":"levelo://app?vid=6b5f5f89-ab34-448a-b2c7-ae8a3e9a30f4"},"vehicle_type_id":"4","last_reported":1778963944,"current_range_meters":5600,"station_id":"ce4bhq12rcd13ifvqhig","pricing_plan_id":"cebpf4jnsgd1na2vs0mg"},{"bike_id":"5f81ec45-e811-49b3-81b7-3971621e9736","system_id":"levelo_inurba_marseille","lat":43.2924,"lon":5.38444,"is_reserved":false,"is_disabled":false,"rental_uris":{"android":"levelo://app?vid=5f81ec45-e811-49b3-81b7-3971621e9736","ios":"levelo://app?vid=5f81ec45-e811-49b3-81b7-3971621e9736"},"vehicle_type_id":"4","last_reported":1778963944,"current_range_meters":6000,"station_id":"ce4bh692rcd13ifvqea0","pricing_plan_id":"cebpf4jnsgd1na2vs0mg"},{"bike_id":"c60e5f42-27e6-4dfb-911a-3f1d717c08e4","system_id":"levelo_inurba_marseille","lat":43.29631,"lon":5.37124,"is_reserved":false,"is_disabled":false,"rental_uris":{"android":"levelo://app?vid=c60e5f42-27e6-4dfb-911a-3f1d717c08e4","ios":"levelo://app?vid=c60e5f42-27e6-4dfb-911a-3f1d717c08e4"},"vehicle_type_id":"4","last_reported":1778963944,"current_range_meters":6000,"station_id":"ce4bgnh2rcd13ifvqc0g","pricing_plan_id":"cebpf4jnsgd1na2vs0mg"},{"bike_id":"dbf94776-63a1-426f-85ae-41abd5903310","system_id":"levelo_inurba_marseille","lat":43.30952,"lon":5.37643,"is_reserved":false,"is_disabled":false,"rental_uris":{"android":"levelo://app?vid=dbf94776-63a1-426f-85ae-41abd5903310","ios":"levelo://app?vid=dbf94776-63a1-426f-85ae-41abd5903310"},"vehicle_type_id":"4","last_reported":1778963944,"current_range_meters":6000,"station_id":"","pricing_plan_id":"cebpf4jnsgd1na2vs0mg"},{"bike_id":"9d9da9b1-62c5-4232-8888-7d36c96bb153","system_id":"levelo_inurba_marseille","lat":43.27465,"lon":5.41594,"is_reserved":false,"is_disabled":false,"rental_uris":{"android":"levelo://app?vid=9d9da9b1-62c5-4232-8888-7d36c96bb153","ios":"levelo://app?vid=9d9da9b1-62c5-4232-8888-7d36c96bb153"},"vehicle_type_id":"4","last_reported":1778963944,"current_range_meters":6000,"station_id":"","pricing_plan_id":"cebpf4jnsgd1na2vs0mg"},{"bike_id":"9328df09-7c77-4ef9-a326-cd1cda9dd29d","system_id":"levelo_inurba_marseille","lat":43.30777,"lon":5.38508,"is_reserved":false,"is_disabled":false,"rental_uris":{"android":"levelo://app?vid=9328df09-7c77-4ef9-a326-cd1cda9dd29d","ios":"levelo://app?vid=9328df09-7c77-4ef9-a326-cd1cda9dd29d"},"vehicle_type_id":"4","last_reported":1778963944,"current_range_meters":6000,"station_id":"","pricing_plan_id":"cebpf4jnsgd1na2vs0mg"},{"bike_id":"4d31ed6e-13e0-4959-aa6c-cce6ffc3f7ff","system_id":"levelo_inurba_marseille","lat":43.27494,"lon":5.41628,"is_reserved":false,"is_disabled":false,"rental_uris":{"android":"levelo://app?vid=4d31ed6e-13e0-4959-aa6c-cce6ffc3f7ff","ios":"levelo://app?vid=4d31ed6e-13e0-4959-aa6c-cce6ffc3f7ff"},"vehicle_type_id":"4","last_reported":1778963944,"current_range_meters":6000,"station_id":"st_d6im8g6chgec73a5pndg","pricing_plan_id":"cebpf4jnsgd1na2vs0mg"},{"bike_id":"b9fc383d-7675-4ac1-96a8-b14863e064c9","system_id":"levelo_inurba_marseille","lat":43.31299,"lon":5.37229,"is_reserved":false,"is_disabled":false,"rental_uris":{"android":"levelo://app?vid=b9fc383d-7675-4ac1-96a8-b14863e064c9","ios":"levelo://app?vid=b9fc383d-7675-4ac1-96a8-b14863e064c9"},"vehicle_type_id":"4","last_reported":1778963944,"current_range_meters":6000,"station_id":"","pricing_plan_id":"cebpf4jnsgd1na2vs0mg"},{"bike_id":"dca08c5c-65aa-4be5-b882-b94870c8a90e","system_id":"levelo_inurba_marseille","lat":43.30422,"lon":5.4127,"is_reserved":false,"is_disabled":true,"rental_uris":{"android":"levelo://app?vid=dca08c5c-65aa-4be5-b882-b94870c8a90e","ios":"levelo://app?vid=dca08c5c-65aa-4be5-b882-b94870c8a90e"},"vehicle_type_id":"4","last_reported":1778963944,"current_range_meters":6000,"station_id":"ce4bhop2rcd13ifvqh8g","pricing_plan_id":"cebpf4jnsgd1na2vs0mg"},{"bike_id":"ec218d25-e51c-4ca9-a8c9-80136c734899","system_id":"levelo_inurba_marseille","lat":43.24381,"lon":5.3707,"is_reserved":false,"is_disabled":false,"rental_uris":{"android":"levelo://app?vid=ec218d25-e51c-4ca9-a8c9-80136c734899","ios":"levelo://app?vid=ec218d25-e51c-4ca9-a8c9-80136c734899"},"vehicle_type_id":"4","last_reported":1778963944,"current_range_meters":6000,"station_id":"ce4bhhh2rcd13ifvqfk0","pricing_plan_id":"cebpf4jnsgd1na2vs0mg"},{"bike_id":"5b61ad3d-c4b3-4bf0-9170-da55ed29dbbb","system_id":"levelo_inurba_marseille","lat":43.30781,"lon":5.3933,"is_reserved":false,"is_disabled":false,"rental_uris":{"android":"levelo://app?vid=5b61ad3d-c4b3-4bf0-9170-da55ed29dbbb","ios":"levelo://app?vid=5b61ad3d-c4b3-4bf0-9170-da55ed29dbbb"},"vehicle_type_id":"4","last_reported":1778963944,"current_range_meters":6000,"station_id":"","pricing_plan_id":"cebpf4jnsgd1na2vs0mg"},{"bike_id":"b645593d-f67c-4f1b-b9f9-f8e1b08f24ee","system_id":"levelo_inurba_marseille","lat":43.25097,"lon":5.41331,"is_reserved":false,"is_disabled":false,"rental_uris":{"android":"levelo://app?vid=b645593d-f67c-4f1b-b9f9-f8e1b08f24ee","ios":"levelo://app?vid=b645593d-f67c-4f1b-b9f9-f8e1b08f24ee"},"vehicle_type_id":"4","last_reported":1778963944,"current_range_meters":6000,"station_id":"","pricing_plan_id":"cebpf4jnsgd1na2vs0mg"},{"bike_id":"594cb93a-5d1d-4e33-94d4-76143e0bd10b","system_id":"levelo_inurba_marseille","lat":43.21189,"lon":5.35073,"is_reserved":false,"is_disabled":false,"rental_uris":{"android":"levelo://app?vid=594cb93a-5d1d-4e33-94d4-76143e0bd10b","ios":"levelo://app?vid=594cb93a-5d1d-4e33-94d4-76143e0bd10b"},"vehicle_type_id":"4","last_reported":1778963944,"current_range_meters":6000,"station_id":"st_cvj6sg6p6f1abm77japg","pricing_plan_id":"cebpf4jnsgd1na2vs0mg"},{"bike_id":"dc437964-578c-4f7a-be1e-9a5b7abec9f5","system_id":"levelo_inurba_marseille","lat":43.24531,"lon":5.37603,"is_reserved":false,"is_disabled":false,"rental_uris":{"android":"levelo://app?vid=dc437964-578c-4f7a-be1e-9a5b7abec9f5","ios":"levelo://app?vid=dc437964-578c-4f7a-be1e-9a5b7abec9f5"},"vehicle_type_id":"4","last_reported":1778963944,"current_range_meters":6000,"station_id":"","pricing_plan_id":"cebpf4jnsgd1na2vs0mg"},{"bike_id":"ea8363c0-687f-4612-a454-c35d1b24d387","system_id":"levelo_inurba_marseille","lat":43.304596,"lon":5.379029,"is_reserved":false,"is_disabled":false,"rental_uris":{"android":"levelo://app?vid=ea8363c0-687f-4612-a454-c35d1b24d387","ios":"levelo://app?vid=ea8363c0-687f-4612-a454-c35d1b24d387"},"vehicle_type_id":"4","last_reported":1778963944,"current_range_meters":6000,"station_id":"ce4bgup2rcd13ifvqcn0","pricing_plan_id":"cebpf4jnsgd1na2vs0mg"},{"bike_id":"489a1706-c3ea-4b0e-8e98-c2ee70717ba8","system_id":"levelo_inurba_marseille","lat":43.22555,"lon":5.41635,"is_reserved":false,"is_disabled":false,"rental_uris":{"android":"levelo://app?vid=489a1706-c3ea-4b0e-8e98-c2ee70717ba8","ios":"levelo://app?vid=489a1706-c3ea-4b0e-8e98-c2ee70717ba8"},"vehicle_type_id":"4","last_reported":1778963944,"current_range_meters":6000,"station_id":"st_d2o4gvlbi1j2169b742g","pricing_plan_id":"cebpf4jnsgd1na2vs0mg"},{"bike_id":"180e22d4-cd85-42b1-adaf-5273a2db355c","system_id":"levelo_inurba_marseille","lat":43.293144,"lon":5.371656,"is_reserved":false,"is_disabled":false,"rental_uris":{"android":"levelo://app?vid=180e22d4-cd85-42b1-adaf-5273a2db355c","ios":"levelo://app?vid=180e22d4-cd85-42b1-adaf-5273a2db355c"},"vehicle_type_id":"4","last_reported":1778963944,"current_range_meters":6000,"station_id":"ce4bgh92rcd13ifvqb40","pricing_plan_id":"cebpf4jnsgd1na2vs0mg"},{"bike_id":"e6c047b4-71f7-452e-a1e6-79760ef39919","system_id":"levelo_inurba_marseille","lat":43.2378,"lon":5.36639,"is_reserved":false,"is_disabled":false,"rental_uris":{"android":"levelo://app?vid=e6c047b4-71f7-452e-a1e6-79760ef39919","ios":"levelo://app?vid=e6c047b4-71f7-452e-a1e6-79760ef39919"},"vehicle_type_id":"4","last_reported":1778963944,"current_range_meters":6000,"station_id":"st_d3nk18o9ro0c73en2l3g","pricing_plan_id":"cebpf4jnsgd1na2vs0mg"},{"bike_id":"e9a4ebb9-be7e-4678-81af-9605f0f16c8a","system_id":"levelo_inurba_marseille","lat":43.28899,"lon":5.39295,"is_reserved":false,"is_disabled":true,"rental_uris":{"android":"levelo://app?vid=e9a4ebb9-be7e-4678-81af-9605f0f16c8a","ios":"levelo://app?vid=e9a4ebb9-be7e-4678-81af-9605f0f16c8a"},"vehicle_type_id":"4","last_reported":1778963944,"current_range_meters":6000,"station_id":"","pricing_plan_id":"cebpf4jnsgd1na2vs0mg"},{"bike_id":"7fd7c1bb-0ed2-4eb7-959c-daab2eec52f3","system_id":"levelo_inurba_marseille","lat":43.24554,"lon":5.39519,"is_reserved":false,"is_disabled":false,"rental_uris":{"android":"levelo://app?vid=7fd7c1bb-0ed2-4eb7-959c-daab2eec52f3","ios":"levelo://app?vid=7fd7c1bb-0ed2-4eb7-959c-daab2eec52f3"},"vehicle_type_id":"4","last_reported":1778963944,"current_range_meters":6400,"station_id":"ce4bhlp2rcd13ifvqgjg","pricing_plan_id":"cebpf4jnsgd1na2vs0mg"},{"bike_id":"b3d3f46d-8b61-4048-a49d-46db42a99359","system_id":"levelo_inurba_marseille","lat":43.24813,"lon":5.37464,"is_reserved":false,"is_disabled":false,"rental_uris":{"android":"levelo://app?vid=b3d3f46d-8b61-4048-a49d-46db42a99359","ios":"levelo://app?vid=b3d3f46d-8b61-4048-a49d-46db42a99359"},"vehicle_type_id":"4","last_reported":1778963944,"current_range_meters":6400,"station_id":"ce4bhgh2rcd13ifvqfb0","pricing_plan_id":"cebpf4jnsgd1na2vs0mg"},{"bike_id":"3fc3c44e-8e86-4a32-a94c-dffc19e84835","system_id":"levelo_inurba_marseille","lat":43.3056,"lon":5.36468,"is_reserved":false,"is_disabled":false,"rental_uris":{"android":"levelo://app?vid=3fc3c44e-8e86-4a32-a94c-dffc19e84835","ios":"levelo://app?vid=3fc3c44e-8e86-4a32-a94c-dffc19e84835"},"vehicle_type_id":"4","last_reported":1778963944,"current_range_meters":6400,"station_id":"","pricing_plan_id":"cebpf4jnsgd1na2vs0mg"},{"bike_id":"73b1154b-5b41-475e-9e09-73a9a766d8c0","system_id":"levelo_inurba_marseille","lat":43.29884,"lon":5.38906,"is_reserved":false,"is_disabled":false,"rental_uris":{"android":"levelo://app?vid=73b1154b-5b41-475e-9e09-73a9a766d8c0","ios":"levelo://app?vid=73b1154b-5b41-475e-9e09-73a9a766d8c0"},"vehicle_type_id":"4","last_reported":1778963944,"current_range_meters":6400,"station_id":"ce4bh392rcd13ifvqdl0","pricing_plan_id":"cebpf4jnsgd1na2vs0mg"},{"bike_id":"323d3ace-559a-4f41-a6cd-7437e0501e13","system_id":"levelo_inurba_marseille","lat":43.29715,"lon":5.36593,"is_reserved":false,"is_disabled":false,"rental_uris":{"android":"levelo://app?vid=323d3ace-559a-4f41-a6cd-7437e0501e13","ios":"levelo://app?vid=323d3ace-559a-4f41-a6cd-7437e0501e13"},"vehicle_type_id":"4","last_reported":1778963944,"current_range_meters":6400,"station_id":"ce4bgn12rcd13ifvqbt0","pricing_plan_id":"cebpf4jnsgd1na2vs0mg"},{"bike_id":"39256c86-1cea-4c4b-bd5b-3e3f3e73c9ac","system_id":"levelo_inurba_marseille","lat":43.30551,"lon":5.36542,"is_reserved":false,"is_disabled":false,"rental_uris":{"android":"levelo://app?vid=39256c86-1cea-4c4b-bd5b-3e3f3e73c9ac","ios":"levelo://app?vid=39256c86-1cea-4c4b-bd5b-3e3f3e73c9ac"},"vehicle_type_id":"4","last_reported":1778963944,"current_range_meters":6400,"station_id":"ce4bgs12rcd13ifvqcag","pricing_plan_id":"cebpf4jnsgd1na2vs0mg"},{"bike_id":"810ef53a-5aff-49f3-99db-34213da1b1cf","system_id":"levelo_inurba_marseille","lat":43.28688,"lon":5.46677,"is_reserved":false,"is_disabled":false,"rental_uris":{"android":"levelo://app?vid=810ef53a-5aff-49f3-99db-34213da1b1cf","ios":"levelo://app?vid=810ef53a-5aff-49f3-99db-34213da1b1cf"},"vehicle_type_id":"4","last_reported":1778963944,"current_range_meters":6400,"station_id":"st_d6tc3vkotcvc738tfjhg","pricing_plan_id":"cebpf4jnsgd1na2vs0mg"},{"bike_id":"b5700011-a486-4e56-b8fb-207aaf85d4db","system_id":"levelo_inurba_marseille","lat":43.31898,"lon":5.36814,"is_reserved":false,"is_disabled":false,"rental_uris":{"android":"levelo://app?vid=b5700011-a486-4e56-b8fb-207aaf85d4db","ios":"levelo://app?vid=b5700011-a486-4e56-b8fb-207aaf85d4db"},"vehicle_type_id":"4","last_reported":1778963944,"current_range_meters":6400,"station_id":"st_d6o2h0d0559c73evc1b0","pricing_plan_id":"cebpf4jnsgd1na2vs0mg"},{"bike_id":"d1f3b13b-a61c-41fc-b986-79acc9b16fe8","system_id":"levelo_inurba_marseille","lat":43.28529,"lon":5.44098,"is_reserved":false,"is_disabled":false,"rental_uris":{"android":"levelo://app?vid=d1f3b13b-a61c-41fc-b986-79acc9b16fe8","ios":"levelo://app?vid=d1f3b13b-a61c-41fc-b986-79acc9b16fe8"},"vehicle_type_id":"4","last_reported":1778963944,"current_range_meters":6400,"station_id":"st_d3j3df2ikq2c7380ej80","pricing_plan_id":"cebpf4jnsgd1na2vs0mg"},{"bike_id":"00480880-79e5-4a67-b696-233f0844d881","system_id":"levelo_inurba_marseille","lat":43.29987,"lon":5.37142,"is_reserved":false,"is_disabled":true,"rental_uris":{"android":"levelo://app?vid=00480880-79e5-4a67-b696-233f0844d881","ios":"levelo://app?vid=00480880-79e5-4a67-b696-233f0844d881"},"vehicle_type_id":"4","last_reported":1778963944,"current_range_meters":6400,"station_id":"ce4bgr92rcd13ifvqc7g","pricing_plan_id":"cebpf4jnsgd1na2vs0mg"},{"bike_id":"f44e1e35-93ab-48d3-a892-5530dae404d2","system_id":"levelo_inurba_marseille","lat":43.29247,"lon":5.36039,"is_reserved":false,"is_disabled":false,"rental_uris":{"android":"levelo://app?vid=f44e1e35-93ab-48d3-a892-5530dae404d2","ios":"levelo://app?vid=f44e1e35-93ab-48d3-a892-5530dae404d2"},"vehicle_type_id":"4","last_reported":1778963944,"current_range_meters":6400,"station_id":"ce4bhbh2rcd13ifvqeqg","pricing_plan_id":"cebpf4jnsgd1na2vs0mg"},{"bike_id":"10537d83-7308-4519-8bf3-ad7abb836cf5","system_id":"levelo_inurba_marseille","lat":43.29233,"lon":5.36082,"is_reserved":false,"is_disabled":false,"rental_uris":{"android":"levelo://app?vid=10537d83-7308-4519-8bf3-ad7abb836cf5","ios":"levelo://app?vid=10537d83-7308-4519-8bf3-ad7abb836cf5"},"vehicle_type_id":"4","last_reported":1778963944,"current_range_meters":6800,"station_id":"ce4bhbh2rcd13ifvqeqg","pricing_plan_id":"cebpf4jnsgd1na2vs0mg"},{"bike_id":"2a3ac7f8-64fc-4afa-850e-4502c0fce337","system_id":"levelo_inurba_marseille","lat":43.2262,"lon":5.41698,"is_reserved":false,"is_disabled":false,"rental_uris":{"android":"levelo://app?vid=2a3ac7f8-64fc-4afa-850e-4502c0fce337","ios":"levelo://app?vid=2a3ac7f8-64fc-4afa-850e-4502c0fce337"},"vehicle_type_id":"4","last_reported":1778963944,"current_range_meters":6800,"station_id":"","pricing_plan_id":"cebpf4jnsgd1na2vs0mg"},{"bike_id":"c97098f9-de55-47b8-a5ef-0f680071b61c","system_id":"levelo_inurba_marseille","lat":43.29797,"lon":5.38086,"is_reserved":false,"is_disabled":false,"rental_uris":{"android":"levelo://app?vid=c97098f9-de55-47b8-a5ef-0f680071b61c","ios":"levelo://app?vid=c97098f9-de55-47b8-a5ef-0f680071b61c"},"vehicle_type_id":"4","last_reported":1778963944,"current_range_meters":6800,"station_id":"ce4bgip2rcd13ifvqbb0","pricing_plan_id":"cebpf4jnsgd1na2vs0mg"},{"bike_id":"3e7c9db3-7780-4c32-83eb-5d17b151f1e1","system_id":"levelo_inurba_marseille","lat":43.24961,"lon":5.40491,"is_reserved":false,"is_disabled":false,"rental_uris":{"android":"levelo://app?vid=3e7c9db3-7780-4c32-83eb-5d17b151f1e1","ios":"levelo://app?vid=3e7c9db3-7780-4c32-83eb-5d17b151f1e1"},"vehicle_type_id":"4","last_reported":1778963944,"current_range_meters":6800,"station_id":"st_d2ngiaodas8pm72gd1h0","pricing_plan_id":"cebpf4jnsgd1na2vs0mg"},{"bike_id":"616353f1-4754-4f57-9465-e46d49d24354","system_id":"levelo_inurba_marseille","lat":43.33637,"lon":5.363,"is_reserved":false,"is_disabled":false,"rental_uris":{"android":"levelo://app?vid=616353f1-4754-4f57-9465-e46d49d24354","ios":"levelo://app?vid=616353f1-4754-4f57-9465-e46d49d24354"},"vehicle_type_id":"4","last_reported":1778963944,"current_range_meters":6800,"station_id":"","pricing_plan_id":"cebpf4jnsgd1na2vs0mg"},{"bike_id":"4b22f082-7087-497e-a55a-c049ceb5380b","system_id":"levelo_inurba_marseille","lat":43.29304,"lon":5.37147,"is_reserved":false,"is_disabled":false,"rental_uris":{"android":"levelo://app?vid=4b22f082-7087-497e-a55a-c049ceb5380b","ios":"levelo://app?vid=4b22f082-7087-497e-a55a-c049ceb5380b"},"vehicle_type_id":"4","last_reported":1778963944,"current_range_meters":6800,"station_id":"ce4bgh92rcd13ifvqb40","pricing_plan_id":"cebpf4jnsgd1na2vs0mg"},{"bike_id":"1124e8ed-181a-445d-9220-36e963831e6c","system_id":"levelo_inurba_marseille","lat":43.23981,"lon":5.37408,"is_reserved":false,"is_disabled":true,"rental_uris":{"android":"levelo://app?vid=1124e8ed-181a-445d-9220-36e963831e6c","ios":"levelo://app?vid=1124e8ed-181a-445d-9220-36e963831e6c"},"vehicle_type_id":"4","last_reported":1778963944,"current_range_meters":6800,"station_id":"","pricing_plan_id":"cebpf4jnsgd1na2vs0mg"},{"bike_id":"4ee69d41-30d6-469e-829a-74d2ce79aff4","system_id":"levelo_inurba_marseille","lat":43.33547,"lon":5.37456,"is_reserved":false,"is_disabled":false,"rental_uris":{"android":"levelo://app?vid=4ee69d41-30d6-469e-829a-74d2ce79aff4","ios":"levelo://app?vid=4ee69d41-30d6-469e-829a-74d2ce79aff4"},"vehicle_type_id":"4","last_reported":1778963944,"current_range_meters":6800,"station_id":"st_d46tts09ee8s73dlu43g","pricing_plan_id":"cebpf4jnsgd1na2vs0mg"},{"bike_id":"edd5c786-8d24-46bc-bdcd-f0f00a11c1c1","system_id":"levelo_inurba_marseille","lat":43.25514,"lon":5.37659,"is_reserved":false,"is_disabled":true,"rental_uris":{"android":"levelo://app?vid=edd5c786-8d24-46bc-bdcd-f0f00a11c1c1","ios":"levelo://app?vid=edd5c786-8d24-46bc-bdcd-f0f00a11c1c1"},"vehicle_type_id":"4","last_reported":1778963944,"current_range_meters":6800,"station_id":"ce4bhh12rcd13ifvqff0","pricing_plan_id":"cebpf4jnsgd1na2vs0mg"},{"bike_id":"70f53e54-3a0f-4669-bd99-1aa70e519fc7","system_id":"levelo_inurba_marseille","lat":43.30414,"lon":5.4129,"is_reserved":false,"is_disabled":false,"rental_uris":{"android":"levelo://app?vid=70f53e54-3a0f-4669-bd99-1aa70e519fc7","ios":"levelo://app?vid=70f53e54-3a0f-4669-bd99-1aa70e519fc7"},"vehicle_type_id":"4","last_reported":1778963944,"current_range_meters":6800,"station_id":"ce4bhop2rcd13ifvqh8g","pricing_plan_id":"cebpf4jnsgd1na2vs0mg"},{"bike_id":"2802f6ea-8116-48ea-8873-c35fdf359147","system_id":"levelo_inurba_marseille","lat":43.2909,"lon":5.3817,"is_reserved":false,"is_disabled":false,"rental_uris":{"android":"levelo://app?vid=2802f6ea-8116-48ea-8873-c35fdf359147","ios":"levelo://app?vid=2802f6ea-8116-48ea-8873-c35fdf359147"},"vehicle_type_id":"4","last_reported":1778963944,"current_range_meters":6800,"station_id":"ce4bh512rcd13ifvqe2g","pricing_plan_id":"cebpf4jnsgd1na2vs0mg"},{"bike_id":"476ec896-6aed-448d-84e8-cbea548b3e3b","system_id":"levelo_inurba_marseille","lat":43.2447,"lon":5.42531,"is_reserved":false,"is_disabled":false,"rental_uris":{"android":"levelo://app?vid=476ec896-6aed-448d-84e8-cbea548b3e3b","ios":"levelo://app?vid=476ec896-6aed-448d-84e8-cbea548b3e3b"},"vehicle_type_id":"4","last_reported":1778963944,"current_range_meters":6800,"station_id":"st_d4a3vfp97mjs738cd8kg","pricing_plan_id":"cebpf4jnsgd1na2vs0mg"},{"bike_id":"ee15264c-c5fd-4c69-a06f-329fd6fb9d0d","system_id":"levelo_inurba_marseille","lat":43.30129,"lon":5.43118,"is_reserved":false,"is_disabled":false,"rental_uris":{"android":"levelo://app?vid=ee15264c-c5fd-4c69-a06f-329fd6fb9d0d","ios":"levelo://app?vid=ee15264c-c5fd-4c69-a06f-329fd6fb9d0d"},"vehicle_type_id":"4","last_reported":1778963944,"current_range_meters":6800,"station_id":"st_d3js3co5814s73ftftug","pricing_plan_id":"cebpf4jnsgd1na2vs0mg"},{"bike_id":"a76d90e2-a8bd-43ba-8060-5c61d1e728c5","system_id":"levelo_inurba_marseille","lat":43.29606,"lon":5.38105,"is_reserved":false,"is_disabled":false,"rental_uris":{"android":"levelo://app?vid=a76d90e2-a8bd-43ba-8060-5c61d1e728c5","ios":"levelo://app?vid=a76d90e2-a8bd-43ba-8060-5c61d1e728c5"},"vehicle_type_id":"4","last_reported":1778963944,"current_range_meters":6800,"station_id":"ce4bgl12rcd13ifvqbo0","pricing_plan_id":"cebpf4jnsgd1na2vs0mg"},{"bike_id":"cdd76887-f930-414c-a78e-c9338f030f2b","system_id":"levelo_inurba_marseille","lat":43.29618,"lon":5.3774,"is_reserved":false,"is_disabled":false,"rental_uris":{"android":"levelo://app?vid=cdd76887-f930-414c-a78e-c9338f030f2b","ios":"levelo://app?vid=cdd76887-f930-414c-a78e-c9338f030f2b"},"vehicle_type_id":"4","last_reported":1778963944,"current_range_meters":6800,"station_id":"ce4bgi92rcd13ifvqb90","pricing_plan_id":"cebpf4jnsgd1na2vs0mg"},{"bike_id":"e65faf11-6d17-4d08-bcad-1b04014b6f8b","system_id":"levelo_inurba_marseille","lat":43.23191,"lon":5.39984,"is_reserved":false,"is_disabled":false,"rental_uris":{"android":"levelo://app?vid=e65faf11-6d17-4d08-bcad-1b04014b6f8b","ios":"levelo://app?vid=e65faf11-6d17-4d08-bcad-1b04014b6f8b"},"vehicle_type_id":"4","last_reported":1778963944,"current_range_meters":6800,"station_id":"ce4bhn12rcd13ifvqgqg","pricing_plan_id":"cebpf4jnsgd1na2vs0mg"},{"bike_id":"38868448-3b9b-4e9e-823c-1ebfeff75cbb","system_id":"levelo_inurba_marseille","lat":43.29966,"lon":5.38498,"is_reserved":false,"is_disabled":false,"rental_uris":{"android":"levelo://app?vid=38868448-3b9b-4e9e-823c-1ebfeff75cbb","ios":"levelo://app?vid=38868448-3b9b-4e9e-823c-1ebfeff75cbb"},"vehicle_type_id":"4","last_reported":1778963944,"current_range_meters":6800,"station_id":"ce4bgj92rcd13ifvqbd0","pricing_plan_id":"cebpf4jnsgd1na2vs0mg"},{"bike_id":"b467cf52-e84d-42b9-ad71-bed97235ec79","system_id":"levelo_inurba_marseille","lat":43.29737,"lon":5.37681,"is_reserved":false,"is_disabled":false,"rental_uris":{"android":"levelo://app?vid=b467cf52-e84d-42b9-ad71-bed97235ec79","ios":"levelo://app?vid=b467cf52-e84d-42b9-ad71-bed97235ec79"},"vehicle_type_id":"4","last_reported":1778963944,"current_range_meters":7200,"station_id":"ce4bgkh2rcd13ifvqbl0","pricing_plan_id":"cebpf4jnsgd1na2vs0mg"},{"bike_id":"c091a819-21d8-46ac-8161-23f60b78cf02","system_id":"levelo_inurba_marseille","lat":43.27614,"lon":5.36117,"is_reserved":false,"is_disabled":true,"rental_uris":{"android":"levelo://app?vid=c091a819-21d8-46ac-8161-23f60b78cf02","ios":"levelo://app?vid=c091a819-21d8-46ac-8161-23f60b78cf02"},"vehicle_type_id":"4","last_reported":1778963944,"current_range_meters":7200,"station_id":"ce4bgj92rcd13ifvqbe0","pricing_plan_id":"cebpf4jnsgd1na2vs0mg"},{"bike_id":"df3b4c65-b594-43d2-9619-bf34b1560986","system_id":"levelo_inurba_marseille","lat":43.33539,"lon":5.37446,"is_reserved":false,"is_disabled":false,"rental_uris":{"android":"levelo://app?vid=df3b4c65-b594-43d2-9619-bf34b1560986","ios":"levelo://app?vid=df3b4c65-b594-43d2-9619-bf34b1560986"},"vehicle_type_id":"4","last_reported":1778963944,"current_range_meters":7200,"station_id":"st_d46tts09ee8s73dlu43g","pricing_plan_id":"cebpf4jnsgd1na2vs0mg"},{"bike_id":"614528d5-0976-4229-bef8-a4abb36ca88d","system_id":"levelo_inurba_marseille","lat":43.29225,"lon":5.36074,"is_reserved":false,"is_disabled":false,"rental_uris":{"android":"levelo://app?vid=614528d5-0976-4229-bef8-a4abb36ca88d","ios":"levelo://app?vid=614528d5-0976-4229-bef8-a4abb36ca88d"},"vehicle_type_id":"4","last_reported":1778963944,"current_range_meters":7200,"station_id":"ce4bhbh2rcd13ifvqeqg","pricing_plan_id":"cebpf4jnsgd1na2vs0mg"},{"bike_id":"1dd7d753-327a-4a0e-96a8-c35b8f67f696","system_id":"levelo_inurba_marseille","lat":43.23958,"lon":5.36648,"is_reserved":false,"is_disabled":false,"rental_uris":{"android":"levelo://app?vid=1dd7d753-327a-4a0e-96a8-c35b8f67f696","ios":"levelo://app?vid=1dd7d753-327a-4a0e-96a8-c35b8f67f696"},"vehicle_type_id":"4","last_reported":1778963944,"current_range_meters":7200,"station_id":"ce4bhi12rcd13ifvqfp0","pricing_plan_id":"cebpf4jnsgd1na2vs0mg"},{"bike_id":"0d193018-0254-4f96-b88b-a21a7585d4b9","system_id":"levelo_inurba_marseille","lat":43.29017,"lon":5.38617,"is_reserved":false,"is_disabled":false,"rental_uris":{"android":"levelo://app?vid=0d193018-0254-4f96-b88b-a21a7585d4b9","ios":"levelo://app?vid=0d193018-0254-4f96-b88b-a21a7585d4b9"},"vehicle_type_id":"4","last_reported":1778963944,"current_range_meters":7200,"station_id":"ce4bh4p2rcd13ifvqe0g","pricing_plan_id":"cebpf4jnsgd1na2vs0mg"},{"bike_id":"a2b7b7ae-d9b6-41c6-a802-b6f0262d8cd0","system_id":"levelo_inurba_marseille","lat":43.2846,"lon":5.35888,"is_reserved":false,"is_disabled":false,"rental_uris":{"android":"levelo://app?vid=a2b7b7ae-d9b6-41c6-a802-b6f0262d8cd0","ios":"levelo://app?vid=a2b7b7ae-d9b6-41c6-a802-b6f0262d8cd0"},"vehicle_type_id":"4","last_reported":1778963944,"current_range_meters":7200,"station_id":"ce4bhah2rcd13ifvqei0","pricing_plan_id":"cebpf4jnsgd1na2vs0mg"},{"bike_id":"9af6fe0c-8929-4ad0-aec8-aa13b9c3d6ee","system_id":"levelo_inurba_marseille","lat":43.28956,"lon":5.36606,"is_reserved":false,"is_disabled":false,"rental_uris":{"android":"levelo://app?vid=9af6fe0c-8929-4ad0-aec8-aa13b9c3d6ee","ios":"levelo://app?vid=9af6fe0c-8929-4ad0-aec8-aa13b9c3d6ee"},"vehicle_type_id":"4","last_reported":1778963944,"current_range_meters":7200,"station_id":"","pricing_plan_id":"cebpf4jnsgd1na2vs0mg"},{"bike_id":"378770a7-1a4e-4a1d-b694-214d3bfb3be7","system_id":"levelo_inurba_marseille","lat":43.28448,"lon":5.37537,"is_reserved":false,"is_disabled":false,"rental_uris":{"android":"levelo://app?vid=378770a7-1a4e-4a1d-b694-214d3bfb3be7","ios":"levelo://app?vid=378770a7-1a4e-4a1d-b694-214d3bfb3be7"},"vehicle_type_id":"4","last_reported":1778963944,"current_range_meters":7200,"station_id":"","pricing_plan_id":"cebpf4jnsgd1na2vs0mg"},{"bike_id":"ef20a65f-19f4-4491-8360-61efaea0f2fe","system_id":"levelo_inurba_marseille","lat":43.27702,"lon":5.414,"is_reserved":false,"is_disabled":false,"rental_uris":{"android":"levelo://app?vid=ef20a65f-19f4-4491-8360-61efaea0f2fe","ios":"levelo://app?vid=ef20a65f-19f4-4491-8360-61efaea0f2fe"},"vehicle_type_id":"4","last_reported":1778963944,"current_range_meters":7200,"station_id":"","pricing_plan_id":"cebpf4jnsgd1na2vs0mg"},{"bike_id":"654c1863-cd9c-43ef-bfd4-ea2dd2f77909","system_id":"levelo_inurba_marseille","lat":43.29042,"lon":5.35911,"is_reserved":false,"is_disabled":false,"rental_uris":{"android":"levelo://app?vid=654c1863-cd9c-43ef-bfd4-ea2dd2f77909","ios":"levelo://app?vid=654c1863-cd9c-43ef-bfd4-ea2dd2f77909"},"vehicle_type_id":"4","last_reported":1778963944,"current_range_meters":7200,"station_id":"ce4bha92rcd13ifvqeg0","pricing_plan_id":"cebpf4jnsgd1na2vs0mg"},{"bike_id":"838dedee-4cbd-4997-9d32-b652b1084416","system_id":"levelo_inurba_marseille","lat":43.28623,"lon":5.35098,"is_reserved":false,"is_disabled":false,"rental_uris":{"android":"levelo://app?vid=838dedee-4cbd-4997-9d32-b652b1084416","ios":"levelo://app?vid=838dedee-4cbd-4997-9d32-b652b1084416"},"vehicle_type_id":"4","last_reported":1778963944,"current_range_meters":7200,"station_id":"ce4bhch2rcd13ifvqeug","pricing_plan_id":"cebpf4jnsgd1na2vs0mg"},{"bike_id":"c83b10ba-3d1b-4a9d-91eb-88d3d34af951","system_id":"levelo_inurba_marseille","lat":43.23782,"lon":5.36616,"is_reserved":false,"is_disabled":false,"rental_uris":{"android":"levelo://app?vid=c83b10ba-3d1b-4a9d-91eb-88d3d34af951","ios":"levelo://app?vid=c83b10ba-3d1b-4a9d-91eb-88d3d34af951"},"vehicle_type_id":"4","last_reported":1778963944,"current_range_meters":7200,"station_id":"st_d3nk18o9ro0c73en2l3g","pricing_plan_id":"cebpf4jnsgd1na2vs0mg"},{"bike_id":"0877590b-eec3-4e01-b75f-785c05398b9f","system_id":"levelo_inurba_marseille","lat":43.29617,"lon":5.37731,"is_reserved":false,"is_disabled":false,"rental_uris":{"android":"levelo://app?vid=0877590b-eec3-4e01-b75f-785c05398b9f","ios":"levelo://app?vid=0877590b-eec3-4e01-b75f-785c05398b9f"},"vehicle_type_id":"4","last_reported":1778963944,"current_range_meters":7200,"station_id":"ce4bgi92rcd13ifvqb90","pricing_plan_id":"cebpf4jnsgd1na2vs0mg"},{"bike_id":"d3433423-a3cd-451e-bde2-27a5d2dcb262","system_id":"levelo_inurba_marseille","lat":43.29957,"lon":5.38498,"is_reserved":false,"is_disabled":false,"rental_uris":{"android":"levelo://app?vid=d3433423-a3cd-451e-bde2-27a5d2dcb262","ios":"levelo://app?vid=d3433423-a3cd-451e-bde2-27a5d2dcb262"},"vehicle_type_id":"4","last_reported":1778963944,"current_range_meters":7200,"station_id":"ce4bgj92rcd13ifvqbd0","pricing_plan_id":"cebpf4jnsgd1na2vs0mg"},{"bike_id":"4a139587-4dd8-47fc-9a14-cc9e233d8ec9","system_id":"levelo_inurba_marseille","lat":43.32342,"lon":5.38306,"is_reserved":false,"is_disabled":false,"rental_uris":{"android":"levelo://app?vid=4a139587-4dd8-47fc-9a14-cc9e233d8ec9","ios":"levelo://app?vid=4a139587-4dd8-47fc-9a14-cc9e233d8ec9"},"vehicle_type_id":"4","last_reported":1778963944,"current_range_meters":7200,"station_id":"","pricing_plan_id":"cebpf4jnsgd1na2vs0mg"},{"bike_id":"cf49e217-dd6a-44e6-988a-25281bc6d03c","system_id":"levelo_inurba_marseille","lat":43.29278,"lon":5.38426,"is_reserved":false,"is_disabled":false,"rental_uris":{"android":"levelo://app?vid=cf49e217-dd6a-44e6-988a-25281bc6d03c","ios":"levelo://app?vid=cf49e217-dd6a-44e6-988a-25281bc6d03c"},"vehicle_type_id":"4","last_reported":1778963944,"current_range_meters":7200,"station_id":"ce4bh692rcd13ifvqea0","pricing_plan_id":"cebpf4jnsgd1na2vs0mg"},{"bike_id":"1be47044-a515-4b7f-9fb0-44745bcacda2","system_id":"levelo_inurba_marseille","lat":43.2256,"lon":5.41637,"is_reserved":false,"is_disabled":false,"rental_uris":{"android":"levelo://app?vid=1be47044-a515-4b7f-9fb0-44745bcacda2","ios":"levelo://app?vid=1be47044-a515-4b7f-9fb0-44745bcacda2"},"vehicle_type_id":"4","last_reported":1778963944,"current_range_meters":7200,"station_id":"st_d2o4gvlbi1j2169b742g","pricing_plan_id":"cebpf4jnsgd1na2vs0mg"},{"bike_id":"183ecbf2-1487-4e31-a0b0-97fce68bdb3c","system_id":"levelo_inurba_marseille","lat":43.31372,"lon":5.38502,"is_reserved":false,"is_disabled":false,"rental_uris":{"android":"levelo://app?vid=183ecbf2-1487-4e31-a0b0-97fce68bdb3c","ios":"levelo://app?vid=183ecbf2-1487-4e31-a0b0-97fce68bdb3c"},"vehicle_type_id":"4","last_reported":1778963944,"current_range_meters":7200,"station_id":"ce4bgt92rcd13ifvqcf0","pricing_plan_id":"cebpf4jnsgd1na2vs0mg"},{"bike_id":"97a62986-9365-4ea0-b0c6-9da7bdc97eda","system_id":"levelo_inurba_marseille","lat":43.24166,"lon":5.36391,"is_reserved":false,"is_disabled":false,"rental_uris":{"android":"levelo://app?vid=97a62986-9365-4ea0-b0c6-9da7bdc97eda","ios":"levelo://app?vid=97a62986-9365-4ea0-b0c6-9da7bdc97eda"},"vehicle_type_id":"4","last_reported":1778963944,"current_range_meters":7200,"station_id":"cpo36qri1sfpv3e86is0","pricing_plan_id":"cebpf4jnsgd1na2vs0mg"},{"bike_id":"0947af6c-8824-468d-a879-edc374c8222c","system_id":"levelo_inurba_marseille","lat":43.23181,"lon":5.39988,"is_reserved":false,"is_disabled":false,"rental_uris":{"android":"levelo://app?vid=0947af6c-8824-468d-a879-edc374c8222c","ios":"levelo://app?vid=0947af6c-8824-468d-a879-edc374c8222c"},"vehicle_type_id":"4","last_reported":1778963944,"current_range_meters":7200,"station_id":"ce4bhn12rcd13ifvqgqg","pricing_plan_id":"cebpf4jnsgd1na2vs0mg"},{"bike_id":"dace259d-e3eb-491e-95dc-863daa176674","system_id":"levelo_inurba_marseille","lat":43.24156,"lon":5.36403,"is_reserved":false,"is_disabled":false,"rental_uris":{"android":"levelo://app?vid=dace259d-e3eb-491e-95dc-863daa176674","ios":"levelo://app?vid=dace259d-e3eb-491e-95dc-863daa176674"},"vehicle_type_id":"4","last_reported":1778963944,"current_range_meters":7200,"station_id":"cpo36qri1sfpv3e86is0","pricing_plan_id":"cebpf4jnsgd1na2vs0mg"},{"bike_id":"72ffcce3-98f7-4d69-8e98-22fece3ee328","system_id":"levelo_inurba_marseille","lat":43.23193,"lon":5.35547,"is_reserved":false,"is_disabled":false,"rental_uris":{"android":"levelo://app?vid=72ffcce3-98f7-4d69-8e98-22fece3ee328","ios":"levelo://app?vid=72ffcce3-98f7-4d69-8e98-22fece3ee328"},"vehicle_type_id":"4","last_reported":1778963944,"current_range_meters":7200,"station_id":"ce4bhu92rcd13ifvqi70","pricing_plan_id":"cebpf4jnsgd1na2vs0mg"},{"bike_id":"ea5b7b41-9321-4ca4-b709-9a59091ae21a","system_id":"levelo_inurba_marseille","lat":43.29955,"lon":5.38456,"is_reserved":false,"is_disabled":false,"rental_uris":{"android":"levelo://app?vid=ea5b7b41-9321-4ca4-b709-9a59091ae21a","ios":"levelo://app?vid=ea5b7b41-9321-4ca4-b709-9a59091ae21a"},"vehicle_type_id":"4","last_reported":1778963944,"current_range_meters":7200,"station_id":"ce4bgj92rcd13ifvqbd0","pricing_plan_id":"cebpf4jnsgd1na2vs0mg"},{"bike_id":"a1ab8acd-1c84-48bf-8978-ba485dde4889","system_id":"levelo_inurba_marseille","lat":43.2623,"lon":5.37465,"is_reserved":false,"is_disabled":false,"rental_uris":{"android":"levelo://app?vid=a1ab8acd-1c84-48bf-8978-ba485dde4889","ios":"levelo://app?vid=a1ab8acd-1c84-48bf-8978-ba485dde4889"},"vehicle_type_id":"4","last_reported":1778963944,"current_range_meters":7200,"station_id":"","pricing_plan_id":"cebpf4jnsgd1na2vs0mg"},{"bike_id":"1d3f70d8-8082-44c0-98dc-217910b16ef6","system_id":"levelo_inurba_marseille","lat":43.34139,"lon":5.40901,"is_reserved":false,"is_disabled":false,"rental_uris":{"android":"levelo://app?vid=1d3f70d8-8082-44c0-98dc-217910b16ef6","ios":"levelo://app?vid=1d3f70d8-8082-44c0-98dc-217910b16ef6"},"vehicle_type_id":"4","last_reported":1778963944,"current_range_meters":7200,"station_id":"ce4bhqh2rcd13ifvqhlg","pricing_plan_id":"cebpf4jnsgd1na2vs0mg"},{"bike_id":"22c4c69d-488e-4448-acb3-5d74f167c677","system_id":"levelo_inurba_marseille","lat":43.27943,"lon":5.41048,"is_reserved":false,"is_disabled":false,"rental_uris":{"android":"levelo://app?vid=22c4c69d-488e-4448-acb3-5d74f167c677","ios":"levelo://app?vid=22c4c69d-488e-4448-acb3-5d74f167c677"},"vehicle_type_id":"4","last_reported":1778963944,"current_range_meters":7200,"station_id":"ce4bhnp2rcd13ifvqh0g","pricing_plan_id":"cebpf4jnsgd1na2vs0mg"},{"bike_id":"6680d98d-4dce-45e3-a8fa-befbff54819f","system_id":"levelo_inurba_marseille","lat":43.27334,"lon":5.39102,"is_reserved":false,"is_disabled":false,"rental_uris":{"android":"levelo://app?vid=6680d98d-4dce-45e3-a8fa-befbff54819f","ios":"levelo://app?vid=6680d98d-4dce-45e3-a8fa-befbff54819f"},"vehicle_type_id":"4","last_reported":1778963944,"current_range_meters":7200,"station_id":"ce4bhgp2rcd13ifvqfe0","pricing_plan_id":"cebpf4jnsgd1na2vs0mg"},{"bike_id":"d2e9e508-7d37-4da5-aa69-479dffead3b5","system_id":"levelo_inurba_marseille","lat":43.29542,"lon":5.38544,"is_reserved":false,"is_disabled":false,"rental_uris":{"android":"levelo://app?vid=d2e9e508-7d37-4da5-aa69-479dffead3b5","ios":"levelo://app?vid=d2e9e508-7d37-4da5-aa69-479dffead3b5"},"vehicle_type_id":"4","last_reported":1778963944,"current_range_meters":8000,"station_id":"ce4bgih2rcd13ifvqba0","pricing_plan_id":"cebpf4jnsgd1na2vs0mg"},{"bike_id":"f72a6608-4f67-4ffc-880b-cc842b26b4db","system_id":"levelo_inurba_marseille","lat":43.29016,"lon":5.35603,"is_reserved":false,"is_disabled":false,"rental_uris":{"android":"levelo://app?vid=f72a6608-4f67-4ffc-880b-cc842b26b4db","ios":"levelo://app?vid=f72a6608-4f67-4ffc-880b-cc842b26b4db"},"vehicle_type_id":"4","last_reported":1778963944,"current_range_meters":8000,"station_id":"ce4bhb92rcd13ifvqen0","pricing_plan_id":"cebpf4jnsgd1na2vs0mg"},{"bike_id":"a773650a-7c22-432a-a05a-af2b3f7af6fb","system_id":"levelo_inurba_marseille","lat":43.2956,"lon":5.37493,"is_reserved":false,"is_disabled":true,"rental_uris":{"android":"levelo://app?vid=a773650a-7c22-432a-a05a-af2b3f7af6fb","ios":"levelo://app?vid=a773650a-7c22-432a-a05a-af2b3f7af6fb"},"vehicle_type_id":"4","last_reported":1778963944,"current_range_meters":8000,"station_id":"ce4bgh92rcd13ifvqb50","pricing_plan_id":"cebpf4jnsgd1na2vs0mg"},{"bike_id":"ed8b9caf-da29-4c6c-b8b8-2bb3a2494930","system_id":"levelo_inurba_marseille","lat":43.22527,"lon":5.41586,"is_reserved":false,"is_disabled":false,"rental_uris":{"android":"levelo://app?vid=ed8b9caf-da29-4c6c-b8b8-2bb3a2494930","ios":"levelo://app?vid=ed8b9caf-da29-4c6c-b8b8-2bb3a2494930"},"vehicle_type_id":"4","last_reported":1778963944,"current_range_meters":8000,"station_id":"st_d2o4gvlbi1j2169b742g","pricing_plan_id":"cebpf4jnsgd1na2vs0mg"},{"bike_id":"31377f31-2715-44bc-b730-1af1ece20a20","system_id":"levelo_inurba_marseille","lat":43.25089,"lon":5.39495,"is_reserved":false,"is_disabled":false,"rental_uris":{"android":"levelo://app?vid=31377f31-2715-44bc-b730-1af1ece20a20","ios":"levelo://app?vid=31377f31-2715-44bc-b730-1af1ece20a20"},"vehicle_type_id":"4","last_reported":1778963944,"current_range_meters":8000,"station_id":"ce4bhm12rcd13ifvqgkg","pricing_plan_id":"cebpf4jnsgd1na2vs0mg"},{"bike_id":"59ebfeaf-288c-4113-86b3-96065d458976","system_id":"levelo_inurba_marseille","lat":43.33187,"lon":5.37667,"is_reserved":false,"is_disabled":false,"rental_uris":{"android":"levelo://app?vid=59ebfeaf-288c-4113-86b3-96065d458976","ios":"levelo://app?vid=59ebfeaf-288c-4113-86b3-96065d458976"},"vehicle_type_id":"4","last_reported":1778963944,"current_range_meters":8000,"station_id":"st_d46cu089ee8s73dldbu0","pricing_plan_id":"cebpf4jnsgd1na2vs0mg"},{"bike_id":"31810c35-18ad-4ea3-9c10-af8cc483949c","system_id":"levelo_inurba_marseille","lat":43.25585,"lon":5.38248,"is_reserved":false,"is_disabled":false,"rental_uris":{"android":"levelo://app?vid=31810c35-18ad-4ea3-9c10-af8cc483949c","ios":"levelo://app?vid=31810c35-18ad-4ea3-9c10-af8cc483949c"},"vehicle_type_id":"4","last_reported":1778963944,"current_range_meters":8000,"station_id":"ce4bhih2rcd13ifvqfs0","pricing_plan_id":"cebpf4jnsgd1na2vs0mg"},{"bike_id":"7c9517e3-38cb-4a87-948b-926583eebece","system_id":"levelo_inurba_marseille","lat":43.2121,"lon":5.35068,"is_reserved":false,"is_disabled":false,"rental_uris":{"android":"levelo://app?vid=7c9517e3-38cb-4a87-948b-926583eebece","ios":"levelo://app?vid=7c9517e3-38cb-4a87-948b-926583eebece"},"vehicle_type_id":"4","last_reported":1778963944,"current_range_meters":8000,"station_id":"st_cvj6sg6p6f1abm77japg","pricing_plan_id":"cebpf4jnsgd1na2vs0mg"},{"bike_id":"74e662af-45d3-428d-910d-8fcda874c8bd","system_id":"levelo_inurba_marseille","lat":43.23963,"lon":5.36626,"is_reserved":false,"is_disabled":false,"rental_uris":{"android":"levelo://app?vid=74e662af-45d3-428d-910d-8fcda874c8bd","ios":"levelo://app?vid=74e662af-45d3-428d-910d-8fcda874c8bd"},"vehicle_type_id":"4","last_reported":1778963944,"current_range_meters":8000,"station_id":"ce4bhi12rcd13ifvqfp0","pricing_plan_id":"cebpf4jnsgd1na2vs0mg"},{"bike_id":"046b7506-82fe-4d87-823a-3d7d55ff0981","system_id":"levelo_inurba_marseille","lat":43.28857,"lon":5.35853,"is_reserved":false,"is_disabled":false,"rental_uris":{"android":"levelo://app?vid=046b7506-82fe-4d87-823a-3d7d55ff0981","ios":"levelo://app?vid=046b7506-82fe-4d87-823a-3d7d55ff0981"},"vehicle_type_id":"4","last_reported":1778963944,"current_range_meters":8000,"station_id":"ce4bhb12rcd13ifvqem0","pricing_plan_id":"cebpf4jnsgd1na2vs0mg"},{"bike_id":"6c13a47f-e762-4886-bb77-554ff6bba405","system_id":"levelo_inurba_marseille","lat":43.29298,"lon":5.37446,"is_reserved":false,"is_disabled":false,"rental_uris":{"android":"levelo://app?vid=6c13a47f-e762-4886-bb77-554ff6bba405","ios":"levelo://app?vid=6c13a47f-e762-4886-bb77-554ff6bba405"},"vehicle_type_id":"4","last_reported":1778963944,"current_range_meters":8000,"station_id":"ce4bgi12rcd13ifvqb70","pricing_plan_id":"cebpf4jnsgd1na2vs0mg"},{"bike_id":"0d50daf1-0ebe-4070-a3f4-50a2aaf9e668","system_id":"levelo_inurba_marseille","lat":43.24554,"lon":5.39517,"is_reserved":false,"is_disabled":true,"rental_uris":{"android":"levelo://app?vid=0d50daf1-0ebe-4070-a3f4-50a2aaf9e668","ios":"levelo://app?vid=0d50daf1-0ebe-4070-a3f4-50a2aaf9e668"},"vehicle_type_id":"4","last_reported":1778963944,"current_range_meters":8000,"station_id":"ce4bhlp2rcd13ifvqgjg","pricing_plan_id":"cebpf4jnsgd1na2vs0mg"},{"bike_id":"0af2660d-f9bc-4886-9dfb-7b86e8215d14","system_id":"levelo_inurba_marseille","lat":43.29718,"lon":5.36615,"is_reserved":false,"is_disabled":false,"rental_uris":{"android":"levelo://app?vid=0af2660d-f9bc-4886-9dfb-7b86e8215d14","ios":"levelo://app?vid=0af2660d-f9bc-4886-9dfb-7b86e8215d14"},"vehicle_type_id":"4","last_reported":1778963944,"current_range_meters":8000,"station_id":"ce4bgn12rcd13ifvqbt0","pricing_plan_id":"cebpf4jnsgd1na2vs0mg"},{"bike_id":"a8222677-82b2-4472-800a-515258994e8a","system_id":"levelo_inurba_marseille","lat":43.23965,"lon":5.36619,"is_reserved":false,"is_disabled":false,"rental_uris":{"android":"levelo://app?vid=a8222677-82b2-4472-800a-515258994e8a","ios":"levelo://app?vid=a8222677-82b2-4472-800a-515258994e8a"},"vehicle_type_id":"4","last_reported":1778963944,"current_range_meters":8000,"station_id":"ce4bhi12rcd13ifvqfp0","pricing_plan_id":"cebpf4jnsgd1na2vs0mg"},{"bike_id":"ec5616aa-c25b-449c-baa0-009e30d8ea1e","system_id":"levelo_inurba_marseille","lat":43.28569,"lon":5.39497,"is_reserved":false,"is_disabled":false,"rental_uris":{"android":"levelo://app?vid=ec5616aa-c25b-449c-baa0-009e30d8ea1e","ios":"levelo://app?vid=ec5616aa-c25b-449c-baa0-009e30d8ea1e"},"vehicle_type_id":"4","last_reported":1778963944,"current_range_meters":8000,"station_id":"ce4bh292rcd13ifvqdg0","pricing_plan_id":"cebpf4jnsgd1na2vs0mg"},{"bike_id":"11e014b1-d017-4b7d-9614-bc278b8e7fcd","system_id":"levelo_inurba_marseille","lat":43.2756,"lon":5.384082,"is_reserved":false,"is_disabled":false,"rental_uris":{"android":"levelo://app?vid=11e014b1-d017-4b7d-9614-bc278b8e7fcd","ios":"levelo://app?vid=11e014b1-d017-4b7d-9614-bc278b8e7fcd"},"vehicle_type_id":"4","last_reported":1778963944,"current_range_meters":8000,"station_id":"ce4bhh92rcd13ifvqfi0","pricing_plan_id":"cebpf4jnsgd1na2vs0mg"},{"bike_id":"6149375f-f995-470d-a5d8-001d1c369bcb","system_id":"levelo_inurba_marseille","lat":43.29892,"lon":5.38139,"is_reserved":false,"is_disabled":false,"rental_uris":{"android":"levelo://app?vid=6149375f-f995-470d-a5d8-001d1c369bcb","ios":"levelo://app?vid=6149375f-f995-470d-a5d8-001d1c369bcb"},"vehicle_type_id":"4","last_reported":1778963944,"current_range_meters":8000,"station_id":"ce4bgj12rcd13ifvqbc0","pricing_plan_id":"cebpf4jnsgd1na2vs0mg"},{"bike_id":"1f255333-0dee-46a8-8f6a-ce22f3ff59bd","system_id":"levelo_inurba_marseille","lat":43.22532,"lon":5.34833,"is_reserved":false,"is_disabled":true,"rental_uris":{"android":"levelo://app?vid=1f255333-0dee-46a8-8f6a-ce22f3ff59bd","ios":"levelo://app?vid=1f255333-0dee-46a8-8f6a-ce22f3ff59bd"},"vehicle_type_id":"4","last_reported":1778963944,"current_range_meters":8000,"station_id":"st_cvj5dfep6f1abm77gieg","pricing_plan_id":"cebpf4jnsgd1na2vs0mg"},{"bike_id":"ed9adea4-8ed8-42a1-aec4-7f3472254a7b","system_id":"levelo_inurba_marseille","lat":43.29907,"lon":5.37486,"is_reserved":false,"is_disabled":false,"rental_uris":{"android":"levelo://app?vid=ed9adea4-8ed8-42a1-aec4-7f3472254a7b","ios":"levelo://app?vid=ed9adea4-8ed8-42a1-aec4-7f3472254a7b"},"vehicle_type_id":"4","last_reported":1778963944,"current_range_meters":8000,"station_id":"ce4bgjh2rcd13ifvqbg0","pricing_plan_id":"cebpf4jnsgd1na2vs0mg"},{"bike_id":"3ee01a3f-9bb3-4d07-acc6-bd03f8a764ca","system_id":"levelo_inurba_marseille","lat":43.29265,"lon":5.38434,"is_reserved":false,"is_disabled":false,"rental_uris":{"android":"levelo://app?vid=3ee01a3f-9bb3-4d07-acc6-bd03f8a764ca","ios":"levelo://app?vid=3ee01a3f-9bb3-4d07-acc6-bd03f8a764ca"},"vehicle_type_id":"4","last_reported":1778963944,"current_range_meters":8000,"station_id":"ce4bh692rcd13ifvqea0","pricing_plan_id":"cebpf4jnsgd1na2vs0mg"},{"bike_id":"e6de9889-d490-4a2a-86a6-518caa757cec","system_id":"levelo_inurba_marseille","lat":43.25086,"lon":5.3952,"is_reserved":false,"is_disabled":false,"rental_uris":{"android":"levelo://app?vid=e6de9889-d490-4a2a-86a6-518caa757cec","ios":"levelo://app?vid=e6de9889-d490-4a2a-86a6-518caa757cec"},"vehicle_type_id":"4","last_reported":1778963944,"current_range_meters":8000,"station_id":"ce4bhm12rcd13ifvqgkg","pricing_plan_id":"cebpf4jnsgd1na2vs0mg"},{"bike_id":"b23ea0d7-6111-436e-b31d-88cf9deb47e0","system_id":"levelo_inurba_marseille","lat":43.24384,"lon":5.37058,"is_reserved":false,"is_disabled":false,"rental_uris":{"android":"levelo://app?vid=b23ea0d7-6111-436e-b31d-88cf9deb47e0","ios":"levelo://app?vid=b23ea0d7-6111-436e-b31d-88cf9deb47e0"},"vehicle_type_id":"4","last_reported":1778963944,"current_range_meters":8000,"station_id":"ce4bhhh2rcd13ifvqfk0","pricing_plan_id":"cebpf4jnsgd1na2vs0mg"},{"bike_id":"5cce7bec-405f-4dd8-9c99-39fd91625b45","system_id":"levelo_inurba_marseille","lat":43.28628,"lon":5.35103,"is_reserved":false,"is_disabled":false,"rental_uris":{"android":"levelo://app?vid=5cce7bec-405f-4dd8-9c99-39fd91625b45","ios":"levelo://app?vid=5cce7bec-405f-4dd8-9c99-39fd91625b45"},"vehicle_type_id":"4","last_reported":1778963944,"current_range_meters":8000,"station_id":"ce4bhch2rcd13ifvqeug","pricing_plan_id":"cebpf4jnsgd1na2vs0mg"},{"bike_id":"8a3e36e3-f591-4fd5-81b4-a13926826957","system_id":"levelo_inurba_marseille","lat":43.29035,"lon":5.39926,"is_reserved":false,"is_disabled":false,"rental_uris":{"android":"levelo://app?vid=8a3e36e3-f591-4fd5-81b4-a13926826957","ios":"levelo://app?vid=8a3e36e3-f591-4fd5-81b4-a13926826957"},"vehicle_type_id":"4","last_reported":1778963944,"current_range_meters":8000,"station_id":"ce4bh392rcd13ifvqdm0","pricing_plan_id":"cebpf4jnsgd1na2vs0mg"},{"bike_id":"de98d0a2-3848-4e54-a5f3-7b9932505760","system_id":"levelo_inurba_marseille","lat":43.28704,"lon":5.38693,"is_reserved":false,"is_disabled":false,"rental_uris":{"android":"levelo://app?vid=de98d0a2-3848-4e54-a5f3-7b9932505760","ios":"levelo://app?vid=de98d0a2-3848-4e54-a5f3-7b9932505760"},"vehicle_type_id":"4","last_reported":1778963944,"current_range_meters":8000,"station_id":"","pricing_plan_id":"cebpf4jnsgd1na2vs0mg"},{"bike_id":"f0908256-e45c-4db8-a608-0c759cabd932","system_id":"levelo_inurba_marseille","lat":43.28347,"lon":5.38103,"is_reserved":false,"is_disabled":false,"rental_uris":{"android":"levelo://app?vid=f0908256-e45c-4db8-a608-0c759cabd932","ios":"levelo://app?vid=f0908256-e45c-4db8-a608-0c759cabd932"},"vehicle_type_id":"4","last_reported":1778963944,"current_range_meters":8000,"station_id":"ce4bh412rcd13ifvqdr0","pricing_plan_id":"cebpf4jnsgd1na2vs0mg"},{"bike_id":"9ff57922-59f8-44bb-8618-6ddadf8235bc","system_id":"levelo_inurba_marseille","lat":43.30138,"lon":5.37408,"is_reserved":false,"is_disabled":false,"rental_uris":{"android":"levelo://app?vid=9ff57922-59f8-44bb-8618-6ddadf8235bc","ios":"levelo://app?vid=9ff57922-59f8-44bb-8618-6ddadf8235bc"},"vehicle_type_id":"4","last_reported":1778963944,"current_range_meters":8000,"station_id":"ce4bgs92rcd13ifvqcc0","pricing_plan_id":"cebpf4jnsgd1na2vs0mg"},{"bike_id":"a9c4cf58-eff3-46f4-8aa3-83491b171b4a","system_id":"levelo_inurba_marseille","lat":43.27375,"lon":5.36268,"is_reserved":false,"is_disabled":false,"rental_uris":{"android":"levelo://app?vid=a9c4cf58-eff3-46f4-8aa3-83491b171b4a","ios":"levelo://app?vid=a9c4cf58-eff3-46f4-8aa3-83491b171b4a"},"vehicle_type_id":"4","last_reported":1778963944,"current_range_meters":8000,"station_id":"ce4bhbh2rcd13ifvqeo0","pricing_plan_id":"cebpf4jnsgd1na2vs0mg"},{"bike_id":"a7463222-df63-4645-9c39-b075d7248d06","system_id":"levelo_inurba_marseille","lat":43.255031,"lon":5.376459,"is_reserved":false,"is_disabled":false,"rental_uris":{"android":"levelo://app?vid=a7463222-df63-4645-9c39-b075d7248d06","ios":"levelo://app?vid=a7463222-df63-4645-9c39-b075d7248d06"},"vehicle_type_id":"4","last_reported":1778963944,"current_range_meters":8000,"station_id":"ce4bhh12rcd13ifvqff0","pricing_plan_id":"cebpf4jnsgd1na2vs0mg"},{"bike_id":"6d892427-ae34-4663-899c-4bd4615b3af5","system_id":"levelo_inurba_marseille","lat":43.31328,"lon":5.39691,"is_reserved":false,"is_disabled":false,"rental_uris":{"android":"levelo://app?vid=6d892427-ae34-4663-899c-4bd4615b3af5","ios":"levelo://app?vid=6d892427-ae34-4663-899c-4bd4615b3af5"},"vehicle_type_id":"4","last_reported":1778963944,"current_range_meters":8000,"station_id":"ce4bgvp2rcd13ifvqcu0","pricing_plan_id":"cebpf4jnsgd1na2vs0mg"},{"bike_id":"0ffdfa76-348b-4766-a53b-889a0cc53c17","system_id":"levelo_inurba_marseille","lat":43.32491,"lon":5.36582,"is_reserved":false,"is_disabled":false,"rental_uris":{"android":"levelo://app?vid=0ffdfa76-348b-4766-a53b-889a0cc53c17","ios":"levelo://app?vid=0ffdfa76-348b-4766-a53b-889a0cc53c17"},"vehicle_type_id":"4","last_reported":1778963944,"current_range_meters":8000,"station_id":"ce4bhs12rcd13ifvqhvg","pricing_plan_id":"cebpf4jnsgd1na2vs0mg"},{"bike_id":"f7a8a3c0-0708-4c6b-99c3-d6a2815091d2","system_id":"levelo_inurba_marseille","lat":43.29718,"lon":5.36608,"is_reserved":false,"is_disabled":false,"rental_uris":{"android":"levelo://app?vid=f7a8a3c0-0708-4c6b-99c3-d6a2815091d2","ios":"levelo://app?vid=f7a8a3c0-0708-4c6b-99c3-d6a2815091d2"},"vehicle_type_id":"4","last_reported":1778963944,"current_range_meters":8000,"station_id":"ce4bgn12rcd13ifvqbt0","pricing_plan_id":"cebpf4jnsgd1na2vs0mg"},{"bike_id":"fa6fb32a-beee-4134-bc77-942eeba2f04d","system_id":"levelo_inurba_marseille","lat":43.287,"lon":5.37391,"is_reserved":false,"is_disabled":false,"rental_uris":{"android":"levelo://app?vid=fa6fb32a-beee-4134-bc77-942eeba2f04d","ios":"levelo://app?vid=fa6fb32a-beee-4134-bc77-942eeba2f04d"},"vehicle_type_id":"4","last_reported":1778963944,"current_range_meters":8000,"station_id":"ce4bh3p2rcd13ifvqdq0","pricing_plan_id":"cebpf4jnsgd1na2vs0mg"},{"bike_id":"98e7b7fe-6647-4a9e-8605-fac04f87e942","system_id":"levelo_inurba_marseille","lat":43.29621,"lon":5.37707,"is_reserved":false,"is_disabled":false,"rental_uris":{"android":"levelo://app?vid=98e7b7fe-6647-4a9e-8605-fac04f87e942","ios":"levelo://app?vid=98e7b7fe-6647-4a9e-8605-fac04f87e942"},"vehicle_type_id":"4","last_reported":1778963944,"current_range_meters":8400,"station_id":"ce4bgi92rcd13ifvqb90","pricing_plan_id":"cebpf4jnsgd1na2vs0mg"},{"bike_id":"8382078d-0cc4-47c7-8405-b42fc5263512","system_id":"levelo_inurba_marseille","lat":43.27146,"lon":5.39066,"is_reserved":false,"is_disabled":false,"rental_uris":{"android":"levelo://app?vid=8382078d-0cc4-47c7-8405-b42fc5263512","ios":"levelo://app?vid=8382078d-0cc4-47c7-8405-b42fc5263512"},"vehicle_type_id":"4","last_reported":1778963944,"current_range_meters":8400,"station_id":"","pricing_plan_id":"cebpf4jnsgd1na2vs0mg"},{"bike_id":"898ea1b1-38c7-4a45-9b94-20d8ecc43cb6","system_id":"levelo_inurba_marseille","lat":43.24843,"lon":5.37442,"is_reserved":false,"is_disabled":false,"rental_uris":{"android":"levelo://app?vid=898ea1b1-38c7-4a45-9b94-20d8ecc43cb6","ios":"levelo://app?vid=898ea1b1-38c7-4a45-9b94-20d8ecc43cb6"},"vehicle_type_id":"4","last_reported":1778963944,"current_range_meters":8400,"station_id":"","pricing_plan_id":"cebpf4jnsgd1na2vs0mg"},{"bike_id":"cde832f5-61c9-4423-ac99-7113bd3c4dd5","system_id":"levelo_inurba_marseille","lat":43.25529,"lon":5.37643,"is_reserved":false,"is_disabled":false,"rental_uris":{"android":"levelo://app?vid=cde832f5-61c9-4423-ac99-7113bd3c4dd5","ios":"levelo://app?vid=cde832f5-61c9-4423-ac99-7113bd3c4dd5"},"vehicle_type_id":"4","last_reported":1778963944,"current_range_meters":8400,"station_id":"ce4bhh12rcd13ifvqff0","pricing_plan_id":"cebpf4jnsgd1na2vs0mg"},{"bike_id":"946ce37b-61e1-4e85-8538-ea001745bccb","system_id":"levelo_inurba_marseille","lat":43.26212,"lon":5.37918,"is_reserved":false,"is_disabled":false,"rental_uris":{"android":"levelo://app?vid=946ce37b-61e1-4e85-8538-ea001745bccb","ios":"levelo://app?vid=946ce37b-61e1-4e85-8538-ea001745bccb"},"vehicle_type_id":"4","last_reported":1778963944,"current_range_meters":8400,"station_id":"ce4bhjp2rcd13ifvqg90","pricing_plan_id":"cebpf4jnsgd1na2vs0mg"},{"bike_id":"37ca5b86-b3d0-4bc0-80e9-3ce47d4dd8d3","system_id":"levelo_inurba_marseille","lat":43.23894,"lon":5.37451,"is_reserved":false,"is_disabled":false,"rental_uris":{"android":"levelo://app?vid=37ca5b86-b3d0-4bc0-80e9-3ce47d4dd8d3","ios":"levelo://app?vid=37ca5b86-b3d0-4bc0-80e9-3ce47d4dd8d3"},"vehicle_type_id":"4","last_reported":1778963944,"current_range_meters":8400,"station_id":"st_d6sm7csbq4hs73f8fpjg","pricing_plan_id":"cebpf4jnsgd1na2vs0mg"},{"bike_id":"6ea257e9-ce11-4d49-a2f8-fd99dac0cf24","system_id":"levelo_inurba_marseille","lat":43.24684,"lon":5.38142,"is_reserved":false,"is_disabled":false,"rental_uris":{"android":"levelo://app?vid=6ea257e9-ce11-4d49-a2f8-fd99dac0cf24","ios":"levelo://app?vid=6ea257e9-ce11-4d49-a2f8-fd99dac0cf24"},"vehicle_type_id":"4","last_reported":1778963944,"current_range_meters":8400,"station_id":"ce4bhih2rcd13ifvqfr0","pricing_plan_id":"cebpf4jnsgd1na2vs0mg"},{"bike_id":"08d7700d-c8c4-4fda-90c0-2a7af0ba22ee","system_id":"levelo_inurba_marseille","lat":43.30208,"lon":5.39446,"is_reserved":false,"is_disabled":false,"rental_uris":{"android":"levelo://app?vid=08d7700d-c8c4-4fda-90c0-2a7af0ba22ee","ios":"levelo://app?vid=08d7700d-c8c4-4fda-90c0-2a7af0ba22ee"},"vehicle_type_id":"4","last_reported":1778963944,"current_range_meters":8400,"station_id":"ce4bh0p2rcd13ifvqd70","pricing_plan_id":"cebpf4jnsgd1na2vs0mg"},{"bike_id":"67ccb857-92da-48d4-97af-9df5ebe29c07","system_id":"levelo_inurba_marseille","lat":43.32493,"lon":5.3829,"is_reserved":false,"is_disabled":false,"rental_uris":{"android":"levelo://app?vid=67ccb857-92da-48d4-97af-9df5ebe29c07","ios":"levelo://app?vid=67ccb857-92da-48d4-97af-9df5ebe29c07"},"vehicle_type_id":"4","last_reported":1778963944,"current_range_meters":8400,"station_id":"st_d4asgbiv49dc73anf9m0","pricing_plan_id":"cebpf4jnsgd1na2vs0mg"},{"bike_id":"39f5e5e3-bdaa-431e-ab82-46a06c8cb2ae","system_id":"levelo_inurba_marseille","lat":43.24461,"lon":5.42543,"is_reserved":false,"is_disabled":false,"rental_uris":{"android":"levelo://app?vid=39f5e5e3-bdaa-431e-ab82-46a06c8cb2ae","ios":"levelo://app?vid=39f5e5e3-bdaa-431e-ab82-46a06c8cb2ae"},"vehicle_type_id":"4","last_reported":1778963944,"current_range_meters":8400,"station_id":"st_d4a3vfp97mjs738cd8kg","pricing_plan_id":"cebpf4jnsgd1na2vs0mg"},{"bike_id":"9bd8573c-46a1-4065-ab51-af75b0c4906d","system_id":"levelo_inurba_marseille","lat":43.29989,"lon":5.38486,"is_reserved":false,"is_disabled":false,"rental_uris":{"android":"levelo://app?vid=9bd8573c-46a1-4065-ab51-af75b0c4906d","ios":"levelo://app?vid=9bd8573c-46a1-4065-ab51-af75b0c4906d"},"vehicle_type_id":"4","last_reported":1778963944,"current_range_meters":8400,"station_id":"ce4bgj92rcd13ifvqbd0","pricing_plan_id":"cebpf4jnsgd1na2vs0mg"},{"bike_id":"ee51b083-ba62-43a1-8a0a-7eff9e26d1d2","system_id":"levelo_inurba_marseille","lat":43.24676,"lon":5.38136,"is_reserved":false,"is_disabled":false,"rental_uris":{"android":"levelo://app?vid=ee51b083-ba62-43a1-8a0a-7eff9e26d1d2","ios":"levelo://app?vid=ee51b083-ba62-43a1-8a0a-7eff9e26d1d2"},"vehicle_type_id":"4","last_reported":1778963944,"current_range_meters":8400,"station_id":"ce4bhih2rcd13ifvqfr0","pricing_plan_id":"cebpf4jnsgd1na2vs0mg"},{"bike_id":"41ed03a9-ce21-4903-a810-ca307a88c332","system_id":"levelo_inurba_marseille","lat":43.26195,"lon":5.40416,"is_reserved":false,"is_disabled":false,"rental_uris":{"android":"levelo://app?vid=41ed03a9-ce21-4903-a810-ca307a88c332","ios":"levelo://app?vid=41ed03a9-ce21-4903-a810-ca307a88c332"},"vehicle_type_id":"4","last_reported":1778963944,"current_range_meters":8400,"station_id":"ce4bhmh2rcd13ifvqgmg","pricing_plan_id":"cebpf4jnsgd1na2vs0mg"},{"bike_id":"ebd6423a-f883-421b-aa5e-b07f7bf79268","system_id":"levelo_inurba_marseille","lat":43.29298,"lon":5.37446,"is_reserved":false,"is_disabled":false,"rental_uris":{"android":"levelo://app?vid=ebd6423a-f883-421b-aa5e-b07f7bf79268","ios":"levelo://app?vid=ebd6423a-f883-421b-aa5e-b07f7bf79268"},"vehicle_type_id":"4","last_reported":1778963944,"current_range_meters":8400,"station_id":"ce4bgi12rcd13ifvqb70","pricing_plan_id":"cebpf4jnsgd1na2vs0mg"},{"bike_id":"ad1f6fd4-c9ff-4829-9d36-b7cf41ff39ba","system_id":"levelo_inurba_marseille","lat":43.27991,"lon":5.38699,"is_reserved":false,"is_disabled":true,"rental_uris":{"android":"levelo://app?vid=ad1f6fd4-c9ff-4829-9d36-b7cf41ff39ba","ios":"levelo://app?vid=ad1f6fd4-c9ff-4829-9d36-b7cf41ff39ba"},"vehicle_type_id":"4","last_reported":1778963944,"current_range_meters":8400,"station_id":"ce4bhg12rcd13ifvqf80","pricing_plan_id":"cebpf4jnsgd1na2vs0mg"},{"bike_id":"1aebc2f9-0b8f-4aef-b8a6-8f194d72f694","system_id":"levelo_inurba_marseille","lat":43.27858,"lon":5.38673,"is_reserved":false,"is_disabled":false,"rental_uris":{"android":"levelo://app?vid=1aebc2f9-0b8f-4aef-b8a6-8f194d72f694","ios":"levelo://app?vid=1aebc2f9-0b8f-4aef-b8a6-8f194d72f694"},"vehicle_type_id":"4","last_reported":1778963944,"current_range_meters":8400,"station_id":"","pricing_plan_id":"cebpf4jnsgd1na2vs0mg"},{"bike_id":"d3f8cb08-f3cd-416b-953a-eae8db0a255e","system_id":"levelo_inurba_marseille","lat":43.26812,"lon":5.40822,"is_reserved":false,"is_disabled":false,"rental_uris":{"android":"levelo://app?vid=d3f8cb08-f3cd-416b-953a-eae8db0a255e","ios":"levelo://app?vid=d3f8cb08-f3cd-416b-953a-eae8db0a255e"},"vehicle_type_id":"4","last_reported":1778963944,"current_range_meters":8400,"station_id":"","pricing_plan_id":"cebpf4jnsgd1na2vs0mg"},{"bike_id":"5cf22469-3f70-4709-a9db-befceaacbf5d","system_id":"levelo_inurba_marseille","lat":43.29222,"lon":5.36072,"is_reserved":false,"is_disabled":false,"rental_uris":{"android":"levelo://app?vid=5cf22469-3f70-4709-a9db-befceaacbf5d","ios":"levelo://app?vid=5cf22469-3f70-4709-a9db-befceaacbf5d"},"vehicle_type_id":"4","last_reported":1778963944,"current_range_meters":8400,"station_id":"ce4bhbh2rcd13ifvqeqg","pricing_plan_id":"cebpf4jnsgd1na2vs0mg"},{"bike_id":"23c89db2-3379-4954-bc52-79e3a03adb59","system_id":"levelo_inurba_marseille","lat":43.27364,"lon":5.36227,"is_reserved":false,"is_disabled":false,"rental_uris":{"android":"levelo://app?vid=23c89db2-3379-4954-bc52-79e3a03adb59","ios":"levelo://app?vid=23c89db2-3379-4954-bc52-79e3a03adb59"},"vehicle_type_id":"4","last_reported":1778963944,"current_range_meters":8400,"station_id":"ce4bhbh2rcd13ifvqeo0","pricing_plan_id":"cebpf4jnsgd1na2vs0mg"},{"bike_id":"60e91d52-408f-41b9-86d8-fcefe5d5a260","system_id":"levelo_inurba_marseille","lat":43.287,"lon":5.46684,"is_reserved":false,"is_disabled":false,"rental_uris":{"android":"levelo://app?vid=60e91d52-408f-41b9-86d8-fcefe5d5a260","ios":"levelo://app?vid=60e91d52-408f-41b9-86d8-fcefe5d5a260"},"vehicle_type_id":"4","last_reported":1778963944,"current_range_meters":8400,"station_id":"st_d6tc3vkotcvc738tfjhg","pricing_plan_id":"cebpf4jnsgd1na2vs0mg"},{"bike_id":"032fbbce-f9a4-4bef-952a-0977318b2380","system_id":"levelo_inurba_marseille","lat":43.24824,"lon":5.37436,"is_reserved":false,"is_disabled":false,"rental_uris":{"android":"levelo://app?vid=032fbbce-f9a4-4bef-952a-0977318b2380","ios":"levelo://app?vid=032fbbce-f9a4-4bef-952a-0977318b2380"},"vehicle_type_id":"4","last_reported":1778963944,"current_range_meters":8800,"station_id":"ce4bhgh2rcd13ifvqfb0","pricing_plan_id":"cebpf4jnsgd1na2vs0mg"},{"bike_id":"4e5bd537-c85f-4cfa-a272-100a01edb9bf","system_id":"levelo_inurba_marseille","lat":43.31688,"lon":5.40472,"is_reserved":false,"is_disabled":false,"rental_uris":{"android":"levelo://app?vid=4e5bd537-c85f-4cfa-a272-100a01edb9bf","ios":"levelo://app?vid=4e5bd537-c85f-4cfa-a272-100a01edb9bf"},"vehicle_type_id":"4","last_reported":1778963944,"current_range_meters":8800,"station_id":"ce4bh012rcd13ifvqd00","pricing_plan_id":"cebpf4jnsgd1na2vs0mg"},{"bike_id":"fb2b447a-0030-4ddc-8822-f704c5a47e0f","system_id":"levelo_inurba_marseille","lat":43.30332,"lon":5.4044,"is_reserved":false,"is_disabled":false,"rental_uris":{"android":"levelo://app?vid=fb2b447a-0030-4ddc-8822-f704c5a47e0f","ios":"levelo://app?vid=fb2b447a-0030-4ddc-8822-f704c5a47e0f"},"vehicle_type_id":"4","last_reported":1778963944,"current_range_meters":8800,"station_id":"ce4bh012rcd13ifvqd10","pricing_plan_id":"cebpf4jnsgd1na2vs0mg"},{"bike_id":"4205fef4-5bd1-439a-b6c6-88b1921fd314","system_id":"levelo_inurba_marseille","lat":43.22521,"lon":5.41565,"is_reserved":false,"is_disabled":false,"rental_uris":{"android":"levelo://app?vid=4205fef4-5bd1-439a-b6c6-88b1921fd314","ios":"levelo://app?vid=4205fef4-5bd1-439a-b6c6-88b1921fd314"},"vehicle_type_id":"4","last_reported":1778963944,"current_range_meters":8800,"station_id":"","pricing_plan_id":"cebpf4jnsgd1na2vs0mg"},{"bike_id":"d2b2c17a-ea55-4d09-b1b4-c2cd5226f326","system_id":"levelo_inurba_marseille","lat":43.27373,"lon":5.36252,"is_reserved":false,"is_disabled":false,"rental_uris":{"android":"levelo://app?vid=d2b2c17a-ea55-4d09-b1b4-c2cd5226f326","ios":"levelo://app?vid=d2b2c17a-ea55-4d09-b1b4-c2cd5226f326"},"vehicle_type_id":"4","last_reported":1778963944,"current_range_meters":8800,"station_id":"ce4bhbh2rcd13ifvqeo0","pricing_plan_id":"cebpf4jnsgd1na2vs0mg"},{"bike_id":"f4123f5c-b6df-4184-8902-2d50a38f9b86","system_id":"levelo_inurba_marseille","lat":43.29316,"lon":5.37478,"is_reserved":false,"is_disabled":false,"rental_uris":{"android":"levelo://app?vid=f4123f5c-b6df-4184-8902-2d50a38f9b86","ios":"levelo://app?vid=f4123f5c-b6df-4184-8902-2d50a38f9b86"},"vehicle_type_id":"4","last_reported":1778963944,"current_range_meters":8800,"station_id":"ce4bgi12rcd13ifvqb70","pricing_plan_id":"cebpf4jnsgd1na2vs0mg"},{"bike_id":"03b692ed-27df-4348-8e38-0c47a75d5d57","system_id":"levelo_inurba_marseille","lat":43.29533,"lon":5.38535,"is_reserved":false,"is_disabled":false,"rental_uris":{"android":"levelo://app?vid=03b692ed-27df-4348-8e38-0c47a75d5d57","ios":"levelo://app?vid=03b692ed-27df-4348-8e38-0c47a75d5d57"},"vehicle_type_id":"4","last_reported":1778963944,"current_range_meters":8800,"station_id":"ce4bgih2rcd13ifvqba0","pricing_plan_id":"cebpf4jnsgd1na2vs0mg"},{"bike_id":"c3844dc5-c004-4d7b-9c5e-91c5adccbc3e","system_id":"levelo_inurba_marseille","lat":43.29267,"lon":5.4009,"is_reserved":false,"is_disabled":false,"rental_uris":{"android":"levelo://app?vid=c3844dc5-c004-4d7b-9c5e-91c5adccbc3e","ios":"levelo://app?vid=c3844dc5-c004-4d7b-9c5e-91c5adccbc3e"},"vehicle_type_id":"4","last_reported":1778963944,"current_range_meters":8800,"station_id":"ce4bh312rcd13ifvqdk0","pricing_plan_id":"cebpf4jnsgd1na2vs0mg"},{"bike_id":"0cef6cc5-83fc-4ee5-8562-a133645f0f0d","system_id":"levelo_inurba_marseille","lat":43.29044,"lon":5.39972,"is_reserved":false,"is_disabled":false,"rental_uris":{"android":"levelo://app?vid=0cef6cc5-83fc-4ee5-8562-a133645f0f0d","ios":"levelo://app?vid=0cef6cc5-83fc-4ee5-8562-a133645f0f0d"},"vehicle_type_id":"4","last_reported":1778963944,"current_range_meters":8800,"station_id":"ce4bh392rcd13ifvqdm0","pricing_plan_id":"cebpf4jnsgd1na2vs0mg"},{"bike_id":"6309bb83-16de-49b5-b945-ff87fed43bc6","system_id":"levelo_inurba_marseille","lat":43.21195,"lon":5.35073,"is_reserved":false,"is_disabled":false,"rental_uris":{"android":"levelo://app?vid=6309bb83-16de-49b5-b945-ff87fed43bc6","ios":"levelo://app?vid=6309bb83-16de-49b5-b945-ff87fed43bc6"},"vehicle_type_id":"4","last_reported":1778963944,"current_range_meters":8800,"station_id":"st_cvj6sg6p6f1abm77japg","pricing_plan_id":"cebpf4jnsgd1na2vs0mg"},{"bike_id":"e6bbcb34-20bf-4ce5-b5b7-6243a17e2e8d","system_id":"levelo_inurba_marseille","lat":43.21172,"lon":5.35089,"is_reserved":false,"is_disabled":false,"rental_uris":{"android":"levelo://app?vid=e6bbcb34-20bf-4ce5-b5b7-6243a17e2e8d","ios":"levelo://app?vid=e6bbcb34-20bf-4ce5-b5b7-6243a17e2e8d"},"vehicle_type_id":"4","last_reported":1778963944,"current_range_meters":8800,"station_id":"st_cvj6sg6p6f1abm77japg","pricing_plan_id":"cebpf4jnsgd1na2vs0mg"},{"bike_id":"50002ad2-5af8-4510-9b0b-76900f44e737","system_id":"levelo_inurba_marseille","lat":43.29264,"lon":5.3843,"is_reserved":false,"is_disabled":false,"rental_uris":{"android":"levelo://app?vid=50002ad2-5af8-4510-9b0b-76900f44e737","ios":"levelo://app?vid=50002ad2-5af8-4510-9b0b-76900f44e737"},"vehicle_type_id":"4","last_reported":1778963944,"current_range_meters":8800,"station_id":"ce4bh692rcd13ifvqea0","pricing_plan_id":"cebpf4jnsgd1na2vs0mg"},