{"last_updated":1746627064,"ttl":60,"version":"2.2","data":{"bikes":[{"bike_id":"646ce932-e3b6-448c-a87b-52e6b01e32fa","system_id":"levelo_inurba_marseille","lat":43.26201,"lon":5.38756,"is_reserved":false,"is_disabled":true,"rental_uris":{"android":"levelo://app?vid=646ce932-e3b6-448c-a87b-52e6b01e32fa","ios":"levelo://app?vid=646ce932-e3b6-448c-a87b-52e6b01e32fa"},"vehicle_type_id":"4","last_reported":1746627064,"current_range_meters":0,"station_id":"","pricing_plan_id":"cebpf4jnsgd1na2vs0mg"},{"bike_id":"66b646b3-6352-44bb-9bfb-21570512e3e5","system_id":"levelo_inurba_marseille","lat":43.28111,"lon":5.40416,"is_reserved":false,"is_disabled":true,"rental_uris":{"android":"levelo://app?vid=66b646b3-6352-44bb-9bfb-21570512e3e5","ios":"levelo://app?vid=66b646b3-6352-44bb-9bfb-21570512e3e5"},"vehicle_type_id":"4","last_reported":1746627064,"current_range_meters":0,"station_id":"","pricing_plan_id":"cebpf4jnsgd1na2vs0mg"},{"bike_id":"b56eeeb9-9ded-4dd2-9efa-c8d4f8a5e387","system_id":"levelo_inurba_marseille","lat":43.274,"lon":5.4225,"is_reserved":false,"is_disabled":true,"rental_uris":{"android":"levelo://app?vid=b56eeeb9-9ded-4dd2-9efa-c8d4f8a5e387","ios":"levelo://app?vid=b56eeeb9-9ded-4dd2-9efa-c8d4f8a5e387"},"vehicle_type_id":"4","last_reported":1746627064,"current_range_meters":0,"station_id":"","pricing_plan_id":"cebpf4jnsgd1na2vs0mg"},{"bike_id":"88c3c6c1-a33a-48ed-b2a4-48c16332184c","system_id":"levelo_inurba_marseille","lat":43.27933,"lon":5.37392,"is_reserved":false,"is_disabled":true,"rental_uris":{"android":"levelo://app?vid=88c3c6c1-a33a-48ed-b2a4-48c16332184c","ios":"levelo://app?vid=88c3c6c1-a33a-48ed-b2a4-48c16332184c"},"vehicle_type_id":"4","last_reported":1746627064,"current_range_meters":0,"station_id":"","pricing_plan_id":"cebpf4jnsgd1na2vs0mg"},{"bike_id":"2a26deeb-dada-4ee8-97f2-d38c37b9e738","system_id":"levelo_inurba_marseille","lat":43.303007,"lon":5.392191,"is_reserved":false,"is_disabled":true,"rental_uris":{"android":"levelo://app?vid=2a26deeb-dada-4ee8-97f2-d38c37b9e738","ios":"levelo://app?vid=2a26deeb-dada-4ee8-97f2-d38c37b9e738"},"vehicle_type_id":"4","last_reported":1746627064,"current_range_meters":0,"station_id":"","pricing_plan_id":"cebpf4jnsgd1na2vs0mg"},{"bike_id":"edaf51df-2b4b-4d63-a4ec-c1762e310aff","system_id":"levelo_inurba_marseille","lat":43.30583,"lon":5.37602,"is_reserved":false,"is_disabled":true,"rental_uris":{"android":"levelo://app?vid=edaf51df-2b4b-4d63-a4ec-c1762e310aff","ios":"levelo://app?vid=edaf51df-2b4b-4d63-a4ec-c1762e310aff"},"vehicle_type_id":"4","last_reported":1746627064,"current_range_meters":0,"station_id":"","pricing_plan_id":"cebpf4jnsgd1na2vs0mg"},{"bike_id":"2d251c8d-e9d0-476f-8622-cb88831f30c3","system_id":"levelo_inurba_marseille","lat":43.2699,"lon":5.38799,"is_reserved":false,"is_disabled":true,"rental_uris":{"android":"levelo://app?vid=2d251c8d-e9d0-476f-8622-cb88831f30c3","ios":"levelo://app?vid=2d251c8d-e9d0-476f-8622-cb88831f30c3"},"vehicle_type_id":"4","last_reported":1746627064,"current_range_meters":0,"station_id":"","pricing_plan_id":"cebpf4jnsgd1na2vs0mg"},{"bike_id":"e1b3b917-d5c7-479c-a619-bd83092d0511","system_id":"levelo_inurba_marseille","lat":43.295776,"lon":5.3752,"is_reserved":false,"is_disabled":false,"rental_uris":{"android":"levelo://app?vid=e1b3b917-d5c7-479c-a619-bd83092d0511","ios":"levelo://app?vid=e1b3b917-d5c7-479c-a619-bd83092d0511"},"vehicle_type_id":"4","last_reported":1746627064,"current_range_meters":0,"station_id":"ce4bgh92rcd13ifvqb50","pricing_plan_id":"cebpf4jnsgd1na2vs0mg"},{"bike_id":"8f631b41-4e28-4d15-9366-e1418723a30e","system_id":"levelo_inurba_marseille","lat":43.29714,"lon":5.3661,"is_reserved":false,"is_disabled":true,"rental_uris":{"android":"levelo://app?vid=8f631b41-4e28-4d15-9366-e1418723a30e","ios":"levelo://app?vid=8f631b41-4e28-4d15-9366-e1418723a30e"},"vehicle_type_id":"4","last_reported":1746627064,"current_range_meters":0,"station_id":"ce4bgn12rcd13ifvqbt0","pricing_plan_id":"cebpf4jnsgd1na2vs0mg"},{"bike_id":"7ab66daa-39ab-4b8c-9ddf-3b1965d819db","system_id":"levelo_inurba_marseille","lat":43.302765,"lon":5.377082,"is_reserved":false,"is_disabled":true,"rental_uris":{"android":"levelo://app?vid=7ab66daa-39ab-4b8c-9ddf-3b1965d819db","ios":"levelo://app?vid=7ab66daa-39ab-4b8c-9ddf-3b1965d819db"},"vehicle_type_id":"4","last_reported":1746627064,"current_range_meters":0,"station_id":"ce4bguh2rcd13ifvqcj0","pricing_plan_id":"cebpf4jnsgd1na2vs0mg"},{"bike_id":"b3744ede-0471-4246-a0c6-911f4b082d82","system_id":"levelo_inurba_marseille","lat":43.30895,"lon":5.396233,"is_reserved":false,"is_disabled":true,"rental_uris":{"android":"levelo://app?vid=b3744ede-0471-4246-a0c6-911f4b082d82","ios":"levelo://app?vid=b3744ede-0471-4246-a0c6-911f4b082d82"},"vehicle_type_id":"4","last_reported":1746627064,"current_range_meters":0,"station_id":"ce4bh012rcd13ifvqcv0","pricing_plan_id":"cebpf4jnsgd1na2vs0mg"},{"bike_id":"acdd4eee-e32e-4fda-841f-48eaf34aeba6","system_id":"levelo_inurba_marseille","lat":43.29026,"lon":5.38639,"is_reserved":false,"is_disabled":true,"rental_uris":{"android":"levelo://app?vid=acdd4eee-e32e-4fda-841f-48eaf34aeba6","ios":"levelo://app?vid=acdd4eee-e32e-4fda-841f-48eaf34aeba6"},"vehicle_type_id":"4","last_reported":1746627064,"current_range_meters":0,"station_id":"ce4bh4p2rcd13ifvqe0g","pricing_plan_id":"cebpf4jnsgd1na2vs0mg"},{"bike_id":"133e8355-57ed-4aab-b3e3-e964a1d9dfc4","system_id":"levelo_inurba_marseille","lat":43.290333,"lon":5.375688,"is_reserved":false,"is_disabled":true,"rental_uris":{"android":"levelo://app?vid=133e8355-57ed-4aab-b3e3-e964a1d9dfc4","ios":"levelo://app?vid=133e8355-57ed-4aab-b3e3-e964a1d9dfc4"},"vehicle_type_id":"4","last_reported":1746627064,"current_range_meters":0,"station_id":"ce4bh692rcd13ifvqe90","pricing_plan_id":"cebpf4jnsgd1na2vs0mg"},{"bike_id":"802c9d33-5410-4c15-a33d-4c8a74745707","system_id":"levelo_inurba_marseille","lat":43.28986,"lon":5.37828,"is_reserved":false,"is_disabled":true,"rental_uris":{"android":"levelo://app?vid=802c9d33-5410-4c15-a33d-4c8a74745707","ios":"levelo://app?vid=802c9d33-5410-4c15-a33d-4c8a74745707"},"vehicle_type_id":"4","last_reported":1746627064,"current_range_meters":0,"station_id":"ce4bh9p2rcd13ifvqed0","pricing_plan_id":"cebpf4jnsgd1na2vs0mg"},{"bike_id":"29acbdab-0151-4e4f-8c13-df5c5b567755","system_id":"levelo_inurba_marseille","lat":43.26556,"lon":5.37294,"is_reserved":false,"is_disabled":true,"rental_uris":{"android":"levelo://app?vid=29acbdab-0151-4e4f-8c13-df5c5b567755","ios":"levelo://app?vid=29acbdab-0151-4e4f-8c13-df5c5b567755"},"vehicle_type_id":"4","last_reported":1746627064,"current_range_meters":0,"station_id":"ce4bhg12rcd13ifvqf70","pricing_plan_id":"cebpf4jnsgd1na2vs0mg"},{"bike_id":"ce910a8c-3b2e-4ec6-bcee-b55101509e35","system_id":"levelo_inurba_marseille","lat":43.2669,"lon":5.38265,"is_reserved":false,"is_disabled":true,"rental_uris":{"android":"levelo://app?vid=ce910a8c-3b2e-4ec6-bcee-b55101509e35","ios":"levelo://app?vid=ce910a8c-3b2e-4ec6-bcee-b55101509e35"},"vehicle_type_id":"4","last_reported":1746627064,"current_range_meters":0,"station_id":"ce4bhg92rcd13ifvqf90","pricing_plan_id":"cebpf4jnsgd1na2vs0mg"},{"bike_id":"63d8c6b7-a2d0-4fd5-8c61-7051fd8ed0c9","system_id":"levelo_inurba_marseille","lat":43.24549,"lon":5.39541,"is_reserved":false,"is_disabled":true,"rental_uris":{"android":"levelo://app?vid=63d8c6b7-a2d0-4fd5-8c61-7051fd8ed0c9","ios":"levelo://app?vid=63d8c6b7-a2d0-4fd5-8c61-7051fd8ed0c9"},"vehicle_type_id":"4","last_reported":1746627064,"current_range_meters":0,"station_id":"ce4bhlp2rcd13ifvqgjg","pricing_plan_id":"cebpf4jnsgd1na2vs0mg"},{"bike_id":"8673d18d-60b7-43f5-894d-1592ea4780e4","system_id":"levelo_inurba_marseille","lat":43.26228,"lon":5.40447,"is_reserved":false,"is_disabled":true,"rental_uris":{"android":"levelo://app?vid=8673d18d-60b7-43f5-894d-1592ea4780e4","ios":"levelo://app?vid=8673d18d-60b7-43f5-894d-1592ea4780e4"},"vehicle_type_id":"4","last_reported":1746627064,"current_range_meters":0,"station_id":"ce4bhmh2rcd13ifvqgmg","pricing_plan_id":"cebpf4jnsgd1na2vs0mg"},{"bike_id":"77ca6fdb-e4c3-4ba9-b90b-7f6272307290","system_id":"levelo_inurba_marseille","lat":43.28711,"lon":5.39988,"is_reserved":false,"is_disabled":true,"rental_uris":{"android":"levelo://app?vid=77ca6fdb-e4c3-4ba9-b90b-7f6272307290","ios":"levelo://app?vid=77ca6fdb-e4c3-4ba9-b90b-7f6272307290"},"vehicle_type_id":"4","last_reported":1746627064,"current_range_meters":0,"station_id":"ce4bho92rcd13ifvqh3g","pricing_plan_id":"cebpf4jnsgd1na2vs0mg"},{"bike_id":"ac350f23-707d-4c90-882e-6af6c5ba735f","system_id":"levelo_inurba_marseille","lat":43.32098,"lon":5.36793,"is_reserved":false,"is_disabled":true,"rental_uris":{"android":"levelo://app?vid=ac350f23-707d-4c90-882e-6af6c5ba735f","ios":"levelo://app?vid=ac350f23-707d-4c90-882e-6af6c5ba735f"},"vehicle_type_id":"4","last_reported":1746627064,"current_range_meters":0,"station_id":"ce4bhrh2rcd13ifvqhug","pricing_plan_id":"cebpf4jnsgd1na2vs0mg"},{"bike_id":"c0b927be-3ad7-424a-b1be-0ab1970cb8e4","system_id":"levelo_inurba_marseille","lat":43.22936,"lon":5.35382,"is_reserved":false,"is_disabled":true,"rental_uris":{"android":"levelo://app?vid=c0b927be-3ad7-424a-b1be-0ab1970cb8e4","ios":"levelo://app?vid=c0b927be-3ad7-424a-b1be-0ab1970cb8e4"},"vehicle_type_id":"4","last_reported":1746627064,"current_range_meters":0,"station_id":"cpo3532slgdg3j2ikp40","pricing_plan_id":"cebpf4jnsgd1na2vs0mg"},{"bike_id":"9afdaa32-5437-40bb-b5dc-0e42f55a33ee","system_id":"levelo_inurba_marseille","lat":43.25383,"lon":5.41871,"is_reserved":false,"is_disabled":true,"rental_uris":{"android":"levelo://app?vid=9afdaa32-5437-40bb-b5dc-0e42f55a33ee","ios":"levelo://app?vid=9afdaa32-5437-40bb-b5dc-0e42f55a33ee"},"vehicle_type_id":"4","last_reported":1746627064,"current_range_meters":400,"station_id":"","pricing_plan_id":"cebpf4jnsgd1na2vs0mg"},{"bike_id":"688f6895-2ffa-4c63-9284-e7a693935e8a","system_id":"levelo_inurba_marseille","lat":43.305328,"lon":5.365594,"is_reserved":false,"is_disabled":true,"rental_uris":{"android":"levelo://app?vid=688f6895-2ffa-4c63-9284-e7a693935e8a","ios":"levelo://app?vid=688f6895-2ffa-4c63-9284-e7a693935e8a"},"vehicle_type_id":"4","last_reported":1746627064,"current_range_meters":400,"station_id":"ce4bgs12rcd13ifvqcag","pricing_plan_id":"cebpf4jnsgd1na2vs0mg"},{"bike_id":"2cfa632a-2bf1-418a-a692-cd594387314f","system_id":"levelo_inurba_marseille","lat":43.26216,"lon":5.37435,"is_reserved":false,"is_disabled":true,"rental_uris":{"android":"levelo://app?vid=2cfa632a-2bf1-418a-a692-cd594387314f","ios":"levelo://app?vid=2cfa632a-2bf1-418a-a692-cd594387314f"},"vehicle_type_id":"4","last_reported":1746627064,"current_range_meters":400,"station_id":"ce4bhgp2rcd13ifvqfc0","pricing_plan_id":"cebpf4jnsgd1na2vs0mg"},{"bike_id":"ca221c55-a85f-464f-83b6-322dcfebb2d1","system_id":"levelo_inurba_marseille","lat":43.23198,"lon":5.35556,"is_reserved":false,"is_disabled":true,"rental_uris":{"android":"levelo://app?vid=ca221c55-a85f-464f-83b6-322dcfebb2d1","ios":"levelo://app?vid=ca221c55-a85f-464f-83b6-322dcfebb2d1"},"vehicle_type_id":"4","last_reported":1746627064,"current_range_meters":400,"station_id":"ce4bhu92rcd13ifvqi70","pricing_plan_id":"cebpf4jnsgd1na2vs0mg"},{"bike_id":"cdeafd83-cf11-4652-9a66-12720cd934a2","system_id":"levelo_inurba_marseille","lat":43.31138,"lon":5.37751,"is_reserved":false,"is_disabled":true,"rental_uris":{"android":"levelo://app?vid=cdeafd83-cf11-4652-9a66-12720cd934a2","ios":"levelo://app?vid=cdeafd83-cf11-4652-9a66-12720cd934a2"},"vehicle_type_id":"4","last_reported":1746627064,"current_range_meters":800,"station_id":"ce4bgt92rcd13ifvqcg0","pricing_plan_id":"cebpf4jnsgd1na2vs0mg"},{"bike_id":"335140a1-56d9-4b21-9531-12ef3613a43c","system_id":"levelo_inurba_marseille","lat":43.29045,"lon":5.39954,"is_reserved":false,"is_disabled":true,"rental_uris":{"android":"levelo://app?vid=335140a1-56d9-4b21-9531-12ef3613a43c","ios":"levelo://app?vid=335140a1-56d9-4b21-9531-12ef3613a43c"},"vehicle_type_id":"4","last_reported":1746627064,"current_range_meters":800,"station_id":"ce4bh392rcd13ifvqdm0","pricing_plan_id":"cebpf4jnsgd1na2vs0mg"},{"bike_id":"0029fd2d-b5be-4854-ae7c-9f27dd572c7e","system_id":"levelo_inurba_marseille","lat":43.29004,"lon":5.35608,"is_reserved":false,"is_disabled":true,"rental_uris":{"android":"levelo://app?vid=0029fd2d-b5be-4854-ae7c-9f27dd572c7e","ios":"levelo://app?vid=0029fd2d-b5be-4854-ae7c-9f27dd572c7e"},"vehicle_type_id":"4","last_reported":1746627064,"current_range_meters":800,"station_id":"ce4bhb92rcd13ifvqen0","pricing_plan_id":"cebpf4jnsgd1na2vs0mg"},{"bike_id":"a38c2d49-7988-4ef8-83e8-42a2504085da","system_id":"levelo_inurba_marseille","lat":43.24521,"lon":5.41222,"is_reserved":false,"is_disabled":true,"rental_uris":{"android":"levelo://app?vid=a38c2d49-7988-4ef8-83e8-42a2504085da","ios":"levelo://app?vid=a38c2d49-7988-4ef8-83e8-42a2504085da"},"vehicle_type_id":"4","last_reported":1746627064,"current_range_meters":1200,"station_id":"","pricing_plan_id":"cebpf4jnsgd1na2vs0mg"},{"bike_id":"2c98e4b6-b843-4d23-8a95-a8c442950427","system_id":"levelo_inurba_marseille","lat":43.29533,"lon":5.3854,"is_reserved":false,"is_disabled":true,"rental_uris":{"android":"levelo://app?vid=2c98e4b6-b843-4d23-8a95-a8c442950427","ios":"levelo://app?vid=2c98e4b6-b843-4d23-8a95-a8c442950427"},"vehicle_type_id":"4","last_reported":1746627064,"current_range_meters":1200,"station_id":"ce4bgih2rcd13ifvqba0","pricing_plan_id":"cebpf4jnsgd1na2vs0mg"},{"bike_id":"10a0df6b-e566-4d3e-aad7-0bac869de559","system_id":"levelo_inurba_marseille","lat":43.30152,"lon":5.38065,"is_reserved":false,"is_disabled":true,"rental_uris":{"android":"levelo://app?vid=10a0df6b-e566-4d3e-aad7-0bac869de559","ios":"levelo://app?vid=10a0df6b-e566-4d3e-aad7-0bac869de559"},"vehicle_type_id":"4","last_reported":1746627064,"current_range_meters":1200,"station_id":"ce4bgjp2rcd13ifvqbh0","pricing_plan_id":"cebpf4jnsgd1na2vs0mg"},{"bike_id":"5081ea67-9839-4950-b64b-87c3979c82b8","system_id":"levelo_inurba_marseille","lat":43.29958,"lon":5.37189,"is_reserved":false,"is_disabled":true,"rental_uris":{"android":"levelo://app?vid=5081ea67-9839-4950-b64b-87c3979c82b8","ios":"levelo://app?vid=5081ea67-9839-4950-b64b-87c3979c82b8"},"vehicle_type_id":"4","last_reported":1746627064,"current_range_meters":1200,"station_id":"ce4bgr92rcd13ifvqc7g","pricing_plan_id":"cebpf4jnsgd1na2vs0mg"},{"bike_id":"9c15dc19-89c1-4929-a6fe-b220e963accd","system_id":"levelo_inurba_marseille","lat":43.29267,"lon":5.38432,"is_reserved":false,"is_disabled":true,"rental_uris":{"android":"levelo://app?vid=9c15dc19-89c1-4929-a6fe-b220e963accd","ios":"levelo://app?vid=9c15dc19-89c1-4929-a6fe-b220e963accd"},"vehicle_type_id":"4","last_reported":1746627064,"current_range_meters":1200,"station_id":"ce4bh692rcd13ifvqea0","pricing_plan_id":"cebpf4jnsgd1na2vs0mg"},{"bike_id":"115364d9-6a4d-467c-974d-f21e8295815f","system_id":"levelo_inurba_marseille","lat":43.285797,"lon":5.350292,"is_reserved":false,"is_disabled":true,"rental_uris":{"android":"levelo://app?vid=115364d9-6a4d-467c-974d-f21e8295815f","ios":"levelo://app?vid=115364d9-6a4d-467c-974d-f21e8295815f"},"vehicle_type_id":"4","last_reported":1746627064,"current_range_meters":1200,"station_id":"ce4bhb92rcd13ifvqen0","pricing_plan_id":"cebpf4jnsgd1na2vs0mg"},{"bike_id":"881a4182-b099-4f9d-9f3b-112b691060cc","system_id":"levelo_inurba_marseille","lat":43.25729,"lon":5.41109,"is_reserved":false,"is_disabled":true,"rental_uris":{"android":"levelo://app?vid=881a4182-b099-4f9d-9f3b-112b691060cc","ios":"levelo://app?vid=881a4182-b099-4f9d-9f3b-112b691060cc"},"vehicle_type_id":"4","last_reported":1746627064,"current_range_meters":1200,"station_id":"ce4bhkp2rcd13ifvqgd0","pricing_plan_id":"cebpf4jnsgd1na2vs0mg"},{"bike_id":"a143a6d0-3439-4bd9-aa7d-b3f92785d1ce","system_id":"levelo_inurba_marseille","lat":43.27371,"lon":5.36239,"is_reserved":false,"is_disabled":true,"rental_uris":{"android":"levelo://app?vid=a143a6d0-3439-4bd9-aa7d-b3f92785d1ce","ios":"levelo://app?vid=a143a6d0-3439-4bd9-aa7d-b3f92785d1ce"},"vehicle_type_id":"4","last_reported":1746627064,"current_range_meters":1600,"station_id":"","pricing_plan_id":"cebpf4jnsgd1na2vs0mg"},{"bike_id":"c0aa3111-7325-42e0-9c70-cd2ff131bdb3","system_id":"levelo_inurba_marseille","lat":43.30597,"lon":5.37228,"is_reserved":false,"is_disabled":true,"rental_uris":{"android":"levelo://app?vid=c0aa3111-7325-42e0-9c70-cd2ff131bdb3","ios":"levelo://app?vid=c0aa3111-7325-42e0-9c70-cd2ff131bdb3"},"vehicle_type_id":"4","last_reported":1746627064,"current_range_meters":1600,"station_id":"ce4bgqh2rcd13ifvqc4g","pricing_plan_id":"cebpf4jnsgd1na2vs0mg"},{"bike_id":"b5b4cea0-e6d7-4b60-8551-8bf87ec86040","system_id":"levelo_inurba_marseille","lat":43.29101,"lon":5.38161,"is_reserved":false,"is_disabled":true,"rental_uris":{"android":"levelo://app?vid=b5b4cea0-e6d7-4b60-8551-8bf87ec86040","ios":"levelo://app?vid=b5b4cea0-e6d7-4b60-8551-8bf87ec86040"},"vehicle_type_id":"4","last_reported":1746627064,"current_range_meters":1600,"station_id":"ce4bh512rcd13ifvqe2g","pricing_plan_id":"cebpf4jnsgd1na2vs0mg"},{"bike_id":"36b473f6-9193-406d-8bee-6fc93db20636","system_id":"levelo_inurba_marseille","lat":43.29267,"lon":5.38433,"is_reserved":false,"is_disabled":true,"rental_uris":{"android":"levelo://app?vid=36b473f6-9193-406d-8bee-6fc93db20636","ios":"levelo://app?vid=36b473f6-9193-406d-8bee-6fc93db20636"},"vehicle_type_id":"4","last_reported":1746627064,"current_range_meters":1600,"station_id":"ce4bh692rcd13ifvqea0","pricing_plan_id":"cebpf4jnsgd1na2vs0mg"},{"bike_id":"1fee9de6-6b4e-4a67-a5a9-01cbcb8fe74d","system_id":"levelo_inurba_marseille","lat":43.2985,"lon":5.36283,"is_reserved":false,"is_disabled":true,"rental_uris":{"android":"levelo://app?vid=1fee9de6-6b4e-4a67-a5a9-01cbcb8fe74d","ios":"levelo://app?vid=1fee9de6-6b4e-4a67-a5a9-01cbcb8fe74d"},"vehicle_type_id":"4","last_reported":1746627064,"current_range_meters":2000,"station_id":"ce4bgpp2rcd13ifvqc3g","pricing_plan_id":"cebpf4jnsgd1na2vs0mg"},{"bike_id":"75a72dc0-9bde-40cd-b46a-5e1cc776619d","system_id":"levelo_inurba_marseille","lat":43.29255,"lon":5.38433,"is_reserved":false,"is_disabled":true,"rental_uris":{"android":"levelo://app?vid=75a72dc0-9bde-40cd-b46a-5e1cc776619d","ios":"levelo://app?vid=75a72dc0-9bde-40cd-b46a-5e1cc776619d"},"vehicle_type_id":"4","last_reported":1746627064,"current_range_meters":2000,"station_id":"ce4bh692rcd13ifvqea0","pricing_plan_id":"cebpf4jnsgd1na2vs0mg"},{"bike_id":"d489b02e-6491-461f-8750-f38f806586bc","system_id":"levelo_inurba_marseille","lat":43.28109,"lon":5.37844,"is_reserved":false,"is_disabled":true,"rental_uris":{"android":"levelo://app?vid=d489b02e-6491-461f-8750-f38f806586bc","ios":"levelo://app?vid=d489b02e-6491-461f-8750-f38f806586bc"},"vehicle_type_id":"4","last_reported":1746627064,"current_range_meters":2000,"station_id":"ce4bha12rcd13ifvqee0","pricing_plan_id":"cebpf4jnsgd1na2vs0mg"},{"bike_id":"602fc203-8b52-4815-9697-d3b6d2329233","system_id":"levelo_inurba_marseille","lat":43.2603,"lon":5.37553,"is_reserved":false,"is_disabled":true,"rental_uris":{"android":"levelo://app?vid=602fc203-8b52-4815-9697-d3b6d2329233","ios":"levelo://app?vid=602fc203-8b52-4815-9697-d3b6d2329233"},"vehicle_type_id":"4","last_reported":1746627064,"current_range_meters":2000,"station_id":"ce4bhgh2rcd13ifvqfa0","pricing_plan_id":"cebpf4jnsgd1na2vs0mg"},{"bike_id":"6b84e057-c57c-40e0-8d11-4fbae41daabe","system_id":"levelo_inurba_marseille","lat":43.25121,"lon":5.40313,"is_reserved":false,"is_disabled":false,"rental_uris":{"android":"levelo://app?vid=6b84e057-c57c-40e0-8d11-4fbae41daabe","ios":"levelo://app?vid=6b84e057-c57c-40e0-8d11-4fbae41daabe"},"vehicle_type_id":"4","last_reported":1746627064,"current_range_meters":2800,"station_id":"ce4bhlh2rcd13ifvqgig","pricing_plan_id":"cebpf4jnsgd1na2vs0mg"},{"bike_id":"1a6bd037-b017-41d6-aff8-bb42c0815636","system_id":"levelo_inurba_marseille","lat":43.3174,"lon":5.40465,"is_reserved":false,"is_disabled":false,"rental_uris":{"android":"levelo://app?vid=1a6bd037-b017-41d6-aff8-bb42c0815636","ios":"levelo://app?vid=1a6bd037-b017-41d6-aff8-bb42c0815636"},"vehicle_type_id":"4","last_reported":1746627064,"current_range_meters":3200,"station_id":"ce4bh012rcd13ifvqd00","pricing_plan_id":"cebpf4jnsgd1na2vs0mg"},{"bike_id":"8e7f019b-545c-4260-9f2e-8dab67f346ad","system_id":"levelo_inurba_marseille","lat":43.30158,"lon":5.38084,"is_reserved":false,"is_disabled":false,"rental_uris":{"android":"levelo://app?vid=8e7f019b-545c-4260-9f2e-8dab67f346ad","ios":"levelo://app?vid=8e7f019b-545c-4260-9f2e-8dab67f346ad"},"vehicle_type_id":"4","last_reported":1746627064,"current_range_meters":3600,"station_id":"ce4bgjp2rcd13ifvqbh0","pricing_plan_id":"cebpf4jnsgd1na2vs0mg"},{"bike_id":"93136d35-1d2b-4f5e-bdee-e9be5e58d036","system_id":"levelo_inurba_marseille","lat":43.29694,"lon":5.37287,"is_reserved":false,"is_disabled":false,"rental_uris":{"android":"levelo://app?vid=93136d35-1d2b-4f5e-bdee-e9be5e58d036","ios":"levelo://app?vid=93136d35-1d2b-4f5e-bdee-e9be5e58d036"},"vehicle_type_id":"4","last_reported":1746627064,"current_range_meters":3600,"station_id":"ce4bgk12rcd13ifvqbj0","pricing_plan_id":"cebpf4jnsgd1na2vs0mg"},{"bike_id":"dae75200-70ba-488f-a9a0-5ff992fb6ff8","system_id":"levelo_inurba_marseille","lat":43.25492,"lon":5.37659,"is_reserved":false,"is_disabled":false,"rental_uris":{"android":"levelo://app?vid=dae75200-70ba-488f-a9a0-5ff992fb6ff8","ios":"levelo://app?vid=dae75200-70ba-488f-a9a0-5ff992fb6ff8"},"vehicle_type_id":"4","last_reported":1746627064,"current_range_meters":3600,"station_id":"ce4bhh12rcd13ifvqff0","pricing_plan_id":"cebpf4jnsgd1na2vs0mg"},{"bike_id":"8d8a5570-8f26-4056-8949-6bedd85ccf48","system_id":"levelo_inurba_marseille","lat":43.262213,"lon":5.404429,"is_reserved":false,"is_disabled":false,"rental_uris":{"android":"levelo://app?vid=8d8a5570-8f26-4056-8949-6bedd85ccf48","ios":"levelo://app?vid=8d8a5570-8f26-4056-8949-6bedd85ccf48"},"vehicle_type_id":"4","last_reported":1746627064,"current_range_meters":3600,"station_id":"ce4bhmh2rcd13ifvqgmg","pricing_plan_id":"cebpf4jnsgd1na2vs0mg"},{"bike_id":"9d8f73eb-df09-4699-86a7-d631e2319093","system_id":"levelo_inurba_marseille","lat":43.26269,"lon":5.37439,"is_reserved":false,"is_disabled":false,"rental_uris":{"android":"levelo://app?vid=9d8f73eb-df09-4699-86a7-d631e2319093","ios":"levelo://app?vid=9d8f73eb-df09-4699-86a7-d631e2319093"},"vehicle_type_id":"4","last_reported":1746627064,"current_range_meters":4000,"station_id":"","pricing_plan_id":"cebpf4jnsgd1na2vs0mg"},{"bike_id":"eb3c3997-ce51-4399-a5ec-5a71459d8e57","system_id":"levelo_inurba_marseille","lat":43.30148,"lon":5.38076,"is_reserved":false,"is_disabled":false,"rental_uris":{"android":"levelo://app?vid=eb3c3997-ce51-4399-a5ec-5a71459d8e57","ios":"levelo://app?vid=eb3c3997-ce51-4399-a5ec-5a71459d8e57"},"vehicle_type_id":"4","last_reported":1746627064,"current_range_meters":4000,"station_id":"ce4bgjp2rcd13ifvqbh0","pricing_plan_id":"cebpf4jnsgd1na2vs0mg"},{"bike_id":"3360f4e4-b03a-4c43-b75b-6e8f43d26ed6","system_id":"levelo_inurba_marseille","lat":43.31354,"lon":5.38495,"is_reserved":false,"is_disabled":false,"rental_uris":{"android":"levelo://app?vid=3360f4e4-b03a-4c43-b75b-6e8f43d26ed6","ios":"levelo://app?vid=3360f4e4-b03a-4c43-b75b-6e8f43d26ed6"},"vehicle_type_id":"4","last_reported":1746627064,"current_range_meters":4000,"station_id":"ce4bgt92rcd13ifvqcf0","pricing_plan_id":"cebpf4jnsgd1na2vs0mg"},{"bike_id":"43d0fd12-bc1a-4686-a82e-8652f9d101fc","system_id":"levelo_inurba_marseille","lat":43.23966,"lon":5.36626,"is_reserved":false,"is_disabled":false,"rental_uris":{"android":"levelo://app?vid=43d0fd12-bc1a-4686-a82e-8652f9d101fc","ios":"levelo://app?vid=43d0fd12-bc1a-4686-a82e-8652f9d101fc"},"vehicle_type_id":"4","last_reported":1746627064,"current_range_meters":4000,"station_id":"ce4bhi12rcd13ifvqfp0","pricing_plan_id":"cebpf4jnsgd1na2vs0mg"},{"bike_id":"d2723f34-3549-49cb-b994-8985dc267ee1","system_id":"levelo_inurba_marseille","lat":43.25091,"lon":5.39518,"is_reserved":false,"is_disabled":false,"rental_uris":{"android":"levelo://app?vid=d2723f34-3549-49cb-b994-8985dc267ee1","ios":"levelo://app?vid=d2723f34-3549-49cb-b994-8985dc267ee1"},"vehicle_type_id":"4","last_reported":1746627064,"current_range_meters":4000,"station_id":"ce4bhm12rcd13ifvqgkg","pricing_plan_id":"cebpf4jnsgd1na2vs0mg"},{"bike_id":"eb0ab778-07d3-4e77-9c9e-f2a89f5517c5","system_id":"levelo_inurba_marseille","lat":43.23196,"lon":5.35547,"is_reserved":false,"is_disabled":false,"rental_uris":{"android":"levelo://app?vid=eb0ab778-07d3-4e77-9c9e-f2a89f5517c5","ios":"levelo://app?vid=eb0ab778-07d3-4e77-9c9e-f2a89f5517c5"},"vehicle_type_id":"4","last_reported":1746627064,"current_range_meters":4000,"station_id":"ce4bhu92rcd13ifvqi70","pricing_plan_id":"cebpf4jnsgd1na2vs0mg"},{"bike_id":"24b6d30e-1691-491e-b625-e0bb275e30e6","system_id":"levelo_inurba_marseille","lat":43.29894,"lon":5.39734,"is_reserved":false,"is_disabled":false,"rental_uris":{"android":"levelo://app?vid=24b6d30e-1691-491e-b625-e0bb275e30e6","ios":"levelo://app?vid=24b6d30e-1691-491e-b625-e0bb275e30e6"},"vehicle_type_id":"4","last_reported":1746627064,"current_range_meters":4400,"station_id":"ce4bh0h2rcd13ifvqd50","pricing_plan_id":"cebpf4jnsgd1na2vs0mg"},{"bike_id":"990f9634-dda1-45d1-85b6-b5f3c8d03732","system_id":"levelo_inurba_marseille","lat":43.287015,"lon":5.37382,"is_reserved":false,"is_disabled":false,"rental_uris":{"android":"levelo://app?vid=990f9634-dda1-45d1-85b6-b5f3c8d03732","ios":"levelo://app?vid=990f9634-dda1-45d1-85b6-b5f3c8d03732"},"vehicle_type_id":"4","last_reported":1746627064,"current_range_meters":4400,"station_id":"ce4bh3p2rcd13ifvqdq0","pricing_plan_id":"cebpf4jnsgd1na2vs0mg"},{"bike_id":"bb650cda-ee09-464b-a9c5-d1d58bbf0d5d","system_id":"levelo_inurba_marseille","lat":43.26786,"lon":5.39413,"is_reserved":false,"is_disabled":false,"rental_uris":{"android":"levelo://app?vid=bb650cda-ee09-464b-a9c5-d1d58bbf0d5d","ios":"levelo://app?vid=bb650cda-ee09-464b-a9c5-d1d58bbf0d5d"},"vehicle_type_id":"4","last_reported":1746627064,"current_range_meters":4400,"station_id":"ce4bhh12rcd13ifvqfg0","pricing_plan_id":"cebpf4jnsgd1na2vs0mg"},{"bike_id":"7735f831-86a3-46b0-8e7b-1ab594c8e639","system_id":"levelo_inurba_marseille","lat":43.25935,"lon":5.40899,"is_reserved":false,"is_disabled":false,"rental_uris":{"android":"levelo://app?vid=7735f831-86a3-46b0-8e7b-1ab594c8e639","ios":"levelo://app?vid=7735f831-86a3-46b0-8e7b-1ab594c8e639"},"vehicle_type_id":"4","last_reported":1746627064,"current_range_meters":4800,"station_id":"ce4bhm92rcd13ifvqglg","pricing_plan_id":"cebpf4jnsgd1na2vs0mg"},{"bike_id":"a34a3c73-4d0e-4c98-a640-c4d4279c4de0","system_id":"levelo_inurba_marseille","lat":43.30167,"lon":5.38086,"is_reserved":false,"is_disabled":false,"rental_uris":{"android":"levelo://app?vid=a34a3c73-4d0e-4c98-a640-c4d4279c4de0","ios":"levelo://app?vid=a34a3c73-4d0e-4c98-a640-c4d4279c4de0"},"vehicle_type_id":"4","last_reported":1746627064,"current_range_meters":5600,"station_id":"ce4bgjp2rcd13ifvqbh0","pricing_plan_id":"cebpf4jnsgd1na2vs0mg"},{"bike_id":"ffe3e8cc-0a94-4e2b-928e-1241e8850baf","system_id":"levelo_inurba_marseille","lat":43.29474,"lon":5.39752,"is_reserved":false,"is_disabled":false,"rental_uris":{"android":"levelo://app?vid=ffe3e8cc-0a94-4e2b-928e-1241e8850baf","ios":"levelo://app?vid=ffe3e8cc-0a94-4e2b-928e-1241e8850baf"},"vehicle_type_id":"4","last_reported":1746627064,"current_range_meters":5600,"station_id":"ce4bh3h2rcd13ifvqdo0","pricing_plan_id":"cebpf4jnsgd1na2vs0mg"},{"bike_id":"c0faf23e-81a7-4ca3-895d-283152fd6265","system_id":"levelo_inurba_marseille","lat":43.29579,"lon":5.39603,"is_reserved":false,"is_disabled":false,"rental_uris":{"android":"levelo://app?vid=c0faf23e-81a7-4ca3-895d-283152fd6265","ios":"levelo://app?vid=c0faf23e-81a7-4ca3-895d-283152fd6265"},"vehicle_type_id":"4","last_reported":1746627064,"current_range_meters":6000,"station_id":"","pricing_plan_id":"cebpf4jnsgd1na2vs0mg"},{"bike_id":"5c4e2b8d-e947-4442-9242-470428b2e1f1","system_id":"levelo_inurba_marseille","lat":43.30097,"lon":5.39061,"is_reserved":false,"is_disabled":false,"rental_uris":{"android":"levelo://app?vid=5c4e2b8d-e947-4442-9242-470428b2e1f1","ios":"levelo://app?vid=5c4e2b8d-e947-4442-9242-470428b2e1f1"},"vehicle_type_id":"4","last_reported":1746627064,"current_range_meters":6000,"station_id":"ce4bh192rcd13ifvqdb0","pricing_plan_id":"cebpf4jnsgd1na2vs0mg"},{"bike_id":"d2137ce3-a7bc-410a-a276-a85a92fe33a0","system_id":"levelo_inurba_marseille","lat":43.28662,"lon":5.38672,"is_reserved":false,"is_disabled":false,"rental_uris":{"android":"levelo://app?vid=d2137ce3-a7bc-410a-a276-a85a92fe33a0","ios":"levelo://app?vid=d2137ce3-a7bc-410a-a276-a85a92fe33a0"},"vehicle_type_id":"4","last_reported":1746627064,"current_range_meters":6000,"station_id":"ce4bh492rcd13ifvqdug","pricing_plan_id":"cebpf4jnsgd1na2vs0mg"},{"bike_id":"fba911b5-c9cb-4dd2-b5b1-06e07f33cb4d","system_id":"levelo_inurba_marseille","lat":43.28472,"lon":5.38438,"is_reserved":false,"is_disabled":false,"rental_uris":{"android":"levelo://app?vid=fba911b5-c9cb-4dd2-b5b1-06e07f33cb4d","ios":"levelo://app?vid=fba911b5-c9cb-4dd2-b5b1-06e07f33cb4d"},"vehicle_type_id":"4","last_reported":1746627064,"current_range_meters":6000,"station_id":"ce4bh512rcd13ifvqe3g","pricing_plan_id":"cebpf4jnsgd1na2vs0mg"},{"bike_id":"be30413e-157e-4183-a401-e3fcdc44d188","system_id":"levelo_inurba_marseille","lat":43.22935,"lon":5.35378,"is_reserved":false,"is_disabled":false,"rental_uris":{"android":"levelo://app?vid=be30413e-157e-4183-a401-e3fcdc44d188","ios":"levelo://app?vid=be30413e-157e-4183-a401-e3fcdc44d188"},"vehicle_type_id":"4","last_reported":1746627064,"current_range_meters":6000,"station_id":"cpo3532slgdg3j2ikp40","pricing_plan_id":"cebpf4jnsgd1na2vs0mg"},{"bike_id":"f46ae0d7-03f3-41e1-96db-970fe58465cc","system_id":"levelo_inurba_marseille","lat":43.33008,"lon":5.38259,"is_reserved":false,"is_disabled":false,"rental_uris":{"android":"levelo://app?vid=f46ae0d7-03f3-41e1-96db-970fe58465cc","ios":"levelo://app?vid=f46ae0d7-03f3-41e1-96db-970fe58465cc"},"vehicle_type_id":"4","last_reported":1746627064,"current_range_meters":6400,"station_id":"","pricing_plan_id":"cebpf4jnsgd1na2vs0mg"},{"bike_id":"c9592205-9409-4f74-aed1-7c4141a58caa","system_id":"levelo_inurba_marseille","lat":43.27103,"lon":5.36293,"is_reserved":false,"is_disabled":false,"rental_uris":{"android":"levelo://app?vid=c9592205-9409-4f74-aed1-7c4141a58caa","ios":"levelo://app?vid=c9592205-9409-4f74-aed1-7c4141a58caa"},"vehicle_type_id":"4","last_reported":1746627064,"current_range_meters":6400,"station_id":"","pricing_plan_id":"cebpf4jnsgd1na2vs0mg"},{"bike_id":"63cb73aa-86fe-4599-9b76-3790ec130780","system_id":"levelo_inurba_marseille","lat":43.2958,"lon":5.37856,"is_reserved":false,"is_disabled":false,"rental_uris":{"android":"levelo://app?vid=63cb73aa-86fe-4599-9b76-3790ec130780","ios":"levelo://app?vid=63cb73aa-86fe-4599-9b76-3790ec130780"},"vehicle_type_id":"4","last_reported":1746627064,"current_range_meters":6400,"station_id":"","pricing_plan_id":"cebpf4jnsgd1na2vs0mg"},{"bike_id":"d1c683c4-48a7-4397-81ae-f7b3fedbe606","system_id":"levelo_inurba_marseille","lat":43.29027,"lon":5.38139,"is_reserved":false,"is_disabled":false,"rental_uris":{"android":"levelo://app?vid=d1c683c4-48a7-4397-81ae-f7b3fedbe606","ios":"levelo://app?vid=d1c683c4-48a7-4397-81ae-f7b3fedbe606"},"vehicle_type_id":"4","last_reported":1746627064,"current_range_meters":6400,"station_id":"ce4bh4p2rcd13ifvqe1g","pricing_plan_id":"cebpf4jnsgd1na2vs0mg"},{"bike_id":"c1f2fc8d-b915-4876-a8e4-11e11409e1cb","system_id":"levelo_inurba_marseille","lat":43.28465,"lon":5.35887,"is_reserved":false,"is_disabled":false,"rental_uris":{"android":"levelo://app?vid=c1f2fc8d-b915-4876-a8e4-11e11409e1cb","ios":"levelo://app?vid=c1f2fc8d-b915-4876-a8e4-11e11409e1cb"},"vehicle_type_id":"4","last_reported":1746627064,"current_range_meters":6400,"station_id":"ce4bhah2rcd13ifvqei0","pricing_plan_id":"cebpf4jnsgd1na2vs0mg"},{"bike_id":"ba346170-474b-47a3-b489-92c469084567","system_id":"levelo_inurba_marseille","lat":43.25721,"lon":5.41112,"is_reserved":false,"is_disabled":false,"rental_uris":{"android":"levelo://app?vid=ba346170-474b-47a3-b489-92c469084567","ios":"levelo://app?vid=ba346170-474b-47a3-b489-92c469084567"},"vehicle_type_id":"4","last_reported":1746627064,"current_range_meters":6400,"station_id":"ce4bhkp2rcd13ifvqgd0","pricing_plan_id":"cebpf4jnsgd1na2vs0mg"},{"bike_id":"ad3de5cd-7a93-4480-8ebe-711782231a57","system_id":"levelo_inurba_marseille","lat":43.25121,"lon":5.4035,"is_reserved":false,"is_disabled":false,"rental_uris":{"android":"levelo://app?vid=ad3de5cd-7a93-4480-8ebe-711782231a57","ios":"levelo://app?vid=ad3de5cd-7a93-4480-8ebe-711782231a57"},"vehicle_type_id":"4","last_reported":1746627064,"current_range_meters":6400,"station_id":"ce4bhlh2rcd13ifvqgig","pricing_plan_id":"cebpf4jnsgd1na2vs0mg"},{"bike_id":"dc14f7a4-5db2-4669-bcf2-e93e80b84632","system_id":"levelo_inurba_marseille","lat":43.262235,"lon":5.404436,"is_reserved":false,"is_disabled":false,"rental_uris":{"android":"levelo://app?vid=dc14f7a4-5db2-4669-bcf2-e93e80b84632","ios":"levelo://app?vid=dc14f7a4-5db2-4669-bcf2-e93e80b84632"},"vehicle_type_id":"4","last_reported":1746627064,"current_range_meters":6400,"station_id":"ce4bhmh2rcd13ifvqgmg","pricing_plan_id":"cebpf4jnsgd1na2vs0mg"},{"bike_id":"149af097-398a-4a6f-b95f-841f6b87d36c","system_id":"levelo_inurba_marseille","lat":43.26114,"lon":5.4147,"is_reserved":false,"is_disabled":false,"rental_uris":{"android":"levelo://app?vid=149af097-398a-4a6f-b95f-841f6b87d36c","ios":"levelo://app?vid=149af097-398a-4a6f-b95f-841f6b87d36c"},"vehicle_type_id":"4","last_reported":1746627064,"current_range_meters":6800,"station_id":"","pricing_plan_id":"cebpf4jnsgd1na2vs0mg"},{"bike_id":"be0445e0-d0a5-471a-8d9d-f9b5d44e4813","system_id":"levelo_inurba_marseille","lat":43.2697,"lon":5.38725,"is_reserved":false,"is_disabled":false,"rental_uris":{"android":"levelo://app?vid=be0445e0-d0a5-471a-8d9d-f9b5d44e4813","ios":"levelo://app?vid=be0445e0-d0a5-471a-8d9d-f9b5d44e4813"},"vehicle_type_id":"4","last_reported":1746627064,"current_range_meters":6800,"station_id":"","pricing_plan_id":"cebpf4jnsgd1na2vs0mg"},{"bike_id":"517a2850-729e-4345-95ae-e4fceb0c3ee9","system_id":"levelo_inurba_marseille","lat":43.28082,"lon":5.3966,"is_reserved":false,"is_disabled":false,"rental_uris":{"android":"levelo://app?vid=517a2850-729e-4345-95ae-e4fceb0c3ee9","ios":"levelo://app?vid=517a2850-729e-4345-95ae-e4fceb0c3ee9"},"vehicle_type_id":"4","last_reported":1746627064,"current_range_meters":7200,"station_id":"ce4bho12rcd13ifvqh2g","pricing_plan_id":"cebpf4jnsgd1na2vs0mg"},{"bike_id":"705f1f6f-d92c-4df1-a512-943b0bf79900","system_id":"levelo_inurba_marseille","lat":43.2251,"lon":5.34771,"is_reserved":false,"is_disabled":false,"rental_uris":{"android":"levelo://app?vid=705f1f6f-d92c-4df1-a512-943b0bf79900","ios":"levelo://app?vid=705f1f6f-d92c-4df1-a512-943b0bf79900"},"vehicle_type_id":"4","last_reported":1746627064,"current_range_meters":7200,"station_id":"st_cvj5dfep6f1abm77gieg","pricing_plan_id":"cebpf4jnsgd1na2vs0mg"},{"bike_id":"3185f3bd-afcb-40f2-94a4-747557095a72","system_id":"levelo_inurba_marseille","lat":43.30535,"lon":5.36716,"is_reserved":false,"is_disabled":false,"rental_uris":{"android":"levelo://app?vid=3185f3bd-afcb-40f2-94a4-747557095a72","ios":"levelo://app?vid=3185f3bd-afcb-40f2-94a4-747557095a72"},"vehicle_type_id":"4","last_reported":1746627064,"current_range_meters":8000,"station_id":"ce4bgrp2rcd13ifvqc9g","pricing_plan_id":"cebpf4jnsgd1na2vs0mg"},{"bike_id":"cd2d3520-0b12-4c40-b907-230fcbceb4bf","system_id":"levelo_inurba_marseille","lat":43.29282,"lon":5.36847,"is_reserved":false,"is_disabled":false,"rental_uris":{"android":"levelo://app?vid=cd2d3520-0b12-4c40-b907-230fcbceb4bf","ios":"levelo://app?vid=cd2d3520-0b12-4c40-b907-230fcbceb4bf"},"vehicle_type_id":"4","last_reported":1746627064,"current_range_meters":8000,"station_id":"ce4bhbp2rcd13ifvqesg","pricing_plan_id":"cebpf4jnsgd1na2vs0mg"},{"bike_id":"9e1ba95b-d75d-40c6-9b57-739e63e0aa79","system_id":"levelo_inurba_marseille","lat":43.25584,"lon":5.38241,"is_reserved":false,"is_disabled":false,"rental_uris":{"android":"levelo://app?vid=9e1ba95b-d75d-40c6-9b57-739e63e0aa79","ios":"levelo://app?vid=9e1ba95b-d75d-40c6-9b57-739e63e0aa79"},"vehicle_type_id":"4","last_reported":1746627064,"current_range_meters":8000,"station_id":"ce4bhih2rcd13ifvqfs0","pricing_plan_id":"cebpf4jnsgd1na2vs0mg"},{"bike_id":"f3334c7b-5ae2-4518-9e0b-c73322bb840b","system_id":"levelo_inurba_marseille","lat":43.2971,"lon":5.37691,"is_reserved":false,"is_disabled":false,"rental_uris":{"android":"levelo://app?vid=f3334c7b-5ae2-4518-9e0b-c73322bb840b","ios":"levelo://app?vid=f3334c7b-5ae2-4518-9e0b-c73322bb840b"},"vehicle_type_id":"4","last_reported":1746627064,"current_range_meters":8400,"station_id":"ce4bgkh2rcd13ifvqbl0","pricing_plan_id":"cebpf4jnsgd1na2vs0mg"},{"bike_id":"bd3b2178-bd6a-4801-b79f-10fa8392d3d4","system_id":"levelo_inurba_marseille","lat":43.312234,"lon":5.368624,"is_reserved":false,"is_disabled":false,"rental_uris":{"android":"levelo://app?vid=bd3b2178-bd6a-4801-b79f-10fa8392d3d4","ios":"levelo://app?vid=bd3b2178-bd6a-4801-b79f-10fa8392d3d4"},"vehicle_type_id":"4","last_reported":1746627064,"current_range_meters":8400,"station_id":"ce4bgl92rcd13ifvqbq0","pricing_plan_id":"cebpf4jnsgd1na2vs0mg"},{"bike_id":"ca29b916-aaea-42aa-8794-d9786047ebca","system_id":"levelo_inurba_marseille","lat":43.3233,"lon":5.38291,"is_reserved":false,"is_disabled":false,"rental_uris":{"android":"levelo://app?vid=ca29b916-aaea-42aa-8794-d9786047ebca","ios":"levelo://app?vid=ca29b916-aaea-42aa-8794-d9786047ebca"},"vehicle_type_id":"4","last_reported":1746627064,"current_range_meters":8400,"station_id":"ce4bhr12rcd13ifvqhqg","pricing_plan_id":"cebpf4jnsgd1na2vs0mg"},{"bike_id":"07fae078-a6c2-41d4-91ba-4724363fce09","system_id":"levelo_inurba_marseille","lat":43.32107,"lon":5.3678,"is_reserved":false,"is_disabled":false,"rental_uris":{"android":"levelo://app?vid=07fae078-a6c2-41d4-91ba-4724363fce09","ios":"levelo://app?vid=07fae078-a6c2-41d4-91ba-4724363fce09"},"vehicle_type_id":"4","last_reported":1746627064,"current_range_meters":8400,"station_id":"ce4bhrh2rcd13ifvqhug","pricing_plan_id":"cebpf4jnsgd1na2vs0mg"},{"bike_id":"08ea6f8f-9116-4e31-9999-5d79b3869923","system_id":"levelo_inurba_marseille","lat":43.309718,"lon":5.373507,"is_reserved":false,"is_disabled":false,"rental_uris":{"android":"levelo://app?vid=08ea6f8f-9116-4e31-9999-5d79b3869923","ios":"levelo://app?vid=08ea6f8f-9116-4e31-9999-5d79b3869923"},"vehicle_type_id":"4","last_reported":1746627064,"current_range_meters":8800,"station_id":"","pricing_plan_id":"cebpf4jnsgd1na2vs0mg"},{"bike_id":"a03fe18c-4de5-472e-b2c6-cb3fdeefbc3b","system_id":"levelo_inurba_marseille","lat":43.29009,"lon":5.35614,"is_reserved":false,"is_disabled":false,"rental_uris":{"android":"levelo://app?vid=a03fe18c-4de5-472e-b2c6-cb3fdeefbc3b","ios":"levelo://app?vid=a03fe18c-4de5-472e-b2c6-cb3fdeefbc3b"},"vehicle_type_id":"4","last_reported":1746627064,"current_range_meters":8800,"station_id":"ce4bhb92rcd13ifvqen0","pricing_plan_id":"cebpf4jnsgd1na2vs0mg"},{"bike_id":"c7741849-e541-44df-8dea-1d3f1b8cc5f0","system_id":"levelo_inurba_marseille","lat":43.330135,"lon":5.390379,"is_reserved":false,"is_disabled":false,"rental_uris":{"android":"levelo://app?vid=c7741849-e541-44df-8dea-1d3f1b8cc5f0","ios":"levelo://app?vid=c7741849-e541-44df-8dea-1d3f1b8cc5f0"},"vehicle_type_id":"4","last_reported":1746627064,"current_range_meters":8800,"station_id":"ce4bhr92rcd13ifvqhrg","pricing_plan_id":"cebpf4jnsgd1na2vs0mg"},{"bike_id":"4b0b3b82-acbc-4439-9e11-5cfab8d38ebe","system_id":"levelo_inurba_marseille","lat":43.29422,"lon":5.38619,"is_reserved":false,"is_disabled":false,"rental_uris":{"android":"levelo://app?vid=4b0b3b82-acbc-4439-9e11-5cfab8d38ebe","ios":"levelo://app?vid=4b0b3b82-acbc-4439-9e11-5cfab8d38ebe"},"vehicle_type_id":"4","last_reported":1746627064,"current_range_meters":9200,"station_id":"ce4bh2h2rcd13ifvqdh0","pricing_plan_id":"cebpf4jnsgd1na2vs0mg"},{"bike_id":"48cd3ab7-2841-4bb0-8023-fd159fa18fa0","system_id":"levelo_inurba_marseille","lat":43.28855,"lon":5.39304,"is_reserved":false,"is_disabled":false,"rental_uris":{"android":"levelo://app?vid=48cd3ab7-2841-4bb0-8023-fd159fa18fa0","ios":"levelo://app?vid=48cd3ab7-2841-4bb0-8023-fd159fa18fa0"},"vehicle_type_id":"4","last_reported":1746627064,"current_range_meters":9200,"station_id":"ce4bh2p2rcd13ifvqdi0","pricing_plan_id":"cebpf4jnsgd1na2vs0mg"},{"bike_id":"5df66504-fbf4-4e94-b024-6612c0e8a207","system_id":"levelo_inurba_marseille","lat":43.239614,"lon":5.366292,"is_reserved":false,"is_disabled":false,"rental_uris":{"android":"levelo://app?vid=5df66504-fbf4-4e94-b024-6612c0e8a207","ios":"levelo://app?vid=5df66504-fbf4-4e94-b024-6612c0e8a207"},"vehicle_type_id":"4","last_reported":1746627064,"current_range_meters":9200,"station_id":"ce4bhi12rcd13ifvqfp0","pricing_plan_id":"cebpf4jnsgd1na2vs0mg"},{"bike_id":"9ccc914b-88b1-4fad-9ae3-18a5d3a4419f","system_id":"levelo_inurba_marseille","lat":43.30888,"lon":5.39634,"is_reserved":false,"is_disabled":false,"rental_uris":{"android":"levelo://app?vid=9ccc914b-88b1-4fad-9ae3-18a5d3a4419f","ios":"levelo://app?vid=9ccc914b-88b1-4fad-9ae3-18a5d3a4419f"},"vehicle_type_id":"4","last_reported":1746627064,"current_range_meters":9600,"station_id":"ce4bh012rcd13ifvqcv0","pricing_plan_id":"cebpf4jnsgd1na2vs0mg"},{"bike_id":"f222666a-f926-4214-8dce-d77fc865974c","system_id":"levelo_inurba_marseille","lat":43.30131,"lon":5.39881,"is_reserved":false,"is_disabled":false,"rental_uris":{"android":"levelo://app?vid=f222666a-f926-4214-8dce-d77fc865974c","ios":"levelo://app?vid=f222666a-f926-4214-8dce-d77fc865974c"},"vehicle_type_id":"4","last_reported":1746627064,"current_range_meters":9600,"station_id":"ce4bh0h2rcd13ifvqd40","pricing_plan_id":"cebpf4jnsgd1na2vs0mg"},{"bike_id":"1cbd65fc-d4b4-4619-9cff-e67b436685cd","system_id":"levelo_inurba_marseille","lat":43.24665,"lon":5.38167,"is_reserved":false,"is_disabled":false,"rental_uris":{"android":"levelo://app?vid=1cbd65fc-d4b4-4619-9cff-e67b436685cd","ios":"levelo://app?vid=1cbd65fc-d4b4-4619-9cff-e67b436685cd"},"vehicle_type_id":"4","last_reported":1746627064,"current_range_meters":9600,"station_id":"ce4bhih2rcd13ifvqfr0","pricing_plan_id":"cebpf4jnsgd1na2vs0mg"},{"bike_id":"a524d281-48d6-4048-b44f-f523b41a3289","system_id":"levelo_inurba_marseille","lat":43.2558,"lon":5.38226,"is_reserved":false,"is_disabled":false,"rental_uris":{"android":"levelo://app?vid=a524d281-48d6-4048-b44f-f523b41a3289","ios":"levelo://app?vid=a524d281-48d6-4048-b44f-f523b41a3289"},"vehicle_type_id":"4","last_reported":1746627064,"current_range_meters":9600,"station_id":"ce4bhih2rcd13ifvqfs0","pricing_plan_id":"cebpf4jnsgd1na2vs0mg"},{"bike_id":"df1939c7-3d1a-4dce-96ce-f615c4061e34","system_id":"levelo_inurba_marseille","lat":43.24176,"lon":5.39739,"is_reserved":false,"is_disabled":false,"rental_uris":{"android":"levelo://app?vid=df1939c7-3d1a-4dce-96ce-f615c4061e34","ios":"levelo://app?vid=df1939c7-3d1a-4dce-96ce-f615c4061e34"},"vehicle_type_id":"4","last_reported":1746627064,"current_range_meters":9600,"station_id":"ce4bhn12rcd13ifvqgpg","pricing_plan_id":"cebpf4jnsgd1na2vs0mg"},{"bike_id":"b7bdbe3a-b7ec-4256-908f-dfa71835a5d1","system_id":"levelo_inurba_marseille","lat":43.28607,"lon":5.37069,"is_reserved":false,"is_disabled":false,"rental_uris":{"android":"levelo://app?vid=b7bdbe3a-b7ec-4256-908f-dfa71835a5d1","ios":"levelo://app?vid=b7bdbe3a-b7ec-4256-908f-dfa71835a5d1"},"vehicle_type_id":"4","last_reported":1746627064,"current_range_meters":9600,"station_id":"ce4bht12rcd13ifvqi60","pricing_plan_id":"cebpf4jnsgd1na2vs0mg"},{"bike_id":"d4d914fc-08d1-48f6-8d44-5e9de67a814c","system_id":"levelo_inurba_marseille","lat":43.28961,"lon":5.37837,"is_reserved":false,"is_disabled":false,"rental_uris":{"android":"levelo://app?vid=d4d914fc-08d1-48f6-8d44-5e9de67a814c","ios":"levelo://app?vid=d4d914fc-08d1-48f6-8d44-5e9de67a814c"},"vehicle_type_id":"4","last_reported":1746627064,"current_range_meters":10000,"station_id":"","pricing_plan_id":"cebpf4jnsgd1na2vs0mg"},{"bike_id":"741922f7-49ff-4751-a228-5a73f2c8c24d","system_id":"levelo_inurba_marseille","lat":43.241701,"lon":5.364024,"is_reserved":false,"is_disabled":false,"rental_uris":{"android":"levelo://app?vid=741922f7-49ff-4751-a228-5a73f2c8c24d","ios":"levelo://app?vid=741922f7-49ff-4751-a228-5a73f2c8c24d"},"vehicle_type_id":"4","last_reported":1746627064,"current_range_meters":10000,"station_id":"cpo36qri1sfpv3e86is0","pricing_plan_id":"cebpf4jnsgd1na2vs0mg"},{"bike_id":"ca2a003c-f55e-4791-aea1-9813c49d89d0","system_id":"levelo_inurba_marseille","lat":43.28607,"lon":5.35098,"is_reserved":false,"is_disabled":false,"rental_uris":{"android":"levelo://app?vid=ca2a003c-f55e-4791-aea1-9813c49d89d0","ios":"levelo://app?vid=ca2a003c-f55e-4791-aea1-9813c49d89d0"},"vehicle_type_id":"4","last_reported":1746627064,"current_range_meters":10800,"station_id":"","pricing_plan_id":"cebpf4jnsgd1na2vs0mg"},{"bike_id":"60573141-0815-4eaf-b783-98e36d13d284","system_id":"levelo_inurba_marseille","lat":43.29889,"lon":5.38895,"is_reserved":false,"is_disabled":false,"rental_uris":{"android":"levelo://app?vid=60573141-0815-4eaf-b783-98e36d13d284","ios":"levelo://app?vid=60573141-0815-4eaf-b783-98e36d13d284"},"vehicle_type_id":"4","last_reported":1746627064,"current_range_meters":10800,"station_id":"ce4bh392rcd13ifvqdl0","pricing_plan_id":"cebpf4jnsgd1na2vs0mg"},{"bike_id":"a1fb4304-367b-43db-9489-d91bda900488","system_id":"levelo_inurba_marseille","lat":43.27363,"lon":5.36234,"is_reserved":false,"is_disabled":false,"rental_uris":{"android":"levelo://app?vid=a1fb4304-367b-43db-9489-d91bda900488","ios":"levelo://app?vid=a1fb4304-367b-43db-9489-d91bda900488"},"vehicle_type_id":"4","last_reported":1746627064,"current_range_meters":10800,"station_id":"ce4bhbh2rcd13ifvqeo0","pricing_plan_id":"cebpf4jnsgd1na2vs0mg"},{"bike_id":"b7a492e6-8d69-4964-801e-de9f1b5e04d3","system_id":"levelo_inurba_marseille","lat":43.26565,"lon":5.39031,"is_reserved":false,"is_disabled":false,"rental_uris":{"android":"levelo://app?vid=b7a492e6-8d69-4964-801e-de9f1b5e04d3","ios":"levelo://app?vid=b7a492e6-8d69-4964-801e-de9f1b5e04d3"},"vehicle_type_id":"4","last_reported":1746627064,"current_range_meters":10800,"station_id":"ce4bhe12rcd13ifvqf30","pricing_plan_id":"cebpf4jnsgd1na2vs0mg"},{"bike_id":"37094428-8acd-4179-93af-1ecb8009d848","system_id":"levelo_inurba_marseille","lat":43.31761,"lon":5.39017,"is_reserved":false,"is_disabled":false,"rental_uris":{"android":"levelo://app?vid=37094428-8acd-4179-93af-1ecb8009d848","ios":"levelo://app?vid=37094428-8acd-4179-93af-1ecb8009d848"},"vehicle_type_id":"4","last_reported":1746627064,"current_range_meters":10800,"station_id":"ce4bhqp2rcd13ifvqhng","pricing_plan_id":"cebpf4jnsgd1na2vs0mg"},{"bike_id":"89420609-8590-4e4d-9042-8fb0e02b5686","system_id":"levelo_inurba_marseille","lat":43.241717,"lon":5.363953,"is_reserved":false,"is_disabled":false,"rental_uris":{"android":"levelo://app?vid=89420609-8590-4e4d-9042-8fb0e02b5686","ios":"levelo://app?vid=89420609-8590-4e4d-9042-8fb0e02b5686"},"vehicle_type_id":"4","last_reported":1746627064,"current_range_meters":10800,"station_id":"cpo36qri1sfpv3e86is0","pricing_plan_id":"cebpf4jnsgd1na2vs0mg"},{"bike_id":"543dda91-1024-4543-91a2-209a0349c337","system_id":"levelo_inurba_marseille","lat":43.29562,"lon":5.42292,"is_reserved":false,"is_disabled":false,"rental_uris":{"android":"levelo://app?vid=543dda91-1024-4543-91a2-209a0349c337","ios":"levelo://app?vid=543dda91-1024-4543-91a2-209a0349c337"},"vehicle_type_id":"4","last_reported":1746627064,"current_range_meters":11200,"station_id":"ce4bhph2rcd13ifvqhdg","pricing_plan_id":"cebpf4jnsgd1na2vs0mg"},{"bike_id":"1cb8737d-c92f-4439-9e31-47b11fd0ae82","system_id":"levelo_inurba_marseille","lat":43.31361,"lon":5.38486,"is_reserved":false,"is_disabled":false,"rental_uris":{"android":"levelo://app?vid=1cb8737d-c92f-4439-9e31-47b11fd0ae82","ios":"levelo://app?vid=1cb8737d-c92f-4439-9e31-47b11fd0ae82"},"vehicle_type_id":"4","last_reported":1746627064,"current_range_meters":11600,"station_id":"ce4bgt92rcd13ifvqcf0","pricing_plan_id":"cebpf4jnsgd1na2vs0mg"},{"bike_id":"31c4615a-5a90-4db7-b39a-7c3a88c1d021","system_id":"levelo_inurba_marseille","lat":43.31362,"lon":5.38491,"is_reserved":false,"is_disabled":false,"rental_uris":{"android":"levelo://app?vid=31c4615a-5a90-4db7-b39a-7c3a88c1d021","ios":"levelo://app?vid=31c4615a-5a90-4db7-b39a-7c3a88c1d021"},"vehicle_type_id":"4","last_reported":1746627064,"current_range_meters":11600,"station_id":"ce4bgt92rcd13ifvqcf0","pricing_plan_id":"cebpf4jnsgd1na2vs0mg"},{"bike_id":"30027beb-7624-4fea-b310-5f6246011bf5","system_id":"levelo_inurba_marseille","lat":43.27675,"lon":5.38864,"is_reserved":false,"is_disabled":false,"rental_uris":{"android":"levelo://app?vid=30027beb-7624-4fea-b310-5f6246011bf5","ios":"levelo://app?vid=30027beb-7624-4fea-b310-5f6246011bf5"},"vehicle_type_id":"4","last_reported":1746627064,"current_range_meters":11600,"station_id":"ce4bhi12rcd13ifvqfo0","pricing_plan_id":"cebpf4jnsgd1na2vs0mg"},{"bike_id":"b6e3acc3-f0a7-4f93-bd7b-2efdc6dc0583","system_id":"levelo_inurba_marseille","lat":43.2629,"lon":5.37409,"is_reserved":false,"is_disabled":false,"rental_uris":{"android":"levelo://app?vid=b6e3acc3-f0a7-4f93-bd7b-2efdc6dc0583","ios":"levelo://app?vid=b6e3acc3-f0a7-4f93-bd7b-2efdc6dc0583"},"vehicle_type_id":"4","last_reported":1746627064,"current_range_meters":12000,"station_id":"","pricing_plan_id":"cebpf4jnsgd1na2vs0mg"},{"bike_id":"a96833c3-7aad-4769-953e-d8192a324355","system_id":"levelo_inurba_marseille","lat":43.337444,"lon":5.374475,"is_reserved":false,"is_disabled":false,"rental_uris":{"android":"levelo://app?vid=a96833c3-7aad-4769-953e-d8192a324355","ios":"levelo://app?vid=a96833c3-7aad-4769-953e-d8192a324355"},"vehicle_type_id":"4","last_reported":1746627064,"current_range_meters":12000,"station_id":"","pricing_plan_id":"cebpf4jnsgd1na2vs0mg"},{"bike_id":"85fbad37-0b58-449d-a200-b4ee2c9b50fa","system_id":"levelo_inurba_marseille","lat":43.299215,"lon":5.374859,"is_reserved":false,"is_disabled":false,"rental_uris":{"android":"levelo://app?vid=85fbad37-0b58-449d-a200-b4ee2c9b50fa","ios":"levelo://app?vid=85fbad37-0b58-449d-a200-b4ee2c9b50fa"},"vehicle_type_id":"4","last_reported":1746627064,"current_range_meters":12000,"station_id":"ce4bgjh2rcd13ifvqbg0","pricing_plan_id":"cebpf4jnsgd1na2vs0mg"},{"bike_id":"32689138-b52e-4046-8b68-29f94f36c3c5","system_id":"levelo_inurba_marseille","lat":43.31702,"lon":5.37729,"is_reserved":false,"is_disabled":false,"rental_uris":{"android":"levelo://app?vid=32689138-b52e-4046-8b68-29f94f36c3c5","ios":"levelo://app?vid=32689138-b52e-4046-8b68-29f94f36c3c5"},"vehicle_type_id":"4","last_reported":1746627064,"current_range_meters":12000,"station_id":"ce4bgth2rcd13ifvqch0","pricing_plan_id":"cebpf4jnsgd1na2vs0mg"},{"bike_id":"dd8a3b62-0e9e-4e30-a09c-9479456c5568","system_id":"levelo_inurba_marseille","lat":43.29272,"lon":5.36848,"is_reserved":false,"is_disabled":false,"rental_uris":{"android":"levelo://app?vid=dd8a3b62-0e9e-4e30-a09c-9479456c5568","ios":"levelo://app?vid=dd8a3b62-0e9e-4e30-a09c-9479456c5568"},"vehicle_type_id":"4","last_reported":1746627064,"current_range_meters":12000,"station_id":"ce4bhbp2rcd13ifvqesg","pricing_plan_id":"cebpf4jnsgd1na2vs0mg"},{"bike_id":"65a029e4-2630-4624-8ec7-bcf9b5dd7c31","system_id":"levelo_inurba_marseille","lat":43.27917,"lon":5.39573,"is_reserved":false,"is_disabled":false,"rental_uris":{"android":"levelo://app?vid=65a029e4-2630-4624-8ec7-bcf9b5dd7c31","ios":"levelo://app?vid=65a029e4-2630-4624-8ec7-bcf9b5dd7c31"},"vehicle_type_id":"4","last_reported":1746627064,"current_range_meters":12000,"station_id":"ce4bhf92rcd13ifvqf40","pricing_plan_id":"cebpf4jnsgd1na2vs0mg"},{"bike_id":"3efa8577-f404-454a-a9a1-24e47819dab8","system_id":"levelo_inurba_marseille","lat":43.23964,"lon":5.36635,"is_reserved":false,"is_disabled":false,"rental_uris":{"android":"levelo://app?vid=3efa8577-f404-454a-a9a1-24e47819dab8","ios":"levelo://app?vid=3efa8577-f404-454a-a9a1-24e47819dab8"},"vehicle_type_id":"4","last_reported":1746627064,"current_range_meters":12000,"station_id":"ce4bhi12rcd13ifvqfp0","pricing_plan_id":"cebpf4jnsgd1na2vs0mg"},{"bike_id":"656521ee-4f14-4c6b-aaec-84ac797faec1","system_id":"levelo_inurba_marseille","lat":43.24664,"lon":5.38166,"is_reserved":false,"is_disabled":false,"rental_uris":{"android":"levelo://app?vid=656521ee-4f14-4c6b-aaec-84ac797faec1","ios":"levelo://app?vid=656521ee-4f14-4c6b-aaec-84ac797faec1"},"vehicle_type_id":"4","last_reported":1746627064,"current_range_meters":12000,"station_id":"ce4bhih2rcd13ifvqfr0","pricing_plan_id":"cebpf4jnsgd1na2vs0mg"},{"bike_id":"438ec6ca-46d2-4acd-bb65-ab5fd6749423","system_id":"levelo_inurba_marseille","lat":43.25935,"lon":5.40922,"is_reserved":false,"is_disabled":false,"rental_uris":{"android":"levelo://app?vid=438ec6ca-46d2-4acd-bb65-ab5fd6749423","ios":"levelo://app?vid=438ec6ca-46d2-4acd-bb65-ab5fd6749423"},"vehicle_type_id":"4","last_reported":1746627064,"current_range_meters":12000,"station_id":"ce4bhm92rcd13ifvqglg","pricing_plan_id":"cebpf4jnsgd1na2vs0mg"},{"bike_id":"6392babc-10a3-46a5-afd8-4ab778feb564","system_id":"levelo_inurba_marseille","lat":43.27816,"lon":5.40707,"is_reserved":false,"is_disabled":false,"rental_uris":{"android":"levelo://app?vid=6392babc-10a3-46a5-afd8-4ab778feb564","ios":"levelo://app?vid=6392babc-10a3-46a5-afd8-4ab778feb564"},"vehicle_type_id":"4","last_reported":1746627064,"current_range_meters":12000,"station_id":"ce4bhnh2rcd13ifvqgtg","pricing_plan_id":"cebpf4jnsgd1na2vs0mg"},{"bike_id":"6cd8678d-7aff-4785-88bb-cbec805028d9","system_id":"levelo_inurba_marseille","lat":43.29558,"lon":5.4229,"is_reserved":false,"is_disabled":false,"rental_uris":{"android":"levelo://app?vid=6cd8678d-7aff-4785-88bb-cbec805028d9","ios":"levelo://app?vid=6cd8678d-7aff-4785-88bb-cbec805028d9"},"vehicle_type_id":"4","last_reported":1746627064,"current_range_meters":12000,"station_id":"ce4bhph2rcd13ifvqhdg","pricing_plan_id":"cebpf4jnsgd1na2vs0mg"},{"bike_id":"26346828-3bdc-4d5e-a933-008e010c6706","system_id":"levelo_inurba_marseille","lat":43.3211,"lon":5.36793,"is_reserved":false,"is_disabled":false,"rental_uris":{"android":"levelo://app?vid=26346828-3bdc-4d5e-a933-008e010c6706","ios":"levelo://app?vid=26346828-3bdc-4d5e-a933-008e010c6706"},"vehicle_type_id":"4","last_reported":1746627064,"current_range_meters":12000,"station_id":"ce4bhrh2rcd13ifvqhug","pricing_plan_id":"cebpf4jnsgd1na2vs0mg"},{"bike_id":"2611448c-3122-4b9a-829b-b230094fb5bd","system_id":"levelo_inurba_marseille","lat":43.29533,"lon":5.38535,"is_reserved":false,"is_disabled":false,"rental_uris":{"android":"levelo://app?vid=2611448c-3122-4b9a-829b-b230094fb5bd","ios":"levelo://app?vid=2611448c-3122-4b9a-829b-b230094fb5bd"},"vehicle_type_id":"4","last_reported":1746627064,"current_range_meters":12400,"station_id":"ce4bgih2rcd13ifvqba0","pricing_plan_id":"cebpf4jnsgd1na2vs0mg"},{"bike_id":"36498492-46af-4911-81d0-d7d91b40df7b","system_id":"levelo_inurba_marseille","lat":43.30795,"lon":5.38159,"is_reserved":false,"is_disabled":false,"rental_uris":{"android":"levelo://app?vid=36498492-46af-4911-81d0-d7d91b40df7b","ios":"levelo://app?vid=36498492-46af-4911-81d0-d7d91b40df7b"},"vehicle_type_id":"4","last_reported":1746627064,"current_range_meters":12400,"station_id":"ce4bgt12rcd13ifvqce0","pricing_plan_id":"cebpf4jnsgd1na2vs0mg"},{"bike_id":"b0187978-ac45-4af6-8921-fd74720a4498","system_id":"levelo_inurba_marseille","lat":43.26792,"lon":5.39427,"is_reserved":false,"is_disabled":false,"rental_uris":{"android":"levelo://app?vid=b0187978-ac45-4af6-8921-fd74720a4498","ios":"levelo://app?vid=b0187978-ac45-4af6-8921-fd74720a4498"},"vehicle_type_id":"4","last_reported":1746627064,"current_range_meters":12400,"station_id":"ce4bhh12rcd13ifvqfg0","pricing_plan_id":"cebpf4jnsgd1na2vs0mg"},{"bike_id":"5dc752fc-9796-411a-a3a9-49c45eb55519","system_id":"levelo_inurba_marseille","lat":43.2319,"lon":5.35536,"is_reserved":false,"is_disabled":false,"rental_uris":{"android":"levelo://app?vid=5dc752fc-9796-411a-a3a9-49c45eb55519","ios":"levelo://app?vid=5dc752fc-9796-411a-a3a9-49c45eb55519"},"vehicle_type_id":"4","last_reported":1746627064,"current_range_meters":12400,"station_id":"ce4bhu92rcd13ifvqi70","pricing_plan_id":"cebpf4jnsgd1na2vs0mg"},{"bike_id":"da969974-22aa-46db-8410-739525a3b9a9","system_id":"levelo_inurba_marseille","lat":43.22937,"lon":5.35376,"is_reserved":false,"is_disabled":false,"rental_uris":{"android":"levelo://app?vid=da969974-22aa-46db-8410-739525a3b9a9","ios":"levelo://app?vid=da969974-22aa-46db-8410-739525a3b9a9"},"vehicle_type_id":"4","last_reported":1746627064,"current_range_meters":12400,"station_id":"cpo3532slgdg3j2ikp40","pricing_plan_id":"cebpf4jnsgd1na2vs0mg"},{"bike_id":"224c81d7-37ad-42de-bf19-0a5f54c8d904","system_id":"levelo_inurba_marseille","lat":43.29872,"lon":5.39732,"is_reserved":false,"is_disabled":false,"rental_uris":{"android":"levelo://app?vid=224c81d7-37ad-42de-bf19-0a5f54c8d904","ios":"levelo://app?vid=224c81d7-37ad-42de-bf19-0a5f54c8d904"},"vehicle_type_id":"4","last_reported":1746627064,"current_range_meters":12800,"station_id":"ce4bh0h2rcd13ifvqd50","pricing_plan_id":"cebpf4jnsgd1na2vs0mg"},{"bike_id":"f4021ba0-09d0-4601-ad85-69cd2964b480","system_id":"levelo_inurba_marseille","lat":43.26554,"lon":5.3729,"is_reserved":false,"is_disabled":false,"rental_uris":{"android":"levelo://app?vid=f4021ba0-09d0-4601-ad85-69cd2964b480","ios":"levelo://app?vid=f4021ba0-09d0-4601-ad85-69cd2964b480"},"vehicle_type_id":"4","last_reported":1746627064,"current_range_meters":12800,"station_id":"ce4bhg12rcd13ifvqf70","pricing_plan_id":"cebpf4jnsgd1na2vs0mg"},{"bike_id":"5a5305b4-8487-4059-b838-b650c1b75916","system_id":"levelo_inurba_marseille","lat":43.30358,"lon":5.41875,"is_reserved":false,"is_disabled":false,"rental_uris":{"android":"levelo://app?vid=5a5305b4-8487-4059-b838-b650c1b75916","ios":"levelo://app?vid=5a5305b4-8487-4059-b838-b650c1b75916"},"vehicle_type_id":"4","last_reported":1746627064,"current_range_meters":12800,"station_id":"ce4bhop2rcd13ifvqh7g","pricing_plan_id":"cebpf4jnsgd1na2vs0mg"},{"bike_id":"f73bdcaf-9dd7-4292-92b6-d0343e4326b7","system_id":"levelo_inurba_marseille","lat":43.25583,"lon":5.38227,"is_reserved":false,"is_disabled":false,"rental_uris":{"android":"levelo://app?vid=f73bdcaf-9dd7-4292-92b6-d0343e4326b7","ios":"levelo://app?vid=f73bdcaf-9dd7-4292-92b6-d0343e4326b7"},"vehicle_type_id":"4","last_reported":1746627064,"current_range_meters":13600,"station_id":"ce4bhih2rcd13ifvqfs0","pricing_plan_id":"cebpf4jnsgd1na2vs0mg"},{"bike_id":"892a3cb4-6ec1-4ceb-9e1d-15218cf12dd2","system_id":"levelo_inurba_marseille","lat":43.26033,"lon":5.37544,"is_reserved":false,"is_disabled":false,"rental_uris":{"android":"levelo://app?vid=892a3cb4-6ec1-4ceb-9e1d-15218cf12dd2","ios":"levelo://app?vid=892a3cb4-6ec1-4ceb-9e1d-15218cf12dd2"},"vehicle_type_id":"4","last_reported":1746627064,"current_range_meters":14000,"station_id":"ce4bhgh2rcd13ifvqfa0","pricing_plan_id":"cebpf4jnsgd1na2vs0mg"},{"bike_id":"a006d141-6d83-4b32-ab48-32ff783e633d","system_id":"levelo_inurba_marseille","lat":43.30619,"lon":5.37219,"is_reserved":false,"is_disabled":false,"rental_uris":{"android":"levelo://app?vid=a006d141-6d83-4b32-ab48-32ff783e633d","ios":"levelo://app?vid=a006d141-6d83-4b32-ab48-32ff783e633d"},"vehicle_type_id":"4","last_reported":1746627064,"current_range_meters":14400,"station_id":"ce4bgqh2rcd13ifvqc4g","pricing_plan_id":"cebpf4jnsgd1na2vs0mg"},{"bike_id":"5080b79b-b243-4981-950f-b4c45da0560d","system_id":"levelo_inurba_marseille","lat":43.25927,"lon":5.40886,"is_reserved":false,"is_disabled":false,"rental_uris":{"android":"levelo://app?vid=5080b79b-b243-4981-950f-b4c45da0560d","ios":"levelo://app?vid=5080b79b-b243-4981-950f-b4c45da0560d"},"vehicle_type_id":"4","last_reported":1746627064,"current_range_meters":14400,"station_id":"ce4bhm92rcd13ifvqglg","pricing_plan_id":"cebpf4jnsgd1na2vs0mg"},{"bike_id":"e945a495-d359-4bb7-bb94-1340aff95955","system_id":"levelo_inurba_marseille","lat":43.28125,"lon":5.40627,"is_reserved":false,"is_disabled":false,"rental_uris":{"android":"levelo://app?vid=e945a495-d359-4bb7-bb94-1340aff95955","ios":"levelo://app?vid=e945a495-d359-4bb7-bb94-1340aff95955"},"vehicle_type_id":"4","last_reported":1746627064,"current_range_meters":14800,"station_id":"","pricing_plan_id":"cebpf4jnsgd1na2vs0mg"},{"bike_id":"8d5dbba9-0928-4218-8a48-5c2aea1a4f12","system_id":"levelo_inurba_marseille","lat":43.22924,"lon":5.35391,"is_reserved":false,"is_disabled":false,"rental_uris":{"android":"levelo://app?vid=8d5dbba9-0928-4218-8a48-5c2aea1a4f12","ios":"levelo://app?vid=8d5dbba9-0928-4218-8a48-5c2aea1a4f12"},"vehicle_type_id":"4","last_reported":1746627064,"current_range_meters":14800,"station_id":"cpo3532slgdg3j2ikp40","pricing_plan_id":"cebpf4jnsgd1na2vs0mg"},{"bike_id":"693e409e-f47d-4be9-b26f-8a802adf3777","system_id":"levelo_inurba_marseille","lat":43.25013,"lon":5.38933,"is_reserved":false,"is_disabled":false,"rental_uris":{"android":"levelo://app?vid=693e409e-f47d-4be9-b26f-8a802adf3777","ios":"levelo://app?vid=693e409e-f47d-4be9-b26f-8a802adf3777"},"vehicle_type_id":"4","last_reported":1746627064,"current_range_meters":15200,"station_id":"ce4bhgp2rcd13ifvqfd0","pricing_plan_id":"cebpf4jnsgd1na2vs0mg"},{"bike_id":"06238716-fbf7-4ce3-96fc-6b67928ee9f8","system_id":"levelo_inurba_marseille","lat":43.29968,"lon":5.38499,"is_reserved":false,"is_disabled":false,"rental_uris":{"android":"levelo://app?vid=06238716-fbf7-4ce3-96fc-6b67928ee9f8","ios":"levelo://app?vid=06238716-fbf7-4ce3-96fc-6b67928ee9f8"},"vehicle_type_id":"4","last_reported":1746627064,"current_range_meters":16000,"station_id":"ce4bgj92rcd13ifvqbd0","pricing_plan_id":"cebpf4jnsgd1na2vs0mg"},{"bike_id":"d3323fc0-a213-4171-90e6-7b820412bdc2","system_id":"levelo_inurba_marseille","lat":43.24677,"lon":5.38145,"is_reserved":false,"is_disabled":false,"rental_uris":{"android":"levelo://app?vid=d3323fc0-a213-4171-90e6-7b820412bdc2","ios":"levelo://app?vid=d3323fc0-a213-4171-90e6-7b820412bdc2"},"vehicle_type_id":"4","last_reported":1746627064,"current_range_meters":16000,"station_id":"ce4bhih2rcd13ifvqfr0","pricing_plan_id":"cebpf4jnsgd1na2vs0mg"},{"bike_id":"81d9e756-e611-4379-b626-5e6439c21fb6","system_id":"levelo_inurba_marseille","lat":43.323537,"lon":5.406103,"is_reserved":false,"is_disabled":false,"rental_uris":{"android":"levelo://app?vid=81d9e756-e611-4379-b626-5e6439c21fb6","ios":"levelo://app?vid=81d9e756-e611-4379-b626-5e6439c21fb6"},"vehicle_type_id":"4","last_reported":1746627064,"current_range_meters":16000,"station_id":"ce4bhq92rcd13ifvqhjg","pricing_plan_id":"cebpf4jnsgd1na2vs0mg"},{"bike_id":"e6282093-23fb-41a9-859d-c0d9ad966535","system_id":"levelo_inurba_marseille","lat":43.31623,"lon":5.3842,"is_reserved":false,"is_disabled":false,"rental_uris":{"android":"levelo://app?vid=e6282093-23fb-41a9-859d-c0d9ad966535","ios":"levelo://app?vid=e6282093-23fb-41a9-859d-c0d9ad966535"},"vehicle_type_id":"4","last_reported":1746627064,"current_range_meters":16400,"station_id":"","pricing_plan_id":"cebpf4jnsgd1na2vs0mg"},{"bike_id":"e0e541af-5956-4344-affc-9b5bf45dc66d","system_id":"levelo_inurba_marseille","lat":43.29785,"lon":5.37095,"is_reserved":false,"is_disabled":false,"rental_uris":{"android":"levelo://app?vid=e0e541af-5956-4344-affc-9b5bf45dc66d","ios":"levelo://app?vid=e0e541af-5956-4344-affc-9b5bf45dc66d"},"vehicle_type_id":"4","last_reported":1746627064,"current_range_meters":16400,"station_id":"ce4bgop2rcd13ifvqc1g","pricing_plan_id":"cebpf4jnsgd1na2vs0mg"},{"bike_id":"71ce8fbd-fd4e-48bf-ab3d-24656e8ee0cf","system_id":"levelo_inurba_marseille","lat":43.30433,"lon":5.41274,"is_reserved":false,"is_disabled":false,"rental_uris":{"android":"levelo://app?vid=71ce8fbd-fd4e-48bf-ab3d-24656e8ee0cf","ios":"levelo://app?vid=71ce8fbd-fd4e-48bf-ab3d-24656e8ee0cf"},"vehicle_type_id":"4","last_reported":1746627064,"current_range_meters":16400,"station_id":"ce4bhop2rcd13ifvqh8g","pricing_plan_id":"cebpf4jnsgd1na2vs0mg"},{"bike_id":"4aae8f2e-5422-4b0e-be12-8def74dd8bcf","system_id":"levelo_inurba_marseille","lat":43.330288,"lon":5.390462,"is_reserved":false,"is_disabled":false,"rental_uris":{"android":"levelo://app?vid=4aae8f2e-5422-4b0e-be12-8def74dd8bcf","ios":"levelo://app?vid=4aae8f2e-5422-4b0e-be12-8def74dd8bcf"},"vehicle_type_id":"4","last_reported":1746627064,"current_range_meters":16400,"station_id":"ce4bhr92rcd13ifvqhrg","pricing_plan_id":"cebpf4jnsgd1na2vs0mg"},{"bike_id":"b328ddd8-3777-44b4-8fad-8f706c3a3ace","system_id":"levelo_inurba_marseille","lat":43.30996,"lon":5.37215,"is_reserved":false,"is_disabled":false,"rental_uris":{"android":"levelo://app?vid=b328ddd8-3777-44b4-8fad-8f706c3a3ace","ios":"levelo://app?vid=b328ddd8-3777-44b4-8fad-8f706c3a3ace"},"vehicle_type_id":"4","last_reported":1746627064,"current_range_meters":16800,"station_id":"","pricing_plan_id":"cebpf4jnsgd1na2vs0mg"},{"bike_id":"fc70c5a4-8ac1-406f-87fc-6dcf2da5b04c","system_id":"levelo_inurba_marseille","lat":43.29872,"lon":5.39732,"is_reserved":false,"is_disabled":false,"rental_uris":{"android":"levelo://app?vid=fc70c5a4-8ac1-406f-87fc-6dcf2da5b04c","ios":"levelo://app?vid=fc70c5a4-8ac1-406f-87fc-6dcf2da5b04c"},"vehicle_type_id":"4","last_reported":1746627064,"current_range_meters":16800,"station_id":"ce4bh0h2rcd13ifvqd50","pricing_plan_id":"cebpf4jnsgd1na2vs0mg"},{"bike_id":"0e5167a3-eb07-4edb-b59a-ef373cf0f66c","system_id":"levelo_inurba_marseille","lat":43.29101,"lon":5.38138,"is_reserved":false,"is_disabled":false,"rental_uris":{"android":"levelo://app?vid=0e5167a3-eb07-4edb-b59a-ef373cf0f66c","ios":"levelo://app?vid=0e5167a3-eb07-4edb-b59a-ef373cf0f66c"},"vehicle_type_id":"4","last_reported":1746627064,"current_range_meters":16800,"station_id":"ce4bh512rcd13ifvqe2g","pricing_plan_id":"cebpf4jnsgd1na2vs0mg"},{"bike_id":"2ed800fc-3661-4d6a-a39a-8c052efe0d3e","system_id":"levelo_inurba_marseille","lat":43.28489,"lon":5.38453,"is_reserved":false,"is_disabled":false,"rental_uris":{"android":"levelo://app?vid=2ed800fc-3661-4d6a-a39a-8c052efe0d3e","ios":"levelo://app?vid=2ed800fc-3661-4d6a-a39a-8c052efe0d3e"},"vehicle_type_id":"4","last_reported":1746627064,"current_range_meters":16800,"station_id":"ce4bh512rcd13ifvqe3g","pricing_plan_id":"cebpf4jnsgd1na2vs0mg"},{"bike_id":"b8bb0d6d-d682-4df7-80c5-da64e9c95891","system_id":"levelo_inurba_marseille","lat":43.25918,"lon":5.4088,"is_reserved":false,"is_disabled":false,"rental_uris":{"android":"levelo://app?vid=b8bb0d6d-d682-4df7-80c5-da64e9c95891","ios":"levelo://app?vid=b8bb0d6d-d682-4df7-80c5-da64e9c95891"},"vehicle_type_id":"4","last_reported":1746627064,"current_range_meters":16800,"station_id":"ce4bhm92rcd13ifvqglg","pricing_plan_id":"cebpf4jnsgd1na2vs0mg"},{"bike_id":"2c3c520f-41c7-4b8f-8ebe-f4ae60cf3792","system_id":"levelo_inurba_marseille","lat":43.26089,"lon":5.375468,"is_reserved":false,"is_disabled":false,"rental_uris":{"android":"levelo://app?vid=2c3c520f-41c7-4b8f-8ebe-f4ae60cf3792","ios":"levelo://app?vid=2c3c520f-41c7-4b8f-8ebe-f4ae60cf3792"},"vehicle_type_id":"4","last_reported":1746627064,"current_range_meters":17200,"station_id":"ce4bhih2rcd13ifvqfs0","pricing_plan_id":"cebpf4jnsgd1na2vs0mg"},{"bike_id":"0a08b398-2904-475a-9517-a74421ca77bc","system_id":"levelo_inurba_marseille","lat":43.29572,"lon":5.375157,"is_reserved":false,"is_disabled":false,"rental_uris":{"android":"levelo://app?vid=0a08b398-2904-475a-9517-a74421ca77bc","ios":"levelo://app?vid=0a08b398-2904-475a-9517-a74421ca77bc"},"vehicle_type_id":"4","last_reported":1746627064,"current_range_meters":17600,"station_id":"ce4bgh92rcd13ifvqb50","pricing_plan_id":"cebpf4jnsgd1na2vs0mg"},{"bike_id":"fc9aa7a7-7940-4243-9ec4-56691e214b3c","system_id":"levelo_inurba_marseille","lat":43.27376,"lon":5.36261,"is_reserved":false,"is_disabled":false,"rental_uris":{"android":"levelo://app?vid=fc9aa7a7-7940-4243-9ec4-56691e214b3c","ios":"levelo://app?vid=fc9aa7a7-7940-4243-9ec4-56691e214b3c"},"vehicle_type_id":"4","last_reported":1746627064,"current_range_meters":17600,"station_id":"ce4bhbh2rcd13ifvqeo0","pricing_plan_id":"cebpf4jnsgd1na2vs0mg"},{"bike_id":"bb745cee-af37-4b23-afc5-3d5aa5ce7aed","system_id":"levelo_inurba_marseille","lat":43.26195,"lon":5.40435,"is_reserved":false,"is_disabled":false,"rental_uris":{"android":"levelo://app?vid=bb745cee-af37-4b23-afc5-3d5aa5ce7aed","ios":"levelo://app?vid=bb745cee-af37-4b23-afc5-3d5aa5ce7aed"},"vehicle_type_id":"4","last_reported":1746627064,"current_range_meters":17600,"station_id":"ce4bhmh2rcd13ifvqgmg","pricing_plan_id":"cebpf4jnsgd1na2vs0mg"},{"bike_id":"4afcc305-68ff-4d85-91bc-07f9c70d9bfb","system_id":"levelo_inurba_marseille","lat":43.33724,"lon":5.39182,"is_reserved":false,"is_disabled":false,"rental_uris":{"android":"levelo://app?vid=4afcc305-68ff-4d85-91bc-07f9c70d9bfb","ios":"levelo://app?vid=4afcc305-68ff-4d85-91bc-07f9c70d9bfb"},"vehicle_type_id":"4","last_reported":1746627064,"current_range_meters":17600,"station_id":"ce4bhr92rcd13ifvqhsg","pricing_plan_id":"cebpf4jnsgd1na2vs0mg"},{"bike_id":"cd062619-5b03-48e3-bf45-fbd002bab495","system_id":"levelo_inurba_marseille","lat":43.28711,"lon":5.3791,"is_reserved":false,"is_disabled":false,"rental_uris":{"android":"levelo://app?vid=cd062619-5b03-48e3-bf45-fbd002bab495","ios":"levelo://app?vid=cd062619-5b03-48e3-bf45-fbd002bab495"},"vehicle_type_id":"4","last_reported":1746627064,"current_range_meters":18000,"station_id":"ce4bh9p2rcd13ifvqec0","pricing_plan_id":"cebpf4jnsgd1na2vs0mg"},{"bike_id":"100843cc-552d-425f-bae7-7b88461b1f50","system_id":"levelo_inurba_marseille","lat":43.27836,"lon":5.39205,"is_reserved":false,"is_disabled":false,"rental_uris":{"android":"levelo://app?vid=100843cc-552d-425f-bae7-7b88461b1f50","ios":"levelo://app?vid=100843cc-552d-425f-bae7-7b88461b1f50"},"vehicle_type_id":"4","last_reported":1746627064,"current_range_meters":18000,"station_id":"ce4bhjp2rcd13ifvqga0","pricing_plan_id":"cebpf4jnsgd1na2vs0mg"},{"bike_id":"cc4aa34a-1bb6-4ed9-afc3-f67c86cc0cab","system_id":"levelo_inurba_marseille","lat":43.24184,"lon":5.39726,"is_reserved":false,"is_disabled":false,"rental_uris":{"android":"levelo://app?vid=cc4aa34a-1bb6-4ed9-afc3-f67c86cc0cab","ios":"levelo://app?vid=cc4aa34a-1bb6-4ed9-afc3-f67c86cc0cab"},"vehicle_type_id":"4","last_reported":1746627064,"current_range_meters":18000,"station_id":"ce4bhn12rcd13ifvqgpg","pricing_plan_id":"cebpf4jnsgd1na2vs0mg"},{"bike_id":"0a7a8bef-7c05-4e20-b815-563641173f10","system_id":"levelo_inurba_marseille","lat":43.30536,"lon":5.3843,"is_reserved":false,"is_disabled":false,"rental_uris":{"android":"levelo://app?vid=0a7a8bef-7c05-4e20-b815-563641173f10","ios":"levelo://app?vid=0a7a8bef-7c05-4e20-b815-563641173f10"},"vehicle_type_id":"4","last_reported":1746627064,"current_range_meters":18800,"station_id":"ce4bgg92rcd13ifvqb30","pricing_plan_id":"cebpf4jnsgd1na2vs0mg"},{"bike_id":"fb7ca668-a1d8-450d-ba12-273fd8f79e2e","system_id":"levelo_inurba_marseille","lat":43.30932,"lon":5.40147,"is_reserved":false,"is_disabled":false,"rental_uris":{"android":"levelo://app?vid=fb7ca668-a1d8-450d-ba12-273fd8f79e2e","ios":"levelo://app?vid=fb7ca668-a1d8-450d-ba12-273fd8f79e2e"},"vehicle_type_id":"4","last_reported":1746627064,"current_range_meters":18800,"station_id":"ce4bgvp2rcd13ifvqct0","pricing_plan_id":"cebpf4jnsgd1na2vs0mg"},{"bike_id":"666e7ec4-8dfa-47f1-9127-29e70c8b93b3","system_id":"levelo_inurba_marseille","lat":43.302122,"lon":5.394691,"is_reserved":false,"is_disabled":false,"rental_uris":{"android":"levelo://app?vid=666e7ec4-8dfa-47f1-9127-29e70c8b93b3","ios":"levelo://app?vid=666e7ec4-8dfa-47f1-9127-29e70c8b93b3"},"vehicle_type_id":"4","last_reported":1746627064,"current_range_meters":18800,"station_id":"ce4bh0p2rcd13ifvqd70","pricing_plan_id":"cebpf4jnsgd1na2vs0mg"},{"bike_id":"550a603c-3335-4c1e-ae05-7c46a9d980c2","system_id":"levelo_inurba_marseille","lat":43.27071,"lon":5.4228,"is_reserved":false,"is_disabled":false,"rental_uris":{"android":"levelo://app?vid=550a603c-3335-4c1e-ae05-7c46a9d980c2","ios":"levelo://app?vid=550a603c-3335-4c1e-ae05-7c46a9d980c2"},"vehicle_type_id":"4","last_reported":1746627064,"current_range_meters":18800,"station_id":"ce4bhk92rcd13ifvqgb0","pricing_plan_id":"cebpf4jnsgd1na2vs0mg"},{"bike_id":"270ae53d-7a87-4c13-b6a7-c9b7e031c7b7","system_id":"levelo_inurba_marseille","lat":43.28084,"lon":5.39662,"is_reserved":false,"is_disabled":false,"rental_uris":{"android":"levelo://app?vid=270ae53d-7a87-4c13-b6a7-c9b7e031c7b7","ios":"levelo://app?vid=270ae53d-7a87-4c13-b6a7-c9b7e031c7b7"},"vehicle_type_id":"4","last_reported":1746627064,"current_range_meters":18800,"station_id":"ce4bho12rcd13ifvqh2g","pricing_plan_id":"cebpf4jnsgd1na2vs0mg"},{"bike_id":"46f83161-f60c-4f7c-9541-c0bb26d0ae24","system_id":"levelo_inurba_marseille","lat":43.21749,"lon":5.3461,"is_reserved":false,"is_disabled":false,"rental_uris":{"android":"levelo://app?vid=46f83161-f60c-4f7c-9541-c0bb26d0ae24","ios":"levelo://app?vid=46f83161-f60c-4f7c-9541-c0bb26d0ae24"},"vehicle_type_id":"4","last_reported":1746627064,"current_range_meters":18800,"station_id":"st_cvj6r9ubvosntc0bgbag","pricing_plan_id":"cebpf4jnsgd1na2vs0mg"},{"bike_id":"809c8673-c032-46b9-aa07-62c38e26d44e","system_id":"levelo_inurba_marseille","lat":43.25153,"lon":5.39019,"is_reserved":false,"is_disabled":false,"rental_uris":{"android":"levelo://app?vid=809c8673-c032-46b9-aa07-62c38e26d44e","ios":"levelo://app?vid=809c8673-c032-46b9-aa07-62c38e26d44e"},"vehicle_type_id":"4","last_reported":1746627064,"current_range_meters":19200,"station_id":"","pricing_plan_id":"cebpf4jnsgd1na2vs0mg"},{"bike_id":"7cb84a55-eae0-4ff8-a8e8-801fd7179396","system_id":"levelo_inurba_marseille","lat":43.30621,"lon":5.37424,"is_reserved":false,"is_disabled":false,"rental_uris":{"android":"levelo://app?vid=7cb84a55-eae0-4ff8-a8e8-801fd7179396","ios":"levelo://app?vid=7cb84a55-eae0-4ff8-a8e8-801fd7179396"},"vehicle_type_id":"4","last_reported":1746627064,"current_range_meters":19200,"station_id":"","pricing_plan_id":"cebpf4jnsgd1na2vs0mg"},{"bike_id":"f1aa0b8d-5fe7-478d-a69c-ac9cc9b4360a","system_id":"levelo_inurba_marseille","lat":43.26026,"lon":5.37563,"is_reserved":false,"is_disabled":false,"rental_uris":{"android":"levelo://app?vid=f1aa0b8d-5fe7-478d-a69c-ac9cc9b4360a","ios":"levelo://app?vid=f1aa0b8d-5fe7-478d-a69c-ac9cc9b4360a"},"vehicle_type_id":"4","last_reported":1746627064,"current_range_meters":19200,"station_id":"ce4bhgh2rcd13ifvqfa0","pricing_plan_id":"cebpf4jnsgd1na2vs0mg"},{"bike_id":"afc7c6fa-c9d3-4f4d-911f-47abb3e97f82","system_id":"levelo_inurba_marseille","lat":43.26816,"lon":5.40243,"is_reserved":false,"is_disabled":false,"rental_uris":{"android":"levelo://app?vid=afc7c6fa-c9d3-4f4d-911f-47abb3e97f82","ios":"levelo://app?vid=afc7c6fa-c9d3-4f4d-911f-47abb3e97f82"},"vehicle_type_id":"4","last_reported":1746627064,"current_range_meters":19200,"station_id":"ce501612rcd8frsf0b60","pricing_plan_id":"cebpf4jnsgd1na2vs0mg"},{"bike_id":"5685c192-af0e-432e-a78b-7859fcd0e0d6","system_id":"levelo_inurba_marseille","lat":43.30972,"lon":5.37928,"is_reserved":false,"is_disabled":false,"rental_uris":{"android":"levelo://app?vid=5685c192-af0e-432e-a78b-7859fcd0e0d6","ios":"levelo://app?vid=5685c192-af0e-432e-a78b-7859fcd0e0d6"},"vehicle_type_id":"4","last_reported":1746627064,"current_range_meters":19600,"station_id":"","pricing_plan_id":"cebpf4jnsgd1na2vs0mg"},{"bike_id":"a6d11677-fd99-4980-8f79-d6877c16804d","system_id":"levelo_inurba_marseille","lat":43.30156,"lon":5.38083,"is_reserved":false,"is_disabled":false,"rental_uris":{"android":"levelo://app?vid=a6d11677-fd99-4980-8f79-d6877c16804d","ios":"levelo://app?vid=a6d11677-fd99-4980-8f79-d6877c16804d"},"vehicle_type_id":"4","last_reported":1746627064,"current_range_meters":19600,"station_id":"ce4bgjp2rcd13ifvqbh0","pricing_plan_id":"cebpf4jnsgd1na2vs0mg"},{"bike_id":"929f2ed6-ab2e-43e7-8208-5b16691d770a","system_id":"levelo_inurba_marseille","lat":43.29077,"lon":5.37163,"is_reserved":false,"is_disabled":false,"rental_uris":{"android":"levelo://app?vid=929f2ed6-ab2e-43e7-8208-5b16691d770a","ios":"levelo://app?vid=929f2ed6-ab2e-43e7-8208-5b16691d770a"},"vehicle_type_id":"4","last_reported":1746627064,"current_range_meters":19600,"station_id":"ce4bh5p2rcd13ifvqe4g","pricing_plan_id":"cebpf4jnsgd1na2vs0mg"},{"bike_id":"61be39cd-62ad-4ee8-a728-abfaa4e58570","system_id":"levelo_inurba_marseille","lat":43.27376,"lon":5.36246,"is_reserved":false,"is_disabled":false,"rental_uris":{"android":"levelo://app?vid=61be39cd-62ad-4ee8-a728-abfaa4e58570","ios":"levelo://app?vid=61be39cd-62ad-4ee8-a728-abfaa4e58570"},"vehicle_type_id":"4","last_reported":1746627064,"current_range_meters":19600,"station_id":"ce4bhbh2rcd13ifvqeo0","pricing_plan_id":"cebpf4jnsgd1na2vs0mg"},{"bike_id":"aca35da1-c39d-4902-9a7f-bbb721232f8a","system_id":"levelo_inurba_marseille","lat":43.279374,"lon":5.399399,"is_reserved":false,"is_disabled":false,"rental_uris":{"android":"levelo://app?vid=aca35da1-c39d-4902-9a7f-bbb721232f8a","ios":"levelo://app?vid=aca35da1-c39d-4902-9a7f-bbb721232f8a"},"vehicle_type_id":"4","last_reported":1746627064,"current_range_meters":19600,"station_id":"ce4bho92rcd13ifvqh4g","pricing_plan_id":"cebpf4jnsgd1na2vs0mg"},{"bike_id":"6bc3c3d6-7044-4895-a429-7a6a1e721843","system_id":"levelo_inurba_marseille","lat":43.30149,"lon":5.37422,"is_reserved":false,"is_disabled":false,"rental_uris":{"android":"levelo://app?vid=6bc3c3d6-7044-4895-a429-7a6a1e721843","ios":"levelo://app?vid=6bc3c3d6-7044-4895-a429-7a6a1e721843"},"vehicle_type_id":"4","last_reported":1746627064,"current_range_meters":20000,"station_id":"ce4bgs92rcd13ifvqcc0","pricing_plan_id":"cebpf4jnsgd1na2vs0mg"},{"bike_id":"b98edc80-a835-4a4f-badd-3ad5c38a24f0","system_id":"levelo_inurba_marseille","lat":43.30284,"lon":5.37701,"is_reserved":false,"is_disabled":false,"rental_uris":{"android":"levelo://app?vid=b98edc80-a835-4a4f-badd-3ad5c38a24f0","ios":"levelo://app?vid=b98edc80-a835-4a4f-badd-3ad5c38a24f0"},"vehicle_type_id":"4","last_reported":1746627064,"current_range_meters":20000,"station_id":"ce4bguh2rcd13ifvqcj0","pricing_plan_id":"cebpf4jnsgd1na2vs0mg"},{"bike_id":"a0a0785f-70ad-4d1a-beaa-17e53b13b109","system_id":"levelo_inurba_marseille","lat":43.25586,"lon":5.38235,"is_reserved":false,"is_disabled":false,"rental_uris":{"android":"levelo://app?vid=a0a0785f-70ad-4d1a-beaa-17e53b13b109","ios":"levelo://app?vid=a0a0785f-70ad-4d1a-beaa-17e53b13b109"},"vehicle_type_id":"4","last_reported":1746627064,"current_range_meters":20000,"station_id":"ce4bhih2rcd13ifvqfs0","pricing_plan_id":"cebpf4jnsgd1na2vs0mg"},{"bike_id":"dbcb9872-8f1d-4fe5-a900-9aba83672741","system_id":"levelo_inurba_marseille","lat":43.27816,"lon":5.40717,"is_reserved":false,"is_disabled":false,"rental_uris":{"android":"levelo://app?vid=dbcb9872-8f1d-4fe5-a900-9aba83672741","ios":"levelo://app?vid=dbcb9872-8f1d-4fe5-a900-9aba83672741"},"vehicle_type_id":"4","last_reported":1746627064,"current_range_meters":20000,"station_id":"ce4bhnh2rcd13ifvqgtg","pricing_plan_id":"cebpf4jnsgd1na2vs0mg"},{"bike_id":"4de6774d-1d46-4af1-b4e7-f375722e2bef","system_id":"levelo_inurba_marseille","lat":43.28708,"lon":5.3999,"is_reserved":false,"is_disabled":false,"rental_uris":{"android":"levelo://app?vid=4de6774d-1d46-4af1-b4e7-f375722e2bef","ios":"levelo://app?vid=4de6774d-1d46-4af1-b4e7-f375722e2bef"},"vehicle_type_id":"4","last_reported":1746627064,"current_range_meters":20000,"station_id":"ce4bho92rcd13ifvqh3g","pricing_plan_id":"cebpf4jnsgd1na2vs0mg"},{"bike_id":"70a29a45-574c-4ff1-aca3-740aa0e705be","system_id":"levelo_inurba_marseille","lat":43.24166,"lon":5.36456,"is_reserved":false,"is_disabled":false,"rental_uris":{"android":"levelo://app?vid=70a29a45-574c-4ff1-aca3-740aa0e705be","ios":"levelo://app?vid=70a29a45-574c-4ff1-aca3-740aa0e705be"},"vehicle_type_id":"4","last_reported":1746627064,"current_range_meters":20400,"station_id":"cpo36qri1sfpv3e86is0","pricing_plan_id":"cebpf4jnsgd1na2vs0mg"},{"bike_id":"5b942843-09f8-4954-9a49-c4ecc4d6ce1f","system_id":"levelo_inurba_marseille","lat":43.30931,"lon":5.40149,"is_reserved":false,"is_disabled":false,"rental_uris":{"android":"levelo://app?vid=5b942843-09f8-4954-9a49-c4ecc4d6ce1f","ios":"levelo://app?vid=5b942843-09f8-4954-9a49-c4ecc4d6ce1f"},"vehicle_type_id":"4","last_reported":1746627064,"current_range_meters":20800,"station_id":"ce4bgvp2rcd13ifvqct0","pricing_plan_id":"cebpf4jnsgd1na2vs0mg"},{"bike_id":"347beef8-84d9-4e17-b115-7e1f32462db0","system_id":"levelo_inurba_marseille","lat":43.24662,"lon":5.38162,"is_reserved":false,"is_disabled":false,"rental_uris":{"android":"levelo://app?vid=347beef8-84d9-4e17-b115-7e1f32462db0","ios":"levelo://app?vid=347beef8-84d9-4e17-b115-7e1f32462db0"},"vehicle_type_id":"4","last_reported":1746627064,"current_range_meters":20800,"station_id":"ce4bhih2rcd13ifvqfr0","pricing_plan_id":"cebpf4jnsgd1na2vs0mg"},{"bike_id":"81f1602e-a6de-43d5-a7c0-68393fd7686e","system_id":"levelo_inurba_marseille","lat":43.24667,"lon":5.38173,"is_reserved":false,"is_disabled":false,"rental_uris":{"android":"levelo://app?vid=81f1602e-a6de-43d5-a7c0-68393fd7686e","ios":"levelo://app?vid=81f1602e-a6de-43d5-a7c0-68393fd7686e"},"vehicle_type_id":"4","last_reported":1746627064,"current_range_meters":20800,"station_id":"ce4bhih2rcd13ifvqfr0","pricing_plan_id":"cebpf4jnsgd1na2vs0mg"},{"bike_id":"35dd71c9-cf51-4621-94c5-13c5f76c7d6b","system_id":"levelo_inurba_marseille","lat":43.25588,"lon":5.3823,"is_reserved":false,"is_disabled":false,"rental_uris":{"android":"levelo://app?vid=35dd71c9-cf51-4621-94c5-13c5f76c7d6b","ios":"levelo://app?vid=35dd71c9-cf51-4621-94c5-13c5f76c7d6b"},"vehicle_type_id":"4","last_reported":1746627064,"current_range_meters":20800,"station_id":"ce4bhih2rcd13ifvqfs0","pricing_plan_id":"cebpf4jnsgd1na2vs0mg"},{"bike_id":"60d88d0d-d628-4fbe-b93e-4cfe3625ee6e","system_id":"levelo_inurba_marseille","lat":43.27185,"lon":5.40997,"is_reserved":false,"is_disabled":false,"rental_uris":{"android":"levelo://app?vid=60d88d0d-d628-4fbe-b93e-4cfe3625ee6e","ios":"levelo://app?vid=60d88d0d-d628-4fbe-b93e-4cfe3625ee6e"},"vehicle_type_id":"4","last_reported":1746627064,"current_range_meters":20800,"station_id":"ce4bhl12rcd13ifvqgf0","pricing_plan_id":"cebpf4jnsgd1na2vs0mg"},{"bike_id":"00363be4-c05d-432e-8253-b89778929d3e","system_id":"levelo_inurba_marseille","lat":43.28446,"lon":5.39209,"is_reserved":false,"is_disabled":false,"rental_uris":{"android":"levelo://app?vid=00363be4-c05d-432e-8253-b89778929d3e","ios":"levelo://app?vid=00363be4-c05d-432e-8253-b89778929d3e"},"vehicle_type_id":"4","last_reported":1746627064,"current_range_meters":20800,"station_id":"ce4bhoh2rcd13ifvqh5g","pricing_plan_id":"cebpf4jnsgd1na2vs0mg"},{"bike_id":"61773464-18ea-4477-b785-2b5e8184d3c2","system_id":"levelo_inurba_marseille","lat":43.32545,"lon":5.41431,"is_reserved":false,"is_disabled":false,"rental_uris":{"android":"levelo://app?vid=61773464-18ea-4477-b785-2b5e8184d3c2","ios":"levelo://app?vid=61773464-18ea-4477-b785-2b5e8184d3c2"},"vehicle_type_id":"4","last_reported":1746627064,"current_range_meters":20800,"station_id":"ce4bhq12rcd13ifvqhhg","pricing_plan_id":"cebpf4jnsgd1na2vs0mg"},{"bike_id":"17748582-6023-4325-a03f-a4f9f6e3a860","system_id":"levelo_inurba_marseille","lat":43.26028,"lon":5.3755,"is_reserved":false,"is_disabled":false,"rental_uris":{"android":"levelo://app?vid=17748582-6023-4325-a03f-a4f9f6e3a860","ios":"levelo://app?vid=17748582-6023-4325-a03f-a4f9f6e3a860"},"vehicle_type_id":"4","last_reported":1746627064,"current_range_meters":21600,"station_id":"ce4bhgh2rcd13ifvqfa0","pricing_plan_id":"cebpf4jnsgd1na2vs0mg"},{"bike_id":"61d0cc63-5fae-4346-a8dc-6c4d609565f3","system_id":"levelo_inurba_marseille","lat":43.25024,"lon":5.38936,"is_reserved":false,"is_disabled":false,"rental_uris":{"android":"levelo://app?vid=61d0cc63-5fae-4346-a8dc-6c4d609565f3","ios":"levelo://app?vid=61d0cc63-5fae-4346-a8dc-6c4d609565f3"},"vehicle_type_id":"4","last_reported":1746627064,"current_range_meters":21600,"station_id":"ce4bhgp2rcd13ifvqfd0","pricing_plan_id":"cebpf4jnsgd1na2vs0mg"},{"bike_id":"16377301-0bc3-4c98-9536-b322f5763acb","system_id":"levelo_inurba_marseille","lat":43.32035,"lon":5.41563,"is_reserved":false,"is_disabled":false,"rental_uris":{"android":"levelo://app?vid=16377301-0bc3-4c98-9536-b322f5763acb","ios":"levelo://app?vid=16377301-0bc3-4c98-9536-b322f5763acb"},"vehicle_type_id":"4","last_reported":1746627064,"current_range_meters":21600,"station_id":"ce4bhq92rcd13ifvqhkg","pricing_plan_id":"cebpf4jnsgd1na2vs0mg"},{"bike_id":"ecf02540-3377-4e73-a4aa-0712936ee06b","system_id":"levelo_inurba_marseille","lat":43.31023,"lon":5.37339,"is_reserved":false,"is_disabled":false,"rental_uris":{"android":"levelo://app?vid=ecf02540-3377-4e73-a4aa-0712936ee06b","ios":"levelo://app?vid=ecf02540-3377-4e73-a4aa-0712936ee06b"},"vehicle_type_id":"4","last_reported":1746627064,"current_range_meters":22000,"station_id":"","pricing_plan_id":"cebpf4jnsgd1na2vs0mg"},{"bike_id":"5340ee3a-3715-406b-865c-69b21e34c993","system_id":"levelo_inurba_marseille","lat":43.239629,"lon":5.366342,"is_reserved":false,"is_disabled":false,"rental_uris":{"android":"levelo://app?vid=5340ee3a-3715-406b-865c-69b21e34c993","ios":"levelo://app?vid=5340ee3a-3715-406b-865c-69b21e34c993"},"vehicle_type_id":"4","last_reported":1746627064,"current_range_meters":22000,"station_id":"ce4bhi12rcd13ifvqfp0","pricing_plan_id":"cebpf4jnsgd1na2vs0mg"},{"bike_id":"89b5c51b-cd9c-475c-ba7a-726b12d22f75","system_id":"levelo_inurba_marseille","lat":43.212,"lon":5.35082,"is_reserved":false,"is_disabled":false,"rental_uris":{"android":"levelo://app?vid=89b5c51b-cd9c-475c-ba7a-726b12d22f75","ios":"levelo://app?vid=89b5c51b-cd9c-475c-ba7a-726b12d22f75"},"vehicle_type_id":"4","last_reported":1746627064,"current_range_meters":22000,"station_id":"st_cvj6sg6p6f1abm77japg","pricing_plan_id":"cebpf4jnsgd1na2vs0mg"},{"bike_id":"a6ec648c-184f-416c-8926-dc7e2b4b1b99","system_id":"levelo_inurba_marseille","lat":43.27379,"lon":5.36253,"is_reserved":false,"is_disabled":false,"rental_uris":{"android":"levelo://app?vid=a6ec648c-184f-416c-8926-dc7e2b4b1b99","ios":"levelo://app?vid=a6ec648c-184f-416c-8926-dc7e2b4b1b99"},"vehicle_type_id":"4","last_reported":1746627064,"current_range_meters":22400,"station_id":"ce4bhbh2rcd13ifvqeo0","pricing_plan_id":"cebpf4jnsgd1na2vs0mg"},{"bike_id":"d0a51127-7dcc-43f9-9671-0a08e74ee8a0","system_id":"levelo_inurba_marseille","lat":43.26778,"lon":5.39445,"is_reserved":false,"is_disabled":false,"rental_uris":{"android":"levelo://app?vid=d0a51127-7dcc-43f9-9671-0a08e74ee8a0","ios":"levelo://app?vid=d0a51127-7dcc-43f9-9671-0a08e74ee8a0"},"vehicle_type_id":"4","last_reported":1746627064,"current_range_meters":22400,"station_id":"ce4bhh12rcd13ifvqfg0","pricing_plan_id":"cebpf4jnsgd1na2vs0mg"},{"bike_id":"5545e5f3-6379-4d16-8527-ea6f67b4fa46","system_id":"levelo_inurba_marseille","lat":43.25952,"lon":5.40931,"is_reserved":false,"is_disabled":false,"rental_uris":{"android":"levelo://app?vid=5545e5f3-6379-4d16-8527-ea6f67b4fa46","ios":"levelo://app?vid=5545e5f3-6379-4d16-8527-ea6f67b4fa46"},"vehicle_type_id":"4","last_reported":1746627064,"current_range_meters":22400,"station_id":"ce4bhm92rcd13ifvqglg","pricing_plan_id":"cebpf4jnsgd1na2vs0mg"},{"bike_id":"055cf58e-816a-4e9a-b55b-540e90cc8a4d","system_id":"levelo_inurba_marseille","lat":43.2955,"lon":5.42281,"is_reserved":false,"is_disabled":false,"rental_uris":{"android":"levelo://app?vid=055cf58e-816a-4e9a-b55b-540e90cc8a4d","ios":"levelo://app?vid=055cf58e-816a-4e9a-b55b-540e90cc8a4d"},"vehicle_type_id":"4","last_reported":1746627064,"current_range_meters":22400,"station_id":"ce4bhph2rcd13ifvqhdg","pricing_plan_id":"cebpf4jnsgd1na2vs0mg"},{"bike_id":"fcea61cc-d956-4b6d-87c9-daed6fc63618","system_id":"levelo_inurba_marseille","lat":43.323403,"lon":5.4061,"is_reserved":false,"is_disabled":false,"rental_uris":{"android":"levelo://app?vid=fcea61cc-d956-4b6d-87c9-daed6fc63618","ios":"levelo://app?vid=fcea61cc-d956-4b6d-87c9-daed6fc63618"},"vehicle_type_id":"4","last_reported":1746627064,"current_range_meters":22400,"station_id":"ce4bhq92rcd13ifvqhjg","pricing_plan_id":"cebpf4jnsgd1na2vs0mg"},{"bike_id":"ac437fa4-ad58-4abe-915e-14f6b9aec297","system_id":"levelo_inurba_marseille","lat":43.323654,"lon":5.388814,"is_reserved":false,"is_disabled":false,"rental_uris":{"android":"levelo://app?vid=ac437fa4-ad58-4abe-915e-14f6b9aec297","ios":"levelo://app?vid=ac437fa4-ad58-4abe-915e-14f6b9aec297"},"vehicle_type_id":"4","last_reported":1746627064,"current_range_meters":22400,"station_id":"ce4bhqp2rcd13ifvqhog","pricing_plan_id":"cebpf4jnsgd1na2vs0mg"},{"bike_id":"18ec06aa-5fdd-4f9c-8c1c-a643570ea886","system_id":"levelo_inurba_marseille","lat":43.28603,"lon":5.37067,"is_reserved":false,"is_disabled":false,"rental_uris":{"android":"levelo://app?vid=18ec06aa-5fdd-4f9c-8c1c-a643570ea886","ios":"levelo://app?vid=18ec06aa-5fdd-4f9c-8c1c-a643570ea886"},"vehicle_type_id":"4","last_reported":1746627064,"current_range_meters":22400,"station_id":"ce4bht12rcd13ifvqi60","pricing_plan_id":"cebpf4jnsgd1na2vs0mg"},{"bike_id":"16d82653-e2e5-4531-a384-7902e244f0cf","system_id":"levelo_inurba_marseille","lat":43.22534,"lon":5.34787,"is_reserved":false,"is_disabled":false,"rental_uris":{"android":"levelo://app?vid=16d82653-e2e5-4531-a384-7902e244f0cf","ios":"levelo://app?vid=16d82653-e2e5-4531-a384-7902e244f0cf"},"vehicle_type_id":"4","last_reported":1746627064,"current_range_meters":22400,"station_id":"st_cvj5dfep6f1abm77gieg","pricing_plan_id":"cebpf4jnsgd1na2vs0mg"},{"bike_id":"ff807334-3ad3-4e40-bbde-648eb2b1c45b","system_id":"levelo_inurba_marseille","lat":43.21191,"lon":5.35072,"is_reserved":false,"is_disabled":false,"rental_uris":{"android":"levelo://app?vid=ff807334-3ad3-4e40-bbde-648eb2b1c45b","ios":"levelo://app?vid=ff807334-3ad3-4e40-bbde-648eb2b1c45b"},"vehicle_type_id":"4","last_reported":1746627064,"current_range_meters":22400,"station_id":"st_cvj6sg6p6f1abm77japg","pricing_plan_id":"cebpf4jnsgd1na2vs0mg"},{"bike_id":"a38c5fcd-2a3e-4e2c-b5be-bfb908394086","system_id":"levelo_inurba_marseille","lat":43.32786,"lon":5.3913,"is_reserved":false,"is_disabled":false,"rental_uris":{"android":"levelo://app?vid=a38c5fcd-2a3e-4e2c-b5be-bfb908394086","ios":"levelo://app?vid=a38c5fcd-2a3e-4e2c-b5be-bfb908394086"},"vehicle_type_id":"4","last_reported":1746627064,"current_range_meters":22800,"station_id":"","pricing_plan_id":"cebpf4jnsgd1na2vs0mg"},{"bike_id":"baba0ed7-f9b3-4e18-aaf2-5a9994f75e20","system_id":"levelo_inurba_marseille","lat":43.30143,"lon":5.38783,"is_reserved":false,"is_disabled":false,"rental_uris":{"android":"levelo://app?vid=baba0ed7-f9b3-4e18-aaf2-5a9994f75e20","ios":"levelo://app?vid=baba0ed7-f9b3-4e18-aaf2-5a9994f75e20"},"vehicle_type_id":"4","last_reported":1746627064,"current_range_meters":22800,"station_id":"ce4bghh2rcd13ifvqb60","pricing_plan_id":"cebpf4jnsgd1na2vs0mg"},{"bike_id":"05548ed0-451f-41ef-b020-62009a4d5f09","system_id":"levelo_inurba_marseille","lat":43.29859,"lon":5.36288,"is_reserved":false,"is_disabled":false,"rental_uris":{"android":"levelo://app?vid=05548ed0-451f-41ef-b020-62009a4d5f09","ios":"levelo://app?vid=05548ed0-451f-41ef-b020-62009a4d5f09"},"vehicle_type_id":"4","last_reported":1746627064,"current_range_meters":22800,"station_id":"ce4bgpp2rcd13ifvqc3g","pricing_plan_id":"cebpf4jnsgd1na2vs0mg"},{"bike_id":"8c1a2927-fce6-4e1a-8104-1dc85c234bd9","system_id":"levelo_inurba_marseille","lat":43.31122,"lon":5.37774,"is_reserved":false,"is_disabled":false,"rental_uris":{"android":"levelo://app?vid=8c1a2927-fce6-4e1a-8104-1dc85c234bd9","ios":"levelo://app?vid=8c1a2927-fce6-4e1a-8104-1dc85c234bd9"},"vehicle_type_id":"4","last_reported":1746627064,"current_range_meters":22800,"station_id":"ce4bgt92rcd13ifvqcg0","pricing_plan_id":"cebpf4jnsgd1na2vs0mg"},{"bike_id":"ffd42d74-f18b-4181-9b2d-9ca5251c4625","system_id":"levelo_inurba_marseille","lat":43.246578,"lon":5.388902,"is_reserved":false,"is_disabled":false,"rental_uris":{"android":"levelo://app?vid=ffd42d74-f18b-4181-9b2d-9ca5251c4625","ios":"levelo://app?vid=ffd42d74-f18b-4181-9b2d-9ca5251c4625"},"vehicle_type_id":"4","last_reported":1746627064,"current_range_meters":22800,"station_id":"ce4bhg12rcd13ifvqf60","pricing_plan_id":"cebpf4jnsgd1na2vs0mg"},{"bike_id":"f987e5a6-008a-472a-9f70-caa34ec49e22","system_id":"levelo_inurba_marseille","lat":43.26685,"lon":5.38276,"is_reserved":false,"is_disabled":false,"rental_uris":{"android":"levelo://app?vid=f987e5a6-008a-472a-9f70-caa34ec49e22","ios":"levelo://app?vid=f987e5a6-008a-472a-9f70-caa34ec49e22"},"vehicle_type_id":"4","last_reported":1746627064,"current_range_meters":22800,"station_id":"ce4bhg92rcd13ifvqf90","pricing_plan_id":"cebpf4jnsgd1na2vs0mg"},{"bike_id":"ad9451f8-0045-417a-b35a-9cccd99e055f","system_id":"levelo_inurba_marseille","lat":43.27174,"lon":5.4099,"is_reserved":false,"is_disabled":false,"rental_uris":{"android":"levelo://app?vid=ad9451f8-0045-417a-b35a-9cccd99e055f","ios":"levelo://app?vid=ad9451f8-0045-417a-b35a-9cccd99e055f"},"vehicle_type_id":"4","last_reported":1746627064,"current_range_meters":22800,"station_id":"ce4bhl12rcd13ifvqgf0","pricing_plan_id":"cebpf4jnsgd1na2vs0mg"},{"bike_id":"46176d3c-ab97-4730-9d33-2eeb8216db13","system_id":"levelo_inurba_marseille","lat":43.25084,"lon":5.39528,"is_reserved":false,"is_disabled":false,"rental_uris":{"android":"levelo://app?vid=46176d3c-ab97-4730-9d33-2eeb8216db13","ios":"levelo://app?vid=46176d3c-ab97-4730-9d33-2eeb8216db13"},"vehicle_type_id":"4","last_reported":1746627064,"current_range_meters":22800,"station_id":"ce4bhm12rcd13ifvqgkg","pricing_plan_id":"cebpf4jnsgd1na2vs0mg"},{"bike_id":"72954355-c3bb-4c9f-8f99-fbc6fb706b41","system_id":"levelo_inurba_marseille","lat":43.28155,"lon":5.42646,"is_reserved":false,"is_disabled":false,"rental_uris":{"android":"levelo://app?vid=72954355-c3bb-4c9f-8f99-fbc6fb706b41","ios":"levelo://app?vid=72954355-c3bb-4c9f-8f99-fbc6fb706b41"},"vehicle_type_id":"4","last_reported":1746627064,"current_range_meters":22800,"station_id":"ce4bhnh2rcd13ifvqgug","pricing_plan_id":"cebpf4jnsgd1na2vs0mg"},{"bike_id":"0f947b15-115e-4495-a96e-05df5655c167","system_id":"levelo_inurba_marseille","lat":43.28436,"lon":5.39202,"is_reserved":false,"is_disabled":false,"rental_uris":{"android":"levelo://app?vid=0f947b15-115e-4495-a96e-05df5655c167","ios":"levelo://app?vid=0f947b15-115e-4495-a96e-05df5655c167"},"vehicle_type_id":"4","last_reported":1746627064,"current_range_meters":22800,"station_id":"ce4bhoh2rcd13ifvqh5g","pricing_plan_id":"cebpf4jnsgd1na2vs0mg"},{"bike_id":"385efc73-c8f2-4acf-91a3-ae63842dcfc6","system_id":"levelo_inurba_marseille","lat":43.286163,"lon":5.370626,"is_reserved":false,"is_disabled":false,"rental_uris":{"android":"levelo://app?vid=385efc73-c8f2-4acf-91a3-ae63842dcfc6","ios":"levelo://app?vid=385efc73-c8f2-4acf-91a3-ae63842dcfc6"},"vehicle_type_id":"4","last_reported":1746627064,"current_range_meters":22800,"station_id":"ce4bht12rcd13ifvqi60","pricing_plan_id":"cebpf4jnsgd1na2vs0mg"},{"bike_id":"2455a508-7d49-47f6-94db-75584f1c8ba3","system_id":"levelo_inurba_marseille","lat":43.31012,"lon":5.37041,"is_reserved":false,"is_disabled":false,"rental_uris":{"android":"levelo://app?vid=2455a508-7d49-47f6-94db-75584f1c8ba3","ios":"levelo://app?vid=2455a508-7d49-47f6-94db-75584f1c8ba3"},"vehicle_type_id":"4","last_reported":1746627064,"current_range_meters":23200,"station_id":"","pricing_plan_id":"cebpf4jnsgd1na2vs0mg"},{"bike_id":"fffd3d76-da5d-43ca-9730-1eea3ac64f2c","system_id":"levelo_inurba_marseille","lat":43.25941,"lon":5.40886,"is_reserved":false,"is_disabled":false,"rental_uris":{"android":"levelo://app?vid=fffd3d76-da5d-43ca-9730-1eea3ac64f2c","ios":"levelo://app?vid=fffd3d76-da5d-43ca-9730-1eea3ac64f2c"},"vehicle_type_id":"4","last_reported":1746627064,"current_range_meters":23200,"station_id":"ce4bhm92rcd13ifvqglg","pricing_plan_id":"cebpf4jnsgd1na2vs0mg"},{"bike_id":"37f5021a-0503-44e2-9e68-989ca71cc99c","system_id":"levelo_inurba_marseille","lat":43.31097,"lon":5.37201,"is_reserved":false,"is_disabled":false,"rental_uris":{"android":"levelo://app?vid=37f5021a-0503-44e2-9e68-989ca71cc99c","ios":"levelo://app?vid=37f5021a-0503-44e2-9e68-989ca71cc99c"},"vehicle_type_id":"4","last_reported":1746627064,"current_range_meters":24000,"station_id":"","pricing_plan_id":"cebpf4jnsgd1na2vs0mg"},{"bike_id":"8c9e4907-ec4a-4a16-949c-a2126ccc103f","system_id":"levelo_inurba_marseille","lat":43.31121,"lon":5.37763,"is_reserved":false,"is_disabled":false,"rental_uris":{"android":"levelo://app?vid=8c9e4907-ec4a-4a16-949c-a2126ccc103f","ios":"levelo://app?vid=8c9e4907-ec4a-4a16-949c-a2126ccc103f"},"vehicle_type_id":"4","last_reported":1746627064,"current_range_meters":24000,"station_id":"ce4bgt92rcd13ifvqcg0","pricing_plan_id":"cebpf4jnsgd1na2vs0mg"},{"bike_id":"57193661-9adc-4731-91dd-bd8387b96e9f","system_id":"levelo_inurba_marseille","lat":43.29033,"lon":5.38644,"is_reserved":false,"is_disabled":false,"rental_uris":{"android":"levelo://app?vid=57193661-9adc-4731-91dd-bd8387b96e9f","ios":"levelo://app?vid=57193661-9adc-4731-91dd-bd8387b96e9f"},"vehicle_type_id":"4","last_reported":1746627064,"current_range_meters":24000,"station_id":"ce4bh4p2rcd13ifvqe0g","pricing_plan_id":"cebpf4jnsgd1na2vs0mg"},{"bike_id":"19f247b9-5cba-4dd6-8c3d-48447a29602b","system_id":"levelo_inurba_marseille","lat":43.30424,"lon":5.41287,"is_reserved":false,"is_disabled":false,"rental_uris":{"android":"levelo://app?vid=19f247b9-5cba-4dd6-8c3d-48447a29602b","ios":"levelo://app?vid=19f247b9-5cba-4dd6-8c3d-48447a29602b"},"vehicle_type_id":"4","last_reported":1746627064,"current_range_meters":24000,"station_id":"ce4bhop2rcd13ifvqh8g","pricing_plan_id":"cebpf4jnsgd1na2vs0mg"},{"bike_id":"7849defd-7a44-46b1-9519-d61e1c894ccd","system_id":"levelo_inurba_marseille","lat":43.32114,"lon":5.36756,"is_reserved":false,"is_disabled":false,"rental_uris":{"android":"levelo://app?vid=7849defd-7a44-46b1-9519-d61e1c894ccd","ios":"levelo://app?vid=7849defd-7a44-46b1-9519-d61e1c894ccd"},"vehicle_type_id":"4","last_reported":1746627064,"current_range_meters":24000,"station_id":"ce4bhrh2rcd13ifvqhug","pricing_plan_id":"cebpf4jnsgd1na2vs0mg"},{"bike_id":"f73d450b-fde6-4898-99b1-916875a407c6","system_id":"levelo_inurba_marseille","lat":43.22505,"lon":5.34786,"is_reserved":false,"is_disabled":false,"rental_uris":{"android":"levelo://app?vid=f73d450b-fde6-4898-99b1-916875a407c6","ios":"levelo://app?vid=f73d450b-fde6-4898-99b1-916875a407c6"},"vehicle_type_id":"4","last_reported":1746627064,"current_range_meters":24000,"station_id":"st_cvj5dfep6f1abm77gieg","pricing_plan_id":"cebpf4jnsgd1na2vs0mg"},{"bike_id":"f3e9ab38-3242-4aa5-83f9-529a16ccf936","system_id":"levelo_inurba_marseille","lat":43.22508,"lon":5.34771,"is_reserved":false,"is_disabled":false,"rental_uris":{"android":"levelo://app?vid=f3e9ab38-3242-4aa5-83f9-529a16ccf936","ios":"levelo://app?vid=f3e9ab38-3242-4aa5-83f9-529a16ccf936"},"vehicle_type_id":"4","last_reported":1746627064,"current_range_meters":24000,"station_id":"st_cvj5dfep6f1abm77gieg","pricing_plan_id":"cebpf4jnsgd1na2vs0mg"},{"bike_id":"3b0bfb38-4b28-4096-8acb-7652e17921f0","system_id":"levelo_inurba_marseille","lat":43.257392,"lon":5.382293,"is_reserved":false,"is_disabled":false,"rental_uris":{"android":"levelo://app?vid=3b0bfb38-4b28-4096-8acb-7652e17921f0","ios":"levelo://app?vid=3b0bfb38-4b28-4096-8acb-7652e17921f0"},"vehicle_type_id":"4","last_reported":1746627064,"current_range_meters":24400,"station_id":"","pricing_plan_id":"cebpf4jnsgd1na2vs0mg"},