{"last_updated":1744215186,"ttl":60,"version":"2.2","data":{"bikes":[{"bike_id":"b6917025-a4d0-4c6d-9298-7632e1feb274","system_id":"levelo_inurba_marseille","lat":43.2606,"lon":5.39399,"is_reserved":false,"is_disabled":false,"rental_uris":{"android":"levelo://app?vid=b6917025-a4d0-4c6d-9298-7632e1feb274","ios":"levelo://app?vid=b6917025-a4d0-4c6d-9298-7632e1feb274"},"vehicle_type_id":"4","last_reported":1744215186,"current_range_meters":2000,"station_id":"ce4bhh92rcd13ifvqfj0","pricing_plan_id":"cebpf4jnsgd1na2vs0mg"},{"bike_id":"04ea21db-9998-4cdc-8b93-e4b23b0ed540","system_id":"levelo_inurba_marseille","lat":43.2616,"lon":5.39608,"is_reserved":false,"is_disabled":false,"rental_uris":{"android":"levelo://app?vid=04ea21db-9998-4cdc-8b93-e4b23b0ed540","ios":"levelo://app?vid=04ea21db-9998-4cdc-8b93-e4b23b0ed540"},"vehicle_type_id":"4","last_reported":1744215186,"current_range_meters":2800,"station_id":"","pricing_plan_id":"cebpf4jnsgd1na2vs0mg"},{"bike_id":"f39be6f5-2f69-4c37-b021-559d20b299a4","system_id":"levelo_inurba_marseille","lat":43.30005,"lon":5.37639,"is_reserved":false,"is_disabled":false,"rental_uris":{"android":"levelo://app?vid=f39be6f5-2f69-4c37-b021-559d20b299a4","ios":"levelo://app?vid=f39be6f5-2f69-4c37-b021-559d20b299a4"},"vehicle_type_id":"4","last_reported":1744215186,"current_range_meters":3200,"station_id":"","pricing_plan_id":"cebpf4jnsgd1na2vs0mg"},{"bike_id":"3576b946-70b3-456f-a60a-d98e227f015c","system_id":"levelo_inurba_marseille","lat":43.301179,"lon":5.382148,"is_reserved":false,"is_disabled":false,"rental_uris":{"android":"levelo://app?vid=3576b946-70b3-456f-a60a-d98e227f015c","ios":"levelo://app?vid=3576b946-70b3-456f-a60a-d98e227f015c"},"vehicle_type_id":"4","last_reported":1744215186,"current_range_meters":3600,"station_id":"","pricing_plan_id":"cebpf4jnsgd1na2vs0mg"},{"bike_id":"b11876e9-50ae-4e5f-b20e-3327a8c621eb","system_id":"levelo_inurba_marseille","lat":43.29615,"lon":5.3772,"is_reserved":false,"is_disabled":false,"rental_uris":{"android":"levelo://app?vid=b11876e9-50ae-4e5f-b20e-3327a8c621eb","ios":"levelo://app?vid=b11876e9-50ae-4e5f-b20e-3327a8c621eb"},"vehicle_type_id":"4","last_reported":1744215186,"current_range_meters":3600,"station_id":"ce4bgi92rcd13ifvqb90","pricing_plan_id":"cebpf4jnsgd1na2vs0mg"},{"bike_id":"d8f6ad9f-525b-4a67-a831-a854aabf7f5d","system_id":"levelo_inurba_marseille","lat":43.2982,"lon":5.38152,"is_reserved":false,"is_disabled":false,"rental_uris":{"android":"levelo://app?vid=d8f6ad9f-525b-4a67-a831-a854aabf7f5d","ios":"levelo://app?vid=d8f6ad9f-525b-4a67-a831-a854aabf7f5d"},"vehicle_type_id":"4","last_reported":1744215186,"current_range_meters":3600,"station_id":"ce4bgip2rcd13ifvqbb0","pricing_plan_id":"cebpf4jnsgd1na2vs0mg"},{"bike_id":"1f5ede78-5a10-4766-b4bb-f9ce5bb57107","system_id":"levelo_inurba_marseille","lat":43.31708,"lon":5.43703,"is_reserved":false,"is_disabled":false,"rental_uris":{"android":"levelo://app?vid=1f5ede78-5a10-4766-b4bb-f9ce5bb57107","ios":"levelo://app?vid=1f5ede78-5a10-4766-b4bb-f9ce5bb57107"},"vehicle_type_id":"4","last_reported":1744215186,"current_range_meters":3600,"station_id":"ce4bhp92rcd13ifvqhcg","pricing_plan_id":"cebpf4jnsgd1na2vs0mg"},{"bike_id":"efc3335a-e108-4da4-b05e-3c80976a81b2","system_id":"levelo_inurba_marseille","lat":43.26216,"lon":5.37441,"is_reserved":false,"is_disabled":false,"rental_uris":{"android":"levelo://app?vid=efc3335a-e108-4da4-b05e-3c80976a81b2","ios":"levelo://app?vid=efc3335a-e108-4da4-b05e-3c80976a81b2"},"vehicle_type_id":"4","last_reported":1744215186,"current_range_meters":4000,"station_id":"ce4bhgp2rcd13ifvqfc0","pricing_plan_id":"cebpf4jnsgd1na2vs0mg"},{"bike_id":"61faeab7-d3b1-42ea-8185-a6bb834269b2","system_id":"levelo_inurba_marseille","lat":43.27124,"lon":5.41439,"is_reserved":false,"is_disabled":false,"rental_uris":{"android":"levelo://app?vid=61faeab7-d3b1-42ea-8185-a6bb834269b2","ios":"levelo://app?vid=61faeab7-d3b1-42ea-8185-a6bb834269b2"},"vehicle_type_id":"4","last_reported":1744215186,"current_range_meters":4000,"station_id":"","pricing_plan_id":"cebpf4jnsgd1na2vs0mg"},{"bike_id":"a5893a1f-7c9d-4af5-acab-6328a27154af","system_id":"levelo_inurba_marseille","lat":43.292785,"lon":5.408999,"is_reserved":false,"is_disabled":true,"rental_uris":{"android":"levelo://app?vid=a5893a1f-7c9d-4af5-acab-6328a27154af","ios":"levelo://app?vid=a5893a1f-7c9d-4af5-acab-6328a27154af"},"vehicle_type_id":"4","last_reported":1744215186,"current_range_meters":4000,"station_id":"","pricing_plan_id":"cebpf4jnsgd1na2vs0mg"},{"bike_id":"1e074ba2-22ee-41c9-8a01-1cbcaaae0872","system_id":"levelo_inurba_marseille","lat":43.27947,"lon":5.41043,"is_reserved":false,"is_disabled":false,"rental_uris":{"android":"levelo://app?vid=1e074ba2-22ee-41c9-8a01-1cbcaaae0872","ios":"levelo://app?vid=1e074ba2-22ee-41c9-8a01-1cbcaaae0872"},"vehicle_type_id":"4","last_reported":1744215186,"current_range_meters":4400,"station_id":"ce4bhnp2rcd13ifvqh0g","pricing_plan_id":"cebpf4jnsgd1na2vs0mg"},{"bike_id":"7f97f201-c90f-4cc0-94dd-616b1bd7f4f7","system_id":"levelo_inurba_marseille","lat":43.29786,"lon":5.37118,"is_reserved":false,"is_disabled":false,"rental_uris":{"android":"levelo://app?vid=7f97f201-c90f-4cc0-94dd-616b1bd7f4f7","ios":"levelo://app?vid=7f97f201-c90f-4cc0-94dd-616b1bd7f4f7"},"vehicle_type_id":"4","last_reported":1744215186,"current_range_meters":4000,"station_id":"ce4bgop2rcd13ifvqc1g","pricing_plan_id":"cebpf4jnsgd1na2vs0mg"},{"bike_id":"57fd90fa-f404-4f93-a954-9a0c97e83065","system_id":"levelo_inurba_marseille","lat":43.29524,"lon":5.39056,"is_reserved":false,"is_disabled":false,"rental_uris":{"android":"levelo://app?vid=57fd90fa-f404-4f93-a954-9a0c97e83065","ios":"levelo://app?vid=57fd90fa-f404-4f93-a954-9a0c97e83065"},"vehicle_type_id":"4","last_reported":1744215186,"current_range_meters":4400,"station_id":"ce4bh3p2rcd13ifvqdp0","pricing_plan_id":"cebpf4jnsgd1na2vs0mg"},{"bike_id":"f7bb1170-7eff-4cca-9c89-bb4e7fcee6bd","system_id":"levelo_inurba_marseille","lat":43.240808,"lon":5.377558,"is_reserved":false,"is_disabled":false,"rental_uris":{"android":"levelo://app?vid=f7bb1170-7eff-4cca-9c89-bb4e7fcee6bd","ios":"levelo://app?vid=f7bb1170-7eff-4cca-9c89-bb4e7fcee6bd"},"vehicle_type_id":"4","last_reported":1744215186,"current_range_meters":4400,"station_id":"ce4bhnp2rcd13ifvqgvg","pricing_plan_id":"cebpf4jnsgd1na2vs0mg"},{"bike_id":"51f0c52a-b6be-4e3d-bfe9-b4cfc3f024d6","system_id":"levelo_inurba_marseille","lat":43.259289,"lon":5.398544,"is_reserved":false,"is_disabled":false,"rental_uris":{"android":"levelo://app?vid=51f0c52a-b6be-4e3d-bfe9-b4cfc3f024d6","ios":"levelo://app?vid=51f0c52a-b6be-4e3d-bfe9-b4cfc3f024d6"},"vehicle_type_id":"4","last_reported":1744215186,"current_range_meters":4000,"station_id":"ce4bhl92rcd13ifvqghg","pricing_plan_id":"cebpf4jnsgd1na2vs0mg"},{"bike_id":"951a075f-4063-499f-95ef-2ec50db6526c","system_id":"levelo_inurba_marseille","lat":43.229293,"lon":5.353743,"is_reserved":false,"is_disabled":false,"rental_uris":{"android":"levelo://app?vid=951a075f-4063-499f-95ef-2ec50db6526c","ios":"levelo://app?vid=951a075f-4063-499f-95ef-2ec50db6526c"},"vehicle_type_id":"4","last_reported":1744215186,"current_range_meters":4800,"station_id":"cpo3532slgdg3j2ikp40","pricing_plan_id":"cebpf4jnsgd1na2vs0mg"},{"bike_id":"326fea22-8c28-4325-a2d7-733db75bdd28","system_id":"levelo_inurba_marseille","lat":43.29418,"lon":5.3862,"is_reserved":false,"is_disabled":false,"rental_uris":{"android":"levelo://app?vid=326fea22-8c28-4325-a2d7-733db75bdd28","ios":"levelo://app?vid=326fea22-8c28-4325-a2d7-733db75bdd28"},"vehicle_type_id":"4","last_reported":1744215186,"current_range_meters":4800,"station_id":"ce4bh2h2rcd13ifvqdh0","pricing_plan_id":"cebpf4jnsgd1na2vs0mg"},{"bike_id":"488970c7-ad85-4166-a4ad-456252c5bcc5","system_id":"levelo_inurba_marseille","lat":43.2736,"lon":5.40859,"is_reserved":false,"is_disabled":false,"rental_uris":{"android":"levelo://app?vid=488970c7-ad85-4166-a4ad-456252c5bcc5","ios":"levelo://app?vid=488970c7-ad85-4166-a4ad-456252c5bcc5"},"vehicle_type_id":"4","last_reported":1744215186,"current_range_meters":4800,"station_id":"","pricing_plan_id":"cebpf4jnsgd1na2vs0mg"},{"bike_id":"45165544-d213-489f-b05c-adb1fb8630af","system_id":"levelo_inurba_marseille","lat":43.29797,"lon":5.40406,"is_reserved":false,"is_disabled":false,"rental_uris":{"android":"levelo://app?vid=45165544-d213-489f-b05c-adb1fb8630af","ios":"levelo://app?vid=45165544-d213-489f-b05c-adb1fb8630af"},"vehicle_type_id":"4","last_reported":1744215186,"current_range_meters":5600,"station_id":"ce4bh112rcd13ifvqd90","pricing_plan_id":"cebpf4jnsgd1na2vs0mg"},{"bike_id":"4b77882d-889e-49ae-9ade-87210a88fbe8","system_id":"levelo_inurba_marseille","lat":43.279198,"lon":5.39551,"is_reserved":false,"is_disabled":false,"rental_uris":{"android":"levelo://app?vid=4b77882d-889e-49ae-9ade-87210a88fbe8","ios":"levelo://app?vid=4b77882d-889e-49ae-9ade-87210a88fbe8"},"vehicle_type_id":"4","last_reported":1744215186,"current_range_meters":5600,"station_id":"ce4bgup2rcd13ifvqcn0","pricing_plan_id":"cebpf4jnsgd1na2vs0mg"},{"bike_id":"f04f9370-f36f-47f6-9d03-2f7d1cba098a","system_id":"levelo_inurba_marseille","lat":43.3414,"lon":5.40907,"is_reserved":false,"is_disabled":false,"rental_uris":{"android":"levelo://app?vid=f04f9370-f36f-47f6-9d03-2f7d1cba098a","ios":"levelo://app?vid=f04f9370-f36f-47f6-9d03-2f7d1cba098a"},"vehicle_type_id":"4","last_reported":1744215186,"current_range_meters":5600,"station_id":"ce4bhqh2rcd13ifvqhlg","pricing_plan_id":"cebpf4jnsgd1na2vs0mg"},{"bike_id":"5cfd3168-8795-425b-8a53-ba4e29287c98","system_id":"levelo_inurba_marseille","lat":43.30598,"lon":5.3654,"is_reserved":false,"is_disabled":false,"rental_uris":{"android":"levelo://app?vid=5cfd3168-8795-425b-8a53-ba4e29287c98","ios":"levelo://app?vid=5cfd3168-8795-425b-8a53-ba4e29287c98"},"vehicle_type_id":"4","last_reported":1744215186,"current_range_meters":5600,"station_id":"ce4bgvp2rcd13ifvqcu0","pricing_plan_id":"cebpf4jnsgd1na2vs0mg"},{"bike_id":"a9306ebb-5d44-47d3-b0d4-5c026ca11f51","system_id":"levelo_inurba_marseille","lat":43.31074,"lon":5.37861,"is_reserved":false,"is_disabled":false,"rental_uris":{"android":"levelo://app?vid=a9306ebb-5d44-47d3-b0d4-5c026ca11f51","ios":"levelo://app?vid=a9306ebb-5d44-47d3-b0d4-5c026ca11f51"},"vehicle_type_id":"4","last_reported":1744215186,"current_range_meters":6000,"station_id":"ce4bgt92rcd13ifvqcg0","pricing_plan_id":"cebpf4jnsgd1na2vs0mg"},{"bike_id":"a858bb29-31de-4323-b0ee-d31b42165e91","system_id":"levelo_inurba_marseille","lat":43.29788,"lon":5.3806,"is_reserved":false,"is_disabled":false,"rental_uris":{"android":"levelo://app?vid=a858bb29-31de-4323-b0ee-d31b42165e91","ios":"levelo://app?vid=a858bb29-31de-4323-b0ee-d31b42165e91"},"vehicle_type_id":"4","last_reported":1744215186,"current_range_meters":6000,"station_id":"ce4bgip2rcd13ifvqbb0","pricing_plan_id":"cebpf4jnsgd1na2vs0mg"},{"bike_id":"185d5944-481c-40c4-b07b-3c7279204091","system_id":"levelo_inurba_marseille","lat":43.2767,"lon":5.38923,"is_reserved":false,"is_disabled":false,"rental_uris":{"android":"levelo://app?vid=185d5944-481c-40c4-b07b-3c7279204091","ios":"levelo://app?vid=185d5944-481c-40c4-b07b-3c7279204091"},"vehicle_type_id":"4","last_reported":1744215186,"current_range_meters":6400,"station_id":"ce4bhi12rcd13ifvqfo0","pricing_plan_id":"cebpf4jnsgd1na2vs0mg"},{"bike_id":"a7cb23c5-e61f-4868-a268-15ace503e5fa","system_id":"levelo_inurba_marseille","lat":43.29271,"lon":5.38459,"is_reserved":false,"is_disabled":false,"rental_uris":{"android":"levelo://app?vid=a7cb23c5-e61f-4868-a268-15ace503e5fa","ios":"levelo://app?vid=a7cb23c5-e61f-4868-a268-15ace503e5fa"},"vehicle_type_id":"4","last_reported":1744215186,"current_range_meters":6400,"station_id":"ce4bh692rcd13ifvqea0","pricing_plan_id":"cebpf4jnsgd1na2vs0mg"},{"bike_id":"e3ad655e-2918-4848-80a1-25ab3b89eb2f","system_id":"levelo_inurba_marseille","lat":43.284109,"lon":5.375079,"is_reserved":false,"is_disabled":false,"rental_uris":{"android":"levelo://app?vid=e3ad655e-2918-4848-80a1-25ab3b89eb2f","ios":"levelo://app?vid=e3ad655e-2918-4848-80a1-25ab3b89eb2f"},"vehicle_type_id":"4","last_reported":1744215186,"current_range_meters":6400,"station_id":"ce4bhi12rcd13ifvqfq0","pricing_plan_id":"cebpf4jnsgd1na2vs0mg"},{"bike_id":"bf5133d5-9e32-4f6d-bc9c-aa8e60d1399d","system_id":"levelo_inurba_marseille","lat":43.29017,"lon":5.38143,"is_reserved":false,"is_disabled":false,"rental_uris":{"android":"levelo://app?vid=bf5133d5-9e32-4f6d-bc9c-aa8e60d1399d","ios":"levelo://app?vid=bf5133d5-9e32-4f6d-bc9c-aa8e60d1399d"},"vehicle_type_id":"4","last_reported":1744215186,"current_range_meters":6400,"station_id":"ce4bh4p2rcd13ifvqe1g","pricing_plan_id":"cebpf4jnsgd1na2vs0mg"},{"bike_id":"70810d3e-9936-4863-b211-84f880613e88","system_id":"levelo_inurba_marseille","lat":43.31295,"lon":5.37319,"is_reserved":false,"is_disabled":false,"rental_uris":{"android":"levelo://app?vid=70810d3e-9936-4863-b211-84f880613e88","ios":"levelo://app?vid=70810d3e-9936-4863-b211-84f880613e88"},"vehicle_type_id":"4","last_reported":1744215186,"current_range_meters":6400,"station_id":"","pricing_plan_id":"cebpf4jnsgd1na2vs0mg"},{"bike_id":"e49f8745-9e29-43ec-9340-072b6e534a02","system_id":"levelo_inurba_marseille","lat":43.28264,"lon":5.35058,"is_reserved":false,"is_disabled":false,"rental_uris":{"android":"levelo://app?vid=e49f8745-9e29-43ec-9340-072b6e534a02","ios":"levelo://app?vid=e49f8745-9e29-43ec-9340-072b6e534a02"},"vehicle_type_id":"4","last_reported":1744215186,"current_range_meters":6000,"station_id":"ce4bhbp2rcd13ifvqerg","pricing_plan_id":"cebpf4jnsgd1na2vs0mg"},{"bike_id":"ec41b842-c84f-4ab1-894c-fc6101e00efb","system_id":"levelo_inurba_marseille","lat":43.31717,"lon":5.40305,"is_reserved":false,"is_disabled":false,"rental_uris":{"android":"levelo://app?vid=ec41b842-c84f-4ab1-894c-fc6101e00efb","ios":"levelo://app?vid=ec41b842-c84f-4ab1-894c-fc6101e00efb"},"vehicle_type_id":"4","last_reported":1744215186,"current_range_meters":6400,"station_id":"","pricing_plan_id":"cebpf4jnsgd1na2vs0mg"},{"bike_id":"cf95c5fc-e051-4c44-8730-c6394a4b41e7","system_id":"levelo_inurba_marseille","lat":43.26199,"lon":5.37449,"is_reserved":false,"is_disabled":false,"rental_uris":{"android":"levelo://app?vid=cf95c5fc-e051-4c44-8730-c6394a4b41e7","ios":"levelo://app?vid=cf95c5fc-e051-4c44-8730-c6394a4b41e7"},"vehicle_type_id":"4","last_reported":1744215186,"current_range_meters":6800,"station_id":"ce4bhgp2rcd13ifvqfc0","pricing_plan_id":"cebpf4jnsgd1na2vs0mg"},{"bike_id":"3bfd792d-8024-4b3d-8c0a-4428de874fa2","system_id":"levelo_inurba_marseille","lat":43.32376,"lon":5.38418,"is_reserved":false,"is_disabled":false,"rental_uris":{"android":"levelo://app?vid=3bfd792d-8024-4b3d-8c0a-4428de874fa2","ios":"levelo://app?vid=3bfd792d-8024-4b3d-8c0a-4428de874fa2"},"vehicle_type_id":"4","last_reported":1744215186,"current_range_meters":6800,"station_id":"","pricing_plan_id":"cebpf4jnsgd1na2vs0mg"},{"bike_id":"482d6242-3801-4286-8e4c-666718ccde01","system_id":"levelo_inurba_marseille","lat":43.29555,"lon":5.42291,"is_reserved":false,"is_disabled":false,"rental_uris":{"android":"levelo://app?vid=482d6242-3801-4286-8e4c-666718ccde01","ios":"levelo://app?vid=482d6242-3801-4286-8e4c-666718ccde01"},"vehicle_type_id":"4","last_reported":1744215186,"current_range_meters":6800,"station_id":"ce4bhph2rcd13ifvqhdg","pricing_plan_id":"cebpf4jnsgd1na2vs0mg"},{"bike_id":"98aa921a-a7c5-421c-99f8-eed6bdaa61a0","system_id":"levelo_inurba_marseille","lat":43.28105,"lon":5.3784,"is_reserved":false,"is_disabled":false,"rental_uris":{"android":"levelo://app?vid=98aa921a-a7c5-421c-99f8-eed6bdaa61a0","ios":"levelo://app?vid=98aa921a-a7c5-421c-99f8-eed6bdaa61a0"},"vehicle_type_id":"4","last_reported":1744215186,"current_range_meters":6800,"station_id":"ce4bha12rcd13ifvqee0","pricing_plan_id":"cebpf4jnsgd1na2vs0mg"},{"bike_id":"7789bd8b-8aa5-464d-bbb9-d57e8bb1a4a7","system_id":"levelo_inurba_marseille","lat":43.278113,"lon":5.407097,"is_reserved":false,"is_disabled":false,"rental_uris":{"android":"levelo://app?vid=7789bd8b-8aa5-464d-bbb9-d57e8bb1a4a7","ios":"levelo://app?vid=7789bd8b-8aa5-464d-bbb9-d57e8bb1a4a7"},"vehicle_type_id":"4","last_reported":1744215186,"current_range_meters":6800,"station_id":"ce4bhnh2rcd13ifvqgtg","pricing_plan_id":"cebpf4jnsgd1na2vs0mg"},{"bike_id":"b37800d6-3f77-4382-8f0e-6aa522d76496","system_id":"levelo_inurba_marseille","lat":43.289429,"lon":5.366452,"is_reserved":false,"is_disabled":false,"rental_uris":{"android":"levelo://app?vid=b37800d6-3f77-4382-8f0e-6aa522d76496","ios":"levelo://app?vid=b37800d6-3f77-4382-8f0e-6aa522d76496"},"vehicle_type_id":"4","last_reported":1744215186,"current_range_meters":6800,"station_id":"ce4bhap2rcd13ifvqek0","pricing_plan_id":"cebpf4jnsgd1na2vs0mg"},{"bike_id":"3d0cae43-5b75-4aac-b7cb-471ce1151dd5","system_id":"levelo_inurba_marseille","lat":43.33065,"lon":5.39524,"is_reserved":false,"is_disabled":false,"rental_uris":{"android":"levelo://app?vid=3d0cae43-5b75-4aac-b7cb-471ce1151dd5","ios":"levelo://app?vid=3d0cae43-5b75-4aac-b7cb-471ce1151dd5"},"vehicle_type_id":"4","last_reported":1744215186,"current_range_meters":6800,"station_id":"","pricing_plan_id":"cebpf4jnsgd1na2vs0mg"},{"bike_id":"81086608-b7a9-44a5-a3cd-2cdd5afbb20c","system_id":"levelo_inurba_marseille","lat":43.29963,"lon":5.38498,"is_reserved":false,"is_disabled":false,"rental_uris":{"android":"levelo://app?vid=81086608-b7a9-44a5-a3cd-2cdd5afbb20c","ios":"levelo://app?vid=81086608-b7a9-44a5-a3cd-2cdd5afbb20c"},"vehicle_type_id":"4","last_reported":1744215186,"current_range_meters":6800,"station_id":"ce4bgj92rcd13ifvqbd0","pricing_plan_id":"cebpf4jnsgd1na2vs0mg"},{"bike_id":"1d7a16b6-3af0-4452-8c6c-dfa23f783335","system_id":"levelo_inurba_marseille","lat":43.31497,"lon":5.37312,"is_reserved":false,"is_disabled":false,"rental_uris":{"android":"levelo://app?vid=1d7a16b6-3af0-4452-8c6c-dfa23f783335","ios":"levelo://app?vid=1d7a16b6-3af0-4452-8c6c-dfa23f783335"},"vehicle_type_id":"4","last_reported":1744215186,"current_range_meters":6800,"station_id":"ce4bgt12rcd13ifvqcd0","pricing_plan_id":"cebpf4jnsgd1na2vs0mg"},{"bike_id":"3cb42cf0-6a1d-4b57-adf5-538d6c6bddbb","system_id":"levelo_inurba_marseille","lat":43.31074,"lon":5.42413,"is_reserved":false,"is_disabled":false,"rental_uris":{"android":"levelo://app?vid=3cb42cf0-6a1d-4b57-adf5-538d6c6bddbb","ios":"levelo://app?vid=3cb42cf0-6a1d-4b57-adf5-538d6c6bddbb"},"vehicle_type_id":"4","last_reported":1744215186,"current_range_meters":7200,"station_id":"ce4bhp92rcd13ifvqhag","pricing_plan_id":"cebpf4jnsgd1na2vs0mg"},{"bike_id":"68d1cc33-0218-451e-8e10-d32225c21263","system_id":"levelo_inurba_marseille","lat":43.23163,"lon":5.43703,"is_reserved":false,"is_disabled":true,"rental_uris":{"android":"levelo://app?vid=68d1cc33-0218-451e-8e10-d32225c21263","ios":"levelo://app?vid=68d1cc33-0218-451e-8e10-d32225c21263"},"vehicle_type_id":"4","last_reported":1744215186,"current_range_meters":7200,"station_id":"ce4bhmp2rcd13ifvqgog","pricing_plan_id":"cebpf4jnsgd1na2vs0mg"},{"bike_id":"5e6ad826-38da-4531-b4ba-2eda8622ede3","system_id":"levelo_inurba_marseille","lat":43.31095,"lon":5.40449,"is_reserved":false,"is_disabled":false,"rental_uris":{"android":"levelo://app?vid=5e6ad826-38da-4531-b4ba-2eda8622ede3","ios":"levelo://app?vid=5e6ad826-38da-4531-b4ba-2eda8622ede3"},"vehicle_type_id":"4","last_reported":1744215186,"current_range_meters":7200,"station_id":"","pricing_plan_id":"cebpf4jnsgd1na2vs0mg"},{"bike_id":"25091db6-7cbc-4d6a-a8ad-6d6900c5c5e6","system_id":"levelo_inurba_marseille","lat":43.28168,"lon":5.426565,"is_reserved":false,"is_disabled":false,"rental_uris":{"android":"levelo://app?vid=25091db6-7cbc-4d6a-a8ad-6d6900c5c5e6","ios":"levelo://app?vid=25091db6-7cbc-4d6a-a8ad-6d6900c5c5e6"},"vehicle_type_id":"4","last_reported":1744215186,"current_range_meters":7200,"station_id":"ce4bhnh2rcd13ifvqgug","pricing_plan_id":"cebpf4jnsgd1na2vs0mg"},{"bike_id":"46379c4c-0de7-422a-94cc-ead13e7659ad","system_id":"levelo_inurba_marseille","lat":43.27947,"lon":5.41046,"is_reserved":false,"is_disabled":false,"rental_uris":{"android":"levelo://app?vid=46379c4c-0de7-422a-94cc-ead13e7659ad","ios":"levelo://app?vid=46379c4c-0de7-422a-94cc-ead13e7659ad"},"vehicle_type_id":"4","last_reported":1744215186,"current_range_meters":7200,"station_id":"ce4bhnp2rcd13ifvqh0g","pricing_plan_id":"cebpf4jnsgd1na2vs0mg"},{"bike_id":"54810eb8-72a8-436e-984b-e37f020e365a","system_id":"levelo_inurba_marseille","lat":43.29005,"lon":5.35606,"is_reserved":false,"is_disabled":false,"rental_uris":{"android":"levelo://app?vid=54810eb8-72a8-436e-984b-e37f020e365a","ios":"levelo://app?vid=54810eb8-72a8-436e-984b-e37f020e365a"},"vehicle_type_id":"4","last_reported":1744215186,"current_range_meters":8000,"station_id":"ce4bhb92rcd13ifvqen0","pricing_plan_id":"cebpf4jnsgd1na2vs0mg"},{"bike_id":"29cddc84-5040-4868-8871-abf6238d5320","system_id":"levelo_inurba_marseille","lat":43.30645,"lon":5.4006,"is_reserved":false,"is_disabled":false,"rental_uris":{"android":"levelo://app?vid=29cddc84-5040-4868-8871-abf6238d5320","ios":"levelo://app?vid=29cddc84-5040-4868-8871-abf6238d5320"},"vehicle_type_id":"4","last_reported":1744215186,"current_range_meters":8000,"station_id":"ce4bh112rcd13ifvqda0","pricing_plan_id":"cebpf4jnsgd1na2vs0mg"},{"bike_id":"1c3f0a29-ec76-47aa-9129-32487e60010b","system_id":"levelo_inurba_marseille","lat":43.27952,"lon":5.4105,"is_reserved":false,"is_disabled":false,"rental_uris":{"android":"levelo://app?vid=1c3f0a29-ec76-47aa-9129-32487e60010b","ios":"levelo://app?vid=1c3f0a29-ec76-47aa-9129-32487e60010b"},"vehicle_type_id":"4","last_reported":1744215186,"current_range_meters":8000,"station_id":"ce4bhnp2rcd13ifvqh0g","pricing_plan_id":"cebpf4jnsgd1na2vs0mg"},{"bike_id":"0a853832-3c59-4301-948b-8329ad61f27d","system_id":"levelo_inurba_marseille","lat":43.2396,"lon":5.36641,"is_reserved":false,"is_disabled":false,"rental_uris":{"android":"levelo://app?vid=0a853832-3c59-4301-948b-8329ad61f27d","ios":"levelo://app?vid=0a853832-3c59-4301-948b-8329ad61f27d"},"vehicle_type_id":"4","last_reported":1744215186,"current_range_meters":8000,"station_id":"ce4bhi12rcd13ifvqfp0","pricing_plan_id":"cebpf4jnsgd1na2vs0mg"},{"bike_id":"80663e12-6b64-446d-88c9-20255bde1a8a","system_id":"levelo_inurba_marseille","lat":43.308929,"lon":5.396361,"is_reserved":false,"is_disabled":true,"rental_uris":{"android":"levelo://app?vid=80663e12-6b64-446d-88c9-20255bde1a8a","ios":"levelo://app?vid=80663e12-6b64-446d-88c9-20255bde1a8a"},"vehicle_type_id":"4","last_reported":1744215186,"current_range_meters":8400,"station_id":"ce4bh012rcd13ifvqcv0","pricing_plan_id":"cebpf4jnsgd1na2vs0mg"},{"bike_id":"18b8c9a0-a4ab-419a-b450-eae4a51ea584","system_id":"levelo_inurba_marseille","lat":43.29801,"lon":5.38115,"is_reserved":false,"is_disabled":false,"rental_uris":{"android":"levelo://app?vid=18b8c9a0-a4ab-419a-b450-eae4a51ea584","ios":"levelo://app?vid=18b8c9a0-a4ab-419a-b450-eae4a51ea584"},"vehicle_type_id":"4","last_reported":1744215186,"current_range_meters":8400,"station_id":"ce4bgip2rcd13ifvqbb0","pricing_plan_id":"cebpf4jnsgd1na2vs0mg"},{"bike_id":"a566336b-6133-47a6-ad7f-74f32862e29a","system_id":"levelo_inurba_marseille","lat":43.30394,"lon":5.42516,"is_reserved":false,"is_disabled":false,"rental_uris":{"android":"levelo://app?vid=a566336b-6133-47a6-ad7f-74f32862e29a","ios":"levelo://app?vid=a566336b-6133-47a6-ad7f-74f32862e29a"},"vehicle_type_id":"4","last_reported":1744215186,"current_range_meters":8400,"station_id":"ce4bhoh2rcd13ifvqh6g","pricing_plan_id":"cebpf4jnsgd1na2vs0mg"},{"bike_id":"08f9c0c8-8b33-4578-8a03-20f44d582241","system_id":"levelo_inurba_marseille","lat":43.30598,"lon":5.37136,"is_reserved":false,"is_disabled":false,"rental_uris":{"android":"levelo://app?vid=08f9c0c8-8b33-4578-8a03-20f44d582241","ios":"levelo://app?vid=08f9c0c8-8b33-4578-8a03-20f44d582241"},"vehicle_type_id":"4","last_reported":1744215186,"current_range_meters":8400,"station_id":"","pricing_plan_id":"cebpf4jnsgd1na2vs0mg"},{"bike_id":"775733a9-8be6-4b1a-bfa1-d68b64a4b98a","system_id":"levelo_inurba_marseille","lat":43.2738,"lon":5.36259,"is_reserved":false,"is_disabled":false,"rental_uris":{"android":"levelo://app?vid=775733a9-8be6-4b1a-bfa1-d68b64a4b98a","ios":"levelo://app?vid=775733a9-8be6-4b1a-bfa1-d68b64a4b98a"},"vehicle_type_id":"4","last_reported":1744215186,"current_range_meters":8400,"station_id":"ce4bhbh2rcd13ifvqeo0","pricing_plan_id":"cebpf4jnsgd1na2vs0mg"},{"bike_id":"c00dd6bc-1a40-49de-b95d-9b8867ddf103","system_id":"levelo_inurba_marseille","lat":43.29436,"lon":5.39753,"is_reserved":false,"is_disabled":false,"rental_uris":{"android":"levelo://app?vid=c00dd6bc-1a40-49de-b95d-9b8867ddf103","ios":"levelo://app?vid=c00dd6bc-1a40-49de-b95d-9b8867ddf103"},"vehicle_type_id":"4","last_reported":1744215186,"current_range_meters":8400,"station_id":"ce4bh3h2rcd13ifvqdo0","pricing_plan_id":"cebpf4jnsgd1na2vs0mg"},{"bike_id":"feca3d9e-12e9-4a3a-8f8a-211aa953b3fa","system_id":"levelo_inurba_marseille","lat":43.29322,"lon":5.41181,"is_reserved":false,"is_disabled":false,"rental_uris":{"android":"levelo://app?vid=feca3d9e-12e9-4a3a-8f8a-211aa953b3fa","ios":"levelo://app?vid=feca3d9e-12e9-4a3a-8f8a-211aa953b3fa"},"vehicle_type_id":"4","last_reported":1744215186,"current_range_meters":8400,"station_id":"","pricing_plan_id":"cebpf4jnsgd1na2vs0mg"},{"bike_id":"b397701f-0d3d-44bf-ab3e-3ccc7e74fb2e","system_id":"levelo_inurba_marseille","lat":43.26436,"lon":5.42285,"is_reserved":false,"is_disabled":false,"rental_uris":{"android":"levelo://app?vid=b397701f-0d3d-44bf-ab3e-3ccc7e74fb2e","ios":"levelo://app?vid=b397701f-0d3d-44bf-ab3e-3ccc7e74fb2e"},"vehicle_type_id":"4","last_reported":1744215186,"current_range_meters":8400,"station_id":"","pricing_plan_id":"cebpf4jnsgd1na2vs0mg"},{"bike_id":"ad212075-aa88-4f52-8b77-40fff53ff563","system_id":"levelo_inurba_marseille","lat":43.30365,"lon":5.42506,"is_reserved":false,"is_disabled":false,"rental_uris":{"android":"levelo://app?vid=ad212075-aa88-4f52-8b77-40fff53ff563","ios":"levelo://app?vid=ad212075-aa88-4f52-8b77-40fff53ff563"},"vehicle_type_id":"4","last_reported":1744215186,"current_range_meters":8400,"station_id":"ce4bhoh2rcd13ifvqh6g","pricing_plan_id":"cebpf4jnsgd1na2vs0mg"},{"bike_id":"5f2bedca-845c-439a-9f06-616738a9f9ab","system_id":"levelo_inurba_marseille","lat":43.24065,"lon":5.37766,"is_reserved":false,"is_disabled":false,"rental_uris":{"android":"levelo://app?vid=5f2bedca-845c-439a-9f06-616738a9f9ab","ios":"levelo://app?vid=5f2bedca-845c-439a-9f06-616738a9f9ab"},"vehicle_type_id":"4","last_reported":1744215186,"current_range_meters":6000,"station_id":"ce4bhnp2rcd13ifvqgvg","pricing_plan_id":"cebpf4jnsgd1na2vs0mg"},{"bike_id":"d0eeea24-6369-436e-89b9-0e1792fabb25","system_id":"levelo_inurba_marseille","lat":43.29535,"lon":5.38532,"is_reserved":false,"is_disabled":false,"rental_uris":{"android":"levelo://app?vid=d0eeea24-6369-436e-89b9-0e1792fabb25","ios":"levelo://app?vid=d0eeea24-6369-436e-89b9-0e1792fabb25"},"vehicle_type_id":"4","last_reported":1744215186,"current_range_meters":8800,"station_id":"ce4bgih2rcd13ifvqba0","pricing_plan_id":"cebpf4jnsgd1na2vs0mg"},{"bike_id":"b50c2cab-ef46-4099-b292-bd0ff46a605c","system_id":"levelo_inurba_marseille","lat":43.24809,"lon":5.37461,"is_reserved":false,"is_disabled":false,"rental_uris":{"android":"levelo://app?vid=b50c2cab-ef46-4099-b292-bd0ff46a605c","ios":"levelo://app?vid=b50c2cab-ef46-4099-b292-bd0ff46a605c"},"vehicle_type_id":"4","last_reported":1744215186,"current_range_meters":8400,"station_id":"ce4bhgh2rcd13ifvqfb0","pricing_plan_id":"cebpf4jnsgd1na2vs0mg"},{"bike_id":"b8853cc6-a470-4f93-b589-16fde229779c","system_id":"levelo_inurba_marseille","lat":43.2794,"lon":5.41049,"is_reserved":false,"is_disabled":false,"rental_uris":{"android":"levelo://app?vid=b8853cc6-a470-4f93-b589-16fde229779c","ios":"levelo://app?vid=b8853cc6-a470-4f93-b589-16fde229779c"},"vehicle_type_id":"4","last_reported":1744215186,"current_range_meters":8800,"station_id":"ce4bhnp2rcd13ifvqh0g","pricing_plan_id":"cebpf4jnsgd1na2vs0mg"},{"bike_id":"6806d000-65f7-4912-97c7-24bf8c24ae8f","system_id":"levelo_inurba_marseille","lat":43.31161,"lon":5.3881,"is_reserved":false,"is_disabled":false,"rental_uris":{"android":"levelo://app?vid=6806d000-65f7-4912-97c7-24bf8c24ae8f","ios":"levelo://app?vid=6806d000-65f7-4912-97c7-24bf8c24ae8f"},"vehicle_type_id":"4","last_reported":1744215186,"current_range_meters":9200,"station_id":"","pricing_plan_id":"cebpf4jnsgd1na2vs0mg"},{"bike_id":"b109ce60-cfd3-4e62-97f9-787193fd29f3","system_id":"levelo_inurba_marseille","lat":43.24081,"lon":5.37652,"is_reserved":false,"is_disabled":false,"rental_uris":{"android":"levelo://app?vid=b109ce60-cfd3-4e62-97f9-787193fd29f3","ios":"levelo://app?vid=b109ce60-cfd3-4e62-97f9-787193fd29f3"},"vehicle_type_id":"4","last_reported":1744215186,"current_range_meters":8800,"station_id":"ce4bhnp2rcd13ifvqgvg","pricing_plan_id":"cebpf4jnsgd1na2vs0mg"},{"bike_id":"0e7051ad-00f7-4897-9995-929c1987289a","system_id":"levelo_inurba_marseille","lat":43.33045,"lon":5.39029,"is_reserved":false,"is_disabled":false,"rental_uris":{"android":"levelo://app?vid=0e7051ad-00f7-4897-9995-929c1987289a","ios":"levelo://app?vid=0e7051ad-00f7-4897-9995-929c1987289a"},"vehicle_type_id":"4","last_reported":1744215186,"current_range_meters":8800,"station_id":"ce4bhr92rcd13ifvqhrg","pricing_plan_id":"cebpf4jnsgd1na2vs0mg"},{"bike_id":"ded10d64-bf66-4765-9d2b-fbb4ba7b9c18","system_id":"levelo_inurba_marseille","lat":43.29422,"lon":5.38625,"is_reserved":false,"is_disabled":false,"rental_uris":{"android":"levelo://app?vid=ded10d64-bf66-4765-9d2b-fbb4ba7b9c18","ios":"levelo://app?vid=ded10d64-bf66-4765-9d2b-fbb4ba7b9c18"},"vehicle_type_id":"4","last_reported":1744215186,"current_range_meters":8800,"station_id":"ce4bh2h2rcd13ifvqdh0","pricing_plan_id":"cebpf4jnsgd1na2vs0mg"},{"bike_id":"3035ef3e-21ae-47da-a521-4ffb3e9ea3a5","system_id":"levelo_inurba_marseille","lat":43.27948,"lon":5.41048,"is_reserved":false,"is_disabled":false,"rental_uris":{"android":"levelo://app?vid=3035ef3e-21ae-47da-a521-4ffb3e9ea3a5","ios":"levelo://app?vid=3035ef3e-21ae-47da-a521-4ffb3e9ea3a5"},"vehicle_type_id":"4","last_reported":1744215186,"current_range_meters":9200,"station_id":"ce4bhnp2rcd13ifvqh0g","pricing_plan_id":"cebpf4jnsgd1na2vs0mg"},{"bike_id":"5dca8226-8c41-4c36-9bb7-6898bac28605","system_id":"levelo_inurba_marseille","lat":43.27374,"lon":5.36243,"is_reserved":false,"is_disabled":false,"rental_uris":{"android":"levelo://app?vid=5dca8226-8c41-4c36-9bb7-6898bac28605","ios":"levelo://app?vid=5dca8226-8c41-4c36-9bb7-6898bac28605"},"vehicle_type_id":"4","last_reported":1744215186,"current_range_meters":9200,"station_id":"ce4bhbh2rcd13ifvqeo0","pricing_plan_id":"cebpf4jnsgd1na2vs0mg"},{"bike_id":"4ce1f9c6-ca43-45f6-bad7-55d7134cb815","system_id":"levelo_inurba_marseille","lat":43.28292,"lon":5.35091,"is_reserved":false,"is_disabled":false,"rental_uris":{"android":"levelo://app?vid=4ce1f9c6-ca43-45f6-bad7-55d7134cb815","ios":"levelo://app?vid=4ce1f9c6-ca43-45f6-bad7-55d7134cb815"},"vehicle_type_id":"4","last_reported":1744215186,"current_range_meters":9200,"station_id":"ce4bhbp2rcd13ifvqerg","pricing_plan_id":"cebpf4jnsgd1na2vs0mg"},{"bike_id":"b83f5d56-be0a-4603-8ebb-6e6897497140","system_id":"levelo_inurba_marseille","lat":43.24794,"lon":5.37456,"is_reserved":false,"is_disabled":false,"rental_uris":{"android":"levelo://app?vid=b83f5d56-be0a-4603-8ebb-6e6897497140","ios":"levelo://app?vid=b83f5d56-be0a-4603-8ebb-6e6897497140"},"vehicle_type_id":"4","last_reported":1744215186,"current_range_meters":9200,"station_id":"ce4bhgh2rcd13ifvqfb0","pricing_plan_id":"cebpf4jnsgd1na2vs0mg"},{"bike_id":"26a2c694-ac2a-4bf6-ac8f-bbadfe641824","system_id":"levelo_inurba_marseille","lat":43.27379,"lon":5.36252,"is_reserved":false,"is_disabled":false,"rental_uris":{"android":"levelo://app?vid=26a2c694-ac2a-4bf6-ac8f-bbadfe641824","ios":"levelo://app?vid=26a2c694-ac2a-4bf6-ac8f-bbadfe641824"},"vehicle_type_id":"4","last_reported":1744215186,"current_range_meters":9200,"station_id":"ce4bhbh2rcd13ifvqeo0","pricing_plan_id":"cebpf4jnsgd1na2vs0mg"},{"bike_id":"841cc48f-644f-4c42-a397-236e943da4b4","system_id":"levelo_inurba_marseille","lat":43.27079,"lon":5.42246,"is_reserved":false,"is_disabled":false,"rental_uris":{"android":"levelo://app?vid=841cc48f-644f-4c42-a397-236e943da4b4","ios":"levelo://app?vid=841cc48f-644f-4c42-a397-236e943da4b4"},"vehicle_type_id":"4","last_reported":1744215186,"current_range_meters":9200,"station_id":"ce4bhk92rcd13ifvqgb0","pricing_plan_id":"cebpf4jnsgd1na2vs0mg"},{"bike_id":"6d666688-f27c-42f6-8881-5ac137fe4856","system_id":"levelo_inurba_marseille","lat":43.2721,"lon":5.39174,"is_reserved":false,"is_disabled":false,"rental_uris":{"android":"levelo://app?vid=6d666688-f27c-42f6-8881-5ac137fe4856","ios":"levelo://app?vid=6d666688-f27c-42f6-8881-5ac137fe4856"},"vehicle_type_id":"4","last_reported":1744215186,"current_range_meters":8800,"station_id":"ce4bhhp2rcd13ifvqfm0","pricing_plan_id":"cebpf4jnsgd1na2vs0mg"},{"bike_id":"77a19370-5d1c-422a-8b69-9d4e5c766581","system_id":"levelo_inurba_marseille","lat":43.30133,"lon":5.3878,"is_reserved":false,"is_disabled":false,"rental_uris":{"android":"levelo://app?vid=77a19370-5d1c-422a-8b69-9d4e5c766581","ios":"levelo://app?vid=77a19370-5d1c-422a-8b69-9d4e5c766581"},"vehicle_type_id":"4","last_reported":1744215186,"current_range_meters":9600,"station_id":"ce4bghh2rcd13ifvqb60","pricing_plan_id":"cebpf4jnsgd1na2vs0mg"},{"bike_id":"1edab1b3-58b6-4885-8608-6066fb810ed7","system_id":"levelo_inurba_marseille","lat":43.31127,"lon":5.3775,"is_reserved":false,"is_disabled":false,"rental_uris":{"android":"levelo://app?vid=1edab1b3-58b6-4885-8608-6066fb810ed7","ios":"levelo://app?vid=1edab1b3-58b6-4885-8608-6066fb810ed7"},"vehicle_type_id":"4","last_reported":1744215186,"current_range_meters":9600,"station_id":"ce4bgt92rcd13ifvqcg0","pricing_plan_id":"cebpf4jnsgd1na2vs0mg"},{"bike_id":"277a3d62-b186-4754-a538-5d94ea160663","system_id":"levelo_inurba_marseille","lat":43.25578,"lon":5.38216,"is_reserved":false,"is_disabled":false,"rental_uris":{"android":"levelo://app?vid=277a3d62-b186-4754-a538-5d94ea160663","ios":"levelo://app?vid=277a3d62-b186-4754-a538-5d94ea160663"},"vehicle_type_id":"4","last_reported":1744215186,"current_range_meters":9600,"station_id":"ce4bhih2rcd13ifvqfs0","pricing_plan_id":"cebpf4jnsgd1na2vs0mg"},{"bike_id":"6e1a6128-f562-4368-95c1-7af69a5648f5","system_id":"levelo_inurba_marseille","lat":43.29262,"lon":5.40901,"is_reserved":false,"is_disabled":false,"rental_uris":{"android":"levelo://app?vid=6e1a6128-f562-4368-95c1-7af69a5648f5","ios":"levelo://app?vid=6e1a6128-f562-4368-95c1-7af69a5648f5"},"vehicle_type_id":"4","last_reported":1744215186,"current_range_meters":9600,"station_id":"ce4bh192rcd13ifvqdc0","pricing_plan_id":"cebpf4jnsgd1na2vs0mg"},{"bike_id":"2cc0bc34-13c4-4917-b1c7-f3f59a9b9e63","system_id":"levelo_inurba_marseille","lat":43.28116,"lon":5.37816,"is_reserved":false,"is_disabled":false,"rental_uris":{"android":"levelo://app?vid=2cc0bc34-13c4-4917-b1c7-f3f59a9b9e63","ios":"levelo://app?vid=2cc0bc34-13c4-4917-b1c7-f3f59a9b9e63"},"vehicle_type_id":"4","last_reported":1744215186,"current_range_meters":9600,"station_id":"ce4bha12rcd13ifvqee0","pricing_plan_id":"cebpf4jnsgd1na2vs0mg"},{"bike_id":"eca15ec0-601f-45f7-99af-6cab93e7f0ef","system_id":"levelo_inurba_marseille","lat":43.28371,"lon":5.38643,"is_reserved":false,"is_disabled":false,"rental_uris":{"android":"levelo://app?vid=eca15ec0-601f-45f7-99af-6cab93e7f0ef","ios":"levelo://app?vid=eca15ec0-601f-45f7-99af-6cab93e7f0ef"},"vehicle_type_id":"4","last_reported":1744215186,"current_range_meters":9600,"station_id":"ce4bh492rcd13ifvqdvg","pricing_plan_id":"cebpf4jnsgd1na2vs0mg"},{"bike_id":"d8e57235-9ef5-4217-84d8-4ce2e9e487e5","system_id":"levelo_inurba_marseille","lat":43.29267,"lon":5.38427,"is_reserved":false,"is_disabled":false,"rental_uris":{"android":"levelo://app?vid=d8e57235-9ef5-4217-84d8-4ce2e9e487e5","ios":"levelo://app?vid=d8e57235-9ef5-4217-84d8-4ce2e9e487e5"},"vehicle_type_id":"4","last_reported":1744215186,"current_range_meters":10000,"station_id":"ce4bh692rcd13ifvqea0","pricing_plan_id":"cebpf4jnsgd1na2vs0mg"},{"bike_id":"85c6c1a7-1e02-4ae5-b680-67cbc15bed7f","system_id":"levelo_inurba_marseille","lat":43.27497,"lon":5.42459,"is_reserved":false,"is_disabled":false,"rental_uris":{"android":"levelo://app?vid=85c6c1a7-1e02-4ae5-b680-67cbc15bed7f","ios":"levelo://app?vid=85c6c1a7-1e02-4ae5-b680-67cbc15bed7f"},"vehicle_type_id":"4","last_reported":1744215186,"current_range_meters":10000,"station_id":"ce4bhn92rcd13ifvqgrg","pricing_plan_id":"cebpf4jnsgd1na2vs0mg"},{"bike_id":"1a8c3bfa-7658-4f5e-93b8-93807ec24b6f","system_id":"levelo_inurba_marseille","lat":43.26569,"lon":5.39003,"is_reserved":false,"is_disabled":true,"rental_uris":{"android":"levelo://app?vid=1a8c3bfa-7658-4f5e-93b8-93807ec24b6f","ios":"levelo://app?vid=1a8c3bfa-7658-4f5e-93b8-93807ec24b6f"},"vehicle_type_id":"4","last_reported":1744215186,"current_range_meters":10000,"station_id":"ce4bhe12rcd13ifvqf30","pricing_plan_id":"cebpf4jnsgd1na2vs0mg"},{"bike_id":"27c64984-b013-4d83-af9b-2166eee7a911","system_id":"levelo_inurba_marseille","lat":43.28366,"lon":5.38634,"is_reserved":false,"is_disabled":false,"rental_uris":{"android":"levelo://app?vid=27c64984-b013-4d83-af9b-2166eee7a911","ios":"levelo://app?vid=27c64984-b013-4d83-af9b-2166eee7a911"},"vehicle_type_id":"4","last_reported":1744215186,"current_range_meters":10000,"station_id":"ce4bh492rcd13ifvqdvg","pricing_plan_id":"cebpf4jnsgd1na2vs0mg"},{"bike_id":"266646be-b7f7-42e0-871e-347e76278ec3","system_id":"levelo_inurba_marseille","lat":43.28699,"lon":5.3999,"is_reserved":false,"is_disabled":false,"rental_uris":{"android":"levelo://app?vid=266646be-b7f7-42e0-871e-347e76278ec3","ios":"levelo://app?vid=266646be-b7f7-42e0-871e-347e76278ec3"},"vehicle_type_id":"4","last_reported":1744215186,"current_range_meters":10000,"station_id":"ce4bho92rcd13ifvqh3g","pricing_plan_id":"cebpf4jnsgd1na2vs0mg"},{"bike_id":"6b6cb127-f749-4432-993a-369962b0a3ce","system_id":"levelo_inurba_marseille","lat":43.29714,"lon":5.36607,"is_reserved":false,"is_disabled":false,"rental_uris":{"android":"levelo://app?vid=6b6cb127-f749-4432-993a-369962b0a3ce","ios":"levelo://app?vid=6b6cb127-f749-4432-993a-369962b0a3ce"},"vehicle_type_id":"4","last_reported":1744215186,"current_range_meters":10800,"station_id":"ce4bgn12rcd13ifvqbt0","pricing_plan_id":"cebpf4jnsgd1na2vs0mg"},{"bike_id":"59b621ed-81cf-40df-a684-917ebf84494c","system_id":"levelo_inurba_marseille","lat":43.28616,"lon":5.35113,"is_reserved":false,"is_disabled":false,"rental_uris":{"android":"levelo://app?vid=59b621ed-81cf-40df-a684-917ebf84494c","ios":"levelo://app?vid=59b621ed-81cf-40df-a684-917ebf84494c"},"vehicle_type_id":"4","last_reported":1744215186,"current_range_meters":10800,"station_id":"ce4bhch2rcd13ifvqeug","pricing_plan_id":"cebpf4jnsgd1na2vs0mg"},{"bike_id":"4b4cdf38-8b39-432f-9783-3290b1cfc867","system_id":"levelo_inurba_marseille","lat":43.28154,"lon":5.42666,"is_reserved":false,"is_disabled":false,"rental_uris":{"android":"levelo://app?vid=4b4cdf38-8b39-432f-9783-3290b1cfc867","ios":"levelo://app?vid=4b4cdf38-8b39-432f-9783-3290b1cfc867"},"vehicle_type_id":"4","last_reported":1744215186,"current_range_meters":10800,"station_id":"ce4bhnh2rcd13ifvqgug","pricing_plan_id":"cebpf4jnsgd1na2vs0mg"},{"bike_id":"2d83b890-86af-4c4f-8fe5-4d3df25272d7","system_id":"levelo_inurba_marseille","lat":43.301486,"lon":5.3741,"is_reserved":false,"is_disabled":false,"rental_uris":{"android":"levelo://app?vid=2d83b890-86af-4c4f-8fe5-4d3df25272d7","ios":"levelo://app?vid=2d83b890-86af-4c4f-8fe5-4d3df25272d7"},"vehicle_type_id":"4","last_reported":1744215186,"current_range_meters":10800,"station_id":"ce4bgs92rcd13ifvqcc0","pricing_plan_id":"cebpf4jnsgd1na2vs0mg"},{"bike_id":"2f11cdc9-520f-409c-9091-30bd770d7fd0","system_id":"levelo_inurba_marseille","lat":43.279153,"lon":5.410328,"is_reserved":false,"is_disabled":false,"rental_uris":{"android":"levelo://app?vid=2f11cdc9-520f-409c-9091-30bd770d7fd0","ios":"levelo://app?vid=2f11cdc9-520f-409c-9091-30bd770d7fd0"},"vehicle_type_id":"4","last_reported":1744215186,"current_range_meters":11200,"station_id":"ce4bhnp2rcd13ifvqh0g","pricing_plan_id":"cebpf4jnsgd1na2vs0mg"},{"bike_id":"116f33ac-4d1a-44e5-8f1f-c3419569c7c4","system_id":"levelo_inurba_marseille","lat":43.25587,"lon":5.38228,"is_reserved":false,"is_disabled":false,"rental_uris":{"android":"levelo://app?vid=116f33ac-4d1a-44e5-8f1f-c3419569c7c4","ios":"levelo://app?vid=116f33ac-4d1a-44e5-8f1f-c3419569c7c4"},"vehicle_type_id":"4","last_reported":1744215186,"current_range_meters":11200,"station_id":"ce4bhih2rcd13ifvqfs0","pricing_plan_id":"cebpf4jnsgd1na2vs0mg"},{"bike_id":"a7e10536-504f-4b6d-8d43-816063636154","system_id":"levelo_inurba_marseille","lat":43.27372,"lon":5.3626,"is_reserved":false,"is_disabled":false,"rental_uris":{"android":"levelo://app?vid=a7e10536-504f-4b6d-8d43-816063636154","ios":"levelo://app?vid=a7e10536-504f-4b6d-8d43-816063636154"},"vehicle_type_id":"4","last_reported":1744215186,"current_range_meters":11200,"station_id":"ce4bhbh2rcd13ifvqeo0","pricing_plan_id":"cebpf4jnsgd1na2vs0mg"},{"bike_id":"13e9d326-8498-4f93-97fe-fcb99ef31cf9","system_id":"levelo_inurba_marseille","lat":43.27073,"lon":5.42275,"is_reserved":false,"is_disabled":false,"rental_uris":{"android":"levelo://app?vid=13e9d326-8498-4f93-97fe-fcb99ef31cf9","ios":"levelo://app?vid=13e9d326-8498-4f93-97fe-fcb99ef31cf9"},"vehicle_type_id":"4","last_reported":1744215186,"current_range_meters":11200,"station_id":"ce4bhk92rcd13ifvqgb0","pricing_plan_id":"cebpf4jnsgd1na2vs0mg"},{"bike_id":"966a8627-fcf5-4316-a7e2-e742924a9b65","system_id":"levelo_inurba_marseille","lat":43.29872,"lon":5.39721,"is_reserved":false,"is_disabled":false,"rental_uris":{"android":"levelo://app?vid=966a8627-fcf5-4316-a7e2-e742924a9b65","ios":"levelo://app?vid=966a8627-fcf5-4316-a7e2-e742924a9b65"},"vehicle_type_id":"4","last_reported":1744215186,"current_range_meters":11200,"station_id":"ce4bh0h2rcd13ifvqd50","pricing_plan_id":"cebpf4jnsgd1na2vs0mg"},{"bike_id":"e4a9b27d-4a58-4be8-9d63-1ab28b8757fb","system_id":"levelo_inurba_marseille","lat":43.2981,"lon":5.38085,"is_reserved":false,"is_disabled":false,"rental_uris":{"android":"levelo://app?vid=e4a9b27d-4a58-4be8-9d63-1ab28b8757fb","ios":"levelo://app?vid=e4a9b27d-4a58-4be8-9d63-1ab28b8757fb"},"vehicle_type_id":"4","last_reported":1744215186,"current_range_meters":11600,"station_id":"ce4bgip2rcd13ifvqbb0","pricing_plan_id":"cebpf4jnsgd1na2vs0mg"},{"bike_id":"60bc3fb2-7a9c-478d-bae3-531d94541e5b","system_id":"levelo_inurba_marseille","lat":43.27067,"lon":5.4228,"is_reserved":false,"is_disabled":false,"rental_uris":{"android":"levelo://app?vid=60bc3fb2-7a9c-478d-bae3-531d94541e5b","ios":"levelo://app?vid=60bc3fb2-7a9c-478d-bae3-531d94541e5b"},"vehicle_type_id":"4","last_reported":1744215186,"current_range_meters":11600,"station_id":"ce4bhk92rcd13ifvqgb0","pricing_plan_id":"cebpf4jnsgd1na2vs0mg"},{"bike_id":"7fb59608-44e8-40fd-8d5a-7e610deffd31","system_id":"levelo_inurba_marseille","lat":43.29263,"lon":5.38426,"is_reserved":false,"is_disabled":false,"rental_uris":{"android":"levelo://app?vid=7fb59608-44e8-40fd-8d5a-7e610deffd31","ios":"levelo://app?vid=7fb59608-44e8-40fd-8d5a-7e610deffd31"},"vehicle_type_id":"4","last_reported":1744215186,"current_range_meters":11200,"station_id":"ce4bh692rcd13ifvqea0","pricing_plan_id":"cebpf4jnsgd1na2vs0mg"},{"bike_id":"e82d3cbf-6990-4eca-9743-6a7db542c284","system_id":"levelo_inurba_marseille","lat":43.3233,"lon":5.40628,"is_reserved":false,"is_disabled":false,"rental_uris":{"android":"levelo://app?vid=e82d3cbf-6990-4eca-9743-6a7db542c284","ios":"levelo://app?vid=e82d3cbf-6990-4eca-9743-6a7db542c284"},"vehicle_type_id":"4","last_reported":1744215186,"current_range_meters":11600,"station_id":"ce4bhq92rcd13ifvqhjg","pricing_plan_id":"cebpf4jnsgd1na2vs0mg"},{"bike_id":"ee6afe5a-b13d-4b3f-a3cc-b8aa821e2106","system_id":"levelo_inurba_marseille","lat":43.23202,"lon":5.40031,"is_reserved":false,"is_disabled":false,"rental_uris":{"android":"levelo://app?vid=ee6afe5a-b13d-4b3f-a3cc-b8aa821e2106","ios":"levelo://app?vid=ee6afe5a-b13d-4b3f-a3cc-b8aa821e2106"},"vehicle_type_id":"4","last_reported":1744215186,"current_range_meters":11600,"station_id":"ce4bhn12rcd13ifvqgqg","pricing_plan_id":"cebpf4jnsgd1na2vs0mg"},{"bike_id":"073dc9ab-39a8-41d9-abfa-068435f57c56","system_id":"levelo_inurba_marseille","lat":43.24651,"lon":5.38891,"is_reserved":false,"is_disabled":false,"rental_uris":{"android":"levelo://app?vid=073dc9ab-39a8-41d9-abfa-068435f57c56","ios":"levelo://app?vid=073dc9ab-39a8-41d9-abfa-068435f57c56"},"vehicle_type_id":"4","last_reported":1744215186,"current_range_meters":11200,"station_id":"ce4bhg12rcd13ifvqf60","pricing_plan_id":"cebpf4jnsgd1na2vs0mg"},{"bike_id":"9dfb2e29-03e9-426f-8daa-c5a6eeb96a84","system_id":"levelo_inurba_marseille","lat":43.28028,"lon":5.36962,"is_reserved":false,"is_disabled":false,"rental_uris":{"android":"levelo://app?vid=9dfb2e29-03e9-426f-8daa-c5a6eeb96a84","ios":"levelo://app?vid=9dfb2e29-03e9-426f-8daa-c5a6eeb96a84"},"vehicle_type_id":"4","last_reported":1744215186,"current_range_meters":12000,"station_id":"ce4bha12rcd13ifvqef0","pricing_plan_id":"cebpf4jnsgd1na2vs0mg"},{"bike_id":"678d044d-d340-4a0b-bb93-2a4a392e86e5","system_id":"levelo_inurba_marseille","lat":43.29837,"lon":5.36267,"is_reserved":false,"is_disabled":false,"rental_uris":{"android":"levelo://app?vid=678d044d-d340-4a0b-bb93-2a4a392e86e5","ios":"levelo://app?vid=678d044d-d340-4a0b-bb93-2a4a392e86e5"},"vehicle_type_id":"4","last_reported":1744215186,"current_range_meters":12000,"station_id":"ce4bgpp2rcd13ifvqc3g","pricing_plan_id":"cebpf4jnsgd1na2vs0mg"},{"bike_id":"41bc691f-998f-402d-b2c0-f4653a3c4718","system_id":"levelo_inurba_marseille","lat":43.29527,"lon":5.38528,"is_reserved":false,"is_disabled":false,"rental_uris":{"android":"levelo://app?vid=41bc691f-998f-402d-b2c0-f4653a3c4718","ios":"levelo://app?vid=41bc691f-998f-402d-b2c0-f4653a3c4718"},"vehicle_type_id":"4","last_reported":1744215186,"current_range_meters":12000,"station_id":"ce4bgih2rcd13ifvqba0","pricing_plan_id":"cebpf4jnsgd1na2vs0mg"},{"bike_id":"44cdb00a-32fb-4754-b650-dfb0c5027555","system_id":"levelo_inurba_marseille","lat":43.27368,"lon":5.36251,"is_reserved":false,"is_disabled":false,"rental_uris":{"android":"levelo://app?vid=44cdb00a-32fb-4754-b650-dfb0c5027555","ios":"levelo://app?vid=44cdb00a-32fb-4754-b650-dfb0c5027555"},"vehicle_type_id":"4","last_reported":1744215186,"current_range_meters":11600,"station_id":"ce4bhbh2rcd13ifvqeo0","pricing_plan_id":"cebpf4jnsgd1na2vs0mg"},{"bike_id":"01e31f15-bc9b-4d18-bebd-edf19bcedef2","system_id":"levelo_inurba_marseille","lat":43.28712,"lon":5.37937,"is_reserved":false,"is_disabled":true,"rental_uris":{"android":"levelo://app?vid=01e31f15-bc9b-4d18-bebd-edf19bcedef2","ios":"levelo://app?vid=01e31f15-bc9b-4d18-bebd-edf19bcedef2"},"vehicle_type_id":"4","last_reported":1744215186,"current_range_meters":12000,"station_id":"ce4bh9p2rcd13ifvqec0","pricing_plan_id":"cebpf4jnsgd1na2vs0mg"},{"bike_id":"5f30a5a4-de9f-499e-b151-b811ebb3b43a","system_id":"levelo_inurba_marseille","lat":43.31061,"lon":5.38349,"is_reserved":false,"is_disabled":true,"rental_uris":{"android":"levelo://app?vid=5f30a5a4-de9f-499e-b151-b811ebb3b43a","ios":"levelo://app?vid=5f30a5a4-de9f-499e-b151-b811ebb3b43a"},"vehicle_type_id":"4","last_reported":1744215186,"current_range_meters":12000,"station_id":"ce4bgv92rcd13ifvqcr0","pricing_plan_id":"cebpf4jnsgd1na2vs0mg"},{"bike_id":"6f5861fe-f610-475b-a0de-f461b0ea5c15","system_id":"levelo_inurba_marseille","lat":43.31685,"lon":5.43682,"is_reserved":false,"is_disabled":false,"rental_uris":{"android":"levelo://app?vid=6f5861fe-f610-475b-a0de-f461b0ea5c15","ios":"levelo://app?vid=6f5861fe-f610-475b-a0de-f461b0ea5c15"},"vehicle_type_id":"4","last_reported":1744215186,"current_range_meters":12000,"station_id":"ce4bhp92rcd13ifvqhcg","pricing_plan_id":"cebpf4jnsgd1na2vs0mg"},{"bike_id":"110174fd-842d-4db0-9f98-2b050f805113","system_id":"levelo_inurba_marseille","lat":43.29002,"lon":5.35616,"is_reserved":false,"is_disabled":false,"rental_uris":{"android":"levelo://app?vid=110174fd-842d-4db0-9f98-2b050f805113","ios":"levelo://app?vid=110174fd-842d-4db0-9f98-2b050f805113"},"vehicle_type_id":"4","last_reported":1744215186,"current_range_meters":12000,"station_id":"ce4bhb92rcd13ifvqen0","pricing_plan_id":"cebpf4jnsgd1na2vs0mg"},{"bike_id":"b336900a-56d9-404d-9747-da025e975154","system_id":"levelo_inurba_marseille","lat":43.29254,"lon":5.3846,"is_reserved":false,"is_disabled":false,"rental_uris":{"android":"levelo://app?vid=b336900a-56d9-404d-9747-da025e975154","ios":"levelo://app?vid=b336900a-56d9-404d-9747-da025e975154"},"vehicle_type_id":"4","last_reported":1744215186,"current_range_meters":12400,"station_id":"ce4bh692rcd13ifvqea0","pricing_plan_id":"cebpf4jnsgd1na2vs0mg"},{"bike_id":"e3027524-04a4-4d95-9225-cf81c92c7405","system_id":"levelo_inurba_marseille","lat":43.27619,"lon":5.36106,"is_reserved":false,"is_disabled":false,"rental_uris":{"android":"levelo://app?vid=e3027524-04a4-4d95-9225-cf81c92c7405","ios":"levelo://app?vid=e3027524-04a4-4d95-9225-cf81c92c7405"},"vehicle_type_id":"4","last_reported":1744215186,"current_range_meters":12400,"station_id":"ce4bgj92rcd13ifvqbe0","pricing_plan_id":"cebpf4jnsgd1na2vs0mg"},{"bike_id":"51220fd5-275f-44db-a81e-280c0ca810af","system_id":"levelo_inurba_marseille","lat":43.32264,"lon":5.38534,"is_reserved":false,"is_disabled":false,"rental_uris":{"android":"levelo://app?vid=51220fd5-275f-44db-a81e-280c0ca810af","ios":"levelo://app?vid=51220fd5-275f-44db-a81e-280c0ca810af"},"vehicle_type_id":"4","last_reported":1744215186,"current_range_meters":12400,"station_id":"","pricing_plan_id":"cebpf4jnsgd1na2vs0mg"},{"bike_id":"0b818ba0-cb03-4dee-a2c3-cca483736be3","system_id":"levelo_inurba_marseille","lat":43.290841,"lon":5.38126,"is_reserved":false,"is_disabled":false,"rental_uris":{"android":"levelo://app?vid=0b818ba0-cb03-4dee-a2c3-cca483736be3","ios":"levelo://app?vid=0b818ba0-cb03-4dee-a2c3-cca483736be3"},"vehicle_type_id":"4","last_reported":1744215186,"current_range_meters":12000,"station_id":"cjm6bp8fraef2m0cb0m0","pricing_plan_id":"cebpf4jnsgd1na2vs0mg"},{"bike_id":"b96be04a-adcd-4816-8c18-ee76dccce0e8","system_id":"levelo_inurba_marseille","lat":43.24166,"lon":5.36414,"is_reserved":false,"is_disabled":false,"rental_uris":{"android":"levelo://app?vid=b96be04a-adcd-4816-8c18-ee76dccce0e8","ios":"levelo://app?vid=b96be04a-adcd-4816-8c18-ee76dccce0e8"},"vehicle_type_id":"4","last_reported":1744215186,"current_range_meters":12400,"station_id":"cpo36qri1sfpv3e86is0","pricing_plan_id":"cebpf4jnsgd1na2vs0mg"},{"bike_id":"78662a5a-5d8f-4c7c-913c-fdfb984694f7","system_id":"levelo_inurba_marseille","lat":43.30155,"lon":5.38077,"is_reserved":false,"is_disabled":false,"rental_uris":{"android":"levelo://app?vid=78662a5a-5d8f-4c7c-913c-fdfb984694f7","ios":"levelo://app?vid=78662a5a-5d8f-4c7c-913c-fdfb984694f7"},"vehicle_type_id":"4","last_reported":1744215186,"current_range_meters":12000,"station_id":"ce4bgjp2rcd13ifvqbh0","pricing_plan_id":"cebpf4jnsgd1na2vs0mg"},{"bike_id":"8ffbfbd9-fc40-4579-9c06-6a0959199ed5","system_id":"levelo_inurba_marseille","lat":43.283466,"lon":5.38104,"is_reserved":false,"is_disabled":false,"rental_uris":{"android":"levelo://app?vid=8ffbfbd9-fc40-4579-9c06-6a0959199ed5","ios":"levelo://app?vid=8ffbfbd9-fc40-4579-9c06-6a0959199ed5"},"vehicle_type_id":"4","last_reported":1744215186,"current_range_meters":12800,"station_id":"ce4bhah2rcd13ifvqej0","pricing_plan_id":"cebpf4jnsgd1na2vs0mg"},{"bike_id":"924f1d69-8750-450a-9310-fc6ba5c4b93a","system_id":"levelo_inurba_marseille","lat":43.25518,"lon":5.37637,"is_reserved":false,"is_disabled":false,"rental_uris":{"android":"levelo://app?vid=924f1d69-8750-450a-9310-fc6ba5c4b93a","ios":"levelo://app?vid=924f1d69-8750-450a-9310-fc6ba5c4b93a"},"vehicle_type_id":"4","last_reported":1744215186,"current_range_meters":12800,"station_id":"ce4bhh12rcd13ifvqff0","pricing_plan_id":"cebpf4jnsgd1na2vs0mg"},{"bike_id":"2ef5a01f-4da6-4038-a9da-7ee7db6cbd18","system_id":"levelo_inurba_marseille","lat":43.25581,"lon":5.38237,"is_reserved":false,"is_disabled":false,"rental_uris":{"android":"levelo://app?vid=2ef5a01f-4da6-4038-a9da-7ee7db6cbd18","ios":"levelo://app?vid=2ef5a01f-4da6-4038-a9da-7ee7db6cbd18"},"vehicle_type_id":"4","last_reported":1744215186,"current_range_meters":12800,"station_id":"ce4bhih2rcd13ifvqfs0","pricing_plan_id":"cebpf4jnsgd1na2vs0mg"},{"bike_id":"f553b4cc-4a41-49f3-9e40-c24c0c164eed","system_id":"levelo_inurba_marseille","lat":43.29526,"lon":5.39036,"is_reserved":false,"is_disabled":false,"rental_uris":{"android":"levelo://app?vid=f553b4cc-4a41-49f3-9e40-c24c0c164eed","ios":"levelo://app?vid=f553b4cc-4a41-49f3-9e40-c24c0c164eed"},"vehicle_type_id":"4","last_reported":1744215186,"current_range_meters":12800,"station_id":"ce4bh3p2rcd13ifvqdp0","pricing_plan_id":"cebpf4jnsgd1na2vs0mg"},{"bike_id":"53fb0077-3a65-43ca-a501-d7c36dc0627d","system_id":"levelo_inurba_marseille","lat":43.31767,"lon":5.38803,"is_reserved":false,"is_disabled":false,"rental_uris":{"android":"levelo://app?vid=53fb0077-3a65-43ca-a501-d7c36dc0627d","ios":"levelo://app?vid=53fb0077-3a65-43ca-a501-d7c36dc0627d"},"vehicle_type_id":"4","last_reported":1744215186,"current_range_meters":13600,"station_id":"","pricing_plan_id":"cebpf4jnsgd1na2vs0mg"},{"bike_id":"d60a2e51-4dbd-4ce7-a7c6-ce5fc09ea021","system_id":"levelo_inurba_marseille","lat":43.31486,"lon":5.37304,"is_reserved":false,"is_disabled":false,"rental_uris":{"android":"levelo://app?vid=d60a2e51-4dbd-4ce7-a7c6-ce5fc09ea021","ios":"levelo://app?vid=d60a2e51-4dbd-4ce7-a7c6-ce5fc09ea021"},"vehicle_type_id":"4","last_reported":1744215186,"current_range_meters":13600,"station_id":"ce4bgt12rcd13ifvqcd0","pricing_plan_id":"cebpf4jnsgd1na2vs0mg"},{"bike_id":"5c96ba5d-1fc7-404d-93db-497b35140c5a","system_id":"levelo_inurba_marseille","lat":43.27997,"lon":5.41654,"is_reserved":false,"is_disabled":false,"rental_uris":{"android":"levelo://app?vid=5c96ba5d-1fc7-404d-93db-497b35140c5a","ios":"levelo://app?vid=5c96ba5d-1fc7-404d-93db-497b35140c5a"},"vehicle_type_id":"4","last_reported":1744215186,"current_range_meters":12800,"station_id":"ce4bho12rcd13ifvqh1g","pricing_plan_id":"cebpf4jnsgd1na2vs0mg"},{"bike_id":"9fce7fb9-26b6-4832-9f96-ea1b75c489f0","system_id":"levelo_inurba_marseille","lat":43.21195,"lon":5.35077,"is_reserved":false,"is_disabled":false,"rental_uris":{"android":"levelo://app?vid=9fce7fb9-26b6-4832-9f96-ea1b75c489f0","ios":"levelo://app?vid=9fce7fb9-26b6-4832-9f96-ea1b75c489f0"},"vehicle_type_id":"4","last_reported":1744215186,"current_range_meters":13600,"station_id":"st_cvj6sg6p6f1abm77japg","pricing_plan_id":"cebpf4jnsgd1na2vs0mg"},{"bike_id":"b86af9f1-3e95-4a52-bb5d-bc37bec46ed9","system_id":"levelo_inurba_marseille","lat":43.29879,"lon":5.39731,"is_reserved":false,"is_disabled":false,"rental_uris":{"android":"levelo://app?vid=b86af9f1-3e95-4a52-bb5d-bc37bec46ed9","ios":"levelo://app?vid=b86af9f1-3e95-4a52-bb5d-bc37bec46ed9"},"vehicle_type_id":"4","last_reported":1744215186,"current_range_meters":13600,"station_id":"ce4bh0h2rcd13ifvqd50","pricing_plan_id":"cebpf4jnsgd1na2vs0mg"},{"bike_id":"625f821d-0edd-42e4-93ff-894c6c0e74f4","system_id":"levelo_inurba_marseille","lat":43.31715,"lon":5.43703,"is_reserved":false,"is_disabled":false,"rental_uris":{"android":"levelo://app?vid=625f821d-0edd-42e4-93ff-894c6c0e74f4","ios":"levelo://app?vid=625f821d-0edd-42e4-93ff-894c6c0e74f4"},"vehicle_type_id":"4","last_reported":1744215186,"current_range_meters":12800,"station_id":"ce4bhp92rcd13ifvqhcg","pricing_plan_id":"cebpf4jnsgd1na2vs0mg"},{"bike_id":"37967cd8-0dc5-40d7-af03-2bbfc2c2b2fc","system_id":"levelo_inurba_marseille","lat":43.27372,"lon":5.36255,"is_reserved":false,"is_disabled":false,"rental_uris":{"android":"levelo://app?vid=37967cd8-0dc5-40d7-af03-2bbfc2c2b2fc","ios":"levelo://app?vid=37967cd8-0dc5-40d7-af03-2bbfc2c2b2fc"},"vehicle_type_id":"4","last_reported":1744215186,"current_range_meters":14000,"station_id":"ce4bhbh2rcd13ifvqeo0","pricing_plan_id":"cebpf4jnsgd1na2vs0mg"},{"bike_id":"b4b93a64-d083-4ab2-bbd0-53609c602fb5","system_id":"levelo_inurba_marseille","lat":43.309281,"lon":5.401467,"is_reserved":false,"is_disabled":true,"rental_uris":{"android":"levelo://app?vid=b4b93a64-d083-4ab2-bbd0-53609c602fb5","ios":"levelo://app?vid=b4b93a64-d083-4ab2-bbd0-53609c602fb5"},"vehicle_type_id":"4","last_reported":1744215186,"current_range_meters":14000,"station_id":"ce4bgvp2rcd13ifvqct0","pricing_plan_id":"cebpf4jnsgd1na2vs0mg"},{"bike_id":"c369bf23-f24d-4fbc-a2a6-9db5e7f2adca","system_id":"levelo_inurba_marseille","lat":43.27624,"lon":5.3612,"is_reserved":false,"is_disabled":false,"rental_uris":{"android":"levelo://app?vid=c369bf23-f24d-4fbc-a2a6-9db5e7f2adca","ios":"levelo://app?vid=c369bf23-f24d-4fbc-a2a6-9db5e7f2adca"},"vehicle_type_id":"4","last_reported":1744215186,"current_range_meters":14000,"station_id":"ce4bgj92rcd13ifvqbe0","pricing_plan_id":"cebpf4jnsgd1na2vs0mg"},{"bike_id":"f2ddeead-c55a-49b3-90e5-4eec0e251056","system_id":"levelo_inurba_marseille","lat":43.31714,"lon":5.43703,"is_reserved":false,"is_disabled":false,"rental_uris":{"android":"levelo://app?vid=f2ddeead-c55a-49b3-90e5-4eec0e251056","ios":"levelo://app?vid=f2ddeead-c55a-49b3-90e5-4eec0e251056"},"vehicle_type_id":"4","last_reported":1744215186,"current_range_meters":11200,"station_id":"ce4bhp92rcd13ifvqhcg","pricing_plan_id":"cebpf4jnsgd1na2vs0mg"},{"bike_id":"28c68cd7-e780-4145-9c88-bec940aa3bcb","system_id":"levelo_inurba_marseille","lat":43.306396,"lon":5.400612,"is_reserved":false,"is_disabled":false,"rental_uris":{"android":"levelo://app?vid=28c68cd7-e780-4145-9c88-bec940aa3bcb","ios":"levelo://app?vid=28c68cd7-e780-4145-9c88-bec940aa3bcb"},"vehicle_type_id":"4","last_reported":1744215186,"current_range_meters":14000,"station_id":"ce4bgip2rcd13ifvqbb0","pricing_plan_id":"cebpf4jnsgd1na2vs0mg"},{"bike_id":"d44ff2b9-417e-4368-bebb-1fc974db3122","system_id":"levelo_inurba_marseille","lat":43.33639,"lon":5.39747,"is_reserved":false,"is_disabled":false,"rental_uris":{"android":"levelo://app?vid=d44ff2b9-417e-4368-bebb-1fc974db3122","ios":"levelo://app?vid=d44ff2b9-417e-4368-bebb-1fc974db3122"},"vehicle_type_id":"4","last_reported":1744215186,"current_range_meters":14000,"station_id":"","pricing_plan_id":"cebpf4jnsgd1na2vs0mg"},{"bike_id":"46687e7c-84b8-4f93-be29-c4b87e918af2","system_id":"levelo_inurba_marseille","lat":43.32479,"lon":5.36554,"is_reserved":false,"is_disabled":false,"rental_uris":{"android":"levelo://app?vid=46687e7c-84b8-4f93-be29-c4b87e918af2","ios":"levelo://app?vid=46687e7c-84b8-4f93-be29-c4b87e918af2"},"vehicle_type_id":"4","last_reported":1744215186,"current_range_meters":14000,"station_id":"ce4bhs12rcd13ifvqhvg","pricing_plan_id":"cebpf4jnsgd1na2vs0mg"},{"bike_id":"bae65d4d-3828-4fc2-b084-000ad1f5512a","system_id":"levelo_inurba_marseille","lat":43.28717,"lon":5.37932,"is_reserved":false,"is_disabled":false,"rental_uris":{"android":"levelo://app?vid=bae65d4d-3828-4fc2-b084-000ad1f5512a","ios":"levelo://app?vid=bae65d4d-3828-4fc2-b084-000ad1f5512a"},"vehicle_type_id":"4","last_reported":1744215186,"current_range_meters":13600,"station_id":"ce4bh9p2rcd13ifvqec0","pricing_plan_id":"cebpf4jnsgd1na2vs0mg"},{"bike_id":"910571f4-4962-4503-b883-b4534b9b6603","system_id":"levelo_inurba_marseille","lat":43.32371,"lon":5.38407,"is_reserved":false,"is_disabled":false,"rental_uris":{"android":"levelo://app?vid=910571f4-4962-4503-b883-b4534b9b6603","ios":"levelo://app?vid=910571f4-4962-4503-b883-b4534b9b6603"},"vehicle_type_id":"4","last_reported":1744215186,"current_range_meters":14400,"station_id":"","pricing_plan_id":"cebpf4jnsgd1na2vs0mg"},{"bike_id":"b02290ab-c3fc-493e-9a8d-1cb96a78423b","system_id":"levelo_inurba_marseille","lat":43.292755,"lon":5.407949,"is_reserved":false,"is_disabled":false,"rental_uris":{"android":"levelo://app?vid=b02290ab-c3fc-493e-9a8d-1cb96a78423b","ios":"levelo://app?vid=b02290ab-c3fc-493e-9a8d-1cb96a78423b"},"vehicle_type_id":"4","last_reported":1744215186,"current_range_meters":14400,"station_id":"ce4bh2p2rcd13ifvqdi0","pricing_plan_id":"cebpf4jnsgd1na2vs0mg"},{"bike_id":"b497cd61-1442-4cef-a2f9-b026948cab44","system_id":"levelo_inurba_marseille","lat":43.29196,"lon":5.39319,"is_reserved":false,"is_disabled":false,"rental_uris":{"android":"levelo://app?vid=b497cd61-1442-4cef-a2f9-b026948cab44","ios":"levelo://app?vid=b497cd61-1442-4cef-a2f9-b026948cab44"},"vehicle_type_id":"4","last_reported":1744215186,"current_range_meters":14800,"station_id":"ce4bh192rcd13ifvqdd0","pricing_plan_id":"cebpf4jnsgd1na2vs0mg"},{"bike_id":"24468822-6d20-42c0-b5e8-2691953ea9cf","system_id":"levelo_inurba_marseille","lat":43.25575,"lon":5.38251,"is_reserved":false,"is_disabled":false,"rental_uris":{"android":"levelo://app?vid=24468822-6d20-42c0-b5e8-2691953ea9cf","ios":"levelo://app?vid=24468822-6d20-42c0-b5e8-2691953ea9cf"},"vehicle_type_id":"4","last_reported":1744215186,"current_range_meters":14800,"station_id":"ce4bhih2rcd13ifvqfs0","pricing_plan_id":"cebpf4jnsgd1na2vs0mg"},{"bike_id":"4e5e4b9b-9071-41d6-b525-7dfae33fbf3b","system_id":"levelo_inurba_marseille","lat":43.30589,"lon":5.39353,"is_reserved":false,"is_disabled":false,"rental_uris":{"android":"levelo://app?vid=4e5e4b9b-9071-41d6-b525-7dfae33fbf3b","ios":"levelo://app?vid=4e5e4b9b-9071-41d6-b525-7dfae33fbf3b"},"vehicle_type_id":"4","last_reported":1744215186,"current_range_meters":14800,"station_id":"ce4bh0p2rcd13ifvqd80","pricing_plan_id":"cebpf4jnsgd1na2vs0mg"},{"bike_id":"3480edc5-fc32-4af1-a8f7-d8a543e01fb7","system_id":"levelo_inurba_marseille","lat":43.29905,"lon":5.37458,"is_reserved":false,"is_disabled":false,"rental_uris":{"android":"levelo://app?vid=3480edc5-fc32-4af1-a8f7-d8a543e01fb7","ios":"levelo://app?vid=3480edc5-fc32-4af1-a8f7-d8a543e01fb7"},"vehicle_type_id":"4","last_reported":1744215186,"current_range_meters":14800,"station_id":"","pricing_plan_id":"cebpf4jnsgd1na2vs0mg"},{"bike_id":"4e78f6b1-c541-4270-95bc-54b84d1371cb","system_id":"levelo_inurba_marseille","lat":43.28619,"lon":5.35107,"is_reserved":false,"is_disabled":false,"rental_uris":{"android":"levelo://app?vid=4e78f6b1-c541-4270-95bc-54b84d1371cb","ios":"levelo://app?vid=4e78f6b1-c541-4270-95bc-54b84d1371cb"},"vehicle_type_id":"4","last_reported":1744215186,"current_range_meters":14800,"station_id":"ce4bhch2rcd13ifvqeug","pricing_plan_id":"cebpf4jnsgd1na2vs0mg"},{"bike_id":"1ed7f23a-bff8-4fdc-b576-ca710eb724de","system_id":"levelo_inurba_marseille","lat":43.31326,"lon":5.39688,"is_reserved":false,"is_disabled":false,"rental_uris":{"android":"levelo://app?vid=1ed7f23a-bff8-4fdc-b576-ca710eb724de","ios":"levelo://app?vid=1ed7f23a-bff8-4fdc-b576-ca710eb724de"},"vehicle_type_id":"4","last_reported":1744215186,"current_range_meters":14400,"station_id":"ce4bgvp2rcd13ifvqcu0","pricing_plan_id":"cebpf4jnsgd1na2vs0mg"},{"bike_id":"417095ad-77df-49ea-a5a5-b03d3ddc554e","system_id":"levelo_inurba_marseille","lat":43.28608,"lon":5.35109,"is_reserved":false,"is_disabled":false,"rental_uris":{"android":"levelo://app?vid=417095ad-77df-49ea-a5a5-b03d3ddc554e","ios":"levelo://app?vid=417095ad-77df-49ea-a5a5-b03d3ddc554e"},"vehicle_type_id":"4","last_reported":1744215186,"current_range_meters":14800,"station_id":"ce4bhch2rcd13ifvqeug","pricing_plan_id":"cebpf4jnsgd1na2vs0mg"},{"bike_id":"c0caac97-a957-4f01-bd7d-413a2d6a15d7","system_id":"levelo_inurba_marseille","lat":43.248048,"lon":5.374532,"is_reserved":false,"is_disabled":false,"rental_uris":{"android":"levelo://app?vid=c0caac97-a957-4f01-bd7d-413a2d6a15d7","ios":"levelo://app?vid=c0caac97-a957-4f01-bd7d-413a2d6a15d7"},"vehicle_type_id":"4","last_reported":1744215186,"current_range_meters":14800,"station_id":"ce4bhgh2rcd13ifvqfb0","pricing_plan_id":"cebpf4jnsgd1na2vs0mg"},{"bike_id":"82eecde8-90fe-47a6-aeab-266f1904a58f","system_id":"levelo_inurba_marseille","lat":43.27997,"lon":5.40018,"is_reserved":false,"is_disabled":false,"rental_uris":{"android":"levelo://app?vid=82eecde8-90fe-47a6-aeab-266f1904a58f","ios":"levelo://app?vid=82eecde8-90fe-47a6-aeab-266f1904a58f"},"vehicle_type_id":"4","last_reported":1744215186,"current_range_meters":14800,"station_id":"ce4bho92rcd13ifvqh4g","pricing_plan_id":"cebpf4jnsgd1na2vs0mg"},{"bike_id":"719bc988-2d16-48d8-b4b7-025abf45ee01","system_id":"levelo_inurba_marseille","lat":43.29718,"lon":5.36617,"is_reserved":false,"is_disabled":false,"rental_uris":{"android":"levelo://app?vid=719bc988-2d16-48d8-b4b7-025abf45ee01","ios":"levelo://app?vid=719bc988-2d16-48d8-b4b7-025abf45ee01"},"vehicle_type_id":"4","last_reported":1744215186,"current_range_meters":14400,"station_id":"ce4bgn12rcd13ifvqbt0","pricing_plan_id":"cebpf4jnsgd1na2vs0mg"},{"bike_id":"17e9fe92-e576-46af-8393-f9e021dccd28","system_id":"levelo_inurba_marseille","lat":43.28582,"lon":5.39495,"is_reserved":false,"is_disabled":false,"rental_uris":{"android":"levelo://app?vid=17e9fe92-e576-46af-8393-f9e021dccd28","ios":"levelo://app?vid=17e9fe92-e576-46af-8393-f9e021dccd28"},"vehicle_type_id":"4","last_reported":1744215186,"current_range_meters":15200,"station_id":"ce4bh292rcd13ifvqdg0","pricing_plan_id":"cebpf4jnsgd1na2vs0mg"},{"bike_id":"fb0f09f1-345e-4833-84b8-97ec17d4be54","system_id":"levelo_inurba_marseille","lat":43.288612,"lon":5.358507,"is_reserved":false,"is_disabled":false,"rental_uris":{"android":"levelo://app?vid=fb0f09f1-345e-4833-84b8-97ec17d4be54","ios":"levelo://app?vid=fb0f09f1-345e-4833-84b8-97ec17d4be54"},"vehicle_type_id":"4","last_reported":1744215186,"current_range_meters":15200,"station_id":"ce4bhjp2rcd13ifvqga0","pricing_plan_id":"cebpf4jnsgd1na2vs0mg"},{"bike_id":"a45e0757-7767-4ef3-b834-5bf9d828ef15","system_id":"levelo_inurba_marseille","lat":43.29795,"lon":5.38102,"is_reserved":false,"is_disabled":false,"rental_uris":{"android":"levelo://app?vid=a45e0757-7767-4ef3-b834-5bf9d828ef15","ios":"levelo://app?vid=a45e0757-7767-4ef3-b834-5bf9d828ef15"},"vehicle_type_id":"4","last_reported":1744215186,"current_range_meters":12400,"station_id":"ce4bgip2rcd13ifvqbb0","pricing_plan_id":"cebpf4jnsgd1na2vs0mg"},{"bike_id":"597f229d-e5b2-4c1a-bbb5-6af49000c4fc","system_id":"levelo_inurba_marseille","lat":43.29267,"lon":5.38432,"is_reserved":false,"is_disabled":false,"rental_uris":{"android":"levelo://app?vid=597f229d-e5b2-4c1a-bbb5-6af49000c4fc","ios":"levelo://app?vid=597f229d-e5b2-4c1a-bbb5-6af49000c4fc"},"vehicle_type_id":"4","last_reported":1744215186,"current_range_meters":15200,"station_id":"ce4bh692rcd13ifvqea0","pricing_plan_id":"cebpf4jnsgd1na2vs0mg"},{"bike_id":"a50ef332-e7e6-46cb-8a4c-f2b3bf493533","system_id":"levelo_inurba_marseille","lat":43.29245,"lon":5.38376,"is_reserved":false,"is_disabled":false,"rental_uris":{"android":"levelo://app?vid=a50ef332-e7e6-46cb-8a4c-f2b3bf493533","ios":"levelo://app?vid=a50ef332-e7e6-46cb-8a4c-f2b3bf493533"},"vehicle_type_id":"4","last_reported":1744215186,"current_range_meters":15200,"station_id":"ce4bh692rcd13ifvqea0","pricing_plan_id":"cebpf4jnsgd1na2vs0mg"},{"bike_id":"124d49c7-b4f5-44ce-ae6c-b9cf59343f69","system_id":"levelo_inurba_marseille","lat":43.27372,"lon":5.36257,"is_reserved":false,"is_disabled":false,"rental_uris":{"android":"levelo://app?vid=124d49c7-b4f5-44ce-ae6c-b9cf59343f69","ios":"levelo://app?vid=124d49c7-b4f5-44ce-ae6c-b9cf59343f69"},"vehicle_type_id":"4","last_reported":1744215186,"current_range_meters":15200,"station_id":"ce4bhbh2rcd13ifvqeo0","pricing_plan_id":"cebpf4jnsgd1na2vs0mg"},{"bike_id":"c4126747-0ba9-4ead-a934-383d57f55bee","system_id":"levelo_inurba_marseille","lat":43.2706,"lon":5.40259,"is_reserved":false,"is_disabled":false,"rental_uris":{"android":"levelo://app?vid=c4126747-0ba9-4ead-a934-383d57f55bee","ios":"levelo://app?vid=c4126747-0ba9-4ead-a934-383d57f55bee"},"vehicle_type_id":"4","last_reported":1744215186,"current_range_meters":15200,"station_id":"ce4bhk92rcd13ifvqgc0","pricing_plan_id":"cebpf4jnsgd1na2vs0mg"},{"bike_id":"3e193bf4-ed71-43ce-9a37-9a250214b00c","system_id":"levelo_inurba_marseille","lat":43.27383,"lon":5.36258,"is_reserved":false,"is_disabled":false,"rental_uris":{"android":"levelo://app?vid=3e193bf4-ed71-43ce-9a37-9a250214b00c","ios":"levelo://app?vid=3e193bf4-ed71-43ce-9a37-9a250214b00c"},"vehicle_type_id":"4","last_reported":1744215186,"current_range_meters":15200,"station_id":"ce4bhbh2rcd13ifvqeo0","pricing_plan_id":"cebpf4jnsgd1na2vs0mg"},{"bike_id":"b376218e-3a76-446a-953c-6a0a52673ea6","system_id":"levelo_inurba_marseille","lat":43.29256,"lon":5.38434,"is_reserved":false,"is_disabled":false,"rental_uris":{"android":"levelo://app?vid=b376218e-3a76-446a-953c-6a0a52673ea6","ios":"levelo://app?vid=b376218e-3a76-446a-953c-6a0a52673ea6"},"vehicle_type_id":"4","last_reported":1744215186,"current_range_meters":16000,"station_id":"ce4bh692rcd13ifvqea0","pricing_plan_id":"cebpf4jnsgd1na2vs0mg"},{"bike_id":"b84b1d45-729e-47db-8c7e-e88abe2948fb","system_id":"levelo_inurba_marseille","lat":43.31717,"lon":5.42418,"is_reserved":false,"is_disabled":false,"rental_uris":{"android":"levelo://app?vid=b84b1d45-729e-47db-8c7e-e88abe2948fb","ios":"levelo://app?vid=b84b1d45-729e-47db-8c7e-e88abe2948fb"},"vehicle_type_id":"4","last_reported":1744215186,"current_range_meters":16000,"station_id":"ce4bhp92rcd13ifvqhbg","pricing_plan_id":"cebpf4jnsgd1na2vs0mg"},{"bike_id":"a4124bb4-1d11-4298-a7f1-49364e39da4f","system_id":"levelo_inurba_marseille","lat":43.29884,"lon":5.39725,"is_reserved":false,"is_disabled":false,"rental_uris":{"android":"levelo://app?vid=a4124bb4-1d11-4298-a7f1-49364e39da4f","ios":"levelo://app?vid=a4124bb4-1d11-4298-a7f1-49364e39da4f"},"vehicle_type_id":"4","last_reported":1744215186,"current_range_meters":15200,"station_id":"ce4bh0h2rcd13ifvqd50","pricing_plan_id":"cebpf4jnsgd1na2vs0mg"},{"bike_id":"c994f340-cc35-40c4-9624-8c3242f7bd00","system_id":"levelo_inurba_marseille","lat":43.299441,"lon":5.386633,"is_reserved":false,"is_disabled":false,"rental_uris":{"android":"levelo://app?vid=c994f340-cc35-40c4-9624-8c3242f7bd00","ios":"levelo://app?vid=c994f340-cc35-40c4-9624-8c3242f7bd00"},"vehicle_type_id":"4","last_reported":1744215186,"current_range_meters":16000,"station_id":"ce4bh0h2rcd13ifvqd50","pricing_plan_id":"cebpf4jnsgd1na2vs0mg"},{"bike_id":"9354307a-5c76-492b-9016-b20642697987","system_id":"levelo_inurba_marseille","lat":43.262073,"lon":5.379319,"is_reserved":false,"is_disabled":false,"rental_uris":{"android":"levelo://app?vid=9354307a-5c76-492b-9016-b20642697987","ios":"levelo://app?vid=9354307a-5c76-492b-9016-b20642697987"},"vehicle_type_id":"4","last_reported":1744215186,"current_range_meters":16000,"station_id":"ce4bhjp2rcd13ifvqg90","pricing_plan_id":"cebpf4jnsgd1na2vs0mg"},{"bike_id":"0498f30d-1769-460b-b4ac-2e837217893a","system_id":"levelo_inurba_marseille","lat":43.295924,"lon":5.367385,"is_reserved":false,"is_disabled":false,"rental_uris":{"android":"levelo://app?vid=0498f30d-1769-460b-b4ac-2e837217893a","ios":"levelo://app?vid=0498f30d-1769-460b-b4ac-2e837217893a"},"vehicle_type_id":"4","last_reported":1744215186,"current_range_meters":16000,"station_id":"ce4bgph2rcd13ifvqc2g","pricing_plan_id":"cebpf4jnsgd1na2vs0mg"},{"bike_id":"bf410a4e-8c2c-4a52-b26b-66ed01ba8ef3","system_id":"levelo_inurba_marseille","lat":43.306,"lon":5.40027,"is_reserved":false,"is_disabled":false,"rental_uris":{"android":"levelo://app?vid=bf410a4e-8c2c-4a52-b26b-66ed01ba8ef3","ios":"levelo://app?vid=bf410a4e-8c2c-4a52-b26b-66ed01ba8ef3"},"vehicle_type_id":"4","last_reported":1744215186,"current_range_meters":16400,"station_id":"","pricing_plan_id":"cebpf4jnsgd1na2vs0mg"},{"bike_id":"e22d888e-3eae-4bee-99fc-fc097559b21f","system_id":"levelo_inurba_marseille","lat":43.28617,"lon":5.35099,"is_reserved":false,"is_disabled":false,"rental_uris":{"android":"levelo://app?vid=e22d888e-3eae-4bee-99fc-fc097559b21f","ios":"levelo://app?vid=e22d888e-3eae-4bee-99fc-fc097559b21f"},"vehicle_type_id":"4","last_reported":1744215186,"current_range_meters":16400,"station_id":"ce4bhch2rcd13ifvqeug","pricing_plan_id":"cebpf4jnsgd1na2vs0mg"},{"bike_id":"cef98494-47e7-4a86-a3a7-20388ed6a6a1","system_id":"levelo_inurba_marseille","lat":43.29285,"lon":5.37625,"is_reserved":false,"is_disabled":false,"rental_uris":{"android":"levelo://app?vid=cef98494-47e7-4a86-a3a7-20388ed6a6a1","ios":"levelo://app?vid=cef98494-47e7-4a86-a3a7-20388ed6a6a1"},"vehicle_type_id":"4","last_reported":1744215186,"current_range_meters":16400,"station_id":"ce4bgi12rcd13ifvqb80","pricing_plan_id":"cebpf4jnsgd1na2vs0mg"},{"bike_id":"42c1fdc6-38af-4ea1-a910-702e15d5a9b4","system_id":"levelo_inurba_marseille","lat":43.30924,"lon":5.40158,"is_reserved":false,"is_disabled":true,"rental_uris":{"android":"levelo://app?vid=42c1fdc6-38af-4ea1-a910-702e15d5a9b4","ios":"levelo://app?vid=42c1fdc6-38af-4ea1-a910-702e15d5a9b4"},"vehicle_type_id":"4","last_reported":1744215186,"current_range_meters":16400,"station_id":"ce4bgvp2rcd13ifvqct0","pricing_plan_id":"cebpf4jnsgd1na2vs0mg"},{"bike_id":"80ef8e8d-4758-402c-a2fe-d867470813cf","system_id":"levelo_inurba_marseille","lat":43.296583,"lon":5.380358,"is_reserved":false,"is_disabled":false,"rental_uris":{"android":"levelo://app?vid=80ef8e8d-4758-402c-a2fe-d867470813cf","ios":"levelo://app?vid=80ef8e8d-4758-402c-a2fe-d867470813cf"},"vehicle_type_id":"4","last_reported":1744215186,"current_range_meters":16400,"station_id":"ce4bh612rcd13ifvqe6g","pricing_plan_id":"cebpf4jnsgd1na2vs0mg"},{"bike_id":"9b18299b-6b10-4f5d-a83a-c720b12cda09","system_id":"levelo_inurba_marseille","lat":43.3133,"lon":5.39686,"is_reserved":false,"is_disabled":false,"rental_uris":{"android":"levelo://app?vid=9b18299b-6b10-4f5d-a83a-c720b12cda09","ios":"levelo://app?vid=9b18299b-6b10-4f5d-a83a-c720b12cda09"},"vehicle_type_id":"4","last_reported":1744215186,"current_range_meters":16400,"station_id":"ce4bgvp2rcd13ifvqcu0","pricing_plan_id":"cebpf4jnsgd1na2vs0mg"},{"bike_id":"e538b23f-3d08-45e4-9ebb-b4e14df1638c","system_id":"levelo_inurba_marseille","lat":43.30929,"lon":5.4015,"is_reserved":false,"is_disabled":false,"rental_uris":{"android":"levelo://app?vid=e538b23f-3d08-45e4-9ebb-b4e14df1638c","ios":"levelo://app?vid=e538b23f-3d08-45e4-9ebb-b4e14df1638c"},"vehicle_type_id":"4","last_reported":1744215186,"current_range_meters":16400,"station_id":"ce4bgvp2rcd13ifvqct0","pricing_plan_id":"cebpf4jnsgd1na2vs0mg"},{"bike_id":"51ceb9a8-4c8e-47d4-92e8-ce71951d2787","system_id":"levelo_inurba_marseille","lat":43.2619,"lon":5.37445,"is_reserved":false,"is_disabled":false,"rental_uris":{"android":"levelo://app?vid=51ceb9a8-4c8e-47d4-92e8-ce71951d2787","ios":"levelo://app?vid=51ceb9a8-4c8e-47d4-92e8-ce71951d2787"},"vehicle_type_id":"4","last_reported":1744215186,"current_range_meters":16800,"station_id":"ce4bhgp2rcd13ifvqfc0","pricing_plan_id":"cebpf4jnsgd1na2vs0mg"},{"bike_id":"1a3cd0ab-ec77-41b3-982c-74e5093499a8","system_id":"levelo_inurba_marseille","lat":43.30463,"lon":5.3891,"is_reserved":false,"is_disabled":true,"rental_uris":{"android":"levelo://app?vid=1a3cd0ab-ec77-41b3-982c-74e5093499a8","ios":"levelo://app?vid=1a3cd0ab-ec77-41b3-982c-74e5093499a8"},"vehicle_type_id":"4","last_reported":1744215186,"current_range_meters":16800,"station_id":"ce4bgk12rcd13ifvqbi0","pricing_plan_id":"cebpf4jnsgd1na2vs0mg"},{"bike_id":"0dd970c4-9b12-49f1-becc-47216e4835fd","system_id":"levelo_inurba_marseille","lat":43.2811,"lon":5.37835,"is_reserved":false,"is_disabled":false,"rental_uris":{"android":"levelo://app?vid=0dd970c4-9b12-49f1-becc-47216e4835fd","ios":"levelo://app?vid=0dd970c4-9b12-49f1-becc-47216e4835fd"},"vehicle_type_id":"4","last_reported":1744215186,"current_range_meters":16400,"station_id":"ce4bha12rcd13ifvqee0","pricing_plan_id":"cebpf4jnsgd1na2vs0mg"},{"bike_id":"81974a65-4680-4353-922c-0524532c0204","system_id":"levelo_inurba_marseille","lat":43.30136,"lon":5.38777,"is_reserved":false,"is_disabled":false,"rental_uris":{"android":"levelo://app?vid=81974a65-4680-4353-922c-0524532c0204","ios":"levelo://app?vid=81974a65-4680-4353-922c-0524532c0204"},"vehicle_type_id":"4","last_reported":1744215186,"current_range_meters":16800,"station_id":"ce4bghh2rcd13ifvqb60","pricing_plan_id":"cebpf4jnsgd1na2vs0mg"},{"bike_id":"c84e7a94-8eae-4903-b45f-2e0480c8b279","system_id":"levelo_inurba_marseille","lat":43.33024,"lon":5.39038,"is_reserved":false,"is_disabled":false,"rental_uris":{"android":"levelo://app?vid=c84e7a94-8eae-4903-b45f-2e0480c8b279","ios":"levelo://app?vid=c84e7a94-8eae-4903-b45f-2e0480c8b279"},"vehicle_type_id":"4","last_reported":1744215186,"current_range_meters":16800,"station_id":"ce4bhr92rcd13ifvqhrg","pricing_plan_id":"cebpf4jnsgd1na2vs0mg"},{"bike_id":"b0e7c080-9b32-4fb1-ae6b-91b2f1cae096","system_id":"levelo_inurba_marseille","lat":43.305597,"lon":5.365569,"is_reserved":false,"is_disabled":false,"rental_uris":{"android":"levelo://app?vid=b0e7c080-9b32-4fb1-ae6b-91b2f1cae096","ios":"levelo://app?vid=b0e7c080-9b32-4fb1-ae6b-91b2f1cae096"},"vehicle_type_id":"4","last_reported":1744215186,"current_range_meters":17200,"station_id":"ce4bgs12rcd13ifvqcag","pricing_plan_id":"cebpf4jnsgd1na2vs0mg"},{"bike_id":"e2223bae-2f2b-4fbb-afcc-81910ce01fb4","system_id":"levelo_inurba_marseille","lat":43.32657,"lon":5.40997,"is_reserved":false,"is_disabled":false,"rental_uris":{"android":"levelo://app?vid=e2223bae-2f2b-4fbb-afcc-81910ce01fb4","ios":"levelo://app?vid=e2223bae-2f2b-4fbb-afcc-81910ce01fb4"},"vehicle_type_id":"4","last_reported":1744215186,"current_range_meters":17200,"station_id":"ce4bhpp2rcd13ifvqhgg","pricing_plan_id":"cebpf4jnsgd1na2vs0mg"},{"bike_id":"ba260ce7-c346-4426-9a40-e0bbd6c1a81c","system_id":"levelo_inurba_marseille","lat":43.29614,"lon":5.38142,"is_reserved":false,"is_disabled":false,"rental_uris":{"android":"levelo://app?vid=ba260ce7-c346-4426-9a40-e0bbd6c1a81c","ios":"levelo://app?vid=ba260ce7-c346-4426-9a40-e0bbd6c1a81c"},"vehicle_type_id":"4","last_reported":1744215186,"current_range_meters":17200,"station_id":"ce4bgl12rcd13ifvqbo0","pricing_plan_id":"cebpf4jnsgd1na2vs0mg"},{"bike_id":"a8a0cc3b-b1f0-472e-95f1-cbc08b509ff3","system_id":"levelo_inurba_marseille","lat":43.294344,"lon":5.385982,"is_reserved":false,"is_disabled":false,"rental_uris":{"android":"levelo://app?vid=a8a0cc3b-b1f0-472e-95f1-cbc08b509ff3","ios":"levelo://app?vid=a8a0cc3b-b1f0-472e-95f1-cbc08b509ff3"},"vehicle_type_id":"4","last_reported":1744215186,"current_range_meters":17200,"station_id":"ce4bh2h2rcd13ifvqdh0","pricing_plan_id":"cebpf4jnsgd1na2vs0mg"},{"bike_id":"239d175f-690e-4522-81fb-5227b6ca202a","system_id":"levelo_inurba_marseille","lat":43.31766,"lon":5.39023,"is_reserved":false,"is_disabled":false,"rental_uris":{"android":"levelo://app?vid=239d175f-690e-4522-81fb-5227b6ca202a","ios":"levelo://app?vid=239d175f-690e-4522-81fb-5227b6ca202a"},"vehicle_type_id":"4","last_reported":1744215186,"current_range_meters":17200,"station_id":"ce4bhqp2rcd13ifvqhng","pricing_plan_id":"cebpf4jnsgd1na2vs0mg"},{"bike_id":"e84b8cf3-23a0-41ed-a7da-d8ee52f95923","system_id":"levelo_inurba_marseille","lat":43.27628,"lon":5.36109,"is_reserved":false,"is_disabled":false,"rental_uris":{"android":"levelo://app?vid=e84b8cf3-23a0-41ed-a7da-d8ee52f95923","ios":"levelo://app?vid=e84b8cf3-23a0-41ed-a7da-d8ee52f95923"},"vehicle_type_id":"4","last_reported":1744215186,"current_range_meters":17200,"station_id":"ce4bgj92rcd13ifvqbe0","pricing_plan_id":"cebpf4jnsgd1na2vs0mg"},{"bike_id":"6941ca27-e6b8-42bf-b8dd-398618939254","system_id":"levelo_inurba_marseille","lat":43.255,"lon":5.37657,"is_reserved":false,"is_disabled":false,"rental_uris":{"android":"levelo://app?vid=6941ca27-e6b8-42bf-b8dd-398618939254","ios":"levelo://app?vid=6941ca27-e6b8-42bf-b8dd-398618939254"},"vehicle_type_id":"4","last_reported":1744215186,"current_range_meters":17600,"station_id":"ce4bhh12rcd13ifvqff0","pricing_plan_id":"cebpf4jnsgd1na2vs0mg"},{"bike_id":"7d727400-94c9-4703-a067-5d21db84cb84","system_id":"levelo_inurba_marseille","lat":43.29641,"lon":5.40599,"is_reserved":false,"is_disabled":false,"rental_uris":{"android":"levelo://app?vid=7d727400-94c9-4703-a067-5d21db84cb84","ios":"levelo://app?vid=7d727400-94c9-4703-a067-5d21db84cb84"},"vehicle_type_id":"4","last_reported":1744215186,"current_range_meters":17200,"station_id":"ce4bh0h2rcd13ifvqd60","pricing_plan_id":"cebpf4jnsgd1na2vs0mg"},{"bike_id":"cfdafd9e-20ab-4d31-bfb0-14fe68cc358e","system_id":"levelo_inurba_marseille","lat":43.29526,"lon":5.38539,"is_reserved":false,"is_disabled":false,"rental_uris":{"android":"levelo://app?vid=cfdafd9e-20ab-4d31-bfb0-14fe68cc358e","ios":"levelo://app?vid=cfdafd9e-20ab-4d31-bfb0-14fe68cc358e"},"vehicle_type_id":"4","last_reported":1744215186,"current_range_meters":17600,"station_id":"ce4bgih2rcd13ifvqba0","pricing_plan_id":"cebpf4jnsgd1na2vs0mg"},{"bike_id":"066918e9-658d-41fb-94df-83bd20a02c25","system_id":"levelo_inurba_marseille","lat":43.23056,"lon":5.3549,"is_reserved":false,"is_disabled":true,"rental_uris":{"android":"levelo://app?vid=066918e9-658d-41fb-94df-83bd20a02c25","ios":"levelo://app?vid=066918e9-658d-41fb-94df-83bd20a02c25"},"vehicle_type_id":"4","last_reported":1744215186,"current_range_meters":17600,"station_id":"cpo3342slgdg3j2ifvpg","pricing_plan_id":"cebpf4jnsgd1na2vs0mg"},{"bike_id":"e6d75c21-0b24-4356-a227-36687b41c38a","system_id":"levelo_inurba_marseille","lat":43.29281,"lon":5.40117,"is_reserved":false,"is_disabled":false,"rental_uris":{"android":"levelo://app?vid=e6d75c21-0b24-4356-a227-36687b41c38a","ios":"levelo://app?vid=e6d75c21-0b24-4356-a227-36687b41c38a"},"vehicle_type_id":"4","last_reported":1744215186,"current_range_meters":17600,"station_id":"ce4bh312rcd13ifvqdk0","pricing_plan_id":"cebpf4jnsgd1na2vs0mg"},{"bike_id":"a5ef73f1-2f2a-42a7-b87e-270cc5155058","system_id":"levelo_inurba_marseille","lat":43.29792,"lon":5.39353,"is_reserved":false,"is_disabled":false,"rental_uris":{"android":"levelo://app?vid=a5ef73f1-2f2a-42a7-b87e-270cc5155058","ios":"levelo://app?vid=a5ef73f1-2f2a-42a7-b87e-270cc5155058"},"vehicle_type_id":"4","last_reported":1744215186,"current_range_meters":17200,"station_id":"chh1huq6cuj3fo74tm60","pricing_plan_id":"cebpf4jnsgd1na2vs0mg"},{"bike_id":"c09f1e72-fb00-48fa-83ea-6400167606ea","system_id":"levelo_inurba_marseille","lat":43.30328,"lon":5.40428,"is_reserved":false,"is_disabled":false,"rental_uris":{"android":"levelo://app?vid=c09f1e72-fb00-48fa-83ea-6400167606ea","ios":"levelo://app?vid=c09f1e72-fb00-48fa-83ea-6400167606ea"},"vehicle_type_id":"4","last_reported":1744215186,"current_range_meters":18000,"station_id":"ce4bh012rcd13ifvqd10","pricing_plan_id":"cebpf4jnsgd1na2vs0mg"},{"bike_id":"e3c3a051-8134-4ed3-913b-374aa217874c","system_id":"levelo_inurba_marseille","lat":43.2559,"lon":5.40455,"is_reserved":false,"is_disabled":false,"rental_uris":{"android":"levelo://app?vid=e3c3a051-8134-4ed3-913b-374aa217874c","ios":"levelo://app?vid=e3c3a051-8134-4ed3-913b-374aa217874c"},"vehicle_type_id":"4","last_reported":1744215186,"current_range_meters":18000,"station_id":"","pricing_plan_id":"cebpf4jnsgd1na2vs0mg"},{"bike_id":"4385fc64-8946-4482-b3b9-2fffa5db74d4","system_id":"levelo_inurba_marseille","lat":43.292261,"lon":5.360588,"is_reserved":false,"is_disabled":false,"rental_uris":{"android":"levelo://app?vid=4385fc64-8946-4482-b3b9-2fffa5db74d4","ios":"levelo://app?vid=4385fc64-8946-4482-b3b9-2fffa5db74d4"},"vehicle_type_id":"4","last_reported":1744215186,"current_range_meters":18000,"station_id":"ce4bhbh2rcd13ifvqeqg","pricing_plan_id":"cebpf4jnsgd1na2vs0mg"},{"bike_id":"8fc75a06-b383-4356-9ce0-507c4c1bc08f","system_id":"levelo_inurba_marseille","lat":43.27081,"lon":5.42273,"is_reserved":false,"is_disabled":false,"rental_uris":{"android":"levelo://app?vid=8fc75a06-b383-4356-9ce0-507c4c1bc08f","ios":"levelo://app?vid=8fc75a06-b383-4356-9ce0-507c4c1bc08f"},"vehicle_type_id":"4","last_reported":1744215186,"current_range_meters":18000,"station_id":"ce4bhk92rcd13ifvqgb0","pricing_plan_id":"cebpf4jnsgd1na2vs0mg"},{"bike_id":"d1f92f28-9609-4256-bd4a-880c7b09d4e8","system_id":"levelo_inurba_marseille","lat":43.293271,"lon":5.41156,"is_reserved":false,"is_disabled":false,"rental_uris":{"android":"levelo://app?vid=d1f92f28-9609-4256-bd4a-880c7b09d4e8","ios":"levelo://app?vid=d1f92f28-9609-4256-bd4a-880c7b09d4e8"},"vehicle_type_id":"4","last_reported":1744215186,"current_range_meters":18000,"station_id":"","pricing_plan_id":"cebpf4jnsgd1na2vs0mg"},{"bike_id":"a62bf395-293b-4f09-9a37-30412902a4d8","system_id":"levelo_inurba_marseille","lat":43.24809,"lon":5.37456,"is_reserved":false,"is_disabled":false,"rental_uris":{"android":"levelo://app?vid=a62bf395-293b-4f09-9a37-30412902a4d8","ios":"levelo://app?vid=a62bf395-293b-4f09-9a37-30412902a4d8"},"vehicle_type_id":"4","last_reported":1744215186,"current_range_meters":18000,"station_id":"ce4bhgh2rcd13ifvqfb0","pricing_plan_id":"cebpf4jnsgd1na2vs0mg"},{"bike_id":"0c519e04-9ab9-436c-985c-b42b2f25aced","system_id":"levelo_inurba_marseille","lat":43.3112,"lon":5.37778,"is_reserved":false,"is_disabled":false,"rental_uris":{"android":"levelo://app?vid=0c519e04-9ab9-436c-985c-b42b2f25aced","ios":"levelo://app?vid=0c519e04-9ab9-436c-985c-b42b2f25aced"},"vehicle_type_id":"4","last_reported":1744215186,"current_range_meters":18000,"station_id":"ce4bgt92rcd13ifvqcg0","pricing_plan_id":"cebpf4jnsgd1na2vs0mg"},{"bike_id":"5f7d7e5c-cd87-4ab8-b486-22d484685369","system_id":"levelo_inurba_marseille","lat":43.29207,"lon":5.39327,"is_reserved":false,"is_disabled":false,"rental_uris":{"android":"levelo://app?vid=5f7d7e5c-cd87-4ab8-b486-22d484685369","ios":"levelo://app?vid=5f7d7e5c-cd87-4ab8-b486-22d484685369"},"vehicle_type_id":"4","last_reported":1744215186,"current_range_meters":18800,"station_id":"ce4bh192rcd13ifvqdd0","pricing_plan_id":"cebpf4jnsgd1na2vs0mg"},{"bike_id":"f66eaf29-3ba7-497e-8588-03320fd999ee","system_id":"levelo_inurba_marseille","lat":43.30537,"lon":5.365314,"is_reserved":false,"is_disabled":false,"rental_uris":{"android":"levelo://app?vid=f66eaf29-3ba7-497e-8588-03320fd999ee","ios":"levelo://app?vid=f66eaf29-3ba7-497e-8588-03320fd999ee"},"vehicle_type_id":"4","last_reported":1744215186,"current_range_meters":18800,"station_id":"ce4bh412rcd13ifvqds0","pricing_plan_id":"cebpf4jnsgd1na2vs0mg"},{"bike_id":"fd3d4e3a-87f2-4335-944c-40be48f2c7de","system_id":"levelo_inurba_marseille","lat":43.27376,"lon":5.36253,"is_reserved":false,"is_disabled":false,"rental_uris":{"android":"levelo://app?vid=fd3d4e3a-87f2-4335-944c-40be48f2c7de","ios":"levelo://app?vid=fd3d4e3a-87f2-4335-944c-40be48f2c7de"},"vehicle_type_id":"4","last_reported":1744215186,"current_range_meters":18800,"station_id":"ce4bhbh2rcd13ifvqeo0","pricing_plan_id":"cebpf4jnsgd1na2vs0mg"},{"bike_id":"640b6901-af87-4cbb-84ba-cf000e7c8d63","system_id":"levelo_inurba_marseille","lat":43.26496,"lon":5.39554,"is_reserved":false,"is_disabled":true,"rental_uris":{"android":"levelo://app?vid=640b6901-af87-4cbb-84ba-cf000e7c8d63","ios":"levelo://app?vid=640b6901-af87-4cbb-84ba-cf000e7c8d63"},"vehicle_type_id":"4","last_reported":1744215186,"current_range_meters":18800,"station_id":"ce4bhi12rcd13ifvqfq0","pricing_plan_id":"cebpf4jnsgd1na2vs0mg"},{"bike_id":"ef291804-1477-432e-b153-82ea15725418","system_id":"levelo_inurba_marseille","lat":43.33796,"lon":5.37508,"is_reserved":false,"is_disabled":false,"rental_uris":{"android":"levelo://app?vid=ef291804-1477-432e-b153-82ea15725418","ios":"levelo://app?vid=ef291804-1477-432e-b153-82ea15725418"},"vehicle_type_id":"4","last_reported":1744215186,"current_range_meters":18800,"station_id":"","pricing_plan_id":"cebpf4jnsgd1na2vs0mg"},{"bike_id":"54feef8f-139b-4127-8867-226ba9ce00e5","system_id":"levelo_inurba_marseille","lat":43.284648,"lon":5.384268,"is_reserved":false,"is_disabled":false,"rental_uris":{"android":"levelo://app?vid=54feef8f-139b-4127-8867-226ba9ce00e5","ios":"levelo://app?vid=54feef8f-139b-4127-8867-226ba9ce00e5"},"vehicle_type_id":"4","last_reported":1744215186,"current_range_meters":18800,"station_id":"ce4bh512rcd13ifvqe3g","pricing_plan_id":"cebpf4jnsgd1na2vs0mg"},{"bike_id":"4f1faae7-028e-4b2c-aceb-62ce72838ace","system_id":"levelo_inurba_marseille","lat":43.31172,"lon":5.38727,"is_reserved":false,"is_disabled":false,"rental_uris":{"android":"levelo://app?vid=4f1faae7-028e-4b2c-aceb-62ce72838ace","ios":"levelo://app?vid=4f1faae7-028e-4b2c-aceb-62ce72838ace"},"vehicle_type_id":"4","last_reported":1744215186,"current_range_meters":18800,"station_id":"ce4bgv12rcd13ifvqcp0","pricing_plan_id":"cebpf4jnsgd1na2vs0mg"},{"bike_id":"16028815-be85-4900-9dff-dfa3a6856615","system_id":"levelo_inurba_marseille","lat":43.254904,"lon":5.376532,"is_reserved":false,"is_disabled":false,"rental_uris":{"android":"levelo://app?vid=16028815-be85-4900-9dff-dfa3a6856615","ios":"levelo://app?vid=16028815-be85-4900-9dff-dfa3a6856615"},"vehicle_type_id":"4","last_reported":1744215186,"current_range_meters":18000,"station_id":"ce4bhh12rcd13ifvqff0","pricing_plan_id":"cebpf4jnsgd1na2vs0mg"},{"bike_id":"39d569f2-804d-4c1f-93cb-ffdd8bba0563","system_id":"levelo_inurba_marseille","lat":43.305419,"lon":5.384341,"is_reserved":false,"is_disabled":true,"rental_uris":{"android":"levelo://app?vid=39d569f2-804d-4c1f-93cb-ffdd8bba0563","ios":"levelo://app?vid=39d569f2-804d-4c1f-93cb-ffdd8bba0563"},"vehicle_type_id":"4","last_reported":1744215186,"current_range_meters":19200,"station_id":"ce4bgg92rcd13ifvqb30","pricing_plan_id":"cebpf4jnsgd1na2vs0mg"},{"bike_id":"b4ba0f32-2777-4e8b-bad5-21020d2616b3","system_id":"levelo_inurba_marseille","lat":43.26955,"lon":5.38634,"is_reserved":false,"is_disabled":false,"rental_uris":{"android":"levelo://app?vid=b4ba0f32-2777-4e8b-bad5-21020d2616b3","ios":"levelo://app?vid=b4ba0f32-2777-4e8b-bad5-21020d2616b3"},"vehicle_type_id":"4","last_reported":1744215186,"current_range_meters":19200,"station_id":"ce4bhh92rcd13ifvqfh0","pricing_plan_id":"cebpf4jnsgd1na2vs0mg"},{"bike_id":"3ef64e6d-30eb-4ed8-bdef-7e52fbe0f7c2","system_id":"levelo_inurba_marseille","lat":43.29535,"lon":5.38533,"is_reserved":false,"is_disabled":false,"rental_uris":{"android":"levelo://app?vid=3ef64e6d-30eb-4ed8-bdef-7e52fbe0f7c2","ios":"levelo://app?vid=3ef64e6d-30eb-4ed8-bdef-7e52fbe0f7c2"},"vehicle_type_id":"4","last_reported":1744215186,"current_range_meters":18800,"station_id":"ce4bgih2rcd13ifvqba0","pricing_plan_id":"cebpf4jnsgd1na2vs0mg"},{"bike_id":"3c72465c-3982-4670-925d-7f7a82a70bc6","system_id":"levelo_inurba_marseille","lat":43.29534,"lon":5.38543,"is_reserved":false,"is_disabled":false,"rental_uris":{"android":"levelo://app?vid=3c72465c-3982-4670-925d-7f7a82a70bc6","ios":"levelo://app?vid=3c72465c-3982-4670-925d-7f7a82a70bc6"},"vehicle_type_id":"4","last_reported":1744215186,"current_range_meters":18800,"station_id":"ce4bgih2rcd13ifvqba0","pricing_plan_id":"cebpf4jnsgd1na2vs0mg"},{"bike_id":"231aaa88-1e79-4a74-a543-651d8fd5a027","system_id":"levelo_inurba_marseille","lat":43.33099,"lon":5.40529,"is_reserved":false,"is_disabled":false,"rental_uris":{"android":"levelo://app?vid=231aaa88-1e79-4a74-a543-651d8fd5a027","ios":"levelo://app?vid=231aaa88-1e79-4a74-a543-651d8fd5a027"},"vehicle_type_id":"4","last_reported":1744215186,"current_range_meters":19200,"station_id":"","pricing_plan_id":"cebpf4jnsgd1na2vs0mg"},{"bike_id":"7b06c36f-0d33-4001-8fc9-9beb480e688a","system_id":"levelo_inurba_marseille","lat":43.29709,"lon":5.36597,"is_reserved":false,"is_disabled":false,"rental_uris":{"android":"levelo://app?vid=7b06c36f-0d33-4001-8fc9-9beb480e688a","ios":"levelo://app?vid=7b06c36f-0d33-4001-8fc9-9beb480e688a"},"vehicle_type_id":"4","last_reported":1744215186,"current_range_meters":19600,"station_id":"ce4bgn12rcd13ifvqbt0","pricing_plan_id":"cebpf4jnsgd1na2vs0mg"},{"bike_id":"a02eb322-9151-4a0e-8330-c8e03c0f56b0","system_id":"levelo_inurba_marseille","lat":43.29545,"lon":5.38548,"is_reserved":false,"is_disabled":false,"rental_uris":{"android":"levelo://app?vid=a02eb322-9151-4a0e-8330-c8e03c0f56b0","ios":"levelo://app?vid=a02eb322-9151-4a0e-8330-c8e03c0f56b0"},"vehicle_type_id":"4","last_reported":1744215186,"current_range_meters":19600,"station_id":"ce4bgih2rcd13ifvqba0","pricing_plan_id":"cebpf4jnsgd1na2vs0mg"},{"bike_id":"4acdaa38-adbb-41dd-8369-3b8e08039467","system_id":"levelo_inurba_marseille","lat":43.29272,"lon":5.38451,"is_reserved":false,"is_disabled":false,"rental_uris":{"android":"levelo://app?vid=4acdaa38-adbb-41dd-8369-3b8e08039467","ios":"levelo://app?vid=4acdaa38-adbb-41dd-8369-3b8e08039467"},"vehicle_type_id":"4","last_reported":1744215186,"current_range_meters":19600,"station_id":"ce4bh692rcd13ifvqea0","pricing_plan_id":"cebpf4jnsgd1na2vs0mg"},{"bike_id":"2ed88194-672f-4ef7-8565-4b2fdd21a9a4","system_id":"levelo_inurba_marseille","lat":43.29528,"lon":5.3855,"is_reserved":false,"is_disabled":false,"rental_uris":{"android":"levelo://app?vid=2ed88194-672f-4ef7-8565-4b2fdd21a9a4","ios":"levelo://app?vid=2ed88194-672f-4ef7-8565-4b2fdd21a9a4"},"vehicle_type_id":"4","last_reported":1744215186,"current_range_meters":19600,"station_id":"ce4bgih2rcd13ifvqba0","pricing_plan_id":"cebpf4jnsgd1na2vs0mg"},{"bike_id":"2b54a496-5bb2-42c4-bb01-6f1e5c2215a7","system_id":"levelo_inurba_marseille","lat":43.3081,"lon":5.37698,"is_reserved":false,"is_disabled":true,"rental_uris":{"android":"levelo://app?vid=2b54a496-5bb2-42c4-bb01-6f1e5c2215a7","ios":"levelo://app?vid=2b54a496-5bb2-42c4-bb01-6f1e5c2215a7"},"vehicle_type_id":"4","last_reported":1744215186,"current_range_meters":19600,"station_id":"ce4bgv92rcd13ifvqcq0","pricing_plan_id":"cebpf4jnsgd1na2vs0mg"},{"bike_id":"1f433200-b7b5-4fa5-9378-736889e5b37c","system_id":"levelo_inurba_marseille","lat":43.30129,"lon":5.39862,"is_reserved":false,"is_disabled":false,"rental_uris":{"android":"levelo://app?vid=1f433200-b7b5-4fa5-9378-736889e5b37c","ios":"levelo://app?vid=1f433200-b7b5-4fa5-9378-736889e5b37c"},"vehicle_type_id":"4","last_reported":1744215186,"current_range_meters":19600,"station_id":"ce4bh0h2rcd13ifvqd40","pricing_plan_id":"cebpf4jnsgd1na2vs0mg"},{"bike_id":"ec71824f-66d8-4c73-9328-262c264b4051","system_id":"levelo_inurba_marseille","lat":43.32754,"lon":5.38213,"is_reserved":false,"is_disabled":false,"rental_uris":{"android":"levelo://app?vid=ec71824f-66d8-4c73-9328-262c264b4051","ios":"levelo://app?vid=ec71824f-66d8-4c73-9328-262c264b4051"},"vehicle_type_id":"4","last_reported":1744215186,"current_range_meters":19600,"station_id":"","pricing_plan_id":"cebpf4jnsgd1na2vs0mg"},{"bike_id":"dcf2b0fd-e733-460c-90f0-8a7f9526959a","system_id":"levelo_inurba_marseille","lat":43.29604,"lon":5.37059,"is_reserved":false,"is_disabled":false,"rental_uris":{"android":"levelo://app?vid=dcf2b0fd-e733-460c-90f0-8a7f9526959a","ios":"levelo://app?vid=dcf2b0fd-e733-460c-90f0-8a7f9526959a"},"vehicle_type_id":"4","last_reported":1744215186,"current_range_meters":19600,"station_id":"","pricing_plan_id":"cebpf4jnsgd1na2vs0mg"},{"bike_id":"ab3b983e-baff-42d5-86df-cd440bcf4802","system_id":"levelo_inurba_marseille","lat":43.28268,"lon":5.3506,"is_reserved":false,"is_disabled":false,"rental_uris":{"android":"levelo://app?vid=ab3b983e-baff-42d5-86df-cd440bcf4802","ios":"levelo://app?vid=ab3b983e-baff-42d5-86df-cd440bcf4802"},"vehicle_type_id":"4","last_reported":1744215186,"current_range_meters":19200,"station_id":"ce4bhbp2rcd13ifvqerg","pricing_plan_id":"cebpf4jnsgd1na2vs0mg"},{"bike_id":"f9fde33d-3e05-4f24-9670-2ad2d1cacdc1","system_id":"levelo_inurba_marseille","lat":43.2882,"lon":5.37269,"is_reserved":false,"is_disabled":false,"rental_uris":{"android":"levelo://app?vid=f9fde33d-3e05-4f24-9670-2ad2d1cacdc1","ios":"levelo://app?vid=f9fde33d-3e05-4f24-9670-2ad2d1cacdc1"},"vehicle_type_id":"4","last_reported":1744215186,"current_range_meters":19600,"station_id":"","pricing_plan_id":"cebpf4jnsgd1na2vs0mg"},{"bike_id":"a589f296-eada-4bca-b21d-7cd8d8ab244b","system_id":"levelo_inurba_marseille","lat":43.27186,"lon":5.40984,"is_reserved":false,"is_disabled":false,"rental_uris":{"android":"levelo://app?vid=a589f296-eada-4bca-b21d-7cd8d8ab244b","ios":"levelo://app?vid=a589f296-eada-4bca-b21d-7cd8d8ab244b"},"vehicle_type_id":"4","last_reported":1744215186,"current_range_meters":20000,"station_id":"ce4bhl12rcd13ifvqgf0","pricing_plan_id":"cebpf4jnsgd1na2vs0mg"},{"bike_id":"031db55e-6036-4d04-a220-5983f481eb14","system_id":"levelo_inurba_marseille","lat":43.24165,"lon":5.36393,"is_reserved":false,"is_disabled":false,"rental_uris":{"android":"levelo://app?vid=031db55e-6036-4d04-a220-5983f481eb14","ios":"levelo://app?vid=031db55e-6036-4d04-a220-5983f481eb14"},"vehicle_type_id":"4","last_reported":1744215186,"current_range_meters":20000,"station_id":"cpo36qri1sfpv3e86is0","pricing_plan_id":"cebpf4jnsgd1na2vs0mg"},{"bike_id":"2db062fe-2ccd-450d-85dd-3c77819ba37a","system_id":"levelo_inurba_marseille","lat":43.28947,"lon":5.36627,"is_reserved":false,"is_disabled":true,"rental_uris":{"android":"levelo://app?vid=2db062fe-2ccd-450d-85dd-3c77819ba37a","ios":"levelo://app?vid=2db062fe-2ccd-450d-85dd-3c77819ba37a"},"vehicle_type_id":"4","last_reported":1744215186,"current_range_meters":20000,"station_id":"ce4bhap2rcd13ifvqek0","pricing_plan_id":"cebpf4jnsgd1na2vs0mg"},{"bike_id":"29700ecf-7fc0-4f72-8879-24d0fe3e048c","system_id":"levelo_inurba_marseille","lat":43.30216,"lon":5.39469,"is_reserved":false,"is_disabled":false,"rental_uris":{"android":"levelo://app?vid=29700ecf-7fc0-4f72-8879-24d0fe3e048c","ios":"levelo://app?vid=29700ecf-7fc0-4f72-8879-24d0fe3e048c"},"vehicle_type_id":"4","last_reported":1744215186,"current_range_meters":20400,"station_id":"ce4bh0p2rcd13ifvqd70","pricing_plan_id":"cebpf4jnsgd1na2vs0mg"},{"bike_id":"aa1f5a57-b504-4aea-b6bc-c36a52fa1e6d","system_id":"levelo_inurba_marseille","lat":43.28857,"lon":5.39316,"is_reserved":false,"is_disabled":false,"rental_uris":{"android":"levelo://app?vid=aa1f5a57-b504-4aea-b6bc-c36a52fa1e6d","ios":"levelo://app?vid=aa1f5a57-b504-4aea-b6bc-c36a52fa1e6d"},"vehicle_type_id":"4","last_reported":1744215186,"current_range_meters":20400,"station_id":"ce4bh2p2rcd13ifvqdi0","pricing_plan_id":"cebpf4jnsgd1na2vs0mg"},{"bike_id":"efba753a-2208-4eb3-a3b3-c64a37430655","system_id":"levelo_inurba_marseille","lat":43.27616,"lon":5.361,"is_reserved":false,"is_disabled":false,"rental_uris":{"android":"levelo://app?vid=efba753a-2208-4eb3-a3b3-c64a37430655","ios":"levelo://app?vid=efba753a-2208-4eb3-a3b3-c64a37430655"},"vehicle_type_id":"4","last_reported":1744215186,"current_range_meters":20400,"station_id":"ce4bgj92rcd13ifvqbe0","pricing_plan_id":"cebpf4jnsgd1na2vs0mg"},{"bike_id":"10a5367d-cd88-4a17-b95c-10758fee65eb","system_id":"levelo_inurba_marseille","lat":43.29253,"lon":5.38439,"is_reserved":false,"is_disabled":false,"rental_uris":{"android":"levelo://app?vid=10a5367d-cd88-4a17-b95c-10758fee65eb","ios":"levelo://app?vid=10a5367d-cd88-4a17-b95c-10758fee65eb"},"vehicle_type_id":"4","last_reported":1744215186,"current_range_meters":20400,"station_id":"ce4bh692rcd13ifvqea0","pricing_plan_id":"cebpf4jnsgd1na2vs0mg"},{"bike_id":"7256f6bb-54d5-4d41-be92-889260efe305","system_id":"levelo_inurba_marseille","lat":43.29569,"lon":5.396959,"is_reserved":false,"is_disabled":false,"rental_uris":{"android":"levelo://app?vid=7256f6bb-54d5-4d41-be92-889260efe305","ios":"levelo://app?vid=7256f6bb-54d5-4d41-be92-889260efe305"},"vehicle_type_id":"4","last_reported":1744215186,"current_range_meters":20800,"station_id":"ce4bh692rcd13ifvqea0","pricing_plan_id":"cebpf4jnsgd1na2vs0mg"},{"bike_id":"d7adffc4-cf62-4fea-aaaf-6657cbfbb451","system_id":"levelo_inurba_marseille","lat":43.28855,"lon":5.35846,"is_reserved":false,"is_disabled":true,"rental_uris":{"android":"levelo://app?vid=d7adffc4-cf62-4fea-aaaf-6657cbfbb451","ios":"levelo://app?vid=d7adffc4-cf62-4fea-aaaf-6657cbfbb451"},"vehicle_type_id":"4","last_reported":1744215186,"current_range_meters":20800,"station_id":"ce4bhb12rcd13ifvqem0","pricing_plan_id":"cebpf4jnsgd1na2vs0mg"},