{"last_updated":1704827161,"ttl":30,"version":"2.2","data":{"bikes":[{"bike_id":"e9f66014-5538-44a2-9f44-7b264cca864d","system_id":"levelo_inurba_marseille","lat":43.312239,"lon":5.368562,"is_reserved":false,"is_disabled":false,"rental_uris":{"android":"levelo://app?vid=e9f66014-5538-44a2-9f44-7b264cca864d","ios":"levelo://app?vid=e9f66014-5538-44a2-9f44-7b264cca864d"},"vehicle_type_id":"4","last_reported":1704827161,"current_range_meters":6000,"station_id":"ce4bgl92rcd13ifvqbq0","pricing_plan_id":"free"},{"bike_id":"d71ea443-f15a-490a-af36-ac588d405704","system_id":"levelo_inurba_marseille","lat":43.312239,"lon":5.368562,"is_reserved":false,"is_disabled":false,"rental_uris":{"android":"levelo://app?vid=d71ea443-f15a-490a-af36-ac588d405704","ios":"levelo://app?vid=d71ea443-f15a-490a-af36-ac588d405704"},"vehicle_type_id":"4","last_reported":1704827161,"current_range_meters":14000,"station_id":"ce4bgl92rcd13ifvqbq0","pricing_plan_id":"free"},{"bike_id":"68a45162-e46e-4fca-a4d7-d06991e63e55","system_id":"levelo_inurba_marseille","lat":43.312239,"lon":5.368562,"is_reserved":false,"is_disabled":false,"rental_uris":{"android":"levelo://app?vid=68a45162-e46e-4fca-a4d7-d06991e63e55","ios":"levelo://app?vid=68a45162-e46e-4fca-a4d7-d06991e63e55"},"vehicle_type_id":"4","last_reported":1704827161,"current_range_meters":14000,"station_id":"ce4bgl92rcd13ifvqbq0","pricing_plan_id":"free"},{"bike_id":"31075a05-114f-46c8-a0a5-3a28b985355d","system_id":"levelo_inurba_marseille","lat":43.309076,"lon":5.368465,"is_reserved":false,"is_disabled":false,"rental_uris":{"android":"levelo://app?vid=31075a05-114f-46c8-a0a5-3a28b985355d","ios":"levelo://app?vid=31075a05-114f-46c8-a0a5-3a28b985355d"},"vehicle_type_id":"4","last_reported":1704827161,"current_range_meters":16400,"station_id":"ce4bgn92rcd13ifvqbvg","pricing_plan_id":"free"},{"bike_id":"a18c9f18-dd23-4fa3-ae4c-750a813ec2dd","system_id":"levelo_inurba_marseille","lat":43.31361,"lon":5.37348,"is_reserved":false,"is_disabled":false,"rental_uris":{"android":"levelo://app?vid=a18c9f18-dd23-4fa3-ae4c-750a813ec2dd","ios":"levelo://app?vid=a18c9f18-dd23-4fa3-ae4c-750a813ec2dd"},"vehicle_type_id":"4","last_reported":1704827161,"current_range_meters":4800,"station_id":"","pricing_plan_id":"free"},{"bike_id":"04b88876-122d-4f16-8240-d40a8ee57cf7","system_id":"levelo_inurba_marseille","lat":43.314811,"lon":5.373103,"is_reserved":false,"is_disabled":false,"rental_uris":{"android":"levelo://app?vid=04b88876-122d-4f16-8240-d40a8ee57cf7","ios":"levelo://app?vid=04b88876-122d-4f16-8240-d40a8ee57cf7"},"vehicle_type_id":"4","last_reported":1704827161,"current_range_meters":28400,"station_id":"ce4bgt12rcd13ifvqcd0","pricing_plan_id":"free"},{"bike_id":"7b3b699f-3f99-4e35-89af-d56ef1f73cc7","system_id":"levelo_inurba_marseille","lat":43.31512,"lon":5.37314,"is_reserved":false,"is_disabled":false,"rental_uris":{"android":"levelo://app?vid=7b3b699f-3f99-4e35-89af-d56ef1f73cc7","ios":"levelo://app?vid=7b3b699f-3f99-4e35-89af-d56ef1f73cc7"},"vehicle_type_id":"4","last_reported":1704827161,"current_range_meters":20000,"station_id":"ce4bgt12rcd13ifvqcd0","pricing_plan_id":"free"},{"bike_id":"ba7ab413-6184-4fa4-87a6-d4a19341d6e9","system_id":"levelo_inurba_marseille","lat":43.309039,"lon":5.371797,"is_reserved":false,"is_disabled":false,"rental_uris":{"android":"levelo://app?vid=ba7ab413-6184-4fa4-87a6-d4a19341d6e9","ios":"levelo://app?vid=ba7ab413-6184-4fa4-87a6-d4a19341d6e9"},"vehicle_type_id":"4","last_reported":1704827161,"current_range_meters":27600,"station_id":"ce4bguh2rcd13ifvqckg","pricing_plan_id":"free"},{"bike_id":"6c0a4dc3-c03e-4042-8ae0-14bc1d07cd96","system_id":"levelo_inurba_marseille","lat":43.311125,"lon":5.377624,"is_reserved":false,"is_disabled":false,"rental_uris":{"android":"levelo://app?vid=6c0a4dc3-c03e-4042-8ae0-14bc1d07cd96","ios":"levelo://app?vid=6c0a4dc3-c03e-4042-8ae0-14bc1d07cd96"},"vehicle_type_id":"4","last_reported":1704827161,"current_range_meters":22400,"station_id":"ce4bgt92rcd13ifvqcg0","pricing_plan_id":"free"},{"bike_id":"e2bde781-33f7-4b7b-881d-f06fda707032","system_id":"levelo_inurba_marseille","lat":43.311131,"lon":5.377651,"is_reserved":false,"is_disabled":false,"rental_uris":{"android":"levelo://app?vid=e2bde781-33f7-4b7b-881d-f06fda707032","ios":"levelo://app?vid=e2bde781-33f7-4b7b-881d-f06fda707032"},"vehicle_type_id":"4","last_reported":1704827161,"current_range_meters":14400,"station_id":"ce4bgt92rcd13ifvqcg0","pricing_plan_id":"free"},{"bike_id":"dbfd96a6-4f0c-4c05-b05c-d7a02237e190","system_id":"levelo_inurba_marseille","lat":43.31128,"lon":5.37769,"is_reserved":false,"is_disabled":false,"rental_uris":{"android":"levelo://app?vid=dbfd96a6-4f0c-4c05-b05c-d7a02237e190","ios":"levelo://app?vid=dbfd96a6-4f0c-4c05-b05c-d7a02237e190"},"vehicle_type_id":"4","last_reported":1704827161,"current_range_meters":14800,"station_id":"ce4bgt92rcd13ifvqcg0","pricing_plan_id":"free"},{"bike_id":"3086b3af-ad91-426a-822b-219ee9c51b44","system_id":"levelo_inurba_marseille","lat":43.311125,"lon":5.377624,"is_reserved":false,"is_disabled":false,"rental_uris":{"android":"levelo://app?vid=3086b3af-ad91-426a-822b-219ee9c51b44","ios":"levelo://app?vid=3086b3af-ad91-426a-822b-219ee9c51b44"},"vehicle_type_id":"4","last_reported":1704827161,"current_range_meters":18800,"station_id":"ce4bgt92rcd13ifvqcg0","pricing_plan_id":"free"},{"bike_id":"7d59f4b6-034c-415a-bbf3-d491a8d7fec9","system_id":"levelo_inurba_marseille","lat":43.311131,"lon":5.377651,"is_reserved":false,"is_disabled":false,"rental_uris":{"android":"levelo://app?vid=7d59f4b6-034c-415a-bbf3-d491a8d7fec9","ios":"levelo://app?vid=7d59f4b6-034c-415a-bbf3-d491a8d7fec9"},"vehicle_type_id":"4","last_reported":1704827161,"current_range_meters":13600,"station_id":"ce4bgt92rcd13ifvqcg0","pricing_plan_id":"free"},{"bike_id":"152a3ec6-172f-4877-8906-cf99cb3b8cd4","system_id":"levelo_inurba_marseille","lat":43.311131,"lon":5.377651,"is_reserved":false,"is_disabled":false,"rental_uris":{"android":"levelo://app?vid=152a3ec6-172f-4877-8906-cf99cb3b8cd4","ios":"levelo://app?vid=152a3ec6-172f-4877-8906-cf99cb3b8cd4"},"vehicle_type_id":"4","last_reported":1704827161,"current_range_meters":9200,"station_id":"ce4bgt92rcd13ifvqcg0","pricing_plan_id":"free"},{"bike_id":"7ba47980-a9dc-49c0-82f4-e68c858d8748","system_id":"levelo_inurba_marseille","lat":43.311131,"lon":5.377651,"is_reserved":false,"is_disabled":false,"rental_uris":{"android":"levelo://app?vid=7ba47980-a9dc-49c0-82f4-e68c858d8748","ios":"levelo://app?vid=7ba47980-a9dc-49c0-82f4-e68c858d8748"},"vehicle_type_id":"4","last_reported":1704827161,"current_range_meters":13600,"station_id":"ce4bgt92rcd13ifvqcg0","pricing_plan_id":"free"},{"bike_id":"d2b81291-3b3a-4c54-a823-f418cdf71f31","system_id":"levelo_inurba_marseille","lat":43.311131,"lon":5.377651,"is_reserved":false,"is_disabled":false,"rental_uris":{"android":"levelo://app?vid=d2b81291-3b3a-4c54-a823-f418cdf71f31","ios":"levelo://app?vid=d2b81291-3b3a-4c54-a823-f418cdf71f31"},"vehicle_type_id":"4","last_reported":1704827161,"current_range_meters":18000,"station_id":"ce4bgt92rcd13ifvqcg0","pricing_plan_id":"free"},{"bike_id":"d434e21a-9657-4114-9bd3-9d77fe229c1d","system_id":"levelo_inurba_marseille","lat":43.311131,"lon":5.377651,"is_reserved":false,"is_disabled":false,"rental_uris":{"android":"levelo://app?vid=d434e21a-9657-4114-9bd3-9d77fe229c1d","ios":"levelo://app?vid=d434e21a-9657-4114-9bd3-9d77fe229c1d"},"vehicle_type_id":"4","last_reported":1704827161,"current_range_meters":13200,"station_id":"ce4bgt92rcd13ifvqcg0","pricing_plan_id":"free"},{"bike_id":"cc909c15-a40f-4134-9eb6-85515e828de0","system_id":"levelo_inurba_marseille","lat":43.311125,"lon":5.377624,"is_reserved":false,"is_disabled":false,"rental_uris":{"android":"levelo://app?vid=cc909c15-a40f-4134-9eb6-85515e828de0","ios":"levelo://app?vid=cc909c15-a40f-4134-9eb6-85515e828de0"},"vehicle_type_id":"4","last_reported":1704827161,"current_range_meters":4800,"station_id":"ce4bgt92rcd13ifvqcg0","pricing_plan_id":"free"},{"bike_id":"01dae8d9-20be-460d-a534-9c834f8a6533","system_id":"levelo_inurba_marseille","lat":43.311125,"lon":5.377624,"is_reserved":false,"is_disabled":false,"rental_uris":{"android":"levelo://app?vid=01dae8d9-20be-460d-a534-9c834f8a6533","ios":"levelo://app?vid=01dae8d9-20be-460d-a534-9c834f8a6533"},"vehicle_type_id":"4","last_reported":1704827161,"current_range_meters":16800,"station_id":"ce4bgt92rcd13ifvqcg0","pricing_plan_id":"free"},{"bike_id":"cf9ebc77-814f-41f3-8053-a51046df4af0","system_id":"levelo_inurba_marseille","lat":43.317075,"lon":5.377367,"is_reserved":false,"is_disabled":false,"rental_uris":{"android":"levelo://app?vid=cf9ebc77-814f-41f3-8053-a51046df4af0","ios":"levelo://app?vid=cf9ebc77-814f-41f3-8053-a51046df4af0"},"vehicle_type_id":"4","last_reported":1704827161,"current_range_meters":10000,"station_id":"ce4bgth2rcd13ifvqch0","pricing_plan_id":"free"},{"bike_id":"418b202b-0152-4733-8827-421c31b824c4","system_id":"levelo_inurba_marseille","lat":43.30304,"lon":5.368987,"is_reserved":false,"is_disabled":false,"rental_uris":{"android":"levelo://app?vid=418b202b-0152-4733-8827-421c31b824c4","ios":"levelo://app?vid=418b202b-0152-4733-8827-421c31b824c4"},"vehicle_type_id":"4","last_reported":1704827161,"current_range_meters":22800,"station_id":"ce4bgqh2rcd13ifvqc5g","pricing_plan_id":"free"},{"bike_id":"758f4e56-f959-46c5-b2be-a5be72f89067","system_id":"levelo_inurba_marseille","lat":43.304606,"lon":5.379026,"is_reserved":false,"is_disabled":false,"rental_uris":{"android":"levelo://app?vid=758f4e56-f959-46c5-b2be-a5be72f89067","ios":"levelo://app?vid=758f4e56-f959-46c5-b2be-a5be72f89067"},"vehicle_type_id":"4","last_reported":1704827161,"current_range_meters":31200,"station_id":"ce4bgup2rcd13ifvqcn0","pricing_plan_id":"free"},{"bike_id":"19c87700-1a46-4da1-a27d-29c3286ef9ee","system_id":"levelo_inurba_marseille","lat":43.304606,"lon":5.379026,"is_reserved":false,"is_disabled":false,"rental_uris":{"android":"levelo://app?vid=19c87700-1a46-4da1-a27d-29c3286ef9ee","ios":"levelo://app?vid=19c87700-1a46-4da1-a27d-29c3286ef9ee"},"vehicle_type_id":"4","last_reported":1704827161,"current_range_meters":31200,"station_id":"ce4bgup2rcd13ifvqcn0","pricing_plan_id":"free"},{"bike_id":"b62c84c4-12dd-4d5f-8731-7cf614f02cfd","system_id":"levelo_inurba_marseille","lat":43.304606,"lon":5.379026,"is_reserved":false,"is_disabled":false,"rental_uris":{"android":"levelo://app?vid=b62c84c4-12dd-4d5f-8731-7cf614f02cfd","ios":"levelo://app?vid=b62c84c4-12dd-4d5f-8731-7cf614f02cfd"},"vehicle_type_id":"4","last_reported":1704827161,"current_range_meters":20000,"station_id":"ce4bgup2rcd13ifvqcn0","pricing_plan_id":"free"},{"bike_id":"c18bd710-d53d-408e-b066-0a5177bfde88","system_id":"levelo_inurba_marseille","lat":43.304606,"lon":5.379026,"is_reserved":false,"is_disabled":false,"rental_uris":{"android":"levelo://app?vid=c18bd710-d53d-408e-b066-0a5177bfde88","ios":"levelo://app?vid=c18bd710-d53d-408e-b066-0a5177bfde88"},"vehicle_type_id":"4","last_reported":1704827161,"current_range_meters":19200,"station_id":"ce4bgup2rcd13ifvqcn0","pricing_plan_id":"free"},{"bike_id":"b2131ee9-317a-408e-af0c-5f46bd3dcbf2","system_id":"levelo_inurba_marseille","lat":43.304467,"lon":5.378663,"is_reserved":false,"is_disabled":false,"rental_uris":{"android":"levelo://app?vid=b2131ee9-317a-408e-af0c-5f46bd3dcbf2","ios":"levelo://app?vid=b2131ee9-317a-408e-af0c-5f46bd3dcbf2"},"vehicle_type_id":"4","last_reported":1704827161,"current_range_meters":27200,"station_id":"ce4bgup2rcd13ifvqcn0","pricing_plan_id":"free"},{"bike_id":"44f2ed2d-e1a7-46bb-8043-c08ccfca6be7","system_id":"levelo_inurba_marseille","lat":43.3047,"lon":5.37897,"is_reserved":false,"is_disabled":false,"rental_uris":{"android":"levelo://app?vid=44f2ed2d-e1a7-46bb-8043-c08ccfca6be7","ios":"levelo://app?vid=44f2ed2d-e1a7-46bb-8043-c08ccfca6be7"},"vehicle_type_id":"4","last_reported":1704827161,"current_range_meters":27200,"station_id":"ce4bgup2rcd13ifvqcn0","pricing_plan_id":"free"},{"bike_id":"3ed8c41e-6c54-46dc-b784-cf32a32b06f4","system_id":"levelo_inurba_marseille","lat":43.30466,"lon":5.379,"is_reserved":false,"is_disabled":false,"rental_uris":{"android":"levelo://app?vid=3ed8c41e-6c54-46dc-b784-cf32a32b06f4","ios":"levelo://app?vid=3ed8c41e-6c54-46dc-b784-cf32a32b06f4"},"vehicle_type_id":"4","last_reported":1704827161,"current_range_meters":18000,"station_id":"ce4bgup2rcd13ifvqcn0","pricing_plan_id":"free"},{"bike_id":"f3024a02-cad0-4e53-8fac-c01eac4054bd","system_id":"levelo_inurba_marseille","lat":43.300827,"lon":5.365856,"is_reserved":false,"is_disabled":false,"rental_uris":{"android":"levelo://app?vid=f3024a02-cad0-4e53-8fac-c01eac4054bd","ios":"levelo://app?vid=f3024a02-cad0-4e53-8fac-c01eac4054bd"},"vehicle_type_id":"4","last_reported":1704827161,"current_range_meters":15600,"station_id":"","pricing_plan_id":"free"},{"bike_id":"de71a88d-0ec6-4cad-a0d0-099c25e2d889","system_id":"levelo_inurba_marseille","lat":43.304606,"lon":5.379026,"is_reserved":false,"is_disabled":false,"rental_uris":{"android":"levelo://app?vid=de71a88d-0ec6-4cad-a0d0-099c25e2d889","ios":"levelo://app?vid=de71a88d-0ec6-4cad-a0d0-099c25e2d889"},"vehicle_type_id":"4","last_reported":1704827161,"current_range_meters":21600,"station_id":"ce4bgup2rcd13ifvqcn0","pricing_plan_id":"free"},{"bike_id":"e7b6b686-bdc9-48b0-a8f3-06be4329bf15","system_id":"levelo_inurba_marseille","lat":43.304606,"lon":5.379026,"is_reserved":false,"is_disabled":false,"rental_uris":{"android":"levelo://app?vid=e7b6b686-bdc9-48b0-a8f3-06be4329bf15","ios":"levelo://app?vid=e7b6b686-bdc9-48b0-a8f3-06be4329bf15"},"vehicle_type_id":"4","last_reported":1704827161,"current_range_meters":18800,"station_id":"ce4bgup2rcd13ifvqcn0","pricing_plan_id":"free"},{"bike_id":"94a00e81-f4c6-4008-b407-d466fed68621","system_id":"levelo_inurba_marseille","lat":43.304606,"lon":5.379026,"is_reserved":false,"is_disabled":false,"rental_uris":{"android":"levelo://app?vid=94a00e81-f4c6-4008-b407-d466fed68621","ios":"levelo://app?vid=94a00e81-f4c6-4008-b407-d466fed68621"},"vehicle_type_id":"4","last_reported":1704827161,"current_range_meters":28000,"station_id":"ce4bgup2rcd13ifvqcn0","pricing_plan_id":"free"},{"bike_id":"966b2d41-1764-4aeb-ab96-2e27d6a6aaf7","system_id":"levelo_inurba_marseille","lat":43.30464,"lon":5.37903,"is_reserved":false,"is_disabled":false,"rental_uris":{"android":"levelo://app?vid=966b2d41-1764-4aeb-ab96-2e27d6a6aaf7","ios":"levelo://app?vid=966b2d41-1764-4aeb-ab96-2e27d6a6aaf7"},"vehicle_type_id":"4","last_reported":1704827161,"current_range_meters":0,"station_id":"ce4bgup2rcd13ifvqcn0","pricing_plan_id":"free"},{"bike_id":"592186ea-9749-4077-a128-39abeba103d1","system_id":"levelo_inurba_marseille","lat":43.324759,"lon":5.365564,"is_reserved":false,"is_disabled":false,"rental_uris":{"android":"levelo://app?vid=592186ea-9749-4077-a128-39abeba103d1","ios":"levelo://app?vid=592186ea-9749-4077-a128-39abeba103d1"},"vehicle_type_id":"4","last_reported":1704827161,"current_range_meters":11200,"station_id":"ce4bhs12rcd13ifvqhvg","pricing_plan_id":"free"},{"bike_id":"9a5d20fc-5739-4188-aece-a966211e1333","system_id":"levelo_inurba_marseille","lat":43.324771,"lon":5.36557,"is_reserved":false,"is_disabled":false,"rental_uris":{"android":"levelo://app?vid=9a5d20fc-5739-4188-aece-a966211e1333","ios":"levelo://app?vid=9a5d20fc-5739-4188-aece-a966211e1333"},"vehicle_type_id":"4","last_reported":1704827161,"current_range_meters":4400,"station_id":"ce4bhs12rcd13ifvqhvg","pricing_plan_id":"free"},{"bike_id":"2aa100e7-2671-4c1b-a1f0-ab7832afcbad","system_id":"levelo_inurba_marseille","lat":43.324771,"lon":5.36557,"is_reserved":false,"is_disabled":false,"rental_uris":{"android":"levelo://app?vid=2aa100e7-2671-4c1b-a1f0-ab7832afcbad","ios":"levelo://app?vid=2aa100e7-2671-4c1b-a1f0-ab7832afcbad"},"vehicle_type_id":"4","last_reported":1704827161,"current_range_meters":15600,"station_id":"ce4bhs12rcd13ifvqhvg","pricing_plan_id":"free"},{"bike_id":"bb02e8fc-1b1a-442d-be08-908b3392a957","system_id":"levelo_inurba_marseille","lat":43.324771,"lon":5.36557,"is_reserved":false,"is_disabled":false,"rental_uris":{"android":"levelo://app?vid=bb02e8fc-1b1a-442d-be08-908b3392a957","ios":"levelo://app?vid=bb02e8fc-1b1a-442d-be08-908b3392a957"},"vehicle_type_id":"4","last_reported":1704827161,"current_range_meters":15600,"station_id":"ce4bhs12rcd13ifvqhvg","pricing_plan_id":"free"},{"bike_id":"ee926864-2611-4e6a-bfd8-5fc91eba9acd","system_id":"levelo_inurba_marseille","lat":43.324771,"lon":5.36557,"is_reserved":false,"is_disabled":false,"rental_uris":{"android":"levelo://app?vid=ee926864-2611-4e6a-bfd8-5fc91eba9acd","ios":"levelo://app?vid=ee926864-2611-4e6a-bfd8-5fc91eba9acd"},"vehicle_type_id":"4","last_reported":1704827161,"current_range_meters":21600,"station_id":"ce4bhs12rcd13ifvqhvg","pricing_plan_id":"free"},{"bike_id":"ff7d6d39-92d2-4309-910f-696520f9158d","system_id":"levelo_inurba_marseille","lat":43.324771,"lon":5.36557,"is_reserved":false,"is_disabled":false,"rental_uris":{"android":"levelo://app?vid=ff7d6d39-92d2-4309-910f-696520f9158d","ios":"levelo://app?vid=ff7d6d39-92d2-4309-910f-696520f9158d"},"vehicle_type_id":"4","last_reported":1704827161,"current_range_meters":16000,"station_id":"ce4bhs12rcd13ifvqhvg","pricing_plan_id":"free"},{"bike_id":"f83cc974-146d-4216-8e0a-fc1f44d54a58","system_id":"levelo_inurba_marseille","lat":43.301429,"lon":5.37413,"is_reserved":false,"is_disabled":false,"rental_uris":{"android":"levelo://app?vid=f83cc974-146d-4216-8e0a-fc1f44d54a58","ios":"levelo://app?vid=f83cc974-146d-4216-8e0a-fc1f44d54a58"},"vehicle_type_id":"4","last_reported":1704827161,"current_range_meters":26800,"station_id":"ce4bgs92rcd13ifvqcc0","pricing_plan_id":"free"},{"bike_id":"65bcc5e4-10bc-4a9e-8dcb-4f6c76180b3f","system_id":"levelo_inurba_marseille","lat":43.301429,"lon":5.37413,"is_reserved":false,"is_disabled":false,"rental_uris":{"android":"levelo://app?vid=65bcc5e4-10bc-4a9e-8dcb-4f6c76180b3f","ios":"levelo://app?vid=65bcc5e4-10bc-4a9e-8dcb-4f6c76180b3f"},"vehicle_type_id":"4","last_reported":1704827161,"current_range_meters":20000,"station_id":"ce4bgs92rcd13ifvqcc0","pricing_plan_id":"free"},{"bike_id":"ebe520f5-39e9-442e-9ec1-ff6266ced4f1","system_id":"levelo_inurba_marseille","lat":43.301465,"lon":5.374256,"is_reserved":false,"is_disabled":false,"rental_uris":{"android":"levelo://app?vid=ebe520f5-39e9-442e-9ec1-ff6266ced4f1","ios":"levelo://app?vid=ebe520f5-39e9-442e-9ec1-ff6266ced4f1"},"vehicle_type_id":"4","last_reported":1704827161,"current_range_meters":16800,"station_id":"","pricing_plan_id":"free"},{"bike_id":"6088c916-f4e5-4543-91f4-522af5528794","system_id":"levelo_inurba_marseille","lat":43.319935,"lon":5.381699,"is_reserved":false,"is_disabled":false,"rental_uris":{"android":"levelo://app?vid=6088c916-f4e5-4543-91f4-522af5528794","ios":"levelo://app?vid=6088c916-f4e5-4543-91f4-522af5528794"},"vehicle_type_id":"4","last_reported":1704827161,"current_range_meters":26000,"station_id":"ce4bhr12rcd13ifvqhpg","pricing_plan_id":"free"},{"bike_id":"c4274dcf-7ade-41c9-b282-795b1fa3193d","system_id":"levelo_inurba_marseille","lat":43.311722,"lon":5.387247,"is_reserved":false,"is_disabled":false,"rental_uris":{"android":"levelo://app?vid=c4274dcf-7ade-41c9-b282-795b1fa3193d","ios":"levelo://app?vid=c4274dcf-7ade-41c9-b282-795b1fa3193d"},"vehicle_type_id":"4","last_reported":1704827161,"current_range_meters":22000,"station_id":"ce4bgv12rcd13ifvqcp0","pricing_plan_id":"free"},{"bike_id":"bd90d70e-761b-4e9d-afb4-8cc89c14186c","system_id":"levelo_inurba_marseille","lat":43.319935,"lon":5.381699,"is_reserved":false,"is_disabled":false,"rental_uris":{"android":"levelo://app?vid=bd90d70e-761b-4e9d-afb4-8cc89c14186c","ios":"levelo://app?vid=bd90d70e-761b-4e9d-afb4-8cc89c14186c"},"vehicle_type_id":"4","last_reported":1704827161,"current_range_meters":5200,"station_id":"ce4bhr12rcd13ifvqhpg","pricing_plan_id":"free"},{"bike_id":"90c7e69f-3898-41b0-addb-5f44a927f3d7","system_id":"levelo_inurba_marseille","lat":43.319935,"lon":5.381699,"is_reserved":false,"is_disabled":false,"rental_uris":{"android":"levelo://app?vid=90c7e69f-3898-41b0-addb-5f44a927f3d7","ios":"levelo://app?vid=90c7e69f-3898-41b0-addb-5f44a927f3d7"},"vehicle_type_id":"4","last_reported":1704827161,"current_range_meters":29600,"station_id":"ce4bhr12rcd13ifvqhpg","pricing_plan_id":"free"},{"bike_id":"20866da6-e75e-464f-ba21-a1b58855cef8","system_id":"levelo_inurba_marseille","lat":43.313571,"lon":5.384829,"is_reserved":false,"is_disabled":false,"rental_uris":{"android":"levelo://app?vid=20866da6-e75e-464f-ba21-a1b58855cef8","ios":"levelo://app?vid=20866da6-e75e-464f-ba21-a1b58855cef8"},"vehicle_type_id":"4","last_reported":1704827161,"current_range_meters":12400,"station_id":"ce4bgt92rcd13ifvqcf0","pricing_plan_id":"free"},{"bike_id":"55f6a7c8-173a-4548-a857-35e75d3d93c3","system_id":"levelo_inurba_marseille","lat":43.313571,"lon":5.384829,"is_reserved":false,"is_disabled":false,"rental_uris":{"android":"levelo://app?vid=55f6a7c8-173a-4548-a857-35e75d3d93c3","ios":"levelo://app?vid=55f6a7c8-173a-4548-a857-35e75d3d93c3"},"vehicle_type_id":"4","last_reported":1704827161,"current_range_meters":20800,"station_id":"ce4bgt92rcd13ifvqcf0","pricing_plan_id":"free"},{"bike_id":"d9350f27-4d33-4cc1-b416-6cff7436aa03","system_id":"levelo_inurba_marseille","lat":43.313571,"lon":5.384829,"is_reserved":false,"is_disabled":false,"rental_uris":{"android":"levelo://app?vid=d9350f27-4d33-4cc1-b416-6cff7436aa03","ios":"levelo://app?vid=d9350f27-4d33-4cc1-b416-6cff7436aa03"},"vehicle_type_id":"4","last_reported":1704827161,"current_range_meters":26800,"station_id":"ce4bgt92rcd13ifvqcf0","pricing_plan_id":"free"},{"bike_id":"12daec6c-ab82-48ef-af9f-c36dc825b97a","system_id":"levelo_inurba_marseille","lat":43.313571,"lon":5.384829,"is_reserved":false,"is_disabled":false,"rental_uris":{"android":"levelo://app?vid=12daec6c-ab82-48ef-af9f-c36dc825b97a","ios":"levelo://app?vid=12daec6c-ab82-48ef-af9f-c36dc825b97a"},"vehicle_type_id":"4","last_reported":1704827161,"current_range_meters":20000,"station_id":"ce4bgt92rcd13ifvqcf0","pricing_plan_id":"free"},{"bike_id":"60c14532-9245-4221-9dc1-7870ecd5e7ac","system_id":"levelo_inurba_marseille","lat":43.313571,"lon":5.384829,"is_reserved":false,"is_disabled":false,"rental_uris":{"android":"levelo://app?vid=60c14532-9245-4221-9dc1-7870ecd5e7ac","ios":"levelo://app?vid=60c14532-9245-4221-9dc1-7870ecd5e7ac"},"vehicle_type_id":"4","last_reported":1704827161,"current_range_meters":22000,"station_id":"ce4bgt92rcd13ifvqcf0","pricing_plan_id":"free"},{"bike_id":"685ded61-a6a0-42e0-99b7-eaadb8679e24","system_id":"levelo_inurba_marseille","lat":43.299724,"lon":5.371829,"is_reserved":false,"is_disabled":false,"rental_uris":{"android":"levelo://app?vid=685ded61-a6a0-42e0-99b7-eaadb8679e24","ios":"levelo://app?vid=685ded61-a6a0-42e0-99b7-eaadb8679e24"},"vehicle_type_id":"4","last_reported":1704827161,"current_range_meters":28800,"station_id":"ce4bgr92rcd13ifvqc7g","pricing_plan_id":"free"},{"bike_id":"101e8ec4-e6d2-4c94-bd4b-ea144e307b0b","system_id":"levelo_inurba_marseille","lat":43.299222,"lon":5.365554,"is_reserved":false,"is_disabled":false,"rental_uris":{"android":"levelo://app?vid=101e8ec4-e6d2-4c94-bd4b-ea144e307b0b","ios":"levelo://app?vid=101e8ec4-e6d2-4c94-bd4b-ea144e307b0b"},"vehicle_type_id":"4","last_reported":1704827161,"current_range_meters":0,"station_id":"ce4bgm92rcd13ifvqbr0","pricing_plan_id":"free"},{"bike_id":"a423863c-d372-49d0-bf73-cd1f81e831d5","system_id":"levelo_inurba_marseille","lat":43.299222,"lon":5.365554,"is_reserved":false,"is_disabled":false,"rental_uris":{"android":"levelo://app?vid=a423863c-d372-49d0-bf73-cd1f81e831d5","ios":"levelo://app?vid=a423863c-d372-49d0-bf73-cd1f81e831d5"},"vehicle_type_id":"4","last_reported":1704827161,"current_range_meters":10000,"station_id":"ce4bgm92rcd13ifvqbr0","pricing_plan_id":"free"},{"bike_id":"f776ed4d-216f-4559-9a53-9436267a51a2","system_id":"levelo_inurba_marseille","lat":43.299724,"lon":5.371829,"is_reserved":false,"is_disabled":false,"rental_uris":{"android":"levelo://app?vid=f776ed4d-216f-4559-9a53-9436267a51a2","ios":"levelo://app?vid=f776ed4d-216f-4559-9a53-9436267a51a2"},"vehicle_type_id":"4","last_reported":1704827161,"current_range_meters":27200,"station_id":"ce4bgr92rcd13ifvqc7g","pricing_plan_id":"free"},{"bike_id":"5e3ae350-92fc-4f1a-91e5-fca6c6157e9c","system_id":"levelo_inurba_marseille","lat":43.314305,"lon":5.385497,"is_reserved":false,"is_disabled":false,"rental_uris":{"android":"levelo://app?vid=5e3ae350-92fc-4f1a-91e5-fca6c6157e9c","ios":"levelo://app?vid=5e3ae350-92fc-4f1a-91e5-fca6c6157e9c"},"vehicle_type_id":"4","last_reported":1704827161,"current_range_meters":11600,"station_id":"","pricing_plan_id":"free"},{"bike_id":"b22604ec-0c4b-41b4-a20e-38add68f7682","system_id":"levelo_inurba_marseille","lat":43.325403,"lon":5.374837,"is_reserved":false,"is_disabled":false,"rental_uris":{"android":"levelo://app?vid=b22604ec-0c4b-41b4-a20e-38add68f7682","ios":"levelo://app?vid=b22604ec-0c4b-41b4-a20e-38add68f7682"},"vehicle_type_id":"4","last_reported":1704827161,"current_range_meters":400,"station_id":"","pricing_plan_id":"free"},{"bike_id":"e3eafc4f-329b-4e2c-9993-b4db35dc9db5","system_id":"levelo_inurba_marseille","lat":43.325667,"lon":5.374537,"is_reserved":false,"is_disabled":false,"rental_uris":{"android":"levelo://app?vid=e3eafc4f-329b-4e2c-9993-b4db35dc9db5","ios":"levelo://app?vid=e3eafc4f-329b-4e2c-9993-b4db35dc9db5"},"vehicle_type_id":"4","last_reported":1704827161,"current_range_meters":18800,"station_id":"","pricing_plan_id":"free"},{"bike_id":"e1d45971-d7e0-4000-94a4-ff4be29d46f5","system_id":"levelo_inurba_marseille","lat":43.311722,"lon":5.387247,"is_reserved":false,"is_disabled":false,"rental_uris":{"android":"levelo://app?vid=e1d45971-d7e0-4000-94a4-ff4be29d46f5","ios":"levelo://app?vid=e1d45971-d7e0-4000-94a4-ff4be29d46f5"},"vehicle_type_id":"4","last_reported":1704827161,"current_range_meters":15600,"station_id":"ce4bgv12rcd13ifvqcp0","pricing_plan_id":"free"},{"bike_id":"a128a71e-6f1b-4dd8-a3df-7d7caae27506","system_id":"levelo_inurba_marseille","lat":43.29852,"lon":5.3629,"is_reserved":false,"is_disabled":false,"rental_uris":{"android":"levelo://app?vid=a128a71e-6f1b-4dd8-a3df-7d7caae27506","ios":"levelo://app?vid=a128a71e-6f1b-4dd8-a3df-7d7caae27506"},"vehicle_type_id":"4","last_reported":1704827161,"current_range_meters":21600,"station_id":"ce4bgpp2rcd13ifvqc3g","pricing_plan_id":"free"},{"bike_id":"be407769-77ca-41cb-9080-2d5f6af78fe8","system_id":"levelo_inurba_marseille","lat":43.29851,"lon":5.36277,"is_reserved":false,"is_disabled":false,"rental_uris":{"android":"levelo://app?vid=be407769-77ca-41cb-9080-2d5f6af78fe8","ios":"levelo://app?vid=be407769-77ca-41cb-9080-2d5f6af78fe8"},"vehicle_type_id":"4","last_reported":1704827161,"current_range_meters":0,"station_id":"ce4bgpp2rcd13ifvqc3g","pricing_plan_id":"free"},{"bike_id":"d9ef7184-89a6-4841-9181-c8640ac8d977","system_id":"levelo_inurba_marseille","lat":43.299243,"lon":5.374807,"is_reserved":false,"is_disabled":false,"rental_uris":{"android":"levelo://app?vid=d9ef7184-89a6-4841-9181-c8640ac8d977","ios":"levelo://app?vid=d9ef7184-89a6-4841-9181-c8640ac8d977"},"vehicle_type_id":"4","last_reported":1704827161,"current_range_meters":7200,"station_id":"ce4bgjh2rcd13ifvqbg0","pricing_plan_id":"free"},{"bike_id":"f5fb5d6d-a6dd-45fd-ae5c-99cbb4369573","system_id":"levelo_inurba_marseille","lat":43.299243,"lon":5.37481,"is_reserved":false,"is_disabled":false,"rental_uris":{"android":"levelo://app?vid=f5fb5d6d-a6dd-45fd-ae5c-99cbb4369573","ios":"levelo://app?vid=f5fb5d6d-a6dd-45fd-ae5c-99cbb4369573"},"vehicle_type_id":"4","last_reported":1704827161,"current_range_meters":21200,"station_id":"ce4bgjh2rcd13ifvqbg0","pricing_plan_id":"free"},{"bike_id":"edb9ae2d-6754-4db6-98d7-7e5ce4840454","system_id":"levelo_inurba_marseille","lat":43.311722,"lon":5.387247,"is_reserved":false,"is_disabled":false,"rental_uris":{"android":"levelo://app?vid=edb9ae2d-6754-4db6-98d7-7e5ce4840454","ios":"levelo://app?vid=edb9ae2d-6754-4db6-98d7-7e5ce4840454"},"vehicle_type_id":"4","last_reported":1704827161,"current_range_meters":26000,"station_id":"ce4bgv12rcd13ifvqcp0","pricing_plan_id":"free"},{"bike_id":"c89a17a0-41d3-43ec-8d45-d4aea4fe2d1b","system_id":"levelo_inurba_marseille","lat":43.311722,"lon":5.387247,"is_reserved":false,"is_disabled":false,"rental_uris":{"android":"levelo://app?vid=c89a17a0-41d3-43ec-8d45-d4aea4fe2d1b","ios":"levelo://app?vid=c89a17a0-41d3-43ec-8d45-d4aea4fe2d1b"},"vehicle_type_id":"4","last_reported":1704827161,"current_range_meters":6000,"station_id":"ce4bgv12rcd13ifvqcp0","pricing_plan_id":"free"},{"bike_id":"e7af5a54-0783-46c4-bf93-cea3bf739c4f","system_id":"levelo_inurba_marseille","lat":43.299243,"lon":5.37481,"is_reserved":false,"is_disabled":false,"rental_uris":{"android":"levelo://app?vid=e7af5a54-0783-46c4-bf93-cea3bf739c4f","ios":"levelo://app?vid=e7af5a54-0783-46c4-bf93-cea3bf739c4f"},"vehicle_type_id":"4","last_reported":1704827161,"current_range_meters":30400,"station_id":"ce4bgjh2rcd13ifvqbg0","pricing_plan_id":"free"},{"bike_id":"a4b69b8b-9efd-4666-ae1f-f23920d7ce64","system_id":"levelo_inurba_marseille","lat":43.311722,"lon":5.387247,"is_reserved":false,"is_disabled":false,"rental_uris":{"android":"levelo://app?vid=a4b69b8b-9efd-4666-ae1f-f23920d7ce64","ios":"levelo://app?vid=a4b69b8b-9efd-4666-ae1f-f23920d7ce64"},"vehicle_type_id":"4","last_reported":1704827161,"current_range_meters":24800,"station_id":"ce4bgv12rcd13ifvqcp0","pricing_plan_id":"free"},{"bike_id":"61430ce9-1b32-4b54-84f7-cebe3fce465d","system_id":"levelo_inurba_marseille","lat":43.311722,"lon":5.387247,"is_reserved":false,"is_disabled":false,"rental_uris":{"android":"levelo://app?vid=61430ce9-1b32-4b54-84f7-cebe3fce465d","ios":"levelo://app?vid=61430ce9-1b32-4b54-84f7-cebe3fce465d"},"vehicle_type_id":"4","last_reported":1704827161,"current_range_meters":15600,"station_id":"ce4bgv12rcd13ifvqcp0","pricing_plan_id":"free"},{"bike_id":"5dc78555-3731-47fb-81b3-66a4d4a711f9","system_id":"levelo_inurba_marseille","lat":43.311722,"lon":5.387247,"is_reserved":false,"is_disabled":false,"rental_uris":{"android":"levelo://app?vid=5dc78555-3731-47fb-81b3-66a4d4a711f9","ios":"levelo://app?vid=5dc78555-3731-47fb-81b3-66a4d4a711f9"},"vehicle_type_id":"4","last_reported":1704827161,"current_range_meters":10400,"station_id":"ce4bgv12rcd13ifvqcp0","pricing_plan_id":"free"},{"bike_id":"cc7fe815-f50e-4dd0-af15-91a6ff3331fa","system_id":"levelo_inurba_marseille","lat":43.311722,"lon":5.387247,"is_reserved":false,"is_disabled":false,"rental_uris":{"android":"levelo://app?vid=cc7fe815-f50e-4dd0-af15-91a6ff3331fa","ios":"levelo://app?vid=cc7fe815-f50e-4dd0-af15-91a6ff3331fa"},"vehicle_type_id":"4","last_reported":1704827161,"current_range_meters":16000,"station_id":"ce4bgv12rcd13ifvqcp0","pricing_plan_id":"free"},{"bike_id":"e4be501f-f6d8-429a-959e-6b411ad5476c","system_id":"levelo_inurba_marseille","lat":43.311722,"lon":5.387247,"is_reserved":false,"is_disabled":false,"rental_uris":{"android":"levelo://app?vid=e4be501f-f6d8-429a-959e-6b411ad5476c","ios":"levelo://app?vid=e4be501f-f6d8-429a-959e-6b411ad5476c"},"vehicle_type_id":"4","last_reported":1704827161,"current_range_meters":28000,"station_id":"ce4bgv12rcd13ifvqcp0","pricing_plan_id":"free"},{"bike_id":"f6070138-b435-45cd-afe5-5fa586feac4e","system_id":"levelo_inurba_marseille","lat":43.322872,"lon":5.382756,"is_reserved":false,"is_disabled":false,"rental_uris":{"android":"levelo://app?vid=f6070138-b435-45cd-afe5-5fa586feac4e","ios":"levelo://app?vid=f6070138-b435-45cd-afe5-5fa586feac4e"},"vehicle_type_id":"4","last_reported":1704827161,"current_range_meters":21600,"station_id":"ce4bhr12rcd13ifvqhqg","pricing_plan_id":"free"},{"bike_id":"9dddb55b-ab2a-4362-984d-08fd7ede665f","system_id":"levelo_inurba_marseille","lat":43.32284,"lon":5.38266,"is_reserved":false,"is_disabled":false,"rental_uris":{"android":"levelo://app?vid=9dddb55b-ab2a-4362-984d-08fd7ede665f","ios":"levelo://app?vid=9dddb55b-ab2a-4362-984d-08fd7ede665f"},"vehicle_type_id":"4","last_reported":1704827161,"current_range_meters":20800,"station_id":"ce4bhr12rcd13ifvqhqg","pricing_plan_id":"free"},{"bike_id":"198ab8d8-34df-452b-b039-c369bdea82d5","system_id":"levelo_inurba_marseille","lat":43.3229,"lon":5.38261,"is_reserved":false,"is_disabled":false,"rental_uris":{"android":"levelo://app?vid=198ab8d8-34df-452b-b039-c369bdea82d5","ios":"levelo://app?vid=198ab8d8-34df-452b-b039-c369bdea82d5"},"vehicle_type_id":"4","last_reported":1704827161,"current_range_meters":9600,"station_id":"ce4bhr12rcd13ifvqhqg","pricing_plan_id":"free"},{"bike_id":"01a76a40-89b1-49f0-917c-d8107f95a77f","system_id":"levelo_inurba_marseille","lat":43.32288,"lon":5.38266,"is_reserved":false,"is_disabled":false,"rental_uris":{"android":"levelo://app?vid=01a76a40-89b1-49f0-917c-d8107f95a77f","ios":"levelo://app?vid=01a76a40-89b1-49f0-917c-d8107f95a77f"},"vehicle_type_id":"4","last_reported":1704827161,"current_range_meters":7200,"station_id":"ce4bhr12rcd13ifvqhqg","pricing_plan_id":"free"},{"bike_id":"f4a772fa-5e25-4411-a2f1-6273bbd7c8b0","system_id":"levelo_inurba_marseille","lat":43.32285,"lon":5.38275,"is_reserved":false,"is_disabled":false,"rental_uris":{"android":"levelo://app?vid=f4a772fa-5e25-4411-a2f1-6273bbd7c8b0","ios":"levelo://app?vid=f4a772fa-5e25-4411-a2f1-6273bbd7c8b0"},"vehicle_type_id":"4","last_reported":1704827161,"current_range_meters":20800,"station_id":"ce4bhr12rcd13ifvqhqg","pricing_plan_id":"free"},{"bike_id":"e5f64b36-ecfd-4fac-a3a5-5904b691c001","system_id":"levelo_inurba_marseille","lat":43.322872,"lon":5.382756,"is_reserved":false,"is_disabled":false,"rental_uris":{"android":"levelo://app?vid=e5f64b36-ecfd-4fac-a3a5-5904b691c001","ios":"levelo://app?vid=e5f64b36-ecfd-4fac-a3a5-5904b691c001"},"vehicle_type_id":"4","last_reported":1704827161,"current_range_meters":30800,"station_id":"ce4bhr12rcd13ifvqhqg","pricing_plan_id":"free"},{"bike_id":"965e06bb-d727-441b-b835-de8a0777d9ea","system_id":"levelo_inurba_marseille","lat":43.3229,"lon":5.38273,"is_reserved":false,"is_disabled":false,"rental_uris":{"android":"levelo://app?vid=965e06bb-d727-441b-b835-de8a0777d9ea","ios":"levelo://app?vid=965e06bb-d727-441b-b835-de8a0777d9ea"},"vehicle_type_id":"4","last_reported":1704827161,"current_range_meters":2000,"station_id":"ce4bhr12rcd13ifvqhqg","pricing_plan_id":"free"},{"bike_id":"387c1dff-fb7e-4547-838e-1af3f69c4219","system_id":"levelo_inurba_marseille","lat":43.32824,"lon":5.36682,"is_reserved":false,"is_disabled":false,"rental_uris":{"android":"levelo://app?vid=387c1dff-fb7e-4547-838e-1af3f69c4219","ios":"levelo://app?vid=387c1dff-fb7e-4547-838e-1af3f69c4219"},"vehicle_type_id":"4","last_reported":1704827161,"current_range_meters":12400,"station_id":"ce4bhs92rcd13ifvqi0g","pricing_plan_id":"free"},{"bike_id":"b417e045-2acd-45ab-8543-5d87cc32d878","system_id":"levelo_inurba_marseille","lat":43.328371,"lon":5.366909,"is_reserved":false,"is_disabled":false,"rental_uris":{"android":"levelo://app?vid=b417e045-2acd-45ab-8543-5d87cc32d878","ios":"levelo://app?vid=b417e045-2acd-45ab-8543-5d87cc32d878"},"vehicle_type_id":"4","last_reported":1704827161,"current_range_meters":12400,"station_id":"ce4bhs92rcd13ifvqi0g","pricing_plan_id":"free"},{"bike_id":"66addf4b-70b7-4ac4-8e17-37956e9ecfbb","system_id":"levelo_inurba_marseille","lat":43.328246,"lon":5.366848,"is_reserved":false,"is_disabled":false,"rental_uris":{"android":"levelo://app?vid=66addf4b-70b7-4ac4-8e17-37956e9ecfbb","ios":"levelo://app?vid=66addf4b-70b7-4ac4-8e17-37956e9ecfbb"},"vehicle_type_id":"4","last_reported":1704827161,"current_range_meters":9600,"station_id":"ce4bhs92rcd13ifvqi0g","pricing_plan_id":"free"},{"bike_id":"72905f78-9c33-4138-8385-d331d9223abd","system_id":"levelo_inurba_marseille","lat":43.328254,"lon":5.366904,"is_reserved":false,"is_disabled":false,"rental_uris":{"android":"levelo://app?vid=72905f78-9c33-4138-8385-d331d9223abd","ios":"levelo://app?vid=72905f78-9c33-4138-8385-d331d9223abd"},"vehicle_type_id":"4","last_reported":1704827161,"current_range_meters":4800,"station_id":"ce4bhs92rcd13ifvqi0g","pricing_plan_id":"free"},{"bike_id":"a70069dc-f773-452d-9d3a-320d0014d11e","system_id":"levelo_inurba_marseille","lat":43.328371,"lon":5.366909,"is_reserved":false,"is_disabled":false,"rental_uris":{"android":"levelo://app?vid=a70069dc-f773-452d-9d3a-320d0014d11e","ios":"levelo://app?vid=a70069dc-f773-452d-9d3a-320d0014d11e"},"vehicle_type_id":"4","last_reported":1704827161,"current_range_meters":22400,"station_id":"ce4bhs92rcd13ifvqi0g","pricing_plan_id":"free"},{"bike_id":"fb45f142-a2e6-4b54-b6fd-5660ca2c1fe5","system_id":"levelo_inurba_marseille","lat":43.328371,"lon":5.366909,"is_reserved":false,"is_disabled":false,"rental_uris":{"android":"levelo://app?vid=fb45f142-a2e6-4b54-b6fd-5660ca2c1fe5","ios":"levelo://app?vid=fb45f142-a2e6-4b54-b6fd-5660ca2c1fe5"},"vehicle_type_id":"4","last_reported":1704827161,"current_range_meters":25600,"station_id":"ce4bhs92rcd13ifvqi0g","pricing_plan_id":"free"},{"bike_id":"d68ce626-ef98-4d52-b3b3-f34d703a806b","system_id":"levelo_inurba_marseille","lat":43.32827,"lon":5.36679,"is_reserved":false,"is_disabled":false,"rental_uris":{"android":"levelo://app?vid=d68ce626-ef98-4d52-b3b3-f34d703a806b","ios":"levelo://app?vid=d68ce626-ef98-4d52-b3b3-f34d703a806b"},"vehicle_type_id":"4","last_reported":1704827161,"current_range_meters":25200,"station_id":"ce4bhs92rcd13ifvqi0g","pricing_plan_id":"free"},{"bike_id":"331410e4-8362-40e5-8b58-6a53f46a25bd","system_id":"levelo_inurba_marseille","lat":43.328371,"lon":5.366912,"is_reserved":false,"is_disabled":false,"rental_uris":{"android":"levelo://app?vid=331410e4-8362-40e5-8b58-6a53f46a25bd","ios":"levelo://app?vid=331410e4-8362-40e5-8b58-6a53f46a25bd"},"vehicle_type_id":"4","last_reported":1704827161,"current_range_meters":14800,"station_id":"ce4bhs92rcd13ifvqi0g","pricing_plan_id":"free"},{"bike_id":"6b8a3fe2-6d91-4566-bea5-4c5a214f2ee3","system_id":"levelo_inurba_marseille","lat":43.29713,"lon":5.366111,"is_reserved":false,"is_disabled":false,"rental_uris":{"android":"levelo://app?vid=6b8a3fe2-6d91-4566-bea5-4c5a214f2ee3","ios":"levelo://app?vid=6b8a3fe2-6d91-4566-bea5-4c5a214f2ee3"},"vehicle_type_id":"4","last_reported":1704827161,"current_range_meters":1600,"station_id":"ce4bgn12rcd13ifvqbt0","pricing_plan_id":"free"},{"bike_id":"cb10c6bf-7a07-4d62-8564-8123aa71a8db","system_id":"levelo_inurba_marseille","lat":43.297163,"lon":5.365866,"is_reserved":false,"is_disabled":false,"rental_uris":{"android":"levelo://app?vid=cb10c6bf-7a07-4d62-8564-8123aa71a8db","ios":"levelo://app?vid=cb10c6bf-7a07-4d62-8564-8123aa71a8db"},"vehicle_type_id":"4","last_reported":1704827161,"current_range_meters":18400,"station_id":"ce4bgn12rcd13ifvqbt0","pricing_plan_id":"free"},{"bike_id":"5c7a59fa-b898-45ba-839d-ec00297bbc14","system_id":"levelo_inurba_marseille","lat":43.297163,"lon":5.365866,"is_reserved":false,"is_disabled":false,"rental_uris":{"android":"levelo://app?vid=5c7a59fa-b898-45ba-839d-ec00297bbc14","ios":"levelo://app?vid=5c7a59fa-b898-45ba-839d-ec00297bbc14"},"vehicle_type_id":"4","last_reported":1704827161,"current_range_meters":7200,"station_id":"ce4bgn12rcd13ifvqbt0","pricing_plan_id":"free"},{"bike_id":"d717ec0d-c6d2-4739-a1fb-2d1e801f7037","system_id":"levelo_inurba_marseille","lat":43.297163,"lon":5.365866,"is_reserved":false,"is_disabled":false,"rental_uris":{"android":"levelo://app?vid=d717ec0d-c6d2-4739-a1fb-2d1e801f7037","ios":"levelo://app?vid=d717ec0d-c6d2-4739-a1fb-2d1e801f7037"},"vehicle_type_id":"4","last_reported":1704827161,"current_range_meters":7200,"station_id":"ce4bgn12rcd13ifvqbt0","pricing_plan_id":"free"},{"bike_id":"c03e8c47-d0d3-49bf-a9db-4300c1d60065","system_id":"levelo_inurba_marseille","lat":43.297013,"lon":5.365995,"is_reserved":false,"is_disabled":false,"rental_uris":{"android":"levelo://app?vid=c03e8c47-d0d3-49bf-a9db-4300c1d60065","ios":"levelo://app?vid=c03e8c47-d0d3-49bf-a9db-4300c1d60065"},"vehicle_type_id":"4","last_reported":1704827161,"current_range_meters":24400,"station_id":"ce4bgn12rcd13ifvqbt0","pricing_plan_id":"free"},{"bike_id":"33c39509-463c-4446-968d-c9bf6df2cc31","system_id":"levelo_inurba_marseille","lat":43.297163,"lon":5.365866,"is_reserved":false,"is_disabled":false,"rental_uris":{"android":"levelo://app?vid=33c39509-463c-4446-968d-c9bf6df2cc31","ios":"levelo://app?vid=33c39509-463c-4446-968d-c9bf6df2cc31"},"vehicle_type_id":"4","last_reported":1704827161,"current_range_meters":30400,"station_id":"ce4bgn12rcd13ifvqbt0","pricing_plan_id":"free"},{"bike_id":"5d17fcc1-ee1a-4e36-8844-4f9946d324b0","system_id":"levelo_inurba_marseille","lat":43.297004,"lon":5.365984,"is_reserved":false,"is_disabled":false,"rental_uris":{"android":"levelo://app?vid=5d17fcc1-ee1a-4e36-8844-4f9946d324b0","ios":"levelo://app?vid=5d17fcc1-ee1a-4e36-8844-4f9946d324b0"},"vehicle_type_id":"4","last_reported":1704827161,"current_range_meters":17200,"station_id":"ce4bgn12rcd13ifvqbt0","pricing_plan_id":"free"},{"bike_id":"c5bf9739-19fa-4bf4-a22d-8b10ef92c880","system_id":"levelo_inurba_marseille","lat":43.297163,"lon":5.365866,"is_reserved":false,"is_disabled":false,"rental_uris":{"android":"levelo://app?vid=c5bf9739-19fa-4bf4-a22d-8b10ef92c880","ios":"levelo://app?vid=c5bf9739-19fa-4bf4-a22d-8b10ef92c880"},"vehicle_type_id":"4","last_reported":1704827161,"current_range_meters":7600,"station_id":"ce4bgn12rcd13ifvqbt0","pricing_plan_id":"free"},{"bike_id":"e7d5037f-de16-4667-bc98-17ded19fb786","system_id":"levelo_inurba_marseille","lat":43.296963,"lon":5.366185,"is_reserved":false,"is_disabled":false,"rental_uris":{"android":"levelo://app?vid=e7d5037f-de16-4667-bc98-17ded19fb786","ios":"levelo://app?vid=e7d5037f-de16-4667-bc98-17ded19fb786"},"vehicle_type_id":"4","last_reported":1704827161,"current_range_meters":22800,"station_id":"","pricing_plan_id":"free"},{"bike_id":"37dcdeb4-373e-464b-9715-f991ab38e7cb","system_id":"levelo_inurba_marseille","lat":43.2968,"lon":5.37291,"is_reserved":false,"is_disabled":false,"rental_uris":{"android":"levelo://app?vid=37dcdeb4-373e-464b-9715-f991ab38e7cb","ios":"levelo://app?vid=37dcdeb4-373e-464b-9715-f991ab38e7cb"},"vehicle_type_id":"4","last_reported":1704827161,"current_range_meters":27600,"station_id":"ce4bgk12rcd13ifvqbj0","pricing_plan_id":"free"},{"bike_id":"0e21c0e1-cd91-41f5-a668-23429ce9066e","system_id":"levelo_inurba_marseille","lat":43.296801,"lon":5.372822,"is_reserved":false,"is_disabled":false,"rental_uris":{"android":"levelo://app?vid=0e21c0e1-cd91-41f5-a668-23429ce9066e","ios":"levelo://app?vid=0e21c0e1-cd91-41f5-a668-23429ce9066e"},"vehicle_type_id":"4","last_reported":1704827161,"current_range_meters":14400,"station_id":"","pricing_plan_id":"free"},{"bike_id":"95414d11-3edc-4292-9a06-5e7ca660be8d","system_id":"levelo_inurba_marseille","lat":43.296131,"lon":5.370791,"is_reserved":false,"is_disabled":false,"rental_uris":{"android":"levelo://app?vid=95414d11-3edc-4292-9a06-5e7ca660be8d","ios":"levelo://app?vid=95414d11-3edc-4292-9a06-5e7ca660be8d"},"vehicle_type_id":"4","last_reported":1704827161,"current_range_meters":30800,"station_id":"ce4bgnh2rcd13ifvqc0g","pricing_plan_id":"free"},{"bike_id":"fb7d6e6e-56b2-4960-b841-20d611bbab59","system_id":"levelo_inurba_marseille","lat":43.296129,"lon":5.370777,"is_reserved":false,"is_disabled":false,"rental_uris":{"android":"levelo://app?vid=fb7d6e6e-56b2-4960-b841-20d611bbab59","ios":"levelo://app?vid=fb7d6e6e-56b2-4960-b841-20d611bbab59"},"vehicle_type_id":"4","last_reported":1704827161,"current_range_meters":1600,"station_id":"ce4bgnh2rcd13ifvqc0g","pricing_plan_id":"free"},{"bike_id":"fa604ff2-52be-470b-8dda-d424be54ab8a","system_id":"levelo_inurba_marseille","lat":43.296129,"lon":5.370777,"is_reserved":false,"is_disabled":false,"rental_uris":{"android":"levelo://app?vid=fa604ff2-52be-470b-8dda-d424be54ab8a","ios":"levelo://app?vid=fa604ff2-52be-470b-8dda-d424be54ab8a"},"vehicle_type_id":"4","last_reported":1704827161,"current_range_meters":11200,"station_id":"ce4bgnh2rcd13ifvqc0g","pricing_plan_id":"free"},{"bike_id":"dfd53a63-0b12-403b-b2c9-50c997287923","system_id":"levelo_inurba_marseille","lat":43.296211,"lon":5.371499,"is_reserved":false,"is_disabled":false,"rental_uris":{"android":"levelo://app?vid=dfd53a63-0b12-403b-b2c9-50c997287923","ios":"levelo://app?vid=dfd53a63-0b12-403b-b2c9-50c997287923"},"vehicle_type_id":"4","last_reported":1704827161,"current_range_meters":25200,"station_id":"ce4bgnh2rcd13ifvqc0g","pricing_plan_id":"free"},{"bike_id":"047551e7-dd39-4ade-864d-2e3082a29ec8","system_id":"levelo_inurba_marseille","lat":43.296129,"lon":5.370777,"is_reserved":false,"is_disabled":false,"rental_uris":{"android":"levelo://app?vid=047551e7-dd39-4ade-864d-2e3082a29ec8","ios":"levelo://app?vid=047551e7-dd39-4ade-864d-2e3082a29ec8"},"vehicle_type_id":"4","last_reported":1704827161,"current_range_meters":400,"station_id":"ce4bgnh2rcd13ifvqc0g","pricing_plan_id":"free"},{"bike_id":"2df7e1ac-796f-4cd5-b260-94c1b304db7e","system_id":"levelo_inurba_marseille","lat":43.296131,"lon":5.370791,"is_reserved":false,"is_disabled":false,"rental_uris":{"android":"levelo://app?vid=2df7e1ac-796f-4cd5-b260-94c1b304db7e","ios":"levelo://app?vid=2df7e1ac-796f-4cd5-b260-94c1b304db7e"},"vehicle_type_id":"4","last_reported":1704827161,"current_range_meters":26400,"station_id":"ce4bgnh2rcd13ifvqc0g","pricing_plan_id":"free"},{"bike_id":"74d4a85c-82ba-49c7-aa6d-833725cb2816","system_id":"levelo_inurba_marseille","lat":43.29573,"lon":5.367355,"is_reserved":false,"is_disabled":false,"rental_uris":{"android":"levelo://app?vid=74d4a85c-82ba-49c7-aa6d-833725cb2816","ios":"levelo://app?vid=74d4a85c-82ba-49c7-aa6d-833725cb2816"},"vehicle_type_id":"4","last_reported":1704827161,"current_range_meters":8000,"station_id":"ce4bgph2rcd13ifvqc2g","pricing_plan_id":"free"},{"bike_id":"1ceda21f-8588-4f86-9793-a32ca2c773d2","system_id":"levelo_inurba_marseille","lat":43.29573,"lon":5.367355,"is_reserved":false,"is_disabled":false,"rental_uris":{"android":"levelo://app?vid=1ceda21f-8588-4f86-9793-a32ca2c773d2","ios":"levelo://app?vid=1ceda21f-8588-4f86-9793-a32ca2c773d2"},"vehicle_type_id":"4","last_reported":1704827161,"current_range_meters":13600,"station_id":"ce4bgph2rcd13ifvqc2g","pricing_plan_id":"free"},{"bike_id":"59a57848-d4c9-457c-8b5b-71258fc7940d","system_id":"levelo_inurba_marseille","lat":43.296935,"lon":5.376544,"is_reserved":false,"is_disabled":false,"rental_uris":{"android":"levelo://app?vid=59a57848-d4c9-457c-8b5b-71258fc7940d","ios":"levelo://app?vid=59a57848-d4c9-457c-8b5b-71258fc7940d"},"vehicle_type_id":"4","last_reported":1704827161,"current_range_meters":3200,"station_id":"ce4bgkh2rcd13ifvqbl0","pricing_plan_id":"free"},{"bike_id":"2936493a-e6b2-4b8f-a191-112cbc600dbb","system_id":"levelo_inurba_marseille","lat":43.309589,"lon":5.390258,"is_reserved":false,"is_disabled":false,"rental_uris":{"android":"levelo://app?vid=2936493a-e6b2-4b8f-a191-112cbc600dbb","ios":"levelo://app?vid=2936493a-e6b2-4b8f-a191-112cbc600dbb"},"vehicle_type_id":"4","last_reported":1704827161,"current_range_meters":25200,"station_id":"ce4bgup2rcd13ifvqco0","pricing_plan_id":"free"},{"bike_id":"5b159e97-00e1-4124-93b7-e42c8ba76a66","system_id":"levelo_inurba_marseille","lat":43.309704,"lon":5.390487,"is_reserved":false,"is_disabled":false,"rental_uris":{"android":"levelo://app?vid=5b159e97-00e1-4124-93b7-e42c8ba76a66","ios":"levelo://app?vid=5b159e97-00e1-4124-93b7-e42c8ba76a66"},"vehicle_type_id":"4","last_reported":1704827161,"current_range_meters":6000,"station_id":"ce4bgup2rcd13ifvqco0","pricing_plan_id":"free"},{"bike_id":"7d9028a5-404a-4b97-a305-92593c88ee2a","system_id":"levelo_inurba_marseille","lat":43.309589,"lon":5.390258,"is_reserved":false,"is_disabled":false,"rental_uris":{"android":"levelo://app?vid=7d9028a5-404a-4b97-a305-92593c88ee2a","ios":"levelo://app?vid=7d9028a5-404a-4b97-a305-92593c88ee2a"},"vehicle_type_id":"4","last_reported":1704827161,"current_range_meters":19200,"station_id":"ce4bgup2rcd13ifvqco0","pricing_plan_id":"free"},{"bike_id":"a4a8fe16-b861-482d-8919-e7240e077d1f","system_id":"levelo_inurba_marseille","lat":43.31758,"lon":5.390199,"is_reserved":false,"is_disabled":false,"rental_uris":{"android":"levelo://app?vid=a4a8fe16-b861-482d-8919-e7240e077d1f","ios":"levelo://app?vid=a4a8fe16-b861-482d-8919-e7240e077d1f"},"vehicle_type_id":"4","last_reported":1704827161,"current_range_meters":21200,"station_id":"ce4bhqp2rcd13ifvqhng","pricing_plan_id":"free"},{"bike_id":"9da77b43-50db-4816-99ee-238a7df704c8","system_id":"levelo_inurba_marseille","lat":43.296263,"lon":5.377094,"is_reserved":false,"is_disabled":false,"rental_uris":{"android":"levelo://app?vid=9da77b43-50db-4816-99ee-238a7df704c8","ios":"levelo://app?vid=9da77b43-50db-4816-99ee-238a7df704c8"},"vehicle_type_id":"4","last_reported":1704827161,"current_range_meters":7600,"station_id":"ce4bgi92rcd13ifvqb90","pricing_plan_id":"free"},{"bike_id":"3f729868-414c-48b9-a1f9-504a4560c09b","system_id":"levelo_inurba_marseille","lat":43.296263,"lon":5.377094,"is_reserved":false,"is_disabled":false,"rental_uris":{"android":"levelo://app?vid=3f729868-414c-48b9-a1f9-504a4560c09b","ios":"levelo://app?vid=3f729868-414c-48b9-a1f9-504a4560c09b"},"vehicle_type_id":"4","last_reported":1704827161,"current_range_meters":0,"station_id":"ce4bgi92rcd13ifvqb90","pricing_plan_id":"free"},{"bike_id":"98afda6c-c623-4e10-bdc9-37d85b0200e4","system_id":"levelo_inurba_marseille","lat":43.299724,"lon":5.384848,"is_reserved":false,"is_disabled":false,"rental_uris":{"android":"levelo://app?vid=98afda6c-c623-4e10-bdc9-37d85b0200e4","ios":"levelo://app?vid=98afda6c-c623-4e10-bdc9-37d85b0200e4"},"vehicle_type_id":"4","last_reported":1704827161,"current_range_meters":24400,"station_id":"ce4bgj92rcd13ifvqbd0","pricing_plan_id":"free"},{"bike_id":"21552a4d-3b96-43b7-b8c8-f501949ef4d6","system_id":"levelo_inurba_marseille","lat":43.295279,"lon":5.375048,"is_reserved":false,"is_disabled":false,"rental_uris":{"android":"levelo://app?vid=21552a4d-3b96-43b7-b8c8-f501949ef4d6","ios":"levelo://app?vid=21552a4d-3b96-43b7-b8c8-f501949ef4d6"},"vehicle_type_id":"4","last_reported":1704827161,"current_range_meters":1600,"station_id":"ce4bgkp2rcd13ifvqbmg","pricing_plan_id":"free"},{"bike_id":"7f89379f-cec6-4f5b-8707-343dcfc413b6","system_id":"levelo_inurba_marseille","lat":43.29971,"lon":5.38494,"is_reserved":false,"is_disabled":false,"rental_uris":{"android":"levelo://app?vid=7f89379f-cec6-4f5b-8707-343dcfc413b6","ios":"levelo://app?vid=7f89379f-cec6-4f5b-8707-343dcfc413b6"},"vehicle_type_id":"4","last_reported":1704827161,"current_range_meters":0,"station_id":"ce4bgj92rcd13ifvqbd0","pricing_plan_id":"free"},{"bike_id":"5e299c06-bc25-4f5f-a201-40fc812d2146","system_id":"levelo_inurba_marseille","lat":43.299724,"lon":5.384848,"is_reserved":false,"is_disabled":false,"rental_uris":{"android":"levelo://app?vid=5e299c06-bc25-4f5f-a201-40fc812d2146","ios":"levelo://app?vid=5e299c06-bc25-4f5f-a201-40fc812d2146"},"vehicle_type_id":"4","last_reported":1704827161,"current_range_meters":800,"station_id":"ce4bgj92rcd13ifvqbd0","pricing_plan_id":"free"},{"bike_id":"e3efe1f3-3ff3-49ae-8d7e-eed91b8f350d","system_id":"levelo_inurba_marseille","lat":43.295279,"lon":5.375048,"is_reserved":false,"is_disabled":false,"rental_uris":{"android":"levelo://app?vid=e3efe1f3-3ff3-49ae-8d7e-eed91b8f350d","ios":"levelo://app?vid=e3efe1f3-3ff3-49ae-8d7e-eed91b8f350d"},"vehicle_type_id":"4","last_reported":1704827161,"current_range_meters":19600,"station_id":"ce4bgkp2rcd13ifvqbmg","pricing_plan_id":"free"},{"bike_id":"81e921ca-b50d-451e-a2aa-0de67930d968","system_id":"levelo_inurba_marseille","lat":43.3236,"lon":5.38876,"is_reserved":false,"is_disabled":false,"rental_uris":{"android":"levelo://app?vid=81e921ca-b50d-451e-a2aa-0de67930d968","ios":"levelo://app?vid=81e921ca-b50d-451e-a2aa-0de67930d968"},"vehicle_type_id":"4","last_reported":1704827161,"current_range_meters":19600,"station_id":"ce4bhqp2rcd13ifvqhog","pricing_plan_id":"free"},{"bike_id":"5e24668f-edd9-4a38-a8a4-a10538ce1a47","system_id":"levelo_inurba_marseille","lat":43.295038,"lon":5.377304,"is_reserved":false,"is_disabled":false,"rental_uris":{"android":"levelo://app?vid=5e24668f-edd9-4a38-a8a4-a10538ce1a47","ios":"levelo://app?vid=5e24668f-edd9-4a38-a8a4-a10538ce1a47"},"vehicle_type_id":"4","last_reported":1704827161,"current_range_meters":26400,"station_id":"","pricing_plan_id":"free"},{"bike_id":"75205096-6852-4545-82d0-2fc78b418465","system_id":"levelo_inurba_marseille","lat":43.32366,"lon":5.38872,"is_reserved":false,"is_disabled":false,"rental_uris":{"android":"levelo://app?vid=75205096-6852-4545-82d0-2fc78b418465","ios":"levelo://app?vid=75205096-6852-4545-82d0-2fc78b418465"},"vehicle_type_id":"4","last_reported":1704827161,"current_range_meters":22800,"station_id":"ce4bhqp2rcd13ifvqhog","pricing_plan_id":"free"},{"bike_id":"c52cac78-36c5-4b60-a30f-f38d903841b2","system_id":"levelo_inurba_marseille","lat":43.32362,"lon":5.3888,"is_reserved":false,"is_disabled":false,"rental_uris":{"android":"levelo://app?vid=c52cac78-36c5-4b60-a30f-f38d903841b2","ios":"levelo://app?vid=c52cac78-36c5-4b60-a30f-f38d903841b2"},"vehicle_type_id":"4","last_reported":1704827161,"current_range_meters":25600,"station_id":"ce4bhqp2rcd13ifvqhog","pricing_plan_id":"free"},{"bike_id":"7dd93b7f-65ea-48ba-9ea4-63843b477081","system_id":"levelo_inurba_marseille","lat":43.32364,"lon":5.38883,"is_reserved":false,"is_disabled":false,"rental_uris":{"android":"levelo://app?vid=7dd93b7f-65ea-48ba-9ea4-63843b477081","ios":"levelo://app?vid=7dd93b7f-65ea-48ba-9ea4-63843b477081"},"vehicle_type_id":"4","last_reported":1704827161,"current_range_meters":27200,"station_id":"ce4bhqp2rcd13ifvqhog","pricing_plan_id":"free"},{"bike_id":"ea1b3b59-376b-41ec-ab9b-0e979094ae7e","system_id":"levelo_inurba_marseille","lat":43.32367,"lon":5.38882,"is_reserved":false,"is_disabled":false,"rental_uris":{"android":"levelo://app?vid=ea1b3b59-376b-41ec-ab9b-0e979094ae7e","ios":"levelo://app?vid=ea1b3b59-376b-41ec-ab9b-0e979094ae7e"},"vehicle_type_id":"4","last_reported":1704827161,"current_range_meters":11600,"station_id":"ce4bhqp2rcd13ifvqhog","pricing_plan_id":"free"},{"bike_id":"f98c8e4e-5262-4c11-b747-3fdaba5152b8","system_id":"levelo_inurba_marseille","lat":43.3237,"lon":5.3888,"is_reserved":false,"is_disabled":false,"rental_uris":{"android":"levelo://app?vid=f98c8e4e-5262-4c11-b747-3fdaba5152b8","ios":"levelo://app?vid=f98c8e4e-5262-4c11-b747-3fdaba5152b8"},"vehicle_type_id":"4","last_reported":1704827161,"current_range_meters":800,"station_id":"ce4bhqp2rcd13ifvqhog","pricing_plan_id":"free"},{"bike_id":"7cf362c3-c501-429a-89d8-68ec044fa5dc","system_id":"levelo_inurba_marseille","lat":43.32367,"lon":5.388836,"is_reserved":false,"is_disabled":false,"rental_uris":{"android":"levelo://app?vid=7cf362c3-c501-429a-89d8-68ec044fa5dc","ios":"levelo://app?vid=7cf362c3-c501-429a-89d8-68ec044fa5dc"},"vehicle_type_id":"4","last_reported":1704827161,"current_range_meters":27200,"station_id":"ce4bhqp2rcd13ifvqhog","pricing_plan_id":"free"},{"bike_id":"06d8784e-fe22-4245-88f0-40847ef23828","system_id":"levelo_inurba_marseille","lat":43.293259,"lon":5.371586,"is_reserved":false,"is_disabled":false,"rental_uris":{"android":"levelo://app?vid=06d8784e-fe22-4245-88f0-40847ef23828","ios":"levelo://app?vid=06d8784e-fe22-4245-88f0-40847ef23828"},"vehicle_type_id":"4","last_reported":1704827161,"current_range_meters":6800,"station_id":"ce4bgh92rcd13ifvqb40","pricing_plan_id":"free"},{"bike_id":"a597a350-e074-4a66-bc99-a28995e30220","system_id":"levelo_inurba_marseille","lat":43.292749,"lon":5.368402,"is_reserved":false,"is_disabled":false,"rental_uris":{"android":"levelo://app?vid=a597a350-e074-4a66-bc99-a28995e30220","ios":"levelo://app?vid=a597a350-e074-4a66-bc99-a28995e30220"},"vehicle_type_id":"4","last_reported":1704827161,"current_range_meters":10400,"station_id":"ce4bhbp2rcd13ifvqesg","pricing_plan_id":"free"},{"bike_id":"df55ca10-ee02-4719-a66e-2107eac5031b","system_id":"levelo_inurba_marseille","lat":43.305994,"lon":5.393687,"is_reserved":false,"is_disabled":false,"rental_uris":{"android":"levelo://app?vid=df55ca10-ee02-4719-a66e-2107eac5031b","ios":"levelo://app?vid=df55ca10-ee02-4719-a66e-2107eac5031b"},"vehicle_type_id":"4","last_reported":1704827161,"current_range_meters":22800,"station_id":"ce4bh0p2rcd13ifvqd80","pricing_plan_id":"free"},{"bike_id":"819c700d-ede9-4464-a6d7-584d0c6cb48c","system_id":"levelo_inurba_marseille","lat":43.303002,"lon":5.392142,"is_reserved":false,"is_disabled":false,"rental_uris":{"android":"levelo://app?vid=819c700d-ede9-4464-a6d7-584d0c6cb48c","ios":"levelo://app?vid=819c700d-ede9-4464-a6d7-584d0c6cb48c"},"vehicle_type_id":"4","last_reported":1704827161,"current_range_meters":25200,"station_id":"ce4bgkh2rcd13ifvqbk0","pricing_plan_id":"free"},{"bike_id":"a5ddcc40-c855-40bb-8f43-50efd2abdb7b","system_id":"levelo_inurba_marseille","lat":43.2936,"lon":5.37835,"is_reserved":false,"is_disabled":false,"rental_uris":{"android":"levelo://app?vid=a5ddcc40-c855-40bb-8f43-50efd2abdb7b","ios":"levelo://app?vid=a5ddcc40-c855-40bb-8f43-50efd2abdb7b"},"vehicle_type_id":"4","last_reported":1704827161,"current_range_meters":23200,"station_id":"ce4bgjh2rcd13ifvqbf0","pricing_plan_id":"free"},{"bike_id":"4899f726-ef10-447b-a918-d84e0769d148","system_id":"levelo_inurba_marseille","lat":43.292248,"lon":5.360565,"is_reserved":false,"is_disabled":false,"rental_uris":{"android":"levelo://app?vid=4899f726-ef10-447b-a918-d84e0769d148","ios":"levelo://app?vid=4899f726-ef10-447b-a918-d84e0769d148"},"vehicle_type_id":"4","last_reported":1704827161,"current_range_meters":22400,"station_id":"ce4bhbh2rcd13ifvqeqg","pricing_plan_id":"free"},{"bike_id":"f08965dd-4bce-4f7e-8ddf-e1e4e26e9c22","system_id":"levelo_inurba_marseille","lat":43.29529,"lon":5.385581,"is_reserved":false,"is_disabled":false,"rental_uris":{"android":"levelo://app?vid=f08965dd-4bce-4f7e-8ddf-e1e4e26e9c22","ios":"levelo://app?vid=f08965dd-4bce-4f7e-8ddf-e1e4e26e9c22"},"vehicle_type_id":"4","last_reported":1704827161,"current_range_meters":9600,"station_id":"ce4bgih2rcd13ifvqba0","pricing_plan_id":"free"},{"bike_id":"9516a636-b909-43f0-889c-b984846e39aa","system_id":"levelo_inurba_marseille","lat":43.291675,"lon":5.371583,"is_reserved":false,"is_disabled":false,"rental_uris":{"android":"levelo://app?vid=9516a636-b909-43f0-889c-b984846e39aa","ios":"levelo://app?vid=9516a636-b909-43f0-889c-b984846e39aa"},"vehicle_type_id":"4","last_reported":1704827161,"current_range_meters":15600,"station_id":"ce4bha92rcd13ifvqeh0","pricing_plan_id":"free"},{"bike_id":"e3059ed6-2c1a-4053-aca8-e4c8e93fdeae","system_id":"levelo_inurba_marseille","lat":43.29171,"lon":5.3716,"is_reserved":false,"is_disabled":false,"rental_uris":{"android":"levelo://app?vid=e3059ed6-2c1a-4053-aca8-e4c8e93fdeae","ios":"levelo://app?vid=e3059ed6-2c1a-4053-aca8-e4c8e93fdeae"},"vehicle_type_id":"4","last_reported":1704827161,"current_range_meters":0,"station_id":"ce4bha92rcd13ifvqeh0","pricing_plan_id":"free"},{"bike_id":"07d45101-c3d6-45cc-b177-33271495b4be","system_id":"levelo_inurba_marseille","lat":43.296129,"lon":5.370777,"is_reserved":false,"is_disabled":false,"rental_uris":{"android":"levelo://app?vid=07d45101-c3d6-45cc-b177-33271495b4be","ios":"levelo://app?vid=07d45101-c3d6-45cc-b177-33271495b4be"},"vehicle_type_id":"4","last_reported":1704827161,"current_range_meters":18800,"station_id":"ce4bgnh2rcd13ifvqc0g","pricing_plan_id":"free"},{"bike_id":"dacc7546-ee44-4b99-ab2a-4e1325d9999a","system_id":"levelo_inurba_marseille","lat":43.291994,"lon":5.357886,"is_reserved":false,"is_disabled":false,"rental_uris":{"android":"levelo://app?vid=dacc7546-ee44-4b99-ab2a-4e1325d9999a","ios":"levelo://app?vid=dacc7546-ee44-4b99-ab2a-4e1325d9999a"},"vehicle_type_id":"4","last_reported":1704827161,"current_range_meters":10800,"station_id":"ce4bhb12rcd13ifvqel0","pricing_plan_id":"free"},{"bike_id":"44a20fee-d358-4faa-8e11-f0bff8832f7e","system_id":"levelo_inurba_marseille","lat":43.313291,"lon":5.396838,"is_reserved":false,"is_disabled":false,"rental_uris":{"android":"levelo://app?vid=44a20fee-d358-4faa-8e11-f0bff8832f7e","ios":"levelo://app?vid=44a20fee-d358-4faa-8e11-f0bff8832f7e"},"vehicle_type_id":"4","last_reported":1704827161,"current_range_meters":12800,"station_id":"ce4bgvp2rcd13ifvqcu0","pricing_plan_id":"free"},{"bike_id":"03dfc576-955f-4483-ae7b-8bfd08cf549d","system_id":"levelo_inurba_marseille","lat":43.313291,"lon":5.396838,"is_reserved":false,"is_disabled":false,"rental_uris":{"android":"levelo://app?vid=03dfc576-955f-4483-ae7b-8bfd08cf549d","ios":"levelo://app?vid=03dfc576-955f-4483-ae7b-8bfd08cf549d"},"vehicle_type_id":"4","last_reported":1704827161,"current_range_meters":31200,"station_id":"ce4bgvp2rcd13ifvqcu0","pricing_plan_id":"free"},{"bike_id":"7c5a19e6-61e5-4ff9-b344-b29dad202a1a","system_id":"levelo_inurba_marseille","lat":43.309047,"lon":5.396551,"is_reserved":false,"is_disabled":false,"rental_uris":{"android":"levelo://app?vid=7c5a19e6-61e5-4ff9-b344-b29dad202a1a","ios":"levelo://app?vid=7c5a19e6-61e5-4ff9-b344-b29dad202a1a"},"vehicle_type_id":"4","last_reported":1704827161,"current_range_meters":2400,"station_id":"ce4bh012rcd13ifvqcv0","pricing_plan_id":"free"},{"bike_id":"66f55f14-7744-4ad6-b80f-980c0b665c30","system_id":"levelo_inurba_marseille","lat":43.313291,"lon":5.396838,"is_reserved":false,"is_disabled":false,"rental_uris":{"android":"levelo://app?vid=66f55f14-7744-4ad6-b80f-980c0b665c30","ios":"levelo://app?vid=66f55f14-7744-4ad6-b80f-980c0b665c30"},"vehicle_type_id":"4","last_reported":1704827161,"current_range_meters":23600,"station_id":"ce4bgvp2rcd13ifvqcu0","pricing_plan_id":"free"},{"bike_id":"151ed3a7-cd94-43c2-8f9d-b5fff50ca185","system_id":"levelo_inurba_marseille","lat":43.313291,"lon":5.396838,"is_reserved":false,"is_disabled":false,"rental_uris":{"android":"levelo://app?vid=151ed3a7-cd94-43c2-8f9d-b5fff50ca185","ios":"levelo://app?vid=151ed3a7-cd94-43c2-8f9d-b5fff50ca185"},"vehicle_type_id":"4","last_reported":1704827161,"current_range_meters":4800,"station_id":"ce4bgvp2rcd13ifvqcu0","pricing_plan_id":"free"},{"bike_id":"078ab494-784c-48dc-9d57-b696f448f56a","system_id":"levelo_inurba_marseille","lat":43.309038,"lon":5.396546,"is_reserved":false,"is_disabled":false,"rental_uris":{"android":"levelo://app?vid=078ab494-784c-48dc-9d57-b696f448f56a","ios":"levelo://app?vid=078ab494-784c-48dc-9d57-b696f448f56a"},"vehicle_type_id":"4","last_reported":1704827161,"current_range_meters":7200,"station_id":"ce4bh012rcd13ifvqcv0","pricing_plan_id":"free"},{"bike_id":"2e3a7afb-d8c7-4884-acc8-550933aad787","system_id":"levelo_inurba_marseille","lat":43.31329,"lon":5.39691,"is_reserved":false,"is_disabled":false,"rental_uris":{"android":"levelo://app?vid=2e3a7afb-d8c7-4884-acc8-550933aad787","ios":"levelo://app?vid=2e3a7afb-d8c7-4884-acc8-550933aad787"},"vehicle_type_id":"4","last_reported":1704827161,"current_range_meters":23200,"station_id":"ce4bgvp2rcd13ifvqcu0","pricing_plan_id":"free"},{"bike_id":"32883a14-611d-4088-a4fd-ad7f6816bdac","system_id":"levelo_inurba_marseille","lat":43.309038,"lon":5.396546,"is_reserved":false,"is_disabled":false,"rental_uris":{"android":"levelo://app?vid=32883a14-611d-4088-a4fd-ad7f6816bdac","ios":"levelo://app?vid=32883a14-611d-4088-a4fd-ad7f6816bdac"},"vehicle_type_id":"4","last_reported":1704827161,"current_range_meters":30400,"station_id":"ce4bh012rcd13ifvqcv0","pricing_plan_id":"free"},{"bike_id":"460038ff-124c-4609-8c97-f1c1d78c42e9","system_id":"levelo_inurba_marseille","lat":43.313291,"lon":5.396838,"is_reserved":false,"is_disabled":false,"rental_uris":{"android":"levelo://app?vid=460038ff-124c-4609-8c97-f1c1d78c42e9","ios":"levelo://app?vid=460038ff-124c-4609-8c97-f1c1d78c42e9"},"vehicle_type_id":"4","last_reported":1704827161,"current_range_meters":25200,"station_id":"ce4bgvp2rcd13ifvqcu0","pricing_plan_id":"free"},{"bike_id":"7b36211d-f979-4204-ae1c-1091b8280214","system_id":"levelo_inurba_marseille","lat":43.313291,"lon":5.396838,"is_reserved":false,"is_disabled":false,"rental_uris":{"android":"levelo://app?vid=7b36211d-f979-4204-ae1c-1091b8280214","ios":"levelo://app?vid=7b36211d-f979-4204-ae1c-1091b8280214"},"vehicle_type_id":"4","last_reported":1704827161,"current_range_meters":10000,"station_id":"ce4bgvp2rcd13ifvqcu0","pricing_plan_id":"free"},{"bike_id":"ce227334-7b48-47fe-8664-cbb2fc01cb37","system_id":"levelo_inurba_marseille","lat":43.309047,"lon":5.396551,"is_reserved":false,"is_disabled":false,"rental_uris":{"android":"levelo://app?vid=ce227334-7b48-47fe-8664-cbb2fc01cb37","ios":"levelo://app?vid=ce227334-7b48-47fe-8664-cbb2fc01cb37"},"vehicle_type_id":"4","last_reported":1704827161,"current_range_meters":7200,"station_id":"ce4bh012rcd13ifvqcv0","pricing_plan_id":"free"},{"bike_id":"9613a6ca-4f7c-4032-be8c-94815fb8c28b","system_id":"levelo_inurba_marseille","lat":43.309038,"lon":5.396546,"is_reserved":false,"is_disabled":false,"rental_uris":{"android":"levelo://app?vid=9613a6ca-4f7c-4032-be8c-94815fb8c28b","ios":"levelo://app?vid=9613a6ca-4f7c-4032-be8c-94815fb8c28b"},"vehicle_type_id":"4","last_reported":1704827161,"current_range_meters":16000,"station_id":"ce4bh012rcd13ifvqcv0","pricing_plan_id":"free"},{"bike_id":"4ecab319-d370-400c-af24-4ed4d1d60bb2","system_id":"levelo_inurba_marseille","lat":43.29529,"lon":5.385581,"is_reserved":false,"is_disabled":false,"rental_uris":{"android":"levelo://app?vid=4ecab319-d370-400c-af24-4ed4d1d60bb2","ios":"levelo://app?vid=4ecab319-d370-400c-af24-4ed4d1d60bb2"},"vehicle_type_id":"4","last_reported":1704827161,"current_range_meters":12800,"station_id":"ce4bgih2rcd13ifvqba0","pricing_plan_id":"free"},{"bike_id":"d6969ab9-667f-4101-98ef-f267955f11b3","system_id":"levelo_inurba_marseille","lat":43.2908,"lon":5.37168,"is_reserved":false,"is_disabled":false,"rental_uris":{"android":"levelo://app?vid=d6969ab9-667f-4101-98ef-f267955f11b3","ios":"levelo://app?vid=d6969ab9-667f-4101-98ef-f267955f11b3"},"vehicle_type_id":"4","last_reported":1704827161,"current_range_meters":0,"station_id":"ce4bh5p2rcd13ifvqe4g","pricing_plan_id":"free"},{"bike_id":"0494dfed-d160-439a-9daa-9d5a5c1dd464","system_id":"levelo_inurba_marseille","lat":43.313461,"lon":5.397887,"is_reserved":false,"is_disabled":false,"rental_uris":{"android":"levelo://app?vid=0494dfed-d160-439a-9daa-9d5a5c1dd464","ios":"levelo://app?vid=0494dfed-d160-439a-9daa-9d5a5c1dd464"},"vehicle_type_id":"4","last_reported":1704827161,"current_range_meters":10800,"station_id":"","pricing_plan_id":"free"},{"bike_id":"444f88f2-31f5-4b31-be3f-ca008ba40c26","system_id":"levelo_inurba_marseille","lat":43.302008,"lon":5.394694,"is_reserved":false,"is_disabled":false,"rental_uris":{"android":"levelo://app?vid=444f88f2-31f5-4b31-be3f-ca008ba40c26","ios":"levelo://app?vid=444f88f2-31f5-4b31-be3f-ca008ba40c26"},"vehicle_type_id":"4","last_reported":1704827161,"current_range_meters":12000,"station_id":"ce4bh0p2rcd13ifvqd70","pricing_plan_id":"free"},{"bike_id":"08e09d67-edb5-486b-9746-3520f0950c9c","system_id":"levelo_inurba_marseille","lat":43.302008,"lon":5.394694,"is_reserved":false,"is_disabled":false,"rental_uris":{"android":"levelo://app?vid=08e09d67-edb5-486b-9746-3520f0950c9c","ios":"levelo://app?vid=08e09d67-edb5-486b-9746-3520f0950c9c"},"vehicle_type_id":"4","last_reported":1704827161,"current_range_meters":2800,"station_id":"ce4bh0p2rcd13ifvqd70","pricing_plan_id":"free"},{"bike_id":"e301beb3-ba96-46f3-bdce-842b4e07402b","system_id":"levelo_inurba_marseille","lat":43.290624,"lon":5.359245,"is_reserved":false,"is_disabled":false,"rental_uris":{"android":"levelo://app?vid=e301beb3-ba96-46f3-bdce-842b4e07402b","ios":"levelo://app?vid=e301beb3-ba96-46f3-bdce-842b4e07402b"},"vehicle_type_id":"4","last_reported":1704827161,"current_range_meters":16400,"station_id":"ce4bha92rcd13ifvqeg0","pricing_plan_id":"free"},{"bike_id":"ca63bca5-920e-4ae4-a99f-467eb1f80da6","system_id":"levelo_inurba_marseille","lat":43.290631,"lon":5.359244,"is_reserved":false,"is_disabled":false,"rental_uris":{"android":"levelo://app?vid=ca63bca5-920e-4ae4-a99f-467eb1f80da6","ios":"levelo://app?vid=ca63bca5-920e-4ae4-a99f-467eb1f80da6"},"vehicle_type_id":"4","last_reported":1704827161,"current_range_meters":27200,"station_id":"ce4bha92rcd13ifvqeg0","pricing_plan_id":"free"},{"bike_id":"6a00b293-4f12-4ce8-9e93-b6bde95ae43b","system_id":"levelo_inurba_marseille","lat":43.2916,"lon":5.37911,"is_reserved":false,"is_disabled":false,"rental_uris":{"android":"levelo://app?vid=6a00b293-4f12-4ce8-9e93-b6bde95ae43b","ios":"levelo://app?vid=6a00b293-4f12-4ce8-9e93-b6bde95ae43b"},"vehicle_type_id":"4","last_reported":1704827161,"current_range_meters":4400,"station_id":"","pricing_plan_id":"free"},{"bike_id":"5eb5f4fd-e06f-4a33-9af7-1635081258da","system_id":"levelo_inurba_marseille","lat":43.294162,"lon":5.386292,"is_reserved":false,"is_disabled":false,"rental_uris":{"android":"levelo://app?vid=5eb5f4fd-e06f-4a33-9af7-1635081258da","ios":"levelo://app?vid=5eb5f4fd-e06f-4a33-9af7-1635081258da"},"vehicle_type_id":"4","last_reported":1704827161,"current_range_meters":6000,"station_id":"ce4bh2h2rcd13ifvqdh0","pricing_plan_id":"free"},{"bike_id":"cf96487d-4f06-48e9-94b5-1f836026c31f","system_id":"levelo_inurba_marseille","lat":43.289184,"lon":5.366408,"is_reserved":false,"is_disabled":false,"rental_uris":{"android":"levelo://app?vid=cf96487d-4f06-48e9-94b5-1f836026c31f","ios":"levelo://app?vid=cf96487d-4f06-48e9-94b5-1f836026c31f"},"vehicle_type_id":"4","last_reported":1704827161,"current_range_meters":18000,"station_id":"ce4bhap2rcd13ifvqek0","pricing_plan_id":"free"},{"bike_id":"468ca377-1440-497a-96a4-1b0fe56675ef","system_id":"levelo_inurba_marseille","lat":43.289184,"lon":5.366408,"is_reserved":false,"is_disabled":false,"rental_uris":{"android":"levelo://app?vid=468ca377-1440-497a-96a4-1b0fe56675ef","ios":"levelo://app?vid=468ca377-1440-497a-96a4-1b0fe56675ef"},"vehicle_type_id":"4","last_reported":1704827161,"current_range_meters":26400,"station_id":"ce4bhap2rcd13ifvqek0","pricing_plan_id":"free"},{"bike_id":"582a3def-7b29-4a4a-bd02-b2d1bb21e431","system_id":"levelo_inurba_marseille","lat":43.289184,"lon":5.366408,"is_reserved":false,"is_disabled":false,"rental_uris":{"android":"levelo://app?vid=582a3def-7b29-4a4a-bd02-b2d1bb21e431","ios":"levelo://app?vid=582a3def-7b29-4a4a-bd02-b2d1bb21e431"},"vehicle_type_id":"4","last_reported":1704827161,"current_range_meters":27600,"station_id":"ce4bhap2rcd13ifvqek0","pricing_plan_id":"free"},{"bike_id":"a1db6edd-f7eb-42ef-9d75-0d1bf626d603","system_id":"levelo_inurba_marseille","lat":43.289184,"lon":5.366408,"is_reserved":false,"is_disabled":false,"rental_uris":{"android":"levelo://app?vid=a1db6edd-f7eb-42ef-9d75-0d1bf626d603","ios":"levelo://app?vid=a1db6edd-f7eb-42ef-9d75-0d1bf626d603"},"vehicle_type_id":"4","last_reported":1704827161,"current_range_meters":1600,"station_id":"ce4bhap2rcd13ifvqek0","pricing_plan_id":"free"},{"bike_id":"966df94c-d773-4bf3-8e3d-2941199ee2ce","system_id":"levelo_inurba_marseille","lat":43.28931,"lon":5.36631,"is_reserved":false,"is_disabled":false,"rental_uris":{"android":"levelo://app?vid=966df94c-d773-4bf3-8e3d-2941199ee2ce","ios":"levelo://app?vid=966df94c-d773-4bf3-8e3d-2941199ee2ce"},"vehicle_type_id":"4","last_reported":1704827161,"current_range_meters":0,"station_id":"ce4bhap2rcd13ifvqek0","pricing_plan_id":"free"},{"bike_id":"c64890c9-6ef0-41d0-9776-61214bc03c44","system_id":"levelo_inurba_marseille","lat":43.289256,"lon":5.366554,"is_reserved":false,"is_disabled":false,"rental_uris":{"android":"levelo://app?vid=c64890c9-6ef0-41d0-9776-61214bc03c44","ios":"levelo://app?vid=c64890c9-6ef0-41d0-9776-61214bc03c44"},"vehicle_type_id":"4","last_reported":1704827161,"current_range_meters":20400,"station_id":"ce4bhap2rcd13ifvqek0","pricing_plan_id":"free"},{"bike_id":"9262b09d-0b07-4002-9de4-32f288c85630","system_id":"levelo_inurba_marseille","lat":43.29264,"lon":5.38452,"is_reserved":false,"is_disabled":false,"rental_uris":{"android":"levelo://app?vid=9262b09d-0b07-4002-9de4-32f288c85630","ios":"levelo://app?vid=9262b09d-0b07-4002-9de4-32f288c85630"},"vehicle_type_id":"4","last_reported":1704827161,"current_range_meters":6800,"station_id":"ce4bh692rcd13ifvqea0","pricing_plan_id":"free"},{"bike_id":"25741dda-2891-4ccd-ad93-22a3fb01f976","system_id":"levelo_inurba_marseille","lat":43.290104,"lon":5.356111,"is_reserved":false,"is_disabled":false,"rental_uris":{"android":"levelo://app?vid=25741dda-2891-4ccd-ad93-22a3fb01f976","ios":"levelo://app?vid=25741dda-2891-4ccd-ad93-22a3fb01f976"},"vehicle_type_id":"4","last_reported":1704827161,"current_range_meters":17200,"station_id":"ce4bhb92rcd13ifvqen0","pricing_plan_id":"free"},{"bike_id":"68cdbb37-796b-49dd-8237-60c50e990312","system_id":"levelo_inurba_marseille","lat":43.297815,"lon":5.393548,"is_reserved":false,"is_disabled":false,"rental_uris":{"android":"levelo://app?vid=68cdbb37-796b-49dd-8237-60c50e990312","ios":"levelo://app?vid=68cdbb37-796b-49dd-8237-60c50e990312"},"vehicle_type_id":"4","last_reported":1704827161,"current_range_meters":0,"station_id":"chh1huq6cuj3fo74tm60","pricing_plan_id":"free"},{"bike_id":"ad2def57-d776-4511-bb70-fc80cd3872dd","system_id":"levelo_inurba_marseille","lat":43.290995,"lon":5.381361,"is_reserved":false,"is_disabled":false,"rental_uris":{"android":"levelo://app?vid=ad2def57-d776-4511-bb70-fc80cd3872dd","ios":"levelo://app?vid=ad2def57-d776-4511-bb70-fc80cd3872dd"},"vehicle_type_id":"4","last_reported":1704827161,"current_range_meters":23200,"station_id":"ce4bh512rcd13ifvqe2g","pricing_plan_id":"free"},{"bike_id":"604d70e1-4bfc-4c1a-ad50-5c45b428d61e","system_id":"levelo_inurba_marseille","lat":43.33019,"lon":5.39038,"is_reserved":false,"is_disabled":false,"rental_uris":{"android":"levelo://app?vid=604d70e1-4bfc-4c1a-ad50-5c45b428d61e","ios":"levelo://app?vid=604d70e1-4bfc-4c1a-ad50-5c45b428d61e"},"vehicle_type_id":"4","last_reported":1704827161,"current_range_meters":31200,"station_id":"ce4bhr92rcd13ifvqhrg","pricing_plan_id":"free"},{"bike_id":"b4b1d330-9cae-432f-bbe4-7ca5957c66dd","system_id":"levelo_inurba_marseille","lat":43.33022,"lon":5.39037,"is_reserved":false,"is_disabled":false,"rental_uris":{"android":"levelo://app?vid=b4b1d330-9cae-432f-bbe4-7ca5957c66dd","ios":"levelo://app?vid=b4b1d330-9cae-432f-bbe4-7ca5957c66dd"},"vehicle_type_id":"4","last_reported":1704827161,"current_range_meters":22400,"station_id":"","pricing_plan_id":"free"},{"bike_id":"29877edf-f914-4818-a395-be7aee9e9d72","system_id":"levelo_inurba_marseille","lat":43.33022,"lon":5.39038,"is_reserved":false,"is_disabled":false,"rental_uris":{"android":"levelo://app?vid=29877edf-f914-4818-a395-be7aee9e9d72","ios":"levelo://app?vid=29877edf-f914-4818-a395-be7aee9e9d72"},"vehicle_type_id":"4","last_reported":1704827161,"current_range_meters":28400,"station_id":"","pricing_plan_id":"free"},{"bike_id":"7c7a6206-545f-4749-ace7-a0c9f17d3062","system_id":"levelo_inurba_marseille","lat":43.3302,"lon":5.39042,"is_reserved":false,"is_disabled":false,"rental_uris":{"android":"levelo://app?vid=7c7a6206-545f-4749-ace7-a0c9f17d3062","ios":"levelo://app?vid=7c7a6206-545f-4749-ace7-a0c9f17d3062"},"vehicle_type_id":"4","last_reported":1704827161,"current_range_meters":27600,"station_id":"","pricing_plan_id":"free"},{"bike_id":"8396d3be-a3d9-4f8c-ae03-f92c0530330f","system_id":"levelo_inurba_marseille","lat":43.295169,"lon":5.390426,"is_reserved":false,"is_disabled":false,"rental_uris":{"android":"levelo://app?vid=8396d3be-a3d9-4f8c-ae03-f92c0530330f","ios":"levelo://app?vid=8396d3be-a3d9-4f8c-ae03-f92c0530330f"},"vehicle_type_id":"4","last_reported":1704827161,"current_range_meters":29600,"station_id":"ce4bh3p2rcd13ifvqdp0","pricing_plan_id":"free"},{"bike_id":"58a31f1a-cbe7-4c75-86ff-1edcc714b247","system_id":"levelo_inurba_marseille","lat":43.295169,"lon":5.390426,"is_reserved":false,"is_disabled":false,"rental_uris":{"android":"levelo://app?vid=58a31f1a-cbe7-4c75-86ff-1edcc714b247","ios":"levelo://app?vid=58a31f1a-cbe7-4c75-86ff-1edcc714b247"},"vehicle_type_id":"4","last_reported":1704827161,"current_range_meters":22400,"station_id":"ce4bh3p2rcd13ifvqdp0","pricing_plan_id":"free"},{"bike_id":"87efb1e3-3a04-4a04-8a2c-7950735911ef","system_id":"levelo_inurba_marseille","lat":43.33023,"lon":5.39042,"is_reserved":false,"is_disabled":false,"rental_uris":{"android":"levelo://app?vid=87efb1e3-3a04-4a04-8a2c-7950735911ef","ios":"levelo://app?vid=87efb1e3-3a04-4a04-8a2c-7950735911ef"},"vehicle_type_id":"4","last_reported":1704827161,"current_range_meters":19200,"station_id":"","pricing_plan_id":"free"},{"bike_id":"5042b837-df61-4004-bde3-0ce031b779ec","system_id":"levelo_inurba_marseille","lat":43.295169,"lon":5.390426,"is_reserved":false,"is_disabled":false,"rental_uris":{"android":"levelo://app?vid=5042b837-df61-4004-bde3-0ce031b779ec","ios":"levelo://app?vid=5042b837-df61-4004-bde3-0ce031b779ec"},"vehicle_type_id":"4","last_reported":1704827161,"current_range_meters":18800,"station_id":"ce4bh3p2rcd13ifvqdp0","pricing_plan_id":"free"},{"bike_id":"951b6f7b-3322-46dd-b27e-a76c5e02ca33","system_id":"levelo_inurba_marseille","lat":43.28866,"lon":5.35835,"is_reserved":false,"is_disabled":false,"rental_uris":{"android":"levelo://app?vid=951b6f7b-3322-46dd-b27e-a76c5e02ca33","ios":"levelo://app?vid=951b6f7b-3322-46dd-b27e-a76c5e02ca33"},"vehicle_type_id":"4","last_reported":1704827161,"current_range_meters":7600,"station_id":"ce4bhb12rcd13ifvqem0","pricing_plan_id":"free"},{"bike_id":"1a46d2d0-85d6-40a9-a7c8-890671b584e0","system_id":"levelo_inurba_marseille","lat":43.309268,"lon":5.401214,"is_reserved":false,"is_disabled":false,"rental_uris":{"android":"levelo://app?vid=1a46d2d0-85d6-40a9-a7c8-890671b584e0","ios":"levelo://app?vid=1a46d2d0-85d6-40a9-a7c8-890671b584e0"},"vehicle_type_id":"4","last_reported":1704827161,"current_range_meters":31200,"station_id":"ce4bgvp2rcd13ifvqct0","pricing_plan_id":"free"},{"bike_id":"cf73facc-2fa3-4e06-b8d6-de2b8c1ab653","system_id":"levelo_inurba_marseille","lat":43.312753,"lon":5.40169,"is_reserved":false,"is_disabled":false,"rental_uris":{"android":"levelo://app?vid=cf73facc-2fa3-4e06-b8d6-de2b8c1ab653","ios":"levelo://app?vid=cf73facc-2fa3-4e06-b8d6-de2b8c1ab653"},"vehicle_type_id":"4","last_reported":1704827161,"current_range_meters":29200,"station_id":"ce4bh092rcd13ifvqd30","pricing_plan_id":"free"},{"bike_id":"7a3880c8-df66-4db0-97af-99785855549f","system_id":"levelo_inurba_marseille","lat":43.31276,"lon":5.40169,"is_reserved":false,"is_disabled":false,"rental_uris":{"android":"levelo://app?vid=7a3880c8-df66-4db0-97af-99785855549f","ios":"levelo://app?vid=7a3880c8-df66-4db0-97af-99785855549f"},"vehicle_type_id":"4","last_reported":1704827161,"current_range_meters":27600,"station_id":"ce4bh092rcd13ifvqd30","pricing_plan_id":"free"},{"bike_id":"266149b0-0922-402d-9f55-a55182ca91c0","system_id":"levelo_inurba_marseille","lat":43.30943,"lon":5.40141,"is_reserved":false,"is_disabled":false,"rental_uris":{"android":"levelo://app?vid=266149b0-0922-402d-9f55-a55182ca91c0","ios":"levelo://app?vid=266149b0-0922-402d-9f55-a55182ca91c0"},"vehicle_type_id":"4","last_reported":1704827161,"current_range_meters":0,"station_id":"ce4bgvp2rcd13ifvqct0","pricing_plan_id":"free"},{"bike_id":"e087c0be-6c89-4ef1-aa71-272f6b71df76","system_id":"levelo_inurba_marseille","lat":43.312609,"lon":5.401662,"is_reserved":false,"is_disabled":false,"rental_uris":{"android":"levelo://app?vid=e087c0be-6c89-4ef1-aa71-272f6b71df76","ios":"levelo://app?vid=e087c0be-6c89-4ef1-aa71-272f6b71df76"},"vehicle_type_id":"4","last_reported":1704827161,"current_range_meters":16000,"station_id":"ce4bh092rcd13ifvqd30","pricing_plan_id":"free"},{"bike_id":"6d0a125e-4420-4867-b83b-5d481be74bca","system_id":"levelo_inurba_marseille","lat":43.30927,"lon":5.40143,"is_reserved":false,"is_disabled":false,"rental_uris":{"android":"levelo://app?vid=6d0a125e-4420-4867-b83b-5d481be74bca","ios":"levelo://app?vid=6d0a125e-4420-4867-b83b-5d481be74bca"},"vehicle_type_id":"4","last_reported":1704827161,"current_range_meters":19200,"station_id":"ce4bgvp2rcd13ifvqct0","pricing_plan_id":"free"},{"bike_id":"f675d45c-d18c-4b87-baf5-d032c6b9539b","system_id":"levelo_inurba_marseille","lat":43.309371,"lon":5.401449,"is_reserved":false,"is_disabled":false,"rental_uris":{"android":"levelo://app?vid=f675d45c-d18c-4b87-baf5-d032c6b9539b","ios":"levelo://app?vid=f675d45c-d18c-4b87-baf5-d032c6b9539b"},"vehicle_type_id":"4","last_reported":1704827161,"current_range_meters":25600,"station_id":"ce4bgvp2rcd13ifvqct0","pricing_plan_id":"free"},{"bike_id":"8ba44336-282f-4cda-90bb-b7fe4482f748","system_id":"levelo_inurba_marseille","lat":43.3093,"lon":5.40147,"is_reserved":false,"is_disabled":false,"rental_uris":{"android":"levelo://app?vid=8ba44336-282f-4cda-90bb-b7fe4482f748","ios":"levelo://app?vid=8ba44336-282f-4cda-90bb-b7fe4482f748"},"vehicle_type_id":"4","last_reported":1704827161,"current_range_meters":24400,"station_id":"ce4bgvp2rcd13ifvqct0","pricing_plan_id":"free"},{"bike_id":"da1e572c-edd8-42f1-a838-3cde509c8f4c","system_id":"levelo_inurba_marseille","lat":43.33752,"lon":5.37441,"is_reserved":false,"is_disabled":false,"rental_uris":{"android":"levelo://app?vid=da1e572c-edd8-42f1-a838-3cde509c8f4c","ios":"levelo://app?vid=da1e572c-edd8-42f1-a838-3cde509c8f4c"},"vehicle_type_id":"4","last_reported":1704827161,"current_range_meters":28800,"station_id":"","pricing_plan_id":"free"},{"bike_id":"e12d72da-85a2-4583-b875-7ac80017c6e4","system_id":"levelo_inurba_marseille","lat":43.309371,"lon":5.401449,"is_reserved":false,"is_disabled":false,"rental_uris":{"android":"levelo://app?vid=e12d72da-85a2-4583-b875-7ac80017c6e4","ios":"levelo://app?vid=e12d72da-85a2-4583-b875-7ac80017c6e4"},"vehicle_type_id":"4","last_reported":1704827161,"current_range_meters":28400,"station_id":"ce4bgvp2rcd13ifvqct0","pricing_plan_id":"free"},{"bike_id":"81cce004-623f-4096-b534-8be95f1ebee1","system_id":"levelo_inurba_marseille","lat":43.33752,"lon":5.37456,"is_reserved":false,"is_disabled":false,"rental_uris":{"android":"levelo://app?vid=81cce004-623f-4096-b534-8be95f1ebee1","ios":"levelo://app?vid=81cce004-623f-4096-b534-8be95f1ebee1"},"vehicle_type_id":"4","last_reported":1704827161,"current_range_meters":28800,"station_id":"","pricing_plan_id":"free"},{"bike_id":"286d0c61-c0c4-45e1-8c5d-9f8dc2d215f1","system_id":"levelo_inurba_marseille","lat":43.306412,"lon":5.401035,"is_reserved":false,"is_disabled":false,"rental_uris":{"android":"levelo://app?vid=286d0c61-c0c4-45e1-8c5d-9f8dc2d215f1","ios":"levelo://app?vid=286d0c61-c0c4-45e1-8c5d-9f8dc2d215f1"},"vehicle_type_id":"4","last_reported":1704827161,"current_range_meters":25200,"station_id":"ce4bh112rcd13ifvqda0","pricing_plan_id":"free"},{"bike_id":"c1c0f418-8120-4ac4-9bff-565beba4a8bc","system_id":"levelo_inurba_marseille","lat":43.306286,"lon":5.40084,"is_reserved":false,"is_disabled":false,"rental_uris":{"android":"levelo://app?vid=c1c0f418-8120-4ac4-9bff-565beba4a8bc","ios":"levelo://app?vid=c1c0f418-8120-4ac4-9bff-565beba4a8bc"},"vehicle_type_id":"4","last_reported":1704827161,"current_range_meters":400,"station_id":"ce4bh112rcd13ifvqda0","pricing_plan_id":"free"},{"bike_id":"74998a7f-efd1-45b7-bb45-f9a6ef6c1649","system_id":"levelo_inurba_marseille","lat":43.301117,"lon":5.398795,"is_reserved":false,"is_disabled":false,"rental_uris":{"android":"levelo://app?vid=74998a7f-efd1-45b7-bb45-f9a6ef6c1649","ios":"levelo://app?vid=74998a7f-efd1-45b7-bb45-f9a6ef6c1649"},"vehicle_type_id":"4","last_reported":1704827161,"current_range_meters":4800,"station_id":"ce4bh0h2rcd13ifvqd40","pricing_plan_id":"free"},{"bike_id":"4aa8bc24-40e1-4194-97aa-9f12158d6ce5","system_id":"levelo_inurba_marseille","lat":43.301117,"lon":5.398795,"is_reserved":false,"is_disabled":false,"rental_uris":{"android":"levelo://app?vid=4aa8bc24-40e1-4194-97aa-9f12158d6ce5","ios":"levelo://app?vid=4aa8bc24-40e1-4194-97aa-9f12158d6ce5"},"vehicle_type_id":"4","last_reported":1704827161,"current_range_meters":10800,"station_id":"ce4bh0h2rcd13ifvqd40","pricing_plan_id":"free"},{"bike_id":"0aac4070-14e7-40b0-8340-42b6dde12600","system_id":"levelo_inurba_marseille","lat":43.284787,"lon":5.384116,"is_reserved":false,"is_disabled":false,"rental_uris":{"android":"levelo://app?vid=0aac4070-14e7-40b0-8340-42b6dde12600","ios":"levelo://app?vid=0aac4070-14e7-40b0-8340-42b6dde12600"},"vehicle_type_id":"4","last_reported":1704827161,"current_range_meters":26400,"station_id":"ce4bh512rcd13ifvqe3g","pricing_plan_id":"free"},{"bike_id":"8ddaffd6-2d87-43e8-822e-ff350e65ef5e","system_id":"levelo_inurba_marseille","lat":43.301117,"lon":5.398795,"is_reserved":false,"is_disabled":false,"rental_uris":{"android":"levelo://app?vid=8ddaffd6-2d87-43e8-822e-ff350e65ef5e","ios":"levelo://app?vid=8ddaffd6-2d87-43e8-822e-ff350e65ef5e"},"vehicle_type_id":"4","last_reported":1704827161,"current_range_meters":19600,"station_id":"ce4bh0h2rcd13ifvqd40","pricing_plan_id":"free"},{"bike_id":"c61b09fd-a6e7-480b-bf6d-ac6bfca657b9","system_id":"levelo_inurba_marseille","lat":43.301117,"lon":5.398795,"is_reserved":false,"is_disabled":false,"rental_uris":{"android":"levelo://app?vid=c61b09fd-a6e7-480b-bf6d-ac6bfca657b9","ios":"levelo://app?vid=c61b09fd-a6e7-480b-bf6d-ac6bfca657b9"},"vehicle_type_id":"4","last_reported":1704827161,"current_range_meters":3600,"station_id":"ce4bh0h2rcd13ifvqd40","pricing_plan_id":"free"},{"bike_id":"addac819-3cbd-4c80-842a-204edb00142c","system_id":"levelo_inurba_marseille","lat":43.301117,"lon":5.398795,"is_reserved":false,"is_disabled":false,"rental_uris":{"android":"levelo://app?vid=addac819-3cbd-4c80-842a-204edb00142c","ios":"levelo://app?vid=addac819-3cbd-4c80-842a-204edb00142c"},"vehicle_type_id":"4","last_reported":1704827161,"current_range_meters":12000,"station_id":"ce4bh0h2rcd13ifvqd40","pricing_plan_id":"free"},{"bike_id":"5e57c29e-7ebe-4d24-9aa6-b33de229845d","system_id":"levelo_inurba_marseille","lat":43.28727,"lon":5.36078,"is_reserved":false,"is_disabled":false,"rental_uris":{"android":"levelo://app?vid=5e57c29e-7ebe-4d24-9aa6-b33de229845d","ios":"levelo://app?vid=5e57c29e-7ebe-4d24-9aa6-b33de229845d"},"vehicle_type_id":"4","last_reported":1704827161,"current_range_meters":28400,"station_id":"cki0cbj6b192h4jlfktg","pricing_plan_id":"free"},{"bike_id":"85ad7107-a89b-41f1-a22f-89e98ef06030","system_id":"levelo_inurba_marseille","lat":43.28727,"lon":5.36078,"is_reserved":false,"is_disabled":false,"rental_uris":{"android":"levelo://app?vid=85ad7107-a89b-41f1-a22f-89e98ef06030","ios":"levelo://app?vid=85ad7107-a89b-41f1-a22f-89e98ef06030"},"vehicle_type_id":"4","last_reported":1704827161,"current_range_meters":27200,"station_id":"cki0cbj6b192h4jlfktg","pricing_plan_id":"free"},{"bike_id":"1fea92ae-83a3-481e-a710-11fbf933fcef","system_id":"levelo_inurba_marseille","lat":43.28727,"lon":5.36078,"is_reserved":false,"is_disabled":false,"rental_uris":{"android":"levelo://app?vid=1fea92ae-83a3-481e-a710-11fbf933fcef","ios":"levelo://app?vid=1fea92ae-83a3-481e-a710-11fbf933fcef"},"vehicle_type_id":"4","last_reported":1704827161,"current_range_meters":28000,"station_id":"cki0cbj6b192h4jlfktg","pricing_plan_id":"free"},{"bike_id":"5ef337a2-462f-468e-8def-b9dec1cea61d","system_id":"levelo_inurba_marseille","lat":43.28727,"lon":5.36078,"is_reserved":false,"is_disabled":false,"rental_uris":{"android":"levelo://app?vid=5ef337a2-462f-468e-8def-b9dec1cea61d","ios":"levelo://app?vid=5ef337a2-462f-468e-8def-b9dec1cea61d"},"vehicle_type_id":"4","last_reported":1704827161,"current_range_meters":27600,"station_id":"cki0cbj6b192h4jlfktg","pricing_plan_id":"free"},{"bike_id":"00462145-042f-41d8-a85f-a0f9cd03fe33","system_id":"levelo_inurba_marseille","lat":43.30462,"lon":5.40068,"is_reserved":false,"is_disabled":false,"rental_uris":{"android":"levelo://app?vid=00462145-042f-41d8-a85f-a0f9cd03fe33","ios":"levelo://app?vid=00462145-042f-41d8-a85f-a0f9cd03fe33"},"vehicle_type_id":"4","last_reported":1704827161,"current_range_meters":20800,"station_id":"","pricing_plan_id":"free"},{"bike_id":"288e8ddb-5a29-4084-a908-36c65db13c53","system_id":"levelo_inurba_marseille","lat":43.28727,"lon":5.36078,"is_reserved":false,"is_disabled":false,"rental_uris":{"android":"levelo://app?vid=288e8ddb-5a29-4084-a908-36c65db13c53","ios":"levelo://app?vid=288e8ddb-5a29-4084-a908-36c65db13c53"},"vehicle_type_id":"4","last_reported":1704827161,"current_range_meters":6800,"station_id":"cki0cbj6b192h4jlfktg","pricing_plan_id":"free"},{"bike_id":"7371e3c6-7cf7-47d9-b679-4fbd75fc1ec2","system_id":"levelo_inurba_marseille","lat":43.28727,"lon":5.36078,"is_reserved":false,"is_disabled":false,"rental_uris":{"android":"levelo://app?vid=7371e3c6-7cf7-47d9-b679-4fbd75fc1ec2","ios":"levelo://app?vid=7371e3c6-7cf7-47d9-b679-4fbd75fc1ec2"},"vehicle_type_id":"4","last_reported":1704827161,"current_range_meters":31200,"station_id":"cki0cbj6b192h4jlfktg","pricing_plan_id":"free"},{"bike_id":"1c5023fb-e274-4ed0-804a-1256eebebe48","system_id":"levelo_inurba_marseille","lat":43.298681,"lon":5.397225,"is_reserved":false,"is_disabled":false,"rental_uris":{"android":"levelo://app?vid=1c5023fb-e274-4ed0-804a-1256eebebe48","ios":"levelo://app?vid=1c5023fb-e274-4ed0-804a-1256eebebe48"},"vehicle_type_id":"4","last_reported":1704827161,"current_range_meters":6800,"station_id":"ce4bh0h2rcd13ifvqd50","pricing_plan_id":"free"},{"bike_id":"4de6d7c9-bc20-4d22-8ec5-b637f0ef6e32","system_id":"levelo_inurba_marseille","lat":43.28672,"lon":5.36342,"is_reserved":false,"is_disabled":false,"rental_uris":{"android":"levelo://app?vid=4de6d7c9-bc20-4d22-8ec5-b637f0ef6e32","ios":"levelo://app?vid=4de6d7c9-bc20-4d22-8ec5-b637f0ef6e32"},"vehicle_type_id":"4","last_reported":1704827161,"current_range_meters":0,"station_id":"ce4bhah2rcd13ifvqej0","pricing_plan_id":"free"},{"bike_id":"4562825a-6394-4d2d-813a-e9e6994a830e","system_id":"levelo_inurba_marseille","lat":43.2867,"lon":5.36338,"is_reserved":false,"is_disabled":false,"rental_uris":{"android":"levelo://app?vid=4562825a-6394-4d2d-813a-e9e6994a830e","ios":"levelo://app?vid=4562825a-6394-4d2d-813a-e9e6994a830e"},"vehicle_type_id":"4","last_reported":1704827161,"current_range_meters":0,"station_id":"ce4bhah2rcd13ifvqej0","pricing_plan_id":"free"},{"bike_id":"6d5df037-177a-40c2-8671-63907aa2ca0b","system_id":"levelo_inurba_marseille","lat":43.286591,"lon":5.363346,"is_reserved":false,"is_disabled":false,"rental_uris":{"android":"levelo://app?vid=6d5df037-177a-40c2-8671-63907aa2ca0b","ios":"levelo://app?vid=6d5df037-177a-40c2-8671-63907aa2ca0b"},"vehicle_type_id":"4","last_reported":1704827161,"current_range_meters":12000,"station_id":"ce4bhah2rcd13ifvqej0","pricing_plan_id":"free"},{"bike_id":"5aaadb46-f377-4656-bb1e-74b4d740bc6b","system_id":"levelo_inurba_marseille","lat":43.286591,"lon":5.363346,"is_reserved":false,"is_disabled":false,"rental_uris":{"android":"levelo://app?vid=5aaadb46-f377-4656-bb1e-74b4d740bc6b","ios":"levelo://app?vid=5aaadb46-f377-4656-bb1e-74b4d740bc6b"},"vehicle_type_id":"4","last_reported":1704827161,"current_range_meters":14000,"station_id":"ce4bhah2rcd13ifvqej0","pricing_plan_id":"free"},{"bike_id":"80b94df8-4fcf-4502-9356-06e601164742","system_id":"levelo_inurba_marseille","lat":43.286591,"lon":5.363346,"is_reserved":false,"is_disabled":false,"rental_uris":{"android":"levelo://app?vid=80b94df8-4fcf-4502-9356-06e601164742","ios":"levelo://app?vid=80b94df8-4fcf-4502-9356-06e601164742"},"vehicle_type_id":"4","last_reported":1704827161,"current_range_meters":15600,"station_id":"ce4bhah2rcd13ifvqej0","pricing_plan_id":"free"},{"bike_id":"81e09945-5b3b-40f4-8588-57751d0db042","system_id":"levelo_inurba_marseille","lat":43.286591,"lon":5.363346,"is_reserved":false,"is_disabled":false,"rental_uris":{"android":"levelo://app?vid=81e09945-5b3b-40f4-8588-57751d0db042","ios":"levelo://app?vid=81e09945-5b3b-40f4-8588-57751d0db042"},"vehicle_type_id":"4","last_reported":1704827161,"current_range_meters":0,"station_id":"ce4bhah2rcd13ifvqej0","pricing_plan_id":"free"},{"bike_id":"cb4ae437-d6e5-4163-be16-9d4185fb850f","system_id":"levelo_inurba_marseille","lat":43.287008,"lon":5.373875,"is_reserved":false,"is_disabled":false,"rental_uris":{"android":"levelo://app?vid=cb4ae437-d6e5-4163-be16-9d4185fb850f","ios":"levelo://app?vid=cb4ae437-d6e5-4163-be16-9d4185fb850f"},"vehicle_type_id":"4","last_reported":1704827161,"current_range_meters":14800,"station_id":"ce4bh3p2rcd13ifvqdq0","pricing_plan_id":"free"},{"bike_id":"3e24da4f-7fc1-4bdc-bef1-1bb831733047","system_id":"levelo_inurba_marseille","lat":43.287,"lon":5.37389,"is_reserved":false,"is_disabled":false,"rental_uris":{"android":"levelo://app?vid=3e24da4f-7fc1-4bdc-bef1-1bb831733047","ios":"levelo://app?vid=3e24da4f-7fc1-4bdc-bef1-1bb831733047"},"vehicle_type_id":"4","last_reported":1704827161,"current_range_meters":11600,"station_id":"ce4bh3p2rcd13ifvqdq0","pricing_plan_id":"free"},{"bike_id":"8284069e-b022-4b98-8b5f-a6f1442fb792","system_id":"levelo_inurba_marseille","lat":43.286591,"lon":5.363346,"is_reserved":false,"is_disabled":false,"rental_uris":{"android":"levelo://app?vid=8284069e-b022-4b98-8b5f-a6f1442fb792","ios":"levelo://app?vid=8284069e-b022-4b98-8b5f-a6f1442fb792"},"vehicle_type_id":"4","last_reported":1704827161,"current_range_meters":18800,"station_id":"ce4bhah2rcd13ifvqej0","pricing_plan_id":"free"},{"bike_id":"17a7dc42-d8ff-4f6f-9984-a1a6c34abc05","system_id":"levelo_inurba_marseille","lat":43.28699,"lon":5.37391,"is_reserved":false,"is_disabled":false,"rental_uris":{"android":"levelo://app?vid=17a7dc42-d8ff-4f6f-9984-a1a6c34abc05","ios":"levelo://app?vid=17a7dc42-d8ff-4f6f-9984-a1a6c34abc05"},"vehicle_type_id":"4","last_reported":1704827161,"current_range_meters":15600,"station_id":"ce4bh3p2rcd13ifvqdq0","pricing_plan_id":"free"},{"bike_id":"ae6216a6-1fa2-48e6-85dd-c0ea06549265","system_id":"levelo_inurba_marseille","lat":43.28695,"lon":5.37387,"is_reserved":false,"is_disabled":false,"rental_uris":{"android":"levelo://app?vid=ae6216a6-1fa2-48e6-85dd-c0ea06549265","ios":"levelo://app?vid=ae6216a6-1fa2-48e6-85dd-c0ea06549265"},"vehicle_type_id":"4","last_reported":1704827161,"current_range_meters":28000,"station_id":"ce4bh3p2rcd13ifvqdq0","pricing_plan_id":"free"},{"bike_id":"36ccaf45-13f1-48f5-8430-6ccbe227844e","system_id":"levelo_inurba_marseille","lat":43.28693,"lon":5.37437,"is_reserved":false,"is_disabled":false,"rental_uris":{"android":"levelo://app?vid=36ccaf45-13f1-48f5-8430-6ccbe227844e","ios":"levelo://app?vid=36ccaf45-13f1-48f5-8430-6ccbe227844e"},"vehicle_type_id":"4","last_reported":1704827161,"current_range_meters":16000,"station_id":"ce4bh3p2rcd13ifvqdq0","pricing_plan_id":"free"},{"bike_id":"003dd085-2198-4827-a827-b5a0a66c4ebc","system_id":"levelo_inurba_marseille","lat":43.295194,"lon":5.39397,"is_reserved":false,"is_disabled":false,"rental_uris":{"android":"levelo://app?vid=003dd085-2198-4827-a827-b5a0a66c4ebc","ios":"levelo://app?vid=003dd085-2198-4827-a827-b5a0a66c4ebc"},"vehicle_type_id":"4","last_reported":1704827161,"current_range_meters":22000,"station_id":"ce4bh292rcd13ifvqdf0","pricing_plan_id":"free"},{"bike_id":"3c06bb47-c66c-4399-95e6-13e29a2db708","system_id":"levelo_inurba_marseille","lat":43.295194,"lon":5.39397,"is_reserved":false,"is_disabled":false,"rental_uris":{"android":"levelo://app?vid=3c06bb47-c66c-4399-95e6-13e29a2db708","ios":"levelo://app?vid=3c06bb47-c66c-4399-95e6-13e29a2db708"},"vehicle_type_id":"4","last_reported":1704827161,"current_range_meters":7200,"station_id":"ce4bh292rcd13ifvqdf0","pricing_plan_id":"free"},{"bike_id":"5e4e8d91-d072-4b06-bea2-4822c8fac9e2","system_id":"levelo_inurba_marseille","lat":43.302759,"lon":5.400793,"is_reserved":false,"is_disabled":false,"rental_uris":{"android":"levelo://app?vid=5e4e8d91-d072-4b06-bea2-4822c8fac9e2","ios":"levelo://app?vid=5e4e8d91-d072-4b06-bea2-4822c8fac9e2"},"vehicle_type_id":"4","last_reported":1704827161,"current_range_meters":9600,"station_id":"ce4bgvh2rcd13ifvqcs0","pricing_plan_id":"free"},{"bike_id":"ad18b52f-8441-43dc-8640-38a264683542","system_id":"levelo_inurba_marseille","lat":43.302759,"lon":5.400793,"is_reserved":false,"is_disabled":false,"rental_uris":{"android":"levelo://app?vid=ad18b52f-8441-43dc-8640-38a264683542","ios":"levelo://app?vid=ad18b52f-8441-43dc-8640-38a264683542"},"vehicle_type_id":"4","last_reported":1704827161,"current_range_meters":27600,"station_id":"ce4bgvh2rcd13ifvqcs0","pricing_plan_id":"free"},{"bike_id":"b40f4e76-74b8-40e7-932c-3d58cf07d043","system_id":"levelo_inurba_marseille","lat":43.29034,"lon":5.3864,"is_reserved":false,"is_disabled":false,"rental_uris":{"android":"levelo://app?vid=b40f4e76-74b8-40e7-932c-3d58cf07d043","ios":"levelo://app?vid=b40f4e76-74b8-40e7-932c-3d58cf07d043"},"vehicle_type_id":"4","last_reported":1704827161,"current_range_meters":6800,"station_id":"ce4bh4p2rcd13ifvqe0g","pricing_plan_id":"free"},{"bike_id":"0f281f05-43e8-44d0-af5e-c09f961a47e5","system_id":"levelo_inurba_marseille","lat":43.29029,"lon":5.38632,"is_reserved":false,"is_disabled":false,"rental_uris":{"android":"levelo://app?vid=0f281f05-43e8-44d0-af5e-c09f961a47e5","ios":"levelo://app?vid=0f281f05-43e8-44d0-af5e-c09f961a47e5"},"vehicle_type_id":"4","last_reported":1704827161,"current_range_meters":30400,"station_id":"ce4bh4p2rcd13ifvqe0g","pricing_plan_id":"free"},{"bike_id":"bd4e45bb-7895-46c6-a08a-0c3130ac9d88","system_id":"levelo_inurba_marseille","lat":43.290317,"lon":5.386408,"is_reserved":false,"is_disabled":false,"rental_uris":{"android":"levelo://app?vid=bd4e45bb-7895-46c6-a08a-0c3130ac9d88","ios":"levelo://app?vid=bd4e45bb-7895-46c6-a08a-0c3130ac9d88"},"vehicle_type_id":"4","last_reported":1704827161,"current_range_meters":26800,"station_id":"ce4bh4p2rcd13ifvqe0g","pricing_plan_id":"free"},{"bike_id":"b39677ec-3bd6-4c93-95a6-0db925469dac","system_id":"levelo_inurba_marseille","lat":43.2903,"lon":5.38639,"is_reserved":false,"is_disabled":false,"rental_uris":{"android":"levelo://app?vid=b39677ec-3bd6-4c93-95a6-0db925469dac","ios":"levelo://app?vid=b39677ec-3bd6-4c93-95a6-0db925469dac"},"vehicle_type_id":"4","last_reported":1704827161,"current_range_meters":11600,"station_id":"ce4bh4p2rcd13ifvqe0g","pricing_plan_id":"free"},{"bike_id":"7672e5a2-e8ab-4324-8ed0-e84188a6b467","system_id":"levelo_inurba_marseille","lat":43.29028,"lon":5.38643,"is_reserved":false,"is_disabled":false,"rental_uris":{"android":"levelo://app?vid=7672e5a2-e8ab-4324-8ed0-e84188a6b467","ios":"levelo://app?vid=7672e5a2-e8ab-4324-8ed0-e84188a6b467"},"vehicle_type_id":"4","last_reported":1704827161,"current_range_meters":22400,"station_id":"ce4bh4p2rcd13ifvqe0g","pricing_plan_id":"free"},{"bike_id":"d6d8c14e-b8f0-475d-bb53-e06558e4e6c6","system_id":"levelo_inurba_marseille","lat":43.302759,"lon":5.400793,"is_reserved":false,"is_disabled":false,"rental_uris":{"android":"levelo://app?vid=d6d8c14e-b8f0-475d-bb53-e06558e4e6c6","ios":"levelo://app?vid=d6d8c14e-b8f0-475d-bb53-e06558e4e6c6"},"vehicle_type_id":"4","last_reported":1704827161,"current_range_meters":13600,"station_id":"ce4bgvh2rcd13ifvqcs0","pricing_plan_id":"free"},{"bike_id":"0fbdb035-f9d4-4984-8fe4-c974b8c94be6","system_id":"levelo_inurba_marseille","lat":43.286039,"lon":5.370679,"is_reserved":false,"is_disabled":false,"rental_uris":{"android":"levelo://app?vid=0fbdb035-f9d4-4984-8fe4-c974b8c94be6","ios":"levelo://app?vid=0fbdb035-f9d4-4984-8fe4-c974b8c94be6"},"vehicle_type_id":"4","last_reported":1704827161,"current_range_meters":4400,"station_id":"ce4bht12rcd13ifvqi60","pricing_plan_id":"free"},{"bike_id":"48d0e444-6c56-42ba-b0f8-aebaa0561d05","system_id":"levelo_inurba_marseille","lat":43.290815,"lon":5.388443,"is_reserved":false,"is_disabled":false,"rental_uris":{"android":"levelo://app?vid=48d0e444-6c56-42ba-b0f8-aebaa0561d05","ios":"levelo://app?vid=48d0e444-6c56-42ba-b0f8-aebaa0561d05"},"vehicle_type_id":"4","last_reported":1704827161,"current_range_meters":10800,"station_id":"","pricing_plan_id":"free"},