{"last_updated":1746742203,"ttl":60,"version":"2.2","data":{"bikes":[{"bike_id":"690fd055-2eba-4d8f-9e9a-1f65e8e15c59","system_id":"levelo_inurba_marseille","lat":43.29528,"lon":5.38542,"is_reserved":false,"is_disabled":true,"rental_uris":{"android":"levelo://app?vid=690fd055-2eba-4d8f-9e9a-1f65e8e15c59","ios":"levelo://app?vid=690fd055-2eba-4d8f-9e9a-1f65e8e15c59"},"vehicle_type_id":"4","last_reported":1746742203,"current_range_meters":2800,"station_id":"ce4bgih2rcd13ifvqba0","pricing_plan_id":"cebpf4jnsgd1na2vs0mg"},{"bike_id":"b251ebd7-5ae3-4809-93df-162351e72a2a","system_id":"levelo_inurba_marseille","lat":43.27498,"lon":5.42446,"is_reserved":false,"is_disabled":false,"rental_uris":{"android":"levelo://app?vid=b251ebd7-5ae3-4809-93df-162351e72a2a","ios":"levelo://app?vid=b251ebd7-5ae3-4809-93df-162351e72a2a"},"vehicle_type_id":"4","last_reported":1746742203,"current_range_meters":3200,"station_id":"ce4bhn92rcd13ifvqgrg","pricing_plan_id":"cebpf4jnsgd1na2vs0mg"},{"bike_id":"713375fa-7d76-4081-89ef-ec41de9874b1","system_id":"levelo_inurba_marseille","lat":43.269526,"lon":5.386316,"is_reserved":false,"is_disabled":false,"rental_uris":{"android":"levelo://app?vid=713375fa-7d76-4081-89ef-ec41de9874b1","ios":"levelo://app?vid=713375fa-7d76-4081-89ef-ec41de9874b1"},"vehicle_type_id":"4","last_reported":1746742203,"current_range_meters":3200,"station_id":"ce4bhh92rcd13ifvqfh0","pricing_plan_id":"cebpf4jnsgd1na2vs0mg"},{"bike_id":"d840b93a-751e-4a17-87e7-e7695655e260","system_id":"levelo_inurba_marseille","lat":43.30591,"lon":5.39346,"is_reserved":false,"is_disabled":false,"rental_uris":{"android":"levelo://app?vid=d840b93a-751e-4a17-87e7-e7695655e260","ios":"levelo://app?vid=d840b93a-751e-4a17-87e7-e7695655e260"},"vehicle_type_id":"4","last_reported":1746742203,"current_range_meters":4000,"station_id":"ce4bh0p2rcd13ifvqd80","pricing_plan_id":"cebpf4jnsgd1na2vs0mg"},{"bike_id":"7bc14fc7-e7b2-4f2d-afcc-5a98aa32bd1b","system_id":"levelo_inurba_marseille","lat":43.30801,"lon":5.38156,"is_reserved":false,"is_disabled":true,"rental_uris":{"android":"levelo://app?vid=7bc14fc7-e7b2-4f2d-afcc-5a98aa32bd1b","ios":"levelo://app?vid=7bc14fc7-e7b2-4f2d-afcc-5a98aa32bd1b"},"vehicle_type_id":"4","last_reported":1746742203,"current_range_meters":4400,"station_id":"ce4bgt12rcd13ifvqce0","pricing_plan_id":"cebpf4jnsgd1na2vs0mg"},{"bike_id":"a00a445c-47cb-431b-a71b-95066361a142","system_id":"levelo_inurba_marseille","lat":43.26805,"lon":5.40274,"is_reserved":false,"is_disabled":false,"rental_uris":{"android":"levelo://app?vid=a00a445c-47cb-431b-a71b-95066361a142","ios":"levelo://app?vid=a00a445c-47cb-431b-a71b-95066361a142"},"vehicle_type_id":"4","last_reported":1746742203,"current_range_meters":4400,"station_id":"ce501612rcd8frsf0b60","pricing_plan_id":"cebpf4jnsgd1na2vs0mg"},{"bike_id":"37a1730d-bee0-48a4-85a3-0b11fe2a9435","system_id":"levelo_inurba_marseille","lat":43.29042,"lon":5.39964,"is_reserved":false,"is_disabled":false,"rental_uris":{"android":"levelo://app?vid=37a1730d-bee0-48a4-85a3-0b11fe2a9435","ios":"levelo://app?vid=37a1730d-bee0-48a4-85a3-0b11fe2a9435"},"vehicle_type_id":"4","last_reported":1746742203,"current_range_meters":5600,"station_id":"ce4bh392rcd13ifvqdm0","pricing_plan_id":"cebpf4jnsgd1na2vs0mg"},{"bike_id":"c70d8d67-a9c3-405e-9429-c7865ef9fe87","system_id":"levelo_inurba_marseille","lat":43.25109,"lon":5.4032,"is_reserved":false,"is_disabled":false,"rental_uris":{"android":"levelo://app?vid=c70d8d67-a9c3-405e-9429-c7865ef9fe87","ios":"levelo://app?vid=c70d8d67-a9c3-405e-9429-c7865ef9fe87"},"vehicle_type_id":"4","last_reported":1746742203,"current_range_meters":5600,"station_id":"ce4bhlh2rcd13ifvqgig","pricing_plan_id":"cebpf4jnsgd1na2vs0mg"},{"bike_id":"f929f3ea-f039-44dc-b765-0386579e8828","system_id":"levelo_inurba_marseille","lat":43.27944,"lon":5.41031,"is_reserved":false,"is_disabled":false,"rental_uris":{"android":"levelo://app?vid=f929f3ea-f039-44dc-b765-0386579e8828","ios":"levelo://app?vid=f929f3ea-f039-44dc-b765-0386579e8828"},"vehicle_type_id":"4","last_reported":1746742203,"current_range_meters":5600,"station_id":"ce4bhnp2rcd13ifvqh0g","pricing_plan_id":"cebpf4jnsgd1na2vs0mg"},{"bike_id":"e5234903-64ab-4cc5-9564-680bd13945e4","system_id":"levelo_inurba_marseille","lat":43.2815,"lon":5.42634,"is_reserved":false,"is_disabled":false,"rental_uris":{"android":"levelo://app?vid=e5234903-64ab-4cc5-9564-680bd13945e4","ios":"levelo://app?vid=e5234903-64ab-4cc5-9564-680bd13945e4"},"vehicle_type_id":"4","last_reported":1746742203,"current_range_meters":6000,"station_id":"ce4bhnh2rcd13ifvqgug","pricing_plan_id":"cebpf4jnsgd1na2vs0mg"},{"bike_id":"14e638c3-6ba0-4ad0-8ab0-153f53fa1fbe","system_id":"levelo_inurba_marseille","lat":43.22905,"lon":5.35391,"is_reserved":false,"is_disabled":false,"rental_uris":{"android":"levelo://app?vid=14e638c3-6ba0-4ad0-8ab0-153f53fa1fbe","ios":"levelo://app?vid=14e638c3-6ba0-4ad0-8ab0-153f53fa1fbe"},"vehicle_type_id":"4","last_reported":1746742203,"current_range_meters":6000,"station_id":"cpo3532slgdg3j2ikp40","pricing_plan_id":"cebpf4jnsgd1na2vs0mg"},{"bike_id":"2c71efa8-6cc2-421a-b5c5-0d69dbea440e","system_id":"levelo_inurba_marseille","lat":43.28359,"lon":5.38107,"is_reserved":false,"is_disabled":false,"rental_uris":{"android":"levelo://app?vid=2c71efa8-6cc2-421a-b5c5-0d69dbea440e","ios":"levelo://app?vid=2c71efa8-6cc2-421a-b5c5-0d69dbea440e"},"vehicle_type_id":"4","last_reported":1746742203,"current_range_meters":6000,"station_id":"ce4bh412rcd13ifvqdr0","pricing_plan_id":"cebpf4jnsgd1na2vs0mg"},{"bike_id":"30a57150-f7d3-44ff-a719-985e18fc9a3a","system_id":"levelo_inurba_marseille","lat":43.31111,"lon":5.37769,"is_reserved":false,"is_disabled":true,"rental_uris":{"android":"levelo://app?vid=30a57150-f7d3-44ff-a719-985e18fc9a3a","ios":"levelo://app?vid=30a57150-f7d3-44ff-a719-985e18fc9a3a"},"vehicle_type_id":"4","last_reported":1746742203,"current_range_meters":6400,"station_id":"ce4bgt92rcd13ifvqcg0","pricing_plan_id":"cebpf4jnsgd1na2vs0mg"},{"bike_id":"f7da7a02-2f2e-47b8-b39b-a554cb4fac23","system_id":"levelo_inurba_marseille","lat":43.311172,"lon":5.377669,"is_reserved":false,"is_disabled":false,"rental_uris":{"android":"levelo://app?vid=f7da7a02-2f2e-47b8-b39b-a554cb4fac23","ios":"levelo://app?vid=f7da7a02-2f2e-47b8-b39b-a554cb4fac23"},"vehicle_type_id":"4","last_reported":1746742203,"current_range_meters":6400,"station_id":"ce4bgt92rcd13ifvqcg0","pricing_plan_id":"cebpf4jnsgd1na2vs0mg"},{"bike_id":"aed1a27d-c766-4182-8860-2dc2bf2d1eca","system_id":"levelo_inurba_marseille","lat":43.30881,"lon":5.39657,"is_reserved":false,"is_disabled":false,"rental_uris":{"android":"levelo://app?vid=aed1a27d-c766-4182-8860-2dc2bf2d1eca","ios":"levelo://app?vid=aed1a27d-c766-4182-8860-2dc2bf2d1eca"},"vehicle_type_id":"4","last_reported":1746742203,"current_range_meters":6800,"station_id":"ce4bh012rcd13ifvqcv0","pricing_plan_id":"cebpf4jnsgd1na2vs0mg"},{"bike_id":"63707718-642f-4e97-990d-b3182e27a6ae","system_id":"levelo_inurba_marseille","lat":43.27501,"lon":5.42443,"is_reserved":false,"is_disabled":false,"rental_uris":{"android":"levelo://app?vid=63707718-642f-4e97-990d-b3182e27a6ae","ios":"levelo://app?vid=63707718-642f-4e97-990d-b3182e27a6ae"},"vehicle_type_id":"4","last_reported":1746742203,"current_range_meters":6800,"station_id":"ce4bhn92rcd13ifvqgrg","pricing_plan_id":"cebpf4jnsgd1na2vs0mg"},{"bike_id":"812e31b7-42f9-4d63-b220-e99af5c192ed","system_id":"levelo_inurba_marseille","lat":43.31187,"lon":5.41611,"is_reserved":false,"is_disabled":false,"rental_uris":{"android":"levelo://app?vid=812e31b7-42f9-4d63-b220-e99af5c192ed","ios":"levelo://app?vid=812e31b7-42f9-4d63-b220-e99af5c192ed"},"vehicle_type_id":"4","last_reported":1746742203,"current_range_meters":6800,"station_id":"","pricing_plan_id":"cebpf4jnsgd1na2vs0mg"},{"bike_id":"341f6043-e914-44c4-896b-32102a500281","system_id":"levelo_inurba_marseille","lat":43.31493,"lon":5.37301,"is_reserved":false,"is_disabled":false,"rental_uris":{"android":"levelo://app?vid=341f6043-e914-44c4-896b-32102a500281","ios":"levelo://app?vid=341f6043-e914-44c4-896b-32102a500281"},"vehicle_type_id":"4","last_reported":1746742203,"current_range_meters":7200,"station_id":"ce4bgt12rcd13ifvqcd0","pricing_plan_id":"cebpf4jnsgd1na2vs0mg"},{"bike_id":"c91b378d-26a5-4ed8-99d4-6b3ec43dd75e","system_id":"levelo_inurba_marseille","lat":43.24086,"lon":5.37745,"is_reserved":false,"is_disabled":false,"rental_uris":{"android":"levelo://app?vid=c91b378d-26a5-4ed8-99d4-6b3ec43dd75e","ios":"levelo://app?vid=c91b378d-26a5-4ed8-99d4-6b3ec43dd75e"},"vehicle_type_id":"4","last_reported":1746742203,"current_range_meters":7200,"station_id":"ce4bhnp2rcd13ifvqgvg","pricing_plan_id":"cebpf4jnsgd1na2vs0mg"},{"bike_id":"36671980-e086-4a5e-ba83-d6788a761960","system_id":"levelo_inurba_marseille","lat":43.24179,"lon":5.397315,"is_reserved":false,"is_disabled":false,"rental_uris":{"android":"levelo://app?vid=36671980-e086-4a5e-ba83-d6788a761960","ios":"levelo://app?vid=36671980-e086-4a5e-ba83-d6788a761960"},"vehicle_type_id":"4","last_reported":1746742203,"current_range_meters":7200,"station_id":"ce4bhn12rcd13ifvqgpg","pricing_plan_id":"cebpf4jnsgd1na2vs0mg"},{"bike_id":"2759d083-0a3e-4b0f-a11f-0ba0f467904e","system_id":"levelo_inurba_marseille","lat":43.2894,"lon":5.36395,"is_reserved":false,"is_disabled":false,"rental_uris":{"android":"levelo://app?vid=2759d083-0a3e-4b0f-a11f-0ba0f467904e","ios":"levelo://app?vid=2759d083-0a3e-4b0f-a11f-0ba0f467904e"},"vehicle_type_id":"4","last_reported":1746742203,"current_range_meters":7200,"station_id":"ce4bhc92rcd13ifvqetg","pricing_plan_id":"cebpf4jnsgd1na2vs0mg"},{"bike_id":"32177595-d9a1-4788-a257-808878a65913","system_id":"levelo_inurba_marseille","lat":43.29942,"lon":5.38127,"is_reserved":false,"is_disabled":false,"rental_uris":{"android":"levelo://app?vid=32177595-d9a1-4788-a257-808878a65913","ios":"levelo://app?vid=32177595-d9a1-4788-a257-808878a65913"},"vehicle_type_id":"4","last_reported":1746742203,"current_range_meters":7200,"station_id":"ce4bgj12rcd13ifvqbc0","pricing_plan_id":"cebpf4jnsgd1na2vs0mg"},{"bike_id":"645c5e89-a6ce-4c06-bbaa-31dca4510601","system_id":"levelo_inurba_marseille","lat":43.31119,"lon":5.37761,"is_reserved":false,"is_disabled":false,"rental_uris":{"android":"levelo://app?vid=645c5e89-a6ce-4c06-bbaa-31dca4510601","ios":"levelo://app?vid=645c5e89-a6ce-4c06-bbaa-31dca4510601"},"vehicle_type_id":"4","last_reported":1746742203,"current_range_meters":7200,"station_id":"ce4bgt92rcd13ifvqcg0","pricing_plan_id":"cebpf4jnsgd1na2vs0mg"},{"bike_id":"b15fe93b-1059-4d75-abd3-040e349ce402","system_id":"levelo_inurba_marseille","lat":43.30113,"lon":5.37023,"is_reserved":false,"is_disabled":false,"rental_uris":{"android":"levelo://app?vid=b15fe93b-1059-4d75-abd3-040e349ce402","ios":"levelo://app?vid=b15fe93b-1059-4d75-abd3-040e349ce402"},"vehicle_type_id":"4","last_reported":1746742203,"current_range_meters":8000,"station_id":"","pricing_plan_id":"cebpf4jnsgd1na2vs0mg"},{"bike_id":"93126291-f22a-443c-8cc3-8510e6bc4581","system_id":"levelo_inurba_marseille","lat":43.25089,"lon":5.39494,"is_reserved":false,"is_disabled":false,"rental_uris":{"android":"levelo://app?vid=93126291-f22a-443c-8cc3-8510e6bc4581","ios":"levelo://app?vid=93126291-f22a-443c-8cc3-8510e6bc4581"},"vehicle_type_id":"4","last_reported":1746742203,"current_range_meters":8400,"station_id":"ce4bhm12rcd13ifvqgkg","pricing_plan_id":"cebpf4jnsgd1na2vs0mg"},{"bike_id":"94548bbc-0565-40b2-9e19-d4d8f4a3e175","system_id":"levelo_inurba_marseille","lat":43.23185,"lon":5.35568,"is_reserved":false,"is_disabled":true,"rental_uris":{"android":"levelo://app?vid=94548bbc-0565-40b2-9e19-d4d8f4a3e175","ios":"levelo://app?vid=94548bbc-0565-40b2-9e19-d4d8f4a3e175"},"vehicle_type_id":"4","last_reported":1746742203,"current_range_meters":8400,"station_id":"ce4bhu92rcd13ifvqi70","pricing_plan_id":"cebpf4jnsgd1na2vs0mg"},{"bike_id":"8b698a34-fbf5-484e-9ecb-26e22393bc90","system_id":"levelo_inurba_marseille","lat":43.330425,"lon":5.390321,"is_reserved":false,"is_disabled":false,"rental_uris":{"android":"levelo://app?vid=8b698a34-fbf5-484e-9ecb-26e22393bc90","ios":"levelo://app?vid=8b698a34-fbf5-484e-9ecb-26e22393bc90"},"vehicle_type_id":"4","last_reported":1746742203,"current_range_meters":8400,"station_id":"ce4bhr92rcd13ifvqhrg","pricing_plan_id":"cebpf4jnsgd1na2vs0mg"},{"bike_id":"1f76f24d-1c69-4614-8a3b-481bfabc2bf3","system_id":"levelo_inurba_marseille","lat":43.29532,"lon":5.3854,"is_reserved":false,"is_disabled":false,"rental_uris":{"android":"levelo://app?vid=1f76f24d-1c69-4614-8a3b-481bfabc2bf3","ios":"levelo://app?vid=1f76f24d-1c69-4614-8a3b-481bfabc2bf3"},"vehicle_type_id":"4","last_reported":1746742203,"current_range_meters":8400,"station_id":"ce4bgih2rcd13ifvqba0","pricing_plan_id":"cebpf4jnsgd1na2vs0mg"},{"bike_id":"4fb46a35-9c85-46f4-a6da-ebb1238358ae","system_id":"levelo_inurba_marseille","lat":43.30191,"lon":5.36623,"is_reserved":false,"is_disabled":false,"rental_uris":{"android":"levelo://app?vid=4fb46a35-9c85-46f4-a6da-ebb1238358ae","ios":"levelo://app?vid=4fb46a35-9c85-46f4-a6da-ebb1238358ae"},"vehicle_type_id":"4","last_reported":1746742203,"current_range_meters":8400,"station_id":"ce4bgrh2rcd13ifvqc8g","pricing_plan_id":"cebpf4jnsgd1na2vs0mg"},{"bike_id":"1d8de8cd-13dc-4c82-8486-ad3c0692640a","system_id":"levelo_inurba_marseille","lat":43.32549,"lon":5.41471,"is_reserved":false,"is_disabled":false,"rental_uris":{"android":"levelo://app?vid=1d8de8cd-13dc-4c82-8486-ad3c0692640a","ios":"levelo://app?vid=1d8de8cd-13dc-4c82-8486-ad3c0692640a"},"vehicle_type_id":"4","last_reported":1746742203,"current_range_meters":8400,"station_id":"ce4bhq12rcd13ifvqhhg","pricing_plan_id":"cebpf4jnsgd1na2vs0mg"},{"bike_id":"4ae7a83c-4508-4420-bdfc-fc011c19b67a","system_id":"levelo_inurba_marseille","lat":43.33775,"lon":5.37488,"is_reserved":false,"is_disabled":false,"rental_uris":{"android":"levelo://app?vid=4ae7a83c-4508-4420-bdfc-fc011c19b67a","ios":"levelo://app?vid=4ae7a83c-4508-4420-bdfc-fc011c19b67a"},"vehicle_type_id":"4","last_reported":1746742203,"current_range_meters":8400,"station_id":"","pricing_plan_id":"cebpf4jnsgd1na2vs0mg"},{"bike_id":"1f281ed5-8e05-43ba-b583-cf4e73bd4cb4","system_id":"levelo_inurba_marseille","lat":43.32108,"lon":5.36803,"is_reserved":false,"is_disabled":false,"rental_uris":{"android":"levelo://app?vid=1f281ed5-8e05-43ba-b583-cf4e73bd4cb4","ios":"levelo://app?vid=1f281ed5-8e05-43ba-b583-cf4e73bd4cb4"},"vehicle_type_id":"4","last_reported":1746742203,"current_range_meters":8400,"station_id":"ce4bhrh2rcd13ifvqhug","pricing_plan_id":"cebpf4jnsgd1na2vs0mg"},{"bike_id":"916d67d8-ccd1-41b8-923b-e1ce6259ee20","system_id":"levelo_inurba_marseille","lat":43.30763,"lon":5.37431,"is_reserved":false,"is_disabled":false,"rental_uris":{"android":"levelo://app?vid=916d67d8-ccd1-41b8-923b-e1ce6259ee20","ios":"levelo://app?vid=916d67d8-ccd1-41b8-923b-e1ce6259ee20"},"vehicle_type_id":"4","last_reported":1746742203,"current_range_meters":8400,"station_id":"","pricing_plan_id":"cebpf4jnsgd1na2vs0mg"},{"bike_id":"3ba94c88-f1c9-476d-9854-75a93417b032","system_id":"levelo_inurba_marseille","lat":43.30262,"lon":5.40048,"is_reserved":false,"is_disabled":false,"rental_uris":{"android":"levelo://app?vid=3ba94c88-f1c9-476d-9854-75a93417b032","ios":"levelo://app?vid=3ba94c88-f1c9-476d-9854-75a93417b032"},"vehicle_type_id":"4","last_reported":1746742203,"current_range_meters":8000,"station_id":"ce4bgvh2rcd13ifvqcs0","pricing_plan_id":"cebpf4jnsgd1na2vs0mg"},{"bike_id":"c43ed3ca-340d-43d7-8ad5-7e6b2386ac59","system_id":"levelo_inurba_marseille","lat":43.298959,"lon":5.436644,"is_reserved":false,"is_disabled":false,"rental_uris":{"android":"levelo://app?vid=c43ed3ca-340d-43d7-8ad5-7e6b2386ac59","ios":"levelo://app?vid=c43ed3ca-340d-43d7-8ad5-7e6b2386ac59"},"vehicle_type_id":"4","last_reported":1746742203,"current_range_meters":8400,"station_id":"ce4bhpp2rcd13ifvqhfg","pricing_plan_id":"cebpf4jnsgd1na2vs0mg"},{"bike_id":"00138ee9-dd3d-4b66-85a7-f8ff69dd7e90","system_id":"levelo_inurba_marseille","lat":43.28497,"lon":5.38536,"is_reserved":false,"is_disabled":false,"rental_uris":{"android":"levelo://app?vid=00138ee9-dd3d-4b66-85a7-f8ff69dd7e90","ios":"levelo://app?vid=00138ee9-dd3d-4b66-85a7-f8ff69dd7e90"},"vehicle_type_id":"4","last_reported":1746742203,"current_range_meters":8400,"station_id":"ce4bh8p2rcd13ifvqeb0","pricing_plan_id":"cebpf4jnsgd1na2vs0mg"},{"bike_id":"6d27cd6b-8227-4167-83ab-3a9b25df353a","system_id":"levelo_inurba_marseille","lat":43.309544,"lon":5.390336,"is_reserved":false,"is_disabled":false,"rental_uris":{"android":"levelo://app?vid=6d27cd6b-8227-4167-83ab-3a9b25df353a","ios":"levelo://app?vid=6d27cd6b-8227-4167-83ab-3a9b25df353a"},"vehicle_type_id":"4","last_reported":1746742203,"current_range_meters":8400,"station_id":"ce4bgup2rcd13ifvqco0","pricing_plan_id":"cebpf4jnsgd1na2vs0mg"},{"bike_id":"11f2f90e-07ea-45fc-bea7-59b140809475","system_id":"levelo_inurba_marseille","lat":43.28488,"lon":5.38567,"is_reserved":false,"is_disabled":false,"rental_uris":{"android":"levelo://app?vid=11f2f90e-07ea-45fc-bea7-59b140809475","ios":"levelo://app?vid=11f2f90e-07ea-45fc-bea7-59b140809475"},"vehicle_type_id":"4","last_reported":1746742203,"current_range_meters":8400,"station_id":"ce4bh8p2rcd13ifvqeb0","pricing_plan_id":"cebpf4jnsgd1na2vs0mg"},{"bike_id":"3380be41-5609-4f83-92ea-376897d27f4f","system_id":"levelo_inurba_marseille","lat":43.23187,"lon":5.39979,"is_reserved":false,"is_disabled":false,"rental_uris":{"android":"levelo://app?vid=3380be41-5609-4f83-92ea-376897d27f4f","ios":"levelo://app?vid=3380be41-5609-4f83-92ea-376897d27f4f"},"vehicle_type_id":"4","last_reported":1746742203,"current_range_meters":8400,"station_id":"ce4bhn12rcd13ifvqgqg","pricing_plan_id":"cebpf4jnsgd1na2vs0mg"},{"bike_id":"35f36335-51c7-48bf-a321-437e1aea77da","system_id":"levelo_inurba_marseille","lat":43.32361,"lon":5.36744,"is_reserved":false,"is_disabled":false,"rental_uris":{"android":"levelo://app?vid=35f36335-51c7-48bf-a321-437e1aea77da","ios":"levelo://app?vid=35f36335-51c7-48bf-a321-437e1aea77da"},"vehicle_type_id":"4","last_reported":1746742203,"current_range_meters":8800,"station_id":"ce4bhsh2rcd13ifvqi2g","pricing_plan_id":"cebpf4jnsgd1na2vs0mg"},{"bike_id":"fd991be1-d3a7-48e9-af71-ab1504a07e0f","system_id":"levelo_inurba_marseille","lat":43.23201,"lon":5.39963,"is_reserved":false,"is_disabled":false,"rental_uris":{"android":"levelo://app?vid=fd991be1-d3a7-48e9-af71-ab1504a07e0f","ios":"levelo://app?vid=fd991be1-d3a7-48e9-af71-ab1504a07e0f"},"vehicle_type_id":"4","last_reported":1746742203,"current_range_meters":8800,"station_id":"ce4bhn12rcd13ifvqgqg","pricing_plan_id":"cebpf4jnsgd1na2vs0mg"},{"bike_id":"1cae05bf-d182-443d-b87f-a5960e2c11f1","system_id":"levelo_inurba_marseille","lat":43.28927,"lon":5.36392,"is_reserved":false,"is_disabled":false,"rental_uris":{"android":"levelo://app?vid=1cae05bf-d182-443d-b87f-a5960e2c11f1","ios":"levelo://app?vid=1cae05bf-d182-443d-b87f-a5960e2c11f1"},"vehicle_type_id":"4","last_reported":1746742203,"current_range_meters":8800,"station_id":"ce4bhc92rcd13ifvqetg","pricing_plan_id":"cebpf4jnsgd1na2vs0mg"},{"bike_id":"e9027ed5-cc10-44a7-8b6f-aeacc09540d4","system_id":"levelo_inurba_marseille","lat":43.30895,"lon":5.371909,"is_reserved":false,"is_disabled":false,"rental_uris":{"android":"levelo://app?vid=e9027ed5-cc10-44a7-8b6f-aeacc09540d4","ios":"levelo://app?vid=e9027ed5-cc10-44a7-8b6f-aeacc09540d4"},"vehicle_type_id":"4","last_reported":1746742203,"current_range_meters":9200,"station_id":"ce4bguh2rcd13ifvqckg","pricing_plan_id":"cebpf4jnsgd1na2vs0mg"},{"bike_id":"d1a0602d-cc96-4d4d-8203-9fc9dc600050","system_id":"levelo_inurba_marseille","lat":43.28706,"lon":5.39968,"is_reserved":false,"is_disabled":false,"rental_uris":{"android":"levelo://app?vid=d1a0602d-cc96-4d4d-8203-9fc9dc600050","ios":"levelo://app?vid=d1a0602d-cc96-4d4d-8203-9fc9dc600050"},"vehicle_type_id":"4","last_reported":1746742203,"current_range_meters":9200,"station_id":"ce4bho92rcd13ifvqh3g","pricing_plan_id":"cebpf4jnsgd1na2vs0mg"},{"bike_id":"83df5a3b-bee4-43c2-ab66-5cdd05e18bbc","system_id":"levelo_inurba_marseille","lat":43.29264,"lon":5.36853,"is_reserved":false,"is_disabled":true,"rental_uris":{"android":"levelo://app?vid=83df5a3b-bee4-43c2-ab66-5cdd05e18bbc","ios":"levelo://app?vid=83df5a3b-bee4-43c2-ab66-5cdd05e18bbc"},"vehicle_type_id":"4","last_reported":1746742203,"current_range_meters":9600,"station_id":"ce4bhbp2rcd13ifvqesg","pricing_plan_id":"cebpf4jnsgd1na2vs0mg"},{"bike_id":"35e8d545-8f0a-4b08-81d3-1acb9b10f3ac","system_id":"levelo_inurba_marseille","lat":43.21748,"lon":5.346017,"is_reserved":false,"is_disabled":false,"rental_uris":{"android":"levelo://app?vid=35e8d545-8f0a-4b08-81d3-1acb9b10f3ac","ios":"levelo://app?vid=35e8d545-8f0a-4b08-81d3-1acb9b10f3ac"},"vehicle_type_id":"4","last_reported":1746742203,"current_range_meters":9600,"station_id":"","pricing_plan_id":"cebpf4jnsgd1na2vs0mg"},{"bike_id":"830dcc65-f4a2-400f-97e2-531187504587","system_id":"levelo_inurba_marseille","lat":43.28076,"lon":5.39659,"is_reserved":false,"is_disabled":false,"rental_uris":{"android":"levelo://app?vid=830dcc65-f4a2-400f-97e2-531187504587","ios":"levelo://app?vid=830dcc65-f4a2-400f-97e2-531187504587"},"vehicle_type_id":"4","last_reported":1746742203,"current_range_meters":9600,"station_id":"ce4bho12rcd13ifvqh2g","pricing_plan_id":"cebpf4jnsgd1na2vs0mg"},{"bike_id":"e52bfd82-0d4c-4ec9-a63b-aa566ebda16e","system_id":"levelo_inurba_marseille","lat":43.31807,"lon":5.3684,"is_reserved":false,"is_disabled":false,"rental_uris":{"android":"levelo://app?vid=e52bfd82-0d4c-4ec9-a63b-aa566ebda16e","ios":"levelo://app?vid=e52bfd82-0d4c-4ec9-a63b-aa566ebda16e"},"vehicle_type_id":"4","last_reported":1746742203,"current_range_meters":10000,"station_id":"","pricing_plan_id":"cebpf4jnsgd1na2vs0mg"},{"bike_id":"d406817b-9f7c-45f8-9507-864a72c19634","system_id":"levelo_inurba_marseille","lat":43.24048,"lon":5.37713,"is_reserved":false,"is_disabled":false,"rental_uris":{"android":"levelo://app?vid=d406817b-9f7c-45f8-9507-864a72c19634","ios":"levelo://app?vid=d406817b-9f7c-45f8-9507-864a72c19634"},"vehicle_type_id":"4","last_reported":1746742203,"current_range_meters":10000,"station_id":"ce4bhnp2rcd13ifvqgvg","pricing_plan_id":"cebpf4jnsgd1na2vs0mg"},{"bike_id":"0c15ccb4-dd7c-4172-8764-a05afe9d1a34","system_id":"levelo_inurba_marseille","lat":43.28944,"lon":5.36624,"is_reserved":false,"is_disabled":true,"rental_uris":{"android":"levelo://app?vid=0c15ccb4-dd7c-4172-8764-a05afe9d1a34","ios":"levelo://app?vid=0c15ccb4-dd7c-4172-8764-a05afe9d1a34"},"vehicle_type_id":"4","last_reported":1746742203,"current_range_meters":10000,"station_id":"ce4bhap2rcd13ifvqek0","pricing_plan_id":"cebpf4jnsgd1na2vs0mg"},{"bike_id":"8733c2f4-e5d8-4e79-ac00-d288c520d8ce","system_id":"levelo_inurba_marseille","lat":43.31715,"lon":5.42394,"is_reserved":false,"is_disabled":false,"rental_uris":{"android":"levelo://app?vid=8733c2f4-e5d8-4e79-ac00-d288c520d8ce","ios":"levelo://app?vid=8733c2f4-e5d8-4e79-ac00-d288c520d8ce"},"vehicle_type_id":"4","last_reported":1746742203,"current_range_meters":10000,"station_id":"ce4bhp92rcd13ifvqhbg","pricing_plan_id":"cebpf4jnsgd1na2vs0mg"},{"bike_id":"809c8673-c032-46b9-aa07-62c38e26d44e","system_id":"levelo_inurba_marseille","lat":43.25048,"lon":5.38799,"is_reserved":false,"is_disabled":false,"rental_uris":{"android":"levelo://app?vid=809c8673-c032-46b9-aa07-62c38e26d44e","ios":"levelo://app?vid=809c8673-c032-46b9-aa07-62c38e26d44e"},"vehicle_type_id":"4","last_reported":1746742203,"current_range_meters":10800,"station_id":"","pricing_plan_id":"cebpf4jnsgd1na2vs0mg"},{"bike_id":"f06404ec-9adf-42eb-b59e-fe87e804efff","system_id":"levelo_inurba_marseille","lat":43.28714,"lon":5.399787,"is_reserved":false,"is_disabled":false,"rental_uris":{"android":"levelo://app?vid=f06404ec-9adf-42eb-b59e-fe87e804efff","ios":"levelo://app?vid=f06404ec-9adf-42eb-b59e-fe87e804efff"},"vehicle_type_id":"4","last_reported":1746742203,"current_range_meters":10800,"station_id":"ce4bho92rcd13ifvqh3g","pricing_plan_id":"cebpf4jnsgd1na2vs0mg"},{"bike_id":"6971f759-8594-489e-a8f6-9153c9a9c438","system_id":"levelo_inurba_marseille","lat":43.276914,"lon":5.419605,"is_reserved":false,"is_disabled":false,"rental_uris":{"android":"levelo://app?vid=6971f759-8594-489e-a8f6-9153c9a9c438","ios":"levelo://app?vid=6971f759-8594-489e-a8f6-9153c9a9c438"},"vehicle_type_id":"4","last_reported":1746742203,"current_range_meters":10800,"station_id":"","pricing_plan_id":"cebpf4jnsgd1na2vs0mg"},{"bike_id":"de013846-7e78-425a-b5a3-0246b87234d1","system_id":"levelo_inurba_marseille","lat":43.27072,"lon":5.40296,"is_reserved":false,"is_disabled":false,"rental_uris":{"android":"levelo://app?vid=de013846-7e78-425a-b5a3-0246b87234d1","ios":"levelo://app?vid=de013846-7e78-425a-b5a3-0246b87234d1"},"vehicle_type_id":"4","last_reported":1746742203,"current_range_meters":10800,"station_id":"ce4bhk92rcd13ifvqgc0","pricing_plan_id":"cebpf4jnsgd1na2vs0mg"},{"bike_id":"809d66ff-cc7d-4e68-8342-4ba7848a06a4","system_id":"levelo_inurba_marseille","lat":43.29579,"lon":5.38716,"is_reserved":false,"is_disabled":false,"rental_uris":{"android":"levelo://app?vid=809d66ff-cc7d-4e68-8342-4ba7848a06a4","ios":"levelo://app?vid=809d66ff-cc7d-4e68-8342-4ba7848a06a4"},"vehicle_type_id":"4","last_reported":1746742203,"current_range_meters":11200,"station_id":"","pricing_plan_id":"cebpf4jnsgd1na2vs0mg"},{"bike_id":"caf9033d-5f00-49c3-b1ee-1328b62008dc","system_id":"levelo_inurba_marseille","lat":43.33589,"lon":5.42807,"is_reserved":false,"is_disabled":false,"rental_uris":{"android":"levelo://app?vid=caf9033d-5f00-49c3-b1ee-1328b62008dc","ios":"levelo://app?vid=caf9033d-5f00-49c3-b1ee-1328b62008dc"},"vehicle_type_id":"4","last_reported":1746742203,"current_range_meters":11200,"station_id":"","pricing_plan_id":"cebpf4jnsgd1na2vs0mg"},{"bike_id":"b31a37d4-32bc-4201-9546-3b8be6093d7d","system_id":"levelo_inurba_marseille","lat":43.323611,"lon":5.367475,"is_reserved":false,"is_disabled":false,"rental_uris":{"android":"levelo://app?vid=b31a37d4-32bc-4201-9546-3b8be6093d7d","ios":"levelo://app?vid=b31a37d4-32bc-4201-9546-3b8be6093d7d"},"vehicle_type_id":"4","last_reported":1746742203,"current_range_meters":11200,"station_id":"ce4bhsh2rcd13ifvqi2g","pricing_plan_id":"cebpf4jnsgd1na2vs0mg"},{"bike_id":"53411658-4968-408d-a226-9fb4098e31bb","system_id":"levelo_inurba_marseille","lat":43.28936,"lon":5.36635,"is_reserved":false,"is_disabled":false,"rental_uris":{"android":"levelo://app?vid=53411658-4968-408d-a226-9fb4098e31bb","ios":"levelo://app?vid=53411658-4968-408d-a226-9fb4098e31bb"},"vehicle_type_id":"4","last_reported":1746742203,"current_range_meters":11600,"station_id":"ce4bhap2rcd13ifvqek0","pricing_plan_id":"cebpf4jnsgd1na2vs0mg"},{"bike_id":"bf2bbac1-597b-4c47-abea-a0395d249249","system_id":"levelo_inurba_marseille","lat":43.24808,"lon":5.37456,"is_reserved":false,"is_disabled":false,"rental_uris":{"android":"levelo://app?vid=bf2bbac1-597b-4c47-abea-a0395d249249","ios":"levelo://app?vid=bf2bbac1-597b-4c47-abea-a0395d249249"},"vehicle_type_id":"4","last_reported":1746742203,"current_range_meters":11600,"station_id":"ce4bhgh2rcd13ifvqfb0","pricing_plan_id":"cebpf4jnsgd1na2vs0mg"},{"bike_id":"066ff59d-b598-4f12-8e96-ed4ccad0c618","system_id":"levelo_inurba_marseille","lat":43.28937,"lon":5.36409,"is_reserved":false,"is_disabled":false,"rental_uris":{"android":"levelo://app?vid=066ff59d-b598-4f12-8e96-ed4ccad0c618","ios":"levelo://app?vid=066ff59d-b598-4f12-8e96-ed4ccad0c618"},"vehicle_type_id":"4","last_reported":1746742203,"current_range_meters":11600,"station_id":"ce4bhc92rcd13ifvqetg","pricing_plan_id":"cebpf4jnsgd1na2vs0mg"},{"bike_id":"4aa7537b-ce14-4a7d-81c1-205b458640d9","system_id":"levelo_inurba_marseille","lat":43.31187,"lon":5.41606,"is_reserved":false,"is_disabled":false,"rental_uris":{"android":"levelo://app?vid=4aa7537b-ce14-4a7d-81c1-205b458640d9","ios":"levelo://app?vid=4aa7537b-ce14-4a7d-81c1-205b458640d9"},"vehicle_type_id":"4","last_reported":1746742203,"current_range_meters":11600,"station_id":"","pricing_plan_id":"cebpf4jnsgd1na2vs0mg"},{"bike_id":"ff47c92b-db73-42bd-99d4-eeb774bdf3be","system_id":"levelo_inurba_marseille","lat":43.310751,"lon":5.383512,"is_reserved":false,"is_disabled":true,"rental_uris":{"android":"levelo://app?vid=ff47c92b-db73-42bd-99d4-eeb774bdf3be","ios":"levelo://app?vid=ff47c92b-db73-42bd-99d4-eeb774bdf3be"},"vehicle_type_id":"4","last_reported":1746742203,"current_range_meters":11600,"station_id":"ce4bgv92rcd13ifvqcr0","pricing_plan_id":"cebpf4jnsgd1na2vs0mg"},{"bike_id":"caccb556-2ad0-45b8-84b8-819024dd44e6","system_id":"levelo_inurba_marseille","lat":43.29812,"lon":5.36772,"is_reserved":false,"is_disabled":false,"rental_uris":{"android":"levelo://app?vid=caccb556-2ad0-45b8-84b8-819024dd44e6","ios":"levelo://app?vid=caccb556-2ad0-45b8-84b8-819024dd44e6"},"vehicle_type_id":"4","last_reported":1746742203,"current_range_meters":12000,"station_id":"","pricing_plan_id":"cebpf4jnsgd1na2vs0mg"},{"bike_id":"dbfc55be-6ebe-436f-baee-d77aec7f0156","system_id":"levelo_inurba_marseille","lat":43.279706,"lon":5.387252,"is_reserved":false,"is_disabled":false,"rental_uris":{"android":"levelo://app?vid=dbfc55be-6ebe-436f-baee-d77aec7f0156","ios":"levelo://app?vid=dbfc55be-6ebe-436f-baee-d77aec7f0156"},"vehicle_type_id":"4","last_reported":1746742203,"current_range_meters":12400,"station_id":"ce4bhg12rcd13ifvqf80","pricing_plan_id":"cebpf4jnsgd1na2vs0mg"},{"bike_id":"47bb6f34-9c89-4a6c-b2ec-6a2d3e007f08","system_id":"levelo_inurba_marseille","lat":43.25723,"lon":5.41103,"is_reserved":false,"is_disabled":false,"rental_uris":{"android":"levelo://app?vid=47bb6f34-9c89-4a6c-b2ec-6a2d3e007f08","ios":"levelo://app?vid=47bb6f34-9c89-4a6c-b2ec-6a2d3e007f08"},"vehicle_type_id":"4","last_reported":1746742203,"current_range_meters":12000,"station_id":"ce4bhkp2rcd13ifvqgd0","pricing_plan_id":"cebpf4jnsgd1na2vs0mg"},{"bike_id":"7b83db83-208d-4507-b1b5-39b383071c4c","system_id":"levelo_inurba_marseille","lat":43.287142,"lon":5.399837,"is_reserved":false,"is_disabled":false,"rental_uris":{"android":"levelo://app?vid=7b83db83-208d-4507-b1b5-39b383071c4c","ios":"levelo://app?vid=7b83db83-208d-4507-b1b5-39b383071c4c"},"vehicle_type_id":"4","last_reported":1746742203,"current_range_meters":12000,"station_id":"ce4bho92rcd13ifvqh3g","pricing_plan_id":"cebpf4jnsgd1na2vs0mg"},{"bike_id":"e2ea8909-e8b5-4408-967d-39cf7d3f0577","system_id":"levelo_inurba_marseille","lat":43.24818,"lon":5.37438,"is_reserved":false,"is_disabled":false,"rental_uris":{"android":"levelo://app?vid=e2ea8909-e8b5-4408-967d-39cf7d3f0577","ios":"levelo://app?vid=e2ea8909-e8b5-4408-967d-39cf7d3f0577"},"vehicle_type_id":"4","last_reported":1746742203,"current_range_meters":12000,"station_id":"ce4bhgh2rcd13ifvqfb0","pricing_plan_id":"cebpf4jnsgd1na2vs0mg"},{"bike_id":"670b3881-33f6-40e8-b842-7eaf30c6924b","system_id":"levelo_inurba_marseille","lat":43.28434,"lon":5.39178,"is_reserved":false,"is_disabled":false,"rental_uris":{"android":"levelo://app?vid=670b3881-33f6-40e8-b842-7eaf30c6924b","ios":"levelo://app?vid=670b3881-33f6-40e8-b842-7eaf30c6924b"},"vehicle_type_id":"4","last_reported":1746742203,"current_range_meters":12000,"station_id":"ce4bhoh2rcd13ifvqh5g","pricing_plan_id":"cebpf4jnsgd1na2vs0mg"},{"bike_id":"a2309e80-b2ba-42c9-9c60-147f0babf9f9","system_id":"levelo_inurba_marseille","lat":43.30825,"lon":5.37008,"is_reserved":false,"is_disabled":false,"rental_uris":{"android":"levelo://app?vid=a2309e80-b2ba-42c9-9c60-147f0babf9f9","ios":"levelo://app?vid=a2309e80-b2ba-42c9-9c60-147f0babf9f9"},"vehicle_type_id":"4","last_reported":1746742203,"current_range_meters":12400,"station_id":"","pricing_plan_id":"cebpf4jnsgd1na2vs0mg"},{"bike_id":"0ac1a0c7-a3ec-4104-b49e-7c4b39c5ee28","system_id":"levelo_inurba_marseille","lat":43.29204,"lon":5.3932,"is_reserved":false,"is_disabled":false,"rental_uris":{"android":"levelo://app?vid=0ac1a0c7-a3ec-4104-b49e-7c4b39c5ee28","ios":"levelo://app?vid=0ac1a0c7-a3ec-4104-b49e-7c4b39c5ee28"},"vehicle_type_id":"4","last_reported":1746742203,"current_range_meters":12400,"station_id":"ce4bh192rcd13ifvqdd0","pricing_plan_id":"cebpf4jnsgd1na2vs0mg"},{"bike_id":"89f953df-2061-408d-8f0d-6a2938e5443a","system_id":"levelo_inurba_marseille","lat":43.23652,"lon":5.40352,"is_reserved":false,"is_disabled":false,"rental_uris":{"android":"levelo://app?vid=89f953df-2061-408d-8f0d-6a2938e5443a","ios":"levelo://app?vid=89f953df-2061-408d-8f0d-6a2938e5443a"},"vehicle_type_id":"4","last_reported":1746742203,"current_range_meters":12400,"station_id":"","pricing_plan_id":"cebpf4jnsgd1na2vs0mg"},{"bike_id":"f481b058-0ea9-4270-9973-b9ea190342b7","system_id":"levelo_inurba_marseille","lat":43.28716,"lon":5.37933,"is_reserved":false,"is_disabled":false,"rental_uris":{"android":"levelo://app?vid=f481b058-0ea9-4270-9973-b9ea190342b7","ios":"levelo://app?vid=f481b058-0ea9-4270-9973-b9ea190342b7"},"vehicle_type_id":"4","last_reported":1746742203,"current_range_meters":12800,"station_id":"ce4bh9p2rcd13ifvqec0","pricing_plan_id":"cebpf4jnsgd1na2vs0mg"},{"bike_id":"87aac70f-b680-412a-822a-2069da59c912","system_id":"levelo_inurba_marseille","lat":43.2836,"lon":5.38629,"is_reserved":false,"is_disabled":false,"rental_uris":{"android":"levelo://app?vid=87aac70f-b680-412a-822a-2069da59c912","ios":"levelo://app?vid=87aac70f-b680-412a-822a-2069da59c912"},"vehicle_type_id":"4","last_reported":1746742203,"current_range_meters":12800,"station_id":"ce4bh492rcd13ifvqdvg","pricing_plan_id":"cebpf4jnsgd1na2vs0mg"},{"bike_id":"f72abe5a-72e2-4b02-9a78-329b03b29a0e","system_id":"levelo_inurba_marseille","lat":43.28683,"lon":5.38665,"is_reserved":false,"is_disabled":false,"rental_uris":{"android":"levelo://app?vid=f72abe5a-72e2-4b02-9a78-329b03b29a0e","ios":"levelo://app?vid=f72abe5a-72e2-4b02-9a78-329b03b29a0e"},"vehicle_type_id":"4","last_reported":1746742203,"current_range_meters":12800,"station_id":"ce4bh492rcd13ifvqdug","pricing_plan_id":"cebpf4jnsgd1na2vs0mg"},{"bike_id":"6fe4edd0-5f22-45d0-9b9f-de7ebc144107","system_id":"levelo_inurba_marseille","lat":43.28039,"lon":5.3693,"is_reserved":false,"is_disabled":true,"rental_uris":{"android":"levelo://app?vid=6fe4edd0-5f22-45d0-9b9f-de7ebc144107","ios":"levelo://app?vid=6fe4edd0-5f22-45d0-9b9f-de7ebc144107"},"vehicle_type_id":"4","last_reported":1746742203,"current_range_meters":12800,"station_id":"ce4bha12rcd13ifvqef0","pricing_plan_id":"cebpf4jnsgd1na2vs0mg"},{"bike_id":"bfed9438-7e8f-4f83-941f-bf3236fec546","system_id":"levelo_inurba_marseille","lat":43.24801,"lon":5.37446,"is_reserved":false,"is_disabled":false,"rental_uris":{"android":"levelo://app?vid=bfed9438-7e8f-4f83-941f-bf3236fec546","ios":"levelo://app?vid=bfed9438-7e8f-4f83-941f-bf3236fec546"},"vehicle_type_id":"4","last_reported":1746742203,"current_range_meters":12800,"station_id":"ce4bhgh2rcd13ifvqfb0","pricing_plan_id":"cebpf4jnsgd1na2vs0mg"},{"bike_id":"3487fee4-33a2-4ced-9359-d2ed3970e4f0","system_id":"levelo_inurba_marseille","lat":43.24547,"lon":5.39523,"is_reserved":false,"is_disabled":false,"rental_uris":{"android":"levelo://app?vid=3487fee4-33a2-4ced-9359-d2ed3970e4f0","ios":"levelo://app?vid=3487fee4-33a2-4ced-9359-d2ed3970e4f0"},"vehicle_type_id":"4","last_reported":1746742203,"current_range_meters":12800,"station_id":"ce4bhlp2rcd13ifvqgjg","pricing_plan_id":"cebpf4jnsgd1na2vs0mg"},{"bike_id":"ded8612e-711d-40ca-9ab1-869f52835937","system_id":"levelo_inurba_marseille","lat":43.329162,"lon":5.38041,"is_reserved":false,"is_disabled":false,"rental_uris":{"android":"levelo://app?vid=ded8612e-711d-40ca-9ab1-869f52835937","ios":"levelo://app?vid=ded8612e-711d-40ca-9ab1-869f52835937"},"vehicle_type_id":"4","last_reported":1746742203,"current_range_meters":13600,"station_id":"","pricing_plan_id":"cebpf4jnsgd1na2vs0mg"},{"bike_id":"8b69874d-5787-4ae3-ac3f-877b0cc890a8","system_id":"levelo_inurba_marseille","lat":43.26956,"lon":5.38633,"is_reserved":false,"is_disabled":false,"rental_uris":{"android":"levelo://app?vid=8b69874d-5787-4ae3-ac3f-877b0cc890a8","ios":"levelo://app?vid=8b69874d-5787-4ae3-ac3f-877b0cc890a8"},"vehicle_type_id":"4","last_reported":1746742203,"current_range_meters":13600,"station_id":"ce4bhh92rcd13ifvqfh0","pricing_plan_id":"cebpf4jnsgd1na2vs0mg"},{"bike_id":"8c75c71a-bb20-452d-9c08-57b1698e5513","system_id":"levelo_inurba_marseille","lat":43.25124,"lon":5.40321,"is_reserved":false,"is_disabled":false,"rental_uris":{"android":"levelo://app?vid=8c75c71a-bb20-452d-9c08-57b1698e5513","ios":"levelo://app?vid=8c75c71a-bb20-452d-9c08-57b1698e5513"},"vehicle_type_id":"4","last_reported":1746742203,"current_range_meters":12800,"station_id":"ce4bhlh2rcd13ifvqgig","pricing_plan_id":"cebpf4jnsgd1na2vs0mg"},{"bike_id":"c42d0137-01db-4e02-8a6e-f9af61ad1319","system_id":"levelo_inurba_marseille","lat":43.314879,"lon":5.373046,"is_reserved":false,"is_disabled":false,"rental_uris":{"android":"levelo://app?vid=c42d0137-01db-4e02-8a6e-f9af61ad1319","ios":"levelo://app?vid=c42d0137-01db-4e02-8a6e-f9af61ad1319"},"vehicle_type_id":"4","last_reported":1746742203,"current_range_meters":13600,"station_id":"ce4bgt12rcd13ifvqcd0","pricing_plan_id":"cebpf4jnsgd1na2vs0mg"},{"bike_id":"93104df9-925e-4304-a01e-4f8118405009","system_id":"levelo_inurba_marseille","lat":43.28713,"lon":5.39991,"is_reserved":false,"is_disabled":false,"rental_uris":{"android":"levelo://app?vid=93104df9-925e-4304-a01e-4f8118405009","ios":"levelo://app?vid=93104df9-925e-4304-a01e-4f8118405009"},"vehicle_type_id":"4","last_reported":1746742203,"current_range_meters":13600,"station_id":"ce4bho92rcd13ifvqh3g","pricing_plan_id":"cebpf4jnsgd1na2vs0mg"},{"bike_id":"22e98b9e-9648-4ccb-ab46-7f92d2da85bd","system_id":"levelo_inurba_marseille","lat":43.30804,"lon":5.381484,"is_reserved":false,"is_disabled":false,"rental_uris":{"android":"levelo://app?vid=22e98b9e-9648-4ccb-ab46-7f92d2da85bd","ios":"levelo://app?vid=22e98b9e-9648-4ccb-ab46-7f92d2da85bd"},"vehicle_type_id":"4","last_reported":1746742203,"current_range_meters":14000,"station_id":"ce4bgt12rcd13ifvqce0","pricing_plan_id":"cebpf4jnsgd1na2vs0mg"},{"bike_id":"0477dad0-94d6-4f77-9e04-54115d8ec573","system_id":"levelo_inurba_marseille","lat":43.3032,"lon":5.4044,"is_reserved":false,"is_disabled":false,"rental_uris":{"android":"levelo://app?vid=0477dad0-94d6-4f77-9e04-54115d8ec573","ios":"levelo://app?vid=0477dad0-94d6-4f77-9e04-54115d8ec573"},"vehicle_type_id":"4","last_reported":1746742203,"current_range_meters":14000,"station_id":"ce4bh012rcd13ifvqd10","pricing_plan_id":"cebpf4jnsgd1na2vs0mg"},{"bike_id":"09a64beb-1edf-4e93-b9c2-f9a3eb1e91c3","system_id":"levelo_inurba_marseille","lat":43.286716,"lon":5.386683,"is_reserved":false,"is_disabled":false,"rental_uris":{"android":"levelo://app?vid=09a64beb-1edf-4e93-b9c2-f9a3eb1e91c3","ios":"levelo://app?vid=09a64beb-1edf-4e93-b9c2-f9a3eb1e91c3"},"vehicle_type_id":"4","last_reported":1746742203,"current_range_meters":14000,"station_id":"ce4bh492rcd13ifvqdug","pricing_plan_id":"cebpf4jnsgd1na2vs0mg"},{"bike_id":"a092836e-e546-48ba-89e4-3a0a92e1df9f","system_id":"levelo_inurba_marseille","lat":43.30136,"lon":5.39844,"is_reserved":false,"is_disabled":false,"rental_uris":{"android":"levelo://app?vid=a092836e-e546-48ba-89e4-3a0a92e1df9f","ios":"levelo://app?vid=a092836e-e546-48ba-89e4-3a0a92e1df9f"},"vehicle_type_id":"4","last_reported":1746742203,"current_range_meters":14000,"station_id":"ce4bh0h2rcd13ifvqd40","pricing_plan_id":"cebpf4jnsgd1na2vs0mg"},{"bike_id":"cacec4d0-2192-4d88-9d0c-fda2092e1840","system_id":"levelo_inurba_marseille","lat":43.28398,"lon":5.37523,"is_reserved":false,"is_disabled":true,"rental_uris":{"android":"levelo://app?vid=cacec4d0-2192-4d88-9d0c-fda2092e1840","ios":"levelo://app?vid=cacec4d0-2192-4d88-9d0c-fda2092e1840"},"vehicle_type_id":"4","last_reported":1746742203,"current_range_meters":14000,"station_id":"ce4bh412rcd13ifvqds0","pricing_plan_id":"cebpf4jnsgd1na2vs0mg"},{"bike_id":"5ae8e1fb-e671-4eb5-9718-675f35263f3a","system_id":"levelo_inurba_marseille","lat":43.28934,"lon":5.39628,"is_reserved":false,"is_disabled":false,"rental_uris":{"android":"levelo://app?vid=5ae8e1fb-e671-4eb5-9718-675f35263f3a","ios":"levelo://app?vid=5ae8e1fb-e671-4eb5-9718-675f35263f3a"},"vehicle_type_id":"4","last_reported":1746742203,"current_range_meters":14000,"station_id":"ce4bh3h2rcd13ifvqdn0","pricing_plan_id":"cebpf4jnsgd1na2vs0mg"},{"bike_id":"049dee66-f320-4a39-90d5-cac240a0fc35","system_id":"levelo_inurba_marseille","lat":43.27074,"lon":5.42275,"is_reserved":false,"is_disabled":false,"rental_uris":{"android":"levelo://app?vid=049dee66-f320-4a39-90d5-cac240a0fc35","ios":"levelo://app?vid=049dee66-f320-4a39-90d5-cac240a0fc35"},"vehicle_type_id":"4","last_reported":1746742203,"current_range_meters":14000,"station_id":"ce4bhk92rcd13ifvqgb0","pricing_plan_id":"cebpf4jnsgd1na2vs0mg"},{"bike_id":"057fc800-9f9b-44e6-8681-ad898305eaf8","system_id":"levelo_inurba_marseille","lat":43.32008,"lon":5.38152,"is_reserved":false,"is_disabled":false,"rental_uris":{"android":"levelo://app?vid=057fc800-9f9b-44e6-8681-ad898305eaf8","ios":"levelo://app?vid=057fc800-9f9b-44e6-8681-ad898305eaf8"},"vehicle_type_id":"4","last_reported":1746742203,"current_range_meters":14000,"station_id":"ce4bhr12rcd13ifvqhpg","pricing_plan_id":"cebpf4jnsgd1na2vs0mg"},{"bike_id":"772e63dd-73ed-4ad8-bbc6-f53cc71bfe9a","system_id":"levelo_inurba_marseille","lat":43.27945,"lon":5.38703,"is_reserved":false,"is_disabled":false,"rental_uris":{"android":"levelo://app?vid=772e63dd-73ed-4ad8-bbc6-f53cc71bfe9a","ios":"levelo://app?vid=772e63dd-73ed-4ad8-bbc6-f53cc71bfe9a"},"vehicle_type_id":"4","last_reported":1746742203,"current_range_meters":14000,"station_id":"ce4bhg12rcd13ifvqf80","pricing_plan_id":"cebpf4jnsgd1na2vs0mg"},{"bike_id":"b7e1fe51-1b5f-4a00-9987-135fe523c96e","system_id":"levelo_inurba_marseille","lat":43.30928,"lon":5.40133,"is_reserved":false,"is_disabled":false,"rental_uris":{"android":"levelo://app?vid=b7e1fe51-1b5f-4a00-9987-135fe523c96e","ios":"levelo://app?vid=b7e1fe51-1b5f-4a00-9987-135fe523c96e"},"vehicle_type_id":"4","last_reported":1746742203,"current_range_meters":14400,"station_id":"ce4bgvp2rcd13ifvqct0","pricing_plan_id":"cebpf4jnsgd1na2vs0mg"},{"bike_id":"9962b8cb-c94d-4a94-804b-a946a3138815","system_id":"levelo_inurba_marseille","lat":43.31295,"lon":5.37316,"is_reserved":false,"is_disabled":false,"rental_uris":{"android":"levelo://app?vid=9962b8cb-c94d-4a94-804b-a946a3138815","ios":"levelo://app?vid=9962b8cb-c94d-4a94-804b-a946a3138815"},"vehicle_type_id":"4","last_reported":1746742203,"current_range_meters":14400,"station_id":"","pricing_plan_id":"cebpf4jnsgd1na2vs0mg"},{"bike_id":"5aaa5d52-7e74-432e-ad89-4c70047ce897","system_id":"levelo_inurba_marseille","lat":43.23192,"lon":5.39999,"is_reserved":false,"is_disabled":false,"rental_uris":{"android":"levelo://app?vid=5aaa5d52-7e74-432e-ad89-4c70047ce897","ios":"levelo://app?vid=5aaa5d52-7e74-432e-ad89-4c70047ce897"},"vehicle_type_id":"4","last_reported":1746742203,"current_range_meters":14400,"station_id":"ce4bhn12rcd13ifvqgqg","pricing_plan_id":"cebpf4jnsgd1na2vs0mg"},{"bike_id":"772b95b5-dfce-41b2-965c-7b8c18f55975","system_id":"levelo_inurba_marseille","lat":43.28702,"lon":5.37384,"is_reserved":false,"is_disabled":false,"rental_uris":{"android":"levelo://app?vid=772b95b5-dfce-41b2-965c-7b8c18f55975","ios":"levelo://app?vid=772b95b5-dfce-41b2-965c-7b8c18f55975"},"vehicle_type_id":"4","last_reported":1746742203,"current_range_meters":14400,"station_id":"ce4bh3p2rcd13ifvqdq0","pricing_plan_id":"cebpf4jnsgd1na2vs0mg"},{"bike_id":"b0c54ead-2c9a-4d45-904a-5e1b9abf7338","system_id":"levelo_inurba_marseille","lat":43.27884,"lon":5.44046,"is_reserved":false,"is_disabled":false,"rental_uris":{"android":"levelo://app?vid=b0c54ead-2c9a-4d45-904a-5e1b9abf7338","ios":"levelo://app?vid=b0c54ead-2c9a-4d45-904a-5e1b9abf7338"},"vehicle_type_id":"4","last_reported":1746742203,"current_range_meters":14400,"station_id":"","pricing_plan_id":"cebpf4jnsgd1na2vs0mg"},{"bike_id":"0f6d8315-f668-403d-a54c-7ca5961a7dc7","system_id":"levelo_inurba_marseille","lat":43.3032,"lon":5.40446,"is_reserved":false,"is_disabled":false,"rental_uris":{"android":"levelo://app?vid=0f6d8315-f668-403d-a54c-7ca5961a7dc7","ios":"levelo://app?vid=0f6d8315-f668-403d-a54c-7ca5961a7dc7"},"vehicle_type_id":"4","last_reported":1746742203,"current_range_meters":14400,"station_id":"ce4bh012rcd13ifvqd10","pricing_plan_id":"cebpf4jnsgd1na2vs0mg"},{"bike_id":"cc2b3a34-dcee-4140-98b5-6858e6510f6c","system_id":"levelo_inurba_marseille","lat":43.31483,"lon":5.3731,"is_reserved":false,"is_disabled":false,"rental_uris":{"android":"levelo://app?vid=cc2b3a34-dcee-4140-98b5-6858e6510f6c","ios":"levelo://app?vid=cc2b3a34-dcee-4140-98b5-6858e6510f6c"},"vehicle_type_id":"4","last_reported":1746742203,"current_range_meters":14800,"station_id":"ce4bgt12rcd13ifvqcd0","pricing_plan_id":"cebpf4jnsgd1na2vs0mg"},{"bike_id":"02e8c27a-9c96-440d-8723-b05690ae1f3d","system_id":"levelo_inurba_marseille","lat":43.29276,"lon":5.40111,"is_reserved":false,"is_disabled":false,"rental_uris":{"android":"levelo://app?vid=02e8c27a-9c96-440d-8723-b05690ae1f3d","ios":"levelo://app?vid=02e8c27a-9c96-440d-8723-b05690ae1f3d"},"vehicle_type_id":"4","last_reported":1746742203,"current_range_meters":15200,"station_id":"ce4bh312rcd13ifvqdk0","pricing_plan_id":"cebpf4jnsgd1na2vs0mg"},{"bike_id":"cfb5f8ab-2814-4f4d-9d75-d10095b1f175","system_id":"levelo_inurba_marseille","lat":43.25939,"lon":5.40903,"is_reserved":false,"is_disabled":false,"rental_uris":{"android":"levelo://app?vid=cfb5f8ab-2814-4f4d-9d75-d10095b1f175","ios":"levelo://app?vid=cfb5f8ab-2814-4f4d-9d75-d10095b1f175"},"vehicle_type_id":"4","last_reported":1746742203,"current_range_meters":15200,"station_id":"ce4bhm92rcd13ifvqglg","pricing_plan_id":"cebpf4jnsgd1na2vs0mg"},{"bike_id":"3bc62452-9479-4623-8516-11ac9306baf1","system_id":"levelo_inurba_marseille","lat":43.28569,"lon":5.39491,"is_reserved":false,"is_disabled":false,"rental_uris":{"android":"levelo://app?vid=3bc62452-9479-4623-8516-11ac9306baf1","ios":"levelo://app?vid=3bc62452-9479-4623-8516-11ac9306baf1"},"vehicle_type_id":"4","last_reported":1746742203,"current_range_meters":15200,"station_id":"ce4bh292rcd13ifvqdg0","pricing_plan_id":"cebpf4jnsgd1na2vs0mg"},{"bike_id":"8003133d-4f16-480b-a00f-f8b759ba4ae8","system_id":"levelo_inurba_marseille","lat":43.27564,"lon":5.38406,"is_reserved":false,"is_disabled":false,"rental_uris":{"android":"levelo://app?vid=8003133d-4f16-480b-a00f-f8b759ba4ae8","ios":"levelo://app?vid=8003133d-4f16-480b-a00f-f8b759ba4ae8"},"vehicle_type_id":"4","last_reported":1746742203,"current_range_meters":16000,"station_id":"ce4bhh92rcd13ifvqfi0","pricing_plan_id":"cebpf4jnsgd1na2vs0mg"},{"bike_id":"0b8a58cc-84ce-4893-ace4-6001974b3519","system_id":"levelo_inurba_marseille","lat":43.3045,"lon":5.38913,"is_reserved":false,"is_disabled":true,"rental_uris":{"android":"levelo://app?vid=0b8a58cc-84ce-4893-ace4-6001974b3519","ios":"levelo://app?vid=0b8a58cc-84ce-4893-ace4-6001974b3519"},"vehicle_type_id":"4","last_reported":1746742203,"current_range_meters":16000,"station_id":"ce4bgk12rcd13ifvqbi0","pricing_plan_id":"cebpf4jnsgd1na2vs0mg"},{"bike_id":"e6282093-23fb-41a9-859d-c0d9ad966535","system_id":"levelo_inurba_marseille","lat":43.315753,"lon":5.382543,"is_reserved":false,"is_disabled":false,"rental_uris":{"android":"levelo://app?vid=e6282093-23fb-41a9-859d-c0d9ad966535","ios":"levelo://app?vid=e6282093-23fb-41a9-859d-c0d9ad966535"},"vehicle_type_id":"4","last_reported":1746742203,"current_range_meters":16000,"station_id":"","pricing_plan_id":"cebpf4jnsgd1na2vs0mg"},{"bike_id":"40227de1-6c4c-4b18-a9d9-4b06dd6eb10a","system_id":"levelo_inurba_marseille","lat":43.28363,"lon":5.38624,"is_reserved":false,"is_disabled":false,"rental_uris":{"android":"levelo://app?vid=40227de1-6c4c-4b18-a9d9-4b06dd6eb10a","ios":"levelo://app?vid=40227de1-6c4c-4b18-a9d9-4b06dd6eb10a"},"vehicle_type_id":"4","last_reported":1746742203,"current_range_meters":16000,"station_id":"ce4bh492rcd13ifvqdvg","pricing_plan_id":"cebpf4jnsgd1na2vs0mg"},{"bike_id":"3032996a-f32c-4e36-8739-39873a15af8d","system_id":"levelo_inurba_marseille","lat":43.28673,"lon":5.39989,"is_reserved":false,"is_disabled":false,"rental_uris":{"android":"levelo://app?vid=3032996a-f32c-4e36-8739-39873a15af8d","ios":"levelo://app?vid=3032996a-f32c-4e36-8739-39873a15af8d"},"vehicle_type_id":"4","last_reported":1746742203,"current_range_meters":16000,"station_id":"ce4bho92rcd13ifvqh3g","pricing_plan_id":"cebpf4jnsgd1na2vs0mg"},{"bike_id":"655239c3-b5f5-4fd1-8faf-58d87c6d43f4","system_id":"levelo_inurba_marseille","lat":43.26227,"lon":5.40448,"is_reserved":false,"is_disabled":false,"rental_uris":{"android":"levelo://app?vid=655239c3-b5f5-4fd1-8faf-58d87c6d43f4","ios":"levelo://app?vid=655239c3-b5f5-4fd1-8faf-58d87c6d43f4"},"vehicle_type_id":"4","last_reported":1746742203,"current_range_meters":16000,"station_id":"ce4bhmh2rcd13ifvqgmg","pricing_plan_id":"cebpf4jnsgd1na2vs0mg"},{"bike_id":"1d06be30-6758-4b12-9284-309fc8981687","system_id":"levelo_inurba_marseille","lat":43.28268,"lon":5.35053,"is_reserved":false,"is_disabled":false,"rental_uris":{"android":"levelo://app?vid=1d06be30-6758-4b12-9284-309fc8981687","ios":"levelo://app?vid=1d06be30-6758-4b12-9284-309fc8981687"},"vehicle_type_id":"4","last_reported":1746742203,"current_range_meters":16000,"station_id":"ce4bhbp2rcd13ifvqerg","pricing_plan_id":"cebpf4jnsgd1na2vs0mg"},{"bike_id":"2e719a53-5bb7-4e06-8c27-2cf0eae6c9f7","system_id":"levelo_inurba_marseille","lat":43.29286,"lon":5.40154,"is_reserved":false,"is_disabled":true,"rental_uris":{"android":"levelo://app?vid=2e719a53-5bb7-4e06-8c27-2cf0eae6c9f7","ios":"levelo://app?vid=2e719a53-5bb7-4e06-8c27-2cf0eae6c9f7"},"vehicle_type_id":"4","last_reported":1746742203,"current_range_meters":16400,"station_id":"ce4bh312rcd13ifvqdk0","pricing_plan_id":"cebpf4jnsgd1na2vs0mg"},{"bike_id":"027f7acb-4570-4929-85d9-4d8bc5e766c4","system_id":"levelo_inurba_marseille","lat":43.27946,"lon":5.41049,"is_reserved":false,"is_disabled":false,"rental_uris":{"android":"levelo://app?vid=027f7acb-4570-4929-85d9-4d8bc5e766c4","ios":"levelo://app?vid=027f7acb-4570-4929-85d9-4d8bc5e766c4"},"vehicle_type_id":"4","last_reported":1746742203,"current_range_meters":16400,"station_id":"ce4bhnp2rcd13ifvqh0g","pricing_plan_id":"cebpf4jnsgd1na2vs0mg"},{"bike_id":"4f854b13-c5c9-4a77-acc7-c019704bebdf","system_id":"levelo_inurba_marseille","lat":43.29204,"lon":5.39317,"is_reserved":false,"is_disabled":false,"rental_uris":{"android":"levelo://app?vid=4f854b13-c5c9-4a77-acc7-c019704bebdf","ios":"levelo://app?vid=4f854b13-c5c9-4a77-acc7-c019704bebdf"},"vehicle_type_id":"4","last_reported":1746742203,"current_range_meters":16400,"station_id":"ce4bh192rcd13ifvqdd0","pricing_plan_id":"cebpf4jnsgd1na2vs0mg"},{"bike_id":"ccf62313-6c7d-4d79-a5d7-ce161920e475","system_id":"levelo_inurba_marseille","lat":43.323638,"lon":5.367627,"is_reserved":false,"is_disabled":false,"rental_uris":{"android":"levelo://app?vid=ccf62313-6c7d-4d79-a5d7-ce161920e475","ios":"levelo://app?vid=ccf62313-6c7d-4d79-a5d7-ce161920e475"},"vehicle_type_id":"4","last_reported":1746742203,"current_range_meters":16400,"station_id":"ce4bhsh2rcd13ifvqi2g","pricing_plan_id":"cebpf4jnsgd1na2vs0mg"},{"bike_id":"05204640-0e79-40ef-a388-8094f5e01c08","system_id":"levelo_inurba_marseille","lat":43.30584,"lon":5.39336,"is_reserved":false,"is_disabled":false,"rental_uris":{"android":"levelo://app?vid=05204640-0e79-40ef-a388-8094f5e01c08","ios":"levelo://app?vid=05204640-0e79-40ef-a388-8094f5e01c08"},"vehicle_type_id":"4","last_reported":1746742203,"current_range_meters":16800,"station_id":"ce4bh0p2rcd13ifvqd80","pricing_plan_id":"cebpf4jnsgd1na2vs0mg"},{"bike_id":"59c9eee2-2711-40e5-ad57-f78d6a66b9e3","system_id":"levelo_inurba_marseille","lat":43.25936,"lon":5.40906,"is_reserved":false,"is_disabled":false,"rental_uris":{"android":"levelo://app?vid=59c9eee2-2711-40e5-ad57-f78d6a66b9e3","ios":"levelo://app?vid=59c9eee2-2711-40e5-ad57-f78d6a66b9e3"},"vehicle_type_id":"4","last_reported":1746742203,"current_range_meters":16800,"station_id":"ce4bhm92rcd13ifvqglg","pricing_plan_id":"cebpf4jnsgd1na2vs0mg"},{"bike_id":"0c4cd874-6764-419b-8d5d-acb3bbe70dc0","system_id":"levelo_inurba_marseille","lat":43.28704,"lon":5.39985,"is_reserved":false,"is_disabled":false,"rental_uris":{"android":"levelo://app?vid=0c4cd874-6764-419b-8d5d-acb3bbe70dc0","ios":"levelo://app?vid=0c4cd874-6764-419b-8d5d-acb3bbe70dc0"},"vehicle_type_id":"4","last_reported":1746742203,"current_range_meters":16800,"station_id":"ce4bho92rcd13ifvqh3g","pricing_plan_id":"cebpf4jnsgd1na2vs0mg"},{"bike_id":"169866c6-de01-462c-8aa5-9eafe28be50b","system_id":"levelo_inurba_marseille","lat":43.31385,"lon":5.38496,"is_reserved":false,"is_disabled":false,"rental_uris":{"android":"levelo://app?vid=169866c6-de01-462c-8aa5-9eafe28be50b","ios":"levelo://app?vid=169866c6-de01-462c-8aa5-9eafe28be50b"},"vehicle_type_id":"4","last_reported":1746742203,"current_range_meters":16800,"station_id":"ce4bgt92rcd13ifvqcf0","pricing_plan_id":"cebpf4jnsgd1na2vs0mg"},{"bike_id":"1d2af6a0-0698-4444-905a-e92783f2a4ea","system_id":"levelo_inurba_marseille","lat":43.30918,"lon":5.40154,"is_reserved":false,"is_disabled":false,"rental_uris":{"android":"levelo://app?vid=1d2af6a0-0698-4444-905a-e92783f2a4ea","ios":"levelo://app?vid=1d2af6a0-0698-4444-905a-e92783f2a4ea"},"vehicle_type_id":"4","last_reported":1746742203,"current_range_meters":16800,"station_id":"ce4bgvp2rcd13ifvqct0","pricing_plan_id":"cebpf4jnsgd1na2vs0mg"},{"bike_id":"de6fffd2-3f05-487a-aecf-624490684a67","system_id":"levelo_inurba_marseille","lat":43.28478,"lon":5.38418,"is_reserved":false,"is_disabled":false,"rental_uris":{"android":"levelo://app?vid=de6fffd2-3f05-487a-aecf-624490684a67","ios":"levelo://app?vid=de6fffd2-3f05-487a-aecf-624490684a67"},"vehicle_type_id":"4","last_reported":1746742203,"current_range_meters":16800,"station_id":"ce4bh512rcd13ifvqe3g","pricing_plan_id":"cebpf4jnsgd1na2vs0mg"},{"bike_id":"4fc2916e-fd8a-4057-add3-fd7205558b49","system_id":"levelo_inurba_marseille","lat":43.31331,"lon":5.39692,"is_reserved":false,"is_disabled":false,"rental_uris":{"android":"levelo://app?vid=4fc2916e-fd8a-4057-add3-fd7205558b49","ios":"levelo://app?vid=4fc2916e-fd8a-4057-add3-fd7205558b49"},"vehicle_type_id":"4","last_reported":1746742203,"current_range_meters":16800,"station_id":"ce4bgvp2rcd13ifvqcu0","pricing_plan_id":"cebpf4jnsgd1na2vs0mg"},{"bike_id":"c1650d1d-555e-4fa4-9efa-c856b89c8563","system_id":"levelo_inurba_marseille","lat":43.26216,"lon":5.40452,"is_reserved":false,"is_disabled":false,"rental_uris":{"android":"levelo://app?vid=c1650d1d-555e-4fa4-9efa-c856b89c8563","ios":"levelo://app?vid=c1650d1d-555e-4fa4-9efa-c856b89c8563"},"vehicle_type_id":"4","last_reported":1746742203,"current_range_meters":16800,"station_id":"ce4bhmh2rcd13ifvqgmg","pricing_plan_id":"cebpf4jnsgd1na2vs0mg"},{"bike_id":"cdb08d94-433c-4ce4-b7fe-354732cb3e58","system_id":"levelo_inurba_marseille","lat":43.28706,"lon":5.40002,"is_reserved":false,"is_disabled":false,"rental_uris":{"android":"levelo://app?vid=cdb08d94-433c-4ce4-b7fe-354732cb3e58","ios":"levelo://app?vid=cdb08d94-433c-4ce4-b7fe-354732cb3e58"},"vehicle_type_id":"4","last_reported":1746742203,"current_range_meters":16800,"station_id":"ce4bho92rcd13ifvqh3g","pricing_plan_id":"cebpf4jnsgd1na2vs0mg"},{"bike_id":"db01a8a4-fc6c-47b0-b62e-79d7358b734a","system_id":"levelo_inurba_marseille","lat":43.28209,"lon":5.43271,"is_reserved":false,"is_disabled":false,"rental_uris":{"android":"levelo://app?vid=db01a8a4-fc6c-47b0-b62e-79d7358b734a","ios":"levelo://app?vid=db01a8a4-fc6c-47b0-b62e-79d7358b734a"},"vehicle_type_id":"4","last_reported":1746742203,"current_range_meters":16800,"station_id":"","pricing_plan_id":"cebpf4jnsgd1na2vs0mg"},{"bike_id":"9b74a26f-6226-4250-84e7-ca3b508b7f79","system_id":"levelo_inurba_marseille","lat":43.27902,"lon":5.38006,"is_reserved":false,"is_disabled":false,"rental_uris":{"android":"levelo://app?vid=9b74a26f-6226-4250-84e7-ca3b508b7f79","ios":"levelo://app?vid=9b74a26f-6226-4250-84e7-ca3b508b7f79"},"vehicle_type_id":"4","last_reported":1746742203,"current_range_meters":16400,"station_id":"ce4bhf92rcd13ifvqf50","pricing_plan_id":"cebpf4jnsgd1na2vs0mg"},{"bike_id":"1eae8875-97d6-4285-b520-c6c5b7bd55e5","system_id":"levelo_inurba_marseille","lat":43.29726,"lon":5.3661,"is_reserved":false,"is_disabled":true,"rental_uris":{"android":"levelo://app?vid=1eae8875-97d6-4285-b520-c6c5b7bd55e5","ios":"levelo://app?vid=1eae8875-97d6-4285-b520-c6c5b7bd55e5"},"vehicle_type_id":"4","last_reported":1746742203,"current_range_meters":17200,"station_id":"ce4bgn12rcd13ifvqbt0","pricing_plan_id":"cebpf4jnsgd1na2vs0mg"},{"bike_id":"0fb126d6-6e72-48a2-a11c-119df320f01c","system_id":"levelo_inurba_marseille","lat":43.30595,"lon":5.39359,"is_reserved":false,"is_disabled":false,"rental_uris":{"android":"levelo://app?vid=0fb126d6-6e72-48a2-a11c-119df320f01c","ios":"levelo://app?vid=0fb126d6-6e72-48a2-a11c-119df320f01c"},"vehicle_type_id":"4","last_reported":1746742203,"current_range_meters":17200,"station_id":"ce4bh0p2rcd13ifvqd80","pricing_plan_id":"cebpf4jnsgd1na2vs0mg"},{"bike_id":"a338edec-4bdd-4d53-8ae6-7ab8c4f5c2d8","system_id":"levelo_inurba_marseille","lat":43.246673,"lon":5.381638,"is_reserved":false,"is_disabled":false,"rental_uris":{"android":"levelo://app?vid=a338edec-4bdd-4d53-8ae6-7ab8c4f5c2d8","ios":"levelo://app?vid=a338edec-4bdd-4d53-8ae6-7ab8c4f5c2d8"},"vehicle_type_id":"4","last_reported":1746742203,"current_range_meters":17200,"station_id":"ce4bhih2rcd13ifvqfr0","pricing_plan_id":"cebpf4jnsgd1na2vs0mg"},{"bike_id":"e7b3db5e-5a0c-4e3b-8c7f-75793bbbfdde","system_id":"levelo_inurba_marseille","lat":43.29417,"lon":5.38607,"is_reserved":false,"is_disabled":true,"rental_uris":{"android":"levelo://app?vid=e7b3db5e-5a0c-4e3b-8c7f-75793bbbfdde","ios":"levelo://app?vid=e7b3db5e-5a0c-4e3b-8c7f-75793bbbfdde"},"vehicle_type_id":"4","last_reported":1746742203,"current_range_meters":17200,"station_id":"ce4bh2h2rcd13ifvqdh0","pricing_plan_id":"cebpf4jnsgd1na2vs0mg"},{"bike_id":"d4e825d6-11df-4dfe-b9f6-1d81c835a98c","system_id":"levelo_inurba_marseille","lat":43.28731,"lon":5.37937,"is_reserved":false,"is_disabled":false,"rental_uris":{"android":"levelo://app?vid=d4e825d6-11df-4dfe-b9f6-1d81c835a98c","ios":"levelo://app?vid=d4e825d6-11df-4dfe-b9f6-1d81c835a98c"},"vehicle_type_id":"4","last_reported":1746742203,"current_range_meters":17200,"station_id":"ce4bh9p2rcd13ifvqec0","pricing_plan_id":"cebpf4jnsgd1na2vs0mg"},{"bike_id":"45fb3f0a-c06f-4f0a-a247-384a8492ee18","system_id":"levelo_inurba_marseille","lat":43.30585,"lon":5.39348,"is_reserved":false,"is_disabled":false,"rental_uris":{"android":"levelo://app?vid=45fb3f0a-c06f-4f0a-a247-384a8492ee18","ios":"levelo://app?vid=45fb3f0a-c06f-4f0a-a247-384a8492ee18"},"vehicle_type_id":"4","last_reported":1746742203,"current_range_meters":17200,"station_id":"ce4bh0p2rcd13ifvqd80","pricing_plan_id":"cebpf4jnsgd1na2vs0mg"},{"bike_id":"382ca6f2-a6db-428d-bf5d-1db9f98dd80e","system_id":"levelo_inurba_marseille","lat":43.290795,"lon":5.39163,"is_reserved":false,"is_disabled":false,"rental_uris":{"android":"levelo://app?vid=382ca6f2-a6db-428d-bf5d-1db9f98dd80e","ios":"levelo://app?vid=382ca6f2-a6db-428d-bf5d-1db9f98dd80e"},"vehicle_type_id":"4","last_reported":1746742203,"current_range_meters":17200,"station_id":"","pricing_plan_id":"cebpf4jnsgd1na2vs0mg"},{"bike_id":"d916382e-371a-42f5-a46e-e0dc5c2cf096","system_id":"levelo_inurba_marseille","lat":43.3112,"lon":5.37765,"is_reserved":false,"is_disabled":false,"rental_uris":{"android":"levelo://app?vid=d916382e-371a-42f5-a46e-e0dc5c2cf096","ios":"levelo://app?vid=d916382e-371a-42f5-a46e-e0dc5c2cf096"},"vehicle_type_id":"4","last_reported":1746742203,"current_range_meters":17200,"station_id":"ce4bgt92rcd13ifvqcg0","pricing_plan_id":"cebpf4jnsgd1na2vs0mg"},{"bike_id":"587b4703-cb0f-47cd-9be6-14e53e0e5fa2","system_id":"levelo_inurba_marseille","lat":43.27328,"lon":5.39065,"is_reserved":false,"is_disabled":false,"rental_uris":{"android":"levelo://app?vid=587b4703-cb0f-47cd-9be6-14e53e0e5fa2","ios":"levelo://app?vid=587b4703-cb0f-47cd-9be6-14e53e0e5fa2"},"vehicle_type_id":"4","last_reported":1746742203,"current_range_meters":17200,"station_id":"ce4bhgp2rcd13ifvqfe0","pricing_plan_id":"cebpf4jnsgd1na2vs0mg"},{"bike_id":"929c5875-e763-42e9-b4ac-fdb480ecc4fd","system_id":"levelo_inurba_marseille","lat":43.30156,"lon":5.38109,"is_reserved":false,"is_disabled":false,"rental_uris":{"android":"levelo://app?vid=929c5875-e763-42e9-b4ac-fdb480ecc4fd","ios":"levelo://app?vid=929c5875-e763-42e9-b4ac-fdb480ecc4fd"},"vehicle_type_id":"4","last_reported":1746742203,"current_range_meters":17600,"station_id":"ce4bgjp2rcd13ifvqbh0","pricing_plan_id":"cebpf4jnsgd1na2vs0mg"},{"bike_id":"13a1231b-d0e4-4ad7-9ba1-1698298808d8","system_id":"levelo_inurba_marseille","lat":43.29216,"lon":5.39315,"is_reserved":false,"is_disabled":false,"rental_uris":{"android":"levelo://app?vid=13a1231b-d0e4-4ad7-9ba1-1698298808d8","ios":"levelo://app?vid=13a1231b-d0e4-4ad7-9ba1-1698298808d8"},"vehicle_type_id":"4","last_reported":1746742203,"current_range_meters":17600,"station_id":"ce4bh192rcd13ifvqdd0","pricing_plan_id":"cebpf4jnsgd1na2vs0mg"},{"bike_id":"90aaaa1b-dccc-4168-b363-d25c9c0459cf","system_id":"levelo_inurba_marseille","lat":43.32367,"lon":5.38882,"is_reserved":false,"is_disabled":false,"rental_uris":{"android":"levelo://app?vid=90aaaa1b-dccc-4168-b363-d25c9c0459cf","ios":"levelo://app?vid=90aaaa1b-dccc-4168-b363-d25c9c0459cf"},"vehicle_type_id":"4","last_reported":1746742203,"current_range_meters":17600,"station_id":"ce4bhqp2rcd13ifvqhog","pricing_plan_id":"cebpf4jnsgd1na2vs0mg"},{"bike_id":"c31de315-2cd2-4c03-9c90-028376ff273f","system_id":"levelo_inurba_marseille","lat":43.27905,"lon":5.38007,"is_reserved":false,"is_disabled":false,"rental_uris":{"android":"levelo://app?vid=c31de315-2cd2-4c03-9c90-028376ff273f","ios":"levelo://app?vid=c31de315-2cd2-4c03-9c90-028376ff273f"},"vehicle_type_id":"4","last_reported":1746742203,"current_range_meters":17600,"station_id":"ce4bhf92rcd13ifvqf50","pricing_plan_id":"cebpf4jnsgd1na2vs0mg"},{"bike_id":"b5ac8914-b68e-44da-8fe4-e56bb837b179","system_id":"levelo_inurba_marseille","lat":43.28457,"lon":5.35881,"is_reserved":false,"is_disabled":false,"rental_uris":{"android":"levelo://app?vid=b5ac8914-b68e-44da-8fe4-e56bb837b179","ios":"levelo://app?vid=b5ac8914-b68e-44da-8fe4-e56bb837b179"},"vehicle_type_id":"4","last_reported":1746742203,"current_range_meters":17600,"station_id":"ce4bhah2rcd13ifvqei0","pricing_plan_id":"cebpf4jnsgd1na2vs0mg"},{"bike_id":"79cf8e60-fee9-4379-891e-762d21d938fc","system_id":"levelo_inurba_marseille","lat":43.3136,"lon":5.38506,"is_reserved":false,"is_disabled":false,"rental_uris":{"android":"levelo://app?vid=79cf8e60-fee9-4379-891e-762d21d938fc","ios":"levelo://app?vid=79cf8e60-fee9-4379-891e-762d21d938fc"},"vehicle_type_id":"4","last_reported":1746742203,"current_range_meters":18000,"station_id":"ce4bgt92rcd13ifvqcf0","pricing_plan_id":"cebpf4jnsgd1na2vs0mg"},{"bike_id":"0ddbc89d-17e4-426d-8539-f3af2b22f6e9","system_id":"levelo_inurba_marseille","lat":43.27502,"lon":5.42449,"is_reserved":false,"is_disabled":false,"rental_uris":{"android":"levelo://app?vid=0ddbc89d-17e4-426d-8539-f3af2b22f6e9","ios":"levelo://app?vid=0ddbc89d-17e4-426d-8539-f3af2b22f6e9"},"vehicle_type_id":"4","last_reported":1746742203,"current_range_meters":18000,"station_id":"ce4bhn92rcd13ifvqgrg","pricing_plan_id":"cebpf4jnsgd1na2vs0mg"},{"bike_id":"d286084b-b5ff-402b-ab82-8b977a9bf9d8","system_id":"levelo_inurba_marseille","lat":43.28663,"lon":5.38678,"is_reserved":false,"is_disabled":false,"rental_uris":{"android":"levelo://app?vid=d286084b-b5ff-402b-ab82-8b977a9bf9d8","ios":"levelo://app?vid=d286084b-b5ff-402b-ab82-8b977a9bf9d8"},"vehicle_type_id":"4","last_reported":1746742203,"current_range_meters":18000,"station_id":"ce4bh492rcd13ifvqdug","pricing_plan_id":"cebpf4jnsgd1na2vs0mg"},{"bike_id":"0cb542d0-661d-4a86-904d-249f6866850a","system_id":"levelo_inurba_marseille","lat":43.25723,"lon":5.41109,"is_reserved":false,"is_disabled":false,"rental_uris":{"android":"levelo://app?vid=0cb542d0-661d-4a86-904d-249f6866850a","ios":"levelo://app?vid=0cb542d0-661d-4a86-904d-249f6866850a"},"vehicle_type_id":"4","last_reported":1746742203,"current_range_meters":18000,"station_id":"ce4bhkp2rcd13ifvqgd0","pricing_plan_id":"cebpf4jnsgd1na2vs0mg"},{"bike_id":"f9a24096-9d95-40cb-b61b-41ed4e22575d","system_id":"levelo_inurba_marseille","lat":43.28686,"lon":5.38669,"is_reserved":false,"is_disabled":false,"rental_uris":{"android":"levelo://app?vid=f9a24096-9d95-40cb-b61b-41ed4e22575d","ios":"levelo://app?vid=f9a24096-9d95-40cb-b61b-41ed4e22575d"},"vehicle_type_id":"4","last_reported":1746742203,"current_range_meters":18000,"station_id":"ce4bh492rcd13ifvqdug","pricing_plan_id":"cebpf4jnsgd1na2vs0mg"},{"bike_id":"d40294b7-faac-4173-bbbc-0ab2f66be5af","system_id":"levelo_inurba_marseille","lat":43.23151,"lon":5.39943,"is_reserved":false,"is_disabled":false,"rental_uris":{"android":"levelo://app?vid=d40294b7-faac-4173-bbbc-0ab2f66be5af","ios":"levelo://app?vid=d40294b7-faac-4173-bbbc-0ab2f66be5af"},"vehicle_type_id":"4","last_reported":1746742203,"current_range_meters":18000,"station_id":"ce4bhn12rcd13ifvqgqg","pricing_plan_id":"cebpf4jnsgd1na2vs0mg"},{"bike_id":"d9d0e30b-3079-43fa-a262-c261004a95b0","system_id":"levelo_inurba_marseille","lat":43.31164,"lon":5.38711,"is_reserved":false,"is_disabled":false,"rental_uris":{"android":"levelo://app?vid=d9d0e30b-3079-43fa-a262-c261004a95b0","ios":"levelo://app?vid=d9d0e30b-3079-43fa-a262-c261004a95b0"},"vehicle_type_id":"4","last_reported":1746742203,"current_range_meters":18000,"station_id":"ce4bgv12rcd13ifvqcp0","pricing_plan_id":"cebpf4jnsgd1na2vs0mg"},{"bike_id":"985fe6f6-e64b-4952-a852-c75bf770834c","system_id":"levelo_inurba_marseille","lat":43.31703,"lon":5.4046,"is_reserved":false,"is_disabled":false,"rental_uris":{"android":"levelo://app?vid=985fe6f6-e64b-4952-a852-c75bf770834c","ios":"levelo://app?vid=985fe6f6-e64b-4952-a852-c75bf770834c"},"vehicle_type_id":"4","last_reported":1746742203,"current_range_meters":18000,"station_id":"ce4bh012rcd13ifvqd00","pricing_plan_id":"cebpf4jnsgd1na2vs0mg"},{"bike_id":"01ad4e7e-edac-4e3a-9af6-a5e9d23c9bb8","system_id":"levelo_inurba_marseille","lat":43.31077,"lon":5.38343,"is_reserved":false,"is_disabled":false,"rental_uris":{"android":"levelo://app?vid=01ad4e7e-edac-4e3a-9af6-a5e9d23c9bb8","ios":"levelo://app?vid=01ad4e7e-edac-4e3a-9af6-a5e9d23c9bb8"},"vehicle_type_id":"4","last_reported":1746742203,"current_range_meters":18800,"station_id":"ce4bgv92rcd13ifvqcr0","pricing_plan_id":"cebpf4jnsgd1na2vs0mg"},{"bike_id":"1d73e95b-f565-4252-bef7-fca3189a5fff","system_id":"levelo_inurba_marseille","lat":43.27814,"lon":5.40708,"is_reserved":false,"is_disabled":false,"rental_uris":{"android":"levelo://app?vid=1d73e95b-f565-4252-bef7-fca3189a5fff","ios":"levelo://app?vid=1d73e95b-f565-4252-bef7-fca3189a5fff"},"vehicle_type_id":"4","last_reported":1746742203,"current_range_meters":18000,"station_id":"ce4bhnh2rcd13ifvqgtg","pricing_plan_id":"cebpf4jnsgd1na2vs0mg"},{"bike_id":"295fe1f6-c189-4bd9-86eb-bebc4bf6196c","system_id":"levelo_inurba_marseille","lat":43.30461,"lon":5.37906,"is_reserved":false,"is_disabled":false,"rental_uris":{"android":"levelo://app?vid=295fe1f6-c189-4bd9-86eb-bebc4bf6196c","ios":"levelo://app?vid=295fe1f6-c189-4bd9-86eb-bebc4bf6196c"},"vehicle_type_id":"4","last_reported":1746742203,"current_range_meters":18800,"station_id":"ce4bgup2rcd13ifvqcn0","pricing_plan_id":"cebpf4jnsgd1na2vs0mg"},{"bike_id":"6fbfffee-b2a7-4e9e-b262-ecd5bb698acd","system_id":"levelo_inurba_marseille","lat":43.308044,"lon":5.381494,"is_reserved":false,"is_disabled":false,"rental_uris":{"android":"levelo://app?vid=6fbfffee-b2a7-4e9e-b262-ecd5bb698acd","ios":"levelo://app?vid=6fbfffee-b2a7-4e9e-b262-ecd5bb698acd"},"vehicle_type_id":"4","last_reported":1746742203,"current_range_meters":18800,"station_id":"","pricing_plan_id":"cebpf4jnsgd1na2vs0mg"},{"bike_id":"1bc71fc2-e553-4d46-a216-fcdcaea618f0","system_id":"levelo_inurba_marseille","lat":43.3415,"lon":5.40884,"is_reserved":false,"is_disabled":false,"rental_uris":{"android":"levelo://app?vid=1bc71fc2-e553-4d46-a216-fcdcaea618f0","ios":"levelo://app?vid=1bc71fc2-e553-4d46-a216-fcdcaea618f0"},"vehicle_type_id":"4","last_reported":1746742203,"current_range_meters":18800,"station_id":"ce4bhqh2rcd13ifvqhlg","pricing_plan_id":"cebpf4jnsgd1na2vs0mg"},{"bike_id":"97639322-2aba-48b9-9c02-6550a76f79f3","system_id":"levelo_inurba_marseille","lat":43.28429,"lon":5.37499,"is_reserved":false,"is_disabled":false,"rental_uris":{"android":"levelo://app?vid=97639322-2aba-48b9-9c02-6550a76f79f3","ios":"levelo://app?vid=97639322-2aba-48b9-9c02-6550a76f79f3"},"vehicle_type_id":"4","last_reported":1746742203,"current_range_meters":18800,"station_id":"ce4bh412rcd13ifvqds0","pricing_plan_id":"cebpf4jnsgd1na2vs0mg"},{"bike_id":"1ba56984-ba84-457d-8253-c11e76b3bace","system_id":"levelo_inurba_marseille","lat":43.2871,"lon":5.39992,"is_reserved":false,"is_disabled":false,"rental_uris":{"android":"levelo://app?vid=1ba56984-ba84-457d-8253-c11e76b3bace","ios":"levelo://app?vid=1ba56984-ba84-457d-8253-c11e76b3bace"},"vehicle_type_id":"4","last_reported":1746742203,"current_range_meters":19200,"station_id":"ce4bho92rcd13ifvqh3g","pricing_plan_id":"cebpf4jnsgd1na2vs0mg"},{"bike_id":"c1041c9f-2085-470a-b13c-f88fd8323115","system_id":"levelo_inurba_marseille","lat":43.27752,"lon":5.38725,"is_reserved":false,"is_disabled":false,"rental_uris":{"android":"levelo://app?vid=c1041c9f-2085-470a-b13c-f88fd8323115","ios":"levelo://app?vid=c1041c9f-2085-470a-b13c-f88fd8323115"},"vehicle_type_id":"4","last_reported":1746742203,"current_range_meters":19200,"station_id":"","pricing_plan_id":"cebpf4jnsgd1na2vs0mg"},{"bike_id":"0bdcdff3-8294-49b9-80e9-145bbc1ad711","system_id":"levelo_inurba_marseille","lat":43.32254,"lon":5.36768,"is_reserved":false,"is_disabled":false,"rental_uris":{"android":"levelo://app?vid=0bdcdff3-8294-49b9-80e9-145bbc1ad711","ios":"levelo://app?vid=0bdcdff3-8294-49b9-80e9-145bbc1ad711"},"vehicle_type_id":"4","last_reported":1746742203,"current_range_meters":19200,"station_id":"","pricing_plan_id":"cebpf4jnsgd1na2vs0mg"},{"bike_id":"9530ea56-ba6b-436d-aca7-f6431664068f","system_id":"levelo_inurba_marseille","lat":43.31335,"lon":5.367223,"is_reserved":false,"is_disabled":false,"rental_uris":{"android":"levelo://app?vid=9530ea56-ba6b-436d-aca7-f6431664068f","ios":"levelo://app?vid=9530ea56-ba6b-436d-aca7-f6431664068f"},"vehicle_type_id":"4","last_reported":1746742203,"current_range_meters":19200,"station_id":"ce4bgr92rcd13ifvqc6g","pricing_plan_id":"cebpf4jnsgd1na2vs0mg"},{"bike_id":"ef861b5f-b4fb-41f0-a538-86dc20f09aa2","system_id":"levelo_inurba_marseille","lat":43.28156,"lon":5.42645,"is_reserved":false,"is_disabled":false,"rental_uris":{"android":"levelo://app?vid=ef861b5f-b4fb-41f0-a538-86dc20f09aa2","ios":"levelo://app?vid=ef861b5f-b4fb-41f0-a538-86dc20f09aa2"},"vehicle_type_id":"4","last_reported":1746742203,"current_range_meters":19200,"station_id":"ce4bhnh2rcd13ifvqgug","pricing_plan_id":"cebpf4jnsgd1na2vs0mg"},{"bike_id":"9f69d175-157c-4fc3-9efb-807a5d3874b0","system_id":"levelo_inurba_marseille","lat":43.28349,"lon":5.38087,"is_reserved":false,"is_disabled":false,"rental_uris":{"android":"levelo://app?vid=9f69d175-157c-4fc3-9efb-807a5d3874b0","ios":"levelo://app?vid=9f69d175-157c-4fc3-9efb-807a5d3874b0"},"vehicle_type_id":"4","last_reported":1746742203,"current_range_meters":19600,"station_id":"ce4bh412rcd13ifvqdr0","pricing_plan_id":"cebpf4jnsgd1na2vs0mg"},{"bike_id":"2f9f9bf5-b34e-46a2-9148-0b2e9056a0c5","system_id":"levelo_inurba_marseille","lat":43.26321,"lon":5.37852,"is_reserved":false,"is_disabled":false,"rental_uris":{"android":"levelo://app?vid=2f9f9bf5-b34e-46a2-9148-0b2e9056a0c5","ios":"levelo://app?vid=2f9f9bf5-b34e-46a2-9148-0b2e9056a0c5"},"vehicle_type_id":"4","last_reported":1746742203,"current_range_meters":19600,"station_id":"","pricing_plan_id":"cebpf4jnsgd1na2vs0mg"},{"bike_id":"d104cec5-570c-4129-810a-f2ebbd27880f","system_id":"levelo_inurba_marseille","lat":43.29909,"lon":5.38153,"is_reserved":false,"is_disabled":false,"rental_uris":{"android":"levelo://app?vid=d104cec5-570c-4129-810a-f2ebbd27880f","ios":"levelo://app?vid=d104cec5-570c-4129-810a-f2ebbd27880f"},"vehicle_type_id":"4","last_reported":1746742203,"current_range_meters":19600,"station_id":"ce4bgj12rcd13ifvqbc0","pricing_plan_id":"cebpf4jnsgd1na2vs0mg"},{"bike_id":"577b6fa1-01aa-4b90-beb1-386dce7ef354","system_id":"levelo_inurba_marseille","lat":43.25934,"lon":5.40884,"is_reserved":false,"is_disabled":false,"rental_uris":{"android":"levelo://app?vid=577b6fa1-01aa-4b90-beb1-386dce7ef354","ios":"levelo://app?vid=577b6fa1-01aa-4b90-beb1-386dce7ef354"},"vehicle_type_id":"4","last_reported":1746742203,"current_range_meters":19600,"station_id":"ce4bhm92rcd13ifvqglg","pricing_plan_id":"cebpf4jnsgd1na2vs0mg"},{"bike_id":"3ddec5e8-9d48-4f1d-866c-2cb5c584adb4","system_id":"levelo_inurba_marseille","lat":43.28373,"lon":5.38628,"is_reserved":false,"is_disabled":false,"rental_uris":{"android":"levelo://app?vid=3ddec5e8-9d48-4f1d-866c-2cb5c584adb4","ios":"levelo://app?vid=3ddec5e8-9d48-4f1d-866c-2cb5c584adb4"},"vehicle_type_id":"4","last_reported":1746742203,"current_range_meters":19600,"station_id":"ce4bh492rcd13ifvqdvg","pricing_plan_id":"cebpf4jnsgd1na2vs0mg"},{"bike_id":"e871e13c-dc81-4022-b411-67cff14680c4","system_id":"levelo_inurba_marseille","lat":43.28845,"lon":5.3932,"is_reserved":false,"is_disabled":false,"rental_uris":{"android":"levelo://app?vid=e871e13c-dc81-4022-b411-67cff14680c4","ios":"levelo://app?vid=e871e13c-dc81-4022-b411-67cff14680c4"},"vehicle_type_id":"4","last_reported":1746742203,"current_range_meters":19600,"station_id":"ce4bh2p2rcd13ifvqdi0","pricing_plan_id":"cebpf4jnsgd1na2vs0mg"},{"bike_id":"cfda67da-691b-4a0b-bd2b-633e3b3b9ce1","system_id":"levelo_inurba_marseille","lat":43.24648,"lon":5.38887,"is_reserved":false,"is_disabled":false,"rental_uris":{"android":"levelo://app?vid=cfda67da-691b-4a0b-bd2b-633e3b3b9ce1","ios":"levelo://app?vid=cfda67da-691b-4a0b-bd2b-633e3b3b9ce1"},"vehicle_type_id":"4","last_reported":1746742203,"current_range_meters":19600,"station_id":"ce4bhg12rcd13ifvqf60","pricing_plan_id":"cebpf4jnsgd1na2vs0mg"},{"bike_id":"a79e600e-4dc3-41bb-ba38-440d0f190496","system_id":"levelo_inurba_marseille","lat":43.30766,"lon":5.37638,"is_reserved":false,"is_disabled":false,"rental_uris":{"android":"levelo://app?vid=a79e600e-4dc3-41bb-ba38-440d0f190496","ios":"levelo://app?vid=a79e600e-4dc3-41bb-ba38-440d0f190496"},"vehicle_type_id":"4","last_reported":1746742203,"current_range_meters":20000,"station_id":"ce4bgv92rcd13ifvqcq0","pricing_plan_id":"cebpf4jnsgd1na2vs0mg"},{"bike_id":"79f35554-5e5c-4c8a-adb6-ea8b538ed09f","system_id":"levelo_inurba_marseille","lat":43.27904,"lon":5.38011,"is_reserved":false,"is_disabled":false,"rental_uris":{"android":"levelo://app?vid=79f35554-5e5c-4c8a-adb6-ea8b538ed09f","ios":"levelo://app?vid=79f35554-5e5c-4c8a-adb6-ea8b538ed09f"},"vehicle_type_id":"4","last_reported":1746742203,"current_range_meters":20000,"station_id":"ce4bhf92rcd13ifvqf50","pricing_plan_id":"cebpf4jnsgd1na2vs0mg"},{"bike_id":"a8a7df6f-f8e3-4734-ab5d-2b344ff8e98b","system_id":"levelo_inurba_marseille","lat":43.28348,"lon":5.38098,"is_reserved":false,"is_disabled":false,"rental_uris":{"android":"levelo://app?vid=a8a7df6f-f8e3-4734-ab5d-2b344ff8e98b","ios":"levelo://app?vid=a8a7df6f-f8e3-4734-ab5d-2b344ff8e98b"},"vehicle_type_id":"4","last_reported":1746742203,"current_range_meters":20000,"station_id":"ce4bh412rcd13ifvqdr0","pricing_plan_id":"cebpf4jnsgd1na2vs0mg"},{"bike_id":"bfac8bf8-68ea-4521-b020-0f43ff1b3a85","system_id":"levelo_inurba_marseille","lat":43.28162,"lon":5.42644,"is_reserved":false,"is_disabled":false,"rental_uris":{"android":"levelo://app?vid=bfac8bf8-68ea-4521-b020-0f43ff1b3a85","ios":"levelo://app?vid=bfac8bf8-68ea-4521-b020-0f43ff1b3a85"},"vehicle_type_id":"4","last_reported":1746742203,"current_range_meters":20400,"station_id":"ce4bhnh2rcd13ifvqgug","pricing_plan_id":"cebpf4jnsgd1na2vs0mg"},{"bike_id":"ee5e3d9d-1d27-421e-90f1-c9a7117e33b1","system_id":"levelo_inurba_marseille","lat":43.301233,"lon":5.398567,"is_reserved":false,"is_disabled":false,"rental_uris":{"android":"levelo://app?vid=ee5e3d9d-1d27-421e-90f1-c9a7117e33b1","ios":"levelo://app?vid=ee5e3d9d-1d27-421e-90f1-c9a7117e33b1"},"vehicle_type_id":"4","last_reported":1746742203,"current_range_meters":20400,"station_id":"","pricing_plan_id":"cebpf4jnsgd1na2vs0mg"},{"bike_id":"b3949267-446d-428c-9e10-8d84f0e3ac5b","system_id":"levelo_inurba_marseille","lat":43.27992,"lon":5.41664,"is_reserved":false,"is_disabled":false,"rental_uris":{"android":"levelo://app?vid=b3949267-446d-428c-9e10-8d84f0e3ac5b","ios":"levelo://app?vid=b3949267-446d-428c-9e10-8d84f0e3ac5b"},"vehicle_type_id":"4","last_reported":1746742203,"current_range_meters":20400,"station_id":"ce4bho12rcd13ifvqh1g","pricing_plan_id":"cebpf4jnsgd1na2vs0mg"},{"bike_id":"ed9faf3b-17f0-406c-9ef6-ba9124729479","system_id":"levelo_inurba_marseille","lat":43.3149,"lon":5.37291,"is_reserved":false,"is_disabled":false,"rental_uris":{"android":"levelo://app?vid=ed9faf3b-17f0-406c-9ef6-ba9124729479","ios":"levelo://app?vid=ed9faf3b-17f0-406c-9ef6-ba9124729479"},"vehicle_type_id":"4","last_reported":1746742203,"current_range_meters":20400,"station_id":"ce4bgt12rcd13ifvqcd0","pricing_plan_id":"cebpf4jnsgd1na2vs0mg"},{"bike_id":"e1e92d6c-4e18-4d69-9b3b-90f2048bce2d","system_id":"levelo_inurba_marseille","lat":43.28414,"lon":5.37502,"is_reserved":false,"is_disabled":false,"rental_uris":{"android":"levelo://app?vid=e1e92d6c-4e18-4d69-9b3b-90f2048bce2d","ios":"levelo://app?vid=e1e92d6c-4e18-4d69-9b3b-90f2048bce2d"},"vehicle_type_id":"4","last_reported":1746742203,"current_range_meters":20400,"station_id":"ce4bh412rcd13ifvqds0","pricing_plan_id":"cebpf4jnsgd1na2vs0mg"},{"bike_id":"46e972a5-c410-4a6a-bb7f-3252ca0d17ee","system_id":"levelo_inurba_marseille","lat":43.25003,"lon":5.38923,"is_reserved":false,"is_disabled":false,"rental_uris":{"android":"levelo://app?vid=46e972a5-c410-4a6a-bb7f-3252ca0d17ee","ios":"levelo://app?vid=46e972a5-c410-4a6a-bb7f-3252ca0d17ee"},"vehicle_type_id":"4","last_reported":1746742203,"current_range_meters":20400,"station_id":"ce4bhgp2rcd13ifvqfd0","pricing_plan_id":"cebpf4jnsgd1na2vs0mg"},{"bike_id":"af07f2ba-567d-41f6-80a1-9b5cec286faf","system_id":"levelo_inurba_marseille","lat":43.22948,"lon":5.35357,"is_reserved":false,"is_disabled":true,"rental_uris":{"android":"levelo://app?vid=af07f2ba-567d-41f6-80a1-9b5cec286faf","ios":"levelo://app?vid=af07f2ba-567d-41f6-80a1-9b5cec286faf"},"vehicle_type_id":"4","last_reported":1746742203,"current_range_meters":20400,"station_id":"cpo3532slgdg3j2ikp40","pricing_plan_id":"cebpf4jnsgd1na2vs0mg"},{"bike_id":"ed245a0d-53ee-4e03-bd65-487b9a90cdc8","system_id":"levelo_inurba_marseille","lat":43.2408,"lon":5.37737,"is_reserved":false,"is_disabled":false,"rental_uris":{"android":"levelo://app?vid=ed245a0d-53ee-4e03-bd65-487b9a90cdc8","ios":"levelo://app?vid=ed245a0d-53ee-4e03-bd65-487b9a90cdc8"},"vehicle_type_id":"4","last_reported":1746742203,"current_range_meters":20800,"station_id":"ce4bhnp2rcd13ifvqgvg","pricing_plan_id":"cebpf4jnsgd1na2vs0mg"},{"bike_id":"e011e3fe-e2bd-49a2-bbbd-049bfcc01a35","system_id":"levelo_inurba_marseille","lat":43.30802,"lon":5.38157,"is_reserved":false,"is_disabled":false,"rental_uris":{"android":"levelo://app?vid=e011e3fe-e2bd-49a2-bbbd-049bfcc01a35","ios":"levelo://app?vid=e011e3fe-e2bd-49a2-bbbd-049bfcc01a35"},"vehicle_type_id":"4","last_reported":1746742203,"current_range_meters":20800,"station_id":"ce4bgt12rcd13ifvqce0","pricing_plan_id":"cebpf4jnsgd1na2vs0mg"},{"bike_id":"a110a02b-42ba-4dae-9d9f-89172d1e7d5c","system_id":"levelo_inurba_marseille","lat":43.28736,"lon":5.39971,"is_reserved":false,"is_disabled":false,"rental_uris":{"android":"levelo://app?vid=a110a02b-42ba-4dae-9d9f-89172d1e7d5c","ios":"levelo://app?vid=a110a02b-42ba-4dae-9d9f-89172d1e7d5c"},"vehicle_type_id":"4","last_reported":1746742203,"current_range_meters":20800,"station_id":"ce4bho92rcd13ifvqh3g","pricing_plan_id":"cebpf4jnsgd1na2vs0mg"},{"bike_id":"881c097a-b180-44f5-9d6b-1f54f714978b","system_id":"levelo_inurba_marseille","lat":43.27068,"lon":5.42276,"is_reserved":false,"is_disabled":false,"rental_uris":{"android":"levelo://app?vid=881c097a-b180-44f5-9d6b-1f54f714978b","ios":"levelo://app?vid=881c097a-b180-44f5-9d6b-1f54f714978b"},"vehicle_type_id":"4","last_reported":1746742203,"current_range_meters":21600,"station_id":"ce4bhk92rcd13ifvqgb0","pricing_plan_id":"cebpf4jnsgd1na2vs0mg"},{"bike_id":"ffb97e98-b63f-4c42-9b50-5f510ebcee9b","system_id":"levelo_inurba_marseille","lat":43.27492,"lon":5.4245,"is_reserved":false,"is_disabled":false,"rental_uris":{"android":"levelo://app?vid=ffb97e98-b63f-4c42-9b50-5f510ebcee9b","ios":"levelo://app?vid=ffb97e98-b63f-4c42-9b50-5f510ebcee9b"},"vehicle_type_id":"4","last_reported":1746742203,"current_range_meters":21600,"station_id":"ce4bhn92rcd13ifvqgrg","pricing_plan_id":"cebpf4jnsgd1na2vs0mg"},{"bike_id":"b1cabc30-e0d5-4b2d-999b-0ed2b472e9aa","system_id":"levelo_inurba_marseille","lat":43.279554,"lon":5.387158,"is_reserved":false,"is_disabled":false,"rental_uris":{"android":"levelo://app?vid=b1cabc30-e0d5-4b2d-999b-0ed2b472e9aa","ios":"levelo://app?vid=b1cabc30-e0d5-4b2d-999b-0ed2b472e9aa"},"vehicle_type_id":"4","last_reported":1746742203,"current_range_meters":21600,"station_id":"ce4bhg12rcd13ifvqf80","pricing_plan_id":"cebpf4jnsgd1na2vs0mg"},{"bike_id":"c9dd93bd-2d47-4c45-80c5-d5fd7e0f1bc9","system_id":"levelo_inurba_marseille","lat":43.2884,"lon":5.39326,"is_reserved":false,"is_disabled":false,"rental_uris":{"android":"levelo://app?vid=c9dd93bd-2d47-4c45-80c5-d5fd7e0f1bc9","ios":"levelo://app?vid=c9dd93bd-2d47-4c45-80c5-d5fd7e0f1bc9"},"vehicle_type_id":"4","last_reported":1746742203,"current_range_meters":21600,"station_id":"ce4bh2p2rcd13ifvqdi0","pricing_plan_id":"cebpf4jnsgd1na2vs0mg"},{"bike_id":"dd3f8895-f345-45c3-af5b-a534a6c3d83b","system_id":"levelo_inurba_marseille","lat":43.30126,"lon":5.39872,"is_reserved":false,"is_disabled":false,"rental_uris":{"android":"levelo://app?vid=dd3f8895-f345-45c3-af5b-a534a6c3d83b","ios":"levelo://app?vid=dd3f8895-f345-45c3-af5b-a534a6c3d83b"},"vehicle_type_id":"4","last_reported":1746742203,"current_range_meters":21600,"station_id":"ce4bh0h2rcd13ifvqd40","pricing_plan_id":"cebpf4jnsgd1na2vs0mg"},{"bike_id":"3e998cdf-83c1-4e75-8456-786ecd931a8f","system_id":"levelo_inurba_marseille","lat":43.28434,"lon":5.39172,"is_reserved":false,"is_disabled":false,"rental_uris":{"android":"levelo://app?vid=3e998cdf-83c1-4e75-8456-786ecd931a8f","ios":"levelo://app?vid=3e998cdf-83c1-4e75-8456-786ecd931a8f"},"vehicle_type_id":"4","last_reported":1746742203,"current_range_meters":21600,"station_id":"ce4bhoh2rcd13ifvqh5g","pricing_plan_id":"cebpf4jnsgd1na2vs0mg"},{"bike_id":"fc2577e7-1497-425b-9d4f-ab8d7dc843c6","system_id":"levelo_inurba_marseille","lat":43.33771,"lon":5.37485,"is_reserved":false,"is_disabled":false,"rental_uris":{"android":"levelo://app?vid=fc2577e7-1497-425b-9d4f-ab8d7dc843c6","ios":"levelo://app?vid=fc2577e7-1497-425b-9d4f-ab8d7dc843c6"},"vehicle_type_id":"4","last_reported":1746742203,"current_range_meters":22000,"station_id":"","pricing_plan_id":"cebpf4jnsgd1na2vs0mg"},{"bike_id":"a4c6a415-a8d3-413a-ba85-7cdbf624eae6","system_id":"levelo_inurba_marseille","lat":43.29211,"lon":5.39318,"is_reserved":false,"is_disabled":false,"rental_uris":{"android":"levelo://app?vid=a4c6a415-a8d3-413a-ba85-7cdbf624eae6","ios":"levelo://app?vid=a4c6a415-a8d3-413a-ba85-7cdbf624eae6"},"vehicle_type_id":"4","last_reported":1746742203,"current_range_meters":22000,"station_id":"ce4bh192rcd13ifvqdd0","pricing_plan_id":"cebpf4jnsgd1na2vs0mg"},{"bike_id":"3e7c6aae-b2bc-4dc1-ae18-e8b01d55045f","system_id":"levelo_inurba_marseille","lat":43.24636,"lon":5.43646,"is_reserved":false,"is_disabled":false,"rental_uris":{"android":"levelo://app?vid=3e7c6aae-b2bc-4dc1-ae18-e8b01d55045f","ios":"levelo://app?vid=3e7c6aae-b2bc-4dc1-ae18-e8b01d55045f"},"vehicle_type_id":"4","last_reported":1746742203,"current_range_meters":22000,"station_id":"","pricing_plan_id":"cebpf4jnsgd1na2vs0mg"},{"bike_id":"fbfd60f3-994b-498b-b42d-c04650b559ff","system_id":"levelo_inurba_marseille","lat":43.29017,"lon":5.38127,"is_reserved":false,"is_disabled":false,"rental_uris":{"android":"levelo://app?vid=fbfd60f3-994b-498b-b42d-c04650b559ff","ios":"levelo://app?vid=fbfd60f3-994b-498b-b42d-c04650b559ff"},"vehicle_type_id":"4","last_reported":1746742203,"current_range_meters":22000,"station_id":"ce4bh4p2rcd13ifvqe1g","pricing_plan_id":"cebpf4jnsgd1na2vs0mg"},{"bike_id":"d4144cc8-c3a3-4342-92f3-f340c48e14d8","system_id":"levelo_inurba_marseille","lat":43.3116,"lon":5.38727,"is_reserved":false,"is_disabled":false,"rental_uris":{"android":"levelo://app?vid=d4144cc8-c3a3-4342-92f3-f340c48e14d8","ios":"levelo://app?vid=d4144cc8-c3a3-4342-92f3-f340c48e14d8"},"vehicle_type_id":"4","last_reported":1746742203,"current_range_meters":22000,"station_id":"ce4bgv12rcd13ifvqcp0","pricing_plan_id":"cebpf4jnsgd1na2vs0mg"},{"bike_id":"4b55cb69-087f-4ac8-aec8-33ebaad80586","system_id":"levelo_inurba_marseille","lat":43.325468,"lon":5.414343,"is_reserved":false,"is_disabled":false,"rental_uris":{"android":"levelo://app?vid=4b55cb69-087f-4ac8-aec8-33ebaad80586","ios":"levelo://app?vid=4b55cb69-087f-4ac8-aec8-33ebaad80586"},"vehicle_type_id":"4","last_reported":1746742203,"current_range_meters":22000,"station_id":"ce4bhq12rcd13ifvqhhg","pricing_plan_id":"cebpf4jnsgd1na2vs0mg"},{"bike_id":"545e5687-b7df-4883-81be-75a8925d5f91","system_id":"levelo_inurba_marseille","lat":43.337444,"lon":5.374475,"is_reserved":false,"is_disabled":false,"rental_uris":{"android":"levelo://app?vid=545e5687-b7df-4883-81be-75a8925d5f91","ios":"levelo://app?vid=545e5687-b7df-4883-81be-75a8925d5f91"},"vehicle_type_id":"4","last_reported":1746742203,"current_range_meters":22000,"station_id":"","pricing_plan_id":"cebpf4jnsgd1na2vs0mg"},{"bike_id":"ee1fb14b-4956-4ec0-afe5-0842f031f3a9","system_id":"levelo_inurba_marseille","lat":43.31172,"lon":5.38714,"is_reserved":false,"is_disabled":false,"rental_uris":{"android":"levelo://app?vid=ee1fb14b-4956-4ec0-afe5-0842f031f3a9","ios":"levelo://app?vid=ee1fb14b-4956-4ec0-afe5-0842f031f3a9"},"vehicle_type_id":"4","last_reported":1746742203,"current_range_meters":22400,"station_id":"ce4bgv12rcd13ifvqcp0","pricing_plan_id":"cebpf4jnsgd1na2vs0mg"},{"bike_id":"2b695556-5fdc-4725-a789-9b7b81b7a3a6","system_id":"levelo_inurba_marseille","lat":43.32355,"lon":5.3675,"is_reserved":false,"is_disabled":false,"rental_uris":{"android":"levelo://app?vid=2b695556-5fdc-4725-a789-9b7b81b7a3a6","ios":"levelo://app?vid=2b695556-5fdc-4725-a789-9b7b81b7a3a6"},"vehicle_type_id":"4","last_reported":1746742203,"current_range_meters":22400,"station_id":"ce4bhsh2rcd13ifvqi2g","pricing_plan_id":"cebpf4jnsgd1na2vs0mg"},{"bike_id":"ab46efeb-601d-4b0f-a73d-c85839ebf283","system_id":"levelo_inurba_marseille","lat":43.24811,"lon":5.37447,"is_reserved":false,"is_disabled":false,"rental_uris":{"android":"levelo://app?vid=ab46efeb-601d-4b0f-a73d-c85839ebf283","ios":"levelo://app?vid=ab46efeb-601d-4b0f-a73d-c85839ebf283"},"vehicle_type_id":"4","last_reported":1746742203,"current_range_meters":22400,"station_id":"ce4bhgh2rcd13ifvqfb0","pricing_plan_id":"cebpf4jnsgd1na2vs0mg"},{"bike_id":"81b1461a-b964-4157-bc4d-845e8c44053d","system_id":"levelo_inurba_marseille","lat":43.2544,"lon":5.4184,"is_reserved":false,"is_disabled":false,"rental_uris":{"android":"levelo://app?vid=81b1461a-b964-4157-bc4d-845e8c44053d","ios":"levelo://app?vid=81b1461a-b964-4157-bc4d-845e8c44053d"},"vehicle_type_id":"4","last_reported":1746742203,"current_range_meters":22400,"station_id":"","pricing_plan_id":"cebpf4jnsgd1na2vs0mg"},{"bike_id":"f38b5ff2-45f2-4550-8727-20020a881a0b","system_id":"levelo_inurba_marseille","lat":43.27973,"lon":5.38744,"is_reserved":false,"is_disabled":false,"rental_uris":{"android":"levelo://app?vid=f38b5ff2-45f2-4550-8727-20020a881a0b","ios":"levelo://app?vid=f38b5ff2-45f2-4550-8727-20020a881a0b"},"vehicle_type_id":"4","last_reported":1746742203,"current_range_meters":22400,"station_id":"ce4bhg12rcd13ifvqf80","pricing_plan_id":"cebpf4jnsgd1na2vs0mg"},{"bike_id":"1a6f6923-5337-43e5-bd23-9b225489744f","system_id":"levelo_inurba_marseille","lat":43.31496,"lon":5.37263,"is_reserved":false,"is_disabled":false,"rental_uris":{"android":"levelo://app?vid=1a6f6923-5337-43e5-bd23-9b225489744f","ios":"levelo://app?vid=1a6f6923-5337-43e5-bd23-9b225489744f"},"vehicle_type_id":"4","last_reported":1746742203,"current_range_meters":22400,"station_id":"ce4bgt12rcd13ifvqcd0","pricing_plan_id":"cebpf4jnsgd1na2vs0mg"},{"bike_id":"cfd5f142-d0a7-4165-8612-8a55bd9248cd","system_id":"levelo_inurba_marseille","lat":43.25111,"lon":5.40317,"is_reserved":false,"is_disabled":false,"rental_uris":{"android":"levelo://app?vid=cfd5f142-d0a7-4165-8612-8a55bd9248cd","ios":"levelo://app?vid=cfd5f142-d0a7-4165-8612-8a55bd9248cd"},"vehicle_type_id":"4","last_reported":1746742203,"current_range_meters":22800,"station_id":"ce4bhlh2rcd13ifvqgig","pricing_plan_id":"cebpf4jnsgd1na2vs0mg"},{"bike_id":"af55deed-8809-4398-83e4-0bc9b9cfbe0b","system_id":"levelo_inurba_marseille","lat":43.28416,"lon":5.34976,"is_reserved":false,"is_disabled":false,"rental_uris":{"android":"levelo://app?vid=af55deed-8809-4398-83e4-0bc9b9cfbe0b","ios":"levelo://app?vid=af55deed-8809-4398-83e4-0bc9b9cfbe0b"},"vehicle_type_id":"4","last_reported":1746742203,"current_range_meters":22800,"station_id":"ce4bhbh2rcd13ifvqepg","pricing_plan_id":"cebpf4jnsgd1na2vs0mg"},{"bike_id":"3823cdb0-59af-4bd2-8ebf-ebed74efbaa2","system_id":"levelo_inurba_marseille","lat":43.28706,"lon":5.37912,"is_reserved":false,"is_disabled":false,"rental_uris":{"android":"levelo://app?vid=3823cdb0-59af-4bd2-8ebf-ebed74efbaa2","ios":"levelo://app?vid=3823cdb0-59af-4bd2-8ebf-ebed74efbaa2"},"vehicle_type_id":"4","last_reported":1746742203,"current_range_meters":22800,"station_id":"ce4bh9p2rcd13ifvqec0","pricing_plan_id":"cebpf4jnsgd1na2vs0mg"},{"bike_id":"32f8af14-15c8-499b-a75c-572a1aeb5b63","system_id":"levelo_inurba_marseille","lat":43.28731,"lon":5.39988,"is_reserved":false,"is_disabled":false,"rental_uris":{"android":"levelo://app?vid=32f8af14-15c8-499b-a75c-572a1aeb5b63","ios":"levelo://app?vid=32f8af14-15c8-499b-a75c-572a1aeb5b63"},"vehicle_type_id":"4","last_reported":1746742203,"current_range_meters":22800,"station_id":"ce4bho92rcd13ifvqh3g","pricing_plan_id":"cebpf4jnsgd1na2vs0mg"},{"bike_id":"a73e01dd-e553-43ce-b191-5e06fc469750","system_id":"levelo_inurba_marseille","lat":43.26226,"lon":5.40454,"is_reserved":false,"is_disabled":false,"rental_uris":{"android":"levelo://app?vid=a73e01dd-e553-43ce-b191-5e06fc469750","ios":"levelo://app?vid=a73e01dd-e553-43ce-b191-5e06fc469750"},"vehicle_type_id":"4","last_reported":1746742203,"current_range_meters":22800,"station_id":"ce4bhmh2rcd13ifvqgmg","pricing_plan_id":"cebpf4jnsgd1na2vs0mg"},{"bike_id":"9b84e65f-2424-4f8e-b51b-21355d123536","system_id":"levelo_inurba_marseille","lat":43.3149,"lon":5.37271,"is_reserved":false,"is_disabled":false,"rental_uris":{"android":"levelo://app?vid=9b84e65f-2424-4f8e-b51b-21355d123536","ios":"levelo://app?vid=9b84e65f-2424-4f8e-b51b-21355d123536"},"vehicle_type_id":"4","last_reported":1746742203,"current_range_meters":23200,"station_id":"ce4bgt12rcd13ifvqcd0","pricing_plan_id":"cebpf4jnsgd1na2vs0mg"},{"bike_id":"fa1b1f66-7519-42e8-92aa-be43cf3d9e34","system_id":"levelo_inurba_marseille","lat":43.22504,"lon":5.34756,"is_reserved":false,"is_disabled":true,"rental_uris":{"android":"levelo://app?vid=fa1b1f66-7519-42e8-92aa-be43cf3d9e34","ios":"levelo://app?vid=fa1b1f66-7519-42e8-92aa-be43cf3d9e34"},"vehicle_type_id":"4","last_reported":1746742203,"current_range_meters":23200,"station_id":"st_cvj5dfep6f1abm77gieg","pricing_plan_id":"cebpf4jnsgd1na2vs0mg"},{"bike_id":"46815448-828e-4264-b487-1d252f79d6b7","system_id":"levelo_inurba_marseille","lat":43.31172,"lon":5.3871,"is_reserved":false,"is_disabled":false,"rental_uris":{"android":"levelo://app?vid=46815448-828e-4264-b487-1d252f79d6b7","ios":"levelo://app?vid=46815448-828e-4264-b487-1d252f79d6b7"},"vehicle_type_id":"4","last_reported":1746742203,"current_range_meters":23200,"station_id":"ce4bgv12rcd13ifvqcp0","pricing_plan_id":"cebpf4jnsgd1na2vs0mg"},{"bike_id":"529b4e71-5c5d-41e5-b50f-6935079b8a84","system_id":"levelo_inurba_marseille","lat":43.28683,"lon":5.3866,"is_reserved":false,"is_disabled":false,"rental_uris":{"android":"levelo://app?vid=529b4e71-5c5d-41e5-b50f-6935079b8a84","ios":"levelo://app?vid=529b4e71-5c5d-41e5-b50f-6935079b8a84"},"vehicle_type_id":"4","last_reported":1746742203,"current_range_meters":23200,"station_id":"ce4bh492rcd13ifvqdug","pricing_plan_id":"cebpf4jnsgd1na2vs0mg"},{"bike_id":"ddda9be5-8495-4441-93b9-d1781506a90e","system_id":"levelo_inurba_marseille","lat":43.307909,"lon":5.381491,"is_reserved":false,"is_disabled":true,"rental_uris":{"android":"levelo://app?vid=ddda9be5-8495-4441-93b9-d1781506a90e","ios":"levelo://app?vid=ddda9be5-8495-4441-93b9-d1781506a90e"},"vehicle_type_id":"4","last_reported":1746742203,"current_range_meters":23200,"station_id":"ce4bgt12rcd13ifvqce0","pricing_plan_id":"cebpf4jnsgd1na2vs0mg"},{"bike_id":"d735d0e9-0428-400d-9c4a-41990bbc5999","system_id":"levelo_inurba_marseille","lat":43.28713,"lon":5.3793,"is_reserved":false,"is_disabled":false,"rental_uris":{"android":"levelo://app?vid=d735d0e9-0428-400d-9c4a-41990bbc5999","ios":"levelo://app?vid=d735d0e9-0428-400d-9c4a-41990bbc5999"},"vehicle_type_id":"4","last_reported":1746742203,"current_range_meters":23200,"station_id":"ce4bh9p2rcd13ifvqec0","pricing_plan_id":"cebpf4jnsgd1na2vs0mg"},{"bike_id":"7dbf7670-d1d0-4a80-8ac5-74bfe0c01954","system_id":"levelo_inurba_marseille","lat":43.23763,"lon":5.36182,"is_reserved":false,"is_disabled":false,"rental_uris":{"android":"levelo://app?vid=7dbf7670-d1d0-4a80-8ac5-74bfe0c01954","ios":"levelo://app?vid=7dbf7670-d1d0-4a80-8ac5-74bfe0c01954"},"vehicle_type_id":"4","last_reported":1746742203,"current_range_meters":23200,"station_id":"","pricing_plan_id":"cebpf4jnsgd1na2vs0mg"},{"bike_id":"99f90a21-0302-434d-a21f-17b2fb75866e","system_id":"levelo_inurba_marseille","lat":43.287172,"lon":5.399763,"is_reserved":false,"is_disabled":false,"rental_uris":{"android":"levelo://app?vid=99f90a21-0302-434d-a21f-17b2fb75866e","ios":"levelo://app?vid=99f90a21-0302-434d-a21f-17b2fb75866e"},"vehicle_type_id":"4","last_reported":1746742203,"current_range_meters":23200,"station_id":"ce4bho92rcd13ifvqh3g","pricing_plan_id":"cebpf4jnsgd1na2vs0mg"},{"bike_id":"5a64309b-a794-4a8f-8bbe-7e980831906b","system_id":"levelo_inurba_marseille","lat":43.286647,"lon":5.386783,"is_reserved":false,"is_disabled":false,"rental_uris":{"android":"levelo://app?vid=5a64309b-a794-4a8f-8bbe-7e980831906b","ios":"levelo://app?vid=5a64309b-a794-4a8f-8bbe-7e980831906b"},"vehicle_type_id":"4","last_reported":1746742203,"current_range_meters":23200,"station_id":"ce4bh492rcd13ifvqdug","pricing_plan_id":"cebpf4jnsgd1na2vs0mg"},{"bike_id":"55050393-48a2-4bed-a88f-ba7dd9251b16","system_id":"levelo_inurba_marseille","lat":43.29676,"lon":5.37277,"is_reserved":false,"is_disabled":false,"rental_uris":{"android":"levelo://app?vid=55050393-48a2-4bed-a88f-ba7dd9251b16","ios":"levelo://app?vid=55050393-48a2-4bed-a88f-ba7dd9251b16"},"vehicle_type_id":"4","last_reported":1746742203,"current_range_meters":23200,"station_id":"ce4bgk12rcd13ifvqbj0","pricing_plan_id":"cebpf4jnsgd1na2vs0mg"},{"bike_id":"66d39f5f-1aac-423b-9ea7-bf9c1b0e5079","system_id":"levelo_inurba_marseille","lat":43.275086,"lon":5.411334,"is_reserved":false,"is_disabled":false,"rental_uris":{"android":"levelo://app?vid=66d39f5f-1aac-423b-9ea7-bf9c1b0e5079","ios":"levelo://app?vid=66d39f5f-1aac-423b-9ea7-bf9c1b0e5079"},"vehicle_type_id":"4","last_reported":1746742203,"current_range_meters":23200,"station_id":"","pricing_plan_id":"cebpf4jnsgd1na2vs0mg"},{"bike_id":"b0e06dcb-413c-4652-9e0d-4cc1d3d82f60","system_id":"levelo_inurba_marseille","lat":43.2481,"lon":5.37459,"is_reserved":false,"is_disabled":false,"rental_uris":{"android":"levelo://app?vid=b0e06dcb-413c-4652-9e0d-4cc1d3d82f60","ios":"levelo://app?vid=b0e06dcb-413c-4652-9e0d-4cc1d3d82f60"},"vehicle_type_id":"4","last_reported":1746742203,"current_range_meters":24000,"station_id":"ce4bhgh2rcd13ifvqfb0","pricing_plan_id":"cebpf4jnsgd1na2vs0mg"},{"bike_id":"a1121b36-b5cd-4dda-96ef-13a3dfaa55e1","system_id":"levelo_inurba_marseille","lat":43.301401,"lon":5.387791,"is_reserved":false,"is_disabled":false,"rental_uris":{"android":"levelo://app?vid=a1121b36-b5cd-4dda-96ef-13a3dfaa55e1","ios":"levelo://app?vid=a1121b36-b5cd-4dda-96ef-13a3dfaa55e1"},"vehicle_type_id":"4","last_reported":1746742203,"current_range_meters":24000,"station_id":"","pricing_plan_id":"cebpf4jnsgd1na2vs0mg"},{"bike_id":"da729981-cfb2-4d5a-b0ab-2f95b95a2d14","system_id":"levelo_inurba_marseille","lat":43.30462,"lon":5.37902,"is_reserved":false,"is_disabled":false,"rental_uris":{"android":"levelo://app?vid=da729981-cfb2-4d5a-b0ab-2f95b95a2d14","ios":"levelo://app?vid=da729981-cfb2-4d5a-b0ab-2f95b95a2d14"},"vehicle_type_id":"4","last_reported":1746742203,"current_range_meters":24000,"station_id":"ce4bgup2rcd13ifvqcn0","pricing_plan_id":"cebpf4jnsgd1na2vs0mg"},{"bike_id":"7e699623-9ac4-4a0f-8e0e-3645bac122df","system_id":"levelo_inurba_marseille","lat":43.29518,"lon":5.39395,"is_reserved":false,"is_disabled":false,"rental_uris":{"android":"levelo://app?vid=7e699623-9ac4-4a0f-8e0e-3645bac122df","ios":"levelo://app?vid=7e699623-9ac4-4a0f-8e0e-3645bac122df"},"vehicle_type_id":"4","last_reported":1746742203,"current_range_meters":24000,"station_id":"ce4bh292rcd13ifvqdf0","pricing_plan_id":"cebpf4jnsgd1na2vs0mg"},{"bike_id":"848d237a-6360-408e-a072-b77f90a50134","system_id":"levelo_inurba_marseille","lat":43.28714,"lon":5.39973,"is_reserved":false,"is_disabled":false,"rental_uris":{"android":"levelo://app?vid=848d237a-6360-408e-a072-b77f90a50134","ios":"levelo://app?vid=848d237a-6360-408e-a072-b77f90a50134"},"vehicle_type_id":"4","last_reported":1746742203,"current_range_meters":24000,"station_id":"ce4bho92rcd13ifvqh3g","pricing_plan_id":"cebpf4jnsgd1na2vs0mg"},{"bike_id":"d0af394c-c554-458d-8616-522ef9ea8240","system_id":"levelo_inurba_marseille","lat":43.30466,"lon":5.37897,"is_reserved":false,"is_disabled":false,"rental_uris":{"android":"levelo://app?vid=d0af394c-c554-458d-8616-522ef9ea8240","ios":"levelo://app?vid=d0af394c-c554-458d-8616-522ef9ea8240"},"vehicle_type_id":"4","last_reported":1746742203,"current_range_meters":24000,"station_id":"ce4bgup2rcd13ifvqcn0","pricing_plan_id":"cebpf4jnsgd1na2vs0mg"},{"bike_id":"6c036e22-2880-4ca3-8ec2-3c1c93aa2e22","system_id":"levelo_inurba_marseille","lat":43.33037,"lon":5.3904,"is_reserved":false,"is_disabled":false,"rental_uris":{"android":"levelo://app?vid=6c036e22-2880-4ca3-8ec2-3c1c93aa2e22","ios":"levelo://app?vid=6c036e22-2880-4ca3-8ec2-3c1c93aa2e22"},"vehicle_type_id":"4","last_reported":1746742203,"current_range_meters":24400,"station_id":"ce4bhr92rcd13ifvqhrg","pricing_plan_id":"cebpf4jnsgd1na2vs0mg"},{"bike_id":"42f8807f-49a9-4789-9472-28205f143792","system_id":"levelo_inurba_marseille","lat":43.28861,"lon":5.39307,"is_reserved":false,"is_disabled":false,"rental_uris":{"android":"levelo://app?vid=42f8807f-49a9-4789-9472-28205f143792","ios":"levelo://app?vid=42f8807f-49a9-4789-9472-28205f143792"},"vehicle_type_id":"4","last_reported":1746742203,"current_range_meters":24400,"station_id":"ce4bh2p2rcd13ifvqdi0","pricing_plan_id":"cebpf4jnsgd1na2vs0mg"},