{"last_updated":1739902406,"ttl":60,"version":"2.2","data":{"bikes":[{"bike_id":"aa4ef11b-6084-4e8f-a14b-0ae492aa442c","system_id":"levelo_inurba_marseille","lat":43.28464,"lon":5.35893,"is_reserved":false,"is_disabled":false,"rental_uris":{"android":"levelo://app?vid=aa4ef11b-6084-4e8f-a14b-0ae492aa442c","ios":"levelo://app?vid=aa4ef11b-6084-4e8f-a14b-0ae492aa442c"},"vehicle_type_id":"4","last_reported":1739902406,"current_range_meters":2800,"station_id":"ce4bhah2rcd13ifvqei0","pricing_plan_id":"cebpf4jnsgd1na2vs0mg"},{"bike_id":"245426d6-3dc3-4a4e-91e9-a8e48870be94","system_id":"levelo_inurba_marseille","lat":43.24179,"lon":5.39725,"is_reserved":false,"is_disabled":false,"rental_uris":{"android":"levelo://app?vid=245426d6-3dc3-4a4e-91e9-a8e48870be94","ios":"levelo://app?vid=245426d6-3dc3-4a4e-91e9-a8e48870be94"},"vehicle_type_id":"4","last_reported":1739902406,"current_range_meters":3200,"station_id":"ce4bhn12rcd13ifvqgpg","pricing_plan_id":"cebpf4jnsgd1na2vs0mg"},{"bike_id":"502503d0-e32e-4ad0-8b95-01ee7388d491","system_id":"levelo_inurba_marseille","lat":43.26556,"lon":5.37281,"is_reserved":false,"is_disabled":false,"rental_uris":{"android":"levelo://app?vid=502503d0-e32e-4ad0-8b95-01ee7388d491","ios":"levelo://app?vid=502503d0-e32e-4ad0-8b95-01ee7388d491"},"vehicle_type_id":"4","last_reported":1739902406,"current_range_meters":3200,"station_id":"ce4bhg12rcd13ifvqf70","pricing_plan_id":"cebpf4jnsgd1na2vs0mg"},{"bike_id":"07987152-7744-44f2-b6f4-b81048c61ded","system_id":"levelo_inurba_marseille","lat":43.27819,"lon":5.40715,"is_reserved":false,"is_disabled":true,"rental_uris":{"android":"levelo://app?vid=07987152-7744-44f2-b6f4-b81048c61ded","ios":"levelo://app?vid=07987152-7744-44f2-b6f4-b81048c61ded"},"vehicle_type_id":"4","last_reported":1739902406,"current_range_meters":3200,"station_id":"ce4bhnh2rcd13ifvqgtg","pricing_plan_id":"cebpf4jnsgd1na2vs0mg"},{"bike_id":"58497eef-acac-45be-ac38-097227157552","system_id":"levelo_inurba_marseille","lat":43.30248,"lon":5.40064,"is_reserved":false,"is_disabled":false,"rental_uris":{"android":"levelo://app?vid=58497eef-acac-45be-ac38-097227157552","ios":"levelo://app?vid=58497eef-acac-45be-ac38-097227157552"},"vehicle_type_id":"4","last_reported":1739902406,"current_range_meters":3600,"station_id":"ce4bgvh2rcd13ifvqcs0","pricing_plan_id":"cebpf4jnsgd1na2vs0mg"},{"bike_id":"9304cd99-4f93-4612-8bc9-1a3bf000197b","system_id":"levelo_inurba_marseille","lat":43.29194,"lon":5.39325,"is_reserved":false,"is_disabled":false,"rental_uris":{"android":"levelo://app?vid=9304cd99-4f93-4612-8bc9-1a3bf000197b","ios":"levelo://app?vid=9304cd99-4f93-4612-8bc9-1a3bf000197b"},"vehicle_type_id":"4","last_reported":1739902406,"current_range_meters":3600,"station_id":"ce4bh192rcd13ifvqdd0","pricing_plan_id":"cebpf4jnsgd1na2vs0mg"},{"bike_id":"ef4a012a-50ea-4e7b-a6a1-5ef0ddd4fea7","system_id":"levelo_inurba_marseille","lat":43.28846,"lon":5.39308,"is_reserved":false,"is_disabled":false,"rental_uris":{"android":"levelo://app?vid=ef4a012a-50ea-4e7b-a6a1-5ef0ddd4fea7","ios":"levelo://app?vid=ef4a012a-50ea-4e7b-a6a1-5ef0ddd4fea7"},"vehicle_type_id":"4","last_reported":1739902406,"current_range_meters":3600,"station_id":"ce4bh2p2rcd13ifvqdi0","pricing_plan_id":"cebpf4jnsgd1na2vs0mg"},{"bike_id":"53e17173-dae0-4495-ae06-78c116eda9f4","system_id":"levelo_inurba_marseille","lat":43.30795,"lon":5.37649,"is_reserved":false,"is_disabled":false,"rental_uris":{"android":"levelo://app?vid=53e17173-dae0-4495-ae06-78c116eda9f4","ios":"levelo://app?vid=53e17173-dae0-4495-ae06-78c116eda9f4"},"vehicle_type_id":"4","last_reported":1739902406,"current_range_meters":3200,"station_id":"ce4bgv92rcd13ifvqcq0","pricing_plan_id":"cebpf4jnsgd1na2vs0mg"},{"bike_id":"a9699951-370e-4420-a3f6-2f168e4655d8","system_id":"levelo_inurba_marseille","lat":43.30757,"lon":5.4,"is_reserved":false,"is_disabled":false,"rental_uris":{"android":"levelo://app?vid=a9699951-370e-4420-a3f6-2f168e4655d8","ios":"levelo://app?vid=a9699951-370e-4420-a3f6-2f168e4655d8"},"vehicle_type_id":"4","last_reported":1739902406,"current_range_meters":4000,"station_id":"ce4bhqh2rcd13ifvqhlg","pricing_plan_id":"cebpf4jnsgd1na2vs0mg"},{"bike_id":"8961b928-cb0a-4ee4-b03e-7f18ada97181","system_id":"levelo_inurba_marseille","lat":43.303,"lon":5.36868,"is_reserved":false,"is_disabled":false,"rental_uris":{"android":"levelo://app?vid=8961b928-cb0a-4ee4-b03e-7f18ada97181","ios":"levelo://app?vid=8961b928-cb0a-4ee4-b03e-7f18ada97181"},"vehicle_type_id":"4","last_reported":1739902406,"current_range_meters":4000,"station_id":"ce4bgqh2rcd13ifvqc5g","pricing_plan_id":"cebpf4jnsgd1na2vs0mg"},{"bike_id":"fcc6f1fa-7ff5-4bf5-8052-28444126eee3","system_id":"levelo_inurba_marseille","lat":43.312718,"lon":5.401806,"is_reserved":false,"is_disabled":false,"rental_uris":{"android":"levelo://app?vid=fcc6f1fa-7ff5-4bf5-8052-28444126eee3","ios":"levelo://app?vid=fcc6f1fa-7ff5-4bf5-8052-28444126eee3"},"vehicle_type_id":"4","last_reported":1739902406,"current_range_meters":4400,"station_id":"ce4bh092rcd13ifvqd30","pricing_plan_id":"cebpf4jnsgd1na2vs0mg"},{"bike_id":"eb8dc445-bda8-4015-9345-964c61af4704","system_id":"levelo_inurba_marseille","lat":43.29786,"lon":5.40397,"is_reserved":false,"is_disabled":false,"rental_uris":{"android":"levelo://app?vid=eb8dc445-bda8-4015-9345-964c61af4704","ios":"levelo://app?vid=eb8dc445-bda8-4015-9345-964c61af4704"},"vehicle_type_id":"4","last_reported":1739902406,"current_range_meters":4400,"station_id":"ce4bh112rcd13ifvqd90","pricing_plan_id":"cebpf4jnsgd1na2vs0mg"},{"bike_id":"cb9501c4-a17b-4780-a73c-e0439cc5297c","system_id":"levelo_inurba_marseille","lat":43.309,"lon":5.37189,"is_reserved":false,"is_disabled":false,"rental_uris":{"android":"levelo://app?vid=cb9501c4-a17b-4780-a73c-e0439cc5297c","ios":"levelo://app?vid=cb9501c4-a17b-4780-a73c-e0439cc5297c"},"vehicle_type_id":"4","last_reported":1739902406,"current_range_meters":5600,"station_id":"ce4bguh2rcd13ifvqckg","pricing_plan_id":"cebpf4jnsgd1na2vs0mg"},{"bike_id":"b6128f68-fd1d-48f3-95c3-7aa933ebb417","system_id":"levelo_inurba_marseille","lat":43.28391,"lon":5.375713,"is_reserved":false,"is_disabled":false,"rental_uris":{"android":"levelo://app?vid=b6128f68-fd1d-48f3-95c3-7aa933ebb417","ios":"levelo://app?vid=b6128f68-fd1d-48f3-95c3-7aa933ebb417"},"vehicle_type_id":"4","last_reported":1739902406,"current_range_meters":5600,"station_id":"ce4bh412rcd13ifvqds0","pricing_plan_id":"cebpf4jnsgd1na2vs0mg"},{"bike_id":"bd718e46-4cd8-46be-acc1-9e8c226c30fb","system_id":"levelo_inurba_marseille","lat":43.29303,"lon":5.37161,"is_reserved":false,"is_disabled":false,"rental_uris":{"android":"levelo://app?vid=bd718e46-4cd8-46be-acc1-9e8c226c30fb","ios":"levelo://app?vid=bd718e46-4cd8-46be-acc1-9e8c226c30fb"},"vehicle_type_id":"4","last_reported":1739902406,"current_range_meters":5600,"station_id":"ce4bgh92rcd13ifvqb40","pricing_plan_id":"cebpf4jnsgd1na2vs0mg"},{"bike_id":"2e5e89c3-0e0e-4cca-b25a-7707cb6d7c5d","system_id":"levelo_inurba_marseille","lat":43.27642,"lon":5.40864,"is_reserved":false,"is_disabled":false,"rental_uris":{"android":"levelo://app?vid=2e5e89c3-0e0e-4cca-b25a-7707cb6d7c5d","ios":"levelo://app?vid=2e5e89c3-0e0e-4cca-b25a-7707cb6d7c5d"},"vehicle_type_id":"4","last_reported":1739902406,"current_range_meters":5600,"station_id":"","pricing_plan_id":"cebpf4jnsgd1na2vs0mg"},{"bike_id":"21c21b76-538e-4184-bd4b-9808a92129c8","system_id":"levelo_inurba_marseille","lat":43.29975,"lon":5.38498,"is_reserved":false,"is_disabled":false,"rental_uris":{"android":"levelo://app?vid=21c21b76-538e-4184-bd4b-9808a92129c8","ios":"levelo://app?vid=21c21b76-538e-4184-bd4b-9808a92129c8"},"vehicle_type_id":"4","last_reported":1739902406,"current_range_meters":5600,"station_id":"ce4bgj92rcd13ifvqbd0","pricing_plan_id":"cebpf4jnsgd1na2vs0mg"},{"bike_id":"c48ccf1f-5858-4c54-8e08-900c2122f579","system_id":"levelo_inurba_marseille","lat":43.29897,"lon":5.43672,"is_reserved":false,"is_disabled":false,"rental_uris":{"android":"levelo://app?vid=c48ccf1f-5858-4c54-8e08-900c2122f579","ios":"levelo://app?vid=c48ccf1f-5858-4c54-8e08-900c2122f579"},"vehicle_type_id":"4","last_reported":1739902406,"current_range_meters":5600,"station_id":"ce4bhpp2rcd13ifvqhfg","pricing_plan_id":"cebpf4jnsgd1na2vs0mg"},{"bike_id":"4a0fa723-624e-49fa-b7a6-88a2b35072a5","system_id":"levelo_inurba_marseille","lat":43.29243,"lon":5.36052,"is_reserved":false,"is_disabled":false,"rental_uris":{"android":"levelo://app?vid=4a0fa723-624e-49fa-b7a6-88a2b35072a5","ios":"levelo://app?vid=4a0fa723-624e-49fa-b7a6-88a2b35072a5"},"vehicle_type_id":"4","last_reported":1739902406,"current_range_meters":6000,"station_id":"","pricing_plan_id":"cebpf4jnsgd1na2vs0mg"},{"bike_id":"b4eabccf-33d1-4bed-94fb-dd79bd8cb427","system_id":"levelo_inurba_marseille","lat":43.27194,"lon":5.40982,"is_reserved":false,"is_disabled":false,"rental_uris":{"android":"levelo://app?vid=b4eabccf-33d1-4bed-94fb-dd79bd8cb427","ios":"levelo://app?vid=b4eabccf-33d1-4bed-94fb-dd79bd8cb427"},"vehicle_type_id":"4","last_reported":1739902406,"current_range_meters":6000,"station_id":"ce4bhl12rcd13ifvqgf0","pricing_plan_id":"cebpf4jnsgd1na2vs0mg"},{"bike_id":"828f024f-3fa3-492e-b4f4-7bfb9d5e214d","system_id":"levelo_inurba_marseille","lat":43.27059,"lon":5.42276,"is_reserved":false,"is_disabled":true,"rental_uris":{"android":"levelo://app?vid=828f024f-3fa3-492e-b4f4-7bfb9d5e214d","ios":"levelo://app?vid=828f024f-3fa3-492e-b4f4-7bfb9d5e214d"},"vehicle_type_id":"4","last_reported":1739902406,"current_range_meters":6000,"station_id":"ce4bhk92rcd13ifvqgb0","pricing_plan_id":"cebpf4jnsgd1na2vs0mg"},{"bike_id":"ecfecac4-bba7-401e-b228-1934aaec7e4c","system_id":"levelo_inurba_marseille","lat":43.29889,"lon":5.43663,"is_reserved":false,"is_disabled":false,"rental_uris":{"android":"levelo://app?vid=ecfecac4-bba7-401e-b228-1934aaec7e4c","ios":"levelo://app?vid=ecfecac4-bba7-401e-b228-1934aaec7e4c"},"vehicle_type_id":"4","last_reported":1739902406,"current_range_meters":6000,"station_id":"ce4bhpp2rcd13ifvqhfg","pricing_plan_id":"cebpf4jnsgd1na2vs0mg"},{"bike_id":"1232af9c-fa1a-42d0-b9b2-dd172f784464","system_id":"levelo_inurba_marseille","lat":43.25111,"lon":5.40321,"is_reserved":false,"is_disabled":false,"rental_uris":{"android":"levelo://app?vid=1232af9c-fa1a-42d0-b9b2-dd172f784464","ios":"levelo://app?vid=1232af9c-fa1a-42d0-b9b2-dd172f784464"},"vehicle_type_id":"4","last_reported":1739902406,"current_range_meters":6400,"station_id":"ce4bhlh2rcd13ifvqgig","pricing_plan_id":"cebpf4jnsgd1na2vs0mg"},{"bike_id":"c6a472a3-0fa6-4fdf-9292-b60844d91b44","system_id":"levelo_inurba_marseille","lat":43.295213,"lon":5.390543,"is_reserved":false,"is_disabled":false,"rental_uris":{"android":"levelo://app?vid=c6a472a3-0fa6-4fdf-9292-b60844d91b44","ios":"levelo://app?vid=c6a472a3-0fa6-4fdf-9292-b60844d91b44"},"vehicle_type_id":"4","last_reported":1739902406,"current_range_meters":1600,"station_id":"ce4bh3p2rcd13ifvqdp0","pricing_plan_id":"cebpf4jnsgd1na2vs0mg"},{"bike_id":"ddd78d9b-fbeb-4019-a86c-676aeacb00c8","system_id":"levelo_inurba_marseille","lat":43.28592,"lon":5.37048,"is_reserved":false,"is_disabled":false,"rental_uris":{"android":"levelo://app?vid=ddd78d9b-fbeb-4019-a86c-676aeacb00c8","ios":"levelo://app?vid=ddd78d9b-fbeb-4019-a86c-676aeacb00c8"},"vehicle_type_id":"4","last_reported":1739902406,"current_range_meters":6400,"station_id":"ce4bht12rcd13ifvqi60","pricing_plan_id":"cebpf4jnsgd1na2vs0mg"},{"bike_id":"98dafedc-f25b-409d-b3e2-803b47ffb900","system_id":"levelo_inurba_marseille","lat":43.245,"lon":5.372373,"is_reserved":false,"is_disabled":false,"rental_uris":{"android":"levelo://app?vid=98dafedc-f25b-409d-b3e2-803b47ffb900","ios":"levelo://app?vid=98dafedc-f25b-409d-b3e2-803b47ffb900"},"vehicle_type_id":"4","last_reported":1739902406,"current_range_meters":6400,"station_id":"","pricing_plan_id":"cebpf4jnsgd1na2vs0mg"},{"bike_id":"2fc51c18-93da-4c7a-ae54-30bc1bf5f64d","system_id":"levelo_inurba_marseille","lat":43.2951,"lon":5.38198,"is_reserved":false,"is_disabled":true,"rental_uris":{"android":"levelo://app?vid=2fc51c18-93da-4c7a-ae54-30bc1bf5f64d","ios":"levelo://app?vid=2fc51c18-93da-4c7a-ae54-30bc1bf5f64d"},"vehicle_type_id":"4","last_reported":1739902406,"current_range_meters":6400,"station_id":"","pricing_plan_id":"cebpf4jnsgd1na2vs0mg"},{"bike_id":"a4af178d-0384-434f-89b4-935f9bc2cb39","system_id":"levelo_inurba_marseille","lat":43.29545,"lon":5.42276,"is_reserved":false,"is_disabled":false,"rental_uris":{"android":"levelo://app?vid=a4af178d-0384-434f-89b4-935f9bc2cb39","ios":"levelo://app?vid=a4af178d-0384-434f-89b4-935f9bc2cb39"},"vehicle_type_id":"4","last_reported":1739902406,"current_range_meters":6400,"station_id":"","pricing_plan_id":"cebpf4jnsgd1na2vs0mg"},{"bike_id":"4b3949cf-00c2-4398-960d-f18a1ea38340","system_id":"levelo_inurba_marseille","lat":43.2836,"lon":5.38111,"is_reserved":false,"is_disabled":false,"rental_uris":{"android":"levelo://app?vid=4b3949cf-00c2-4398-960d-f18a1ea38340","ios":"levelo://app?vid=4b3949cf-00c2-4398-960d-f18a1ea38340"},"vehicle_type_id":"4","last_reported":1739902406,"current_range_meters":6400,"station_id":"","pricing_plan_id":"cebpf4jnsgd1na2vs0mg"},{"bike_id":"59d8b3ce-c48f-4458-81b1-127b48772a44","system_id":"levelo_inurba_marseille","lat":43.25828,"lon":5.394431,"is_reserved":false,"is_disabled":false,"rental_uris":{"android":"levelo://app?vid=59d8b3ce-c48f-4458-81b1-127b48772a44","ios":"levelo://app?vid=59d8b3ce-c48f-4458-81b1-127b48772a44"},"vehicle_type_id":"4","last_reported":1739902406,"current_range_meters":6800,"station_id":"","pricing_plan_id":"cebpf4jnsgd1na2vs0mg"},{"bike_id":"811901b7-6a39-4b98-9209-f363e05c2482","system_id":"levelo_inurba_marseille","lat":43.28147,"lon":5.42649,"is_reserved":false,"is_disabled":false,"rental_uris":{"android":"levelo://app?vid=811901b7-6a39-4b98-9209-f363e05c2482","ios":"levelo://app?vid=811901b7-6a39-4b98-9209-f363e05c2482"},"vehicle_type_id":"4","last_reported":1739902406,"current_range_meters":6800,"station_id":"ce4bhnh2rcd13ifvqgug","pricing_plan_id":"cebpf4jnsgd1na2vs0mg"},{"bike_id":"d47541b1-e4a8-4971-b0ae-d252099b8afa","system_id":"levelo_inurba_marseille","lat":43.26035,"lon":5.37547,"is_reserved":false,"is_disabled":false,"rental_uris":{"android":"levelo://app?vid=d47541b1-e4a8-4971-b0ae-d252099b8afa","ios":"levelo://app?vid=d47541b1-e4a8-4971-b0ae-d252099b8afa"},"vehicle_type_id":"4","last_reported":1739902406,"current_range_meters":6800,"station_id":"ce4bhgh2rcd13ifvqfa0","pricing_plan_id":"cebpf4jnsgd1na2vs0mg"},{"bike_id":"737d6c52-5555-486e-a76c-1b5f9ae75e76","system_id":"levelo_inurba_marseille","lat":43.299042,"lon":5.41324,"is_reserved":false,"is_disabled":false,"rental_uris":{"android":"levelo://app?vid=737d6c52-5555-486e-a76c-1b5f9ae75e76","ios":"levelo://app?vid=737d6c52-5555-486e-a76c-1b5f9ae75e76"},"vehicle_type_id":"4","last_reported":1739902406,"current_range_meters":6800,"station_id":"ce4bhop2rcd13ifvqh8g","pricing_plan_id":"cebpf4jnsgd1na2vs0mg"},{"bike_id":"c0ce2474-ab96-4bf3-92ed-1dd898e6ebc1","system_id":"levelo_inurba_marseille","lat":43.2737,"lon":5.36257,"is_reserved":false,"is_disabled":false,"rental_uris":{"android":"levelo://app?vid=c0ce2474-ab96-4bf3-92ed-1dd898e6ebc1","ios":"levelo://app?vid=c0ce2474-ab96-4bf3-92ed-1dd898e6ebc1"},"vehicle_type_id":"4","last_reported":1739902406,"current_range_meters":6800,"station_id":"ce4bhbh2rcd13ifvqeo0","pricing_plan_id":"cebpf4jnsgd1na2vs0mg"},{"bike_id":"f301f0ca-9a74-4b1b-95f5-7641143983d6","system_id":"levelo_inurba_marseille","lat":43.25083,"lon":5.39517,"is_reserved":false,"is_disabled":false,"rental_uris":{"android":"levelo://app?vid=f301f0ca-9a74-4b1b-95f5-7641143983d6","ios":"levelo://app?vid=f301f0ca-9a74-4b1b-95f5-7641143983d6"},"vehicle_type_id":"4","last_reported":1739902406,"current_range_meters":6800,"station_id":"ce4bhm12rcd13ifvqgkg","pricing_plan_id":"cebpf4jnsgd1na2vs0mg"},{"bike_id":"861e420e-3d91-42c2-823c-7e4faad33d9b","system_id":"levelo_inurba_marseille","lat":43.29021,"lon":5.35616,"is_reserved":false,"is_disabled":false,"rental_uris":{"android":"levelo://app?vid=861e420e-3d91-42c2-823c-7e4faad33d9b","ios":"levelo://app?vid=861e420e-3d91-42c2-823c-7e4faad33d9b"},"vehicle_type_id":"4","last_reported":1739902406,"current_range_meters":7200,"station_id":"ce4bhb92rcd13ifvqen0","pricing_plan_id":"cebpf4jnsgd1na2vs0mg"},{"bike_id":"4f7ae8bc-f54b-47eb-a5e6-b88a1c0eeb3b","system_id":"levelo_inurba_marseille","lat":43.25578,"lon":5.38238,"is_reserved":false,"is_disabled":false,"rental_uris":{"android":"levelo://app?vid=4f7ae8bc-f54b-47eb-a5e6-b88a1c0eeb3b","ios":"levelo://app?vid=4f7ae8bc-f54b-47eb-a5e6-b88a1c0eeb3b"},"vehicle_type_id":"4","last_reported":1739902406,"current_range_meters":7200,"station_id":"ce4bhih2rcd13ifvqfs0","pricing_plan_id":"cebpf4jnsgd1na2vs0mg"},{"bike_id":"75c20858-f184-4f59-bfd9-b6b010163f1c","system_id":"levelo_inurba_marseille","lat":43.2953,"lon":5.38549,"is_reserved":false,"is_disabled":false,"rental_uris":{"android":"levelo://app?vid=75c20858-f184-4f59-bfd9-b6b010163f1c","ios":"levelo://app?vid=75c20858-f184-4f59-bfd9-b6b010163f1c"},"vehicle_type_id":"4","last_reported":1739902406,"current_range_meters":7200,"station_id":"","pricing_plan_id":"cebpf4jnsgd1na2vs0mg"},{"bike_id":"557c6346-5796-45cc-9761-5b855739e79b","system_id":"levelo_inurba_marseille","lat":43.28527,"lon":5.38399,"is_reserved":false,"is_disabled":false,"rental_uris":{"android":"levelo://app?vid=557c6346-5796-45cc-9761-5b855739e79b","ios":"levelo://app?vid=557c6346-5796-45cc-9761-5b855739e79b"},"vehicle_type_id":"4","last_reported":1739902406,"current_range_meters":7200,"station_id":"","pricing_plan_id":"cebpf4jnsgd1na2vs0mg"},{"bike_id":"13acde07-7dc4-4d4f-a633-f2583461c297","system_id":"levelo_inurba_marseille","lat":43.24809,"lon":5.37459,"is_reserved":false,"is_disabled":false,"rental_uris":{"android":"levelo://app?vid=13acde07-7dc4-4d4f-a633-f2583461c297","ios":"levelo://app?vid=13acde07-7dc4-4d4f-a633-f2583461c297"},"vehicle_type_id":"4","last_reported":1739902406,"current_range_meters":7200,"station_id":"","pricing_plan_id":"cebpf4jnsgd1na2vs0mg"},{"bike_id":"c21214b8-4e24-4e4f-a69f-672307e7c6ff","system_id":"levelo_inurba_marseille","lat":43.28141,"lon":5.42637,"is_reserved":false,"is_disabled":false,"rental_uris":{"android":"levelo://app?vid=c21214b8-4e24-4e4f-a69f-672307e7c6ff","ios":"levelo://app?vid=c21214b8-4e24-4e4f-a69f-672307e7c6ff"},"vehicle_type_id":"4","last_reported":1739902406,"current_range_meters":8400,"station_id":"","pricing_plan_id":"cebpf4jnsgd1na2vs0mg"},{"bike_id":"dc45bc5f-7f9e-4377-804b-2c349e32bc60","system_id":"levelo_inurba_marseille","lat":43.29154,"lon":5.38831,"is_reserved":false,"is_disabled":false,"rental_uris":{"android":"levelo://app?vid=dc45bc5f-7f9e-4377-804b-2c349e32bc60","ios":"levelo://app?vid=dc45bc5f-7f9e-4377-804b-2c349e32bc60"},"vehicle_type_id":"4","last_reported":1739902406,"current_range_meters":10000,"station_id":"","pricing_plan_id":"cebpf4jnsgd1na2vs0mg"},{"bike_id":"d855430c-6af6-4afc-8621-8dac0152b130","system_id":"levelo_inurba_marseille","lat":43.29547,"lon":5.38536,"is_reserved":false,"is_disabled":false,"rental_uris":{"android":"levelo://app?vid=d855430c-6af6-4afc-8621-8dac0152b130","ios":"levelo://app?vid=d855430c-6af6-4afc-8621-8dac0152b130"},"vehicle_type_id":"4","last_reported":1739902406,"current_range_meters":7200,"station_id":"","pricing_plan_id":"cebpf4jnsgd1na2vs0mg"},{"bike_id":"1a3dc615-5953-4063-a088-6918c0b9207d","system_id":"levelo_inurba_marseille","lat":43.30245,"lon":5.40061,"is_reserved":false,"is_disabled":false,"rental_uris":{"android":"levelo://app?vid=1a3dc615-5953-4063-a088-6918c0b9207d","ios":"levelo://app?vid=1a3dc615-5953-4063-a088-6918c0b9207d"},"vehicle_type_id":"4","last_reported":1739902406,"current_range_meters":8000,"station_id":"ce4bgvh2rcd13ifvqcs0","pricing_plan_id":"cebpf4jnsgd1na2vs0mg"},{"bike_id":"6528e792-6c2b-41ab-b102-37d30001a0e7","system_id":"levelo_inurba_marseille","lat":43.27234,"lon":5.40065,"is_reserved":false,"is_disabled":false,"rental_uris":{"android":"levelo://app?vid=6528e792-6c2b-41ab-b102-37d30001a0e7","ios":"levelo://app?vid=6528e792-6c2b-41ab-b102-37d30001a0e7"},"vehicle_type_id":"4","last_reported":1739902406,"current_range_meters":8000,"station_id":"","pricing_plan_id":"cebpf4jnsgd1na2vs0mg"},{"bike_id":"c05bbc4c-f9c4-43c2-805a-c785d75a7451","system_id":"levelo_inurba_marseille","lat":43.29032,"lon":5.35915,"is_reserved":false,"is_disabled":false,"rental_uris":{"android":"levelo://app?vid=c05bbc4c-f9c4-43c2-805a-c785d75a7451","ios":"levelo://app?vid=c05bbc4c-f9c4-43c2-805a-c785d75a7451"},"vehicle_type_id":"4","last_reported":1739902406,"current_range_meters":7200,"station_id":"ce4bha92rcd13ifvqeg0","pricing_plan_id":"cebpf4jnsgd1na2vs0mg"},{"bike_id":"020f9db3-6048-4a83-8c59-4acc533112c8","system_id":"levelo_inurba_marseille","lat":43.28161,"lon":5.42633,"is_reserved":false,"is_disabled":false,"rental_uris":{"android":"levelo://app?vid=020f9db3-6048-4a83-8c59-4acc533112c8","ios":"levelo://app?vid=020f9db3-6048-4a83-8c59-4acc533112c8"},"vehicle_type_id":"4","last_reported":1739902406,"current_range_meters":8000,"station_id":"ce4bhnh2rcd13ifvqgug","pricing_plan_id":"cebpf4jnsgd1na2vs0mg"},{"bike_id":"d3ccfae8-11c3-43b7-99ba-d1c560cd022e","system_id":"levelo_inurba_marseille","lat":43.3042,"lon":5.4128,"is_reserved":false,"is_disabled":false,"rental_uris":{"android":"levelo://app?vid=d3ccfae8-11c3-43b7-99ba-d1c560cd022e","ios":"levelo://app?vid=d3ccfae8-11c3-43b7-99ba-d1c560cd022e"},"vehicle_type_id":"4","last_reported":1739902406,"current_range_meters":8400,"station_id":"ce4bhop2rcd13ifvqh8g","pricing_plan_id":"cebpf4jnsgd1na2vs0mg"},{"bike_id":"18c24524-a930-4c34-b626-8240e5f78fbd","system_id":"levelo_inurba_marseille","lat":43.31163,"lon":5.38721,"is_reserved":false,"is_disabled":false,"rental_uris":{"android":"levelo://app?vid=18c24524-a930-4c34-b626-8240e5f78fbd","ios":"levelo://app?vid=18c24524-a930-4c34-b626-8240e5f78fbd"},"vehicle_type_id":"4","last_reported":1739902406,"current_range_meters":8400,"station_id":"ce4bgv12rcd13ifvqcp0","pricing_plan_id":"cebpf4jnsgd1na2vs0mg"},{"bike_id":"e47aead3-e88f-486d-95b3-abf3b7768f6e","system_id":"levelo_inurba_marseille","lat":43.28461,"lon":5.35888,"is_reserved":false,"is_disabled":false,"rental_uris":{"android":"levelo://app?vid=e47aead3-e88f-486d-95b3-abf3b7768f6e","ios":"levelo://app?vid=e47aead3-e88f-486d-95b3-abf3b7768f6e"},"vehicle_type_id":"4","last_reported":1739902406,"current_range_meters":8400,"station_id":"ce4bhah2rcd13ifvqei0","pricing_plan_id":"cebpf4jnsgd1na2vs0mg"},{"bike_id":"43e58a6d-2a17-41bb-bd75-661bed22a62b","system_id":"levelo_inurba_marseille","lat":43.31196,"lon":5.38717,"is_reserved":false,"is_disabled":false,"rental_uris":{"android":"levelo://app?vid=43e58a6d-2a17-41bb-bd75-661bed22a62b","ios":"levelo://app?vid=43e58a6d-2a17-41bb-bd75-661bed22a62b"},"vehicle_type_id":"4","last_reported":1739902406,"current_range_meters":8400,"station_id":"","pricing_plan_id":"cebpf4jnsgd1na2vs0mg"},{"bike_id":"a3fc5c27-0ec8-446d-a541-492f76df888a","system_id":"levelo_inurba_marseille","lat":43.30229,"lon":5.3947,"is_reserved":false,"is_disabled":false,"rental_uris":{"android":"levelo://app?vid=a3fc5c27-0ec8-446d-a541-492f76df888a","ios":"levelo://app?vid=a3fc5c27-0ec8-446d-a541-492f76df888a"},"vehicle_type_id":"4","last_reported":1739902406,"current_range_meters":8400,"station_id":"ce4bh0p2rcd13ifvqd70","pricing_plan_id":"cebpf4jnsgd1na2vs0mg"},{"bike_id":"8a8812c5-a162-4651-9c05-d073754743cd","system_id":"levelo_inurba_marseille","lat":43.28408,"lon":5.3752,"is_reserved":false,"is_disabled":false,"rental_uris":{"android":"levelo://app?vid=8a8812c5-a162-4651-9c05-d073754743cd","ios":"levelo://app?vid=8a8812c5-a162-4651-9c05-d073754743cd"},"vehicle_type_id":"4","last_reported":1739902406,"current_range_meters":8400,"station_id":"","pricing_plan_id":"cebpf4jnsgd1na2vs0mg"},{"bike_id":"66bdaba1-8ea6-4d2c-ad9c-6d213bc14ad8","system_id":"levelo_inurba_marseille","lat":43.26204,"lon":5.37927,"is_reserved":false,"is_disabled":false,"rental_uris":{"android":"levelo://app?vid=66bdaba1-8ea6-4d2c-ad9c-6d213bc14ad8","ios":"levelo://app?vid=66bdaba1-8ea6-4d2c-ad9c-6d213bc14ad8"},"vehicle_type_id":"4","last_reported":1739902406,"current_range_meters":8400,"station_id":"ce4bhjp2rcd13ifvqg90","pricing_plan_id":"cebpf4jnsgd1na2vs0mg"},{"bike_id":"6bb7ac37-d16c-4a25-b6eb-1bf8ca1b78d5","system_id":"levelo_inurba_marseille","lat":43.32536,"lon":5.41434,"is_reserved":false,"is_disabled":false,"rental_uris":{"android":"levelo://app?vid=6bb7ac37-d16c-4a25-b6eb-1bf8ca1b78d5","ios":"levelo://app?vid=6bb7ac37-d16c-4a25-b6eb-1bf8ca1b78d5"},"vehicle_type_id":"4","last_reported":1739902406,"current_range_meters":8400,"station_id":"ce4bhq12rcd13ifvqhhg","pricing_plan_id":"cebpf4jnsgd1na2vs0mg"},{"bike_id":"10da568b-eea1-4952-b2a0-b0abb6cb5f84","system_id":"levelo_inurba_marseille","lat":43.29408,"lon":5.38619,"is_reserved":false,"is_disabled":false,"rental_uris":{"android":"levelo://app?vid=10da568b-eea1-4952-b2a0-b0abb6cb5f84","ios":"levelo://app?vid=10da568b-eea1-4952-b2a0-b0abb6cb5f84"},"vehicle_type_id":"4","last_reported":1739902406,"current_range_meters":8400,"station_id":"ce4bh2h2rcd13ifvqdh0","pricing_plan_id":"cebpf4jnsgd1na2vs0mg"},{"bike_id":"60626ca0-cac8-492c-978a-667c1716f522","system_id":"levelo_inurba_marseille","lat":43.27902,"lon":5.38014,"is_reserved":false,"is_disabled":false,"rental_uris":{"android":"levelo://app?vid=60626ca0-cac8-492c-978a-667c1716f522","ios":"levelo://app?vid=60626ca0-cac8-492c-978a-667c1716f522"},"vehicle_type_id":"4","last_reported":1739902406,"current_range_meters":8000,"station_id":"ce4bhf92rcd13ifvqf50","pricing_plan_id":"cebpf4jnsgd1na2vs0mg"},{"bike_id":"2dbb9cf2-e45a-4b15-8bb2-7729991ab195","system_id":"levelo_inurba_marseille","lat":43.29973,"lon":5.38495,"is_reserved":false,"is_disabled":false,"rental_uris":{"android":"levelo://app?vid=2dbb9cf2-e45a-4b15-8bb2-7729991ab195","ios":"levelo://app?vid=2dbb9cf2-e45a-4b15-8bb2-7729991ab195"},"vehicle_type_id":"4","last_reported":1739902406,"current_range_meters":8400,"station_id":"ce4bgj92rcd13ifvqbd0","pricing_plan_id":"cebpf4jnsgd1na2vs0mg"},{"bike_id":"f23b775f-c6eb-427a-b571-cb883c8abbd7","system_id":"levelo_inurba_marseille","lat":43.31479,"lon":5.37299,"is_reserved":false,"is_disabled":false,"rental_uris":{"android":"levelo://app?vid=f23b775f-c6eb-427a-b571-cb883c8abbd7","ios":"levelo://app?vid=f23b775f-c6eb-427a-b571-cb883c8abbd7"},"vehicle_type_id":"4","last_reported":1739902406,"current_range_meters":8000,"station_id":"ce4bgt12rcd13ifvqcd0","pricing_plan_id":"cebpf4jnsgd1na2vs0mg"},{"bike_id":"fa762754-d88f-4a6a-a033-a3cf7dc495a4","system_id":"levelo_inurba_marseille","lat":43.27069,"lon":5.42284,"is_reserved":false,"is_disabled":false,"rental_uris":{"android":"levelo://app?vid=fa762754-d88f-4a6a-a033-a3cf7dc495a4","ios":"levelo://app?vid=fa762754-d88f-4a6a-a033-a3cf7dc495a4"},"vehicle_type_id":"4","last_reported":1739902406,"current_range_meters":8800,"station_id":"ce4bhk92rcd13ifvqgb0","pricing_plan_id":"cebpf4jnsgd1na2vs0mg"},{"bike_id":"01b55c42-f2d9-4176-aa4e-faa506e90dd4","system_id":"levelo_inurba_marseille","lat":43.27491,"lon":5.42452,"is_reserved":false,"is_disabled":false,"rental_uris":{"android":"levelo://app?vid=01b55c42-f2d9-4176-aa4e-faa506e90dd4","ios":"levelo://app?vid=01b55c42-f2d9-4176-aa4e-faa506e90dd4"},"vehicle_type_id":"4","last_reported":1739902406,"current_range_meters":8800,"station_id":"ce4bhn92rcd13ifvqgrg","pricing_plan_id":"cebpf4jnsgd1na2vs0mg"},{"bike_id":"6aa2c406-2904-4de6-bead-7f3a7da561e5","system_id":"levelo_inurba_marseille","lat":43.28346,"lon":5.38106,"is_reserved":false,"is_disabled":false,"rental_uris":{"android":"levelo://app?vid=6aa2c406-2904-4de6-bead-7f3a7da561e5","ios":"levelo://app?vid=6aa2c406-2904-4de6-bead-7f3a7da561e5"},"vehicle_type_id":"4","last_reported":1739902406,"current_range_meters":8800,"station_id":"ce4bh412rcd13ifvqdr0","pricing_plan_id":"cebpf4jnsgd1na2vs0mg"},{"bike_id":"f607b377-be59-407a-890c-1fccc70af9d4","system_id":"levelo_inurba_marseille","lat":43.2957,"lon":5.39986,"is_reserved":false,"is_disabled":false,"rental_uris":{"android":"levelo://app?vid=f607b377-be59-407a-890c-1fccc70af9d4","ios":"levelo://app?vid=f607b377-be59-407a-890c-1fccc70af9d4"},"vehicle_type_id":"4","last_reported":1739902406,"current_range_meters":8800,"station_id":"ce4bh312rcd13ifvqdj0","pricing_plan_id":"cebpf4jnsgd1na2vs0mg"},{"bike_id":"33b60dc8-bc73-4a1f-8900-93f9bd4e67a9","system_id":"levelo_inurba_marseille","lat":43.28842,"lon":5.39298,"is_reserved":false,"is_disabled":false,"rental_uris":{"android":"levelo://app?vid=33b60dc8-bc73-4a1f-8900-93f9bd4e67a9","ios":"levelo://app?vid=33b60dc8-bc73-4a1f-8900-93f9bd4e67a9"},"vehicle_type_id":"4","last_reported":1739902406,"current_range_meters":8800,"station_id":"ce4bha12rcd13ifvqee0","pricing_plan_id":"cebpf4jnsgd1na2vs0mg"},{"bike_id":"2bbaf6fc-52ce-4971-a02d-2415f0e0b720","system_id":"levelo_inurba_marseille","lat":43.29092,"lon":5.38113,"is_reserved":false,"is_disabled":false,"rental_uris":{"android":"levelo://app?vid=2bbaf6fc-52ce-4971-a02d-2415f0e0b720","ios":"levelo://app?vid=2bbaf6fc-52ce-4971-a02d-2415f0e0b720"},"vehicle_type_id":"4","last_reported":1739902406,"current_range_meters":9200,"station_id":"ce4bh512rcd13ifvqe2g","pricing_plan_id":"cebpf4jnsgd1na2vs0mg"},{"bike_id":"5d998712-acb4-4dee-9189-99a4f6fe617f","system_id":"levelo_inurba_marseille","lat":43.304611,"lon":5.379054,"is_reserved":false,"is_disabled":false,"rental_uris":{"android":"levelo://app?vid=5d998712-acb4-4dee-9189-99a4f6fe617f","ios":"levelo://app?vid=5d998712-acb4-4dee-9189-99a4f6fe617f"},"vehicle_type_id":"4","last_reported":1739902406,"current_range_meters":8400,"station_id":"ce4bgup2rcd13ifvqcn0","pricing_plan_id":"cebpf4jnsgd1na2vs0mg"},{"bike_id":"40bc2798-54a9-4858-a134-52ffacf0378f","system_id":"levelo_inurba_marseille","lat":43.28161,"lon":5.42633,"is_reserved":false,"is_disabled":false,"rental_uris":{"android":"levelo://app?vid=40bc2798-54a9-4858-a134-52ffacf0378f","ios":"levelo://app?vid=40bc2798-54a9-4858-a134-52ffacf0378f"},"vehicle_type_id":"4","last_reported":1739902406,"current_range_meters":9200,"station_id":"ce4bhnh2rcd13ifvqgug","pricing_plan_id":"cebpf4jnsgd1na2vs0mg"},{"bike_id":"90330b82-c731-4f59-aadc-5d582d1a9c5d","system_id":"levelo_inurba_marseille","lat":43.27947,"lon":5.41029,"is_reserved":false,"is_disabled":false,"rental_uris":{"android":"levelo://app?vid=90330b82-c731-4f59-aadc-5d582d1a9c5d","ios":"levelo://app?vid=90330b82-c731-4f59-aadc-5d582d1a9c5d"},"vehicle_type_id":"4","last_reported":1739902406,"current_range_meters":9200,"station_id":"ce4bhnp2rcd13ifvqh0g","pricing_plan_id":"cebpf4jnsgd1na2vs0mg"},{"bike_id":"1457a55b-38f2-4998-902f-c3882e7579e0","system_id":"levelo_inurba_marseille","lat":43.287058,"lon":5.384994,"is_reserved":false,"is_disabled":false,"rental_uris":{"android":"levelo://app?vid=1457a55b-38f2-4998-902f-c3882e7579e0","ios":"levelo://app?vid=1457a55b-38f2-4998-902f-c3882e7579e0"},"vehicle_type_id":"4","last_reported":1739902406,"current_range_meters":9200,"station_id":"ce4bhhp2rcd13ifvqfm0","pricing_plan_id":"cebpf4jnsgd1na2vs0mg"},{"bike_id":"cb74a6b0-2c78-4b53-916e-07838e953a0a","system_id":"levelo_inurba_marseille","lat":43.28666,"lon":5.36353,"is_reserved":false,"is_disabled":false,"rental_uris":{"android":"levelo://app?vid=cb74a6b0-2c78-4b53-916e-07838e953a0a","ios":"levelo://app?vid=cb74a6b0-2c78-4b53-916e-07838e953a0a"},"vehicle_type_id":"4","last_reported":1739902406,"current_range_meters":9200,"station_id":"ce4bhah2rcd13ifvqej0","pricing_plan_id":"cebpf4jnsgd1na2vs0mg"},{"bike_id":"a79b450c-6e11-4945-a0c0-dfd0d295270d","system_id":"levelo_inurba_marseille","lat":43.29288,"lon":5.37461,"is_reserved":false,"is_disabled":false,"rental_uris":{"android":"levelo://app?vid=a79b450c-6e11-4945-a0c0-dfd0d295270d","ios":"levelo://app?vid=a79b450c-6e11-4945-a0c0-dfd0d295270d"},"vehicle_type_id":"4","last_reported":1739902406,"current_range_meters":8800,"station_id":"ce4bgi12rcd13ifvqb70","pricing_plan_id":"cebpf4jnsgd1na2vs0mg"},{"bike_id":"92396f9a-c603-4bc4-b97f-efd87af4a381","system_id":"levelo_inurba_marseille","lat":43.28694,"lon":5.38674,"is_reserved":false,"is_disabled":false,"rental_uris":{"android":"levelo://app?vid=92396f9a-c603-4bc4-b97f-efd87af4a381","ios":"levelo://app?vid=92396f9a-c603-4bc4-b97f-efd87af4a381"},"vehicle_type_id":"4","last_reported":1739902406,"current_range_meters":9200,"station_id":"ce4bh492rcd13ifvqdug","pricing_plan_id":"cebpf4jnsgd1na2vs0mg"},{"bike_id":"cc980cae-4f40-4138-819d-2e64703cf261","system_id":"levelo_inurba_marseille","lat":43.30259,"lon":5.40079,"is_reserved":false,"is_disabled":false,"rental_uris":{"android":"levelo://app?vid=cc980cae-4f40-4138-819d-2e64703cf261","ios":"levelo://app?vid=cc980cae-4f40-4138-819d-2e64703cf261"},"vehicle_type_id":"4","last_reported":1739902406,"current_range_meters":9600,"station_id":"ce4bgvh2rcd13ifvqcs0","pricing_plan_id":"cebpf4jnsgd1na2vs0mg"},{"bike_id":"60374178-f118-4837-8b8d-369a4f7e98f3","system_id":"levelo_inurba_marseille","lat":43.29277,"lon":5.38424,"is_reserved":false,"is_disabled":false,"rental_uris":{"android":"levelo://app?vid=60374178-f118-4837-8b8d-369a4f7e98f3","ios":"levelo://app?vid=60374178-f118-4837-8b8d-369a4f7e98f3"},"vehicle_type_id":"4","last_reported":1739902406,"current_range_meters":9600,"station_id":"ce4bh692rcd13ifvqea0","pricing_plan_id":"cebpf4jnsgd1na2vs0mg"},{"bike_id":"e0890ac3-54c4-4e6a-a5d8-b038df540cf0","system_id":"levelo_inurba_marseille","lat":43.24673,"lon":5.38158,"is_reserved":false,"is_disabled":false,"rental_uris":{"android":"levelo://app?vid=e0890ac3-54c4-4e6a-a5d8-b038df540cf0","ios":"levelo://app?vid=e0890ac3-54c4-4e6a-a5d8-b038df540cf0"},"vehicle_type_id":"4","last_reported":1739902406,"current_range_meters":9200,"station_id":"ce4bhih2rcd13ifvqfr0","pricing_plan_id":"cebpf4jnsgd1na2vs0mg"},{"bike_id":"c9071df5-5664-4a5e-b1b2-1df958a7db03","system_id":"levelo_inurba_marseille","lat":43.23965,"lon":5.36636,"is_reserved":false,"is_disabled":false,"rental_uris":{"android":"levelo://app?vid=c9071df5-5664-4a5e-b1b2-1df958a7db03","ios":"levelo://app?vid=c9071df5-5664-4a5e-b1b2-1df958a7db03"},"vehicle_type_id":"4","last_reported":1739902406,"current_range_meters":9600,"station_id":"","pricing_plan_id":"cebpf4jnsgd1na2vs0mg"},{"bike_id":"603829f6-1bd6-420a-b866-4544fcbffbce","system_id":"levelo_inurba_marseille","lat":43.24797,"lon":5.37459,"is_reserved":false,"is_disabled":false,"rental_uris":{"android":"levelo://app?vid=603829f6-1bd6-420a-b866-4544fcbffbce","ios":"levelo://app?vid=603829f6-1bd6-420a-b866-4544fcbffbce"},"vehicle_type_id":"4","last_reported":1739902406,"current_range_meters":9600,"station_id":"","pricing_plan_id":"cebpf4jnsgd1na2vs0mg"},{"bike_id":"fc9896ce-1f52-403c-86a7-1678079c9523","system_id":"levelo_inurba_marseille","lat":43.28175,"lon":5.44189,"is_reserved":false,"is_disabled":false,"rental_uris":{"android":"levelo://app?vid=fc9896ce-1f52-403c-86a7-1678079c9523","ios":"levelo://app?vid=fc9896ce-1f52-403c-86a7-1678079c9523"},"vehicle_type_id":"4","last_reported":1739902406,"current_range_meters":9600,"station_id":"","pricing_plan_id":"cebpf4jnsgd1na2vs0mg"},{"bike_id":"7a067ee4-37ba-4ba0-8489-80f05d5c35e8","system_id":"levelo_inurba_marseille","lat":43.30223,"lon":5.39462,"is_reserved":false,"is_disabled":false,"rental_uris":{"android":"levelo://app?vid=7a067ee4-37ba-4ba0-8489-80f05d5c35e8","ios":"levelo://app?vid=7a067ee4-37ba-4ba0-8489-80f05d5c35e8"},"vehicle_type_id":"4","last_reported":1739902406,"current_range_meters":9600,"station_id":"ce4bh0p2rcd13ifvqd70","pricing_plan_id":"cebpf4jnsgd1na2vs0mg"},{"bike_id":"5e08a6de-c9e9-45e7-b5ec-012efa1ad19b","system_id":"levelo_inurba_marseille","lat":43.25578,"lon":5.38249,"is_reserved":false,"is_disabled":false,"rental_uris":{"android":"levelo://app?vid=5e08a6de-c9e9-45e7-b5ec-012efa1ad19b","ios":"levelo://app?vid=5e08a6de-c9e9-45e7-b5ec-012efa1ad19b"},"vehicle_type_id":"4","last_reported":1739902406,"current_range_meters":11600,"station_id":"ce4bhih2rcd13ifvqfs0","pricing_plan_id":"cebpf4jnsgd1na2vs0mg"},{"bike_id":"8072f034-69d4-48c5-b234-451357393f04","system_id":"levelo_inurba_marseille","lat":43.23965,"lon":5.36616,"is_reserved":false,"is_disabled":false,"rental_uris":{"android":"levelo://app?vid=8072f034-69d4-48c5-b234-451357393f04","ios":"levelo://app?vid=8072f034-69d4-48c5-b234-451357393f04"},"vehicle_type_id":"4","last_reported":1739902406,"current_range_meters":10000,"station_id":"ce4bhi12rcd13ifvqfp0","pricing_plan_id":"cebpf4jnsgd1na2vs0mg"},{"bike_id":"359efe3b-98b0-4124-819f-e7acac6efc0a","system_id":"levelo_inurba_marseille","lat":43.29005,"lon":5.35614,"is_reserved":false,"is_disabled":false,"rental_uris":{"android":"levelo://app?vid=359efe3b-98b0-4124-819f-e7acac6efc0a","ios":"levelo://app?vid=359efe3b-98b0-4124-819f-e7acac6efc0a"},"vehicle_type_id":"4","last_reported":1739902406,"current_range_meters":9600,"station_id":"ce4bhb92rcd13ifvqen0","pricing_plan_id":"cebpf4jnsgd1na2vs0mg"},{"bike_id":"0ddd8de4-1fa2-44a4-910e-01dbc6c0ee46","system_id":"levelo_inurba_marseille","lat":43.29607,"lon":5.37715,"is_reserved":false,"is_disabled":true,"rental_uris":{"android":"levelo://app?vid=0ddd8de4-1fa2-44a4-910e-01dbc6c0ee46","ios":"levelo://app?vid=0ddd8de4-1fa2-44a4-910e-01dbc6c0ee46"},"vehicle_type_id":"4","last_reported":1739902406,"current_range_meters":10000,"station_id":"","pricing_plan_id":"cebpf4jnsgd1na2vs0mg"},{"bike_id":"e8263e5c-ca12-4de4-a165-189c5ba0d9d3","system_id":"levelo_inurba_marseille","lat":43.30063,"lon":5.38645,"is_reserved":false,"is_disabled":false,"rental_uris":{"android":"levelo://app?vid=e8263e5c-ca12-4de4-a165-189c5ba0d9d3","ios":"levelo://app?vid=e8263e5c-ca12-4de4-a165-189c5ba0d9d3"},"vehicle_type_id":"4","last_reported":1739902406,"current_range_meters":10000,"station_id":"ce4bgj92rcd13ifvqbd0","pricing_plan_id":"cebpf4jnsgd1na2vs0mg"},{"bike_id":"e605dea0-84a5-4395-b86a-134e39164b56","system_id":"levelo_inurba_marseille","lat":43.28591,"lon":5.35148,"is_reserved":false,"is_disabled":false,"rental_uris":{"android":"levelo://app?vid=e605dea0-84a5-4395-b86a-134e39164b56","ios":"levelo://app?vid=e605dea0-84a5-4395-b86a-134e39164b56"},"vehicle_type_id":"4","last_reported":1739902406,"current_range_meters":10000,"station_id":"ce4bhch2rcd13ifvqeug","pricing_plan_id":"cebpf4jnsgd1na2vs0mg"},{"bike_id":"4549780a-bd41-4776-b580-439be41aac05","system_id":"levelo_inurba_marseille","lat":43.29267,"lon":5.38438,"is_reserved":false,"is_disabled":false,"rental_uris":{"android":"levelo://app?vid=4549780a-bd41-4776-b580-439be41aac05","ios":"levelo://app?vid=4549780a-bd41-4776-b580-439be41aac05"},"vehicle_type_id":"4","last_reported":1739902406,"current_range_meters":10000,"station_id":"","pricing_plan_id":"cebpf4jnsgd1na2vs0mg"},{"bike_id":"70dee217-670e-40d7-b959-7dcdfca9f445","system_id":"levelo_inurba_marseille","lat":43.2481,"lon":5.3744,"is_reserved":false,"is_disabled":false,"rental_uris":{"android":"levelo://app?vid=70dee217-670e-40d7-b959-7dcdfca9f445","ios":"levelo://app?vid=70dee217-670e-40d7-b959-7dcdfca9f445"},"vehicle_type_id":"4","last_reported":1739902406,"current_range_meters":10000,"station_id":"","pricing_plan_id":"cebpf4jnsgd1na2vs0mg"},{"bike_id":"299016b9-7a5b-4ac9-960b-4d4efb7f2468","system_id":"levelo_inurba_marseille","lat":43.30784,"lon":5.38163,"is_reserved":false,"is_disabled":false,"rental_uris":{"android":"levelo://app?vid=299016b9-7a5b-4ac9-960b-4d4efb7f2468","ios":"levelo://app?vid=299016b9-7a5b-4ac9-960b-4d4efb7f2468"},"vehicle_type_id":"4","last_reported":1739902406,"current_range_meters":10000,"station_id":"ce4bgt12rcd13ifvqce0","pricing_plan_id":"cebpf4jnsgd1na2vs0mg"},{"bike_id":"3ab4ecca-a7d0-4e14-9e63-eca0d3b35304","system_id":"levelo_inurba_marseille","lat":43.30512,"lon":5.38289,"is_reserved":false,"is_disabled":false,"rental_uris":{"android":"levelo://app?vid=3ab4ecca-a7d0-4e14-9e63-eca0d3b35304","ios":"levelo://app?vid=3ab4ecca-a7d0-4e14-9e63-eca0d3b35304"},"vehicle_type_id":"4","last_reported":1739902406,"current_range_meters":10000,"station_id":"","pricing_plan_id":"cebpf4jnsgd1na2vs0mg"},{"bike_id":"cf2b5f71-0c59-406f-99a1-79e73d55af9c","system_id":"levelo_inurba_marseille","lat":43.27623,"lon":5.36117,"is_reserved":false,"is_disabled":false,"rental_uris":{"android":"levelo://app?vid=cf2b5f71-0c59-406f-99a1-79e73d55af9c","ios":"levelo://app?vid=cf2b5f71-0c59-406f-99a1-79e73d55af9c"},"vehicle_type_id":"4","last_reported":1739902406,"current_range_meters":10000,"station_id":"ce4bgj92rcd13ifvqbe0","pricing_plan_id":"cebpf4jnsgd1na2vs0mg"},{"bike_id":"62acf2e3-6b7a-4541-9026-9af24e81ef0b","system_id":"levelo_inurba_marseille","lat":43.29017,"lon":5.38647,"is_reserved":false,"is_disabled":false,"rental_uris":{"android":"levelo://app?vid=62acf2e3-6b7a-4541-9026-9af24e81ef0b","ios":"levelo://app?vid=62acf2e3-6b7a-4541-9026-9af24e81ef0b"},"vehicle_type_id":"4","last_reported":1739902406,"current_range_meters":9600,"station_id":"ce4bh4p2rcd13ifvqe0g","pricing_plan_id":"cebpf4jnsgd1na2vs0mg"},{"bike_id":"150d470b-8649-4d00-b7ab-12e70df09d60","system_id":"levelo_inurba_marseille","lat":43.27934,"lon":5.4105,"is_reserved":false,"is_disabled":false,"rental_uris":{"android":"levelo://app?vid=150d470b-8649-4d00-b7ab-12e70df09d60","ios":"levelo://app?vid=150d470b-8649-4d00-b7ab-12e70df09d60"},"vehicle_type_id":"4","last_reported":1739902406,"current_range_meters":10000,"station_id":"ce4bhnp2rcd13ifvqh0g","pricing_plan_id":"cebpf4jnsgd1na2vs0mg"},{"bike_id":"1e7891a1-67d3-4041-b602-5871576f8718","system_id":"levelo_inurba_marseille","lat":43.23968,"lon":5.36638,"is_reserved":false,"is_disabled":false,"rental_uris":{"android":"levelo://app?vid=1e7891a1-67d3-4041-b602-5871576f8718","ios":"levelo://app?vid=1e7891a1-67d3-4041-b602-5871576f8718"},"vehicle_type_id":"4","last_reported":1739902406,"current_range_meters":10800,"station_id":"","pricing_plan_id":"cebpf4jnsgd1na2vs0mg"},{"bike_id":"651300c2-2514-482d-af94-bcc99232863c","system_id":"levelo_inurba_marseille","lat":43.304181,"lon":5.412854,"is_reserved":false,"is_disabled":false,"rental_uris":{"android":"levelo://app?vid=651300c2-2514-482d-af94-bcc99232863c","ios":"levelo://app?vid=651300c2-2514-482d-af94-bcc99232863c"},"vehicle_type_id":"4","last_reported":1739902406,"current_range_meters":10000,"station_id":"ce4bhp92rcd13ifvqhag","pricing_plan_id":"cebpf4jnsgd1na2vs0mg"},{"bike_id":"a85165fb-7fdb-4cc1-ae98-ce974cfd16ca","system_id":"levelo_inurba_marseille","lat":43.23214,"lon":5.3992,"is_reserved":false,"is_disabled":false,"rental_uris":{"android":"levelo://app?vid=a85165fb-7fdb-4cc1-ae98-ce974cfd16ca","ios":"levelo://app?vid=a85165fb-7fdb-4cc1-ae98-ce974cfd16ca"},"vehicle_type_id":"4","last_reported":1739902406,"current_range_meters":10800,"station_id":"ce4bhn12rcd13ifvqgqg","pricing_plan_id":"cebpf4jnsgd1na2vs0mg"},{"bike_id":"ef296548-6234-4d2a-a4ab-67c6b078c084","system_id":"levelo_inurba_marseille","lat":43.284114,"lon":5.375096,"is_reserved":false,"is_disabled":false,"rental_uris":{"android":"levelo://app?vid=ef296548-6234-4d2a-a4ab-67c6b078c084","ios":"levelo://app?vid=ef296548-6234-4d2a-a4ab-67c6b078c084"},"vehicle_type_id":"4","last_reported":1739902406,"current_range_meters":10800,"station_id":"","pricing_plan_id":"cebpf4jnsgd1na2vs0mg"},{"bike_id":"cb8372d6-bad2-4555-89ad-5b495afb0b59","system_id":"levelo_inurba_marseille","lat":43.24822,"lon":5.37459,"is_reserved":false,"is_disabled":false,"rental_uris":{"android":"levelo://app?vid=cb8372d6-bad2-4555-89ad-5b495afb0b59","ios":"levelo://app?vid=cb8372d6-bad2-4555-89ad-5b495afb0b59"},"vehicle_type_id":"4","last_reported":1739902406,"current_range_meters":10800,"station_id":"ce4bhgh2rcd13ifvqfb0","pricing_plan_id":"cebpf4jnsgd1na2vs0mg"},{"bike_id":"10f8da56-b982-4af7-a78a-0fa9c8b1a438","system_id":"levelo_inurba_marseille","lat":43.31896,"lon":5.4073,"is_reserved":false,"is_disabled":false,"rental_uris":{"android":"levelo://app?vid=10f8da56-b982-4af7-a78a-0fa9c8b1a438","ios":"levelo://app?vid=10f8da56-b982-4af7-a78a-0fa9c8b1a438"},"vehicle_type_id":"4","last_reported":1739902406,"current_range_meters":11200,"station_id":"ce4bhq12rcd13ifvqhig","pricing_plan_id":"cebpf4jnsgd1na2vs0mg"},{"bike_id":"0563389e-d2fb-4cf7-b867-f187226876ea","system_id":"levelo_inurba_marseille","lat":43.29024,"lon":5.38133,"is_reserved":false,"is_disabled":true,"rental_uris":{"android":"levelo://app?vid=0563389e-d2fb-4cf7-b867-f187226876ea","ios":"levelo://app?vid=0563389e-d2fb-4cf7-b867-f187226876ea"},"vehicle_type_id":"4","last_reported":1739902406,"current_range_meters":10800,"station_id":"ce4bh4p2rcd13ifvqe1g","pricing_plan_id":"cebpf4jnsgd1na2vs0mg"},{"bike_id":"4245f0ba-044f-4bcf-b0dd-bcb55487e84c","system_id":"levelo_inurba_marseille","lat":43.30537,"lon":5.36536,"is_reserved":false,"is_disabled":false,"rental_uris":{"android":"levelo://app?vid=4245f0ba-044f-4bcf-b0dd-bcb55487e84c","ios":"levelo://app?vid=4245f0ba-044f-4bcf-b0dd-bcb55487e84c"},"vehicle_type_id":"4","last_reported":1739902406,"current_range_meters":10800,"station_id":"ce4bgs12rcd13ifvqcag","pricing_plan_id":"cebpf4jnsgd1na2vs0mg"},{"bike_id":"14c354e5-7016-44ab-88b8-e5c2f030131a","system_id":"levelo_inurba_marseille","lat":43.30324,"lon":5.40449,"is_reserved":false,"is_disabled":false,"rental_uris":{"android":"levelo://app?vid=14c354e5-7016-44ab-88b8-e5c2f030131a","ios":"levelo://app?vid=14c354e5-7016-44ab-88b8-e5c2f030131a"},"vehicle_type_id":"4","last_reported":1739902406,"current_range_meters":10800,"station_id":"ce4bh012rcd13ifvqd10","pricing_plan_id":"cebpf4jnsgd1na2vs0mg"},{"bike_id":"b62a71c9-c153-4a70-bf13-c71155cbba97","system_id":"levelo_inurba_marseille","lat":43.25577,"lon":5.38228,"is_reserved":false,"is_disabled":false,"rental_uris":{"android":"levelo://app?vid=b62a71c9-c153-4a70-bf13-c71155cbba97","ios":"levelo://app?vid=b62a71c9-c153-4a70-bf13-c71155cbba97"},"vehicle_type_id":"4","last_reported":1739902406,"current_range_meters":11200,"station_id":"ce4bhih2rcd13ifvqfs0","pricing_plan_id":"cebpf4jnsgd1na2vs0mg"},{"bike_id":"40b5f5e0-c3f2-4435-bc23-fb47cad32225","system_id":"levelo_inurba_marseille","lat":43.28932,"lon":5.36632,"is_reserved":false,"is_disabled":false,"rental_uris":{"android":"levelo://app?vid=40b5f5e0-c3f2-4435-bc23-fb47cad32225","ios":"levelo://app?vid=40b5f5e0-c3f2-4435-bc23-fb47cad32225"},"vehicle_type_id":"4","last_reported":1739902406,"current_range_meters":11200,"station_id":"ce4bhap2rcd13ifvqek0","pricing_plan_id":"cebpf4jnsgd1na2vs0mg"},{"bike_id":"64b1fadf-5861-4781-8ba1-113d76a1e3d6","system_id":"levelo_inurba_marseille","lat":43.31994,"lon":5.38141,"is_reserved":false,"is_disabled":false,"rental_uris":{"android":"levelo://app?vid=64b1fadf-5861-4781-8ba1-113d76a1e3d6","ios":"levelo://app?vid=64b1fadf-5861-4781-8ba1-113d76a1e3d6"},"vehicle_type_id":"4","last_reported":1739902406,"current_range_meters":11200,"station_id":"ce4bhr12rcd13ifvqhpg","pricing_plan_id":"cebpf4jnsgd1na2vs0mg"},{"bike_id":"17b45483-ec44-4f87-8c39-cb87518d107b","system_id":"levelo_inurba_marseille","lat":43.29025,"lon":5.38136,"is_reserved":false,"is_disabled":false,"rental_uris":{"android":"levelo://app?vid=17b45483-ec44-4f87-8c39-cb87518d107b","ios":"levelo://app?vid=17b45483-ec44-4f87-8c39-cb87518d107b"},"vehicle_type_id":"4","last_reported":1739902406,"current_range_meters":10800,"station_id":"ce4bh4p2rcd13ifvqe1g","pricing_plan_id":"cebpf4jnsgd1na2vs0mg"},{"bike_id":"27d281e4-ae2c-4d0a-b5af-b1a6c9a261f7","system_id":"levelo_inurba_marseille","lat":43.31672,"lon":5.37727,"is_reserved":false,"is_disabled":true,"rental_uris":{"android":"levelo://app?vid=27d281e4-ae2c-4d0a-b5af-b1a6c9a261f7","ios":"levelo://app?vid=27d281e4-ae2c-4d0a-b5af-b1a6c9a261f7"},"vehicle_type_id":"4","last_reported":1739902406,"current_range_meters":11200,"station_id":"ce4bgth2rcd13ifvqch0","pricing_plan_id":"cebpf4jnsgd1na2vs0mg"},{"bike_id":"f413335c-036f-4c32-b8eb-e49cdca31a5c","system_id":"levelo_inurba_marseille","lat":43.28351,"lon":5.38099,"is_reserved":false,"is_disabled":false,"rental_uris":{"android":"levelo://app?vid=f413335c-036f-4c32-b8eb-e49cdca31a5c","ios":"levelo://app?vid=f413335c-036f-4c32-b8eb-e49cdca31a5c"},"vehicle_type_id":"4","last_reported":1739902406,"current_range_meters":11200,"station_id":"ce4bh412rcd13ifvqdr0","pricing_plan_id":"cebpf4jnsgd1na2vs0mg"},{"bike_id":"45c3e93c-444b-4d84-a953-ba1e87883253","system_id":"levelo_inurba_marseille","lat":43.30882,"lon":5.39647,"is_reserved":false,"is_disabled":false,"rental_uris":{"android":"levelo://app?vid=45c3e93c-444b-4d84-a953-ba1e87883253","ios":"levelo://app?vid=45c3e93c-444b-4d84-a953-ba1e87883253"},"vehicle_type_id":"4","last_reported":1739902406,"current_range_meters":11200,"station_id":"ce4bh012rcd13ifvqcv0","pricing_plan_id":"cebpf4jnsgd1na2vs0mg"},{"bike_id":"28d29371-58ca-4507-ba2d-658dd91ae2d3","system_id":"levelo_inurba_marseille","lat":43.25579,"lon":5.38226,"is_reserved":false,"is_disabled":false,"rental_uris":{"android":"levelo://app?vid=28d29371-58ca-4507-ba2d-658dd91ae2d3","ios":"levelo://app?vid=28d29371-58ca-4507-ba2d-658dd91ae2d3"},"vehicle_type_id":"4","last_reported":1739902406,"current_range_meters":11200,"station_id":"ce4bhih2rcd13ifvqfs0","pricing_plan_id":"cebpf4jnsgd1na2vs0mg"},{"bike_id":"7342bfbd-9082-4169-8159-57866036272e","system_id":"levelo_inurba_marseille","lat":43.28462,"lon":5.35891,"is_reserved":false,"is_disabled":false,"rental_uris":{"android":"levelo://app?vid=7342bfbd-9082-4169-8159-57866036272e","ios":"levelo://app?vid=7342bfbd-9082-4169-8159-57866036272e"},"vehicle_type_id":"4","last_reported":1739902406,"current_range_meters":11200,"station_id":"ce4bhah2rcd13ifvqei0","pricing_plan_id":"cebpf4jnsgd1na2vs0mg"},{"bike_id":"9d8388b9-0229-46d9-b0da-0a4242fec953","system_id":"levelo_inurba_marseille","lat":43.28846,"lon":5.35865,"is_reserved":false,"is_disabled":false,"rental_uris":{"android":"levelo://app?vid=9d8388b9-0229-46d9-b0da-0a4242fec953","ios":"levelo://app?vid=9d8388b9-0229-46d9-b0da-0a4242fec953"},"vehicle_type_id":"4","last_reported":1739902406,"current_range_meters":11200,"station_id":"ce4bhb12rcd13ifvqem0","pricing_plan_id":"cebpf4jnsgd1na2vs0mg"},{"bike_id":"9582ddc0-b6af-49e9-b173-94c0a9b6801a","system_id":"levelo_inurba_marseille","lat":43.28346,"lon":5.38088,"is_reserved":false,"is_disabled":false,"rental_uris":{"android":"levelo://app?vid=9582ddc0-b6af-49e9-b173-94c0a9b6801a","ios":"levelo://app?vid=9582ddc0-b6af-49e9-b173-94c0a9b6801a"},"vehicle_type_id":"4","last_reported":1739902406,"current_range_meters":11200,"station_id":"","pricing_plan_id":"cebpf4jnsgd1na2vs0mg"},{"bike_id":"91bf3218-0a05-4226-acc9-b3131b7d5a8d","system_id":"levelo_inurba_marseille","lat":43.23966,"lon":5.36629,"is_reserved":false,"is_disabled":false,"rental_uris":{"android":"levelo://app?vid=91bf3218-0a05-4226-acc9-b3131b7d5a8d","ios":"levelo://app?vid=91bf3218-0a05-4226-acc9-b3131b7d5a8d"},"vehicle_type_id":"4","last_reported":1739902406,"current_range_meters":11600,"station_id":"ce4bhi12rcd13ifvqfp0","pricing_plan_id":"cebpf4jnsgd1na2vs0mg"},{"bike_id":"9b03b96d-2041-4d92-a949-290d7b50f943","system_id":"levelo_inurba_marseille","lat":43.27171,"lon":5.40993,"is_reserved":false,"is_disabled":false,"rental_uris":{"android":"levelo://app?vid=9b03b96d-2041-4d92-a949-290d7b50f943","ios":"levelo://app?vid=9b03b96d-2041-4d92-a949-290d7b50f943"},"vehicle_type_id":"4","last_reported":1739902406,"current_range_meters":11600,"station_id":"","pricing_plan_id":"cebpf4jnsgd1na2vs0mg"},{"bike_id":"60d314df-a667-495a-a59f-db49b86bae5a","system_id":"levelo_inurba_marseille","lat":43.30103,"lon":5.39071,"is_reserved":false,"is_disabled":false,"rental_uris":{"android":"levelo://app?vid=60d314df-a667-495a-a59f-db49b86bae5a","ios":"levelo://app?vid=60d314df-a667-495a-a59f-db49b86bae5a"},"vehicle_type_id":"4","last_reported":1739902406,"current_range_meters":11600,"station_id":"ce4bh192rcd13ifvqdb0","pricing_plan_id":"cebpf4jnsgd1na2vs0mg"},{"bike_id":"727ed45b-e6d4-4acd-9165-8b8370aa36fd","system_id":"levelo_inurba_marseille","lat":43.30215,"lon":5.39462,"is_reserved":false,"is_disabled":false,"rental_uris":{"android":"levelo://app?vid=727ed45b-e6d4-4acd-9165-8b8370aa36fd","ios":"levelo://app?vid=727ed45b-e6d4-4acd-9165-8b8370aa36fd"},"vehicle_type_id":"4","last_reported":1739902406,"current_range_meters":11600,"station_id":"ce4bh0p2rcd13ifvqd70","pricing_plan_id":"cebpf4jnsgd1na2vs0mg"},{"bike_id":"af35cdb8-39e9-4901-92fb-5747baf3f6f2","system_id":"levelo_inurba_marseille","lat":43.29977,"lon":5.38505,"is_reserved":false,"is_disabled":false,"rental_uris":{"android":"levelo://app?vid=af35cdb8-39e9-4901-92fb-5747baf3f6f2","ios":"levelo://app?vid=af35cdb8-39e9-4901-92fb-5747baf3f6f2"},"vehicle_type_id":"4","last_reported":1739902406,"current_range_meters":11600,"station_id":"ce4bgj92rcd13ifvqbd0","pricing_plan_id":"cebpf4jnsgd1na2vs0mg"},{"bike_id":"6c96a73f-ff01-463f-bd8c-14885ee904b6","system_id":"levelo_inurba_marseille","lat":43.2904,"lon":5.3585,"is_reserved":false,"is_disabled":false,"rental_uris":{"android":"levelo://app?vid=6c96a73f-ff01-463f-bd8c-14885ee904b6","ios":"levelo://app?vid=6c96a73f-ff01-463f-bd8c-14885ee904b6"},"vehicle_type_id":"4","last_reported":1739902406,"current_range_meters":11600,"station_id":"ce4bhb92rcd13ifvqen0","pricing_plan_id":"cebpf4jnsgd1na2vs0mg"},{"bike_id":"eb8e2e87-ad12-4e87-8e4a-757897446f7e","system_id":"levelo_inurba_marseille","lat":43.25576,"lon":5.38231,"is_reserved":false,"is_disabled":false,"rental_uris":{"android":"levelo://app?vid=eb8e2e87-ad12-4e87-8e4a-757897446f7e","ios":"levelo://app?vid=eb8e2e87-ad12-4e87-8e4a-757897446f7e"},"vehicle_type_id":"4","last_reported":1739902406,"current_range_meters":11600,"station_id":"ce4bhih2rcd13ifvqfs0","pricing_plan_id":"cebpf4jnsgd1na2vs0mg"},{"bike_id":"41224407-7c5d-4c09-925b-109ab27bf57d","system_id":"levelo_inurba_marseille","lat":43.28938,"lon":5.36625,"is_reserved":false,"is_disabled":false,"rental_uris":{"android":"levelo://app?vid=41224407-7c5d-4c09-925b-109ab27bf57d","ios":"levelo://app?vid=41224407-7c5d-4c09-925b-109ab27bf57d"},"vehicle_type_id":"4","last_reported":1739902406,"current_range_meters":12000,"station_id":"ce4bhap2rcd13ifvqek0","pricing_plan_id":"cebpf4jnsgd1na2vs0mg"},{"bike_id":"1d614b14-3ea0-4149-b614-3f85b5c04f9d","system_id":"levelo_inurba_marseille","lat":43.29167,"lon":5.37161,"is_reserved":false,"is_disabled":false,"rental_uris":{"android":"levelo://app?vid=1d614b14-3ea0-4149-b614-3f85b5c04f9d","ios":"levelo://app?vid=1d614b14-3ea0-4149-b614-3f85b5c04f9d"},"vehicle_type_id":"4","last_reported":1739902406,"current_range_meters":11600,"station_id":"ce4bha92rcd13ifvqeh0","pricing_plan_id":"cebpf4jnsgd1na2vs0mg"},{"bike_id":"81ab3831-fd5d-48ca-81ee-fd97b13fe5a3","system_id":"levelo_inurba_marseille","lat":43.31074,"lon":5.38357,"is_reserved":false,"is_disabled":false,"rental_uris":{"android":"levelo://app?vid=81ab3831-fd5d-48ca-81ee-fd97b13fe5a3","ios":"levelo://app?vid=81ab3831-fd5d-48ca-81ee-fd97b13fe5a3"},"vehicle_type_id":"4","last_reported":1739902406,"current_range_meters":12000,"station_id":"ce4bgv92rcd13ifvqcr0","pricing_plan_id":"cebpf4jnsgd1na2vs0mg"},{"bike_id":"f4e68e5d-b95a-4a61-8e58-861718e6b3f3","system_id":"levelo_inurba_marseille","lat":43.27846,"lon":5.39208,"is_reserved":false,"is_disabled":false,"rental_uris":{"android":"levelo://app?vid=f4e68e5d-b95a-4a61-8e58-861718e6b3f3","ios":"levelo://app?vid=f4e68e5d-b95a-4a61-8e58-861718e6b3f3"},"vehicle_type_id":"4","last_reported":1739902406,"current_range_meters":11600,"station_id":"ce4bhjp2rcd13ifvqga0","pricing_plan_id":"cebpf4jnsgd1na2vs0mg"},{"bike_id":"cce8e41c-287c-4768-ab6c-bbab23bd72dd","system_id":"levelo_inurba_marseille","lat":43.29537,"lon":5.38543,"is_reserved":false,"is_disabled":false,"rental_uris":{"android":"levelo://app?vid=cce8e41c-287c-4768-ab6c-bbab23bd72dd","ios":"levelo://app?vid=cce8e41c-287c-4768-ab6c-bbab23bd72dd"},"vehicle_type_id":"4","last_reported":1739902406,"current_range_meters":12000,"station_id":"","pricing_plan_id":"cebpf4jnsgd1na2vs0mg"},{"bike_id":"7498add2-6306-4086-af08-cf290b4c7a05","system_id":"levelo_inurba_marseille","lat":43.29266,"lon":5.38439,"is_reserved":false,"is_disabled":false,"rental_uris":{"android":"levelo://app?vid=7498add2-6306-4086-af08-cf290b4c7a05","ios":"levelo://app?vid=7498add2-6306-4086-af08-cf290b4c7a05"},"vehicle_type_id":"4","last_reported":1739902406,"current_range_meters":12000,"station_id":"ce4bh692rcd13ifvqea0","pricing_plan_id":"cebpf4jnsgd1na2vs0mg"},{"bike_id":"e461d57a-97a5-4bd4-9daf-ca6f32b20d07","system_id":"levelo_inurba_marseille","lat":43.30097,"lon":5.39085,"is_reserved":false,"is_disabled":false,"rental_uris":{"android":"levelo://app?vid=e461d57a-97a5-4bd4-9daf-ca6f32b20d07","ios":"levelo://app?vid=e461d57a-97a5-4bd4-9daf-ca6f32b20d07"},"vehicle_type_id":"4","last_reported":1739902406,"current_range_meters":12000,"station_id":"ce4bh192rcd13ifvqdb0","pricing_plan_id":"cebpf4jnsgd1na2vs0mg"},{"bike_id":"3a016e44-7e72-44d7-b88e-d25670f61ef2","system_id":"levelo_inurba_marseille","lat":43.30909,"lon":5.3719,"is_reserved":false,"is_disabled":false,"rental_uris":{"android":"levelo://app?vid=3a016e44-7e72-44d7-b88e-d25670f61ef2","ios":"levelo://app?vid=3a016e44-7e72-44d7-b88e-d25670f61ef2"},"vehicle_type_id":"4","last_reported":1739902406,"current_range_meters":11600,"station_id":"ce4bguh2rcd13ifvqckg","pricing_plan_id":"cebpf4jnsgd1na2vs0mg"},{"bike_id":"2534850b-ff24-4748-8c3f-01d342969d46","system_id":"levelo_inurba_marseille","lat":43.2861,"lon":5.37051,"is_reserved":false,"is_disabled":false,"rental_uris":{"android":"levelo://app?vid=2534850b-ff24-4748-8c3f-01d342969d46","ios":"levelo://app?vid=2534850b-ff24-4748-8c3f-01d342969d46"},"vehicle_type_id":"4","last_reported":1739902406,"current_range_meters":12800,"station_id":"ce4bht12rcd13ifvqi60","pricing_plan_id":"cebpf4jnsgd1na2vs0mg"},{"bike_id":"84c68642-4008-44b0-af3c-3b8b916d86c6","system_id":"levelo_inurba_marseille","lat":43.29017,"lon":5.38141,"is_reserved":false,"is_disabled":false,"rental_uris":{"android":"levelo://app?vid=84c68642-4008-44b0-af3c-3b8b916d86c6","ios":"levelo://app?vid=84c68642-4008-44b0-af3c-3b8b916d86c6"},"vehicle_type_id":"4","last_reported":1739902406,"current_range_meters":12000,"station_id":"ce4bh4p2rcd13ifvqe1g","pricing_plan_id":"cebpf4jnsgd1na2vs0mg"},{"bike_id":"f1c4a55a-ecb4-4e19-9726-c1fa32e854b0","system_id":"levelo_inurba_marseille","lat":43.29539,"lon":5.38539,"is_reserved":false,"is_disabled":false,"rental_uris":{"android":"levelo://app?vid=f1c4a55a-ecb4-4e19-9726-c1fa32e854b0","ios":"levelo://app?vid=f1c4a55a-ecb4-4e19-9726-c1fa32e854b0"},"vehicle_type_id":"4","last_reported":1739902406,"current_range_meters":12400,"station_id":"","pricing_plan_id":"cebpf4jnsgd1na2vs0mg"},{"bike_id":"d9b42e1b-4416-4fe0-a4a4-2f57e9548869","system_id":"levelo_inurba_marseille","lat":43.32657,"lon":5.40996,"is_reserved":false,"is_disabled":false,"rental_uris":{"android":"levelo://app?vid=d9b42e1b-4416-4fe0-a4a4-2f57e9548869","ios":"levelo://app?vid=d9b42e1b-4416-4fe0-a4a4-2f57e9548869"},"vehicle_type_id":"4","last_reported":1739902406,"current_range_meters":12800,"station_id":"ce4bhpp2rcd13ifvqhgg","pricing_plan_id":"cebpf4jnsgd1na2vs0mg"},{"bike_id":"73dffe64-13cb-4e02-acbe-ac7e68378dd3","system_id":"levelo_inurba_marseille","lat":43.30442,"lon":5.38881,"is_reserved":false,"is_disabled":false,"rental_uris":{"android":"levelo://app?vid=73dffe64-13cb-4e02-acbe-ac7e68378dd3","ios":"levelo://app?vid=73dffe64-13cb-4e02-acbe-ac7e68378dd3"},"vehicle_type_id":"4","last_reported":1739902406,"current_range_meters":12800,"station_id":"ce4bgk12rcd13ifvqbi0","pricing_plan_id":"cebpf4jnsgd1na2vs0mg"},{"bike_id":"7beb0637-fdc1-4315-9de7-143b2e5fe258","system_id":"levelo_inurba_marseille","lat":43.28464,"lon":5.35887,"is_reserved":false,"is_disabled":false,"rental_uris":{"android":"levelo://app?vid=7beb0637-fdc1-4315-9de7-143b2e5fe258","ios":"levelo://app?vid=7beb0637-fdc1-4315-9de7-143b2e5fe258"},"vehicle_type_id":"4","last_reported":1739902406,"current_range_meters":12800,"station_id":"ce4bhah2rcd13ifvqei0","pricing_plan_id":"cebpf4jnsgd1na2vs0mg"},{"bike_id":"85e87220-f6a3-46be-8172-f6efecf3643e","system_id":"levelo_inurba_marseille","lat":43.28149,"lon":5.4265,"is_reserved":false,"is_disabled":false,"rental_uris":{"android":"levelo://app?vid=85e87220-f6a3-46be-8172-f6efecf3643e","ios":"levelo://app?vid=85e87220-f6a3-46be-8172-f6efecf3643e"},"vehicle_type_id":"4","last_reported":1739902406,"current_range_meters":12800,"station_id":"","pricing_plan_id":"cebpf4jnsgd1na2vs0mg"},{"bike_id":"0e43aaf2-5553-4ce4-8a5f-0e2f15c2357c","system_id":"levelo_inurba_marseille","lat":43.25005,"lon":5.38912,"is_reserved":false,"is_disabled":false,"rental_uris":{"android":"levelo://app?vid=0e43aaf2-5553-4ce4-8a5f-0e2f15c2357c","ios":"levelo://app?vid=0e43aaf2-5553-4ce4-8a5f-0e2f15c2357c"},"vehicle_type_id":"4","last_reported":1739902406,"current_range_meters":12800,"station_id":"ce4bhgp2rcd13ifvqfd0","pricing_plan_id":"cebpf4jnsgd1na2vs0mg"},{"bike_id":"66130ab3-09ba-4efc-991d-6fb29a7363a9","system_id":"levelo_inurba_marseille","lat":43.26535,"lon":5.39023,"is_reserved":false,"is_disabled":false,"rental_uris":{"android":"levelo://app?vid=66130ab3-09ba-4efc-991d-6fb29a7363a9","ios":"levelo://app?vid=66130ab3-09ba-4efc-991d-6fb29a7363a9"},"vehicle_type_id":"4","last_reported":1739902406,"current_range_meters":13600,"station_id":"ce4bhe12rcd13ifvqf30","pricing_plan_id":"cebpf4jnsgd1na2vs0mg"},{"bike_id":"25a87e91-9c0d-4903-b869-115b64990ac3","system_id":"levelo_inurba_marseille","lat":43.28156,"lon":5.42644,"is_reserved":false,"is_disabled":false,"rental_uris":{"android":"levelo://app?vid=25a87e91-9c0d-4903-b869-115b64990ac3","ios":"levelo://app?vid=25a87e91-9c0d-4903-b869-115b64990ac3"},"vehicle_type_id":"4","last_reported":1739902406,"current_range_meters":13600,"station_id":"ce4bhnh2rcd13ifvqgug","pricing_plan_id":"cebpf4jnsgd1na2vs0mg"},{"bike_id":"3b8c2a70-df8a-4eed-a802-144157b7e9fc","system_id":"levelo_inurba_marseille","lat":43.27423,"lon":5.39415,"is_reserved":false,"is_disabled":false,"rental_uris":{"android":"levelo://app?vid=3b8c2a70-df8a-4eed-a802-144157b7e9fc","ios":"levelo://app?vid=3b8c2a70-df8a-4eed-a802-144157b7e9fc"},"vehicle_type_id":"4","last_reported":1739902406,"current_range_meters":13600,"station_id":"ce4bhdp2rcd13ifvqf20","pricing_plan_id":"cebpf4jnsgd1na2vs0mg"},{"bike_id":"d2d8467f-e5b7-42bd-9de4-4f1231765e35","system_id":"levelo_inurba_marseille","lat":43.29629,"lon":5.40599,"is_reserved":false,"is_disabled":false,"rental_uris":{"android":"levelo://app?vid=d2d8467f-e5b7-42bd-9de4-4f1231765e35","ios":"levelo://app?vid=d2d8467f-e5b7-42bd-9de4-4f1231765e35"},"vehicle_type_id":"4","last_reported":1739902406,"current_range_meters":14000,"station_id":"ce4bh0h2rcd13ifvqd60","pricing_plan_id":"cebpf4jnsgd1na2vs0mg"},{"bike_id":"454bdffc-f92d-4e87-bf14-54bf58a07c6c","system_id":"levelo_inurba_marseille","lat":43.30261,"lon":5.40076,"is_reserved":false,"is_disabled":false,"rental_uris":{"android":"levelo://app?vid=454bdffc-f92d-4e87-bf14-54bf58a07c6c","ios":"levelo://app?vid=454bdffc-f92d-4e87-bf14-54bf58a07c6c"},"vehicle_type_id":"4","last_reported":1739902406,"current_range_meters":14000,"station_id":"ce4bgvh2rcd13ifvqcs0","pricing_plan_id":"cebpf4jnsgd1na2vs0mg"},{"bike_id":"cee3148b-e400-475a-8950-47c8bba74662","system_id":"levelo_inurba_marseille","lat":43.30414,"lon":5.41288,"is_reserved":false,"is_disabled":false,"rental_uris":{"android":"levelo://app?vid=cee3148b-e400-475a-8950-47c8bba74662","ios":"levelo://app?vid=cee3148b-e400-475a-8950-47c8bba74662"},"vehicle_type_id":"4","last_reported":1739902406,"current_range_meters":14000,"station_id":"ce4bhop2rcd13ifvqh8g","pricing_plan_id":"cebpf4jnsgd1na2vs0mg"},{"bike_id":"117da9f6-0d4d-42c4-80d4-d79c5c262019","system_id":"levelo_inurba_marseille","lat":43.3122,"lon":5.36859,"is_reserved":false,"is_disabled":false,"rental_uris":{"android":"levelo://app?vid=117da9f6-0d4d-42c4-80d4-d79c5c262019","ios":"levelo://app?vid=117da9f6-0d4d-42c4-80d4-d79c5c262019"},"vehicle_type_id":"4","last_reported":1739902406,"current_range_meters":14000,"station_id":"ce4bgl92rcd13ifvqbq0","pricing_plan_id":"cebpf4jnsgd1na2vs0mg"},{"bike_id":"2cfeeb5a-dfc5-4280-bacf-5f9f118223ae","system_id":"levelo_inurba_marseille","lat":43.28391,"lon":5.37532,"is_reserved":false,"is_disabled":false,"rental_uris":{"android":"levelo://app?vid=2cfeeb5a-dfc5-4280-bacf-5f9f118223ae","ios":"levelo://app?vid=2cfeeb5a-dfc5-4280-bacf-5f9f118223ae"},"vehicle_type_id":"4","last_reported":1739902406,"current_range_meters":14000,"station_id":"ce4bh412rcd13ifvqds0","pricing_plan_id":"cebpf4jnsgd1na2vs0mg"},{"bike_id":"5ac779f2-1fb7-4568-b0fe-31c31466d82e","system_id":"levelo_inurba_marseille","lat":43.2657,"lon":5.39023,"is_reserved":false,"is_disabled":false,"rental_uris":{"android":"levelo://app?vid=5ac779f2-1fb7-4568-b0fe-31c31466d82e","ios":"levelo://app?vid=5ac779f2-1fb7-4568-b0fe-31c31466d82e"},"vehicle_type_id":"4","last_reported":1739902406,"current_range_meters":14000,"station_id":"ce4bhe12rcd13ifvqf30","pricing_plan_id":"cebpf4jnsgd1na2vs0mg"},{"bike_id":"baa9c553-35b1-4888-ba7f-ef685f2a1020","system_id":"levelo_inurba_marseille","lat":43.23958,"lon":5.36636,"is_reserved":false,"is_disabled":false,"rental_uris":{"android":"levelo://app?vid=baa9c553-35b1-4888-ba7f-ef685f2a1020","ios":"levelo://app?vid=baa9c553-35b1-4888-ba7f-ef685f2a1020"},"vehicle_type_id":"4","last_reported":1739902406,"current_range_meters":14000,"station_id":"","pricing_plan_id":"cebpf4jnsgd1na2vs0mg"},{"bike_id":"7c7117b3-2a41-4b7a-b0d2-f2b928b2ed53","system_id":"levelo_inurba_marseille","lat":43.30604,"lon":5.39359,"is_reserved":false,"is_disabled":false,"rental_uris":{"android":"levelo://app?vid=7c7117b3-2a41-4b7a-b0d2-f2b928b2ed53","ios":"levelo://app?vid=7c7117b3-2a41-4b7a-b0d2-f2b928b2ed53"},"vehicle_type_id":"4","last_reported":1739902406,"current_range_meters":14400,"station_id":"ce4bh0p2rcd13ifvqd80","pricing_plan_id":"cebpf4jnsgd1na2vs0mg"},{"bike_id":"f027fe38-3f5d-42fa-b16a-68ca60104c09","system_id":"levelo_inurba_marseille","lat":43.24168,"lon":5.36406,"is_reserved":false,"is_disabled":false,"rental_uris":{"android":"levelo://app?vid=f027fe38-3f5d-42fa-b16a-68ca60104c09","ios":"levelo://app?vid=f027fe38-3f5d-42fa-b16a-68ca60104c09"},"vehicle_type_id":"4","last_reported":1739902406,"current_range_meters":14400,"station_id":"","pricing_plan_id":"cebpf4jnsgd1na2vs0mg"},{"bike_id":"68226c65-5e46-4927-9f98-ce4477b934ab","system_id":"levelo_inurba_marseille","lat":43.28357,"lon":5.38111,"is_reserved":false,"is_disabled":false,"rental_uris":{"android":"levelo://app?vid=68226c65-5e46-4927-9f98-ce4477b934ab","ios":"levelo://app?vid=68226c65-5e46-4927-9f98-ce4477b934ab"},"vehicle_type_id":"4","last_reported":1739902406,"current_range_meters":14400,"station_id":"ce4bh412rcd13ifvqdr0","pricing_plan_id":"cebpf4jnsgd1na2vs0mg"},{"bike_id":"90017611-e2b1-401c-bcbf-f9d526ffc823","system_id":"levelo_inurba_marseille","lat":43.2936,"lon":5.38303,"is_reserved":false,"is_disabled":false,"rental_uris":{"android":"levelo://app?vid=90017611-e2b1-401c-bcbf-f9d526ffc823","ios":"levelo://app?vid=90017611-e2b1-401c-bcbf-f9d526ffc823"},"vehicle_type_id":"4","last_reported":1739902406,"current_range_meters":14400,"station_id":"","pricing_plan_id":"cebpf4jnsgd1na2vs0mg"},{"bike_id":"f0f61fdf-e262-479f-a259-1997ef9b3f40","system_id":"levelo_inurba_marseille","lat":43.2815,"lon":5.42642,"is_reserved":false,"is_disabled":false,"rental_uris":{"android":"levelo://app?vid=f0f61fdf-e262-479f-a259-1997ef9b3f40","ios":"levelo://app?vid=f0f61fdf-e262-479f-a259-1997ef9b3f40"},"vehicle_type_id":"4","last_reported":1739902406,"current_range_meters":14400,"station_id":"","pricing_plan_id":"cebpf4jnsgd1na2vs0mg"},{"bike_id":"ff35d651-9af0-487c-894e-65d0e7833694","system_id":"levelo_inurba_marseille","lat":43.25488,"lon":5.37647,"is_reserved":false,"is_disabled":false,"rental_uris":{"android":"levelo://app?vid=ff35d651-9af0-487c-894e-65d0e7833694","ios":"levelo://app?vid=ff35d651-9af0-487c-894e-65d0e7833694"},"vehicle_type_id":"4","last_reported":1739902406,"current_range_meters":14800,"station_id":"","pricing_plan_id":"cebpf4jnsgd1na2vs0mg"},{"bike_id":"d1dec037-ee4c-4db9-a655-1087d8ee1f4f","system_id":"levelo_inurba_marseille","lat":43.28444,"lon":5.39175,"is_reserved":false,"is_disabled":true,"rental_uris":{"android":"levelo://app?vid=d1dec037-ee4c-4db9-a655-1087d8ee1f4f","ios":"levelo://app?vid=d1dec037-ee4c-4db9-a655-1087d8ee1f4f"},"vehicle_type_id":"4","last_reported":1739902406,"current_range_meters":14800,"station_id":"","pricing_plan_id":"cebpf4jnsgd1na2vs0mg"},{"bike_id":"90f8afda-e701-4e00-b735-ee06341f92c8","system_id":"levelo_inurba_marseille","lat":43.294373,"lon":5.397492,"is_reserved":false,"is_disabled":false,"rental_uris":{"android":"levelo://app?vid=90f8afda-e701-4e00-b735-ee06341f92c8","ios":"levelo://app?vid=90f8afda-e701-4e00-b735-ee06341f92c8"},"vehicle_type_id":"4","last_reported":1739902406,"current_range_meters":14800,"station_id":"ce4bh3h2rcd13ifvqdo0","pricing_plan_id":"cebpf4jnsgd1na2vs0mg"},{"bike_id":"c6b4c1d4-7170-42e8-a495-57f7e8da8511","system_id":"levelo_inurba_marseille","lat":43.24646,"lon":5.38892,"is_reserved":false,"is_disabled":false,"rental_uris":{"android":"levelo://app?vid=c6b4c1d4-7170-42e8-a495-57f7e8da8511","ios":"levelo://app?vid=c6b4c1d4-7170-42e8-a495-57f7e8da8511"},"vehicle_type_id":"4","last_reported":1739902406,"current_range_meters":14800,"station_id":"ce4bhg12rcd13ifvqf60","pricing_plan_id":"cebpf4jnsgd1na2vs0mg"},{"bike_id":"ec5814cc-8b7e-4d45-b2f0-e8a2b9b37adc","system_id":"levelo_inurba_marseille","lat":43.28156,"lon":5.42641,"is_reserved":false,"is_disabled":false,"rental_uris":{"android":"levelo://app?vid=ec5814cc-8b7e-4d45-b2f0-e8a2b9b37adc","ios":"levelo://app?vid=ec5814cc-8b7e-4d45-b2f0-e8a2b9b37adc"},"vehicle_type_id":"4","last_reported":1739902406,"current_range_meters":14800,"station_id":"ce4bhnh2rcd13ifvqgug","pricing_plan_id":"cebpf4jnsgd1na2vs0mg"},{"bike_id":"397b80cf-cbf3-4f7e-9d00-ad56509053a2","system_id":"levelo_inurba_marseille","lat":43.29198,"lon":5.39763,"is_reserved":false,"is_disabled":false,"rental_uris":{"android":"levelo://app?vid=397b80cf-cbf3-4f7e-9d00-ad56509053a2","ios":"levelo://app?vid=397b80cf-cbf3-4f7e-9d00-ad56509053a2"},"vehicle_type_id":"4","last_reported":1739902406,"current_range_meters":15200,"station_id":"","pricing_plan_id":"cebpf4jnsgd1na2vs0mg"},{"bike_id":"42b91443-3b4c-4c75-9626-7d43bd6fca66","system_id":"levelo_inurba_marseille","lat":43.29098,"lon":5.3813,"is_reserved":false,"is_disabled":false,"rental_uris":{"android":"levelo://app?vid=42b91443-3b4c-4c75-9626-7d43bd6fca66","ios":"levelo://app?vid=42b91443-3b4c-4c75-9626-7d43bd6fca66"},"vehicle_type_id":"4","last_reported":1739902406,"current_range_meters":16000,"station_id":"ce4bh512rcd13ifvqe2g","pricing_plan_id":"cebpf4jnsgd1na2vs0mg"},{"bike_id":"6c335b3b-f93c-450a-8403-36cd529bb099","system_id":"levelo_inurba_marseille","lat":43.29605,"lon":5.38099,"is_reserved":false,"is_disabled":false,"rental_uris":{"android":"levelo://app?vid=6c335b3b-f93c-450a-8403-36cd529bb099","ios":"levelo://app?vid=6c335b3b-f93c-450a-8403-36cd529bb099"},"vehicle_type_id":"4","last_reported":1739902406,"current_range_meters":16000,"station_id":"","pricing_plan_id":"cebpf4jnsgd1na2vs0mg"},{"bike_id":"cdf97657-40d8-49ce-9c7e-1ba6384bd7f6","system_id":"levelo_inurba_marseille","lat":43.30248,"lon":5.40077,"is_reserved":false,"is_disabled":false,"rental_uris":{"android":"levelo://app?vid=cdf97657-40d8-49ce-9c7e-1ba6384bd7f6","ios":"levelo://app?vid=cdf97657-40d8-49ce-9c7e-1ba6384bd7f6"},"vehicle_type_id":"4","last_reported":1739902406,"current_range_meters":16000,"station_id":"ce4bgvh2rcd13ifvqcs0","pricing_plan_id":"cebpf4jnsgd1na2vs0mg"},{"bike_id":"1d63a175-89ef-49ff-9ead-dfe9ed6c22cf","system_id":"levelo_inurba_marseille","lat":43.24678,"lon":5.39424,"is_reserved":false,"is_disabled":false,"rental_uris":{"android":"levelo://app?vid=1d63a175-89ef-49ff-9ead-dfe9ed6c22cf","ios":"levelo://app?vid=1d63a175-89ef-49ff-9ead-dfe9ed6c22cf"},"vehicle_type_id":"4","last_reported":1739902406,"current_range_meters":16000,"station_id":"","pricing_plan_id":"cebpf4jnsgd1na2vs0mg"},{"bike_id":"901a2024-1d80-4f79-a7fb-a0232ce6d23d","system_id":"levelo_inurba_marseille","lat":43.27568,"lon":5.38429,"is_reserved":false,"is_disabled":false,"rental_uris":{"android":"levelo://app?vid=901a2024-1d80-4f79-a7fb-a0232ce6d23d","ios":"levelo://app?vid=901a2024-1d80-4f79-a7fb-a0232ce6d23d"},"vehicle_type_id":"4","last_reported":1739902406,"current_range_meters":16000,"station_id":"ce4bhh92rcd13ifvqfi0","pricing_plan_id":"cebpf4jnsgd1na2vs0mg"},{"bike_id":"a00fb5cd-e0d2-4f96-befb-5275c0df0c87","system_id":"levelo_inurba_marseille","lat":43.27988,"lon":5.41659,"is_reserved":false,"is_disabled":false,"rental_uris":{"android":"levelo://app?vid=a00fb5cd-e0d2-4f96-befb-5275c0df0c87","ios":"levelo://app?vid=a00fb5cd-e0d2-4f96-befb-5275c0df0c87"},"vehicle_type_id":"4","last_reported":1739902406,"current_range_meters":16400,"station_id":"ce4bho12rcd13ifvqh1g","pricing_plan_id":"cebpf4jnsgd1na2vs0mg"},{"bike_id":"89a3d82f-639c-45d1-9140-38428409e7df","system_id":"levelo_inurba_marseille","lat":43.29437,"lon":5.38627,"is_reserved":false,"is_disabled":false,"rental_uris":{"android":"levelo://app?vid=89a3d82f-639c-45d1-9140-38428409e7df","ios":"levelo://app?vid=89a3d82f-639c-45d1-9140-38428409e7df"},"vehicle_type_id":"4","last_reported":1739902406,"current_range_meters":16400,"station_id":"ce4bh2h2rcd13ifvqdh0","pricing_plan_id":"cebpf4jnsgd1na2vs0mg"},{"bike_id":"98b1401a-7342-47bc-852f-3b0a705035c6","system_id":"levelo_inurba_marseille","lat":43.23963,"lon":5.36635,"is_reserved":false,"is_disabled":false,"rental_uris":{"android":"levelo://app?vid=98b1401a-7342-47bc-852f-3b0a705035c6","ios":"levelo://app?vid=98b1401a-7342-47bc-852f-3b0a705035c6"},"vehicle_type_id":"4","last_reported":1739902406,"current_range_meters":16400,"station_id":"","pricing_plan_id":"cebpf4jnsgd1na2vs0mg"},{"bike_id":"2496f28f-529d-4b86-a9ef-00d9565268b8","system_id":"levelo_inurba_marseille","lat":43.2954,"lon":5.38538,"is_reserved":false,"is_disabled":false,"rental_uris":{"android":"levelo://app?vid=2496f28f-529d-4b86-a9ef-00d9565268b8","ios":"levelo://app?vid=2496f28f-529d-4b86-a9ef-00d9565268b8"},"vehicle_type_id":"4","last_reported":1739902406,"current_range_meters":16400,"station_id":"","pricing_plan_id":"cebpf4jnsgd1na2vs0mg"},{"bike_id":"583e8f1f-8e72-447c-8b52-55452f097c74","system_id":"levelo_inurba_marseille","lat":43.30473,"lon":5.37898,"is_reserved":false,"is_disabled":false,"rental_uris":{"android":"levelo://app?vid=583e8f1f-8e72-447c-8b52-55452f097c74","ios":"levelo://app?vid=583e8f1f-8e72-447c-8b52-55452f097c74"},"vehicle_type_id":"4","last_reported":1739902406,"current_range_meters":16400,"station_id":"ce4bgup2rcd13ifvqcn0","pricing_plan_id":"cebpf4jnsgd1na2vs0mg"},{"bike_id":"b7ee7074-0ed1-413c-95bf-29ca1f13818b","system_id":"levelo_inurba_marseille","lat":43.25576,"lon":5.38232,"is_reserved":false,"is_disabled":false,"rental_uris":{"android":"levelo://app?vid=b7ee7074-0ed1-413c-95bf-29ca1f13818b","ios":"levelo://app?vid=b7ee7074-0ed1-413c-95bf-29ca1f13818b"},"vehicle_type_id":"4","last_reported":1739902406,"current_range_meters":16800,"station_id":"ce4bhih2rcd13ifvqfs0","pricing_plan_id":"cebpf4jnsgd1na2vs0mg"},{"bike_id":"c3a50302-35be-4085-9dae-1b4ddb75bfa8","system_id":"levelo_inurba_marseille","lat":43.29518,"lon":5.39408,"is_reserved":false,"is_disabled":false,"rental_uris":{"android":"levelo://app?vid=c3a50302-35be-4085-9dae-1b4ddb75bfa8","ios":"levelo://app?vid=c3a50302-35be-4085-9dae-1b4ddb75bfa8"},"vehicle_type_id":"4","last_reported":1739902406,"current_range_meters":16800,"station_id":"ce4bh292rcd13ifvqdf0","pricing_plan_id":"cebpf4jnsgd1na2vs0mg"},{"bike_id":"8d8305ec-9ccc-49e4-853e-623ec1c9e89d","system_id":"levelo_inurba_marseille","lat":43.286998,"lon":5.373882,"is_reserved":false,"is_disabled":false,"rental_uris":{"android":"levelo://app?vid=8d8305ec-9ccc-49e4-853e-623ec1c9e89d","ios":"levelo://app?vid=8d8305ec-9ccc-49e4-853e-623ec1c9e89d"},"vehicle_type_id":"4","last_reported":1739902406,"current_range_meters":16800,"station_id":"ce4bh3p2rcd13ifvqdq0","pricing_plan_id":"cebpf4jnsgd1na2vs0mg"},{"bike_id":"58c3116d-e406-4ba4-b2cb-d7b34b3ba81a","system_id":"levelo_inurba_marseille","lat":43.24647,"lon":5.38889,"is_reserved":false,"is_disabled":false,"rental_uris":{"android":"levelo://app?vid=58c3116d-e406-4ba4-b2cb-d7b34b3ba81a","ios":"levelo://app?vid=58c3116d-e406-4ba4-b2cb-d7b34b3ba81a"},"vehicle_type_id":"4","last_reported":1739902406,"current_range_meters":16800,"station_id":"ce4bhg12rcd13ifvqf60","pricing_plan_id":"cebpf4jnsgd1na2vs0mg"},{"bike_id":"59c06e16-2c1f-4444-a3f6-6a7b6c9c893e","system_id":"levelo_inurba_marseille","lat":43.30312,"lon":5.39216,"is_reserved":false,"is_disabled":true,"rental_uris":{"android":"levelo://app?vid=59c06e16-2c1f-4444-a3f6-6a7b6c9c893e","ios":"levelo://app?vid=59c06e16-2c1f-4444-a3f6-6a7b6c9c893e"},"vehicle_type_id":"4","last_reported":1739902406,"current_range_meters":16800,"station_id":"ce4bgkh2rcd13ifvqbk0","pricing_plan_id":"cebpf4jnsgd1na2vs0mg"},{"bike_id":"baf6d894-ad10-49a9-b91a-24f60ad956f7","system_id":"levelo_inurba_marseille","lat":43.28976,"lon":5.4268,"is_reserved":false,"is_disabled":false,"rental_uris":{"android":"levelo://app?vid=baf6d894-ad10-49a9-b91a-24f60ad956f7","ios":"levelo://app?vid=baf6d894-ad10-49a9-b91a-24f60ad956f7"},"vehicle_type_id":"4","last_reported":1739902406,"current_range_meters":16800,"station_id":"","pricing_plan_id":"cebpf4jnsgd1na2vs0mg"},{"bike_id":"fc971b16-bef3-4b6d-813c-ffc8ffa48842","system_id":"levelo_inurba_marseille","lat":43.2841,"lon":5.34986,"is_reserved":false,"is_disabled":true,"rental_uris":{"android":"levelo://app?vid=fc971b16-bef3-4b6d-813c-ffc8ffa48842","ios":"levelo://app?vid=fc971b16-bef3-4b6d-813c-ffc8ffa48842"},"vehicle_type_id":"4","last_reported":1739902406,"current_range_meters":16800,"station_id":"","pricing_plan_id":"cebpf4jnsgd1na2vs0mg"},{"bike_id":"1d43e5d7-52d5-4194-83ef-c6c6aac59d16","system_id":"levelo_inurba_marseille","lat":43.31707,"lon":5.43702,"is_reserved":false,"is_disabled":false,"rental_uris":{"android":"levelo://app?vid=1d43e5d7-52d5-4194-83ef-c6c6aac59d16","ios":"levelo://app?vid=1d43e5d7-52d5-4194-83ef-c6c6aac59d16"},"vehicle_type_id":"4","last_reported":1739902406,"current_range_meters":16800,"station_id":"","pricing_plan_id":"cebpf4jnsgd1na2vs0mg"},{"bike_id":"077acc1b-c1b2-4d14-8209-0cc02229d534","system_id":"levelo_inurba_marseille","lat":43.30143,"lon":5.39869,"is_reserved":false,"is_disabled":false,"rental_uris":{"android":"levelo://app?vid=077acc1b-c1b2-4d14-8209-0cc02229d534","ios":"levelo://app?vid=077acc1b-c1b2-4d14-8209-0cc02229d534"},"vehicle_type_id":"4","last_reported":1739902406,"current_range_meters":16800,"station_id":"ce4bh0h2rcd13ifvqd40","pricing_plan_id":"cebpf4jnsgd1na2vs0mg"},{"bike_id":"363462ab-4679-48d6-b09a-995f7063eded","system_id":"levelo_inurba_marseille","lat":43.29557,"lon":5.39395,"is_reserved":false,"is_disabled":false,"rental_uris":{"android":"levelo://app?vid=363462ab-4679-48d6-b09a-995f7063eded","ios":"levelo://app?vid=363462ab-4679-48d6-b09a-995f7063eded"},"vehicle_type_id":"4","last_reported":1739902406,"current_range_meters":16800,"station_id":"ce4bh292rcd13ifvqdf0","pricing_plan_id":"cebpf4jnsgd1na2vs0mg"},{"bike_id":"b64778c2-2434-4409-b125-e965a1fd469a","system_id":"levelo_inurba_marseille","lat":43.30494,"lon":5.365854,"is_reserved":false,"is_disabled":false,"rental_uris":{"android":"levelo://app?vid=b64778c2-2434-4409-b125-e965a1fd469a","ios":"levelo://app?vid=b64778c2-2434-4409-b125-e965a1fd469a"},"vehicle_type_id":"4","last_reported":1739902406,"current_range_meters":16800,"station_id":"ce4bgs12rcd13ifvqcag","pricing_plan_id":"cebpf4jnsgd1na2vs0mg"},{"bike_id":"f77eb7d8-9434-4c05-861f-edd4244aaffc","system_id":"levelo_inurba_marseille","lat":43.25502,"lon":5.37662,"is_reserved":false,"is_disabled":false,"rental_uris":{"android":"levelo://app?vid=f77eb7d8-9434-4c05-861f-edd4244aaffc","ios":"levelo://app?vid=f77eb7d8-9434-4c05-861f-edd4244aaffc"},"vehicle_type_id":"4","last_reported":1739902406,"current_range_meters":17200,"station_id":"","pricing_plan_id":"cebpf4jnsgd1na2vs0mg"},{"bike_id":"1c43eb49-ea1b-41ce-946d-e5fe349433b9","system_id":"levelo_inurba_marseille","lat":43.27941,"lon":5.4105,"is_reserved":false,"is_disabled":false,"rental_uris":{"android":"levelo://app?vid=1c43eb49-ea1b-41ce-946d-e5fe349433b9","ios":"levelo://app?vid=1c43eb49-ea1b-41ce-946d-e5fe349433b9"},"vehicle_type_id":"4","last_reported":1739902406,"current_range_meters":17200,"station_id":"ce4bhnp2rcd13ifvqh0g","pricing_plan_id":"cebpf4jnsgd1na2vs0mg"},{"bike_id":"d2bbc16b-17e1-4745-a415-b4cd89817190","system_id":"levelo_inurba_marseille","lat":43.2486,"lon":5.38815,"is_reserved":false,"is_disabled":false,"rental_uris":{"android":"levelo://app?vid=d2bbc16b-17e1-4745-a415-b4cd89817190","ios":"levelo://app?vid=d2bbc16b-17e1-4745-a415-b4cd89817190"},"vehicle_type_id":"4","last_reported":1739902406,"current_range_meters":17200,"station_id":"ce4bhg12rcd13ifvqf60","pricing_plan_id":"cebpf4jnsgd1na2vs0mg"},{"bike_id":"5560132e-e1a2-4915-a1e5-da422ef0d136","system_id":"levelo_inurba_marseille","lat":43.29517,"lon":5.39035,"is_reserved":false,"is_disabled":false,"rental_uris":{"android":"levelo://app?vid=5560132e-e1a2-4915-a1e5-da422ef0d136","ios":"levelo://app?vid=5560132e-e1a2-4915-a1e5-da422ef0d136"},"vehicle_type_id":"4","last_reported":1739902406,"current_range_meters":17200,"station_id":"ce4bh3p2rcd13ifvqdp0","pricing_plan_id":"cebpf4jnsgd1na2vs0mg"},{"bike_id":"090d254b-7e06-4322-b664-ffb12aca0039","system_id":"levelo_inurba_marseille","lat":43.28417,"lon":5.34988,"is_reserved":false,"is_disabled":false,"rental_uris":{"android":"levelo://app?vid=090d254b-7e06-4322-b664-ffb12aca0039","ios":"levelo://app?vid=090d254b-7e06-4322-b664-ffb12aca0039"},"vehicle_type_id":"4","last_reported":1739902406,"current_range_meters":17200,"station_id":"ce4bhbh2rcd13ifvqepg","pricing_plan_id":"cebpf4jnsgd1na2vs0mg"},{"bike_id":"33604822-0839-49e5-a64a-3e509bb43553","system_id":"levelo_inurba_marseille","lat":43.28149,"lon":5.42639,"is_reserved":false,"is_disabled":false,"rental_uris":{"android":"levelo://app?vid=33604822-0839-49e5-a64a-3e509bb43553","ios":"levelo://app?vid=33604822-0839-49e5-a64a-3e509bb43553"},"vehicle_type_id":"4","last_reported":1739902406,"current_range_meters":17200,"station_id":"ce4bhnh2rcd13ifvqgug","pricing_plan_id":"cebpf4jnsgd1na2vs0mg"},{"bike_id":"c67fb496-8441-458a-af2d-8f07c087bdd0","system_id":"levelo_inurba_marseille","lat":43.24172,"lon":5.36426,"is_reserved":false,"is_disabled":true,"rental_uris":{"android":"levelo://app?vid=c67fb496-8441-458a-af2d-8f07c087bdd0","ios":"levelo://app?vid=c67fb496-8441-458a-af2d-8f07c087bdd0"},"vehicle_type_id":"4","last_reported":1739902406,"current_range_meters":17200,"station_id":"","pricing_plan_id":"cebpf4jnsgd1na2vs0mg"},{"bike_id":"db7f2d58-492d-4297-aa78-ce0ad99a0a74","system_id":"levelo_inurba_marseille","lat":43.27451,"lon":5.41056,"is_reserved":false,"is_disabled":false,"rental_uris":{"android":"levelo://app?vid=db7f2d58-492d-4297-aa78-ce0ad99a0a74","ios":"levelo://app?vid=db7f2d58-492d-4297-aa78-ce0ad99a0a74"},"vehicle_type_id":"4","last_reported":1739902406,"current_range_meters":17200,"station_id":"ce4bhb92rcd13ifvqen0","pricing_plan_id":"cebpf4jnsgd1na2vs0mg"},{"bike_id":"24dd12c1-4d8a-40c0-b521-a98d2d462c41","system_id":"levelo_inurba_marseille","lat":43.24169,"lon":5.36394,"is_reserved":false,"is_disabled":false,"rental_uris":{"android":"levelo://app?vid=24dd12c1-4d8a-40c0-b521-a98d2d462c41","ios":"levelo://app?vid=24dd12c1-4d8a-40c0-b521-a98d2d462c41"},"vehicle_type_id":"4","last_reported":1739902406,"current_range_meters":17200,"station_id":"","pricing_plan_id":"cebpf4jnsgd1na2vs0mg"},{"bike_id":"5a53eb6b-200f-4ac0-8efb-be28f6b20f01","system_id":"levelo_inurba_marseille","lat":43.23963,"lon":5.36629,"is_reserved":false,"is_disabled":false,"rental_uris":{"android":"levelo://app?vid=5a53eb6b-200f-4ac0-8efb-be28f6b20f01","ios":"levelo://app?vid=5a53eb6b-200f-4ac0-8efb-be28f6b20f01"},"vehicle_type_id":"4","last_reported":1739902406,"current_range_meters":17200,"station_id":"","pricing_plan_id":"cebpf4jnsgd1na2vs0mg"},{"bike_id":"f107fd10-a21a-4129-b11c-ebed5d2373f0","system_id":"levelo_inurba_marseille","lat":43.29919,"lon":5.38145,"is_reserved":false,"is_disabled":false,"rental_uris":{"android":"levelo://app?vid=f107fd10-a21a-4129-b11c-ebed5d2373f0","ios":"levelo://app?vid=f107fd10-a21a-4129-b11c-ebed5d2373f0"},"vehicle_type_id":"4","last_reported":1739902406,"current_range_meters":17200,"station_id":"ce4bgj12rcd13ifvqbc0","pricing_plan_id":"cebpf4jnsgd1na2vs0mg"},{"bike_id":"043e80ab-ad4e-4777-b08c-956a535d6f43","system_id":"levelo_inurba_marseille","lat":43.25504,"lon":5.37656,"is_reserved":false,"is_disabled":false,"rental_uris":{"android":"levelo://app?vid=043e80ab-ad4e-4777-b08c-956a535d6f43","ios":"levelo://app?vid=043e80ab-ad4e-4777-b08c-956a535d6f43"},"vehicle_type_id":"4","last_reported":1739902406,"current_range_meters":17200,"station_id":"","pricing_plan_id":"cebpf4jnsgd1na2vs0mg"},{"bike_id":"d0c0cd74-5384-4aaa-8637-19bc76ea0b84","system_id":"levelo_inurba_marseille","lat":43.32982,"lon":5.39037,"is_reserved":false,"is_disabled":false,"rental_uris":{"android":"levelo://app?vid=d0c0cd74-5384-4aaa-8637-19bc76ea0b84","ios":"levelo://app?vid=d0c0cd74-5384-4aaa-8637-19bc76ea0b84"},"vehicle_type_id":"4","last_reported":1739902406,"current_range_meters":17200,"station_id":"ce4bhr92rcd13ifvqhrg","pricing_plan_id":"cebpf4jnsgd1na2vs0mg"},{"bike_id":"07d8242f-cc1b-4541-894d-fe85e3249a8e","system_id":"levelo_inurba_marseille","lat":43.2903,"lon":5.38661,"is_reserved":false,"is_disabled":false,"rental_uris":{"android":"levelo://app?vid=07d8242f-cc1b-4541-894d-fe85e3249a8e","ios":"levelo://app?vid=07d8242f-cc1b-4541-894d-fe85e3249a8e"},"vehicle_type_id":"4","last_reported":1739902406,"current_range_meters":17200,"station_id":"ce4bh4p2rcd13ifvqe0g","pricing_plan_id":"cebpf4jnsgd1na2vs0mg"},{"bike_id":"96102628-7ec5-4467-8857-4281f0ddb87a","system_id":"levelo_inurba_marseille","lat":43.25726,"lon":5.41111,"is_reserved":false,"is_disabled":false,"rental_uris":{"android":"levelo://app?vid=96102628-7ec5-4467-8857-4281f0ddb87a","ios":"levelo://app?vid=96102628-7ec5-4467-8857-4281f0ddb87a"},"vehicle_type_id":"4","last_reported":1739902406,"current_range_meters":17200,"station_id":"ce4bhkp2rcd13ifvqgd0","pricing_plan_id":"cebpf4jnsgd1na2vs0mg"},{"bike_id":"63530219-5d51-4f97-9e1a-66071ff0f05f","system_id":"levelo_inurba_marseille","lat":43.292915,"lon":5.407914,"is_reserved":false,"is_disabled":false,"rental_uris":{"android":"levelo://app?vid=63530219-5d51-4f97-9e1a-66071ff0f05f","ios":"levelo://app?vid=63530219-5d51-4f97-9e1a-66071ff0f05f"},"vehicle_type_id":"4","last_reported":1739902406,"current_range_meters":17600,"station_id":"ce4bh192rcd13ifvqdc0","pricing_plan_id":"cebpf4jnsgd1na2vs0mg"},{"bike_id":"4c049e8c-dd47-4937-b343-0b8e81c04fa5","system_id":"levelo_inurba_marseille","lat":43.29533,"lon":5.38543,"is_reserved":false,"is_disabled":false,"rental_uris":{"android":"levelo://app?vid=4c049e8c-dd47-4937-b343-0b8e81c04fa5","ios":"levelo://app?vid=4c049e8c-dd47-4937-b343-0b8e81c04fa5"},"vehicle_type_id":"4","last_reported":1739902406,"current_range_meters":18000,"station_id":"ce4bgih2rcd13ifvqba0","pricing_plan_id":"cebpf4jnsgd1na2vs0mg"},{"bike_id":"9a20bf4a-2838-4260-9d28-debd745460c0","system_id":"levelo_inurba_marseille","lat":43.30879,"lon":5.37787,"is_reserved":false,"is_disabled":false,"rental_uris":{"android":"levelo://app?vid=9a20bf4a-2838-4260-9d28-debd745460c0","ios":"levelo://app?vid=9a20bf4a-2838-4260-9d28-debd745460c0"},"vehicle_type_id":"4","last_reported":1739902406,"current_range_meters":17600,"station_id":"ce4bgv92rcd13ifvqcq0","pricing_plan_id":"cebpf4jnsgd1na2vs0mg"},{"bike_id":"f335015f-d48e-4454-8b3a-aaae9671e68c","system_id":"levelo_inurba_marseille","lat":43.29413,"lon":5.38632,"is_reserved":false,"is_disabled":false,"rental_uris":{"android":"levelo://app?vid=f335015f-d48e-4454-8b3a-aaae9671e68c","ios":"levelo://app?vid=f335015f-d48e-4454-8b3a-aaae9671e68c"},"vehicle_type_id":"4","last_reported":1739902406,"current_range_meters":17600,"station_id":"","pricing_plan_id":"cebpf4jnsgd1na2vs0mg"},{"bike_id":"93682908-43c6-4032-8e45-6984dd069700","system_id":"levelo_inurba_marseille","lat":43.2465,"lon":5.38889,"is_reserved":false,"is_disabled":false,"rental_uris":{"android":"levelo://app?vid=93682908-43c6-4032-8e45-6984dd069700","ios":"levelo://app?vid=93682908-43c6-4032-8e45-6984dd069700"},"vehicle_type_id":"4","last_reported":1739902406,"current_range_meters":17600,"station_id":"ce4bhg12rcd13ifvqf60","pricing_plan_id":"cebpf4jnsgd1na2vs0mg"},{"bike_id":"4c89dcde-ddd4-4153-9fd8-8d51abd5161f","system_id":"levelo_inurba_marseille","lat":43.27837,"lon":5.39211,"is_reserved":false,"is_disabled":false,"rental_uris":{"android":"levelo://app?vid=4c89dcde-ddd4-4153-9fd8-8d51abd5161f","ios":"levelo://app?vid=4c89dcde-ddd4-4153-9fd8-8d51abd5161f"},"vehicle_type_id":"4","last_reported":1739902406,"current_range_meters":17600,"station_id":"ce4bhjp2rcd13ifvqga0","pricing_plan_id":"cebpf4jnsgd1na2vs0mg"},{"bike_id":"aab56d93-547d-40cc-9ff6-b85d4684f798","system_id":"levelo_inurba_marseille","lat":43.23955,"lon":5.36635,"is_reserved":false,"is_disabled":false,"rental_uris":{"android":"levelo://app?vid=aab56d93-547d-40cc-9ff6-b85d4684f798","ios":"levelo://app?vid=aab56d93-547d-40cc-9ff6-b85d4684f798"},"vehicle_type_id":"4","last_reported":1739902406,"current_range_meters":17600,"station_id":"ce4bhi12rcd13ifvqfp0","pricing_plan_id":"cebpf4jnsgd1na2vs0mg"},{"bike_id":"143efc69-cdf3-41bc-b66a-e56ddaf39e27","system_id":"levelo_inurba_marseille","lat":43.27611,"lon":5.36111,"is_reserved":false,"is_disabled":false,"rental_uris":{"android":"levelo://app?vid=143efc69-cdf3-41bc-b66a-e56ddaf39e27","ios":"levelo://app?vid=143efc69-cdf3-41bc-b66a-e56ddaf39e27"},"vehicle_type_id":"4","last_reported":1739902406,"current_range_meters":17200,"station_id":"ce4bgj92rcd13ifvqbe0","pricing_plan_id":"cebpf4jnsgd1na2vs0mg"},{"bike_id":"25ef3cfc-e552-4a9c-9010-98c01f2857b4","system_id":"levelo_inurba_marseille","lat":43.26786,"lon":5.39417,"is_reserved":false,"is_disabled":false,"rental_uris":{"android":"levelo://app?vid=25ef3cfc-e552-4a9c-9010-98c01f2857b4","ios":"levelo://app?vid=25ef3cfc-e552-4a9c-9010-98c01f2857b4"},"vehicle_type_id":"4","last_reported":1739902406,"current_range_meters":17600,"station_id":"ce4bhh12rcd13ifvqfg0","pricing_plan_id":"cebpf4jnsgd1na2vs0mg"},{"bike_id":"ee318ccd-c697-43a6-bafd-c758274e6962","system_id":"levelo_inurba_marseille","lat":43.30339,"lon":5.40089,"is_reserved":false,"is_disabled":false,"rental_uris":{"android":"levelo://app?vid=ee318ccd-c697-43a6-bafd-c758274e6962","ios":"levelo://app?vid=ee318ccd-c697-43a6-bafd-c758274e6962"},"vehicle_type_id":"4","last_reported":1739902406,"current_range_meters":17600,"station_id":"","pricing_plan_id":"cebpf4jnsgd1na2vs0mg"},{"bike_id":"5180f318-4948-4085-aaf1-5f3160b57dbe","system_id":"levelo_inurba_marseille","lat":43.27614,"lon":5.3611,"is_reserved":false,"is_disabled":true,"rental_uris":{"android":"levelo://app?vid=5180f318-4948-4085-aaf1-5f3160b57dbe","ios":"levelo://app?vid=5180f318-4948-4085-aaf1-5f3160b57dbe"},"vehicle_type_id":"4","last_reported":1739902406,"current_range_meters":17600,"station_id":"ce4bgj92rcd13ifvqbe0","pricing_plan_id":"cebpf4jnsgd1na2vs0mg"},{"bike_id":"bf58ee12-0e70-4f99-b036-3c54ae86dda0","system_id":"levelo_inurba_marseille","lat":43.29899,"lon":5.4367,"is_reserved":false,"is_disabled":false,"rental_uris":{"android":"levelo://app?vid=bf58ee12-0e70-4f99-b036-3c54ae86dda0","ios":"levelo://app?vid=bf58ee12-0e70-4f99-b036-3c54ae86dda0"},"vehicle_type_id":"4","last_reported":1739902406,"current_range_meters":18000,"station_id":"ce4bhpp2rcd13ifvqhfg","pricing_plan_id":"cebpf4jnsgd1na2vs0mg"},{"bike_id":"b768b1a6-dfb0-4283-bce3-5f90f2a7562b","system_id":"levelo_inurba_marseille","lat":43.32324,"lon":5.38872,"is_reserved":false,"is_disabled":false,"rental_uris":{"android":"levelo://app?vid=b768b1a6-dfb0-4283-bce3-5f90f2a7562b","ios":"levelo://app?vid=b768b1a6-dfb0-4283-bce3-5f90f2a7562b"},"vehicle_type_id":"4","last_reported":1739902406,"current_range_meters":18000,"station_id":"ce4bhqp2rcd13ifvqhog","pricing_plan_id":"cebpf4jnsgd1na2vs0mg"},{"bike_id":"9a3ca034-d86b-48bf-9a28-f8c1bf216a3e","system_id":"levelo_inurba_marseille","lat":43.29293,"lon":5.37177,"is_reserved":false,"is_disabled":false,"rental_uris":{"android":"levelo://app?vid=9a3ca034-d86b-48bf-9a28-f8c1bf216a3e","ios":"levelo://app?vid=9a3ca034-d86b-48bf-9a28-f8c1bf216a3e"},"vehicle_type_id":"4","last_reported":1739902406,"current_range_meters":18000,"station_id":"","pricing_plan_id":"cebpf4jnsgd1na2vs0mg"},{"bike_id":"57708fc5-2744-4763-a091-3036762d24bc","system_id":"levelo_inurba_marseille","lat":43.31703,"lon":5.43705,"is_reserved":false,"is_disabled":false,"rental_uris":{"android":"levelo://app?vid=57708fc5-2744-4763-a091-3036762d24bc","ios":"levelo://app?vid=57708fc5-2744-4763-a091-3036762d24bc"},"vehicle_type_id":"4","last_reported":1739902406,"current_range_meters":18000,"station_id":"ce4bhp92rcd13ifvqhcg","pricing_plan_id":"cebpf4jnsgd1na2vs0mg"},{"bike_id":"c5196719-d258-4dcc-b854-2fca555cf4cd","system_id":"levelo_inurba_marseille","lat":43.30961,"lon":5.40176,"is_reserved":false,"is_disabled":false,"rental_uris":{"android":"levelo://app?vid=c5196719-d258-4dcc-b854-2fca555cf4cd","ios":"levelo://app?vid=c5196719-d258-4dcc-b854-2fca555cf4cd"},"vehicle_type_id":"4","last_reported":1739902406,"current_range_meters":18000,"station_id":"ce4bgvp2rcd13ifvqct0","pricing_plan_id":"cebpf4jnsgd1na2vs0mg"},{"bike_id":"f7db23b2-4c03-4c27-a486-c3e2483540b0","system_id":"levelo_inurba_marseille","lat":43.28726,"lon":5.36084,"is_reserved":false,"is_disabled":false,"rental_uris":{"android":"levelo://app?vid=f7db23b2-4c03-4c27-a486-c3e2483540b0","ios":"levelo://app?vid=f7db23b2-4c03-4c27-a486-c3e2483540b0"},"vehicle_type_id":"4","last_reported":1739902406,"current_range_meters":18000,"station_id":"cki0cbj6b192h4jlfktg","pricing_plan_id":"cebpf4jnsgd1na2vs0mg"},{"bike_id":"8e9a4798-daef-42e0-a943-01d4ee6046d7","system_id":"levelo_inurba_marseille","lat":43.249969,"lon":5.389257,"is_reserved":false,"is_disabled":false,"rental_uris":{"android":"levelo://app?vid=8e9a4798-daef-42e0-a943-01d4ee6046d7","ios":"levelo://app?vid=8e9a4798-daef-42e0-a943-01d4ee6046d7"},"vehicle_type_id":"4","last_reported":1739902406,"current_range_meters":18000,"station_id":"ce4bhgp2rcd13ifvqfd0","pricing_plan_id":"cebpf4jnsgd1na2vs0mg"},{"bike_id":"67ec8d3e-2fa8-4a16-983e-d33730723a75","system_id":"levelo_inurba_marseille","lat":43.28416,"lon":5.3499,"is_reserved":false,"is_disabled":false,"rental_uris":{"android":"levelo://app?vid=67ec8d3e-2fa8-4a16-983e-d33730723a75","ios":"levelo://app?vid=67ec8d3e-2fa8-4a16-983e-d33730723a75"},"vehicle_type_id":"4","last_reported":1739902406,"current_range_meters":18000,"station_id":"ce4bhbh2rcd13ifvqepg","pricing_plan_id":"cebpf4jnsgd1na2vs0mg"},{"bike_id":"5f9ede52-c720-4107-a864-980fb2608395","system_id":"levelo_inurba_marseille","lat":43.24087,"lon":5.38671,"is_reserved":false,"is_disabled":false,"rental_uris":{"android":"levelo://app?vid=5f9ede52-c720-4107-a864-980fb2608395","ios":"levelo://app?vid=5f9ede52-c720-4107-a864-980fb2608395"},"vehicle_type_id":"4","last_reported":1739902406,"current_range_meters":18800,"station_id":"","pricing_plan_id":"cebpf4jnsgd1na2vs0mg"},{"bike_id":"5089bb88-a0cd-4434-a1a9-f3d5b67361c6","system_id":"levelo_inurba_marseille","lat":43.24376,"lon":5.38768,"is_reserved":false,"is_disabled":false,"rental_uris":{"android":"levelo://app?vid=5089bb88-a0cd-4434-a1a9-f3d5b67361c6","ios":"levelo://app?vid=5089bb88-a0cd-4434-a1a9-f3d5b67361c6"},"vehicle_type_id":"4","last_reported":1739902406,"current_range_meters":18800,"station_id":"","pricing_plan_id":"cebpf4jnsgd1na2vs0mg"},{"bike_id":"8032a1cc-7ee3-4156-b903-4fb0af549739","system_id":"levelo_inurba_marseille","lat":43.269401,"lon":5.366589,"is_reserved":false,"is_disabled":false,"rental_uris":{"android":"levelo://app?vid=8032a1cc-7ee3-4156-b903-4fb0af549739","ios":"levelo://app?vid=8032a1cc-7ee3-4156-b903-4fb0af549739"},"vehicle_type_id":"4","last_reported":1739902406,"current_range_meters":18800,"station_id":"ce4bgnh2rcd13ifvqc0g","pricing_plan_id":"cebpf4jnsgd1na2vs0mg"},{"bike_id":"37aaddc3-e5ab-4d82-ae15-986efe2d08cc","system_id":"levelo_inurba_marseille","lat":43.30419,"lon":5.4128,"is_reserved":false,"is_disabled":false,"rental_uris":{"android":"levelo://app?vid=37aaddc3-e5ab-4d82-ae15-986efe2d08cc","ios":"levelo://app?vid=37aaddc3-e5ab-4d82-ae15-986efe2d08cc"},"vehicle_type_id":"4","last_reported":1739902406,"current_range_meters":18800,"station_id":"ce4bhop2rcd13ifvqh8g","pricing_plan_id":"cebpf4jnsgd1na2vs0mg"},{"bike_id":"5ecd443d-db34-486a-b6f9-c8e67e540a70","system_id":"levelo_inurba_marseille","lat":43.2861,"lon":5.35117,"is_reserved":false,"is_disabled":false,"rental_uris":{"android":"levelo://app?vid=5ecd443d-db34-486a-b6f9-c8e67e540a70","ios":"levelo://app?vid=5ecd443d-db34-486a-b6f9-c8e67e540a70"},"vehicle_type_id":"4","last_reported":1739902406,"current_range_meters":18800,"station_id":"ce4bhch2rcd13ifvqeug","pricing_plan_id":"cebpf4jnsgd1na2vs0mg"},{"bike_id":"bb87234b-39de-4609-a52d-2f5567033da9","system_id":"levelo_inurba_marseille","lat":43.29974,"lon":5.38494,"is_reserved":false,"is_disabled":false,"rental_uris":{"android":"levelo://app?vid=bb87234b-39de-4609-a52d-2f5567033da9","ios":"levelo://app?vid=bb87234b-39de-4609-a52d-2f5567033da9"},"vehicle_type_id":"4","last_reported":1739902406,"current_range_meters":18000,"station_id":"ce4bgj92rcd13ifvqbd0","pricing_plan_id":"cebpf4jnsgd1na2vs0mg"},{"bike_id":"4fb8de1b-8396-4143-9aec-90867633cc95","system_id":"levelo_inurba_marseille","lat":43.24662,"lon":5.3817,"is_reserved":false,"is_disabled":false,"rental_uris":{"android":"levelo://app?vid=4fb8de1b-8396-4143-9aec-90867633cc95","ios":"levelo://app?vid=4fb8de1b-8396-4143-9aec-90867633cc95"},"vehicle_type_id":"4","last_reported":1739902406,"current_range_meters":18000,"station_id":"ce4bhih2rcd13ifvqfr0","pricing_plan_id":"cebpf4jnsgd1na2vs0mg"},{"bike_id":"b85644ed-f65a-4039-a397-da921e97276e","system_id":"levelo_inurba_marseille","lat":43.23956,"lon":5.36645,"is_reserved":false,"is_disabled":false,"rental_uris":{"android":"levelo://app?vid=b85644ed-f65a-4039-a397-da921e97276e","ios":"levelo://app?vid=b85644ed-f65a-4039-a397-da921e97276e"},"vehicle_type_id":"4","last_reported":1739902406,"current_range_meters":19200,"station_id":"ce4bhi12rcd13ifvqfp0","pricing_plan_id":"cebpf4jnsgd1na2vs0mg"},{"bike_id":"a0af3547-0f5a-4ee7-a39d-23ed992db956","system_id":"levelo_inurba_marseille","lat":43.23418,"lon":5.40452,"is_reserved":false,"is_disabled":false,"rental_uris":{"android":"levelo://app?vid=a0af3547-0f5a-4ee7-a39d-23ed992db956","ios":"levelo://app?vid=a0af3547-0f5a-4ee7-a39d-23ed992db956"},"vehicle_type_id":"4","last_reported":1739902406,"current_range_meters":19200,"station_id":"","pricing_plan_id":"cebpf4jnsgd1na2vs0mg"},{"bike_id":"61c74ee5-d0d4-4ae1-bc12-7ba1f087e9fc","system_id":"levelo_inurba_marseille","lat":43.32359,"lon":5.38903,"is_reserved":false,"is_disabled":false,"rental_uris":{"android":"levelo://app?vid=61c74ee5-d0d4-4ae1-bc12-7ba1f087e9fc","ios":"levelo://app?vid=61c74ee5-d0d4-4ae1-bc12-7ba1f087e9fc"},"vehicle_type_id":"4","last_reported":1739902406,"current_range_meters":19200,"station_id":"ce4bhqp2rcd13ifvqhog","pricing_plan_id":"cebpf4jnsgd1na2vs0mg"},