{"last_updated":1750446479,"ttl":60,"version":"2.2","data":{"bikes":[{"bike_id":"3da29fb8-fc97-44c6-b9ac-31dd456b2fd4","system_id":"levelo_inurba_marseille","lat":43.33771,"lon":5.37424,"is_reserved":false,"is_disabled":true,"rental_uris":{"android":"levelo://app?vid=3da29fb8-fc97-44c6-b9ac-31dd456b2fd4","ios":"levelo://app?vid=3da29fb8-fc97-44c6-b9ac-31dd456b2fd4"},"vehicle_type_id":"4","last_reported":1750446479,"current_range_meters":0,"station_id":"","pricing_plan_id":"cebpf4jnsgd1na2vs0mg"},{"bike_id":"01861ad8-a8d7-4be6-816e-651927c87584","system_id":"levelo_inurba_marseille","lat":43.33751,"lon":5.37456,"is_reserved":false,"is_disabled":true,"rental_uris":{"android":"levelo://app?vid=01861ad8-a8d7-4be6-816e-651927c87584","ios":"levelo://app?vid=01861ad8-a8d7-4be6-816e-651927c87584"},"vehicle_type_id":"4","last_reported":1750446479,"current_range_meters":0,"station_id":"","pricing_plan_id":"cebpf4jnsgd1na2vs0mg"},{"bike_id":"1eea55df-a17e-4fdf-a523-9ad982e8087b","system_id":"levelo_inurba_marseille","lat":43.331446,"lon":5.386914,"is_reserved":false,"is_disabled":true,"rental_uris":{"android":"levelo://app?vid=1eea55df-a17e-4fdf-a523-9ad982e8087b","ios":"levelo://app?vid=1eea55df-a17e-4fdf-a523-9ad982e8087b"},"vehicle_type_id":"4","last_reported":1750446479,"current_range_meters":0,"station_id":"","pricing_plan_id":"cebpf4jnsgd1na2vs0mg"},{"bike_id":"d2bd57c8-6b64-48db-ad24-5398eb3fd9d6","system_id":"levelo_inurba_marseille","lat":43.337444,"lon":5.374475,"is_reserved":false,"is_disabled":true,"rental_uris":{"android":"levelo://app?vid=d2bd57c8-6b64-48db-ad24-5398eb3fd9d6","ios":"levelo://app?vid=d2bd57c8-6b64-48db-ad24-5398eb3fd9d6"},"vehicle_type_id":"4","last_reported":1750446479,"current_range_meters":0,"station_id":"","pricing_plan_id":"cebpf4jnsgd1na2vs0mg"},{"bike_id":"62a493c7-4534-4419-ad43-0582de34a72a","system_id":"levelo_inurba_marseille","lat":43.21366,"lon":5.355183,"is_reserved":false,"is_disabled":true,"rental_uris":{"android":"levelo://app?vid=62a493c7-4534-4419-ad43-0582de34a72a","ios":"levelo://app?vid=62a493c7-4534-4419-ad43-0582de34a72a"},"vehicle_type_id":"4","last_reported":1750446479,"current_range_meters":0,"station_id":"","pricing_plan_id":"cebpf4jnsgd1na2vs0mg"},{"bike_id":"d5a1ae9e-4421-4539-b5ac-98a00695a8d8","system_id":"levelo_inurba_marseille","lat":43.33406,"lon":5.40049,"is_reserved":false,"is_disabled":true,"rental_uris":{"android":"levelo://app?vid=d5a1ae9e-4421-4539-b5ac-98a00695a8d8","ios":"levelo://app?vid=d5a1ae9e-4421-4539-b5ac-98a00695a8d8"},"vehicle_type_id":"4","last_reported":1750446479,"current_range_meters":0,"station_id":"","pricing_plan_id":"cebpf4jnsgd1na2vs0mg"},{"bike_id":"d6609b4f-333b-43c1-9ebe-8726f5e76e88","system_id":"levelo_inurba_marseille","lat":43.337444,"lon":5.374475,"is_reserved":false,"is_disabled":true,"rental_uris":{"android":"levelo://app?vid=d6609b4f-333b-43c1-9ebe-8726f5e76e88","ios":"levelo://app?vid=d6609b4f-333b-43c1-9ebe-8726f5e76e88"},"vehicle_type_id":"4","last_reported":1750446479,"current_range_meters":0,"station_id":"","pricing_plan_id":"cebpf4jnsgd1na2vs0mg"},{"bike_id":"75ebd890-b37a-406d-92d6-1e084b3f10eb","system_id":"levelo_inurba_marseille","lat":43.28478,"lon":5.38428,"is_reserved":false,"is_disabled":true,"rental_uris":{"android":"levelo://app?vid=75ebd890-b37a-406d-92d6-1e084b3f10eb","ios":"levelo://app?vid=75ebd890-b37a-406d-92d6-1e084b3f10eb"},"vehicle_type_id":"4","last_reported":1750446479,"current_range_meters":0,"station_id":"ce4bh512rcd13ifvqe3g","pricing_plan_id":"cebpf4jnsgd1na2vs0mg"},{"bike_id":"1dd2d18a-b805-4d55-90f5-392407153616","system_id":"levelo_inurba_marseille","lat":43.284199,"lon":5.358062,"is_reserved":false,"is_disabled":true,"rental_uris":{"android":"levelo://app?vid=1dd2d18a-b805-4d55-90f5-392407153616","ios":"levelo://app?vid=1dd2d18a-b805-4d55-90f5-392407153616"},"vehicle_type_id":"4","last_reported":1750446479,"current_range_meters":0,"station_id":"ce4bhah2rcd13ifvqei0","pricing_plan_id":"cebpf4jnsgd1na2vs0mg"},{"bike_id":"e518d35c-a9bb-4155-9e9e-929656c69bae","system_id":"levelo_inurba_marseille","lat":43.27418,"lon":5.39412,"is_reserved":false,"is_disabled":true,"rental_uris":{"android":"levelo://app?vid=e518d35c-a9bb-4155-9e9e-929656c69bae","ios":"levelo://app?vid=e518d35c-a9bb-4155-9e9e-929656c69bae"},"vehicle_type_id":"4","last_reported":1750446479,"current_range_meters":0,"station_id":"ce4bhdp2rcd13ifvqf20","pricing_plan_id":"cebpf4jnsgd1na2vs0mg"},{"bike_id":"7dc5679d-b10a-402a-a7d4-295d1e748200","system_id":"levelo_inurba_marseille","lat":43.24808,"lon":5.37459,"is_reserved":false,"is_disabled":true,"rental_uris":{"android":"levelo://app?vid=7dc5679d-b10a-402a-a7d4-295d1e748200","ios":"levelo://app?vid=7dc5679d-b10a-402a-a7d4-295d1e748200"},"vehicle_type_id":"4","last_reported":1750446479,"current_range_meters":0,"station_id":"ce4bhgh2rcd13ifvqfb0","pricing_plan_id":"cebpf4jnsgd1na2vs0mg"},{"bike_id":"7abcf4fa-7a21-4b12-a8f9-34a345dda826","system_id":"levelo_inurba_marseille","lat":43.24811,"lon":5.37455,"is_reserved":false,"is_disabled":true,"rental_uris":{"android":"levelo://app?vid=7abcf4fa-7a21-4b12-a8f9-34a345dda826","ios":"levelo://app?vid=7abcf4fa-7a21-4b12-a8f9-34a345dda826"},"vehicle_type_id":"4","last_reported":1750446479,"current_range_meters":0,"station_id":"ce4bhgh2rcd13ifvqfb0","pricing_plan_id":"cebpf4jnsgd1na2vs0mg"},{"bike_id":"7ef49ba3-3d64-41b7-9a7b-65dd3eb3b0ec","system_id":"levelo_inurba_marseille","lat":43.25583,"lon":5.38225,"is_reserved":false,"is_disabled":true,"rental_uris":{"android":"levelo://app?vid=7ef49ba3-3d64-41b7-9a7b-65dd3eb3b0ec","ios":"levelo://app?vid=7ef49ba3-3d64-41b7-9a7b-65dd3eb3b0ec"},"vehicle_type_id":"4","last_reported":1750446479,"current_range_meters":0,"station_id":"ce4bhih2rcd13ifvqfs0","pricing_plan_id":"cebpf4jnsgd1na2vs0mg"},{"bike_id":"512fc921-28c7-4900-b85b-f7471c5e720f","system_id":"levelo_inurba_marseille","lat":43.25582,"lon":5.38226,"is_reserved":false,"is_disabled":true,"rental_uris":{"android":"levelo://app?vid=512fc921-28c7-4900-b85b-f7471c5e720f","ios":"levelo://app?vid=512fc921-28c7-4900-b85b-f7471c5e720f"},"vehicle_type_id":"4","last_reported":1750446479,"current_range_meters":0,"station_id":"ce4bhih2rcd13ifvqfs0","pricing_plan_id":"cebpf4jnsgd1na2vs0mg"},{"bike_id":"0eddcbff-1ecc-4dd9-9a46-8a2570e55107","system_id":"levelo_inurba_marseille","lat":43.262049,"lon":5.379322,"is_reserved":false,"is_disabled":true,"rental_uris":{"android":"levelo://app?vid=0eddcbff-1ecc-4dd9-9a46-8a2570e55107","ios":"levelo://app?vid=0eddcbff-1ecc-4dd9-9a46-8a2570e55107"},"vehicle_type_id":"4","last_reported":1750446479,"current_range_meters":0,"station_id":"ce4bhjp2rcd13ifvqg90","pricing_plan_id":"cebpf4jnsgd1na2vs0mg"},{"bike_id":"2be082ca-4467-48fd-b65c-3c02b405800f","system_id":"levelo_inurba_marseille","lat":43.23155,"lon":5.43702,"is_reserved":false,"is_disabled":true,"rental_uris":{"android":"levelo://app?vid=2be082ca-4467-48fd-b65c-3c02b405800f","ios":"levelo://app?vid=2be082ca-4467-48fd-b65c-3c02b405800f"},"vehicle_type_id":"4","last_reported":1750446479,"current_range_meters":0,"station_id":"ce4bhmp2rcd13ifvqgog","pricing_plan_id":"cebpf4jnsgd1na2vs0mg"},{"bike_id":"bef2d327-e4c0-4baa-91c2-5a11decb3468","system_id":"levelo_inurba_marseille","lat":43.30421,"lon":5.41282,"is_reserved":false,"is_disabled":true,"rental_uris":{"android":"levelo://app?vid=bef2d327-e4c0-4baa-91c2-5a11decb3468","ios":"levelo://app?vid=bef2d327-e4c0-4baa-91c2-5a11decb3468"},"vehicle_type_id":"4","last_reported":1750446479,"current_range_meters":0,"station_id":"ce4bhop2rcd13ifvqh8g","pricing_plan_id":"cebpf4jnsgd1na2vs0mg"},{"bike_id":"0429e4a3-d3bf-40bd-b063-80c29d85ae65","system_id":"levelo_inurba_marseille","lat":43.30811,"lon":5.43509,"is_reserved":false,"is_disabled":true,"rental_uris":{"android":"levelo://app?vid=0429e4a3-d3bf-40bd-b063-80c29d85ae65","ios":"levelo://app?vid=0429e4a3-d3bf-40bd-b063-80c29d85ae65"},"vehicle_type_id":"4","last_reported":1750446479,"current_range_meters":0,"station_id":"ce4bhph2rcd13ifvqheg","pricing_plan_id":"cebpf4jnsgd1na2vs0mg"},{"bike_id":"45c12242-63fd-44b0-a1b2-ddf5e9e4e8e9","system_id":"levelo_inurba_marseille","lat":43.28604,"lon":5.37059,"is_reserved":false,"is_disabled":true,"rental_uris":{"android":"levelo://app?vid=45c12242-63fd-44b0-a1b2-ddf5e9e4e8e9","ios":"levelo://app?vid=45c12242-63fd-44b0-a1b2-ddf5e9e4e8e9"},"vehicle_type_id":"4","last_reported":1750446479,"current_range_meters":0,"station_id":"ce4bht12rcd13ifvqi60","pricing_plan_id":"cebpf4jnsgd1na2vs0mg"},{"bike_id":"24466bb8-ea46-418f-a473-cce465177766","system_id":"levelo_inurba_marseille","lat":43.21747,"lon":5.34597,"is_reserved":false,"is_disabled":true,"rental_uris":{"android":"levelo://app?vid=24466bb8-ea46-418f-a473-cce465177766","ios":"levelo://app?vid=24466bb8-ea46-418f-a473-cce465177766"},"vehicle_type_id":"4","last_reported":1750446479,"current_range_meters":0,"station_id":"st_cvj6r9ubvosntc0bgbag","pricing_plan_id":"cebpf4jnsgd1na2vs0mg"},{"bike_id":"5fbb195f-49ec-4434-be39-dc7749d670ce","system_id":"levelo_inurba_marseille","lat":43.28269,"lon":5.35062,"is_reserved":false,"is_disabled":true,"rental_uris":{"android":"levelo://app?vid=5fbb195f-49ec-4434-be39-dc7749d670ce","ios":"levelo://app?vid=5fbb195f-49ec-4434-be39-dc7749d670ce"},"vehicle_type_id":"4","last_reported":1750446479,"current_range_meters":400,"station_id":"ce4bhbp2rcd13ifvqerg","pricing_plan_id":"cebpf4jnsgd1na2vs0mg"},{"bike_id":"65f5c426-23ea-4808-b3c2-6b6171ab8668","system_id":"levelo_inurba_marseille","lat":43.28415,"lon":5.34994,"is_reserved":false,"is_disabled":true,"rental_uris":{"android":"levelo://app?vid=65f5c426-23ea-4808-b3c2-6b6171ab8668","ios":"levelo://app?vid=65f5c426-23ea-4808-b3c2-6b6171ab8668"},"vehicle_type_id":"4","last_reported":1750446479,"current_range_meters":800,"station_id":"ce4bhbh2rcd13ifvqepg","pricing_plan_id":"cebpf4jnsgd1na2vs0mg"},{"bike_id":"a714fe2e-7dc7-41bc-a776-53a980d63c65","system_id":"levelo_inurba_marseille","lat":43.26213,"lon":5.37442,"is_reserved":false,"is_disabled":true,"rental_uris":{"android":"levelo://app?vid=a714fe2e-7dc7-41bc-a776-53a980d63c65","ios":"levelo://app?vid=a714fe2e-7dc7-41bc-a776-53a980d63c65"},"vehicle_type_id":"4","last_reported":1750446479,"current_range_meters":800,"station_id":"ce4bhgp2rcd13ifvqfc0","pricing_plan_id":"cebpf4jnsgd1na2vs0mg"},{"bike_id":"091fcb0c-ecce-41ae-9f81-09966ac2ef4a","system_id":"levelo_inurba_marseille","lat":43.30375,"lon":5.42478,"is_reserved":false,"is_disabled":true,"rental_uris":{"android":"levelo://app?vid=091fcb0c-ecce-41ae-9f81-09966ac2ef4a","ios":"levelo://app?vid=091fcb0c-ecce-41ae-9f81-09966ac2ef4a"},"vehicle_type_id":"4","last_reported":1750446479,"current_range_meters":800,"station_id":"ce4bhoh2rcd13ifvqh6g","pricing_plan_id":"cebpf4jnsgd1na2vs0mg"},{"bike_id":"5c774ef9-c951-4ed5-9984-b427ebcaf8f3","system_id":"levelo_inurba_marseille","lat":43.2956,"lon":5.42295,"is_reserved":false,"is_disabled":true,"rental_uris":{"android":"levelo://app?vid=5c774ef9-c951-4ed5-9984-b427ebcaf8f3","ios":"levelo://app?vid=5c774ef9-c951-4ed5-9984-b427ebcaf8f3"},"vehicle_type_id":"4","last_reported":1750446479,"current_range_meters":800,"station_id":"ce4bhph2rcd13ifvqhdg","pricing_plan_id":"cebpf4jnsgd1na2vs0mg"},{"bike_id":"b1ea64e5-9981-4460-a2b3-59bf05260b31","system_id":"levelo_inurba_marseille","lat":43.32366,"lon":5.3882,"is_reserved":false,"is_disabled":true,"rental_uris":{"android":"levelo://app?vid=b1ea64e5-9981-4460-a2b3-59bf05260b31","ios":"levelo://app?vid=b1ea64e5-9981-4460-a2b3-59bf05260b31"},"vehicle_type_id":"4","last_reported":1750446479,"current_range_meters":800,"station_id":"ce4bhqp2rcd13ifvqhog","pricing_plan_id":"cebpf4jnsgd1na2vs0mg"},{"bike_id":"9eef838e-3bfd-4a16-83bf-84f9290561f9","system_id":"levelo_inurba_marseille","lat":43.31317,"lon":5.36809,"is_reserved":false,"is_disabled":true,"rental_uris":{"android":"levelo://app?vid=9eef838e-3bfd-4a16-83bf-84f9290561f9","ios":"levelo://app?vid=9eef838e-3bfd-4a16-83bf-84f9290561f9"},"vehicle_type_id":"4","last_reported":1750446479,"current_range_meters":1200,"station_id":"","pricing_plan_id":"cebpf4jnsgd1na2vs0mg"},{"bike_id":"5a3cda8a-8a10-4f4f-aa4c-4bfa23334357","system_id":"levelo_inurba_marseille","lat":43.2989,"lon":5.37819,"is_reserved":false,"is_disabled":true,"rental_uris":{"android":"levelo://app?vid=5a3cda8a-8a10-4f4f-aa4c-4bfa23334357","ios":"levelo://app?vid=5a3cda8a-8a10-4f4f-aa4c-4bfa23334357"},"vehicle_type_id":"4","last_reported":1750446479,"current_range_meters":1200,"station_id":"","pricing_plan_id":"cebpf4jnsgd1na2vs0mg"},{"bike_id":"8f549e17-ad5a-4247-bcb6-565038a37349","system_id":"levelo_inurba_marseille","lat":43.29199,"lon":5.39318,"is_reserved":false,"is_disabled":true,"rental_uris":{"android":"levelo://app?vid=8f549e17-ad5a-4247-bcb6-565038a37349","ios":"levelo://app?vid=8f549e17-ad5a-4247-bcb6-565038a37349"},"vehicle_type_id":"4","last_reported":1750446479,"current_range_meters":1200,"station_id":"ce4bh192rcd13ifvqdd0","pricing_plan_id":"cebpf4jnsgd1na2vs0mg"},{"bike_id":"8c5eaa7d-90e4-48d8-be70-cbeecdfc4b9a","system_id":"levelo_inurba_marseille","lat":43.28033,"lon":5.36942,"is_reserved":false,"is_disabled":true,"rental_uris":{"android":"levelo://app?vid=8c5eaa7d-90e4-48d8-be70-cbeecdfc4b9a","ios":"levelo://app?vid=8c5eaa7d-90e4-48d8-be70-cbeecdfc4b9a"},"vehicle_type_id":"4","last_reported":1750446479,"current_range_meters":1200,"station_id":"ce4bha12rcd13ifvqef0","pricing_plan_id":"cebpf4jnsgd1na2vs0mg"},{"bike_id":"2adeddaf-f220-45c2-92d8-06e313f50715","system_id":"levelo_inurba_marseille","lat":43.29175,"lon":5.35796,"is_reserved":false,"is_disabled":true,"rental_uris":{"android":"levelo://app?vid=2adeddaf-f220-45c2-92d8-06e313f50715","ios":"levelo://app?vid=2adeddaf-f220-45c2-92d8-06e313f50715"},"vehicle_type_id":"4","last_reported":1750446479,"current_range_meters":1200,"station_id":"ce4bhb12rcd13ifvqel0","pricing_plan_id":"cebpf4jnsgd1na2vs0mg"},{"bike_id":"323aa753-fc1d-41e9-9992-b0402b704672","system_id":"levelo_inurba_marseille","lat":43.331724,"lon":5.381966,"is_reserved":false,"is_disabled":true,"rental_uris":{"android":"levelo://app?vid=323aa753-fc1d-41e9-9992-b0402b704672","ios":"levelo://app?vid=323aa753-fc1d-41e9-9992-b0402b704672"},"vehicle_type_id":"4","last_reported":1750446479,"current_range_meters":1600,"station_id":"","pricing_plan_id":"cebpf4jnsgd1na2vs0mg"},{"bike_id":"4eb5aa1e-bd77-4f65-9009-64523fdd0652","system_id":"levelo_inurba_marseille","lat":43.29536,"lon":5.38542,"is_reserved":false,"is_disabled":true,"rental_uris":{"android":"levelo://app?vid=4eb5aa1e-bd77-4f65-9009-64523fdd0652","ios":"levelo://app?vid=4eb5aa1e-bd77-4f65-9009-64523fdd0652"},"vehicle_type_id":"4","last_reported":1750446479,"current_range_meters":1600,"station_id":"ce4bgih2rcd13ifvqba0","pricing_plan_id":"cebpf4jnsgd1na2vs0mg"},{"bike_id":"2ae18bfd-b776-451b-a151-d10d6c7d8d3a","system_id":"levelo_inurba_marseille","lat":43.29301,"lon":5.37171,"is_reserved":false,"is_disabled":true,"rental_uris":{"android":"levelo://app?vid=2ae18bfd-b776-451b-a151-d10d6c7d8d3a","ios":"levelo://app?vid=2ae18bfd-b776-451b-a151-d10d6c7d8d3a"},"vehicle_type_id":"4","last_reported":1750446479,"current_range_meters":2000,"station_id":"ce4bgh92rcd13ifvqb40","pricing_plan_id":"cebpf4jnsgd1na2vs0mg"},{"bike_id":"2abea97c-9969-4c39-b257-f1665fc49ee4","system_id":"levelo_inurba_marseille","lat":43.29794,"lon":5.38088,"is_reserved":false,"is_disabled":true,"rental_uris":{"android":"levelo://app?vid=2abea97c-9969-4c39-b257-f1665fc49ee4","ios":"levelo://app?vid=2abea97c-9969-4c39-b257-f1665fc49ee4"},"vehicle_type_id":"4","last_reported":1750446479,"current_range_meters":2000,"station_id":"ce4bgip2rcd13ifvqbb0","pricing_plan_id":"cebpf4jnsgd1na2vs0mg"},{"bike_id":"d5b52f0f-f131-4d58-ba3f-6338208491fb","system_id":"levelo_inurba_marseille","lat":43.30089,"lon":5.39072,"is_reserved":false,"is_disabled":true,"rental_uris":{"android":"levelo://app?vid=d5b52f0f-f131-4d58-ba3f-6338208491fb","ios":"levelo://app?vid=d5b52f0f-f131-4d58-ba3f-6338208491fb"},"vehicle_type_id":"4","last_reported":1750446479,"current_range_meters":2000,"station_id":"ce4bh192rcd13ifvqdb0","pricing_plan_id":"cebpf4jnsgd1na2vs0mg"},{"bike_id":"15627f62-022a-40e4-a725-f94119d5bb25","system_id":"levelo_inurba_marseille","lat":43.29259,"lon":5.38428,"is_reserved":false,"is_disabled":true,"rental_uris":{"android":"levelo://app?vid=15627f62-022a-40e4-a725-f94119d5bb25","ios":"levelo://app?vid=15627f62-022a-40e4-a725-f94119d5bb25"},"vehicle_type_id":"4","last_reported":1750446479,"current_range_meters":2000,"station_id":"ce4bh692rcd13ifvqea0","pricing_plan_id":"cebpf4jnsgd1na2vs0mg"},{"bike_id":"fe5e6dd8-c3e2-4dc5-bc78-2600cb4dddbc","system_id":"levelo_inurba_marseille","lat":43.248218,"lon":5.374542,"is_reserved":false,"is_disabled":true,"rental_uris":{"android":"levelo://app?vid=fe5e6dd8-c3e2-4dc5-bc78-2600cb4dddbc","ios":"levelo://app?vid=fe5e6dd8-c3e2-4dc5-bc78-2600cb4dddbc"},"vehicle_type_id":"4","last_reported":1750446479,"current_range_meters":2000,"station_id":"ce4bhgh2rcd13ifvqfb0","pricing_plan_id":"cebpf4jnsgd1na2vs0mg"},{"bike_id":"0bae73e6-e831-45be-ad06-9a7d061fcf2f","system_id":"levelo_inurba_marseille","lat":43.30798,"lon":5.43523,"is_reserved":false,"is_disabled":true,"rental_uris":{"android":"levelo://app?vid=0bae73e6-e831-45be-ad06-9a7d061fcf2f","ios":"levelo://app?vid=0bae73e6-e831-45be-ad06-9a7d061fcf2f"},"vehicle_type_id":"4","last_reported":1750446479,"current_range_meters":2000,"station_id":"ce4bhph2rcd13ifvqheg","pricing_plan_id":"cebpf4jnsgd1na2vs0mg"},{"bike_id":"910136cd-fdd2-428e-87b0-d616ccf3ed61","system_id":"levelo_inurba_marseille","lat":43.3238,"lon":5.38887,"is_reserved":false,"is_disabled":false,"rental_uris":{"android":"levelo://app?vid=910136cd-fdd2-428e-87b0-d616ccf3ed61","ios":"levelo://app?vid=910136cd-fdd2-428e-87b0-d616ccf3ed61"},"vehicle_type_id":"4","last_reported":1750446479,"current_range_meters":2800,"station_id":"ce4bhqp2rcd13ifvqhog","pricing_plan_id":"cebpf4jnsgd1na2vs0mg"},{"bike_id":"c8454dd0-3113-43e0-81c0-11a6c28236ab","system_id":"levelo_inurba_marseille","lat":43.266021,"lon":5.390899,"is_reserved":false,"is_disabled":false,"rental_uris":{"android":"levelo://app?vid=c8454dd0-3113-43e0-81c0-11a6c28236ab","ios":"levelo://app?vid=c8454dd0-3113-43e0-81c0-11a6c28236ab"},"vehicle_type_id":"4","last_reported":1750446479,"current_range_meters":3200,"station_id":"ce4bhh92rcd13ifvqfh0","pricing_plan_id":"cebpf4jnsgd1na2vs0mg"},{"bike_id":"8dfb99e0-6fc9-4ae7-8527-0e8103c5672c","system_id":"levelo_inurba_marseille","lat":43.29598,"lon":5.38108,"is_reserved":false,"is_disabled":false,"rental_uris":{"android":"levelo://app?vid=8dfb99e0-6fc9-4ae7-8527-0e8103c5672c","ios":"levelo://app?vid=8dfb99e0-6fc9-4ae7-8527-0e8103c5672c"},"vehicle_type_id":"4","last_reported":1750446479,"current_range_meters":3600,"station_id":"ce4bgl12rcd13ifvqbo0","pricing_plan_id":"cebpf4jnsgd1na2vs0mg"},{"bike_id":"d7561ec7-05b4-4ffd-9bac-d22f6e51fc0a","system_id":"levelo_inurba_marseille","lat":43.29792,"lon":5.40405,"is_reserved":false,"is_disabled":false,"rental_uris":{"android":"levelo://app?vid=d7561ec7-05b4-4ffd-9bac-d22f6e51fc0a","ios":"levelo://app?vid=d7561ec7-05b4-4ffd-9bac-d22f6e51fc0a"},"vehicle_type_id":"4","last_reported":1750446479,"current_range_meters":3600,"station_id":"ce4bh112rcd13ifvqd90","pricing_plan_id":"cebpf4jnsgd1na2vs0mg"},{"bike_id":"953fcec8-286a-4e99-9826-04671e6eb3d0","system_id":"levelo_inurba_marseille","lat":43.28852,"lon":5.39309,"is_reserved":false,"is_disabled":false,"rental_uris":{"android":"levelo://app?vid=953fcec8-286a-4e99-9826-04671e6eb3d0","ios":"levelo://app?vid=953fcec8-286a-4e99-9826-04671e6eb3d0"},"vehicle_type_id":"4","last_reported":1750446479,"current_range_meters":3600,"station_id":"ce4bh2p2rcd13ifvqdi0","pricing_plan_id":"cebpf4jnsgd1na2vs0mg"},{"bike_id":"d17be07c-f82f-489a-a27c-8b4af99a6e1a","system_id":"levelo_inurba_marseille","lat":43.26196,"lon":5.37448,"is_reserved":false,"is_disabled":false,"rental_uris":{"android":"levelo://app?vid=d17be07c-f82f-489a-a27c-8b4af99a6e1a","ios":"levelo://app?vid=d17be07c-f82f-489a-a27c-8b4af99a6e1a"},"vehicle_type_id":"4","last_reported":1750446479,"current_range_meters":3600,"station_id":"ce4bhgp2rcd13ifvqfc0","pricing_plan_id":"cebpf4jnsgd1na2vs0mg"},{"bike_id":"5dfb2da6-4d52-4259-b62e-80a3826f9cee","system_id":"levelo_inurba_marseille","lat":43.304197,"lon":5.41287,"is_reserved":false,"is_disabled":false,"rental_uris":{"android":"levelo://app?vid=5dfb2da6-4d52-4259-b62e-80a3826f9cee","ios":"levelo://app?vid=5dfb2da6-4d52-4259-b62e-80a3826f9cee"},"vehicle_type_id":"4","last_reported":1750446479,"current_range_meters":3600,"station_id":"ce4bhop2rcd13ifvqh8g","pricing_plan_id":"cebpf4jnsgd1na2vs0mg"},{"bike_id":"b37ac7f2-93ca-49e1-afaf-8de8519527a9","system_id":"levelo_inurba_marseille","lat":43.31882,"lon":5.40735,"is_reserved":false,"is_disabled":true,"rental_uris":{"android":"levelo://app?vid=b37ac7f2-93ca-49e1-afaf-8de8519527a9","ios":"levelo://app?vid=b37ac7f2-93ca-49e1-afaf-8de8519527a9"},"vehicle_type_id":"4","last_reported":1750446479,"current_range_meters":3600,"station_id":"ce4bhq12rcd13ifvqhig","pricing_plan_id":"cebpf4jnsgd1na2vs0mg"},{"bike_id":"9553ba6c-a253-4a6a-838b-7489d8091fb4","system_id":"levelo_inurba_marseille","lat":43.28417,"lon":5.34978,"is_reserved":false,"is_disabled":false,"rental_uris":{"android":"levelo://app?vid=9553ba6c-a253-4a6a-838b-7489d8091fb4","ios":"levelo://app?vid=9553ba6c-a253-4a6a-838b-7489d8091fb4"},"vehicle_type_id":"4","last_reported":1750446479,"current_range_meters":4400,"station_id":"ce4bhbh2rcd13ifvqepg","pricing_plan_id":"cebpf4jnsgd1na2vs0mg"},{"bike_id":"fdf53583-2134-4d75-a93e-7600940e111c","system_id":"levelo_inurba_marseille","lat":43.26215,"lon":5.3746,"is_reserved":false,"is_disabled":false,"rental_uris":{"android":"levelo://app?vid=fdf53583-2134-4d75-a93e-7600940e111c","ios":"levelo://app?vid=fdf53583-2134-4d75-a93e-7600940e111c"},"vehicle_type_id":"4","last_reported":1750446479,"current_range_meters":4400,"station_id":"ce4bhgp2rcd13ifvqfc0","pricing_plan_id":"cebpf4jnsgd1na2vs0mg"},{"bike_id":"268aafb4-1331-426c-97bc-a7d6564caeb6","system_id":"levelo_inurba_marseille","lat":43.32933,"lon":5.37919,"is_reserved":false,"is_disabled":false,"rental_uris":{"android":"levelo://app?vid=268aafb4-1331-426c-97bc-a7d6564caeb6","ios":"levelo://app?vid=268aafb4-1331-426c-97bc-a7d6564caeb6"},"vehicle_type_id":"4","last_reported":1750446479,"current_range_meters":4800,"station_id":"","pricing_plan_id":"cebpf4jnsgd1na2vs0mg"},{"bike_id":"0dedb6f6-6801-483b-bfb8-9cd4533d158f","system_id":"levelo_inurba_marseille","lat":43.31131,"lon":5.38103,"is_reserved":false,"is_disabled":false,"rental_uris":{"android":"levelo://app?vid=0dedb6f6-6801-483b-bfb8-9cd4533d158f","ios":"levelo://app?vid=0dedb6f6-6801-483b-bfb8-9cd4533d158f"},"vehicle_type_id":"4","last_reported":1750446479,"current_range_meters":4800,"station_id":"","pricing_plan_id":"cebpf4jnsgd1na2vs0mg"},{"bike_id":"f57bd706-5d37-4820-9c6f-41adf631bd3f","system_id":"levelo_inurba_marseille","lat":43.290314,"lon":5.3756,"is_reserved":false,"is_disabled":false,"rental_uris":{"android":"levelo://app?vid=f57bd706-5d37-4820-9c6f-41adf631bd3f","ios":"levelo://app?vid=f57bd706-5d37-4820-9c6f-41adf631bd3f"},"vehicle_type_id":"4","last_reported":1750446479,"current_range_meters":4800,"station_id":"ce4bh692rcd13ifvqe90","pricing_plan_id":"cebpf4jnsgd1na2vs0mg"},{"bike_id":"9d7ef9a8-6e76-44fb-95aa-964163eb4f6b","system_id":"levelo_inurba_marseille","lat":43.27947,"lon":5.4105,"is_reserved":false,"is_disabled":false,"rental_uris":{"android":"levelo://app?vid=9d7ef9a8-6e76-44fb-95aa-964163eb4f6b","ios":"levelo://app?vid=9d7ef9a8-6e76-44fb-95aa-964163eb4f6b"},"vehicle_type_id":"4","last_reported":1750446479,"current_range_meters":4800,"station_id":"ce4bhnp2rcd13ifvqh0g","pricing_plan_id":"cebpf4jnsgd1na2vs0mg"},{"bike_id":"3ce13d07-d498-4ce5-ab1c-31c5d315297e","system_id":"levelo_inurba_marseille","lat":43.31082,"lon":5.42432,"is_reserved":false,"is_disabled":false,"rental_uris":{"android":"levelo://app?vid=3ce13d07-d498-4ce5-ab1c-31c5d315297e","ios":"levelo://app?vid=3ce13d07-d498-4ce5-ab1c-31c5d315297e"},"vehicle_type_id":"4","last_reported":1750446479,"current_range_meters":4800,"station_id":"ce4bhp92rcd13ifvqhag","pricing_plan_id":"cebpf4jnsgd1na2vs0mg"},{"bike_id":"b277ea72-e6d5-408d-91f2-9aaa3814b465","system_id":"levelo_inurba_marseille","lat":43.29253,"lon":5.38448,"is_reserved":false,"is_disabled":false,"rental_uris":{"android":"levelo://app?vid=b277ea72-e6d5-408d-91f2-9aaa3814b465","ios":"levelo://app?vid=b277ea72-e6d5-408d-91f2-9aaa3814b465"},"vehicle_type_id":"4","last_reported":1750446479,"current_range_meters":5600,"station_id":"ce4bh692rcd13ifvqea0","pricing_plan_id":"cebpf4jnsgd1na2vs0mg"},{"bike_id":"e7f4d910-c01d-40f9-8cf2-fd343f7de8dd","system_id":"levelo_inurba_marseille","lat":43.24805,"lon":5.37451,"is_reserved":false,"is_disabled":false,"rental_uris":{"android":"levelo://app?vid=e7f4d910-c01d-40f9-8cf2-fd343f7de8dd","ios":"levelo://app?vid=e7f4d910-c01d-40f9-8cf2-fd343f7de8dd"},"vehicle_type_id":"4","last_reported":1750446479,"current_range_meters":5600,"station_id":"ce4bhgh2rcd13ifvqfb0","pricing_plan_id":"cebpf4jnsgd1na2vs0mg"},{"bike_id":"be5328e9-b8d7-430d-bc2d-ef1d21e51131","system_id":"levelo_inurba_marseille","lat":43.25497,"lon":5.37654,"is_reserved":false,"is_disabled":false,"rental_uris":{"android":"levelo://app?vid=be5328e9-b8d7-430d-bc2d-ef1d21e51131","ios":"levelo://app?vid=be5328e9-b8d7-430d-bc2d-ef1d21e51131"},"vehicle_type_id":"4","last_reported":1750446479,"current_range_meters":5600,"station_id":"ce4bhh12rcd13ifvqff0","pricing_plan_id":"cebpf4jnsgd1na2vs0mg"},{"bike_id":"e7ea39a0-08e1-4f09-8f3f-e30c119e669a","system_id":"levelo_inurba_marseille","lat":43.308053,"lon":5.436924,"is_reserved":false,"is_disabled":false,"rental_uris":{"android":"levelo://app?vid=e7ea39a0-08e1-4f09-8f3f-e30c119e669a","ios":"levelo://app?vid=e7ea39a0-08e1-4f09-8f3f-e30c119e669a"},"vehicle_type_id":"4","last_reported":1750446479,"current_range_meters":6000,"station_id":"","pricing_plan_id":"cebpf4jnsgd1na2vs0mg"},{"bike_id":"b5c74345-e363-425d-a2c9-5afc03a0e72c","system_id":"levelo_inurba_marseille","lat":43.29534,"lon":5.38544,"is_reserved":false,"is_disabled":false,"rental_uris":{"android":"levelo://app?vid=b5c74345-e363-425d-a2c9-5afc03a0e72c","ios":"levelo://app?vid=b5c74345-e363-425d-a2c9-5afc03a0e72c"},"vehicle_type_id":"4","last_reported":1750446479,"current_range_meters":6000,"station_id":"ce4bgih2rcd13ifvqba0","pricing_plan_id":"cebpf4jnsgd1na2vs0mg"},{"bike_id":"a6b573fe-fe10-4450-b20c-7d52267f10ae","system_id":"levelo_inurba_marseille","lat":43.26571,"lon":5.39004,"is_reserved":false,"is_disabled":false,"rental_uris":{"android":"levelo://app?vid=a6b573fe-fe10-4450-b20c-7d52267f10ae","ios":"levelo://app?vid=a6b573fe-fe10-4450-b20c-7d52267f10ae"},"vehicle_type_id":"4","last_reported":1750446479,"current_range_meters":6000,"station_id":"ce4bhe12rcd13ifvqf30","pricing_plan_id":"cebpf4jnsgd1na2vs0mg"},{"bike_id":"3d490446-a103-4463-839e-ec71726c2a1d","system_id":"levelo_inurba_marseille","lat":43.28004,"lon":5.4001,"is_reserved":false,"is_disabled":false,"rental_uris":{"android":"levelo://app?vid=3d490446-a103-4463-839e-ec71726c2a1d","ios":"levelo://app?vid=3d490446-a103-4463-839e-ec71726c2a1d"},"vehicle_type_id":"4","last_reported":1750446479,"current_range_meters":6000,"station_id":"ce4bho92rcd13ifvqh4g","pricing_plan_id":"cebpf4jnsgd1na2vs0mg"},{"bike_id":"b239df88-aa94-472e-9f4a-4bba8b785cd0","system_id":"levelo_inurba_marseille","lat":43.29066,"lon":5.37178,"is_reserved":false,"is_disabled":false,"rental_uris":{"android":"levelo://app?vid=b239df88-aa94-472e-9f4a-4bba8b785cd0","ios":"levelo://app?vid=b239df88-aa94-472e-9f4a-4bba8b785cd0"},"vehicle_type_id":"4","last_reported":1750446479,"current_range_meters":6400,"station_id":"ce4bh5p2rcd13ifvqe4g","pricing_plan_id":"cebpf4jnsgd1na2vs0mg"},{"bike_id":"8059a22c-5067-4fa5-86f7-7ccef752acc3","system_id":"levelo_inurba_marseille","lat":43.29986,"lon":5.37589,"is_reserved":false,"is_disabled":false,"rental_uris":{"android":"levelo://app?vid=8059a22c-5067-4fa5-86f7-7ccef752acc3","ios":"levelo://app?vid=8059a22c-5067-4fa5-86f7-7ccef752acc3"},"vehicle_type_id":"4","last_reported":1750446479,"current_range_meters":6800,"station_id":"","pricing_plan_id":"cebpf4jnsgd1na2vs0mg"},{"bike_id":"780312c6-fb3c-420c-aa0a-1b3858289cf1","system_id":"levelo_inurba_marseille","lat":43.26943,"lon":5.40252,"is_reserved":false,"is_disabled":false,"rental_uris":{"android":"levelo://app?vid=780312c6-fb3c-420c-aa0a-1b3858289cf1","ios":"levelo://app?vid=780312c6-fb3c-420c-aa0a-1b3858289cf1"},"vehicle_type_id":"4","last_reported":1750446479,"current_range_meters":6800,"station_id":"cjm6bp8fraef2m0cb0m0","pricing_plan_id":"cebpf4jnsgd1na2vs0mg"},{"bike_id":"dd45b830-666c-4c76-b06e-9938bffa2cad","system_id":"levelo_inurba_marseille","lat":43.319617,"lon":5.3754,"is_reserved":false,"is_disabled":false,"rental_uris":{"android":"levelo://app?vid=dd45b830-666c-4c76-b06e-9938bffa2cad","ios":"levelo://app?vid=dd45b830-666c-4c76-b06e-9938bffa2cad"},"vehicle_type_id":"4","last_reported":1750446479,"current_range_meters":7200,"station_id":"","pricing_plan_id":"cebpf4jnsgd1na2vs0mg"},{"bike_id":"f025e0b0-8595-426c-b214-cb9b74c5fcfd","system_id":"levelo_inurba_marseille","lat":43.32201,"lon":5.40568,"is_reserved":false,"is_disabled":false,"rental_uris":{"android":"levelo://app?vid=f025e0b0-8595-426c-b214-cb9b74c5fcfd","ios":"levelo://app?vid=f025e0b0-8595-426c-b214-cb9b74c5fcfd"},"vehicle_type_id":"4","last_reported":1750446479,"current_range_meters":7200,"station_id":"","pricing_plan_id":"cebpf4jnsgd1na2vs0mg"},{"bike_id":"09a056bc-f454-456e-96cf-e41ff97f8cdd","system_id":"levelo_inurba_marseille","lat":43.27617,"lon":5.36117,"is_reserved":false,"is_disabled":false,"rental_uris":{"android":"levelo://app?vid=09a056bc-f454-456e-96cf-e41ff97f8cdd","ios":"levelo://app?vid=09a056bc-f454-456e-96cf-e41ff97f8cdd"},"vehicle_type_id":"4","last_reported":1750446479,"current_range_meters":7200,"station_id":"ce4bgj92rcd13ifvqbe0","pricing_plan_id":"cebpf4jnsgd1na2vs0mg"},{"bike_id":"e7384181-731a-45a5-b10f-3daab4f1256e","system_id":"levelo_inurba_marseille","lat":43.29011,"lon":5.38132,"is_reserved":false,"is_disabled":false,"rental_uris":{"android":"levelo://app?vid=e7384181-731a-45a5-b10f-3daab4f1256e","ios":"levelo://app?vid=e7384181-731a-45a5-b10f-3daab4f1256e"},"vehicle_type_id":"4","last_reported":1750446479,"current_range_meters":7200,"station_id":"ce4bh4p2rcd13ifvqe1g","pricing_plan_id":"cebpf4jnsgd1na2vs0mg"},{"bike_id":"83737d08-2cf9-4f59-897d-adf2116f46d5","system_id":"levelo_inurba_marseille","lat":43.24088,"lon":5.37747,"is_reserved":false,"is_disabled":false,"rental_uris":{"android":"levelo://app?vid=83737d08-2cf9-4f59-897d-adf2116f46d5","ios":"levelo://app?vid=83737d08-2cf9-4f59-897d-adf2116f46d5"},"vehicle_type_id":"4","last_reported":1750446479,"current_range_meters":7200,"station_id":"ce4bhnp2rcd13ifvqgvg","pricing_plan_id":"cebpf4jnsgd1na2vs0mg"},{"bike_id":"73521383-be10-4e11-87d9-5858a5a26f0a","system_id":"levelo_inurba_marseille","lat":43.337444,"lon":5.374475,"is_reserved":false,"is_disabled":false,"rental_uris":{"android":"levelo://app?vid=73521383-be10-4e11-87d9-5858a5a26f0a","ios":"levelo://app?vid=73521383-be10-4e11-87d9-5858a5a26f0a"},"vehicle_type_id":"4","last_reported":1750446479,"current_range_meters":8000,"station_id":"","pricing_plan_id":"cebpf4jnsgd1na2vs0mg"},{"bike_id":"a6ae1ffe-0b41-4f90-8378-8ff3c3d6ab47","system_id":"levelo_inurba_marseille","lat":43.28357,"lon":5.38632,"is_reserved":false,"is_disabled":false,"rental_uris":{"android":"levelo://app?vid=a6ae1ffe-0b41-4f90-8378-8ff3c3d6ab47","ios":"levelo://app?vid=a6ae1ffe-0b41-4f90-8378-8ff3c3d6ab47"},"vehicle_type_id":"4","last_reported":1750446479,"current_range_meters":8000,"station_id":"ce4bh492rcd13ifvqdvg","pricing_plan_id":"cebpf4jnsgd1na2vs0mg"},{"bike_id":"3ea3dc3e-1115-4c47-96cb-baea06d2c4c7","system_id":"levelo_inurba_marseille","lat":43.28632,"lon":5.35104,"is_reserved":false,"is_disabled":false,"rental_uris":{"android":"levelo://app?vid=3ea3dc3e-1115-4c47-96cb-baea06d2c4c7","ios":"levelo://app?vid=3ea3dc3e-1115-4c47-96cb-baea06d2c4c7"},"vehicle_type_id":"4","last_reported":1750446479,"current_range_meters":8000,"station_id":"ce4bhch2rcd13ifvqeug","pricing_plan_id":"cebpf4jnsgd1na2vs0mg"},{"bike_id":"df735c88-ae0a-4f8e-9723-d29eb27d80b9","system_id":"levelo_inurba_marseille","lat":43.29913,"lon":5.37619,"is_reserved":false,"is_disabled":false,"rental_uris":{"android":"levelo://app?vid=df735c88-ae0a-4f8e-9723-d29eb27d80b9","ios":"levelo://app?vid=df735c88-ae0a-4f8e-9723-d29eb27d80b9"},"vehicle_type_id":"4","last_reported":1750446479,"current_range_meters":8400,"station_id":"","pricing_plan_id":"cebpf4jnsgd1na2vs0mg"},{"bike_id":"875ecb14-2a07-4459-8eec-a457cd161dd6","system_id":"levelo_inurba_marseille","lat":43.29529,"lon":5.38534,"is_reserved":false,"is_disabled":false,"rental_uris":{"android":"levelo://app?vid=875ecb14-2a07-4459-8eec-a457cd161dd6","ios":"levelo://app?vid=875ecb14-2a07-4459-8eec-a457cd161dd6"},"vehicle_type_id":"4","last_reported":1750446479,"current_range_meters":8400,"station_id":"ce4bgih2rcd13ifvqba0","pricing_plan_id":"cebpf4jnsgd1na2vs0mg"},{"bike_id":"6cfa7c04-8247-426f-91e4-1bf98af2af03","system_id":"levelo_inurba_marseille","lat":43.28851,"lon":5.35846,"is_reserved":false,"is_disabled":false,"rental_uris":{"android":"levelo://app?vid=6cfa7c04-8247-426f-91e4-1bf98af2af03","ios":"levelo://app?vid=6cfa7c04-8247-426f-91e4-1bf98af2af03"},"vehicle_type_id":"4","last_reported":1750446479,"current_range_meters":8400,"station_id":"ce4bhb12rcd13ifvqem0","pricing_plan_id":"cebpf4jnsgd1na2vs0mg"},{"bike_id":"67cf0aac-0d85-4f7d-8434-eef0782b1477","system_id":"levelo_inurba_marseille","lat":43.28409,"lon":5.34978,"is_reserved":false,"is_disabled":false,"rental_uris":{"android":"levelo://app?vid=67cf0aac-0d85-4f7d-8434-eef0782b1477","ios":"levelo://app?vid=67cf0aac-0d85-4f7d-8434-eef0782b1477"},"vehicle_type_id":"4","last_reported":1750446479,"current_range_meters":8400,"station_id":"ce4bhbh2rcd13ifvqepg","pricing_plan_id":"cebpf4jnsgd1na2vs0mg"},{"bike_id":"5da4612c-1cff-4dc6-9108-a515dfa4debc","system_id":"levelo_inurba_marseille","lat":43.28411,"lon":5.34992,"is_reserved":false,"is_disabled":false,"rental_uris":{"android":"levelo://app?vid=5da4612c-1cff-4dc6-9108-a515dfa4debc","ios":"levelo://app?vid=5da4612c-1cff-4dc6-9108-a515dfa4debc"},"vehicle_type_id":"4","last_reported":1750446479,"current_range_meters":8400,"station_id":"ce4bhbh2rcd13ifvqepg","pricing_plan_id":"cebpf4jnsgd1na2vs0mg"},{"bike_id":"273f1571-cba4-4f9a-af2f-ed64addcf28d","system_id":"levelo_inurba_marseille","lat":43.25494,"lon":5.37648,"is_reserved":false,"is_disabled":false,"rental_uris":{"android":"levelo://app?vid=273f1571-cba4-4f9a-af2f-ed64addcf28d","ios":"levelo://app?vid=273f1571-cba4-4f9a-af2f-ed64addcf28d"},"vehicle_type_id":"4","last_reported":1750446479,"current_range_meters":8400,"station_id":"ce4bhh12rcd13ifvqff0","pricing_plan_id":"cebpf4jnsgd1na2vs0mg"},{"bike_id":"679eabde-e06e-46ec-bf4b-e0a613dac31e","system_id":"levelo_inurba_marseille","lat":43.262,"lon":5.37926,"is_reserved":false,"is_disabled":false,"rental_uris":{"android":"levelo://app?vid=679eabde-e06e-46ec-bf4b-e0a613dac31e","ios":"levelo://app?vid=679eabde-e06e-46ec-bf4b-e0a613dac31e"},"vehicle_type_id":"4","last_reported":1750446479,"current_range_meters":8400,"station_id":"ce4bhjp2rcd13ifvqg90","pricing_plan_id":"cebpf4jnsgd1na2vs0mg"},{"bike_id":"4f840ece-db76-4ddc-94e5-d1aba639fb48","system_id":"levelo_inurba_marseille","lat":43.293857,"lon":5.42858,"is_reserved":false,"is_disabled":false,"rental_uris":{"android":"levelo://app?vid=4f840ece-db76-4ddc-94e5-d1aba639fb48","ios":"levelo://app?vid=4f840ece-db76-4ddc-94e5-d1aba639fb48"},"vehicle_type_id":"4","last_reported":1750446479,"current_range_meters":8800,"station_id":"","pricing_plan_id":"cebpf4jnsgd1na2vs0mg"},{"bike_id":"8e3c0bb1-b16d-4a7d-ad9a-57ad87dd9f7b","system_id":"levelo_inurba_marseille","lat":43.3095,"lon":5.39044,"is_reserved":false,"is_disabled":false,"rental_uris":{"android":"levelo://app?vid=8e3c0bb1-b16d-4a7d-ad9a-57ad87dd9f7b","ios":"levelo://app?vid=8e3c0bb1-b16d-4a7d-ad9a-57ad87dd9f7b"},"vehicle_type_id":"4","last_reported":1750446479,"current_range_meters":8800,"station_id":"ce4bgup2rcd13ifvqco0","pricing_plan_id":"cebpf4jnsgd1na2vs0mg"},{"bike_id":"c26e9d2f-6a98-4014-8766-73ed8ad41613","system_id":"levelo_inurba_marseille","lat":43.25502,"lon":5.37663,"is_reserved":false,"is_disabled":false,"rental_uris":{"android":"levelo://app?vid=c26e9d2f-6a98-4014-8766-73ed8ad41613","ios":"levelo://app?vid=c26e9d2f-6a98-4014-8766-73ed8ad41613"},"vehicle_type_id":"4","last_reported":1750446479,"current_range_meters":8800,"station_id":"ce4bhh12rcd13ifvqff0","pricing_plan_id":"cebpf4jnsgd1na2vs0mg"},{"bike_id":"60c85ab0-38af-4fec-bfb4-ec769cca51cb","system_id":"levelo_inurba_marseille","lat":43.25823,"lon":5.39423,"is_reserved":false,"is_disabled":false,"rental_uris":{"android":"levelo://app?vid=60c85ab0-38af-4fec-bfb4-ec769cca51cb","ios":"levelo://app?vid=60c85ab0-38af-4fec-bfb4-ec769cca51cb"},"vehicle_type_id":"4","last_reported":1750446479,"current_range_meters":8800,"station_id":"ce4bhip2rcd13ifvqft0","pricing_plan_id":"cebpf4jnsgd1na2vs0mg"},{"bike_id":"f2169430-8ab5-4f68-846f-87f05b34d076","system_id":"levelo_inurba_marseille","lat":43.211907,"lon":5.350707,"is_reserved":false,"is_disabled":false,"rental_uris":{"android":"levelo://app?vid=f2169430-8ab5-4f68-846f-87f05b34d076","ios":"levelo://app?vid=f2169430-8ab5-4f68-846f-87f05b34d076"},"vehicle_type_id":"4","last_reported":1750446479,"current_range_meters":8800,"station_id":"st_cvj6sg6p6f1abm77japg","pricing_plan_id":"cebpf4jnsgd1na2vs0mg"},{"bike_id":"e9b72e0a-22b6-43d3-b8dd-d3e494e7b121","system_id":"levelo_inurba_marseille","lat":43.2841,"lon":5.34974,"is_reserved":false,"is_disabled":false,"rental_uris":{"android":"levelo://app?vid=e9b72e0a-22b6-43d3-b8dd-d3e494e7b121","ios":"levelo://app?vid=e9b72e0a-22b6-43d3-b8dd-d3e494e7b121"},"vehicle_type_id":"4","last_reported":1750446479,"current_range_meters":9200,"station_id":"","pricing_plan_id":"cebpf4jnsgd1na2vs0mg"},{"bike_id":"56573201-627a-48ca-98db-87d413c1952f","system_id":"levelo_inurba_marseille","lat":43.309528,"lon":5.39044,"is_reserved":false,"is_disabled":false,"rental_uris":{"android":"levelo://app?vid=56573201-627a-48ca-98db-87d413c1952f","ios":"levelo://app?vid=56573201-627a-48ca-98db-87d413c1952f"},"vehicle_type_id":"4","last_reported":1750446479,"current_range_meters":9200,"station_id":"ce4bgup2rcd13ifvqco0","pricing_plan_id":"cebpf4jnsgd1na2vs0mg"},{"bike_id":"6d07e995-68a2-43d6-9e52-61ab169616b2","system_id":"levelo_inurba_marseille","lat":43.2917,"lon":5.37173,"is_reserved":false,"is_disabled":false,"rental_uris":{"android":"levelo://app?vid=6d07e995-68a2-43d6-9e52-61ab169616b2","ios":"levelo://app?vid=6d07e995-68a2-43d6-9e52-61ab169616b2"},"vehicle_type_id":"4","last_reported":1750446479,"current_range_meters":9200,"station_id":"ce4bha92rcd13ifvqeh0","pricing_plan_id":"cebpf4jnsgd1na2vs0mg"},{"bike_id":"2b4b9c34-750d-4a81-98ec-c8c45cec8a47","system_id":"levelo_inurba_marseille","lat":43.282657,"lon":5.350737,"is_reserved":false,"is_disabled":false,"rental_uris":{"android":"levelo://app?vid=2b4b9c34-750d-4a81-98ec-c8c45cec8a47","ios":"levelo://app?vid=2b4b9c34-750d-4a81-98ec-c8c45cec8a47"},"vehicle_type_id":"4","last_reported":1750446479,"current_range_meters":9200,"station_id":"ce4bhbp2rcd13ifvqerg","pricing_plan_id":"cebpf4jnsgd1na2vs0mg"},{"bike_id":"bf2da04b-ca5c-4ee8-90be-d6050e9bdbb1","system_id":"levelo_inurba_marseille","lat":43.28616,"lon":5.37063,"is_reserved":false,"is_disabled":false,"rental_uris":{"android":"levelo://app?vid=bf2da04b-ca5c-4ee8-90be-d6050e9bdbb1","ios":"levelo://app?vid=bf2da04b-ca5c-4ee8-90be-d6050e9bdbb1"},"vehicle_type_id":"4","last_reported":1750446479,"current_range_meters":9200,"station_id":"ce4bht12rcd13ifvqi60","pricing_plan_id":"cebpf4jnsgd1na2vs0mg"},{"bike_id":"68e011a4-d227-4f50-87f4-660462ec3f97","system_id":"levelo_inurba_marseille","lat":43.28426,"lon":5.34998,"is_reserved":false,"is_disabled":false,"rental_uris":{"android":"levelo://app?vid=68e011a4-d227-4f50-87f4-660462ec3f97","ios":"levelo://app?vid=68e011a4-d227-4f50-87f4-660462ec3f97"},"vehicle_type_id":"4","last_reported":1750446479,"current_range_meters":9600,"station_id":"ce4bhbh2rcd13ifvqepg","pricing_plan_id":"cebpf4jnsgd1na2vs0mg"},{"bike_id":"f2077a2a-67b2-4a22-9a94-94b21b6c78dd","system_id":"levelo_inurba_marseille","lat":43.25497,"lon":5.37648,"is_reserved":false,"is_disabled":false,"rental_uris":{"android":"levelo://app?vid=f2077a2a-67b2-4a22-9a94-94b21b6c78dd","ios":"levelo://app?vid=f2077a2a-67b2-4a22-9a94-94b21b6c78dd"},"vehicle_type_id":"4","last_reported":1750446479,"current_range_meters":9600,"station_id":"ce4bhh12rcd13ifvqff0","pricing_plan_id":"cebpf4jnsgd1na2vs0mg"},{"bike_id":"56575de0-929b-4477-9afd-73dd1638228a","system_id":"levelo_inurba_marseille","lat":43.2861,"lon":5.37063,"is_reserved":false,"is_disabled":false,"rental_uris":{"android":"levelo://app?vid=56575de0-929b-4477-9afd-73dd1638228a","ios":"levelo://app?vid=56575de0-929b-4477-9afd-73dd1638228a"},"vehicle_type_id":"4","last_reported":1750446479,"current_range_meters":9600,"station_id":"ce4bht12rcd13ifvqi60","pricing_plan_id":"cebpf4jnsgd1na2vs0mg"},{"bike_id":"b3659c60-b398-49a0-b994-a9351360b9e5","system_id":"levelo_inurba_marseille","lat":43.304043,"lon":5.400937,"is_reserved":false,"is_disabled":false,"rental_uris":{"android":"levelo://app?vid=b3659c60-b398-49a0-b994-a9351360b9e5","ios":"levelo://app?vid=b3659c60-b398-49a0-b994-a9351360b9e5"},"vehicle_type_id":"4","last_reported":1750446479,"current_range_meters":10000,"station_id":"","pricing_plan_id":"cebpf4jnsgd1na2vs0mg"},{"bike_id":"611f2f6b-dfe8-451b-be74-b3029087a03b","system_id":"levelo_inurba_marseille","lat":43.30954,"lon":5.3904,"is_reserved":false,"is_disabled":false,"rental_uris":{"android":"levelo://app?vid=611f2f6b-dfe8-451b-be74-b3029087a03b","ios":"levelo://app?vid=611f2f6b-dfe8-451b-be74-b3029087a03b"},"vehicle_type_id":"4","last_reported":1750446479,"current_range_meters":10000,"station_id":"ce4bgup2rcd13ifvqco0","pricing_plan_id":"cebpf4jnsgd1na2vs0mg"},{"bike_id":"e5ace183-eafa-4977-9870-6547326bba36","system_id":"levelo_inurba_marseille","lat":43.30955,"lon":5.39057,"is_reserved":false,"is_disabled":false,"rental_uris":{"android":"levelo://app?vid=e5ace183-eafa-4977-9870-6547326bba36","ios":"levelo://app?vid=e5ace183-eafa-4977-9870-6547326bba36"},"vehicle_type_id":"4","last_reported":1750446479,"current_range_meters":10000,"station_id":"ce4bgup2rcd13ifvqco0","pricing_plan_id":"cebpf4jnsgd1na2vs0mg"},{"bike_id":"ed2a80f4-b1f1-465f-93df-cb61e45e74d0","system_id":"levelo_inurba_marseille","lat":43.31166,"lon":5.38712,"is_reserved":false,"is_disabled":false,"rental_uris":{"android":"levelo://app?vid=ed2a80f4-b1f1-465f-93df-cb61e45e74d0","ios":"levelo://app?vid=ed2a80f4-b1f1-465f-93df-cb61e45e74d0"},"vehicle_type_id":"4","last_reported":1750446479,"current_range_meters":10000,"station_id":"ce4bgv12rcd13ifvqcp0","pricing_plan_id":"cebpf4jnsgd1na2vs0mg"},{"bike_id":"80042349-3ea2-4a46-b3e3-3601fbaa113f","system_id":"levelo_inurba_marseille","lat":43.28104,"lon":5.37835,"is_reserved":false,"is_disabled":false,"rental_uris":{"android":"levelo://app?vid=80042349-3ea2-4a46-b3e3-3601fbaa113f","ios":"levelo://app?vid=80042349-3ea2-4a46-b3e3-3601fbaa113f"},"vehicle_type_id":"4","last_reported":1750446479,"current_range_meters":10000,"station_id":"ce4bha12rcd13ifvqee0","pricing_plan_id":"cebpf4jnsgd1na2vs0mg"},{"bike_id":"29ebffb9-7367-46df-bb9e-6091196da560","system_id":"levelo_inurba_marseille","lat":43.26197,"lon":5.37457,"is_reserved":false,"is_disabled":false,"rental_uris":{"android":"levelo://app?vid=29ebffb9-7367-46df-bb9e-6091196da560","ios":"levelo://app?vid=29ebffb9-7367-46df-bb9e-6091196da560"},"vehicle_type_id":"4","last_reported":1750446479,"current_range_meters":10000,"station_id":"ce4bhgp2rcd13ifvqfc0","pricing_plan_id":"cebpf4jnsgd1na2vs0mg"},{"bike_id":"03abebd0-b85e-4fb3-95a1-0679de46e113","system_id":"levelo_inurba_marseille","lat":43.34144,"lon":5.40901,"is_reserved":false,"is_disabled":false,"rental_uris":{"android":"levelo://app?vid=03abebd0-b85e-4fb3-95a1-0679de46e113","ios":"levelo://app?vid=03abebd0-b85e-4fb3-95a1-0679de46e113"},"vehicle_type_id":"4","last_reported":1750446479,"current_range_meters":10800,"station_id":"ce4bhqh2rcd13ifvqhlg","pricing_plan_id":"cebpf4jnsgd1na2vs0mg"},{"bike_id":"1130ad13-103a-4985-b9eb-a470f985b800","system_id":"levelo_inurba_marseille","lat":43.33723,"lon":5.39188,"is_reserved":false,"is_disabled":false,"rental_uris":{"android":"levelo://app?vid=1130ad13-103a-4985-b9eb-a470f985b800","ios":"levelo://app?vid=1130ad13-103a-4985-b9eb-a470f985b800"},"vehicle_type_id":"4","last_reported":1750446479,"current_range_meters":10800,"station_id":"ce4bhr92rcd13ifvqhsg","pricing_plan_id":"cebpf4jnsgd1na2vs0mg"},{"bike_id":"f30123e7-96d3-442d-9d01-6c98dc61e7c8","system_id":"levelo_inurba_marseille","lat":43.29806,"lon":5.3684,"is_reserved":false,"is_disabled":false,"rental_uris":{"android":"levelo://app?vid=f30123e7-96d3-442d-9d01-6c98dc61e7c8","ios":"levelo://app?vid=f30123e7-96d3-442d-9d01-6c98dc61e7c8"},"vehicle_type_id":"4","last_reported":1750446479,"current_range_meters":11200,"station_id":"","pricing_plan_id":"cebpf4jnsgd1na2vs0mg"},{"bike_id":"c8c557b4-d6bb-408a-9077-3cf3d0745844","system_id":"levelo_inurba_marseille","lat":43.29591,"lon":5.38104,"is_reserved":false,"is_disabled":false,"rental_uris":{"android":"levelo://app?vid=c8c557b4-d6bb-408a-9077-3cf3d0745844","ios":"levelo://app?vid=c8c557b4-d6bb-408a-9077-3cf3d0745844"},"vehicle_type_id":"4","last_reported":1750446479,"current_range_meters":11200,"station_id":"ce4bgl12rcd13ifvqbo0","pricing_plan_id":"cebpf4jnsgd1na2vs0mg"},{"bike_id":"99b1abd1-d4bc-499a-b442-59c401e30f50","system_id":"levelo_inurba_marseille","lat":43.31327,"lon":5.39694,"is_reserved":false,"is_disabled":false,"rental_uris":{"android":"levelo://app?vid=99b1abd1-d4bc-499a-b442-59c401e30f50","ios":"levelo://app?vid=99b1abd1-d4bc-499a-b442-59c401e30f50"},"vehicle_type_id":"4","last_reported":1750446479,"current_range_meters":11200,"station_id":"ce4bgvp2rcd13ifvqcu0","pricing_plan_id":"cebpf4jnsgd1na2vs0mg"},{"bike_id":"c71a4f57-656b-4444-b9b5-255b01936618","system_id":"levelo_inurba_marseille","lat":43.3021,"lon":5.39477,"is_reserved":false,"is_disabled":false,"rental_uris":{"android":"levelo://app?vid=c71a4f57-656b-4444-b9b5-255b01936618","ios":"levelo://app?vid=c71a4f57-656b-4444-b9b5-255b01936618"},"vehicle_type_id":"4","last_reported":1750446479,"current_range_meters":11200,"station_id":"ce4bh0p2rcd13ifvqd70","pricing_plan_id":"cebpf4jnsgd1na2vs0mg"},{"bike_id":"226f9053-f467-4aee-bab3-f8d8708a8049","system_id":"levelo_inurba_marseille","lat":43.33039,"lon":5.39028,"is_reserved":false,"is_disabled":false,"rental_uris":{"android":"levelo://app?vid=226f9053-f467-4aee-bab3-f8d8708a8049","ios":"levelo://app?vid=226f9053-f467-4aee-bab3-f8d8708a8049"},"vehicle_type_id":"4","last_reported":1750446479,"current_range_meters":11200,"station_id":"ce4bhr92rcd13ifvqhrg","pricing_plan_id":"cebpf4jnsgd1na2vs0mg"},{"bike_id":"199c2831-e081-4bc0-9b94-19503817091d","system_id":"levelo_inurba_marseille","lat":43.24899,"lon":5.40643,"is_reserved":false,"is_disabled":false,"rental_uris":{"android":"levelo://app?vid=199c2831-e081-4bc0-9b94-19503817091d","ios":"levelo://app?vid=199c2831-e081-4bc0-9b94-19503817091d"},"vehicle_type_id":"4","last_reported":1750446479,"current_range_meters":11600,"station_id":"","pricing_plan_id":"cebpf4jnsgd1na2vs0mg"},{"bike_id":"c4e634d6-e108-427b-b1d7-5d22226e4aed","system_id":"levelo_inurba_marseille","lat":43.27621,"lon":5.36115,"is_reserved":false,"is_disabled":false,"rental_uris":{"android":"levelo://app?vid=c4e634d6-e108-427b-b1d7-5d22226e4aed","ios":"levelo://app?vid=c4e634d6-e108-427b-b1d7-5d22226e4aed"},"vehicle_type_id":"4","last_reported":1750446479,"current_range_meters":11600,"station_id":"ce4bgj92rcd13ifvqbe0","pricing_plan_id":"cebpf4jnsgd1na2vs0mg"},{"bike_id":"7a76abab-12d1-427c-a57b-19fe1db046ba","system_id":"levelo_inurba_marseille","lat":43.30956,"lon":5.39049,"is_reserved":false,"is_disabled":false,"rental_uris":{"android":"levelo://app?vid=7a76abab-12d1-427c-a57b-19fe1db046ba","ios":"levelo://app?vid=7a76abab-12d1-427c-a57b-19fe1db046ba"},"vehicle_type_id":"4","last_reported":1750446479,"current_range_meters":11600,"station_id":"ce4bgup2rcd13ifvqco0","pricing_plan_id":"cebpf4jnsgd1na2vs0mg"},{"bike_id":"339b3511-6bd5-472b-ba5f-a77f7f92a7a7","system_id":"levelo_inurba_marseille","lat":43.29039,"lon":5.39971,"is_reserved":false,"is_disabled":false,"rental_uris":{"android":"levelo://app?vid=339b3511-6bd5-472b-ba5f-a77f7f92a7a7","ios":"levelo://app?vid=339b3511-6bd5-472b-ba5f-a77f7f92a7a7"},"vehicle_type_id":"4","last_reported":1750446479,"current_range_meters":11600,"station_id":"ce4bh392rcd13ifvqdm0","pricing_plan_id":"cebpf4jnsgd1na2vs0mg"},{"bike_id":"4e6f700d-6918-4cb3-af01-9366a9a39d7c","system_id":"levelo_inurba_marseille","lat":43.287191,"lon":5.379365,"is_reserved":false,"is_disabled":false,"rental_uris":{"android":"levelo://app?vid=4e6f700d-6918-4cb3-af01-9366a9a39d7c","ios":"levelo://app?vid=4e6f700d-6918-4cb3-af01-9366a9a39d7c"},"vehicle_type_id":"4","last_reported":1750446479,"current_range_meters":11600,"station_id":"ce4bh692rcd13ifvqe90","pricing_plan_id":"cebpf4jnsgd1na2vs0mg"},{"bike_id":"f611a45d-2c67-44b0-9d81-879ee3651143","system_id":"levelo_inurba_marseille","lat":43.29195,"lon":5.35807,"is_reserved":false,"is_disabled":false,"rental_uris":{"android":"levelo://app?vid=f611a45d-2c67-44b0-9d81-879ee3651143","ios":"levelo://app?vid=f611a45d-2c67-44b0-9d81-879ee3651143"},"vehicle_type_id":"4","last_reported":1750446479,"current_range_meters":11600,"station_id":"ce4bhb12rcd13ifvqel0","pricing_plan_id":"cebpf4jnsgd1na2vs0mg"},{"bike_id":"fab80d2f-00f5-478f-8585-e0cde86f0ec3","system_id":"levelo_inurba_marseille","lat":43.273747,"lon":5.362564,"is_reserved":false,"is_disabled":false,"rental_uris":{"android":"levelo://app?vid=fab80d2f-00f5-478f-8585-e0cde86f0ec3","ios":"levelo://app?vid=fab80d2f-00f5-478f-8585-e0cde86f0ec3"},"vehicle_type_id":"4","last_reported":1750446479,"current_range_meters":11600,"station_id":"ce4bhbh2rcd13ifvqeo0","pricing_plan_id":"cebpf4jnsgd1na2vs0mg"},{"bike_id":"c4fb77e6-4e04-48ae-9552-6cf934eb5e11","system_id":"levelo_inurba_marseille","lat":43.28614,"lon":5.35106,"is_reserved":false,"is_disabled":false,"rental_uris":{"android":"levelo://app?vid=c4fb77e6-4e04-48ae-9552-6cf934eb5e11","ios":"levelo://app?vid=c4fb77e6-4e04-48ae-9552-6cf934eb5e11"},"vehicle_type_id":"4","last_reported":1750446479,"current_range_meters":11600,"station_id":"ce4bhch2rcd13ifvqeug","pricing_plan_id":"cebpf4jnsgd1na2vs0mg"},{"bike_id":"1e11989f-e475-4397-9a45-bd9147224a5e","system_id":"levelo_inurba_marseille","lat":43.24413,"lon":5.37113,"is_reserved":false,"is_disabled":false,"rental_uris":{"android":"levelo://app?vid=1e11989f-e475-4397-9a45-bd9147224a5e","ios":"levelo://app?vid=1e11989f-e475-4397-9a45-bd9147224a5e"},"vehicle_type_id":"4","last_reported":1750446479,"current_range_meters":11600,"station_id":"ce4bhhh2rcd13ifvqfk0","pricing_plan_id":"cebpf4jnsgd1na2vs0mg"},{"bike_id":"8fd94bfe-b0a3-4509-a3c9-0f6e3f8eed78","system_id":"levelo_inurba_marseille","lat":43.24179,"lon":5.36387,"is_reserved":false,"is_disabled":false,"rental_uris":{"android":"levelo://app?vid=8fd94bfe-b0a3-4509-a3c9-0f6e3f8eed78","ios":"levelo://app?vid=8fd94bfe-b0a3-4509-a3c9-0f6e3f8eed78"},"vehicle_type_id":"4","last_reported":1750446479,"current_range_meters":12000,"station_id":"cpo36qri1sfpv3e86is0","pricing_plan_id":"cebpf4jnsgd1na2vs0mg"},{"bike_id":"8300812b-c3f4-4460-a462-0c10590e5460","system_id":"levelo_inurba_marseille","lat":43.32924,"lon":5.40571,"is_reserved":false,"is_disabled":false,"rental_uris":{"android":"levelo://app?vid=8300812b-c3f4-4460-a462-0c10590e5460","ios":"levelo://app?vid=8300812b-c3f4-4460-a462-0c10590e5460"},"vehicle_type_id":"4","last_reported":1750446479,"current_range_meters":12400,"station_id":"","pricing_plan_id":"cebpf4jnsgd1na2vs0mg"},{"bike_id":"f3282d56-203b-4412-9d50-a01cc1c28ed9","system_id":"levelo_inurba_marseille","lat":43.33011,"lon":5.39042,"is_reserved":false,"is_disabled":false,"rental_uris":{"android":"levelo://app?vid=f3282d56-203b-4412-9d50-a01cc1c28ed9","ios":"levelo://app?vid=f3282d56-203b-4412-9d50-a01cc1c28ed9"},"vehicle_type_id":"4","last_reported":1750446479,"current_range_meters":12400,"station_id":"ce4bhr92rcd13ifvqhrg","pricing_plan_id":"cebpf4jnsgd1na2vs0mg"},{"bike_id":"5ac6dd9e-fed7-4379-827f-0bf115c892ea","system_id":"levelo_inurba_marseille","lat":43.29422,"lon":5.38624,"is_reserved":false,"is_disabled":false,"rental_uris":{"android":"levelo://app?vid=5ac6dd9e-fed7-4379-827f-0bf115c892ea","ios":"levelo://app?vid=5ac6dd9e-fed7-4379-827f-0bf115c892ea"},"vehicle_type_id":"4","last_reported":1750446479,"current_range_meters":12800,"station_id":"ce4bh2h2rcd13ifvqdh0","pricing_plan_id":"cebpf4jnsgd1na2vs0mg"},{"bike_id":"510b1add-e212-408d-95f0-109a5e2ca67a","system_id":"levelo_inurba_marseille","lat":43.28432,"lon":5.34996,"is_reserved":false,"is_disabled":false,"rental_uris":{"android":"levelo://app?vid=510b1add-e212-408d-95f0-109a5e2ca67a","ios":"levelo://app?vid=510b1add-e212-408d-95f0-109a5e2ca67a"},"vehicle_type_id":"4","last_reported":1750446479,"current_range_meters":12800,"station_id":"ce4bhbh2rcd13ifvqepg","pricing_plan_id":"cebpf4jnsgd1na2vs0mg"},{"bike_id":"a79a1ca2-cfb4-429f-b5ca-cd3ea3b44a25","system_id":"levelo_inurba_marseille","lat":43.28425,"lon":5.34984,"is_reserved":false,"is_disabled":false,"rental_uris":{"android":"levelo://app?vid=a79a1ca2-cfb4-429f-b5ca-cd3ea3b44a25","ios":"levelo://app?vid=a79a1ca2-cfb4-429f-b5ca-cd3ea3b44a25"},"vehicle_type_id":"4","last_reported":1750446479,"current_range_meters":12800,"station_id":"ce4bhbh2rcd13ifvqepg","pricing_plan_id":"cebpf4jnsgd1na2vs0mg"},{"bike_id":"224059cd-6bc7-4a8b-ab39-941ff7cf6385","system_id":"levelo_inurba_marseille","lat":43.26214,"lon":5.37449,"is_reserved":false,"is_disabled":false,"rental_uris":{"android":"levelo://app?vid=224059cd-6bc7-4a8b-ab39-941ff7cf6385","ios":"levelo://app?vid=224059cd-6bc7-4a8b-ab39-941ff7cf6385"},"vehicle_type_id":"4","last_reported":1750446479,"current_range_meters":12800,"station_id":"ce4bhgp2rcd13ifvqfc0","pricing_plan_id":"cebpf4jnsgd1na2vs0mg"},{"bike_id":"34bb6af5-939a-4764-a8ae-e2e3151a49ce","system_id":"levelo_inurba_marseille","lat":43.31354,"lon":5.38489,"is_reserved":false,"is_disabled":false,"rental_uris":{"android":"levelo://app?vid=34bb6af5-939a-4764-a8ae-e2e3151a49ce","ios":"levelo://app?vid=34bb6af5-939a-4764-a8ae-e2e3151a49ce"},"vehicle_type_id":"4","last_reported":1750446479,"current_range_meters":13600,"station_id":"ce4bgt92rcd13ifvqcf0","pricing_plan_id":"cebpf4jnsgd1na2vs0mg"},{"bike_id":"3c15ac37-b01c-4771-909c-341e8ebaf3c5","system_id":"levelo_inurba_marseille","lat":43.3009,"lon":5.39067,"is_reserved":false,"is_disabled":false,"rental_uris":{"android":"levelo://app?vid=3c15ac37-b01c-4771-909c-341e8ebaf3c5","ios":"levelo://app?vid=3c15ac37-b01c-4771-909c-341e8ebaf3c5"},"vehicle_type_id":"4","last_reported":1750446479,"current_range_meters":13600,"station_id":"ce4bh192rcd13ifvqdb0","pricing_plan_id":"cebpf4jnsgd1na2vs0mg"},{"bike_id":"80c758c1-4781-42c0-baad-6067c90c167b","system_id":"levelo_inurba_marseille","lat":43.26205,"lon":5.37928,"is_reserved":false,"is_disabled":false,"rental_uris":{"android":"levelo://app?vid=80c758c1-4781-42c0-baad-6067c90c167b","ios":"levelo://app?vid=80c758c1-4781-42c0-baad-6067c90c167b"},"vehicle_type_id":"4","last_reported":1750446479,"current_range_meters":13600,"station_id":"ce4bhjp2rcd13ifvqg90","pricing_plan_id":"cebpf4jnsgd1na2vs0mg"},{"bike_id":"7c87f16d-5005-4dcb-9a3a-87af9608697c","system_id":"levelo_inurba_marseille","lat":43.2953,"lon":5.38546,"is_reserved":false,"is_disabled":false,"rental_uris":{"android":"levelo://app?vid=7c87f16d-5005-4dcb-9a3a-87af9608697c","ios":"levelo://app?vid=7c87f16d-5005-4dcb-9a3a-87af9608697c"},"vehicle_type_id":"4","last_reported":1750446479,"current_range_meters":14000,"station_id":"ce4bgih2rcd13ifvqba0","pricing_plan_id":"cebpf4jnsgd1na2vs0mg"},{"bike_id":"a0c6052c-ec1c-4c6b-baf2-74ae3a20362a","system_id":"levelo_inurba_marseille","lat":43.27378,"lon":5.36265,"is_reserved":false,"is_disabled":false,"rental_uris":{"android":"levelo://app?vid=a0c6052c-ec1c-4c6b-baf2-74ae3a20362a","ios":"levelo://app?vid=a0c6052c-ec1c-4c6b-baf2-74ae3a20362a"},"vehicle_type_id":"4","last_reported":1750446479,"current_range_meters":14000,"station_id":"ce4bhbh2rcd13ifvqeo0","pricing_plan_id":"cebpf4jnsgd1na2vs0mg"},{"bike_id":"5c3b2912-54ee-4b02-948c-1965a00526d4","system_id":"levelo_inurba_marseille","lat":43.27373,"lon":5.36261,"is_reserved":false,"is_disabled":false,"rental_uris":{"android":"levelo://app?vid=5c3b2912-54ee-4b02-948c-1965a00526d4","ios":"levelo://app?vid=5c3b2912-54ee-4b02-948c-1965a00526d4"},"vehicle_type_id":"4","last_reported":1750446479,"current_range_meters":14000,"station_id":"ce4bhbh2rcd13ifvqeo0","pricing_plan_id":"cebpf4jnsgd1na2vs0mg"},{"bike_id":"0eb04758-0b59-4b82-b42b-fbfc24d51078","system_id":"levelo_inurba_marseille","lat":43.27373,"lon":5.36244,"is_reserved":false,"is_disabled":false,"rental_uris":{"android":"levelo://app?vid=0eb04758-0b59-4b82-b42b-fbfc24d51078","ios":"levelo://app?vid=0eb04758-0b59-4b82-b42b-fbfc24d51078"},"vehicle_type_id":"4","last_reported":1750446479,"current_range_meters":14000,"station_id":"ce4bhbh2rcd13ifvqeo0","pricing_plan_id":"cebpf4jnsgd1na2vs0mg"},{"bike_id":"f65505f7-bdc9-40cf-a641-25b38f2e8d77","system_id":"levelo_inurba_marseille","lat":43.27376,"lon":5.36247,"is_reserved":false,"is_disabled":false,"rental_uris":{"android":"levelo://app?vid=f65505f7-bdc9-40cf-a641-25b38f2e8d77","ios":"levelo://app?vid=f65505f7-bdc9-40cf-a641-25b38f2e8d77"},"vehicle_type_id":"4","last_reported":1750446479,"current_range_meters":14000,"station_id":"ce4bhbh2rcd13ifvqeo0","pricing_plan_id":"cebpf4jnsgd1na2vs0mg"},{"bike_id":"32b33686-79a4-4215-98ad-2c73dfa0a2ab","system_id":"levelo_inurba_marseille","lat":43.28621,"lon":5.35107,"is_reserved":false,"is_disabled":false,"rental_uris":{"android":"levelo://app?vid=32b33686-79a4-4215-98ad-2c73dfa0a2ab","ios":"levelo://app?vid=32b33686-79a4-4215-98ad-2c73dfa0a2ab"},"vehicle_type_id":"4","last_reported":1750446479,"current_range_meters":14000,"station_id":"ce4bhch2rcd13ifvqeug","pricing_plan_id":"cebpf4jnsgd1na2vs0mg"},{"bike_id":"effc698d-d9b6-4a03-855e-e0452798eb35","system_id":"levelo_inurba_marseille","lat":43.248043,"lon":5.374558,"is_reserved":false,"is_disabled":false,"rental_uris":{"android":"levelo://app?vid=effc698d-d9b6-4a03-855e-e0452798eb35","ios":"levelo://app?vid=effc698d-d9b6-4a03-855e-e0452798eb35"},"vehicle_type_id":"4","last_reported":1750446479,"current_range_meters":14000,"station_id":"ce4bhgh2rcd13ifvqfb0","pricing_plan_id":"cebpf4jnsgd1na2vs0mg"},{"bike_id":"51e479d8-905f-460f-a482-745878976d9a","system_id":"levelo_inurba_marseille","lat":43.23196,"lon":5.355495,"is_reserved":false,"is_disabled":false,"rental_uris":{"android":"levelo://app?vid=51e479d8-905f-460f-a482-745878976d9a","ios":"levelo://app?vid=51e479d8-905f-460f-a482-745878976d9a"},"vehicle_type_id":"4","last_reported":1750446479,"current_range_meters":14000,"station_id":"ce4bhu92rcd13ifvqi70","pricing_plan_id":"cebpf4jnsgd1na2vs0mg"},{"bike_id":"b0c36570-8a06-4ca8-b90b-1ab5801fe902","system_id":"levelo_inurba_marseille","lat":43.3126,"lon":5.40451,"is_reserved":false,"is_disabled":false,"rental_uris":{"android":"levelo://app?vid=b0c36570-8a06-4ca8-b90b-1ab5801fe902","ios":"levelo://app?vid=b0c36570-8a06-4ca8-b90b-1ab5801fe902"},"vehicle_type_id":"4","last_reported":1750446479,"current_range_meters":14400,"station_id":"","pricing_plan_id":"cebpf4jnsgd1na2vs0mg"},{"bike_id":"70099c53-f60d-41a6-83a1-870e7567c224","system_id":"levelo_inurba_marseille","lat":43.31179,"lon":5.38724,"is_reserved":false,"is_disabled":false,"rental_uris":{"android":"levelo://app?vid=70099c53-f60d-41a6-83a1-870e7567c224","ios":"levelo://app?vid=70099c53-f60d-41a6-83a1-870e7567c224"},"vehicle_type_id":"4","last_reported":1750446479,"current_range_meters":14400,"station_id":"ce4bgv12rcd13ifvqcp0","pricing_plan_id":"cebpf4jnsgd1na2vs0mg"},{"bike_id":"6243611f-85c4-46f3-9f91-80e7f5a3af6b","system_id":"levelo_inurba_marseille","lat":43.27375,"lon":5.36257,"is_reserved":false,"is_disabled":false,"rental_uris":{"android":"levelo://app?vid=6243611f-85c4-46f3-9f91-80e7f5a3af6b","ios":"levelo://app?vid=6243611f-85c4-46f3-9f91-80e7f5a3af6b"},"vehicle_type_id":"4","last_reported":1750446479,"current_range_meters":14400,"station_id":"ce4bhbh2rcd13ifvqeo0","pricing_plan_id":"cebpf4jnsgd1na2vs0mg"},{"bike_id":"70990f13-c140-4eac-b4da-31c443c7459c","system_id":"levelo_inurba_marseille","lat":43.25498,"lon":5.3765,"is_reserved":false,"is_disabled":false,"rental_uris":{"android":"levelo://app?vid=70990f13-c140-4eac-b4da-31c443c7459c","ios":"levelo://app?vid=70990f13-c140-4eac-b4da-31c443c7459c"},"vehicle_type_id":"4","last_reported":1750446479,"current_range_meters":14400,"station_id":"ce4bhh12rcd13ifvqff0","pricing_plan_id":"cebpf4jnsgd1na2vs0mg"},{"bike_id":"8e92feac-7d18-4ddd-8b47-3e77cf9b9c34","system_id":"levelo_inurba_marseille","lat":43.23188,"lon":5.3556,"is_reserved":false,"is_disabled":false,"rental_uris":{"android":"levelo://app?vid=8e92feac-7d18-4ddd-8b47-3e77cf9b9c34","ios":"levelo://app?vid=8e92feac-7d18-4ddd-8b47-3e77cf9b9c34"},"vehicle_type_id":"4","last_reported":1750446479,"current_range_meters":14400,"station_id":"ce4bhu92rcd13ifvqi70","pricing_plan_id":"cebpf4jnsgd1na2vs0mg"},{"bike_id":"dc540ba2-fb63-45eb-b83a-1826fb3d30b7","system_id":"levelo_inurba_marseille","lat":43.24608,"lon":5.39262,"is_reserved":false,"is_disabled":false,"rental_uris":{"android":"levelo://app?vid=dc540ba2-fb63-45eb-b83a-1826fb3d30b7","ios":"levelo://app?vid=dc540ba2-fb63-45eb-b83a-1826fb3d30b7"},"vehicle_type_id":"4","last_reported":1750446479,"current_range_meters":14800,"station_id":"","pricing_plan_id":"cebpf4jnsgd1na2vs0mg"},{"bike_id":"9495efe6-c1ed-48f2-889b-22ec4961b645","system_id":"levelo_inurba_marseille","lat":43.30952,"lon":5.390423,"is_reserved":false,"is_disabled":false,"rental_uris":{"android":"levelo://app?vid=9495efe6-c1ed-48f2-889b-22ec4961b645","ios":"levelo://app?vid=9495efe6-c1ed-48f2-889b-22ec4961b645"},"vehicle_type_id":"4","last_reported":1750446479,"current_range_meters":14800,"station_id":"ce4bgup2rcd13ifvqco0","pricing_plan_id":"cebpf4jnsgd1na2vs0mg"},{"bike_id":"4b3e6f86-4ccb-49b6-83a5-c4f3f2e0f141","system_id":"levelo_inurba_marseille","lat":43.26559,"lon":5.37283,"is_reserved":false,"is_disabled":false,"rental_uris":{"android":"levelo://app?vid=4b3e6f86-4ccb-49b6-83a5-c4f3f2e0f141","ios":"levelo://app?vid=4b3e6f86-4ccb-49b6-83a5-c4f3f2e0f141"},"vehicle_type_id":"4","last_reported":1750446479,"current_range_meters":14800,"station_id":"ce4bhg12rcd13ifvqf70","pricing_plan_id":"cebpf4jnsgd1na2vs0mg"},{"bike_id":"c52daf8e-a982-4d50-97fa-050a107d4b44","system_id":"levelo_inurba_marseille","lat":43.24808,"lon":5.3746,"is_reserved":false,"is_disabled":false,"rental_uris":{"android":"levelo://app?vid=c52daf8e-a982-4d50-97fa-050a107d4b44","ios":"levelo://app?vid=c52daf8e-a982-4d50-97fa-050a107d4b44"},"vehicle_type_id":"4","last_reported":1750446479,"current_range_meters":14800,"station_id":"ce4bhgh2rcd13ifvqfb0","pricing_plan_id":"cebpf4jnsgd1na2vs0mg"},{"bike_id":"959f0c62-9761-4a35-9c23-557e23ca2679","system_id":"levelo_inurba_marseille","lat":43.24706,"lon":5.38137,"is_reserved":false,"is_disabled":false,"rental_uris":{"android":"levelo://app?vid=959f0c62-9761-4a35-9c23-557e23ca2679","ios":"levelo://app?vid=959f0c62-9761-4a35-9c23-557e23ca2679"},"vehicle_type_id":"4","last_reported":1750446479,"current_range_meters":14800,"station_id":"ce4bhih2rcd13ifvqfr0","pricing_plan_id":"cebpf4jnsgd1na2vs0mg"},{"bike_id":"8ef11a45-504d-45b0-a2b5-97fef9594218","system_id":"levelo_inurba_marseille","lat":43.29547,"lon":5.38146,"is_reserved":false,"is_disabled":false,"rental_uris":{"android":"levelo://app?vid=8ef11a45-504d-45b0-a2b5-97fef9594218","ios":"levelo://app?vid=8ef11a45-504d-45b0-a2b5-97fef9594218"},"vehicle_type_id":"4","last_reported":1750446479,"current_range_meters":15200,"station_id":"","pricing_plan_id":"cebpf4jnsgd1na2vs0mg"},{"bike_id":"2d271d72-e512-486e-bc8b-dc7b865b13b5","system_id":"levelo_inurba_marseille","lat":43.27614,"lon":5.36109,"is_reserved":false,"is_disabled":false,"rental_uris":{"android":"levelo://app?vid=2d271d72-e512-486e-bc8b-dc7b865b13b5","ios":"levelo://app?vid=2d271d72-e512-486e-bc8b-dc7b865b13b5"},"vehicle_type_id":"4","last_reported":1750446479,"current_range_meters":15200,"station_id":"ce4bgj92rcd13ifvqbe0","pricing_plan_id":"cebpf4jnsgd1na2vs0mg"},{"bike_id":"25c7d098-422f-45fa-8063-4b89bf4d6109","system_id":"levelo_inurba_marseille","lat":43.29571,"lon":5.36744,"is_reserved":false,"is_disabled":false,"rental_uris":{"android":"levelo://app?vid=25c7d098-422f-45fa-8063-4b89bf4d6109","ios":"levelo://app?vid=25c7d098-422f-45fa-8063-4b89bf4d6109"},"vehicle_type_id":"4","last_reported":1750446479,"current_range_meters":15200,"station_id":"ce4bgph2rcd13ifvqc2g","pricing_plan_id":"cebpf4jnsgd1na2vs0mg"},{"bike_id":"73ca78af-c969-4f07-9a86-35bf9abdcb85","system_id":"levelo_inurba_marseille","lat":43.29003,"lon":5.38646,"is_reserved":false,"is_disabled":false,"rental_uris":{"android":"levelo://app?vid=73ca78af-c969-4f07-9a86-35bf9abdcb85","ios":"levelo://app?vid=73ca78af-c969-4f07-9a86-35bf9abdcb85"},"vehicle_type_id":"4","last_reported":1750446479,"current_range_meters":15200,"station_id":"ce4bh4p2rcd13ifvqe0g","pricing_plan_id":"cebpf4jnsgd1na2vs0mg"},{"bike_id":"118514ac-c241-4e4f-9b4b-7c188b8ba52c","system_id":"levelo_inurba_marseille","lat":43.260355,"lon":5.375448,"is_reserved":false,"is_disabled":false,"rental_uris":{"android":"levelo://app?vid=118514ac-c241-4e4f-9b4b-7c188b8ba52c","ios":"levelo://app?vid=118514ac-c241-4e4f-9b4b-7c188b8ba52c"},"vehicle_type_id":"4","last_reported":1750446479,"current_range_meters":15200,"station_id":"ce4bhgh2rcd13ifvqfa0","pricing_plan_id":"cebpf4jnsgd1na2vs0mg"},{"bike_id":"bd27fe72-6fbc-453f-8b77-bee10ab3b13c","system_id":"levelo_inurba_marseille","lat":43.29532,"lon":5.42348,"is_reserved":false,"is_disabled":false,"rental_uris":{"android":"levelo://app?vid=bd27fe72-6fbc-453f-8b77-bee10ab3b13c","ios":"levelo://app?vid=bd27fe72-6fbc-453f-8b77-bee10ab3b13c"},"vehicle_type_id":"4","last_reported":1750446479,"current_range_meters":15200,"station_id":"ce4bhph2rcd13ifvqhdg","pricing_plan_id":"cebpf4jnsgd1na2vs0mg"},{"bike_id":"ccf163a7-3a7a-41a1-b538-4c04f141a3b9","system_id":"levelo_inurba_marseille","lat":43.32293,"lon":5.38276,"is_reserved":false,"is_disabled":false,"rental_uris":{"android":"levelo://app?vid=ccf163a7-3a7a-41a1-b538-4c04f141a3b9","ios":"levelo://app?vid=ccf163a7-3a7a-41a1-b538-4c04f141a3b9"},"vehicle_type_id":"4","last_reported":1750446479,"current_range_meters":15200,"station_id":"ce4bhr12rcd13ifvqhqg","pricing_plan_id":"cebpf4jnsgd1na2vs0mg"},{"bike_id":"d40af265-11b5-43a6-9bb6-f910f57901ba","system_id":"levelo_inurba_marseille","lat":43.32964,"lon":5.38093,"is_reserved":false,"is_disabled":false,"rental_uris":{"android":"levelo://app?vid=d40af265-11b5-43a6-9bb6-f910f57901ba","ios":"levelo://app?vid=d40af265-11b5-43a6-9bb6-f910f57901ba"},"vehicle_type_id":"4","last_reported":1750446479,"current_range_meters":16000,"station_id":"","pricing_plan_id":"cebpf4jnsgd1na2vs0mg"},{"bike_id":"a67658ba-d01c-43ed-a9a9-2126efa96529","system_id":"levelo_inurba_marseille","lat":43.30944,"lon":5.39038,"is_reserved":false,"is_disabled":false,"rental_uris":{"android":"levelo://app?vid=a67658ba-d01c-43ed-a9a9-2126efa96529","ios":"levelo://app?vid=a67658ba-d01c-43ed-a9a9-2126efa96529"},"vehicle_type_id":"4","last_reported":1750446479,"current_range_meters":16000,"station_id":"ce4bgup2rcd13ifvqco0","pricing_plan_id":"cebpf4jnsgd1na2vs0mg"},{"bike_id":"6d5f8049-5b34-4ed8-8b92-955535aa8b27","system_id":"levelo_inurba_marseille","lat":43.29631,"lon":5.40605,"is_reserved":false,"is_disabled":false,"rental_uris":{"android":"levelo://app?vid=6d5f8049-5b34-4ed8-8b92-955535aa8b27","ios":"levelo://app?vid=6d5f8049-5b34-4ed8-8b92-955535aa8b27"},"vehicle_type_id":"4","last_reported":1750446479,"current_range_meters":16000,"station_id":"ce4bh0h2rcd13ifvqd60","pricing_plan_id":"cebpf4jnsgd1na2vs0mg"},{"bike_id":"755ae074-1e1c-4323-945c-448ccd2c34ba","system_id":"levelo_inurba_marseille","lat":43.337444,"lon":5.374475,"is_reserved":false,"is_disabled":false,"rental_uris":{"android":"levelo://app?vid=755ae074-1e1c-4323-945c-448ccd2c34ba","ios":"levelo://app?vid=755ae074-1e1c-4323-945c-448ccd2c34ba"},"vehicle_type_id":"4","last_reported":1750446479,"current_range_meters":16400,"station_id":"","pricing_plan_id":"cebpf4jnsgd1na2vs0mg"},{"bike_id":"a22aa312-0025-4f42-88e2-b1e95e79340f","system_id":"levelo_inurba_marseille","lat":43.31709,"lon":5.38386,"is_reserved":false,"is_disabled":false,"rental_uris":{"android":"levelo://app?vid=a22aa312-0025-4f42-88e2-b1e95e79340f","ios":"levelo://app?vid=a22aa312-0025-4f42-88e2-b1e95e79340f"},"vehicle_type_id":"4","last_reported":1750446479,"current_range_meters":16400,"station_id":"","pricing_plan_id":"cebpf4jnsgd1na2vs0mg"},{"bike_id":"9d12816b-9c08-4576-b527-7496c00e761e","system_id":"levelo_inurba_marseille","lat":43.2979,"lon":5.38109,"is_reserved":false,"is_disabled":false,"rental_uris":{"android":"levelo://app?vid=9d12816b-9c08-4576-b527-7496c00e761e","ios":"levelo://app?vid=9d12816b-9c08-4576-b527-7496c00e761e"},"vehicle_type_id":"4","last_reported":1750446479,"current_range_meters":16400,"station_id":"ce4bgip2rcd13ifvqbb0","pricing_plan_id":"cebpf4jnsgd1na2vs0mg"},{"bike_id":"c1652fec-d95d-41c0-a16d-cd2f8fce6063","system_id":"levelo_inurba_marseille","lat":43.2962,"lon":5.37153,"is_reserved":false,"is_disabled":false,"rental_uris":{"android":"levelo://app?vid=c1652fec-d95d-41c0-a16d-cd2f8fce6063","ios":"levelo://app?vid=c1652fec-d95d-41c0-a16d-cd2f8fce6063"},"vehicle_type_id":"4","last_reported":1750446479,"current_range_meters":16400,"station_id":"ce4bgnh2rcd13ifvqc0g","pricing_plan_id":"cebpf4jnsgd1na2vs0mg"},{"bike_id":"ff0585d1-3da0-48f3-9fda-da5b5d5767f8","system_id":"levelo_inurba_marseille","lat":43.29453,"lon":5.3865,"is_reserved":false,"is_disabled":false,"rental_uris":{"android":"levelo://app?vid=ff0585d1-3da0-48f3-9fda-da5b5d5767f8","ios":"levelo://app?vid=ff0585d1-3da0-48f3-9fda-da5b5d5767f8"},"vehicle_type_id":"4","last_reported":1750446479,"current_range_meters":16400,"station_id":"ce4bh2h2rcd13ifvqdh0","pricing_plan_id":"cebpf4jnsgd1na2vs0mg"},{"bike_id":"63aa8048-2f62-4038-a6d7-9a7871b324bf","system_id":"levelo_inurba_marseille","lat":43.29175,"lon":5.3579,"is_reserved":false,"is_disabled":false,"rental_uris":{"android":"levelo://app?vid=63aa8048-2f62-4038-a6d7-9a7871b324bf","ios":"levelo://app?vid=63aa8048-2f62-4038-a6d7-9a7871b324bf"},"vehicle_type_id":"4","last_reported":1750446479,"current_range_meters":16400,"station_id":"ce4bhb12rcd13ifvqel0","pricing_plan_id":"cebpf4jnsgd1na2vs0mg"},{"bike_id":"eee77d17-53bc-4ba5-b76e-054a4d3dcceb","system_id":"levelo_inurba_marseille","lat":43.28414,"lon":5.34989,"is_reserved":false,"is_disabled":false,"rental_uris":{"android":"levelo://app?vid=eee77d17-53bc-4ba5-b76e-054a4d3dcceb","ios":"levelo://app?vid=eee77d17-53bc-4ba5-b76e-054a4d3dcceb"},"vehicle_type_id":"4","last_reported":1750446479,"current_range_meters":16400,"station_id":"ce4bhbh2rcd13ifvqepg","pricing_plan_id":"cebpf4jnsgd1na2vs0mg"},{"bike_id":"9478d6de-45b8-49ec-838a-713d0d99de63","system_id":"levelo_inurba_marseille","lat":43.265567,"lon":5.372873,"is_reserved":false,"is_disabled":false,"rental_uris":{"android":"levelo://app?vid=9478d6de-45b8-49ec-838a-713d0d99de63","ios":"levelo://app?vid=9478d6de-45b8-49ec-838a-713d0d99de63"},"vehicle_type_id":"4","last_reported":1750446479,"current_range_meters":16400,"station_id":"ce4bhg12rcd13ifvqf70","pricing_plan_id":"cebpf4jnsgd1na2vs0mg"},{"bike_id":"833b9aa8-dbc1-4036-870c-2229d9641bf5","system_id":"levelo_inurba_marseille","lat":43.26204,"lon":5.37444,"is_reserved":false,"is_disabled":false,"rental_uris":{"android":"levelo://app?vid=833b9aa8-dbc1-4036-870c-2229d9641bf5","ios":"levelo://app?vid=833b9aa8-dbc1-4036-870c-2229d9641bf5"},"vehicle_type_id":"4","last_reported":1750446479,"current_range_meters":16400,"station_id":"ce4bhgp2rcd13ifvqfc0","pricing_plan_id":"cebpf4jnsgd1na2vs0mg"},{"bike_id":"4643bc90-1bac-4c4b-98b1-e2d500830573","system_id":"levelo_inurba_marseille","lat":43.31416,"lon":5.37714,"is_reserved":false,"is_disabled":false,"rental_uris":{"android":"levelo://app?vid=4643bc90-1bac-4c4b-98b1-e2d500830573","ios":"levelo://app?vid=4643bc90-1bac-4c4b-98b1-e2d500830573"},"vehicle_type_id":"4","last_reported":1750446479,"current_range_meters":16800,"station_id":"","pricing_plan_id":"cebpf4jnsgd1na2vs0mg"},{"bike_id":"ad7bc185-3adc-4e5b-841b-d61acf8adb22","system_id":"levelo_inurba_marseille","lat":43.29876,"lon":5.36329,"is_reserved":false,"is_disabled":false,"rental_uris":{"android":"levelo://app?vid=ad7bc185-3adc-4e5b-841b-d61acf8adb22","ios":"levelo://app?vid=ad7bc185-3adc-4e5b-841b-d61acf8adb22"},"vehicle_type_id":"4","last_reported":1750446479,"current_range_meters":16800,"station_id":"","pricing_plan_id":"cebpf4jnsgd1na2vs0mg"},{"bike_id":"90c109b5-5cee-495e-8f11-f318c0f086b6","system_id":"levelo_inurba_marseille","lat":43.32495,"lon":5.43455,"is_reserved":false,"is_disabled":false,"rental_uris":{"android":"levelo://app?vid=90c109b5-5cee-495e-8f11-f318c0f086b6","ios":"levelo://app?vid=90c109b5-5cee-495e-8f11-f318c0f086b6"},"vehicle_type_id":"4","last_reported":1750446479,"current_range_meters":16800,"station_id":"","pricing_plan_id":"cebpf4jnsgd1na2vs0mg"},{"bike_id":"9cf64666-2f82-4237-915a-8e197c7a569c","system_id":"levelo_inurba_marseille","lat":43.290032,"lon":5.356144,"is_reserved":false,"is_disabled":false,"rental_uris":{"android":"levelo://app?vid=9cf64666-2f82-4237-915a-8e197c7a569c","ios":"levelo://app?vid=9cf64666-2f82-4237-915a-8e197c7a569c"},"vehicle_type_id":"4","last_reported":1750446479,"current_range_meters":16800,"station_id":"ce4bhb92rcd13ifvqen0","pricing_plan_id":"cebpf4jnsgd1na2vs0mg"},{"bike_id":"a27dfe13-84f1-4a5a-95b6-055954b50ba0","system_id":"levelo_inurba_marseille","lat":43.273679,"lon":5.362549,"is_reserved":false,"is_disabled":false,"rental_uris":{"android":"levelo://app?vid=a27dfe13-84f1-4a5a-95b6-055954b50ba0","ios":"levelo://app?vid=a27dfe13-84f1-4a5a-95b6-055954b50ba0"},"vehicle_type_id":"4","last_reported":1750446479,"current_range_meters":16800,"station_id":"ce4bhbh2rcd13ifvqeo0","pricing_plan_id":"cebpf4jnsgd1na2vs0mg"},{"bike_id":"d1b5972b-dc80-45de-9dad-61456c9acb6b","system_id":"levelo_inurba_marseille","lat":43.2862,"lon":5.3511,"is_reserved":false,"is_disabled":false,"rental_uris":{"android":"levelo://app?vid=d1b5972b-dc80-45de-9dad-61456c9acb6b","ios":"levelo://app?vid=d1b5972b-dc80-45de-9dad-61456c9acb6b"},"vehicle_type_id":"4","last_reported":1750446479,"current_range_meters":16800,"station_id":"ce4bhch2rcd13ifvqeug","pricing_plan_id":"cebpf4jnsgd1na2vs0mg"},{"bike_id":"49f4d7b3-5db9-4d41-a05c-f22a384c21b4","system_id":"levelo_inurba_marseille","lat":43.26563,"lon":5.373,"is_reserved":false,"is_disabled":false,"rental_uris":{"android":"levelo://app?vid=49f4d7b3-5db9-4d41-a05c-f22a384c21b4","ios":"levelo://app?vid=49f4d7b3-5db9-4d41-a05c-f22a384c21b4"},"vehicle_type_id":"4","last_reported":1750446479,"current_range_meters":16800,"station_id":"ce4bhg12rcd13ifvqf70","pricing_plan_id":"cebpf4jnsgd1na2vs0mg"},{"bike_id":"204afd8f-d13a-468d-a59c-e2db9671fff1","system_id":"levelo_inurba_marseille","lat":43.24412,"lon":5.37112,"is_reserved":false,"is_disabled":false,"rental_uris":{"android":"levelo://app?vid=204afd8f-d13a-468d-a59c-e2db9671fff1","ios":"levelo://app?vid=204afd8f-d13a-468d-a59c-e2db9671fff1"},"vehicle_type_id":"4","last_reported":1750446479,"current_range_meters":16800,"station_id":"ce4bhhh2rcd13ifvqfk0","pricing_plan_id":"cebpf4jnsgd1na2vs0mg"},{"bike_id":"3dc1a2f8-8b98-4a65-980d-b42a647d0080","system_id":"levelo_inurba_marseille","lat":43.2397,"lon":5.36627,"is_reserved":false,"is_disabled":false,"rental_uris":{"android":"levelo://app?vid=3dc1a2f8-8b98-4a65-980d-b42a647d0080","ios":"levelo://app?vid=3dc1a2f8-8b98-4a65-980d-b42a647d0080"},"vehicle_type_id":"4","last_reported":1750446479,"current_range_meters":16800,"station_id":"ce4bhi12rcd13ifvqfp0","pricing_plan_id":"cebpf4jnsgd1na2vs0mg"},{"bike_id":"bfa4289d-6333-46cf-84e4-d24f73a14681","system_id":"levelo_inurba_marseille","lat":43.29533,"lon":5.38543,"is_reserved":false,"is_disabled":false,"rental_uris":{"android":"levelo://app?vid=bfa4289d-6333-46cf-84e4-d24f73a14681","ios":"levelo://app?vid=bfa4289d-6333-46cf-84e4-d24f73a14681"},"vehicle_type_id":"4","last_reported":1750446479,"current_range_meters":17200,"station_id":"ce4bgih2rcd13ifvqba0","pricing_plan_id":"cebpf4jnsgd1na2vs0mg"},{"bike_id":"73e948fd-f3eb-45f5-88fb-425ac0101896","system_id":"levelo_inurba_marseille","lat":43.262239,"lon":5.374386,"is_reserved":false,"is_disabled":false,"rental_uris":{"android":"levelo://app?vid=73e948fd-f3eb-45f5-88fb-425ac0101896","ios":"levelo://app?vid=73e948fd-f3eb-45f5-88fb-425ac0101896"},"vehicle_type_id":"4","last_reported":1750446479,"current_range_meters":17200,"station_id":"ce4bh3h2rcd13ifvqdo0","pricing_plan_id":"cebpf4jnsgd1na2vs0mg"},{"bike_id":"01c0ac0f-b40f-4f7c-a9fe-4fc3ed3169fe","system_id":"levelo_inurba_marseille","lat":43.2596,"lon":5.37586,"is_reserved":false,"is_disabled":false,"rental_uris":{"android":"levelo://app?vid=01c0ac0f-b40f-4f7c-a9fe-4fc3ed3169fe","ios":"levelo://app?vid=01c0ac0f-b40f-4f7c-a9fe-4fc3ed3169fe"},"vehicle_type_id":"4","last_reported":1750446479,"current_range_meters":17600,"station_id":"","pricing_plan_id":"cebpf4jnsgd1na2vs0mg"},{"bike_id":"ffbb0c22-3f4e-4cdb-a0e5-79e3b9f3e1a2","system_id":"levelo_inurba_marseille","lat":43.33812,"lon":5.37448,"is_reserved":false,"is_disabled":false,"rental_uris":{"android":"levelo://app?vid=ffbb0c22-3f4e-4cdb-a0e5-79e3b9f3e1a2","ios":"levelo://app?vid=ffbb0c22-3f4e-4cdb-a0e5-79e3b9f3e1a2"},"vehicle_type_id":"4","last_reported":1750446479,"current_range_meters":17600,"station_id":"","pricing_plan_id":"cebpf4jnsgd1na2vs0mg"},{"bike_id":"283243c0-80ca-423a-9528-4d602f0c97d7","system_id":"levelo_inurba_marseille","lat":43.2762,"lon":5.3612,"is_reserved":false,"is_disabled":false,"rental_uris":{"android":"levelo://app?vid=283243c0-80ca-423a-9528-4d602f0c97d7","ios":"levelo://app?vid=283243c0-80ca-423a-9528-4d602f0c97d7"},"vehicle_type_id":"4","last_reported":1750446479,"current_range_meters":17600,"station_id":"ce4bgj92rcd13ifvqbe0","pricing_plan_id":"cebpf4jnsgd1na2vs0mg"},{"bike_id":"9436b3f7-e71d-4814-81fe-95d1af5df695","system_id":"levelo_inurba_marseille","lat":43.21203,"lon":5.35064,"is_reserved":false,"is_disabled":false,"rental_uris":{"android":"levelo://app?vid=9436b3f7-e71d-4814-81fe-95d1af5df695","ios":"levelo://app?vid=9436b3f7-e71d-4814-81fe-95d1af5df695"},"vehicle_type_id":"4","last_reported":1750446479,"current_range_meters":17600,"station_id":"st_cvj6sg6p6f1abm77japg","pricing_plan_id":"cebpf4jnsgd1na2vs0mg"},{"bike_id":"5bc1962c-7a28-4e41-9236-e4be2ecb06db","system_id":"levelo_inurba_marseille","lat":43.29567,"lon":5.36726,"is_reserved":false,"is_disabled":false,"rental_uris":{"android":"levelo://app?vid=5bc1962c-7a28-4e41-9236-e4be2ecb06db","ios":"levelo://app?vid=5bc1962c-7a28-4e41-9236-e4be2ecb06db"},"vehicle_type_id":"4","last_reported":1750446479,"current_range_meters":18000,"station_id":"ce4bgph2rcd13ifvqc2g","pricing_plan_id":"cebpf4jnsgd1na2vs0mg"},{"bike_id":"1de87ad6-c65e-4c64-a95d-44e24276bfc5","system_id":"levelo_inurba_marseille","lat":43.25476,"lon":5.37628,"is_reserved":false,"is_disabled":false,"rental_uris":{"android":"levelo://app?vid=1de87ad6-c65e-4c64-a95d-44e24276bfc5","ios":"levelo://app?vid=1de87ad6-c65e-4c64-a95d-44e24276bfc5"},"vehicle_type_id":"4","last_reported":1750446479,"current_range_meters":18000,"station_id":"ce4bhh12rcd13ifvqff0","pricing_plan_id":"cebpf4jnsgd1na2vs0mg"},{"bike_id":"2cec0bc7-dead-4af8-95ca-e858e0d59839","system_id":"levelo_inurba_marseille","lat":43.289316,"lon":5.366398,"is_reserved":false,"is_disabled":false,"rental_uris":{"android":"levelo://app?vid=2cec0bc7-dead-4af8-95ca-e858e0d59839","ios":"levelo://app?vid=2cec0bc7-dead-4af8-95ca-e858e0d59839"},"vehicle_type_id":"4","last_reported":1750446479,"current_range_meters":18800,"station_id":"ce4bhap2rcd13ifvqek0","pricing_plan_id":"cebpf4jnsgd1na2vs0mg"},{"bike_id":"e631847c-453c-4b61-8697-eacfe67a8a5f","system_id":"levelo_inurba_marseille","lat":43.284035,"lon":5.349803,"is_reserved":false,"is_disabled":false,"rental_uris":{"android":"levelo://app?vid=e631847c-453c-4b61-8697-eacfe67a8a5f","ios":"levelo://app?vid=e631847c-453c-4b61-8697-eacfe67a8a5f"},"vehicle_type_id":"4","last_reported":1750446479,"current_range_meters":18800,"station_id":"ce4bhbh2rcd13ifvqepg","pricing_plan_id":"cebpf4jnsgd1na2vs0mg"},{"bike_id":"ee020494-ae63-4045-96f0-7d9bec36ba29","system_id":"levelo_inurba_marseille","lat":43.26219,"lon":5.37437,"is_reserved":false,"is_disabled":false,"rental_uris":{"android":"levelo://app?vid=ee020494-ae63-4045-96f0-7d9bec36ba29","ios":"levelo://app?vid=ee020494-ae63-4045-96f0-7d9bec36ba29"},"vehicle_type_id":"4","last_reported":1750446479,"current_range_meters":18800,"station_id":"ce4bhgp2rcd13ifvqfc0","pricing_plan_id":"cebpf4jnsgd1na2vs0mg"},{"bike_id":"90c5a1b6-730c-413e-bcee-b223ffbd4504","system_id":"levelo_inurba_marseille","lat":43.24169,"lon":5.3637,"is_reserved":false,"is_disabled":false,"rental_uris":{"android":"levelo://app?vid=90c5a1b6-730c-413e-bcee-b223ffbd4504","ios":"levelo://app?vid=90c5a1b6-730c-413e-bcee-b223ffbd4504"},"vehicle_type_id":"4","last_reported":1750446479,"current_range_meters":18800,"station_id":"cpo36qri1sfpv3e86is0","pricing_plan_id":"cebpf4jnsgd1na2vs0mg"},{"bike_id":"65490dbb-fb26-48b3-b1b6-17abf527e385","system_id":"levelo_inurba_marseille","lat":43.24186,"lon":5.36388,"is_reserved":false,"is_disabled":false,"rental_uris":{"android":"levelo://app?vid=65490dbb-fb26-48b3-b1b6-17abf527e385","ios":"levelo://app?vid=65490dbb-fb26-48b3-b1b6-17abf527e385"},"vehicle_type_id":"4","last_reported":1750446479,"current_range_meters":18800,"station_id":"cpo36qri1sfpv3e86is0","pricing_plan_id":"cebpf4jnsgd1na2vs0mg"},{"bike_id":"38b4578b-d322-4ae7-86ef-2a7e9839b4fd","system_id":"levelo_inurba_marseille","lat":43.21187,"lon":5.3507,"is_reserved":false,"is_disabled":false,"rental_uris":{"android":"levelo://app?vid=38b4578b-d322-4ae7-86ef-2a7e9839b4fd","ios":"levelo://app?vid=38b4578b-d322-4ae7-86ef-2a7e9839b4fd"},"vehicle_type_id":"4","last_reported":1750446479,"current_range_meters":18800,"station_id":"st_cvj6sg6p6f1abm77japg","pricing_plan_id":"cebpf4jnsgd1na2vs0mg"},{"bike_id":"973db25f-144a-495b-98c4-15b4ae2dacd8","system_id":"levelo_inurba_marseille","lat":43.31319,"lon":5.37481,"is_reserved":false,"is_disabled":false,"rental_uris":{"android":"levelo://app?vid=973db25f-144a-495b-98c4-15b4ae2dacd8","ios":"levelo://app?vid=973db25f-144a-495b-98c4-15b4ae2dacd8"},"vehicle_type_id":"4","last_reported":1750446479,"current_range_meters":19200,"station_id":"","pricing_plan_id":"cebpf4jnsgd1na2vs0mg"},{"bike_id":"f6069a5d-a2bc-44cc-bc6f-f26f79591d92","system_id":"levelo_inurba_marseille","lat":43.30787,"lon":5.373528,"is_reserved":false,"is_disabled":false,"rental_uris":{"android":"levelo://app?vid=f6069a5d-a2bc-44cc-bc6f-f26f79591d92","ios":"levelo://app?vid=f6069a5d-a2bc-44cc-bc6f-f26f79591d92"},"vehicle_type_id":"4","last_reported":1750446479,"current_range_meters":19200,"station_id":"","pricing_plan_id":"cebpf4jnsgd1na2vs0mg"},{"bike_id":"a03a949d-876f-42db-9564-0aeae678fff4","system_id":"levelo_inurba_marseille","lat":43.29449,"lon":5.44487,"is_reserved":false,"is_disabled":false,"rental_uris":{"android":"levelo://app?vid=a03a949d-876f-42db-9564-0aeae678fff4","ios":"levelo://app?vid=a03a949d-876f-42db-9564-0aeae678fff4"},"vehicle_type_id":"4","last_reported":1750446479,"current_range_meters":19200,"station_id":"","pricing_plan_id":"cebpf4jnsgd1na2vs0mg"},{"bike_id":"6e966c0b-1861-4fb5-8283-e963c9c8fe3e","system_id":"levelo_inurba_marseille","lat":43.29872,"lon":5.38906,"is_reserved":false,"is_disabled":false,"rental_uris":{"android":"levelo://app?vid=6e966c0b-1861-4fb5-8283-e963c9c8fe3e","ios":"levelo://app?vid=6e966c0b-1861-4fb5-8283-e963c9c8fe3e"},"vehicle_type_id":"4","last_reported":1750446479,"current_range_meters":19200,"station_id":"ce4bh392rcd13ifvqdl0","pricing_plan_id":"cebpf4jnsgd1na2vs0mg"},{"bike_id":"f3cff51b-fe91-4498-bbb4-d82b17a1ea77","system_id":"levelo_inurba_marseille","lat":43.2904,"lon":5.3592,"is_reserved":false,"is_disabled":false,"rental_uris":{"android":"levelo://app?vid=f3cff51b-fe91-4498-bbb4-d82b17a1ea77","ios":"levelo://app?vid=f3cff51b-fe91-4498-bbb4-d82b17a1ea77"},"vehicle_type_id":"4","last_reported":1750446479,"current_range_meters":19200,"station_id":"ce4bha92rcd13ifvqeg0","pricing_plan_id":"cebpf4jnsgd1na2vs0mg"},{"bike_id":"6d58bc49-66dd-478c-aa4e-da9f62d9f734","system_id":"levelo_inurba_marseille","lat":43.286635,"lon":5.363431,"is_reserved":false,"is_disabled":false,"rental_uris":{"android":"levelo://app?vid=6d58bc49-66dd-478c-aa4e-da9f62d9f734","ios":"levelo://app?vid=6d58bc49-66dd-478c-aa4e-da9f62d9f734"},"vehicle_type_id":"4","last_reported":1750446479,"current_range_meters":19200,"station_id":"ce4bhah2rcd13ifvqej0","pricing_plan_id":"cebpf4jnsgd1na2vs0mg"},{"bike_id":"d845f650-17ba-4a6d-a834-3a75bcf90bc9","system_id":"levelo_inurba_marseille","lat":43.273773,"lon":5.362557,"is_reserved":false,"is_disabled":false,"rental_uris":{"android":"levelo://app?vid=d845f650-17ba-4a6d-a834-3a75bcf90bc9","ios":"levelo://app?vid=d845f650-17ba-4a6d-a834-3a75bcf90bc9"},"vehicle_type_id":"4","last_reported":1750446479,"current_range_meters":19200,"station_id":"ce4bhbh2rcd13ifvqeo0","pricing_plan_id":"cebpf4jnsgd1na2vs0mg"},{"bike_id":"b7a04b9f-b579-448f-8183-22169ab1145d","system_id":"levelo_inurba_marseille","lat":43.27382,"lon":5.36249,"is_reserved":false,"is_disabled":false,"rental_uris":{"android":"levelo://app?vid=b7a04b9f-b579-448f-8183-22169ab1145d","ios":"levelo://app?vid=b7a04b9f-b579-448f-8183-22169ab1145d"},"vehicle_type_id":"4","last_reported":1750446479,"current_range_meters":19200,"station_id":"ce4bhbh2rcd13ifvqeo0","pricing_plan_id":"cebpf4jnsgd1na2vs0mg"},{"bike_id":"367922b5-42cb-42f4-aad2-93d24b9cba6f","system_id":"levelo_inurba_marseille","lat":43.28416,"lon":5.34997,"is_reserved":false,"is_disabled":false,"rental_uris":{"android":"levelo://app?vid=367922b5-42cb-42f4-aad2-93d24b9cba6f","ios":"levelo://app?vid=367922b5-42cb-42f4-aad2-93d24b9cba6f"},"vehicle_type_id":"4","last_reported":1750446479,"current_range_meters":19200,"station_id":"ce4bhbh2rcd13ifvqepg","pricing_plan_id":"cebpf4jnsgd1na2vs0mg"},{"bike_id":"d408f076-4926-4a31-a519-9903eceecc69","system_id":"levelo_inurba_marseille","lat":43.31163,"lon":5.38708,"is_reserved":false,"is_disabled":false,"rental_uris":{"android":"levelo://app?vid=d408f076-4926-4a31-a519-9903eceecc69","ios":"levelo://app?vid=d408f076-4926-4a31-a519-9903eceecc69"},"vehicle_type_id":"4","last_reported":1750446479,"current_range_meters":19600,"station_id":"ce4bgv12rcd13ifvqcp0","pricing_plan_id":"cebpf4jnsgd1na2vs0mg"},{"bike_id":"60873ee6-8485-416b-932a-610150096c85","system_id":"levelo_inurba_marseille","lat":43.273772,"lon":5.36259,"is_reserved":false,"is_disabled":false,"rental_uris":{"android":"levelo://app?vid=60873ee6-8485-416b-932a-610150096c85","ios":"levelo://app?vid=60873ee6-8485-416b-932a-610150096c85"},"vehicle_type_id":"4","last_reported":1750446479,"current_range_meters":19600,"station_id":"ce4bhbh2rcd13ifvqeo0","pricing_plan_id":"cebpf4jnsgd1na2vs0mg"},{"bike_id":"c97f21c3-a4d5-4c44-8db8-7b4057367130","system_id":"levelo_inurba_marseille","lat":43.2738,"lon":5.36248,"is_reserved":false,"is_disabled":false,"rental_uris":{"android":"levelo://app?vid=c97f21c3-a4d5-4c44-8db8-7b4057367130","ios":"levelo://app?vid=c97f21c3-a4d5-4c44-8db8-7b4057367130"},"vehicle_type_id":"4","last_reported":1750446479,"current_range_meters":19600,"station_id":"ce4bhbh2rcd13ifvqeo0","pricing_plan_id":"cebpf4jnsgd1na2vs0mg"},{"bike_id":"1999f018-1eda-4f5f-83a0-805825c5f0cf","system_id":"levelo_inurba_marseille","lat":43.28416,"lon":5.34993,"is_reserved":false,"is_disabled":false,"rental_uris":{"android":"levelo://app?vid=1999f018-1eda-4f5f-83a0-805825c5f0cf","ios":"levelo://app?vid=1999f018-1eda-4f5f-83a0-805825c5f0cf"},"vehicle_type_id":"4","last_reported":1750446479,"current_range_meters":19600,"station_id":"ce4bhbh2rcd13ifvqepg","pricing_plan_id":"cebpf4jnsgd1na2vs0mg"},{"bike_id":"55ac6ebf-8d76-4ad0-af71-a855d9a0bd92","system_id":"levelo_inurba_marseille","lat":43.2927,"lon":5.36846,"is_reserved":false,"is_disabled":false,"rental_uris":{"android":"levelo://app?vid=55ac6ebf-8d76-4ad0-af71-a855d9a0bd92","ios":"levelo://app?vid=55ac6ebf-8d76-4ad0-af71-a855d9a0bd92"},"vehicle_type_id":"4","last_reported":1750446479,"current_range_meters":19600,"station_id":"ce4bhbp2rcd13ifvqesg","pricing_plan_id":"cebpf4jnsgd1na2vs0mg"},{"bike_id":"2ee46bba-9311-4956-be40-c9c54d083074","system_id":"levelo_inurba_marseille","lat":43.23195,"lon":5.35562,"is_reserved":false,"is_disabled":false,"rental_uris":{"android":"levelo://app?vid=2ee46bba-9311-4956-be40-c9c54d083074","ios":"levelo://app?vid=2ee46bba-9311-4956-be40-c9c54d083074"},"vehicle_type_id":"4","last_reported":1750446479,"current_range_meters":19600,"station_id":"ce4bhu92rcd13ifvqi70","pricing_plan_id":"cebpf4jnsgd1na2vs0mg"},{"bike_id":"04b016b0-78f2-4a40-9df3-2f41fff75a5c","system_id":"levelo_inurba_marseille","lat":43.21194,"lon":5.350663,"is_reserved":false,"is_disabled":false,"rental_uris":{"android":"levelo://app?vid=04b016b0-78f2-4a40-9df3-2f41fff75a5c","ios":"levelo://app?vid=04b016b0-78f2-4a40-9df3-2f41fff75a5c"},"vehicle_type_id":"4","last_reported":1750446479,"current_range_meters":19600,"station_id":"st_cvj6sg6p6f1abm77japg","pricing_plan_id":"cebpf4jnsgd1na2vs0mg"},{"bike_id":"982d89d8-a333-4489-bc32-54551848dace","system_id":"levelo_inurba_marseille","lat":43.337444,"lon":5.374475,"is_reserved":false,"is_disabled":false,"rental_uris":{"android":"levelo://app?vid=982d89d8-a333-4489-bc32-54551848dace","ios":"levelo://app?vid=982d89d8-a333-4489-bc32-54551848dace"},"vehicle_type_id":"4","last_reported":1750446479,"current_range_meters":20000,"station_id":"","pricing_plan_id":"cebpf4jnsgd1na2vs0mg"},{"bike_id":"331c59d3-1533-4164-9cd0-f7bc21e7006f","system_id":"levelo_inurba_marseille","lat":43.28662,"lon":5.38663,"is_reserved":false,"is_disabled":false,"rental_uris":{"android":"levelo://app?vid=331c59d3-1533-4164-9cd0-f7bc21e7006f","ios":"levelo://app?vid=331c59d3-1533-4164-9cd0-f7bc21e7006f"},"vehicle_type_id":"4","last_reported":1750446479,"current_range_meters":20000,"station_id":"ce4bh492rcd13ifvqdug","pricing_plan_id":"cebpf4jnsgd1na2vs0mg"},{"bike_id":"abac0e0b-07ee-4969-8bed-4851bc5cc36b","system_id":"levelo_inurba_marseille","lat":43.28725,"lon":5.37943,"is_reserved":false,"is_disabled":false,"rental_uris":{"android":"levelo://app?vid=abac0e0b-07ee-4969-8bed-4851bc5cc36b","ios":"levelo://app?vid=abac0e0b-07ee-4969-8bed-4851bc5cc36b"},"vehicle_type_id":"4","last_reported":1750446479,"current_range_meters":20000,"station_id":"ce4bh9p2rcd13ifvqec0","pricing_plan_id":"cebpf4jnsgd1na2vs0mg"},{"bike_id":"2361fc37-b285-4f20-a0cb-6624b15aa00a","system_id":"levelo_inurba_marseille","lat":43.26195,"lon":5.3745,"is_reserved":false,"is_disabled":false,"rental_uris":{"android":"levelo://app?vid=2361fc37-b285-4f20-a0cb-6624b15aa00a","ios":"levelo://app?vid=2361fc37-b285-4f20-a0cb-6624b15aa00a"},"vehicle_type_id":"4","last_reported":1750446479,"current_range_meters":20000,"station_id":"ce4bhgp2rcd13ifvqfc0","pricing_plan_id":"cebpf4jnsgd1na2vs0mg"},{"bike_id":"1c6eee43-889f-4cff-bc8c-307447a31830","system_id":"levelo_inurba_marseille","lat":43.30799,"lon":5.43519,"is_reserved":false,"is_disabled":false,"rental_uris":{"android":"levelo://app?vid=1c6eee43-889f-4cff-bc8c-307447a31830","ios":"levelo://app?vid=1c6eee43-889f-4cff-bc8c-307447a31830"},"vehicle_type_id":"4","last_reported":1750446479,"current_range_meters":20000,"station_id":"ce4bhph2rcd13ifvqheg","pricing_plan_id":"cebpf4jnsgd1na2vs0mg"},{"bike_id":"bdc4a282-df7d-4da2-bbcb-fd18aa9d4088","system_id":"levelo_inurba_marseille","lat":43.24169,"lon":5.36397,"is_reserved":false,"is_disabled":false,"rental_uris":{"android":"levelo://app?vid=bdc4a282-df7d-4da2-bbcb-fd18aa9d4088","ios":"levelo://app?vid=bdc4a282-df7d-4da2-bbcb-fd18aa9d4088"},"vehicle_type_id":"4","last_reported":1750446479,"current_range_meters":20000,"station_id":"cpo36qri1sfpv3e86is0","pricing_plan_id":"cebpf4jnsgd1na2vs0mg"},{"bike_id":"0a004dca-9e24-498d-805c-3ddcd08c7710","system_id":"levelo_inurba_marseille","lat":43.28455,"lon":5.3496,"is_reserved":false,"is_disabled":false,"rental_uris":{"android":"levelo://app?vid=0a004dca-9e24-498d-805c-3ddcd08c7710","ios":"levelo://app?vid=0a004dca-9e24-498d-805c-3ddcd08c7710"},"vehicle_type_id":"4","last_reported":1750446479,"current_range_meters":20400,"station_id":"ce4bhbh2rcd13ifvqepg","pricing_plan_id":"cebpf4jnsgd1na2vs0mg"},{"bike_id":"d9e565c5-5a75-4c10-b5e4-92333c498f17","system_id":"levelo_inurba_marseille","lat":43.26036,"lon":5.37535,"is_reserved":false,"is_disabled":false,"rental_uris":{"android":"levelo://app?vid=d9e565c5-5a75-4c10-b5e4-92333c498f17","ios":"levelo://app?vid=d9e565c5-5a75-4c10-b5e4-92333c498f17"},"vehicle_type_id":"4","last_reported":1750446479,"current_range_meters":20400,"station_id":"ce4bhgh2rcd13ifvqfa0","pricing_plan_id":"cebpf4jnsgd1na2vs0mg"},{"bike_id":"aa6022ea-97c7-4941-a03e-3f24b79b01e5","system_id":"levelo_inurba_marseille","lat":43.26196,"lon":5.37453,"is_reserved":false,"is_disabled":false,"rental_uris":{"android":"levelo://app?vid=aa6022ea-97c7-4941-a03e-3f24b79b01e5","ios":"levelo://app?vid=aa6022ea-97c7-4941-a03e-3f24b79b01e5"},"vehicle_type_id":"4","last_reported":1750446479,"current_range_meters":20400,"station_id":"ce4bhgp2rcd13ifvqfc0","pricing_plan_id":"cebpf4jnsgd1na2vs0mg"},{"bike_id":"24512291-7256-46c6-a504-9de7ee9b9eff","system_id":"levelo_inurba_marseille","lat":43.26257,"lon":5.37461,"is_reserved":false,"is_disabled":false,"rental_uris":{"android":"levelo://app?vid=24512291-7256-46c6-a504-9de7ee9b9eff","ios":"levelo://app?vid=24512291-7256-46c6-a504-9de7ee9b9eff"},"vehicle_type_id":"4","last_reported":1750446479,"current_range_meters":20400,"station_id":"ce4bhgp2rcd13ifvqfc0","pricing_plan_id":"cebpf4jnsgd1na2vs0mg"},{"bike_id":"fd01efad-946a-448d-a76d-fb6eba846239","system_id":"levelo_inurba_marseille","lat":43.25109,"lon":5.40328,"is_reserved":false,"is_disabled":false,"rental_uris":{"android":"levelo://app?vid=fd01efad-946a-448d-a76d-fb6eba846239","ios":"levelo://app?vid=fd01efad-946a-448d-a76d-fb6eba846239"},"vehicle_type_id":"4","last_reported":1750446479,"current_range_meters":20400,"station_id":"ce4bhlh2rcd13ifvqgig","pricing_plan_id":"cebpf4jnsgd1na2vs0mg"},{"bike_id":"c2d668c8-980c-4982-9ffb-fbdb82f5fac8","system_id":"levelo_inurba_marseille","lat":43.24069,"lon":5.37762,"is_reserved":false,"is_disabled":false,"rental_uris":{"android":"levelo://app?vid=c2d668c8-980c-4982-9ffb-fbdb82f5fac8","ios":"levelo://app?vid=c2d668c8-980c-4982-9ffb-fbdb82f5fac8"},"vehicle_type_id":"4","last_reported":1750446479,"current_range_meters":20400,"station_id":"ce4bhnp2rcd13ifvqgvg","pricing_plan_id":"cebpf4jnsgd1na2vs0mg"},{"bike_id":"09c97d52-fbc6-47bd-9c3b-07105eb4c825","system_id":"levelo_inurba_marseille","lat":43.2989,"lon":5.43649,"is_reserved":false,"is_disabled":false,"rental_uris":{"android":"levelo://app?vid=09c97d52-fbc6-47bd-9c3b-07105eb4c825","ios":"levelo://app?vid=09c97d52-fbc6-47bd-9c3b-07105eb4c825"},"vehicle_type_id":"4","last_reported":1750446479,"current_range_meters":20400,"station_id":"ce4bhpp2rcd13ifvqhfg","pricing_plan_id":"cebpf4jnsgd1na2vs0mg"},{"bike_id":"940a773f-6115-488f-a1b7-1fd9ccc18b0d","system_id":"levelo_inurba_marseille","lat":43.29314,"lon":5.37031,"is_reserved":false,"is_disabled":false,"rental_uris":{"android":"levelo://app?vid=940a773f-6115-488f-a1b7-1fd9ccc18b0d","ios":"levelo://app?vid=940a773f-6115-488f-a1b7-1fd9ccc18b0d"},"vehicle_type_id":"4","last_reported":1750446479,"current_range_meters":20800,"station_id":"","pricing_plan_id":"cebpf4jnsgd1na2vs0mg"},{"bike_id":"13abc963-5f82-4f54-94e5-bf3a89dbbb04","system_id":"levelo_inurba_marseille","lat":43.26224,"lon":5.37432,"is_reserved":false,"is_disabled":false,"rental_uris":{"android":"levelo://app?vid=13abc963-5f82-4f54-94e5-bf3a89dbbb04","ios":"levelo://app?vid=13abc963-5f82-4f54-94e5-bf3a89dbbb04"},"vehicle_type_id":"4","last_reported":1750446479,"current_range_meters":20800,"station_id":"","pricing_plan_id":"cebpf4jnsgd1na2vs0mg"},{"bike_id":"01a6aaae-a464-485e-8f00-63dc265517b4","system_id":"levelo_inurba_marseille","lat":43.294434,"lon":5.385674,"is_reserved":false,"is_disabled":false,"rental_uris":{"android":"levelo://app?vid=01a6aaae-a464-485e-8f00-63dc265517b4","ios":"levelo://app?vid=01a6aaae-a464-485e-8f00-63dc265517b4"},"vehicle_type_id":"4","last_reported":1750446479,"current_range_meters":20800,"station_id":"","pricing_plan_id":"cebpf4jnsgd1na2vs0mg"},{"bike_id":"83704ef3-3805-4b85-9d85-c87178a9b74a","system_id":"levelo_inurba_marseille","lat":43.29202,"lon":5.39321,"is_reserved":false,"is_disabled":false,"rental_uris":{"android":"levelo://app?vid=83704ef3-3805-4b85-9d85-c87178a9b74a","ios":"levelo://app?vid=83704ef3-3805-4b85-9d85-c87178a9b74a"},"vehicle_type_id":"4","last_reported":1750446479,"current_range_meters":20800,"station_id":"ce4bh192rcd13ifvqdd0","pricing_plan_id":"cebpf4jnsgd1na2vs0mg"},{"bike_id":"072dd4e1-166d-4ee9-8029-9418ccfe49aa","system_id":"levelo_inurba_marseille","lat":43.29034,"lon":5.38639,"is_reserved":false,"is_disabled":false,"rental_uris":{"android":"levelo://app?vid=072dd4e1-166d-4ee9-8029-9418ccfe49aa","ios":"levelo://app?vid=072dd4e1-166d-4ee9-8029-9418ccfe49aa"},"vehicle_type_id":"4","last_reported":1750446479,"current_range_meters":20800,"station_id":"ce4bh4p2rcd13ifvqe0g","pricing_plan_id":"cebpf4jnsgd1na2vs0mg"},{"bike_id":"e9da0f9d-e474-4706-8d65-75106e99b54b","system_id":"levelo_inurba_marseille","lat":43.27367,"lon":5.36245,"is_reserved":false,"is_disabled":false,"rental_uris":{"android":"levelo://app?vid=e9da0f9d-e474-4706-8d65-75106e99b54b","ios":"levelo://app?vid=e9da0f9d-e474-4706-8d65-75106e99b54b"},"vehicle_type_id":"4","last_reported":1750446479,"current_range_meters":20800,"station_id":"ce4bhbh2rcd13ifvqeo0","pricing_plan_id":"cebpf4jnsgd1na2vs0mg"},{"bike_id":"a8a300c1-77ba-4ee6-83f5-cfb0632fe426","system_id":"levelo_inurba_marseille","lat":43.2841,"lon":5.34987,"is_reserved":false,"is_disabled":false,"rental_uris":{"android":"levelo://app?vid=a8a300c1-77ba-4ee6-83f5-cfb0632fe426","ios":"levelo://app?vid=a8a300c1-77ba-4ee6-83f5-cfb0632fe426"},"vehicle_type_id":"4","last_reported":1750446479,"current_range_meters":20800,"station_id":"ce4bhbh2rcd13ifvqepg","pricing_plan_id":"cebpf4jnsgd1na2vs0mg"},{"bike_id":"71e6c8b5-8a77-4a00-9c0d-eff8fe9c6468","system_id":"levelo_inurba_marseille","lat":43.27618,"lon":5.36108,"is_reserved":false,"is_disabled":false,"rental_uris":{"android":"levelo://app?vid=71e6c8b5-8a77-4a00-9c0d-eff8fe9c6468","ios":"levelo://app?vid=71e6c8b5-8a77-4a00-9c0d-eff8fe9c6468"},