{"last_updated":1679850363,"ttl":30,"version":"2.2","data":{"bikes":[{"bike_id":"a7dd61c8-6f21-473e-9c4f-4ebc8c6d990a","system_id":"levelo_inurba_marseille","lat":43.312239,"lon":5.368562,"is_reserved":false,"is_disabled":false,"rental_uris":{"android":"levelo://app?vid=a7dd61c8-6f21-473e-9c4f-4ebc8c6d990a","ios":"levelo://app?vid=a7dd61c8-6f21-473e-9c4f-4ebc8c6d990a"},"vehicle_type_id":"4","last_reported":1679850364,"current_range_meters":0,"station_id":"ce4bgl92rcd13ifvqbq0","pricing_plan_id":"free"},{"bike_id":"128ef8e7-1ad7-48a5-9211-7062186112f8","system_id":"levelo_inurba_marseille","lat":43.312239,"lon":5.368562,"is_reserved":false,"is_disabled":false,"rental_uris":{"android":"levelo://app?vid=128ef8e7-1ad7-48a5-9211-7062186112f8","ios":"levelo://app?vid=128ef8e7-1ad7-48a5-9211-7062186112f8"},"vehicle_type_id":"4","last_reported":1679850364,"current_range_meters":8800,"station_id":"ce4bgl92rcd13ifvqbq0","pricing_plan_id":"free"},{"bike_id":"1846b9cc-418f-4d1f-8a78-c365ea453280","system_id":"levelo_inurba_marseille","lat":43.312239,"lon":5.368562,"is_reserved":false,"is_disabled":false,"rental_uris":{"android":"levelo://app?vid=1846b9cc-418f-4d1f-8a78-c365ea453280","ios":"levelo://app?vid=1846b9cc-418f-4d1f-8a78-c365ea453280"},"vehicle_type_id":"4","last_reported":1679850364,"current_range_meters":800,"station_id":"ce4bgl92rcd13ifvqbq0","pricing_plan_id":"free"},{"bike_id":"7c26a62f-ce74-4ab8-94de-57f219d20a3a","system_id":"levelo_inurba_marseille","lat":43.312239,"lon":5.368562,"is_reserved":false,"is_disabled":false,"rental_uris":{"android":"levelo://app?vid=7c26a62f-ce74-4ab8-94de-57f219d20a3a","ios":"levelo://app?vid=7c26a62f-ce74-4ab8-94de-57f219d20a3a"},"vehicle_type_id":"4","last_reported":1679850364,"current_range_meters":400,"station_id":"ce4bgl92rcd13ifvqbq0","pricing_plan_id":"free"},{"bike_id":"32fa8b40-4a2e-417b-aec7-7964e761fa61","system_id":"levelo_inurba_marseille","lat":43.313948,"lon":5.375648,"is_reserved":false,"is_disabled":false,"rental_uris":{"android":"levelo://app?vid=32fa8b40-4a2e-417b-aec7-7964e761fa61","ios":"levelo://app?vid=32fa8b40-4a2e-417b-aec7-7964e761fa61"},"vehicle_type_id":"4","last_reported":1679850364,"current_range_meters":0,"station_id":"","pricing_plan_id":"free"},{"bike_id":"2d50656f-a700-4918-acd9-d6e76fa15ae3","system_id":"levelo_inurba_marseille","lat":43.30612,"lon":5.37232,"is_reserved":false,"is_disabled":false,"rental_uris":{"android":"levelo://app?vid=2d50656f-a700-4918-acd9-d6e76fa15ae3","ios":"levelo://app?vid=2d50656f-a700-4918-acd9-d6e76fa15ae3"},"vehicle_type_id":"4","last_reported":1679850364,"current_range_meters":2800,"station_id":"","pricing_plan_id":"free"},{"bike_id":"b8a27992-17a4-4c26-9d25-d77976be6bc3","system_id":"levelo_inurba_marseille","lat":43.305989,"lon":5.37225,"is_reserved":false,"is_disabled":false,"rental_uris":{"android":"levelo://app?vid=b8a27992-17a4-4c26-9d25-d77976be6bc3","ios":"levelo://app?vid=b8a27992-17a4-4c26-9d25-d77976be6bc3"},"vehicle_type_id":"4","last_reported":1679850364,"current_range_meters":0,"station_id":"ce4bgqh2rcd13ifvqc4g","pricing_plan_id":"free"},{"bike_id":"1d38f79a-97e8-4f54-8db8-17f46ff8079c","system_id":"levelo_inurba_marseille","lat":43.305989,"lon":5.37225,"is_reserved":false,"is_disabled":false,"rental_uris":{"android":"levelo://app?vid=1d38f79a-97e8-4f54-8db8-17f46ff8079c","ios":"levelo://app?vid=1d38f79a-97e8-4f54-8db8-17f46ff8079c"},"vehicle_type_id":"4","last_reported":1679850364,"current_range_meters":8000,"station_id":"ce4bgqh2rcd13ifvqc4g","pricing_plan_id":"free"},{"bike_id":"db3c8a58-c66c-42bf-846d-78672da18a6c","system_id":"levelo_inurba_marseille","lat":43.30808,"lon":5.3815,"is_reserved":false,"is_disabled":false,"rental_uris":{"android":"levelo://app?vid=db3c8a58-c66c-42bf-846d-78672da18a6c","ios":"levelo://app?vid=db3c8a58-c66c-42bf-846d-78672da18a6c"},"vehicle_type_id":"4","last_reported":1679850364,"current_range_meters":0,"station_id":"","pricing_plan_id":"free"},{"bike_id":"456a45c9-cc9d-4696-8cfa-7e27a005cca2","system_id":"levelo_inurba_marseille","lat":43.308057,"lon":5.38151,"is_reserved":false,"is_disabled":false,"rental_uris":{"android":"levelo://app?vid=456a45c9-cc9d-4696-8cfa-7e27a005cca2","ios":"levelo://app?vid=456a45c9-cc9d-4696-8cfa-7e27a005cca2"},"vehicle_type_id":"4","last_reported":1679850364,"current_range_meters":0,"station_id":"ce4bgt12rcd13ifvqce0","pricing_plan_id":"free"},{"bike_id":"3ba873c1-78f9-4c45-9f2d-f9c79065082f","system_id":"levelo_inurba_marseille","lat":43.30804,"lon":5.381582,"is_reserved":false,"is_disabled":false,"rental_uris":{"android":"levelo://app?vid=3ba873c1-78f9-4c45-9f2d-f9c79065082f","ios":"levelo://app?vid=3ba873c1-78f9-4c45-9f2d-f9c79065082f"},"vehicle_type_id":"4","last_reported":1679850364,"current_range_meters":0,"station_id":"","pricing_plan_id":"free"},{"bike_id":"c5d038fd-1678-4bce-83c4-b4621e238bfa","system_id":"levelo_inurba_marseille","lat":43.304606,"lon":5.379026,"is_reserved":false,"is_disabled":false,"rental_uris":{"android":"levelo://app?vid=c5d038fd-1678-4bce-83c4-b4621e238bfa","ios":"levelo://app?vid=c5d038fd-1678-4bce-83c4-b4621e238bfa"},"vehicle_type_id":"4","last_reported":1679850364,"current_range_meters":4000,"station_id":"ce4bgup2rcd13ifvqcn0","pricing_plan_id":"free"},{"bike_id":"598b365a-1768-4133-bf1c-b1da8ff2c30c","system_id":"levelo_inurba_marseille","lat":43.313715,"lon":5.384935,"is_reserved":false,"is_disabled":false,"rental_uris":{"android":"levelo://app?vid=598b365a-1768-4133-bf1c-b1da8ff2c30c","ios":"levelo://app?vid=598b365a-1768-4133-bf1c-b1da8ff2c30c"},"vehicle_type_id":"4","last_reported":1679850364,"current_range_meters":3600,"station_id":"ce4bgt92rcd13ifvqcf0","pricing_plan_id":"free"},{"bike_id":"767ff5d9-b228-4830-bee6-ead416397466","system_id":"levelo_inurba_marseille","lat":43.313571,"lon":5.384829,"is_reserved":false,"is_disabled":false,"rental_uris":{"android":"levelo://app?vid=767ff5d9-b228-4830-bee6-ead416397466","ios":"levelo://app?vid=767ff5d9-b228-4830-bee6-ead416397466"},"vehicle_type_id":"4","last_reported":1679850364,"current_range_meters":5600,"station_id":"ce4bgt92rcd13ifvqcf0","pricing_plan_id":"free"},{"bike_id":"e05c3c06-4743-4a91-8665-b517c832593a","system_id":"levelo_inurba_marseille","lat":43.313737,"lon":5.385033,"is_reserved":false,"is_disabled":false,"rental_uris":{"android":"levelo://app?vid=e05c3c06-4743-4a91-8665-b517c832593a","ios":"levelo://app?vid=e05c3c06-4743-4a91-8665-b517c832593a"},"vehicle_type_id":"4","last_reported":1679850364,"current_range_meters":5200,"station_id":"","pricing_plan_id":"free"},{"bike_id":"a7d6bc48-e776-482b-8ad9-8b88fbde9d33","system_id":"levelo_inurba_marseille","lat":43.32598,"lon":5.35896,"is_reserved":false,"is_disabled":false,"rental_uris":{"android":"levelo://app?vid=a7d6bc48-e776-482b-8ad9-8b88fbde9d33","ios":"levelo://app?vid=a7d6bc48-e776-482b-8ad9-8b88fbde9d33"},"vehicle_type_id":"4","last_reported":1679850364,"current_range_meters":0,"station_id":"","pricing_plan_id":"free"},{"bike_id":"74a02db1-91bb-4ca5-8d3e-bccebaa22e50","system_id":"levelo_inurba_marseille","lat":43.297876,"lon":5.371008,"is_reserved":false,"is_disabled":false,"rental_uris":{"android":"levelo://app?vid=74a02db1-91bb-4ca5-8d3e-bccebaa22e50","ios":"levelo://app?vid=74a02db1-91bb-4ca5-8d3e-bccebaa22e50"},"vehicle_type_id":"4","last_reported":1679850364,"current_range_meters":0,"station_id":"","pricing_plan_id":"free"},{"bike_id":"c1f71268-fac9-4d9e-b535-327884c4e28f","system_id":"levelo_inurba_marseille","lat":43.309589,"lon":5.390258,"is_reserved":false,"is_disabled":false,"rental_uris":{"android":"levelo://app?vid=c1f71268-fac9-4d9e-b535-327884c4e28f","ios":"levelo://app?vid=c1f71268-fac9-4d9e-b535-327884c4e28f"},"vehicle_type_id":"4","last_reported":1679850364,"current_range_meters":0,"station_id":"ce4bgup2rcd13ifvqco0","pricing_plan_id":"free"},{"bike_id":"a9eaccc0-5b16-4c25-9cb1-518fea6fddc2","system_id":"levelo_inurba_marseille","lat":43.295729,"lon":5.375033,"is_reserved":false,"is_disabled":false,"rental_uris":{"android":"levelo://app?vid=a9eaccc0-5b16-4c25-9cb1-518fea6fddc2","ios":"levelo://app?vid=a9eaccc0-5b16-4c25-9cb1-518fea6fddc2"},"vehicle_type_id":"4","last_reported":1679850364,"current_range_meters":0,"station_id":"ce4bgh92rcd13ifvqb50","pricing_plan_id":"free"},{"bike_id":"91d376da-f870-457c-b828-f21398c5c538","system_id":"levelo_inurba_marseille","lat":43.295695,"lon":5.375174,"is_reserved":false,"is_disabled":false,"rental_uris":{"android":"levelo://app?vid=91d376da-f870-457c-b828-f21398c5c538","ios":"levelo://app?vid=91d376da-f870-457c-b828-f21398c5c538"},"vehicle_type_id":"4","last_reported":1679850364,"current_range_meters":0,"station_id":"","pricing_plan_id":"free"},{"bike_id":"5763ee4f-4df3-4c94-90ea-5cdde2ba16ff","system_id":"levelo_inurba_marseille","lat":43.32332,"lon":5.38707,"is_reserved":false,"is_disabled":false,"rental_uris":{"android":"levelo://app?vid=5763ee4f-4df3-4c94-90ea-5cdde2ba16ff","ios":"levelo://app?vid=5763ee4f-4df3-4c94-90ea-5cdde2ba16ff"},"vehicle_type_id":"4","last_reported":1679850364,"current_range_meters":5600,"station_id":"","pricing_plan_id":"free"},{"bike_id":"22bd96c0-ff9a-4dd8-96de-d86d3758d4d9","system_id":"levelo_inurba_marseille","lat":43.2966,"lon":5.37815,"is_reserved":false,"is_disabled":false,"rental_uris":{"android":"levelo://app?vid=22bd96c0-ff9a-4dd8-96de-d86d3758d4d9","ios":"levelo://app?vid=22bd96c0-ff9a-4dd8-96de-d86d3758d4d9"},"vehicle_type_id":"4","last_reported":1679850364,"current_range_meters":0,"station_id":"ce4bgi92rcd13ifvqb90","pricing_plan_id":"free"},{"bike_id":"81a2f742-176a-4285-8add-bad1de90066c","system_id":"levelo_inurba_marseille","lat":43.295279,"lon":5.375048,"is_reserved":false,"is_disabled":false,"rental_uris":{"android":"levelo://app?vid=81a2f742-176a-4285-8add-bad1de90066c","ios":"levelo://app?vid=81a2f742-176a-4285-8add-bad1de90066c"},"vehicle_type_id":"4","last_reported":1679850364,"current_range_meters":400,"station_id":"ce4bgkp2rcd13ifvqbmg","pricing_plan_id":"free"},{"bike_id":"d41698af-9177-4760-b567-030067d18b13","system_id":"levelo_inurba_marseille","lat":43.299707,"lon":5.384859,"is_reserved":false,"is_disabled":false,"rental_uris":{"android":"levelo://app?vid=d41698af-9177-4760-b567-030067d18b13","ios":"levelo://app?vid=d41698af-9177-4760-b567-030067d18b13"},"vehicle_type_id":"4","last_reported":1679850364,"current_range_meters":800,"station_id":"ce4bgj92rcd13ifvqbd0","pricing_plan_id":"free"},{"bike_id":"f7979f41-a2eb-4b65-9e0c-3157d971ae7d","system_id":"levelo_inurba_marseille","lat":43.29517,"lon":5.3751,"is_reserved":false,"is_disabled":false,"rental_uris":{"android":"levelo://app?vid=f7979f41-a2eb-4b65-9e0c-3157d971ae7d","ios":"levelo://app?vid=f7979f41-a2eb-4b65-9e0c-3157d971ae7d"},"vehicle_type_id":"4","last_reported":1679850364,"current_range_meters":0,"station_id":"","pricing_plan_id":"free"},{"bike_id":"3860e9e8-2acd-42ea-ad1f-c9dd1b0e5ef7","system_id":"levelo_inurba_marseille","lat":43.29515,"lon":5.37511,"is_reserved":false,"is_disabled":false,"rental_uris":{"android":"levelo://app?vid=3860e9e8-2acd-42ea-ad1f-c9dd1b0e5ef7","ios":"levelo://app?vid=3860e9e8-2acd-42ea-ad1f-c9dd1b0e5ef7"},"vehicle_type_id":"4","last_reported":1679850364,"current_range_meters":0,"station_id":"","pricing_plan_id":"free"},{"bike_id":"7b3914bf-565f-4a97-a036-653b4f80a09e","system_id":"levelo_inurba_marseille","lat":43.323687,"lon":5.38887,"is_reserved":false,"is_disabled":false,"rental_uris":{"android":"levelo://app?vid=7b3914bf-565f-4a97-a036-653b4f80a09e","ios":"levelo://app?vid=7b3914bf-565f-4a97-a036-653b4f80a09e"},"vehicle_type_id":"4","last_reported":1679850364,"current_range_meters":4000,"station_id":"","pricing_plan_id":"free"},{"bike_id":"33b08352-69e2-49f3-adfa-942dec018d1c","system_id":"levelo_inurba_marseille","lat":43.293249,"lon":5.371578,"is_reserved":false,"is_disabled":false,"rental_uris":{"android":"levelo://app?vid=33b08352-69e2-49f3-adfa-942dec018d1c","ios":"levelo://app?vid=33b08352-69e2-49f3-adfa-942dec018d1c"},"vehicle_type_id":"4","last_reported":1679850364,"current_range_meters":0,"station_id":"ce4bgh92rcd13ifvqb40","pricing_plan_id":"free"},{"bike_id":"e9dc5b3f-aefc-4986-8b29-4efecc90e47f","system_id":"levelo_inurba_marseille","lat":43.293249,"lon":5.371578,"is_reserved":false,"is_disabled":false,"rental_uris":{"android":"levelo://app?vid=e9dc5b3f-aefc-4986-8b29-4efecc90e47f","ios":"levelo://app?vid=e9dc5b3f-aefc-4986-8b29-4efecc90e47f"},"vehicle_type_id":"4","last_reported":1679850364,"current_range_meters":28400,"station_id":"ce4bgh92rcd13ifvqb40","pricing_plan_id":"free"},{"bike_id":"2409d1d7-8966-4f1c-b5e3-f59e3fb1d446","system_id":"levelo_inurba_marseille","lat":43.305994,"lon":5.393687,"is_reserved":false,"is_disabled":false,"rental_uris":{"android":"levelo://app?vid=2409d1d7-8966-4f1c-b5e3-f59e3fb1d446","ios":"levelo://app?vid=2409d1d7-8966-4f1c-b5e3-f59e3fb1d446"},"vehicle_type_id":"4","last_reported":1679850364,"current_range_meters":0,"station_id":"ce4bh0p2rcd13ifvqd80","pricing_plan_id":"free"},{"bike_id":"55ca6b26-da7c-4303-a49a-5d295dda82d8","system_id":"levelo_inurba_marseille","lat":43.292311,"lon":5.360731,"is_reserved":false,"is_disabled":false,"rental_uris":{"android":"levelo://app?vid=55ca6b26-da7c-4303-a49a-5d295dda82d8","ios":"levelo://app?vid=55ca6b26-da7c-4303-a49a-5d295dda82d8"},"vehicle_type_id":"4","last_reported":1679850364,"current_range_meters":2400,"station_id":"ce4bhbh2rcd13ifvqeqg","pricing_plan_id":"free"},{"bike_id":"10cc924a-9984-4813-9317-93e33faa8261","system_id":"levelo_inurba_marseille","lat":43.292256,"lon":5.360656,"is_reserved":false,"is_disabled":false,"rental_uris":{"android":"levelo://app?vid=10cc924a-9984-4813-9317-93e33faa8261","ios":"levelo://app?vid=10cc924a-9984-4813-9317-93e33faa8261"},"vehicle_type_id":"4","last_reported":1679850364,"current_range_meters":8800,"station_id":"ce4bhbh2rcd13ifvqeqg","pricing_plan_id":"free"},{"bike_id":"cbf67b82-dce5-4075-b29f-fde636e3c1e1","system_id":"levelo_inurba_marseille","lat":43.29529,"lon":5.385581,"is_reserved":false,"is_disabled":false,"rental_uris":{"android":"levelo://app?vid=cbf67b82-dce5-4075-b29f-fde636e3c1e1","ios":"levelo://app?vid=cbf67b82-dce5-4075-b29f-fde636e3c1e1"},"vehicle_type_id":"4","last_reported":1679850364,"current_range_meters":0,"station_id":"ce4bgih2rcd13ifvqba0","pricing_plan_id":"free"},{"bike_id":"3da1b98f-82a4-4ebd-b9ab-ec40d835c63a","system_id":"levelo_inurba_marseille","lat":43.29422,"lon":5.386294,"is_reserved":false,"is_disabled":false,"rental_uris":{"android":"levelo://app?vid=3da1b98f-82a4-4ebd-b9ab-ec40d835c63a","ios":"levelo://app?vid=3da1b98f-82a4-4ebd-b9ab-ec40d835c63a"},"vehicle_type_id":"4","last_reported":1679850364,"current_range_meters":800,"station_id":"ce4bh2h2rcd13ifvqdh0","pricing_plan_id":"free"},{"bike_id":"3d3345cf-323a-4664-a549-1a6029f09698","system_id":"levelo_inurba_marseille","lat":43.28942,"lon":5.36634,"is_reserved":false,"is_disabled":false,"rental_uris":{"android":"levelo://app?vid=3d3345cf-323a-4664-a549-1a6029f09698","ios":"levelo://app?vid=3d3345cf-323a-4664-a549-1a6029f09698"},"vehicle_type_id":"4","last_reported":1679850364,"current_range_meters":0,"station_id":"ce4bhap2rcd13ifvqek0","pricing_plan_id":"free"},{"bike_id":"83440258-975a-4061-93e6-870d8a653f9e","system_id":"levelo_inurba_marseille","lat":43.289417,"lon":5.366311,"is_reserved":false,"is_disabled":false,"rental_uris":{"android":"levelo://app?vid=83440258-975a-4061-93e6-870d8a653f9e","ios":"levelo://app?vid=83440258-975a-4061-93e6-870d8a653f9e"},"vehicle_type_id":"4","last_reported":1679850364,"current_range_meters":0,"station_id":"ce4bhap2rcd13ifvqek0","pricing_plan_id":"free"},{"bike_id":"5fba4d48-adbb-46c3-9db8-ae846870119c","system_id":"levelo_inurba_marseille","lat":43.290104,"lon":5.356111,"is_reserved":false,"is_disabled":false,"rental_uris":{"android":"levelo://app?vid=5fba4d48-adbb-46c3-9db8-ae846870119c","ios":"levelo://app?vid=5fba4d48-adbb-46c3-9db8-ae846870119c"},"vehicle_type_id":"4","last_reported":1679850364,"current_range_meters":26800,"station_id":"ce4bhb92rcd13ifvqen0","pricing_plan_id":"free"},{"bike_id":"c213d0f3-9448-481d-b6fd-f01ca449327d","system_id":"levelo_inurba_marseille","lat":43.330442,"lon":5.389148,"is_reserved":false,"is_disabled":false,"rental_uris":{"android":"levelo://app?vid=c213d0f3-9448-481d-b6fd-f01ca449327d","ios":"levelo://app?vid=c213d0f3-9448-481d-b6fd-f01ca449327d"},"vehicle_type_id":"4","last_reported":1679850364,"current_range_meters":4400,"station_id":"ce4bhr92rcd13ifvqhrg","pricing_plan_id":"free"},{"bike_id":"c1ddeef4-110d-44fb-bd3d-6b3ad893468a","system_id":"levelo_inurba_marseille","lat":43.330442,"lon":5.389148,"is_reserved":false,"is_disabled":false,"rental_uris":{"android":"levelo://app?vid=c1ddeef4-110d-44fb-bd3d-6b3ad893468a","ios":"levelo://app?vid=c1ddeef4-110d-44fb-bd3d-6b3ad893468a"},"vehicle_type_id":"4","last_reported":1679850364,"current_range_meters":0,"station_id":"ce4bhr92rcd13ifvqhrg","pricing_plan_id":"free"},{"bike_id":"f01dc02e-0f5e-46a7-8b1c-5fffa83e3a27","system_id":"levelo_inurba_marseille","lat":43.330442,"lon":5.389148,"is_reserved":false,"is_disabled":false,"rental_uris":{"android":"levelo://app?vid=f01dc02e-0f5e-46a7-8b1c-5fffa83e3a27","ios":"levelo://app?vid=f01dc02e-0f5e-46a7-8b1c-5fffa83e3a27"},"vehicle_type_id":"4","last_reported":1679850364,"current_range_meters":400,"station_id":"ce4bhr92rcd13ifvqhrg","pricing_plan_id":"free"},{"bike_id":"a182832c-2029-4308-be39-367cbc7a403a","system_id":"levelo_inurba_marseille","lat":43.290995,"lon":5.381361,"is_reserved":false,"is_disabled":false,"rental_uris":{"android":"levelo://app?vid=a182832c-2029-4308-be39-367cbc7a403a","ios":"levelo://app?vid=a182832c-2029-4308-be39-367cbc7a403a"},"vehicle_type_id":"4","last_reported":1679850364,"current_range_meters":0,"station_id":"ce4bh512rcd13ifvqe2g","pricing_plan_id":"free"},{"bike_id":"5dbe79cc-8fb2-4919-b431-be73ab496c56","system_id":"levelo_inurba_marseille","lat":43.337463,"lon":5.37464,"is_reserved":false,"is_disabled":false,"rental_uris":{"android":"levelo://app?vid=5dbe79cc-8fb2-4919-b431-be73ab496c56","ios":"levelo://app?vid=5dbe79cc-8fb2-4919-b431-be73ab496c56"},"vehicle_type_id":"4","last_reported":1679850364,"current_range_meters":28400,"station_id":"","pricing_plan_id":"free"},{"bike_id":"ce70bd09-b4ce-463a-9f46-f7989565c7cb","system_id":"levelo_inurba_marseille","lat":43.295143,"lon":5.394033,"is_reserved":false,"is_disabled":false,"rental_uris":{"android":"levelo://app?vid=ce70bd09-b4ce-463a-9f46-f7989565c7cb","ios":"levelo://app?vid=ce70bd09-b4ce-463a-9f46-f7989565c7cb"},"vehicle_type_id":"4","last_reported":1679850364,"current_range_meters":0,"station_id":"","pricing_plan_id":"free"},{"bike_id":"3a447256-f942-4571-adc6-6830e0aa30e9","system_id":"levelo_inurba_marseille","lat":43.29509,"lon":5.39399,"is_reserved":false,"is_disabled":false,"rental_uris":{"android":"levelo://app?vid=3a447256-f942-4571-adc6-6830e0aa30e9","ios":"levelo://app?vid=3a447256-f942-4571-adc6-6830e0aa30e9"},"vehicle_type_id":"4","last_reported":1679850364,"current_range_meters":10400,"station_id":"ce4bh212rcd13ifvqde0","pricing_plan_id":"free"},{"bike_id":"f87393af-836d-4da2-993f-b2a716cedecd","system_id":"levelo_inurba_marseille","lat":43.290205,"lon":5.386476,"is_reserved":false,"is_disabled":false,"rental_uris":{"android":"levelo://app?vid=f87393af-836d-4da2-993f-b2a716cedecd","ios":"levelo://app?vid=f87393af-836d-4da2-993f-b2a716cedecd"},"vehicle_type_id":"4","last_reported":1679850364,"current_range_meters":400,"station_id":"ce4bh4p2rcd13ifvqe0g","pricing_plan_id":"free"},{"bike_id":"293152ec-715b-4b0d-9d98-d13914c0afd0","system_id":"levelo_inurba_marseille","lat":43.290168,"lon":5.3865,"is_reserved":false,"is_disabled":false,"rental_uris":{"android":"levelo://app?vid=293152ec-715b-4b0d-9d98-d13914c0afd0","ios":"levelo://app?vid=293152ec-715b-4b0d-9d98-d13914c0afd0"},"vehicle_type_id":"4","last_reported":1679850364,"current_range_meters":800,"station_id":"ce4bh4p2rcd13ifvqe0g","pricing_plan_id":"free"},{"bike_id":"a0fdca2c-3cfe-4263-8270-3ccac4b1a017","system_id":"levelo_inurba_marseille","lat":43.302468,"lon":5.400883,"is_reserved":false,"is_disabled":false,"rental_uris":{"android":"levelo://app?vid=a0fdca2c-3cfe-4263-8270-3ccac4b1a017","ios":"levelo://app?vid=a0fdca2c-3cfe-4263-8270-3ccac4b1a017"},"vehicle_type_id":"4","last_reported":1679850364,"current_range_meters":2400,"station_id":"","pricing_plan_id":"free"},{"bike_id":"1d191d97-77b6-405a-b9c2-5f5dd1945ecd","system_id":"levelo_inurba_marseille","lat":43.326546,"lon":5.398447,"is_reserved":false,"is_disabled":false,"rental_uris":{"android":"levelo://app?vid=1d191d97-77b6-405a-b9c2-5f5dd1945ecd","ios":"levelo://app?vid=1d191d97-77b6-405a-b9c2-5f5dd1945ecd"},"vehicle_type_id":"4","last_reported":1679850364,"current_range_meters":5600,"station_id":"","pricing_plan_id":"free"},{"bike_id":"e7820790-46f5-478c-9b51-eaee0157722c","system_id":"levelo_inurba_marseille","lat":43.287117,"lon":5.379408,"is_reserved":false,"is_disabled":false,"rental_uris":{"android":"levelo://app?vid=e7820790-46f5-478c-9b51-eaee0157722c","ios":"levelo://app?vid=e7820790-46f5-478c-9b51-eaee0157722c"},"vehicle_type_id":"4","last_reported":1679850364,"current_range_meters":0,"station_id":"","pricing_plan_id":"free"},{"bike_id":"7f0291ee-b3cb-4b7d-9787-6c46b2a3514f","system_id":"levelo_inurba_marseille","lat":43.316517,"lon":5.404375,"is_reserved":false,"is_disabled":false,"rental_uris":{"android":"levelo://app?vid=7f0291ee-b3cb-4b7d-9787-6c46b2a3514f","ios":"levelo://app?vid=7f0291ee-b3cb-4b7d-9787-6c46b2a3514f"},"vehicle_type_id":"4","last_reported":1679850364,"current_range_meters":0,"station_id":"ce4bh012rcd13ifvqd00","pricing_plan_id":"free"},{"bike_id":"fb935010-c4a3-452c-9fd5-cd3a52c656f4","system_id":"levelo_inurba_marseille","lat":43.316395,"lon":5.404542,"is_reserved":false,"is_disabled":false,"rental_uris":{"android":"levelo://app?vid=fb935010-c4a3-452c-9fd5-cd3a52c656f4","ios":"levelo://app?vid=fb935010-c4a3-452c-9fd5-cd3a52c656f4"},"vehicle_type_id":"4","last_reported":1679850364,"current_range_meters":7600,"station_id":"","pricing_plan_id":"free"},{"bike_id":"a6a41833-5cbc-4165-a08b-90d39c5b0da1","system_id":"levelo_inurba_marseille","lat":43.30032,"lon":5.40104,"is_reserved":false,"is_disabled":false,"rental_uris":{"android":"levelo://app?vid=a6a41833-5cbc-4165-a08b-90d39c5b0da1","ios":"levelo://app?vid=a6a41833-5cbc-4165-a08b-90d39c5b0da1"},"vehicle_type_id":"4","last_reported":1679850364,"current_range_meters":0,"station_id":"","pricing_plan_id":"free"},{"bike_id":"df4bdb35-4037-4233-9538-5356e4e7ed12","system_id":"levelo_inurba_marseille","lat":43.28675,"lon":5.3866,"is_reserved":false,"is_disabled":false,"rental_uris":{"android":"levelo://app?vid=df4bdb35-4037-4233-9538-5356e4e7ed12","ios":"levelo://app?vid=df4bdb35-4037-4233-9538-5356e4e7ed12"},"vehicle_type_id":"4","last_reported":1679850364,"current_range_meters":0,"station_id":"","pricing_plan_id":"free"},{"bike_id":"46100e93-c0f1-4ba6-ae29-6afb7bafe436","system_id":"levelo_inurba_marseille","lat":43.286695,"lon":5.38667,"is_reserved":false,"is_disabled":false,"rental_uris":{"android":"levelo://app?vid=46100e93-c0f1-4ba6-ae29-6afb7bafe436","ios":"levelo://app?vid=46100e93-c0f1-4ba6-ae29-6afb7bafe436"},"vehicle_type_id":"4","last_reported":1679850364,"current_range_meters":6000,"station_id":"ce4bh492rcd13ifvqdug","pricing_plan_id":"free"},{"bike_id":"aacb67f2-47b3-4454-b4eb-54c9fb94ee12","system_id":"levelo_inurba_marseille","lat":43.3339,"lon":5.39632,"is_reserved":false,"is_disabled":false,"rental_uris":{"android":"levelo://app?vid=aacb67f2-47b3-4454-b4eb-54c9fb94ee12","ios":"levelo://app?vid=aacb67f2-47b3-4454-b4eb-54c9fb94ee12"},"vehicle_type_id":"4","last_reported":1679850364,"current_range_meters":5600,"station_id":"","pricing_plan_id":"free"},{"bike_id":"b61dae2d-7f30-4b6f-8985-40c2a439e01f","system_id":"levelo_inurba_marseille","lat":43.284793,"lon":5.384113,"is_reserved":false,"is_disabled":false,"rental_uris":{"android":"levelo://app?vid=b61dae2d-7f30-4b6f-8985-40c2a439e01f","ios":"levelo://app?vid=b61dae2d-7f30-4b6f-8985-40c2a439e01f"},"vehicle_type_id":"4","last_reported":1679850364,"current_range_meters":1200,"station_id":"ce4bh512rcd13ifvqe3g","pricing_plan_id":"free"},{"bike_id":"8b6530b3-f5b2-45b0-b0df-b90254548af2","system_id":"levelo_inurba_marseille","lat":43.289363,"lon":5.396322,"is_reserved":false,"is_disabled":false,"rental_uris":{"android":"levelo://app?vid=8b6530b3-f5b2-45b0-b0df-b90254548af2","ios":"levelo://app?vid=8b6530b3-f5b2-45b0-b0df-b90254548af2"},"vehicle_type_id":"4","last_reported":1679850364,"current_range_meters":0,"station_id":"ce4bh3h2rcd13ifvqdn0","pricing_plan_id":"free"},{"bike_id":"643cfd92-16c1-456a-ae95-384097acaec8","system_id":"levelo_inurba_marseille","lat":43.28039,"lon":5.369297,"is_reserved":false,"is_disabled":false,"rental_uris":{"android":"levelo://app?vid=643cfd92-16c1-456a-ae95-384097acaec8","ios":"levelo://app?vid=643cfd92-16c1-456a-ae95-384097acaec8"},"vehicle_type_id":"4","last_reported":1679850364,"current_range_meters":5600,"station_id":"ce4bha12rcd13ifvqef0","pricing_plan_id":"free"},{"bike_id":"dbdfca20-6124-4d52-bf05-8eb519925b47","system_id":"levelo_inurba_marseille","lat":43.280382,"lon":5.369291,"is_reserved":false,"is_disabled":false,"rental_uris":{"android":"levelo://app?vid=dbdfca20-6124-4d52-bf05-8eb519925b47","ios":"levelo://app?vid=dbdfca20-6124-4d52-bf05-8eb519925b47"},"vehicle_type_id":"4","last_reported":1679850364,"current_range_meters":0,"station_id":"ce4bha12rcd13ifvqef0","pricing_plan_id":"free"},{"bike_id":"7960d35f-8e2d-4d8a-b17d-7e75ada49d6a","system_id":"levelo_inurba_marseille","lat":43.281044,"lon":5.378308,"is_reserved":false,"is_disabled":false,"rental_uris":{"android":"levelo://app?vid=7960d35f-8e2d-4d8a-b17d-7e75ada49d6a","ios":"levelo://app?vid=7960d35f-8e2d-4d8a-b17d-7e75ada49d6a"},"vehicle_type_id":"4","last_reported":1679850364,"current_range_meters":400,"station_id":"ce4bha12rcd13ifvqee0","pricing_plan_id":"free"},{"bike_id":"79d320b8-2e2f-4ed5-86f8-b7b671091018","system_id":"levelo_inurba_marseille","lat":43.281044,"lon":5.378308,"is_reserved":false,"is_disabled":false,"rental_uris":{"android":"levelo://app?vid=79d320b8-2e2f-4ed5-86f8-b7b671091018","ios":"levelo://app?vid=79d320b8-2e2f-4ed5-86f8-b7b671091018"},"vehicle_type_id":"4","last_reported":1679850364,"current_range_meters":2800,"station_id":"ce4bha12rcd13ifvqee0","pricing_plan_id":"free"},{"bike_id":"e599ff27-0a47-4ebb-9b37-ace137a2f1b9","system_id":"levelo_inurba_marseille","lat":43.296263,"lon":5.40601,"is_reserved":false,"is_disabled":false,"rental_uris":{"android":"levelo://app?vid=e599ff27-0a47-4ebb-9b37-ace137a2f1b9","ios":"levelo://app?vid=e599ff27-0a47-4ebb-9b37-ace137a2f1b9"},"vehicle_type_id":"4","last_reported":1679850364,"current_range_meters":2000,"station_id":"ce4bh0h2rcd13ifvqd60","pricing_plan_id":"free"},{"bike_id":"867889ca-a0a5-4e8c-9dc0-88affd1398fe","system_id":"levelo_inurba_marseille","lat":43.296263,"lon":5.40601,"is_reserved":false,"is_disabled":false,"rental_uris":{"android":"levelo://app?vid=867889ca-a0a5-4e8c-9dc0-88affd1398fe","ios":"levelo://app?vid=867889ca-a0a5-4e8c-9dc0-88affd1398fe"},"vehicle_type_id":"4","last_reported":1679850364,"current_range_meters":0,"station_id":"ce4bh0h2rcd13ifvqd60","pricing_plan_id":"free"},{"bike_id":"c0be0ef6-b7d0-4a8c-857d-3a4b71f2f5d0","system_id":"levelo_inurba_marseille","lat":43.284462,"lon":5.392121,"is_reserved":false,"is_disabled":false,"rental_uris":{"android":"levelo://app?vid=c0be0ef6-b7d0-4a8c-857d-3a4b71f2f5d0","ios":"levelo://app?vid=c0be0ef6-b7d0-4a8c-857d-3a4b71f2f5d0"},"vehicle_type_id":"4","last_reported":1679850364,"current_range_meters":3200,"station_id":"ce4bhoh2rcd13ifvqh5g","pricing_plan_id":"free"},{"bike_id":"ae0bfcc7-7f1e-4efb-8c8d-3502b6ffe37f","system_id":"levelo_inurba_marseille","lat":43.29162,"lon":5.40377,"is_reserved":false,"is_disabled":false,"rental_uris":{"android":"levelo://app?vid=ae0bfcc7-7f1e-4efb-8c8d-3502b6ffe37f","ios":"levelo://app?vid=ae0bfcc7-7f1e-4efb-8c8d-3502b6ffe37f"},"vehicle_type_id":"4","last_reported":1679850364,"current_range_meters":0,"station_id":"","pricing_plan_id":"free"},{"bike_id":"fdde2501-2418-4d1d-810f-77def42b304c","system_id":"levelo_inurba_marseille","lat":43.299579,"lon":5.413255,"is_reserved":false,"is_disabled":false,"rental_uris":{"android":"levelo://app?vid=fdde2501-2418-4d1d-810f-77def42b304c","ios":"levelo://app?vid=fdde2501-2418-4d1d-810f-77def42b304c"},"vehicle_type_id":"4","last_reported":1679850364,"current_range_meters":21200,"station_id":"ce4bhp12rcd13ifvqh9g","pricing_plan_id":"free"},{"bike_id":"49677dce-0084-4a97-94f3-18e7e142974b","system_id":"levelo_inurba_marseille","lat":43.320045,"lon":5.415048,"is_reserved":false,"is_disabled":false,"rental_uris":{"android":"levelo://app?vid=49677dce-0084-4a97-94f3-18e7e142974b","ios":"levelo://app?vid=49677dce-0084-4a97-94f3-18e7e142974b"},"vehicle_type_id":"4","last_reported":1679850364,"current_range_meters":0,"station_id":"ce4bhq92rcd13ifvqhkg","pricing_plan_id":"free"},{"bike_id":"9371733e-0545-4fcc-a522-c4f96c0d2fc5","system_id":"levelo_inurba_marseille","lat":43.279742,"lon":5.38744,"is_reserved":false,"is_disabled":false,"rental_uris":{"android":"levelo://app?vid=9371733e-0545-4fcc-a522-c4f96c0d2fc5","ios":"levelo://app?vid=9371733e-0545-4fcc-a522-c4f96c0d2fc5"},"vehicle_type_id":"4","last_reported":1679850364,"current_range_meters":800,"station_id":"ce4bhg12rcd13ifvqf80","pricing_plan_id":"free"},{"bike_id":"c7aa5c9a-4f77-4ef6-878b-aa47b30565c9","system_id":"levelo_inurba_marseille","lat":43.273813,"lon":5.362583,"is_reserved":false,"is_disabled":false,"rental_uris":{"android":"levelo://app?vid=c7aa5c9a-4f77-4ef6-878b-aa47b30565c9","ios":"levelo://app?vid=c7aa5c9a-4f77-4ef6-878b-aa47b30565c9"},"vehicle_type_id":"4","last_reported":1679850364,"current_range_meters":0,"station_id":"ce4bhbh2rcd13ifvqeo0","pricing_plan_id":"free"},{"bike_id":"9544e0da-fa28-4d59-a1c3-4439260138fa","system_id":"levelo_inurba_marseille","lat":43.27379,"lon":5.36256,"is_reserved":false,"is_disabled":false,"rental_uris":{"android":"levelo://app?vid=9544e0da-fa28-4d59-a1c3-4439260138fa","ios":"levelo://app?vid=9544e0da-fa28-4d59-a1c3-4439260138fa"},"vehicle_type_id":"4","last_reported":1679850364,"current_range_meters":0,"station_id":"","pricing_plan_id":"free"},{"bike_id":"3b1d1a29-ea64-4156-b1d6-6ad0d4136b1c","system_id":"levelo_inurba_marseille","lat":43.276666,"lon":5.389089,"is_reserved":false,"is_disabled":false,"rental_uris":{"android":"levelo://app?vid=3b1d1a29-ea64-4156-b1d6-6ad0d4136b1c","ios":"levelo://app?vid=3b1d1a29-ea64-4156-b1d6-6ad0d4136b1c"},"vehicle_type_id":"4","last_reported":1679850364,"current_range_meters":0,"station_id":"ce4bhi12rcd13ifvqfo0","pricing_plan_id":"free"},{"bike_id":"8ae15dcb-64db-4894-9c47-fc4797251206","system_id":"levelo_inurba_marseille","lat":43.317121,"lon":5.423936,"is_reserved":false,"is_disabled":false,"rental_uris":{"android":"levelo://app?vid=8ae15dcb-64db-4894-9c47-fc4797251206","ios":"levelo://app?vid=8ae15dcb-64db-4894-9c47-fc4797251206"},"vehicle_type_id":"4","last_reported":1679850364,"current_range_meters":30000,"station_id":"ce4bhp92rcd13ifvqhbg","pricing_plan_id":"free"},{"bike_id":"6bdc039d-a986-4d12-8348-52e9a010289b","system_id":"levelo_inurba_marseille","lat":43.33094,"lon":5.41971,"is_reserved":false,"is_disabled":false,"rental_uris":{"android":"levelo://app?vid=6bdc039d-a986-4d12-8348-52e9a010289b","ios":"levelo://app?vid=6bdc039d-a986-4d12-8348-52e9a010289b"},"vehicle_type_id":"4","last_reported":1679850364,"current_range_meters":21200,"station_id":"","pricing_plan_id":"free"},{"bike_id":"580a9951-e36a-421b-9ef1-54d603fa6586","system_id":"levelo_inurba_marseille","lat":43.295523,"lon":5.422926,"is_reserved":false,"is_disabled":false,"rental_uris":{"android":"levelo://app?vid=580a9951-e36a-421b-9ef1-54d603fa6586","ios":"levelo://app?vid=580a9951-e36a-421b-9ef1-54d603fa6586"},"vehicle_type_id":"4","last_reported":1679850364,"current_range_meters":1200,"station_id":"ce4bhph2rcd13ifvqhdg","pricing_plan_id":"free"},{"bike_id":"7e70c2bd-1ade-4218-9682-425ba7d332da","system_id":"levelo_inurba_marseille","lat":43.272116,"lon":5.391747,"is_reserved":false,"is_disabled":false,"rental_uris":{"android":"levelo://app?vid=7e70c2bd-1ade-4218-9682-425ba7d332da","ios":"levelo://app?vid=7e70c2bd-1ade-4218-9682-425ba7d332da"},"vehicle_type_id":"4","last_reported":1679850364,"current_range_meters":7200,"station_id":"ce4bhhp2rcd13ifvqfm0","pricing_plan_id":"free"},{"bike_id":"d2f3fd58-f010-42c5-9544-0e3f8a1ea0b1","system_id":"levelo_inurba_marseille","lat":43.278128,"lon":5.407195,"is_reserved":false,"is_disabled":false,"rental_uris":{"android":"levelo://app?vid=d2f3fd58-f010-42c5-9544-0e3f8a1ea0b1","ios":"levelo://app?vid=d2f3fd58-f010-42c5-9544-0e3f8a1ea0b1"},"vehicle_type_id":"4","last_reported":1679850364,"current_range_meters":4400,"station_id":"ce4bhnh2rcd13ifvqgtg","pricing_plan_id":"free"},{"bike_id":"b6724f87-d60e-4e67-b3e5-26c258760d9c","system_id":"levelo_inurba_marseille","lat":43.278128,"lon":5.407195,"is_reserved":false,"is_disabled":false,"rental_uris":{"android":"levelo://app?vid=b6724f87-d60e-4e67-b3e5-26c258760d9c","ios":"levelo://app?vid=b6724f87-d60e-4e67-b3e5-26c258760d9c"},"vehicle_type_id":"4","last_reported":1679850364,"current_range_meters":30400,"station_id":"ce4bhnh2rcd13ifvqgtg","pricing_plan_id":"free"},{"bike_id":"3c7b2e62-ceb5-41bf-bea9-95e01b2ae089","system_id":"levelo_inurba_marseille","lat":43.269252,"lon":5.389142,"is_reserved":false,"is_disabled":false,"rental_uris":{"android":"levelo://app?vid=3c7b2e62-ceb5-41bf-bea9-95e01b2ae089","ios":"levelo://app?vid=3c7b2e62-ceb5-41bf-bea9-95e01b2ae089"},"vehicle_type_id":"4","last_reported":1679850364,"current_range_meters":22400,"station_id":"","pricing_plan_id":"free"},{"bike_id":"57b68ded-989e-4bc6-b97b-d7e7bf5ed660","system_id":"levelo_inurba_marseille","lat":43.26889,"lon":5.38936,"is_reserved":false,"is_disabled":false,"rental_uris":{"android":"levelo://app?vid=57b68ded-989e-4bc6-b97b-d7e7bf5ed660","ios":"levelo://app?vid=57b68ded-989e-4bc6-b97b-d7e7bf5ed660"},"vehicle_type_id":"4","last_reported":1679850364,"current_range_meters":5600,"station_id":"","pricing_plan_id":"free"},{"bike_id":"1235e794-8b28-47c9-94e4-d4b352e3f408","system_id":"levelo_inurba_marseille","lat":43.26549,"lon":5.372949,"is_reserved":false,"is_disabled":false,"rental_uris":{"android":"levelo://app?vid=1235e794-8b28-47c9-94e4-d4b352e3f408","ios":"levelo://app?vid=1235e794-8b28-47c9-94e4-d4b352e3f408"},"vehicle_type_id":"4","last_reported":1679850364,"current_range_meters":0,"station_id":"ce4bhg12rcd13ifvqf70","pricing_plan_id":"free"},{"bike_id":"4124433c-c4cc-480e-af3e-8b172126949d","system_id":"levelo_inurba_marseille","lat":43.267966,"lon":5.393976,"is_reserved":false,"is_disabled":false,"rental_uris":{"android":"levelo://app?vid=4124433c-c4cc-480e-af3e-8b172126949d","ios":"levelo://app?vid=4124433c-c4cc-480e-af3e-8b172126949d"},"vehicle_type_id":"4","last_reported":1679850364,"current_range_meters":400,"station_id":"ce4bhh12rcd13ifvqfg0","pricing_plan_id":"free"},{"bike_id":"f73246e9-16ce-41da-8bd2-2e1252b70a12","system_id":"levelo_inurba_marseille","lat":43.267966,"lon":5.393976,"is_reserved":false,"is_disabled":false,"rental_uris":{"android":"levelo://app?vid=f73246e9-16ce-41da-8bd2-2e1252b70a12","ios":"levelo://app?vid=f73246e9-16ce-41da-8bd2-2e1252b70a12"},"vehicle_type_id":"4","last_reported":1679850364,"current_range_meters":4800,"station_id":"ce4bhh12rcd13ifvqfg0","pricing_plan_id":"free"},{"bike_id":"207dc8b0-a393-429d-becd-8adac143a5d7","system_id":"levelo_inurba_marseille","lat":43.267966,"lon":5.393976,"is_reserved":false,"is_disabled":false,"rental_uris":{"android":"levelo://app?vid=207dc8b0-a393-429d-becd-8adac143a5d7","ios":"levelo://app?vid=207dc8b0-a393-429d-becd-8adac143a5d7"},"vehicle_type_id":"4","last_reported":1679850364,"current_range_meters":4800,"station_id":"ce4bhh12rcd13ifvqfg0","pricing_plan_id":"free"},{"bike_id":"f4da5c1e-bb08-42ce-92e5-2768460b386c","system_id":"levelo_inurba_marseille","lat":43.33186,"lon":5.431807,"is_reserved":false,"is_disabled":false,"rental_uris":{"android":"levelo://app?vid=f4da5c1e-bb08-42ce-92e5-2768460b386c","ios":"levelo://app?vid=f4da5c1e-bb08-42ce-92e5-2768460b386c"},"vehicle_type_id":"4","last_reported":1679850364,"current_range_meters":12000,"station_id":"","pricing_plan_id":"free"},{"bike_id":"9b6952e7-de4d-49fb-8789-c2c1638e61de","system_id":"levelo_inurba_marseille","lat":43.261782,"lon":5.374515,"is_reserved":false,"is_disabled":false,"rental_uris":{"android":"levelo://app?vid=9b6952e7-de4d-49fb-8789-c2c1638e61de","ios":"levelo://app?vid=9b6952e7-de4d-49fb-8789-c2c1638e61de"},"vehicle_type_id":"4","last_reported":1679850364,"current_range_meters":6400,"station_id":"ce4bhgp2rcd13ifvqfc0","pricing_plan_id":"free"},{"bike_id":"dc2654b7-5c45-4bd1-b98a-8cf5b214024d","system_id":"levelo_inurba_marseille","lat":43.33482,"lon":5.43285,"is_reserved":false,"is_disabled":false,"rental_uris":{"android":"levelo://app?vid=dc2654b7-5c45-4bd1-b98a-8cf5b214024d","ios":"levelo://app?vid=dc2654b7-5c45-4bd1-b98a-8cf5b214024d"},"vehicle_type_id":"4","last_reported":1679850364,"current_range_meters":31200,"station_id":"","pricing_plan_id":"free"},{"bike_id":"9b63e297-beef-4731-b9cb-8293c2012e80","system_id":"levelo_inurba_marseille","lat":43.260909,"lon":5.397591,"is_reserved":false,"is_disabled":false,"rental_uris":{"android":"levelo://app?vid=9b63e297-beef-4731-b9cb-8293c2012e80","ios":"levelo://app?vid=9b63e297-beef-4731-b9cb-8293c2012e80"},"vehicle_type_id":"4","last_reported":1679850364,"current_range_meters":6800,"station_id":"ce4bhi12rcd13ifvqfq0","pricing_plan_id":"free"},{"bike_id":"ef50aa90-065a-4a30-8fb3-a8b3a45ce8b5","system_id":"levelo_inurba_marseille","lat":43.255756,"lon":5.382303,"is_reserved":false,"is_disabled":false,"rental_uris":{"android":"levelo://app?vid=ef50aa90-065a-4a30-8fb3-a8b3a45ce8b5","ios":"levelo://app?vid=ef50aa90-065a-4a30-8fb3-a8b3a45ce8b5"},"vehicle_type_id":"4","last_reported":1679850364,"current_range_meters":10400,"station_id":"ce4bhih2rcd13ifvqfs0","pricing_plan_id":"free"},{"bike_id":"a9740754-4389-47fb-9f4b-d1bbfc7b78a0","system_id":"levelo_inurba_marseille","lat":43.255756,"lon":5.382303,"is_reserved":false,"is_disabled":false,"rental_uris":{"android":"levelo://app?vid=a9740754-4389-47fb-9f4b-d1bbfc7b78a0","ios":"levelo://app?vid=a9740754-4389-47fb-9f4b-d1bbfc7b78a0"},"vehicle_type_id":"4","last_reported":1679850364,"current_range_meters":6800,"station_id":"ce4bhih2rcd13ifvqfs0","pricing_plan_id":"free"},{"bike_id":"ea795e1a-d64b-455e-95c2-1535ea64fcd6","system_id":"levelo_inurba_marseille","lat":43.254947,"lon":5.376454,"is_reserved":false,"is_disabled":false,"rental_uris":{"android":"levelo://app?vid=ea795e1a-d64b-455e-95c2-1535ea64fcd6","ios":"levelo://app?vid=ea795e1a-d64b-455e-95c2-1535ea64fcd6"},"vehicle_type_id":"4","last_reported":1679850364,"current_range_meters":0,"station_id":"ce4bhh12rcd13ifvqff0","pricing_plan_id":"free"},{"bike_id":"9ba8cf39-7d5a-441d-89e2-1c424a41d452","system_id":"levelo_inurba_marseille","lat":43.27404,"lon":5.42703,"is_reserved":false,"is_disabled":false,"rental_uris":{"android":"levelo://app?vid=9ba8cf39-7d5a-441d-89e2-1c424a41d452","ios":"levelo://app?vid=9ba8cf39-7d5a-441d-89e2-1c424a41d452"},"vehicle_type_id":"4","last_reported":1679850364,"current_range_meters":22800,"station_id":"","pricing_plan_id":"free"},{"bike_id":"b5505fc3-2cf8-4bb9-84fc-38472ac1234d","system_id":"levelo_inurba_marseille","lat":43.270783,"lon":5.422877,"is_reserved":false,"is_disabled":false,"rental_uris":{"android":"levelo://app?vid=b5505fc3-2cf8-4bb9-84fc-38472ac1234d","ios":"levelo://app?vid=b5505fc3-2cf8-4bb9-84fc-38472ac1234d"},"vehicle_type_id":"4","last_reported":1679850364,"current_range_meters":7200,"station_id":"","pricing_plan_id":"free"},{"bike_id":"d3801747-adb6-48b3-a3ca-ca87b10307a6","system_id":"levelo_inurba_marseille","lat":43.258658,"lon":5.398935,"is_reserved":false,"is_disabled":false,"rental_uris":{"android":"levelo://app?vid=d3801747-adb6-48b3-a3ca-ca87b10307a6","ios":"levelo://app?vid=d3801747-adb6-48b3-a3ca-ca87b10307a6"},"vehicle_type_id":"4","last_reported":1679850364,"current_range_meters":0,"station_id":"ce4bhl92rcd13ifvqghg","pricing_plan_id":"free"},{"bike_id":"f0ba5e52-837f-4754-9829-0dac8eb1e4d5","system_id":"levelo_inurba_marseille","lat":43.250009,"lon":5.389195,"is_reserved":false,"is_disabled":false,"rental_uris":{"android":"levelo://app?vid=f0ba5e52-837f-4754-9829-0dac8eb1e4d5","ios":"levelo://app?vid=f0ba5e52-837f-4754-9829-0dac8eb1e4d5"},"vehicle_type_id":"4","last_reported":1679850364,"current_range_meters":0,"station_id":"ce4bhgp2rcd13ifvqfd0","pricing_plan_id":"free"},{"bike_id":"2819a97b-ab62-412f-ba95-92901ce7058e","system_id":"levelo_inurba_marseille","lat":43.250009,"lon":5.389195,"is_reserved":false,"is_disabled":false,"rental_uris":{"android":"levelo://app?vid=2819a97b-ab62-412f-ba95-92901ce7058e","ios":"levelo://app?vid=2819a97b-ab62-412f-ba95-92901ce7058e"},"vehicle_type_id":"4","last_reported":1679850364,"current_range_meters":0,"station_id":"ce4bhgp2rcd13ifvqfd0","pricing_plan_id":"free"},{"bike_id":"2cfb47d5-c3bc-4104-b267-09318f6ace42","system_id":"levelo_inurba_marseille","lat":43.24693,"lon":5.382096,"is_reserved":false,"is_disabled":false,"rental_uris":{"android":"levelo://app?vid=2cfb47d5-c3bc-4104-b267-09318f6ace42","ios":"levelo://app?vid=2cfb47d5-c3bc-4104-b267-09318f6ace42"},"vehicle_type_id":"4","last_reported":1679850364,"current_range_meters":0,"station_id":"ce4bhih2rcd13ifvqfr0","pricing_plan_id":"free"},{"bike_id":"8008d497-ab29-49f3-b687-68033231f7cd","system_id":"levelo_inurba_marseille","lat":43.24693,"lon":5.382096,"is_reserved":false,"is_disabled":false,"rental_uris":{"android":"levelo://app?vid=8008d497-ab29-49f3-b687-68033231f7cd","ios":"levelo://app?vid=8008d497-ab29-49f3-b687-68033231f7cd"},"vehicle_type_id":"4","last_reported":1679850364,"current_range_meters":4400,"station_id":"ce4bhih2rcd13ifvqfr0","pricing_plan_id":"free"},{"bike_id":"8922859f-9cf7-4a19-ba61-41dc0d513f06","system_id":"levelo_inurba_marseille","lat":43.246631,"lon":5.381619,"is_reserved":false,"is_disabled":false,"rental_uris":{"android":"levelo://app?vid=8922859f-9cf7-4a19-ba61-41dc0d513f06","ios":"levelo://app?vid=8922859f-9cf7-4a19-ba61-41dc0d513f06"},"vehicle_type_id":"4","last_reported":1679850364,"current_range_meters":0,"station_id":"","pricing_plan_id":"free"},{"bike_id":"4f263140-c259-46ce-93c4-f9c90913d08c","system_id":"levelo_inurba_marseille","lat":43.25102,"lon":5.403214,"is_reserved":false,"is_disabled":false,"rental_uris":{"android":"levelo://app?vid=4f263140-c259-46ce-93c4-f9c90913d08c","ios":"levelo://app?vid=4f263140-c259-46ce-93c4-f9c90913d08c"},"vehicle_type_id":"4","last_reported":1679850364,"current_range_meters":0,"station_id":"ce4bhlh2rcd13ifvqgig","pricing_plan_id":"free"},{"bike_id":"52c577fc-fc76-4b66-acf3-25ee43ef3997","system_id":"levelo_inurba_marseille","lat":43.24653,"lon":5.38899,"is_reserved":false,"is_disabled":false,"rental_uris":{"android":"levelo://app?vid=52c577fc-fc76-4b66-acf3-25ee43ef3997","ios":"levelo://app?vid=52c577fc-fc76-4b66-acf3-25ee43ef3997"},"vehicle_type_id":"4","last_reported":1679850364,"current_range_meters":4400,"station_id":"ce4bhg12rcd13ifvqf60","pricing_plan_id":"free"},{"bike_id":"3bc22862-5d84-4a6c-aef7-45ae3e3f933d","system_id":"levelo_inurba_marseille","lat":43.245581,"lon":5.395069,"is_reserved":false,"is_disabled":false,"rental_uris":{"android":"levelo://app?vid=3bc22862-5d84-4a6c-aef7-45ae3e3f933d","ios":"levelo://app?vid=3bc22862-5d84-4a6c-aef7-45ae3e3f933d"},"vehicle_type_id":"4","last_reported":1679850364,"current_range_meters":0,"station_id":"ce4bhlp2rcd13ifvqgjg","pricing_plan_id":"free"},{"bike_id":"1fde9e1d-5fd5-477c-9d4f-1dd57ba6b1b7","system_id":"levelo_inurba_marseille","lat":43.24076,"lon":5.37759,"is_reserved":false,"is_disabled":false,"rental_uris":{"android":"levelo://app?vid=1fde9e1d-5fd5-477c-9d4f-1dd57ba6b1b7","ios":"levelo://app?vid=1fde9e1d-5fd5-477c-9d4f-1dd57ba6b1b7"},"vehicle_type_id":"4","last_reported":1679850364,"current_range_meters":30800,"station_id":"ce4bhnp2rcd13ifvqgvg","pricing_plan_id":"free"},{"bike_id":"5e3ad079-aeb8-4a5f-844e-a938f67b5f37","system_id":"levelo_inurba_marseille","lat":43.240623,"lon":5.377642,"is_reserved":false,"is_disabled":false,"rental_uris":{"android":"levelo://app?vid=5e3ad079-aeb8-4a5f-844e-a938f67b5f37","ios":"levelo://app?vid=5e3ad079-aeb8-4a5f-844e-a938f67b5f37"},"vehicle_type_id":"4","last_reported":1679850364,"current_range_meters":31200,"station_id":"ce4bhnp2rcd13ifvqgvg","pricing_plan_id":"free"},{"bike_id":"825b6e31-64f7-42ba-9ea8-7e9f81584291","system_id":"levelo_inurba_marseille","lat":43.240623,"lon":5.377642,"is_reserved":false,"is_disabled":false,"rental_uris":{"android":"levelo://app?vid=825b6e31-64f7-42ba-9ea8-7e9f81584291","ios":"levelo://app?vid=825b6e31-64f7-42ba-9ea8-7e9f81584291"},"vehicle_type_id":"4","last_reported":1679850364,"current_range_meters":28400,"station_id":"ce4bhnp2rcd13ifvqgvg","pricing_plan_id":"free"},{"bike_id":"e9a6e392-5c68-43d5-9015-46f0022a233c","system_id":"levelo_inurba_marseille","lat":43.24071,"lon":5.37768,"is_reserved":false,"is_disabled":false,"rental_uris":{"android":"levelo://app?vid=e9a6e392-5c68-43d5-9015-46f0022a233c","ios":"levelo://app?vid=e9a6e392-5c68-43d5-9015-46f0022a233c"},"vehicle_type_id":"4","last_reported":1679850364,"current_range_meters":0,"station_id":"","pricing_plan_id":"free"},{"bike_id":"eb6f1753-b96a-4b52-87b0-2eae523cdf54","system_id":"levelo_inurba_marseille","lat":43.239588,"lon":5.366238,"is_reserved":false,"is_disabled":false,"rental_uris":{"android":"levelo://app?vid=eb6f1753-b96a-4b52-87b0-2eae523cdf54","ios":"levelo://app?vid=eb6f1753-b96a-4b52-87b0-2eae523cdf54"},"vehicle_type_id":"4","last_reported":1679850364,"current_range_meters":0,"station_id":"ce4bhi12rcd13ifvqfp0","pricing_plan_id":"free"},{"bike_id":"99ec9591-689f-43c6-b4f0-94293b068ab3","system_id":"levelo_inurba_marseille","lat":43.243804,"lon":5.403073,"is_reserved":false,"is_disabled":false,"rental_uris":{"android":"levelo://app?vid=99ec9591-689f-43c6-b4f0-94293b068ab3","ios":"levelo://app?vid=99ec9591-689f-43c6-b4f0-94293b068ab3"},"vehicle_type_id":"4","last_reported":1679850364,"current_range_meters":12000,"station_id":"","pricing_plan_id":"free"},{"bike_id":"d90be3db-2000-4e04-a388-d792f5ae0cb3","system_id":"levelo_inurba_marseille","lat":43.241782,"lon":5.397264,"is_reserved":false,"is_disabled":false,"rental_uris":{"android":"levelo://app?vid=d90be3db-2000-4e04-a388-d792f5ae0cb3","ios":"levelo://app?vid=d90be3db-2000-4e04-a388-d792f5ae0cb3"},"vehicle_type_id":"4","last_reported":1679850364,"current_range_meters":800,"station_id":"ce4bhn12rcd13ifvqgpg","pricing_plan_id":"free"},{"bike_id":"12b9e0b7-199c-45f2-8c4f-e74fdb124d69","system_id":"levelo_inurba_marseille","lat":43.28463,"lon":5.48688,"is_reserved":false,"is_disabled":false,"rental_uris":{"android":"levelo://app?vid=12b9e0b7-199c-45f2-8c4f-e74fdb124d69","ios":"levelo://app?vid=12b9e0b7-199c-45f2-8c4f-e74fdb124d69"},"vehicle_type_id":"4","last_reported":1679850364,"current_range_meters":8800,"station_id":"","pricing_plan_id":"free"}]}}