{"last_updated":1739981487,"ttl":60,"version":"2.2","data":{"bikes":[{"bike_id":"cfa00d86-fc1f-4ea4-a9a9-498f0976000c","system_id":"levelo_inurba_marseille","lat":43.3199,"lon":5.38165,"is_reserved":false,"is_disabled":false,"rental_uris":{"android":"levelo://app?vid=cfa00d86-fc1f-4ea4-a9a9-498f0976000c","ios":"levelo://app?vid=cfa00d86-fc1f-4ea4-a9a9-498f0976000c"},"vehicle_type_id":"4","last_reported":1739981488,"current_range_meters":2800,"station_id":"ce4bhr12rcd13ifvqhpg","pricing_plan_id":"cebpf4jnsgd1na2vs0mg"},{"bike_id":"db7f2d58-492d-4297-aa78-ce0ad99a0a74","system_id":"levelo_inurba_marseille","lat":43.271783,"lon":5.410007,"is_reserved":false,"is_disabled":false,"rental_uris":{"android":"levelo://app?vid=db7f2d58-492d-4297-aa78-ce0ad99a0a74","ios":"levelo://app?vid=db7f2d58-492d-4297-aa78-ce0ad99a0a74"},"vehicle_type_id":"4","last_reported":1739981488,"current_range_meters":3200,"station_id":"ce4bhb92rcd13ifvqen0","pricing_plan_id":"cebpf4jnsgd1na2vs0mg"},{"bike_id":"2d8d526f-480f-40b7-ac04-4c92ee5cd508","system_id":"levelo_inurba_marseille","lat":43.30898,"lon":5.37201,"is_reserved":false,"is_disabled":false,"rental_uris":{"android":"levelo://app?vid=2d8d526f-480f-40b7-ac04-4c92ee5cd508","ios":"levelo://app?vid=2d8d526f-480f-40b7-ac04-4c92ee5cd508"},"vehicle_type_id":"4","last_reported":1739981488,"current_range_meters":2800,"station_id":"ce4bguh2rcd13ifvqckg","pricing_plan_id":"cebpf4jnsgd1na2vs0mg"},{"bike_id":"ced7d336-23d7-4e17-b261-efc9a70127c0","system_id":"levelo_inurba_marseille","lat":43.29006,"lon":5.35608,"is_reserved":false,"is_disabled":false,"rental_uris":{"android":"levelo://app?vid=ced7d336-23d7-4e17-b261-efc9a70127c0","ios":"levelo://app?vid=ced7d336-23d7-4e17-b261-efc9a70127c0"},"vehicle_type_id":"4","last_reported":1739981488,"current_range_meters":3200,"station_id":"","pricing_plan_id":"cebpf4jnsgd1na2vs0mg"},{"bike_id":"709426f3-de4a-4811-af17-e33cf1d153ff","system_id":"levelo_inurba_marseille","lat":43.29283,"lon":5.40127,"is_reserved":false,"is_disabled":false,"rental_uris":{"android":"levelo://app?vid=709426f3-de4a-4811-af17-e33cf1d153ff","ios":"levelo://app?vid=709426f3-de4a-4811-af17-e33cf1d153ff"},"vehicle_type_id":"4","last_reported":1739981488,"current_range_meters":3600,"station_id":"ce4bh312rcd13ifvqdk0","pricing_plan_id":"cebpf4jnsgd1na2vs0mg"},{"bike_id":"020f9db3-6048-4a83-8c59-4acc533112c8","system_id":"levelo_inurba_marseille","lat":43.2815,"lon":5.4265,"is_reserved":false,"is_disabled":false,"rental_uris":{"android":"levelo://app?vid=020f9db3-6048-4a83-8c59-4acc533112c8","ios":"levelo://app?vid=020f9db3-6048-4a83-8c59-4acc533112c8"},"vehicle_type_id":"4","last_reported":1739981488,"current_range_meters":3200,"station_id":"ce4bhnh2rcd13ifvqgug","pricing_plan_id":"cebpf4jnsgd1na2vs0mg"},{"bike_id":"202e4be1-1ba8-4505-8ad7-0135fcfc3b52","system_id":"levelo_inurba_marseille","lat":43.26052,"lon":5.39392,"is_reserved":false,"is_disabled":false,"rental_uris":{"android":"levelo://app?vid=202e4be1-1ba8-4505-8ad7-0135fcfc3b52","ios":"levelo://app?vid=202e4be1-1ba8-4505-8ad7-0135fcfc3b52"},"vehicle_type_id":"4","last_reported":1739981488,"current_range_meters":3200,"station_id":"","pricing_plan_id":"cebpf4jnsgd1na2vs0mg"},{"bike_id":"33f5b85b-ba0b-40b1-8794-a49ad4005990","system_id":"levelo_inurba_marseille","lat":43.301545,"lon":5.400695,"is_reserved":false,"is_disabled":false,"rental_uris":{"android":"levelo://app?vid=33f5b85b-ba0b-40b1-8794-a49ad4005990","ios":"levelo://app?vid=33f5b85b-ba0b-40b1-8794-a49ad4005990"},"vehicle_type_id":"4","last_reported":1739981488,"current_range_meters":4000,"station_id":"ce4bgvh2rcd13ifvqcs0","pricing_plan_id":"cebpf4jnsgd1na2vs0mg"},{"bike_id":"0209194e-f6c5-4963-9b87-a48aa3c8e64c","system_id":"levelo_inurba_marseille","lat":43.23966,"lon":5.3663,"is_reserved":false,"is_disabled":false,"rental_uris":{"android":"levelo://app?vid=0209194e-f6c5-4963-9b87-a48aa3c8e64c","ios":"levelo://app?vid=0209194e-f6c5-4963-9b87-a48aa3c8e64c"},"vehicle_type_id":"4","last_reported":1739981488,"current_range_meters":3600,"station_id":"ce4bhi12rcd13ifvqfp0","pricing_plan_id":"cebpf4jnsgd1na2vs0mg"},{"bike_id":"e9cc5260-c878-4700-8039-296a661aeb23","system_id":"levelo_inurba_marseille","lat":43.29424,"lon":5.3862,"is_reserved":false,"is_disabled":false,"rental_uris":{"android":"levelo://app?vid=e9cc5260-c878-4700-8039-296a661aeb23","ios":"levelo://app?vid=e9cc5260-c878-4700-8039-296a661aeb23"},"vehicle_type_id":"4","last_reported":1739981488,"current_range_meters":3600,"station_id":"ce4bh2h2rcd13ifvqdh0","pricing_plan_id":"cebpf4jnsgd1na2vs0mg"},{"bike_id":"92b698f7-32bc-4834-b315-a8f6246911d7","system_id":"levelo_inurba_marseille","lat":43.28,"lon":5.41663,"is_reserved":false,"is_disabled":false,"rental_uris":{"android":"levelo://app?vid=92b698f7-32bc-4834-b315-a8f6246911d7","ios":"levelo://app?vid=92b698f7-32bc-4834-b315-a8f6246911d7"},"vehicle_type_id":"4","last_reported":1739981488,"current_range_meters":4000,"station_id":"ce4bho12rcd13ifvqh1g","pricing_plan_id":"cebpf4jnsgd1na2vs0mg"},{"bike_id":"977f3162-1201-4776-92bf-0f83c8c0a13f","system_id":"levelo_inurba_marseille","lat":43.29902,"lon":5.39752,"is_reserved":false,"is_disabled":false,"rental_uris":{"android":"levelo://app?vid=977f3162-1201-4776-92bf-0f83c8c0a13f","ios":"levelo://app?vid=977f3162-1201-4776-92bf-0f83c8c0a13f"},"vehicle_type_id":"4","last_reported":1739981488,"current_range_meters":4000,"station_id":"ce4bh0h2rcd13ifvqd50","pricing_plan_id":"cebpf4jnsgd1na2vs0mg"},{"bike_id":"10588449-5ffa-45fc-887c-8523965fc0a8","system_id":"levelo_inurba_marseille","lat":43.25498,"lon":5.37641,"is_reserved":false,"is_disabled":false,"rental_uris":{"android":"levelo://app?vid=10588449-5ffa-45fc-887c-8523965fc0a8","ios":"levelo://app?vid=10588449-5ffa-45fc-887c-8523965fc0a8"},"vehicle_type_id":"4","last_reported":1739981488,"current_range_meters":4000,"station_id":"ce4bhh12rcd13ifvqff0","pricing_plan_id":"cebpf4jnsgd1na2vs0mg"},{"bike_id":"811901b7-6a39-4b98-9209-f363e05c2482","system_id":"levelo_inurba_marseille","lat":43.2815,"lon":5.42642,"is_reserved":false,"is_disabled":false,"rental_uris":{"android":"levelo://app?vid=811901b7-6a39-4b98-9209-f363e05c2482","ios":"levelo://app?vid=811901b7-6a39-4b98-9209-f363e05c2482"},"vehicle_type_id":"4","last_reported":1739981488,"current_range_meters":4000,"station_id":"ce4bhnh2rcd13ifvqgug","pricing_plan_id":"cebpf4jnsgd1na2vs0mg"},{"bike_id":"cd94335d-60f0-4e38-9676-8b00eadc1e12","system_id":"levelo_inurba_marseille","lat":43.27218,"lon":5.39193,"is_reserved":false,"is_disabled":false,"rental_uris":{"android":"levelo://app?vid=cd94335d-60f0-4e38-9676-8b00eadc1e12","ios":"levelo://app?vid=cd94335d-60f0-4e38-9676-8b00eadc1e12"},"vehicle_type_id":"4","last_reported":1739981488,"current_range_meters":4000,"station_id":"","pricing_plan_id":"cebpf4jnsgd1na2vs0mg"},{"bike_id":"4100feb4-ade0-46a7-a40c-244ea2629982","system_id":"levelo_inurba_marseille","lat":43.29534,"lon":5.38541,"is_reserved":false,"is_disabled":false,"rental_uris":{"android":"levelo://app?vid=4100feb4-ade0-46a7-a40c-244ea2629982","ios":"levelo://app?vid=4100feb4-ade0-46a7-a40c-244ea2629982"},"vehicle_type_id":"4","last_reported":1739981488,"current_range_meters":4000,"station_id":"ce4bgih2rcd13ifvqba0","pricing_plan_id":"cebpf4jnsgd1na2vs0mg"},{"bike_id":"6528e792-6c2b-41ab-b102-37d30001a0e7","system_id":"levelo_inurba_marseille","lat":43.27186,"lon":5.40095,"is_reserved":false,"is_disabled":false,"rental_uris":{"android":"levelo://app?vid=6528e792-6c2b-41ab-b102-37d30001a0e7","ios":"levelo://app?vid=6528e792-6c2b-41ab-b102-37d30001a0e7"},"vehicle_type_id":"4","last_reported":1739981488,"current_range_meters":4400,"station_id":"","pricing_plan_id":"cebpf4jnsgd1na2vs0mg"},{"bike_id":"61e81f45-3489-4629-9ccb-712f30a1d3b1","system_id":"levelo_inurba_marseille","lat":43.28268,"lon":5.3506,"is_reserved":false,"is_disabled":false,"rental_uris":{"android":"levelo://app?vid=61e81f45-3489-4629-9ccb-712f30a1d3b1","ios":"levelo://app?vid=61e81f45-3489-4629-9ccb-712f30a1d3b1"},"vehicle_type_id":"4","last_reported":1739981488,"current_range_meters":4400,"station_id":"","pricing_plan_id":"cebpf4jnsgd1na2vs0mg"},{"bike_id":"90538d34-f3b4-4167-bf5c-3133593f27b5","system_id":"levelo_inurba_marseille","lat":43.31249,"lon":5.36903,"is_reserved":false,"is_disabled":false,"rental_uris":{"android":"levelo://app?vid=90538d34-f3b4-4167-bf5c-3133593f27b5","ios":"levelo://app?vid=90538d34-f3b4-4167-bf5c-3133593f27b5"},"vehicle_type_id":"4","last_reported":1739981488,"current_range_meters":4400,"station_id":"ce4bgl92rcd13ifvqbq0","pricing_plan_id":"cebpf4jnsgd1na2vs0mg"},{"bike_id":"c109a327-37a9-4436-a7bc-7706e6f9fcb3","system_id":"levelo_inurba_marseille","lat":43.23155,"lon":5.43715,"is_reserved":false,"is_disabled":false,"rental_uris":{"android":"levelo://app?vid=c109a327-37a9-4436-a7bc-7706e6f9fcb3","ios":"levelo://app?vid=c109a327-37a9-4436-a7bc-7706e6f9fcb3"},"vehicle_type_id":"4","last_reported":1739981488,"current_range_meters":4800,"station_id":"ce4bhmp2rcd13ifvqgog","pricing_plan_id":"cebpf4jnsgd1na2vs0mg"},{"bike_id":"7174b859-40d2-4d93-8784-578ab557e269","system_id":"levelo_inurba_marseille","lat":43.30948,"lon":5.39051,"is_reserved":false,"is_disabled":false,"rental_uris":{"android":"levelo://app?vid=7174b859-40d2-4d93-8784-578ab557e269","ios":"levelo://app?vid=7174b859-40d2-4d93-8784-578ab557e269"},"vehicle_type_id":"4","last_reported":1739981488,"current_range_meters":4800,"station_id":"ce4bgup2rcd13ifvqco0","pricing_plan_id":"cebpf4jnsgd1na2vs0mg"},{"bike_id":"9eae540f-54ca-4a57-a431-8fcf98238a1b","system_id":"levelo_inurba_marseille","lat":43.28617,"lon":5.35111,"is_reserved":false,"is_disabled":false,"rental_uris":{"android":"levelo://app?vid=9eae540f-54ca-4a57-a431-8fcf98238a1b","ios":"levelo://app?vid=9eae540f-54ca-4a57-a431-8fcf98238a1b"},"vehicle_type_id":"4","last_reported":1739981488,"current_range_meters":4800,"station_id":"ce4bhch2rcd13ifvqeug","pricing_plan_id":"cebpf4jnsgd1na2vs0mg"},{"bike_id":"2fe6ebf0-b87a-44d3-a908-8be09dcf4c33","system_id":"levelo_inurba_marseille","lat":43.31225,"lon":5.36855,"is_reserved":false,"is_disabled":false,"rental_uris":{"android":"levelo://app?vid=2fe6ebf0-b87a-44d3-a908-8be09dcf4c33","ios":"levelo://app?vid=2fe6ebf0-b87a-44d3-a908-8be09dcf4c33"},"vehicle_type_id":"4","last_reported":1739981488,"current_range_meters":2000,"station_id":"ce4bgl92rcd13ifvqbq0","pricing_plan_id":"cebpf4jnsgd1na2vs0mg"},{"bike_id":"54054037-b4de-4190-aa12-71b245fc1f85","system_id":"levelo_inurba_marseille","lat":43.33034,"lon":5.39045,"is_reserved":false,"is_disabled":false,"rental_uris":{"android":"levelo://app?vid=54054037-b4de-4190-aa12-71b245fc1f85","ios":"levelo://app?vid=54054037-b4de-4190-aa12-71b245fc1f85"},"vehicle_type_id":"4","last_reported":1739981488,"current_range_meters":6000,"station_id":"ce4bhr92rcd13ifvqhrg","pricing_plan_id":"cebpf4jnsgd1na2vs0mg"},{"bike_id":"d99f2b7f-db38-4a98-881a-3cc7697efd6e","system_id":"levelo_inurba_marseille","lat":43.24665,"lon":5.38161,"is_reserved":false,"is_disabled":false,"rental_uris":{"android":"levelo://app?vid=d99f2b7f-db38-4a98-881a-3cc7697efd6e","ios":"levelo://app?vid=d99f2b7f-db38-4a98-881a-3cc7697efd6e"},"vehicle_type_id":"4","last_reported":1739981488,"current_range_meters":6000,"station_id":"ce4bhih2rcd13ifvqfr0","pricing_plan_id":"cebpf4jnsgd1na2vs0mg"},{"bike_id":"8d83a7d1-3ac4-4eba-a3f4-2d261013d9bc","system_id":"levelo_inurba_marseille","lat":43.31224,"lon":5.36881,"is_reserved":false,"is_disabled":false,"rental_uris":{"android":"levelo://app?vid=8d83a7d1-3ac4-4eba-a3f4-2d261013d9bc","ios":"levelo://app?vid=8d83a7d1-3ac4-4eba-a3f4-2d261013d9bc"},"vehicle_type_id":"4","last_reported":1739981488,"current_range_meters":6000,"station_id":"ce4bgl92rcd13ifvqbq0","pricing_plan_id":"cebpf4jnsgd1na2vs0mg"},{"bike_id":"590ea1bc-a7bc-49e3-8cd8-d1abe673b6c4","system_id":"levelo_inurba_marseille","lat":43.25962,"lon":5.38824,"is_reserved":false,"is_disabled":false,"rental_uris":{"android":"levelo://app?vid=590ea1bc-a7bc-49e3-8cd8-d1abe673b6c4","ios":"levelo://app?vid=590ea1bc-a7bc-49e3-8cd8-d1abe673b6c4"},"vehicle_type_id":"4","last_reported":1739981488,"current_range_meters":6800,"station_id":"ce4bhl92rcd13ifvqghg","pricing_plan_id":"cebpf4jnsgd1na2vs0mg"},{"bike_id":"c7dbb333-a060-40e0-9b74-326621c725a5","system_id":"levelo_inurba_marseille","lat":43.29845,"lon":5.36278,"is_reserved":false,"is_disabled":false,"rental_uris":{"android":"levelo://app?vid=c7dbb333-a060-40e0-9b74-326621c725a5","ios":"levelo://app?vid=c7dbb333-a060-40e0-9b74-326621c725a5"},"vehicle_type_id":"4","last_reported":1739981488,"current_range_meters":6400,"station_id":"","pricing_plan_id":"cebpf4jnsgd1na2vs0mg"},{"bike_id":"8e7895c5-a4b1-4e15-9b82-b57e1586054d","system_id":"levelo_inurba_marseille","lat":43.295773,"lon":5.399722,"is_reserved":false,"is_disabled":false,"rental_uris":{"android":"levelo://app?vid=8e7895c5-a4b1-4e15-9b82-b57e1586054d","ios":"levelo://app?vid=8e7895c5-a4b1-4e15-9b82-b57e1586054d"},"vehicle_type_id":"4","last_reported":1739981488,"current_range_meters":6400,"station_id":"ce4bh312rcd13ifvqdj0","pricing_plan_id":"cebpf4jnsgd1na2vs0mg"},{"bike_id":"67f7f0e0-b716-4bef-a815-f248deb44cf9","system_id":"levelo_inurba_marseille","lat":43.313958,"lon":5.384243,"is_reserved":false,"is_disabled":false,"rental_uris":{"android":"levelo://app?vid=67f7f0e0-b716-4bef-a815-f248deb44cf9","ios":"levelo://app?vid=67f7f0e0-b716-4bef-a815-f248deb44cf9"},"vehicle_type_id":"4","last_reported":1739981488,"current_range_meters":6400,"station_id":"","pricing_plan_id":"cebpf4jnsgd1na2vs0mg"},{"bike_id":"dd4621b6-fe38-4032-beb1-cbefe09e5e80","system_id":"levelo_inurba_marseille","lat":43.3089,"lon":5.39633,"is_reserved":false,"is_disabled":false,"rental_uris":{"android":"levelo://app?vid=dd4621b6-fe38-4032-beb1-cbefe09e5e80","ios":"levelo://app?vid=dd4621b6-fe38-4032-beb1-cbefe09e5e80"},"vehicle_type_id":"4","last_reported":1739981488,"current_range_meters":6400,"station_id":"","pricing_plan_id":"cebpf4jnsgd1na2vs0mg"},{"bike_id":"989a1c05-c74a-4632-af21-81b3f55f7909","system_id":"levelo_inurba_marseille","lat":43.29221,"lon":5.36043,"is_reserved":false,"is_disabled":true,"rental_uris":{"android":"levelo://app?vid=989a1c05-c74a-4632-af21-81b3f55f7909","ios":"levelo://app?vid=989a1c05-c74a-4632-af21-81b3f55f7909"},"vehicle_type_id":"4","last_reported":1739981488,"current_range_meters":6400,"station_id":"","pricing_plan_id":"cebpf4jnsgd1na2vs0mg"},{"bike_id":"2029ba6f-aa31-466e-9b50-cbeea67b5863","system_id":"levelo_inurba_marseille","lat":43.3112,"lon":5.37785,"is_reserved":false,"is_disabled":false,"rental_uris":{"android":"levelo://app?vid=2029ba6f-aa31-466e-9b50-cbeea67b5863","ios":"levelo://app?vid=2029ba6f-aa31-466e-9b50-cbeea67b5863"},"vehicle_type_id":"4","last_reported":1739981488,"current_range_meters":6400,"station_id":"ce4bgt92rcd13ifvqcg0","pricing_plan_id":"cebpf4jnsgd1na2vs0mg"},{"bike_id":"bab011c5-5b15-4198-ab37-a714c4b897ff","system_id":"levelo_inurba_marseille","lat":43.27947,"lon":5.41055,"is_reserved":false,"is_disabled":false,"rental_uris":{"android":"levelo://app?vid=bab011c5-5b15-4198-ab37-a714c4b897ff","ios":"levelo://app?vid=bab011c5-5b15-4198-ab37-a714c4b897ff"},"vehicle_type_id":"4","last_reported":1739981488,"current_range_meters":6800,"station_id":"ce4bhnp2rcd13ifvqh0g","pricing_plan_id":"cebpf4jnsgd1na2vs0mg"},{"bike_id":"bab349c8-3687-4449-b68e-cf4393b54f4b","system_id":"levelo_inurba_marseille","lat":43.25011,"lon":5.38907,"is_reserved":false,"is_disabled":false,"rental_uris":{"android":"levelo://app?vid=bab349c8-3687-4449-b68e-cf4393b54f4b","ios":"levelo://app?vid=bab349c8-3687-4449-b68e-cf4393b54f4b"},"vehicle_type_id":"4","last_reported":1739981488,"current_range_meters":6800,"station_id":"","pricing_plan_id":"cebpf4jnsgd1na2vs0mg"},{"bike_id":"536fb2d4-2e70-4d4a-affb-7072a197c4d2","system_id":"levelo_inurba_marseille","lat":43.296335,"lon":5.406006,"is_reserved":false,"is_disabled":false,"rental_uris":{"android":"levelo://app?vid=536fb2d4-2e70-4d4a-affb-7072a197c4d2","ios":"levelo://app?vid=536fb2d4-2e70-4d4a-affb-7072a197c4d2"},"vehicle_type_id":"4","last_reported":1739981488,"current_range_meters":6800,"station_id":"ce4bhop2rcd13ifvqh7g","pricing_plan_id":"cebpf4jnsgd1na2vs0mg"},{"bike_id":"56834599-2949-4368-8c7c-ea0cffd718b2","system_id":"levelo_inurba_marseille","lat":43.27071,"lon":5.42284,"is_reserved":false,"is_disabled":false,"rental_uris":{"android":"levelo://app?vid=56834599-2949-4368-8c7c-ea0cffd718b2","ios":"levelo://app?vid=56834599-2949-4368-8c7c-ea0cffd718b2"},"vehicle_type_id":"4","last_reported":1739981488,"current_range_meters":7200,"station_id":"ce4bhk92rcd13ifvqgb0","pricing_plan_id":"cebpf4jnsgd1na2vs0mg"},{"bike_id":"fcb6818d-fa36-4abf-a9a2-915314187cc2","system_id":"levelo_inurba_marseille","lat":43.26066,"lon":5.394,"is_reserved":false,"is_disabled":false,"rental_uris":{"android":"levelo://app?vid=fcb6818d-fa36-4abf-a9a2-915314187cc2","ios":"levelo://app?vid=fcb6818d-fa36-4abf-a9a2-915314187cc2"},"vehicle_type_id":"4","last_reported":1739981488,"current_range_meters":7200,"station_id":"ce4bhh92rcd13ifvqfj0","pricing_plan_id":"cebpf4jnsgd1na2vs0mg"},{"bike_id":"cf64b7cd-4626-4d79-afac-2611db88ce28","system_id":"levelo_inurba_marseille","lat":43.27994,"lon":5.41655,"is_reserved":false,"is_disabled":false,"rental_uris":{"android":"levelo://app?vid=cf64b7cd-4626-4d79-afac-2611db88ce28","ios":"levelo://app?vid=cf64b7cd-4626-4d79-afac-2611db88ce28"},"vehicle_type_id":"4","last_reported":1739981488,"current_range_meters":8000,"station_id":"ce4bho12rcd13ifvqh1g","pricing_plan_id":"cebpf4jnsgd1na2vs0mg"},{"bike_id":"bc531c63-a595-4536-afa0-9ab29aadcbe7","system_id":"levelo_inurba_marseille","lat":43.28275,"lon":5.35051,"is_reserved":false,"is_disabled":false,"rental_uris":{"android":"levelo://app?vid=bc531c63-a595-4536-afa0-9ab29aadcbe7","ios":"levelo://app?vid=bc531c63-a595-4536-afa0-9ab29aadcbe7"},"vehicle_type_id":"4","last_reported":1739981488,"current_range_meters":8000,"station_id":"ce4bhbp2rcd13ifvqerg","pricing_plan_id":"cebpf4jnsgd1na2vs0mg"},{"bike_id":"4089f1a0-cd12-42d3-a6c3-01d445970a86","system_id":"levelo_inurba_marseille","lat":43.31289,"lon":5.37422,"is_reserved":false,"is_disabled":false,"rental_uris":{"android":"levelo://app?vid=4089f1a0-cd12-42d3-a6c3-01d445970a86","ios":"levelo://app?vid=4089f1a0-cd12-42d3-a6c3-01d445970a86"},"vehicle_type_id":"4","last_reported":1739981488,"current_range_meters":8000,"station_id":"","pricing_plan_id":"cebpf4jnsgd1na2vs0mg"},{"bike_id":"bb852df7-dd74-43f4-8582-0650a376dfcb","system_id":"levelo_inurba_marseille","lat":43.27501,"lon":5.42465,"is_reserved":false,"is_disabled":false,"rental_uris":{"android":"levelo://app?vid=bb852df7-dd74-43f4-8582-0650a376dfcb","ios":"levelo://app?vid=bb852df7-dd74-43f4-8582-0650a376dfcb"},"vehicle_type_id":"4","last_reported":1739981488,"current_range_meters":8000,"station_id":"ce4bhn92rcd13ifvqgrg","pricing_plan_id":"cebpf4jnsgd1na2vs0mg"},{"bike_id":"4e1eedec-ed9f-4393-b363-5aa82bc35d39","system_id":"levelo_inurba_marseille","lat":43.28001,"lon":5.41665,"is_reserved":false,"is_disabled":false,"rental_uris":{"android":"levelo://app?vid=4e1eedec-ed9f-4393-b363-5aa82bc35d39","ios":"levelo://app?vid=4e1eedec-ed9f-4393-b363-5aa82bc35d39"},"vehicle_type_id":"4","last_reported":1739981488,"current_range_meters":8000,"station_id":"ce4bho12rcd13ifvqh1g","pricing_plan_id":"cebpf4jnsgd1na2vs0mg"},{"bike_id":"4391ae73-d7ce-4930-bac4-306eca66be35","system_id":"levelo_inurba_marseille","lat":43.23965,"lon":5.36635,"is_reserved":false,"is_disabled":false,"rental_uris":{"android":"levelo://app?vid=4391ae73-d7ce-4930-bac4-306eca66be35","ios":"levelo://app?vid=4391ae73-d7ce-4930-bac4-306eca66be35"},"vehicle_type_id":"4","last_reported":1739981488,"current_range_meters":8000,"station_id":"ce4bhi12rcd13ifvqfp0","pricing_plan_id":"cebpf4jnsgd1na2vs0mg"},{"bike_id":"61c673fe-f10b-4399-8b5a-360edb95722d","system_id":"levelo_inurba_marseille","lat":43.28414,"lon":5.34981,"is_reserved":false,"is_disabled":false,"rental_uris":{"android":"levelo://app?vid=61c673fe-f10b-4399-8b5a-360edb95722d","ios":"levelo://app?vid=61c673fe-f10b-4399-8b5a-360edb95722d"},"vehicle_type_id":"4","last_reported":1739981488,"current_range_meters":8400,"station_id":"ce4bhbh2rcd13ifvqepg","pricing_plan_id":"cebpf4jnsgd1na2vs0mg"},{"bike_id":"3f4434fb-908c-42f5-bf65-d81de3299319","system_id":"levelo_inurba_marseille","lat":43.25838,"lon":5.39432,"is_reserved":false,"is_disabled":false,"rental_uris":{"android":"levelo://app?vid=3f4434fb-908c-42f5-bf65-d81de3299319","ios":"levelo://app?vid=3f4434fb-908c-42f5-bf65-d81de3299319"},"vehicle_type_id":"4","last_reported":1739981488,"current_range_meters":8400,"station_id":"ce4bhip2rcd13ifvqft0","pricing_plan_id":"cebpf4jnsgd1na2vs0mg"},{"bike_id":"97da2850-30e4-49a9-aed9-3fabc78dad21","system_id":"levelo_inurba_marseille","lat":43.33764,"lon":5.37468,"is_reserved":false,"is_disabled":false,"rental_uris":{"android":"levelo://app?vid=97da2850-30e4-49a9-aed9-3fabc78dad21","ios":"levelo://app?vid=97da2850-30e4-49a9-aed9-3fabc78dad21"},"vehicle_type_id":"4","last_reported":1739981488,"current_range_meters":8400,"station_id":"","pricing_plan_id":"cebpf4jnsgd1na2vs0mg"},{"bike_id":"3ea0b1ad-f3ea-4211-8e3b-d3f0c9a0f631","system_id":"levelo_inurba_marseille","lat":43.309527,"lon":5.390337,"is_reserved":false,"is_disabled":false,"rental_uris":{"android":"levelo://app?vid=3ea0b1ad-f3ea-4211-8e3b-d3f0c9a0f631","ios":"levelo://app?vid=3ea0b1ad-f3ea-4211-8e3b-d3f0c9a0f631"},"vehicle_type_id":"4","last_reported":1739981488,"current_range_meters":8400,"station_id":"","pricing_plan_id":"cebpf4jnsgd1na2vs0mg"},{"bike_id":"d2976b9b-23f3-4b01-a9d4-a215028eb235","system_id":"levelo_inurba_marseille","lat":43.29574,"lon":5.39979,"is_reserved":false,"is_disabled":false,"rental_uris":{"android":"levelo://app?vid=d2976b9b-23f3-4b01-a9d4-a215028eb235","ios":"levelo://app?vid=d2976b9b-23f3-4b01-a9d4-a215028eb235"},"vehicle_type_id":"4","last_reported":1739981488,"current_range_meters":8000,"station_id":"ce4bh312rcd13ifvqdj0","pricing_plan_id":"cebpf4jnsgd1na2vs0mg"},{"bike_id":"adb3d6df-7149-4295-84c9-8f4cb47f9c0e","system_id":"levelo_inurba_marseille","lat":43.27401,"lon":5.41006,"is_reserved":false,"is_disabled":false,"rental_uris":{"android":"levelo://app?vid=adb3d6df-7149-4295-84c9-8f4cb47f9c0e","ios":"levelo://app?vid=adb3d6df-7149-4295-84c9-8f4cb47f9c0e"},"vehicle_type_id":"4","last_reported":1739981488,"current_range_meters":8400,"station_id":"","pricing_plan_id":"cebpf4jnsgd1na2vs0mg"},{"bike_id":"f48a38d8-a148-4593-aa7e-826cef02f310","system_id":"levelo_inurba_marseille","lat":43.29066,"lon":5.37173,"is_reserved":false,"is_disabled":false,"rental_uris":{"android":"levelo://app?vid=f48a38d8-a148-4593-aa7e-826cef02f310","ios":"levelo://app?vid=f48a38d8-a148-4593-aa7e-826cef02f310"},"vehicle_type_id":"4","last_reported":1739981488,"current_range_meters":8400,"station_id":"ce4bh5p2rcd13ifvqe4g","pricing_plan_id":"cebpf4jnsgd1na2vs0mg"},{"bike_id":"c0fb9a7f-e2c8-49f5-af54-71bf39abdf26","system_id":"levelo_inurba_marseille","lat":43.28428,"lon":5.35006,"is_reserved":false,"is_disabled":false,"rental_uris":{"android":"levelo://app?vid=c0fb9a7f-e2c8-49f5-af54-71bf39abdf26","ios":"levelo://app?vid=c0fb9a7f-e2c8-49f5-af54-71bf39abdf26"},"vehicle_type_id":"4","last_reported":1739981488,"current_range_meters":8400,"station_id":"","pricing_plan_id":"cebpf4jnsgd1na2vs0mg"},{"bike_id":"e79d1c03-ea93-4ee5-8cb2-ecdeca48b0aa","system_id":"levelo_inurba_marseille","lat":43.231663,"lon":5.43686,"is_reserved":false,"is_disabled":true,"rental_uris":{"android":"levelo://app?vid=e79d1c03-ea93-4ee5-8cb2-ecdeca48b0aa","ios":"levelo://app?vid=e79d1c03-ea93-4ee5-8cb2-ecdeca48b0aa"},"vehicle_type_id":"4","last_reported":1739981488,"current_range_meters":8400,"station_id":"ce4bhmp2rcd13ifvqgog","pricing_plan_id":"cebpf4jnsgd1na2vs0mg"},{"bike_id":"10c134e7-7862-45ed-8103-0b6221fb4b66","system_id":"levelo_inurba_marseille","lat":43.25003,"lon":5.38933,"is_reserved":false,"is_disabled":false,"rental_uris":{"android":"levelo://app?vid=10c134e7-7862-45ed-8103-0b6221fb4b66","ios":"levelo://app?vid=10c134e7-7862-45ed-8103-0b6221fb4b66"},"vehicle_type_id":"4","last_reported":1739981488,"current_range_meters":8800,"station_id":"","pricing_plan_id":"cebpf4jnsgd1na2vs0mg"},{"bike_id":"80197f3a-f27d-471f-9b6a-34a3e3a5d0c3","system_id":"levelo_inurba_marseille","lat":43.28646,"lon":5.36055,"is_reserved":false,"is_disabled":false,"rental_uris":{"android":"levelo://app?vid=80197f3a-f27d-471f-9b6a-34a3e3a5d0c3","ios":"levelo://app?vid=80197f3a-f27d-471f-9b6a-34a3e3a5d0c3"},"vehicle_type_id":"4","last_reported":1739981488,"current_range_meters":8800,"station_id":"","pricing_plan_id":"cebpf4jnsgd1na2vs0mg"},{"bike_id":"f884d1e7-4e51-4344-b28b-ae9aec3fdd7c","system_id":"levelo_inurba_marseille","lat":43.26941,"lon":5.40282,"is_reserved":false,"is_disabled":false,"rental_uris":{"android":"levelo://app?vid=f884d1e7-4e51-4344-b28b-ae9aec3fdd7c","ios":"levelo://app?vid=f884d1e7-4e51-4344-b28b-ae9aec3fdd7c"},"vehicle_type_id":"4","last_reported":1739981488,"current_range_meters":8800,"station_id":"cjm6bp8fraef2m0cb0m0","pricing_plan_id":"cebpf4jnsgd1na2vs0mg"},{"bike_id":"7e92b6ba-0bde-4467-9679-a632c05baab0","system_id":"levelo_inurba_marseille","lat":43.27951,"lon":5.41054,"is_reserved":false,"is_disabled":false,"rental_uris":{"android":"levelo://app?vid=7e92b6ba-0bde-4467-9679-a632c05baab0","ios":"levelo://app?vid=7e92b6ba-0bde-4467-9679-a632c05baab0"},"vehicle_type_id":"4","last_reported":1739981488,"current_range_meters":8800,"station_id":"","pricing_plan_id":"cebpf4jnsgd1na2vs0mg"},{"bike_id":"9198c6ef-bd5b-45d9-bd7b-e058d791d44b","system_id":"levelo_inurba_marseille","lat":43.24814,"lon":5.3746,"is_reserved":false,"is_disabled":false,"rental_uris":{"android":"levelo://app?vid=9198c6ef-bd5b-45d9-bd7b-e058d791d44b","ios":"levelo://app?vid=9198c6ef-bd5b-45d9-bd7b-e058d791d44b"},"vehicle_type_id":"4","last_reported":1739981488,"current_range_meters":8800,"station_id":"ce4bhgh2rcd13ifvqfb0","pricing_plan_id":"cebpf4jnsgd1na2vs0mg"},{"bike_id":"f0f61fdf-e262-479f-a259-1997ef9b3f40","system_id":"levelo_inurba_marseille","lat":43.2816,"lon":5.42651,"is_reserved":false,"is_disabled":false,"rental_uris":{"android":"levelo://app?vid=f0f61fdf-e262-479f-a259-1997ef9b3f40","ios":"levelo://app?vid=f0f61fdf-e262-479f-a259-1997ef9b3f40"},"vehicle_type_id":"4","last_reported":1739981488,"current_range_meters":8800,"station_id":"","pricing_plan_id":"cebpf4jnsgd1na2vs0mg"},{"bike_id":"c2896a85-bd03-44af-9ec9-88cf4b2c2bef","system_id":"levelo_inurba_marseille","lat":43.27377,"lon":5.36265,"is_reserved":false,"is_disabled":false,"rental_uris":{"android":"levelo://app?vid=c2896a85-bd03-44af-9ec9-88cf4b2c2bef","ios":"levelo://app?vid=c2896a85-bd03-44af-9ec9-88cf4b2c2bef"},"vehicle_type_id":"4","last_reported":1739981488,"current_range_meters":9200,"station_id":"","pricing_plan_id":"cebpf4jnsgd1na2vs0mg"},{"bike_id":"d54bc1eb-f0e0-4560-bce7-029662397c79","system_id":"levelo_inurba_marseille","lat":43.29627,"lon":5.37747,"is_reserved":false,"is_disabled":false,"rental_uris":{"android":"levelo://app?vid=d54bc1eb-f0e0-4560-bce7-029662397c79","ios":"levelo://app?vid=d54bc1eb-f0e0-4560-bce7-029662397c79"},"vehicle_type_id":"4","last_reported":1739981488,"current_range_meters":9200,"station_id":"ce4bgi92rcd13ifvqb90","pricing_plan_id":"cebpf4jnsgd1na2vs0mg"},{"bike_id":"ec2a2a80-692c-4e61-b758-ee418e5968e4","system_id":"levelo_inurba_marseille","lat":43.23964,"lon":5.36631,"is_reserved":false,"is_disabled":false,"rental_uris":{"android":"levelo://app?vid=ec2a2a80-692c-4e61-b758-ee418e5968e4","ios":"levelo://app?vid=ec2a2a80-692c-4e61-b758-ee418e5968e4"},"vehicle_type_id":"4","last_reported":1739981488,"current_range_meters":9200,"station_id":"ce4bhi12rcd13ifvqfp0","pricing_plan_id":"cebpf4jnsgd1na2vs0mg"},{"bike_id":"979886d7-57c2-45c3-a04c-8dd3bf438f9a","system_id":"levelo_inurba_marseille","lat":43.29514,"lon":5.394,"is_reserved":false,"is_disabled":false,"rental_uris":{"android":"levelo://app?vid=979886d7-57c2-45c3-a04c-8dd3bf438f9a","ios":"levelo://app?vid=979886d7-57c2-45c3-a04c-8dd3bf438f9a"},"vehicle_type_id":"4","last_reported":1739981488,"current_range_meters":9600,"station_id":"","pricing_plan_id":"cebpf4jnsgd1na2vs0mg"},{"bike_id":"f21e4eab-4010-4ae5-a6f3-5e2bfdd054ad","system_id":"levelo_inurba_marseille","lat":43.24387,"lon":5.37067,"is_reserved":false,"is_disabled":false,"rental_uris":{"android":"levelo://app?vid=f21e4eab-4010-4ae5-a6f3-5e2bfdd054ad","ios":"levelo://app?vid=f21e4eab-4010-4ae5-a6f3-5e2bfdd054ad"},"vehicle_type_id":"4","last_reported":1739981488,"current_range_meters":9600,"station_id":"ce4bhhh2rcd13ifvqfk0","pricing_plan_id":"cebpf4jnsgd1na2vs0mg"},{"bike_id":"fff4aefc-c0c9-4d14-84bd-6958c0d56118","system_id":"levelo_inurba_marseille","lat":43.26927,"lon":5.38926,"is_reserved":false,"is_disabled":false,"rental_uris":{"android":"levelo://app?vid=fff4aefc-c0c9-4d14-84bd-6958c0d56118","ios":"levelo://app?vid=fff4aefc-c0c9-4d14-84bd-6958c0d56118"},"vehicle_type_id":"4","last_reported":1739981488,"current_range_meters":9200,"station_id":"ce4bhhh2rcd13ifvqfl0","pricing_plan_id":"cebpf4jnsgd1na2vs0mg"},{"bike_id":"3d9cf6a6-a0d0-4bd0-8945-b8b397d04077","system_id":"levelo_inurba_marseille","lat":43.286197,"lon":5.351015,"is_reserved":false,"is_disabled":false,"rental_uris":{"android":"levelo://app?vid=3d9cf6a6-a0d0-4bd0-8945-b8b397d04077","ios":"levelo://app?vid=3d9cf6a6-a0d0-4bd0-8945-b8b397d04077"},"vehicle_type_id":"4","last_reported":1739981488,"current_range_meters":9600,"station_id":"ce4bhch2rcd13ifvqeug","pricing_plan_id":"cebpf4jnsgd1na2vs0mg"},{"bike_id":"f0995f43-e3ec-45cb-a40c-fdb661c5e9d7","system_id":"levelo_inurba_marseille","lat":43.29526,"lon":5.39398,"is_reserved":false,"is_disabled":false,"rental_uris":{"android":"levelo://app?vid=f0995f43-e3ec-45cb-a40c-fdb661c5e9d7","ios":"levelo://app?vid=f0995f43-e3ec-45cb-a40c-fdb661c5e9d7"},"vehicle_type_id":"4","last_reported":1739981488,"current_range_meters":9600,"station_id":"ce4bh292rcd13ifvqdf0","pricing_plan_id":"cebpf4jnsgd1na2vs0mg"},{"bike_id":"b01181ce-51cf-4e05-a5a2-48a6611e7289","system_id":"levelo_inurba_marseille","lat":43.28161,"lon":5.42648,"is_reserved":false,"is_disabled":false,"rental_uris":{"android":"levelo://app?vid=b01181ce-51cf-4e05-a5a2-48a6611e7289","ios":"levelo://app?vid=b01181ce-51cf-4e05-a5a2-48a6611e7289"},"vehicle_type_id":"4","last_reported":1739981488,"current_range_meters":9600,"station_id":"ce4bhh12rcd13ifvqfg0","pricing_plan_id":"cebpf4jnsgd1na2vs0mg"},{"bike_id":"9eec5b2a-4f2d-43ef-ad86-2bea31069e0d","system_id":"levelo_inurba_marseille","lat":43.29249,"lon":5.36646,"is_reserved":false,"is_disabled":false,"rental_uris":{"android":"levelo://app?vid=9eec5b2a-4f2d-43ef-ad86-2bea31069e0d","ios":"levelo://app?vid=9eec5b2a-4f2d-43ef-ad86-2bea31069e0d"},"vehicle_type_id":"4","last_reported":1739981488,"current_range_meters":9600,"station_id":"ce4bgh92rcd13ifvqb50","pricing_plan_id":"cebpf4jnsgd1na2vs0mg"},{"bike_id":"ea1519e7-b5fe-42ac-aa41-a04f66c121d4","system_id":"levelo_inurba_marseille","lat":43.24003,"lon":5.37762,"is_reserved":false,"is_disabled":false,"rental_uris":{"android":"levelo://app?vid=ea1519e7-b5fe-42ac-aa41-a04f66c121d4","ios":"levelo://app?vid=ea1519e7-b5fe-42ac-aa41-a04f66c121d4"},"vehicle_type_id":"4","last_reported":1739981488,"current_range_meters":9600,"station_id":"ce4bhnp2rcd13ifvqgvg","pricing_plan_id":"cebpf4jnsgd1na2vs0mg"},{"bike_id":"85119f68-8e15-482b-8115-a93531330552","system_id":"levelo_inurba_marseille","lat":43.28943,"lon":5.36397,"is_reserved":false,"is_disabled":false,"rental_uris":{"android":"levelo://app?vid=85119f68-8e15-482b-8115-a93531330552","ios":"levelo://app?vid=85119f68-8e15-482b-8115-a93531330552"},"vehicle_type_id":"4","last_reported":1739981488,"current_range_meters":9600,"station_id":"ce4bhc92rcd13ifvqetg","pricing_plan_id":"cebpf4jnsgd1na2vs0mg"},{"bike_id":"1112cc74-0919-4211-b9e9-763cb0f674ac","system_id":"levelo_inurba_marseille","lat":43.29194,"lon":5.35813,"is_reserved":false,"is_disabled":false,"rental_uris":{"android":"levelo://app?vid=1112cc74-0919-4211-b9e9-763cb0f674ac","ios":"levelo://app?vid=1112cc74-0919-4211-b9e9-763cb0f674ac"},"vehicle_type_id":"4","last_reported":1739981488,"current_range_meters":10000,"station_id":"ce4bhb12rcd13ifvqel0","pricing_plan_id":"cebpf4jnsgd1na2vs0mg"},{"bike_id":"f027fe38-3f5d-42fa-b16a-68ca60104c09","system_id":"levelo_inurba_marseille","lat":43.24167,"lon":5.36393,"is_reserved":false,"is_disabled":false,"rental_uris":{"android":"levelo://app?vid=f027fe38-3f5d-42fa-b16a-68ca60104c09","ios":"levelo://app?vid=f027fe38-3f5d-42fa-b16a-68ca60104c09"},"vehicle_type_id":"4","last_reported":1739981488,"current_range_meters":10000,"station_id":"","pricing_plan_id":"cebpf4jnsgd1na2vs0mg"},{"bike_id":"a2e88d3a-7278-4c4f-892d-ce8534448a29","system_id":"levelo_inurba_marseille","lat":43.25125,"lon":5.40317,"is_reserved":false,"is_disabled":false,"rental_uris":{"android":"levelo://app?vid=a2e88d3a-7278-4c4f-892d-ce8534448a29","ios":"levelo://app?vid=a2e88d3a-7278-4c4f-892d-ce8534448a29"},"vehicle_type_id":"4","last_reported":1739981488,"current_range_meters":6800,"station_id":"ce4bhlh2rcd13ifvqgig","pricing_plan_id":"cebpf4jnsgd1na2vs0mg"},{"bike_id":"7f2b235d-b54a-4ba7-9884-b541f6dd74e7","system_id":"levelo_inurba_marseille","lat":43.27172,"lon":5.4099,"is_reserved":false,"is_disabled":false,"rental_uris":{"android":"levelo://app?vid=7f2b235d-b54a-4ba7-9884-b541f6dd74e7","ios":"levelo://app?vid=7f2b235d-b54a-4ba7-9884-b541f6dd74e7"},"vehicle_type_id":"4","last_reported":1739981488,"current_range_meters":10000,"station_id":"","pricing_plan_id":"cebpf4jnsgd1na2vs0mg"},{"bike_id":"3bcb79c9-4856-4fd5-a5da-307c96cb5d41","system_id":"levelo_inurba_marseille","lat":43.30215,"lon":5.39468,"is_reserved":false,"is_disabled":false,"rental_uris":{"android":"levelo://app?vid=3bcb79c9-4856-4fd5-a5da-307c96cb5d41","ios":"levelo://app?vid=3bcb79c9-4856-4fd5-a5da-307c96cb5d41"},"vehicle_type_id":"4","last_reported":1739981488,"current_range_meters":10800,"station_id":"ce4bh0p2rcd13ifvqd70","pricing_plan_id":"cebpf4jnsgd1na2vs0mg"},{"bike_id":"d65eb313-f2bc-481f-8252-f62b856b10eb","system_id":"levelo_inurba_marseille","lat":43.25497,"lon":5.37649,"is_reserved":false,"is_disabled":false,"rental_uris":{"android":"levelo://app?vid=d65eb313-f2bc-481f-8252-f62b856b10eb","ios":"levelo://app?vid=d65eb313-f2bc-481f-8252-f62b856b10eb"},"vehicle_type_id":"4","last_reported":1739981488,"current_range_meters":10800,"station_id":"ce4bhh12rcd13ifvqff0","pricing_plan_id":"cebpf4jnsgd1na2vs0mg"},{"bike_id":"ba0a4dbe-d370-492e-a789-44c6ef69c02b","system_id":"levelo_inurba_marseille","lat":43.28611,"lon":5.35104,"is_reserved":false,"is_disabled":true,"rental_uris":{"android":"levelo://app?vid=ba0a4dbe-d370-492e-a789-44c6ef69c02b","ios":"levelo://app?vid=ba0a4dbe-d370-492e-a789-44c6ef69c02b"},"vehicle_type_id":"4","last_reported":1739981488,"current_range_meters":10800,"station_id":"ce4bhch2rcd13ifvqeug","pricing_plan_id":"cebpf4jnsgd1na2vs0mg"},{"bike_id":"87a627da-e4b0-4a18-8633-fd19bb219ca1","system_id":"levelo_inurba_marseille","lat":43.25011,"lon":5.38915,"is_reserved":false,"is_disabled":false,"rental_uris":{"android":"levelo://app?vid=87a627da-e4b0-4a18-8633-fd19bb219ca1","ios":"levelo://app?vid=87a627da-e4b0-4a18-8633-fd19bb219ca1"},"vehicle_type_id":"4","last_reported":1739981488,"current_range_meters":10800,"station_id":"ce4bhgp2rcd13ifvqfd0","pricing_plan_id":"cebpf4jnsgd1na2vs0mg"},{"bike_id":"cfddd114-3a88-4b32-a277-ff17fb9770fb","system_id":"levelo_inurba_marseille","lat":43.26787,"lon":5.39441,"is_reserved":false,"is_disabled":false,"rental_uris":{"android":"levelo://app?vid=cfddd114-3a88-4b32-a277-ff17fb9770fb","ios":"levelo://app?vid=cfddd114-3a88-4b32-a277-ff17fb9770fb"},"vehicle_type_id":"4","last_reported":1739981488,"current_range_meters":11200,"station_id":"ce4bhh12rcd13ifvqfg0","pricing_plan_id":"cebpf4jnsgd1na2vs0mg"},{"bike_id":"63c4cf47-dbff-4d5e-a88a-080b99df99de","system_id":"levelo_inurba_marseille","lat":43.29522,"lon":5.38903,"is_reserved":false,"is_disabled":true,"rental_uris":{"android":"levelo://app?vid=63c4cf47-dbff-4d5e-a88a-080b99df99de","ios":"levelo://app?vid=63c4cf47-dbff-4d5e-a88a-080b99df99de"},"vehicle_type_id":"4","last_reported":1739981488,"current_range_meters":11200,"station_id":"","pricing_plan_id":"cebpf4jnsgd1na2vs0mg"},{"bike_id":"1d63a175-89ef-49ff-9ead-dfe9ed6c22cf","system_id":"levelo_inurba_marseille","lat":43.24693,"lon":5.39437,"is_reserved":false,"is_disabled":false,"rental_uris":{"android":"levelo://app?vid=1d63a175-89ef-49ff-9ead-dfe9ed6c22cf","ios":"levelo://app?vid=1d63a175-89ef-49ff-9ead-dfe9ed6c22cf"},"vehicle_type_id":"4","last_reported":1739981488,"current_range_meters":11200,"station_id":"","pricing_plan_id":"cebpf4jnsgd1na2vs0mg"},{"bike_id":"719aa967-240f-4b49-9d85-cec3478207bd","system_id":"levelo_inurba_marseille","lat":43.29401,"lon":5.38612,"is_reserved":false,"is_disabled":false,"rental_uris":{"android":"levelo://app?vid=719aa967-240f-4b49-9d85-cec3478207bd","ios":"levelo://app?vid=719aa967-240f-4b49-9d85-cec3478207bd"},"vehicle_type_id":"4","last_reported":1739981488,"current_range_meters":11200,"station_id":"ce4bh2h2rcd13ifvqdh0","pricing_plan_id":"cebpf4jnsgd1na2vs0mg"},{"bike_id":"4174d1d2-22db-4718-b9de-da0f07165438","system_id":"levelo_inurba_marseille","lat":43.301496,"lon":5.374454,"is_reserved":false,"is_disabled":false,"rental_uris":{"android":"levelo://app?vid=4174d1d2-22db-4718-b9de-da0f07165438","ios":"levelo://app?vid=4174d1d2-22db-4718-b9de-da0f07165438"},"vehicle_type_id":"4","last_reported":1739981488,"current_range_meters":11200,"station_id":"ce4bgs92rcd13ifvqcc0","pricing_plan_id":"cebpf4jnsgd1na2vs0mg"},{"bike_id":"234ab225-fb15-44cb-af0d-63e6ab8ae78f","system_id":"levelo_inurba_marseille","lat":43.30886,"lon":5.39621,"is_reserved":false,"is_disabled":false,"rental_uris":{"android":"levelo://app?vid=234ab225-fb15-44cb-af0d-63e6ab8ae78f","ios":"levelo://app?vid=234ab225-fb15-44cb-af0d-63e6ab8ae78f"},"vehicle_type_id":"4","last_reported":1739981488,"current_range_meters":11600,"station_id":"ce4bh012rcd13ifvqcv0","pricing_plan_id":"cebpf4jnsgd1na2vs0mg"},{"bike_id":"165a9c74-4b5b-456f-ab13-8994754ee276","system_id":"levelo_inurba_marseille","lat":43.28038,"lon":5.3694,"is_reserved":false,"is_disabled":false,"rental_uris":{"android":"levelo://app?vid=165a9c74-4b5b-456f-ab13-8994754ee276","ios":"levelo://app?vid=165a9c74-4b5b-456f-ab13-8994754ee276"},"vehicle_type_id":"4","last_reported":1739981488,"current_range_meters":11600,"station_id":"ce4bha12rcd13ifvqef0","pricing_plan_id":"cebpf4jnsgd1na2vs0mg"},{"bike_id":"c67fb496-8441-458a-af2d-8f07c087bdd0","system_id":"levelo_inurba_marseille","lat":43.24157,"lon":5.36444,"is_reserved":false,"is_disabled":true,"rental_uris":{"android":"levelo://app?vid=c67fb496-8441-458a-af2d-8f07c087bdd0","ios":"levelo://app?vid=c67fb496-8441-458a-af2d-8f07c087bdd0"},"vehicle_type_id":"4","last_reported":1739981488,"current_range_meters":11600,"station_id":"","pricing_plan_id":"cebpf4jnsgd1na2vs0mg"},{"bike_id":"f01259a6-3266-44fd-91af-5b108614aad5","system_id":"levelo_inurba_marseille","lat":43.30806,"lon":5.3815,"is_reserved":false,"is_disabled":false,"rental_uris":{"android":"levelo://app?vid=f01259a6-3266-44fd-91af-5b108614aad5","ios":"levelo://app?vid=f01259a6-3266-44fd-91af-5b108614aad5"},"vehicle_type_id":"4","last_reported":1739981488,"current_range_meters":12000,"station_id":"ce4bgt12rcd13ifvqce0","pricing_plan_id":"cebpf4jnsgd1na2vs0mg"},{"bike_id":"0e13d03b-802b-4c8e-a45d-8b1b667659e5","system_id":"levelo_inurba_marseille","lat":43.30443,"lon":5.39712,"is_reserved":false,"is_disabled":false,"rental_uris":{"android":"levelo://app?vid=0e13d03b-802b-4c8e-a45d-8b1b667659e5","ios":"levelo://app?vid=0e13d03b-802b-4c8e-a45d-8b1b667659e5"},"vehicle_type_id":"4","last_reported":1739981488,"current_range_meters":11600,"station_id":"ce4bh092rcd13ifvqd20","pricing_plan_id":"cebpf4jnsgd1na2vs0mg"},{"bike_id":"0b1a3b32-459a-4ff9-a388-d16482304482","system_id":"levelo_inurba_marseille","lat":43.28001,"lon":5.40014,"is_reserved":false,"is_disabled":false,"rental_uris":{"android":"levelo://app?vid=0b1a3b32-459a-4ff9-a388-d16482304482","ios":"levelo://app?vid=0b1a3b32-459a-4ff9-a388-d16482304482"},"vehicle_type_id":"4","last_reported":1739981488,"current_range_meters":12000,"station_id":"","pricing_plan_id":"cebpf4jnsgd1na2vs0mg"},{"bike_id":"c4097fa1-04fd-4709-b0b0-4b844875ce22","system_id":"levelo_inurba_marseille","lat":43.29973,"lon":5.38492,"is_reserved":false,"is_disabled":false,"rental_uris":{"android":"levelo://app?vid=c4097fa1-04fd-4709-b0b0-4b844875ce22","ios":"levelo://app?vid=c4097fa1-04fd-4709-b0b0-4b844875ce22"},"vehicle_type_id":"4","last_reported":1739981488,"current_range_meters":12000,"station_id":"ce4bgj92rcd13ifvqbd0","pricing_plan_id":"cebpf4jnsgd1na2vs0mg"},{"bike_id":"2376fd4e-009b-4489-bfbb-ee42c2bf75f4","system_id":"levelo_inurba_marseille","lat":43.2767,"lon":5.38886,"is_reserved":false,"is_disabled":false,"rental_uris":{"android":"levelo://app?vid=2376fd4e-009b-4489-bfbb-ee42c2bf75f4","ios":"levelo://app?vid=2376fd4e-009b-4489-bfbb-ee42c2bf75f4"},"vehicle_type_id":"4","last_reported":1739981488,"current_range_meters":11600,"station_id":"ce4bhi12rcd13ifvqfo0","pricing_plan_id":"cebpf4jnsgd1na2vs0mg"},{"bike_id":"a00fb5cd-e0d2-4f96-befb-5275c0df0c87","system_id":"levelo_inurba_marseille","lat":43.27995,"lon":5.41649,"is_reserved":false,"is_disabled":false,"rental_uris":{"android":"levelo://app?vid=a00fb5cd-e0d2-4f96-befb-5275c0df0c87","ios":"levelo://app?vid=a00fb5cd-e0d2-4f96-befb-5275c0df0c87"},"vehicle_type_id":"4","last_reported":1739981488,"current_range_meters":12000,"station_id":"ce4bho12rcd13ifvqh1g","pricing_plan_id":"cebpf4jnsgd1na2vs0mg"},{"bike_id":"7ca903a7-cbb8-4502-900a-6f9371203d6a","system_id":"levelo_inurba_marseille","lat":43.3043,"lon":5.39745,"is_reserved":false,"is_disabled":false,"rental_uris":{"android":"levelo://app?vid=7ca903a7-cbb8-4502-900a-6f9371203d6a","ios":"levelo://app?vid=7ca903a7-cbb8-4502-900a-6f9371203d6a"},"vehicle_type_id":"4","last_reported":1739981488,"current_range_meters":12000,"station_id":"ce4bh092rcd13ifvqd20","pricing_plan_id":"cebpf4jnsgd1na2vs0mg"},{"bike_id":"48ca522a-9985-4f63-86b7-08d4e6699048","system_id":"levelo_inurba_marseille","lat":43.29933,"lon":5.36529,"is_reserved":false,"is_disabled":false,"rental_uris":{"android":"levelo://app?vid=48ca522a-9985-4f63-86b7-08d4e6699048","ios":"levelo://app?vid=48ca522a-9985-4f63-86b7-08d4e6699048"},"vehicle_type_id":"4","last_reported":1739981488,"current_range_meters":12000,"station_id":"ce4bgm92rcd13ifvqbr0","pricing_plan_id":"cebpf4jnsgd1na2vs0mg"},{"bike_id":"a2bb9e6c-a21b-40be-8e9e-9c9ba90132ae","system_id":"levelo_inurba_marseille","lat":43.29935,"lon":5.37455,"is_reserved":false,"is_disabled":false,"rental_uris":{"android":"levelo://app?vid=a2bb9e6c-a21b-40be-8e9e-9c9ba90132ae","ios":"levelo://app?vid=a2bb9e6c-a21b-40be-8e9e-9c9ba90132ae"},"vehicle_type_id":"4","last_reported":1739981488,"current_range_meters":12800,"station_id":"ce4bgjh2rcd13ifvqbg0","pricing_plan_id":"cebpf4jnsgd1na2vs0mg"},{"bike_id":"24dd12c1-4d8a-40c0-b521-a98d2d462c41","system_id":"levelo_inurba_marseille","lat":43.24167,"lon":5.36399,"is_reserved":false,"is_disabled":false,"rental_uris":{"android":"levelo://app?vid=24dd12c1-4d8a-40c0-b521-a98d2d462c41","ios":"levelo://app?vid=24dd12c1-4d8a-40c0-b521-a98d2d462c41"},"vehicle_type_id":"4","last_reported":1739981488,"current_range_meters":12000,"station_id":"","pricing_plan_id":"cebpf4jnsgd1na2vs0mg"},{"bike_id":"782b1e8f-c52f-4346-a7ef-1025af1aea39","system_id":"levelo_inurba_marseille","lat":43.29733,"lon":5.37698,"is_reserved":false,"is_disabled":false,"rental_uris":{"android":"levelo://app?vid=782b1e8f-c52f-4346-a7ef-1025af1aea39","ios":"levelo://app?vid=782b1e8f-c52f-4346-a7ef-1025af1aea39"},"vehicle_type_id":"4","last_reported":1739981488,"current_range_meters":12000,"station_id":"ce4bgkh2rcd13ifvqbl0","pricing_plan_id":"cebpf4jnsgd1na2vs0mg"},{"bike_id":"3860bb6a-6016-4bfe-b3c5-5b64398b66ef","system_id":"levelo_inurba_marseille","lat":43.29509,"lon":5.39409,"is_reserved":false,"is_disabled":false,"rental_uris":{"android":"levelo://app?vid=3860bb6a-6016-4bfe-b3c5-5b64398b66ef","ios":"levelo://app?vid=3860bb6a-6016-4bfe-b3c5-5b64398b66ef"},"vehicle_type_id":"4","last_reported":1739981488,"current_range_meters":12000,"station_id":"ce4bh292rcd13ifvqdf0","pricing_plan_id":"cebpf4jnsgd1na2vs0mg"},{"bike_id":"058213af-b61b-486b-8e0a-0a8fd78595de","system_id":"levelo_inurba_marseille","lat":43.23188,"lon":5.3998,"is_reserved":false,"is_disabled":false,"rental_uris":{"android":"levelo://app?vid=058213af-b61b-486b-8e0a-0a8fd78595de","ios":"levelo://app?vid=058213af-b61b-486b-8e0a-0a8fd78595de"},"vehicle_type_id":"4","last_reported":1739981488,"current_range_meters":12000,"station_id":"ce4bhn12rcd13ifvqgqg","pricing_plan_id":"cebpf4jnsgd1na2vs0mg"},{"bike_id":"6bfd257c-7c9e-4944-8d6b-9cbcaa0bfe0c","system_id":"levelo_inurba_marseille","lat":43.28273,"lon":5.35066,"is_reserved":false,"is_disabled":false,"rental_uris":{"android":"levelo://app?vid=6bfd257c-7c9e-4944-8d6b-9cbcaa0bfe0c","ios":"levelo://app?vid=6bfd257c-7c9e-4944-8d6b-9cbcaa0bfe0c"},"vehicle_type_id":"4","last_reported":1739981488,"current_range_meters":10800,"station_id":"","pricing_plan_id":"cebpf4jnsgd1na2vs0mg"},{"bike_id":"34d14ec0-9a1d-4d07-8158-52ff5d0c0371","system_id":"levelo_inurba_marseille","lat":43.29421,"lon":5.38043,"is_reserved":false,"is_disabled":false,"rental_uris":{"android":"levelo://app?vid=34d14ec0-9a1d-4d07-8158-52ff5d0c0371","ios":"levelo://app?vid=34d14ec0-9a1d-4d07-8158-52ff5d0c0371"},"vehicle_type_id":"4","last_reported":1739981488,"current_range_meters":12400,"station_id":"","pricing_plan_id":"cebpf4jnsgd1na2vs0mg"},{"bike_id":"d931b3aa-1545-4d14-b119-8a54d7bb174d","system_id":"levelo_inurba_marseille","lat":43.23201,"lon":5.35555,"is_reserved":false,"is_disabled":false,"rental_uris":{"android":"levelo://app?vid=d931b3aa-1545-4d14-b119-8a54d7bb174d","ios":"levelo://app?vid=d931b3aa-1545-4d14-b119-8a54d7bb174d"},"vehicle_type_id":"4","last_reported":1739981488,"current_range_meters":12400,"station_id":"ce4bhu92rcd13ifvqi70","pricing_plan_id":"cebpf4jnsgd1na2vs0mg"},{"bike_id":"e2596add-e568-49b6-a063-b6868f5c61f8","system_id":"levelo_inurba_marseille","lat":43.24816,"lon":5.37457,"is_reserved":false,"is_disabled":false,"rental_uris":{"android":"levelo://app?vid=e2596add-e568-49b6-a063-b6868f5c61f8","ios":"levelo://app?vid=e2596add-e568-49b6-a063-b6868f5c61f8"},"vehicle_type_id":"4","last_reported":1739981488,"current_range_meters":12800,"station_id":"ce4bhgh2rcd13ifvqfb0","pricing_plan_id":"cebpf4jnsgd1na2vs0mg"},{"bike_id":"2d501f2b-876d-4ebc-927d-8c42a258944b","system_id":"levelo_inurba_marseille","lat":43.2718,"lon":5.40993,"is_reserved":false,"is_disabled":false,"rental_uris":{"android":"levelo://app?vid=2d501f2b-876d-4ebc-927d-8c42a258944b","ios":"levelo://app?vid=2d501f2b-876d-4ebc-927d-8c42a258944b"},"vehicle_type_id":"4","last_reported":1739981488,"current_range_meters":12800,"station_id":"ce4bhl12rcd13ifvqgf0","pricing_plan_id":"cebpf4jnsgd1na2vs0mg"},{"bike_id":"fc971b16-bef3-4b6d-813c-ffc8ffa48842","system_id":"levelo_inurba_marseille","lat":43.2841,"lon":5.34986,"is_reserved":false,"is_disabled":true,"rental_uris":{"android":"levelo://app?vid=fc971b16-bef3-4b6d-813c-ffc8ffa48842","ios":"levelo://app?vid=fc971b16-bef3-4b6d-813c-ffc8ffa48842"},"vehicle_type_id":"4","last_reported":1739981488,"current_range_meters":12800,"station_id":"","pricing_plan_id":"cebpf4jnsgd1na2vs0mg"},{"bike_id":"b64778c2-2434-4409-b125-e965a1fd469a","system_id":"levelo_inurba_marseille","lat":43.30319,"lon":5.36698,"is_reserved":false,"is_disabled":false,"rental_uris":{"android":"levelo://app?vid=b64778c2-2434-4409-b125-e965a1fd469a","ios":"levelo://app?vid=b64778c2-2434-4409-b125-e965a1fd469a"},"vehicle_type_id":"4","last_reported":1739981488,"current_range_meters":12800,"station_id":"ce4bgs12rcd13ifvqcag","pricing_plan_id":"cebpf4jnsgd1na2vs0mg"},{"bike_id":"5180f318-4948-4085-aaf1-5f3160b57dbe","system_id":"levelo_inurba_marseille","lat":43.27619,"lon":5.36107,"is_reserved":false,"is_disabled":true,"rental_uris":{"android":"levelo://app?vid=5180f318-4948-4085-aaf1-5f3160b57dbe","ios":"levelo://app?vid=5180f318-4948-4085-aaf1-5f3160b57dbe"},"vehicle_type_id":"4","last_reported":1739981488,"current_range_meters":12800,"station_id":"","pricing_plan_id":"cebpf4jnsgd1na2vs0mg"},{"bike_id":"4e6bf4d9-fbf9-4f62-81f9-67f61b8ddaf1","system_id":"levelo_inurba_marseille","lat":43.29973,"lon":5.38512,"is_reserved":false,"is_disabled":false,"rental_uris":{"android":"levelo://app?vid=4e6bf4d9-fbf9-4f62-81f9-67f61b8ddaf1","ios":"levelo://app?vid=4e6bf4d9-fbf9-4f62-81f9-67f61b8ddaf1"},"vehicle_type_id":"4","last_reported":1739981488,"current_range_meters":13600,"station_id":"ce4bgj92rcd13ifvqbd0","pricing_plan_id":"cebpf4jnsgd1na2vs0mg"},{"bike_id":"6005a7bf-fce7-440d-a11a-9dbca74cb175","system_id":"levelo_inurba_marseille","lat":43.236694,"lon":5.399005,"is_reserved":false,"is_disabled":false,"rental_uris":{"android":"levelo://app?vid=6005a7bf-fce7-440d-a11a-9dbca74cb175","ios":"levelo://app?vid=6005a7bf-fce7-440d-a11a-9dbca74cb175"},"vehicle_type_id":"4","last_reported":1739981488,"current_range_meters":13600,"station_id":"cjm6bp8fraef2m0cb0m0","pricing_plan_id":"cebpf4jnsgd1na2vs0mg"},{"bike_id":"5089bb88-a0cd-4434-a1a9-f3d5b67361c6","system_id":"levelo_inurba_marseille","lat":43.24369,"lon":5.38745,"is_reserved":false,"is_disabled":false,"rental_uris":{"android":"levelo://app?vid=5089bb88-a0cd-4434-a1a9-f3d5b67361c6","ios":"levelo://app?vid=5089bb88-a0cd-4434-a1a9-f3d5b67361c6"},"vehicle_type_id":"4","last_reported":1739981488,"current_range_meters":13600,"station_id":"","pricing_plan_id":"cebpf4jnsgd1na2vs0mg"},{"bike_id":"3fa131c8-d3bf-4fb9-b400-1daf371dcaa7","system_id":"levelo_inurba_marseille","lat":43.27172,"lon":5.40985,"is_reserved":false,"is_disabled":false,"rental_uris":{"android":"levelo://app?vid=3fa131c8-d3bf-4fb9-b400-1daf371dcaa7","ios":"levelo://app?vid=3fa131c8-d3bf-4fb9-b400-1daf371dcaa7"},"vehicle_type_id":"4","last_reported":1739981488,"current_range_meters":13600,"station_id":"ce4bhl12rcd13ifvqgf0","pricing_plan_id":"cebpf4jnsgd1na2vs0mg"},{"bike_id":"88d9ddc6-5e29-4162-be9f-7100a02ebaf2","system_id":"levelo_inurba_marseille","lat":43.28936,"lon":5.36394,"is_reserved":false,"is_disabled":false,"rental_uris":{"android":"levelo://app?vid=88d9ddc6-5e29-4162-be9f-7100a02ebaf2","ios":"levelo://app?vid=88d9ddc6-5e29-4162-be9f-7100a02ebaf2"},"vehicle_type_id":"4","last_reported":1739981488,"current_range_meters":12800,"station_id":"ce4bhc92rcd13ifvqetg","pricing_plan_id":"cebpf4jnsgd1na2vs0mg"},{"bike_id":"79a8de8e-6448-4651-a4fc-e7e896fb3b6a","system_id":"levelo_inurba_marseille","lat":43.25581,"lon":5.38235,"is_reserved":false,"is_disabled":false,"rental_uris":{"android":"levelo://app?vid=79a8de8e-6448-4651-a4fc-e7e896fb3b6a","ios":"levelo://app?vid=79a8de8e-6448-4651-a4fc-e7e896fb3b6a"},"vehicle_type_id":"4","last_reported":1739981488,"current_range_meters":13600,"station_id":"ce4bhih2rcd13ifvqfs0","pricing_plan_id":"cebpf4jnsgd1na2vs0mg"},{"bike_id":"38f18a26-3850-4e2c-abb2-e413f686ddec","system_id":"levelo_inurba_marseille","lat":43.28491,"lon":5.3844,"is_reserved":false,"is_disabled":false,"rental_uris":{"android":"levelo://app?vid=38f18a26-3850-4e2c-abb2-e413f686ddec","ios":"levelo://app?vid=38f18a26-3850-4e2c-abb2-e413f686ddec"},"vehicle_type_id":"4","last_reported":1739981488,"current_range_meters":13600,"station_id":"ce4bh512rcd13ifvqe3g","pricing_plan_id":"cebpf4jnsgd1na2vs0mg"},{"bike_id":"44d104ef-bb09-4b0c-a1b8-af3a20939616","system_id":"levelo_inurba_marseille","lat":43.30098,"lon":5.391,"is_reserved":false,"is_disabled":false,"rental_uris":{"android":"levelo://app?vid=44d104ef-bb09-4b0c-a1b8-af3a20939616","ios":"levelo://app?vid=44d104ef-bb09-4b0c-a1b8-af3a20939616"},"vehicle_type_id":"4","last_reported":1739981488,"current_range_meters":14000,"station_id":"ce4bh192rcd13ifvqdb0","pricing_plan_id":"cebpf4jnsgd1na2vs0mg"},{"bike_id":"88bfb69d-f76f-493e-9b23-f80f879bc69b","system_id":"levelo_inurba_marseille","lat":43.30134,"lon":5.38781,"is_reserved":false,"is_disabled":false,"rental_uris":{"android":"levelo://app?vid=88bfb69d-f76f-493e-9b23-f80f879bc69b","ios":"levelo://app?vid=88bfb69d-f76f-493e-9b23-f80f879bc69b"},"vehicle_type_id":"4","last_reported":1739981488,"current_range_meters":14000,"station_id":"ce4bhoh2rcd13ifvqh6g","pricing_plan_id":"cebpf4jnsgd1na2vs0mg"},{"bike_id":"b0653deb-321a-4736-8043-20c29d83203a","system_id":"levelo_inurba_marseille","lat":43.3089,"lon":5.39655,"is_reserved":false,"is_disabled":false,"rental_uris":{"android":"levelo://app?vid=b0653deb-321a-4736-8043-20c29d83203a","ios":"levelo://app?vid=b0653deb-321a-4736-8043-20c29d83203a"},"vehicle_type_id":"4","last_reported":1739981488,"current_range_meters":14000,"station_id":"","pricing_plan_id":"cebpf4jnsgd1na2vs0mg"},{"bike_id":"9fc0862e-fdaa-4007-a370-56b09c93b5ad","system_id":"levelo_inurba_marseille","lat":43.28415,"lon":5.34982,"is_reserved":false,"is_disabled":false,"rental_uris":{"android":"levelo://app?vid=9fc0862e-fdaa-4007-a370-56b09c93b5ad","ios":"levelo://app?vid=9fc0862e-fdaa-4007-a370-56b09c93b5ad"},"vehicle_type_id":"4","last_reported":1739981488,"current_range_meters":14000,"station_id":"","pricing_plan_id":"cebpf4jnsgd1na2vs0mg"},{"bike_id":"5f9ede52-c720-4107-a864-980fb2608395","system_id":"levelo_inurba_marseille","lat":43.24098,"lon":5.38658,"is_reserved":false,"is_disabled":false,"rental_uris":{"android":"levelo://app?vid=5f9ede52-c720-4107-a864-980fb2608395","ios":"levelo://app?vid=5f9ede52-c720-4107-a864-980fb2608395"},"vehicle_type_id":"4","last_reported":1739981488,"current_range_meters":14400,"station_id":"ce4bhb92rcd13ifvqen0","pricing_plan_id":"cebpf4jnsgd1na2vs0mg"},{"bike_id":"6789d4d3-b1a0-4527-97ae-375f03e16fdc","system_id":"levelo_inurba_marseille","lat":43.31757,"lon":5.39027,"is_reserved":false,"is_disabled":false,"rental_uris":{"android":"levelo://app?vid=6789d4d3-b1a0-4527-97ae-375f03e16fdc","ios":"levelo://app?vid=6789d4d3-b1a0-4527-97ae-375f03e16fdc"},"vehicle_type_id":"4","last_reported":1739981488,"current_range_meters":14000,"station_id":"ce4bhqp2rcd13ifvqhng","pricing_plan_id":"cebpf4jnsgd1na2vs0mg"},{"bike_id":"64c7d386-747e-45a5-9c82-bb7795994e0f","system_id":"levelo_inurba_marseille","lat":43.31529,"lon":5.38037,"is_reserved":false,"is_disabled":false,"rental_uris":{"android":"levelo://app?vid=64c7d386-747e-45a5-9c82-bb7795994e0f","ios":"levelo://app?vid=64c7d386-747e-45a5-9c82-bb7795994e0f"},"vehicle_type_id":"4","last_reported":1739981488,"current_range_meters":14000,"station_id":"ce4bhsp2rcd13ifvqi50","pricing_plan_id":"cebpf4jnsgd1na2vs0mg"},{"bike_id":"516bafe0-5ae1-4584-8a28-800d99267cec","system_id":"levelo_inurba_marseille","lat":43.27941,"lon":5.41047,"is_reserved":false,"is_disabled":false,"rental_uris":{"android":"levelo://app?vid=516bafe0-5ae1-4584-8a28-800d99267cec","ios":"levelo://app?vid=516bafe0-5ae1-4584-8a28-800d99267cec"},"vehicle_type_id":"4","last_reported":1739981488,"current_range_meters":14400,"station_id":"ce4bhnp2rcd13ifvqh0g","pricing_plan_id":"cebpf4jnsgd1na2vs0mg"},{"bike_id":"9cfc4cc3-b27b-4b5a-8200-8f933e7c4ef5","system_id":"levelo_inurba_marseille","lat":43.32313,"lon":5.38906,"is_reserved":false,"is_disabled":false,"rental_uris":{"android":"levelo://app?vid=9cfc4cc3-b27b-4b5a-8200-8f933e7c4ef5","ios":"levelo://app?vid=9cfc4cc3-b27b-4b5a-8200-8f933e7c4ef5"},"vehicle_type_id":"4","last_reported":1739981488,"current_range_meters":14400,"station_id":"ce4bhqp2rcd13ifvqhog","pricing_plan_id":"cebpf4jnsgd1na2vs0mg"},{"bike_id":"ee8dd025-6614-40ec-8b60-dc408d359650","system_id":"levelo_inurba_marseille","lat":43.26952,"lon":5.38654,"is_reserved":false,"is_disabled":false,"rental_uris":{"android":"levelo://app?vid=ee8dd025-6614-40ec-8b60-dc408d359650","ios":"levelo://app?vid=ee8dd025-6614-40ec-8b60-dc408d359650"},"vehicle_type_id":"4","last_reported":1739981488,"current_range_meters":14800,"station_id":"ce4bhh92rcd13ifvqfh0","pricing_plan_id":"cebpf4jnsgd1na2vs0mg"},{"bike_id":"a0af3547-0f5a-4ee7-a39d-23ed992db956","system_id":"levelo_inurba_marseille","lat":43.23418,"lon":5.40452,"is_reserved":false,"is_disabled":false,"rental_uris":{"android":"levelo://app?vid=a0af3547-0f5a-4ee7-a39d-23ed992db956","ios":"levelo://app?vid=a0af3547-0f5a-4ee7-a39d-23ed992db956"},"vehicle_type_id":"4","last_reported":1739981488,"current_range_meters":14800,"station_id":"","pricing_plan_id":"cebpf4jnsgd1na2vs0mg"},{"bike_id":"b85644ed-f65a-4039-a397-da921e97276e","system_id":"levelo_inurba_marseille","lat":43.23966,"lon":5.36635,"is_reserved":false,"is_disabled":false,"rental_uris":{"android":"levelo://app?vid=b85644ed-f65a-4039-a397-da921e97276e","ios":"levelo://app?vid=b85644ed-f65a-4039-a397-da921e97276e"},"vehicle_type_id":"4","last_reported":1739981488,"current_range_meters":15200,"station_id":"ce4bhi12rcd13ifvqfp0","pricing_plan_id":"cebpf4jnsgd1na2vs0mg"},{"bike_id":"5428c4a6-2268-45c5-aff9-a5f8e308d92b","system_id":"levelo_inurba_marseille","lat":43.30928,"lon":5.37249,"is_reserved":false,"is_disabled":false,"rental_uris":{"android":"levelo://app?vid=5428c4a6-2268-45c5-aff9-a5f8e308d92b","ios":"levelo://app?vid=5428c4a6-2268-45c5-aff9-a5f8e308d92b"},"vehicle_type_id":"4","last_reported":1739981488,"current_range_meters":15200,"station_id":"ce4bguh2rcd13ifvqckg","pricing_plan_id":"cebpf4jnsgd1na2vs0mg"},{"bike_id":"b390b788-aa53-49e8-92de-c2b58aa681f2","system_id":"levelo_inurba_marseille","lat":43.295695,"lon":5.375025,"is_reserved":false,"is_disabled":false,"rental_uris":{"android":"levelo://app?vid=b390b788-aa53-49e8-92de-c2b58aa681f2","ios":"levelo://app?vid=b390b788-aa53-49e8-92de-c2b58aa681f2"},"vehicle_type_id":"4","last_reported":1739981488,"current_range_meters":16000,"station_id":"","pricing_plan_id":"cebpf4jnsgd1na2vs0mg"},{"bike_id":"4bfe85c8-5ca3-41e4-81e1-2c4924b5c732","system_id":"levelo_inurba_marseille","lat":43.29567,"lon":5.3749,"is_reserved":false,"is_disabled":false,"rental_uris":{"android":"levelo://app?vid=4bfe85c8-5ca3-41e4-81e1-2c4924b5c732","ios":"levelo://app?vid=4bfe85c8-5ca3-41e4-81e1-2c4924b5c732"},"vehicle_type_id":"4","last_reported":1739981488,"current_range_meters":15200,"station_id":"ce4bgh92rcd13ifvqb50","pricing_plan_id":"cebpf4jnsgd1na2vs0mg"},{"bike_id":"69d83863-ba3f-44d3-b444-b2034cf1c759","system_id":"levelo_inurba_marseille","lat":43.286473,"lon":5.365254,"is_reserved":false,"is_disabled":false,"rental_uris":{"android":"levelo://app?vid=69d83863-ba3f-44d3-b444-b2034cf1c759","ios":"levelo://app?vid=69d83863-ba3f-44d3-b444-b2034cf1c759"},"vehicle_type_id":"4","last_reported":1739981488,"current_range_meters":15200,"station_id":"","pricing_plan_id":"cebpf4jnsgd1na2vs0mg"},{"bike_id":"4da6cc22-4d46-4a7c-8914-7b17d72dd95a","system_id":"levelo_inurba_marseille","lat":43.27165,"lon":5.41025,"is_reserved":false,"is_disabled":false,"rental_uris":{"android":"levelo://app?vid=4da6cc22-4d46-4a7c-8914-7b17d72dd95a","ios":"levelo://app?vid=4da6cc22-4d46-4a7c-8914-7b17d72dd95a"},"vehicle_type_id":"4","last_reported":1739981488,"current_range_meters":15200,"station_id":"ce4bhl12rcd13ifvqgf0","pricing_plan_id":"cebpf4jnsgd1na2vs0mg"},{"bike_id":"e5e2ed65-0a50-46fd-af77-1264dac67336","system_id":"levelo_inurba_marseille","lat":43.24179,"lon":5.36393,"is_reserved":false,"is_disabled":false,"rental_uris":{"android":"levelo://app?vid=e5e2ed65-0a50-46fd-af77-1264dac67336","ios":"levelo://app?vid=e5e2ed65-0a50-46fd-af77-1264dac67336"},"vehicle_type_id":"4","last_reported":1739981488,"current_range_meters":16000,"station_id":"","pricing_plan_id":"cebpf4jnsgd1na2vs0mg"},{"bike_id":"6c695163-13d1-4682-b513-311ea8d75027","system_id":"levelo_inurba_marseille","lat":43.31225,"lon":5.3686,"is_reserved":false,"is_disabled":false,"rental_uris":{"android":"levelo://app?vid=6c695163-13d1-4682-b513-311ea8d75027","ios":"levelo://app?vid=6c695163-13d1-4682-b513-311ea8d75027"},"vehicle_type_id":"4","last_reported":1739981488,"current_range_meters":16000,"station_id":"ce4bgl92rcd13ifvqbq0","pricing_plan_id":"cebpf4jnsgd1na2vs0mg"},{"bike_id":"91b65d6c-4a0d-4f72-adf3-7b0efceda63d","system_id":"levelo_inurba_marseille","lat":43.28157,"lon":5.42653,"is_reserved":false,"is_disabled":false,"rental_uris":{"android":"levelo://app?vid=91b65d6c-4a0d-4f72-adf3-7b0efceda63d","ios":"levelo://app?vid=91b65d6c-4a0d-4f72-adf3-7b0efceda63d"},"vehicle_type_id":"4","last_reported":1739981488,"current_range_meters":16000,"station_id":"ce4bhnh2rcd13ifvqgug","pricing_plan_id":"cebpf4jnsgd1na2vs0mg"},{"bike_id":"4351a4be-ecec-4ead-bbef-3393d95444bf","system_id":"levelo_inurba_marseille","lat":43.30431,"lon":5.39757,"is_reserved":false,"is_disabled":false,"rental_uris":{"android":"levelo://app?vid=4351a4be-ecec-4ead-bbef-3393d95444bf","ios":"levelo://app?vid=4351a4be-ecec-4ead-bbef-3393d95444bf"},"vehicle_type_id":"4","last_reported":1739981488,"current_range_meters":16000,"station_id":"ce4bh092rcd13ifvqd20","pricing_plan_id":"cebpf4jnsgd1na2vs0mg"},{"bike_id":"bd354dd3-6006-4e9f-90f1-63f0410f8583","system_id":"levelo_inurba_marseille","lat":43.27377,"lon":5.36256,"is_reserved":false,"is_disabled":false,"rental_uris":{"android":"levelo://app?vid=bd354dd3-6006-4e9f-90f1-63f0410f8583","ios":"levelo://app?vid=bd354dd3-6006-4e9f-90f1-63f0410f8583"},"vehicle_type_id":"4","last_reported":1739981488,"current_range_meters":16000,"station_id":"ce4bhbh2rcd13ifvqeo0","pricing_plan_id":"cebpf4jnsgd1na2vs0mg"},{"bike_id":"bb1a4c2a-340a-4f5b-b8fd-fd20852a249e","system_id":"levelo_inurba_marseille","lat":43.27623,"lon":5.36118,"is_reserved":false,"is_disabled":false,"rental_uris":{"android":"levelo://app?vid=bb1a4c2a-340a-4f5b-b8fd-fd20852a249e","ios":"levelo://app?vid=bb1a4c2a-340a-4f5b-b8fd-fd20852a249e"},"vehicle_type_id":"4","last_reported":1739981488,"current_range_meters":16000,"station_id":"ce4bgj92rcd13ifvqbe0","pricing_plan_id":"cebpf4jnsgd1na2vs0mg"},{"bike_id":"521c07ee-8f56-418c-9167-93791e255dc4","system_id":"levelo_inurba_marseille","lat":43.28719,"lon":5.3795,"is_reserved":false,"is_disabled":false,"rental_uris":{"android":"levelo://app?vid=521c07ee-8f56-418c-9167-93791e255dc4","ios":"levelo://app?vid=521c07ee-8f56-418c-9167-93791e255dc4"},"vehicle_type_id":"4","last_reported":1739981488,"current_range_meters":16000,"station_id":"ce4bh9p2rcd13ifvqec0","pricing_plan_id":"cebpf4jnsgd1na2vs0mg"},{"bike_id":"ffed8aaa-640c-4a62-b428-a98a44162108","system_id":"levelo_inurba_marseille","lat":43.30815,"lon":5.38154,"is_reserved":false,"is_disabled":false,"rental_uris":{"android":"levelo://app?vid=ffed8aaa-640c-4a62-b428-a98a44162108","ios":"levelo://app?vid=ffed8aaa-640c-4a62-b428-a98a44162108"},"vehicle_type_id":"4","last_reported":1739981488,"current_range_meters":16000,"station_id":"ce4bgt12rcd13ifvqce0","pricing_plan_id":"cebpf4jnsgd1na2vs0mg"},{"bike_id":"c445496b-1882-48af-8df4-1bf8a25b98fc","system_id":"levelo_inurba_marseille","lat":43.31334,"lon":5.39696,"is_reserved":false,"is_disabled":false,"rental_uris":{"android":"levelo://app?vid=c445496b-1882-48af-8df4-1bf8a25b98fc","ios":"levelo://app?vid=c445496b-1882-48af-8df4-1bf8a25b98fc"},"vehicle_type_id":"4","last_reported":1739981488,"current_range_meters":16000,"station_id":"ce4bgvp2rcd13ifvqcu0","pricing_plan_id":"cebpf4jnsgd1na2vs0mg"},{"bike_id":"649adfb2-342f-4cfd-9f94-ae3463a29025","system_id":"levelo_inurba_marseille","lat":43.29788,"lon":5.38097,"is_reserved":false,"is_disabled":false,"rental_uris":{"android":"levelo://app?vid=649adfb2-342f-4cfd-9f94-ae3463a29025","ios":"levelo://app?vid=649adfb2-342f-4cfd-9f94-ae3463a29025"},"vehicle_type_id":"4","last_reported":1739981488,"current_range_meters":16400,"station_id":"ce4bgip2rcd13ifvqbb0","pricing_plan_id":"cebpf4jnsgd1na2vs0mg"},{"bike_id":"b5da9552-24dd-491c-8268-c7e5d719ad6d","system_id":"levelo_inurba_marseille","lat":43.28933,"lon":5.36393,"is_reserved":false,"is_disabled":false,"rental_uris":{"android":"levelo://app?vid=b5da9552-24dd-491c-8268-c7e5d719ad6d","ios":"levelo://app?vid=b5da9552-24dd-491c-8268-c7e5d719ad6d"},"vehicle_type_id":"4","last_reported":1739981488,"current_range_meters":16400,"station_id":"ce4bhc92rcd13ifvqetg","pricing_plan_id":"cebpf4jnsgd1na2vs0mg"},{"bike_id":"ba379239-9216-4e46-a96c-a73988d910ff","system_id":"levelo_inurba_marseille","lat":43.26489,"lon":5.37146,"is_reserved":false,"is_disabled":false,"rental_uris":{"android":"levelo://app?vid=ba379239-9216-4e46-a96c-a73988d910ff","ios":"levelo://app?vid=ba379239-9216-4e46-a96c-a73988d910ff"},"vehicle_type_id":"4","last_reported":1739981488,"current_range_meters":16400,"station_id":"","pricing_plan_id":"cebpf4jnsgd1na2vs0mg"},{"bike_id":"4c62a4d0-8805-4cdb-a4a4-a2379a123c7a","system_id":"levelo_inurba_marseille","lat":43.29027,"lon":5.38138,"is_reserved":false,"is_disabled":false,"rental_uris":{"android":"levelo://app?vid=4c62a4d0-8805-4cdb-a4a4-a2379a123c7a","ios":"levelo://app?vid=4c62a4d0-8805-4cdb-a4a4-a2379a123c7a"},"vehicle_type_id":"4","last_reported":1739981488,"current_range_meters":16400,"station_id":"ce4bh4p2rcd13ifvqe1g","pricing_plan_id":"cebpf4jnsgd1na2vs0mg"},{"bike_id":"94ce4c1f-b676-43e1-9e28-ed9f6f6c8e2b","system_id":"levelo_inurba_marseille","lat":43.23621,"lon":5.3915,"is_reserved":false,"is_disabled":false,"rental_uris":{"android":"levelo://app?vid=94ce4c1f-b676-43e1-9e28-ed9f6f6c8e2b","ios":"levelo://app?vid=94ce4c1f-b676-43e1-9e28-ed9f6f6c8e2b"},"vehicle_type_id":"4","last_reported":1739981488,"current_range_meters":16400,"station_id":"","pricing_plan_id":"cebpf4jnsgd1na2vs0mg"},{"bike_id":"2cdfa6bb-6c9f-4a46-a49b-db1b68c3bc4d","system_id":"levelo_inurba_marseille","lat":43.26202,"lon":5.37932,"is_reserved":false,"is_disabled":false,"rental_uris":{"android":"levelo://app?vid=2cdfa6bb-6c9f-4a46-a49b-db1b68c3bc4d","ios":"levelo://app?vid=2cdfa6bb-6c9f-4a46-a49b-db1b68c3bc4d"},"vehicle_type_id":"4","last_reported":1739981488,"current_range_meters":16400,"station_id":"ce4bhjp2rcd13ifvqg90","pricing_plan_id":"cebpf4jnsgd1na2vs0mg"},{"bike_id":"b76bf30b-8b78-4be0-9668-2a20d616845e","system_id":"levelo_inurba_marseille","lat":43.26553,"lon":5.39001,"is_reserved":false,"is_disabled":false,"rental_uris":{"android":"levelo://app?vid=b76bf30b-8b78-4be0-9668-2a20d616845e","ios":"levelo://app?vid=b76bf30b-8b78-4be0-9668-2a20d616845e"},"vehicle_type_id":"4","last_reported":1739981488,"current_range_meters":16400,"station_id":"ce4bhe12rcd13ifvqf30","pricing_plan_id":"cebpf4jnsgd1na2vs0mg"},{"bike_id":"efb58bf1-4403-4b9f-b67d-a8970e8c3a7f","system_id":"levelo_inurba_marseille","lat":43.25013,"lon":5.3891,"is_reserved":false,"is_disabled":false,"rental_uris":{"android":"levelo://app?vid=efb58bf1-4403-4b9f-b67d-a8970e8c3a7f","ios":"levelo://app?vid=efb58bf1-4403-4b9f-b67d-a8970e8c3a7f"},"vehicle_type_id":"4","last_reported":1739981488,"current_range_meters":16400,"station_id":"ce4bhgp2rcd13ifvqfd0","pricing_plan_id":"cebpf4jnsgd1na2vs0mg"},{"bike_id":"1ff76743-7373-44c9-8a88-9ff69b66cd43","system_id":"levelo_inurba_marseille","lat":43.30966,"lon":5.3903,"is_reserved":false,"is_disabled":false,"rental_uris":{"android":"levelo://app?vid=1ff76743-7373-44c9-8a88-9ff69b66cd43","ios":"levelo://app?vid=1ff76743-7373-44c9-8a88-9ff69b66cd43"},"vehicle_type_id":"4","last_reported":1739981488,"current_range_meters":16400,"station_id":"","pricing_plan_id":"cebpf4jnsgd1na2vs0mg"},{"bike_id":"749511d9-4ffb-4693-b9cb-f6a866337302","system_id":"levelo_inurba_marseille","lat":43.30964,"lon":5.39038,"is_reserved":false,"is_disabled":false,"rental_uris":{"android":"levelo://app?vid=749511d9-4ffb-4693-b9cb-f6a866337302","ios":"levelo://app?vid=749511d9-4ffb-4693-b9cb-f6a866337302"},"vehicle_type_id":"4","last_reported":1739981488,"current_range_meters":16400,"station_id":"","pricing_plan_id":"cebpf4jnsgd1na2vs0mg"},{"bike_id":"ded0db1a-8604-4a66-a55e-3d2e1afd59a3","system_id":"levelo_inurba_marseille","lat":43.28691,"lon":5.38669,"is_reserved":false,"is_disabled":false,"rental_uris":{"android":"levelo://app?vid=ded0db1a-8604-4a66-a55e-3d2e1afd59a3","ios":"levelo://app?vid=ded0db1a-8604-4a66-a55e-3d2e1afd59a3"},"vehicle_type_id":"4","last_reported":1739981488,"current_range_meters":16400,"station_id":"","pricing_plan_id":"cebpf4jnsgd1na2vs0mg"},{"bike_id":"57c60d89-edc3-49ec-8b4c-59728c138bf4","system_id":"levelo_inurba_marseille","lat":43.28977,"lon":5.37841,"is_reserved":false,"is_disabled":false,"rental_uris":{"android":"levelo://app?vid=57c60d89-edc3-49ec-8b4c-59728c138bf4","ios":"levelo://app?vid=57c60d89-edc3-49ec-8b4c-59728c138bf4"},"vehicle_type_id":"4","last_reported":1739981488,"current_range_meters":17200,"station_id":"ce4bh9p2rcd13ifvqed0","pricing_plan_id":"cebpf4jnsgd1na2vs0mg"},{"bike_id":"b7e96173-67d0-4b22-b8f4-4f5e273edc2e","system_id":"levelo_inurba_marseille","lat":43.30816,"lon":5.37341,"is_reserved":false,"is_disabled":false,"rental_uris":{"android":"levelo://app?vid=b7e96173-67d0-4b22-b8f4-4f5e273edc2e","ios":"levelo://app?vid=b7e96173-67d0-4b22-b8f4-4f5e273edc2e"},"vehicle_type_id":"4","last_reported":1739981488,"current_range_meters":16800,"station_id":"","pricing_plan_id":"cebpf4jnsgd1na2vs0mg"},{"bike_id":"014ffc93-64a2-48d7-9e39-bbf14956782c","system_id":"levelo_inurba_marseille","lat":43.27379,"lon":5.36252,"is_reserved":false,"is_disabled":false,"rental_uris":{"android":"levelo://app?vid=014ffc93-64a2-48d7-9e39-bbf14956782c","ios":"levelo://app?vid=014ffc93-64a2-48d7-9e39-bbf14956782c"},"vehicle_type_id":"4","last_reported":1739981488,"current_range_meters":16800,"station_id":"ce4bhbh2rcd13ifvqeo0","pricing_plan_id":"cebpf4jnsgd1na2vs0mg"},{"bike_id":"1b273060-a082-49f7-b88f-e98f4f2ac601","system_id":"levelo_inurba_marseille","lat":43.28354,"lon":5.38115,"is_reserved":false,"is_disabled":false,"rental_uris":{"android":"levelo://app?vid=1b273060-a082-49f7-b88f-e98f4f2ac601","ios":"levelo://app?vid=1b273060-a082-49f7-b88f-e98f4f2ac601"},"vehicle_type_id":"4","last_reported":1739981488,"current_range_meters":16800,"station_id":"ce4bh412rcd13ifvqdr0","pricing_plan_id":"cebpf4jnsgd1na2vs0mg"},{"bike_id":"0723824f-76c1-48d0-836e-bba190d21976","system_id":"levelo_inurba_marseille","lat":43.31323,"lon":5.39698,"is_reserved":false,"is_disabled":false,"rental_uris":{"android":"levelo://app?vid=0723824f-76c1-48d0-836e-bba190d21976","ios":"levelo://app?vid=0723824f-76c1-48d0-836e-bba190d21976"},"vehicle_type_id":"4","last_reported":1739981488,"current_range_meters":16800,"station_id":"ce4bgvp2rcd13ifvqcu0","pricing_plan_id":"cebpf4jnsgd1na2vs0mg"},{"bike_id":"6c9c8bd6-ad0f-4b8d-a2bc-9a73d0c24657","system_id":"levelo_inurba_marseille","lat":43.31345,"lon":5.36736,"is_reserved":false,"is_disabled":false,"rental_uris":{"android":"levelo://app?vid=6c9c8bd6-ad0f-4b8d-a2bc-9a73d0c24657","ios":"levelo://app?vid=6c9c8bd6-ad0f-4b8d-a2bc-9a73d0c24657"},"vehicle_type_id":"4","last_reported":1739981488,"current_range_meters":16800,"station_id":"ce4bgt92rcd13ifvqcf0","pricing_plan_id":"cebpf4jnsgd1na2vs0mg"},{"bike_id":"477ac2db-8f8c-4cbc-8427-0ab644b57a7a","system_id":"levelo_inurba_marseille","lat":43.25014,"lon":5.38919,"is_reserved":false,"is_disabled":false,"rental_uris":{"android":"levelo://app?vid=477ac2db-8f8c-4cbc-8427-0ab644b57a7a","ios":"levelo://app?vid=477ac2db-8f8c-4cbc-8427-0ab644b57a7a"},"vehicle_type_id":"4","last_reported":1739981488,"current_range_meters":16800,"station_id":"ce4bhgp2rcd13ifvqfd0","pricing_plan_id":"cebpf4jnsgd1na2vs0mg"},{"bike_id":"70b29375-6369-4c56-96c2-6d8be4e5d1b3","system_id":"levelo_inurba_marseille","lat":43.29584,"lon":5.36741,"is_reserved":false,"is_disabled":false,"rental_uris":{"android":"levelo://app?vid=70b29375-6369-4c56-96c2-6d8be4e5d1b3","ios":"levelo://app?vid=70b29375-6369-4c56-96c2-6d8be4e5d1b3"},"vehicle_type_id":"4","last_reported":1739981488,"current_range_meters":16800,"station_id":"ce4bgph2rcd13ifvqc2g","pricing_plan_id":"cebpf4jnsgd1na2vs0mg"},{"bike_id":"318901b2-2e07-410f-90d6-8127a6264901","system_id":"levelo_inurba_marseille","lat":43.3081,"lon":5.38145,"is_reserved":false,"is_disabled":false,"rental_uris":{"android":"levelo://app?vid=318901b2-2e07-410f-90d6-8127a6264901","ios":"levelo://app?vid=318901b2-2e07-410f-90d6-8127a6264901"},"vehicle_type_id":"4","last_reported":1739981488,"current_range_meters":16800,"station_id":"ce4bgt12rcd13ifvqce0","pricing_plan_id":"cebpf4jnsgd1na2vs0mg"},{"bike_id":"d9102e21-6294-472e-8da2-16dfb746ec2b","system_id":"levelo_inurba_marseille","lat":43.28138,"lon":5.4457,"is_reserved":false,"is_disabled":false,"rental_uris":{"android":"levelo://app?vid=d9102e21-6294-472e-8da2-16dfb746ec2b","ios":"levelo://app?vid=d9102e21-6294-472e-8da2-16dfb746ec2b"},"vehicle_type_id":"4","last_reported":1739981488,"current_range_meters":16800,"station_id":"ce4bhnh2rcd13ifvqgtg","pricing_plan_id":"cebpf4jnsgd1na2vs0mg"},{"bike_id":"c45d3a30-3c78-4b8e-8691-588cdf4ff281","system_id":"levelo_inurba_marseille","lat":43.23155,"lon":5.43714,"is_reserved":false,"is_disabled":false,"rental_uris":{"android":"levelo://app?vid=c45d3a30-3c78-4b8e-8691-588cdf4ff281","ios":"levelo://app?vid=c45d3a30-3c78-4b8e-8691-588cdf4ff281"},"vehicle_type_id":"4","last_reported":1739981488,"current_range_meters":16800,"station_id":"ce4bhmp2rcd13ifvqgog","pricing_plan_id":"cebpf4jnsgd1na2vs0mg"},{"bike_id":"8becd64c-893d-4a08-8876-b1598e031c70","system_id":"levelo_inurba_marseille","lat":43.27964,"lon":5.38729,"is_reserved":false,"is_disabled":true,"rental_uris":{"android":"levelo://app?vid=8becd64c-893d-4a08-8876-b1598e031c70","ios":"levelo://app?vid=8becd64c-893d-4a08-8876-b1598e031c70"},"vehicle_type_id":"4","last_reported":1739981488,"current_range_meters":17200,"station_id":"","pricing_plan_id":"cebpf4jnsgd1na2vs0mg"},{"bike_id":"4d1248da-d5d9-447e-9080-1ca7ebcc133c","system_id":"levelo_inurba_marseille","lat":43.28007,"lon":5.4167,"is_reserved":false,"is_disabled":false,"rental_uris":{"android":"levelo://app?vid=4d1248da-d5d9-447e-9080-1ca7ebcc133c","ios":"levelo://app?vid=4d1248da-d5d9-447e-9080-1ca7ebcc133c"},"vehicle_type_id":"4","last_reported":1739981488,"current_range_meters":17200,"station_id":"","pricing_plan_id":"cebpf4jnsgd1na2vs0mg"},{"bike_id":"b992f9c6-8cd4-4847-bf21-0b493529cfb3","system_id":"levelo_inurba_marseille","lat":43.295722,"lon":5.399787,"is_reserved":false,"is_disabled":false,"rental_uris":{"android":"levelo://app?vid=b992f9c6-8cd4-4847-bf21-0b493529cfb3","ios":"levelo://app?vid=b992f9c6-8cd4-4847-bf21-0b493529cfb3"},"vehicle_type_id":"4","last_reported":1739981488,"current_range_meters":17200,"station_id":"ce4bhn92rcd13ifvqgrg","pricing_plan_id":"cebpf4jnsgd1na2vs0mg"},{"bike_id":"003c44c1-3cd5-48e6-afbd-3e395aa9e710","system_id":"levelo_inurba_marseille","lat":43.29913,"lon":5.43657,"is_reserved":false,"is_disabled":false,"rental_uris":{"android":"levelo://app?vid=003c44c1-3cd5-48e6-afbd-3e395aa9e710","ios":"levelo://app?vid=003c44c1-3cd5-48e6-afbd-3e395aa9e710"},"vehicle_type_id":"4","last_reported":1739981488,"current_range_meters":17200,"station_id":"ce4bhpp2rcd13ifvqhfg","pricing_plan_id":"cebpf4jnsgd1na2vs0mg"},{"bike_id":"8539f70e-92fc-4acc-a954-4a6e47439735","system_id":"levelo_inurba_marseille","lat":43.30918,"lon":5.37193,"is_reserved":false,"is_disabled":false,"rental_uris":{"android":"levelo://app?vid=8539f70e-92fc-4acc-a954-4a6e47439735","ios":"levelo://app?vid=8539f70e-92fc-4acc-a954-4a6e47439735"},"vehicle_type_id":"4","last_reported":1739981488,"current_range_meters":18000,"station_id":"ce4bguh2rcd13ifvqckg","pricing_plan_id":"cebpf4jnsgd1na2vs0mg"},{"bike_id":"87bfb215-c131-466c-86fa-09b8635eb6a6","system_id":"levelo_inurba_marseille","lat":43.25499,"lon":5.3765,"is_reserved":false,"is_disabled":false,"rental_uris":{"android":"levelo://app?vid=87bfb215-c131-466c-86fa-09b8635eb6a6","ios":"levelo://app?vid=87bfb215-c131-466c-86fa-09b8635eb6a6"},"vehicle_type_id":"4","last_reported":1739981488,"current_range_meters":17200,"station_id":"ce4bhh12rcd13ifvqff0","pricing_plan_id":"cebpf4jnsgd1na2vs0mg"},{"bike_id":"943618dd-7514-4f47-83fd-27b10f2d6c29","system_id":"levelo_inurba_marseille","lat":43.28467,"lon":5.35871,"is_reserved":false,"is_disabled":false,"rental_uris":{"android":"levelo://app?vid=943618dd-7514-4f47-83fd-27b10f2d6c29","ios":"levelo://app?vid=943618dd-7514-4f47-83fd-27b10f2d6c29"},"vehicle_type_id":"4","last_reported":1739981488,"current_range_meters":17200,"station_id":"ce4bhah2rcd13ifvqei0","pricing_plan_id":"cebpf4jnsgd1na2vs0mg"},{"bike_id":"987de0c2-b9bd-4bef-ba52-5ce350e4cb1b","system_id":"levelo_inurba_marseille","lat":43.28001,"lon":5.4166,"is_reserved":false,"is_disabled":false,"rental_uris":{"android":"levelo://app?vid=987de0c2-b9bd-4bef-ba52-5ce350e4cb1b","ios":"levelo://app?vid=987de0c2-b9bd-4bef-ba52-5ce350e4cb1b"},"vehicle_type_id":"4","last_reported":1739981488,"current_range_meters":17200,"station_id":"ce4bho12rcd13ifvqh1g","pricing_plan_id":"cebpf4jnsgd1na2vs0mg"},{"bike_id":"ad83c156-1bc9-4559-81c1-13cc14a8fb0b","system_id":"levelo_inurba_marseille","lat":43.2794,"lon":5.41047,"is_reserved":false,"is_disabled":false,"rental_uris":{"android":"levelo://app?vid=ad83c156-1bc9-4559-81c1-13cc14a8fb0b","ios":"levelo://app?vid=ad83c156-1bc9-4559-81c1-13cc14a8fb0b"},"vehicle_type_id":"4","last_reported":1739981488,"current_range_meters":17200,"station_id":"ce4bhnp2rcd13ifvqh0g","pricing_plan_id":"cebpf4jnsgd1na2vs0mg"},{"bike_id":"9017b728-f7fc-4589-9f6c-11332b186e17","system_id":"levelo_inurba_marseille","lat":43.28624,"lon":5.35106,"is_reserved":false,"is_disabled":false,"rental_uris":{"android":"levelo://app?vid=9017b728-f7fc-4589-9f6c-11332b186e17","ios":"levelo://app?vid=9017b728-f7fc-4589-9f6c-11332b186e17"},"vehicle_type_id":"4","last_reported":1739981488,"current_range_meters":17200,"station_id":"ce4bhch2rcd13ifvqeug","pricing_plan_id":"cebpf4jnsgd1na2vs0mg"},{"bike_id":"0ebe3bbe-3312-4854-8c5c-e41de3dd3614","system_id":"levelo_inurba_marseille","lat":43.27959,"lon":5.38704,"is_reserved":false,"is_disabled":false,"rental_uris":{"android":"levelo://app?vid=0ebe3bbe-3312-4854-8c5c-e41de3dd3614","ios":"levelo://app?vid=0ebe3bbe-3312-4854-8c5c-e41de3dd3614"},"vehicle_type_id":"4","last_reported":1739981488,"current_range_meters":17200,"station_id":"","pricing_plan_id":"cebpf4jnsgd1na2vs0mg"},{"bike_id":"a1a2b460-b478-43af-913b-5e3f11e44138","system_id":"levelo_inurba_marseille","lat":43.2719,"lon":5.38287,"is_reserved":false,"is_disabled":false,"rental_uris":{"android":"levelo://app?vid=a1a2b460-b478-43af-913b-5e3f11e44138","ios":"levelo://app?vid=a1a2b460-b478-43af-913b-5e3f11e44138"},"vehicle_type_id":"4","last_reported":1739981488,"current_range_meters":17200,"station_id":"","pricing_plan_id":"cebpf4jnsgd1na2vs0mg"},{"bike_id":"1a412dc3-d76d-4575-a0f0-bea5944d9b85","system_id":"levelo_inurba_marseille","lat":43.30558,"lon":5.36522,"is_reserved":false,"is_disabled":false,"rental_uris":{"android":"levelo://app?vid=1a412dc3-d76d-4575-a0f0-bea5944d9b85","ios":"levelo://app?vid=1a412dc3-d76d-4575-a0f0-bea5944d9b85"},"vehicle_type_id":"4","last_reported":1739981488,"current_range_meters":17200,"station_id":"ce4bgs12rcd13ifvqcag","pricing_plan_id":"cebpf4jnsgd1na2vs0mg"},{"bike_id":"0836dc76-4664-4307-a03c-7a428b623c8f","system_id":"levelo_inurba_marseille","lat":43.27898,"lon":5.37995,"is_reserved":false,"is_disabled":false,"rental_uris":{"android":"levelo://app?vid=0836dc76-4664-4307-a03c-7a428b623c8f","ios":"levelo://app?vid=0836dc76-4664-4307-a03c-7a428b623c8f"},"vehicle_type_id":"4","last_reported":1739981488,"current_range_meters":17200,"station_id":"ce4bhf92rcd13ifvqf50","pricing_plan_id":"cebpf4jnsgd1na2vs0mg"},{"bike_id":"5a1391f0-7566-4464-a142-949b0eb37374","system_id":"levelo_inurba_marseille","lat":43.30263,"lon":5.40084,"is_reserved":false,"is_disabled":false,"rental_uris":{"android":"levelo://app?vid=5a1391f0-7566-4464-a142-949b0eb37374","ios":"levelo://app?vid=5a1391f0-7566-4464-a142-949b0eb37374"},"vehicle_type_id":"4","last_reported":1739981488,"current_range_meters":17600,"station_id":"ce4bgvh2rcd13ifvqcs0","pricing_plan_id":"cebpf4jnsgd1na2vs0mg"},{"bike_id":"02294ecb-63f1-466c-86e6-f94378485dff","system_id":"levelo_inurba_marseille","lat":43.2815,"lon":5.42621,"is_reserved":false,"is_disabled":false,"rental_uris":{"android":"levelo://app?vid=02294ecb-63f1-466c-86e6-f94378485dff","ios":"levelo://app?vid=02294ecb-63f1-466c-86e6-f94378485dff"},"vehicle_type_id":"4","last_reported":1739981488,"current_range_meters":17600,"station_id":"ce4bhnh2rcd13ifvqgug","pricing_plan_id":"cebpf4jnsgd1na2vs0mg"},{"bike_id":"66b5a43e-2798-4c72-8acc-33d23152963b","system_id":"levelo_inurba_marseille","lat":43.27231,"lon":5.4101,"is_reserved":false,"is_disabled":false,"rental_uris":{"android":"levelo://app?vid=66b5a43e-2798-4c72-8acc-33d23152963b","ios":"levelo://app?vid=66b5a43e-2798-4c72-8acc-33d23152963b"},"vehicle_type_id":"4","last_reported":1739981488,"current_range_meters":17600,"station_id":"ce4bhl12rcd13ifvqgf0","pricing_plan_id":"cebpf4jnsgd1na2vs0mg"},{"bike_id":"75673006-1fda-46a1-a573-0e1cfeae28aa","system_id":"levelo_inurba_marseille","lat":43.29488,"lon":5.38272,"is_reserved":false,"is_disabled":false,"rental_uris":{"android":"levelo://app?vid=75673006-1fda-46a1-a573-0e1cfeae28aa","ios":"levelo://app?vid=75673006-1fda-46a1-a573-0e1cfeae28aa"},"vehicle_type_id":"4","last_reported":1739981488,"current_range_meters":17600,"station_id":"","pricing_plan_id":"cebpf4jnsgd1na2vs0mg"},{"bike_id":"c0ad0aa7-d10a-441e-a63b-efdf15cd8fc1","system_id":"levelo_inurba_marseille","lat":43.30134,"lon":5.39845,"is_reserved":false,"is_disabled":false,"rental_uris":{"android":"levelo://app?vid=c0ad0aa7-d10a-441e-a63b-efdf15cd8fc1","ios":"levelo://app?vid=c0ad0aa7-d10a-441e-a63b-efdf15cd8fc1"},"vehicle_type_id":"4","last_reported":1739981488,"current_range_meters":17600,"station_id":"ce4bh0h2rcd13ifvqd40","pricing_plan_id":"cebpf4jnsgd1na2vs0mg"},{"bike_id":"7398b122-f9d0-4656-98df-fac72d8a2764","system_id":"levelo_inurba_marseille","lat":43.29222,"lon":5.36046,"is_reserved":false,"is_disabled":false,"rental_uris":{"android":"levelo://app?vid=7398b122-f9d0-4656-98df-fac72d8a2764","ios":"levelo://app?vid=7398b122-f9d0-4656-98df-fac72d8a2764"},"vehicle_type_id":"4","last_reported":1739981488,"current_range_meters":17600,"station_id":"","pricing_plan_id":"cebpf4jnsgd1na2vs0mg"},{"bike_id":"2ecd0193-3ead-45f6-a356-d8c1ecf35566","system_id":"levelo_inurba_marseille","lat":43.26213,"lon":5.37443,"is_reserved":false,"is_disabled":false,"rental_uris":{"android":"levelo://app?vid=2ecd0193-3ead-45f6-a356-d8c1ecf35566","ios":"levelo://app?vid=2ecd0193-3ead-45f6-a356-d8c1ecf35566"},"vehicle_type_id":"4","last_reported":1739981488,"current_range_meters":17600,"station_id":"ce4bhgp2rcd13ifvqfc0","pricing_plan_id":"cebpf4jnsgd1na2vs0mg"},{"bike_id":"f2766e20-6216-4db5-b598-6cf1b2e2cc30","system_id":"levelo_inurba_marseille","lat":43.2928,"lon":5.38451,"is_reserved":false,"is_disabled":false,"rental_uris":{"android":"levelo://app?vid=f2766e20-6216-4db5-b598-6cf1b2e2cc30","ios":"levelo://app?vid=f2766e20-6216-4db5-b598-6cf1b2e2cc30"},"vehicle_type_id":"4","last_reported":1739981488,"current_range_meters":17600,"station_id":"ce4bh692rcd13ifvqea0","pricing_plan_id":"cebpf4jnsgd1na2vs0mg"},{"bike_id":"589b7e93-aafb-408e-bad6-8f506bbecbdf","system_id":"levelo_inurba_marseille","lat":43.29428,"lon":5.38613,"is_reserved":false,"is_disabled":false,"rental_uris":{"android":"levelo://app?vid=589b7e93-aafb-408e-bad6-8f506bbecbdf","ios":"levelo://app?vid=589b7e93-aafb-408e-bad6-8f506bbecbdf"},"vehicle_type_id":"4","last_reported":1739981488,"current_range_meters":19200,"station_id":"ce4bh2h2rcd13ifvqdh0","pricing_plan_id":"cebpf4jnsgd1na2vs0mg"},{"bike_id":"3bad0b07-fa7a-4cc7-9650-b1214bfaef19","system_id":"levelo_inurba_marseille","lat":43.28157,"lon":5.42639,"is_reserved":false,"is_disabled":false,"rental_uris":{"android":"levelo://app?vid=3bad0b07-fa7a-4cc7-9650-b1214bfaef19","ios":"levelo://app?vid=3bad0b07-fa7a-4cc7-9650-b1214bfaef19"},"vehicle_type_id":"4","last_reported":1739981488,"current_range_meters":18000,"station_id":"","pricing_plan_id":"cebpf4jnsgd1na2vs0mg"},{"bike_id":"d152d99e-ce94-445d-96dd-4def10272ef6","system_id":"levelo_inurba_marseille","lat":43.28465,"lon":5.38431,"is_reserved":false,"is_disabled":false,"rental_uris":{"android":"levelo://app?vid=d152d99e-ce94-445d-96dd-4def10272ef6","ios":"levelo://app?vid=d152d99e-ce94-445d-96dd-4def10272ef6"},"vehicle_type_id":"4","last_reported":1739981488,"current_range_meters":18800,"station_id":"ce4bh512rcd13ifvqe3g","pricing_plan_id":"cebpf4jnsgd1na2vs0mg"},{"bike_id":"378a21a7-b1ec-4051-850d-b470f3510d96","system_id":"levelo_inurba_marseille","lat":43.268054,"lon":5.402668,"is_reserved":false,"is_disabled":true,"rental_uris":{"android":"levelo://app?vid=378a21a7-b1ec-4051-850d-b470f3510d96","ios":"levelo://app?vid=378a21a7-b1ec-4051-850d-b470f3510d96"},"vehicle_type_id":"4","last_reported":1739981488,"current_range_meters":18000,"station_id":"ce501612rcd8frsf0b60","pricing_plan_id":"cebpf4jnsgd1na2vs0mg"},{"bike_id":"f3d1d4d9-b142-40fe-8999-d57d79f2680f","system_id":"levelo_inurba_marseille","lat":43.29063,"lon":5.37176,"is_reserved":false,"is_disabled":false,"rental_uris":{"android":"levelo://app?vid=f3d1d4d9-b142-40fe-8999-d57d79f2680f","ios":"levelo://app?vid=f3d1d4d9-b142-40fe-8999-d57d79f2680f"},"vehicle_type_id":"4","last_reported":1739981488,"current_range_meters":18800,"station_id":"ce4bh5p2rcd13ifvqe4g","pricing_plan_id":"cebpf4jnsgd1na2vs0mg"},{"bike_id":"867e49ca-1fcf-4c4a-b641-c20eee771353","system_id":"levelo_inurba_marseille","lat":43.28159,"lon":5.42633,"is_reserved":false,"is_disabled":false,"rental_uris":{"android":"levelo://app?vid=867e49ca-1fcf-4c4a-b641-c20eee771353","ios":"levelo://app?vid=867e49ca-1fcf-4c4a-b641-c20eee771353"},"vehicle_type_id":"4","last_reported":1739981488,"current_range_meters":18000,"station_id":"","pricing_plan_id":"cebpf4jnsgd1na2vs0mg"},{"bike_id":"4140501a-5eac-4b5b-98fa-2e9413d20fa1","system_id":"levelo_inurba_marseille","lat":43.31227,"lon":5.36829,"is_reserved":false,"is_disabled":false,"rental_uris":{"android":"levelo://app?vid=4140501a-5eac-4b5b-98fa-2e9413d20fa1","ios":"levelo://app?vid=4140501a-5eac-4b5b-98fa-2e9413d20fa1"},"vehicle_type_id":"4","last_reported":1739981488,"current_range_meters":18000,"station_id":"ce4bgl92rcd13ifvqbq0","pricing_plan_id":"cebpf4jnsgd1na2vs0mg"},{"bike_id":"a93e8ae3-0090-4408-b519-f3bbf83be335","system_id":"levelo_inurba_marseille","lat":43.29845,"lon":5.36272,"is_reserved":false,"is_disabled":false,"rental_uris":{"android":"levelo://app?vid=a93e8ae3-0090-4408-b519-f3bbf83be335","ios":"levelo://app?vid=a93e8ae3-0090-4408-b519-f3bbf83be335"},"vehicle_type_id":"4","last_reported":1739981488,"current_range_meters":18000,"station_id":"","pricing_plan_id":"cebpf4jnsgd1na2vs0mg"},{"bike_id":"0f119bb9-42f5-484d-a273-90a601312646","system_id":"levelo_inurba_marseille","lat":43.27072,"lon":5.42302,"is_reserved":false,"is_disabled":false,"rental_uris":{"android":"levelo://app?vid=0f119bb9-42f5-484d-a273-90a601312646","ios":"levelo://app?vid=0f119bb9-42f5-484d-a273-90a601312646"},"vehicle_type_id":"4","last_reported":1739981488,"current_range_meters":18000,"station_id":"ce4bhk92rcd13ifvqgb0","pricing_plan_id":"cebpf4jnsgd1na2vs0mg"},{"bike_id":"24b034ae-81d8-4b0e-9d7b-9309f18a47ae","system_id":"levelo_inurba_marseille","lat":43.29153,"lon":5.37193,"is_reserved":false,"is_disabled":false,"rental_uris":{"android":"levelo://app?vid=24b034ae-81d8-4b0e-9d7b-9309f18a47ae","ios":"levelo://app?vid=24b034ae-81d8-4b0e-9d7b-9309f18a47ae"},"vehicle_type_id":"4","last_reported":1739981488,"current_range_meters":18800,"station_id":"","pricing_plan_id":"cebpf4jnsgd1na2vs0mg"},{"bike_id":"4e4afca6-f9d5-43dd-8f6e-b842fe2660b9","system_id":"levelo_inurba_marseille","lat":43.28496,"lon":5.38416,"is_reserved":false,"is_disabled":false,"rental_uris":{"android":"levelo://app?vid=4e4afca6-f9d5-43dd-8f6e-b842fe2660b9","ios":"levelo://app?vid=4e4afca6-f9d5-43dd-8f6e-b842fe2660b9"},"vehicle_type_id":"4","last_reported":1739981488,"current_range_meters":18800,"station_id":"","pricing_plan_id":"cebpf4jnsgd1na2vs0mg"},{"bike_id":"8eae0fcf-0a46-4111-95a0-cbaaf0f91e6b","system_id":"levelo_inurba_marseille","lat":43.26566,"lon":5.39013,"is_reserved":false,"is_disabled":false,"rental_uris":{"android":"levelo://app?vid=8eae0fcf-0a46-4111-95a0-cbaaf0f91e6b","ios":"levelo://app?vid=8eae0fcf-0a46-4111-95a0-cbaaf0f91e6b"},"vehicle_type_id":"4","last_reported":1739981488,"current_range_meters":18800,"station_id":"ce4bhe12rcd13ifvqf30","pricing_plan_id":"cebpf4jnsgd1na2vs0mg"},{"bike_id":"693f1443-d6b2-47bc-b7dc-57ba216ac612","system_id":"levelo_inurba_marseille","lat":43.28415,"lon":5.34982,"is_reserved":false,"is_disabled":false,"rental_uris":{"android":"levelo://app?vid=693f1443-d6b2-47bc-b7dc-57ba216ac612","ios":"levelo://app?vid=693f1443-d6b2-47bc-b7dc-57ba216ac612"},"vehicle_type_id":"4","last_reported":1739981488,"current_range_meters":18800,"station_id":"ce4bhg12rcd13ifvqf80","pricing_plan_id":"cebpf4jnsgd1na2vs0mg"},{"bike_id":"53324156-0b5f-4ee4-beb8-65d71f0308f4","system_id":"levelo_inurba_marseille","lat":43.26548,"lon":5.39073,"is_reserved":false,"is_disabled":true,"rental_uris":{"android":"levelo://app?vid=53324156-0b5f-4ee4-beb8-65d71f0308f4","ios":"levelo://app?vid=53324156-0b5f-4ee4-beb8-65d71f0308f4"},"vehicle_type_id":"4","last_reported":1739981488,"current_range_meters":18800,"station_id":"","pricing_plan_id":"cebpf4jnsgd1na2vs0mg"},{"bike_id":"304b9cfa-70a7-4934-bcbe-21408de9d9aa","system_id":"levelo_inurba_marseille","lat":43.337444,"lon":5.374475,"is_reserved":false,"is_disabled":false,"rental_uris":{"android":"levelo://app?vid=304b9cfa-70a7-4934-bcbe-21408de9d9aa","ios":"levelo://app?vid=304b9cfa-70a7-4934-bcbe-21408de9d9aa"},"vehicle_type_id":"4","last_reported":1739981488,"current_range_meters":18800,"station_id":"","pricing_plan_id":"cebpf4jnsgd1na2vs0mg"},{"bike_id":"38691670-cda3-41ac-97a5-fbb554dbc4a4","system_id":"levelo_inurba_marseille","lat":43.26939,"lon":5.40258,"is_reserved":false,"is_disabled":false,"rental_uris":{"android":"levelo://app?vid=38691670-cda3-41ac-97a5-fbb554dbc4a4","ios":"levelo://app?vid=38691670-cda3-41ac-97a5-fbb554dbc4a4"},"vehicle_type_id":"4","last_reported":1739981488,"current_range_meters":18800,"station_id":"cjm6bp8fraef2m0cb0m0","pricing_plan_id":"cebpf4jnsgd1na2vs0mg"},{"bike_id":"03bb80d2-2d58-477e-8d77-d8a9b94a8f21","system_id":"levelo_inurba_marseille","lat":43.2379,"lon":5.403436,"is_reserved":false,"is_disabled":false,"rental_uris":{"android":"levelo://app?vid=03bb80d2-2d58-477e-8d77-d8a9b94a8f21","ios":"levelo://app?vid=03bb80d2-2d58-477e-8d77-d8a9b94a8f21"},"vehicle_type_id":"4","last_reported":1739981488,"current_range_meters":18800,"station_id":"","pricing_plan_id":"cebpf4jnsgd1na2vs0mg"},{"bike_id":"3addd8d2-327f-4e60-8639-267e28d7c956","system_id":"levelo_inurba_marseille","lat":43.28685,"lon":5.38673,"is_reserved":false,"is_disabled":true,"rental_uris":{"android":"levelo://app?vid=3addd8d2-327f-4e60-8639-267e28d7c956","ios":"levelo://app?vid=3addd8d2-327f-4e60-8639-267e28d7c956"},"vehicle_type_id":"4","last_reported":1739981488,"current_range_meters":18800,"station_id":"","pricing_plan_id":"cebpf4jnsgd1na2vs0mg"},{"bike_id":"d3f1e9b7-dabe-43fb-88b2-20e6021411a4","system_id":"levelo_inurba_marseille","lat":43.29973,"lon":5.38509,"is_reserved":false,"is_disabled":false,"rental_uris":{"android":"levelo://app?vid=d3f1e9b7-dabe-43fb-88b2-20e6021411a4","ios":"levelo://app?vid=d3f1e9b7-dabe-43fb-88b2-20e6021411a4"},"vehicle_type_id":"4","last_reported":1739981488,"current_range_meters":18800,"station_id":"ce4bgj92rcd13ifvqbd0","pricing_plan_id":"cebpf4jnsgd1na2vs0mg"},{"bike_id":"220975fd-2af0-4613-a629-cd7c464b9733","system_id":"levelo_inurba_marseille","lat":43.31326,"lon":5.39696,"is_reserved":false,"is_disabled":false,"rental_uris":{"android":"levelo://app?vid=220975fd-2af0-4613-a629-cd7c464b9733","ios":"levelo://app?vid=220975fd-2af0-4613-a629-cd7c464b9733"},"vehicle_type_id":"4","last_reported":1739981488,"current_range_meters":18000,"station_id":"ce4bgvp2rcd13ifvqcu0","pricing_plan_id":"cebpf4jnsgd1na2vs0mg"},{"bike_id":"c3ae7303-ba88-4fcc-8c27-9d5fe0b8da75","system_id":"levelo_inurba_marseille","lat":43.26939,"lon":5.38931,"is_reserved":false,"is_disabled":false,"rental_uris":{"android":"levelo://app?vid=c3ae7303-ba88-4fcc-8c27-9d5fe0b8da75","ios":"levelo://app?vid=c3ae7303-ba88-4fcc-8c27-9d5fe0b8da75"},"vehicle_type_id":"4","last_reported":1739981488,"current_range_meters":18000,"station_id":"ce4bhhh2rcd13ifvqfl0","pricing_plan_id":"cebpf4jnsgd1na2vs0mg"},{"bike_id":"63d3fd56-a06f-4866-837b-543be86ed15c","system_id":"levelo_inurba_marseille","lat":43.30833,"lon":5.36919,"is_reserved":false,"is_disabled":false,"rental_uris":{"android":"levelo://app?vid=63d3fd56-a06f-4866-837b-543be86ed15c","ios":"levelo://app?vid=63d3fd56-a06f-4866-837b-543be86ed15c"},"vehicle_type_id":"4","last_reported":1739981488,"current_range_meters":19200,"station_id":"ce4bgl92rcd13ifvqbq0","pricing_plan_id":"cebpf4jnsgd1na2vs0mg"},{"bike_id":"834704e8-34ed-4ba2-a886-e9cfe5836af3","system_id":"levelo_inurba_marseille","lat":43.28415,"lon":5.34975,"is_reserved":false,"is_disabled":false,"rental_uris":{"android":"levelo://app?vid=834704e8-34ed-4ba2-a886-e9cfe5836af3","ios":"levelo://app?vid=834704e8-34ed-4ba2-a886-e9cfe5836af3"},"vehicle_type_id":"4","last_reported":1739981488,"current_range_meters":19200,"station_id":"ce4bhbh2rcd13ifvqepg","pricing_plan_id":"cebpf4jnsgd1na2vs0mg"},{"bike_id":"7d538134-1a3e-4c6e-ab5b-4d985c54776c","system_id":"levelo_inurba_marseille","lat":43.26066,"lon":5.39404,"is_reserved":false,"is_disabled":false,"rental_uris":{"android":"levelo://app?vid=7d538134-1a3e-4c6e-ab5b-4d985c54776c","ios":"levelo://app?vid=7d538134-1a3e-4c6e-ab5b-4d985c54776c"},"vehicle_type_id":"4","last_reported":1739981488,"current_range_meters":19200,"station_id":"ce4bhh92rcd13ifvqfj0","pricing_plan_id":"cebpf4jnsgd1na2vs0mg"},{"bike_id":"01ca3bb7-5fb0-4fc8-b0d3-0708f186a8bf","system_id":"levelo_inurba_marseille","lat":43.28491,"lon":5.38422,"is_reserved":false,"is_disabled":false,"rental_uris":{"android":"levelo://app?vid=01ca3bb7-5fb0-4fc8-b0d3-0708f186a8bf","ios":"levelo://app?vid=01ca3bb7-5fb0-4fc8-b0d3-0708f186a8bf"},"vehicle_type_id":"4","last_reported":1739981488,"current_range_meters":19200,"station_id":"ce4bh512rcd13ifvqe3g","pricing_plan_id":"cebpf4jnsgd1na2vs0mg"},{"bike_id":"c86b7de1-5183-4d39-8935-597f2767753d","system_id":"levelo_inurba_marseille","lat":43.27924,"lon":5.3958,"is_reserved":false,"is_disabled":false,"rental_uris":{"android":"levelo://app?vid=c86b7de1-5183-4d39-8935-597f2767753d","ios":"levelo://app?vid=c86b7de1-5183-4d39-8935-597f2767753d"},"vehicle_type_id":"4","last_reported":1739981488,"current_range_meters":19200,"station_id":"ce4bhf92rcd13ifvqf40","pricing_plan_id":"cebpf4jnsgd1na2vs0mg"},{"bike_id":"5f8ac6e8-9e1b-416d-bbcc-b008799e0ee2","system_id":"levelo_inurba_marseille","lat":43.25504,"lon":5.37653,"is_reserved":false,"is_disabled":false,"rental_uris":{"android":"levelo://app?vid=5f8ac6e8-9e1b-416d-bbcc-b008799e0ee2","ios":"levelo://app?vid=5f8ac6e8-9e1b-416d-bbcc-b008799e0ee2"},"vehicle_type_id":"4","last_reported":1739981488,"current_range_meters":19200,"station_id":"ce4bhh12rcd13ifvqff0","pricing_plan_id":"cebpf4jnsgd1na2vs0mg"},{"bike_id":"6c421d45-7ff5-4073-820a-345511749e69","system_id":"levelo_inurba_marseille","lat":43.29012,"lon":5.35622,"is_reserved":false,"is_disabled":false,"rental_uris":{"android":"levelo://app?vid=6c421d45-7ff5-4073-820a-345511749e69","ios":"levelo://app?vid=6c421d45-7ff5-4073-820a-345511749e69"},"vehicle_type_id":"4","last_reported":1739981488,"current_range_meters":19200,"station_id":"ce4bhb92rcd13ifvqen0","pricing_plan_id":"cebpf4jnsgd1na2vs0mg"},{"bike_id":"42380e47-ba3f-430a-a398-1a4a51bd7596","system_id":"levelo_inurba_marseille","lat":43.30444,"lon":5.38897,"is_reserved":false,"is_disabled":false,"rental_uris":{"android":"levelo://app?vid=42380e47-ba3f-430a-a398-1a4a51bd7596","ios":"levelo://app?vid=42380e47-ba3f-430a-a398-1a4a51bd7596"},"vehicle_type_id":"4","last_reported":1739981488,"current_range_meters":19200,"station_id":"ce4bgk12rcd13ifvqbi0","pricing_plan_id":"cebpf4jnsgd1na2vs0mg"},{"bike_id":"751d2cf4-fa99-4a3f-9556-3ff54793f80a","system_id":"levelo_inurba_marseille","lat":43.25825,"lon":5.39439,"is_reserved":false,"is_disabled":false,"rental_uris":{"android":"levelo://app?vid=751d2cf4-fa99-4a3f-9556-3ff54793f80a","ios":"levelo://app?vid=751d2cf4-fa99-4a3f-9556-3ff54793f80a"},"vehicle_type_id":"4","last_reported":1739981488,"current_range_meters":19200,"station_id":"ce4bhip2rcd13ifvqft0","pricing_plan_id":"cebpf4jnsgd1na2vs0mg"},{"bike_id":"d51f5e3e-5f60-4df2-94ae-60b240d1edf3","system_id":"levelo_inurba_marseille","lat":43.23199,"lon":5.39997,"is_reserved":false,"is_disabled":false,"rental_uris":{"android":"levelo://app?vid=d51f5e3e-5f60-4df2-94ae-60b240d1edf3","ios":"levelo://app?vid=d51f5e3e-5f60-4df2-94ae-60b240d1edf3"},"vehicle_type_id":"4","last_reported":1739981488,"current_range_meters":19200,"station_id":"ce4bhn12rcd13ifvqgqg","pricing_plan_id":"cebpf4jnsgd1na2vs0mg"},{"bike_id":"f153fb60-d53e-4674-9017-8801340d411f","system_id":"levelo_inurba_marseille","lat":43.32341,"lon":5.40601,"is_reserved":false,"is_disabled":false,"rental_uris":{"android":"levelo://app?vid=f153fb60-d53e-4674-9017-8801340d411f","ios":"levelo://app?vid=f153fb60-d53e-4674-9017-8801340d411f"},"vehicle_type_id":"4","last_reported":1739981488,"current_range_meters":19200,"station_id":"ce4bhq92rcd13ifvqhjg","pricing_plan_id":"cebpf4jnsgd1na2vs0mg"},{"bike_id":"c781831b-fd4c-4968-8ed9-0ba73ce96d7d","system_id":"levelo_inurba_marseille","lat":43.32036,"lon":5.4158,"is_reserved":false,"is_disabled":false,"rental_uris":{"android":"levelo://app?vid=c781831b-fd4c-4968-8ed9-0ba73ce96d7d","ios":"levelo://app?vid=c781831b-fd4c-4968-8ed9-0ba73ce96d7d"},"vehicle_type_id":"4","last_reported":1739981488,"current_range_meters":19600,"station_id":"ce4bgj92rcd13ifvqbd0","pricing_plan_id":"cebpf4jnsgd1na2vs0mg"},{"bike_id":"9524306a-cbbe-4ad4-bf55-94b71b2544dd","system_id":"levelo_inurba_marseille","lat":43.261997,"lon":5.379312,"is_reserved":false,"is_disabled":false,"rental_uris":{"android":"levelo://app?vid=9524306a-cbbe-4ad4-bf55-94b71b2544dd","ios":"levelo://app?vid=9524306a-cbbe-4ad4-bf55-94b71b2544dd"},"vehicle_type_id":"4","last_reported":1739981488,"current_range_meters":19600,"station_id":"ce4bhjp2rcd13ifvqg90","pricing_plan_id":"cebpf4jnsgd1na2vs0mg"},{"bike_id":"2374c456-4aa3-4a4e-9016-f5d759b3854b","system_id":"levelo_inurba_marseille","lat":43.32303,"lon":5.38261,"is_reserved":false,"is_disabled":false,"rental_uris":{"android":"levelo://app?vid=2374c456-4aa3-4a4e-9016-f5d759b3854b","ios":"levelo://app?vid=2374c456-4aa3-4a4e-9016-f5d759b3854b"},"vehicle_type_id":"4","last_reported":1739981488,"current_range_meters":19600,"station_id":"ce4bhr12rcd13ifvqhqg","pricing_plan_id":"cebpf4jnsgd1na2vs0mg"},{"bike_id":"cb556702-1968-44f7-88a3-a7a31ab2ff63","system_id":"levelo_inurba_marseille","lat":43.25865,"lon":5.39895,"is_reserved":false,"is_disabled":false,"rental_uris":{"android":"levelo://app?vid=cb556702-1968-44f7-88a3-a7a31ab2ff63","ios":"levelo://app?vid=cb556702-1968-44f7-88a3-a7a31ab2ff63"},"vehicle_type_id":"4","last_reported":1739981488,"current_range_meters":20000,"station_id":"ce4bhl92rcd13ifvqghg","pricing_plan_id":"cebpf4jnsgd1na2vs0mg"},