{"last_updated":1717265354,"ttl":30,"version":"2.2","data":{"bikes":[{"bike_id":"a297e62e-0b1a-4c49-b7d5-dbdd8b24c7cb","system_id":"levelo_inurba_marseille","lat":43.305714,"lon":5.365633,"is_reserved":false,"is_disabled":false,"rental_uris":{"android":"levelo://app?vid=a297e62e-0b1a-4c49-b7d5-dbdd8b24c7cb","ios":"levelo://app?vid=a297e62e-0b1a-4c49-b7d5-dbdd8b24c7cb"},"vehicle_type_id":"4","last_reported":1717265354,"current_range_meters":22000,"station_id":"ce4bgs12rcd13ifvqcag","pricing_plan_id":"cebpf4jnsgd1na2vs0mg"},{"bike_id":"53938378-85e4-4fed-bbb9-00c62eba2c96","system_id":"levelo_inurba_marseille","lat":43.30537,"lon":5.367345,"is_reserved":false,"is_disabled":false,"rental_uris":{"android":"levelo://app?vid=53938378-85e4-4fed-bbb9-00c62eba2c96","ios":"levelo://app?vid=53938378-85e4-4fed-bbb9-00c62eba2c96"},"vehicle_type_id":"4","last_reported":1717265354,"current_range_meters":800,"station_id":"ce4bgrp2rcd13ifvqc9g","pricing_plan_id":"cebpf4jnsgd1na2vs0mg"},{"bike_id":"0a2b1aa3-76f4-4242-bd88-07f28e67856d","system_id":"levelo_inurba_marseille","lat":43.305706,"lon":5.365654,"is_reserved":false,"is_disabled":false,"rental_uris":{"android":"levelo://app?vid=0a2b1aa3-76f4-4242-bd88-07f28e67856d","ios":"levelo://app?vid=0a2b1aa3-76f4-4242-bd88-07f28e67856d"},"vehicle_type_id":"4","last_reported":1717265354,"current_range_meters":15200,"station_id":"ce4bgs12rcd13ifvqcag","pricing_plan_id":"cebpf4jnsgd1na2vs0mg"},{"bike_id":"7377506e-8d33-4a35-a348-c041717485ee","system_id":"levelo_inurba_marseille","lat":43.306073,"lon":5.372263,"is_reserved":false,"is_disabled":false,"rental_uris":{"android":"levelo://app?vid=7377506e-8d33-4a35-a348-c041717485ee","ios":"levelo://app?vid=7377506e-8d33-4a35-a348-c041717485ee"},"vehicle_type_id":"4","last_reported":1717265354,"current_range_meters":21600,"station_id":"ce4bgqh2rcd13ifvqc4g","pricing_plan_id":"cebpf4jnsgd1na2vs0mg"},{"bike_id":"cef0e9a4-2b6a-4eec-97bd-c52351662078","system_id":"levelo_inurba_marseille","lat":43.311125,"lon":5.377624,"is_reserved":false,"is_disabled":false,"rental_uris":{"android":"levelo://app?vid=cef0e9a4-2b6a-4eec-97bd-c52351662078","ios":"levelo://app?vid=cef0e9a4-2b6a-4eec-97bd-c52351662078"},"vehicle_type_id":"4","last_reported":1717265354,"current_range_meters":18000,"station_id":"ce4bgt92rcd13ifvqcg0","pricing_plan_id":"cebpf4jnsgd1na2vs0mg"},{"bike_id":"9bd4fbd4-0895-4b50-9bf7-69b535a78793","system_id":"levelo_inurba_marseille","lat":43.31116,"lon":5.37775,"is_reserved":false,"is_disabled":false,"rental_uris":{"android":"levelo://app?vid=9bd4fbd4-0895-4b50-9bf7-69b535a78793","ios":"levelo://app?vid=9bd4fbd4-0895-4b50-9bf7-69b535a78793"},"vehicle_type_id":"4","last_reported":1717265354,"current_range_meters":2800,"station_id":"ce4bgt92rcd13ifvqcg0","pricing_plan_id":"cebpf4jnsgd1na2vs0mg"},{"bike_id":"9695f324-7b23-4e26-865c-f8357c63f180","system_id":"levelo_inurba_marseille","lat":43.31123,"lon":5.37779,"is_reserved":false,"is_disabled":false,"rental_uris":{"android":"levelo://app?vid=9695f324-7b23-4e26-865c-f8357c63f180","ios":"levelo://app?vid=9695f324-7b23-4e26-865c-f8357c63f180"},"vehicle_type_id":"4","last_reported":1717265354,"current_range_meters":800,"station_id":"ce4bgt92rcd13ifvqcg0","pricing_plan_id":"cebpf4jnsgd1na2vs0mg"},{"bike_id":"86e85013-e854-4a6d-90f8-3a5ca47ef07d","system_id":"levelo_inurba_marseille","lat":43.30314,"lon":5.36898,"is_reserved":false,"is_disabled":false,"rental_uris":{"android":"levelo://app?vid=86e85013-e854-4a6d-90f8-3a5ca47ef07d","ios":"levelo://app?vid=86e85013-e854-4a6d-90f8-3a5ca47ef07d"},"vehicle_type_id":"4","last_reported":1717265354,"current_range_meters":0,"station_id":"","pricing_plan_id":"cebpf4jnsgd1na2vs0mg"},{"bike_id":"10ba235f-d549-4b38-935b-4aed6edc7e38","system_id":"levelo_inurba_marseille","lat":43.302105,"lon":5.36634,"is_reserved":false,"is_disabled":false,"rental_uris":{"android":"levelo://app?vid=10ba235f-d549-4b38-935b-4aed6edc7e38","ios":"levelo://app?vid=10ba235f-d549-4b38-935b-4aed6edc7e38"},"vehicle_type_id":"4","last_reported":1717265354,"current_range_meters":10400,"station_id":"ce4bgrh2rcd13ifvqc8g","pricing_plan_id":"cebpf4jnsgd1na2vs0mg"},{"bike_id":"164181bc-d8a0-4fc7-a130-2e6565f26e49","system_id":"levelo_inurba_marseille","lat":43.30202,"lon":5.36632,"is_reserved":false,"is_disabled":false,"rental_uris":{"android":"levelo://app?vid=164181bc-d8a0-4fc7-a130-2e6565f26e49","ios":"levelo://app?vid=164181bc-d8a0-4fc7-a130-2e6565f26e49"},"vehicle_type_id":"4","last_reported":1717265354,"current_range_meters":6400,"station_id":"ce4bgrh2rcd13ifvqc8g","pricing_plan_id":"cebpf4jnsgd1na2vs0mg"},{"bike_id":"08c41c16-291f-425e-aa87-4a994580d551","system_id":"levelo_inurba_marseille","lat":43.301939,"lon":5.366286,"is_reserved":false,"is_disabled":false,"rental_uris":{"android":"levelo://app?vid=08c41c16-291f-425e-aa87-4a994580d551","ios":"levelo://app?vid=08c41c16-291f-425e-aa87-4a994580d551"},"vehicle_type_id":"4","last_reported":1717265354,"current_range_meters":24800,"station_id":"ce4bgrh2rcd13ifvqc8g","pricing_plan_id":"cebpf4jnsgd1na2vs0mg"},{"bike_id":"db82557e-938c-4b8f-a081-d8bee61161f4","system_id":"levelo_inurba_marseille","lat":43.308012,"lon":5.381511,"is_reserved":false,"is_disabled":false,"rental_uris":{"android":"levelo://app?vid=db82557e-938c-4b8f-a081-d8bee61161f4","ios":"levelo://app?vid=db82557e-938c-4b8f-a081-d8bee61161f4"},"vehicle_type_id":"4","last_reported":1717265354,"current_range_meters":0,"station_id":"ce4bgt12rcd13ifvqce0","pricing_plan_id":"cebpf4jnsgd1na2vs0mg"},{"bike_id":"39825e82-8ccb-43a3-9cdc-4c76c2c34397","system_id":"levelo_inurba_marseille","lat":43.301939,"lon":5.366286,"is_reserved":false,"is_disabled":false,"rental_uris":{"android":"levelo://app?vid=39825e82-8ccb-43a3-9cdc-4c76c2c34397","ios":"levelo://app?vid=39825e82-8ccb-43a3-9cdc-4c76c2c34397"},"vehicle_type_id":"4","last_reported":1717265354,"current_range_meters":20000,"station_id":"ce4bgrh2rcd13ifvqc8g","pricing_plan_id":"cebpf4jnsgd1na2vs0mg"},{"bike_id":"d5196197-5b38-40a2-a617-4f2add777e78","system_id":"levelo_inurba_marseille","lat":43.301939,"lon":5.366286,"is_reserved":false,"is_disabled":false,"rental_uris":{"android":"levelo://app?vid=d5196197-5b38-40a2-a617-4f2add777e78","ios":"levelo://app?vid=d5196197-5b38-40a2-a617-4f2add777e78"},"vehicle_type_id":"4","last_reported":1717265354,"current_range_meters":7600,"station_id":"ce4bgrh2rcd13ifvqc8g","pricing_plan_id":"cebpf4jnsgd1na2vs0mg"},{"bike_id":"d988a4c2-6540-4d1e-bba5-fde614aaff12","system_id":"levelo_inurba_marseille","lat":43.301939,"lon":5.366286,"is_reserved":false,"is_disabled":false,"rental_uris":{"android":"levelo://app?vid=d988a4c2-6540-4d1e-bba5-fde614aaff12","ios":"levelo://app?vid=d988a4c2-6540-4d1e-bba5-fde614aaff12"},"vehicle_type_id":"4","last_reported":1717265354,"current_range_meters":22000,"station_id":"ce4bgrh2rcd13ifvqc8g","pricing_plan_id":"cebpf4jnsgd1na2vs0mg"},{"bike_id":"6f06d49b-b885-4ac8-80b0-ee0fbc796d8e","system_id":"levelo_inurba_marseille","lat":43.301939,"lon":5.366286,"is_reserved":false,"is_disabled":false,"rental_uris":{"android":"levelo://app?vid=6f06d49b-b885-4ac8-80b0-ee0fbc796d8e","ios":"levelo://app?vid=6f06d49b-b885-4ac8-80b0-ee0fbc796d8e"},"vehicle_type_id":"4","last_reported":1717265354,"current_range_meters":27200,"station_id":"ce4bgrh2rcd13ifvqc8g","pricing_plan_id":"cebpf4jnsgd1na2vs0mg"},{"bike_id":"4222423a-901a-4307-a2f3-eab233f9ab18","system_id":"levelo_inurba_marseille","lat":43.301742,"lon":5.366254,"is_reserved":false,"is_disabled":false,"rental_uris":{"android":"levelo://app?vid=4222423a-901a-4307-a2f3-eab233f9ab18","ios":"levelo://app?vid=4222423a-901a-4307-a2f3-eab233f9ab18"},"vehicle_type_id":"4","last_reported":1717265354,"current_range_meters":26400,"station_id":"ce4bgrh2rcd13ifvqc8g","pricing_plan_id":"cebpf4jnsgd1na2vs0mg"},{"bike_id":"01dcd6e1-6d69-409b-a607-c7f7d6996adf","system_id":"levelo_inurba_marseille","lat":43.308012,"lon":5.381511,"is_reserved":false,"is_disabled":false,"rental_uris":{"android":"levelo://app?vid=01dcd6e1-6d69-409b-a607-c7f7d6996adf","ios":"levelo://app?vid=01dcd6e1-6d69-409b-a607-c7f7d6996adf"},"vehicle_type_id":"4","last_reported":1717265354,"current_range_meters":6400,"station_id":"ce4bgt12rcd13ifvqce0","pricing_plan_id":"cebpf4jnsgd1na2vs0mg"},{"bike_id":"0d1636c0-3e86-490c-b832-eddb5a978f71","system_id":"levelo_inurba_marseille","lat":43.304606,"lon":5.379026,"is_reserved":false,"is_disabled":false,"rental_uris":{"android":"levelo://app?vid=0d1636c0-3e86-490c-b832-eddb5a978f71","ios":"levelo://app?vid=0d1636c0-3e86-490c-b832-eddb5a978f71"},"vehicle_type_id":"4","last_reported":1717265354,"current_range_meters":14800,"station_id":"ce4bgup2rcd13ifvqcn0","pricing_plan_id":"cebpf4jnsgd1na2vs0mg"},{"bike_id":"f7e4a7aa-685e-40b0-8e1f-a255de5468f9","system_id":"levelo_inurba_marseille","lat":43.304606,"lon":5.379026,"is_reserved":false,"is_disabled":false,"rental_uris":{"android":"levelo://app?vid=f7e4a7aa-685e-40b0-8e1f-a255de5468f9","ios":"levelo://app?vid=f7e4a7aa-685e-40b0-8e1f-a255de5468f9"},"vehicle_type_id":"4","last_reported":1717265354,"current_range_meters":22000,"station_id":"ce4bgup2rcd13ifvqcn0","pricing_plan_id":"cebpf4jnsgd1na2vs0mg"},{"bike_id":"d2da92dd-677c-4c24-a764-f8728b03681a","system_id":"levelo_inurba_marseille","lat":43.304606,"lon":5.379026,"is_reserved":false,"is_disabled":false,"rental_uris":{"android":"levelo://app?vid=d2da92dd-677c-4c24-a764-f8728b03681a","ios":"levelo://app?vid=d2da92dd-677c-4c24-a764-f8728b03681a"},"vehicle_type_id":"4","last_reported":1717265354,"current_range_meters":10000,"station_id":"ce4bgup2rcd13ifvqcn0","pricing_plan_id":"cebpf4jnsgd1na2vs0mg"},{"bike_id":"d454f7ba-9dbc-4bb9-a0ed-5439b79fa984","system_id":"levelo_inurba_marseille","lat":43.32486,"lon":5.36569,"is_reserved":false,"is_disabled":false,"rental_uris":{"android":"levelo://app?vid=d454f7ba-9dbc-4bb9-a0ed-5439b79fa984","ios":"levelo://app?vid=d454f7ba-9dbc-4bb9-a0ed-5439b79fa984"},"vehicle_type_id":"4","last_reported":1717265354,"current_range_meters":400,"station_id":"ce4bhs12rcd13ifvqhvg","pricing_plan_id":"cebpf4jnsgd1na2vs0mg"},{"bike_id":"19c1329d-6784-433a-a555-7a163cf4e8a5","system_id":"levelo_inurba_marseille","lat":43.32486,"lon":5.36562,"is_reserved":false,"is_disabled":false,"rental_uris":{"android":"levelo://app?vid=19c1329d-6784-433a-a555-7a163cf4e8a5","ios":"levelo://app?vid=19c1329d-6784-433a-a555-7a163cf4e8a5"},"vehicle_type_id":"4","last_reported":1717265354,"current_range_meters":2400,"station_id":"ce4bhs12rcd13ifvqhvg","pricing_plan_id":"cebpf4jnsgd1na2vs0mg"},{"bike_id":"21463775-02f7-4afe-a479-b066c6e6aede","system_id":"levelo_inurba_marseille","lat":43.310804,"lon":5.38359,"is_reserved":false,"is_disabled":false,"rental_uris":{"android":"levelo://app?vid=21463775-02f7-4afe-a479-b066c6e6aede","ios":"levelo://app?vid=21463775-02f7-4afe-a479-b066c6e6aede"},"vehicle_type_id":"4","last_reported":1717265354,"current_range_meters":0,"station_id":"ce4bgv92rcd13ifvqcr0","pricing_plan_id":"cebpf4jnsgd1na2vs0mg"},{"bike_id":"8f38fd8f-907b-4873-8c18-3a8895223254","system_id":"levelo_inurba_marseille","lat":43.302784,"lon":5.377158,"is_reserved":false,"is_disabled":false,"rental_uris":{"android":"levelo://app?vid=8f38fd8f-907b-4873-8c18-3a8895223254","ios":"levelo://app?vid=8f38fd8f-907b-4873-8c18-3a8895223254"},"vehicle_type_id":"4","last_reported":1717265354,"current_range_meters":12800,"station_id":"ce4bguh2rcd13ifvqcj0","pricing_plan_id":"cebpf4jnsgd1na2vs0mg"},{"bike_id":"6b36f024-b34b-4964-a9d7-114d1f3011e6","system_id":"levelo_inurba_marseille","lat":43.32498,"lon":5.36557,"is_reserved":false,"is_disabled":false,"rental_uris":{"android":"levelo://app?vid=6b36f024-b34b-4964-a9d7-114d1f3011e6","ios":"levelo://app?vid=6b36f024-b34b-4964-a9d7-114d1f3011e6"},"vehicle_type_id":"4","last_reported":1717265354,"current_range_meters":19200,"station_id":"ce4bhs12rcd13ifvqhvg","pricing_plan_id":"cebpf4jnsgd1na2vs0mg"},{"bike_id":"ce98d88f-2ae6-4275-97a7-2aad0d0cbf42","system_id":"levelo_inurba_marseille","lat":43.302784,"lon":5.377158,"is_reserved":false,"is_disabled":false,"rental_uris":{"android":"levelo://app?vid=ce98d88f-2ae6-4275-97a7-2aad0d0cbf42","ios":"levelo://app?vid=ce98d88f-2ae6-4275-97a7-2aad0d0cbf42"},"vehicle_type_id":"4","last_reported":1717265354,"current_range_meters":0,"station_id":"ce4bguh2rcd13ifvqcj0","pricing_plan_id":"cebpf4jnsgd1na2vs0mg"},{"bike_id":"fab891b4-d44e-45b7-8d69-1137e6f7a2d1","system_id":"levelo_inurba_marseille","lat":43.30143,"lon":5.37413,"is_reserved":false,"is_disabled":false,"rental_uris":{"android":"levelo://app?vid=fab891b4-d44e-45b7-8d69-1137e6f7a2d1","ios":"levelo://app?vid=fab891b4-d44e-45b7-8d69-1137e6f7a2d1"},"vehicle_type_id":"4","last_reported":1717265354,"current_range_meters":2800,"station_id":"ce4bgs92rcd13ifvqcc0","pricing_plan_id":"cebpf4jnsgd1na2vs0mg"},{"bike_id":"1ab776d2-69e5-4231-92cd-a223cf6b5240","system_id":"levelo_inurba_marseille","lat":43.319971,"lon":5.381572,"is_reserved":false,"is_disabled":false,"rental_uris":{"android":"levelo://app?vid=1ab776d2-69e5-4231-92cd-a223cf6b5240","ios":"levelo://app?vid=1ab776d2-69e5-4231-92cd-a223cf6b5240"},"vehicle_type_id":"4","last_reported":1717265354,"current_range_meters":4400,"station_id":"ce4bhr12rcd13ifvqhpg","pricing_plan_id":"cebpf4jnsgd1na2vs0mg"},{"bike_id":"d04fd5fb-b406-4e2e-8104-985e27b5e327","system_id":"levelo_inurba_marseille","lat":43.30046,"lon":5.37227,"is_reserved":false,"is_disabled":false,"rental_uris":{"android":"levelo://app?vid=d04fd5fb-b406-4e2e-8104-985e27b5e327","ios":"levelo://app?vid=d04fd5fb-b406-4e2e-8104-985e27b5e327"},"vehicle_type_id":"4","last_reported":1717265354,"current_range_meters":5200,"station_id":"","pricing_plan_id":"cebpf4jnsgd1na2vs0mg"},{"bike_id":"1801d45b-0279-4917-92dc-bc4fea14e791","system_id":"levelo_inurba_marseille","lat":43.31998,"lon":5.38162,"is_reserved":false,"is_disabled":false,"rental_uris":{"android":"levelo://app?vid=1801d45b-0279-4917-92dc-bc4fea14e791","ios":"levelo://app?vid=1801d45b-0279-4917-92dc-bc4fea14e791"},"vehicle_type_id":"4","last_reported":1717265354,"current_range_meters":14800,"station_id":"ce4bhr12rcd13ifvqhpg","pricing_plan_id":"cebpf4jnsgd1na2vs0mg"},{"bike_id":"a1b324c3-4672-4178-8f46-8f15d360dea8","system_id":"levelo_inurba_marseille","lat":43.303259,"lon":5.379265,"is_reserved":false,"is_disabled":false,"rental_uris":{"android":"levelo://app?vid=a1b324c3-4672-4178-8f46-8f15d360dea8","ios":"levelo://app?vid=a1b324c3-4672-4178-8f46-8f15d360dea8"},"vehicle_type_id":"4","last_reported":1717265354,"current_range_meters":21600,"station_id":"","pricing_plan_id":"cebpf4jnsgd1na2vs0mg"},{"bike_id":"a8219e1a-c958-41b2-8fb8-1b45a3c0c228","system_id":"levelo_inurba_marseille","lat":43.313571,"lon":5.384829,"is_reserved":false,"is_disabled":false,"rental_uris":{"android":"levelo://app?vid=a8219e1a-c958-41b2-8fb8-1b45a3c0c228","ios":"levelo://app?vid=a8219e1a-c958-41b2-8fb8-1b45a3c0c228"},"vehicle_type_id":"4","last_reported":1717265354,"current_range_meters":28400,"station_id":"ce4bgt92rcd13ifvqcf0","pricing_plan_id":"cebpf4jnsgd1na2vs0mg"},{"bike_id":"c71727b3-e147-4fc8-8fec-4eb5e1464aff","system_id":"levelo_inurba_marseille","lat":43.313571,"lon":5.384829,"is_reserved":false,"is_disabled":false,"rental_uris":{"android":"levelo://app?vid=c71727b3-e147-4fc8-8fec-4eb5e1464aff","ios":"levelo://app?vid=c71727b3-e147-4fc8-8fec-4eb5e1464aff"},"vehicle_type_id":"4","last_reported":1717265354,"current_range_meters":0,"station_id":"ce4bgt92rcd13ifvqcf0","pricing_plan_id":"cebpf4jnsgd1na2vs0mg"},{"bike_id":"e9eb8b6d-b362-4cc4-80dd-d5d1ead9105e","system_id":"levelo_inurba_marseille","lat":43.313571,"lon":5.384829,"is_reserved":false,"is_disabled":false,"rental_uris":{"android":"levelo://app?vid=e9eb8b6d-b362-4cc4-80dd-d5d1ead9105e","ios":"levelo://app?vid=e9eb8b6d-b362-4cc4-80dd-d5d1ead9105e"},"vehicle_type_id":"4","last_reported":1717265354,"current_range_meters":0,"station_id":"ce4bgt92rcd13ifvqcf0","pricing_plan_id":"cebpf4jnsgd1na2vs0mg"},{"bike_id":"2d475396-8a14-4004-81dd-869f66f0ca69","system_id":"levelo_inurba_marseille","lat":43.313571,"lon":5.384829,"is_reserved":false,"is_disabled":false,"rental_uris":{"android":"levelo://app?vid=2d475396-8a14-4004-81dd-869f66f0ca69","ios":"levelo://app?vid=2d475396-8a14-4004-81dd-869f66f0ca69"},"vehicle_type_id":"4","last_reported":1717265354,"current_range_meters":18000,"station_id":"ce4bgt92rcd13ifvqcf0","pricing_plan_id":"cebpf4jnsgd1na2vs0mg"},{"bike_id":"850953c7-c914-4ed4-833a-c9231b69c42d","system_id":"levelo_inurba_marseille","lat":43.313571,"lon":5.384829,"is_reserved":false,"is_disabled":false,"rental_uris":{"android":"levelo://app?vid=850953c7-c914-4ed4-833a-c9231b69c42d","ios":"levelo://app?vid=850953c7-c914-4ed4-833a-c9231b69c42d"},"vehicle_type_id":"4","last_reported":1717265354,"current_range_meters":0,"station_id":"ce4bgt92rcd13ifvqcf0","pricing_plan_id":"cebpf4jnsgd1na2vs0mg"},{"bike_id":"368384cd-5975-4aad-89ea-8fe82ae746e2","system_id":"levelo_inurba_marseille","lat":43.313571,"lon":5.384829,"is_reserved":false,"is_disabled":false,"rental_uris":{"android":"levelo://app?vid=368384cd-5975-4aad-89ea-8fe82ae746e2","ios":"levelo://app?vid=368384cd-5975-4aad-89ea-8fe82ae746e2"},"vehicle_type_id":"4","last_reported":1717265354,"current_range_meters":6800,"station_id":"ce4bgt92rcd13ifvqcf0","pricing_plan_id":"cebpf4jnsgd1na2vs0mg"},{"bike_id":"f08005f9-d15e-41a6-b26a-094b8681fc1d","system_id":"levelo_inurba_marseille","lat":43.313571,"lon":5.384829,"is_reserved":false,"is_disabled":false,"rental_uris":{"android":"levelo://app?vid=f08005f9-d15e-41a6-b26a-094b8681fc1d","ios":"levelo://app?vid=f08005f9-d15e-41a6-b26a-094b8681fc1d"},"vehicle_type_id":"4","last_reported":1717265354,"current_range_meters":15200,"station_id":"ce4bgt92rcd13ifvqcf0","pricing_plan_id":"cebpf4jnsgd1na2vs0mg"},{"bike_id":"70efcc64-5128-426d-9102-610345952f63","system_id":"levelo_inurba_marseille","lat":43.299222,"lon":5.365554,"is_reserved":false,"is_disabled":false,"rental_uris":{"android":"levelo://app?vid=70efcc64-5128-426d-9102-610345952f63","ios":"levelo://app?vid=70efcc64-5128-426d-9102-610345952f63"},"vehicle_type_id":"4","last_reported":1717265354,"current_range_meters":16400,"station_id":"ce4bgm92rcd13ifvqbr0","pricing_plan_id":"cebpf4jnsgd1na2vs0mg"},{"bike_id":"714d6ac8-cc84-412c-aea5-15ecbfa69b86","system_id":"levelo_inurba_marseille","lat":43.299724,"lon":5.371829,"is_reserved":false,"is_disabled":false,"rental_uris":{"android":"levelo://app?vid=714d6ac8-cc84-412c-aea5-15ecbfa69b86","ios":"levelo://app?vid=714d6ac8-cc84-412c-aea5-15ecbfa69b86"},"vehicle_type_id":"4","last_reported":1717265354,"current_range_meters":26000,"station_id":"ce4bgr92rcd13ifvqc7g","pricing_plan_id":"cebpf4jnsgd1na2vs0mg"},{"bike_id":"10980e99-2dae-465b-99c8-1e745ceb177a","system_id":"levelo_inurba_marseille","lat":43.29974,"lon":5.37176,"is_reserved":false,"is_disabled":false,"rental_uris":{"android":"levelo://app?vid=10980e99-2dae-465b-99c8-1e745ceb177a","ios":"levelo://app?vid=10980e99-2dae-465b-99c8-1e745ceb177a"},"vehicle_type_id":"4","last_reported":1717265354,"current_range_meters":5200,"station_id":"ce4bgr92rcd13ifvqc7g","pricing_plan_id":"cebpf4jnsgd1na2vs0mg"},{"bike_id":"12d6cdc5-020a-42e2-95e6-63d09beec3af","system_id":"levelo_inurba_marseille","lat":43.299724,"lon":5.371829,"is_reserved":false,"is_disabled":false,"rental_uris":{"android":"levelo://app?vid=12d6cdc5-020a-42e2-95e6-63d09beec3af","ios":"levelo://app?vid=12d6cdc5-020a-42e2-95e6-63d09beec3af"},"vehicle_type_id":"4","last_reported":1717265354,"current_range_meters":22400,"station_id":"ce4bgr92rcd13ifvqc7g","pricing_plan_id":"cebpf4jnsgd1na2vs0mg"},{"bike_id":"b89a8b39-ad72-4851-ad20-d85cad02d54b","system_id":"levelo_inurba_marseille","lat":43.304813,"lon":5.382139,"is_reserved":false,"is_disabled":false,"rental_uris":{"android":"levelo://app?vid=b89a8b39-ad72-4851-ad20-d85cad02d54b","ios":"levelo://app?vid=b89a8b39-ad72-4851-ad20-d85cad02d54b"},"vehicle_type_id":"4","last_reported":1717265354,"current_range_meters":0,"station_id":"","pricing_plan_id":"cebpf4jnsgd1na2vs0mg"},{"bike_id":"cee6120a-dd9a-4838-a806-cc70ee6b9149","system_id":"levelo_inurba_marseille","lat":43.298433,"lon":5.362774,"is_reserved":false,"is_disabled":false,"rental_uris":{"android":"levelo://app?vid=cee6120a-dd9a-4838-a806-cc70ee6b9149","ios":"levelo://app?vid=cee6120a-dd9a-4838-a806-cc70ee6b9149"},"vehicle_type_id":"4","last_reported":1717265354,"current_range_meters":19200,"station_id":"ce4bgpp2rcd13ifvqc3g","pricing_plan_id":"cebpf4jnsgd1na2vs0mg"},{"bike_id":"66ec7b2c-b29a-4623-8df3-38d1e4490d34","system_id":"levelo_inurba_marseille","lat":43.305364,"lon":5.384119,"is_reserved":false,"is_disabled":false,"rental_uris":{"android":"levelo://app?vid=66ec7b2c-b29a-4623-8df3-38d1e4490d34","ios":"levelo://app?vid=66ec7b2c-b29a-4623-8df3-38d1e4490d34"},"vehicle_type_id":"4","last_reported":1717265354,"current_range_meters":12400,"station_id":"ce4bgg92rcd13ifvqb30","pricing_plan_id":"cebpf4jnsgd1na2vs0mg"},{"bike_id":"c47dd901-e688-452e-9db6-a93877ccda20","system_id":"levelo_inurba_marseille","lat":43.298433,"lon":5.362774,"is_reserved":false,"is_disabled":false,"rental_uris":{"android":"levelo://app?vid=c47dd901-e688-452e-9db6-a93877ccda20","ios":"levelo://app?vid=c47dd901-e688-452e-9db6-a93877ccda20"},"vehicle_type_id":"4","last_reported":1717265354,"current_range_meters":28400,"station_id":"ce4bgpp2rcd13ifvqc3g","pricing_plan_id":"cebpf4jnsgd1na2vs0mg"},{"bike_id":"779467ff-1a87-4f74-a49e-23189d48ce8d","system_id":"levelo_inurba_marseille","lat":43.305364,"lon":5.384119,"is_reserved":false,"is_disabled":false,"rental_uris":{"android":"levelo://app?vid=779467ff-1a87-4f74-a49e-23189d48ce8d","ios":"levelo://app?vid=779467ff-1a87-4f74-a49e-23189d48ce8d"},"vehicle_type_id":"4","last_reported":1717265354,"current_range_meters":28000,"station_id":"ce4bgg92rcd13ifvqb30","pricing_plan_id":"cebpf4jnsgd1na2vs0mg"},{"bike_id":"c3a91c89-ede9-4196-bf0e-4989f508aa79","system_id":"levelo_inurba_marseille","lat":43.298433,"lon":5.362774,"is_reserved":false,"is_disabled":false,"rental_uris":{"android":"levelo://app?vid=c3a91c89-ede9-4196-bf0e-4989f508aa79","ios":"levelo://app?vid=c3a91c89-ede9-4196-bf0e-4989f508aa79"},"vehicle_type_id":"4","last_reported":1717265354,"current_range_meters":400,"station_id":"ce4bgpp2rcd13ifvqc3g","pricing_plan_id":"cebpf4jnsgd1na2vs0mg"},{"bike_id":"0ac97b2d-4d60-4ed7-84fa-d9f25d1ce156","system_id":"levelo_inurba_marseille","lat":43.305364,"lon":5.384119,"is_reserved":false,"is_disabled":false,"rental_uris":{"android":"levelo://app?vid=0ac97b2d-4d60-4ed7-84fa-d9f25d1ce156","ios":"levelo://app?vid=0ac97b2d-4d60-4ed7-84fa-d9f25d1ce156"},"vehicle_type_id":"4","last_reported":1717265354,"current_range_meters":21600,"station_id":"ce4bgg92rcd13ifvqb30","pricing_plan_id":"cebpf4jnsgd1na2vs0mg"},{"bike_id":"7c0279c4-785e-41cc-9875-11b1aa5697b0","system_id":"levelo_inurba_marseille","lat":43.29843,"lon":5.36272,"is_reserved":false,"is_disabled":false,"rental_uris":{"android":"levelo://app?vid=7c0279c4-785e-41cc-9875-11b1aa5697b0","ios":"levelo://app?vid=7c0279c4-785e-41cc-9875-11b1aa5697b0"},"vehicle_type_id":"4","last_reported":1717265354,"current_range_meters":30000,"station_id":"ce4bgpp2rcd13ifvqc3g","pricing_plan_id":"cebpf4jnsgd1na2vs0mg"},{"bike_id":"409d23cf-bdb4-42a4-84ee-14f9d543916f","system_id":"levelo_inurba_marseille","lat":43.298433,"lon":5.362774,"is_reserved":false,"is_disabled":false,"rental_uris":{"android":"levelo://app?vid=409d23cf-bdb4-42a4-84ee-14f9d543916f","ios":"levelo://app?vid=409d23cf-bdb4-42a4-84ee-14f9d543916f"},"vehicle_type_id":"4","last_reported":1717265354,"current_range_meters":28000,"station_id":"ce4bgpp2rcd13ifvqc3g","pricing_plan_id":"cebpf4jnsgd1na2vs0mg"},{"bike_id":"9abe6c38-c21e-4528-9d58-bd4eb90e28dd","system_id":"levelo_inurba_marseille","lat":43.299243,"lon":5.37481,"is_reserved":false,"is_disabled":false,"rental_uris":{"android":"levelo://app?vid=9abe6c38-c21e-4528-9d58-bd4eb90e28dd","ios":"levelo://app?vid=9abe6c38-c21e-4528-9d58-bd4eb90e28dd"},"vehicle_type_id":"4","last_reported":1717265354,"current_range_meters":6400,"station_id":"ce4bgjh2rcd13ifvqbg0","pricing_plan_id":"cebpf4jnsgd1na2vs0mg"},{"bike_id":"c997d29f-a146-490e-aa52-eab507a9e851","system_id":"levelo_inurba_marseille","lat":43.31182,"lon":5.38718,"is_reserved":false,"is_disabled":false,"rental_uris":{"android":"levelo://app?vid=c997d29f-a146-490e-aa52-eab507a9e851","ios":"levelo://app?vid=c997d29f-a146-490e-aa52-eab507a9e851"},"vehicle_type_id":"4","last_reported":1717265354,"current_range_meters":0,"station_id":"ce4bgv12rcd13ifvqcp0","pricing_plan_id":"cebpf4jnsgd1na2vs0mg"},{"bike_id":"fb514b44-cff0-48d6-949b-8335155c994c","system_id":"levelo_inurba_marseille","lat":43.311722,"lon":5.387247,"is_reserved":false,"is_disabled":false,"rental_uris":{"android":"levelo://app?vid=fb514b44-cff0-48d6-949b-8335155c994c","ios":"levelo://app?vid=fb514b44-cff0-48d6-949b-8335155c994c"},"vehicle_type_id":"4","last_reported":1717265354,"current_range_meters":7600,"station_id":"ce4bgv12rcd13ifvqcp0","pricing_plan_id":"cebpf4jnsgd1na2vs0mg"},{"bike_id":"4d8d195d-5e0f-4504-bd29-6fb436a0aecd","system_id":"levelo_inurba_marseille","lat":43.311569,"lon":5.387436,"is_reserved":false,"is_disabled":false,"rental_uris":{"android":"levelo://app?vid=4d8d195d-5e0f-4504-bd29-6fb436a0aecd","ios":"levelo://app?vid=4d8d195d-5e0f-4504-bd29-6fb436a0aecd"},"vehicle_type_id":"4","last_reported":1717265354,"current_range_meters":0,"station_id":"ce4bgv12rcd13ifvqcp0","pricing_plan_id":"cebpf4jnsgd1na2vs0mg"},{"bike_id":"10fb4334-c940-4455-979b-d3f1ca32e262","system_id":"levelo_inurba_marseille","lat":43.297794,"lon":5.370888,"is_reserved":false,"is_disabled":false,"rental_uris":{"android":"levelo://app?vid=10fb4334-c940-4455-979b-d3f1ca32e262","ios":"levelo://app?vid=10fb4334-c940-4455-979b-d3f1ca32e262"},"vehicle_type_id":"4","last_reported":1717265354,"current_range_meters":29200,"station_id":"ce4bgop2rcd13ifvqc1g","pricing_plan_id":"cebpf4jnsgd1na2vs0mg"},{"bike_id":"f13f4a17-b270-49fa-bbb0-c4074ef155f2","system_id":"levelo_inurba_marseille","lat":43.297733,"lon":5.362937,"is_reserved":false,"is_disabled":false,"rental_uris":{"android":"levelo://app?vid=f13f4a17-b270-49fa-bbb0-c4074ef155f2","ios":"levelo://app?vid=f13f4a17-b270-49fa-bbb0-c4074ef155f2"},"vehicle_type_id":"4","last_reported":1717265354,"current_range_meters":27200,"station_id":"ce4bgpp2rcd13ifvqc3g","pricing_plan_id":"cebpf4jnsgd1na2vs0mg"},{"bike_id":"a2157597-72e0-465a-9086-faec4f83cfa7","system_id":"levelo_inurba_marseille","lat":43.32281,"lon":5.38274,"is_reserved":false,"is_disabled":false,"rental_uris":{"android":"levelo://app?vid=a2157597-72e0-465a-9086-faec4f83cfa7","ios":"levelo://app?vid=a2157597-72e0-465a-9086-faec4f83cfa7"},"vehicle_type_id":"4","last_reported":1717265354,"current_range_meters":0,"station_id":"ce4bhr12rcd13ifvqhqg","pricing_plan_id":"cebpf4jnsgd1na2vs0mg"},{"bike_id":"09670e44-b8c6-4158-8f5a-77b0d5444ccc","system_id":"levelo_inurba_marseille","lat":43.322872,"lon":5.382756,"is_reserved":false,"is_disabled":false,"rental_uris":{"android":"levelo://app?vid=09670e44-b8c6-4158-8f5a-77b0d5444ccc","ios":"levelo://app?vid=09670e44-b8c6-4158-8f5a-77b0d5444ccc"},"vehicle_type_id":"4","last_reported":1717265354,"current_range_meters":20800,"station_id":"ce4bhr12rcd13ifvqhqg","pricing_plan_id":"cebpf4jnsgd1na2vs0mg"},{"bike_id":"47a44d85-94da-4cba-b158-ffd005ea6252","system_id":"levelo_inurba_marseille","lat":43.322872,"lon":5.382756,"is_reserved":false,"is_disabled":false,"rental_uris":{"android":"levelo://app?vid=47a44d85-94da-4cba-b158-ffd005ea6252","ios":"levelo://app?vid=47a44d85-94da-4cba-b158-ffd005ea6252"},"vehicle_type_id":"4","last_reported":1717265354,"current_range_meters":4800,"station_id":"ce4bhr12rcd13ifvqhqg","pricing_plan_id":"cebpf4jnsgd1na2vs0mg"},{"bike_id":"c5950cb7-0053-4cfc-8cc1-e2bdf07f7555","system_id":"levelo_inurba_marseille","lat":43.32287,"lon":5.38274,"is_reserved":false,"is_disabled":false,"rental_uris":{"android":"levelo://app?vid=c5950cb7-0053-4cfc-8cc1-e2bdf07f7555","ios":"levelo://app?vid=c5950cb7-0053-4cfc-8cc1-e2bdf07f7555"},"vehicle_type_id":"4","last_reported":1717265354,"current_range_meters":16400,"station_id":"ce4bhr12rcd13ifvqhqg","pricing_plan_id":"cebpf4jnsgd1na2vs0mg"},{"bike_id":"76e6eb83-1b25-4814-8ab5-24fbf614c711","system_id":"levelo_inurba_marseille","lat":43.322872,"lon":5.382756,"is_reserved":false,"is_disabled":false,"rental_uris":{"android":"levelo://app?vid=76e6eb83-1b25-4814-8ab5-24fbf614c711","ios":"levelo://app?vid=76e6eb83-1b25-4814-8ab5-24fbf614c711"},"vehicle_type_id":"4","last_reported":1717265354,"current_range_meters":5600,"station_id":"ce4bhr12rcd13ifvqhqg","pricing_plan_id":"cebpf4jnsgd1na2vs0mg"},{"bike_id":"f27e3382-c395-4c0a-a760-e9e307454899","system_id":"levelo_inurba_marseille","lat":43.322872,"lon":5.382756,"is_reserved":false,"is_disabled":false,"rental_uris":{"android":"levelo://app?vid=f27e3382-c395-4c0a-a760-e9e307454899","ios":"levelo://app?vid=f27e3382-c395-4c0a-a760-e9e307454899"},"vehicle_type_id":"4","last_reported":1717265354,"current_range_meters":19600,"station_id":"ce4bhr12rcd13ifvqhqg","pricing_plan_id":"cebpf4jnsgd1na2vs0mg"},{"bike_id":"c8674664-0329-42f4-a28d-5fe68827d1fa","system_id":"levelo_inurba_marseille","lat":43.322872,"lon":5.382756,"is_reserved":false,"is_disabled":false,"rental_uris":{"android":"levelo://app?vid=c8674664-0329-42f4-a28d-5fe68827d1fa","ios":"levelo://app?vid=c8674664-0329-42f4-a28d-5fe68827d1fa"},"vehicle_type_id":"4","last_reported":1717265354,"current_range_meters":31200,"station_id":"ce4bhr12rcd13ifvqhqg","pricing_plan_id":"cebpf4jnsgd1na2vs0mg"},{"bike_id":"6dc976a0-428e-48b0-9d1e-20397f0ac478","system_id":"levelo_inurba_marseille","lat":43.32285,"lon":5.3828,"is_reserved":false,"is_disabled":false,"rental_uris":{"android":"levelo://app?vid=6dc976a0-428e-48b0-9d1e-20397f0ac478","ios":"levelo://app?vid=6dc976a0-428e-48b0-9d1e-20397f0ac478"},"vehicle_type_id":"4","last_reported":1717265354,"current_range_meters":400,"station_id":"ce4bhr12rcd13ifvqhqg","pricing_plan_id":"cebpf4jnsgd1na2vs0mg"},{"bike_id":"a6850727-00b1-4dd8-bb80-3e158c4e1090","system_id":"levelo_inurba_marseille","lat":43.322872,"lon":5.382756,"is_reserved":false,"is_disabled":false,"rental_uris":{"android":"levelo://app?vid=a6850727-00b1-4dd8-bb80-3e158c4e1090","ios":"levelo://app?vid=a6850727-00b1-4dd8-bb80-3e158c4e1090"},"vehicle_type_id":"4","last_reported":1717265354,"current_range_meters":31200,"station_id":"ce4bhr12rcd13ifvqhqg","pricing_plan_id":"cebpf4jnsgd1na2vs0mg"},{"bike_id":"7a91217a-ce94-47a4-9682-27c5fd5c2e01","system_id":"levelo_inurba_marseille","lat":43.32287,"lon":5.3828,"is_reserved":false,"is_disabled":false,"rental_uris":{"android":"levelo://app?vid=7a91217a-ce94-47a4-9682-27c5fd5c2e01","ios":"levelo://app?vid=7a91217a-ce94-47a4-9682-27c5fd5c2e01"},"vehicle_type_id":"4","last_reported":1717265354,"current_range_meters":7200,"station_id":"ce4bhr12rcd13ifvqhqg","pricing_plan_id":"cebpf4jnsgd1na2vs0mg"},{"bike_id":"f709d661-b30a-4882-bd4d-9207c2d7b979","system_id":"levelo_inurba_marseille","lat":43.297163,"lon":5.365866,"is_reserved":false,"is_disabled":false,"rental_uris":{"android":"levelo://app?vid=f709d661-b30a-4882-bd4d-9207c2d7b979","ios":"levelo://app?vid=f709d661-b30a-4882-bd4d-9207c2d7b979"},"vehicle_type_id":"4","last_reported":1717265354,"current_range_meters":10800,"station_id":"ce4bgn12rcd13ifvqbt0","pricing_plan_id":"cebpf4jnsgd1na2vs0mg"},{"bike_id":"baf0dcdc-f081-48f2-b70a-112df210a3f8","system_id":"levelo_inurba_marseille","lat":43.2968,"lon":5.37291,"is_reserved":false,"is_disabled":false,"rental_uris":{"android":"levelo://app?vid=baf0dcdc-f081-48f2-b70a-112df210a3f8","ios":"levelo://app?vid=baf0dcdc-f081-48f2-b70a-112df210a3f8"},"vehicle_type_id":"4","last_reported":1717265354,"current_range_meters":27600,"station_id":"ce4bgk12rcd13ifvqbj0","pricing_plan_id":"cebpf4jnsgd1na2vs0mg"},{"bike_id":"6a82c2c3-f3ab-470f-bdc0-6fdf67bc0d7d","system_id":"levelo_inurba_marseille","lat":43.2968,"lon":5.37291,"is_reserved":false,"is_disabled":false,"rental_uris":{"android":"levelo://app?vid=6a82c2c3-f3ab-470f-bdc0-6fdf67bc0d7d","ios":"levelo://app?vid=6a82c2c3-f3ab-470f-bdc0-6fdf67bc0d7d"},"vehicle_type_id":"4","last_reported":1717265354,"current_range_meters":13200,"station_id":"ce4bgk12rcd13ifvqbj0","pricing_plan_id":"cebpf4jnsgd1na2vs0mg"},{"bike_id":"32eeab61-cd89-43c8-ba97-e4d8223ecf1b","system_id":"levelo_inurba_marseille","lat":43.29904,"lon":5.38136,"is_reserved":false,"is_disabled":false,"rental_uris":{"android":"levelo://app?vid=32eeab61-cd89-43c8-ba97-e4d8223ecf1b","ios":"levelo://app?vid=32eeab61-cd89-43c8-ba97-e4d8223ecf1b"},"vehicle_type_id":"4","last_reported":1717265354,"current_range_meters":0,"station_id":"ce4bgj12rcd13ifvqbc0","pricing_plan_id":"cebpf4jnsgd1na2vs0mg"},{"bike_id":"4a38fa84-9230-4724-ad33-d70052d9d059","system_id":"levelo_inurba_marseille","lat":43.299028,"lon":5.381509,"is_reserved":false,"is_disabled":false,"rental_uris":{"android":"levelo://app?vid=4a38fa84-9230-4724-ad33-d70052d9d059","ios":"levelo://app?vid=4a38fa84-9230-4724-ad33-d70052d9d059"},"vehicle_type_id":"4","last_reported":1717265354,"current_range_meters":400,"station_id":"ce4bgj12rcd13ifvqbc0","pricing_plan_id":"cebpf4jnsgd1na2vs0mg"},{"bike_id":"c0b104db-c671-4f62-ae4d-6de0bb390db5","system_id":"levelo_inurba_marseille","lat":43.309544,"lon":5.390274,"is_reserved":false,"is_disabled":false,"rental_uris":{"android":"levelo://app?vid=c0b104db-c671-4f62-ae4d-6de0bb390db5","ios":"levelo://app?vid=c0b104db-c671-4f62-ae4d-6de0bb390db5"},"vehicle_type_id":"4","last_reported":1717265354,"current_range_meters":9200,"station_id":"ce4bgup2rcd13ifvqco0","pricing_plan_id":"cebpf4jnsgd1na2vs0mg"},{"bike_id":"f3bc74ed-2a31-4c66-b80d-11957f904532","system_id":"levelo_inurba_marseille","lat":43.309589,"lon":5.390258,"is_reserved":false,"is_disabled":false,"rental_uris":{"android":"levelo://app?vid=f3bc74ed-2a31-4c66-b80d-11957f904532","ios":"levelo://app?vid=f3bc74ed-2a31-4c66-b80d-11957f904532"},"vehicle_type_id":"4","last_reported":1717265354,"current_range_meters":7600,"station_id":"ce4bgup2rcd13ifvqco0","pricing_plan_id":"cebpf4jnsgd1na2vs0mg"},{"bike_id":"4747c78d-c75e-4991-9ccc-16742c53250e","system_id":"levelo_inurba_marseille","lat":43.309589,"lon":5.390258,"is_reserved":false,"is_disabled":false,"rental_uris":{"android":"levelo://app?vid=4747c78d-c75e-4991-9ccc-16742c53250e","ios":"levelo://app?vid=4747c78d-c75e-4991-9ccc-16742c53250e"},"vehicle_type_id":"4","last_reported":1717265354,"current_range_meters":0,"station_id":"ce4bgup2rcd13ifvqco0","pricing_plan_id":"cebpf4jnsgd1na2vs0mg"},{"bike_id":"9ed7b4b2-949e-4965-901d-e3b6bbe39958","system_id":"levelo_inurba_marseille","lat":43.309589,"lon":5.390258,"is_reserved":false,"is_disabled":false,"rental_uris":{"android":"levelo://app?vid=9ed7b4b2-949e-4965-901d-e3b6bbe39958","ios":"levelo://app?vid=9ed7b4b2-949e-4965-901d-e3b6bbe39958"},"vehicle_type_id":"4","last_reported":1717265354,"current_range_meters":28400,"station_id":"ce4bgup2rcd13ifvqco0","pricing_plan_id":"cebpf4jnsgd1na2vs0mg"},{"bike_id":"dca13348-89e4-4ecf-90ae-a45d56ce2e2e","system_id":"levelo_inurba_marseille","lat":43.30963,"lon":5.39033,"is_reserved":false,"is_disabled":false,"rental_uris":{"android":"levelo://app?vid=dca13348-89e4-4ecf-90ae-a45d56ce2e2e","ios":"levelo://app?vid=dca13348-89e4-4ecf-90ae-a45d56ce2e2e"},"vehicle_type_id":"4","last_reported":1717265354,"current_range_meters":0,"station_id":"ce4bgup2rcd13ifvqco0","pricing_plan_id":"cebpf4jnsgd1na2vs0mg"},{"bike_id":"0b93c20f-91f5-4cbc-b6c2-8e26dfa71b1f","system_id":"levelo_inurba_marseille","lat":43.298764,"lon":5.388973,"is_reserved":false,"is_disabled":false,"rental_uris":{"android":"levelo://app?vid=0b93c20f-91f5-4cbc-b6c2-8e26dfa71b1f","ios":"levelo://app?vid=0b93c20f-91f5-4cbc-b6c2-8e26dfa71b1f"},"vehicle_type_id":"4","last_reported":1717265354,"current_range_meters":8000,"station_id":"ce4bh392rcd13ifvqdl0","pricing_plan_id":"cebpf4jnsgd1na2vs0mg"},{"bike_id":"dd418b78-a0d2-4d0f-9077-513da107ff26","system_id":"levelo_inurba_marseille","lat":43.296935,"lon":5.376544,"is_reserved":false,"is_disabled":false,"rental_uris":{"android":"levelo://app?vid=dd418b78-a0d2-4d0f-9077-513da107ff26","ios":"levelo://app?vid=dd418b78-a0d2-4d0f-9077-513da107ff26"},"vehicle_type_id":"4","last_reported":1717265354,"current_range_meters":14000,"station_id":"ce4bgkh2rcd13ifvqbl0","pricing_plan_id":"cebpf4jnsgd1na2vs0mg"},{"bike_id":"c5c9edd7-e99b-48b4-a9d7-510296fcbf47","system_id":"levelo_inurba_marseille","lat":43.309589,"lon":5.390258,"is_reserved":false,"is_disabled":false,"rental_uris":{"android":"levelo://app?vid=c5c9edd7-e99b-48b4-a9d7-510296fcbf47","ios":"levelo://app?vid=c5c9edd7-e99b-48b4-a9d7-510296fcbf47"},"vehicle_type_id":"4","last_reported":1717265354,"current_range_meters":15200,"station_id":"ce4bgup2rcd13ifvqco0","pricing_plan_id":"cebpf4jnsgd1na2vs0mg"},{"bike_id":"5e95e073-5c2c-4c11-aec1-dbca0f6dcebf","system_id":"levelo_inurba_marseille","lat":43.309589,"lon":5.390258,"is_reserved":false,"is_disabled":false,"rental_uris":{"android":"levelo://app?vid=5e95e073-5c2c-4c11-aec1-dbca0f6dcebf","ios":"levelo://app?vid=5e95e073-5c2c-4c11-aec1-dbca0f6dcebf"},"vehicle_type_id":"4","last_reported":1717265354,"current_range_meters":4000,"station_id":"ce4bgup2rcd13ifvqco0","pricing_plan_id":"cebpf4jnsgd1na2vs0mg"},{"bike_id":"405516a7-5e7d-48af-b502-569991d6fc9b","system_id":"levelo_inurba_marseille","lat":43.309589,"lon":5.390258,"is_reserved":false,"is_disabled":false,"rental_uris":{"android":"levelo://app?vid=405516a7-5e7d-48af-b502-569991d6fc9b","ios":"levelo://app?vid=405516a7-5e7d-48af-b502-569991d6fc9b"},"vehicle_type_id":"4","last_reported":1717265354,"current_range_meters":7600,"station_id":"ce4bgup2rcd13ifvqco0","pricing_plan_id":"cebpf4jnsgd1na2vs0mg"},{"bike_id":"cf398335-98db-4940-9184-fd281101984e","system_id":"levelo_inurba_marseille","lat":43.309495,"lon":5.390385,"is_reserved":false,"is_disabled":false,"rental_uris":{"android":"levelo://app?vid=cf398335-98db-4940-9184-fd281101984e","ios":"levelo://app?vid=cf398335-98db-4940-9184-fd281101984e"},"vehicle_type_id":"4","last_reported":1717265354,"current_range_meters":0,"station_id":"ce4bgup2rcd13ifvqco0","pricing_plan_id":"cebpf4jnsgd1na2vs0mg"},{"bike_id":"58926ca9-5282-43c9-808d-022da695381d","system_id":"levelo_inurba_marseille","lat":43.309594,"lon":5.390416,"is_reserved":false,"is_disabled":false,"rental_uris":{"android":"levelo://app?vid=58926ca9-5282-43c9-808d-022da695381d","ios":"levelo://app?vid=58926ca9-5282-43c9-808d-022da695381d"},"vehicle_type_id":"4","last_reported":1717265354,"current_range_meters":0,"station_id":"ce4bgup2rcd13ifvqco0","pricing_plan_id":"cebpf4jnsgd1na2vs0mg"},{"bike_id":"9a2f0e50-fdd7-4ac1-b8ef-34ac7851c4bb","system_id":"levelo_inurba_marseille","lat":43.309589,"lon":5.390258,"is_reserved":false,"is_disabled":false,"rental_uris":{"android":"levelo://app?vid=9a2f0e50-fdd7-4ac1-b8ef-34ac7851c4bb","ios":"levelo://app?vid=9a2f0e50-fdd7-4ac1-b8ef-34ac7851c4bb"},"vehicle_type_id":"4","last_reported":1717265354,"current_range_meters":16000,"station_id":"ce4bgup2rcd13ifvqco0","pricing_plan_id":"cebpf4jnsgd1na2vs0mg"},{"bike_id":"05096ff6-5575-423f-8714-66eb484a0381","system_id":"levelo_inurba_marseille","lat":43.309589,"lon":5.390258,"is_reserved":false,"is_disabled":false,"rental_uris":{"android":"levelo://app?vid=05096ff6-5575-423f-8714-66eb484a0381","ios":"levelo://app?vid=05096ff6-5575-423f-8714-66eb484a0381"},"vehicle_type_id":"4","last_reported":1717265354,"current_range_meters":400,"station_id":"ce4bgup2rcd13ifvqco0","pricing_plan_id":"cebpf4jnsgd1na2vs0mg"},{"bike_id":"6975e97d-56c5-4a37-9619-ab44642690e4","system_id":"levelo_inurba_marseille","lat":43.309589,"lon":5.390258,"is_reserved":false,"is_disabled":false,"rental_uris":{"android":"levelo://app?vid=6975e97d-56c5-4a37-9619-ab44642690e4","ios":"levelo://app?vid=6975e97d-56c5-4a37-9619-ab44642690e4"},"vehicle_type_id":"4","last_reported":1717265354,"current_range_meters":18000,"station_id":"ce4bgup2rcd13ifvqco0","pricing_plan_id":"cebpf4jnsgd1na2vs0mg"},{"bike_id":"f9a9d808-5a5c-48c3-95c8-8495cdc8680b","system_id":"levelo_inurba_marseille","lat":43.309589,"lon":5.390258,"is_reserved":false,"is_disabled":false,"rental_uris":{"android":"levelo://app?vid=f9a9d808-5a5c-48c3-95c8-8495cdc8680b","ios":"levelo://app?vid=f9a9d808-5a5c-48c3-95c8-8495cdc8680b"},"vehicle_type_id":"4","last_reported":1717265354,"current_range_meters":14800,"station_id":"ce4bgup2rcd13ifvqco0","pricing_plan_id":"cebpf4jnsgd1na2vs0mg"},{"bike_id":"befa2405-1676-4418-bd4c-f1ced8d92b06","system_id":"levelo_inurba_marseille","lat":43.309589,"lon":5.390258,"is_reserved":false,"is_disabled":false,"rental_uris":{"android":"levelo://app?vid=befa2405-1676-4418-bd4c-f1ced8d92b06","ios":"levelo://app?vid=befa2405-1676-4418-bd4c-f1ced8d92b06"},"vehicle_type_id":"4","last_reported":1717265354,"current_range_meters":21600,"station_id":"ce4bgup2rcd13ifvqco0","pricing_plan_id":"cebpf4jnsgd1na2vs0mg"},{"bike_id":"c77ce0fd-431e-4f54-91b5-b248f50f6b6d","system_id":"levelo_inurba_marseille","lat":43.30948,"lon":5.39047,"is_reserved":false,"is_disabled":false,"rental_uris":{"android":"levelo://app?vid=c77ce0fd-431e-4f54-91b5-b248f50f6b6d","ios":"levelo://app?vid=c77ce0fd-431e-4f54-91b5-b248f50f6b6d"},"vehicle_type_id":"4","last_reported":1717265354,"current_range_meters":0,"station_id":"ce4bgup2rcd13ifvqco0","pricing_plan_id":"cebpf4jnsgd1na2vs0mg"},{"bike_id":"431d524f-4650-4a57-bf0c-593252910aca","system_id":"levelo_inurba_marseille","lat":43.29748,"lon":5.37872,"is_reserved":false,"is_disabled":false,"rental_uris":{"android":"levelo://app?vid=431d524f-4650-4a57-bf0c-593252910aca","ios":"levelo://app?vid=431d524f-4650-4a57-bf0c-593252910aca"},"vehicle_type_id":"4","last_reported":1717265354,"current_range_meters":24400,"station_id":"","pricing_plan_id":"cebpf4jnsgd1na2vs0mg"},{"bike_id":"155bd991-b0fc-4ed9-9a48-12d7000dd11b","system_id":"levelo_inurba_marseille","lat":43.31754,"lon":5.39018,"is_reserved":false,"is_disabled":false,"rental_uris":{"android":"levelo://app?vid=155bd991-b0fc-4ed9-9a48-12d7000dd11b","ios":"levelo://app?vid=155bd991-b0fc-4ed9-9a48-12d7000dd11b"},"vehicle_type_id":"4","last_reported":1717265354,"current_range_meters":0,"station_id":"ce4bhqp2rcd13ifvqhng","pricing_plan_id":"cebpf4jnsgd1na2vs0mg"},{"bike_id":"e6efc0a9-e37e-41be-b38a-6273bce85846","system_id":"levelo_inurba_marseille","lat":43.317557,"lon":5.390173,"is_reserved":false,"is_disabled":false,"rental_uris":{"android":"levelo://app?vid=e6efc0a9-e37e-41be-b38a-6273bce85846","ios":"levelo://app?vid=e6efc0a9-e37e-41be-b38a-6273bce85846"},"vehicle_type_id":"4","last_reported":1717265354,"current_range_meters":7200,"station_id":"ce4bhqp2rcd13ifvqhng","pricing_plan_id":"cebpf4jnsgd1na2vs0mg"},{"bike_id":"ea5858d4-f60b-4927-91ec-d328fe6f9d96","system_id":"levelo_inurba_marseille","lat":43.31757,"lon":5.39024,"is_reserved":false,"is_disabled":false,"rental_uris":{"android":"levelo://app?vid=ea5858d4-f60b-4927-91ec-d328fe6f9d96","ios":"levelo://app?vid=ea5858d4-f60b-4927-91ec-d328fe6f9d96"},"vehicle_type_id":"4","last_reported":1717265354,"current_range_meters":0,"station_id":"ce4bhqp2rcd13ifvqhng","pricing_plan_id":"cebpf4jnsgd1na2vs0mg"},{"bike_id":"bb0ba6d0-d687-4d4c-9c5c-8c37ae576363","system_id":"levelo_inurba_marseille","lat":43.298037,"lon":5.381066,"is_reserved":false,"is_disabled":false,"rental_uris":{"android":"levelo://app?vid=bb0ba6d0-d687-4d4c-9c5c-8c37ae576363","ios":"levelo://app?vid=bb0ba6d0-d687-4d4c-9c5c-8c37ae576363"},"vehicle_type_id":"4","last_reported":1717265354,"current_range_meters":20800,"station_id":"ce4bgip2rcd13ifvqbb0","pricing_plan_id":"cebpf4jnsgd1na2vs0mg"},{"bike_id":"45479b96-b064-4923-bf3a-a107f6054cd2","system_id":"levelo_inurba_marseille","lat":43.298037,"lon":5.381066,"is_reserved":false,"is_disabled":false,"rental_uris":{"android":"levelo://app?vid=45479b96-b064-4923-bf3a-a107f6054cd2","ios":"levelo://app?vid=45479b96-b064-4923-bf3a-a107f6054cd2"},"vehicle_type_id":"4","last_reported":1717265354,"current_range_meters":14000,"station_id":"ce4bgip2rcd13ifvqbb0","pricing_plan_id":"cebpf4jnsgd1na2vs0mg"},{"bike_id":"00cb2377-219e-4af5-81d1-3616aee2dd68","system_id":"levelo_inurba_marseille","lat":43.298037,"lon":5.381066,"is_reserved":false,"is_disabled":false,"rental_uris":{"android":"levelo://app?vid=00cb2377-219e-4af5-81d1-3616aee2dd68","ios":"levelo://app?vid=00cb2377-219e-4af5-81d1-3616aee2dd68"},"vehicle_type_id":"4","last_reported":1717265354,"current_range_meters":1600,"station_id":"ce4bgip2rcd13ifvqbb0","pricing_plan_id":"cebpf4jnsgd1na2vs0mg"},{"bike_id":"37a28a73-aa61-4eba-9d2e-42145dc82a80","system_id":"levelo_inurba_marseille","lat":43.298057,"lon":5.380897,"is_reserved":false,"is_disabled":false,"rental_uris":{"android":"levelo://app?vid=37a28a73-aa61-4eba-9d2e-42145dc82a80","ios":"levelo://app?vid=37a28a73-aa61-4eba-9d2e-42145dc82a80"},"vehicle_type_id":"4","last_reported":1717265354,"current_range_meters":0,"station_id":"ce4bgip2rcd13ifvqbb0","pricing_plan_id":"cebpf4jnsgd1na2vs0mg"},{"bike_id":"bb1b5c50-f9ec-4c81-ad19-e59162caef08","system_id":"levelo_inurba_marseille","lat":43.29801,"lon":5.3809,"is_reserved":false,"is_disabled":false,"rental_uris":{"android":"levelo://app?vid=bb1b5c50-f9ec-4c81-ad19-e59162caef08","ios":"levelo://app?vid=bb1b5c50-f9ec-4c81-ad19-e59162caef08"},"vehicle_type_id":"4","last_reported":1717265354,"current_range_meters":10400,"station_id":"ce4bgip2rcd13ifvqbb0","pricing_plan_id":"cebpf4jnsgd1na2vs0mg"},{"bike_id":"4a799a2d-c712-4ac6-b209-8e4ddb38f645","system_id":"levelo_inurba_marseille","lat":43.297983,"lon":5.380922,"is_reserved":false,"is_disabled":false,"rental_uris":{"android":"levelo://app?vid=4a799a2d-c712-4ac6-b209-8e4ddb38f645","ios":"levelo://app?vid=4a799a2d-c712-4ac6-b209-8e4ddb38f645"},"vehicle_type_id":"4","last_reported":1717265354,"current_range_meters":0,"station_id":"ce4bgip2rcd13ifvqbb0","pricing_plan_id":"cebpf4jnsgd1na2vs0mg"},{"bike_id":"e9605044-4e88-473c-897b-51870a0efd81","system_id":"levelo_inurba_marseille","lat":43.298037,"lon":5.381066,"is_reserved":false,"is_disabled":false,"rental_uris":{"android":"levelo://app?vid=e9605044-4e88-473c-897b-51870a0efd81","ios":"levelo://app?vid=e9605044-4e88-473c-897b-51870a0efd81"},"vehicle_type_id":"4","last_reported":1717265354,"current_range_meters":28000,"station_id":"ce4bgip2rcd13ifvqbb0","pricing_plan_id":"cebpf4jnsgd1na2vs0mg"},{"bike_id":"c8973769-4205-48e2-8a07-d31589718578","system_id":"levelo_inurba_marseille","lat":43.295748,"lon":5.37522,"is_reserved":false,"is_disabled":false,"rental_uris":{"android":"levelo://app?vid=c8973769-4205-48e2-8a07-d31589718578","ios":"levelo://app?vid=c8973769-4205-48e2-8a07-d31589718578"},"vehicle_type_id":"4","last_reported":1717265354,"current_range_meters":3600,"station_id":"ce4bgh92rcd13ifvqb50","pricing_plan_id":"cebpf4jnsgd1na2vs0mg"},{"bike_id":"c727fbc8-7576-49fc-b10a-467b1fcee608","system_id":"levelo_inurba_marseille","lat":43.298037,"lon":5.381066,"is_reserved":false,"is_disabled":false,"rental_uris":{"android":"levelo://app?vid=c727fbc8-7576-49fc-b10a-467b1fcee608","ios":"levelo://app?vid=c727fbc8-7576-49fc-b10a-467b1fcee608"},"vehicle_type_id":"4","last_reported":1717265354,"current_range_meters":22400,"station_id":"ce4bgip2rcd13ifvqbb0","pricing_plan_id":"cebpf4jnsgd1na2vs0mg"},{"bike_id":"4e11ea21-4fdb-48f6-8234-70c9c5a9b301","system_id":"levelo_inurba_marseille","lat":43.298037,"lon":5.381066,"is_reserved":false,"is_disabled":false,"rental_uris":{"android":"levelo://app?vid=4e11ea21-4fdb-48f6-8234-70c9c5a9b301","ios":"levelo://app?vid=4e11ea21-4fdb-48f6-8234-70c9c5a9b301"},"vehicle_type_id":"4","last_reported":1717265354,"current_range_meters":25600,"station_id":"ce4bgip2rcd13ifvqbb0","pricing_plan_id":"cebpf4jnsgd1na2vs0mg"},{"bike_id":"87afd365-4808-4975-8193-35d84f7a8704","system_id":"levelo_inurba_marseille","lat":43.296053,"lon":5.37674,"is_reserved":false,"is_disabled":false,"rental_uris":{"android":"levelo://app?vid=87afd365-4808-4975-8193-35d84f7a8704","ios":"levelo://app?vid=87afd365-4808-4975-8193-35d84f7a8704"},"vehicle_type_id":"4","last_reported":1717265354,"current_range_meters":0,"station_id":"ce4bgi92rcd13ifvqb90","pricing_plan_id":"cebpf4jnsgd1na2vs0mg"},{"bike_id":"1dec0b9e-8110-45ea-a769-c43083c9ae97","system_id":"levelo_inurba_marseille","lat":43.299033,"lon":5.383297,"is_reserved":false,"is_disabled":false,"rental_uris":{"android":"levelo://app?vid=1dec0b9e-8110-45ea-a769-c43083c9ae97","ios":"levelo://app?vid=1dec0b9e-8110-45ea-a769-c43083c9ae97"},"vehicle_type_id":"4","last_reported":1717265354,"current_range_meters":20800,"station_id":"","pricing_plan_id":"cebpf4jnsgd1na2vs0mg"},{"bike_id":"48b84628-2462-40a6-a9a3-697886a688f3","system_id":"levelo_inurba_marseille","lat":43.296277,"lon":5.377108,"is_reserved":false,"is_disabled":false,"rental_uris":{"android":"levelo://app?vid=48b84628-2462-40a6-a9a3-697886a688f3","ios":"levelo://app?vid=48b84628-2462-40a6-a9a3-697886a688f3"},"vehicle_type_id":"4","last_reported":1717265354,"current_range_meters":4400,"station_id":"ce4bgi92rcd13ifvqb90","pricing_plan_id":"cebpf4jnsgd1na2vs0mg"},{"bike_id":"d0db6182-f31e-46bd-92bb-d83b838f5f98","system_id":"levelo_inurba_marseille","lat":43.29606,"lon":5.3772,"is_reserved":false,"is_disabled":false,"rental_uris":{"android":"levelo://app?vid=d0db6182-f31e-46bd-92bb-d83b838f5f98","ios":"levelo://app?vid=d0db6182-f31e-46bd-92bb-d83b838f5f98"},"vehicle_type_id":"4","last_reported":1717265354,"current_range_meters":0,"station_id":"ce4bgi92rcd13ifvqb90","pricing_plan_id":"cebpf4jnsgd1na2vs0mg"},{"bike_id":"4f1bb7ea-8e7a-48f3-b79d-1a8912f363e2","system_id":"levelo_inurba_marseille","lat":43.29598,"lon":5.37733,"is_reserved":false,"is_disabled":false,"rental_uris":{"android":"levelo://app?vid=4f1bb7ea-8e7a-48f3-b79d-1a8912f363e2","ios":"levelo://app?vid=4f1bb7ea-8e7a-48f3-b79d-1a8912f363e2"},"vehicle_type_id":"4","last_reported":1717265354,"current_range_meters":23200,"station_id":"","pricing_plan_id":"cebpf4jnsgd1na2vs0mg"},{"bike_id":"42794132-5609-47ba-96d7-80f9898d714e","system_id":"levelo_inurba_marseille","lat":43.296277,"lon":5.377108,"is_reserved":false,"is_disabled":false,"rental_uris":{"android":"levelo://app?vid=42794132-5609-47ba-96d7-80f9898d714e","ios":"levelo://app?vid=42794132-5609-47ba-96d7-80f9898d714e"},"vehicle_type_id":"4","last_reported":1717265354,"current_range_meters":1600,"station_id":"ce4bgi92rcd13ifvqb90","pricing_plan_id":"cebpf4jnsgd1na2vs0mg"},{"bike_id":"d7f1de4a-7ae8-4206-8eef-2f6f73048482","system_id":"levelo_inurba_marseille","lat":43.295279,"lon":5.375048,"is_reserved":false,"is_disabled":false,"rental_uris":{"android":"levelo://app?vid=d7f1de4a-7ae8-4206-8eef-2f6f73048482","ios":"levelo://app?vid=d7f1de4a-7ae8-4206-8eef-2f6f73048482"},"vehicle_type_id":"4","last_reported":1717265354,"current_range_meters":30000,"station_id":"ce4bgkp2rcd13ifvqbmg","pricing_plan_id":"cebpf4jnsgd1na2vs0mg"},{"bike_id":"35b925ea-8360-4ed6-ae68-d3cda9859b71","system_id":"levelo_inurba_marseille","lat":43.29522,"lon":5.37504,"is_reserved":false,"is_disabled":false,"rental_uris":{"android":"levelo://app?vid=35b925ea-8360-4ed6-ae68-d3cda9859b71","ios":"levelo://app?vid=35b925ea-8360-4ed6-ae68-d3cda9859b71"},"vehicle_type_id":"4","last_reported":1717265354,"current_range_meters":0,"station_id":"ce4bgkp2rcd13ifvqbmg","pricing_plan_id":"cebpf4jnsgd1na2vs0mg"},{"bike_id":"b8526612-370a-4d56-8d55-f36584fba1c3","system_id":"levelo_inurba_marseille","lat":43.29584,"lon":5.37732,"is_reserved":false,"is_disabled":false,"rental_uris":{"android":"levelo://app?vid=b8526612-370a-4d56-8d55-f36584fba1c3","ios":"levelo://app?vid=b8526612-370a-4d56-8d55-f36584fba1c3"},"vehicle_type_id":"4","last_reported":1717265354,"current_range_meters":5200,"station_id":"","pricing_plan_id":"cebpf4jnsgd1na2vs0mg"},{"bike_id":"25425b5f-a57e-4d12-8ee5-c98e96116056","system_id":"levelo_inurba_marseille","lat":43.299724,"lon":5.384848,"is_reserved":false,"is_disabled":false,"rental_uris":{"android":"levelo://app?vid=25425b5f-a57e-4d12-8ee5-c98e96116056","ios":"levelo://app?vid=25425b5f-a57e-4d12-8ee5-c98e96116056"},"vehicle_type_id":"4","last_reported":1717265354,"current_range_meters":0,"station_id":"ce4bgj92rcd13ifvqbd0","pricing_plan_id":"cebpf4jnsgd1na2vs0mg"},{"bike_id":"c4018890-80c5-426d-8def-f19ec0b1712a","system_id":"levelo_inurba_marseille","lat":43.299914,"lon":5.385318,"is_reserved":false,"is_disabled":false,"rental_uris":{"android":"levelo://app?vid=c4018890-80c5-426d-8def-f19ec0b1712a","ios":"levelo://app?vid=c4018890-80c5-426d-8def-f19ec0b1712a"},"vehicle_type_id":"4","last_reported":1717265354,"current_range_meters":0,"station_id":"ce4bgj92rcd13ifvqbd0","pricing_plan_id":"cebpf4jnsgd1na2vs0mg"},{"bike_id":"e26e3656-bb6f-410d-a1b3-27b1b1ed9bf2","system_id":"levelo_inurba_marseille","lat":43.299717,"lon":5.384845,"is_reserved":false,"is_disabled":false,"rental_uris":{"android":"levelo://app?vid=e26e3656-bb6f-410d-a1b3-27b1b1ed9bf2","ios":"levelo://app?vid=e26e3656-bb6f-410d-a1b3-27b1b1ed9bf2"},"vehicle_type_id":"4","last_reported":1717265354,"current_range_meters":14800,"station_id":"ce4bgj92rcd13ifvqbd0","pricing_plan_id":"cebpf4jnsgd1na2vs0mg"},{"bike_id":"dbd405b2-ac53-44b9-85af-d0c90fc88da0","system_id":"levelo_inurba_marseille","lat":43.2963,"lon":5.38065,"is_reserved":false,"is_disabled":false,"rental_uris":{"android":"levelo://app?vid=dbd405b2-ac53-44b9-85af-d0c90fc88da0","ios":"levelo://app?vid=dbd405b2-ac53-44b9-85af-d0c90fc88da0"},"vehicle_type_id":"4","last_reported":1717265354,"current_range_meters":2800,"station_id":"ce4bgl12rcd13ifvqbo0","pricing_plan_id":"cebpf4jnsgd1na2vs0mg"},{"bike_id":"b5eb9390-b525-4939-b879-64599a540fc2","system_id":"levelo_inurba_marseille","lat":43.32367,"lon":5.388836,"is_reserved":false,"is_disabled":false,"rental_uris":{"android":"levelo://app?vid=b5eb9390-b525-4939-b879-64599a540fc2","ios":"levelo://app?vid=b5eb9390-b525-4939-b879-64599a540fc2"},"vehicle_type_id":"4","last_reported":1717265354,"current_range_meters":22000,"station_id":"ce4bhqp2rcd13ifvqhog","pricing_plan_id":"cebpf4jnsgd1na2vs0mg"},{"bike_id":"e1e1d00a-eb79-488a-b43c-715c1ca8b7f2","system_id":"levelo_inurba_marseille","lat":43.32367,"lon":5.388836,"is_reserved":false,"is_disabled":false,"rental_uris":{"android":"levelo://app?vid=e1e1d00a-eb79-488a-b43c-715c1ca8b7f2","ios":"levelo://app?vid=e1e1d00a-eb79-488a-b43c-715c1ca8b7f2"},"vehicle_type_id":"4","last_reported":1717265354,"current_range_meters":0,"station_id":"ce4bhqp2rcd13ifvqhog","pricing_plan_id":"cebpf4jnsgd1na2vs0mg"},{"bike_id":"4a13c913-83de-4e64-9019-7c5ce9c90901","system_id":"levelo_inurba_marseille","lat":43.29542,"lon":5.37939,"is_reserved":false,"is_disabled":false,"rental_uris":{"android":"levelo://app?vid=4a13c913-83de-4e64-9019-7c5ce9c90901","ios":"levelo://app?vid=4a13c913-83de-4e64-9019-7c5ce9c90901"},"vehicle_type_id":"4","last_reported":1717265354,"current_range_meters":29600,"station_id":"","pricing_plan_id":"cebpf4jnsgd1na2vs0mg"},{"bike_id":"586d87c1-a343-43fa-9695-53ef5cf7dfa3","system_id":"levelo_inurba_marseille","lat":43.29602,"lon":5.381084,"is_reserved":false,"is_disabled":false,"rental_uris":{"android":"levelo://app?vid=586d87c1-a343-43fa-9695-53ef5cf7dfa3","ios":"levelo://app?vid=586d87c1-a343-43fa-9695-53ef5cf7dfa3"},"vehicle_type_id":"4","last_reported":1717265354,"current_range_meters":6400,"station_id":"ce4bgl12rcd13ifvqbo0","pricing_plan_id":"cebpf4jnsgd1na2vs0mg"},{"bike_id":"233c5923-815a-40eb-81a6-5b45266126bc","system_id":"levelo_inurba_marseille","lat":43.29602,"lon":5.381084,"is_reserved":false,"is_disabled":false,"rental_uris":{"android":"levelo://app?vid=233c5923-815a-40eb-81a6-5b45266126bc","ios":"levelo://app?vid=233c5923-815a-40eb-81a6-5b45266126bc"},"vehicle_type_id":"4","last_reported":1717265354,"current_range_meters":9600,"station_id":"ce4bgl12rcd13ifvqbo0","pricing_plan_id":"cebpf4jnsgd1na2vs0mg"},{"bike_id":"ceb7eebb-9b34-4da9-9a07-820c45725e72","system_id":"levelo_inurba_marseille","lat":43.32367,"lon":5.388836,"is_reserved":false,"is_disabled":false,"rental_uris":{"android":"levelo://app?vid=ceb7eebb-9b34-4da9-9a07-820c45725e72","ios":"levelo://app?vid=ceb7eebb-9b34-4da9-9a07-820c45725e72"},"vehicle_type_id":"4","last_reported":1717265354,"current_range_meters":11200,"station_id":"ce4bhqp2rcd13ifvqhog","pricing_plan_id":"cebpf4jnsgd1na2vs0mg"},{"bike_id":"9663326a-7819-4fff-8d84-a7a5ecf4561a","system_id":"levelo_inurba_marseille","lat":43.29602,"lon":5.381084,"is_reserved":false,"is_disabled":false,"rental_uris":{"android":"levelo://app?vid=9663326a-7819-4fff-8d84-a7a5ecf4561a","ios":"levelo://app?vid=9663326a-7819-4fff-8d84-a7a5ecf4561a"},"vehicle_type_id":"4","last_reported":1717265354,"current_range_meters":0,"station_id":"ce4bgl12rcd13ifvqbo0","pricing_plan_id":"cebpf4jnsgd1na2vs0mg"},{"bike_id":"f51704f8-72b8-47a3-80e6-9ee28135d66d","system_id":"levelo_inurba_marseille","lat":43.293249,"lon":5.371578,"is_reserved":false,"is_disabled":false,"rental_uris":{"android":"levelo://app?vid=f51704f8-72b8-47a3-80e6-9ee28135d66d","ios":"levelo://app?vid=f51704f8-72b8-47a3-80e6-9ee28135d66d"},"vehicle_type_id":"4","last_reported":1717265354,"current_range_meters":9200,"station_id":"ce4bgh92rcd13ifvqb40","pricing_plan_id":"cebpf4jnsgd1na2vs0mg"},{"bike_id":"97e13dd4-d0e7-40ba-b3fa-f9355ac87715","system_id":"levelo_inurba_marseille","lat":43.293259,"lon":5.371586,"is_reserved":false,"is_disabled":false,"rental_uris":{"android":"levelo://app?vid=97e13dd4-d0e7-40ba-b3fa-f9355ac87715","ios":"levelo://app?vid=97e13dd4-d0e7-40ba-b3fa-f9355ac87715"},"vehicle_type_id":"4","last_reported":1717265354,"current_range_meters":0,"station_id":"ce4bgh92rcd13ifvqb40","pricing_plan_id":"cebpf4jnsgd1na2vs0mg"},{"bike_id":"2ffe43d5-9d30-467f-bd58-2f3a014d5aa0","system_id":"levelo_inurba_marseille","lat":43.293249,"lon":5.371578,"is_reserved":false,"is_disabled":false,"rental_uris":{"android":"levelo://app?vid=2ffe43d5-9d30-467f-bd58-2f3a014d5aa0","ios":"levelo://app?vid=2ffe43d5-9d30-467f-bd58-2f3a014d5aa0"},"vehicle_type_id":"4","last_reported":1717265354,"current_range_meters":12800,"station_id":"ce4bgh92rcd13ifvqb40","pricing_plan_id":"cebpf4jnsgd1na2vs0mg"},{"bike_id":"5e18d83f-d308-4c25-9126-7159c63af504","system_id":"levelo_inurba_marseille","lat":43.29282,"lon":5.36844,"is_reserved":false,"is_disabled":false,"rental_uris":{"android":"levelo://app?vid=5e18d83f-d308-4c25-9126-7159c63af504","ios":"levelo://app?vid=5e18d83f-d308-4c25-9126-7159c63af504"},"vehicle_type_id":"4","last_reported":1717265354,"current_range_meters":8800,"station_id":"ce4bhbp2rcd13ifvqesg","pricing_plan_id":"cebpf4jnsgd1na2vs0mg"},{"bike_id":"2eb3e11c-3c13-4d1d-a2a4-8a1a63450bad","system_id":"levelo_inurba_marseille","lat":43.293259,"lon":5.371586,"is_reserved":false,"is_disabled":false,"rental_uris":{"android":"levelo://app?vid=2eb3e11c-3c13-4d1d-a2a4-8a1a63450bad","ios":"levelo://app?vid=2eb3e11c-3c13-4d1d-a2a4-8a1a63450bad"},"vehicle_type_id":"4","last_reported":1717265354,"current_range_meters":31600,"station_id":"ce4bgh92rcd13ifvqb40","pricing_plan_id":"cebpf4jnsgd1na2vs0mg"},{"bike_id":"dc92d00c-61c2-4ee9-bc01-ffd57479bc7a","system_id":"levelo_inurba_marseille","lat":43.293259,"lon":5.371586,"is_reserved":false,"is_disabled":false,"rental_uris":{"android":"levelo://app?vid=dc92d00c-61c2-4ee9-bc01-ffd57479bc7a","ios":"levelo://app?vid=dc92d00c-61c2-4ee9-bc01-ffd57479bc7a"},"vehicle_type_id":"4","last_reported":1717265354,"current_range_meters":8000,"station_id":"ce4bgh92rcd13ifvqb40","pricing_plan_id":"cebpf4jnsgd1na2vs0mg"},{"bike_id":"c9034663-bfd7-41a2-95c3-ab382097eb3e","system_id":"levelo_inurba_marseille","lat":43.293259,"lon":5.371586,"is_reserved":false,"is_disabled":false,"rental_uris":{"android":"levelo://app?vid=c9034663-bfd7-41a2-95c3-ab382097eb3e","ios":"levelo://app?vid=c9034663-bfd7-41a2-95c3-ab382097eb3e"},"vehicle_type_id":"4","last_reported":1717265354,"current_range_meters":8400,"station_id":"ce4bgh92rcd13ifvqb40","pricing_plan_id":"cebpf4jnsgd1na2vs0mg"},{"bike_id":"8b415da0-633c-4833-86f4-ceb88b1aa94b","system_id":"levelo_inurba_marseille","lat":43.29278,"lon":5.36837,"is_reserved":false,"is_disabled":false,"rental_uris":{"android":"levelo://app?vid=8b415da0-633c-4833-86f4-ceb88b1aa94b","ios":"levelo://app?vid=8b415da0-633c-4833-86f4-ceb88b1aa94b"},"vehicle_type_id":"4","last_reported":1717265354,"current_range_meters":14000,"station_id":"ce4bhbp2rcd13ifvqesg","pricing_plan_id":"cebpf4jnsgd1na2vs0mg"},{"bike_id":"eaa31b53-1900-4b3b-b519-5e62ff0fe5e0","system_id":"levelo_inurba_marseille","lat":43.292749,"lon":5.368402,"is_reserved":false,"is_disabled":false,"rental_uris":{"android":"levelo://app?vid=eaa31b53-1900-4b3b-b519-5e62ff0fe5e0","ios":"levelo://app?vid=eaa31b53-1900-4b3b-b519-5e62ff0fe5e0"},"vehicle_type_id":"4","last_reported":1717265354,"current_range_meters":24400,"station_id":"ce4bhbp2rcd13ifvqesg","pricing_plan_id":"cebpf4jnsgd1na2vs0mg"},{"bike_id":"9a37271f-07a7-4dd8-b9b9-8a72b0dc046b","system_id":"levelo_inurba_marseille","lat":43.292749,"lon":5.368402,"is_reserved":false,"is_disabled":false,"rental_uris":{"android":"levelo://app?vid=9a37271f-07a7-4dd8-b9b9-8a72b0dc046b","ios":"levelo://app?vid=9a37271f-07a7-4dd8-b9b9-8a72b0dc046b"},"vehicle_type_id":"4","last_reported":1717265354,"current_range_meters":15200,"station_id":"ce4bhbp2rcd13ifvqesg","pricing_plan_id":"cebpf4jnsgd1na2vs0mg"},{"bike_id":"f68d4273-65e3-489c-bd19-d8687d80c9f5","system_id":"levelo_inurba_marseille","lat":43.292749,"lon":5.368402,"is_reserved":false,"is_disabled":false,"rental_uris":{"android":"levelo://app?vid=f68d4273-65e3-489c-bd19-d8687d80c9f5","ios":"levelo://app?vid=f68d4273-65e3-489c-bd19-d8687d80c9f5"},"vehicle_type_id":"4","last_reported":1717265354,"current_range_meters":22000,"station_id":"ce4bhbp2rcd13ifvqesg","pricing_plan_id":"cebpf4jnsgd1na2vs0mg"},{"bike_id":"d09055e9-82c3-4ebb-9895-8bb706138e8f","system_id":"levelo_inurba_marseille","lat":43.292749,"lon":5.368402,"is_reserved":false,"is_disabled":false,"rental_uris":{"android":"levelo://app?vid=d09055e9-82c3-4ebb-9895-8bb706138e8f","ios":"levelo://app?vid=d09055e9-82c3-4ebb-9895-8bb706138e8f"},"vehicle_type_id":"4","last_reported":1717265354,"current_range_meters":18400,"station_id":"ce4bhbp2rcd13ifvqesg","pricing_plan_id":"cebpf4jnsgd1na2vs0mg"},{"bike_id":"387cbe5a-3d9f-4a46-a5dd-034c0e79df8c","system_id":"levelo_inurba_marseille","lat":43.292749,"lon":5.368402,"is_reserved":false,"is_disabled":false,"rental_uris":{"android":"levelo://app?vid=387cbe5a-3d9f-4a46-a5dd-034c0e79df8c","ios":"levelo://app?vid=387cbe5a-3d9f-4a46-a5dd-034c0e79df8c"},"vehicle_type_id":"4","last_reported":1717265354,"current_range_meters":1200,"station_id":"ce4bhbp2rcd13ifvqesg","pricing_plan_id":"cebpf4jnsgd1na2vs0mg"},{"bike_id":"58c898d9-4a38-4a57-82c5-26b9485fde06","system_id":"levelo_inurba_marseille","lat":43.2927,"lon":5.36838,"is_reserved":false,"is_disabled":false,"rental_uris":{"android":"levelo://app?vid=58c898d9-4a38-4a57-82c5-26b9485fde06","ios":"levelo://app?vid=58c898d9-4a38-4a57-82c5-26b9485fde06"},"vehicle_type_id":"4","last_reported":1717265354,"current_range_meters":0,"station_id":"ce4bhbp2rcd13ifvqesg","pricing_plan_id":"cebpf4jnsgd1na2vs0mg"},{"bike_id":"62e84703-88d6-4ee8-81d8-86b62e017fbf","system_id":"levelo_inurba_marseille","lat":43.2927,"lon":5.3684,"is_reserved":false,"is_disabled":false,"rental_uris":{"android":"levelo://app?vid=62e84703-88d6-4ee8-81d8-86b62e017fbf","ios":"levelo://app?vid=62e84703-88d6-4ee8-81d8-86b62e017fbf"},"vehicle_type_id":"4","last_reported":1717265354,"current_range_meters":0,"station_id":"ce4bhbp2rcd13ifvqesg","pricing_plan_id":"cebpf4jnsgd1na2vs0mg"},{"bike_id":"c3da39f4-c213-4346-aa75-b67fe1a2077e","system_id":"levelo_inurba_marseille","lat":43.29269,"lon":5.3684,"is_reserved":false,"is_disabled":false,"rental_uris":{"android":"levelo://app?vid=c3da39f4-c213-4346-aa75-b67fe1a2077e","ios":"levelo://app?vid=c3da39f4-c213-4346-aa75-b67fe1a2077e"},"vehicle_type_id":"4","last_reported":1717265354,"current_range_meters":29600,"station_id":"ce4bhbp2rcd13ifvqesg","pricing_plan_id":"cebpf4jnsgd1na2vs0mg"},{"bike_id":"23178522-7308-4555-9aca-d0c72f24bcce","system_id":"levelo_inurba_marseille","lat":43.29268,"lon":5.36857,"is_reserved":false,"is_disabled":false,"rental_uris":{"android":"levelo://app?vid=23178522-7308-4555-9aca-d0c72f24bcce","ios":"levelo://app?vid=23178522-7308-4555-9aca-d0c72f24bcce"},"vehicle_type_id":"4","last_reported":1717265354,"current_range_meters":0,"station_id":"ce4bhbp2rcd13ifvqesg","pricing_plan_id":"cebpf4jnsgd1na2vs0mg"},{"bike_id":"add736cf-c46d-42a4-8fe3-b32937c53fff","system_id":"levelo_inurba_marseille","lat":43.29267,"lon":5.36842,"is_reserved":false,"is_disabled":false,"rental_uris":{"android":"levelo://app?vid=add736cf-c46d-42a4-8fe3-b32937c53fff","ios":"levelo://app?vid=add736cf-c46d-42a4-8fe3-b32937c53fff"},"vehicle_type_id":"4","last_reported":1717265354,"current_range_meters":0,"station_id":"ce4bhbp2rcd13ifvqesg","pricing_plan_id":"cebpf4jnsgd1na2vs0mg"},{"bike_id":"12d28466-c29d-42c7-a0b2-f611ff4d91fb","system_id":"levelo_inurba_marseille","lat":43.293009,"lon":5.374584,"is_reserved":false,"is_disabled":false,"rental_uris":{"android":"levelo://app?vid=12d28466-c29d-42c7-a0b2-f611ff4d91fb","ios":"levelo://app?vid=12d28466-c29d-42c7-a0b2-f611ff4d91fb"},"vehicle_type_id":"4","last_reported":1717265354,"current_range_meters":5600,"station_id":"ce4bgi12rcd13ifvqb70","pricing_plan_id":"cebpf4jnsgd1na2vs0mg"},{"bike_id":"e482ee8b-0ffe-489e-a2f6-7feb3e927f8f","system_id":"levelo_inurba_marseille","lat":43.305994,"lon":5.393687,"is_reserved":false,"is_disabled":false,"rental_uris":{"android":"levelo://app?vid=e482ee8b-0ffe-489e-a2f6-7feb3e927f8f","ios":"levelo://app?vid=e482ee8b-0ffe-489e-a2f6-7feb3e927f8f"},"vehicle_type_id":"4","last_reported":1717265354,"current_range_meters":24000,"station_id":"ce4bh0p2rcd13ifvqd80","pricing_plan_id":"cebpf4jnsgd1na2vs0mg"},{"bike_id":"b069994f-5257-4eda-8acd-f7249011d682","system_id":"levelo_inurba_marseille","lat":43.305994,"lon":5.393687,"is_reserved":false,"is_disabled":false,"rental_uris":{"android":"levelo://app?vid=b069994f-5257-4eda-8acd-f7249011d682","ios":"levelo://app?vid=b069994f-5257-4eda-8acd-f7249011d682"},"vehicle_type_id":"4","last_reported":1717265354,"current_range_meters":30400,"station_id":"ce4bh0p2rcd13ifvqd80","pricing_plan_id":"cebpf4jnsgd1na2vs0mg"},{"bike_id":"63206fff-b55e-4906-9079-f9fb0b1fd514","system_id":"levelo_inurba_marseille","lat":43.292945,"lon":5.37464,"is_reserved":false,"is_disabled":false,"rental_uris":{"android":"levelo://app?vid=63206fff-b55e-4906-9079-f9fb0b1fd514","ios":"levelo://app?vid=63206fff-b55e-4906-9079-f9fb0b1fd514"},"vehicle_type_id":"4","last_reported":1717265354,"current_range_meters":0,"station_id":"ce4bgi12rcd13ifvqb70","pricing_plan_id":"cebpf4jnsgd1na2vs0mg"},{"bike_id":"3645afbc-f6c9-4de7-8c24-a6731dabd78a","system_id":"levelo_inurba_marseille","lat":43.293009,"lon":5.374584,"is_reserved":false,"is_disabled":false,"rental_uris":{"android":"levelo://app?vid=3645afbc-f6c9-4de7-8c24-a6731dabd78a","ios":"levelo://app?vid=3645afbc-f6c9-4de7-8c24-a6731dabd78a"},"vehicle_type_id":"4","last_reported":1717265354,"current_range_meters":11200,"station_id":"ce4bgi12rcd13ifvqb70","pricing_plan_id":"cebpf4jnsgd1na2vs0mg"},{"bike_id":"3bcba23a-2269-48ed-8dee-bc95d6cf6724","system_id":"levelo_inurba_marseille","lat":43.302992,"lon":5.392136,"is_reserved":false,"is_disabled":false,"rental_uris":{"android":"levelo://app?vid=3bcba23a-2269-48ed-8dee-bc95d6cf6724","ios":"levelo://app?vid=3bcba23a-2269-48ed-8dee-bc95d6cf6724"},"vehicle_type_id":"4","last_reported":1717265354,"current_range_meters":22400,"station_id":"ce4bgkh2rcd13ifvqbk0","pricing_plan_id":"cebpf4jnsgd1na2vs0mg"},{"bike_id":"de335996-959a-4e58-b259-196c9a3b2561","system_id":"levelo_inurba_marseille","lat":43.303002,"lon":5.392142,"is_reserved":false,"is_disabled":false,"rental_uris":{"android":"levelo://app?vid=de335996-959a-4e58-b259-196c9a3b2561","ios":"levelo://app?vid=de335996-959a-4e58-b259-196c9a3b2561"},"vehicle_type_id":"4","last_reported":1717265354,"current_range_meters":14400,"station_id":"ce4bgkh2rcd13ifvqbk0","pricing_plan_id":"cebpf4jnsgd1na2vs0mg"},{"bike_id":"7cbcb9b2-4792-458f-baa8-491ea9eb0fed","system_id":"levelo_inurba_marseille","lat":43.303002,"lon":5.392142,"is_reserved":false,"is_disabled":false,"rental_uris":{"android":"levelo://app?vid=7cbcb9b2-4792-458f-baa8-491ea9eb0fed","ios":"levelo://app?vid=7cbcb9b2-4792-458f-baa8-491ea9eb0fed"},"vehicle_type_id":"4","last_reported":1717265354,"current_range_meters":29200,"station_id":"ce4bgkh2rcd13ifvqbk0","pricing_plan_id":"cebpf4jnsgd1na2vs0mg"},{"bike_id":"bf8765b6-7ea7-4240-ad8e-f3fcf281c295","system_id":"levelo_inurba_marseille","lat":43.29218,"lon":5.36314,"is_reserved":false,"is_disabled":false,"rental_uris":{"android":"levelo://app?vid=bf8765b6-7ea7-4240-ad8e-f3fcf281c295","ios":"levelo://app?vid=bf8765b6-7ea7-4240-ad8e-f3fcf281c295"},"vehicle_type_id":"4","last_reported":1717265354,"current_range_meters":0,"station_id":"","pricing_plan_id":"cebpf4jnsgd1na2vs0mg"},{"bike_id":"4b8b9ada-8e70-4d95-a62b-147206d7bb68","system_id":"levelo_inurba_marseille","lat":43.2936,"lon":5.37835,"is_reserved":false,"is_disabled":false,"rental_uris":{"android":"levelo://app?vid=4b8b9ada-8e70-4d95-a62b-147206d7bb68","ios":"levelo://app?vid=4b8b9ada-8e70-4d95-a62b-147206d7bb68"},"vehicle_type_id":"4","last_reported":1717265354,"current_range_meters":1200,"station_id":"ce4bgjh2rcd13ifvqbf0","pricing_plan_id":"cebpf4jnsgd1na2vs0mg"},{"bike_id":"84508a1c-8565-4a04-ae1d-43f1282601f5","system_id":"levelo_inurba_marseille","lat":43.292311,"lon":5.360731,"is_reserved":false,"is_disabled":false,"rental_uris":{"android":"levelo://app?vid=84508a1c-8565-4a04-ae1d-43f1282601f5","ios":"levelo://app?vid=84508a1c-8565-4a04-ae1d-43f1282601f5"},"vehicle_type_id":"4","last_reported":1717265354,"current_range_meters":14800,"station_id":"ce4bhbh2rcd13ifvqeqg","pricing_plan_id":"cebpf4jnsgd1na2vs0mg"},{"bike_id":"a3b058d7-ce82-475d-b4a3-8e3c6e94c6c0","system_id":"levelo_inurba_marseille","lat":43.292311,"lon":5.360731,"is_reserved":false,"is_disabled":false,"rental_uris":{"android":"levelo://app?vid=a3b058d7-ce82-475d-b4a3-8e3c6e94c6c0","ios":"levelo://app?vid=a3b058d7-ce82-475d-b4a3-8e3c6e94c6c0"},"vehicle_type_id":"4","last_reported":1717265354,"current_range_meters":13200,"station_id":"ce4bhbh2rcd13ifvqeqg","pricing_plan_id":"cebpf4jnsgd1na2vs0mg"},{"bike_id":"70bbe81a-91a1-4f88-8c4e-fea2f21095ce","system_id":"levelo_inurba_marseille","lat":43.292311,"lon":5.360731,"is_reserved":false,"is_disabled":false,"rental_uris":{"android":"levelo://app?vid=70bbe81a-91a1-4f88-8c4e-fea2f21095ce","ios":"levelo://app?vid=70bbe81a-91a1-4f88-8c4e-fea2f21095ce"},"vehicle_type_id":"4","last_reported":1717265354,"current_range_meters":9600,"station_id":"ce4bhbh2rcd13ifvqeqg","pricing_plan_id":"cebpf4jnsgd1na2vs0mg"},{"bike_id":"05e821a8-d776-42b0-9efb-900489b2967d","system_id":"levelo_inurba_marseille","lat":43.30085,"lon":5.390856,"is_reserved":false,"is_disabled":false,"rental_uris":{"android":"levelo://app?vid=05e821a8-d776-42b0-9efb-900489b2967d","ios":"levelo://app?vid=05e821a8-d776-42b0-9efb-900489b2967d"},"vehicle_type_id":"4","last_reported":1717265354,"current_range_meters":8800,"station_id":"ce4bh192rcd13ifvqdb0","pricing_plan_id":"cebpf4jnsgd1na2vs0mg"},{"bike_id":"e9ab844c-17ec-4bdd-8d68-84c5ad7bdda1","system_id":"levelo_inurba_marseille","lat":43.298764,"lon":5.388973,"is_reserved":false,"is_disabled":false,"rental_uris":{"android":"levelo://app?vid=e9ab844c-17ec-4bdd-8d68-84c5ad7bdda1","ios":"levelo://app?vid=e9ab844c-17ec-4bdd-8d68-84c5ad7bdda1"},"vehicle_type_id":"4","last_reported":1717265354,"current_range_meters":2800,"station_id":"ce4bh392rcd13ifvqdl0","pricing_plan_id":"cebpf4jnsgd1na2vs0mg"},{"bike_id":"fc62dbd4-f391-4240-81df-5b5448b30422","system_id":"levelo_inurba_marseille","lat":43.298764,"lon":5.388973,"is_reserved":false,"is_disabled":false,"rental_uris":{"android":"levelo://app?vid=fc62dbd4-f391-4240-81df-5b5448b30422","ios":"levelo://app?vid=fc62dbd4-f391-4240-81df-5b5448b30422"},"vehicle_type_id":"4","last_reported":1717265354,"current_range_meters":0,"station_id":"ce4bh392rcd13ifvqdl0","pricing_plan_id":"cebpf4jnsgd1na2vs0mg"},{"bike_id":"22a4e5ed-30f9-4b4a-89ad-98cb8c7dbbfa","system_id":"levelo_inurba_marseille","lat":43.298764,"lon":5.388973,"is_reserved":false,"is_disabled":false,"rental_uris":{"android":"levelo://app?vid=22a4e5ed-30f9-4b4a-89ad-98cb8c7dbbfa","ios":"levelo://app?vid=22a4e5ed-30f9-4b4a-89ad-98cb8c7dbbfa"},"vehicle_type_id":"4","last_reported":1717265354,"current_range_meters":0,"station_id":"ce4bh392rcd13ifvqdl0","pricing_plan_id":"cebpf4jnsgd1na2vs0mg"},{"bike_id":"8a065845-4e64-4417-8011-5374ba763afe","system_id":"levelo_inurba_marseille","lat":43.239588,"lon":5.366238,"is_reserved":false,"is_disabled":false,"rental_uris":{"android":"levelo://app?vid=8a065845-4e64-4417-8011-5374ba763afe","ios":"levelo://app?vid=8a065845-4e64-4417-8011-5374ba763afe"},"vehicle_type_id":"4","last_reported":1717265354,"current_range_meters":2800,"station_id":"ce4bhi12rcd13ifvqfp0","pricing_plan_id":"cebpf4jnsgd1na2vs0mg"},{"bike_id":"0ca55fef-88a7-45dc-99bc-5e97279037f1","system_id":"levelo_inurba_marseille","lat":43.291675,"lon":5.371583,"is_reserved":false,"is_disabled":false,"rental_uris":{"android":"levelo://app?vid=0ca55fef-88a7-45dc-99bc-5e97279037f1","ios":"levelo://app?vid=0ca55fef-88a7-45dc-99bc-5e97279037f1"},"vehicle_type_id":"4","last_reported":1717265354,"current_range_meters":12400,"station_id":"ce4bha92rcd13ifvqeh0","pricing_plan_id":"cebpf4jnsgd1na2vs0mg"},{"bike_id":"2426d037-1a6b-4388-91d6-021f17f5ed1b","system_id":"levelo_inurba_marseille","lat":43.298764,"lon":5.388973,"is_reserved":false,"is_disabled":false,"rental_uris":{"android":"levelo://app?vid=2426d037-1a6b-4388-91d6-021f17f5ed1b","ios":"levelo://app?vid=2426d037-1a6b-4388-91d6-021f17f5ed1b"},"vehicle_type_id":"4","last_reported":1717265354,"current_range_meters":22000,"station_id":"ce4bh392rcd13ifvqdl0","pricing_plan_id":"cebpf4jnsgd1na2vs0mg"},{"bike_id":"2525ca45-1325-4c30-8ba6-ecb74b20558b","system_id":"levelo_inurba_marseille","lat":43.291671,"lon":5.371575,"is_reserved":false,"is_disabled":false,"rental_uris":{"android":"levelo://app?vid=2525ca45-1325-4c30-8ba6-ecb74b20558b","ios":"levelo://app?vid=2525ca45-1325-4c30-8ba6-ecb74b20558b"},"vehicle_type_id":"4","last_reported":1717265354,"current_range_meters":0,"station_id":"ce4bha92rcd13ifvqeh0","pricing_plan_id":"cebpf4jnsgd1na2vs0mg"},{"bike_id":"a92d8bdf-ba0d-4a65-8949-5f83b42de759","system_id":"levelo_inurba_marseille","lat":43.291675,"lon":5.371583,"is_reserved":false,"is_disabled":false,"rental_uris":{"android":"levelo://app?vid=a92d8bdf-ba0d-4a65-8949-5f83b42de759","ios":"levelo://app?vid=a92d8bdf-ba0d-4a65-8949-5f83b42de759"},"vehicle_type_id":"4","last_reported":1717265354,"current_range_meters":0,"station_id":"ce4bha92rcd13ifvqeh0","pricing_plan_id":"cebpf4jnsgd1na2vs0mg"},{"bike_id":"5f2b649a-4911-48c4-a216-f4ac2bc2b3e4","system_id":"levelo_inurba_marseille","lat":43.291675,"lon":5.371583,"is_reserved":false,"is_disabled":false,"rental_uris":{"android":"levelo://app?vid=5f2b649a-4911-48c4-a216-f4ac2bc2b3e4","ios":"levelo://app?vid=5f2b649a-4911-48c4-a216-f4ac2bc2b3e4"},"vehicle_type_id":"4","last_reported":1717265354,"current_range_meters":400,"station_id":"ce4bha92rcd13ifvqeh0","pricing_plan_id":"cebpf4jnsgd1na2vs0mg"},{"bike_id":"11a97970-edc0-4756-b7ab-81328af6f7cb","system_id":"levelo_inurba_marseille","lat":43.291671,"lon":5.371575,"is_reserved":false,"is_disabled":false,"rental_uris":{"android":"levelo://app?vid=11a97970-edc0-4756-b7ab-81328af6f7cb","ios":"levelo://app?vid=11a97970-edc0-4756-b7ab-81328af6f7cb"},"vehicle_type_id":"4","last_reported":1717265354,"current_range_meters":14400,"station_id":"ce4bha92rcd13ifvqeh0","pricing_plan_id":"cebpf4jnsgd1na2vs0mg"},{"bike_id":"38b6a483-4f5f-408b-a3db-743b923321db","system_id":"levelo_inurba_marseille","lat":43.309047,"lon":5.396551,"is_reserved":false,"is_disabled":false,"rental_uris":{"android":"levelo://app?vid=38b6a483-4f5f-408b-a3db-743b923321db","ios":"levelo://app?vid=38b6a483-4f5f-408b-a3db-743b923321db"},"vehicle_type_id":"4","last_reported":1717265354,"current_range_meters":11200,"station_id":"ce4bh012rcd13ifvqcv0","pricing_plan_id":"cebpf4jnsgd1na2vs0mg"},{"bike_id":"0eb4ce7d-c752-4efd-bb7d-d563c85182f1","system_id":"levelo_inurba_marseille","lat":43.309038,"lon":5.396546,"is_reserved":false,"is_disabled":false,"rental_uris":{"android":"levelo://app?vid=0eb4ce7d-c752-4efd-bb7d-d563c85182f1","ios":"levelo://app?vid=0eb4ce7d-c752-4efd-bb7d-d563c85182f1"},"vehicle_type_id":"4","last_reported":1717265354,"current_range_meters":22800,"station_id":"ce4bh012rcd13ifvqcv0","pricing_plan_id":"cebpf4jnsgd1na2vs0mg"},{"bike_id":"a8de3ef1-ee2e-419b-9c74-95aa142980e1","system_id":"levelo_inurba_marseille","lat":43.30888,"lon":5.3964,"is_reserved":false,"is_disabled":false,"rental_uris":{"android":"levelo://app?vid=a8de3ef1-ee2e-419b-9c74-95aa142980e1","ios":"levelo://app?vid=a8de3ef1-ee2e-419b-9c74-95aa142980e1"},"vehicle_type_id":"4","last_reported":1717265354,"current_range_meters":0,"station_id":"ce4bh012rcd13ifvqcv0","pricing_plan_id":"cebpf4jnsgd1na2vs0mg"},{"bike_id":"4d3c82a3-c6c6-4d5c-a61a-301f82f9bcdc","system_id":"levelo_inurba_marseille","lat":43.313291,"lon":5.396838,"is_reserved":false,"is_disabled":false,"rental_uris":{"android":"levelo://app?vid=4d3c82a3-c6c6-4d5c-a61a-301f82f9bcdc","ios":"levelo://app?vid=4d3c82a3-c6c6-4d5c-a61a-301f82f9bcdc"},"vehicle_type_id":"4","last_reported":1717265354,"current_range_meters":28000,"station_id":"ce4bgvp2rcd13ifvqcu0","pricing_plan_id":"cebpf4jnsgd1na2vs0mg"},{"bike_id":"4115386d-bffd-4b61-9dbc-ad02cd5e4028","system_id":"levelo_inurba_marseille","lat":43.309038,"lon":5.396546,"is_reserved":false,"is_disabled":false,"rental_uris":{"android":"levelo://app?vid=4115386d-bffd-4b61-9dbc-ad02cd5e4028","ios":"levelo://app?vid=4115386d-bffd-4b61-9dbc-ad02cd5e4028"},"vehicle_type_id":"4","last_reported":1717265354,"current_range_meters":0,"station_id":"ce4bh012rcd13ifvqcv0","pricing_plan_id":"cebpf4jnsgd1na2vs0mg"},{"bike_id":"77e3311e-08b5-466d-b5f6-f6a312b6fc50","system_id":"levelo_inurba_marseille","lat":43.309038,"lon":5.396546,"is_reserved":false,"is_disabled":false,"rental_uris":{"android":"levelo://app?vid=77e3311e-08b5-466d-b5f6-f6a312b6fc50","ios":"levelo://app?vid=77e3311e-08b5-466d-b5f6-f6a312b6fc50"},"vehicle_type_id":"4","last_reported":1717265354,"current_range_meters":16800,"station_id":"ce4bh012rcd13ifvqcv0","pricing_plan_id":"cebpf4jnsgd1na2vs0mg"},{"bike_id":"e4fe4ed6-1a7a-4c59-b0e9-0aa80e15f109","system_id":"levelo_inurba_marseille","lat":43.309047,"lon":5.396551,"is_reserved":false,"is_disabled":false,"rental_uris":{"android":"levelo://app?vid=e4fe4ed6-1a7a-4c59-b0e9-0aa80e15f109","ios":"levelo://app?vid=e4fe4ed6-1a7a-4c59-b0e9-0aa80e15f109"},"vehicle_type_id":"4","last_reported":1717265354,"current_range_meters":1200,"station_id":"ce4bh012rcd13ifvqcv0","pricing_plan_id":"cebpf4jnsgd1na2vs0mg"},{"bike_id":"1b231bea-15f2-45f2-8a49-bdb695cbc3d8","system_id":"levelo_inurba_marseille","lat":43.29529,"lon":5.385581,"is_reserved":false,"is_disabled":false,"rental_uris":{"android":"levelo://app?vid=1b231bea-15f2-45f2-8a49-bdb695cbc3d8","ios":"levelo://app?vid=1b231bea-15f2-45f2-8a49-bdb695cbc3d8"},"vehicle_type_id":"4","last_reported":1717265354,"current_range_meters":21200,"station_id":"ce4bgih2rcd13ifvqba0","pricing_plan_id":"cebpf4jnsgd1na2vs0mg"},{"bike_id":"934e4f8c-b1ac-4b8f-b409-68ba5e94ce47","system_id":"levelo_inurba_marseille","lat":43.29529,"lon":5.385581,"is_reserved":false,"is_disabled":false,"rental_uris":{"android":"levelo://app?vid=934e4f8c-b1ac-4b8f-b409-68ba5e94ce47","ios":"levelo://app?vid=934e4f8c-b1ac-4b8f-b409-68ba5e94ce47"},"vehicle_type_id":"4","last_reported":1717265354,"current_range_meters":8000,"station_id":"ce4bgih2rcd13ifvqba0","pricing_plan_id":"cebpf4jnsgd1na2vs0mg"},{"bike_id":"9d0d3d12-5bf4-425f-a009-abcf6ca4e0b6","system_id":"levelo_inurba_marseille","lat":43.29529,"lon":5.385581,"is_reserved":false,"is_disabled":false,"rental_uris":{"android":"levelo://app?vid=9d0d3d12-5bf4-425f-a009-abcf6ca4e0b6","ios":"levelo://app?vid=9d0d3d12-5bf4-425f-a009-abcf6ca4e0b6"},"vehicle_type_id":"4","last_reported":1717265354,"current_range_meters":400,"station_id":"ce4bgih2rcd13ifvqba0","pricing_plan_id":"cebpf4jnsgd1na2vs0mg"},{"bike_id":"f3f098aa-8dfb-4246-b348-619dd87535a1","system_id":"levelo_inurba_marseille","lat":43.29526,"lon":5.38538,"is_reserved":false,"is_disabled":false,"rental_uris":{"android":"levelo://app?vid=f3f098aa-8dfb-4246-b348-619dd87535a1","ios":"levelo://app?vid=f3f098aa-8dfb-4246-b348-619dd87535a1"},"vehicle_type_id":"4","last_reported":1717265354,"current_range_meters":0,"station_id":"ce4bgih2rcd13ifvqba0","pricing_plan_id":"cebpf4jnsgd1na2vs0mg"},{"bike_id":"c56250ae-a0f4-4434-9550-2c7f9b7034b7","system_id":"levelo_inurba_marseille","lat":43.29529,"lon":5.385581,"is_reserved":false,"is_disabled":false,"rental_uris":{"android":"levelo://app?vid=c56250ae-a0f4-4434-9550-2c7f9b7034b7","ios":"levelo://app?vid=c56250ae-a0f4-4434-9550-2c7f9b7034b7"},"vehicle_type_id":"4","last_reported":1717265354,"current_range_meters":22800,"station_id":"ce4bgih2rcd13ifvqba0","pricing_plan_id":"cebpf4jnsgd1na2vs0mg"},{"bike_id":"a86ac7a8-d527-4841-ab75-166eeba2b079","system_id":"levelo_inurba_marseille","lat":43.29529,"lon":5.385581,"is_reserved":false,"is_disabled":false,"rental_uris":{"android":"levelo://app?vid=a86ac7a8-d527-4841-ab75-166eeba2b079","ios":"levelo://app?vid=a86ac7a8-d527-4841-ab75-166eeba2b079"},"vehicle_type_id":"4","last_reported":1717265354,"current_range_meters":4800,"station_id":"ce4bgih2rcd13ifvqba0","pricing_plan_id":"cebpf4jnsgd1na2vs0mg"},{"bike_id":"07dcd8dd-e380-4714-b590-68aa43650b9f","system_id":"levelo_inurba_marseille","lat":43.290661,"lon":5.371614,"is_reserved":false,"is_disabled":false,"rental_uris":{"android":"levelo://app?vid=07dcd8dd-e380-4714-b590-68aa43650b9f","ios":"levelo://app?vid=07dcd8dd-e380-4714-b590-68aa43650b9f"},"vehicle_type_id":"4","last_reported":1717265354,"current_range_meters":0,"station_id":"ce4bh5p2rcd13ifvqe4g","pricing_plan_id":"cebpf4jnsgd1na2vs0mg"},{"bike_id":"cbce41aa-ea7e-41bf-972a-079fd9b712fc","system_id":"levelo_inurba_marseille","lat":43.302008,"lon":5.394694,"is_reserved":false,"is_disabled":false,"rental_uris":{"android":"levelo://app?vid=cbce41aa-ea7e-41bf-972a-079fd9b712fc","ios":"levelo://app?vid=cbce41aa-ea7e-41bf-972a-079fd9b712fc"},"vehicle_type_id":"4","last_reported":1717265354,"current_range_meters":13200,"station_id":"ce4bh0p2rcd13ifvqd70","pricing_plan_id":"cebpf4jnsgd1na2vs0mg"},{"bike_id":"e342b61f-7c86-4c19-9137-3da3f02cbb7f","system_id":"levelo_inurba_marseille","lat":43.302008,"lon":5.394694,"is_reserved":false,"is_disabled":false,"rental_uris":{"android":"levelo://app?vid=e342b61f-7c86-4c19-9137-3da3f02cbb7f","ios":"levelo://app?vid=e342b61f-7c86-4c19-9137-3da3f02cbb7f"},"vehicle_type_id":"4","last_reported":1717265354,"current_range_meters":14800,"station_id":"ce4bh0p2rcd13ifvqd70","pricing_plan_id":"cebpf4jnsgd1na2vs0mg"},{"bike_id":"4af956c2-7866-4bad-8a10-544dc9b76ee1","system_id":"levelo_inurba_marseille","lat":43.302008,"lon":5.394694,"is_reserved":false,"is_disabled":false,"rental_uris":{"android":"levelo://app?vid=4af956c2-7866-4bad-8a10-544dc9b76ee1","ios":"levelo://app?vid=4af956c2-7866-4bad-8a10-544dc9b76ee1"},"vehicle_type_id":"4","last_reported":1717265354,"current_range_meters":20000,"station_id":"ce4bh0p2rcd13ifvqd70","pricing_plan_id":"cebpf4jnsgd1na2vs0mg"},{"bike_id":"c6588ec2-b3df-490d-ba02-e703d5762c8e","system_id":"levelo_inurba_marseille","lat":43.29039,"lon":5.37561,"is_reserved":false,"is_disabled":false,"rental_uris":{"android":"levelo://app?vid=c6588ec2-b3df-490d-ba02-e703d5762c8e","ios":"levelo://app?vid=c6588ec2-b3df-490d-ba02-e703d5762c8e"},"vehicle_type_id":"4","last_reported":1717265354,"current_range_meters":0,"station_id":"ce4bh692rcd13ifvqe90","pricing_plan_id":"cebpf4jnsgd1na2vs0mg"},{"bike_id":"7cb629b7-b0de-483e-9a29-f0f2c6e9e4c6","system_id":"levelo_inurba_marseille","lat":43.29422,"lon":5.38624,"is_reserved":false,"is_disabled":false,"rental_uris":{"android":"levelo://app?vid=7cb629b7-b0de-483e-9a29-f0f2c6e9e4c6","ios":"levelo://app?vid=7cb629b7-b0de-483e-9a29-f0f2c6e9e4c6"},"vehicle_type_id":"4","last_reported":1717265354,"current_range_meters":31200,"station_id":"ce4bh2h2rcd13ifvqdh0","pricing_plan_id":"cebpf4jnsgd1na2vs0mg"},{"bike_id":"b02e9b75-9d1d-44dc-9734-ba041474d68c","system_id":"levelo_inurba_marseille","lat":43.29419,"lon":5.38622,"is_reserved":false,"is_disabled":false,"rental_uris":{"android":"levelo://app?vid=b02e9b75-9d1d-44dc-9734-ba041474d68c","ios":"levelo://app?vid=b02e9b75-9d1d-44dc-9734-ba041474d68c"},"vehicle_type_id":"4","last_reported":1717265354,"current_range_meters":16000,"station_id":"ce4bh2h2rcd13ifvqdh0","pricing_plan_id":"cebpf4jnsgd1na2vs0mg"},{"bike_id":"e109ff6b-00ff-4000-ae1c-d86bd58cd353","system_id":"levelo_inurba_marseille","lat":43.29423,"lon":5.3863,"is_reserved":false,"is_disabled":false,"rental_uris":{"android":"levelo://app?vid=e109ff6b-00ff-4000-ae1c-d86bd58cd353","ios":"levelo://app?vid=e109ff6b-00ff-4000-ae1c-d86bd58cd353"},"vehicle_type_id":"4","last_reported":1717265354,"current_range_meters":17600,"station_id":"ce4bh2h2rcd13ifvqdh0","pricing_plan_id":"cebpf4jnsgd1na2vs0mg"},{"bike_id":"0a4f8a3d-38c9-4060-a716-705f77ad576b","system_id":"levelo_inurba_marseille","lat":43.29419,"lon":5.38628,"is_reserved":false,"is_disabled":false,"rental_uris":{"android":"levelo://app?vid=0a4f8a3d-38c9-4060-a716-705f77ad576b","ios":"levelo://app?vid=0a4f8a3d-38c9-4060-a716-705f77ad576b"},"vehicle_type_id":"4","last_reported":1717265354,"current_range_meters":31200,"station_id":"ce4bh2h2rcd13ifvqdh0","pricing_plan_id":"cebpf4jnsgd1na2vs0mg"},{"bike_id":"cca8a261-03cc-4208-904c-0852aebc659b","system_id":"levelo_inurba_marseille","lat":43.290327,"lon":5.375711,"is_reserved":false,"is_disabled":false,"rental_uris":{"android":"levelo://app?vid=cca8a261-03cc-4208-904c-0852aebc659b","ios":"levelo://app?vid=cca8a261-03cc-4208-904c-0852aebc659b"},"vehicle_type_id":"4","last_reported":1717265354,"current_range_meters":3200,"station_id":"ce4bh692rcd13ifvqe90","pricing_plan_id":"cebpf4jnsgd1na2vs0mg"},{"bike_id":"af0be361-4065-4508-8825-2ce748420450","system_id":"levelo_inurba_marseille","lat":43.29419,"lon":5.3863,"is_reserved":false,"is_disabled":false,"rental_uris":{"android":"levelo://app?vid=af0be361-4065-4508-8825-2ce748420450","ios":"levelo://app?vid=af0be361-4065-4508-8825-2ce748420450"},"vehicle_type_id":"4","last_reported":1717265354,"current_range_meters":12800,"station_id":"ce4bh2h2rcd13ifvqdh0","pricing_plan_id":"cebpf4jnsgd1na2vs0mg"},{"bike_id":"29349881-df03-4ba8-9c3d-e90b1890b7d8","system_id":"levelo_inurba_marseille","lat":43.29418,"lon":5.3863,"is_reserved":false,"is_disabled":false,"rental_uris":{"android":"levelo://app?vid=29349881-df03-4ba8-9c3d-e90b1890b7d8","ios":"levelo://app?vid=29349881-df03-4ba8-9c3d-e90b1890b7d8"},"vehicle_type_id":"4","last_reported":1717265354,"current_range_meters":22800,"station_id":"ce4bh2h2rcd13ifvqdh0","pricing_plan_id":"cebpf4jnsgd1na2vs0mg"},{"bike_id":"821a0bc4-7173-4c4b-ad4a-89412fbc8207","system_id":"levelo_inurba_marseille","lat":43.294162,"lon":5.386292,"is_reserved":false,"is_disabled":false,"rental_uris":{"android":"levelo://app?vid=821a0bc4-7173-4c4b-ad4a-89412fbc8207","ios":"levelo://app?vid=821a0bc4-7173-4c4b-ad4a-89412fbc8207"},"vehicle_type_id":"4","last_reported":1717265354,"current_range_meters":17200,"station_id":"ce4bh2h2rcd13ifvqdh0","pricing_plan_id":"cebpf4jnsgd1na2vs0mg"},{"bike_id":"033f828e-9614-402e-a540-3564e622dbaf","system_id":"levelo_inurba_marseille","lat":43.294162,"lon":5.386292,"is_reserved":false,"is_disabled":false,"rental_uris":{"android":"levelo://app?vid=033f828e-9614-402e-a540-3564e622dbaf","ios":"levelo://app?vid=033f828e-9614-402e-a540-3564e622dbaf"},"vehicle_type_id":"4","last_reported":1717265354,"current_range_meters":10000,"station_id":"ce4bh2h2rcd13ifvqdh0","pricing_plan_id":"cebpf4jnsgd1na2vs0mg"},{"bike_id":"7e1af1a0-212c-4bdc-80fc-988e0159f2cc","system_id":"levelo_inurba_marseille","lat":43.29415,"lon":5.38628,"is_reserved":false,"is_disabled":false,"rental_uris":{"android":"levelo://app?vid=7e1af1a0-212c-4bdc-80fc-988e0159f2cc","ios":"levelo://app?vid=7e1af1a0-212c-4bdc-80fc-988e0159f2cc"},"vehicle_type_id":"4","last_reported":1717265354,"current_range_meters":0,"station_id":"ce4bh2h2rcd13ifvqdh0","pricing_plan_id":"cebpf4jnsgd1na2vs0mg"},{"bike_id":"7bcef30d-7af1-4f79-9af7-0f2cb58dfe71","system_id":"levelo_inurba_marseille","lat":43.290327,"lon":5.375711,"is_reserved":false,"is_disabled":false,"rental_uris":{"android":"levelo://app?vid=7bcef30d-7af1-4f79-9af7-0f2cb58dfe71","ios":"levelo://app?vid=7bcef30d-7af1-4f79-9af7-0f2cb58dfe71"},"vehicle_type_id":"4","last_reported":1717265354,"current_range_meters":0,"station_id":"ce4bh692rcd13ifvqe90","pricing_plan_id":"cebpf4jnsgd1na2vs0mg"},{"bike_id":"9e66cae7-f622-416f-b2d6-dd8d4d83a52a","system_id":"levelo_inurba_marseille","lat":43.29417,"lon":5.38634,"is_reserved":false,"is_disabled":false,"rental_uris":{"android":"levelo://app?vid=9e66cae7-f622-416f-b2d6-dd8d4d83a52a","ios":"levelo://app?vid=9e66cae7-f622-416f-b2d6-dd8d4d83a52a"},"vehicle_type_id":"4","last_reported":1717265354,"current_range_meters":400,"station_id":"ce4bh2h2rcd13ifvqdh0","pricing_plan_id":"cebpf4jnsgd1na2vs0mg"},{"bike_id":"1a02350a-acba-4b7f-af46-65dd549cde08","system_id":"levelo_inurba_marseille","lat":43.294106,"lon":5.386269,"is_reserved":false,"is_disabled":false,"rental_uris":{"android":"levelo://app?vid=1a02350a-acba-4b7f-af46-65dd549cde08","ios":"levelo://app?vid=1a02350a-acba-4b7f-af46-65dd549cde08"},"vehicle_type_id":"4","last_reported":1717265354,"current_range_meters":1600,"station_id":"ce4bh2h2rcd13ifvqdh0","pricing_plan_id":"cebpf4jnsgd1na2vs0mg"},{"bike_id":"2ce93301-1eea-424c-baef-3c8df224cc4c","system_id":"levelo_inurba_marseille","lat":43.30434,"lon":5.39735,"is_reserved":false,"is_disabled":false,"rental_uris":{"android":"levelo://app?vid=2ce93301-1eea-424c-baef-3c8df224cc4c","ios":"levelo://app?vid=2ce93301-1eea-424c-baef-3c8df224cc4c"},"vehicle_type_id":"4","last_reported":1717265354,"current_range_meters":800,"station_id":"ce4bh092rcd13ifvqd20","pricing_plan_id":"cebpf4jnsgd1na2vs0mg"},{"bike_id":"a9cf14f7-11d8-4571-9312-d44a9d995bf0","system_id":"levelo_inurba_marseille","lat":43.292642,"lon":5.384254,"is_reserved":false,"is_disabled":false,"rental_uris":{"android":"levelo://app?vid=a9cf14f7-11d8-4571-9312-d44a9d995bf0","ios":"levelo://app?vid=a9cf14f7-11d8-4571-9312-d44a9d995bf0"},"vehicle_type_id":"4","last_reported":1717265354,"current_range_meters":5200,"station_id":"ce4bh692rcd13ifvqea0","pricing_plan_id":"cebpf4jnsgd1na2vs0mg"},{"bike_id":"c9310223-7d8a-485f-ac5f-e6320186108c","system_id":"levelo_inurba_marseille","lat":43.29262,"lon":5.38433,"is_reserved":false,"is_disabled":false,"rental_uris":{"android":"levelo://app?vid=c9310223-7d8a-485f-ac5f-e6320186108c","ios":"levelo://app?vid=c9310223-7d8a-485f-ac5f-e6320186108c"},"vehicle_type_id":"4","last_reported":1717265354,"current_range_meters":0,"station_id":"ce4bh692rcd13ifvqea0","pricing_plan_id":"cebpf4jnsgd1na2vs0mg"},{"bike_id":"c6dc91b3-4647-4d52-90fb-47710c6bee05","system_id":"levelo_inurba_marseille","lat":43.292665,"lon":5.384473,"is_reserved":false,"is_disabled":false,"rental_uris":{"android":"levelo://app?vid=c6dc91b3-4647-4d52-90fb-47710c6bee05","ios":"levelo://app?vid=c6dc91b3-4647-4d52-90fb-47710c6bee05"},"vehicle_type_id":"4","last_reported":1717265354,"current_range_meters":31200,"station_id":"ce4bh692rcd13ifvqea0","pricing_plan_id":"cebpf4jnsgd1na2vs0mg"},{"bike_id":"c52a5a76-0cb9-4787-9b56-f84c5b1e4dd0","system_id":"levelo_inurba_marseille","lat":43.29262,"lon":5.38441,"is_reserved":false,"is_disabled":false,"rental_uris":{"android":"levelo://app?vid=c52a5a76-0cb9-4787-9b56-f84c5b1e4dd0","ios":"levelo://app?vid=c52a5a76-0cb9-4787-9b56-f84c5b1e4dd0"},"vehicle_type_id":"4","last_reported":1717265354,"current_range_meters":14400,"station_id":"ce4bh692rcd13ifvqea0","pricing_plan_id":"cebpf4jnsgd1na2vs0mg"},{"bike_id":"b96d3c34-7eea-49bc-ab56-fc9614febf9e","system_id":"levelo_inurba_marseille","lat":43.30428,"lon":5.39753,"is_reserved":false,"is_disabled":false,"rental_uris":{"android":"levelo://app?vid=b96d3c34-7eea-49bc-ab56-fc9614febf9e","ios":"levelo://app?vid=b96d3c34-7eea-49bc-ab56-fc9614febf9e"},"vehicle_type_id":"4","last_reported":1717265354,"current_range_meters":6000,"station_id":"ce4bh092rcd13ifvqd20","pricing_plan_id":"cebpf4jnsgd1na2vs0mg"},{"bike_id":"f6d09879-cfd9-484a-b8f1-b34b3b9cae9e","system_id":"levelo_inurba_marseille","lat":43.2926,"lon":5.38441,"is_reserved":false,"is_disabled":false,"rental_uris":{"android":"levelo://app?vid=f6d09879-cfd9-484a-b8f1-b34b3b9cae9e","ios":"levelo://app?vid=f6d09879-cfd9-484a-b8f1-b34b3b9cae9e"},"vehicle_type_id":"4","last_reported":1717265354,"current_range_meters":21200,"station_id":"ce4bh692rcd13ifvqea0","pricing_plan_id":"cebpf4jnsgd1na2vs0mg"},{"bike_id":"97771161-86b1-4178-be1c-4afecfa09642","system_id":"levelo_inurba_marseille","lat":43.29259,"lon":5.38442,"is_reserved":false,"is_disabled":false,"rental_uris":{"android":"levelo://app?vid=97771161-86b1-4178-be1c-4afecfa09642","ios":"levelo://app?vid=97771161-86b1-4178-be1c-4afecfa09642"},"vehicle_type_id":"4","last_reported":1717265354,"current_range_meters":31200,"station_id":"ce4bh692rcd13ifvqea0","pricing_plan_id":"cebpf4jnsgd1na2vs0mg"},{"bike_id":"bce1bf02-28ae-4938-bcbb-104ebad1bd64","system_id":"levelo_inurba_marseille","lat":43.292644,"lon":5.384257,"is_reserved":false,"is_disabled":false,"rental_uris":{"android":"levelo://app?vid=bce1bf02-28ae-4938-bcbb-104ebad1bd64","ios":"levelo://app?vid=bce1bf02-28ae-4938-bcbb-104ebad1bd64"},"vehicle_type_id":"4","last_reported":1717265354,"current_range_meters":24400,"station_id":"ce4bh692rcd13ifvqea0","pricing_plan_id":"cebpf4jnsgd1na2vs0mg"},{"bike_id":"18b7ee5b-9987-4522-8865-1f1b4d5d5c9b","system_id":"levelo_inurba_marseille","lat":43.292642,"lon":5.384254,"is_reserved":false,"is_disabled":false,"rental_uris":{"android":"levelo://app?vid=18b7ee5b-9987-4522-8865-1f1b4d5d5c9b","ios":"levelo://app?vid=18b7ee5b-9987-4522-8865-1f1b4d5d5c9b"},"vehicle_type_id":"4","last_reported":1717265354,"current_range_meters":13200,"station_id":"ce4bh692rcd13ifvqea0","pricing_plan_id":"cebpf4jnsgd1na2vs0mg"},{"bike_id":"23c32b88-0cae-413c-ac97-2994282af2f6","system_id":"levelo_inurba_marseille","lat":43.292644,"lon":5.384257,"is_reserved":false,"is_disabled":false,"rental_uris":{"android":"levelo://app?vid=23c32b88-0cae-413c-ac97-2994282af2f6","ios":"levelo://app?vid=23c32b88-0cae-413c-ac97-2994282af2f6"},"vehicle_type_id":"4","last_reported":1717265354,"current_range_meters":27600,"station_id":"ce4bh692rcd13ifvqea0","pricing_plan_id":"cebpf4jnsgd1na2vs0mg"},{"bike_id":"3d6cf4da-19d5-49c0-917c-bc13ea2702f9","system_id":"levelo_inurba_marseille","lat":43.290103,"lon":5.356114,"is_reserved":false,"is_disabled":false,"rental_uris":{"android":"levelo://app?vid=3d6cf4da-19d5-49c0-917c-bc13ea2702f9","ios":"levelo://app?vid=3d6cf4da-19d5-49c0-917c-bc13ea2702f9"},"vehicle_type_id":"4","last_reported":1717265354,"current_range_meters":31200,"station_id":"ce4bhb92rcd13ifvqen0","pricing_plan_id":"cebpf4jnsgd1na2vs0mg"},{"bike_id":"ad82c62d-4d08-4000-b858-0563e3a7d1ec","system_id":"levelo_inurba_marseille","lat":43.290104,"lon":5.356111,"is_reserved":false,"is_disabled":false,"rental_uris":{"android":"levelo://app?vid=ad82c62d-4d08-4000-b858-0563e3a7d1ec","ios":"levelo://app?vid=ad82c62d-4d08-4000-b858-0563e3a7d1ec"},"vehicle_type_id":"4","last_reported":1717265354,"current_range_meters":22400,"station_id":"ce4bhb92rcd13ifvqen0","pricing_plan_id":"cebpf4jnsgd1na2vs0mg"},{"bike_id":"417feff0-eb3f-4963-8826-103028d003b7","system_id":"levelo_inurba_marseille","lat":43.290995,"lon":5.381361,"is_reserved":false,"is_disabled":false,"rental_uris":{"android":"levelo://app?vid=417feff0-eb3f-4963-8826-103028d003b7","ios":"levelo://app?vid=417feff0-eb3f-4963-8826-103028d003b7"},"vehicle_type_id":"4","last_reported":1717265354,"current_range_meters":800,"station_id":"ce4bh512rcd13ifvqe2g","pricing_plan_id":"cebpf4jnsgd1na2vs0mg"},{"bike_id":"128882d0-9fae-4782-9ff0-878b9d12c34b","system_id":"levelo_inurba_marseille","lat":43.298,"lon":5.39337,"is_reserved":false,"is_disabled":false,"rental_uris":{"android":"levelo://app?vid=128882d0-9fae-4782-9ff0-878b9d12c34b","ios":"levelo://app?vid=128882d0-9fae-4782-9ff0-878b9d12c34b"},"vehicle_type_id":"4","last_reported":1717265354,"current_range_meters":5600,"station_id":"chh1huq6cuj3fo74tm60","pricing_plan_id":"cebpf4jnsgd1na2vs0mg"},{"bike_id":"c3373595-a489-457f-9f34-dc32c58ad42a","system_id":"levelo_inurba_marseille","lat":43.295169,"lon":5.390426,"is_reserved":false,"is_disabled":false,"rental_uris":{"android":"levelo://app?vid=c3373595-a489-457f-9f34-dc32c58ad42a","ios":"levelo://app?vid=c3373595-a489-457f-9f34-dc32c58ad42a"},"vehicle_type_id":"4","last_reported":1717265354,"current_range_meters":4000,"station_id":"ce4bh3p2rcd13ifvqdp0","pricing_plan_id":"cebpf4jnsgd1na2vs0mg"},{"bike_id":"9ee79e5c-5f5d-4d1b-9d6a-d747bcd7e2b7","system_id":"levelo_inurba_marseille","lat":43.295169,"lon":5.390426,"is_reserved":false,"is_disabled":false,"rental_uris":{"android":"levelo://app?vid=9ee79e5c-5f5d-4d1b-9d6a-d747bcd7e2b7","ios":"levelo://app?vid=9ee79e5c-5f5d-4d1b-9d6a-d747bcd7e2b7"},"vehicle_type_id":"4","last_reported":1717265354,"current_range_meters":16800,"station_id":"ce4bh3p2rcd13ifvqdp0","pricing_plan_id":"cebpf4jnsgd1na2vs0mg"},{"bike_id":"3683ace2-d9ab-4a47-a3ef-9020336aa7cc","system_id":"levelo_inurba_marseille","lat":43.295169,"lon":5.390426,"is_reserved":false,"is_disabled":false,"rental_uris":{"android":"levelo://app?vid=3683ace2-d9ab-4a47-a3ef-9020336aa7cc","ios":"levelo://app?vid=3683ace2-d9ab-4a47-a3ef-9020336aa7cc"},"vehicle_type_id":"4","last_reported":1717265354,"current_range_meters":17200,"station_id":"ce4bh3p2rcd13ifvqdp0","pricing_plan_id":"cebpf4jnsgd1na2vs0mg"},{"bike_id":"75589465-99e5-4742-90b5-c05b1a42b414","system_id":"levelo_inurba_marseille","lat":43.330442,"lon":5.389148,"is_reserved":false,"is_disabled":false,"rental_uris":{"android":"levelo://app?vid=75589465-99e5-4742-90b5-c05b1a42b414","ios":"levelo://app?vid=75589465-99e5-4742-90b5-c05b1a42b414"},"vehicle_type_id":"4","last_reported":1717265354,"current_range_meters":12400,"station_id":"ce4bhr92rcd13ifvqhrg","pricing_plan_id":"cebpf4jnsgd1na2vs0mg"},{"bike_id":"3ff777ee-c334-4f12-bb53-228f2e49b822","system_id":"levelo_inurba_marseille","lat":43.29525,"lon":5.39045,"is_reserved":false,"is_disabled":false,"rental_uris":{"android":"levelo://app?vid=3ff777ee-c334-4f12-bb53-228f2e49b822","ios":"levelo://app?vid=3ff777ee-c334-4f12-bb53-228f2e49b822"},"vehicle_type_id":"4","last_reported":1717265354,"current_range_meters":6000,"station_id":"ce4bh3p2rcd13ifvqdp0","pricing_plan_id":"cebpf4jnsgd1na2vs0mg"},{"bike_id":"4c0baebf-76b2-471d-bb22-02ea1e0ab50a","system_id":"levelo_inurba_marseille","lat":43.297815,"lon":5.393548,"is_reserved":false,"is_disabled":false,"rental_uris":{"android":"levelo://app?vid=4c0baebf-76b2-471d-bb22-02ea1e0ab50a","ios":"levelo://app?vid=4c0baebf-76b2-471d-bb22-02ea1e0ab50a"},"vehicle_type_id":"4","last_reported":1717265354,"current_range_meters":22000,"station_id":"chh1huq6cuj3fo74tm60","pricing_plan_id":"cebpf4jnsgd1na2vs0mg"},