{"last_updated":1728032986,"ttl":60,"version":"2.2","data":{"bikes":[{"bike_id":"e717e001-82de-4983-a9dd-f7a8d7b79df0","system_id":"levelo_inurba_marseille","lat":43.29526,"lon":5.375,"is_reserved":false,"is_disabled":false,"rental_uris":{"android":"levelo://app?vid=e717e001-82de-4983-a9dd-f7a8d7b79df0","ios":"levelo://app?vid=e717e001-82de-4983-a9dd-f7a8d7b79df0"},"vehicle_type_id":"4","last_reported":1728032986,"current_range_meters":24800,"station_id":"ce4bgkp2rcd13ifvqbmg","pricing_plan_id":"cebpf4jnsgd1na2vs0mg"},{"bike_id":"086b36b2-8fa9-4a21-a966-d0afeb3875cc","system_id":"levelo_inurba_marseille","lat":43.30144,"lon":5.38079,"is_reserved":false,"is_disabled":false,"rental_uris":{"android":"levelo://app?vid=086b36b2-8fa9-4a21-a966-d0afeb3875cc","ios":"levelo://app?vid=086b36b2-8fa9-4a21-a966-d0afeb3875cc"},"vehicle_type_id":"4","last_reported":1728032986,"current_range_meters":36400,"station_id":"ce4bgjp2rcd13ifvqbh0","pricing_plan_id":"cebpf4jnsgd1na2vs0mg"},{"bike_id":"39fe72cd-41de-4b0d-b7b7-7a84f7f12142","system_id":"levelo_inurba_marseille","lat":43.24642,"lon":5.38886,"is_reserved":false,"is_disabled":false,"rental_uris":{"android":"levelo://app?vid=39fe72cd-41de-4b0d-b7b7-7a84f7f12142","ios":"levelo://app?vid=39fe72cd-41de-4b0d-b7b7-7a84f7f12142"},"vehicle_type_id":"4","last_reported":1728032986,"current_range_meters":22000,"station_id":"ce4bhg12rcd13ifvqf60","pricing_plan_id":"cebpf4jnsgd1na2vs0mg"},{"bike_id":"bf986c5e-1fe9-4a29-ad40-e19a24b50840","system_id":"levelo_inurba_marseille","lat":43.30417,"lon":5.38881,"is_reserved":false,"is_disabled":false,"rental_uris":{"android":"levelo://app?vid=bf986c5e-1fe9-4a29-ad40-e19a24b50840","ios":"levelo://app?vid=bf986c5e-1fe9-4a29-ad40-e19a24b50840"},"vehicle_type_id":"4","last_reported":1728032986,"current_range_meters":24000,"station_id":"ce4bgk12rcd13ifvqbi0","pricing_plan_id":"cebpf4jnsgd1na2vs0mg"},{"bike_id":"729fd2d8-1af8-4177-9c64-55dae23b2973","system_id":"levelo_inurba_marseille","lat":43.28153,"lon":5.42645,"is_reserved":false,"is_disabled":false,"rental_uris":{"android":"levelo://app?vid=729fd2d8-1af8-4177-9c64-55dae23b2973","ios":"levelo://app?vid=729fd2d8-1af8-4177-9c64-55dae23b2973"},"vehicle_type_id":"4","last_reported":1728032986,"current_range_meters":24800,"station_id":"ce4bhnh2rcd13ifvqgug","pricing_plan_id":"cebpf4jnsgd1na2vs0mg"},{"bike_id":"6d37fd82-ce23-4c41-bbcf-c574f3fa24aa","system_id":"levelo_inurba_marseille","lat":43.28368,"lon":5.38622,"is_reserved":false,"is_disabled":false,"rental_uris":{"android":"levelo://app?vid=6d37fd82-ce23-4c41-bbcf-c574f3fa24aa","ios":"levelo://app?vid=6d37fd82-ce23-4c41-bbcf-c574f3fa24aa"},"vehicle_type_id":"4","last_reported":1728032986,"current_range_meters":9200,"station_id":"","pricing_plan_id":"cebpf4jnsgd1na2vs0mg"},{"bike_id":"67eb985b-34da-4022-9284-e58c2297b25a","system_id":"levelo_inurba_marseille","lat":43.29002,"lon":5.3561,"is_reserved":false,"is_disabled":false,"rental_uris":{"android":"levelo://app?vid=67eb985b-34da-4022-9284-e58c2297b25a","ios":"levelo://app?vid=67eb985b-34da-4022-9284-e58c2297b25a"},"vehicle_type_id":"4","last_reported":1728032986,"current_range_meters":36400,"station_id":"ce4bhb92rcd13ifvqen0","pricing_plan_id":"cebpf4jnsgd1na2vs0mg"},{"bike_id":"86398195-9834-4659-b8f5-8139a78118a0","system_id":"levelo_inurba_marseille","lat":43.2749,"lon":5.42454,"is_reserved":false,"is_disabled":false,"rental_uris":{"android":"levelo://app?vid=86398195-9834-4659-b8f5-8139a78118a0","ios":"levelo://app?vid=86398195-9834-4659-b8f5-8139a78118a0"},"vehicle_type_id":"4","last_reported":1728032986,"current_range_meters":22000,"station_id":"ce4bhn92rcd13ifvqgrg","pricing_plan_id":"cebpf4jnsgd1na2vs0mg"},{"bike_id":"bbab2f3f-7ba6-46b5-8f6b-218bc666cfce","system_id":"levelo_inurba_marseille","lat":43.2984,"lon":5.36272,"is_reserved":false,"is_disabled":false,"rental_uris":{"android":"levelo://app?vid=bbab2f3f-7ba6-46b5-8f6b-218bc666cfce","ios":"levelo://app?vid=bbab2f3f-7ba6-46b5-8f6b-218bc666cfce"},"vehicle_type_id":"4","last_reported":1728032986,"current_range_meters":12000,"station_id":"ce4bgpp2rcd13ifvqc3g","pricing_plan_id":"cebpf4jnsgd1na2vs0mg"},{"bike_id":"756088e4-bd38-4606-aa6f-cbbf1461af00","system_id":"levelo_inurba_marseille","lat":43.22929,"lon":5.35376,"is_reserved":false,"is_disabled":false,"rental_uris":{"android":"levelo://app?vid=756088e4-bd38-4606-aa6f-cbbf1461af00","ios":"levelo://app?vid=756088e4-bd38-4606-aa6f-cbbf1461af00"},"vehicle_type_id":"4","last_reported":1728032986,"current_range_meters":13600,"station_id":"cpo3532slgdg3j2ikp40","pricing_plan_id":"cebpf4jnsgd1na2vs0mg"},{"bike_id":"1693ff41-8c99-41ae-8a32-22d707069ab7","system_id":"levelo_inurba_marseille","lat":43.30525,"lon":5.36543,"is_reserved":false,"is_disabled":false,"rental_uris":{"android":"levelo://app?vid=1693ff41-8c99-41ae-8a32-22d707069ab7","ios":"levelo://app?vid=1693ff41-8c99-41ae-8a32-22d707069ab7"},"vehicle_type_id":"4","last_reported":1728032986,"current_range_meters":39200,"station_id":"ce4bgs12rcd13ifvqcag","pricing_plan_id":"cebpf4jnsgd1na2vs0mg"},{"bike_id":"f514bcef-1e34-4168-b458-76f86c917baa","system_id":"levelo_inurba_marseille","lat":43.31684,"lon":5.40474,"is_reserved":false,"is_disabled":false,"rental_uris":{"android":"levelo://app?vid=f514bcef-1e34-4168-b458-76f86c917baa","ios":"levelo://app?vid=f514bcef-1e34-4168-b458-76f86c917baa"},"vehicle_type_id":"4","last_reported":1728032986,"current_range_meters":10800,"station_id":"ce4bh012rcd13ifvqd00","pricing_plan_id":"cebpf4jnsgd1na2vs0mg"},{"bike_id":"11cd7776-bb42-4e66-9824-05852588abcf","system_id":"levelo_inurba_marseille","lat":43.31367,"lon":5.38496,"is_reserved":false,"is_disabled":false,"rental_uris":{"android":"levelo://app?vid=11cd7776-bb42-4e66-9824-05852588abcf","ios":"levelo://app?vid=11cd7776-bb42-4e66-9824-05852588abcf"},"vehicle_type_id":"4","last_reported":1728032986,"current_range_meters":25200,"station_id":"ce4bgt92rcd13ifvqcf0","pricing_plan_id":"cebpf4jnsgd1na2vs0mg"},{"bike_id":"4bd76817-ccb5-49e3-b292-b597fc400de9","system_id":"levelo_inurba_marseille","lat":43.30308,"lon":5.369,"is_reserved":false,"is_disabled":false,"rental_uris":{"android":"levelo://app?vid=4bd76817-ccb5-49e3-b292-b597fc400de9","ios":"levelo://app?vid=4bd76817-ccb5-49e3-b292-b597fc400de9"},"vehicle_type_id":"4","last_reported":1728032986,"current_range_meters":18800,"station_id":"ce4bgqh2rcd13ifvqc5g","pricing_plan_id":"cebpf4jnsgd1na2vs0mg"},{"bike_id":"13587175-b312-4cf0-abda-2f049baac68e","system_id":"levelo_inurba_marseille","lat":43.27487,"lon":5.42453,"is_reserved":false,"is_disabled":false,"rental_uris":{"android":"levelo://app?vid=13587175-b312-4cf0-abda-2f049baac68e","ios":"levelo://app?vid=13587175-b312-4cf0-abda-2f049baac68e"},"vehicle_type_id":"4","last_reported":1728032986,"current_range_meters":35200,"station_id":"ce4bhn92rcd13ifvqgrg","pricing_plan_id":"cebpf4jnsgd1na2vs0mg"},{"bike_id":"e6819ab0-aa74-44e4-a128-d26eabede3ae","system_id":"levelo_inurba_marseille","lat":43.23143,"lon":5.43702,"is_reserved":false,"is_disabled":false,"rental_uris":{"android":"levelo://app?vid=e6819ab0-aa74-44e4-a128-d26eabede3ae","ios":"levelo://app?vid=e6819ab0-aa74-44e4-a128-d26eabede3ae"},"vehicle_type_id":"4","last_reported":1728032986,"current_range_meters":24800,"station_id":"ce4bhmp2rcd13ifvqgog","pricing_plan_id":"cebpf4jnsgd1na2vs0mg"},{"bike_id":"1df98d1b-733d-49e5-901e-f02f9b77eb98","system_id":"levelo_inurba_marseille","lat":43.24077,"lon":5.37755,"is_reserved":false,"is_disabled":false,"rental_uris":{"android":"levelo://app?vid=1df98d1b-733d-49e5-901e-f02f9b77eb98","ios":"levelo://app?vid=1df98d1b-733d-49e5-901e-f02f9b77eb98"},"vehicle_type_id":"4","last_reported":1728032986,"current_range_meters":19200,"station_id":"ce4bhnp2rcd13ifvqgvg","pricing_plan_id":"cebpf4jnsgd1na2vs0mg"},{"bike_id":"770a8285-9a6c-4c9a-a1aa-f67aa58702fc","system_id":"levelo_inurba_marseille","lat":43.30961,"lon":5.39032,"is_reserved":false,"is_disabled":false,"rental_uris":{"android":"levelo://app?vid=770a8285-9a6c-4c9a-a1aa-f67aa58702fc","ios":"levelo://app?vid=770a8285-9a6c-4c9a-a1aa-f67aa58702fc"},"vehicle_type_id":"4","last_reported":1728032986,"current_range_meters":28800,"station_id":"ce4bgup2rcd13ifvqco0","pricing_plan_id":"cebpf4jnsgd1na2vs0mg"},{"bike_id":"21522b5e-12b8-4c4c-9226-5663da7bd589","system_id":"levelo_inurba_marseille","lat":43.29566,"lon":5.39979,"is_reserved":false,"is_disabled":false,"rental_uris":{"android":"levelo://app?vid=21522b5e-12b8-4c4c-9226-5663da7bd589","ios":"levelo://app?vid=21522b5e-12b8-4c4c-9226-5663da7bd589"},"vehicle_type_id":"4","last_reported":1728032986,"current_range_meters":29600,"station_id":"ce4bh312rcd13ifvqdj0","pricing_plan_id":"cebpf4jnsgd1na2vs0mg"},{"bike_id":"ea7648e6-a16f-4f91-89d0-6b1e7f51963f","system_id":"levelo_inurba_marseille","lat":43.32479,"lon":5.36566,"is_reserved":false,"is_disabled":false,"rental_uris":{"android":"levelo://app?vid=ea7648e6-a16f-4f91-89d0-6b1e7f51963f","ios":"levelo://app?vid=ea7648e6-a16f-4f91-89d0-6b1e7f51963f"},"vehicle_type_id":"4","last_reported":1728032986,"current_range_meters":9200,"station_id":"ce4bhs12rcd13ifvqhvg","pricing_plan_id":"cebpf4jnsgd1na2vs0mg"},{"bike_id":"760f817b-0dcf-43cb-b6ec-2651e65ad3d9","system_id":"levelo_inurba_marseille","lat":43.27488,"lon":5.42455,"is_reserved":false,"is_disabled":false,"rental_uris":{"android":"levelo://app?vid=760f817b-0dcf-43cb-b6ec-2651e65ad3d9","ios":"levelo://app?vid=760f817b-0dcf-43cb-b6ec-2651e65ad3d9"},"vehicle_type_id":"4","last_reported":1728032986,"current_range_meters":30000,"station_id":"ce4bhn92rcd13ifvqgrg","pricing_plan_id":"cebpf4jnsgd1na2vs0mg"},{"bike_id":"a99e0887-fb66-4880-8761-33fdb36b8615","system_id":"levelo_inurba_marseille","lat":43.2318,"lon":5.39993,"is_reserved":false,"is_disabled":false,"rental_uris":{"android":"levelo://app?vid=a99e0887-fb66-4880-8761-33fdb36b8615","ios":"levelo://app?vid=a99e0887-fb66-4880-8761-33fdb36b8615"},"vehicle_type_id":"4","last_reported":1728032986,"current_range_meters":10800,"station_id":"ce4bhn12rcd13ifvqgqg","pricing_plan_id":"cebpf4jnsgd1na2vs0mg"},{"bike_id":"c78b24d7-868c-4d48-93f5-d21cffda9467","system_id":"levelo_inurba_marseille","lat":43.26051,"lon":5.39392,"is_reserved":false,"is_disabled":false,"rental_uris":{"android":"levelo://app?vid=c78b24d7-868c-4d48-93f5-d21cffda9467","ios":"levelo://app?vid=c78b24d7-868c-4d48-93f5-d21cffda9467"},"vehicle_type_id":"4","last_reported":1728032986,"current_range_meters":38000,"station_id":"ce4bhh92rcd13ifvqfj0","pricing_plan_id":"cebpf4jnsgd1na2vs0mg"},{"bike_id":"088f4c7d-efac-4048-957c-d65eb00ae2f5","system_id":"levelo_inurba_marseille","lat":43.29591,"lon":5.37717,"is_reserved":false,"is_disabled":false,"rental_uris":{"android":"levelo://app?vid=088f4c7d-efac-4048-957c-d65eb00ae2f5","ios":"levelo://app?vid=088f4c7d-efac-4048-957c-d65eb00ae2f5"},"vehicle_type_id":"4","last_reported":1728032986,"current_range_meters":38400,"station_id":"ce4bgi92rcd13ifvqb90","pricing_plan_id":"cebpf4jnsgd1na2vs0mg"},{"bike_id":"c27083a9-c7b2-4e25-b98d-c2d2bc61ac21","system_id":"levelo_inurba_marseille","lat":43.28702,"lon":5.37928,"is_reserved":false,"is_disabled":false,"rental_uris":{"android":"levelo://app?vid=c27083a9-c7b2-4e25-b98d-c2d2bc61ac21","ios":"levelo://app?vid=c27083a9-c7b2-4e25-b98d-c2d2bc61ac21"},"vehicle_type_id":"4","last_reported":1728032986,"current_range_meters":27200,"station_id":"ce4bh9p2rcd13ifvqec0","pricing_plan_id":"cebpf4jnsgd1na2vs0mg"},{"bike_id":"2abfb7a5-6830-429b-a476-858b1016e53e","system_id":"levelo_inurba_marseille","lat":43.31676,"lon":5.40474,"is_reserved":false,"is_disabled":false,"rental_uris":{"android":"levelo://app?vid=2abfb7a5-6830-429b-a476-858b1016e53e","ios":"levelo://app?vid=2abfb7a5-6830-429b-a476-858b1016e53e"},"vehicle_type_id":"4","last_reported":1728032986,"current_range_meters":39200,"station_id":"ce4bh012rcd13ifvqd00","pricing_plan_id":"cebpf4jnsgd1na2vs0mg"},{"bike_id":"56bb6d45-1cb6-49d4-bf0c-865c2878227b","system_id":"levelo_inurba_marseille","lat":43.2848,"lon":5.38412,"is_reserved":false,"is_disabled":false,"rental_uris":{"android":"levelo://app?vid=56bb6d45-1cb6-49d4-bf0c-865c2878227b","ios":"levelo://app?vid=56bb6d45-1cb6-49d4-bf0c-865c2878227b"},"vehicle_type_id":"4","last_reported":1728032986,"current_range_meters":30000,"station_id":"ce4bh512rcd13ifvqe3g","pricing_plan_id":"cebpf4jnsgd1na2vs0mg"},{"bike_id":"c4383005-7146-4c9a-83f9-d4c77839374b","system_id":"levelo_inurba_marseille","lat":43.30311,"lon":5.36897,"is_reserved":false,"is_disabled":false,"rental_uris":{"android":"levelo://app?vid=c4383005-7146-4c9a-83f9-d4c77839374b","ios":"levelo://app?vid=c4383005-7146-4c9a-83f9-d4c77839374b"},"vehicle_type_id":"4","last_reported":1728032986,"current_range_meters":10800,"station_id":"ce4bgqh2rcd13ifvqc5g","pricing_plan_id":"cebpf4jnsgd1na2vs0mg"},{"bike_id":"ac261e06-b444-4163-8bb1-84867a0f7890","system_id":"levelo_inurba_marseille","lat":43.32552,"lon":5.41415,"is_reserved":false,"is_disabled":false,"rental_uris":{"android":"levelo://app?vid=ac261e06-b444-4163-8bb1-84867a0f7890","ios":"levelo://app?vid=ac261e06-b444-4163-8bb1-84867a0f7890"},"vehicle_type_id":"4","last_reported":1728032986,"current_range_meters":27600,"station_id":"ce4bhq12rcd13ifvqhhg","pricing_plan_id":"cebpf4jnsgd1na2vs0mg"},{"bike_id":"b3adc04a-1ff9-451d-b0c7-8cf8f9d0d13f","system_id":"levelo_inurba_marseille","lat":43.31354,"lon":5.38504,"is_reserved":false,"is_disabled":false,"rental_uris":{"android":"levelo://app?vid=b3adc04a-1ff9-451d-b0c7-8cf8f9d0d13f","ios":"levelo://app?vid=b3adc04a-1ff9-451d-b0c7-8cf8f9d0d13f"},"vehicle_type_id":"4","last_reported":1728032986,"current_range_meters":35200,"station_id":"ce4bgt92rcd13ifvqcf0","pricing_plan_id":"cebpf4jnsgd1na2vs0mg"},{"bike_id":"53974a4c-dd2b-4a90-bb70-78ed747c8501","system_id":"levelo_inurba_marseille","lat":43.29562,"lon":5.37521,"is_reserved":false,"is_disabled":false,"rental_uris":{"android":"levelo://app?vid=53974a4c-dd2b-4a90-bb70-78ed747c8501","ios":"levelo://app?vid=53974a4c-dd2b-4a90-bb70-78ed747c8501"},"vehicle_type_id":"4","last_reported":1728032986,"current_range_meters":31200,"station_id":"ce4bgh92rcd13ifvqb50","pricing_plan_id":"cebpf4jnsgd1na2vs0mg"},{"bike_id":"bcbfea81-56dd-4228-8dec-0bf8a01618ce","system_id":"levelo_inurba_marseille","lat":43.2798,"lon":5.38746,"is_reserved":false,"is_disabled":false,"rental_uris":{"android":"levelo://app?vid=bcbfea81-56dd-4228-8dec-0bf8a01618ce","ios":"levelo://app?vid=bcbfea81-56dd-4228-8dec-0bf8a01618ce"},"vehicle_type_id":"4","last_reported":1728032986,"current_range_meters":38800,"station_id":"ce4bhg12rcd13ifvqf80","pricing_plan_id":"cebpf4jnsgd1na2vs0mg"},{"bike_id":"ddaca095-5576-4c67-96f2-938cb5653937","system_id":"levelo_inurba_marseille","lat":43.25815,"lon":5.39422,"is_reserved":false,"is_disabled":false,"rental_uris":{"android":"levelo://app?vid=ddaca095-5576-4c67-96f2-938cb5653937","ios":"levelo://app?vid=ddaca095-5576-4c67-96f2-938cb5653937"},"vehicle_type_id":"4","last_reported":1728032986,"current_range_meters":40000,"station_id":"ce4bhip2rcd13ifvqft0","pricing_plan_id":"cebpf4jnsgd1na2vs0mg"},{"bike_id":"376595a6-e9c3-49fb-8749-2d3ac56acd7a","system_id":"levelo_inurba_marseille","lat":43.293,"lon":5.37176,"is_reserved":false,"is_disabled":false,"rental_uris":{"android":"levelo://app?vid=376595a6-e9c3-49fb-8749-2d3ac56acd7a","ios":"levelo://app?vid=376595a6-e9c3-49fb-8749-2d3ac56acd7a"},"vehicle_type_id":"4","last_reported":1728032986,"current_range_meters":38800,"station_id":"ce4bgh92rcd13ifvqb40","pricing_plan_id":"cebpf4jnsgd1na2vs0mg"},{"bike_id":"bbe16d9f-1398-4ae8-9389-fdd330196eb0","system_id":"levelo_inurba_marseille","lat":43.2842,"lon":5.34987,"is_reserved":false,"is_disabled":false,"rental_uris":{"android":"levelo://app?vid=bbe16d9f-1398-4ae8-9389-fdd330196eb0","ios":"levelo://app?vid=bbe16d9f-1398-4ae8-9389-fdd330196eb0"},"vehicle_type_id":"4","last_reported":1728032986,"current_range_meters":38000,"station_id":"ce4bhbh2rcd13ifvqepg","pricing_plan_id":"cebpf4jnsgd1na2vs0mg"},{"bike_id":"e6b2df58-b4a0-4aec-933d-a62e42f34d34","system_id":"levelo_inurba_marseille","lat":43.33714,"lon":5.39202,"is_reserved":false,"is_disabled":false,"rental_uris":{"android":"levelo://app?vid=e6b2df58-b4a0-4aec-933d-a62e42f34d34","ios":"levelo://app?vid=e6b2df58-b4a0-4aec-933d-a62e42f34d34"},"vehicle_type_id":"4","last_reported":1728032986,"current_range_meters":21600,"station_id":"ce4bhr92rcd13ifvqhsg","pricing_plan_id":"cebpf4jnsgd1na2vs0mg"},{"bike_id":"403b9a65-80d1-462a-86d2-ae897d65bc96","system_id":"levelo_inurba_marseille","lat":43.30141,"lon":5.38082,"is_reserved":false,"is_disabled":false,"rental_uris":{"android":"levelo://app?vid=403b9a65-80d1-462a-86d2-ae897d65bc96","ios":"levelo://app?vid=403b9a65-80d1-462a-86d2-ae897d65bc96"},"vehicle_type_id":"4","last_reported":1728032986,"current_range_meters":6400,"station_id":"ce4bgjp2rcd13ifvqbh0","pricing_plan_id":"cebpf4jnsgd1na2vs0mg"},{"bike_id":"4e53f353-2443-4140-81f6-56d4a6c2e656","system_id":"levelo_inurba_marseille","lat":43.337444,"lon":5.374475,"is_reserved":false,"is_disabled":false,"rental_uris":{"android":"levelo://app?vid=4e53f353-2443-4140-81f6-56d4a6c2e656","ios":"levelo://app?vid=4e53f353-2443-4140-81f6-56d4a6c2e656"},"vehicle_type_id":"4","last_reported":1728032986,"current_range_meters":17600,"station_id":"","pricing_plan_id":"cebpf4jnsgd1na2vs0mg"},{"bike_id":"2fbb9934-3791-4f88-a703-61185703161b","system_id":"levelo_inurba_marseille","lat":43.30525,"lon":5.36534,"is_reserved":false,"is_disabled":false,"rental_uris":{"android":"levelo://app?vid=2fbb9934-3791-4f88-a703-61185703161b","ios":"levelo://app?vid=2fbb9934-3791-4f88-a703-61185703161b"},"vehicle_type_id":"4","last_reported":1728032986,"current_range_meters":23200,"station_id":"ce4bgs12rcd13ifvqcag","pricing_plan_id":"cebpf4jnsgd1na2vs0mg"},{"bike_id":"5fbd6efa-acb1-48c0-888b-7fdfe32f37ee","system_id":"levelo_inurba_marseille","lat":43.241793,"lon":5.397353,"is_reserved":false,"is_disabled":false,"rental_uris":{"android":"levelo://app?vid=5fbd6efa-acb1-48c0-888b-7fdfe32f37ee","ios":"levelo://app?vid=5fbd6efa-acb1-48c0-888b-7fdfe32f37ee"},"vehicle_type_id":"4","last_reported":1728032986,"current_range_meters":27200,"station_id":"ce4bhn12rcd13ifvqgpg","pricing_plan_id":"cebpf4jnsgd1na2vs0mg"},{"bike_id":"240aabb2-d30a-4816-bf39-1f44da7634a0","system_id":"levelo_inurba_marseille","lat":43.30904,"lon":5.36863,"is_reserved":false,"is_disabled":false,"rental_uris":{"android":"levelo://app?vid=240aabb2-d30a-4816-bf39-1f44da7634a0","ios":"levelo://app?vid=240aabb2-d30a-4816-bf39-1f44da7634a0"},"vehicle_type_id":"4","last_reported":1728032986,"current_range_meters":38800,"station_id":"ce4bgn92rcd13ifvqbvg","pricing_plan_id":"cebpf4jnsgd1na2vs0mg"},{"bike_id":"566a9cf0-f209-4c9f-9e1e-a43a024de395","system_id":"levelo_inurba_marseille","lat":43.27384,"lon":5.3626,"is_reserved":false,"is_disabled":false,"rental_uris":{"android":"levelo://app?vid=566a9cf0-f209-4c9f-9e1e-a43a024de395","ios":"levelo://app?vid=566a9cf0-f209-4c9f-9e1e-a43a024de395"},"vehicle_type_id":"4","last_reported":1728032986,"current_range_meters":26800,"station_id":"ce4bhbh2rcd13ifvqeo0","pricing_plan_id":"cebpf4jnsgd1na2vs0mg"},{"bike_id":"b73551f1-4737-42f3-8efd-5f2fca843848","system_id":"levelo_inurba_marseille","lat":43.29896,"lon":5.43672,"is_reserved":false,"is_disabled":false,"rental_uris":{"android":"levelo://app?vid=b73551f1-4737-42f3-8efd-5f2fca843848","ios":"levelo://app?vid=b73551f1-4737-42f3-8efd-5f2fca843848"},"vehicle_type_id":"4","last_reported":1728032986,"current_range_meters":18000,"station_id":"ce4bhpp2rcd13ifvqhfg","pricing_plan_id":"cebpf4jnsgd1na2vs0mg"},{"bike_id":"87b82762-d75d-4221-a799-30aa397393ab","system_id":"levelo_inurba_marseille","lat":43.27491,"lon":5.42444,"is_reserved":false,"is_disabled":false,"rental_uris":{"android":"levelo://app?vid=87b82762-d75d-4221-a799-30aa397393ab","ios":"levelo://app?vid=87b82762-d75d-4221-a799-30aa397393ab"},"vehicle_type_id":"4","last_reported":1728032986,"current_range_meters":28000,"station_id":"ce4bhn92rcd13ifvqgrg","pricing_plan_id":"cebpf4jnsgd1na2vs0mg"},{"bike_id":"1d2f50f0-a92b-4cc3-8df7-4e1465139892","system_id":"levelo_inurba_marseille","lat":43.25581,"lon":5.38228,"is_reserved":false,"is_disabled":false,"rental_uris":{"android":"levelo://app?vid=1d2f50f0-a92b-4cc3-8df7-4e1465139892","ios":"levelo://app?vid=1d2f50f0-a92b-4cc3-8df7-4e1465139892"},"vehicle_type_id":"4","last_reported":1728032986,"current_range_meters":39200,"station_id":"ce4bhih2rcd13ifvqfs0","pricing_plan_id":"cebpf4jnsgd1na2vs0mg"},{"bike_id":"8c668f8e-addf-4131-be74-aa1bece4b887","system_id":"levelo_inurba_marseille","lat":43.25494,"lon":5.37648,"is_reserved":false,"is_disabled":false,"rental_uris":{"android":"levelo://app?vid=8c668f8e-addf-4131-be74-aa1bece4b887","ios":"levelo://app?vid=8c668f8e-addf-4131-be74-aa1bece4b887"},"vehicle_type_id":"4","last_reported":1728032986,"current_range_meters":15200,"station_id":"ce4bhh12rcd13ifvqff0","pricing_plan_id":"cebpf4jnsgd1na2vs0mg"},{"bike_id":"d36048b6-7607-4324-beaa-cb70dd9649b8","system_id":"levelo_inurba_marseille","lat":43.27485,"lon":5.42452,"is_reserved":false,"is_disabled":false,"rental_uris":{"android":"levelo://app?vid=d36048b6-7607-4324-beaa-cb70dd9649b8","ios":"levelo://app?vid=d36048b6-7607-4324-beaa-cb70dd9649b8"},"vehicle_type_id":"4","last_reported":1728032986,"current_range_meters":5600,"station_id":"ce4bhn92rcd13ifvqgrg","pricing_plan_id":"cebpf4jnsgd1na2vs0mg"},{"bike_id":"6323c3ea-75d7-47ca-8873-1f720d264584","system_id":"levelo_inurba_marseille","lat":43.25499,"lon":5.37653,"is_reserved":false,"is_disabled":false,"rental_uris":{"android":"levelo://app?vid=6323c3ea-75d7-47ca-8873-1f720d264584","ios":"levelo://app?vid=6323c3ea-75d7-47ca-8873-1f720d264584"},"vehicle_type_id":"4","last_reported":1728032986,"current_range_meters":40000,"station_id":"ce4bhh12rcd13ifvqff0","pricing_plan_id":"cebpf4jnsgd1na2vs0mg"},{"bike_id":"8dc0b98d-2559-4a43-b222-e21e2b6b4664","system_id":"levelo_inurba_marseille","lat":43.24661,"lon":5.3816,"is_reserved":false,"is_disabled":false,"rental_uris":{"android":"levelo://app?vid=8dc0b98d-2559-4a43-b222-e21e2b6b4664","ios":"levelo://app?vid=8dc0b98d-2559-4a43-b222-e21e2b6b4664"},"vehicle_type_id":"4","last_reported":1728032986,"current_range_meters":29600,"station_id":"ce4bhih2rcd13ifvqfr0","pricing_plan_id":"cebpf4jnsgd1na2vs0mg"},{"bike_id":"2a8b886a-0746-47ac-8391-ad9900922c71","system_id":"levelo_inurba_marseille","lat":43.24567,"lon":5.39527,"is_reserved":false,"is_disabled":false,"rental_uris":{"android":"levelo://app?vid=2a8b886a-0746-47ac-8391-ad9900922c71","ios":"levelo://app?vid=2a8b886a-0746-47ac-8391-ad9900922c71"},"vehicle_type_id":"4","last_reported":1728032986,"current_range_meters":4400,"station_id":"ce4bhlp2rcd13ifvqgjg","pricing_plan_id":"cebpf4jnsgd1na2vs0mg"},{"bike_id":"f15749ef-8afe-4d39-89e7-4e320961fb28","system_id":"levelo_inurba_marseille","lat":43.24066,"lon":5.3776,"is_reserved":false,"is_disabled":false,"rental_uris":{"android":"levelo://app?vid=f15749ef-8afe-4d39-89e7-4e320961fb28","ios":"levelo://app?vid=f15749ef-8afe-4d39-89e7-4e320961fb28"},"vehicle_type_id":"4","last_reported":1728032986,"current_range_meters":10800,"station_id":"ce4bhnp2rcd13ifvqgvg","pricing_plan_id":"cebpf4jnsgd1na2vs0mg"},{"bike_id":"86a59fdf-5419-4bd8-a9ed-c91c60731103","system_id":"levelo_inurba_marseille","lat":43.30311,"lon":5.37917,"is_reserved":false,"is_disabled":false,"rental_uris":{"android":"levelo://app?vid=86a59fdf-5419-4bd8-a9ed-c91c60731103","ios":"levelo://app?vid=86a59fdf-5419-4bd8-a9ed-c91c60731103"},"vehicle_type_id":"4","last_reported":1728032986,"current_range_meters":18800,"station_id":"","pricing_plan_id":"cebpf4jnsgd1na2vs0mg"},{"bike_id":"a15df9d2-ff4d-4100-911c-f1e3b67e4ecd","system_id":"levelo_inurba_marseille","lat":43.30909,"lon":5.36848,"is_reserved":false,"is_disabled":false,"rental_uris":{"android":"levelo://app?vid=a15df9d2-ff4d-4100-911c-f1e3b67e4ecd","ios":"levelo://app?vid=a15df9d2-ff4d-4100-911c-f1e3b67e4ecd"},"vehicle_type_id":"4","last_reported":1728032986,"current_range_meters":34800,"station_id":"ce4bgn92rcd13ifvqbvg","pricing_plan_id":"cebpf4jnsgd1na2vs0mg"},{"bike_id":"b5fd7205-2097-4647-8c4c-5148a468f428","system_id":"levelo_inurba_marseille","lat":43.2655,"lon":5.39018,"is_reserved":false,"is_disabled":false,"rental_uris":{"android":"levelo://app?vid=b5fd7205-2097-4647-8c4c-5148a468f428","ios":"levelo://app?vid=b5fd7205-2097-4647-8c4c-5148a468f428"},"vehicle_type_id":"4","last_reported":1728032986,"current_range_meters":27200,"station_id":"ce4bhe12rcd13ifvqf30","pricing_plan_id":"cebpf4jnsgd1na2vs0mg"},{"bike_id":"0d6a03bf-b826-4d03-bb8f-eae1dbb056c8","system_id":"levelo_inurba_marseille","lat":43.25113,"lon":5.40312,"is_reserved":false,"is_disabled":false,"rental_uris":{"android":"levelo://app?vid=0d6a03bf-b826-4d03-bb8f-eae1dbb056c8","ios":"levelo://app?vid=0d6a03bf-b826-4d03-bb8f-eae1dbb056c8"},"vehicle_type_id":"4","last_reported":1728032986,"current_range_meters":34000,"station_id":"ce4bhlh2rcd13ifvqgig","pricing_plan_id":"cebpf4jnsgd1na2vs0mg"},{"bike_id":"76de9c16-cb3b-4dca-a1b1-16555826c5c3","system_id":"levelo_inurba_marseille","lat":43.3091,"lon":5.36867,"is_reserved":false,"is_disabled":false,"rental_uris":{"android":"levelo://app?vid=76de9c16-cb3b-4dca-a1b1-16555826c5c3","ios":"levelo://app?vid=76de9c16-cb3b-4dca-a1b1-16555826c5c3"},"vehicle_type_id":"4","last_reported":1728032986,"current_range_meters":36800,"station_id":"ce4bgn92rcd13ifvqbvg","pricing_plan_id":"cebpf4jnsgd1na2vs0mg"},{"bike_id":"e0565007-e099-4360-85ee-352bc1a52261","system_id":"levelo_inurba_marseille","lat":43.27481,"lon":5.42462,"is_reserved":false,"is_disabled":false,"rental_uris":{"android":"levelo://app?vid=e0565007-e099-4360-85ee-352bc1a52261","ios":"levelo://app?vid=e0565007-e099-4360-85ee-352bc1a52261"},"vehicle_type_id":"4","last_reported":1728032986,"current_range_meters":20000,"station_id":"ce4bhn92rcd13ifvqgrg","pricing_plan_id":"cebpf4jnsgd1na2vs0mg"},{"bike_id":"f7af1fe5-e2d9-4e85-8e02-2558bae8589f","system_id":"levelo_inurba_marseille","lat":43.30955,"lon":5.39053,"is_reserved":false,"is_disabled":false,"rental_uris":{"android":"levelo://app?vid=f7af1fe5-e2d9-4e85-8e02-2558bae8589f","ios":"levelo://app?vid=f7af1fe5-e2d9-4e85-8e02-2558bae8589f"},"vehicle_type_id":"4","last_reported":1728032986,"current_range_meters":24400,"station_id":"ce4bgup2rcd13ifvqco0","pricing_plan_id":"cebpf4jnsgd1na2vs0mg"},{"bike_id":"da9c5cea-cce7-49ee-b816-278f16fde14a","system_id":"levelo_inurba_marseille","lat":43.27374,"lon":5.36257,"is_reserved":false,"is_disabled":false,"rental_uris":{"android":"levelo://app?vid=da9c5cea-cce7-49ee-b816-278f16fde14a","ios":"levelo://app?vid=da9c5cea-cce7-49ee-b816-278f16fde14a"},"vehicle_type_id":"4","last_reported":1728032986,"current_range_meters":30000,"station_id":"ce4bhbh2rcd13ifvqeo0","pricing_plan_id":"cebpf4jnsgd1na2vs0mg"},{"bike_id":"d07ee1a2-8049-46fd-9baa-b462a77e6391","system_id":"levelo_inurba_marseille","lat":43.30126,"lon":5.37427,"is_reserved":false,"is_disabled":false,"rental_uris":{"android":"levelo://app?vid=d07ee1a2-8049-46fd-9baa-b462a77e6391","ios":"levelo://app?vid=d07ee1a2-8049-46fd-9baa-b462a77e6391"},"vehicle_type_id":"4","last_reported":1728032986,"current_range_meters":36800,"station_id":"ce4bgs92rcd13ifvqcc0","pricing_plan_id":"cebpf4jnsgd1na2vs0mg"},{"bike_id":"2abc33c5-5934-4cf6-a1e5-6f26fe87d8e9","system_id":"levelo_inurba_marseille","lat":43.28614,"lon":5.35093,"is_reserved":false,"is_disabled":false,"rental_uris":{"android":"levelo://app?vid=2abc33c5-5934-4cf6-a1e5-6f26fe87d8e9","ios":"levelo://app?vid=2abc33c5-5934-4cf6-a1e5-6f26fe87d8e9"},"vehicle_type_id":"4","last_reported":1728032986,"current_range_meters":38800,"station_id":"ce4bhch2rcd13ifvqeug","pricing_plan_id":"cebpf4jnsgd1na2vs0mg"},{"bike_id":"beea6eb6-d89b-42e1-a56f-94268078a8a1","system_id":"levelo_inurba_marseille","lat":43.28997,"lon":5.35611,"is_reserved":false,"is_disabled":false,"rental_uris":{"android":"levelo://app?vid=beea6eb6-d89b-42e1-a56f-94268078a8a1","ios":"levelo://app?vid=beea6eb6-d89b-42e1-a56f-94268078a8a1"},"vehicle_type_id":"4","last_reported":1728032986,"current_range_meters":22400,"station_id":"ce4bhb92rcd13ifvqen0","pricing_plan_id":"cebpf4jnsgd1na2vs0mg"},{"bike_id":"9f77ae99-753d-4fcc-bd92-0a8326ce237e","system_id":"levelo_inurba_marseille","lat":43.29262,"lon":5.36842,"is_reserved":false,"is_disabled":false,"rental_uris":{"android":"levelo://app?vid=9f77ae99-753d-4fcc-bd92-0a8326ce237e","ios":"levelo://app?vid=9f77ae99-753d-4fcc-bd92-0a8326ce237e"},"vehicle_type_id":"4","last_reported":1728032986,"current_range_meters":25600,"station_id":"ce4bhbp2rcd13ifvqesg","pricing_plan_id":"cebpf4jnsgd1na2vs0mg"},{"bike_id":"0fc7ae8d-9102-4d20-8337-a47ebec4b5f1","system_id":"levelo_inurba_marseille","lat":43.32544,"lon":5.41429,"is_reserved":false,"is_disabled":false,"rental_uris":{"android":"levelo://app?vid=0fc7ae8d-9102-4d20-8337-a47ebec4b5f1","ios":"levelo://app?vid=0fc7ae8d-9102-4d20-8337-a47ebec4b5f1"},"vehicle_type_id":"4","last_reported":1728032986,"current_range_meters":40000,"station_id":"ce4bhq12rcd13ifvqhhg","pricing_plan_id":"cebpf4jnsgd1na2vs0mg"},{"bike_id":"db35aaeb-5a12-460b-a088-edd7c5fe03f8","system_id":"levelo_inurba_marseille","lat":43.2919,"lon":5.35821,"is_reserved":false,"is_disabled":false,"rental_uris":{"android":"levelo://app?vid=db35aaeb-5a12-460b-a088-edd7c5fe03f8","ios":"levelo://app?vid=db35aaeb-5a12-460b-a088-edd7c5fe03f8"},"vehicle_type_id":"4","last_reported":1728032986,"current_range_meters":38400,"station_id":"ce4bhb12rcd13ifvqel0","pricing_plan_id":"cebpf4jnsgd1na2vs0mg"},{"bike_id":"4f288d84-69f0-4eef-88a3-f0fca6f6d815","system_id":"levelo_inurba_marseille","lat":43.28002,"lon":5.40009,"is_reserved":false,"is_disabled":false,"rental_uris":{"android":"levelo://app?vid=4f288d84-69f0-4eef-88a3-f0fca6f6d815","ios":"levelo://app?vid=4f288d84-69f0-4eef-88a3-f0fca6f6d815"},"vehicle_type_id":"4","last_reported":1728032986,"current_range_meters":14400,"station_id":"ce4bho92rcd13ifvqh4g","pricing_plan_id":"cebpf4jnsgd1na2vs0mg"},{"bike_id":"eeb96273-081a-4d9d-9b7b-3d86312985be","system_id":"levelo_inurba_marseille","lat":43.29932,"lon":5.3654,"is_reserved":false,"is_disabled":false,"rental_uris":{"android":"levelo://app?vid=eeb96273-081a-4d9d-9b7b-3d86312985be","ios":"levelo://app?vid=eeb96273-081a-4d9d-9b7b-3d86312985be"},"vehicle_type_id":"4","last_reported":1728032986,"current_range_meters":6400,"station_id":"ce4bgm92rcd13ifvqbr0","pricing_plan_id":"cebpf4jnsgd1na2vs0mg"},{"bike_id":"9ae1ee60-dc31-4641-b81c-ed7d70d2769a","system_id":"levelo_inurba_marseille","lat":43.30144,"lon":5.38085,"is_reserved":false,"is_disabled":false,"rental_uris":{"android":"levelo://app?vid=9ae1ee60-dc31-4641-b81c-ed7d70d2769a","ios":"levelo://app?vid=9ae1ee60-dc31-4641-b81c-ed7d70d2769a"},"vehicle_type_id":"4","last_reported":1728032986,"current_range_meters":19600,"station_id":"ce4bgjp2rcd13ifvqbh0","pricing_plan_id":"cebpf4jnsgd1na2vs0mg"},{"bike_id":"e52ab3f9-f727-4210-9c93-ded24824ebbf","system_id":"levelo_inurba_marseille","lat":43.29571,"lon":5.39959,"is_reserved":false,"is_disabled":false,"rental_uris":{"android":"levelo://app?vid=e52ab3f9-f727-4210-9c93-ded24824ebbf","ios":"levelo://app?vid=e52ab3f9-f727-4210-9c93-ded24824ebbf"},"vehicle_type_id":"4","last_reported":1728032986,"current_range_meters":19200,"station_id":"ce4bh312rcd13ifvqdj0","pricing_plan_id":"cebpf4jnsgd1na2vs0mg"},{"bike_id":"970dfa6f-96dd-4258-9aa9-971943a08a16","system_id":"levelo_inurba_marseille","lat":43.32545,"lon":5.41436,"is_reserved":false,"is_disabled":false,"rental_uris":{"android":"levelo://app?vid=970dfa6f-96dd-4258-9aa9-971943a08a16","ios":"levelo://app?vid=970dfa6f-96dd-4258-9aa9-971943a08a16"},"vehicle_type_id":"4","last_reported":1728032986,"current_range_meters":20400,"station_id":"ce4bhq12rcd13ifvqhhg","pricing_plan_id":"cebpf4jnsgd1na2vs0mg"},{"bike_id":"85a60867-0292-479f-99a9-23810b153b98","system_id":"levelo_inurba_marseille","lat":43.27063,"lon":5.42266,"is_reserved":false,"is_disabled":false,"rental_uris":{"android":"levelo://app?vid=85a60867-0292-479f-99a9-23810b153b98","ios":"levelo://app?vid=85a60867-0292-479f-99a9-23810b153b98"},"vehicle_type_id":"4","last_reported":1728032986,"current_range_meters":9200,"station_id":"ce4bhk92rcd13ifvqgb0","pricing_plan_id":"cebpf4jnsgd1na2vs0mg"},{"bike_id":"e08c062f-61a2-493a-875d-6e296e2965d6","system_id":"levelo_inurba_marseille","lat":43.33761,"lon":5.37454,"is_reserved":false,"is_disabled":false,"rental_uris":{"android":"levelo://app?vid=e08c062f-61a2-493a-875d-6e296e2965d6","ios":"levelo://app?vid=e08c062f-61a2-493a-875d-6e296e2965d6"},"vehicle_type_id":"4","last_reported":1728032986,"current_range_meters":36800,"station_id":"","pricing_plan_id":"cebpf4jnsgd1na2vs0mg"},{"bike_id":"fa3d6ca4-2f87-4548-92ec-46dd58791c3a","system_id":"levelo_inurba_marseille","lat":43.23142,"lon":5.43712,"is_reserved":false,"is_disabled":false,"rental_uris":{"android":"levelo://app?vid=fa3d6ca4-2f87-4548-92ec-46dd58791c3a","ios":"levelo://app?vid=fa3d6ca4-2f87-4548-92ec-46dd58791c3a"},"vehicle_type_id":"4","last_reported":1728032986,"current_range_meters":8800,"station_id":"ce4bhmp2rcd13ifvqgog","pricing_plan_id":"cebpf4jnsgd1na2vs0mg"},{"bike_id":"5c8970c0-3ceb-465a-9f61-48e90dd5c290","system_id":"levelo_inurba_marseille","lat":43.24991,"lon":5.38926,"is_reserved":false,"is_disabled":false,"rental_uris":{"android":"levelo://app?vid=5c8970c0-3ceb-465a-9f61-48e90dd5c290","ios":"levelo://app?vid=5c8970c0-3ceb-465a-9f61-48e90dd5c290"},"vehicle_type_id":"4","last_reported":1728032986,"current_range_meters":27600,"station_id":"ce4bhgp2rcd13ifvqfd0","pricing_plan_id":"cebpf4jnsgd1na2vs0mg"},{"bike_id":"ed3c353a-272a-4e48-ad8c-ad86f3902fa6","system_id":"levelo_inurba_marseille","lat":43.26195,"lon":5.37931,"is_reserved":false,"is_disabled":false,"rental_uris":{"android":"levelo://app?vid=ed3c353a-272a-4e48-ad8c-ad86f3902fa6","ios":"levelo://app?vid=ed3c353a-272a-4e48-ad8c-ad86f3902fa6"},"vehicle_type_id":"4","last_reported":1728032986,"current_range_meters":38800,"station_id":"ce4bhjp2rcd13ifvqg90","pricing_plan_id":"cebpf4jnsgd1na2vs0mg"},{"bike_id":"54a03b56-f303-4c2a-a0e3-0c53d6d61297","system_id":"levelo_inurba_marseille","lat":43.289703,"lon":5.366008,"is_reserved":false,"is_disabled":false,"rental_uris":{"android":"levelo://app?vid=54a03b56-f303-4c2a-a0e3-0c53d6d61297","ios":"levelo://app?vid=54a03b56-f303-4c2a-a0e3-0c53d6d61297"},"vehicle_type_id":"4","last_reported":1728032986,"current_range_meters":19600,"station_id":"ce4bgkp2rcd13ifvqbmg","pricing_plan_id":"cebpf4jnsgd1na2vs0mg"},{"bike_id":"5743b791-d68c-4ebf-b8db-d4ba8053a404","system_id":"levelo_inurba_marseille","lat":43.27414,"lon":5.39405,"is_reserved":false,"is_disabled":false,"rental_uris":{"android":"levelo://app?vid=5743b791-d68c-4ebf-b8db-d4ba8053a404","ios":"levelo://app?vid=5743b791-d68c-4ebf-b8db-d4ba8053a404"},"vehicle_type_id":"4","last_reported":1728032986,"current_range_meters":38400,"station_id":"ce4bhdp2rcd13ifvqf20","pricing_plan_id":"cebpf4jnsgd1na2vs0mg"},{"bike_id":"49a3403f-5a93-443e-8052-24eba6f7e6a3","system_id":"levelo_inurba_marseille","lat":43.30531,"lon":5.36542,"is_reserved":false,"is_disabled":false,"rental_uris":{"android":"levelo://app?vid=49a3403f-5a93-443e-8052-24eba6f7e6a3","ios":"levelo://app?vid=49a3403f-5a93-443e-8052-24eba6f7e6a3"},"vehicle_type_id":"4","last_reported":1728032986,"current_range_meters":36800,"station_id":"ce4bgs12rcd13ifvqcag","pricing_plan_id":"cebpf4jnsgd1na2vs0mg"},{"bike_id":"6b5a81a6-6293-49e1-8f7c-574b67dee1f5","system_id":"levelo_inurba_marseille","lat":43.24176,"lon":5.39717,"is_reserved":false,"is_disabled":false,"rental_uris":{"android":"levelo://app?vid=6b5a81a6-6293-49e1-8f7c-574b67dee1f5","ios":"levelo://app?vid=6b5a81a6-6293-49e1-8f7c-574b67dee1f5"},"vehicle_type_id":"4","last_reported":1728032986,"current_range_meters":33600,"station_id":"ce4bhn12rcd13ifvqgpg","pricing_plan_id":"cebpf4jnsgd1na2vs0mg"},{"bike_id":"3320a0c3-f756-4a1a-83c4-a091c4d89b13","system_id":"levelo_inurba_marseille","lat":43.2582,"lon":5.39426,"is_reserved":false,"is_disabled":false,"rental_uris":{"android":"levelo://app?vid=3320a0c3-f756-4a1a-83c4-a091c4d89b13","ios":"levelo://app?vid=3320a0c3-f756-4a1a-83c4-a091c4d89b13"},"vehicle_type_id":"4","last_reported":1728032986,"current_range_meters":39200,"station_id":"ce4bhip2rcd13ifvqft0","pricing_plan_id":"cebpf4jnsgd1na2vs0mg"},{"bike_id":"71a6012d-cbe4-457d-b564-5f3031d94857","system_id":"levelo_inurba_marseille","lat":43.29548,"lon":5.42284,"is_reserved":false,"is_disabled":false,"rental_uris":{"android":"levelo://app?vid=71a6012d-cbe4-457d-b564-5f3031d94857","ios":"levelo://app?vid=71a6012d-cbe4-457d-b564-5f3031d94857"},"vehicle_type_id":"4","last_reported":1728032986,"current_range_meters":39200,"station_id":"ce4bhph2rcd13ifvqhdg","pricing_plan_id":"cebpf4jnsgd1na2vs0mg"},{"bike_id":"12014e5f-9061-4078-ba17-f5b4421eab0c","system_id":"levelo_inurba_marseille","lat":43.23139,"lon":5.43721,"is_reserved":false,"is_disabled":false,"rental_uris":{"android":"levelo://app?vid=12014e5f-9061-4078-ba17-f5b4421eab0c","ios":"levelo://app?vid=12014e5f-9061-4078-ba17-f5b4421eab0c"},"vehicle_type_id":"4","last_reported":1728032986,"current_range_meters":20800,"station_id":"ce4bhmp2rcd13ifvqgog","pricing_plan_id":"cebpf4jnsgd1na2vs0mg"},{"bike_id":"24b79a63-5009-4328-aa18-18739825e7d3","system_id":"levelo_inurba_marseille","lat":43.29527,"lon":5.37503,"is_reserved":false,"is_disabled":false,"rental_uris":{"android":"levelo://app?vid=24b79a63-5009-4328-aa18-18739825e7d3","ios":"levelo://app?vid=24b79a63-5009-4328-aa18-18739825e7d3"},"vehicle_type_id":"4","last_reported":1728032986,"current_range_meters":24800,"station_id":"ce4bgkp2rcd13ifvqbmg","pricing_plan_id":"cebpf4jnsgd1na2vs0mg"},{"bike_id":"60133598-3403-4260-b670-4e2957166424","system_id":"levelo_inurba_marseille","lat":43.24071,"lon":5.37756,"is_reserved":false,"is_disabled":false,"rental_uris":{"android":"levelo://app?vid=60133598-3403-4260-b670-4e2957166424","ios":"levelo://app?vid=60133598-3403-4260-b670-4e2957166424"},"vehicle_type_id":"4","last_reported":1728032986,"current_range_meters":22800,"station_id":"ce4bhnp2rcd13ifvqgvg","pricing_plan_id":"cebpf4jnsgd1na2vs0mg"},{"bike_id":"2d51471e-4a02-4d68-b5fe-be93001dd639","system_id":"levelo_inurba_marseille","lat":43.29165,"lon":5.37149,"is_reserved":false,"is_disabled":false,"rental_uris":{"android":"levelo://app?vid=2d51471e-4a02-4d68-b5fe-be93001dd639","ios":"levelo://app?vid=2d51471e-4a02-4d68-b5fe-be93001dd639"},"vehicle_type_id":"4","last_reported":1728032986,"current_range_meters":38800,"station_id":"ce4bha92rcd13ifvqeh0","pricing_plan_id":"cebpf4jnsgd1na2vs0mg"},{"bike_id":"35d5940c-1f2f-4fd2-a911-3624947ed5e1","system_id":"levelo_inurba_marseille","lat":43.258207,"lon":5.394313,"is_reserved":false,"is_disabled":false,"rental_uris":{"android":"levelo://app?vid=35d5940c-1f2f-4fd2-a911-3624947ed5e1","ios":"levelo://app?vid=35d5940c-1f2f-4fd2-a911-3624947ed5e1"},"vehicle_type_id":"4","last_reported":1728032986,"current_range_meters":32800,"station_id":"ce4bhip2rcd13ifvqft0","pricing_plan_id":"cebpf4jnsgd1na2vs0mg"},{"bike_id":"781757d6-91df-4aa1-afd2-cfd41967db46","system_id":"levelo_inurba_marseille","lat":43.24993,"lon":5.38923,"is_reserved":false,"is_disabled":false,"rental_uris":{"android":"levelo://app?vid=781757d6-91df-4aa1-afd2-cfd41967db46","ios":"levelo://app?vid=781757d6-91df-4aa1-afd2-cfd41967db46"},"vehicle_type_id":"4","last_reported":1728032986,"current_range_meters":40000,"station_id":"ce4bhgp2rcd13ifvqfd0","pricing_plan_id":"cebpf4jnsgd1na2vs0mg"},{"bike_id":"95fc337b-7d3b-44db-b67c-7e04379f6f80","system_id":"levelo_inurba_marseille","lat":43.33609,"lon":5.41008,"is_reserved":false,"is_disabled":false,"rental_uris":{"android":"levelo://app?vid=95fc337b-7d3b-44db-b67c-7e04379f6f80","ios":"levelo://app?vid=95fc337b-7d3b-44db-b67c-7e04379f6f80"},"vehicle_type_id":"4","last_reported":1728032986,"current_range_meters":32400,"station_id":"ce4bhqh2rcd13ifvqhmg","pricing_plan_id":"cebpf4jnsgd1na2vs0mg"},{"bike_id":"6e3d8af3-726e-43e4-9ee9-230f2ce8d10b","system_id":"levelo_inurba_marseille","lat":43.26949,"lon":5.38618,"is_reserved":false,"is_disabled":false,"rental_uris":{"android":"levelo://app?vid=6e3d8af3-726e-43e4-9ee9-230f2ce8d10b","ios":"levelo://app?vid=6e3d8af3-726e-43e4-9ee9-230f2ce8d10b"},"vehicle_type_id":"4","last_reported":1728032986,"current_range_meters":36400,"station_id":"ce4bhh92rcd13ifvqfh0","pricing_plan_id":"cebpf4jnsgd1na2vs0mg"},{"bike_id":"d569267f-419a-4d36-a732-0ebbc564ff43","system_id":"levelo_inurba_marseille","lat":43.26197,"lon":5.37919,"is_reserved":false,"is_disabled":false,"rental_uris":{"android":"levelo://app?vid=d569267f-419a-4d36-a732-0ebbc564ff43","ios":"levelo://app?vid=d569267f-419a-4d36-a732-0ebbc564ff43"},"vehicle_type_id":"4","last_reported":1728032986,"current_range_meters":37600,"station_id":"ce4bhjp2rcd13ifvqg90","pricing_plan_id":"cebpf4jnsgd1na2vs0mg"},{"bike_id":"fd872ba7-9877-4e67-9269-d8995abba644","system_id":"levelo_inurba_marseille","lat":43.22936,"lon":5.35379,"is_reserved":false,"is_disabled":false,"rental_uris":{"android":"levelo://app?vid=fd872ba7-9877-4e67-9269-d8995abba644","ios":"levelo://app?vid=fd872ba7-9877-4e67-9269-d8995abba644"},"vehicle_type_id":"4","last_reported":1728032986,"current_range_meters":21600,"station_id":"cpo3532slgdg3j2ikp40","pricing_plan_id":"cebpf4jnsgd1na2vs0mg"},{"bike_id":"505f199d-fba6-45b4-bb03-4d847a32b72b","system_id":"levelo_inurba_marseille","lat":43.23147,"lon":5.43715,"is_reserved":false,"is_disabled":false,"rental_uris":{"android":"levelo://app?vid=505f199d-fba6-45b4-bb03-4d847a32b72b","ios":"levelo://app?vid=505f199d-fba6-45b4-bb03-4d847a32b72b"},"vehicle_type_id":"4","last_reported":1728032986,"current_range_meters":22400,"station_id":"ce4bhmp2rcd13ifvqgog","pricing_plan_id":"cebpf4jnsgd1na2vs0mg"},{"bike_id":"535beb30-4d78-460c-a740-0d00d7a9d8c1","system_id":"levelo_inurba_marseille","lat":43.279968,"lon":5.400055,"is_reserved":false,"is_disabled":false,"rental_uris":{"android":"levelo://app?vid=535beb30-4d78-460c-a740-0d00d7a9d8c1","ios":"levelo://app?vid=535beb30-4d78-460c-a740-0d00d7a9d8c1"},"vehicle_type_id":"4","last_reported":1728032986,"current_range_meters":38000,"station_id":"ce4bho92rcd13ifvqh4g","pricing_plan_id":"cebpf4jnsgd1na2vs0mg"},{"bike_id":"c1b845b1-b148-48e3-b795-440066e77ead","system_id":"levelo_inurba_marseille","lat":43.30546,"lon":5.36702,"is_reserved":false,"is_disabled":false,"rental_uris":{"android":"levelo://app?vid=c1b845b1-b148-48e3-b795-440066e77ead","ios":"levelo://app?vid=c1b845b1-b148-48e3-b795-440066e77ead"},"vehicle_type_id":"4","last_reported":1728032986,"current_range_meters":38400,"station_id":"ce4bgrp2rcd13ifvqc9g","pricing_plan_id":"cebpf4jnsgd1na2vs0mg"},{"bike_id":"550e08ad-2e16-412d-b9fc-ef72bf5bc2e0","system_id":"levelo_inurba_marseille","lat":43.24664,"lon":5.3815,"is_reserved":false,"is_disabled":false,"rental_uris":{"android":"levelo://app?vid=550e08ad-2e16-412d-b9fc-ef72bf5bc2e0","ios":"levelo://app?vid=550e08ad-2e16-412d-b9fc-ef72bf5bc2e0"},"vehicle_type_id":"4","last_reported":1728032986,"current_range_meters":38800,"station_id":"ce4bhih2rcd13ifvqfr0","pricing_plan_id":"cebpf4jnsgd1na2vs0mg"},{"bike_id":"04632388-a687-4ba8-ac04-8755c77305ae","system_id":"levelo_inurba_marseille","lat":43.29695,"lon":5.37688,"is_reserved":false,"is_disabled":false,"rental_uris":{"android":"levelo://app?vid=04632388-a687-4ba8-ac04-8755c77305ae","ios":"levelo://app?vid=04632388-a687-4ba8-ac04-8755c77305ae"},"vehicle_type_id":"4","last_reported":1728032986,"current_range_meters":7200,"station_id":"ce4bgkh2rcd13ifvqbl0","pricing_plan_id":"cebpf4jnsgd1na2vs0mg"},{"bike_id":"804eff15-1ba5-4fc3-9d62-4e1a37230de2","system_id":"levelo_inurba_marseille","lat":43.29191,"lon":5.35806,"is_reserved":false,"is_disabled":false,"rental_uris":{"android":"levelo://app?vid=804eff15-1ba5-4fc3-9d62-4e1a37230de2","ios":"levelo://app?vid=804eff15-1ba5-4fc3-9d62-4e1a37230de2"},"vehicle_type_id":"4","last_reported":1728032986,"current_range_meters":38000,"station_id":"ce4bhb12rcd13ifvqel0","pricing_plan_id":"cebpf4jnsgd1na2vs0mg"},{"bike_id":"075284d2-e38a-43c2-87b1-ffa4ee01e3e0","system_id":"levelo_inurba_marseille","lat":43.27207,"lon":5.39181,"is_reserved":false,"is_disabled":false,"rental_uris":{"android":"levelo://app?vid=075284d2-e38a-43c2-87b1-ffa4ee01e3e0","ios":"levelo://app?vid=075284d2-e38a-43c2-87b1-ffa4ee01e3e0"},"vehicle_type_id":"4","last_reported":1728032986,"current_range_meters":38000,"station_id":"ce4bhhp2rcd13ifvqfm0","pricing_plan_id":"cebpf4jnsgd1na2vs0mg"},{"bike_id":"36f9422c-2770-42e4-8bdc-8a55171e917b","system_id":"levelo_inurba_marseille","lat":43.31335,"lon":5.39694,"is_reserved":false,"is_disabled":false,"rental_uris":{"android":"levelo://app?vid=36f9422c-2770-42e4-8bdc-8a55171e917b","ios":"levelo://app?vid=36f9422c-2770-42e4-8bdc-8a55171e917b"},"vehicle_type_id":"4","last_reported":1728032986,"current_range_meters":38800,"station_id":"ce4bgvp2rcd13ifvqcu0","pricing_plan_id":"cebpf4jnsgd1na2vs0mg"},{"bike_id":"d8b6db0b-7f0a-4553-973e-fd7d672619d3","system_id":"levelo_inurba_marseille","lat":43.27816,"lon":5.39209,"is_reserved":false,"is_disabled":false,"rental_uris":{"android":"levelo://app?vid=d8b6db0b-7f0a-4553-973e-fd7d672619d3","ios":"levelo://app?vid=d8b6db0b-7f0a-4553-973e-fd7d672619d3"},"vehicle_type_id":"4","last_reported":1728032986,"current_range_meters":38800,"station_id":"ce4bhjp2rcd13ifvqga0","pricing_plan_id":"cebpf4jnsgd1na2vs0mg"},{"bike_id":"d5fcaab0-44c4-4870-af2e-b1b94089e662","system_id":"levelo_inurba_marseille","lat":43.298234,"lon":5.364033,"is_reserved":false,"is_disabled":false,"rental_uris":{"android":"levelo://app?vid=d5fcaab0-44c4-4870-af2e-b1b94089e662","ios":"levelo://app?vid=d5fcaab0-44c4-4870-af2e-b1b94089e662"},"vehicle_type_id":"4","last_reported":1728032986,"current_range_meters":33600,"station_id":"","pricing_plan_id":"cebpf4jnsgd1na2vs0mg"},{"bike_id":"3c12f06e-bd86-43ae-a5d0-3f6a16b16b13","system_id":"levelo_inurba_marseille","lat":43.29844,"lon":5.36269,"is_reserved":false,"is_disabled":false,"rental_uris":{"android":"levelo://app?vid=3c12f06e-bd86-43ae-a5d0-3f6a16b16b13","ios":"levelo://app?vid=3c12f06e-bd86-43ae-a5d0-3f6a16b16b13"},"vehicle_type_id":"4","last_reported":1728032986,"current_range_meters":20400,"station_id":"ce4bgpp2rcd13ifvqc3g","pricing_plan_id":"cebpf4jnsgd1na2vs0mg"},{"bike_id":"0db499fa-17e0-47aa-8fef-a5357f6cb343","system_id":"levelo_inurba_marseille","lat":43.27311,"lon":5.39085,"is_reserved":false,"is_disabled":false,"rental_uris":{"android":"levelo://app?vid=0db499fa-17e0-47aa-8fef-a5357f6cb343","ios":"levelo://app?vid=0db499fa-17e0-47aa-8fef-a5357f6cb343"},"vehicle_type_id":"4","last_reported":1728032986,"current_range_meters":15200,"station_id":"ce4bhgp2rcd13ifvqfe0","pricing_plan_id":"cebpf4jnsgd1na2vs0mg"},{"bike_id":"1376bf06-1d36-4565-b55e-81626928d1f9","system_id":"levelo_inurba_marseille","lat":43.29708,"lon":5.37683,"is_reserved":false,"is_disabled":false,"rental_uris":{"android":"levelo://app?vid=1376bf06-1d36-4565-b55e-81626928d1f9","ios":"levelo://app?vid=1376bf06-1d36-4565-b55e-81626928d1f9"},"vehicle_type_id":"4","last_reported":1728032986,"current_range_meters":37600,"station_id":"ce4bgkh2rcd13ifvqbl0","pricing_plan_id":"cebpf4jnsgd1na2vs0mg"},{"bike_id":"5025cc5c-bc6e-48c7-8fa8-dceb54380246","system_id":"levelo_inurba_marseille","lat":43.299186,"lon":5.381544,"is_reserved":false,"is_disabled":false,"rental_uris":{"android":"levelo://app?vid=5025cc5c-bc6e-48c7-8fa8-dceb54380246","ios":"levelo://app?vid=5025cc5c-bc6e-48c7-8fa8-dceb54380246"},"vehicle_type_id":"4","last_reported":1728032986,"current_range_meters":22800,"station_id":"ce4bgj12rcd13ifvqbc0","pricing_plan_id":"cebpf4jnsgd1na2vs0mg"},{"bike_id":"d2826c66-de88-44b9-a80e-8ce24e8503f8","system_id":"levelo_inurba_marseille","lat":43.31209,"lon":5.36848,"is_reserved":false,"is_disabled":false,"rental_uris":{"android":"levelo://app?vid=d2826c66-de88-44b9-a80e-8ce24e8503f8","ios":"levelo://app?vid=d2826c66-de88-44b9-a80e-8ce24e8503f8"},"vehicle_type_id":"4","last_reported":1728032986,"current_range_meters":38800,"station_id":"ce4bgl92rcd13ifvqbq0","pricing_plan_id":"cebpf4jnsgd1na2vs0mg"},{"bike_id":"7294e7a5-fe2a-4836-a8c1-98e7d7ac261c","system_id":"levelo_inurba_marseille","lat":43.26952,"lon":5.38639,"is_reserved":false,"is_disabled":false,"rental_uris":{"android":"levelo://app?vid=7294e7a5-fe2a-4836-a8c1-98e7d7ac261c","ios":"levelo://app?vid=7294e7a5-fe2a-4836-a8c1-98e7d7ac261c"},"vehicle_type_id":"4","last_reported":1728032986,"current_range_meters":38400,"station_id":"ce4bhh92rcd13ifvqfh0","pricing_plan_id":"cebpf4jnsgd1na2vs0mg"},{"bike_id":"fd467a44-0ed6-4586-a1d3-c2b473676256","system_id":"levelo_inurba_marseille","lat":43.287146,"lon":5.379459,"is_reserved":false,"is_disabled":false,"rental_uris":{"android":"levelo://app?vid=fd467a44-0ed6-4586-a1d3-c2b473676256","ios":"levelo://app?vid=fd467a44-0ed6-4586-a1d3-c2b473676256"},"vehicle_type_id":"4","last_reported":1728032986,"current_range_meters":18000,"station_id":"ce4bh9p2rcd13ifvqec0","pricing_plan_id":"cebpf4jnsgd1na2vs0mg"},{"bike_id":"099628d8-94dc-40d0-ba71-5f27ab632e5b","system_id":"levelo_inurba_marseille","lat":43.29299,"lon":5.37447,"is_reserved":false,"is_disabled":false,"rental_uris":{"android":"levelo://app?vid=099628d8-94dc-40d0-ba71-5f27ab632e5b","ios":"levelo://app?vid=099628d8-94dc-40d0-ba71-5f27ab632e5b"},"vehicle_type_id":"4","last_reported":1728032986,"current_range_meters":6800,"station_id":"ce4bgi12rcd13ifvqb70","pricing_plan_id":"cebpf4jnsgd1na2vs0mg"},{"bike_id":"b1f95f03-864d-4a14-962b-72793bb6dc82","system_id":"levelo_inurba_marseille","lat":43.2905,"lon":5.37158,"is_reserved":false,"is_disabled":false,"rental_uris":{"android":"levelo://app?vid=b1f95f03-864d-4a14-962b-72793bb6dc82","ios":"levelo://app?vid=b1f95f03-864d-4a14-962b-72793bb6dc82"},"vehicle_type_id":"4","last_reported":1728032986,"current_range_meters":23200,"station_id":"ce4bh5p2rcd13ifvqe4g","pricing_plan_id":"cebpf4jnsgd1na2vs0mg"},{"bike_id":"860e2408-f4c6-457f-8307-07f47e2afd5b","system_id":"levelo_inurba_marseille","lat":43.30921,"lon":5.40135,"is_reserved":false,"is_disabled":false,"rental_uris":{"android":"levelo://app?vid=860e2408-f4c6-457f-8307-07f47e2afd5b","ios":"levelo://app?vid=860e2408-f4c6-457f-8307-07f47e2afd5b"},"vehicle_type_id":"4","last_reported":1728032986,"current_range_meters":24000,"station_id":"ce4bgvp2rcd13ifvqct0","pricing_plan_id":"cebpf4jnsgd1na2vs0mg"},{"bike_id":"47a3293c-1ddd-4454-a41a-80712a0e08c8","system_id":"levelo_inurba_marseille","lat":43.31348,"lon":5.36702,"is_reserved":false,"is_disabled":false,"rental_uris":{"android":"levelo://app?vid=47a3293c-1ddd-4454-a41a-80712a0e08c8","ios":"levelo://app?vid=47a3293c-1ddd-4454-a41a-80712a0e08c8"},"vehicle_type_id":"4","last_reported":1728032986,"current_range_meters":38800,"station_id":"ce4bgr92rcd13ifvqc6g","pricing_plan_id":"cebpf4jnsgd1na2vs0mg"},{"bike_id":"d388ea53-b68b-46d1-8097-c8043378c09e","system_id":"levelo_inurba_marseille","lat":43.30299,"lon":5.36897,"is_reserved":false,"is_disabled":false,"rental_uris":{"android":"levelo://app?vid=d388ea53-b68b-46d1-8097-c8043378c09e","ios":"levelo://app?vid=d388ea53-b68b-46d1-8097-c8043378c09e"},"vehicle_type_id":"4","last_reported":1728032986,"current_range_meters":39200,"station_id":"ce4bgqh2rcd13ifvqc5g","pricing_plan_id":"cebpf4jnsgd1na2vs0mg"},{"bike_id":"4061a425-0fa8-4b85-ba2e-dd23d5b416e9","system_id":"levelo_inurba_marseille","lat":43.28856,"lon":5.35818,"is_reserved":false,"is_disabled":false,"rental_uris":{"android":"levelo://app?vid=4061a425-0fa8-4b85-ba2e-dd23d5b416e9","ios":"levelo://app?vid=4061a425-0fa8-4b85-ba2e-dd23d5b416e9"},"vehicle_type_id":"4","last_reported":1728032986,"current_range_meters":33200,"station_id":"ce4bhb12rcd13ifvqem0","pricing_plan_id":"cebpf4jnsgd1na2vs0mg"},{"bike_id":"2fa80a2d-1591-492e-b225-696fcb5c87fd","system_id":"levelo_inurba_marseille","lat":43.26552,"lon":5.37283,"is_reserved":false,"is_disabled":false,"rental_uris":{"android":"levelo://app?vid=2fa80a2d-1591-492e-b225-696fcb5c87fd","ios":"levelo://app?vid=2fa80a2d-1591-492e-b225-696fcb5c87fd"},"vehicle_type_id":"4","last_reported":1728032986,"current_range_meters":30800,"station_id":"ce4bhg12rcd13ifvqf70","pricing_plan_id":"cebpf4jnsgd1na2vs0mg"},{"bike_id":"43f2900c-6697-4097-baa3-ea663f36dd68","system_id":"levelo_inurba_marseille","lat":43.2984,"lon":5.36265,"is_reserved":false,"is_disabled":false,"rental_uris":{"android":"levelo://app?vid=43f2900c-6697-4097-baa3-ea663f36dd68","ios":"levelo://app?vid=43f2900c-6697-4097-baa3-ea663f36dd68"},"vehicle_type_id":"4","last_reported":1728032986,"current_range_meters":32400,"station_id":"ce4bgpp2rcd13ifvqc3g","pricing_plan_id":"cebpf4jnsgd1na2vs0mg"},{"bike_id":"e70a8dcf-8e87-4e58-9537-4724f90baf56","system_id":"levelo_inurba_marseille","lat":43.29922,"lon":5.37465,"is_reserved":false,"is_disabled":false,"rental_uris":{"android":"levelo://app?vid=e70a8dcf-8e87-4e58-9537-4724f90baf56","ios":"levelo://app?vid=e70a8dcf-8e87-4e58-9537-4724f90baf56"},"vehicle_type_id":"4","last_reported":1728032986,"current_range_meters":12800,"station_id":"ce4bgjh2rcd13ifvqbg0","pricing_plan_id":"cebpf4jnsgd1na2vs0mg"},{"bike_id":"882ba2f3-e226-41e5-9c83-bd7bbc37fd3b","system_id":"levelo_inurba_marseille","lat":43.29929,"lon":5.36542,"is_reserved":false,"is_disabled":false,"rental_uris":{"android":"levelo://app?vid=882ba2f3-e226-41e5-9c83-bd7bbc37fd3b","ios":"levelo://app?vid=882ba2f3-e226-41e5-9c83-bd7bbc37fd3b"},"vehicle_type_id":"4","last_reported":1728032986,"current_range_meters":28000,"station_id":"ce4bgm92rcd13ifvqbr0","pricing_plan_id":"cebpf4jnsgd1na2vs0mg"},{"bike_id":"773dfa99-2f49-4f79-8ab8-c6dd91de7ee4","system_id":"levelo_inurba_marseille","lat":43.30416,"lon":5.38885,"is_reserved":false,"is_disabled":false,"rental_uris":{"android":"levelo://app?vid=773dfa99-2f49-4f79-8ab8-c6dd91de7ee4","ios":"levelo://app?vid=773dfa99-2f49-4f79-8ab8-c6dd91de7ee4"},"vehicle_type_id":"4","last_reported":1728032986,"current_range_meters":38400,"station_id":"ce4bgk12rcd13ifvqbi0","pricing_plan_id":"cebpf4jnsgd1na2vs0mg"},{"bike_id":"16a50fa2-597a-4294-a3d5-c35e56ef70a0","system_id":"levelo_inurba_marseille","lat":43.32555,"lon":5.41423,"is_reserved":false,"is_disabled":false,"rental_uris":{"android":"levelo://app?vid=16a50fa2-597a-4294-a3d5-c35e56ef70a0","ios":"levelo://app?vid=16a50fa2-597a-4294-a3d5-c35e56ef70a0"},"vehicle_type_id":"4","last_reported":1728032986,"current_range_meters":40000,"station_id":"ce4bhq12rcd13ifvqhhg","pricing_plan_id":"cebpf4jnsgd1na2vs0mg"},{"bike_id":"469f858a-3c27-46ed-8564-5fc57149acd0","system_id":"levelo_inurba_marseille","lat":43.26935,"lon":5.40253,"is_reserved":false,"is_disabled":false,"rental_uris":{"android":"levelo://app?vid=469f858a-3c27-46ed-8564-5fc57149acd0","ios":"levelo://app?vid=469f858a-3c27-46ed-8564-5fc57149acd0"},"vehicle_type_id":"4","last_reported":1728032986,"current_range_meters":38800,"station_id":"cjm6bp8fraef2m0cb0m0","pricing_plan_id":"cebpf4jnsgd1na2vs0mg"},{"bike_id":"f8ed13ba-0f92-4c24-a66c-ce1d50a499a4","system_id":"levelo_inurba_marseille","lat":43.30904,"lon":5.36841,"is_reserved":false,"is_disabled":false,"rental_uris":{"android":"levelo://app?vid=f8ed13ba-0f92-4c24-a66c-ce1d50a499a4","ios":"levelo://app?vid=f8ed13ba-0f92-4c24-a66c-ce1d50a499a4"},"vehicle_type_id":"4","last_reported":1728032986,"current_range_meters":16000,"station_id":"ce4bgn92rcd13ifvqbvg","pricing_plan_id":"cebpf4jnsgd1na2vs0mg"},{"bike_id":"53c6fe7a-c5f0-4c29-bdb6-08c6c7db5c71","system_id":"levelo_inurba_marseille","lat":43.32094,"lon":5.36776,"is_reserved":false,"is_disabled":false,"rental_uris":{"android":"levelo://app?vid=53c6fe7a-c5f0-4c29-bdb6-08c6c7db5c71","ios":"levelo://app?vid=53c6fe7a-c5f0-4c29-bdb6-08c6c7db5c71"},"vehicle_type_id":"4","last_reported":1728032986,"current_range_meters":6400,"station_id":"ce4bhrh2rcd13ifvqhug","pricing_plan_id":"cebpf4jnsgd1na2vs0mg"},{"bike_id":"b7cd3224-74ff-426f-8638-1fd36adc9f26","system_id":"levelo_inurba_marseille","lat":43.24993,"lon":5.38927,"is_reserved":false,"is_disabled":false,"rental_uris":{"android":"levelo://app?vid=b7cd3224-74ff-426f-8638-1fd36adc9f26","ios":"levelo://app?vid=b7cd3224-74ff-426f-8638-1fd36adc9f26"},"vehicle_type_id":"4","last_reported":1728032986,"current_range_meters":16000,"station_id":"ce4bhgp2rcd13ifvqfd0","pricing_plan_id":"cebpf4jnsgd1na2vs0mg"},{"bike_id":"0d1f71a9-c33d-44dd-a305-c32b50aeff33","system_id":"levelo_inurba_marseille","lat":43.31327,"lon":5.39694,"is_reserved":false,"is_disabled":false,"rental_uris":{"android":"levelo://app?vid=0d1f71a9-c33d-44dd-a305-c32b50aeff33","ios":"levelo://app?vid=0d1f71a9-c33d-44dd-a305-c32b50aeff33"},"vehicle_type_id":"4","last_reported":1728032986,"current_range_meters":0,"station_id":"ce4bgvp2rcd13ifvqcu0","pricing_plan_id":"cebpf4jnsgd1na2vs0mg"},{"bike_id":"892e7b4f-4577-4e45-8a5f-3e8cfda1c900","system_id":"levelo_inurba_marseille","lat":43.25105,"lon":5.40326,"is_reserved":false,"is_disabled":false,"rental_uris":{"android":"levelo://app?vid=892e7b4f-4577-4e45-8a5f-3e8cfda1c900","ios":"levelo://app?vid=892e7b4f-4577-4e45-8a5f-3e8cfda1c900"},"vehicle_type_id":"4","last_reported":1728032986,"current_range_meters":8800,"station_id":"ce4bhlh2rcd13ifvqgig","pricing_plan_id":"cebpf4jnsgd1na2vs0mg"},{"bike_id":"6ce60676-3f86-4aaa-a5df-572436c32ad4","system_id":"levelo_inurba_marseille","lat":43.23203,"lon":5.35547,"is_reserved":false,"is_disabled":false,"rental_uris":{"android":"levelo://app?vid=6ce60676-3f86-4aaa-a5df-572436c32ad4","ios":"levelo://app?vid=6ce60676-3f86-4aaa-a5df-572436c32ad4"},"vehicle_type_id":"4","last_reported":1728032986,"current_range_meters":16000,"station_id":"ce4bhu92rcd13ifvqi70","pricing_plan_id":"cebpf4jnsgd1na2vs0mg"},{"bike_id":"00d133f4-9bbe-4431-9407-a54f88ff7f96","system_id":"levelo_inurba_marseille","lat":43.29001,"lon":5.35608,"is_reserved":false,"is_disabled":false,"rental_uris":{"android":"levelo://app?vid=00d133f4-9bbe-4431-9407-a54f88ff7f96","ios":"levelo://app?vid=00d133f4-9bbe-4431-9407-a54f88ff7f96"},"vehicle_type_id":"4","last_reported":1728032986,"current_range_meters":37600,"station_id":"ce4bhb92rcd13ifvqen0","pricing_plan_id":"cebpf4jnsgd1na2vs0mg"},{"bike_id":"bb1d45c3-f50a-4ba0-9942-1edc9ffd3ed6","system_id":"levelo_inurba_marseille","lat":43.24991,"lon":5.38922,"is_reserved":false,"is_disabled":false,"rental_uris":{"android":"levelo://app?vid=bb1d45c3-f50a-4ba0-9942-1edc9ffd3ed6","ios":"levelo://app?vid=bb1d45c3-f50a-4ba0-9942-1edc9ffd3ed6"},"vehicle_type_id":"4","last_reported":1728032986,"current_range_meters":36400,"station_id":"ce4bhgp2rcd13ifvqfd0","pricing_plan_id":"cebpf4jnsgd1na2vs0mg"},{"bike_id":"2deb3ad2-485a-485b-9af2-3b5c72eb458a","system_id":"levelo_inurba_marseille","lat":43.29663,"lon":5.37298,"is_reserved":false,"is_disabled":false,"rental_uris":{"android":"levelo://app?vid=2deb3ad2-485a-485b-9af2-3b5c72eb458a","ios":"levelo://app?vid=2deb3ad2-485a-485b-9af2-3b5c72eb458a"},"vehicle_type_id":"4","last_reported":1728032986,"current_range_meters":24400,"station_id":"ce4bgk12rcd13ifvqbj0","pricing_plan_id":"cebpf4jnsgd1na2vs0mg"},{"bike_id":"45810003-a6fa-4a0b-b02c-1ad3b24a4f18","system_id":"levelo_inurba_marseille","lat":43.28381,"lon":5.38644,"is_reserved":false,"is_disabled":false,"rental_uris":{"android":"levelo://app?vid=45810003-a6fa-4a0b-b02c-1ad3b24a4f18","ios":"levelo://app?vid=45810003-a6fa-4a0b-b02c-1ad3b24a4f18"},"vehicle_type_id":"4","last_reported":1728032986,"current_range_meters":16000,"station_id":"ce4bh492rcd13ifvqdvg","pricing_plan_id":"cebpf4jnsgd1na2vs0mg"},{"bike_id":"5013c09a-3b43-40a8-800f-933c0132f8b8","system_id":"levelo_inurba_marseille","lat":43.2903,"lon":5.37563,"is_reserved":false,"is_disabled":false,"rental_uris":{"android":"levelo://app?vid=5013c09a-3b43-40a8-800f-933c0132f8b8","ios":"levelo://app?vid=5013c09a-3b43-40a8-800f-933c0132f8b8"},"vehicle_type_id":"4","last_reported":1728032986,"current_range_meters":40000,"station_id":"ce4bh692rcd13ifvqe90","pricing_plan_id":"cebpf4jnsgd1na2vs0mg"},{"bike_id":"d81a9039-3890-46cf-b84c-e7c3bc778211","system_id":"levelo_inurba_marseille","lat":43.29838,"lon":5.36265,"is_reserved":false,"is_disabled":false,"rental_uris":{"android":"levelo://app?vid=d81a9039-3890-46cf-b84c-e7c3bc778211","ios":"levelo://app?vid=d81a9039-3890-46cf-b84c-e7c3bc778211"},"vehicle_type_id":"4","last_reported":1728032986,"current_range_meters":13600,"station_id":"ce4bgpp2rcd13ifvqc3g","pricing_plan_id":"cebpf4jnsgd1na2vs0mg"},{"bike_id":"cc06d840-57c3-4fb9-842f-7fb76dcaefc3","system_id":"levelo_inurba_marseille","lat":43.27489,"lon":5.42455,"is_reserved":false,"is_disabled":false,"rental_uris":{"android":"levelo://app?vid=cc06d840-57c3-4fb9-842f-7fb76dcaefc3","ios":"levelo://app?vid=cc06d840-57c3-4fb9-842f-7fb76dcaefc3"},"vehicle_type_id":"4","last_reported":1728032986,"current_range_meters":16800,"station_id":"ce4bhn92rcd13ifvqgrg","pricing_plan_id":"cebpf4jnsgd1na2vs0mg"},{"bike_id":"b5d7e9a8-4e6b-4494-9d0d-37b2f881d6dd","system_id":"levelo_inurba_marseille","lat":43.29528,"lon":5.38533,"is_reserved":false,"is_disabled":false,"rental_uris":{"android":"levelo://app?vid=b5d7e9a8-4e6b-4494-9d0d-37b2f881d6dd","ios":"levelo://app?vid=b5d7e9a8-4e6b-4494-9d0d-37b2f881d6dd"},"vehicle_type_id":"4","last_reported":1728032986,"current_range_meters":19600,"station_id":"ce4bgih2rcd13ifvqba0","pricing_plan_id":"cebpf4jnsgd1na2vs0mg"},{"bike_id":"ac491eed-1fef-4832-b4ca-d42b5b54f337","system_id":"levelo_inurba_marseille","lat":43.28416,"lon":5.34988,"is_reserved":false,"is_disabled":false,"rental_uris":{"android":"levelo://app?vid=ac491eed-1fef-4832-b4ca-d42b5b54f337","ios":"levelo://app?vid=ac491eed-1fef-4832-b4ca-d42b5b54f337"},"vehicle_type_id":"4","last_reported":1728032986,"current_range_meters":36800,"station_id":"ce4bhbh2rcd13ifvqepg","pricing_plan_id":"cebpf4jnsgd1na2vs0mg"},{"bike_id":"b951a1eb-1d9e-423d-bd77-1e7c91e606e0","system_id":"levelo_inurba_marseille","lat":43.28719,"lon":5.37943,"is_reserved":false,"is_disabled":false,"rental_uris":{"android":"levelo://app?vid=b951a1eb-1d9e-423d-bd77-1e7c91e606e0","ios":"levelo://app?vid=b951a1eb-1d9e-423d-bd77-1e7c91e606e0"},"vehicle_type_id":"4","last_reported":1728032986,"current_range_meters":18800,"station_id":"ce4bh9p2rcd13ifvqec0","pricing_plan_id":"cebpf4jnsgd1na2vs0mg"},{"bike_id":"10357815-d6f4-441a-b6f6-23ead2bcc32b","system_id":"levelo_inurba_marseille","lat":43.27209,"lon":5.3918,"is_reserved":false,"is_disabled":false,"rental_uris":{"android":"levelo://app?vid=10357815-d6f4-441a-b6f6-23ead2bcc32b","ios":"levelo://app?vid=10357815-d6f4-441a-b6f6-23ead2bcc32b"},"vehicle_type_id":"4","last_reported":1728032986,"current_range_meters":38400,"station_id":"ce4bhhp2rcd13ifvqfm0","pricing_plan_id":"cebpf4jnsgd1na2vs0mg"},{"bike_id":"7fed4edd-fced-4cac-8f5a-8f088e4cd963","system_id":"levelo_inurba_marseille","lat":43.26555,"lon":5.3729,"is_reserved":false,"is_disabled":false,"rental_uris":{"android":"levelo://app?vid=7fed4edd-fced-4cac-8f5a-8f088e4cd963","ios":"levelo://app?vid=7fed4edd-fced-4cac-8f5a-8f088e4cd963"},"vehicle_type_id":"4","last_reported":1728032986,"current_range_meters":2800,"station_id":"ce4bhg12rcd13ifvqf70","pricing_plan_id":"cebpf4jnsgd1na2vs0mg"},{"bike_id":"a6692f1f-5525-4523-bd49-a7c219bc26c1","system_id":"levelo_inurba_marseille","lat":43.26547,"lon":5.37288,"is_reserved":false,"is_disabled":false,"rental_uris":{"android":"levelo://app?vid=a6692f1f-5525-4523-bd49-a7c219bc26c1","ios":"levelo://app?vid=a6692f1f-5525-4523-bd49-a7c219bc26c1"},"vehicle_type_id":"4","last_reported":1728032986,"current_range_meters":33600,"station_id":"ce4bhg12rcd13ifvqf70","pricing_plan_id":"cebpf4jnsgd1na2vs0mg"},{"bike_id":"bc5b6b8b-2f37-4b19-8353-cfb94dcc03bd","system_id":"levelo_inurba_marseille","lat":43.24078,"lon":5.37756,"is_reserved":false,"is_disabled":false,"rental_uris":{"android":"levelo://app?vid=bc5b6b8b-2f37-4b19-8353-cfb94dcc03bd","ios":"levelo://app?vid=bc5b6b8b-2f37-4b19-8353-cfb94dcc03bd"},"vehicle_type_id":"4","last_reported":1728032986,"current_range_meters":31200,"station_id":"ce4bhnp2rcd13ifvqgvg","pricing_plan_id":"cebpf4jnsgd1na2vs0mg"},{"bike_id":"eae44af6-b70b-487c-a92e-e52edcafa9ca","system_id":"levelo_inurba_marseille","lat":43.26199,"lon":5.37917,"is_reserved":false,"is_disabled":false,"rental_uris":{"android":"levelo://app?vid=eae44af6-b70b-487c-a92e-e52edcafa9ca","ios":"levelo://app?vid=eae44af6-b70b-487c-a92e-e52edcafa9ca"},"vehicle_type_id":"4","last_reported":1728032986,"current_range_meters":31200,"station_id":"ce4bhjp2rcd13ifvqg90","pricing_plan_id":"cebpf4jnsgd1na2vs0mg"},{"bike_id":"f28532ab-2844-4c68-acee-baaa073b03fa","system_id":"levelo_inurba_marseille","lat":43.324786,"lon":5.365657,"is_reserved":false,"is_disabled":false,"rental_uris":{"android":"levelo://app?vid=f28532ab-2844-4c68-acee-baaa073b03fa","ios":"levelo://app?vid=f28532ab-2844-4c68-acee-baaa073b03fa"},"vehicle_type_id":"4","last_reported":1728032986,"current_range_meters":38000,"station_id":"ce4bhs12rcd13ifvqhvg","pricing_plan_id":"cebpf4jnsgd1na2vs0mg"},{"bike_id":"5a990b13-0460-4459-bb8f-e70ed696fefc","system_id":"levelo_inurba_marseille","lat":43.303295,"lon":5.39457,"is_reserved":false,"is_disabled":false,"rental_uris":{"android":"levelo://app?vid=5a990b13-0460-4459-bb8f-e70ed696fefc","ios":"levelo://app?vid=5a990b13-0460-4459-bb8f-e70ed696fefc"},"vehicle_type_id":"4","last_reported":1728032986,"current_range_meters":9200,"station_id":"ce4bh092rcd13ifvqd20","pricing_plan_id":"cebpf4jnsgd1na2vs0mg"},{"bike_id":"9cf16966-a673-431e-b3d0-481a7aae44e9","system_id":"levelo_inurba_marseille","lat":43.28034,"lon":5.36935,"is_reserved":false,"is_disabled":false,"rental_uris":{"android":"levelo://app?vid=9cf16966-a673-431e-b3d0-481a7aae44e9","ios":"levelo://app?vid=9cf16966-a673-431e-b3d0-481a7aae44e9"},"vehicle_type_id":"4","last_reported":1728032986,"current_range_meters":38400,"station_id":"ce4bha12rcd13ifvqef0","pricing_plan_id":"cebpf4jnsgd1na2vs0mg"},{"bike_id":"e6975fa4-8c2d-44a9-bd89-925e626d603d","system_id":"levelo_inurba_marseille","lat":43.30144,"lon":5.38076,"is_reserved":false,"is_disabled":false,"rental_uris":{"android":"levelo://app?vid=e6975fa4-8c2d-44a9-bd89-925e626d603d","ios":"levelo://app?vid=e6975fa4-8c2d-44a9-bd89-925e626d603d"},"vehicle_type_id":"4","last_reported":1728032986,"current_range_meters":25600,"station_id":"ce4bgjp2rcd13ifvqbh0","pricing_plan_id":"cebpf4jnsgd1na2vs0mg"},{"bike_id":"e5c27dcf-3d6e-41a5-8a35-01e9d92ac648","system_id":"levelo_inurba_marseille","lat":43.27487,"lon":5.42445,"is_reserved":false,"is_disabled":false,"rental_uris":{"android":"levelo://app?vid=e5c27dcf-3d6e-41a5-8a35-01e9d92ac648","ios":"levelo://app?vid=e5c27dcf-3d6e-41a5-8a35-01e9d92ac648"},"vehicle_type_id":"4","last_reported":1728032986,"current_range_meters":35200,"station_id":"ce4bhn92rcd13ifvqgrg","pricing_plan_id":"cebpf4jnsgd1na2vs0mg"},{"bike_id":"d602bb9e-b75e-4df7-8d65-c5a2586c9b89","system_id":"levelo_inurba_marseille","lat":43.29847,"lon":5.36284,"is_reserved":false,"is_disabled":false,"rental_uris":{"android":"levelo://app?vid=d602bb9e-b75e-4df7-8d65-c5a2586c9b89","ios":"levelo://app?vid=d602bb9e-b75e-4df7-8d65-c5a2586c9b89"},"vehicle_type_id":"4","last_reported":1728032986,"current_range_meters":28800,"station_id":"ce4bgpp2rcd13ifvqc3g","pricing_plan_id":"cebpf4jnsgd1na2vs0mg"},{"bike_id":"0df22634-8a99-4927-af03-09431c9e9149","system_id":"levelo_inurba_marseille","lat":43.25502,"lon":5.37654,"is_reserved":false,"is_disabled":false,"rental_uris":{"android":"levelo://app?vid=0df22634-8a99-4927-af03-09431c9e9149","ios":"levelo://app?vid=0df22634-8a99-4927-af03-09431c9e9149"},"vehicle_type_id":"4","last_reported":1728032986,"current_range_meters":24000,"station_id":"ce4bhh12rcd13ifvqff0","pricing_plan_id":"cebpf4jnsgd1na2vs0mg"},{"bike_id":"33a8504a-6195-4b59-93ab-7c67bf7f9206","system_id":"levelo_inurba_marseille","lat":43.29289,"lon":5.37183,"is_reserved":false,"is_disabled":false,"rental_uris":{"android":"levelo://app?vid=33a8504a-6195-4b59-93ab-7c67bf7f9206","ios":"levelo://app?vid=33a8504a-6195-4b59-93ab-7c67bf7f9206"},"vehicle_type_id":"4","last_reported":1728032986,"current_range_meters":38800,"station_id":"ce4bgh92rcd13ifvqb40","pricing_plan_id":"cebpf4jnsgd1na2vs0mg"},{"bike_id":"4aa2d78a-2df8-40f1-b44e-a41cc0b2e120","system_id":"levelo_inurba_marseille","lat":43.30536,"lon":5.36701,"is_reserved":false,"is_disabled":false,"rental_uris":{"android":"levelo://app?vid=4aa2d78a-2df8-40f1-b44e-a41cc0b2e120","ios":"levelo://app?vid=4aa2d78a-2df8-40f1-b44e-a41cc0b2e120"},"vehicle_type_id":"4","last_reported":1728032986,"current_range_meters":4400,"station_id":"ce4bgrp2rcd13ifvqc9g","pricing_plan_id":"cebpf4jnsgd1na2vs0mg"},{"bike_id":"2d44c9ee-7d57-4d79-87df-456ca1e6d475","system_id":"levelo_inurba_marseille","lat":43.25487,"lon":5.37653,"is_reserved":false,"is_disabled":false,"rental_uris":{"android":"levelo://app?vid=2d44c9ee-7d57-4d79-87df-456ca1e6d475","ios":"levelo://app?vid=2d44c9ee-7d57-4d79-87df-456ca1e6d475"},"vehicle_type_id":"4","last_reported":1728032986,"current_range_meters":36000,"station_id":"ce4bhh12rcd13ifvqff0","pricing_plan_id":"cebpf4jnsgd1na2vs0mg"},{"bike_id":"de342f46-89a2-4db4-af45-4f39a1a359f2","system_id":"levelo_inurba_marseille","lat":43.33608,"lon":5.4103,"is_reserved":false,"is_disabled":false,"rental_uris":{"android":"levelo://app?vid=de342f46-89a2-4db4-af45-4f39a1a359f2","ios":"levelo://app?vid=de342f46-89a2-4db4-af45-4f39a1a359f2"},"vehicle_type_id":"4","last_reported":1728032986,"current_range_meters":24400,"station_id":"ce4bhqh2rcd13ifvqhmg","pricing_plan_id":"cebpf4jnsgd1na2vs0mg"},{"bike_id":"a4fafd05-5eef-445c-9445-1c0b9ed485cd","system_id":"levelo_inurba_marseille","lat":43.3134,"lon":5.36704,"is_reserved":false,"is_disabled":false,"rental_uris":{"android":"levelo://app?vid=a4fafd05-5eef-445c-9445-1c0b9ed485cd","ios":"levelo://app?vid=a4fafd05-5eef-445c-9445-1c0b9ed485cd"},"vehicle_type_id":"4","last_reported":1728032986,"current_range_meters":31200,"station_id":"ce4bgr92rcd13ifvqc6g","pricing_plan_id":"cebpf4jnsgd1na2vs0mg"},{"bike_id":"0f0865d8-479b-4168-830f-f34426c6f80f","system_id":"levelo_inurba_marseille","lat":43.33719,"lon":5.3919,"is_reserved":false,"is_disabled":false,"rental_uris":{"android":"levelo://app?vid=0f0865d8-479b-4168-830f-f34426c6f80f","ios":"levelo://app?vid=0f0865d8-479b-4168-830f-f34426c6f80f"},"vehicle_type_id":"4","last_reported":1728032986,"current_range_meters":19200,"station_id":"ce4bhr92rcd13ifvqhsg","pricing_plan_id":"cebpf4jnsgd1na2vs0mg"},{"bike_id":"c8e4ff73-620c-4248-92f7-758d5098242c","system_id":"levelo_inurba_marseille","lat":43.22931,"lon":5.35376,"is_reserved":false,"is_disabled":false,"rental_uris":{"android":"levelo://app?vid=c8e4ff73-620c-4248-92f7-758d5098242c","ios":"levelo://app?vid=c8e4ff73-620c-4248-92f7-758d5098242c"},"vehicle_type_id":"4","last_reported":1728032986,"current_range_meters":22800,"station_id":"cpo3532slgdg3j2ikp40","pricing_plan_id":"cebpf4jnsgd1na2vs0mg"},{"bike_id":"3c230d9c-8a51-4831-b7c4-3b2bfa6441ac","system_id":"levelo_inurba_marseille","lat":43.29305,"lon":5.37171,"is_reserved":false,"is_disabled":false,"rental_uris":{"android":"levelo://app?vid=3c230d9c-8a51-4831-b7c4-3b2bfa6441ac","ios":"levelo://app?vid=3c230d9c-8a51-4831-b7c4-3b2bfa6441ac"},"vehicle_type_id":"4","last_reported":1728032986,"current_range_meters":22400,"station_id":"ce4bgh92rcd13ifvqb40","pricing_plan_id":"cebpf4jnsgd1na2vs0mg"},{"bike_id":"f2b48f08-7b67-4052-a1f0-a8707a7337e6","system_id":"levelo_inurba_marseille","lat":43.29062,"lon":5.3715,"is_reserved":false,"is_disabled":false,"rental_uris":{"android":"levelo://app?vid=f2b48f08-7b67-4052-a1f0-a8707a7337e6","ios":"levelo://app?vid=f2b48f08-7b67-4052-a1f0-a8707a7337e6"},"vehicle_type_id":"4","last_reported":1728032986,"current_range_meters":16800,"station_id":"ce4bh5p2rcd13ifvqe4g","pricing_plan_id":"cebpf4jnsgd1na2vs0mg"},{"bike_id":"583eb2a3-c703-4842-8648-2706b2b88008","system_id":"levelo_inurba_marseille","lat":43.28153,"lon":5.4263,"is_reserved":false,"is_disabled":false,"rental_uris":{"android":"levelo://app?vid=583eb2a3-c703-4842-8648-2706b2b88008","ios":"levelo://app?vid=583eb2a3-c703-4842-8648-2706b2b88008"},"vehicle_type_id":"4","last_reported":1728032986,"current_range_meters":6000,"station_id":"ce4bhnh2rcd13ifvqgug","pricing_plan_id":"cebpf4jnsgd1na2vs0mg"},{"bike_id":"0946268e-451b-4eae-9c53-f76e2b977f3f","system_id":"levelo_inurba_marseille","lat":43.3247,"lon":5.36563,"is_reserved":false,"is_disabled":false,"rental_uris":{"android":"levelo://app?vid=0946268e-451b-4eae-9c53-f76e2b977f3f","ios":"levelo://app?vid=0946268e-451b-4eae-9c53-f76e2b977f3f"},"vehicle_type_id":"4","last_reported":1728032986,"current_range_meters":24800,"station_id":"ce4bhs12rcd13ifvqhvg","pricing_plan_id":"cebpf4jnsgd1na2vs0mg"},{"bike_id":"5e778da9-2d39-4031-8ebb-5990fbc1004d","system_id":"levelo_inurba_marseille","lat":43.28346,"lon":5.38101,"is_reserved":false,"is_disabled":false,"rental_uris":{"android":"levelo://app?vid=5e778da9-2d39-4031-8ebb-5990fbc1004d","ios":"levelo://app?vid=5e778da9-2d39-4031-8ebb-5990fbc1004d"},"vehicle_type_id":"4","last_reported":1728032986,"current_range_meters":38800,"station_id":"ce4bh412rcd13ifvqdr0","pricing_plan_id":"cebpf4jnsgd1na2vs0mg"},{"bike_id":"5ed52529-1ff6-4f3b-9de3-faa1ac8310d9","system_id":"levelo_inurba_marseille","lat":43.28452,"lon":5.35894,"is_reserved":false,"is_disabled":false,"rental_uris":{"android":"levelo://app?vid=5ed52529-1ff6-4f3b-9de3-faa1ac8310d9","ios":"levelo://app?vid=5ed52529-1ff6-4f3b-9de3-faa1ac8310d9"},"vehicle_type_id":"4","last_reported":1728032986,"current_range_meters":10800,"station_id":"ce4bhah2rcd13ifvqei0","pricing_plan_id":"cebpf4jnsgd1na2vs0mg"},{"bike_id":"d1038e68-2366-4bc6-a30f-2029cfd50ea5","system_id":"levelo_inurba_marseille","lat":43.290029,"lon":5.356161,"is_reserved":false,"is_disabled":false,"rental_uris":{"android":"levelo://app?vid=d1038e68-2366-4bc6-a30f-2029cfd50ea5","ios":"levelo://app?vid=d1038e68-2366-4bc6-a30f-2029cfd50ea5"},"vehicle_type_id":"4","last_reported":1728032986,"current_range_meters":8000,"station_id":"ce4bgrh2rcd13ifvqc8g","pricing_plan_id":"cebpf4jnsgd1na2vs0mg"},{"bike_id":"77c59eab-5250-44c4-be86-099c0defe9c4","system_id":"levelo_inurba_marseille","lat":43.3375,"lon":5.37465,"is_reserved":false,"is_disabled":false,"rental_uris":{"android":"levelo://app?vid=77c59eab-5250-44c4-be86-099c0defe9c4","ios":"levelo://app?vid=77c59eab-5250-44c4-be86-099c0defe9c4"},"vehicle_type_id":"4","last_reported":1728032986,"current_range_meters":32800,"station_id":"","pricing_plan_id":"cebpf4jnsgd1na2vs0mg"},{"bike_id":"e052c56b-a9fa-42db-b4d4-f2cf18c3590e","system_id":"levelo_inurba_marseille","lat":43.26938,"lon":5.40254,"is_reserved":false,"is_disabled":false,"rental_uris":{"android":"levelo://app?vid=e052c56b-a9fa-42db-b4d4-f2cf18c3590e","ios":"levelo://app?vid=e052c56b-a9fa-42db-b4d4-f2cf18c3590e"},"vehicle_type_id":"4","last_reported":1728032986,"current_range_meters":38800,"station_id":"cjm6bp8fraef2m0cb0m0","pricing_plan_id":"cebpf4jnsgd1na2vs0mg"},{"bike_id":"415a18a2-1c03-47e6-954d-ae3ff654b9f9","system_id":"levelo_inurba_marseille","lat":43.31351,"lon":5.36707,"is_reserved":false,"is_disabled":false,"rental_uris":{"android":"levelo://app?vid=415a18a2-1c03-47e6-954d-ae3ff654b9f9","ios":"levelo://app?vid=415a18a2-1c03-47e6-954d-ae3ff654b9f9"},"vehicle_type_id":"4","last_reported":1728032986,"current_range_meters":20800,"station_id":"ce4bgr92rcd13ifvqc6g","pricing_plan_id":"cebpf4jnsgd1na2vs0mg"},{"bike_id":"9ea91f6a-6916-466f-a2e3-ae74f9e950f6","system_id":"levelo_inurba_marseille","lat":43.23148,"lon":5.43718,"is_reserved":false,"is_disabled":false,"rental_uris":{"android":"levelo://app?vid=9ea91f6a-6916-466f-a2e3-ae74f9e950f6","ios":"levelo://app?vid=9ea91f6a-6916-466f-a2e3-ae74f9e950f6"},"vehicle_type_id":"4","last_reported":1728032986,"current_range_meters":26000,"station_id":"ce4bhmp2rcd13ifvqgog","pricing_plan_id":"cebpf4jnsgd1na2vs0mg"},{"bike_id":"ed986028-59e1-4a0c-9fb4-d4662c5f76ac","system_id":"levelo_inurba_marseille","lat":43.30804,"lon":5.38138,"is_reserved":false,"is_disabled":false,"rental_uris":{"android":"levelo://app?vid=ed986028-59e1-4a0c-9fb4-d4662c5f76ac","ios":"levelo://app?vid=ed986028-59e1-4a0c-9fb4-d4662c5f76ac"},"vehicle_type_id":"4","last_reported":1728032986,"current_range_meters":28800,"station_id":"ce4bgt12rcd13ifvqce0","pricing_plan_id":"cebpf4jnsgd1na2vs0mg"},{"bike_id":"09648bcd-aff3-4e5d-a358-b65c5d88ce54","system_id":"levelo_inurba_marseille","lat":43.24987,"lon":5.3893,"is_reserved":false,"is_disabled":false,"rental_uris":{"android":"levelo://app?vid=09648bcd-aff3-4e5d-a358-b65c5d88ce54","ios":"levelo://app?vid=09648bcd-aff3-4e5d-a358-b65c5d88ce54"},"vehicle_type_id":"4","last_reported":1728032986,"current_range_meters":35600,"station_id":"ce4bhgp2rcd13ifvqfd0","pricing_plan_id":"cebpf4jnsgd1na2vs0mg"},{"bike_id":"7635344c-5dc6-4eef-a060-b6e2626d3f06","system_id":"levelo_inurba_marseille","lat":43.27623,"lon":5.36107,"is_reserved":false,"is_disabled":false,"rental_uris":{"android":"levelo://app?vid=7635344c-5dc6-4eef-a060-b6e2626d3f06","ios":"levelo://app?vid=7635344c-5dc6-4eef-a060-b6e2626d3f06"},"vehicle_type_id":"4","last_reported":1728032986,"current_range_meters":8400,"station_id":"ce4bgj92rcd13ifvqbe0","pricing_plan_id":"cebpf4jnsgd1na2vs0mg"},{"bike_id":"a2673666-9798-4ee6-86dc-2ca3bd10830a","system_id":"levelo_inurba_marseille","lat":43.309601,"lon":5.390455,"is_reserved":false,"is_disabled":false,"rental_uris":{"android":"levelo://app?vid=a2673666-9798-4ee6-86dc-2ca3bd10830a","ios":"levelo://app?vid=a2673666-9798-4ee6-86dc-2ca3bd10830a"},"vehicle_type_id":"4","last_reported":1728032986,"current_range_meters":12400,"station_id":"ce4bgup2rcd13ifvqco0","pricing_plan_id":"cebpf4jnsgd1na2vs0mg"},{"bike_id":"178c762e-7366-46b0-b460-28987156e29f","system_id":"levelo_inurba_marseille","lat":43.31071,"lon":5.42432,"is_reserved":false,"is_disabled":false,"rental_uris":{"android":"levelo://app?vid=178c762e-7366-46b0-b460-28987156e29f","ios":"levelo://app?vid=178c762e-7366-46b0-b460-28987156e29f"},"vehicle_type_id":"4","last_reported":1728032986,"current_range_meters":38800,"station_id":"ce4bhp92rcd13ifvqhag","pricing_plan_id":"cebpf4jnsgd1na2vs0mg"},{"bike_id":"71a85321-cdd0-4b0c-9a38-c490afade47c","system_id":"levelo_inurba_marseille","lat":43.29221,"lon":5.36053,"is_reserved":false,"is_disabled":false,"rental_uris":{"android":"levelo://app?vid=71a85321-cdd0-4b0c-9a38-c490afade47c","ios":"levelo://app?vid=71a85321-cdd0-4b0c-9a38-c490afade47c"},"vehicle_type_id":"4","last_reported":1728032986,"current_range_meters":38400,"station_id":"ce4bhbh2rcd13ifvqeqg","pricing_plan_id":"cebpf4jnsgd1na2vs0mg"},{"bike_id":"443d2c56-3936-46a8-ad96-abd3b851ff15","system_id":"levelo_inurba_marseille","lat":43.29021,"lon":5.39962,"is_reserved":false,"is_disabled":false,"rental_uris":{"android":"levelo://app?vid=443d2c56-3936-46a8-ad96-abd3b851ff15","ios":"levelo://app?vid=443d2c56-3936-46a8-ad96-abd3b851ff15"},"vehicle_type_id":"4","last_reported":1728032986,"current_range_meters":36400,"station_id":"ce4bhop2rcd13ifvqh8g","pricing_plan_id":"cebpf4jnsgd1na2vs0mg"},{"bike_id":"55909299-71f6-4879-b28a-2d28fae91c6d","system_id":"levelo_inurba_marseille","lat":43.33606,"lon":5.41024,"is_reserved":false,"is_disabled":false,"rental_uris":{"android":"levelo://app?vid=55909299-71f6-4879-b28a-2d28fae91c6d","ios":"levelo://app?vid=55909299-71f6-4879-b28a-2d28fae91c6d"},"vehicle_type_id":"4","last_reported":1728032986,"current_range_meters":14000,"station_id":"ce4bhqh2rcd13ifvqhmg","pricing_plan_id":"cebpf4jnsgd1na2vs0mg"},{"bike_id":"690c1146-a8cd-495f-94f6-c94b70c09ae9","system_id":"levelo_inurba_marseille","lat":43.26677,"lon":5.38267,"is_reserved":false,"is_disabled":false,"rental_uris":{"android":"levelo://app?vid=690c1146-a8cd-495f-94f6-c94b70c09ae9","ios":"levelo://app?vid=690c1146-a8cd-495f-94f6-c94b70c09ae9"},"vehicle_type_id":"4","last_reported":1728032986,"current_range_meters":38000,"station_id":"ce4bhg92rcd13ifvqf90","pricing_plan_id":"cebpf4jnsgd1na2vs0mg"},{"bike_id":"030e3a63-64cb-4cc5-9518-4b9dee8accde","system_id":"levelo_inurba_marseille","lat":43.27491,"lon":5.42455,"is_reserved":false,"is_disabled":false,"rental_uris":{"android":"levelo://app?vid=030e3a63-64cb-4cc5-9518-4b9dee8accde","ios":"levelo://app?vid=030e3a63-64cb-4cc5-9518-4b9dee8accde"},"vehicle_type_id":"4","last_reported":1728032986,"current_range_meters":17600,"station_id":"ce4bhn92rcd13ifvqgrg","pricing_plan_id":"cebpf4jnsgd1na2vs0mg"},{"bike_id":"fdb68aa5-0a31-4ff3-9837-ee5d5fa5bae6","system_id":"levelo_inurba_marseille","lat":43.23152,"lon":5.43702,"is_reserved":false,"is_disabled":false,"rental_uris":{"android":"levelo://app?vid=fdb68aa5-0a31-4ff3-9837-ee5d5fa5bae6","ios":"levelo://app?vid=fdb68aa5-0a31-4ff3-9837-ee5d5fa5bae6"},"vehicle_type_id":"4","last_reported":1728032986,"current_range_meters":40000,"station_id":"ce4bhmp2rcd13ifvqgog","pricing_plan_id":"cebpf4jnsgd1na2vs0mg"},{"bike_id":"01933f8e-ab3d-4a50-87e1-a540b46ae5f1","system_id":"levelo_inurba_marseille","lat":43.33607,"lon":5.41026,"is_reserved":false,"is_disabled":false,"rental_uris":{"android":"levelo://app?vid=01933f8e-ab3d-4a50-87e1-a540b46ae5f1","ios":"levelo://app?vid=01933f8e-ab3d-4a50-87e1-a540b46ae5f1"},"vehicle_type_id":"4","last_reported":1728032986,"current_range_meters":26000,"station_id":"ce4bhqh2rcd13ifvqhmg","pricing_plan_id":"cebpf4jnsgd1na2vs0mg"},{"bike_id":"ec15d814-ee9e-4140-9be4-5f754c0b8f6b","system_id":"levelo_inurba_marseille","lat":43.32547,"lon":5.41436,"is_reserved":false,"is_disabled":false,"rental_uris":{"android":"levelo://app?vid=ec15d814-ee9e-4140-9be4-5f754c0b8f6b","ios":"levelo://app?vid=ec15d814-ee9e-4140-9be4-5f754c0b8f6b"},"vehicle_type_id":"4","last_reported":1728032986,"current_range_meters":24400,"station_id":"ce4bhq12rcd13ifvqhhg","pricing_plan_id":"cebpf4jnsgd1na2vs0mg"},{"bike_id":"897742eb-dae7-4404-bc2b-287c341b8005","system_id":"levelo_inurba_marseille","lat":43.23877,"lon":5.365339,"is_reserved":false,"is_disabled":false,"rental_uris":{"android":"levelo://app?vid=897742eb-dae7-4404-bc2b-287c341b8005","ios":"levelo://app?vid=897742eb-dae7-4404-bc2b-287c341b8005"},"vehicle_type_id":"4","last_reported":1728032986,"current_range_meters":10800,"station_id":"ce4bhgh2rcd13ifvqfa0","pricing_plan_id":"cebpf4jnsgd1na2vs0mg"},{"bike_id":"5adde98e-347f-40b1-aa87-49f40f193764","system_id":"levelo_inurba_marseille","lat":43.2314,"lon":5.4372,"is_reserved":false,"is_disabled":false,"rental_uris":{"android":"levelo://app?vid=5adde98e-347f-40b1-aa87-49f40f193764","ios":"levelo://app?vid=5adde98e-347f-40b1-aa87-49f40f193764"},"vehicle_type_id":"4","last_reported":1728032986,"current_range_meters":21600,"station_id":"ce4bhmp2rcd13ifvqgog","pricing_plan_id":"cebpf4jnsgd1na2vs0mg"},{"bike_id":"81135a2f-3484-4943-8cb1-e9f527d2c044","system_id":"levelo_inurba_marseille","lat":43.23179,"lon":5.39976,"is_reserved":false,"is_disabled":false,"rental_uris":{"android":"levelo://app?vid=81135a2f-3484-4943-8cb1-e9f527d2c044","ios":"levelo://app?vid=81135a2f-3484-4943-8cb1-e9f527d2c044"},"vehicle_type_id":"4","last_reported":1728032986,"current_range_meters":12000,"station_id":"ce4bhn12rcd13ifvqgqg","pricing_plan_id":"cebpf4jnsgd1na2vs0mg"},{"bike_id":"4317c8e5-984f-4071-9b79-4453eb3b1c72","system_id":"levelo_inurba_marseille","lat":43.31213,"lon":5.36842,"is_reserved":false,"is_disabled":false,"rental_uris":{"android":"levelo://app?vid=4317c8e5-984f-4071-9b79-4453eb3b1c72","ios":"levelo://app?vid=4317c8e5-984f-4071-9b79-4453eb3b1c72"},"vehicle_type_id":"4","last_reported":1728032986,"current_range_meters":40000,"station_id":"ce4bgl92rcd13ifvqbq0","pricing_plan_id":"cebpf4jnsgd1na2vs0mg"},{"bike_id":"7211bed2-8514-4169-9df5-9ea6b7b446bf","system_id":"levelo_inurba_marseille","lat":43.28615,"lon":5.35091,"is_reserved":false,"is_disabled":false,"rental_uris":{"android":"levelo://app?vid=7211bed2-8514-4169-9df5-9ea6b7b446bf","ios":"levelo://app?vid=7211bed2-8514-4169-9df5-9ea6b7b446bf"},"vehicle_type_id":"4","last_reported":1728032986,"current_range_meters":38800,"station_id":"ce4bhch2rcd13ifvqeug","pricing_plan_id":"cebpf4jnsgd1na2vs0mg"},{"bike_id":"3ece9deb-d376-400c-997a-ff5945157fa0","system_id":"levelo_inurba_marseille","lat":43.28993,"lon":5.35617,"is_reserved":false,"is_disabled":false,"rental_uris":{"android":"levelo://app?vid=3ece9deb-d376-400c-997a-ff5945157fa0","ios":"levelo://app?vid=3ece9deb-d376-400c-997a-ff5945157fa0"},"vehicle_type_id":"4","last_reported":1728032986,"current_range_meters":38800,"station_id":"ce4bhb92rcd13ifvqen0","pricing_plan_id":"cebpf4jnsgd1na2vs0mg"},{"bike_id":"10846743-4065-477f-b3b4-d00eb0133b71","system_id":"levelo_inurba_marseille","lat":43.30545,"lon":5.38425,"is_reserved":false,"is_disabled":false,"rental_uris":{"android":"levelo://app?vid=10846743-4065-477f-b3b4-d00eb0133b71","ios":"levelo://app?vid=10846743-4065-477f-b3b4-d00eb0133b71"},"vehicle_type_id":"4","last_reported":1728032986,"current_range_meters":7200,"station_id":"ce4bgg92rcd13ifvqb30","pricing_plan_id":"cebpf4jnsgd1na2vs0mg"},{"bike_id":"b1de2d2c-06c8-4cd3-a9c2-6a5c17f5b3bb","system_id":"levelo_inurba_marseille","lat":43.32207,"lon":5.38551,"is_reserved":false,"is_disabled":false,"rental_uris":{"android":"levelo://app?vid=b1de2d2c-06c8-4cd3-a9c2-6a5c17f5b3bb","ios":"levelo://app?vid=b1de2d2c-06c8-4cd3-a9c2-6a5c17f5b3bb"},"vehicle_type_id":"4","last_reported":1728032986,"current_range_meters":12800,"station_id":"","pricing_plan_id":"cebpf4jnsgd1na2vs0mg"},{"bike_id":"7004d96e-fcb9-4de6-af28-9bd9984e354d","system_id":"levelo_inurba_marseille","lat":43.28347,"lon":5.38113,"is_reserved":false,"is_disabled":false,"rental_uris":{"android":"levelo://app?vid=7004d96e-fcb9-4de6-af28-9bd9984e354d","ios":"levelo://app?vid=7004d96e-fcb9-4de6-af28-9bd9984e354d"},"vehicle_type_id":"4","last_reported":1728032986,"current_range_meters":38800,"station_id":"ce4bh412rcd13ifvqdr0","pricing_plan_id":"cebpf4jnsgd1na2vs0mg"},{"bike_id":"e17941b4-3c6a-4418-9c0f-49cf47732ac2","system_id":"levelo_inurba_marseille","lat":43.27828,"lon":5.39193,"is_reserved":false,"is_disabled":false,"rental_uris":{"android":"levelo://app?vid=e17941b4-3c6a-4418-9c0f-49cf47732ac2","ios":"levelo://app?vid=e17941b4-3c6a-4418-9c0f-49cf47732ac2"},"vehicle_type_id":"4","last_reported":1728032986,"current_range_meters":36400,"station_id":"ce4bhjp2rcd13ifvqga0","pricing_plan_id":"cebpf4jnsgd1na2vs0mg"},{"bike_id":"9bb7dc9b-7ab1-4765-8110-1795fb5a48d1","system_id":"levelo_inurba_marseille","lat":43.23956,"lon":5.36637,"is_reserved":false,"is_disabled":false,"rental_uris":{"android":"levelo://app?vid=9bb7dc9b-7ab1-4765-8110-1795fb5a48d1","ios":"levelo://app?vid=9bb7dc9b-7ab1-4765-8110-1795fb5a48d1"},"vehicle_type_id":"4","last_reported":1728032986,"current_range_meters":36000,"station_id":"ce4bhi12rcd13ifvqfp0","pricing_plan_id":"cebpf4jnsgd1na2vs0mg"},{"bike_id":"1e4b9dd3-b33a-4d2a-8266-ed32618ab5b8","system_id":"levelo_inurba_marseille","lat":43.23151,"lon":5.4372,"is_reserved":false,"is_disabled":false,"rental_uris":{"android":"levelo://app?vid=1e4b9dd3-b33a-4d2a-8266-ed32618ab5b8","ios":"levelo://app?vid=1e4b9dd3-b33a-4d2a-8266-ed32618ab5b8"},"vehicle_type_id":"4","last_reported":1728032986,"current_range_meters":22000,"station_id":"ce4bhmp2rcd13ifvqgog","pricing_plan_id":"cebpf4jnsgd1na2vs0mg"},{"bike_id":"ce0b829a-2254-4204-985d-c93b50c29d74","system_id":"levelo_inurba_marseille","lat":43.31353,"lon":5.36712,"is_reserved":false,"is_disabled":false,"rental_uris":{"android":"levelo://app?vid=ce0b829a-2254-4204-985d-c93b50c29d74","ios":"levelo://app?vid=ce0b829a-2254-4204-985d-c93b50c29d74"},"vehicle_type_id":"4","last_reported":1728032986,"current_range_meters":21600,"station_id":"ce4bgr92rcd13ifvqc6g","pricing_plan_id":"cebpf4jnsgd1na2vs0mg"},{"bike_id":"50c629b4-c824-4608-a8d3-dc2c94b579f0","system_id":"levelo_inurba_marseille","lat":43.246189,"lon":5.373682,"is_reserved":false,"is_disabled":false,"rental_uris":{"android":"levelo://app?vid=50c629b4-c824-4608-a8d3-dc2c94b579f0","ios":"levelo://app?vid=50c629b4-c824-4608-a8d3-dc2c94b579f0"},"vehicle_type_id":"4","last_reported":1728032986,"current_range_meters":30000,"station_id":"","pricing_plan_id":"cebpf4jnsgd1na2vs0mg"},{"bike_id":"d7877609-6b5f-4f1b-b1e9-67841d44573b","system_id":"levelo_inurba_marseille","lat":43.29548,"lon":5.42284,"is_reserved":false,"is_disabled":false,"rental_uris":{"android":"levelo://app?vid=d7877609-6b5f-4f1b-b1e9-67841d44573b","ios":"levelo://app?vid=d7877609-6b5f-4f1b-b1e9-67841d44573b"},"vehicle_type_id":"4","last_reported":1728032986,"current_range_meters":22400,"station_id":"ce4bhph2rcd13ifvqhdg","pricing_plan_id":"cebpf4jnsgd1na2vs0mg"},{"bike_id":"411a622e-0c64-4ae7-ab3a-3b4f2603408c","system_id":"levelo_inurba_marseille","lat":43.29899,"lon":5.43657,"is_reserved":false,"is_disabled":false,"rental_uris":{"android":"levelo://app?vid=411a622e-0c64-4ae7-ab3a-3b4f2603408c","ios":"levelo://app?vid=411a622e-0c64-4ae7-ab3a-3b4f2603408c"},"vehicle_type_id":"4","last_reported":1728032986,"current_range_meters":23200,"station_id":"ce4bhpp2rcd13ifvqhfg","pricing_plan_id":"cebpf4jnsgd1na2vs0mg"},{"bike_id":"d9513a24-3235-43a7-b9a5-1c5cfe37603f","system_id":"levelo_inurba_marseille","lat":43.23056,"lon":5.35493,"is_reserved":false,"is_disabled":false,"rental_uris":{"android":"levelo://app?vid=d9513a24-3235-43a7-b9a5-1c5cfe37603f","ios":"levelo://app?vid=d9513a24-3235-43a7-b9a5-1c5cfe37603f"},"vehicle_type_id":"4","last_reported":1728032986,"current_range_meters":26000,"station_id":"cpo3342slgdg3j2ifvpg","pricing_plan_id":"cebpf4jnsgd1na2vs0mg"},{"bike_id":"5be211cc-1eeb-430c-8394-8f7c34501f47","system_id":"levelo_inurba_marseille","lat":43.29185,"lon":5.35798,"is_reserved":false,"is_disabled":false,"rental_uris":{"android":"levelo://app?vid=5be211cc-1eeb-430c-8394-8f7c34501f47","ios":"levelo://app?vid=5be211cc-1eeb-430c-8394-8f7c34501f47"},"vehicle_type_id":"4","last_reported":1728032986,"current_range_meters":36800,"station_id":"ce4bhb12rcd13ifvqel0","pricing_plan_id":"cebpf4jnsgd1na2vs0mg"},{"bike_id":"d2ba4607-b551-4d97-ac71-26a9c9efaa61","system_id":"levelo_inurba_marseille","lat":43.308873,"lon":5.371902,"is_reserved":false,"is_disabled":false,"rental_uris":{"android":"levelo://app?vid=d2ba4607-b551-4d97-ac71-26a9c9efaa61","ios":"levelo://app?vid=d2ba4607-b551-4d97-ac71-26a9c9efaa61"},"vehicle_type_id":"4","last_reported":1728032986,"current_range_meters":8800,"station_id":"ce4bgkp2rcd13ifvqbmg","pricing_plan_id":"cebpf4jnsgd1na2vs0mg"},{"bike_id":"7bdcdbb9-b52f-4b42-9e65-be051a80cf8b","system_id":"levelo_inurba_marseille","lat":43.32475,"lon":5.36571,"is_reserved":false,"is_disabled":false,"rental_uris":{"android":"levelo://app?vid=7bdcdbb9-b52f-4b42-9e65-be051a80cf8b","ios":"levelo://app?vid=7bdcdbb9-b52f-4b42-9e65-be051a80cf8b"},"vehicle_type_id":"4","last_reported":1728032986,"current_range_meters":9200,"station_id":"ce4bhs12rcd13ifvqhvg","pricing_plan_id":"cebpf4jnsgd1na2vs0mg"},{"bike_id":"543ff09a-661c-4c03-be88-1e31c098d9dc","system_id":"levelo_inurba_marseille","lat":43.28268,"lon":5.3507,"is_reserved":false,"is_disabled":false,"rental_uris":{"android":"levelo://app?vid=543ff09a-661c-4c03-be88-1e31c098d9dc","ios":"levelo://app?vid=543ff09a-661c-4c03-be88-1e31c098d9dc"},"vehicle_type_id":"4","last_reported":1728032986,"current_range_meters":16800,"station_id":"ce4bhbp2rcd13ifvqerg","pricing_plan_id":"cebpf4jnsgd1na2vs0mg"},{"bike_id":"5eec366d-54c2-4529-a741-f189af66b7a0","system_id":"levelo_inurba_marseille","lat":43.28361,"lon":5.38646,"is_reserved":false,"is_disabled":false,"rental_uris":{"android":"levelo://app?vid=5eec366d-54c2-4529-a741-f189af66b7a0","ios":"levelo://app?vid=5eec366d-54c2-4529-a741-f189af66b7a0"},"vehicle_type_id":"4","last_reported":1728032986,"current_range_meters":20000,"station_id":"ce4bh492rcd13ifvqdvg","pricing_plan_id":"cebpf4jnsgd1na2vs0mg"},{"bike_id":"4bd008e2-ced4-419f-9986-7bdf08969ddd","system_id":"levelo_inurba_marseille","lat":43.30909,"lon":5.36843,"is_reserved":false,"is_disabled":false,"rental_uris":{"android":"levelo://app?vid=4bd008e2-ced4-419f-9986-7bdf08969ddd","ios":"levelo://app?vid=4bd008e2-ced4-419f-9986-7bdf08969ddd"},"vehicle_type_id":"4","last_reported":1728032986,"current_range_meters":38800,"station_id":"ce4bgn92rcd13ifvqbvg","pricing_plan_id":"cebpf4jnsgd1na2vs0mg"},{"bike_id":"94646036-55a2-442b-ab35-2a27fcb1b5cf","system_id":"levelo_inurba_marseille","lat":43.28151,"lon":5.42646,"is_reserved":false,"is_disabled":false,"rental_uris":{"android":"levelo://app?vid=94646036-55a2-442b-ab35-2a27fcb1b5cf","ios":"levelo://app?vid=94646036-55a2-442b-ab35-2a27fcb1b5cf"},"vehicle_type_id":"4","last_reported":1728032986,"current_range_meters":9600,"station_id":"ce4bhnh2rcd13ifvqgug","pricing_plan_id":"cebpf4jnsgd1na2vs0mg"},{"bike_id":"7faff167-2a88-4b81-842c-80e3f85782cb","system_id":"levelo_inurba_marseille","lat":43.24382,"lon":5.37054,"is_reserved":false,"is_disabled":false,"rental_uris":{"android":"levelo://app?vid=7faff167-2a88-4b81-842c-80e3f85782cb","ios":"levelo://app?vid=7faff167-2a88-4b81-842c-80e3f85782cb"},"vehicle_type_id":"4","last_reported":1728032986,"current_range_meters":29600,"station_id":"ce4bhhh2rcd13ifvqfk0","pricing_plan_id":"cebpf4jnsgd1na2vs0mg"},{"bike_id":"dc852ba8-32f2-497f-a66a-6178eae58d48","system_id":"levelo_inurba_marseille","lat":43.32484,"lon":5.36568,"is_reserved":false,"is_disabled":false,"rental_uris":{"android":"levelo://app?vid=dc852ba8-32f2-497f-a66a-6178eae58d48","ios":"levelo://app?vid=dc852ba8-32f2-497f-a66a-6178eae58d48"},"vehicle_type_id":"4","last_reported":1728032986,"current_range_meters":20800,"station_id":"ce4bhs12rcd13ifvqhvg","pricing_plan_id":"cebpf4jnsgd1na2vs0mg"},{"bike_id":"9747af5d-a0c2-40ce-90c7-995000a693ea","system_id":"levelo_inurba_marseille","lat":43.29021,"lon":5.3757,"is_reserved":false,"is_disabled":false,"rental_uris":{"android":"levelo://app?vid=9747af5d-a0c2-40ce-90c7-995000a693ea","ios":"levelo://app?vid=9747af5d-a0c2-40ce-90c7-995000a693ea"},"vehicle_type_id":"4","last_reported":1728032986,"current_range_meters":32400,"station_id":"ce4bh692rcd13ifvqe90","pricing_plan_id":"cebpf4jnsgd1na2vs0mg"},{"bike_id":"76c253f8-352c-4cad-990f-87549ac44fd1","system_id":"levelo_inurba_marseille","lat":43.25107,"lon":5.40315,"is_reserved":false,"is_disabled":false,"rental_uris":{"android":"levelo://app?vid=76c253f8-352c-4cad-990f-87549ac44fd1","ios":"levelo://app?vid=76c253f8-352c-4cad-990f-87549ac44fd1"},"vehicle_type_id":"4","last_reported":1728032986,"current_range_meters":38800,"station_id":"ce4bhlh2rcd13ifvqgig","pricing_plan_id":"cebpf4jnsgd1na2vs0mg"},{"bike_id":"8853b16c-0a6a-451b-8f3d-b276dca63080","system_id":"levelo_inurba_marseille","lat":43.30904,"lon":5.36845,"is_reserved":false,"is_disabled":false,"rental_uris":{"android":"levelo://app?vid=8853b16c-0a6a-451b-8f3d-b276dca63080","ios":"levelo://app?vid=8853b16c-0a6a-451b-8f3d-b276dca63080"},"vehicle_type_id":"4","last_reported":1728032986,"current_range_meters":38800,"station_id":"ce4bgn92rcd13ifvqbvg","pricing_plan_id":"cebpf4jnsgd1na2vs0mg"},{"bike_id":"30720952-ee38-4354-a49b-8ae560cd6740","system_id":"levelo_inurba_marseille","lat":43.28716,"lon":5.37925,"is_reserved":false,"is_disabled":false,"rental_uris":{"android":"levelo://app?vid=30720952-ee38-4354-a49b-8ae560cd6740","ios":"levelo://app?vid=30720952-ee38-4354-a49b-8ae560cd6740"},"vehicle_type_id":"4","last_reported":1728032986,"current_range_meters":28400,"station_id":"ce4bh9p2rcd13ifvqec0","pricing_plan_id":"cebpf4jnsgd1na2vs0mg"},{"bike_id":"b378dfd1-c1cc-4a36-864e-c1a62b564295","system_id":"levelo_inurba_marseille","lat":43.2314,"lon":5.43709,"is_reserved":false,"is_disabled":false,"rental_uris":{"android":"levelo://app?vid=b378dfd1-c1cc-4a36-864e-c1a62b564295","ios":"levelo://app?vid=b378dfd1-c1cc-4a36-864e-c1a62b564295"},"vehicle_type_id":"4","last_reported":1728032986,"current_range_meters":18800,"station_id":"ce4bhmp2rcd13ifvqgog","pricing_plan_id":"cebpf4jnsgd1na2vs0mg"},{"bike_id":"66d2f759-0ae7-4f71-aaee-fcaf2b54753c","system_id":"levelo_inurba_marseille","lat":43.29283,"lon":5.40108,"is_reserved":false,"is_disabled":false,"rental_uris":{"android":"levelo://app?vid=66d2f759-0ae7-4f71-aaee-fcaf2b54753c","ios":"levelo://app?vid=66d2f759-0ae7-4f71-aaee-fcaf2b54753c"},"vehicle_type_id":"4","last_reported":1728032986,"current_range_meters":27600,"station_id":"ce4bh312rcd13ifvqdk0","pricing_plan_id":"cebpf4jnsgd1na2vs0mg"},{"bike_id":"aa4f89d2-2d5c-42e9-a004-4c91200c622a","system_id":"levelo_inurba_marseille","lat":43.28462,"lon":5.35886,"is_reserved":false,"is_disabled":false,"rental_uris":{"android":"levelo://app?vid=aa4f89d2-2d5c-42e9-a004-4c91200c622a","ios":"levelo://app?vid=aa4f89d2-2d5c-42e9-a004-4c91200c622a"},"vehicle_type_id":"4","last_reported":1728032986,"current_range_meters":16800,"station_id":"ce4bhah2rcd13ifvqei0","pricing_plan_id":"cebpf4jnsgd1na2vs0mg"},{"bike_id":"eb387d80-1a2b-4338-9dfc-d920fff731e3","system_id":"levelo_inurba_marseille","lat":43.23143,"lon":5.43721,"is_reserved":false,"is_disabled":false,"rental_uris":{"android":"levelo://app?vid=eb387d80-1a2b-4338-9dfc-d920fff731e3","ios":"levelo://app?vid=eb387d80-1a2b-4338-9dfc-d920fff731e3"},"vehicle_type_id":"4","last_reported":1728032986,"current_range_meters":39200,"station_id":"ce4bhmp2rcd13ifvqgog","pricing_plan_id":"cebpf4jnsgd1na2vs0mg"},{"bike_id":"36c4123b-82ca-4ed0-928e-ff1d6f049d0c","system_id":"levelo_inurba_marseille","lat":43.28845,"lon":5.35822,"is_reserved":false,"is_disabled":false,"rental_uris":{"android":"levelo://app?vid=36c4123b-82ca-4ed0-928e-ff1d6f049d0c","ios":"levelo://app?vid=36c4123b-82ca-4ed0-928e-ff1d6f049d0c"},"vehicle_type_id":"4","last_reported":1728032986,"current_range_meters":38000,"station_id":"ce4bhb12rcd13ifvqem0","pricing_plan_id":"cebpf4jnsgd1na2vs0mg"},{"bike_id":"1e9b4922-7136-4c5b-bc46-f91eb6853e5c","system_id":"levelo_inurba_marseille","lat":43.28443,"lon":5.39205,"is_reserved":false,"is_disabled":false,"rental_uris":{"android":"levelo://app?vid=1e9b4922-7136-4c5b-bc46-f91eb6853e5c","ios":"levelo://app?vid=1e9b4922-7136-4c5b-bc46-f91eb6853e5c"},"vehicle_type_id":"4","last_reported":1728032986,"current_range_meters":11600,"station_id":"ce4bhoh2rcd13ifvqh5g","pricing_plan_id":"cebpf4jnsgd1na2vs0mg"},{"bike_id":"50115991-6619-4361-a39f-dabb0da4bdf1","system_id":"levelo_inurba_marseille","lat":43.30279,"lon":5.3771,"is_reserved":false,"is_disabled":false,"rental_uris":{"android":"levelo://app?vid=50115991-6619-4361-a39f-dabb0da4bdf1","ios":"levelo://app?vid=50115991-6619-4361-a39f-dabb0da4bdf1"},"vehicle_type_id":"4","last_reported":1728032986,"current_range_meters":6400,"station_id":"ce4bguh2rcd13ifvqcj0","pricing_plan_id":"cebpf4jnsgd1na2vs0mg"},{"bike_id":"5a4eacb2-41f6-4697-a119-a1538a7097f5","system_id":"levelo_inurba_marseille","lat":43.26924,"lon":5.38911,"is_reserved":false,"is_disabled":false,"rental_uris":{"android":"levelo://app?vid=5a4eacb2-41f6-4697-a119-a1538a7097f5","ios":"levelo://app?vid=5a4eacb2-41f6-4697-a119-a1538a7097f5"},"vehicle_type_id":"4","last_reported":1728032986,"current_range_meters":36400,"station_id":"ce4bhhh2rcd13ifvqfl0","pricing_plan_id":"cebpf4jnsgd1na2vs0mg"},{"bike_id":"613dddd7-b6d5-4ce7-b0cc-11c99bc21e50","system_id":"levelo_inurba_marseille","lat":43.30542,"lon":5.36707,"is_reserved":false,"is_disabled":false,"rental_uris":{"android":"levelo://app?vid=613dddd7-b6d5-4ce7-b0cc-11c99bc21e50","ios":"levelo://app?vid=613dddd7-b6d5-4ce7-b0cc-11c99bc21e50"},"vehicle_type_id":"4","last_reported":1728032986,"current_range_meters":33200,"station_id":"ce4bgrp2rcd13ifvqc9g","pricing_plan_id":"cebpf4jnsgd1na2vs0mg"},