{"last_updated":1746864742,"ttl":60,"version":"2.2","data":{"bikes":[{"bike_id":"c0b9fd4f-e181-46ce-b0bf-f5119973334f","system_id":"levelo_inurba_marseille","lat":43.33771,"lon":5.37424,"is_reserved":false,"is_disabled":false,"rental_uris":{"android":"levelo://app?vid=c0b9fd4f-e181-46ce-b0bf-f5119973334f","ios":"levelo://app?vid=c0b9fd4f-e181-46ce-b0bf-f5119973334f"},"vehicle_type_id":"4","last_reported":1746864742,"current_range_meters":38000,"station_id":"","pricing_plan_id":"cebpf4jnsgd1na2vs0mg"},{"bike_id":"c8142ff4-c608-4b73-ac6a-4859689a35ab","system_id":"levelo_inurba_marseille","lat":43.284021,"lon":5.431299,"is_reserved":false,"is_disabled":true,"rental_uris":{"android":"levelo://app?vid=c8142ff4-c608-4b73-ac6a-4859689a35ab","ios":"levelo://app?vid=c8142ff4-c608-4b73-ac6a-4859689a35ab"},"vehicle_type_id":"4","last_reported":1746864742,"current_range_meters":0,"station_id":"","pricing_plan_id":"cebpf4jnsgd1na2vs0mg"},{"bike_id":"c8dca4bb-e856-4aef-9de5-3814d0eb9ded","system_id":"levelo_inurba_marseille","lat":43.281573,"lon":5.404715,"is_reserved":false,"is_disabled":true,"rental_uris":{"android":"levelo://app?vid=c8dca4bb-e856-4aef-9de5-3814d0eb9ded","ios":"levelo://app?vid=c8dca4bb-e856-4aef-9de5-3814d0eb9ded"},"vehicle_type_id":"4","last_reported":1746864742,"current_range_meters":0,"station_id":"","pricing_plan_id":"cebpf4jnsgd1na2vs0mg"},{"bike_id":"06af7eed-e121-4b01-a1d5-73b129d913ea","system_id":"levelo_inurba_marseille","lat":43.29741,"lon":5.46014,"is_reserved":false,"is_disabled":true,"rental_uris":{"android":"levelo://app?vid=06af7eed-e121-4b01-a1d5-73b129d913ea","ios":"levelo://app?vid=06af7eed-e121-4b01-a1d5-73b129d913ea"},"vehicle_type_id":"4","last_reported":1746864742,"current_range_meters":0,"station_id":"","pricing_plan_id":"cebpf4jnsgd1na2vs0mg"},{"bike_id":"a72028ca-425b-4f2c-9e2d-16be28a01f65","system_id":"levelo_inurba_marseille","lat":43.26016,"lon":5.41735,"is_reserved":false,"is_disabled":true,"rental_uris":{"android":"levelo://app?vid=a72028ca-425b-4f2c-9e2d-16be28a01f65","ios":"levelo://app?vid=a72028ca-425b-4f2c-9e2d-16be28a01f65"},"vehicle_type_id":"4","last_reported":1746864742,"current_range_meters":0,"station_id":"","pricing_plan_id":"cebpf4jnsgd1na2vs0mg"},{"bike_id":"e43d995b-a136-4201-b650-ca62eacfe18a","system_id":"levelo_inurba_marseille","lat":43.27136,"lon":5.36371,"is_reserved":false,"is_disabled":true,"rental_uris":{"android":"levelo://app?vid=e43d995b-a136-4201-b650-ca62eacfe18a","ios":"levelo://app?vid=e43d995b-a136-4201-b650-ca62eacfe18a"},"vehicle_type_id":"4","last_reported":1746864742,"current_range_meters":0,"station_id":"","pricing_plan_id":"cebpf4jnsgd1na2vs0mg"},{"bike_id":"689d1ebc-80c1-4c8c-9647-6e072db7ae2b","system_id":"levelo_inurba_marseille","lat":43.26897,"lon":5.36941,"is_reserved":false,"is_disabled":true,"rental_uris":{"android":"levelo://app?vid=689d1ebc-80c1-4c8c-9647-6e072db7ae2b","ios":"levelo://app?vid=689d1ebc-80c1-4c8c-9647-6e072db7ae2b"},"vehicle_type_id":"4","last_reported":1746864742,"current_range_meters":0,"station_id":"","pricing_plan_id":"cebpf4jnsgd1na2vs0mg"},{"bike_id":"87b83d9b-eee9-4cd8-aa5b-c09b2b260155","system_id":"levelo_inurba_marseille","lat":43.29337,"lon":5.475951,"is_reserved":false,"is_disabled":true,"rental_uris":{"android":"levelo://app?vid=87b83d9b-eee9-4cd8-aa5b-c09b2b260155","ios":"levelo://app?vid=87b83d9b-eee9-4cd8-aa5b-c09b2b260155"},"vehicle_type_id":"4","last_reported":1746864742,"current_range_meters":0,"station_id":"","pricing_plan_id":"cebpf4jnsgd1na2vs0mg"},{"bike_id":"a99252aa-8af3-4ece-8d77-10a1e103a68c","system_id":"levelo_inurba_marseille","lat":43.29347,"lon":5.42848,"is_reserved":false,"is_disabled":true,"rental_uris":{"android":"levelo://app?vid=a99252aa-8af3-4ece-8d77-10a1e103a68c","ios":"levelo://app?vid=a99252aa-8af3-4ece-8d77-10a1e103a68c"},"vehicle_type_id":"4","last_reported":1746864742,"current_range_meters":0,"station_id":"","pricing_plan_id":"cebpf4jnsgd1na2vs0mg"},{"bike_id":"a3b074c6-b5b1-43bf-bf61-817071a6946d","system_id":"levelo_inurba_marseille","lat":43.30301,"lon":5.39206,"is_reserved":false,"is_disabled":true,"rental_uris":{"android":"levelo://app?vid=a3b074c6-b5b1-43bf-bf61-817071a6946d","ios":"levelo://app?vid=a3b074c6-b5b1-43bf-bf61-817071a6946d"},"vehicle_type_id":"4","last_reported":1746864742,"current_range_meters":0,"station_id":"ce4bgkh2rcd13ifvqbk0","pricing_plan_id":"cebpf4jnsgd1na2vs0mg"},{"bike_id":"72595a61-6b23-4b5b-bdf7-0727e99dbb31","system_id":"levelo_inurba_marseille","lat":43.26573,"lon":5.3902,"is_reserved":false,"is_disabled":true,"rental_uris":{"android":"levelo://app?vid=72595a61-6b23-4b5b-bdf7-0727e99dbb31","ios":"levelo://app?vid=72595a61-6b23-4b5b-bdf7-0727e99dbb31"},"vehicle_type_id":"4","last_reported":1746864742,"current_range_meters":0,"station_id":"ce4bhe12rcd13ifvqf30","pricing_plan_id":"cebpf4jnsgd1na2vs0mg"},{"bike_id":"660e880e-350b-45e4-9c6e-78b223e09225","system_id":"levelo_inurba_marseille","lat":43.23153,"lon":5.437247,"is_reserved":false,"is_disabled":true,"rental_uris":{"android":"levelo://app?vid=660e880e-350b-45e4-9c6e-78b223e09225","ios":"levelo://app?vid=660e880e-350b-45e4-9c6e-78b223e09225"},"vehicle_type_id":"4","last_reported":1746864742,"current_range_meters":0,"station_id":"ce4bhmp2rcd13ifvqgog","pricing_plan_id":"cebpf4jnsgd1na2vs0mg"},{"bike_id":"39fee3b6-7972-4229-8d58-1bba2febac66","system_id":"levelo_inurba_marseille","lat":43.2174,"lon":5.34605,"is_reserved":false,"is_disabled":true,"rental_uris":{"android":"levelo://app?vid=39fee3b6-7972-4229-8d58-1bba2febac66","ios":"levelo://app?vid=39fee3b6-7972-4229-8d58-1bba2febac66"},"vehicle_type_id":"4","last_reported":1746864742,"current_range_meters":0,"station_id":"st_cvj6r9ubvosntc0bgbag","pricing_plan_id":"cebpf4jnsgd1na2vs0mg"},{"bike_id":"ee3ccf5c-3166-40f5-b4ed-0704f67af1cf","system_id":"levelo_inurba_marseille","lat":43.21743,"lon":5.3461,"is_reserved":false,"is_disabled":true,"rental_uris":{"android":"levelo://app?vid=ee3ccf5c-3166-40f5-b4ed-0704f67af1cf","ios":"levelo://app?vid=ee3ccf5c-3166-40f5-b4ed-0704f67af1cf"},"vehicle_type_id":"4","last_reported":1746864742,"current_range_meters":0,"station_id":"st_cvj6r9ubvosntc0bgbag","pricing_plan_id":"cebpf4jnsgd1na2vs0mg"},{"bike_id":"e70a6cc7-17eb-4c4e-8e7c-f66b5cfc0fab","system_id":"levelo_inurba_marseille","lat":43.21199,"lon":5.35069,"is_reserved":false,"is_disabled":true,"rental_uris":{"android":"levelo://app?vid=e70a6cc7-17eb-4c4e-8e7c-f66b5cfc0fab","ios":"levelo://app?vid=e70a6cc7-17eb-4c4e-8e7c-f66b5cfc0fab"},"vehicle_type_id":"4","last_reported":1746864742,"current_range_meters":0,"station_id":"st_cvj6sg6p6f1abm77japg","pricing_plan_id":"cebpf4jnsgd1na2vs0mg"},{"bike_id":"18452b03-a4ee-4d7b-97dd-53e50e3b842a","system_id":"levelo_inurba_marseille","lat":43.25082,"lon":5.39521,"is_reserved":false,"is_disabled":true,"rental_uris":{"android":"levelo://app?vid=18452b03-a4ee-4d7b-97dd-53e50e3b842a","ios":"levelo://app?vid=18452b03-a4ee-4d7b-97dd-53e50e3b842a"},"vehicle_type_id":"4","last_reported":1746864742,"current_range_meters":400,"station_id":"ce4bhm12rcd13ifvqgkg","pricing_plan_id":"cebpf4jnsgd1na2vs0mg"},{"bike_id":"9cd58adc-a46c-4a2e-b6c0-1b38e7673648","system_id":"levelo_inurba_marseille","lat":43.2902,"lon":5.39969,"is_reserved":false,"is_disabled":true,"rental_uris":{"android":"levelo://app?vid=9cd58adc-a46c-4a2e-b6c0-1b38e7673648","ios":"levelo://app?vid=9cd58adc-a46c-4a2e-b6c0-1b38e7673648"},"vehicle_type_id":"4","last_reported":1746864742,"current_range_meters":800,"station_id":"ce4bh392rcd13ifvqdm0","pricing_plan_id":"cebpf4jnsgd1na2vs0mg"},{"bike_id":"c2d37195-04d1-40f1-b528-dcb219039f56","system_id":"levelo_inurba_marseille","lat":43.31975,"lon":5.38161,"is_reserved":false,"is_disabled":true,"rental_uris":{"android":"levelo://app?vid=c2d37195-04d1-40f1-b528-dcb219039f56","ios":"levelo://app?vid=c2d37195-04d1-40f1-b528-dcb219039f56"},"vehicle_type_id":"4","last_reported":1746864742,"current_range_meters":1200,"station_id":"ce4bhr12rcd13ifvqhpg","pricing_plan_id":"cebpf4jnsgd1na2vs0mg"},{"bike_id":"ae8948b3-abce-4551-a67e-bec399745565","system_id":"levelo_inurba_marseille","lat":43.29267,"lon":5.36852,"is_reserved":false,"is_disabled":true,"rental_uris":{"android":"levelo://app?vid=ae8948b3-abce-4551-a67e-bec399745565","ios":"levelo://app?vid=ae8948b3-abce-4551-a67e-bec399745565"},"vehicle_type_id":"4","last_reported":1746864742,"current_range_meters":1600,"station_id":"ce4bhbp2rcd13ifvqesg","pricing_plan_id":"cebpf4jnsgd1na2vs0mg"},{"bike_id":"3c6d0c37-471a-4ce7-b166-52edc6a87b8b","system_id":"levelo_inurba_marseille","lat":43.26218,"lon":5.404557,"is_reserved":false,"is_disabled":true,"rental_uris":{"android":"levelo://app?vid=3c6d0c37-471a-4ce7-b166-52edc6a87b8b","ios":"levelo://app?vid=3c6d0c37-471a-4ce7-b166-52edc6a87b8b"},"vehicle_type_id":"4","last_reported":1746864742,"current_range_meters":1600,"station_id":"ce4bhmh2rcd13ifvqgmg","pricing_plan_id":"cebpf4jnsgd1na2vs0mg"},{"bike_id":"3cd08c3f-eeb4-4c7e-b4b0-50bd91b46805","system_id":"levelo_inurba_marseille","lat":43.2846,"lon":5.35888,"is_reserved":false,"is_disabled":false,"rental_uris":{"android":"levelo://app?vid=3cd08c3f-eeb4-4c7e-b4b0-50bd91b46805","ios":"levelo://app?vid=3cd08c3f-eeb4-4c7e-b4b0-50bd91b46805"},"vehicle_type_id":"4","last_reported":1746864742,"current_range_meters":2000,"station_id":"ce4bhah2rcd13ifvqei0","pricing_plan_id":"cebpf4jnsgd1na2vs0mg"},{"bike_id":"66ac9d2c-f6e9-41cb-888b-63d22b0af06c","system_id":"levelo_inurba_marseille","lat":43.23151,"lon":5.43716,"is_reserved":false,"is_disabled":false,"rental_uris":{"android":"levelo://app?vid=66ac9d2c-f6e9-41cb-888b-63d22b0af06c","ios":"levelo://app?vid=66ac9d2c-f6e9-41cb-888b-63d22b0af06c"},"vehicle_type_id":"4","last_reported":1746864742,"current_range_meters":2800,"station_id":"ce4bhmp2rcd13ifvqgog","pricing_plan_id":"cebpf4jnsgd1na2vs0mg"},{"bike_id":"6e3610db-fdf0-40f8-9ef2-37e7547c1ad0","system_id":"levelo_inurba_marseille","lat":43.27499,"lon":5.42487,"is_reserved":false,"is_disabled":false,"rental_uris":{"android":"levelo://app?vid=6e3610db-fdf0-40f8-9ef2-37e7547c1ad0","ios":"levelo://app?vid=6e3610db-fdf0-40f8-9ef2-37e7547c1ad0"},"vehicle_type_id":"4","last_reported":1746864742,"current_range_meters":2800,"station_id":"ce4bhn92rcd13ifvqgrg","pricing_plan_id":"cebpf4jnsgd1na2vs0mg"},{"bike_id":"8a0eb219-0825-4873-8042-7ddafae48f5b","system_id":"levelo_inurba_marseille","lat":43.25864,"lon":5.39892,"is_reserved":false,"is_disabled":false,"rental_uris":{"android":"levelo://app?vid=8a0eb219-0825-4873-8042-7ddafae48f5b","ios":"levelo://app?vid=8a0eb219-0825-4873-8042-7ddafae48f5b"},"vehicle_type_id":"4","last_reported":1746864742,"current_range_meters":3200,"station_id":"ce4bhl92rcd13ifvqghg","pricing_plan_id":"cebpf4jnsgd1na2vs0mg"},{"bike_id":"0b42dd53-a09c-434a-a76d-a27839b24b92","system_id":"levelo_inurba_marseille","lat":43.25114,"lon":5.40321,"is_reserved":false,"is_disabled":false,"rental_uris":{"android":"levelo://app?vid=0b42dd53-a09c-434a-a76d-a27839b24b92","ios":"levelo://app?vid=0b42dd53-a09c-434a-a76d-a27839b24b92"},"vehicle_type_id":"4","last_reported":1746864742,"current_range_meters":3600,"station_id":"ce4bhlh2rcd13ifvqgig","pricing_plan_id":"cebpf4jnsgd1na2vs0mg"},{"bike_id":"8590e1e5-fc91-4e65-b4de-de0e9e8258d5","system_id":"levelo_inurba_marseille","lat":43.301452,"lon":5.380672,"is_reserved":false,"is_disabled":false,"rental_uris":{"android":"levelo://app?vid=8590e1e5-fc91-4e65-b4de-de0e9e8258d5","ios":"levelo://app?vid=8590e1e5-fc91-4e65-b4de-de0e9e8258d5"},"vehicle_type_id":"4","last_reported":1746864742,"current_range_meters":4000,"station_id":"ce4bgjp2rcd13ifvqbh0","pricing_plan_id":"cebpf4jnsgd1na2vs0mg"},{"bike_id":"f38a8814-7414-4a6b-8ba0-0273d2e9620d","system_id":"levelo_inurba_marseille","lat":43.26557,"lon":5.37278,"is_reserved":false,"is_disabled":false,"rental_uris":{"android":"levelo://app?vid=f38a8814-7414-4a6b-8ba0-0273d2e9620d","ios":"levelo://app?vid=f38a8814-7414-4a6b-8ba0-0273d2e9620d"},"vehicle_type_id":"4","last_reported":1746864742,"current_range_meters":4000,"station_id":"ce4bhg12rcd13ifvqf70","pricing_plan_id":"cebpf4jnsgd1na2vs0mg"},{"bike_id":"078071de-0978-4f13-bd6e-a3e0bc30f4a2","system_id":"levelo_inurba_marseille","lat":43.249997,"lon":5.389297,"is_reserved":false,"is_disabled":false,"rental_uris":{"android":"levelo://app?vid=078071de-0978-4f13-bd6e-a3e0bc30f4a2","ios":"levelo://app?vid=078071de-0978-4f13-bd6e-a3e0bc30f4a2"},"vehicle_type_id":"4","last_reported":1746864742,"current_range_meters":4000,"station_id":"ce4bhgp2rcd13ifvqfd0","pricing_plan_id":"cebpf4jnsgd1na2vs0mg"},{"bike_id":"6af985b2-9ee0-4c28-a9d8-b238a0c7330e","system_id":"levelo_inurba_marseille","lat":43.2512,"lon":5.40319,"is_reserved":false,"is_disabled":false,"rental_uris":{"android":"levelo://app?vid=6af985b2-9ee0-4c28-a9d8-b238a0c7330e","ios":"levelo://app?vid=6af985b2-9ee0-4c28-a9d8-b238a0c7330e"},"vehicle_type_id":"4","last_reported":1746864742,"current_range_meters":4000,"station_id":"ce4bhlh2rcd13ifvqgig","pricing_plan_id":"cebpf4jnsgd1na2vs0mg"},{"bike_id":"ba32ee3a-6a49-437c-90fb-7756461a61f4","system_id":"levelo_inurba_marseille","lat":43.241666,"lon":5.364124,"is_reserved":false,"is_disabled":false,"rental_uris":{"android":"levelo://app?vid=ba32ee3a-6a49-437c-90fb-7756461a61f4","ios":"levelo://app?vid=ba32ee3a-6a49-437c-90fb-7756461a61f4"},"vehicle_type_id":"4","last_reported":1746864742,"current_range_meters":5600,"station_id":"cpo36qri1sfpv3e86is0","pricing_plan_id":"cebpf4jnsgd1na2vs0mg"},{"bike_id":"caf9033d-5f00-49c3-b1ee-1328b62008dc","system_id":"levelo_inurba_marseille","lat":43.335891,"lon":5.42826,"is_reserved":false,"is_disabled":false,"rental_uris":{"android":"levelo://app?vid=caf9033d-5f00-49c3-b1ee-1328b62008dc","ios":"levelo://app?vid=caf9033d-5f00-49c3-b1ee-1328b62008dc"},"vehicle_type_id":"4","last_reported":1746864742,"current_range_meters":6400,"station_id":"","pricing_plan_id":"cebpf4jnsgd1na2vs0mg"},{"bike_id":"ce73352c-ca3f-4510-a741-74aef3c07bda","system_id":"levelo_inurba_marseille","lat":43.24068,"lon":5.37758,"is_reserved":false,"is_disabled":false,"rental_uris":{"android":"levelo://app?vid=ce73352c-ca3f-4510-a741-74aef3c07bda","ios":"levelo://app?vid=ce73352c-ca3f-4510-a741-74aef3c07bda"},"vehicle_type_id":"4","last_reported":1746864742,"current_range_meters":6400,"station_id":"ce4bhnp2rcd13ifvqgvg","pricing_plan_id":"cebpf4jnsgd1na2vs0mg"},{"bike_id":"b82963c6-7115-421c-ac2c-c76730ff375e","system_id":"levelo_inurba_marseille","lat":43.23746,"lon":5.3618,"is_reserved":false,"is_disabled":false,"rental_uris":{"android":"levelo://app?vid=b82963c6-7115-421c-ac2c-c76730ff375e","ios":"levelo://app?vid=b82963c6-7115-421c-ac2c-c76730ff375e"},"vehicle_type_id":"4","last_reported":1746864742,"current_range_meters":6800,"station_id":"","pricing_plan_id":"cebpf4jnsgd1na2vs0mg"},{"bike_id":"6c0bdbfd-6b23-41da-944b-ac98633dca52","system_id":"levelo_inurba_marseille","lat":43.25115,"lon":5.40325,"is_reserved":false,"is_disabled":false,"rental_uris":{"android":"levelo://app?vid=6c0bdbfd-6b23-41da-944b-ac98633dca52","ios":"levelo://app?vid=6c0bdbfd-6b23-41da-944b-ac98633dca52"},"vehicle_type_id":"4","last_reported":1746864742,"current_range_meters":6800,"station_id":"ce4bhlh2rcd13ifvqgig","pricing_plan_id":"cebpf4jnsgd1na2vs0mg"},{"bike_id":"363d417f-dbc8-44cd-beac-f58e612aa9ea","system_id":"levelo_inurba_marseille","lat":43.21749,"lon":5.34604,"is_reserved":false,"is_disabled":false,"rental_uris":{"android":"levelo://app?vid=363d417f-dbc8-44cd-beac-f58e612aa9ea","ios":"levelo://app?vid=363d417f-dbc8-44cd-beac-f58e612aa9ea"},"vehicle_type_id":"4","last_reported":1746864742,"current_range_meters":6800,"station_id":"st_cvj6r9ubvosntc0bgbag","pricing_plan_id":"cebpf4jnsgd1na2vs0mg"},{"bike_id":"aaccf105-b5e9-40bc-8056-13a93d618a5c","system_id":"levelo_inurba_marseille","lat":43.2119,"lon":5.35074,"is_reserved":false,"is_disabled":false,"rental_uris":{"android":"levelo://app?vid=aaccf105-b5e9-40bc-8056-13a93d618a5c","ios":"levelo://app?vid=aaccf105-b5e9-40bc-8056-13a93d618a5c"},"vehicle_type_id":"4","last_reported":1746864742,"current_range_meters":6800,"station_id":"st_cvj6sg6p6f1abm77japg","pricing_plan_id":"cebpf4jnsgd1na2vs0mg"},{"bike_id":"bb570aa2-d8ec-4880-a70d-1b2493384d48","system_id":"levelo_inurba_marseille","lat":43.24444,"lon":5.37001,"is_reserved":false,"is_disabled":false,"rental_uris":{"android":"levelo://app?vid=bb570aa2-d8ec-4880-a70d-1b2493384d48","ios":"levelo://app?vid=bb570aa2-d8ec-4880-a70d-1b2493384d48"},"vehicle_type_id":"4","last_reported":1746864742,"current_range_meters":7200,"station_id":"","pricing_plan_id":"cebpf4jnsgd1na2vs0mg"},{"bike_id":"ce972654-4647-4640-9be3-f6d267f881ec","system_id":"levelo_inurba_marseille","lat":43.27613,"lon":5.36113,"is_reserved":false,"is_disabled":false,"rental_uris":{"android":"levelo://app?vid=ce972654-4647-4640-9be3-f6d267f881ec","ios":"levelo://app?vid=ce972654-4647-4640-9be3-f6d267f881ec"},"vehicle_type_id":"4","last_reported":1746864742,"current_range_meters":7200,"station_id":"ce4bgj92rcd13ifvqbe0","pricing_plan_id":"cebpf4jnsgd1na2vs0mg"},{"bike_id":"41b1a32b-2cab-4ffc-b477-33d19a4dd033","system_id":"levelo_inurba_marseille","lat":43.24557,"lon":5.39522,"is_reserved":false,"is_disabled":false,"rental_uris":{"android":"levelo://app?vid=41b1a32b-2cab-4ffc-b477-33d19a4dd033","ios":"levelo://app?vid=41b1a32b-2cab-4ffc-b477-33d19a4dd033"},"vehicle_type_id":"4","last_reported":1746864742,"current_range_meters":7200,"station_id":"ce4bhlp2rcd13ifvqgjg","pricing_plan_id":"cebpf4jnsgd1na2vs0mg"},{"bike_id":"e63c2300-265f-49a2-bf3d-67e45ad0161a","system_id":"levelo_inurba_marseille","lat":43.27946,"lon":5.41047,"is_reserved":false,"is_disabled":false,"rental_uris":{"android":"levelo://app?vid=e63c2300-265f-49a2-bf3d-67e45ad0161a","ios":"levelo://app?vid=e63c2300-265f-49a2-bf3d-67e45ad0161a"},"vehicle_type_id":"4","last_reported":1746864742,"current_range_meters":7200,"station_id":"ce4bhnp2rcd13ifvqh0g","pricing_plan_id":"cebpf4jnsgd1na2vs0mg"},{"bike_id":"044478cb-8194-4092-b984-4fc9c042ef68","system_id":"levelo_inurba_marseille","lat":43.28767,"lon":5.46478,"is_reserved":false,"is_disabled":false,"rental_uris":{"android":"levelo://app?vid=044478cb-8194-4092-b984-4fc9c042ef68","ios":"levelo://app?vid=044478cb-8194-4092-b984-4fc9c042ef68"},"vehicle_type_id":"4","last_reported":1746864742,"current_range_meters":8000,"station_id":"","pricing_plan_id":"cebpf4jnsgd1na2vs0mg"},{"bike_id":"b0c54ead-2c9a-4d45-904a-5e1b9abf7338","system_id":"levelo_inurba_marseille","lat":43.279,"lon":5.44054,"is_reserved":false,"is_disabled":false,"rental_uris":{"android":"levelo://app?vid=b0c54ead-2c9a-4d45-904a-5e1b9abf7338","ios":"levelo://app?vid=b0c54ead-2c9a-4d45-904a-5e1b9abf7338"},"vehicle_type_id":"4","last_reported":1746864742,"current_range_meters":8000,"station_id":"","pricing_plan_id":"cebpf4jnsgd1na2vs0mg"},{"bike_id":"503dbcef-3669-46ee-8e21-8a919b47f4b1","system_id":"levelo_inurba_marseille","lat":43.23963,"lon":5.36628,"is_reserved":false,"is_disabled":false,"rental_uris":{"android":"levelo://app?vid=503dbcef-3669-46ee-8e21-8a919b47f4b1","ios":"levelo://app?vid=503dbcef-3669-46ee-8e21-8a919b47f4b1"},"vehicle_type_id":"4","last_reported":1746864742,"current_range_meters":8000,"station_id":"ce4bhi12rcd13ifvqfp0","pricing_plan_id":"cebpf4jnsgd1na2vs0mg"},{"bike_id":"f8bd5ba1-0844-4c6d-9b78-f958f1313745","system_id":"levelo_inurba_marseille","lat":43.2936,"lon":5.42838,"is_reserved":false,"is_disabled":false,"rental_uris":{"android":"levelo://app?vid=f8bd5ba1-0844-4c6d-9b78-f958f1313745","ios":"levelo://app?vid=f8bd5ba1-0844-4c6d-9b78-f958f1313745"},"vehicle_type_id":"4","last_reported":1746864742,"current_range_meters":8400,"station_id":"","pricing_plan_id":"cebpf4jnsgd1na2vs0mg"},{"bike_id":"3ee8e499-f845-4c6b-aa75-107b3891d613","system_id":"levelo_inurba_marseille","lat":43.28031,"lon":5.369514,"is_reserved":false,"is_disabled":false,"rental_uris":{"android":"levelo://app?vid=3ee8e499-f845-4c6b-aa75-107b3891d613","ios":"levelo://app?vid=3ee8e499-f845-4c6b-aa75-107b3891d613"},"vehicle_type_id":"4","last_reported":1746864742,"current_range_meters":8400,"station_id":"ce4bha12rcd13ifvqef0","pricing_plan_id":"cebpf4jnsgd1na2vs0mg"},{"bike_id":"3c7670ff-3628-42b4-8ea8-664d4fa357dd","system_id":"levelo_inurba_marseille","lat":43.27989,"lon":5.41652,"is_reserved":false,"is_disabled":false,"rental_uris":{"android":"levelo://app?vid=3c7670ff-3628-42b4-8ea8-664d4fa357dd","ios":"levelo://app?vid=3c7670ff-3628-42b4-8ea8-664d4fa357dd"},"vehicle_type_id":"4","last_reported":1746864742,"current_range_meters":8400,"station_id":"ce4bho12rcd13ifvqh1g","pricing_plan_id":"cebpf4jnsgd1na2vs0mg"},{"bike_id":"750853c3-5c7a-41ac-b4b9-21d83e878f6f","system_id":"levelo_inurba_marseille","lat":43.27696,"lon":5.41971,"is_reserved":false,"is_disabled":false,"rental_uris":{"android":"levelo://app?vid=750853c3-5c7a-41ac-b4b9-21d83e878f6f","ios":"levelo://app?vid=750853c3-5c7a-41ac-b4b9-21d83e878f6f"},"vehicle_type_id":"4","last_reported":1746864742,"current_range_meters":8800,"station_id":"","pricing_plan_id":"cebpf4jnsgd1na2vs0mg"},{"bike_id":"22dfbe01-9157-43ce-a9ac-7077e5980f60","system_id":"levelo_inurba_marseille","lat":43.23463,"lon":5.3604,"is_reserved":false,"is_disabled":false,"rental_uris":{"android":"levelo://app?vid=22dfbe01-9157-43ce-a9ac-7077e5980f60","ios":"levelo://app?vid=22dfbe01-9157-43ce-a9ac-7077e5980f60"},"vehicle_type_id":"4","last_reported":1746864742,"current_range_meters":8800,"station_id":"","pricing_plan_id":"cebpf4jnsgd1na2vs0mg"},{"bike_id":"33237278-7e94-4901-802a-ce6e5185ead3","system_id":"levelo_inurba_marseille","lat":43.21755,"lon":5.34605,"is_reserved":false,"is_disabled":false,"rental_uris":{"android":"levelo://app?vid=33237278-7e94-4901-802a-ce6e5185ead3","ios":"levelo://app?vid=33237278-7e94-4901-802a-ce6e5185ead3"},"vehicle_type_id":"4","last_reported":1746864742,"current_range_meters":8800,"station_id":"st_cvj6r9ubvosntc0bgbag","pricing_plan_id":"cebpf4jnsgd1na2vs0mg"},{"bike_id":"0eae1664-e62c-4400-8041-d7f3bc1da788","system_id":"levelo_inurba_marseille","lat":43.287696,"lon":5.359163,"is_reserved":false,"is_disabled":false,"rental_uris":{"android":"levelo://app?vid=0eae1664-e62c-4400-8041-d7f3bc1da788","ios":"levelo://app?vid=0eae1664-e62c-4400-8041-d7f3bc1da788"},"vehicle_type_id":"4","last_reported":1746864742,"current_range_meters":9600,"station_id":"","pricing_plan_id":"cebpf4jnsgd1na2vs0mg"},{"bike_id":"5b668b7c-8f01-41e7-bea5-b3cde4021d71","system_id":"levelo_inurba_marseille","lat":43.2956,"lon":5.37522,"is_reserved":false,"is_disabled":false,"rental_uris":{"android":"levelo://app?vid=5b668b7c-8f01-41e7-bea5-b3cde4021d71","ios":"levelo://app?vid=5b668b7c-8f01-41e7-bea5-b3cde4021d71"},"vehicle_type_id":"4","last_reported":1746864742,"current_range_meters":9600,"station_id":"ce4bgh92rcd13ifvqb50","pricing_plan_id":"cebpf4jnsgd1na2vs0mg"},{"bike_id":"42091268-e1c5-49fa-92ef-af1096d6f585","system_id":"levelo_inurba_marseille","lat":43.30924,"lon":5.40152,"is_reserved":false,"is_disabled":false,"rental_uris":{"android":"levelo://app?vid=42091268-e1c5-49fa-92ef-af1096d6f585","ios":"levelo://app?vid=42091268-e1c5-49fa-92ef-af1096d6f585"},"vehicle_type_id":"4","last_reported":1746864742,"current_range_meters":9600,"station_id":"ce4bgvp2rcd13ifvqct0","pricing_plan_id":"cebpf4jnsgd1na2vs0mg"},{"bike_id":"7c779162-d875-4b40-b227-f3dd4250d654","system_id":"levelo_inurba_marseille","lat":43.27372,"lon":5.36258,"is_reserved":false,"is_disabled":false,"rental_uris":{"android":"levelo://app?vid=7c779162-d875-4b40-b227-f3dd4250d654","ios":"levelo://app?vid=7c779162-d875-4b40-b227-f3dd4250d654"},"vehicle_type_id":"4","last_reported":1746864742,"current_range_meters":9600,"station_id":"ce4bhbh2rcd13ifvqeo0","pricing_plan_id":"cebpf4jnsgd1na2vs0mg"},{"bike_id":"94210f2e-8389-4442-8f39-212b70348d70","system_id":"levelo_inurba_marseille","lat":43.23152,"lon":5.43714,"is_reserved":false,"is_disabled":false,"rental_uris":{"android":"levelo://app?vid=94210f2e-8389-4442-8f39-212b70348d70","ios":"levelo://app?vid=94210f2e-8389-4442-8f39-212b70348d70"},"vehicle_type_id":"4","last_reported":1746864742,"current_range_meters":9600,"station_id":"ce4bhmp2rcd13ifvqgog","pricing_plan_id":"cebpf4jnsgd1na2vs0mg"},{"bike_id":"015c7955-792a-4512-9f47-1c047de337ba","system_id":"levelo_inurba_marseille","lat":43.24177,"lon":5.39728,"is_reserved":false,"is_disabled":false,"rental_uris":{"android":"levelo://app?vid=015c7955-792a-4512-9f47-1c047de337ba","ios":"levelo://app?vid=015c7955-792a-4512-9f47-1c047de337ba"},"vehicle_type_id":"4","last_reported":1746864742,"current_range_meters":9600,"station_id":"ce4bhn12rcd13ifvqgpg","pricing_plan_id":"cebpf4jnsgd1na2vs0mg"},{"bike_id":"1771c0e2-1fe6-49ff-8a23-2166fe76f883","system_id":"levelo_inurba_marseille","lat":43.23171,"lon":5.40019,"is_reserved":false,"is_disabled":false,"rental_uris":{"android":"levelo://app?vid=1771c0e2-1fe6-49ff-8a23-2166fe76f883","ios":"levelo://app?vid=1771c0e2-1fe6-49ff-8a23-2166fe76f883"},"vehicle_type_id":"4","last_reported":1746864742,"current_range_meters":9600,"station_id":"ce4bhn12rcd13ifvqgqg","pricing_plan_id":"cebpf4jnsgd1na2vs0mg"},{"bike_id":"773c2f6d-be61-45d6-bd1d-7f70b637f762","system_id":"levelo_inurba_marseille","lat":43.30533,"lon":5.36703,"is_reserved":false,"is_disabled":false,"rental_uris":{"android":"levelo://app?vid=773c2f6d-be61-45d6-bd1d-7f70b637f762","ios":"levelo://app?vid=773c2f6d-be61-45d6-bd1d-7f70b637f762"},"vehicle_type_id":"4","last_reported":1746864742,"current_range_meters":10000,"station_id":"ce4bgrp2rcd13ifvqc9g","pricing_plan_id":"cebpf4jnsgd1na2vs0mg"},{"bike_id":"03f91bf2-eaff-411c-bd16-e578b191e88e","system_id":"levelo_inurba_marseille","lat":43.2929,"lon":5.40122,"is_reserved":false,"is_disabled":false,"rental_uris":{"android":"levelo://app?vid=03f91bf2-eaff-411c-bd16-e578b191e88e","ios":"levelo://app?vid=03f91bf2-eaff-411c-bd16-e578b191e88e"},"vehicle_type_id":"4","last_reported":1746864742,"current_range_meters":10000,"station_id":"ce4bh312rcd13ifvqdk0","pricing_plan_id":"cebpf4jnsgd1na2vs0mg"},{"bike_id":"f47f8395-70af-446f-9190-c9e43955f93d","system_id":"levelo_inurba_marseille","lat":43.27058,"lon":5.40252,"is_reserved":false,"is_disabled":false,"rental_uris":{"android":"levelo://app?vid=f47f8395-70af-446f-9190-c9e43955f93d","ios":"levelo://app?vid=f47f8395-70af-446f-9190-c9e43955f93d"},"vehicle_type_id":"4","last_reported":1746864742,"current_range_meters":10000,"station_id":"ce4bhk92rcd13ifvqgc0","pricing_plan_id":"cebpf4jnsgd1na2vs0mg"},{"bike_id":"f21dc0e4-41b7-4a2e-84e1-294e2dc31e14","system_id":"levelo_inurba_marseille","lat":43.28074,"lon":5.39659,"is_reserved":false,"is_disabled":false,"rental_uris":{"android":"levelo://app?vid=f21dc0e4-41b7-4a2e-84e1-294e2dc31e14","ios":"levelo://app?vid=f21dc0e4-41b7-4a2e-84e1-294e2dc31e14"},"vehicle_type_id":"4","last_reported":1746864742,"current_range_meters":10000,"station_id":"ce4bho12rcd13ifvqh2g","pricing_plan_id":"cebpf4jnsgd1na2vs0mg"},{"bike_id":"86b478b2-1cf2-4e07-8a5c-76710e912a41","system_id":"levelo_inurba_marseille","lat":43.291245,"lon":5.366919,"is_reserved":false,"is_disabled":false,"rental_uris":{"android":"levelo://app?vid=86b478b2-1cf2-4e07-8a5c-76710e912a41","ios":"levelo://app?vid=86b478b2-1cf2-4e07-8a5c-76710e912a41"},"vehicle_type_id":"4","last_reported":1746864742,"current_range_meters":10800,"station_id":"","pricing_plan_id":"cebpf4jnsgd1na2vs0mg"},{"bike_id":"597beefa-8311-4d68-b0f3-88cd0a14dd08","system_id":"levelo_inurba_marseille","lat":43.27568,"lon":5.39559,"is_reserved":false,"is_disabled":false,"rental_uris":{"android":"levelo://app?vid=597beefa-8311-4d68-b0f3-88cd0a14dd08","ios":"levelo://app?vid=597beefa-8311-4d68-b0f3-88cd0a14dd08"},"vehicle_type_id":"4","last_reported":1746864742,"current_range_meters":10800,"station_id":"","pricing_plan_id":"cebpf4jnsgd1na2vs0mg"},{"bike_id":"cfb33b76-ff38-465f-96b4-8908aeb6f4a0","system_id":"levelo_inurba_marseille","lat":43.27366,"lon":5.36256,"is_reserved":false,"is_disabled":false,"rental_uris":{"android":"levelo://app?vid=cfb33b76-ff38-465f-96b4-8908aeb6f4a0","ios":"levelo://app?vid=cfb33b76-ff38-465f-96b4-8908aeb6f4a0"},"vehicle_type_id":"4","last_reported":1746864742,"current_range_meters":10800,"station_id":"ce4bhbh2rcd13ifvqeo0","pricing_plan_id":"cebpf4jnsgd1na2vs0mg"},{"bike_id":"29b99ee3-82b0-4cb0-a9d6-8993ba8fcb2f","system_id":"levelo_inurba_marseille","lat":43.24651,"lon":5.3891,"is_reserved":false,"is_disabled":false,"rental_uris":{"android":"levelo://app?vid=29b99ee3-82b0-4cb0-a9d6-8993ba8fcb2f","ios":"levelo://app?vid=29b99ee3-82b0-4cb0-a9d6-8993ba8fcb2f"},"vehicle_type_id":"4","last_reported":1746864742,"current_range_meters":11600,"station_id":"ce4bhg12rcd13ifvqf60","pricing_plan_id":"cebpf4jnsgd1na2vs0mg"},{"bike_id":"425a71c2-3497-48ea-abb4-541b2f2a7c98","system_id":"levelo_inurba_marseille","lat":43.24681,"lon":5.38172,"is_reserved":false,"is_disabled":false,"rental_uris":{"android":"levelo://app?vid=425a71c2-3497-48ea-abb4-541b2f2a7c98","ios":"levelo://app?vid=425a71c2-3497-48ea-abb4-541b2f2a7c98"},"vehicle_type_id":"4","last_reported":1746864742,"current_range_meters":11600,"station_id":"ce4bhih2rcd13ifvqfr0","pricing_plan_id":"cebpf4jnsgd1na2vs0mg"},{"bike_id":"35a8516b-240a-4df8-a3a1-35d4da354b60","system_id":"levelo_inurba_marseille","lat":43.23961,"lon":5.36646,"is_reserved":false,"is_disabled":false,"rental_uris":{"android":"levelo://app?vid=35a8516b-240a-4df8-a3a1-35d4da354b60","ios":"levelo://app?vid=35a8516b-240a-4df8-a3a1-35d4da354b60"},"vehicle_type_id":"4","last_reported":1746864742,"current_range_meters":12000,"station_id":"ce4bhi12rcd13ifvqfp0","pricing_plan_id":"cebpf4jnsgd1na2vs0mg"},{"bike_id":"29bb0e90-8495-48c2-b147-6fc8b2d38f4f","system_id":"levelo_inurba_marseille","lat":43.27049,"lon":5.40259,"is_reserved":false,"is_disabled":false,"rental_uris":{"android":"levelo://app?vid=29bb0e90-8495-48c2-b147-6fc8b2d38f4f","ios":"levelo://app?vid=29bb0e90-8495-48c2-b147-6fc8b2d38f4f"},"vehicle_type_id":"4","last_reported":1746864742,"current_range_meters":12000,"station_id":"ce4bhk92rcd13ifvqgc0","pricing_plan_id":"cebpf4jnsgd1na2vs0mg"},{"bike_id":"62a50211-05a4-47eb-9698-1242e7a251b8","system_id":"levelo_inurba_marseille","lat":43.30458,"lon":5.3789,"is_reserved":false,"is_disabled":false,"rental_uris":{"android":"levelo://app?vid=62a50211-05a4-47eb-9698-1242e7a251b8","ios":"levelo://app?vid=62a50211-05a4-47eb-9698-1242e7a251b8"},"vehicle_type_id":"4","last_reported":1746864742,"current_range_meters":12800,"station_id":"ce4bgup2rcd13ifvqcn0","pricing_plan_id":"cebpf4jnsgd1na2vs0mg"},{"bike_id":"6a592c79-90d3-4c3a-8d32-667e71e7b710","system_id":"levelo_inurba_marseille","lat":43.31728,"lon":5.40481,"is_reserved":false,"is_disabled":false,"rental_uris":{"android":"levelo://app?vid=6a592c79-90d3-4c3a-8d32-667e71e7b710","ios":"levelo://app?vid=6a592c79-90d3-4c3a-8d32-667e71e7b710"},"vehicle_type_id":"4","last_reported":1746864742,"current_range_meters":12800,"station_id":"ce4bh012rcd13ifvqd00","pricing_plan_id":"cebpf4jnsgd1na2vs0mg"},{"bike_id":"575346d1-8dea-4228-8b9c-4d5ea0a89925","system_id":"levelo_inurba_marseille","lat":43.25099,"lon":5.40341,"is_reserved":false,"is_disabled":false,"rental_uris":{"android":"levelo://app?vid=575346d1-8dea-4228-8b9c-4d5ea0a89925","ios":"levelo://app?vid=575346d1-8dea-4228-8b9c-4d5ea0a89925"},"vehicle_type_id":"4","last_reported":1746864742,"current_range_meters":13600,"station_id":"ce4bhlh2rcd13ifvqgig","pricing_plan_id":"cebpf4jnsgd1na2vs0mg"},{"bike_id":"3c5f6d08-ed23-414c-a21f-2287d7463f16","system_id":"levelo_inurba_marseille","lat":43.23182,"lon":5.39992,"is_reserved":false,"is_disabled":false,"rental_uris":{"android":"levelo://app?vid=3c5f6d08-ed23-414c-a21f-2287d7463f16","ios":"levelo://app?vid=3c5f6d08-ed23-414c-a21f-2287d7463f16"},"vehicle_type_id":"4","last_reported":1746864742,"current_range_meters":13600,"station_id":"ce4bhn12rcd13ifvqgqg","pricing_plan_id":"cebpf4jnsgd1na2vs0mg"},{"bike_id":"9a919805-a5a4-497f-a929-c9e08814771d","system_id":"levelo_inurba_marseille","lat":43.27992,"lon":5.41658,"is_reserved":false,"is_disabled":false,"rental_uris":{"android":"levelo://app?vid=9a919805-a5a4-497f-a929-c9e08814771d","ios":"levelo://app?vid=9a919805-a5a4-497f-a929-c9e08814771d"},"vehicle_type_id":"4","last_reported":1746864742,"current_range_meters":14000,"station_id":"ce4bho12rcd13ifvqh1g","pricing_plan_id":"cebpf4jnsgd1na2vs0mg"},{"bike_id":"e4ce0ffe-5a28-4048-bf68-9b07cdc656b1","system_id":"levelo_inurba_marseille","lat":43.30521,"lon":5.38444,"is_reserved":false,"is_disabled":false,"rental_uris":{"android":"levelo://app?vid=e4ce0ffe-5a28-4048-bf68-9b07cdc656b1","ios":"levelo://app?vid=e4ce0ffe-5a28-4048-bf68-9b07cdc656b1"},"vehicle_type_id":"4","last_reported":1746864742,"current_range_meters":14400,"station_id":"ce4bgg92rcd13ifvqb30","pricing_plan_id":"cebpf4jnsgd1na2vs0mg"},{"bike_id":"9af33dee-bcd3-4e66-8cc8-61fbda2d70ca","system_id":"levelo_inurba_marseille","lat":43.26678,"lon":5.3827,"is_reserved":false,"is_disabled":false,"rental_uris":{"android":"levelo://app?vid=9af33dee-bcd3-4e66-8cc8-61fbda2d70ca","ios":"levelo://app?vid=9af33dee-bcd3-4e66-8cc8-61fbda2d70ca"},"vehicle_type_id":"4","last_reported":1746864742,"current_range_meters":14400,"station_id":"ce4bhg92rcd13ifvqf90","pricing_plan_id":"cebpf4jnsgd1na2vs0mg"},{"bike_id":"db8e9453-3d9e-43c6-9459-be7e83be27dd","system_id":"levelo_inurba_marseille","lat":43.25869,"lon":5.39903,"is_reserved":false,"is_disabled":false,"rental_uris":{"android":"levelo://app?vid=db8e9453-3d9e-43c6-9459-be7e83be27dd","ios":"levelo://app?vid=db8e9453-3d9e-43c6-9459-be7e83be27dd"},"vehicle_type_id":"4","last_reported":1746864742,"current_range_meters":14400,"station_id":"ce4bhl92rcd13ifvqghg","pricing_plan_id":"cebpf4jnsgd1na2vs0mg"},{"bike_id":"cb6e829e-08a2-4265-8b55-6bb7beaff204","system_id":"levelo_inurba_marseille","lat":43.22949,"lon":5.35365,"is_reserved":false,"is_disabled":false,"rental_uris":{"android":"levelo://app?vid=cb6e829e-08a2-4265-8b55-6bb7beaff204","ios":"levelo://app?vid=cb6e829e-08a2-4265-8b55-6bb7beaff204"},"vehicle_type_id":"4","last_reported":1746864742,"current_range_meters":14400,"station_id":"cpo3532slgdg3j2ikp40","pricing_plan_id":"cebpf4jnsgd1na2vs0mg"},{"bike_id":"bb9dd4d9-ef7c-411c-9ce2-6f0d8890189a","system_id":"levelo_inurba_marseille","lat":43.24162,"lon":5.36411,"is_reserved":false,"is_disabled":false,"rental_uris":{"android":"levelo://app?vid=bb9dd4d9-ef7c-411c-9ce2-6f0d8890189a","ios":"levelo://app?vid=bb9dd4d9-ef7c-411c-9ce2-6f0d8890189a"},"vehicle_type_id":"4","last_reported":1746864742,"current_range_meters":14400,"station_id":"cpo36qri1sfpv3e86is0","pricing_plan_id":"cebpf4jnsgd1na2vs0mg"},{"bike_id":"efed6893-f556-4968-81d4-742ec5ff3459","system_id":"levelo_inurba_marseille","lat":43.30912,"lon":5.36849,"is_reserved":false,"is_disabled":false,"rental_uris":{"android":"levelo://app?vid=efed6893-f556-4968-81d4-742ec5ff3459","ios":"levelo://app?vid=efed6893-f556-4968-81d4-742ec5ff3459"},"vehicle_type_id":"4","last_reported":1746864742,"current_range_meters":14800,"station_id":"ce4bgn92rcd13ifvqbvg","pricing_plan_id":"cebpf4jnsgd1na2vs0mg"},{"bike_id":"8dfe763f-2b56-4348-b766-788076babf15","system_id":"levelo_inurba_marseille","lat":43.3078,"lon":5.3765,"is_reserved":false,"is_disabled":false,"rental_uris":{"android":"levelo://app?vid=8dfe763f-2b56-4348-b766-788076babf15","ios":"levelo://app?vid=8dfe763f-2b56-4348-b766-788076babf15"},"vehicle_type_id":"4","last_reported":1746864742,"current_range_meters":15200,"station_id":"ce4bgv92rcd13ifvqcq0","pricing_plan_id":"cebpf4jnsgd1na2vs0mg"},{"bike_id":"fc2577e7-1497-425b-9d4f-ab8d7dc843c6","system_id":"levelo_inurba_marseille","lat":43.33771,"lon":5.37485,"is_reserved":false,"is_disabled":false,"rental_uris":{"android":"levelo://app?vid=fc2577e7-1497-425b-9d4f-ab8d7dc843c6","ios":"levelo://app?vid=fc2577e7-1497-425b-9d4f-ab8d7dc843c6"},"vehicle_type_id":"4","last_reported":1746864742,"current_range_meters":16000,"station_id":"","pricing_plan_id":"cebpf4jnsgd1na2vs0mg"},{"bike_id":"66d39f5f-1aac-423b-9ea7-bf9c1b0e5079","system_id":"levelo_inurba_marseille","lat":43.27505,"lon":5.41094,"is_reserved":false,"is_disabled":false,"rental_uris":{"android":"levelo://app?vid=66d39f5f-1aac-423b-9ea7-bf9c1b0e5079","ios":"levelo://app?vid=66d39f5f-1aac-423b-9ea7-bf9c1b0e5079"},"vehicle_type_id":"4","last_reported":1746864742,"current_range_meters":16000,"station_id":"","pricing_plan_id":"cebpf4jnsgd1na2vs0mg"},{"bike_id":"974fec2d-70ac-4453-9282-d8be73602bfa","system_id":"levelo_inurba_marseille","lat":43.2998,"lon":5.38497,"is_reserved":false,"is_disabled":false,"rental_uris":{"android":"levelo://app?vid=974fec2d-70ac-4453-9282-d8be73602bfa","ios":"levelo://app?vid=974fec2d-70ac-4453-9282-d8be73602bfa"},"vehicle_type_id":"4","last_reported":1746864742,"current_range_meters":16000,"station_id":"ce4bgj92rcd13ifvqbd0","pricing_plan_id":"cebpf4jnsgd1na2vs0mg"},{"bike_id":"c342f55a-e712-4cdf-bf12-d00614799346","system_id":"levelo_inurba_marseille","lat":43.29048,"lon":5.35917,"is_reserved":false,"is_disabled":false,"rental_uris":{"android":"levelo://app?vid=c342f55a-e712-4cdf-bf12-d00614799346","ios":"levelo://app?vid=c342f55a-e712-4cdf-bf12-d00614799346"},"vehicle_type_id":"4","last_reported":1746864742,"current_range_meters":16000,"station_id":"ce4bha92rcd13ifvqeg0","pricing_plan_id":"cebpf4jnsgd1na2vs0mg"},{"bike_id":"988217a7-40cc-4175-99a8-3abc98dd942c","system_id":"levelo_inurba_marseille","lat":43.240745,"lon":5.377682,"is_reserved":false,"is_disabled":false,"rental_uris":{"android":"levelo://app?vid=988217a7-40cc-4175-99a8-3abc98dd942c","ios":"levelo://app?vid=988217a7-40cc-4175-99a8-3abc98dd942c"},"vehicle_type_id":"4","last_reported":1746864742,"current_range_meters":16000,"station_id":"ce4bhnp2rcd13ifvqgvg","pricing_plan_id":"cebpf4jnsgd1na2vs0mg"},{"bike_id":"58e7fc63-9c1e-471a-9160-4cf9fc62d0c6","system_id":"levelo_inurba_marseille","lat":43.241759,"lon":5.397305,"is_reserved":false,"is_disabled":false,"rental_uris":{"android":"levelo://app?vid=58e7fc63-9c1e-471a-9160-4cf9fc62d0c6","ios":"levelo://app?vid=58e7fc63-9c1e-471a-9160-4cf9fc62d0c6"},"vehicle_type_id":"4","last_reported":1746864742,"current_range_meters":16400,"station_id":"ce4bhhh2rcd13ifvqfk0","pricing_plan_id":"cebpf4jnsgd1na2vs0mg"},{"bike_id":"f46138d7-c92b-4466-9911-0c3925874d53","system_id":"levelo_inurba_marseille","lat":43.25111,"lon":5.40319,"is_reserved":false,"is_disabled":false,"rental_uris":{"android":"levelo://app?vid=f46138d7-c92b-4466-9911-0c3925874d53","ios":"levelo://app?vid=f46138d7-c92b-4466-9911-0c3925874d53"},"vehicle_type_id":"4","last_reported":1746864742,"current_range_meters":16400,"station_id":"ce4bhlh2rcd13ifvqgig","pricing_plan_id":"cebpf4jnsgd1na2vs0mg"},{"bike_id":"32b96bd4-7617-4aa8-a6cf-1b9e247a6ce6","system_id":"levelo_inurba_marseille","lat":43.31073,"lon":5.424379,"is_reserved":false,"is_disabled":false,"rental_uris":{"android":"levelo://app?vid=32b96bd4-7617-4aa8-a6cf-1b9e247a6ce6","ios":"levelo://app?vid=32b96bd4-7617-4aa8-a6cf-1b9e247a6ce6"},"vehicle_type_id":"4","last_reported":1746864742,"current_range_meters":16400,"station_id":"ce4bhp92rcd13ifvqhag","pricing_plan_id":"cebpf4jnsgd1na2vs0mg"},{"bike_id":"94cd8564-a06e-4cc5-88d9-996fbf8639fe","system_id":"levelo_inurba_marseille","lat":43.21756,"lon":5.34592,"is_reserved":false,"is_disabled":false,"rental_uris":{"android":"levelo://app?vid=94cd8564-a06e-4cc5-88d9-996fbf8639fe","ios":"levelo://app?vid=94cd8564-a06e-4cc5-88d9-996fbf8639fe"},"vehicle_type_id":"4","last_reported":1746864742,"current_range_meters":16400,"station_id":"st_cvj6r9ubvosntc0bgbag","pricing_plan_id":"cebpf4jnsgd1na2vs0mg"},{"bike_id":"25bd9db4-b151-496c-ba5d-8dcff47fadbf","system_id":"levelo_inurba_marseille","lat":43.319768,"lon":5.370853,"is_reserved":false,"is_disabled":false,"rental_uris":{"android":"levelo://app?vid=25bd9db4-b151-496c-ba5d-8dcff47fadbf","ios":"levelo://app?vid=25bd9db4-b151-496c-ba5d-8dcff47fadbf"},"vehicle_type_id":"4","last_reported":1746864742,"current_range_meters":16800,"station_id":"","pricing_plan_id":"cebpf4jnsgd1na2vs0mg"},{"bike_id":"796ef36e-55a7-4cb9-844d-596a7e2f3fa6","system_id":"levelo_inurba_marseille","lat":43.28379,"lon":5.36461,"is_reserved":false,"is_disabled":false,"rental_uris":{"android":"levelo://app?vid=796ef36e-55a7-4cb9-844d-596a7e2f3fa6","ios":"levelo://app?vid=796ef36e-55a7-4cb9-844d-596a7e2f3fa6"},"vehicle_type_id":"4","last_reported":1746864742,"current_range_meters":16800,"station_id":"","pricing_plan_id":"cebpf4jnsgd1na2vs0mg"},{"bike_id":"a1121b36-b5cd-4dda-96ef-13a3dfaa55e1","system_id":"levelo_inurba_marseille","lat":43.301401,"lon":5.387791,"is_reserved":false,"is_disabled":false,"rental_uris":{"android":"levelo://app?vid=a1121b36-b5cd-4dda-96ef-13a3dfaa55e1","ios":"levelo://app?vid=a1121b36-b5cd-4dda-96ef-13a3dfaa55e1"},"vehicle_type_id":"4","last_reported":1746864742,"current_range_meters":17200,"station_id":"","pricing_plan_id":"cebpf4jnsgd1na2vs0mg"},{"bike_id":"50f5e02d-7e3d-4bd6-8a5e-360e84f51370","system_id":"levelo_inurba_marseille","lat":43.25147,"lon":5.40315,"is_reserved":false,"is_disabled":false,"rental_uris":{"android":"levelo://app?vid=50f5e02d-7e3d-4bd6-8a5e-360e84f51370","ios":"levelo://app?vid=50f5e02d-7e3d-4bd6-8a5e-360e84f51370"},"vehicle_type_id":"4","last_reported":1746864742,"current_range_meters":17200,"station_id":"","pricing_plan_id":"cebpf4jnsgd1na2vs0mg"},{"bike_id":"6add2d36-61c6-46c1-a56e-696306c1bd19","system_id":"levelo_inurba_marseille","lat":43.23362,"lon":5.360714,"is_reserved":false,"is_disabled":false,"rental_uris":{"android":"levelo://app?vid=6add2d36-61c6-46c1-a56e-696306c1bd19","ios":"levelo://app?vid=6add2d36-61c6-46c1-a56e-696306c1bd19"},"vehicle_type_id":"4","last_reported":1746864742,"current_range_meters":17200,"station_id":"","pricing_plan_id":"cebpf4jnsgd1na2vs0mg"},{"bike_id":"aaa1a1aa-069a-4ffc-86b5-e53ec359def5","system_id":"levelo_inurba_marseille","lat":43.30455,"lon":5.37899,"is_reserved":false,"is_disabled":false,"rental_uris":{"android":"levelo://app?vid=aaa1a1aa-069a-4ffc-86b5-e53ec359def5","ios":"levelo://app?vid=aaa1a1aa-069a-4ffc-86b5-e53ec359def5"},"vehicle_type_id":"4","last_reported":1746864742,"current_range_meters":17200,"station_id":"ce4bgup2rcd13ifvqcn0","pricing_plan_id":"cebpf4jnsgd1na2vs0mg"},{"bike_id":"e5f9e08b-c7e4-484f-8cb5-f829be2d4c56","system_id":"levelo_inurba_marseille","lat":43.29734,"lon":5.38377,"is_reserved":false,"is_disabled":false,"rental_uris":{"android":"levelo://app?vid=e5f9e08b-c7e4-484f-8cb5-f829be2d4c56","ios":"levelo://app?vid=e5f9e08b-c7e4-484f-8cb5-f829be2d4c56"},"vehicle_type_id":"4","last_reported":1746864742,"current_range_meters":17600,"station_id":"","pricing_plan_id":"cebpf4jnsgd1na2vs0mg"},{"bike_id":"19315ea6-b167-448c-824e-2e0ff57b1d42","system_id":"levelo_inurba_marseille","lat":43.30952,"lon":5.39025,"is_reserved":false,"is_disabled":false,"rental_uris":{"android":"levelo://app?vid=19315ea6-b167-448c-824e-2e0ff57b1d42","ios":"levelo://app?vid=19315ea6-b167-448c-824e-2e0ff57b1d42"},"vehicle_type_id":"4","last_reported":1746864742,"current_range_meters":17600,"station_id":"ce4bgup2rcd13ifvqco0","pricing_plan_id":"cebpf4jnsgd1na2vs0mg"},{"bike_id":"7b0b7ba7-66fa-4536-8d2a-ed7181614079","system_id":"levelo_inurba_marseille","lat":43.303773,"lon":5.424944,"is_reserved":false,"is_disabled":false,"rental_uris":{"android":"levelo://app?vid=7b0b7ba7-66fa-4536-8d2a-ed7181614079","ios":"levelo://app?vid=7b0b7ba7-66fa-4536-8d2a-ed7181614079"},"vehicle_type_id":"4","last_reported":1746864742,"current_range_meters":17600,"station_id":"ce4bhoh2rcd13ifvqh6g","pricing_plan_id":"cebpf4jnsgd1na2vs0mg"},{"bike_id":"f44042ec-2f55-46a8-ac37-47677a64d341","system_id":"levelo_inurba_marseille","lat":43.30049,"lon":5.38441,"is_reserved":false,"is_disabled":false,"rental_uris":{"android":"levelo://app?vid=f44042ec-2f55-46a8-ac37-47677a64d341","ios":"levelo://app?vid=f44042ec-2f55-46a8-ac37-47677a64d341"},"vehicle_type_id":"4","last_reported":1746864742,"current_range_meters":18000,"station_id":"","pricing_plan_id":"cebpf4jnsgd1na2vs0mg"},{"bike_id":"ad717bae-7f3c-4dc4-bad2-f585c29d74b3","system_id":"levelo_inurba_marseille","lat":43.288559,"lon":5.358386,"is_reserved":false,"is_disabled":false,"rental_uris":{"android":"levelo://app?vid=ad717bae-7f3c-4dc4-bad2-f585c29d74b3","ios":"levelo://app?vid=ad717bae-7f3c-4dc4-bad2-f585c29d74b3"},"vehicle_type_id":"4","last_reported":1746864742,"current_range_meters":18000,"station_id":"ce4bhb12rcd13ifvqem0","pricing_plan_id":"cebpf4jnsgd1na2vs0mg"},{"bike_id":"71bbdcc4-2031-4835-9c57-d43cceafe08e","system_id":"levelo_inurba_marseille","lat":43.23152,"lon":5.43712,"is_reserved":false,"is_disabled":false,"rental_uris":{"android":"levelo://app?vid=71bbdcc4-2031-4835-9c57-d43cceafe08e","ios":"levelo://app?vid=71bbdcc4-2031-4835-9c57-d43cceafe08e"},"vehicle_type_id":"4","last_reported":1746864742,"current_range_meters":18000,"station_id":"ce4bhmp2rcd13ifvqgog","pricing_plan_id":"cebpf4jnsgd1na2vs0mg"},{"bike_id":"0fb6b147-e9a8-4345-a220-93d47a47a517","system_id":"levelo_inurba_marseille","lat":43.229368,"lon":5.353998,"is_reserved":false,"is_disabled":false,"rental_uris":{"android":"levelo://app?vid=0fb6b147-e9a8-4345-a220-93d47a47a517","ios":"levelo://app?vid=0fb6b147-e9a8-4345-a220-93d47a47a517"},"vehicle_type_id":"4","last_reported":1746864742,"current_range_meters":18000,"station_id":"cpo3532slgdg3j2ikp40","pricing_plan_id":"cebpf4jnsgd1na2vs0mg"},{"bike_id":"11bac9a6-0e04-4c68-9615-f13539342864","system_id":"levelo_inurba_marseille","lat":43.21192,"lon":5.35065,"is_reserved":false,"is_disabled":false,"rental_uris":{"android":"levelo://app?vid=11bac9a6-0e04-4c68-9615-f13539342864","ios":"levelo://app?vid=11bac9a6-0e04-4c68-9615-f13539342864"},"vehicle_type_id":"4","last_reported":1746864742,"current_range_meters":18000,"station_id":"st_cvj6sg6p6f1abm77japg","pricing_plan_id":"cebpf4jnsgd1na2vs0mg"},{"bike_id":"9dddd05e-1ef2-4554-9114-f92c3593b555","system_id":"levelo_inurba_marseille","lat":43.29301,"lon":5.37171,"is_reserved":false,"is_disabled":false,"rental_uris":{"android":"levelo://app?vid=9dddd05e-1ef2-4554-9114-f92c3593b555","ios":"levelo://app?vid=9dddd05e-1ef2-4554-9114-f92c3593b555"},"vehicle_type_id":"4","last_reported":1746864742,"current_range_meters":18800,"station_id":"ce4bgh92rcd13ifvqb40","pricing_plan_id":"cebpf4jnsgd1na2vs0mg"},{"bike_id":"e9567889-1e17-4798-81c6-2dd3daa4a45c","system_id":"levelo_inurba_marseille","lat":43.2835,"lon":5.38101,"is_reserved":false,"is_disabled":false,"rental_uris":{"android":"levelo://app?vid=e9567889-1e17-4798-81c6-2dd3daa4a45c","ios":"levelo://app?vid=e9567889-1e17-4798-81c6-2dd3daa4a45c"},"vehicle_type_id":"4","last_reported":1746864742,"current_range_meters":18800,"station_id":"ce4bh412rcd13ifvqdr0","pricing_plan_id":"cebpf4jnsgd1na2vs0mg"},{"bike_id":"3ace9874-0c23-4b76-b792-28d9c2015bc4","system_id":"levelo_inurba_marseille","lat":43.2795,"lon":5.41644,"is_reserved":false,"is_disabled":false,"rental_uris":{"android":"levelo://app?vid=3ace9874-0c23-4b76-b792-28d9c2015bc4","ios":"levelo://app?vid=3ace9874-0c23-4b76-b792-28d9c2015bc4"},"vehicle_type_id":"4","last_reported":1746864742,"current_range_meters":18800,"station_id":"ce4bho12rcd13ifvqh1g","pricing_plan_id":"cebpf4jnsgd1na2vs0mg"},{"bike_id":"81230072-1366-4a6c-a593-e76d887facbc","system_id":"levelo_inurba_marseille","lat":43.22927,"lon":5.35382,"is_reserved":false,"is_disabled":false,"rental_uris":{"android":"levelo://app?vid=81230072-1366-4a6c-a593-e76d887facbc","ios":"levelo://app?vid=81230072-1366-4a6c-a593-e76d887facbc"},"vehicle_type_id":"4","last_reported":1746864742,"current_range_meters":18800,"station_id":"cpo3532slgdg3j2ikp40","pricing_plan_id":"cebpf4jnsgd1na2vs0mg"},{"bike_id":"bb1c07e6-4866-4bad-a06f-306ce6882d9f","system_id":"levelo_inurba_marseille","lat":43.307885,"lon":5.376495,"is_reserved":false,"is_disabled":false,"rental_uris":{"android":"levelo://app?vid=bb1c07e6-4866-4bad-a06f-306ce6882d9f","ios":"levelo://app?vid=bb1c07e6-4866-4bad-a06f-306ce6882d9f"},"vehicle_type_id":"4","last_reported":1746864742,"current_range_meters":19200,"station_id":"ce4bgv92rcd13ifvqcq0","pricing_plan_id":"cebpf4jnsgd1na2vs0mg"},{"bike_id":"dbf6b595-3a56-485a-876a-df30e4bc932b","system_id":"levelo_inurba_marseille","lat":43.24069,"lon":5.37764,"is_reserved":false,"is_disabled":false,"rental_uris":{"android":"levelo://app?vid=dbf6b595-3a56-485a-876a-df30e4bc932b","ios":"levelo://app?vid=dbf6b595-3a56-485a-876a-df30e4bc932b"},"vehicle_type_id":"4","last_reported":1746864742,"current_range_meters":19200,"station_id":"ce4bhnp2rcd13ifvqgvg","pricing_plan_id":"cebpf4jnsgd1na2vs0mg"},{"bike_id":"b89b9d37-5bf0-49d3-877a-2a96a0f61bbf","system_id":"levelo_inurba_marseille","lat":43.301444,"lon":5.387777,"is_reserved":false,"is_disabled":false,"rental_uris":{"android":"levelo://app?vid=b89b9d37-5bf0-49d3-877a-2a96a0f61bbf","ios":"levelo://app?vid=b89b9d37-5bf0-49d3-877a-2a96a0f61bbf"},"vehicle_type_id":"4","last_reported":1746864742,"current_range_meters":19600,"station_id":"ce4bghh2rcd13ifvqb60","pricing_plan_id":"cebpf4jnsgd1na2vs0mg"},{"bike_id":"44e4350f-f3d0-452c-917d-6f1bc146ae5d","system_id":"levelo_inurba_marseille","lat":43.290458,"lon":5.359065,"is_reserved":false,"is_disabled":false,"rental_uris":{"android":"levelo://app?vid=44e4350f-f3d0-452c-917d-6f1bc146ae5d","ios":"levelo://app?vid=44e4350f-f3d0-452c-917d-6f1bc146ae5d"},"vehicle_type_id":"4","last_reported":1746864742,"current_range_meters":19600,"station_id":"ce4bha92rcd13ifvqeg0","pricing_plan_id":"cebpf4jnsgd1na2vs0mg"},{"bike_id":"fa6e439f-c9e6-4700-a521-ff33b66d02fb","system_id":"levelo_inurba_marseille","lat":43.312062,"lon":5.382453,"is_reserved":false,"is_disabled":false,"rental_uris":{"android":"levelo://app?vid=fa6e439f-c9e6-4700-a521-ff33b66d02fb","ios":"levelo://app?vid=fa6e439f-c9e6-4700-a521-ff33b66d02fb"},"vehicle_type_id":"4","last_reported":1746864742,"current_range_meters":19600,"station_id":"ce4bhg12rcd13ifvqf60","pricing_plan_id":"cebpf4jnsgd1na2vs0mg"},{"bike_id":"e14f934e-4c60-420a-9561-87cab2dc4b74","system_id":"levelo_inurba_marseille","lat":43.244,"lon":5.37065,"is_reserved":false,"is_disabled":false,"rental_uris":{"android":"levelo://app?vid=e14f934e-4c60-420a-9561-87cab2dc4b74","ios":"levelo://app?vid=e14f934e-4c60-420a-9561-87cab2dc4b74"},"vehicle_type_id":"4","last_reported":1746864742,"current_range_meters":19600,"station_id":"ce4bhhh2rcd13ifvqfk0","pricing_plan_id":"cebpf4jnsgd1na2vs0mg"},{"bike_id":"885d30f7-acb0-49fb-b6e8-5a41df1b5dea","system_id":"levelo_inurba_marseille","lat":43.27835,"lon":5.39203,"is_reserved":false,"is_disabled":false,"rental_uris":{"android":"levelo://app?vid=885d30f7-acb0-49fb-b6e8-5a41df1b5dea","ios":"levelo://app?vid=885d30f7-acb0-49fb-b6e8-5a41df1b5dea"},"vehicle_type_id":"4","last_reported":1746864742,"current_range_meters":19600,"station_id":"ce4bhjp2rcd13ifvqga0","pricing_plan_id":"cebpf4jnsgd1na2vs0mg"},{"bike_id":"5d3c2dcf-f5b4-447b-a1c0-575a964ec8c5","system_id":"levelo_inurba_marseille","lat":43.23133,"lon":5.43668,"is_reserved":false,"is_disabled":false,"rental_uris":{"android":"levelo://app?vid=5d3c2dcf-f5b4-447b-a1c0-575a964ec8c5","ios":"levelo://app?vid=5d3c2dcf-f5b4-447b-a1c0-575a964ec8c5"},"vehicle_type_id":"4","last_reported":1746864742,"current_range_meters":19600,"station_id":"ce4bhmp2rcd13ifvqgog","pricing_plan_id":"cebpf4jnsgd1na2vs0mg"},{"bike_id":"9b66b9a5-12bc-443c-8274-63cfa5ad0004","system_id":"levelo_inurba_marseille","lat":43.24066,"lon":5.37767,"is_reserved":false,"is_disabled":false,"rental_uris":{"android":"levelo://app?vid=9b66b9a5-12bc-443c-8274-63cfa5ad0004","ios":"levelo://app?vid=9b66b9a5-12bc-443c-8274-63cfa5ad0004"},"vehicle_type_id":"4","last_reported":1746864742,"current_range_meters":19600,"station_id":"ce4bhnp2rcd13ifvqgvg","pricing_plan_id":"cebpf4jnsgd1na2vs0mg"},{"bike_id":"8e8bcfa2-4017-4c63-a2ae-efb27dbbaea3","system_id":"levelo_inurba_marseille","lat":43.26565,"lon":5.3903,"is_reserved":false,"is_disabled":false,"rental_uris":{"android":"levelo://app?vid=8e8bcfa2-4017-4c63-a2ae-efb27dbbaea3","ios":"levelo://app?vid=8e8bcfa2-4017-4c63-a2ae-efb27dbbaea3"},"vehicle_type_id":"4","last_reported":1746864742,"current_range_meters":20000,"station_id":"ce4bhe12rcd13ifvqf30","pricing_plan_id":"cebpf4jnsgd1na2vs0mg"},{"bike_id":"f0c1a107-9442-4216-902f-1e51cc714f9f","system_id":"levelo_inurba_marseille","lat":43.25117,"lon":5.40317,"is_reserved":false,"is_disabled":false,"rental_uris":{"android":"levelo://app?vid=f0c1a107-9442-4216-902f-1e51cc714f9f","ios":"levelo://app?vid=f0c1a107-9442-4216-902f-1e51cc714f9f"},"vehicle_type_id":"4","last_reported":1746864742,"current_range_meters":20000,"station_id":"ce4bhlh2rcd13ifvqgig","pricing_plan_id":"cebpf4jnsgd1na2vs0mg"},{"bike_id":"24ef580c-edb6-4f11-9d94-100ebb23751f","system_id":"levelo_inurba_marseille","lat":43.27942,"lon":5.410433,"is_reserved":false,"is_disabled":false,"rental_uris":{"android":"levelo://app?vid=24ef580c-edb6-4f11-9d94-100ebb23751f","ios":"levelo://app?vid=24ef580c-edb6-4f11-9d94-100ebb23751f"},"vehicle_type_id":"4","last_reported":1746864742,"current_range_meters":20000,"station_id":"ce4bhnp2rcd13ifvqh0g","pricing_plan_id":"cebpf4jnsgd1na2vs0mg"},{"bike_id":"f52c819d-ca4b-4640-b458-b877db1bf990","system_id":"levelo_inurba_marseille","lat":43.29855,"lon":5.40961,"is_reserved":false,"is_disabled":false,"rental_uris":{"android":"levelo://app?vid=f52c819d-ca4b-4640-b458-b877db1bf990","ios":"levelo://app?vid=f52c819d-ca4b-4640-b458-b877db1bf990"},"vehicle_type_id":"4","last_reported":1746864742,"current_range_meters":20400,"station_id":"","pricing_plan_id":"cebpf4jnsgd1na2vs0mg"},{"bike_id":"de100116-f22b-47a4-85cc-53957fed0056","system_id":"levelo_inurba_marseille","lat":43.30527,"lon":5.36534,"is_reserved":false,"is_disabled":false,"rental_uris":{"android":"levelo://app?vid=de100116-f22b-47a4-85cc-53957fed0056","ios":"levelo://app?vid=de100116-f22b-47a4-85cc-53957fed0056"},"vehicle_type_id":"4","last_reported":1746864742,"current_range_meters":20400,"station_id":"ce4bgs12rcd13ifvqcag","pricing_plan_id":"cebpf4jnsgd1na2vs0mg"},{"bike_id":"19e5bd7b-1aef-4a56-ad0b-8f98c64e69fb","system_id":"levelo_inurba_marseille","lat":43.293688,"lon":5.378527,"is_reserved":false,"is_disabled":false,"rental_uris":{"android":"levelo://app?vid=19e5bd7b-1aef-4a56-ad0b-8f98c64e69fb","ios":"levelo://app?vid=19e5bd7b-1aef-4a56-ad0b-8f98c64e69fb"},"vehicle_type_id":"4","last_reported":1746864742,"current_range_meters":20800,"station_id":"ce4bgjh2rcd13ifvqbf0","pricing_plan_id":"cebpf4jnsgd1na2vs0mg"},{"bike_id":"d1678c4e-3228-4405-ba93-7cb07fd8fae1","system_id":"levelo_inurba_marseille","lat":43.30152,"lon":5.38083,"is_reserved":false,"is_disabled":false,"rental_uris":{"android":"levelo://app?vid=d1678c4e-3228-4405-ba93-7cb07fd8fae1","ios":"levelo://app?vid=d1678c4e-3228-4405-ba93-7cb07fd8fae1"},"vehicle_type_id":"4","last_reported":1746864742,"current_range_meters":20800,"station_id":"ce4bgjp2rcd13ifvqbh0","pricing_plan_id":"cebpf4jnsgd1na2vs0mg"},{"bike_id":"9e2034f7-dd3c-4393-8655-af4ee8d48531","system_id":"levelo_inurba_marseille","lat":43.295213,"lon":5.374923,"is_reserved":false,"is_disabled":false,"rental_uris":{"android":"levelo://app?vid=9e2034f7-dd3c-4393-8655-af4ee8d48531","ios":"levelo://app?vid=9e2034f7-dd3c-4393-8655-af4ee8d48531"},"vehicle_type_id":"4","last_reported":1746864742,"current_range_meters":20800,"station_id":"ce4bgkp2rcd13ifvqbmg","pricing_plan_id":"cebpf4jnsgd1na2vs0mg"},{"bike_id":"b00b44fc-6458-40d1-a6e3-6d7795cade8d","system_id":"levelo_inurba_marseille","lat":43.2988,"lon":5.39736,"is_reserved":false,"is_disabled":false,"rental_uris":{"android":"levelo://app?vid=b00b44fc-6458-40d1-a6e3-6d7795cade8d","ios":"levelo://app?vid=b00b44fc-6458-40d1-a6e3-6d7795cade8d"},"vehicle_type_id":"4","last_reported":1746864742,"current_range_meters":20800,"station_id":"ce4bh0h2rcd13ifvqd50","pricing_plan_id":"cebpf4jnsgd1na2vs0mg"},{"bike_id":"8739a945-c04c-4fe3-9291-0e5954d52ff6","system_id":"levelo_inurba_marseille","lat":43.32216,"lon":5.38253,"is_reserved":false,"is_disabled":false,"rental_uris":{"android":"levelo://app?vid=8739a945-c04c-4fe3-9291-0e5954d52ff6","ios":"levelo://app?vid=8739a945-c04c-4fe3-9291-0e5954d52ff6"},"vehicle_type_id":"4","last_reported":1746864742,"current_range_meters":20800,"station_id":"ce4bhr12rcd13ifvqhqg","pricing_plan_id":"cebpf4jnsgd1na2vs0mg"},{"bike_id":"73ded412-1ade-4c78-acbe-a9afd038932d","system_id":"levelo_inurba_marseille","lat":43.241661,"lon":5.363985,"is_reserved":false,"is_disabled":false,"rental_uris":{"android":"levelo://app?vid=73ded412-1ade-4c78-acbe-a9afd038932d","ios":"levelo://app?vid=73ded412-1ade-4c78-acbe-a9afd038932d"},"vehicle_type_id":"4","last_reported":1746864742,"current_range_meters":20800,"station_id":"cpo36qri1sfpv3e86is0","pricing_plan_id":"cebpf4jnsgd1na2vs0mg"},{"bike_id":"7822a744-c870-4733-a37d-ab615121b09c","system_id":"levelo_inurba_marseille","lat":43.21196,"lon":5.35072,"is_reserved":false,"is_disabled":false,"rental_uris":{"android":"levelo://app?vid=7822a744-c870-4733-a37d-ab615121b09c","ios":"levelo://app?vid=7822a744-c870-4733-a37d-ab615121b09c"},"vehicle_type_id":"4","last_reported":1746864742,"current_range_meters":21600,"station_id":"st_cvj6sg6p6f1abm77japg","pricing_plan_id":"cebpf4jnsgd1na2vs0mg"},{"bike_id":"48ed43fb-4ad0-4001-acee-f6ea4523cfc5","system_id":"levelo_inurba_marseille","lat":43.286254,"lon":5.476933,"is_reserved":false,"is_disabled":false,"rental_uris":{"android":"levelo://app?vid=48ed43fb-4ad0-4001-acee-f6ea4523cfc5","ios":"levelo://app?vid=48ed43fb-4ad0-4001-acee-f6ea4523cfc5"},"vehicle_type_id":"4","last_reported":1746864742,"current_range_meters":22000,"station_id":"","pricing_plan_id":"cebpf4jnsgd1na2vs0mg"},{"bike_id":"def5c620-41ad-4dac-ba72-e3b5c0471d3e","system_id":"levelo_inurba_marseille","lat":43.30949,"lon":5.39024,"is_reserved":false,"is_disabled":false,"rental_uris":{"android":"levelo://app?vid=def5c620-41ad-4dac-ba72-e3b5c0471d3e","ios":"levelo://app?vid=def5c620-41ad-4dac-ba72-e3b5c0471d3e"},"vehicle_type_id":"4","last_reported":1746864742,"current_range_meters":22000,"station_id":"ce4bgup2rcd13ifvqco0","pricing_plan_id":"cebpf4jnsgd1na2vs0mg"},{"bike_id":"d85ccd33-8588-471b-b8e5-269ec6095613","system_id":"levelo_inurba_marseille","lat":43.26565,"lon":5.39015,"is_reserved":false,"is_disabled":false,"rental_uris":{"android":"levelo://app?vid=d85ccd33-8588-471b-b8e5-269ec6095613","ios":"levelo://app?vid=d85ccd33-8588-471b-b8e5-269ec6095613"},"vehicle_type_id":"4","last_reported":1746864742,"current_range_meters":22000,"station_id":"ce4bhe12rcd13ifvqf30","pricing_plan_id":"cebpf4jnsgd1na2vs0mg"},{"bike_id":"612e447e-8642-4d08-9eed-865a2c20ffe1","system_id":"levelo_inurba_marseille","lat":43.25724,"lon":5.41104,"is_reserved":false,"is_disabled":false,"rental_uris":{"android":"levelo://app?vid=612e447e-8642-4d08-9eed-865a2c20ffe1","ios":"levelo://app?vid=612e447e-8642-4d08-9eed-865a2c20ffe1"},"vehicle_type_id":"4","last_reported":1746864742,"current_range_meters":22000,"station_id":"ce4bhkp2rcd13ifvqgd0","pricing_plan_id":"cebpf4jnsgd1na2vs0mg"},{"bike_id":"c11f40f8-d4e2-4484-ad32-dee96c4d6e16","system_id":"levelo_inurba_marseille","lat":43.30369,"lon":5.42488,"is_reserved":false,"is_disabled":false,"rental_uris":{"android":"levelo://app?vid=c11f40f8-d4e2-4484-ad32-dee96c4d6e16","ios":"levelo://app?vid=c11f40f8-d4e2-4484-ad32-dee96c4d6e16"},"vehicle_type_id":"4","last_reported":1746864742,"current_range_meters":22000,"station_id":"ce4bhoh2rcd13ifvqh6g","pricing_plan_id":"cebpf4jnsgd1na2vs0mg"},{"bike_id":"7519b0a5-ee9b-4a80-928e-be274938e16a","system_id":"levelo_inurba_marseille","lat":43.29704,"lon":5.36609,"is_reserved":false,"is_disabled":false,"rental_uris":{"android":"levelo://app?vid=7519b0a5-ee9b-4a80-928e-be274938e16a","ios":"levelo://app?vid=7519b0a5-ee9b-4a80-928e-be274938e16a"},"vehicle_type_id":"4","last_reported":1746864742,"current_range_meters":22400,"station_id":"ce4bgn12rcd13ifvqbt0","pricing_plan_id":"cebpf4jnsgd1na2vs0mg"},{"bike_id":"bc8f60f1-178e-46a4-b4d9-619eaa9c2a22","system_id":"levelo_inurba_marseille","lat":43.2958,"lon":5.36739,"is_reserved":false,"is_disabled":false,"rental_uris":{"android":"levelo://app?vid=bc8f60f1-178e-46a4-b4d9-619eaa9c2a22","ios":"levelo://app?vid=bc8f60f1-178e-46a4-b4d9-619eaa9c2a22"},"vehicle_type_id":"4","last_reported":1746864742,"current_range_meters":22400,"station_id":"ce4bgph2rcd13ifvqc2g","pricing_plan_id":"cebpf4jnsgd1na2vs0mg"},{"bike_id":"764091e0-80ad-4ecb-9c44-2d22e833efb4","system_id":"levelo_inurba_marseille","lat":43.25003,"lon":5.38916,"is_reserved":false,"is_disabled":false,"rental_uris":{"android":"levelo://app?vid=764091e0-80ad-4ecb-9c44-2d22e833efb4","ios":"levelo://app?vid=764091e0-80ad-4ecb-9c44-2d22e833efb4"},"vehicle_type_id":"4","last_reported":1746864742,"current_range_meters":22400,"station_id":"ce4bhgp2rcd13ifvqfd0","pricing_plan_id":"cebpf4jnsgd1na2vs0mg"},{"bike_id":"022cb858-127b-4ef4-a862-1e5689c255ab","system_id":"levelo_inurba_marseille","lat":43.27814,"lon":5.40701,"is_reserved":false,"is_disabled":false,"rental_uris":{"android":"levelo://app?vid=022cb858-127b-4ef4-a862-1e5689c255ab","ios":"levelo://app?vid=022cb858-127b-4ef4-a862-1e5689c255ab"},"vehicle_type_id":"4","last_reported":1746864742,"current_range_meters":22400,"station_id":"ce4bhnh2rcd13ifvqgtg","pricing_plan_id":"cebpf4jnsgd1na2vs0mg"},{"bike_id":"e7ffe0c5-dc10-4852-9cf2-cb8492ec030d","system_id":"levelo_inurba_marseille","lat":43.30148,"lon":5.38085,"is_reserved":false,"is_disabled":false,"rental_uris":{"android":"levelo://app?vid=e7ffe0c5-dc10-4852-9cf2-cb8492ec030d","ios":"levelo://app?vid=e7ffe0c5-dc10-4852-9cf2-cb8492ec030d"},"vehicle_type_id":"4","last_reported":1746864742,"current_range_meters":22800,"station_id":"ce4bgjp2rcd13ifvqbh0","pricing_plan_id":"cebpf4jnsgd1na2vs0mg"},{"bike_id":"e58f9df4-28bb-4f9e-ae6d-dba8617ce870","system_id":"levelo_inurba_marseille","lat":43.298675,"lon":5.397274,"is_reserved":false,"is_disabled":false,"rental_uris":{"android":"levelo://app?vid=e58f9df4-28bb-4f9e-ae6d-dba8617ce870","ios":"levelo://app?vid=e58f9df4-28bb-4f9e-ae6d-dba8617ce870"},"vehicle_type_id":"4","last_reported":1746864742,"current_range_meters":22800,"station_id":"ce4bh0h2rcd13ifvqd50","pricing_plan_id":"cebpf4jnsgd1na2vs0mg"},{"bike_id":"82a9d037-2afd-4dc3-af75-de469a031f70","system_id":"levelo_inurba_marseille","lat":43.24392,"lon":5.37049,"is_reserved":false,"is_disabled":false,"rental_uris":{"android":"levelo://app?vid=82a9d037-2afd-4dc3-af75-de469a031f70","ios":"levelo://app?vid=82a9d037-2afd-4dc3-af75-de469a031f70"},"vehicle_type_id":"4","last_reported":1746864742,"current_range_meters":22800,"station_id":"ce4bhhh2rcd13ifvqfk0","pricing_plan_id":"cebpf4jnsgd1na2vs0mg"},{"bike_id":"4847d81f-d50e-4609-8983-6082c307ddc0","system_id":"levelo_inurba_marseille","lat":43.31705,"lon":5.43718,"is_reserved":false,"is_disabled":false,"rental_uris":{"android":"levelo://app?vid=4847d81f-d50e-4609-8983-6082c307ddc0","ios":"levelo://app?vid=4847d81f-d50e-4609-8983-6082c307ddc0"},"vehicle_type_id":"4","last_reported":1746864742,"current_range_meters":22800,"station_id":"ce4bhp92rcd13ifvqhcg","pricing_plan_id":"cebpf4jnsgd1na2vs0mg"},{"bike_id":"02bac07a-9186-49eb-a666-f70d86d99978","system_id":"levelo_inurba_marseille","lat":43.21202,"lon":5.35056,"is_reserved":false,"is_disabled":false,"rental_uris":{"android":"levelo://app?vid=02bac07a-9186-49eb-a666-f70d86d99978","ios":"levelo://app?vid=02bac07a-9186-49eb-a666-f70d86d99978"},"vehicle_type_id":"4","last_reported":1746864742,"current_range_meters":22800,"station_id":"st_cvj6sg6p6f1abm77japg","pricing_plan_id":"cebpf4jnsgd1na2vs0mg"},{"bike_id":"e9d26590-50b7-4586-a88c-d7b3a191ab0e","system_id":"levelo_inurba_marseille","lat":43.30138,"lon":5.38777,"is_reserved":false,"is_disabled":false,"rental_uris":{"android":"levelo://app?vid=e9d26590-50b7-4586-a88c-d7b3a191ab0e","ios":"levelo://app?vid=e9d26590-50b7-4586-a88c-d7b3a191ab0e"},"vehicle_type_id":"4","last_reported":1746864742,"current_range_meters":23200,"station_id":"ce4bghh2rcd13ifvqb60","pricing_plan_id":"cebpf4jnsgd1na2vs0mg"},{"bike_id":"351ef218-24e5-4670-825d-fc1ac5cd3c19","system_id":"levelo_inurba_marseille","lat":43.31478,"lon":5.37295,"is_reserved":false,"is_disabled":false,"rental_uris":{"android":"levelo://app?vid=351ef218-24e5-4670-825d-fc1ac5cd3c19","ios":"levelo://app?vid=351ef218-24e5-4670-825d-fc1ac5cd3c19"},"vehicle_type_id":"4","last_reported":1746864742,"current_range_meters":23200,"station_id":"ce4bgt12rcd13ifvqcd0","pricing_plan_id":"cebpf4jnsgd1na2vs0mg"},{"bike_id":"da1c5ec3-22aa-41b9-908c-4d323560536d","system_id":"levelo_inurba_marseille","lat":43.31075,"lon":5.3836,"is_reserved":false,"is_disabled":false,"rental_uris":{"android":"levelo://app?vid=da1c5ec3-22aa-41b9-908c-4d323560536d","ios":"levelo://app?vid=da1c5ec3-22aa-41b9-908c-4d323560536d"},"vehicle_type_id":"4","last_reported":1746864742,"current_range_meters":23200,"station_id":"ce4bgv92rcd13ifvqcr0","pricing_plan_id":"cebpf4jnsgd1na2vs0mg"},{"bike_id":"66114e87-3102-4b6e-b735-c1b9abde13c5","system_id":"levelo_inurba_marseille","lat":43.30941,"lon":5.40151,"is_reserved":false,"is_disabled":false,"rental_uris":{"android":"levelo://app?vid=66114e87-3102-4b6e-b735-c1b9abde13c5","ios":"levelo://app?vid=66114e87-3102-4b6e-b735-c1b9abde13c5"},"vehicle_type_id":"4","last_reported":1746864742,"current_range_meters":23200,"station_id":"ce4bgvp2rcd13ifvqct0","pricing_plan_id":"cebpf4jnsgd1na2vs0mg"},{"bike_id":"7fc85542-413b-47cb-90f3-fc9a0d501d7e","system_id":"levelo_inurba_marseille","lat":43.24667,"lon":5.3815,"is_reserved":false,"is_disabled":false,"rental_uris":{"android":"levelo://app?vid=7fc85542-413b-47cb-90f3-fc9a0d501d7e","ios":"levelo://app?vid=7fc85542-413b-47cb-90f3-fc9a0d501d7e"},"vehicle_type_id":"4","last_reported":1746864742,"current_range_meters":23200,"station_id":"ce4bhih2rcd13ifvqfr0","pricing_plan_id":"cebpf4jnsgd1na2vs0mg"},{"bike_id":"30f161e5-1563-4277-b384-7c3a05224630","system_id":"levelo_inurba_marseille","lat":43.30777,"lon":5.37662,"is_reserved":false,"is_disabled":false,"rental_uris":{"android":"levelo://app?vid=30f161e5-1563-4277-b384-7c3a05224630","ios":"levelo://app?vid=30f161e5-1563-4277-b384-7c3a05224630"},"vehicle_type_id":"4","last_reported":1746864742,"current_range_meters":24000,"station_id":"ce4bgv92rcd13ifvqcq0","pricing_plan_id":"cebpf4jnsgd1na2vs0mg"},{"bike_id":"f5bba4d5-3a3f-4be7-aabd-db3547ea2838","system_id":"levelo_inurba_marseille","lat":43.29227,"lon":5.36052,"is_reserved":false,"is_disabled":false,"rental_uris":{"android":"levelo://app?vid=f5bba4d5-3a3f-4be7-aabd-db3547ea2838","ios":"levelo://app?vid=f5bba4d5-3a3f-4be7-aabd-db3547ea2838"},"vehicle_type_id":"4","last_reported":1746864742,"current_range_meters":24000,"station_id":"ce4bhbh2rcd13ifvqeqg","pricing_plan_id":"cebpf4jnsgd1na2vs0mg"},{"bike_id":"f540e7bc-f669-40b3-8360-f39a3611b1b5","system_id":"levelo_inurba_marseille","lat":43.23152,"lon":5.43715,"is_reserved":false,"is_disabled":false,"rental_uris":{"android":"levelo://app?vid=f540e7bc-f669-40b3-8360-f39a3611b1b5","ios":"levelo://app?vid=f540e7bc-f669-40b3-8360-f39a3611b1b5"},"vehicle_type_id":"4","last_reported":1746864742,"current_range_meters":24000,"station_id":"ce4bhmp2rcd13ifvqgog","pricing_plan_id":"cebpf4jnsgd1na2vs0mg"},{"bike_id":"b8d79dd7-941c-43b7-8455-9b54251a048c","system_id":"levelo_inurba_marseille","lat":43.29526,"lon":5.37502,"is_reserved":false,"is_disabled":false,"rental_uris":{"android":"levelo://app?vid=b8d79dd7-941c-43b7-8455-9b54251a048c","ios":"levelo://app?vid=b8d79dd7-941c-43b7-8455-9b54251a048c"},"vehicle_type_id":"4","last_reported":1746864742,"current_range_meters":24400,"station_id":"ce4bgkp2rcd13ifvqbmg","pricing_plan_id":"cebpf4jnsgd1na2vs0mg"},{"bike_id":"40b29dc7-38e1-4f66-85b2-7a146d1d8e20","system_id":"levelo_inurba_marseille","lat":43.30622,"lon":5.40095,"is_reserved":false,"is_disabled":false,"rental_uris":{"android":"levelo://app?vid=40b29dc7-38e1-4f66-85b2-7a146d1d8e20","ios":"levelo://app?vid=40b29dc7-38e1-4f66-85b2-7a146d1d8e20"},"vehicle_type_id":"4","last_reported":1746864742,"current_range_meters":24400,"station_id":"ce4bh112rcd13ifvqda0","pricing_plan_id":"cebpf4jnsgd1na2vs0mg"},{"bike_id":"4e06bc83-09ca-47d0-9368-878024c39aec","system_id":"levelo_inurba_marseille","lat":43.23959,"lon":5.36627,"is_reserved":false,"is_disabled":false,"rental_uris":{"android":"levelo://app?vid=4e06bc83-09ca-47d0-9368-878024c39aec","ios":"levelo://app?vid=4e06bc83-09ca-47d0-9368-878024c39aec"},"vehicle_type_id":"4","last_reported":1746864742,"current_range_meters":24400,"station_id":"ce4bhi12rcd13ifvqfp0","pricing_plan_id":"cebpf4jnsgd1na2vs0mg"},{"bike_id":"e33044a0-51b0-4646-b4ef-13285d5963e4","system_id":"levelo_inurba_marseille","lat":43.25584,"lon":5.38228,"is_reserved":false,"is_disabled":false,"rental_uris":{"android":"levelo://app?vid=e33044a0-51b0-4646-b4ef-13285d5963e4","ios":"levelo://app?vid=e33044a0-51b0-4646-b4ef-13285d5963e4"},"vehicle_type_id":"4","last_reported":1746864742,"current_range_meters":24400,"station_id":"ce4bhih2rcd13ifvqfs0","pricing_plan_id":"cebpf4jnsgd1na2vs0mg"},{"bike_id":"426d2897-c5aa-4b2c-aac9-52d107f5a236","system_id":"levelo_inurba_marseille","lat":43.31699,"lon":5.4371,"is_reserved":false,"is_disabled":false,"rental_uris":{"android":"levelo://app?vid=426d2897-c5aa-4b2c-aac9-52d107f5a236","ios":"levelo://app?vid=426d2897-c5aa-4b2c-aac9-52d107f5a236"},"vehicle_type_id":"4","last_reported":1746864742,"current_range_meters":24400,"station_id":"ce4bhp92rcd13ifvqhcg","pricing_plan_id":"cebpf4jnsgd1na2vs0mg"},{"bike_id":"44f665c1-2629-4d9f-b1db-4ab081e35de0","system_id":"levelo_inurba_marseille","lat":43.32658,"lon":5.40989,"is_reserved":false,"is_disabled":false,"rental_uris":{"android":"levelo://app?vid=44f665c1-2629-4d9f-b1db-4ab081e35de0","ios":"levelo://app?vid=44f665c1-2629-4d9f-b1db-4ab081e35de0"},"vehicle_type_id":"4","last_reported":1746864742,"current_range_meters":24400,"station_id":"ce4bhpp2rcd13ifvqhgg","pricing_plan_id":"cebpf4jnsgd1na2vs0mg"},{"bike_id":"6b714480-f4e6-4b67-bb0d-0849078a64ab","system_id":"levelo_inurba_marseille","lat":43.24158,"lon":5.36406,"is_reserved":false,"is_disabled":false,"rental_uris":{"android":"levelo://app?vid=6b714480-f4e6-4b67-bb0d-0849078a64ab","ios":"levelo://app?vid=6b714480-f4e6-4b67-bb0d-0849078a64ab"},"vehicle_type_id":"4","last_reported":1746864742,"current_range_meters":24400,"station_id":"cpo36qri1sfpv3e86is0","pricing_plan_id":"cebpf4jnsgd1na2vs0mg"},{"bike_id":"313b14bb-532c-4ca8-a7a8-8588d2d40b5b","system_id":"levelo_inurba_marseille","lat":43.25648,"lon":5.386,"is_reserved":false,"is_disabled":false,"rental_uris":{"android":"levelo://app?vid=313b14bb-532c-4ca8-a7a8-8588d2d40b5b","ios":"levelo://app?vid=313b14bb-532c-4ca8-a7a8-8588d2d40b5b"},"vehicle_type_id":"4","last_reported":1746864742,"current_range_meters":24800,"station_id":"","pricing_plan_id":"cebpf4jnsgd1na2vs0mg"},{"bike_id":"a45ee51e-44d8-438b-9671-f759bb105218","system_id":"levelo_inurba_marseille","lat":43.28204,"lon":5.3683,"is_reserved":false,"is_disabled":false,"rental_uris":{"android":"levelo://app?vid=a45ee51e-44d8-438b-9671-f759bb105218","ios":"levelo://app?vid=a45ee51e-44d8-438b-9671-f759bb105218"},"vehicle_type_id":"4","last_reported":1746864742,"current_range_meters":24800,"station_id":"","pricing_plan_id":"cebpf4jnsgd1na2vs0mg"},{"bike_id":"38e973c3-d2f8-4d3b-92ed-a90f218d51e1","system_id":"levelo_inurba_marseille","lat":43.29793,"lon":5.38109,"is_reserved":false,"is_disabled":false,"rental_uris":{"android":"levelo://app?vid=38e973c3-d2f8-4d3b-92ed-a90f218d51e1","ios":"levelo://app?vid=38e973c3-d2f8-4d3b-92ed-a90f218d51e1"},"vehicle_type_id":"4","last_reported":1746864742,"current_range_meters":24800,"station_id":"ce4bgip2rcd13ifvqbb0","pricing_plan_id":"cebpf4jnsgd1na2vs0mg"},{"bike_id":"5124c704-e9a8-480c-a3ee-1f8bdc49197d","system_id":"levelo_inurba_marseille","lat":43.2962,"lon":5.37171,"is_reserved":false,"is_disabled":false,"rental_uris":{"android":"levelo://app?vid=5124c704-e9a8-480c-a3ee-1f8bdc49197d","ios":"levelo://app?vid=5124c704-e9a8-480c-a3ee-1f8bdc49197d"},"vehicle_type_id":"4","last_reported":1746864742,"current_range_meters":24800,"station_id":"ce4bgnh2rcd13ifvqc0g","pricing_plan_id":"cebpf4jnsgd1na2vs0mg"},{"bike_id":"93cf68f4-228f-4a8b-a2eb-22adfe4b5977","system_id":"levelo_inurba_marseille","lat":43.28976,"lon":5.37835,"is_reserved":false,"is_disabled":false,"rental_uris":{"android":"levelo://app?vid=93cf68f4-228f-4a8b-a2eb-22adfe4b5977","ios":"levelo://app?vid=93cf68f4-228f-4a8b-a2eb-22adfe4b5977"},"vehicle_type_id":"4","last_reported":1746864742,"current_range_meters":24800,"station_id":"ce4bh9p2rcd13ifvqed0","pricing_plan_id":"cebpf4jnsgd1na2vs0mg"},{"bike_id":"0813c0dc-da81-42eb-81e6-ca2b80bdae4b","system_id":"levelo_inurba_marseille","lat":43.25103,"lon":5.40332,"is_reserved":false,"is_disabled":false,"rental_uris":{"android":"levelo://app?vid=0813c0dc-da81-42eb-81e6-ca2b80bdae4b","ios":"levelo://app?vid=0813c0dc-da81-42eb-81e6-ca2b80bdae4b"},"vehicle_type_id":"4","last_reported":1746864742,"current_range_meters":24800,"station_id":"ce4bhlh2rcd13ifvqgig","pricing_plan_id":"cebpf4jnsgd1na2vs0mg"},{"bike_id":"e8d87c3a-8e63-4494-879e-6d10d56c9c58","system_id":"levelo_inurba_marseille","lat":43.30414,"lon":5.40277,"is_reserved":false,"is_disabled":false,"rental_uris":{"android":"levelo://app?vid=e8d87c3a-8e63-4494-879e-6d10d56c9c58","ios":"levelo://app?vid=e8d87c3a-8e63-4494-879e-6d10d56c9c58"},"vehicle_type_id":"4","last_reported":1746864742,"current_range_meters":25200,"station_id":"","pricing_plan_id":"cebpf4jnsgd1na2vs0mg"},{"bike_id":"21dbd99e-a4dd-488f-af7e-7b160ce2dad7","system_id":"levelo_inurba_marseille","lat":43.29973,"lon":5.37178,"is_reserved":false,"is_disabled":false,"rental_uris":{"android":"levelo://app?vid=21dbd99e-a4dd-488f-af7e-7b160ce2dad7","ios":"levelo://app?vid=21dbd99e-a4dd-488f-af7e-7b160ce2dad7"},"vehicle_type_id":"4","last_reported":1746864742,"current_range_meters":25200,"station_id":"ce4bgr92rcd13ifvqc7g","pricing_plan_id":"cebpf4jnsgd1na2vs0mg"},{"bike_id":"8a5e136b-da8d-41d0-b337-a63cf7ff62e3","system_id":"levelo_inurba_marseille","lat":43.27059,"lon":5.40268,"is_reserved":false,"is_disabled":false,"rental_uris":{"android":"levelo://app?vid=8a5e136b-da8d-41d0-b337-a63cf7ff62e3","ios":"levelo://app?vid=8a5e136b-da8d-41d0-b337-a63cf7ff62e3"},"vehicle_type_id":"4","last_reported":1746864742,"current_range_meters":25200,"station_id":"ce4bhk92rcd13ifvqgc0","pricing_plan_id":"cebpf4jnsgd1na2vs0mg"},{"bike_id":"a7e6909d-a880-43cf-adee-5ce64e104a87","system_id":"levelo_inurba_marseille","lat":43.32374,"lon":5.38876,"is_reserved":false,"is_disabled":false,"rental_uris":{"android":"levelo://app?vid=a7e6909d-a880-43cf-adee-5ce64e104a87","ios":"levelo://app?vid=a7e6909d-a880-43cf-adee-5ce64e104a87"},"vehicle_type_id":"4","last_reported":1746864742,"current_range_meters":25200,"station_id":"ce4bhqp2rcd13ifvqhog","pricing_plan_id":"cebpf4jnsgd1na2vs0mg"},{"bike_id":"ab90e9a9-2105-46d9-ad7c-f0b4aa67724b","system_id":"levelo_inurba_marseille","lat":43.235873,"lon":5.403473,"is_reserved":false,"is_disabled":false,"rental_uris":{"android":"levelo://app?vid=ab90e9a9-2105-46d9-ad7c-f0b4aa67724b","ios":"levelo://app?vid=ab90e9a9-2105-46d9-ad7c-f0b4aa67724b"},"vehicle_type_id":"4","last_reported":1746864742,"current_range_meters":25600,"station_id":"","pricing_plan_id":"cebpf4jnsgd1na2vs0mg"},{"bike_id":"9df34d52-af7b-4077-9c03-155d0400366c","system_id":"levelo_inurba_marseille","lat":43.29274,"lon":5.40116,"is_reserved":false,"is_disabled":false,"rental_uris":{"android":"levelo://app?vid=9df34d52-af7b-4077-9c03-155d0400366c","ios":"levelo://app?vid=9df34d52-af7b-4077-9c03-155d0400366c"},"vehicle_type_id":"4","last_reported":1746864742,"current_range_meters":25600,"station_id":"ce4bh312rcd13ifvqdk0","pricing_plan_id":"cebpf4jnsgd1na2vs0mg"},{"bike_id":"ed269f08-24c0-40fa-95b0-29c6d4701fde","system_id":"levelo_inurba_marseille","lat":43.270819,"lon":5.422824,"is_reserved":false,"is_disabled":false,"rental_uris":{"android":"levelo://app?vid=ed269f08-24c0-40fa-95b0-29c6d4701fde","ios":"levelo://app?vid=ed269f08-24c0-40fa-95b0-29c6d4701fde"},"vehicle_type_id":"4","last_reported":1746864742,"current_range_meters":25600,"station_id":"ce4bhk92rcd13ifvqgb0","pricing_plan_id":"cebpf4jnsgd1na2vs0mg"},{"bike_id":"cbace10f-e7cd-4138-a932-111e7b295b77","system_id":"levelo_inurba_marseille","lat":43.301498,"lon":5.380835,"is_reserved":false,"is_disabled":false,"rental_uris":{"android":"levelo://app?vid=cbace10f-e7cd-4138-a932-111e7b295b77","ios":"levelo://app?vid=cbace10f-e7cd-4138-a932-111e7b295b77"},"vehicle_type_id":"4","last_reported":1746864742,"current_range_meters":26000,"station_id":"ce4bgjp2rcd13ifvqbh0","pricing_plan_id":"cebpf4jnsgd1na2vs0mg"},{"bike_id":"5013b049-5182-4d34-b6d0-b1000aea3248","system_id":"levelo_inurba_marseille","lat":43.30931,"lon":5.40139,"is_reserved":false,"is_disabled":false,"rental_uris":{"android":"levelo://app?vid=5013b049-5182-4d34-b6d0-b1000aea3248","ios":"levelo://app?vid=5013b049-5182-4d34-b6d0-b1000aea3248"},"vehicle_type_id":"4","last_reported":1746864742,"current_range_meters":26000,"station_id":"ce4bgvp2rcd13ifvqct0","pricing_plan_id":"cebpf4jnsgd1na2vs0mg"},{"bike_id":"c2c543dc-0c90-4c40-a845-301b22538b43","system_id":"levelo_inurba_marseille","lat":43.25125,"lon":5.4031,"is_reserved":false,"is_disabled":false,"rental_uris":{"android":"levelo://app?vid=c2c543dc-0c90-4c40-a845-301b22538b43","ios":"levelo://app?vid=c2c543dc-0c90-4c40-a845-301b22538b43"},"vehicle_type_id":"4","last_reported":1746864742,"current_range_meters":26000,"station_id":"ce4bhlh2rcd13ifvqgig","pricing_plan_id":"cebpf4jnsgd1na2vs0mg"},{"bike_id":"1d0a83f9-9cbb-46eb-b527-56356564db4b","system_id":"levelo_inurba_marseille","lat":43.32655,"lon":5.40995,"is_reserved":false,"is_disabled":false,"rental_uris":{"android":"levelo://app?vid=1d0a83f9-9cbb-46eb-b527-56356564db4b","ios":"levelo://app?vid=1d0a83f9-9cbb-46eb-b527-56356564db4b"},"vehicle_type_id":"4","last_reported":1746864742,"current_range_meters":26000,"station_id":"ce4bhpp2rcd13ifvqhgg","pricing_plan_id":"cebpf4jnsgd1na2vs0mg"},{"bike_id":"df4bc757-407a-4fe5-9334-397b50cce95d","system_id":"levelo_inurba_marseille","lat":43.31988,"lon":5.38147,"is_reserved":false,"is_disabled":false,"rental_uris":{"android":"levelo://app?vid=df4bc757-407a-4fe5-9334-397b50cce95d","ios":"levelo://app?vid=df4bc757-407a-4fe5-9334-397b50cce95d"},"vehicle_type_id":"4","last_reported":1746864742,"current_range_meters":26000,"station_id":"ce4bhr12rcd13ifvqhpg","pricing_plan_id":"cebpf4jnsgd1na2vs0mg"},{"bike_id":"4969d120-5504-40b4-8f56-657a4382fe72","system_id":"levelo_inurba_marseille","lat":43.29786,"lon":5.38093,"is_reserved":false,"is_disabled":false,"rental_uris":{"android":"levelo://app?vid=4969d120-5504-40b4-8f56-657a4382fe72","ios":"levelo://app?vid=4969d120-5504-40b4-8f56-657a4382fe72"},"vehicle_type_id":"4","last_reported":1746864742,"current_range_meters":26800,"station_id":"ce4bgip2rcd13ifvqbb0","pricing_plan_id":"cebpf4jnsgd1na2vs0mg"},{"bike_id":"a6a56350-2198-40df-b2d4-e4b71f978233","system_id":"levelo_inurba_marseille","lat":43.303098,"lon":5.369039,"is_reserved":false,"is_disabled":false,"rental_uris":{"android":"levelo://app?vid=a6a56350-2198-40df-b2d4-e4b71f978233","ios":"levelo://app?vid=a6a56350-2198-40df-b2d4-e4b71f978233"},"vehicle_type_id":"4","last_reported":1746864742,"current_range_meters":26800,"station_id":"ce4bgqh2rcd13ifvqc5g","pricing_plan_id":"cebpf4jnsgd1na2vs0mg"},{"bike_id":"ff8ceca6-3dc7-42be-b344-87c1bff339e9","system_id":"levelo_inurba_marseille","lat":43.3093,"lon":5.40146,"is_reserved":false,"is_disabled":false,"rental_uris":{"android":"levelo://app?vid=ff8ceca6-3dc7-42be-b344-87c1bff339e9","ios":"levelo://app?vid=ff8ceca6-3dc7-42be-b344-87c1bff339e9"},"vehicle_type_id":"4","last_reported":1746864742,"current_range_meters":26800,"station_id":"ce4bgvp2rcd13ifvqct0","pricing_plan_id":"cebpf4jnsgd1na2vs0mg"},{"bike_id":"bf16798c-4d82-40c4-8c3c-d5eebe27e5f0","system_id":"levelo_inurba_marseille","lat":43.28265,"lon":5.35073,"is_reserved":false,"is_disabled":false,"rental_uris":{"android":"levelo://app?vid=bf16798c-4d82-40c4-8c3c-d5eebe27e5f0","ios":"levelo://app?vid=bf16798c-4d82-40c4-8c3c-d5eebe27e5f0"},"vehicle_type_id":"4","last_reported":1746864742,"current_range_meters":26800,"station_id":"ce4bhbp2rcd13ifvqerg","pricing_plan_id":"cebpf4jnsgd1na2vs0mg"},{"bike_id":"e2a80e84-bd8b-48f1-8070-22661736e2bb","system_id":"levelo_inurba_marseille","lat":43.26553,"lon":5.37274,"is_reserved":false,"is_disabled":false,"rental_uris":{"android":"levelo://app?vid=e2a80e84-bd8b-48f1-8070-22661736e2bb","ios":"levelo://app?vid=e2a80e84-bd8b-48f1-8070-22661736e2bb"},"vehicle_type_id":"4","last_reported":1746864742,"current_range_meters":26800,"station_id":"ce4bhg12rcd13ifvqf70","pricing_plan_id":"cebpf4jnsgd1na2vs0mg"},{"bike_id":"dacdf4a3-e2bc-4ea1-8946-1fbf64e2cbb4","system_id":"levelo_inurba_marseille","lat":43.27328,"lon":5.39085,"is_reserved":false,"is_disabled":false,"rental_uris":{"android":"levelo://app?vid=dacdf4a3-e2bc-4ea1-8946-1fbf64e2cbb4","ios":"levelo://app?vid=dacdf4a3-e2bc-4ea1-8946-1fbf64e2cbb4"},"vehicle_type_id":"4","last_reported":1746864742,"current_range_meters":26800,"station_id":"ce4bhgp2rcd13ifvqfe0","pricing_plan_id":"cebpf4jnsgd1na2vs0mg"},{"bike_id":"424446e2-25b7-471d-b537-57cd54e17419","system_id":"levelo_inurba_marseille","lat":43.25491,"lon":5.37649,"is_reserved":false,"is_disabled":false,"rental_uris":{"android":"levelo://app?vid=424446e2-25b7-471d-b537-57cd54e17419","ios":"levelo://app?vid=424446e2-25b7-471d-b537-57cd54e17419"},"vehicle_type_id":"4","last_reported":1746864742,"current_range_meters":26800,"station_id":"ce4bhh12rcd13ifvqff0","pricing_plan_id":"cebpf4jnsgd1na2vs0mg"},{"bike_id":"cec7d146-8d87-4b77-a28a-f53c44af1641","system_id":"levelo_inurba_marseille","lat":43.24368,"lon":5.37029,"is_reserved":false,"is_disabled":false,"rental_uris":{"android":"levelo://app?vid=cec7d146-8d87-4b77-a28a-f53c44af1641","ios":"levelo://app?vid=cec7d146-8d87-4b77-a28a-f53c44af1641"},"vehicle_type_id":"4","last_reported":1746864742,"current_range_meters":26800,"station_id":"ce4bhhh2rcd13ifvqfk0","pricing_plan_id":"cebpf4jnsgd1na2vs0mg"},{"bike_id":"498b64a5-e341-422d-b7d0-c22c98c12ed0","system_id":"levelo_inurba_marseille","lat":43.25102,"lon":5.40316,"is_reserved":false,"is_disabled":false,"rental_uris":{"android":"levelo://app?vid=498b64a5-e341-422d-b7d0-c22c98c12ed0","ios":"levelo://app?vid=498b64a5-e341-422d-b7d0-c22c98c12ed0"},"vehicle_type_id":"4","last_reported":1746864742,"current_range_meters":26800,"station_id":"ce4bhlh2rcd13ifvqgig","pricing_plan_id":"cebpf4jnsgd1na2vs0mg"},{"bike_id":"9d176c6e-1ab4-4d4d-b946-cb4ffcb8d49d","system_id":"levelo_inurba_marseille","lat":43.25084,"lon":5.39532,"is_reserved":false,"is_disabled":false,"rental_uris":{"android":"levelo://app?vid=9d176c6e-1ab4-4d4d-b946-cb4ffcb8d49d","ios":"levelo://app?vid=9d176c6e-1ab4-4d4d-b946-cb4ffcb8d49d"},"vehicle_type_id":"4","last_reported":1746864742,"current_range_meters":26800,"station_id":"ce4bhm12rcd13ifvqgkg","pricing_plan_id":"cebpf4jnsgd1na2vs0mg"},{"bike_id":"3efa8a0b-3bfa-4f4a-94a6-c40da176ff5a","system_id":"levelo_inurba_marseille","lat":43.26555,"lon":5.37291,"is_reserved":false,"is_disabled":false,"rental_uris":{"android":"levelo://app?vid=3efa8a0b-3bfa-4f4a-94a6-c40da176ff5a","ios":"levelo://app?vid=3efa8a0b-3bfa-4f4a-94a6-c40da176ff5a"},"vehicle_type_id":"4","last_reported":1746864742,"current_range_meters":27200,"station_id":"ce4bhg12rcd13ifvqf70","pricing_plan_id":"cebpf4jnsgd1na2vs0mg"},{"bike_id":"25b2fadc-45a6-48d6-a6f3-991342f4287c","system_id":"levelo_inurba_marseille","lat":43.24173,"lon":5.36409,"is_reserved":false,"is_disabled":false,"rental_uris":{"android":"levelo://app?vid=25b2fadc-45a6-48d6-a6f3-991342f4287c","ios":"levelo://app?vid=25b2fadc-45a6-48d6-a6f3-991342f4287c"},"vehicle_type_id":"4","last_reported":1746864742,"current_range_meters":27200,"station_id":"cpo36qri1sfpv3e86is0","pricing_plan_id":"cebpf4jnsgd1na2vs0mg"},{"bike_id":"c045782f-3f40-4387-a043-afeb51e6812c","system_id":"levelo_inurba_marseille","lat":43.29683,"lon":5.37375,"is_reserved":false,"is_disabled":false,"rental_uris":{"android":"levelo://app?vid=c045782f-3f40-4387-a043-afeb51e6812c","ios":"levelo://app?vid=c045782f-3f40-4387-a043-afeb51e6812c"},"vehicle_type_id":"4","last_reported":1746864742,"current_range_meters":27600,"station_id":"","pricing_plan_id":"cebpf4jnsgd1na2vs0mg"},{"bike_id":"de3525d5-e61b-454f-85f9-acba6aa1f9c3","system_id":"levelo_inurba_marseille","lat":43.309317,"lon":5.401436,"is_reserved":false,"is_disabled":false,"rental_uris":{"android":"levelo://app?vid=de3525d5-e61b-454f-85f9-acba6aa1f9c3","ios":"levelo://app?vid=de3525d5-e61b-454f-85f9-acba6aa1f9c3"},"vehicle_type_id":"4","last_reported":1746864742,"current_range_meters":27600,"station_id":"ce4bgvp2rcd13ifvqct0","pricing_plan_id":"cebpf4jnsgd1na2vs0mg"},{"bike_id":"4a900ca8-fbde-434e-ad0b-8e8e115de4fb","system_id":"levelo_inurba_marseille","lat":43.26554,"lon":5.37294,"is_reserved":false,"is_disabled":false,"rental_uris":{"android":"levelo://app?vid=4a900ca8-fbde-434e-ad0b-8e8e115de4fb","ios":"levelo://app?vid=4a900ca8-fbde-434e-ad0b-8e8e115de4fb"},"vehicle_type_id":"4","last_reported":1746864742,"current_range_meters":27600,"station_id":"ce4bhg12rcd13ifvqf70","pricing_plan_id":"cebpf4jnsgd1na2vs0mg"},{"bike_id":"c133ae8b-fd3e-462e-9b90-70ac75f52220","system_id":"levelo_inurba_marseille","lat":43.27055,"lon":5.40254,"is_reserved":false,"is_disabled":false,"rental_uris":{"android":"levelo://app?vid=c133ae8b-fd3e-462e-9b90-70ac75f52220","ios":"levelo://app?vid=c133ae8b-fd3e-462e-9b90-70ac75f52220"},"vehicle_type_id":"4","last_reported":1746864742,"current_range_meters":27600,"station_id":"ce4bhk92rcd13ifvqgc0","pricing_plan_id":"cebpf4jnsgd1na2vs0mg"},{"bike_id":"9c1b25e5-41aa-4b72-90ea-ed2196e33af2","system_id":"levelo_inurba_marseille","lat":43.30379,"lon":5.42479,"is_reserved":false,"is_disabled":false,"rental_uris":{"android":"levelo://app?vid=9c1b25e5-41aa-4b72-90ea-ed2196e33af2","ios":"levelo://app?vid=9c1b25e5-41aa-4b72-90ea-ed2196e33af2"},"vehicle_type_id":"4","last_reported":1746864742,"current_range_meters":27600,"station_id":"ce4bhoh2rcd13ifvqh6g","pricing_plan_id":"cebpf4jnsgd1na2vs0mg"},{"bike_id":"1a34e1e5-7198-41f9-a296-9d70a047744e","system_id":"levelo_inurba_marseille","lat":43.322788,"lon":5.382637,"is_reserved":false,"is_disabled":false,"rental_uris":{"android":"levelo://app?vid=1a34e1e5-7198-41f9-a296-9d70a047744e","ios":"levelo://app?vid=1a34e1e5-7198-41f9-a296-9d70a047744e"},"vehicle_type_id":"4","last_reported":1746864742,"current_range_meters":27600,"station_id":"ce4bhr12rcd13ifvqhqg","pricing_plan_id":"cebpf4jnsgd1na2vs0mg"},{"bike_id":"6af4bf46-11f1-47e4-b4f3-bd5cbf220930","system_id":"levelo_inurba_marseille","lat":43.29969,"lon":5.37174,"is_reserved":false,"is_disabled":false,"rental_uris":{"android":"levelo://app?vid=6af4bf46-11f1-47e4-b4f3-bd5cbf220930","ios":"levelo://app?vid=6af4bf46-11f1-47e4-b4f3-bd5cbf220930"},"vehicle_type_id":"4","last_reported":1746864742,"current_range_meters":28000,"station_id":"ce4bgr92rcd13ifvqc7g","pricing_plan_id":"cebpf4jnsgd1na2vs0mg"},{"bike_id":"ed64e06b-1196-40d8-bf9d-1eff6cabf608","system_id":"levelo_inurba_marseille","lat":43.31726,"lon":5.40471,"is_reserved":false,"is_disabled":false,"rental_uris":{"android":"levelo://app?vid=ed64e06b-1196-40d8-bf9d-1eff6cabf608","ios":"levelo://app?vid=ed64e06b-1196-40d8-bf9d-1eff6cabf608"},"vehicle_type_id":"4","last_reported":1746864742,"current_range_meters":28000,"station_id":"ce4bh012rcd13ifvqd00","pricing_plan_id":"cebpf4jnsgd1na2vs0mg"},{"bike_id":"e3d83bfc-4b59-49ad-9e42-90050b283108","system_id":"levelo_inurba_marseille","lat":43.26209,"lon":5.37445,"is_reserved":false,"is_disabled":false,"rental_uris":{"android":"levelo://app?vid=e3d83bfc-4b59-49ad-9e42-90050b283108","ios":"levelo://app?vid=e3d83bfc-4b59-49ad-9e42-90050b283108"},"vehicle_type_id":"4","last_reported":1746864742,"current_range_meters":28000,"station_id":"ce4bhgp2rcd13ifvqfc0","pricing_plan_id":"cebpf4jnsgd1na2vs0mg"},{"bike_id":"d1f8b19b-8073-4362-9b76-31fd157203ea","system_id":"levelo_inurba_marseille","lat":43.23963,"lon":5.36635,"is_reserved":false,"is_disabled":false,"rental_uris":{"android":"levelo://app?vid=d1f8b19b-8073-4362-9b76-31fd157203ea","ios":"levelo://app?vid=d1f8b19b-8073-4362-9b76-31fd157203ea"},"vehicle_type_id":"4","last_reported":1746864742,"current_range_meters":28000,"station_id":"ce4bhi12rcd13ifvqfp0","pricing_plan_id":"cebpf4jnsgd1na2vs0mg"},{"bike_id":"f235a215-c51d-4c4b-b24e-de116bd0b102","system_id":"levelo_inurba_marseille","lat":43.25172,"lon":5.403082,"is_reserved":false,"is_disabled":false,"rental_uris":{"android":"levelo://app?vid=f235a215-c51d-4c4b-b24e-de116bd0b102","ios":"levelo://app?vid=f235a215-c51d-4c4b-b24e-de116bd0b102"},"vehicle_type_id":"4","last_reported":1746864742,"current_range_meters":28000,"station_id":"ce4bhlh2rcd13ifvqgig","pricing_plan_id":"cebpf4jnsgd1na2vs0mg"},{"bike_id":"aef45c4b-c401-4959-abe7-d37122e8183b","system_id":"levelo_inurba_marseille","lat":43.25949,"lon":5.40941,"is_reserved":false,"is_disabled":false,"rental_uris":{"android":"levelo://app?vid=aef45c4b-c401-4959-abe7-d37122e8183b","ios":"levelo://app?vid=aef45c4b-c401-4959-abe7-d37122e8183b"},"vehicle_type_id":"4","last_reported":1746864742,"current_range_meters":28000,"station_id":"ce4bhm92rcd13ifvqglg","pricing_plan_id":"cebpf4jnsgd1na2vs0mg"},{"bike_id":"a80052c9-5a0f-42d2-851c-82d975da2d33","system_id":"levelo_inurba_marseille","lat":43.26224,"lon":5.40453,"is_reserved":false,"is_disabled":false,"rental_uris":{"android":"levelo://app?vid=a80052c9-5a0f-42d2-851c-82d975da2d33","ios":"levelo://app?vid=a80052c9-5a0f-42d2-851c-82d975da2d33"},"vehicle_type_id":"4","last_reported":1746864742,"current_range_meters":28000,"station_id":"ce4bhmh2rcd13ifvqgmg","pricing_plan_id":"cebpf4jnsgd1na2vs0mg"},{"bike_id":"5bee1775-528f-49e6-9c3e-19f7744c053e","system_id":"levelo_inurba_marseille","lat":43.27975,"lon":5.41656,"is_reserved":false,"is_disabled":false,"rental_uris":{"android":"levelo://app?vid=5bee1775-528f-49e6-9c3e-19f7744c053e","ios":"levelo://app?vid=5bee1775-528f-49e6-9c3e-19f7744c053e"},"vehicle_type_id":"4","last_reported":1746864742,"current_range_meters":28000,"station_id":"ce4bho12rcd13ifvqh1g","pricing_plan_id":"cebpf4jnsgd1na2vs0mg"},{"bike_id":"00014e7c-56fa-474c-b085-529ca09dc3d1","system_id":"levelo_inurba_marseille","lat":43.24165,"lon":5.36393,"is_reserved":false,"is_disabled":false,"rental_uris":{"android":"levelo://app?vid=00014e7c-56fa-474c-b085-529ca09dc3d1","ios":"levelo://app?vid=00014e7c-56fa-474c-b085-529ca09dc3d1"},"vehicle_type_id":"4","last_reported":1746864742,"current_range_meters":28000,"station_id":"cpo36qri1sfpv3e86is0","pricing_plan_id":"cebpf4jnsgd1na2vs0mg"},{"bike_id":"0d43a784-3b89-4a2e-a3aa-305a6d06d0cc","system_id":"levelo_inurba_marseille","lat":43.302767,"lon":5.372983,"is_reserved":false,"is_disabled":false,"rental_uris":{"android":"levelo://app?vid=0d43a784-3b89-4a2e-a3aa-305a6d06d0cc","ios":"levelo://app?vid=0d43a784-3b89-4a2e-a3aa-305a6d06d0cc"},"vehicle_type_id":"4","last_reported":1746864742,"current_range_meters":28400,"station_id":"","pricing_plan_id":"cebpf4jnsgd1na2vs0mg"},{"bike_id":"4e6cb73f-d344-4ead-a7ad-8c3cd4f38383","system_id":"levelo_inurba_marseille","lat":43.29788,"lon":5.38107,"is_reserved":false,"is_disabled":false,"rental_uris":{"android":"levelo://app?vid=4e6cb73f-d344-4ead-a7ad-8c3cd4f38383","ios":"levelo://app?vid=4e6cb73f-d344-4ead-a7ad-8c3cd4f38383"},"vehicle_type_id":"4","last_reported":1746864742,"current_range_meters":28400,"station_id":"ce4bgip2rcd13ifvqbb0","pricing_plan_id":"cebpf4jnsgd1na2vs0mg"},{"bike_id":"9f3f4bec-89d3-4fdd-a169-eab40cb4d3f7","system_id":"levelo_inurba_marseille","lat":43.304668,"lon":5.379139,"is_reserved":false,"is_disabled":false,"rental_uris":{"android":"levelo://app?vid=9f3f4bec-89d3-4fdd-a169-eab40cb4d3f7","ios":"levelo://app?vid=9f3f4bec-89d3-4fdd-a169-eab40cb4d3f7"},"vehicle_type_id":"4","last_reported":1746864742,"current_range_meters":28400,"station_id":"ce4bgup2rcd13ifvqcn0","pricing_plan_id":"cebpf4jnsgd1na2vs0mg"},{"bike_id":"f8679041-b09a-4a59-b88e-5c9420b14d93","system_id":"levelo_inurba_marseille","lat":43.29259,"lon":5.40908,"is_reserved":false,"is_disabled":false,"rental_uris":{"android":"levelo://app?vid=f8679041-b09a-4a59-b88e-5c9420b14d93","ios":"levelo://app?vid=f8679041-b09a-4a59-b88e-5c9420b14d93"},"vehicle_type_id":"4","last_reported":1746864742,"current_range_meters":28400,"station_id":"ce4bh192rcd13ifvqdc0","pricing_plan_id":"cebpf4jnsgd1na2vs0mg"},{"bike_id":"e817003c-852b-4e51-89dd-533f1b02e7cf","system_id":"levelo_inurba_marseille","lat":43.29218,"lon":5.35833,"is_reserved":false,"is_disabled":false,"rental_uris":{"android":"levelo://app?vid=e817003c-852b-4e51-89dd-533f1b02e7cf","ios":"levelo://app?vid=e817003c-852b-4e51-89dd-533f1b02e7cf"},"vehicle_type_id":"4","last_reported":1746864742,"current_range_meters":28400,"station_id":"ce4bhb12rcd13ifvqel0","pricing_plan_id":"cebpf4jnsgd1na2vs0mg"},{"bike_id":"c5bf6457-7a00-4d62-9165-cd5ce63d9661","system_id":"levelo_inurba_marseille","lat":43.2441,"lon":5.37064,"is_reserved":false,"is_disabled":false,"rental_uris":{"android":"levelo://app?vid=c5bf6457-7a00-4d62-9165-cd5ce63d9661","ios":"levelo://app?vid=c5bf6457-7a00-4d62-9165-cd5ce63d9661"},"vehicle_type_id":"4","last_reported":1746864742,"current_range_meters":28400,"station_id":"ce4bhhh2rcd13ifvqfk0","pricing_plan_id":"cebpf4jnsgd1na2vs0mg"},{"bike_id":"5c2b0dc9-bbe4-48b4-8c88-964d492169b9","system_id":"levelo_inurba_marseille","lat":43.24382,"lon":5.37064,"is_reserved":false,"is_disabled":false,"rental_uris":{"android":"levelo://app?vid=5c2b0dc9-bbe4-48b4-8c88-964d492169b9","ios":"levelo://app?vid=5c2b0dc9-bbe4-48b4-8c88-964d492169b9"},"vehicle_type_id":"4","last_reported":1746864742,"current_range_meters":28400,"station_id":"ce4bhhh2rcd13ifvqfk0","pricing_plan_id":"cebpf4jnsgd1na2vs0mg"},{"bike_id":"89204c06-399c-4d99-b830-602c047f6bdb","system_id":"levelo_inurba_marseille","lat":43.27067,"lon":5.42286,"is_reserved":false,"is_disabled":false,"rental_uris":{"android":"levelo://app?vid=89204c06-399c-4d99-b830-602c047f6bdb","ios":"levelo://app?vid=89204c06-399c-4d99-b830-602c047f6bdb"},"vehicle_type_id":"4","last_reported":1746864742,"current_range_meters":28400,"station_id":"ce4bhk92rcd13ifvqgb0","pricing_plan_id":"cebpf4jnsgd1na2vs0mg"},{"bike_id":"511bde98-f1e6-4ee4-9cc9-f27988473aff","system_id":"levelo_inurba_marseille","lat":43.31706,"lon":5.4371,"is_reserved":false,"is_disabled":false,"rental_uris":{"android":"levelo://app?vid=511bde98-f1e6-4ee4-9cc9-f27988473aff","ios":"levelo://app?vid=511bde98-f1e6-4ee4-9cc9-f27988473aff"},"vehicle_type_id":"4","last_reported":1746864742,"current_range_meters":28400,"station_id":"ce4bhp92rcd13ifvqhcg","pricing_plan_id":"cebpf4jnsgd1na2vs0mg"},{"bike_id":"d9def4fd-684d-41a7-a185-a6f704a8402d","system_id":"levelo_inurba_marseille","lat":43.23209,"lon":5.35571,"is_reserved":false,"is_disabled":false,"rental_uris":{"android":"levelo://app?vid=d9def4fd-684d-41a7-a185-a6f704a8402d","ios":"levelo://app?vid=d9def4fd-684d-41a7-a185-a6f704a8402d"},"vehicle_type_id":"4","last_reported":1746864742,"current_range_meters":28400,"station_id":"ce4bhu92rcd13ifvqi70","pricing_plan_id":"cebpf4jnsgd1na2vs0mg"},{"bike_id":"48a86383-834a-483e-a673-a50d65427256","system_id":"levelo_inurba_marseille","lat":43.30731,"lon":5.42446,"is_reserved":false,"is_disabled":false,"rental_uris":{"android":"levelo://app?vid=48a86383-834a-483e-a673-a50d65427256","ios":"levelo://app?vid=48a86383-834a-483e-a673-a50d65427256"},"vehicle_type_id":"4","last_reported":1746864742,"current_range_meters":28400,"station_id":"st_cvj6ca6bvosntc0bfgr0","pricing_plan_id":"cebpf4jnsgd1na2vs0mg"},{"bike_id":"cec32095-2ce0-4ab7-be5d-a63b47dd7a21","system_id":"levelo_inurba_marseille","lat":43.21193,"lon":5.35076,"is_reserved":false,"is_disabled":false,"rental_uris":{"android":"levelo://app?vid=cec32095-2ce0-4ab7-be5d-a63b47dd7a21","ios":"levelo://app?vid=cec32095-2ce0-4ab7-be5d-a63b47dd7a21"},"vehicle_type_id":"4","last_reported":1746864742,"current_range_meters":28400,"station_id":"st_cvj6sg6p6f1abm77japg","pricing_plan_id":"cebpf4jnsgd1na2vs0mg"},{"bike_id":"7f0aaaec-783c-4d86-9541-f933b7d1b8af","system_id":"levelo_inurba_marseille","lat":43.312932,"lon":5.37328,"is_reserved":false,"is_disabled":false,"rental_uris":{"android":"levelo://app?vid=7f0aaaec-783c-4d86-9541-f933b7d1b8af","ios":"levelo://app?vid=7f0aaaec-783c-4d86-9541-f933b7d1b8af"},"vehicle_type_id":"4","last_reported":1746864742,"current_range_meters":28800,"station_id":"","pricing_plan_id":"cebpf4jnsgd1na2vs0mg"},{"bike_id":"cb3ee544-5d27-4d21-9353-f3d1b1364298","system_id":"levelo_inurba_marseille","lat":43.30274,"lon":5.37714,"is_reserved":false,"is_disabled":false,"rental_uris":{"android":"levelo://app?vid=cb3ee544-5d27-4d21-9353-f3d1b1364298","ios":"levelo://app?vid=cb3ee544-5d27-4d21-9353-f3d1b1364298"},"vehicle_type_id":"4","last_reported":1746864742,"current_range_meters":28800,"station_id":"ce4bguh2rcd13ifvqcj0","pricing_plan_id":"cebpf4jnsgd1na2vs0mg"},{"bike_id":"34ce1fc7-83d8-4bc4-924b-8d711996014b","system_id":"levelo_inurba_marseille","lat":43.26555,"lon":5.37288,"is_reserved":false,"is_disabled":false,"rental_uris":{"android":"levelo://app?vid=34ce1fc7-83d8-4bc4-924b-8d711996014b","ios":"levelo://app?vid=34ce1fc7-83d8-4bc4-924b-8d711996014b"},"vehicle_type_id":"4","last_reported":1746864742,"current_range_meters":28800,"station_id":"ce4bhg12rcd13ifvqf70","pricing_plan_id":"cebpf4jnsgd1na2vs0mg"},{"bike_id":"621aa0b8-a384-48ca-a41c-b6d6a99d6828","system_id":"levelo_inurba_marseille","lat":43.27316,"lon":5.39081,"is_reserved":false,"is_disabled":false,"rental_uris":{"android":"levelo://app?vid=621aa0b8-a384-48ca-a41c-b6d6a99d6828","ios":"levelo://app?vid=621aa0b8-a384-48ca-a41c-b6d6a99d6828"},"vehicle_type_id":"4","last_reported":1746864742,"current_range_meters":28800,"station_id":"ce4bhgp2rcd13ifvqfe0","pricing_plan_id":"cebpf4jnsgd1na2vs0mg"},{"bike_id":"6431a1ec-885c-4ffa-bafc-eede31440164","system_id":"levelo_inurba_marseille","lat":43.27308,"lon":5.39078,"is_reserved":false,"is_disabled":false,"rental_uris":{"android":"levelo://app?vid=6431a1ec-885c-4ffa-bafc-eede31440164","ios":"levelo://app?vid=6431a1ec-885c-4ffa-bafc-eede31440164"},"vehicle_type_id":"4","last_reported":1746864742,"current_range_meters":28800,"station_id":"ce4bhgp2rcd13ifvqfe0","pricing_plan_id":"cebpf4jnsgd1na2vs0mg"},{"bike_id":"781f9169-c53c-4c59-92aa-82c4203ec24a","system_id":"levelo_inurba_marseille","lat":43.28001,"lon":5.41663,"is_reserved":false,"is_disabled":false,"rental_uris":{"android":"levelo://app?vid=781f9169-c53c-4c59-92aa-82c4203ec24a","ios":"levelo://app?vid=781f9169-c53c-4c59-92aa-82c4203ec24a"},"vehicle_type_id":"4","last_reported":1746864742,"current_range_meters":28800,"station_id":"ce4bho12rcd13ifvqh1g","pricing_plan_id":"cebpf4jnsgd1na2vs0mg"},{"bike_id":"f145daaa-2ce4-46c0-beec-3613821ab16d","system_id":"levelo_inurba_marseille","lat":43.32347,"lon":5.38893,"is_reserved":false,"is_disabled":false,"rental_uris":{"android":"levelo://app?vid=f145daaa-2ce4-46c0-beec-3613821ab16d","ios":"levelo://app?vid=f145daaa-2ce4-46c0-beec-3613821ab16d"},"vehicle_type_id":"4","last_reported":1746864742,"current_range_meters":28800,"station_id":"ce4bhqp2rcd13ifvqhog","pricing_plan_id":"cebpf4jnsgd1na2vs0mg"},