{"last_updated":1736860487,"ttl":60,"version":"2.2","data":{"bikes":[{"bike_id":"9fe70871-88a2-4335-8c3c-189b1fa594f6","system_id":"levelo_inurba_marseille","lat":43.290053,"lon":5.356155,"is_reserved":false,"is_disabled":false,"rental_uris":{"android":"levelo://app?vid=9fe70871-88a2-4335-8c3c-189b1fa594f6","ios":"levelo://app?vid=9fe70871-88a2-4335-8c3c-189b1fa594f6"},"vehicle_type_id":"4","last_reported":1736860488,"current_range_meters":11200,"station_id":"ce4bhb92rcd13ifvqen0","pricing_plan_id":"cebpf4jnsgd1na2vs0mg"},{"bike_id":"63f0c0a8-8ba1-4793-8a26-16e38fddc426","system_id":"levelo_inurba_marseille","lat":43.29023,"lon":5.38622,"is_reserved":false,"is_disabled":false,"rental_uris":{"android":"levelo://app?vid=63f0c0a8-8ba1-4793-8a26-16e38fddc426","ios":"levelo://app?vid=63f0c0a8-8ba1-4793-8a26-16e38fddc426"},"vehicle_type_id":"4","last_reported":1736860488,"current_range_meters":36000,"station_id":"ce4bh4p2rcd13ifvqe0g","pricing_plan_id":"cebpf4jnsgd1na2vs0mg"},{"bike_id":"094f2b9d-982b-42a3-8932-981369abda5b","system_id":"levelo_inurba_marseille","lat":43.26936,"lon":5.40265,"is_reserved":false,"is_disabled":false,"rental_uris":{"android":"levelo://app?vid=094f2b9d-982b-42a3-8932-981369abda5b","ios":"levelo://app?vid=094f2b9d-982b-42a3-8932-981369abda5b"},"vehicle_type_id":"4","last_reported":1736860488,"current_range_meters":28800,"station_id":"cjm6bp8fraef2m0cb0m0","pricing_plan_id":"cebpf4jnsgd1na2vs0mg"},{"bike_id":"8cc4c9b9-cc6d-4b91-a845-dcf99d06a640","system_id":"levelo_inurba_marseille","lat":43.28918,"lon":5.384,"is_reserved":false,"is_disabled":false,"rental_uris":{"android":"levelo://app?vid=8cc4c9b9-cc6d-4b91-a845-dcf99d06a640","ios":"levelo://app?vid=8cc4c9b9-cc6d-4b91-a845-dcf99d06a640"},"vehicle_type_id":"4","last_reported":1736860488,"current_range_meters":37600,"station_id":"ce4bh612rcd13ifvqe6g","pricing_plan_id":"cebpf4jnsgd1na2vs0mg"},{"bike_id":"3bda8c0f-14b0-4fa7-9bd5-0d132ee8115c","system_id":"levelo_inurba_marseille","lat":43.28364,"lon":5.38644,"is_reserved":false,"is_disabled":false,"rental_uris":{"android":"levelo://app?vid=3bda8c0f-14b0-4fa7-9bd5-0d132ee8115c","ios":"levelo://app?vid=3bda8c0f-14b0-4fa7-9bd5-0d132ee8115c"},"vehicle_type_id":"4","last_reported":1736860488,"current_range_meters":37600,"station_id":"ce4bh492rcd13ifvqdvg","pricing_plan_id":"cebpf4jnsgd1na2vs0mg"},{"bike_id":"9c8fd0a2-067b-4ef3-a25e-280eea0a48aa","system_id":"levelo_inurba_marseille","lat":43.2847,"lon":5.38421,"is_reserved":false,"is_disabled":false,"rental_uris":{"android":"levelo://app?vid=9c8fd0a2-067b-4ef3-a25e-280eea0a48aa","ios":"levelo://app?vid=9c8fd0a2-067b-4ef3-a25e-280eea0a48aa"},"vehicle_type_id":"4","last_reported":1736860488,"current_range_meters":17600,"station_id":"ce4bh512rcd13ifvqe3g","pricing_plan_id":"cebpf4jnsgd1na2vs0mg"},{"bike_id":"a9caf45c-9b62-4fad-bb25-cf9cfd1dff86","system_id":"levelo_inurba_marseille","lat":43.33731,"lon":5.3919,"is_reserved":false,"is_disabled":false,"rental_uris":{"android":"levelo://app?vid=a9caf45c-9b62-4fad-bb25-cf9cfd1dff86","ios":"levelo://app?vid=a9caf45c-9b62-4fad-bb25-cf9cfd1dff86"},"vehicle_type_id":"4","last_reported":1736860488,"current_range_meters":39200,"station_id":"ce4bhr92rcd13ifvqhsg","pricing_plan_id":"cebpf4jnsgd1na2vs0mg"},{"bike_id":"83c05730-c74e-4333-98de-3397043b2b60","system_id":"levelo_inurba_marseille","lat":43.27618,"lon":5.36113,"is_reserved":false,"is_disabled":false,"rental_uris":{"android":"levelo://app?vid=83c05730-c74e-4333-98de-3397043b2b60","ios":"levelo://app?vid=83c05730-c74e-4333-98de-3397043b2b60"},"vehicle_type_id":"4","last_reported":1736860488,"current_range_meters":20000,"station_id":"ce4bgj92rcd13ifvqbe0","pricing_plan_id":"cebpf4jnsgd1na2vs0mg"},{"bike_id":"5e0b46d4-53a6-4a9b-81ed-42b3629948b7","system_id":"levelo_inurba_marseille","lat":43.321,"lon":5.3679,"is_reserved":false,"is_disabled":false,"rental_uris":{"android":"levelo://app?vid=5e0b46d4-53a6-4a9b-81ed-42b3629948b7","ios":"levelo://app?vid=5e0b46d4-53a6-4a9b-81ed-42b3629948b7"},"vehicle_type_id":"4","last_reported":1736860488,"current_range_meters":38000,"station_id":"ce4bhrh2rcd13ifvqhug","pricing_plan_id":"cebpf4jnsgd1na2vs0mg"},{"bike_id":"3caf24bf-9cab-43f0-b004-6f80d00713af","system_id":"levelo_inurba_marseille","lat":43.29526,"lon":5.39413,"is_reserved":false,"is_disabled":true,"rental_uris":{"android":"levelo://app?vid=3caf24bf-9cab-43f0-b004-6f80d00713af","ios":"levelo://app?vid=3caf24bf-9cab-43f0-b004-6f80d00713af"},"vehicle_type_id":"4","last_reported":1736860488,"current_range_meters":800,"station_id":"ce4bh292rcd13ifvqdf0","pricing_plan_id":"cebpf4jnsgd1na2vs0mg"},{"bike_id":"f2ea5437-fa6b-436f-9a07-36c859f4e543","system_id":"levelo_inurba_marseille","lat":43.29967,"lon":5.37221,"is_reserved":false,"is_disabled":true,"rental_uris":{"android":"levelo://app?vid=f2ea5437-fa6b-436f-9a07-36c859f4e543","ios":"levelo://app?vid=f2ea5437-fa6b-436f-9a07-36c859f4e543"},"vehicle_type_id":"4","last_reported":1736860488,"current_range_meters":800,"station_id":"ce4bgr92rcd13ifvqc7g","pricing_plan_id":"cebpf4jnsgd1na2vs0mg"},{"bike_id":"5bb5758f-37be-496e-ac0a-3712e6b43125","system_id":"levelo_inurba_marseille","lat":43.26205,"lon":5.37927,"is_reserved":false,"is_disabled":false,"rental_uris":{"android":"levelo://app?vid=5bb5758f-37be-496e-ac0a-3712e6b43125","ios":"levelo://app?vid=5bb5758f-37be-496e-ac0a-3712e6b43125"},"vehicle_type_id":"4","last_reported":1736860488,"current_range_meters":38800,"station_id":"ce4bhjp2rcd13ifvqg90","pricing_plan_id":"cebpf4jnsgd1na2vs0mg"},{"bike_id":"fc6e0326-6e10-4788-9698-0650bfe06d8d","system_id":"levelo_inurba_marseille","lat":43.29278,"lon":5.36841,"is_reserved":false,"is_disabled":false,"rental_uris":{"android":"levelo://app?vid=fc6e0326-6e10-4788-9698-0650bfe06d8d","ios":"levelo://app?vid=fc6e0326-6e10-4788-9698-0650bfe06d8d"},"vehicle_type_id":"4","last_reported":1736860488,"current_range_meters":6000,"station_id":"ce4bhbp2rcd13ifvqesg","pricing_plan_id":"cebpf4jnsgd1na2vs0mg"},{"bike_id":"f2ee1619-1c9f-4d06-ad7b-254050daeab7","system_id":"levelo_inurba_marseille","lat":43.27969,"lon":5.38753,"is_reserved":false,"is_disabled":false,"rental_uris":{"android":"levelo://app?vid=f2ee1619-1c9f-4d06-ad7b-254050daeab7","ios":"levelo://app?vid=f2ee1619-1c9f-4d06-ad7b-254050daeab7"},"vehicle_type_id":"4","last_reported":1736860488,"current_range_meters":38800,"station_id":"ce4bhg12rcd13ifvqf80","pricing_plan_id":"cebpf4jnsgd1na2vs0mg"},{"bike_id":"962cc5cc-fec7-46f8-84df-102fbfaf51f6","system_id":"levelo_inurba_marseille","lat":43.25933,"lon":5.40913,"is_reserved":false,"is_disabled":false,"rental_uris":{"android":"levelo://app?vid=962cc5cc-fec7-46f8-84df-102fbfaf51f6","ios":"levelo://app?vid=962cc5cc-fec7-46f8-84df-102fbfaf51f6"},"vehicle_type_id":"4","last_reported":1736860488,"current_range_meters":38000,"station_id":"ce4bhm92rcd13ifvqglg","pricing_plan_id":"cebpf4jnsgd1na2vs0mg"},{"bike_id":"366c5159-c96c-4271-a83d-a7e777ba5d6e","system_id":"levelo_inurba_marseille","lat":43.3091,"lon":5.36852,"is_reserved":false,"is_disabled":false,"rental_uris":{"android":"levelo://app?vid=366c5159-c96c-4271-a83d-a7e777ba5d6e","ios":"levelo://app?vid=366c5159-c96c-4271-a83d-a7e777ba5d6e"},"vehicle_type_id":"4","last_reported":1736860488,"current_range_meters":38400,"station_id":"ce4bgn92rcd13ifvqbvg","pricing_plan_id":"cebpf4jnsgd1na2vs0mg"},{"bike_id":"25053a9c-8f7f-437e-ac75-c115f6267568","system_id":"levelo_inurba_marseille","lat":43.31694,"lon":5.40469,"is_reserved":false,"is_disabled":false,"rental_uris":{"android":"levelo://app?vid=25053a9c-8f7f-437e-ac75-c115f6267568","ios":"levelo://app?vid=25053a9c-8f7f-437e-ac75-c115f6267568"},"vehicle_type_id":"4","last_reported":1736860488,"current_range_meters":38000,"station_id":"ce4bh012rcd13ifvqd00","pricing_plan_id":"cebpf4jnsgd1na2vs0mg"},{"bike_id":"8fca025f-4823-4cd4-9186-ae7acab50595","system_id":"levelo_inurba_marseille","lat":43.3254,"lon":5.4144,"is_reserved":false,"is_disabled":false,"rental_uris":{"android":"levelo://app?vid=8fca025f-4823-4cd4-9186-ae7acab50595","ios":"levelo://app?vid=8fca025f-4823-4cd4-9186-ae7acab50595"},"vehicle_type_id":"4","last_reported":1736860488,"current_range_meters":27200,"station_id":"ce4bhq12rcd13ifvqhhg","pricing_plan_id":"cebpf4jnsgd1na2vs0mg"},{"bike_id":"e0ca69a2-8f04-4664-9d47-26dea82cc9f8","system_id":"levelo_inurba_marseille","lat":43.29994,"lon":5.38475,"is_reserved":false,"is_disabled":true,"rental_uris":{"android":"levelo://app?vid=e0ca69a2-8f04-4664-9d47-26dea82cc9f8","ios":"levelo://app?vid=e0ca69a2-8f04-4664-9d47-26dea82cc9f8"},"vehicle_type_id":"4","last_reported":1736860488,"current_range_meters":39200,"station_id":"ce4bgj92rcd13ifvqbd0","pricing_plan_id":"cebpf4jnsgd1na2vs0mg"},{"bike_id":"94440fca-9d66-4315-a057-b48311229f6d","system_id":"levelo_inurba_marseille","lat":43.336,"lon":5.41029,"is_reserved":false,"is_disabled":false,"rental_uris":{"android":"levelo://app?vid=94440fca-9d66-4315-a057-b48311229f6d","ios":"levelo://app?vid=94440fca-9d66-4315-a057-b48311229f6d"},"vehicle_type_id":"4","last_reported":1736860488,"current_range_meters":34000,"station_id":"ce4bhqh2rcd13ifvqhmg","pricing_plan_id":"cebpf4jnsgd1na2vs0mg"},{"bike_id":"aaf843c2-f7bb-448d-b355-223d249b89b1","system_id":"levelo_inurba_marseille","lat":43.3109,"lon":5.42428,"is_reserved":false,"is_disabled":false,"rental_uris":{"android":"levelo://app?vid=aaf843c2-f7bb-448d-b355-223d249b89b1","ios":"levelo://app?vid=aaf843c2-f7bb-448d-b355-223d249b89b1"},"vehicle_type_id":"4","last_reported":1736860488,"current_range_meters":38000,"station_id":"ce4bhp92rcd13ifvqhag","pricing_plan_id":"cebpf4jnsgd1na2vs0mg"},{"bike_id":"3a154d79-06d4-4814-bd52-2ebbe8926e69","system_id":"levelo_inurba_marseille","lat":43.29829,"lon":5.39132,"is_reserved":false,"is_disabled":true,"rental_uris":{"android":"levelo://app?vid=3a154d79-06d4-4814-bd52-2ebbe8926e69","ios":"levelo://app?vid=3a154d79-06d4-4814-bd52-2ebbe8926e69"},"vehicle_type_id":"4","last_reported":1736860488,"current_range_meters":38000,"station_id":"","pricing_plan_id":"cebpf4jnsgd1na2vs0mg"},{"bike_id":"1ca9fc25-ccc8-4a68-82aa-93e184d4ffee","system_id":"levelo_inurba_marseille","lat":43.309463,"lon":5.390467,"is_reserved":false,"is_disabled":true,"rental_uris":{"android":"levelo://app?vid=1ca9fc25-ccc8-4a68-82aa-93e184d4ffee","ios":"levelo://app?vid=1ca9fc25-ccc8-4a68-82aa-93e184d4ffee"},"vehicle_type_id":"4","last_reported":1736860488,"current_range_meters":0,"station_id":"ce4bgup2rcd13ifvqco0","pricing_plan_id":"cebpf4jnsgd1na2vs0mg"},{"bike_id":"7a21df82-547b-4b80-9251-7611391c1ad0","system_id":"levelo_inurba_marseille","lat":43.2993,"lon":5.37485,"is_reserved":false,"is_disabled":false,"rental_uris":{"android":"levelo://app?vid=7a21df82-547b-4b80-9251-7611391c1ad0","ios":"levelo://app?vid=7a21df82-547b-4b80-9251-7611391c1ad0"},"vehicle_type_id":"4","last_reported":1736860488,"current_range_meters":27600,"station_id":"ce4bgjh2rcd13ifvqbg0","pricing_plan_id":"cebpf4jnsgd1na2vs0mg"},{"bike_id":"dde99e90-f142-49d5-bda5-1d67ce639c58","system_id":"levelo_inurba_marseille","lat":43.28152,"lon":5.42645,"is_reserved":false,"is_disabled":false,"rental_uris":{"android":"levelo://app?vid=dde99e90-f142-49d5-bda5-1d67ce639c58","ios":"levelo://app?vid=dde99e90-f142-49d5-bda5-1d67ce639c58"},"vehicle_type_id":"4","last_reported":1736860488,"current_range_meters":12000,"station_id":"ce4bhnh2rcd13ifvqgug","pricing_plan_id":"cebpf4jnsgd1na2vs0mg"},{"bike_id":"29a5cbd9-65c4-419c-9a97-09f4fd054b93","system_id":"levelo_inurba_marseille","lat":43.30547,"lon":5.36536,"is_reserved":false,"is_disabled":false,"rental_uris":{"android":"levelo://app?vid=29a5cbd9-65c4-419c-9a97-09f4fd054b93","ios":"levelo://app?vid=29a5cbd9-65c4-419c-9a97-09f4fd054b93"},"vehicle_type_id":"4","last_reported":1736860488,"current_range_meters":24000,"station_id":"ce4bgs12rcd13ifvqcag","pricing_plan_id":"cebpf4jnsgd1na2vs0mg"},{"bike_id":"1d796cee-7c75-4072-8f7a-6db57e5091d1","system_id":"levelo_inurba_marseille","lat":43.29725,"lon":5.37687,"is_reserved":false,"is_disabled":false,"rental_uris":{"android":"levelo://app?vid=1d796cee-7c75-4072-8f7a-6db57e5091d1","ios":"levelo://app?vid=1d796cee-7c75-4072-8f7a-6db57e5091d1"},"vehicle_type_id":"4","last_reported":1736860488,"current_range_meters":28000,"station_id":"ce4bgkh2rcd13ifvqbl0","pricing_plan_id":"cebpf4jnsgd1na2vs0mg"},{"bike_id":"46884546-5849-49c1-8129-a7978a36c969","system_id":"levelo_inurba_marseille","lat":43.25915,"lon":5.40871,"is_reserved":false,"is_disabled":false,"rental_uris":{"android":"levelo://app?vid=46884546-5849-49c1-8129-a7978a36c969","ios":"levelo://app?vid=46884546-5849-49c1-8129-a7978a36c969"},"vehicle_type_id":"4","last_reported":1736860488,"current_range_meters":12400,"station_id":"ce4bhm92rcd13ifvqglg","pricing_plan_id":"cebpf4jnsgd1na2vs0mg"},{"bike_id":"0aabd402-c7ba-4f9a-a3b1-7e08907fd1bd","system_id":"levelo_inurba_marseille","lat":43.28607,"lon":5.37064,"is_reserved":false,"is_disabled":false,"rental_uris":{"android":"levelo://app?vid=0aabd402-c7ba-4f9a-a3b1-7e08907fd1bd","ios":"levelo://app?vid=0aabd402-c7ba-4f9a-a3b1-7e08907fd1bd"},"vehicle_type_id":"4","last_reported":1736860488,"current_range_meters":29600,"station_id":"ce4bht12rcd13ifvqi60","pricing_plan_id":"cebpf4jnsgd1na2vs0mg"},{"bike_id":"a402044d-1041-4786-a63f-9d18af3bc82f","system_id":"levelo_inurba_marseille","lat":43.24164,"lon":5.36394,"is_reserved":false,"is_disabled":false,"rental_uris":{"android":"levelo://app?vid=a402044d-1041-4786-a63f-9d18af3bc82f","ios":"levelo://app?vid=a402044d-1041-4786-a63f-9d18af3bc82f"},"vehicle_type_id":"4","last_reported":1736860488,"current_range_meters":38800,"station_id":"cpo36qri1sfpv3e86is0","pricing_plan_id":"cebpf4jnsgd1na2vs0mg"},{"bike_id":"7884539f-cce7-41a0-9eb5-657df86ab844","system_id":"levelo_inurba_marseille","lat":43.28993,"lon":5.35604,"is_reserved":false,"is_disabled":false,"rental_uris":{"android":"levelo://app?vid=7884539f-cce7-41a0-9eb5-657df86ab844","ios":"levelo://app?vid=7884539f-cce7-41a0-9eb5-657df86ab844"},"vehicle_type_id":"4","last_reported":1736860488,"current_range_meters":39200,"station_id":"ce4bhb92rcd13ifvqen0","pricing_plan_id":"cebpf4jnsgd1na2vs0mg"},{"bike_id":"6b93b291-0b00-4b9e-bfd0-9bfc27cb6c48","system_id":"levelo_inurba_marseille","lat":43.26195,"lon":5.37448,"is_reserved":false,"is_disabled":false,"rental_uris":{"android":"levelo://app?vid=6b93b291-0b00-4b9e-bfd0-9bfc27cb6c48","ios":"levelo://app?vid=6b93b291-0b00-4b9e-bfd0-9bfc27cb6c48"},"vehicle_type_id":"4","last_reported":1736860488,"current_range_meters":32400,"station_id":"ce4bhgp2rcd13ifvqfc0","pricing_plan_id":"cebpf4jnsgd1na2vs0mg"},{"bike_id":"cdb77309-ec50-4bf6-b47c-c0d6a7c459f3","system_id":"levelo_inurba_marseille","lat":43.26949,"lon":5.38643,"is_reserved":false,"is_disabled":false,"rental_uris":{"android":"levelo://app?vid=cdb77309-ec50-4bf6-b47c-c0d6a7c459f3","ios":"levelo://app?vid=cdb77309-ec50-4bf6-b47c-c0d6a7c459f3"},"vehicle_type_id":"4","last_reported":1736860488,"current_range_meters":6800,"station_id":"ce4bhh92rcd13ifvqfh0","pricing_plan_id":"cebpf4jnsgd1na2vs0mg"},{"bike_id":"aac8885d-98ab-44b5-a5e4-7f098cde586b","system_id":"levelo_inurba_marseille","lat":43.27173,"lon":5.40984,"is_reserved":false,"is_disabled":false,"rental_uris":{"android":"levelo://app?vid=aac8885d-98ab-44b5-a5e4-7f098cde586b","ios":"levelo://app?vid=aac8885d-98ab-44b5-a5e4-7f098cde586b"},"vehicle_type_id":"4","last_reported":1736860488,"current_range_meters":36800,"station_id":"ce4bhl12rcd13ifvqgf0","pricing_plan_id":"cebpf4jnsgd1na2vs0mg"},{"bike_id":"c8e997c0-8580-4d0f-8d9f-0766596381e1","system_id":"levelo_inurba_marseille","lat":43.3392,"lon":5.37574,"is_reserved":false,"is_disabled":true,"rental_uris":{"android":"levelo://app?vid=c8e997c0-8580-4d0f-8d9f-0766596381e1","ios":"levelo://app?vid=c8e997c0-8580-4d0f-8d9f-0766596381e1"},"vehicle_type_id":"4","last_reported":1736860488,"current_range_meters":0,"station_id":"","pricing_plan_id":"cebpf4jnsgd1na2vs0mg"},{"bike_id":"74126fec-dae1-4ee9-84d1-a94c78c517b3","system_id":"levelo_inurba_marseille","lat":43.25131,"lon":5.40333,"is_reserved":false,"is_disabled":false,"rental_uris":{"android":"levelo://app?vid=74126fec-dae1-4ee9-84d1-a94c78c517b3","ios":"levelo://app?vid=74126fec-dae1-4ee9-84d1-a94c78c517b3"},"vehicle_type_id":"4","last_reported":1736860488,"current_range_meters":38800,"station_id":"ce4bhlh2rcd13ifvqgig","pricing_plan_id":"cebpf4jnsgd1na2vs0mg"},{"bike_id":"ba5df164-d25c-4a1c-8679-1bd1a1db0642","system_id":"levelo_inurba_marseille","lat":43.337326,"lon":5.391946,"is_reserved":false,"is_disabled":false,"rental_uris":{"android":"levelo://app?vid=ba5df164-d25c-4a1c-8679-1bd1a1db0642","ios":"levelo://app?vid=ba5df164-d25c-4a1c-8679-1bd1a1db0642"},"vehicle_type_id":"4","last_reported":1736860488,"current_range_meters":36000,"station_id":"ce4bhr92rcd13ifvqhsg","pricing_plan_id":"cebpf4jnsgd1na2vs0mg"},{"bike_id":"81d3279d-c51e-41c2-ba1c-259ccf17ef9d","system_id":"levelo_inurba_marseille","lat":43.29196,"lon":5.35795,"is_reserved":false,"is_disabled":false,"rental_uris":{"android":"levelo://app?vid=81d3279d-c51e-41c2-ba1c-259ccf17ef9d","ios":"levelo://app?vid=81d3279d-c51e-41c2-ba1c-259ccf17ef9d"},"vehicle_type_id":"4","last_reported":1736860488,"current_range_meters":9200,"station_id":"ce4bhb12rcd13ifvqel0","pricing_plan_id":"cebpf4jnsgd1na2vs0mg"},{"bike_id":"ddb41cf1-08d5-4912-801d-fd0c3b376b8a","system_id":"levelo_inurba_marseille","lat":43.29971,"lon":5.37175,"is_reserved":false,"is_disabled":false,"rental_uris":{"android":"levelo://app?vid=ddb41cf1-08d5-4912-801d-fd0c3b376b8a","ios":"levelo://app?vid=ddb41cf1-08d5-4912-801d-fd0c3b376b8a"},"vehicle_type_id":"4","last_reported":1736860488,"current_range_meters":34800,"station_id":"ce4bgr92rcd13ifvqc7g","pricing_plan_id":"cebpf4jnsgd1na2vs0mg"},{"bike_id":"1482d095-f803-4d87-9f20-733180ee2ebd","system_id":"levelo_inurba_marseille","lat":43.27982,"lon":5.41663,"is_reserved":false,"is_disabled":false,"rental_uris":{"android":"levelo://app?vid=1482d095-f803-4d87-9f20-733180ee2ebd","ios":"levelo://app?vid=1482d095-f803-4d87-9f20-733180ee2ebd"},"vehicle_type_id":"4","last_reported":1736860488,"current_range_meters":34800,"station_id":"ce4bho12rcd13ifvqh1g","pricing_plan_id":"cebpf4jnsgd1na2vs0mg"},{"bike_id":"bcef9621-8bba-46a3-8484-66516e6f67d7","system_id":"levelo_inurba_marseille","lat":43.31331,"lon":5.36723,"is_reserved":false,"is_disabled":false,"rental_uris":{"android":"levelo://app?vid=bcef9621-8bba-46a3-8484-66516e6f67d7","ios":"levelo://app?vid=bcef9621-8bba-46a3-8484-66516e6f67d7"},"vehicle_type_id":"4","last_reported":1736860488,"current_range_meters":8400,"station_id":"ce4bgr92rcd13ifvqc6g","pricing_plan_id":"cebpf4jnsgd1na2vs0mg"},{"bike_id":"d2c4c364-a3e2-48bf-927d-f65b6e78efe4","system_id":"levelo_inurba_marseille","lat":43.26681,"lon":5.38264,"is_reserved":false,"is_disabled":false,"rental_uris":{"android":"levelo://app?vid=d2c4c364-a3e2-48bf-927d-f65b6e78efe4","ios":"levelo://app?vid=d2c4c364-a3e2-48bf-927d-f65b6e78efe4"},"vehicle_type_id":"4","last_reported":1736860488,"current_range_meters":31200,"station_id":"ce4bhg92rcd13ifvqf90","pricing_plan_id":"cebpf4jnsgd1na2vs0mg"},{"bike_id":"4d8f2bd3-28e6-4a6b-bf9a-7e46e3c91edf","system_id":"levelo_inurba_marseille","lat":43.30157,"lon":5.37416,"is_reserved":false,"is_disabled":false,"rental_uris":{"android":"levelo://app?vid=4d8f2bd3-28e6-4a6b-bf9a-7e46e3c91edf","ios":"levelo://app?vid=4d8f2bd3-28e6-4a6b-bf9a-7e46e3c91edf"},"vehicle_type_id":"4","last_reported":1736860488,"current_range_meters":38800,"station_id":"ce4bgs92rcd13ifvqcc0","pricing_plan_id":"cebpf4jnsgd1na2vs0mg"},{"bike_id":"42cfeef1-ded8-43ac-8888-284da4376b57","system_id":"levelo_inurba_marseille","lat":43.32467,"lon":5.36574,"is_reserved":false,"is_disabled":false,"rental_uris":{"android":"levelo://app?vid=42cfeef1-ded8-43ac-8888-284da4376b57","ios":"levelo://app?vid=42cfeef1-ded8-43ac-8888-284da4376b57"},"vehicle_type_id":"4","last_reported":1736860488,"current_range_meters":28000,"station_id":"ce4bhs12rcd13ifvqhvg","pricing_plan_id":"cebpf4jnsgd1na2vs0mg"},{"bike_id":"4c97236a-c75c-4110-ad92-8bd9b832d8f4","system_id":"levelo_inurba_marseille","lat":43.298,"lon":5.40406,"is_reserved":false,"is_disabled":false,"rental_uris":{"android":"levelo://app?vid=4c97236a-c75c-4110-ad92-8bd9b832d8f4","ios":"levelo://app?vid=4c97236a-c75c-4110-ad92-8bd9b832d8f4"},"vehicle_type_id":"4","last_reported":1736860488,"current_range_meters":22000,"station_id":"ce4bh112rcd13ifvqd90","pricing_plan_id":"cebpf4jnsgd1na2vs0mg"},{"bike_id":"ffa01f30-4b8e-45c2-a0a4-b906f924e6f3","system_id":"levelo_inurba_marseille","lat":43.30884,"lon":5.37191,"is_reserved":false,"is_disabled":false,"rental_uris":{"android":"levelo://app?vid=ffa01f30-4b8e-45c2-a0a4-b906f924e6f3","ios":"levelo://app?vid=ffa01f30-4b8e-45c2-a0a4-b906f924e6f3"},"vehicle_type_id":"4","last_reported":1736860488,"current_range_meters":38800,"station_id":"ce4bguh2rcd13ifvqckg","pricing_plan_id":"cebpf4jnsgd1na2vs0mg"},{"bike_id":"59d914a9-7941-4d0c-ad3f-66ae0befc663","system_id":"levelo_inurba_marseille","lat":43.2803,"lon":5.36948,"is_reserved":false,"is_disabled":false,"rental_uris":{"android":"levelo://app?vid=59d914a9-7941-4d0c-ad3f-66ae0befc663","ios":"levelo://app?vid=59d914a9-7941-4d0c-ad3f-66ae0befc663"},"vehicle_type_id":"4","last_reported":1736860488,"current_range_meters":8000,"station_id":"ce4bha12rcd13ifvqef0","pricing_plan_id":"cebpf4jnsgd1na2vs0mg"},{"bike_id":"e9ddb0fd-25b5-4380-b7cd-6db0463f30c2","system_id":"levelo_inurba_marseille","lat":43.25572,"lon":5.38232,"is_reserved":false,"is_disabled":false,"rental_uris":{"android":"levelo://app?vid=e9ddb0fd-25b5-4380-b7cd-6db0463f30c2","ios":"levelo://app?vid=e9ddb0fd-25b5-4380-b7cd-6db0463f30c2"},"vehicle_type_id":"4","last_reported":1736860488,"current_range_meters":12400,"station_id":"ce4bhih2rcd13ifvqfs0","pricing_plan_id":"cebpf4jnsgd1na2vs0mg"},{"bike_id":"426ee80e-06b0-4d0f-86a5-ea8ad64aaa11","system_id":"levelo_inurba_marseille","lat":43.28907,"lon":5.43803,"is_reserved":false,"is_disabled":false,"rental_uris":{"android":"levelo://app?vid=426ee80e-06b0-4d0f-86a5-ea8ad64aaa11","ios":"levelo://app?vid=426ee80e-06b0-4d0f-86a5-ea8ad64aaa11"},"vehicle_type_id":"4","last_reported":1736860488,"current_range_meters":6000,"station_id":"","pricing_plan_id":"cebpf4jnsgd1na2vs0mg"},{"bike_id":"24128752-966f-46f0-bcaa-fe72ab84876b","system_id":"levelo_inurba_marseille","lat":43.32672,"lon":5.40985,"is_reserved":false,"is_disabled":false,"rental_uris":{"android":"levelo://app?vid=24128752-966f-46f0-bcaa-fe72ab84876b","ios":"levelo://app?vid=24128752-966f-46f0-bcaa-fe72ab84876b"},"vehicle_type_id":"4","last_reported":1736860488,"current_range_meters":16800,"station_id":"ce4bhpp2rcd13ifvqhgg","pricing_plan_id":"cebpf4jnsgd1na2vs0mg"},{"bike_id":"192943ff-6579-4067-8b54-834fbf6d8760","system_id":"levelo_inurba_marseille","lat":43.2762,"lon":5.36112,"is_reserved":false,"is_disabled":false,"rental_uris":{"android":"levelo://app?vid=192943ff-6579-4067-8b54-834fbf6d8760","ios":"levelo://app?vid=192943ff-6579-4067-8b54-834fbf6d8760"},"vehicle_type_id":"4","last_reported":1736860488,"current_range_meters":39200,"station_id":"ce4bgj92rcd13ifvqbe0","pricing_plan_id":"cebpf4jnsgd1na2vs0mg"},{"bike_id":"fea1b24d-bbfb-474a-b028-8645483cd7e6","system_id":"levelo_inurba_marseille","lat":43.27379,"lon":5.36247,"is_reserved":false,"is_disabled":true,"rental_uris":{"android":"levelo://app?vid=fea1b24d-bbfb-474a-b028-8645483cd7e6","ios":"levelo://app?vid=fea1b24d-bbfb-474a-b028-8645483cd7e6"},"vehicle_type_id":"4","last_reported":1736860488,"current_range_meters":0,"station_id":"ce4bhbh2rcd13ifvqeo0","pricing_plan_id":"cebpf4jnsgd1na2vs0mg"},{"bike_id":"1a0edb26-6918-425b-8387-f290be87a2c0","system_id":"levelo_inurba_marseille","lat":43.33115,"lon":5.38221,"is_reserved":false,"is_disabled":false,"rental_uris":{"android":"levelo://app?vid=1a0edb26-6918-425b-8387-f290be87a2c0","ios":"levelo://app?vid=1a0edb26-6918-425b-8387-f290be87a2c0"},"vehicle_type_id":"4","last_reported":1736860488,"current_range_meters":36000,"station_id":"","pricing_plan_id":"cebpf4jnsgd1na2vs0mg"},{"bike_id":"13374467-0e88-4763-9f1f-20648d9959c1","system_id":"levelo_inurba_marseille","lat":43.31887,"lon":5.40735,"is_reserved":false,"is_disabled":false,"rental_uris":{"android":"levelo://app?vid=13374467-0e88-4763-9f1f-20648d9959c1","ios":"levelo://app?vid=13374467-0e88-4763-9f1f-20648d9959c1"},"vehicle_type_id":"4","last_reported":1736860488,"current_range_meters":38800,"station_id":"ce4bhq12rcd13ifvqhig","pricing_plan_id":"cebpf4jnsgd1na2vs0mg"},{"bike_id":"21741c1b-31e3-4242-a14a-a4199def3c70","system_id":"levelo_inurba_marseille","lat":43.30532,"lon":5.36561,"is_reserved":false,"is_disabled":false,"rental_uris":{"android":"levelo://app?vid=21741c1b-31e3-4242-a14a-a4199def3c70","ios":"levelo://app?vid=21741c1b-31e3-4242-a14a-a4199def3c70"},"vehicle_type_id":"4","last_reported":1736860488,"current_range_meters":20000,"station_id":"ce4bgs12rcd13ifvqcag","pricing_plan_id":"cebpf4jnsgd1na2vs0mg"},{"bike_id":"ab10846d-13f2-4f21-8075-25b6583e29b0","system_id":"levelo_inurba_marseille","lat":43.2594,"lon":5.40909,"is_reserved":false,"is_disabled":false,"rental_uris":{"android":"levelo://app?vid=ab10846d-13f2-4f21-8075-25b6583e29b0","ios":"levelo://app?vid=ab10846d-13f2-4f21-8075-25b6583e29b0"},"vehicle_type_id":"4","last_reported":1736860488,"current_range_meters":18800,"station_id":"ce4bhm92rcd13ifvqglg","pricing_plan_id":"cebpf4jnsgd1na2vs0mg"},{"bike_id":"f4dbc556-58b0-4dfd-be99-18a51c032520","system_id":"levelo_inurba_marseille","lat":43.24177,"lon":5.39728,"is_reserved":false,"is_disabled":false,"rental_uris":{"android":"levelo://app?vid=f4dbc556-58b0-4dfd-be99-18a51c032520","ios":"levelo://app?vid=f4dbc556-58b0-4dfd-be99-18a51c032520"},"vehicle_type_id":"4","last_reported":1736860488,"current_range_meters":27600,"station_id":"ce4bhn12rcd13ifvqgpg","pricing_plan_id":"cebpf4jnsgd1na2vs0mg"},{"bike_id":"f30e6e03-87fe-4bb8-b232-1014d46c4a3f","system_id":"levelo_inurba_marseille","lat":43.30951,"lon":5.3904,"is_reserved":false,"is_disabled":false,"rental_uris":{"android":"levelo://app?vid=f30e6e03-87fe-4bb8-b232-1014d46c4a3f","ios":"levelo://app?vid=f30e6e03-87fe-4bb8-b232-1014d46c4a3f"},"vehicle_type_id":"4","last_reported":1736860488,"current_range_meters":17600,"station_id":"ce4bgup2rcd13ifvqco0","pricing_plan_id":"cebpf4jnsgd1na2vs0mg"},{"bike_id":"37f67e20-aefd-4c55-80db-56389b92f290","system_id":"levelo_inurba_marseille","lat":43.29607,"lon":5.38105,"is_reserved":false,"is_disabled":false,"rental_uris":{"android":"levelo://app?vid=37f67e20-aefd-4c55-80db-56389b92f290","ios":"levelo://app?vid=37f67e20-aefd-4c55-80db-56389b92f290"},"vehicle_type_id":"4","last_reported":1736860488,"current_range_meters":17600,"station_id":"ce4bgl12rcd13ifvqbo0","pricing_plan_id":"cebpf4jnsgd1na2vs0mg"},{"bike_id":"2c706f5e-b3a2-4f62-b5b0-817900f3e0ad","system_id":"levelo_inurba_marseille","lat":43.30544,"lon":5.36718,"is_reserved":false,"is_disabled":false,"rental_uris":{"android":"levelo://app?vid=2c706f5e-b3a2-4f62-b5b0-817900f3e0ad","ios":"levelo://app?vid=2c706f5e-b3a2-4f62-b5b0-817900f3e0ad"},"vehicle_type_id":"4","last_reported":1736860488,"current_range_meters":38800,"station_id":"ce4bgrp2rcd13ifvqc9g","pricing_plan_id":"cebpf4jnsgd1na2vs0mg"},{"bike_id":"2b2619d2-a23f-4637-8bb4-0a751d59c14c","system_id":"levelo_inurba_marseille","lat":43.29936,"lon":5.36551,"is_reserved":false,"is_disabled":false,"rental_uris":{"android":"levelo://app?vid=2b2619d2-a23f-4637-8bb4-0a751d59c14c","ios":"levelo://app?vid=2b2619d2-a23f-4637-8bb4-0a751d59c14c"},"vehicle_type_id":"4","last_reported":1736860488,"current_range_meters":32400,"station_id":"ce4bgm92rcd13ifvqbr0","pricing_plan_id":"cebpf4jnsgd1na2vs0mg"},{"bike_id":"5d9847f6-f8ad-46f4-a3d8-44df46642ccc","system_id":"levelo_inurba_marseille","lat":43.3013,"lon":5.38791,"is_reserved":false,"is_disabled":false,"rental_uris":{"android":"levelo://app?vid=5d9847f6-f8ad-46f4-a3d8-44df46642ccc","ios":"levelo://app?vid=5d9847f6-f8ad-46f4-a3d8-44df46642ccc"},"vehicle_type_id":"4","last_reported":1736860488,"current_range_meters":20400,"station_id":"ce4bghh2rcd13ifvqb60","pricing_plan_id":"cebpf4jnsgd1na2vs0mg"},{"bike_id":"cbdd4c93-cd8f-4c2a-a068-0d96769a9de8","system_id":"levelo_inurba_marseille","lat":43.27323,"lon":5.39089,"is_reserved":false,"is_disabled":false,"rental_uris":{"android":"levelo://app?vid=cbdd4c93-cd8f-4c2a-a068-0d96769a9de8","ios":"levelo://app?vid=cbdd4c93-cd8f-4c2a-a068-0d96769a9de8"},"vehicle_type_id":"4","last_reported":1736860488,"current_range_meters":38800,"station_id":"ce4bhgp2rcd13ifvqfe0","pricing_plan_id":"cebpf4jnsgd1na2vs0mg"},{"bike_id":"9f6f071c-7c59-4d08-9963-df26a1256e44","system_id":"levelo_inurba_marseille","lat":43.24659,"lon":5.38904,"is_reserved":false,"is_disabled":false,"rental_uris":{"android":"levelo://app?vid=9f6f071c-7c59-4d08-9963-df26a1256e44","ios":"levelo://app?vid=9f6f071c-7c59-4d08-9963-df26a1256e44"},"vehicle_type_id":"4","last_reported":1736860488,"current_range_meters":39200,"station_id":"ce4bhg12rcd13ifvqf60","pricing_plan_id":"cebpf4jnsgd1na2vs0mg"},{"bike_id":"276712a4-38d0-4004-beab-c226992bddbc","system_id":"levelo_inurba_marseille","lat":43.30536,"lon":5.38429,"is_reserved":false,"is_disabled":false,"rental_uris":{"android":"levelo://app?vid=276712a4-38d0-4004-beab-c226992bddbc","ios":"levelo://app?vid=276712a4-38d0-4004-beab-c226992bddbc"},"vehicle_type_id":"4","last_reported":1736860488,"current_range_meters":33600,"station_id":"ce4bgg92rcd13ifvqb30","pricing_plan_id":"cebpf4jnsgd1na2vs0mg"},{"bike_id":"ade1ffd7-379f-44ee-93e1-8c261178e187","system_id":"levelo_inurba_marseille","lat":43.24806,"lon":5.37449,"is_reserved":false,"is_disabled":false,"rental_uris":{"android":"levelo://app?vid=ade1ffd7-379f-44ee-93e1-8c261178e187","ios":"levelo://app?vid=ade1ffd7-379f-44ee-93e1-8c261178e187"},"vehicle_type_id":"4","last_reported":1736860488,"current_range_meters":20400,"station_id":"ce4bhgh2rcd13ifvqfb0","pricing_plan_id":"cebpf4jnsgd1na2vs0mg"},{"bike_id":"2b3b8be7-238d-42dd-bb63-6325633afb8e","system_id":"levelo_inurba_marseille","lat":43.23151,"lon":5.43718,"is_reserved":false,"is_disabled":false,"rental_uris":{"android":"levelo://app?vid=2b3b8be7-238d-42dd-bb63-6325633afb8e","ios":"levelo://app?vid=2b3b8be7-238d-42dd-bb63-6325633afb8e"},"vehicle_type_id":"4","last_reported":1736860488,"current_range_meters":11600,"station_id":"ce4bhmp2rcd13ifvqgog","pricing_plan_id":"cebpf4jnsgd1na2vs0mg"},{"bike_id":"755e5c0a-8de7-4ee5-9d4e-5ec609711170","system_id":"levelo_inurba_marseille","lat":43.29583,"lon":5.38104,"is_reserved":false,"is_disabled":true,"rental_uris":{"android":"levelo://app?vid=755e5c0a-8de7-4ee5-9d4e-5ec609711170","ios":"levelo://app?vid=755e5c0a-8de7-4ee5-9d4e-5ec609711170"},"vehicle_type_id":"4","last_reported":1736860488,"current_range_meters":30800,"station_id":"ce4bgl12rcd13ifvqbo0","pricing_plan_id":"cebpf4jnsgd1na2vs0mg"},{"bike_id":"7a1457f0-7f09-4eea-b1f3-2e9174a14fd4","system_id":"levelo_inurba_marseille","lat":43.28415,"lon":5.37524,"is_reserved":false,"is_disabled":false,"rental_uris":{"android":"levelo://app?vid=7a1457f0-7f09-4eea-b1f3-2e9174a14fd4","ios":"levelo://app?vid=7a1457f0-7f09-4eea-b1f3-2e9174a14fd4"},"vehicle_type_id":"4","last_reported":1736860488,"current_range_meters":38800,"station_id":"ce4bh412rcd13ifvqds0","pricing_plan_id":"cebpf4jnsgd1na2vs0mg"},{"bike_id":"cc9cf4e4-bd05-4828-9c34-27bb5e5951f4","system_id":"levelo_inurba_marseille","lat":43.25942,"lon":5.40909,"is_reserved":false,"is_disabled":false,"rental_uris":{"android":"levelo://app?vid=cc9cf4e4-bd05-4828-9c34-27bb5e5951f4","ios":"levelo://app?vid=cc9cf4e4-bd05-4828-9c34-27bb5e5951f4"},"vehicle_type_id":"4","last_reported":1736860488,"current_range_meters":4400,"station_id":"ce4bhm92rcd13ifvqglg","pricing_plan_id":"cebpf4jnsgd1na2vs0mg"},{"bike_id":"a15980ac-c225-4e68-8982-6cc8c4cbfd79","system_id":"levelo_inurba_marseille","lat":43.23189,"lon":5.35554,"is_reserved":false,"is_disabled":false,"rental_uris":{"android":"levelo://app?vid=a15980ac-c225-4e68-8982-6cc8c4cbfd79","ios":"levelo://app?vid=a15980ac-c225-4e68-8982-6cc8c4cbfd79"},"vehicle_type_id":"4","last_reported":1736860488,"current_range_meters":6800,"station_id":"ce4bhu92rcd13ifvqi70","pricing_plan_id":"cebpf4jnsgd1na2vs0mg"},{"bike_id":"0659b689-8aa4-41f5-a39c-461fa4891cd3","system_id":"levelo_inurba_marseille","lat":43.28933,"lon":5.36631,"is_reserved":false,"is_disabled":false,"rental_uris":{"android":"levelo://app?vid=0659b689-8aa4-41f5-a39c-461fa4891cd3","ios":"levelo://app?vid=0659b689-8aa4-41f5-a39c-461fa4891cd3"},"vehicle_type_id":"4","last_reported":1736860488,"current_range_meters":6400,"station_id":"ce4bhap2rcd13ifvqek0","pricing_plan_id":"cebpf4jnsgd1na2vs0mg"},{"bike_id":"cd777a13-86bc-46b1-93f6-869ff2918ab0","system_id":"levelo_inurba_marseille","lat":43.29888,"lon":5.38898,"is_reserved":false,"is_disabled":false,"rental_uris":{"android":"levelo://app?vid=cd777a13-86bc-46b1-93f6-869ff2918ab0","ios":"levelo://app?vid=cd777a13-86bc-46b1-93f6-869ff2918ab0"},"vehicle_type_id":"4","last_reported":1736860488,"current_range_meters":23200,"station_id":"ce4bh392rcd13ifvqdl0","pricing_plan_id":"cebpf4jnsgd1na2vs0mg"},{"bike_id":"3b74a056-c0cf-4f44-8772-22ed33115fcd","system_id":"levelo_inurba_marseille","lat":43.23194,"lon":5.39987,"is_reserved":false,"is_disabled":false,"rental_uris":{"android":"levelo://app?vid=3b74a056-c0cf-4f44-8772-22ed33115fcd","ios":"levelo://app?vid=3b74a056-c0cf-4f44-8772-22ed33115fcd"},"vehicle_type_id":"4","last_reported":1736860488,"current_range_meters":38400,"station_id":"ce4bhn12rcd13ifvqgqg","pricing_plan_id":"cebpf4jnsgd1na2vs0mg"},{"bike_id":"1553599e-6810-4423-9490-79f154d8a962","system_id":"levelo_inurba_marseille","lat":43.2973,"lon":5.3769,"is_reserved":false,"is_disabled":false,"rental_uris":{"android":"levelo://app?vid=1553599e-6810-4423-9490-79f154d8a962","ios":"levelo://app?vid=1553599e-6810-4423-9490-79f154d8a962"},"vehicle_type_id":"4","last_reported":1736860488,"current_range_meters":28000,"station_id":"ce4bgkh2rcd13ifvqbl0","pricing_plan_id":"cebpf4jnsgd1na2vs0mg"},{"bike_id":"3f404148-f2c7-44b8-a466-977741fe2f8d","system_id":"levelo_inurba_marseille","lat":43.27919,"lon":5.39574,"is_reserved":false,"is_disabled":false,"rental_uris":{"android":"levelo://app?vid=3f404148-f2c7-44b8-a466-977741fe2f8d","ios":"levelo://app?vid=3f404148-f2c7-44b8-a466-977741fe2f8d"},"vehicle_type_id":"4","last_reported":1736860488,"current_range_meters":28800,"station_id":"ce4bhf92rcd13ifvqf40","pricing_plan_id":"cebpf4jnsgd1na2vs0mg"},{"bike_id":"9616601e-4bf2-40cf-b683-7530143e1fa7","system_id":"levelo_inurba_marseille","lat":43.26948,"lon":5.38644,"is_reserved":false,"is_disabled":false,"rental_uris":{"android":"levelo://app?vid=9616601e-4bf2-40cf-b683-7530143e1fa7","ios":"levelo://app?vid=9616601e-4bf2-40cf-b683-7530143e1fa7"},"vehicle_type_id":"4","last_reported":1736860488,"current_range_meters":38000,"station_id":"ce4bhh92rcd13ifvqfh0","pricing_plan_id":"cebpf4jnsgd1na2vs0mg"},{"bike_id":"8bbee6d9-283a-4e88-8290-c90cf2dc52eb","system_id":"levelo_inurba_marseille","lat":43.28418,"lon":5.37525,"is_reserved":false,"is_disabled":false,"rental_uris":{"android":"levelo://app?vid=8bbee6d9-283a-4e88-8290-c90cf2dc52eb","ios":"levelo://app?vid=8bbee6d9-283a-4e88-8290-c90cf2dc52eb"},"vehicle_type_id":"4","last_reported":1736860488,"current_range_meters":24400,"station_id":"ce4bh412rcd13ifvqds0","pricing_plan_id":"cebpf4jnsgd1na2vs0mg"},{"bike_id":"e37b8d0a-fb99-491e-adfa-c0a2653cd732","system_id":"levelo_inurba_marseille","lat":43.27549,"lon":5.3843,"is_reserved":false,"is_disabled":false,"rental_uris":{"android":"levelo://app?vid=e37b8d0a-fb99-491e-adfa-c0a2653cd732","ios":"levelo://app?vid=e37b8d0a-fb99-491e-adfa-c0a2653cd732"},"vehicle_type_id":"4","last_reported":1736860488,"current_range_meters":39200,"station_id":"ce4bhh92rcd13ifvqfi0","pricing_plan_id":"cebpf4jnsgd1na2vs0mg"},{"bike_id":"51bb6953-dea8-4e82-96bf-52696267905f","system_id":"levelo_inurba_marseille","lat":43.23061,"lon":5.354966,"is_reserved":false,"is_disabled":false,"rental_uris":{"android":"levelo://app?vid=51bb6953-dea8-4e82-96bf-52696267905f","ios":"levelo://app?vid=51bb6953-dea8-4e82-96bf-52696267905f"},"vehicle_type_id":"4","last_reported":1736860488,"current_range_meters":8800,"station_id":"cpo3342slgdg3j2ifvpg","pricing_plan_id":"cebpf4jnsgd1na2vs0mg"},{"bike_id":"b4d2fb64-79fe-432f-80df-64b6718d9f84","system_id":"levelo_inurba_marseille","lat":43.24651,"lon":5.38879,"is_reserved":false,"is_disabled":false,"rental_uris":{"android":"levelo://app?vid=b4d2fb64-79fe-432f-80df-64b6718d9f84","ios":"levelo://app?vid=b4d2fb64-79fe-432f-80df-64b6718d9f84"},"vehicle_type_id":"4","last_reported":1736860488,"current_range_meters":6400,"station_id":"ce4bhg12rcd13ifvqf60","pricing_plan_id":"cebpf4jnsgd1na2vs0mg"},{"bike_id":"0734ba73-738f-4d34-9431-95e7cce00a42","system_id":"levelo_inurba_marseille","lat":43.29905,"lon":5.3747,"is_reserved":false,"is_disabled":false,"rental_uris":{"android":"levelo://app?vid=0734ba73-738f-4d34-9431-95e7cce00a42","ios":"levelo://app?vid=0734ba73-738f-4d34-9431-95e7cce00a42"},"vehicle_type_id":"4","last_reported":1736860488,"current_range_meters":38800,"station_id":"ce4bgjh2rcd13ifvqbg0","pricing_plan_id":"cebpf4jnsgd1na2vs0mg"},{"bike_id":"207ab073-df26-4b08-9454-53c2fca0ada9","system_id":"levelo_inurba_marseille","lat":43.27187,"lon":5.39168,"is_reserved":false,"is_disabled":false,"rental_uris":{"android":"levelo://app?vid=207ab073-df26-4b08-9454-53c2fca0ada9","ios":"levelo://app?vid=207ab073-df26-4b08-9454-53c2fca0ada9"},"vehicle_type_id":"4","last_reported":1736860488,"current_range_meters":39200,"station_id":"ce4bhhp2rcd13ifvqfm0","pricing_plan_id":"cebpf4jnsgd1na2vs0mg"},{"bike_id":"e0404eb6-52d5-4a6b-a31c-8f13e2bde7fd","system_id":"levelo_inurba_marseille","lat":43.29355,"lon":5.37846,"is_reserved":false,"is_disabled":false,"rental_uris":{"android":"levelo://app?vid=e0404eb6-52d5-4a6b-a31c-8f13e2bde7fd","ios":"levelo://app?vid=e0404eb6-52d5-4a6b-a31c-8f13e2bde7fd"},"vehicle_type_id":"4","last_reported":1736860488,"current_range_meters":16000,"station_id":"ce4bgjh2rcd13ifvqbf0","pricing_plan_id":"cebpf4jnsgd1na2vs0mg"},{"bike_id":"e8936111-104b-4c68-a7db-11b406bf0949","system_id":"levelo_inurba_marseille","lat":43.31121,"lon":5.37789,"is_reserved":false,"is_disabled":false,"rental_uris":{"android":"levelo://app?vid=e8936111-104b-4c68-a7db-11b406bf0949","ios":"levelo://app?vid=e8936111-104b-4c68-a7db-11b406bf0949"},"vehicle_type_id":"4","last_reported":1736860488,"current_range_meters":35600,"station_id":"ce4bgt92rcd13ifvqcg0","pricing_plan_id":"cebpf4jnsgd1na2vs0mg"},{"bike_id":"a4e288a5-ac6a-42fd-81ad-5d913c49f177","system_id":"levelo_inurba_marseille","lat":43.2761,"lon":5.3614,"is_reserved":false,"is_disabled":false,"rental_uris":{"android":"levelo://app?vid=a4e288a5-ac6a-42fd-81ad-5d913c49f177","ios":"levelo://app?vid=a4e288a5-ac6a-42fd-81ad-5d913c49f177"},"vehicle_type_id":"4","last_reported":1736860488,"current_range_meters":38400,"station_id":"ce4bgj92rcd13ifvqbe0","pricing_plan_id":"cebpf4jnsgd1na2vs0mg"},{"bike_id":"96631fdf-523e-4770-9bee-daec177d5058","system_id":"levelo_inurba_marseille","lat":43.29016,"lon":5.3814,"is_reserved":false,"is_disabled":false,"rental_uris":{"android":"levelo://app?vid=96631fdf-523e-4770-9bee-daec177d5058","ios":"levelo://app?vid=96631fdf-523e-4770-9bee-daec177d5058"},"vehicle_type_id":"4","last_reported":1736860488,"current_range_meters":35200,"station_id":"ce4bh4p2rcd13ifvqe1g","pricing_plan_id":"cebpf4jnsgd1na2vs0mg"},{"bike_id":"3949fb0a-4091-4b98-b55c-cd98f515ad82","system_id":"levelo_inurba_marseille","lat":43.29354,"lon":5.37162,"is_reserved":false,"is_disabled":false,"rental_uris":{"android":"levelo://app?vid=3949fb0a-4091-4b98-b55c-cd98f515ad82","ios":"levelo://app?vid=3949fb0a-4091-4b98-b55c-cd98f515ad82"},"vehicle_type_id":"4","last_reported":1736860488,"current_range_meters":14000,"station_id":"ce4bgh92rcd13ifvqb40","pricing_plan_id":"cebpf4jnsgd1na2vs0mg"},{"bike_id":"399477ae-0fdc-4fd6-a2ff-431430209881","system_id":"levelo_inurba_marseille","lat":43.25578,"lon":5.38228,"is_reserved":false,"is_disabled":false,"rental_uris":{"android":"levelo://app?vid=399477ae-0fdc-4fd6-a2ff-431430209881","ios":"levelo://app?vid=399477ae-0fdc-4fd6-a2ff-431430209881"},"vehicle_type_id":"4","last_reported":1736860488,"current_range_meters":6800,"station_id":"ce4bhih2rcd13ifvqfs0","pricing_plan_id":"cebpf4jnsgd1na2vs0mg"},{"bike_id":"4824d47a-04f0-4a5a-95e2-4edd14e6ff71","system_id":"levelo_inurba_marseille","lat":43.24654,"lon":5.38174,"is_reserved":false,"is_disabled":false,"rental_uris":{"android":"levelo://app?vid=4824d47a-04f0-4a5a-95e2-4edd14e6ff71","ios":"levelo://app?vid=4824d47a-04f0-4a5a-95e2-4edd14e6ff71"},"vehicle_type_id":"4","last_reported":1736860488,"current_range_meters":37600,"station_id":"ce4bhih2rcd13ifvqfr0","pricing_plan_id":"cebpf4jnsgd1na2vs0mg"},{"bike_id":"56a37990-c381-414a-8c27-59f20eae88ce","system_id":"levelo_inurba_marseille","lat":43.25012,"lon":5.38933,"is_reserved":false,"is_disabled":false,"rental_uris":{"android":"levelo://app?vid=56a37990-c381-414a-8c27-59f20eae88ce","ios":"levelo://app?vid=56a37990-c381-414a-8c27-59f20eae88ce"},"vehicle_type_id":"4","last_reported":1736860488,"current_range_meters":28000,"station_id":"ce4bhgp2rcd13ifvqfd0","pricing_plan_id":"cebpf4jnsgd1na2vs0mg"},{"bike_id":"620bac2d-369a-4f54-8bb0-904236eae407","system_id":"levelo_inurba_marseille","lat":43.284755,"lon":5.384355,"is_reserved":false,"is_disabled":false,"rental_uris":{"android":"levelo://app?vid=620bac2d-369a-4f54-8bb0-904236eae407","ios":"levelo://app?vid=620bac2d-369a-4f54-8bb0-904236eae407"},"vehicle_type_id":"4","last_reported":1736860488,"current_range_meters":23200,"station_id":"ce4bh512rcd13ifvqe3g","pricing_plan_id":"cebpf4jnsgd1na2vs0mg"},{"bike_id":"b328758c-1306-4f48-9fa3-7f9b48fccfe1","system_id":"levelo_inurba_marseille","lat":43.2319,"lon":5.39997,"is_reserved":false,"is_disabled":false,"rental_uris":{"android":"levelo://app?vid=b328758c-1306-4f48-9fa3-7f9b48fccfe1","ios":"levelo://app?vid=b328758c-1306-4f48-9fa3-7f9b48fccfe1"},"vehicle_type_id":"4","last_reported":1736860488,"current_range_meters":19200,"station_id":"ce4bhn12rcd13ifvqgqg","pricing_plan_id":"cebpf4jnsgd1na2vs0mg"},{"bike_id":"a56bdef2-14b8-4e02-b3bc-538917283971","system_id":"levelo_inurba_marseille","lat":43.25097,"lon":5.3954,"is_reserved":false,"is_disabled":false,"rental_uris":{"android":"levelo://app?vid=a56bdef2-14b8-4e02-b3bc-538917283971","ios":"levelo://app?vid=a56bdef2-14b8-4e02-b3bc-538917283971"},"vehicle_type_id":"4","last_reported":1736860488,"current_range_meters":31200,"station_id":"ce4bhm12rcd13ifvqgkg","pricing_plan_id":"cebpf4jnsgd1na2vs0mg"},{"bike_id":"1d76f46c-8624-4e21-8dc1-49f9c74cbca8","system_id":"levelo_inurba_marseille","lat":43.267499,"lon":5.3827,"is_reserved":false,"is_disabled":false,"rental_uris":{"android":"levelo://app?vid=1d76f46c-8624-4e21-8dc1-49f9c74cbca8","ios":"levelo://app?vid=1d76f46c-8624-4e21-8dc1-49f9c74cbca8"},"vehicle_type_id":"4","last_reported":1736860488,"current_range_meters":4400,"station_id":"ce4bhg92rcd13ifvqf90","pricing_plan_id":"cebpf4jnsgd1na2vs0mg"},{"bike_id":"25f8db58-b1f3-45b3-8a2b-99835e3b8eef","system_id":"levelo_inurba_marseille","lat":43.24084,"lon":5.3776,"is_reserved":false,"is_disabled":false,"rental_uris":{"android":"levelo://app?vid=25f8db58-b1f3-45b3-8a2b-99835e3b8eef","ios":"levelo://app?vid=25f8db58-b1f3-45b3-8a2b-99835e3b8eef"},"vehicle_type_id":"4","last_reported":1736860488,"current_range_meters":28000,"station_id":"ce4bhnp2rcd13ifvqgvg","pricing_plan_id":"cebpf4jnsgd1na2vs0mg"},{"bike_id":"97074487-ff52-4540-9973-450053117464","system_id":"levelo_inurba_marseille","lat":43.289411,"lon":5.366269,"is_reserved":false,"is_disabled":false,"rental_uris":{"android":"levelo://app?vid=97074487-ff52-4540-9973-450053117464","ios":"levelo://app?vid=97074487-ff52-4540-9973-450053117464"},"vehicle_type_id":"4","last_reported":1736860488,"current_range_meters":35600,"station_id":"ce4bhap2rcd13ifvqek0","pricing_plan_id":"cebpf4jnsgd1na2vs0mg"},{"bike_id":"835aabc0-9c98-4d76-bb79-380bc69b249f","system_id":"levelo_inurba_marseille","lat":43.29893,"lon":5.43672,"is_reserved":false,"is_disabled":false,"rental_uris":{"android":"levelo://app?vid=835aabc0-9c98-4d76-bb79-380bc69b249f","ios":"levelo://app?vid=835aabc0-9c98-4d76-bb79-380bc69b249f"},"vehicle_type_id":"4","last_reported":1736860488,"current_range_meters":24000,"station_id":"ce4bhpp2rcd13ifvqhfg","pricing_plan_id":"cebpf4jnsgd1na2vs0mg"},{"bike_id":"b51b8509-c21e-40ac-802b-edd56e55cdd0","system_id":"levelo_inurba_marseille","lat":43.303596,"lon":5.4189,"is_reserved":false,"is_disabled":true,"rental_uris":{"android":"levelo://app?vid=b51b8509-c21e-40ac-802b-edd56e55cdd0","ios":"levelo://app?vid=b51b8509-c21e-40ac-802b-edd56e55cdd0"},"vehicle_type_id":"4","last_reported":1736860488,"current_range_meters":20400,"station_id":"ce4bhop2rcd13ifvqh7g","pricing_plan_id":"cebpf4jnsgd1na2vs0mg"},{"bike_id":"55d2a299-54bf-4b8c-83ad-08782d81d543","system_id":"levelo_inurba_marseille","lat":43.30541,"lon":5.36701,"is_reserved":false,"is_disabled":false,"rental_uris":{"android":"levelo://app?vid=55d2a299-54bf-4b8c-83ad-08782d81d543","ios":"levelo://app?vid=55d2a299-54bf-4b8c-83ad-08782d81d543"},"vehicle_type_id":"4","last_reported":1736860488,"current_range_meters":6000,"station_id":"ce4bgrp2rcd13ifvqc9g","pricing_plan_id":"cebpf4jnsgd1na2vs0mg"},{"bike_id":"08ef6b09-ec53-47a9-9bf3-d9703b1ae875","system_id":"levelo_inurba_marseille","lat":43.25726,"lon":5.41109,"is_reserved":false,"is_disabled":false,"rental_uris":{"android":"levelo://app?vid=08ef6b09-ec53-47a9-9bf3-d9703b1ae875","ios":"levelo://app?vid=08ef6b09-ec53-47a9-9bf3-d9703b1ae875"},"vehicle_type_id":"4","last_reported":1736860488,"current_range_meters":22800,"station_id":"ce4bhkp2rcd13ifvqgd0","pricing_plan_id":"cebpf4jnsgd1na2vs0mg"},{"bike_id":"23e3dc7e-8426-4547-ad72-0a247a82c950","system_id":"levelo_inurba_marseille","lat":43.29853,"lon":5.36268,"is_reserved":false,"is_disabled":true,"rental_uris":{"android":"levelo://app?vid=23e3dc7e-8426-4547-ad72-0a247a82c950","ios":"levelo://app?vid=23e3dc7e-8426-4547-ad72-0a247a82c950"},"vehicle_type_id":"4","last_reported":1736860488,"current_range_meters":38800,"station_id":"ce4bgpp2rcd13ifvqc3g","pricing_plan_id":"cebpf4jnsgd1na2vs0mg"},{"bike_id":"9679fb69-98c5-4b1c-9f57-4dfe59cc31a4","system_id":"levelo_inurba_marseille","lat":43.26941,"lon":5.3865,"is_reserved":false,"is_disabled":false,"rental_uris":{"android":"levelo://app?vid=9679fb69-98c5-4b1c-9f57-4dfe59cc31a4","ios":"levelo://app?vid=9679fb69-98c5-4b1c-9f57-4dfe59cc31a4"},"vehicle_type_id":"4","last_reported":1736860488,"current_range_meters":31200,"station_id":"ce4bhh92rcd13ifvqfh0","pricing_plan_id":"cebpf4jnsgd1na2vs0mg"},{"bike_id":"446c15fe-c178-4a66-a753-a3c1d5c3afea","system_id":"levelo_inurba_marseille","lat":43.29076,"lon":5.38157,"is_reserved":false,"is_disabled":false,"rental_uris":{"android":"levelo://app?vid=446c15fe-c178-4a66-a753-a3c1d5c3afea","ios":"levelo://app?vid=446c15fe-c178-4a66-a753-a3c1d5c3afea"},"vehicle_type_id":"4","last_reported":1736860488,"current_range_meters":28800,"station_id":"ce4bh512rcd13ifvqe2g","pricing_plan_id":"cebpf4jnsgd1na2vs0mg"},{"bike_id":"24017be9-d1a6-4333-9509-641e776c3c03","system_id":"levelo_inurba_marseille","lat":43.24652,"lon":5.38906,"is_reserved":false,"is_disabled":false,"rental_uris":{"android":"levelo://app?vid=24017be9-d1a6-4333-9509-641e776c3c03","ios":"levelo://app?vid=24017be9-d1a6-4333-9509-641e776c3c03"},"vehicle_type_id":"4","last_reported":1736860488,"current_range_meters":39200,"station_id":"ce4bhg12rcd13ifvqf60","pricing_plan_id":"cebpf4jnsgd1na2vs0mg"},{"bike_id":"9684ffc1-6103-46e9-84e5-28fbefb9518a","system_id":"levelo_inurba_marseille","lat":43.27996,"lon":5.41662,"is_reserved":false,"is_disabled":false,"rental_uris":{"android":"levelo://app?vid=9684ffc1-6103-46e9-84e5-28fbefb9518a","ios":"levelo://app?vid=9684ffc1-6103-46e9-84e5-28fbefb9518a"},"vehicle_type_id":"4","last_reported":1736860488,"current_range_meters":22000,"station_id":"ce4bho12rcd13ifvqh1g","pricing_plan_id":"cebpf4jnsgd1na2vs0mg"},{"bike_id":"bd01f10b-dc0e-420f-bd5c-058aa6946842","system_id":"levelo_inurba_marseille","lat":43.27205,"lon":5.39187,"is_reserved":false,"is_disabled":false,"rental_uris":{"android":"levelo://app?vid=bd01f10b-dc0e-420f-bd5c-058aa6946842","ios":"levelo://app?vid=bd01f10b-dc0e-420f-bd5c-058aa6946842"},"vehicle_type_id":"4","last_reported":1736860488,"current_range_meters":23200,"station_id":"ce4bhhp2rcd13ifvqfm0","pricing_plan_id":"cebpf4jnsgd1na2vs0mg"},{"bike_id":"45324790-abcf-4a91-8b9e-6b7c17eae013","system_id":"levelo_inurba_marseille","lat":43.27372,"lon":5.3625,"is_reserved":false,"is_disabled":false,"rental_uris":{"android":"levelo://app?vid=45324790-abcf-4a91-8b9e-6b7c17eae013","ios":"levelo://app?vid=45324790-abcf-4a91-8b9e-6b7c17eae013"},"vehicle_type_id":"4","last_reported":1736860488,"current_range_meters":5600,"station_id":"ce4bhbh2rcd13ifvqeo0","pricing_plan_id":"cebpf4jnsgd1na2vs0mg"},{"bike_id":"f6923422-cdff-42a5-974d-ae7261f25d3a","system_id":"levelo_inurba_marseille","lat":43.30306,"lon":5.36894,"is_reserved":false,"is_disabled":false,"rental_uris":{"android":"levelo://app?vid=f6923422-cdff-42a5-974d-ae7261f25d3a","ios":"levelo://app?vid=f6923422-cdff-42a5-974d-ae7261f25d3a"},"vehicle_type_id":"4","last_reported":1736860488,"current_range_meters":16800,"station_id":"ce4bgqh2rcd13ifvqc5g","pricing_plan_id":"cebpf4jnsgd1na2vs0mg"},{"bike_id":"81d5593a-d359-468e-93a0-1de6e76a9a28","system_id":"levelo_inurba_marseille","lat":43.23962,"lon":5.36632,"is_reserved":false,"is_disabled":false,"rental_uris":{"android":"levelo://app?vid=81d5593a-d359-468e-93a0-1de6e76a9a28","ios":"levelo://app?vid=81d5593a-d359-468e-93a0-1de6e76a9a28"},"vehicle_type_id":"4","last_reported":1736860488,"current_range_meters":38800,"station_id":"ce4bhi12rcd13ifvqfp0","pricing_plan_id":"cebpf4jnsgd1na2vs0mg"},{"bike_id":"240f7700-8522-4f4b-bac9-f062c5617e20","system_id":"levelo_inurba_marseille","lat":43.27497,"lon":5.42457,"is_reserved":false,"is_disabled":false,"rental_uris":{"android":"levelo://app?vid=240f7700-8522-4f4b-bac9-f062c5617e20","ios":"levelo://app?vid=240f7700-8522-4f4b-bac9-f062c5617e20"},"vehicle_type_id":"4","last_reported":1736860488,"current_range_meters":18000,"station_id":"ce4bhn92rcd13ifvqgrg","pricing_plan_id":"cebpf4jnsgd1na2vs0mg"},{"bike_id":"d24d9040-6ad2-4db2-8347-cd569298245a","system_id":"levelo_inurba_marseille","lat":43.272,"lon":5.39175,"is_reserved":false,"is_disabled":false,"rental_uris":{"android":"levelo://app?vid=d24d9040-6ad2-4db2-8347-cd569298245a","ios":"levelo://app?vid=d24d9040-6ad2-4db2-8347-cd569298245a"},"vehicle_type_id":"4","last_reported":1736860488,"current_range_meters":39200,"station_id":"ce4bhhp2rcd13ifvqfm0","pricing_plan_id":"cebpf4jnsgd1na2vs0mg"},{"bike_id":"a86fe1f4-7545-4b33-8097-0e91725c0bb3","system_id":"levelo_inurba_marseille","lat":43.32481,"lon":5.36591,"is_reserved":false,"is_disabled":true,"rental_uris":{"android":"levelo://app?vid=a86fe1f4-7545-4b33-8097-0e91725c0bb3","ios":"levelo://app?vid=a86fe1f4-7545-4b33-8097-0e91725c0bb3"},"vehicle_type_id":"4","last_reported":1736860488,"current_range_meters":0,"station_id":"ce4bhs12rcd13ifvqhvg","pricing_plan_id":"cebpf4jnsgd1na2vs0mg"},{"bike_id":"96288e4c-2217-4363-a43b-27b3c199235a","system_id":"levelo_inurba_marseille","lat":43.28433,"lon":5.39197,"is_reserved":false,"is_disabled":false,"rental_uris":{"android":"levelo://app?vid=96288e4c-2217-4363-a43b-27b3c199235a","ios":"levelo://app?vid=96288e4c-2217-4363-a43b-27b3c199235a"},"vehicle_type_id":"4","last_reported":1736860488,"current_range_meters":13600,"station_id":"ce4bhoh2rcd13ifvqh5g","pricing_plan_id":"cebpf4jnsgd1na2vs0mg"},{"bike_id":"321a1127-d864-44e1-88ee-18a86707c918","system_id":"levelo_inurba_marseille","lat":43.24545,"lon":5.3953,"is_reserved":false,"is_disabled":false,"rental_uris":{"android":"levelo://app?vid=321a1127-d864-44e1-88ee-18a86707c918","ios":"levelo://app?vid=321a1127-d864-44e1-88ee-18a86707c918"},"vehicle_type_id":"4","last_reported":1736860488,"current_range_meters":22800,"station_id":"ce4bhlp2rcd13ifvqgjg","pricing_plan_id":"cebpf4jnsgd1na2vs0mg"},{"bike_id":"a3e4968a-b124-45ab-9617-95c6163c3218","system_id":"levelo_inurba_marseille","lat":43.30552,"lon":5.36707,"is_reserved":false,"is_disabled":false,"rental_uris":{"android":"levelo://app?vid=a3e4968a-b124-45ab-9617-95c6163c3218","ios":"levelo://app?vid=a3e4968a-b124-45ab-9617-95c6163c3218"},"vehicle_type_id":"4","last_reported":1736860488,"current_range_meters":33600,"station_id":"ce4bgrp2rcd13ifvqc9g","pricing_plan_id":"cebpf4jnsgd1na2vs0mg"},{"bike_id":"978fb29c-98ff-4562-ab1f-5fae6d5333de","system_id":"levelo_inurba_marseille","lat":43.26946,"lon":5.38638,"is_reserved":false,"is_disabled":false,"rental_uris":{"android":"levelo://app?vid=978fb29c-98ff-4562-ab1f-5fae6d5333de","ios":"levelo://app?vid=978fb29c-98ff-4562-ab1f-5fae6d5333de"},"vehicle_type_id":"4","last_reported":1736860488,"current_range_meters":32400,"station_id":"ce4bhh92rcd13ifvqfh0","pricing_plan_id":"cebpf4jnsgd1na2vs0mg"},{"bike_id":"c43815d3-4f9e-4fbb-a00a-ff6f383b06d7","system_id":"levelo_inurba_marseille","lat":43.299,"lon":5.37463,"is_reserved":false,"is_disabled":false,"rental_uris":{"android":"levelo://app?vid=c43815d3-4f9e-4fbb-a00a-ff6f383b06d7","ios":"levelo://app?vid=c43815d3-4f9e-4fbb-a00a-ff6f383b06d7"},"vehicle_type_id":"4","last_reported":1736860488,"current_range_meters":28800,"station_id":"ce4bgjh2rcd13ifvqbg0","pricing_plan_id":"cebpf4jnsgd1na2vs0mg"},{"bike_id":"a4c108d4-411d-4a66-ac0a-33ca30029180","system_id":"levelo_inurba_marseille","lat":43.23952,"lon":5.36667,"is_reserved":false,"is_disabled":false,"rental_uris":{"android":"levelo://app?vid=a4c108d4-411d-4a66-ac0a-33ca30029180","ios":"levelo://app?vid=a4c108d4-411d-4a66-ac0a-33ca30029180"},"vehicle_type_id":"4","last_reported":1736860488,"current_range_meters":38800,"station_id":"ce4bhi12rcd13ifvqfp0","pricing_plan_id":"cebpf4jnsgd1na2vs0mg"},{"bike_id":"3f1871b0-62e6-472a-a371-7699a3389f00","system_id":"levelo_inurba_marseille","lat":43.25822,"lon":5.39437,"is_reserved":false,"is_disabled":false,"rental_uris":{"android":"levelo://app?vid=3f1871b0-62e6-472a-a371-7699a3389f00","ios":"levelo://app?vid=3f1871b0-62e6-472a-a371-7699a3389f00"},"vehicle_type_id":"4","last_reported":1736860488,"current_range_meters":39200,"station_id":"ce4bhip2rcd13ifvqft0","pricing_plan_id":"cebpf4jnsgd1na2vs0mg"},{"bike_id":"161fa44b-11d4-4a31-83c8-0bd613731f54","system_id":"levelo_inurba_marseille","lat":43.28368,"lon":5.38627,"is_reserved":false,"is_disabled":false,"rental_uris":{"android":"levelo://app?vid=161fa44b-11d4-4a31-83c8-0bd613731f54","ios":"levelo://app?vid=161fa44b-11d4-4a31-83c8-0bd613731f54"},"vehicle_type_id":"4","last_reported":1736860488,"current_range_meters":35600,"station_id":"ce4bh492rcd13ifvqdvg","pricing_plan_id":"cebpf4jnsgd1na2vs0mg"},{"bike_id":"624fd665-76a1-4073-91c0-a4db8dfd6228","system_id":"levelo_inurba_marseille","lat":43.31269,"lon":5.36838,"is_reserved":false,"is_disabled":false,"rental_uris":{"android":"levelo://app?vid=624fd665-76a1-4073-91c0-a4db8dfd6228","ios":"levelo://app?vid=624fd665-76a1-4073-91c0-a4db8dfd6228"},"vehicle_type_id":"4","last_reported":1736860488,"current_range_meters":29600,"station_id":"","pricing_plan_id":"cebpf4jnsgd1na2vs0mg"},{"bike_id":"7b4d1b47-5678-441b-99e6-d51f2a1e45e8","system_id":"levelo_inurba_marseille","lat":43.24172,"lon":5.39733,"is_reserved":false,"is_disabled":false,"rental_uris":{"android":"levelo://app?vid=7b4d1b47-5678-441b-99e6-d51f2a1e45e8","ios":"levelo://app?vid=7b4d1b47-5678-441b-99e6-d51f2a1e45e8"},"vehicle_type_id":"4","last_reported":1736860488,"current_range_meters":39200,"station_id":"ce4bhn12rcd13ifvqgpg","pricing_plan_id":"cebpf4jnsgd1na2vs0mg"},{"bike_id":"3998a784-c7ad-483e-9a67-f053c11efe1d","system_id":"levelo_inurba_marseille","lat":43.26207,"lon":5.37441,"is_reserved":false,"is_disabled":false,"rental_uris":{"android":"levelo://app?vid=3998a784-c7ad-483e-9a67-f053c11efe1d","ios":"levelo://app?vid=3998a784-c7ad-483e-9a67-f053c11efe1d"},"vehicle_type_id":"4","last_reported":1736860488,"current_range_meters":33200,"station_id":"ce4bhgp2rcd13ifvqfc0","pricing_plan_id":"cebpf4jnsgd1na2vs0mg"},{"bike_id":"0680228a-e2f7-4ebb-b875-40d069d302c4","system_id":"levelo_inurba_marseille","lat":43.31326,"lon":5.397,"is_reserved":false,"is_disabled":false,"rental_uris":{"android":"levelo://app?vid=0680228a-e2f7-4ebb-b875-40d069d302c4","ios":"levelo://app?vid=0680228a-e2f7-4ebb-b875-40d069d302c4"},"vehicle_type_id":"4","last_reported":1736860488,"current_range_meters":28000,"station_id":"ce4bgvp2rcd13ifvqcu0","pricing_plan_id":"cebpf4jnsgd1na2vs0mg"},{"bike_id":"37bc9147-a569-4c73-b0e2-4161dcff9274","system_id":"levelo_inurba_marseille","lat":43.27177,"lon":5.40989,"is_reserved":false,"is_disabled":false,"rental_uris":{"android":"levelo://app?vid=37bc9147-a569-4c73-b0e2-4161dcff9274","ios":"levelo://app?vid=37bc9147-a569-4c73-b0e2-4161dcff9274"},"vehicle_type_id":"4","last_reported":1736860488,"current_range_meters":38800,"station_id":"ce4bhl12rcd13ifvqgf0","pricing_plan_id":"cebpf4jnsgd1na2vs0mg"},{"bike_id":"2d0273d2-ef3b-437a-aea9-9e57e1c068aa","system_id":"levelo_inurba_marseille","lat":43.29803,"lon":5.40412,"is_reserved":false,"is_disabled":false,"rental_uris":{"android":"levelo://app?vid=2d0273d2-ef3b-437a-aea9-9e57e1c068aa","ios":"levelo://app?vid=2d0273d2-ef3b-437a-aea9-9e57e1c068aa"},"vehicle_type_id":"4","last_reported":1736860488,"current_range_meters":38400,"station_id":"ce4bh112rcd13ifvqd90","pricing_plan_id":"cebpf4jnsgd1na2vs0mg"},{"bike_id":"2cf85a70-b6bf-48de-83de-04510c401ba3","system_id":"levelo_inurba_marseille","lat":43.23201,"lon":5.35554,"is_reserved":false,"is_disabled":false,"rental_uris":{"android":"levelo://app?vid=2cf85a70-b6bf-48de-83de-04510c401ba3","ios":"levelo://app?vid=2cf85a70-b6bf-48de-83de-04510c401ba3"},"vehicle_type_id":"4","last_reported":1736860488,"current_range_meters":6000,"station_id":"ce4bhu92rcd13ifvqi70","pricing_plan_id":"cebpf4jnsgd1na2vs0mg"},{"bike_id":"8780406c-0f05-4389-a692-93042b8afc8b","system_id":"levelo_inurba_marseille","lat":43.29027,"lon":5.38128,"is_reserved":false,"is_disabled":false,"rental_uris":{"android":"levelo://app?vid=8780406c-0f05-4389-a692-93042b8afc8b","ios":"levelo://app?vid=8780406c-0f05-4389-a692-93042b8afc8b"},"vehicle_type_id":"4","last_reported":1736860488,"current_range_meters":22400,"station_id":"ce4bh4p2rcd13ifvqe1g","pricing_plan_id":"cebpf4jnsgd1na2vs0mg"},{"bike_id":"31ca8b0e-c72e-47d4-a59b-a2766db72931","system_id":"levelo_inurba_marseille","lat":43.28417,"lon":5.40933,"is_reserved":false,"is_disabled":true,"rental_uris":{"android":"levelo://app?vid=31ca8b0e-c72e-47d4-a59b-a2766db72931","ios":"levelo://app?vid=31ca8b0e-c72e-47d4-a59b-a2766db72931"},"vehicle_type_id":"4","last_reported":1736860488,"current_range_meters":35200,"station_id":"","pricing_plan_id":"cebpf4jnsgd1na2vs0mg"},{"bike_id":"3cc4f8d9-abe9-44eb-b280-5b30a4d3b388","system_id":"levelo_inurba_marseille","lat":43.26208,"lon":5.37442,"is_reserved":false,"is_disabled":false,"rental_uris":{"android":"levelo://app?vid=3cc4f8d9-abe9-44eb-b280-5b30a4d3b388","ios":"levelo://app?vid=3cc4f8d9-abe9-44eb-b280-5b30a4d3b388"},"vehicle_type_id":"4","last_reported":1736860488,"current_range_meters":38400,"station_id":"ce4bhgp2rcd13ifvqfc0","pricing_plan_id":"cebpf4jnsgd1na2vs0mg"},{"bike_id":"60c48e84-151f-4edd-83cd-789ff87c7f63","system_id":"levelo_inurba_marseille","lat":43.28718,"lon":5.37414,"is_reserved":false,"is_disabled":true,"rental_uris":{"android":"levelo://app?vid=60c48e84-151f-4edd-83cd-789ff87c7f63","ios":"levelo://app?vid=60c48e84-151f-4edd-83cd-789ff87c7f63"},"vehicle_type_id":"4","last_reported":1736860488,"current_range_meters":33600,"station_id":"ce4bh3p2rcd13ifvqdq0","pricing_plan_id":"cebpf4jnsgd1na2vs0mg"},{"bike_id":"d4bd3ca0-48a8-4b8f-8823-cc0d13d0ab16","system_id":"levelo_inurba_marseille","lat":43.28073,"lon":5.39663,"is_reserved":false,"is_disabled":false,"rental_uris":{"android":"levelo://app?vid=d4bd3ca0-48a8-4b8f-8823-cc0d13d0ab16","ios":"levelo://app?vid=d4bd3ca0-48a8-4b8f-8823-cc0d13d0ab16"},"vehicle_type_id":"4","last_reported":1736860488,"current_range_meters":24000,"station_id":"ce4bho12rcd13ifvqh2g","pricing_plan_id":"cebpf4jnsgd1na2vs0mg"},{"bike_id":"be6b3f5e-afcd-4b8c-9aa4-e97dc1204c98","system_id":"levelo_inurba_marseille","lat":43.33017,"lon":5.39032,"is_reserved":false,"is_disabled":false,"rental_uris":{"android":"levelo://app?vid=be6b3f5e-afcd-4b8c-9aa4-e97dc1204c98","ios":"levelo://app?vid=be6b3f5e-afcd-4b8c-9aa4-e97dc1204c98"},"vehicle_type_id":"4","last_reported":1736860488,"current_range_meters":38800,"station_id":"ce4bhr92rcd13ifvqhrg","pricing_plan_id":"cebpf4jnsgd1na2vs0mg"},{"bike_id":"de05f028-7450-4792-8d5b-e268410faa9d","system_id":"levelo_inurba_marseille","lat":43.32124,"lon":5.36778,"is_reserved":false,"is_disabled":false,"rental_uris":{"android":"levelo://app?vid=de05f028-7450-4792-8d5b-e268410faa9d","ios":"levelo://app?vid=de05f028-7450-4792-8d5b-e268410faa9d"},"vehicle_type_id":"4","last_reported":1736860488,"current_range_meters":28800,"station_id":"ce4bhrh2rcd13ifvqhug","pricing_plan_id":"cebpf4jnsgd1na2vs0mg"},{"bike_id":"4218abb1-97a1-4e69-a779-b2859c95cf9a","system_id":"levelo_inurba_marseille","lat":43.23954,"lon":5.36647,"is_reserved":false,"is_disabled":false,"rental_uris":{"android":"levelo://app?vid=4218abb1-97a1-4e69-a779-b2859c95cf9a","ios":"levelo://app?vid=4218abb1-97a1-4e69-a779-b2859c95cf9a"},"vehicle_type_id":"4","last_reported":1736860488,"current_range_meters":14800,"station_id":"ce4bhi12rcd13ifvqfp0","pricing_plan_id":"cebpf4jnsgd1na2vs0mg"},{"bike_id":"b9e17258-e3e2-48ce-a34e-8f9bda3afea3","system_id":"levelo_inurba_marseille","lat":43.27495,"lon":5.42451,"is_reserved":false,"is_disabled":false,"rental_uris":{"android":"levelo://app?vid=b9e17258-e3e2-48ce-a34e-8f9bda3afea3","ios":"levelo://app?vid=b9e17258-e3e2-48ce-a34e-8f9bda3afea3"},"vehicle_type_id":"4","last_reported":1736860488,"current_range_meters":20400,"station_id":"ce4bhn92rcd13ifvqgrg","pricing_plan_id":"cebpf4jnsgd1na2vs0mg"},{"bike_id":"697e6ace-d673-4abf-ab6d-187906fe3096","system_id":"levelo_inurba_marseille","lat":43.29976,"lon":5.37185,"is_reserved":false,"is_disabled":false,"rental_uris":{"android":"levelo://app?vid=697e6ace-d673-4abf-ab6d-187906fe3096","ios":"levelo://app?vid=697e6ace-d673-4abf-ab6d-187906fe3096"},"vehicle_type_id":"4","last_reported":1736860488,"current_range_meters":22800,"station_id":"ce4bgr92rcd13ifvqc7g","pricing_plan_id":"cebpf4jnsgd1na2vs0mg"},{"bike_id":"d85168cd-cda5-48df-a191-5048004ec8d2","system_id":"levelo_inurba_marseille","lat":43.25084,"lon":5.39508,"is_reserved":false,"is_disabled":false,"rental_uris":{"android":"levelo://app?vid=d85168cd-cda5-48df-a191-5048004ec8d2","ios":"levelo://app?vid=d85168cd-cda5-48df-a191-5048004ec8d2"},"vehicle_type_id":"4","last_reported":1736860488,"current_range_meters":3600,"station_id":"ce4bhm12rcd13ifvqgkg","pricing_plan_id":"cebpf4jnsgd1na2vs0mg"},{"bike_id":"969807cf-216d-4cee-82aa-f5f2990bf61a","system_id":"levelo_inurba_marseille","lat":43.24076,"lon":5.3775,"is_reserved":false,"is_disabled":false,"rental_uris":{"android":"levelo://app?vid=969807cf-216d-4cee-82aa-f5f2990bf61a","ios":"levelo://app?vid=969807cf-216d-4cee-82aa-f5f2990bf61a"},"vehicle_type_id":"4","last_reported":1736860488,"current_range_meters":23200,"station_id":"ce4bhnp2rcd13ifvqgvg","pricing_plan_id":"cebpf4jnsgd1na2vs0mg"},{"bike_id":"34d1187a-0d2f-42da-8bcd-6376169d385a","system_id":"levelo_inurba_marseille","lat":43.2593,"lon":5.40898,"is_reserved":false,"is_disabled":false,"rental_uris":{"android":"levelo://app?vid=34d1187a-0d2f-42da-8bcd-6376169d385a","ios":"levelo://app?vid=34d1187a-0d2f-42da-8bcd-6376169d385a"},"vehicle_type_id":"4","last_reported":1736860488,"current_range_meters":37600,"station_id":"ce4bhm92rcd13ifvqglg","pricing_plan_id":"cebpf4jnsgd1na2vs0mg"},{"bike_id":"8f3d19ca-6788-4fa8-a3b9-31a1f06d17f5","system_id":"levelo_inurba_marseille","lat":43.28024,"lon":5.36913,"is_reserved":false,"is_disabled":true,"rental_uris":{"android":"levelo://app?vid=8f3d19ca-6788-4fa8-a3b9-31a1f06d17f5","ios":"levelo://app?vid=8f3d19ca-6788-4fa8-a3b9-31a1f06d17f5"},"vehicle_type_id":"4","last_reported":1736860488,"current_range_meters":400,"station_id":"ce4bha12rcd13ifvqef0","pricing_plan_id":"cebpf4jnsgd1na2vs0mg"},{"bike_id":"6280e12b-8c99-470a-acaf-04cfe5b073d5","system_id":"levelo_inurba_marseille","lat":43.27201,"lon":5.41002,"is_reserved":false,"is_disabled":false,"rental_uris":{"android":"levelo://app?vid=6280e12b-8c99-470a-acaf-04cfe5b073d5","ios":"levelo://app?vid=6280e12b-8c99-470a-acaf-04cfe5b073d5"},"vehicle_type_id":"4","last_reported":1736860488,"current_range_meters":38800,"station_id":"ce4bhl12rcd13ifvqgf0","pricing_plan_id":"cebpf4jnsgd1na2vs0mg"},{"bike_id":"f62a7ed4-7c80-4ed8-9568-a4dea62069d1","system_id":"levelo_inurba_marseille","lat":43.28078,"lon":5.39671,"is_reserved":false,"is_disabled":false,"rental_uris":{"android":"levelo://app?vid=f62a7ed4-7c80-4ed8-9568-a4dea62069d1","ios":"levelo://app?vid=f62a7ed4-7c80-4ed8-9568-a4dea62069d1"},"vehicle_type_id":"4","last_reported":1736860488,"current_range_meters":25200,"station_id":"ce4bho12rcd13ifvqh2g","pricing_plan_id":"cebpf4jnsgd1na2vs0mg"},{"bike_id":"ddda7598-97c1-41e4-8980-d36ea2918dfb","system_id":"levelo_inurba_marseille","lat":43.30455,"lon":5.36743,"is_reserved":false,"is_disabled":false,"rental_uris":{"android":"levelo://app?vid=ddda7598-97c1-41e4-8980-d36ea2918dfb","ios":"levelo://app?vid=ddda7598-97c1-41e4-8980-d36ea2918dfb"},"vehicle_type_id":"4","last_reported":1736860488,"current_range_meters":20000,"station_id":"","pricing_plan_id":"cebpf4jnsgd1na2vs0mg"},{"bike_id":"9a22d5e8-1e9d-4f63-a96d-17ff0773a2f6","system_id":"levelo_inurba_marseille","lat":43.29525,"lon":5.38543,"is_reserved":false,"is_disabled":false,"rental_uris":{"android":"levelo://app?vid=9a22d5e8-1e9d-4f63-a96d-17ff0773a2f6","ios":"levelo://app?vid=9a22d5e8-1e9d-4f63-a96d-17ff0773a2f6"},"vehicle_type_id":"4","last_reported":1736860488,"current_range_meters":24800,"station_id":"ce4bgih2rcd13ifvqba0","pricing_plan_id":"cebpf4jnsgd1na2vs0mg"},{"bike_id":"2d299aa8-68d1-40ea-a1d0-c766b33ee2bf","system_id":"levelo_inurba_marseille","lat":43.26937,"lon":5.40251,"is_reserved":false,"is_disabled":false,"rental_uris":{"android":"levelo://app?vid=2d299aa8-68d1-40ea-a1d0-c766b33ee2bf","ios":"levelo://app?vid=2d299aa8-68d1-40ea-a1d0-c766b33ee2bf"},"vehicle_type_id":"4","last_reported":1736860488,"current_range_meters":35200,"station_id":"cjm6bp8fraef2m0cb0m0","pricing_plan_id":"cebpf4jnsgd1na2vs0mg"},{"bike_id":"ed31229b-2ef0-40b3-8472-895c235b572d","system_id":"levelo_inurba_marseille","lat":43.30934,"lon":5.40158,"is_reserved":false,"is_disabled":false,"rental_uris":{"android":"levelo://app?vid=ed31229b-2ef0-40b3-8472-895c235b572d","ios":"levelo://app?vid=ed31229b-2ef0-40b3-8472-895c235b572d"},"vehicle_type_id":"4","last_reported":1736860488,"current_range_meters":28400,"station_id":"ce4bgvp2rcd13ifvqct0","pricing_plan_id":"cebpf4jnsgd1na2vs0mg"},{"bike_id":"eec8949e-7437-4435-9bff-e7a8382d1592","system_id":"levelo_inurba_marseille","lat":43.274257,"lon":5.394067,"is_reserved":false,"is_disabled":false,"rental_uris":{"android":"levelo://app?vid=eec8949e-7437-4435-9bff-e7a8382d1592","ios":"levelo://app?vid=eec8949e-7437-4435-9bff-e7a8382d1592"},"vehicle_type_id":"4","last_reported":1736860488,"current_range_meters":12400,"station_id":"ce4bhdp2rcd13ifvqf20","pricing_plan_id":"cebpf4jnsgd1na2vs0mg"},{"bike_id":"2288c987-ef9d-4a19-975c-00459c2ec98b","system_id":"levelo_inurba_marseille","lat":43.26952,"lon":5.38635,"is_reserved":false,"is_disabled":false,"rental_uris":{"android":"levelo://app?vid=2288c987-ef9d-4a19-975c-00459c2ec98b","ios":"levelo://app?vid=2288c987-ef9d-4a19-975c-00459c2ec98b"},"vehicle_type_id":"4","last_reported":1736860488,"current_range_meters":22000,"station_id":"ce4bhh92rcd13ifvqfh0","pricing_plan_id":"cebpf4jnsgd1na2vs0mg"},{"bike_id":"d55036c6-38e5-4a28-b707-e62458d2fb03","system_id":"levelo_inurba_marseille","lat":43.24065,"lon":5.37769,"is_reserved":false,"is_disabled":false,"rental_uris":{"android":"levelo://app?vid=d55036c6-38e5-4a28-b707-e62458d2fb03","ios":"levelo://app?vid=d55036c6-38e5-4a28-b707-e62458d2fb03"},"vehicle_type_id":"4","last_reported":1736860488,"current_range_meters":22800,"station_id":"ce4bhnp2rcd13ifvqgvg","pricing_plan_id":"cebpf4jnsgd1na2vs0mg"},{"bike_id":"c57da018-bfbb-4cbc-9a23-aaed6c1fa365","system_id":"levelo_inurba_marseille","lat":43.27615,"lon":5.36117,"is_reserved":false,"is_disabled":false,"rental_uris":{"android":"levelo://app?vid=c57da018-bfbb-4cbc-9a23-aaed6c1fa365","ios":"levelo://app?vid=c57da018-bfbb-4cbc-9a23-aaed6c1fa365"},"vehicle_type_id":"4","last_reported":1736860488,"current_range_meters":32800,"station_id":"ce4bgj92rcd13ifvqbe0","pricing_plan_id":"cebpf4jnsgd1na2vs0mg"},{"bike_id":"d8756689-0b5d-4720-8f00-f33f9ad2c418","system_id":"levelo_inurba_marseille","lat":43.298065,"lon":5.380845,"is_reserved":false,"is_disabled":false,"rental_uris":{"android":"levelo://app?vid=d8756689-0b5d-4720-8f00-f33f9ad2c418","ios":"levelo://app?vid=d8756689-0b5d-4720-8f00-f33f9ad2c418"},"vehicle_type_id":"4","last_reported":1736860488,"current_range_meters":9200,"station_id":"ce4bgip2rcd13ifvqbb0","pricing_plan_id":"cebpf4jnsgd1na2vs0mg"},{"bike_id":"92e7bd3d-61c0-4c07-b0b7-fdd69edd1ec5","system_id":"levelo_inurba_marseille","lat":43.2718,"lon":5.39166,"is_reserved":false,"is_disabled":false,"rental_uris":{"android":"levelo://app?vid=92e7bd3d-61c0-4c07-b0b7-fdd69edd1ec5","ios":"levelo://app?vid=92e7bd3d-61c0-4c07-b0b7-fdd69edd1ec5"},"vehicle_type_id":"4","last_reported":1736860488,"current_range_meters":38000,"station_id":"ce4bhhp2rcd13ifvqfm0","pricing_plan_id":"cebpf4jnsgd1na2vs0mg"},{"bike_id":"e18ca637-0940-4ac9-84c4-c3ecffd5e4c4","system_id":"levelo_inurba_marseille","lat":43.26034,"lon":5.37543,"is_reserved":false,"is_disabled":false,"rental_uris":{"android":"levelo://app?vid=e18ca637-0940-4ac9-84c4-c3ecffd5e4c4","ios":"levelo://app?vid=e18ca637-0940-4ac9-84c4-c3ecffd5e4c4"},"vehicle_type_id":"4","last_reported":1736860488,"current_range_meters":16800,"station_id":"ce4bhgh2rcd13ifvqfa0","pricing_plan_id":"cebpf4jnsgd1na2vs0mg"},{"bike_id":"c9fd064c-a8cf-449b-9f0f-7e2bd4c738bd","system_id":"levelo_inurba_marseille","lat":43.25498,"lon":5.37652,"is_reserved":false,"is_disabled":false,"rental_uris":{"android":"levelo://app?vid=c9fd064c-a8cf-449b-9f0f-7e2bd4c738bd","ios":"levelo://app?vid=c9fd064c-a8cf-449b-9f0f-7e2bd4c738bd"},"vehicle_type_id":"4","last_reported":1736860488,"current_range_meters":39200,"station_id":"ce4bhh12rcd13ifvqff0","pricing_plan_id":"cebpf4jnsgd1na2vs0mg"},{"bike_id":"656938f6-29e6-4592-aec9-6c0b4897db53","system_id":"levelo_inurba_marseille","lat":43.27207,"lon":5.39214,"is_reserved":false,"is_disabled":false,"rental_uris":{"android":"levelo://app?vid=656938f6-29e6-4592-aec9-6c0b4897db53","ios":"levelo://app?vid=656938f6-29e6-4592-aec9-6c0b4897db53"},"vehicle_type_id":"4","last_reported":1736860488,"current_range_meters":38800,"station_id":"ce4bhhp2rcd13ifvqfm0","pricing_plan_id":"cebpf4jnsgd1na2vs0mg"},{"bike_id":"cdc749ba-95a1-4490-96d7-5eeb4d46962a","system_id":"levelo_inurba_marseille","lat":43.30283,"lon":5.39229,"is_reserved":false,"is_disabled":false,"rental_uris":{"android":"levelo://app?vid=cdc749ba-95a1-4490-96d7-5eeb4d46962a","ios":"levelo://app?vid=cdc749ba-95a1-4490-96d7-5eeb4d46962a"},"vehicle_type_id":"4","last_reported":1736860488,"current_range_meters":27600,"station_id":"ce4bgkh2rcd13ifvqbk0","pricing_plan_id":"cebpf4jnsgd1na2vs0mg"},{"bike_id":"a836bbf6-cc30-4238-a0af-12e1dba6445b","system_id":"levelo_inurba_marseille","lat":43.2316,"lon":5.4372,"is_reserved":false,"is_disabled":false,"rental_uris":{"android":"levelo://app?vid=a836bbf6-cc30-4238-a0af-12e1dba6445b","ios":"levelo://app?vid=a836bbf6-cc30-4238-a0af-12e1dba6445b"},"vehicle_type_id":"4","last_reported":1736860488,"current_range_meters":24800,"station_id":"ce4bhmp2rcd13ifvqgog","pricing_plan_id":"cebpf4jnsgd1na2vs0mg"},{"bike_id":"01e8c37a-485a-4689-82d6-32555e2cc552","system_id":"levelo_inurba_marseille","lat":43.30535,"lon":5.36533,"is_reserved":false,"is_disabled":false,"rental_uris":{"android":"levelo://app?vid=01e8c37a-485a-4689-82d6-32555e2cc552","ios":"levelo://app?vid=01e8c37a-485a-4689-82d6-32555e2cc552"},"vehicle_type_id":"4","last_reported":1736860488,"current_range_meters":38800,"station_id":"ce4bgs12rcd13ifvqcag","pricing_plan_id":"cebpf4jnsgd1na2vs0mg"},{"bike_id":"dfc263e9-73cb-4c04-9dad-efb60bf63e66","system_id":"levelo_inurba_marseille","lat":43.29899,"lon":5.38146,"is_reserved":false,"is_disabled":false,"rental_uris":{"android":"levelo://app?vid=dfc263e9-73cb-4c04-9dad-efb60bf63e66","ios":"levelo://app?vid=dfc263e9-73cb-4c04-9dad-efb60bf63e66"},"vehicle_type_id":"4","last_reported":1736860488,"current_range_meters":33200,"station_id":"ce4bgj12rcd13ifvqbc0","pricing_plan_id":"cebpf4jnsgd1na2vs0mg"},{"bike_id":"d12d0d4b-6c32-4fac-8f18-2af46f7242dc","system_id":"levelo_inurba_marseille","lat":43.30953,"lon":5.39041,"is_reserved":false,"is_disabled":false,"rental_uris":{"android":"levelo://app?vid=d12d0d4b-6c32-4fac-8f18-2af46f7242dc","ios":"levelo://app?vid=d12d0d4b-6c32-4fac-8f18-2af46f7242dc"},"vehicle_type_id":"4","last_reported":1736860488,"current_range_meters":35200,"station_id":"ce4bgup2rcd13ifvqco0","pricing_plan_id":"cebpf4jnsgd1na2vs0mg"},{"bike_id":"41922604-c7b8-4e93-9da5-3903771d7233","system_id":"levelo_inurba_marseille","lat":43.24819,"lon":5.37424,"is_reserved":false,"is_disabled":false,"rental_uris":{"android":"levelo://app?vid=41922604-c7b8-4e93-9da5-3903771d7233","ios":"levelo://app?vid=41922604-c7b8-4e93-9da5-3903771d7233"},"vehicle_type_id":"4","last_reported":1736860488,"current_range_meters":22800,"station_id":"ce4bhgh2rcd13ifvqfb0","pricing_plan_id":"cebpf4jnsgd1na2vs0mg"},{"bike_id":"4a052bef-d121-4854-82e0-1730db1a76d2","system_id":"levelo_inurba_marseille","lat":43.26214,"lon":5.37441,"is_reserved":false,"is_disabled":false,"rental_uris":{"android":"levelo://app?vid=4a052bef-d121-4854-82e0-1730db1a76d2","ios":"levelo://app?vid=4a052bef-d121-4854-82e0-1730db1a76d2"},"vehicle_type_id":"4","last_reported":1736860488,"current_range_meters":30000,"station_id":"ce4bhgp2rcd13ifvqfc0","pricing_plan_id":"cebpf4jnsgd1na2vs0mg"},{"bike_id":"306db636-fa13-4023-a4f6-43177835b6db","system_id":"levelo_inurba_marseille","lat":43.2595,"lon":5.4092,"is_reserved":false,"is_disabled":false,"rental_uris":{"android":"levelo://app?vid=306db636-fa13-4023-a4f6-43177835b6db","ios":"levelo://app?vid=306db636-fa13-4023-a4f6-43177835b6db"},"vehicle_type_id":"4","last_reported":1736860488,"current_range_meters":29600,"station_id":"ce4bhm92rcd13ifvqglg","pricing_plan_id":"cebpf4jnsgd1na2vs0mg"},{"bike_id":"595b281f-ee3a-4ec1-a6b4-ec4a8205c8e3","system_id":"levelo_inurba_marseille","lat":43.29021,"lon":5.38636,"is_reserved":false,"is_disabled":false,"rental_uris":{"android":"levelo://app?vid=595b281f-ee3a-4ec1-a6b4-ec4a8205c8e3","ios":"levelo://app?vid=595b281f-ee3a-4ec1-a6b4-ec4a8205c8e3"},"vehicle_type_id":"4","last_reported":1736860488,"current_range_meters":33600,"station_id":"ce4bh4p2rcd13ifvqe0g","pricing_plan_id":"cebpf4jnsgd1na2vs0mg"},{"bike_id":"6f015975-4893-4fc8-a038-545c49a9ebda","system_id":"levelo_inurba_marseille","lat":43.29554,"lon":5.37514,"is_reserved":false,"is_disabled":false,"rental_uris":{"android":"levelo://app?vid=6f015975-4893-4fc8-a038-545c49a9ebda","ios":"levelo://app?vid=6f015975-4893-4fc8-a038-545c49a9ebda"},"vehicle_type_id":"4","last_reported":1736860488,"current_range_meters":30000,"station_id":"ce4bgh92rcd13ifvqb50","pricing_plan_id":"cebpf4jnsgd1na2vs0mg"},{"bike_id":"8832f1d0-2427-493b-8456-cac2b4047c3a","system_id":"levelo_inurba_marseille","lat":43.24526,"lon":5.39535,"is_reserved":false,"is_disabled":false,"rental_uris":{"android":"levelo://app?vid=8832f1d0-2427-493b-8456-cac2b4047c3a","ios":"levelo://app?vid=8832f1d0-2427-493b-8456-cac2b4047c3a"},"vehicle_type_id":"4","last_reported":1736860488,"current_range_meters":11200,"station_id":"ce4bhlp2rcd13ifvqgjg","pricing_plan_id":"cebpf4jnsgd1na2vs0mg"},{"bike_id":"70a4d228-2c41-4af9-a3eb-23abb00e4e21","system_id":"levelo_inurba_marseille","lat":43.26056,"lon":5.39396,"is_reserved":false,"is_disabled":false,"rental_uris":{"android":"levelo://app?vid=70a4d228-2c41-4af9-a3eb-23abb00e4e21","ios":"levelo://app?vid=70a4d228-2c41-4af9-a3eb-23abb00e4e21"},"vehicle_type_id":"4","last_reported":1736860488,"current_range_meters":14400,"station_id":"ce4bhh92rcd13ifvqfj0","pricing_plan_id":"cebpf4jnsgd1na2vs0mg"},{"bike_id":"2ef5df04-cc6e-4014-88b2-a60bbd864900","system_id":"levelo_inurba_marseille","lat":43.30886,"lon":5.37187,"is_reserved":false,"is_disabled":false,"rental_uris":{"android":"levelo://app?vid=2ef5df04-cc6e-4014-88b2-a60bbd864900","ios":"levelo://app?vid=2ef5df04-cc6e-4014-88b2-a60bbd864900"},"vehicle_type_id":"4","last_reported":1736860488,"current_range_meters":37600,"station_id":"ce4bguh2rcd13ifvqckg","pricing_plan_id":"cebpf4jnsgd1na2vs0mg"},{"bike_id":"5e3c2148-bbb9-4500-ac2f-44ba59082c18","system_id":"levelo_inurba_marseille","lat":43.25118,"lon":5.40317,"is_reserved":false,"is_disabled":false,"rental_uris":{"android":"levelo://app?vid=5e3c2148-bbb9-4500-ac2f-44ba59082c18","ios":"levelo://app?vid=5e3c2148-bbb9-4500-ac2f-44ba59082c18"},"vehicle_type_id":"4","last_reported":1736860488,"current_range_meters":23200,"station_id":"ce4bhlh2rcd13ifvqgig","pricing_plan_id":"cebpf4jnsgd1na2vs0mg"},{"bike_id":"4ca4be0a-6368-47fa-871a-914312f9653e","system_id":"levelo_inurba_marseille","lat":43.24551,"lon":5.39523,"is_reserved":false,"is_disabled":false,"rental_uris":{"android":"levelo://app?vid=4ca4be0a-6368-47fa-871a-914312f9653e","ios":"levelo://app?vid=4ca4be0a-6368-47fa-871a-914312f9653e"},"vehicle_type_id":"4","last_reported":1736860488,"current_range_meters":25200,"station_id":"ce4bhlp2rcd13ifvqgjg","pricing_plan_id":"cebpf4jnsgd1na2vs0mg"},{"bike_id":"231f1dd8-6336-4c22-9dd1-c1357dbe6eef","system_id":"levelo_inurba_marseille","lat":43.29716,"lon":5.37693,"is_reserved":false,"is_disabled":false,"rental_uris":{"android":"levelo://app?vid=231f1dd8-6336-4c22-9dd1-c1357dbe6eef","ios":"levelo://app?vid=231f1dd8-6336-4c22-9dd1-c1357dbe6eef"},"vehicle_type_id":"4","last_reported":1736860488,"current_range_meters":22400,"station_id":"ce4bgkh2rcd13ifvqbl0","pricing_plan_id":"cebpf4jnsgd1na2vs0mg"},{"bike_id":"a520c696-e2ec-4231-81c1-756d41d5f0fd","system_id":"levelo_inurba_marseille","lat":43.23201,"lon":5.35562,"is_reserved":false,"is_disabled":false,"rental_uris":{"android":"levelo://app?vid=a520c696-e2ec-4231-81c1-756d41d5f0fd","ios":"levelo://app?vid=a520c696-e2ec-4231-81c1-756d41d5f0fd"},"vehicle_type_id":"4","last_reported":1736860488,"current_range_meters":8800,"station_id":"ce4bhu92rcd13ifvqi70","pricing_plan_id":"cebpf4jnsgd1na2vs0mg"},{"bike_id":"ef3a1383-6b67-4eb1-b00a-d710cdfae89a","system_id":"levelo_inurba_marseille","lat":43.3234,"lon":5.4063,"is_reserved":false,"is_disabled":true,"rental_uris":{"android":"levelo://app?vid=ef3a1383-6b67-4eb1-b00a-d710cdfae89a","ios":"levelo://app?vid=ef3a1383-6b67-4eb1-b00a-d710cdfae89a"},"vehicle_type_id":"4","last_reported":1736860488,"current_range_meters":400,"station_id":"ce4bhq92rcd13ifvqhjg","pricing_plan_id":"cebpf4jnsgd1na2vs0mg"},{"bike_id":"a02620a2-818b-4464-b2c4-016bf20c3041","system_id":"levelo_inurba_marseille","lat":43.28923,"lon":5.36652,"is_reserved":false,"is_disabled":false,"rental_uris":{"android":"levelo://app?vid=a02620a2-818b-4464-b2c4-016bf20c3041","ios":"levelo://app?vid=a02620a2-818b-4464-b2c4-016bf20c3041"},"vehicle_type_id":"4","last_reported":1736860488,"current_range_meters":18000,"station_id":"ce4bhap2rcd13ifvqek0","pricing_plan_id":"cebpf4jnsgd1na2vs0mg"},{"bike_id":"87339157-d961-4cf9-9dd5-00fb3246061f","system_id":"levelo_inurba_marseille","lat":43.25951,"lon":5.40905,"is_reserved":false,"is_disabled":false,"rental_uris":{"android":"levelo://app?vid=87339157-d961-4cf9-9dd5-00fb3246061f","ios":"levelo://app?vid=87339157-d961-4cf9-9dd5-00fb3246061f"},"vehicle_type_id":"4","last_reported":1736860488,"current_range_meters":28000,"station_id":"ce4bhm92rcd13ifvqglg","pricing_plan_id":"cebpf4jnsgd1na2vs0mg"},{"bike_id":"36ad50bc-d9bb-4836-81ae-1fb5f3c17c9e","system_id":"levelo_inurba_marseille","lat":43.28349,"lon":5.38625,"is_reserved":false,"is_disabled":true,"rental_uris":{"android":"levelo://app?vid=36ad50bc-d9bb-4836-81ae-1fb5f3c17c9e","ios":"levelo://app?vid=36ad50bc-d9bb-4836-81ae-1fb5f3c17c9e"},"vehicle_type_id":"4","last_reported":1736860488,"current_range_meters":0,"station_id":"ce4bh492rcd13ifvqdvg","pricing_plan_id":"cebpf4jnsgd1na2vs0mg"},{"bike_id":"1dc64d76-fff0-460c-af84-eaea7614f529","system_id":"levelo_inurba_marseille","lat":43.26927,"lon":5.40242,"is_reserved":false,"is_disabled":false,"rental_uris":{"android":"levelo://app?vid=1dc64d76-fff0-460c-af84-eaea7614f529","ios":"levelo://app?vid=1dc64d76-fff0-460c-af84-eaea7614f529"},"vehicle_type_id":"4","last_reported":1736860488,"current_range_meters":38800,"station_id":"cjm6bp8fraef2m0cb0m0","pricing_plan_id":"cebpf4jnsgd1na2vs0mg"},{"bike_id":"ab9a6cda-be57-4cb7-bbda-7ad9028dd8a6","system_id":"levelo_inurba_marseille","lat":43.27942,"lon":5.41047,"is_reserved":false,"is_disabled":false,"rental_uris":{"android":"levelo://app?vid=ab9a6cda-be57-4cb7-bbda-7ad9028dd8a6","ios":"levelo://app?vid=ab9a6cda-be57-4cb7-bbda-7ad9028dd8a6"},"vehicle_type_id":"4","last_reported":1736860488,"current_range_meters":36800,"station_id":"ce4bhnp2rcd13ifvqh0g","pricing_plan_id":"cebpf4jnsgd1na2vs0mg"},{"bike_id":"df28f796-5a0c-416c-8088-630e87a8cc6b","system_id":"levelo_inurba_marseille","lat":43.3033,"lon":5.36898,"is_reserved":false,"is_disabled":false,"rental_uris":{"android":"levelo://app?vid=df28f796-5a0c-416c-8088-630e87a8cc6b","ios":"levelo://app?vid=df28f796-5a0c-416c-8088-630e87a8cc6b"},"vehicle_type_id":"4","last_reported":1736860488,"current_range_meters":36800,"station_id":"ce4bgqh2rcd13ifvqc5g","pricing_plan_id":"cebpf4jnsgd1na2vs0mg"},{"bike_id":"c0fd2063-31ae-4171-af17-771dbb4fa212","system_id":"levelo_inurba_marseille","lat":43.22943,"lon":5.35387,"is_reserved":false,"is_disabled":false,"rental_uris":{"android":"levelo://app?vid=c0fd2063-31ae-4171-af17-771dbb4fa212","ios":"levelo://app?vid=c0fd2063-31ae-4171-af17-771dbb4fa212"},"vehicle_type_id":"4","last_reported":1736860488,"current_range_meters":38800,"station_id":"cpo3532slgdg3j2ikp40","pricing_plan_id":"cebpf4jnsgd1na2vs0mg"},{"bike_id":"f0b2ff43-c111-44f5-aeac-ce95fe758fba","system_id":"levelo_inurba_marseille","lat":43.29596,"lon":5.38105,"is_reserved":false,"is_disabled":false,"rental_uris":{"android":"levelo://app?vid=f0b2ff43-c111-44f5-aeac-ce95fe758fba","ios":"levelo://app?vid=f0b2ff43-c111-44f5-aeac-ce95fe758fba"},"vehicle_type_id":"4","last_reported":1736860488,"current_range_meters":38400,"station_id":"ce4bgl12rcd13ifvqbo0","pricing_plan_id":"cebpf4jnsgd1na2vs0mg"},{"bike_id":"f48415c3-6dea-4d9f-b682-074689fd450f","system_id":"levelo_inurba_marseille","lat":43.23155,"lon":5.43713,"is_reserved":false,"is_disabled":false,"rental_uris":{"android":"levelo://app?vid=f48415c3-6dea-4d9f-b682-074689fd450f","ios":"levelo://app?vid=f48415c3-6dea-4d9f-b682-074689fd450f"},"vehicle_type_id":"4","last_reported":1736860488,"current_range_meters":28400,"station_id":"ce4bhmp2rcd13ifvqgog","pricing_plan_id":"cebpf4jnsgd1na2vs0mg"},{"bike_id":"4a5dfa0f-2f36-4bf6-91c5-f508632984a7","system_id":"levelo_inurba_marseille","lat":43.293704,"lon":5.378811,"is_reserved":false,"is_disabled":false,"rental_uris":{"android":"levelo://app?vid=4a5dfa0f-2f36-4bf6-91c5-f508632984a7","ios":"levelo://app?vid=4a5dfa0f-2f36-4bf6-91c5-f508632984a7"},"vehicle_type_id":"4","last_reported":1736860488,"current_range_meters":19600,"station_id":"ce4bgjh2rcd13ifvqbf0","pricing_plan_id":"cebpf4jnsgd1na2vs0mg"},{"bike_id":"c422ed34-c422-4295-a03d-748f39fe11cd","system_id":"levelo_inurba_marseille","lat":43.28575,"lon":5.39494,"is_reserved":false,"is_disabled":false,"rental_uris":{"android":"levelo://app?vid=c422ed34-c422-4295-a03d-748f39fe11cd","ios":"levelo://app?vid=c422ed34-c422-4295-a03d-748f39fe11cd"},"vehicle_type_id":"4","last_reported":1736860488,"current_range_meters":38400,"station_id":"ce4bh292rcd13ifvqdg0","pricing_plan_id":"cebpf4jnsgd1na2vs0mg"},{"bike_id":"c70d34d8-aed3-473e-977b-5539a95134f6","system_id":"levelo_inurba_marseille","lat":43.299039,"lon":5.381294,"is_reserved":false,"is_disabled":true,"rental_uris":{"android":"levelo://app?vid=c70d34d8-aed3-473e-977b-5539a95134f6","ios":"levelo://app?vid=c70d34d8-aed3-473e-977b-5539a95134f6"},"vehicle_type_id":"4","last_reported":1736860488,"current_range_meters":36800,"station_id":"ce4bgj12rcd13ifvqbc0","pricing_plan_id":"cebpf4jnsgd1na2vs0mg"},{"bike_id":"8e1700e2-2825-47f3-9373-6fc227095b7d","system_id":"levelo_inurba_marseille","lat":43.24167,"lon":5.36394,"is_reserved":false,"is_disabled":false,"rental_uris":{"android":"levelo://app?vid=8e1700e2-2825-47f3-9373-6fc227095b7d","ios":"levelo://app?vid=8e1700e2-2825-47f3-9373-6fc227095b7d"},"vehicle_type_id":"4","last_reported":1736860488,"current_range_meters":38800,"station_id":"cpo36qri1sfpv3e86is0","pricing_plan_id":"cebpf4jnsgd1na2vs0mg"},{"bike_id":"e5573715-09fa-4dab-b1d8-e7410696aa39","system_id":"levelo_inurba_marseille","lat":43.32366,"lon":5.3676,"is_reserved":false,"is_disabled":false,"rental_uris":{"android":"levelo://app?vid=e5573715-09fa-4dab-b1d8-e7410696aa39","ios":"levelo://app?vid=e5573715-09fa-4dab-b1d8-e7410696aa39"},"vehicle_type_id":"4","last_reported":1736860488,"current_range_meters":24400,"station_id":"ce4bhsh2rcd13ifvqi2g","pricing_plan_id":"cebpf4jnsgd1na2vs0mg"},{"bike_id":"b2c7e781-46d1-4ed8-b463-c533ba50a75c","system_id":"levelo_inurba_marseille","lat":43.29037,"lon":5.39974,"is_reserved":false,"is_disabled":false,"rental_uris":{"android":"levelo://app?vid=b2c7e781-46d1-4ed8-b463-c533ba50a75c","ios":"levelo://app?vid=b2c7e781-46d1-4ed8-b463-c533ba50a75c"},"vehicle_type_id":"4","last_reported":1736860488,"current_range_meters":27200,"station_id":"ce4bh392rcd13ifvqdm0","pricing_plan_id":"cebpf4jnsgd1na2vs0mg"},{"bike_id":"065e4cd0-50f7-4aa9-ae84-4166193516a6","system_id":"levelo_inurba_marseille","lat":43.23198,"lon":5.35569,"is_reserved":false,"is_disabled":false,"rental_uris":{"android":"levelo://app?vid=065e4cd0-50f7-4aa9-ae84-4166193516a6","ios":"levelo://app?vid=065e4cd0-50f7-4aa9-ae84-4166193516a6"},"vehicle_type_id":"4","last_reported":1736860488,"current_range_meters":30000,"station_id":"ce4bhu92rcd13ifvqi70","pricing_plan_id":"cebpf4jnsgd1na2vs0mg"},{"bike_id":"581f5c75-b8fe-47a2-a813-eecd7249b60d","system_id":"levelo_inurba_marseille","lat":43.27208,"lon":5.3919,"is_reserved":false,"is_disabled":false,"rental_uris":{"android":"levelo://app?vid=581f5c75-b8fe-47a2-a813-eecd7249b60d","ios":"levelo://app?vid=581f5c75-b8fe-47a2-a813-eecd7249b60d"},"vehicle_type_id":"4","last_reported":1736860488,"current_range_meters":39200,"station_id":"ce4bhhp2rcd13ifvqfm0","pricing_plan_id":"cebpf4jnsgd1na2vs0mg"},{"bike_id":"4a4d296c-e71a-4d73-8515-0b49a9079d8d","system_id":"levelo_inurba_marseille","lat":43.23192,"lon":5.39983,"is_reserved":false,"is_disabled":false,"rental_uris":{"android":"levelo://app?vid=4a4d296c-e71a-4d73-8515-0b49a9079d8d","ios":"levelo://app?vid=4a4d296c-e71a-4d73-8515-0b49a9079d8d"},"vehicle_type_id":"4","last_reported":1736860488,"current_range_meters":29600,"station_id":"ce4bhn12rcd13ifvqgqg","pricing_plan_id":"cebpf4jnsgd1na2vs0mg"},{"bike_id":"d28c64db-672d-4dc2-9aa8-36d7327fadae","system_id":"levelo_inurba_marseille","lat":43.31431,"lon":5.37393,"is_reserved":false,"is_disabled":false,"rental_uris":{"android":"levelo://app?vid=d28c64db-672d-4dc2-9aa8-36d7327fadae","ios":"levelo://app?vid=d28c64db-672d-4dc2-9aa8-36d7327fadae"},"vehicle_type_id":"4","last_reported":1736860488,"current_range_meters":11600,"station_id":"","pricing_plan_id":"cebpf4jnsgd1na2vs0mg"},{"bike_id":"12a77688-55d2-40a5-9210-63376f169f15","system_id":"levelo_inurba_marseille","lat":43.25003,"lon":5.38934,"is_reserved":false,"is_disabled":false,"rental_uris":{"android":"levelo://app?vid=12a77688-55d2-40a5-9210-63376f169f15","ios":"levelo://app?vid=12a77688-55d2-40a5-9210-63376f169f15"},"vehicle_type_id":"4","last_reported":1736860488,"current_range_meters":16800,"station_id":"ce4bhgp2rcd13ifvqfd0","pricing_plan_id":"cebpf4jnsgd1na2vs0mg"},{"bike_id":"8d7f9eee-42fc-4c03-907a-9bf6199efe80","system_id":"levelo_inurba_marseille","lat":43.30948,"lon":5.39035,"is_reserved":false,"is_disabled":false,"rental_uris":{"android":"levelo://app?vid=8d7f9eee-42fc-4c03-907a-9bf6199efe80","ios":"levelo://app?vid=8d7f9eee-42fc-4c03-907a-9bf6199efe80"},"vehicle_type_id":"4","last_reported":1736860488,"current_range_meters":38400,"station_id":"ce4bgup2rcd13ifvqco0","pricing_plan_id":"cebpf4jnsgd1na2vs0mg"},{"bike_id":"79da27f4-dd32-4cc0-942b-482cc8b45fe2","system_id":"levelo_inurba_marseille","lat":43.32049,"lon":5.4153,"is_reserved":false,"is_disabled":false,"rental_uris":{"android":"levelo://app?vid=79da27f4-dd32-4cc0-942b-482cc8b45fe2","ios":"levelo://app?vid=79da27f4-dd32-4cc0-942b-482cc8b45fe2"},"vehicle_type_id":"4","last_reported":1736860488,"current_range_meters":28400,"station_id":"ce4bhq92rcd13ifvqhkg","pricing_plan_id":"cebpf4jnsgd1na2vs0mg"},{"bike_id":"899f1ec4-8cb9-4bae-96ba-9b1408d80c6d","system_id":"levelo_inurba_marseille","lat":43.255097,"lon":5.376739,"is_reserved":false,"is_disabled":false,"rental_uris":{"android":"levelo://app?vid=899f1ec4-8cb9-4bae-96ba-9b1408d80c6d","ios":"levelo://app?vid=899f1ec4-8cb9-4bae-96ba-9b1408d80c6d"},"vehicle_type_id":"4","last_reported":1736860488,"current_range_meters":38800,"station_id":"ce4bhh12rcd13ifvqff0","pricing_plan_id":"cebpf4jnsgd1na2vs0mg"},{"bike_id":"4725ae05-b600-47b7-ba70-7352c8181ea5","system_id":"levelo_inurba_marseille","lat":43.27398,"lon":5.39048,"is_reserved":false,"is_disabled":true,"rental_uris":{"android":"levelo://app?vid=4725ae05-b600-47b7-ba70-7352c8181ea5","ios":"levelo://app?vid=4725ae05-b600-47b7-ba70-7352c8181ea5"},"vehicle_type_id":"4","last_reported":1736860488,"current_range_meters":0,"station_id":"","pricing_plan_id":"cebpf4jnsgd1na2vs0mg"},{"bike_id":"a89e3daf-8a98-42a6-973c-947519f97687","system_id":"levelo_inurba_marseille","lat":43.29706,"lon":5.37695,"is_reserved":false,"is_disabled":false,"rental_uris":{"android":"levelo://app?vid=a89e3daf-8a98-42a6-973c-947519f97687","ios":"levelo://app?vid=a89e3daf-8a98-42a6-973c-947519f97687"},"vehicle_type_id":"4","last_reported":1736860488,"current_range_meters":36000,"station_id":"ce4bgkh2rcd13ifvqbl0","pricing_plan_id":"cebpf4jnsgd1na2vs0mg"},{"bike_id":"3be862ce-61fb-4849-bc4b-757391c1a634","system_id":"levelo_inurba_marseille","lat":43.28438,"lon":5.34997,"is_reserved":false,"is_disabled":false,"rental_uris":{"android":"levelo://app?vid=3be862ce-61fb-4849-bc4b-757391c1a634","ios":"levelo://app?vid=3be862ce-61fb-4849-bc4b-757391c1a634"},"vehicle_type_id":"4","last_reported":1736860488,"current_range_meters":27200,"station_id":"ce4bhbh2rcd13ifvqepg","pricing_plan_id":"cebpf4jnsgd1na2vs0mg"},{"bike_id":"641e004e-9f75-4adc-a9cc-397d6a3cfc40","system_id":"levelo_inurba_marseille","lat":43.3135,"lon":5.36694,"is_reserved":false,"is_disabled":false,"rental_uris":{"android":"levelo://app?vid=641e004e-9f75-4adc-a9cc-397d6a3cfc40","ios":"levelo://app?vid=641e004e-9f75-4adc-a9cc-397d6a3cfc40"},"vehicle_type_id":"4","last_reported":1736860488,"current_range_meters":30000,"station_id":"ce4bgr92rcd13ifvqc6g","pricing_plan_id":"cebpf4jnsgd1na2vs0mg"},{"bike_id":"149a0840-bbfd-48b2-84c9-2a791f3253b3","system_id":"levelo_inurba_marseille","lat":43.31714,"lon":5.3775,"is_reserved":false,"is_disabled":false,"rental_uris":{"android":"levelo://app?vid=149a0840-bbfd-48b2-84c9-2a791f3253b3","ios":"levelo://app?vid=149a0840-bbfd-48b2-84c9-2a791f3253b3"},"vehicle_type_id":"4","last_reported":1736860488,"current_range_meters":28000,"station_id":"ce4bgth2rcd13ifvqch0","pricing_plan_id":"cebpf4jnsgd1na2vs0mg"},{"bike_id":"91150e8b-3793-401e-8d7d-98d294a1bc3e","system_id":"levelo_inurba_marseille","lat":43.31533,"lon":5.3804,"is_reserved":false,"is_disabled":false,"rental_uris":{"android":"levelo://app?vid=91150e8b-3793-401e-8d7d-98d294a1bc3e","ios":"levelo://app?vid=91150e8b-3793-401e-8d7d-98d294a1bc3e"},"vehicle_type_id":"4","last_reported":1736860488,"current_range_meters":20400,"station_id":"ce4bhsp2rcd13ifvqi50","pricing_plan_id":"cebpf4jnsgd1na2vs0mg"},{"bike_id":"85f1eae6-af84-4f37-b9fb-68d67d5b14d7","system_id":"levelo_inurba_marseille","lat":43.251087,"lon":5.403252,"is_reserved":false,"is_disabled":false,"rental_uris":{"android":"levelo://app?vid=85f1eae6-af84-4f37-b9fb-68d67d5b14d7","ios":"levelo://app?vid=85f1eae6-af84-4f37-b9fb-68d67d5b14d7"},"vehicle_type_id":"4","last_reported":1736860488,"current_range_meters":38400,"station_id":"ce4bhlh2rcd13ifvqgig","pricing_plan_id":"cebpf4jnsgd1na2vs0mg"},{"bike_id":"64dc5941-e955-405d-8144-2f1ecf9312fd","system_id":"levelo_inurba_marseille","lat":43.30084,"lon":5.39076,"is_reserved":false,"is_disabled":false,"rental_uris":{"android":"levelo://app?vid=64dc5941-e955-405d-8144-2f1ecf9312fd","ios":"levelo://app?vid=64dc5941-e955-405d-8144-2f1ecf9312fd"},"vehicle_type_id":"4","last_reported":1736860488,"current_range_meters":38800,"station_id":"ce4bh192rcd13ifvqdb0","pricing_plan_id":"cebpf4jnsgd1na2vs0mg"},{"bike_id":"36348e1a-1dc7-4683-96e2-31f0b7986ae7","system_id":"levelo_inurba_marseille","lat":43.25591,"lon":5.38256,"is_reserved":false,"is_disabled":false,"rental_uris":{"android":"levelo://app?vid=36348e1a-1dc7-4683-96e2-31f0b7986ae7","ios":"levelo://app?vid=36348e1a-1dc7-4683-96e2-31f0b7986ae7"},"vehicle_type_id":"4","last_reported":1736860488,"current_range_meters":34000,"station_id":"ce4bhih2rcd13ifvqfs0","pricing_plan_id":"cebpf4jnsgd1na2vs0mg"},{"bike_id":"3436c689-3408-4332-81b0-a2ad61949f47","system_id":"levelo_inurba_marseille","lat":43.29964,"lon":5.37195,"is_reserved":false,"is_disabled":false,"rental_uris":{"android":"levelo://app?vid=3436c689-3408-4332-81b0-a2ad61949f47","ios":"levelo://app?vid=3436c689-3408-4332-81b0-a2ad61949f47"},"vehicle_type_id":"4","last_reported":1736860488,"current_range_meters":38000,"station_id":"ce4bgr92rcd13ifvqc7g","pricing_plan_id":"cebpf4jnsgd1na2vs0mg"},{"bike_id":"0df7ec32-d176-4bdd-9549-f03a018636e8","system_id":"levelo_inurba_marseille","lat":43.24664,"lon":5.38161,"is_reserved":false,"is_disabled":false,"rental_uris":{"android":"levelo://app?vid=0df7ec32-d176-4bdd-9549-f03a018636e8","ios":"levelo://app?vid=0df7ec32-d176-4bdd-9549-f03a018636e8"},"vehicle_type_id":"4","last_reported":1736860488,"current_range_meters":34800,"station_id":"ce4bhih2rcd13ifvqfr0","pricing_plan_id":"cebpf4jnsgd1na2vs0mg"},{"bike_id":"ab82603b-fa29-47c1-b92a-cf530d8cf4c9","system_id":"levelo_inurba_marseille","lat":43.29007,"lon":5.35605,"is_reserved":false,"is_disabled":false,"rental_uris":{"android":"levelo://app?vid=ab82603b-fa29-47c1-b92a-cf530d8cf4c9","ios":"levelo://app?vid=ab82603b-fa29-47c1-b92a-cf530d8cf4c9"},"vehicle_type_id":"4","last_reported":1736860488,"current_range_meters":7200,"station_id":"ce4bhb92rcd13ifvqen0","pricing_plan_id":"cebpf4jnsgd1na2vs0mg"},{"bike_id":"c73e3fe8-115f-4ee8-86d1-6132a2a1e88a","system_id":"levelo_inurba_marseille","lat":43.2832,"lon":5.38105,"is_reserved":false,"is_disabled":false,"rental_uris":{"android":"levelo://app?vid=c73e3fe8-115f-4ee8-86d1-6132a2a1e88a","ios":"levelo://app?vid=c73e3fe8-115f-4ee8-86d1-6132a2a1e88a"},"vehicle_type_id":"4","last_reported":1736860488,"current_range_meters":14400,"station_id":"ce4bh412rcd13ifvqdr0","pricing_plan_id":"cebpf4jnsgd1na2vs0mg"},{"bike_id":"92ddc2ae-b4d5-4fa4-b924-dbdbe92963df","system_id":"levelo_inurba_marseille","lat":43.23962,"lon":5.36654,"is_reserved":false,"is_disabled":false,"rental_uris":{"android":"levelo://app?vid=92ddc2ae-b4d5-4fa4-b924-dbdbe92963df","ios":"levelo://app?vid=92ddc2ae-b4d5-4fa4-b924-dbdbe92963df"},"vehicle_type_id":"4","last_reported":1736860488,"current_range_meters":25200,"station_id":"ce4bhi12rcd13ifvqfp0","pricing_plan_id":"cebpf4jnsgd1na2vs0mg"},{"bike_id":"09f04c85-e18e-45c9-8f71-3e02db1d4c7a","system_id":"levelo_inurba_marseille","lat":43.27368,"lon":5.36251,"is_reserved":false,"is_disabled":false,"rental_uris":{"android":"levelo://app?vid=09f04c85-e18e-45c9-8f71-3e02db1d4c7a","ios":"levelo://app?vid=09f04c85-e18e-45c9-8f71-3e02db1d4c7a"},"vehicle_type_id":"4","last_reported":1736860488,"current_range_meters":8000,"station_id":"ce4bhbh2rcd13ifvqeo0","pricing_plan_id":"cebpf4jnsgd1na2vs0mg"},{"bike_id":"1f5cd124-5d7a-4284-af60-66fc02188ad8","system_id":"levelo_inurba_marseille","lat":43.29619,"lon":5.37735,"is_reserved":false,"is_disabled":false,"rental_uris":{"android":"levelo://app?vid=1f5cd124-5d7a-4284-af60-66fc02188ad8","ios":"levelo://app?vid=1f5cd124-5d7a-4284-af60-66fc02188ad8"},"vehicle_type_id":"4","last_reported":1736860488,"current_range_meters":38800,"station_id":"ce4bgi92rcd13ifvqb90","pricing_plan_id":"cebpf4jnsgd1na2vs0mg"},{"bike_id":"31138691-f32e-4dd8-8615-cbb1ab58a146","system_id":"levelo_inurba_marseille","lat":43.29007,"lon":5.35614,"is_reserved":false,"is_disabled":false,"rental_uris":{"android":"levelo://app?vid=31138691-f32e-4dd8-8615-cbb1ab58a146","ios":"levelo://app?vid=31138691-f32e-4dd8-8615-cbb1ab58a146"},"vehicle_type_id":"4","last_reported":1736860488,"current_range_meters":38000,"station_id":"ce4bhb92rcd13ifvqen0","pricing_plan_id":"cebpf4jnsgd1na2vs0mg"},{"bike_id":"8aace502-ec3c-4e61-9ed0-00941632ce12","system_id":"levelo_inurba_marseille","lat":43.29028,"lon":5.38638,"is_reserved":false,"is_disabled":false,"rental_uris":{"android":"levelo://app?vid=8aace502-ec3c-4e61-9ed0-00941632ce12","ios":"levelo://app?vid=8aace502-ec3c-4e61-9ed0-00941632ce12"},"vehicle_type_id":"4","last_reported":1736860488,"current_range_meters":27600,"station_id":"ce4bh4p2rcd13ifvqe0g","pricing_plan_id":"cebpf4jnsgd1na2vs0mg"},{"bike_id":"b83e1677-b52b-47a0-baaa-e1e20bc54298","system_id":"levelo_inurba_marseille","lat":43.30164,"lon":5.36606,"is_reserved":false,"is_disabled":false,"rental_uris":{"android":"levelo://app?vid=b83e1677-b52b-47a0-baaa-e1e20bc54298","ios":"levelo://app?vid=b83e1677-b52b-47a0-baaa-e1e20bc54298"},"vehicle_type_id":"4","last_reported":1736860488,"current_range_meters":39200,"station_id":"ce4bgrh2rcd13ifvqc8g","pricing_plan_id":"cebpf4jnsgd1na2vs0mg"},{"bike_id":"5d6ee491-db6f-4a2a-8dad-1e433239109a","system_id":"levelo_inurba_marseille","lat":43.25572,"lon":5.38238,"is_reserved":false,"is_disabled":false,"rental_uris":{"android":"levelo://app?vid=5d6ee491-db6f-4a2a-8dad-1e433239109a","ios":"levelo://app?vid=5d6ee491-db6f-4a2a-8dad-1e433239109a"},"vehicle_type_id":"4","last_reported":1736860488,"current_range_meters":36800,"station_id":"ce4bhih2rcd13ifvqfs0","pricing_plan_id":"cebpf4jnsgd1na2vs0mg"},{"bike_id":"d8feac49-63a1-42c9-a3c4-8c6d454f0511","system_id":"levelo_inurba_marseille","lat":43.25933,"lon":5.40911,"is_reserved":false,"is_disabled":false,"rental_uris":{"android":"levelo://app?vid=d8feac49-63a1-42c9-a3c4-8c6d454f0511","ios":"levelo://app?vid=d8feac49-63a1-42c9-a3c4-8c6d454f0511"},"vehicle_type_id":"4","last_reported":1736860488,"current_range_meters":16000,"station_id":"ce4bhm92rcd13ifvqglg","pricing_plan_id":"cebpf4jnsgd1na2vs0mg"},