{"last_updated":1712160511,"ttl":30,"version":"2.2","data":{"bikes":[{"bike_id":"7584301a-086e-4fc7-afdb-65f47bf9da6f","system_id":"levelo_inurba_marseille","lat":43.29529,"lon":5.385581,"is_reserved":false,"is_disabled":false,"rental_uris":{"android":"levelo://app?vid=7584301a-086e-4fc7-afdb-65f47bf9da6f","ios":"levelo://app?vid=7584301a-086e-4fc7-afdb-65f47bf9da6f"},"vehicle_type_id":"4","last_reported":1712160511,"current_range_meters":15600,"station_id":"ce4bgih2rcd13ifvqba0","pricing_plan_id":"cebpf4jnsgd1na2vs0mg"},{"bike_id":"821e66db-0cb6-4323-ac85-0198fc2bfe6b","system_id":"levelo_inurba_marseille","lat":43.317557,"lon":5.390173,"is_reserved":false,"is_disabled":false,"rental_uris":{"android":"levelo://app?vid=821e66db-0cb6-4323-ac85-0198fc2bfe6b","ios":"levelo://app?vid=821e66db-0cb6-4323-ac85-0198fc2bfe6b"},"vehicle_type_id":"4","last_reported":1712160511,"current_range_meters":11600,"station_id":"ce4bhqp2rcd13ifvqhng","pricing_plan_id":"cebpf4jnsgd1na2vs0mg"},{"bike_id":"c4b6f0bf-7672-438c-8959-e589f2e23f2e","system_id":"levelo_inurba_marseille","lat":43.309076,"lon":5.368465,"is_reserved":false,"is_disabled":false,"rental_uris":{"android":"levelo://app?vid=c4b6f0bf-7672-438c-8959-e589f2e23f2e","ios":"levelo://app?vid=c4b6f0bf-7672-438c-8959-e589f2e23f2e"},"vehicle_type_id":"4","last_reported":1712160511,"current_range_meters":17600,"station_id":"ce4bgn92rcd13ifvqbvg","pricing_plan_id":"cebpf4jnsgd1na2vs0mg"},{"bike_id":"7aa76f69-ffb0-49fe-a414-a176d42175e1","system_id":"levelo_inurba_marseille","lat":43.267966,"lon":5.393976,"is_reserved":false,"is_disabled":false,"rental_uris":{"android":"levelo://app?vid=7aa76f69-ffb0-49fe-a414-a176d42175e1","ios":"levelo://app?vid=7aa76f69-ffb0-49fe-a414-a176d42175e1"},"vehicle_type_id":"4","last_reported":1712160511,"current_range_meters":21600,"station_id":"ce4bhh12rcd13ifvqfg0","pricing_plan_id":"cebpf4jnsgd1na2vs0mg"},{"bike_id":"4de89a4b-d320-447e-8318-c7c79d1d0b56","system_id":"levelo_inurba_marseille","lat":43.309076,"lon":5.368465,"is_reserved":false,"is_disabled":false,"rental_uris":{"android":"levelo://app?vid=4de89a4b-d320-447e-8318-c7c79d1d0b56","ios":"levelo://app?vid=4de89a4b-d320-447e-8318-c7c79d1d0b56"},"vehicle_type_id":"4","last_reported":1712160511,"current_range_meters":20000,"station_id":"ce4bgn92rcd13ifvqbvg","pricing_plan_id":"cebpf4jnsgd1na2vs0mg"},{"bike_id":"e4e13fcd-fc66-429c-9913-d5827e97ef3d","system_id":"levelo_inurba_marseille","lat":43.309076,"lon":5.368465,"is_reserved":false,"is_disabled":false,"rental_uris":{"android":"levelo://app?vid=e4e13fcd-fc66-429c-9913-d5827e97ef3d","ios":"levelo://app?vid=e4e13fcd-fc66-429c-9913-d5827e97ef3d"},"vehicle_type_id":"4","last_reported":1712160511,"current_range_meters":16800,"station_id":"ce4bgn92rcd13ifvqbvg","pricing_plan_id":"cebpf4jnsgd1na2vs0mg"},{"bike_id":"d97f0dbf-d9d2-47ef-9814-dc5ff83933f7","system_id":"levelo_inurba_marseille","lat":43.309093,"lon":5.368472,"is_reserved":false,"is_disabled":false,"rental_uris":{"android":"levelo://app?vid=d97f0dbf-d9d2-47ef-9814-dc5ff83933f7","ios":"levelo://app?vid=d97f0dbf-d9d2-47ef-9814-dc5ff83933f7"},"vehicle_type_id":"4","last_reported":1712160511,"current_range_meters":26400,"station_id":"ce4bgn92rcd13ifvqbvg","pricing_plan_id":"cebpf4jnsgd1na2vs0mg"},{"bike_id":"c6a93651-9ae6-4070-9d45-79142686ee30","system_id":"levelo_inurba_marseille","lat":43.309076,"lon":5.368465,"is_reserved":false,"is_disabled":false,"rental_uris":{"android":"levelo://app?vid=c6a93651-9ae6-4070-9d45-79142686ee30","ios":"levelo://app?vid=c6a93651-9ae6-4070-9d45-79142686ee30"},"vehicle_type_id":"4","last_reported":1712160511,"current_range_meters":25600,"station_id":"ce4bgn92rcd13ifvqbvg","pricing_plan_id":"cebpf4jnsgd1na2vs0mg"},{"bike_id":"24b227b0-2c35-4cc2-afae-38c07f404ff8","system_id":"levelo_inurba_marseille","lat":43.309076,"lon":5.368465,"is_reserved":false,"is_disabled":false,"rental_uris":{"android":"levelo://app?vid=24b227b0-2c35-4cc2-afae-38c07f404ff8","ios":"levelo://app?vid=24b227b0-2c35-4cc2-afae-38c07f404ff8"},"vehicle_type_id":"4","last_reported":1712160511,"current_range_meters":0,"station_id":"ce4bgn92rcd13ifvqbvg","pricing_plan_id":"cebpf4jnsgd1na2vs0mg"},{"bike_id":"1e745257-ad94-40a8-b717-2d2aa85d054a","system_id":"levelo_inurba_marseille","lat":43.309039,"lon":5.371797,"is_reserved":false,"is_disabled":false,"rental_uris":{"android":"levelo://app?vid=1e745257-ad94-40a8-b717-2d2aa85d054a","ios":"levelo://app?vid=1e745257-ad94-40a8-b717-2d2aa85d054a"},"vehicle_type_id":"4","last_reported":1712160511,"current_range_meters":24000,"station_id":"ce4bguh2rcd13ifvqckg","pricing_plan_id":"cebpf4jnsgd1na2vs0mg"},{"bike_id":"30b0abe9-9afd-4828-9a51-3f7090265561","system_id":"levelo_inurba_marseille","lat":43.314811,"lon":5.373103,"is_reserved":false,"is_disabled":false,"rental_uris":{"android":"levelo://app?vid=30b0abe9-9afd-4828-9a51-3f7090265561","ios":"levelo://app?vid=30b0abe9-9afd-4828-9a51-3f7090265561"},"vehicle_type_id":"4","last_reported":1712160511,"current_range_meters":8400,"station_id":"ce4bgt12rcd13ifvqcd0","pricing_plan_id":"cebpf4jnsgd1na2vs0mg"},{"bike_id":"cd58e203-ebdc-483f-be44-3dd755378352","system_id":"levelo_inurba_marseille","lat":43.314811,"lon":5.373103,"is_reserved":false,"is_disabled":false,"rental_uris":{"android":"levelo://app?vid=cd58e203-ebdc-483f-be44-3dd755378352","ios":"levelo://app?vid=cd58e203-ebdc-483f-be44-3dd755378352"},"vehicle_type_id":"4","last_reported":1712160511,"current_range_meters":0,"station_id":"ce4bgt12rcd13ifvqcd0","pricing_plan_id":"cebpf4jnsgd1na2vs0mg"},{"bike_id":"b3202e6d-e8ff-4b81-93c9-cecdb5aacb1b","system_id":"levelo_inurba_marseille","lat":43.309039,"lon":5.371797,"is_reserved":false,"is_disabled":false,"rental_uris":{"android":"levelo://app?vid=b3202e6d-e8ff-4b81-93c9-cecdb5aacb1b","ios":"levelo://app?vid=b3202e6d-e8ff-4b81-93c9-cecdb5aacb1b"},"vehicle_type_id":"4","last_reported":1712160511,"current_range_meters":6000,"station_id":"ce4bguh2rcd13ifvqckg","pricing_plan_id":"cebpf4jnsgd1na2vs0mg"},{"bike_id":"494d3408-8d40-4414-b824-d04592cc143e","system_id":"levelo_inurba_marseille","lat":43.315,"lon":5.373098,"is_reserved":false,"is_disabled":false,"rental_uris":{"android":"levelo://app?vid=494d3408-8d40-4414-b824-d04592cc143e","ios":"levelo://app?vid=494d3408-8d40-4414-b824-d04592cc143e"},"vehicle_type_id":"4","last_reported":1712160511,"current_range_meters":0,"station_id":"ce4bgt12rcd13ifvqcd0","pricing_plan_id":"cebpf4jnsgd1na2vs0mg"},{"bike_id":"46062aa2-a7df-4f11-9e7f-8b33d3f7fd07","system_id":"levelo_inurba_marseille","lat":43.30537,"lon":5.367345,"is_reserved":false,"is_disabled":false,"rental_uris":{"android":"levelo://app?vid=46062aa2-a7df-4f11-9e7f-8b33d3f7fd07","ios":"levelo://app?vid=46062aa2-a7df-4f11-9e7f-8b33d3f7fd07"},"vehicle_type_id":"4","last_reported":1712160511,"current_range_meters":31200,"station_id":"ce4bgrp2rcd13ifvqc9g","pricing_plan_id":"cebpf4jnsgd1na2vs0mg"},{"bike_id":"cdef671b-0bb4-4458-8537-09bc3c0c2f51","system_id":"levelo_inurba_marseille","lat":43.30555,"lon":5.36539,"is_reserved":false,"is_disabled":false,"rental_uris":{"android":"levelo://app?vid=cdef671b-0bb4-4458-8537-09bc3c0c2f51","ios":"levelo://app?vid=cdef671b-0bb4-4458-8537-09bc3c0c2f51"},"vehicle_type_id":"4","last_reported":1712160511,"current_range_meters":27600,"station_id":"ce4bgs12rcd13ifvqcag","pricing_plan_id":"cebpf4jnsgd1na2vs0mg"},{"bike_id":"35d2dfce-8702-4151-b419-d55c69502b44","system_id":"levelo_inurba_marseille","lat":43.305712,"lon":5.365641,"is_reserved":false,"is_disabled":false,"rental_uris":{"android":"levelo://app?vid=35d2dfce-8702-4151-b419-d55c69502b44","ios":"levelo://app?vid=35d2dfce-8702-4151-b419-d55c69502b44"},"vehicle_type_id":"4","last_reported":1712160511,"current_range_meters":4000,"station_id":"ce4bgs12rcd13ifvqcag","pricing_plan_id":"cebpf4jnsgd1na2vs0mg"},{"bike_id":"e523413e-ff25-465d-99d0-a7408d71597d","system_id":"levelo_inurba_marseille","lat":43.305368,"lon":5.367343,"is_reserved":false,"is_disabled":false,"rental_uris":{"android":"levelo://app?vid=e523413e-ff25-465d-99d0-a7408d71597d","ios":"levelo://app?vid=e523413e-ff25-465d-99d0-a7408d71597d"},"vehicle_type_id":"4","last_reported":1712160511,"current_range_meters":19600,"station_id":"ce4bgrp2rcd13ifvqc9g","pricing_plan_id":"cebpf4jnsgd1na2vs0mg"},{"bike_id":"694e4fd7-a5ba-49eb-b047-034d3300acf2","system_id":"levelo_inurba_marseille","lat":43.279465,"lon":5.410561,"is_reserved":false,"is_disabled":false,"rental_uris":{"android":"levelo://app?vid=694e4fd7-a5ba-49eb-b047-034d3300acf2","ios":"levelo://app?vid=694e4fd7-a5ba-49eb-b047-034d3300acf2"},"vehicle_type_id":"4","last_reported":1712160511,"current_range_meters":19200,"station_id":"ce4bhnp2rcd13ifvqh0g","pricing_plan_id":"cebpf4jnsgd1na2vs0mg"},{"bike_id":"b0ae828d-59e2-4c93-a615-21be35d1726f","system_id":"levelo_inurba_marseille","lat":43.305368,"lon":5.367343,"is_reserved":false,"is_disabled":false,"rental_uris":{"android":"levelo://app?vid=b0ae828d-59e2-4c93-a615-21be35d1726f","ios":"levelo://app?vid=b0ae828d-59e2-4c93-a615-21be35d1726f"},"vehicle_type_id":"4","last_reported":1712160511,"current_range_meters":800,"station_id":"ce4bgrp2rcd13ifvqc9g","pricing_plan_id":"cebpf4jnsgd1na2vs0mg"},{"bike_id":"22fdd575-5a09-4b14-ada6-dca29da6d31b","system_id":"levelo_inurba_marseille","lat":43.305368,"lon":5.367343,"is_reserved":false,"is_disabled":false,"rental_uris":{"android":"levelo://app?vid=22fdd575-5a09-4b14-ada6-dca29da6d31b","ios":"levelo://app?vid=22fdd575-5a09-4b14-ada6-dca29da6d31b"},"vehicle_type_id":"4","last_reported":1712160511,"current_range_meters":30000,"station_id":"ce4bgrp2rcd13ifvqc9g","pricing_plan_id":"cebpf4jnsgd1na2vs0mg"},{"bike_id":"d1808f79-72d7-48ed-ac1e-58b10b590309","system_id":"levelo_inurba_marseille","lat":43.305368,"lon":5.367343,"is_reserved":false,"is_disabled":false,"rental_uris":{"android":"levelo://app?vid=d1808f79-72d7-48ed-ac1e-58b10b590309","ios":"levelo://app?vid=d1808f79-72d7-48ed-ac1e-58b10b590309"},"vehicle_type_id":"4","last_reported":1712160511,"current_range_meters":12000,"station_id":"ce4bgrp2rcd13ifvqc9g","pricing_plan_id":"cebpf4jnsgd1na2vs0mg"},{"bike_id":"096df58f-93d8-445f-8974-a82a65673316","system_id":"levelo_inurba_marseille","lat":43.305714,"lon":5.365633,"is_reserved":false,"is_disabled":false,"rental_uris":{"android":"levelo://app?vid=096df58f-93d8-445f-8974-a82a65673316","ios":"levelo://app?vid=096df58f-93d8-445f-8974-a82a65673316"},"vehicle_type_id":"4","last_reported":1712160511,"current_range_meters":13200,"station_id":"ce4bgs12rcd13ifvqcag","pricing_plan_id":"cebpf4jnsgd1na2vs0mg"},{"bike_id":"364786ae-567f-4a02-a9e0-2b4cd5fc310b","system_id":"levelo_inurba_marseille","lat":43.30537,"lon":5.367345,"is_reserved":false,"is_disabled":false,"rental_uris":{"android":"levelo://app?vid=364786ae-567f-4a02-a9e0-2b4cd5fc310b","ios":"levelo://app?vid=364786ae-567f-4a02-a9e0-2b4cd5fc310b"},"vehicle_type_id":"4","last_reported":1712160511,"current_range_meters":14800,"station_id":"ce4bgrp2rcd13ifvqc9g","pricing_plan_id":"cebpf4jnsgd1na2vs0mg"},{"bike_id":"96815eac-ef17-4b5f-98fe-5621debdbf5c","system_id":"levelo_inurba_marseille","lat":43.305706,"lon":5.365654,"is_reserved":false,"is_disabled":false,"rental_uris":{"android":"levelo://app?vid=96815eac-ef17-4b5f-98fe-5621debdbf5c","ios":"levelo://app?vid=96815eac-ef17-4b5f-98fe-5621debdbf5c"},"vehicle_type_id":"4","last_reported":1712160511,"current_range_meters":28800,"station_id":"ce4bgs12rcd13ifvqcag","pricing_plan_id":"cebpf4jnsgd1na2vs0mg"},{"bike_id":"57a96fd6-b77c-4ae8-870a-30efe53c1a90","system_id":"levelo_inurba_marseille","lat":43.309038,"lon":5.396546,"is_reserved":false,"is_disabled":false,"rental_uris":{"android":"levelo://app?vid=57a96fd6-b77c-4ae8-870a-30efe53c1a90","ios":"levelo://app?vid=57a96fd6-b77c-4ae8-870a-30efe53c1a90"},"vehicle_type_id":"4","last_reported":1712160511,"current_range_meters":400,"station_id":"ce4bh012rcd13ifvqcv0","pricing_plan_id":"cebpf4jnsgd1na2vs0mg"},{"bike_id":"9b746e77-acbf-456f-b539-5ff0b1d7f76f","system_id":"levelo_inurba_marseille","lat":43.305989,"lon":5.37225,"is_reserved":false,"is_disabled":false,"rental_uris":{"android":"levelo://app?vid=9b746e77-acbf-456f-b539-5ff0b1d7f76f","ios":"levelo://app?vid=9b746e77-acbf-456f-b539-5ff0b1d7f76f"},"vehicle_type_id":"4","last_reported":1712160511,"current_range_meters":20800,"station_id":"ce4bgqh2rcd13ifvqc4g","pricing_plan_id":"cebpf4jnsgd1na2vs0mg"},{"bike_id":"8f5cd238-f900-496a-912e-c8b02a65b231","system_id":"levelo_inurba_marseille","lat":43.30611,"lon":5.37232,"is_reserved":false,"is_disabled":false,"rental_uris":{"android":"levelo://app?vid=8f5cd238-f900-496a-912e-c8b02a65b231","ios":"levelo://app?vid=8f5cd238-f900-496a-912e-c8b02a65b231"},"vehicle_type_id":"4","last_reported":1712160511,"current_range_meters":0,"station_id":"ce4bgqh2rcd13ifvqc4g","pricing_plan_id":"cebpf4jnsgd1na2vs0mg"},{"bike_id":"29f77100-e068-4f5e-b570-5ddd2ebb307c","system_id":"levelo_inurba_marseille","lat":43.30606,"lon":5.37222,"is_reserved":false,"is_disabled":false,"rental_uris":{"android":"levelo://app?vid=29f77100-e068-4f5e-b570-5ddd2ebb307c","ios":"levelo://app?vid=29f77100-e068-4f5e-b570-5ddd2ebb307c"},"vehicle_type_id":"4","last_reported":1712160511,"current_range_meters":0,"station_id":"ce4bgqh2rcd13ifvqc4g","pricing_plan_id":"cebpf4jnsgd1na2vs0mg"},{"bike_id":"b59361ee-de20-4964-a3b5-6ecbef28c4aa","system_id":"levelo_inurba_marseille","lat":43.305989,"lon":5.37225,"is_reserved":false,"is_disabled":false,"rental_uris":{"android":"levelo://app?vid=b59361ee-de20-4964-a3b5-6ecbef28c4aa","ios":"levelo://app?vid=b59361ee-de20-4964-a3b5-6ecbef28c4aa"},"vehicle_type_id":"4","last_reported":1712160511,"current_range_meters":28000,"station_id":"ce4bgqh2rcd13ifvqc4g","pricing_plan_id":"cebpf4jnsgd1na2vs0mg"},{"bike_id":"634f1659-23d5-4950-9f1b-ee91ef4611f9","system_id":"levelo_inurba_marseille","lat":43.305989,"lon":5.37225,"is_reserved":false,"is_disabled":false,"rental_uris":{"android":"levelo://app?vid=634f1659-23d5-4950-9f1b-ee91ef4611f9","ios":"levelo://app?vid=634f1659-23d5-4950-9f1b-ee91ef4611f9"},"vehicle_type_id":"4","last_reported":1712160511,"current_range_meters":14800,"station_id":"ce4bgqh2rcd13ifvqc4g","pricing_plan_id":"cebpf4jnsgd1na2vs0mg"},{"bike_id":"26ab6508-ac3a-404f-aebb-43411a39af45","system_id":"levelo_inurba_marseille","lat":43.305989,"lon":5.37225,"is_reserved":false,"is_disabled":false,"rental_uris":{"android":"levelo://app?vid=26ab6508-ac3a-404f-aebb-43411a39af45","ios":"levelo://app?vid=26ab6508-ac3a-404f-aebb-43411a39af45"},"vehicle_type_id":"4","last_reported":1712160511,"current_range_meters":31600,"station_id":"ce4bgqh2rcd13ifvqc4g","pricing_plan_id":"cebpf4jnsgd1na2vs0mg"},{"bike_id":"a1853b0e-33a6-4770-9154-6a260a9f1e36","system_id":"levelo_inurba_marseille","lat":43.31124,"lon":5.3776,"is_reserved":false,"is_disabled":false,"rental_uris":{"android":"levelo://app?vid=a1853b0e-33a6-4770-9154-6a260a9f1e36","ios":"levelo://app?vid=a1853b0e-33a6-4770-9154-6a260a9f1e36"},"vehicle_type_id":"4","last_reported":1712160511,"current_range_meters":0,"station_id":"ce4bgt92rcd13ifvqcg0","pricing_plan_id":"cebpf4jnsgd1na2vs0mg"},{"bike_id":"4577ae11-021e-4746-95f6-9070c70efa98","system_id":"levelo_inurba_marseille","lat":43.317075,"lon":5.377367,"is_reserved":false,"is_disabled":false,"rental_uris":{"android":"levelo://app?vid=4577ae11-021e-4746-95f6-9070c70efa98","ios":"levelo://app?vid=4577ae11-021e-4746-95f6-9070c70efa98"},"vehicle_type_id":"4","last_reported":1712160511,"current_range_meters":9200,"station_id":"ce4bgth2rcd13ifvqch0","pricing_plan_id":"cebpf4jnsgd1na2vs0mg"},{"bike_id":"9229cedc-f0e0-49be-9237-597077914d7b","system_id":"levelo_inurba_marseille","lat":43.31724,"lon":5.376462,"is_reserved":false,"is_disabled":false,"rental_uris":{"android":"levelo://app?vid=9229cedc-f0e0-49be-9237-597077914d7b","ios":"levelo://app?vid=9229cedc-f0e0-49be-9237-597077914d7b"},"vehicle_type_id":"4","last_reported":1712160511,"current_range_meters":9600,"station_id":"","pricing_plan_id":"cebpf4jnsgd1na2vs0mg"},{"bike_id":"ae1611d7-ced0-44ba-b865-886677aee8d3","system_id":"levelo_inurba_marseille","lat":43.311131,"lon":5.377651,"is_reserved":false,"is_disabled":false,"rental_uris":{"android":"levelo://app?vid=ae1611d7-ced0-44ba-b865-886677aee8d3","ios":"levelo://app?vid=ae1611d7-ced0-44ba-b865-886677aee8d3"},"vehicle_type_id":"4","last_reported":1712160511,"current_range_meters":4000,"station_id":"ce4bgt92rcd13ifvqcg0","pricing_plan_id":"cebpf4jnsgd1na2vs0mg"},{"bike_id":"131e5753-8e30-43c8-80e0-366b1b2aaa28","system_id":"levelo_inurba_marseille","lat":43.31077,"lon":5.3782,"is_reserved":false,"is_disabled":false,"rental_uris":{"android":"levelo://app?vid=131e5753-8e30-43c8-80e0-366b1b2aaa28","ios":"levelo://app?vid=131e5753-8e30-43c8-80e0-366b1b2aaa28"},"vehicle_type_id":"4","last_reported":1712160511,"current_range_meters":27200,"station_id":"","pricing_plan_id":"cebpf4jnsgd1na2vs0mg"},{"bike_id":"bbfed310-f5ca-41c8-bf3a-f83cd6959697","system_id":"levelo_inurba_marseille","lat":43.313254,"lon":5.37881,"is_reserved":false,"is_disabled":false,"rental_uris":{"android":"levelo://app?vid=bbfed310-f5ca-41c8-bf3a-f83cd6959697","ios":"levelo://app?vid=bbfed310-f5ca-41c8-bf3a-f83cd6959697"},"vehicle_type_id":"4","last_reported":1712160511,"current_range_meters":12400,"station_id":"","pricing_plan_id":"cebpf4jnsgd1na2vs0mg"},{"bike_id":"967b1596-263b-4a71-bae0-8fede07be14d","system_id":"levelo_inurba_marseille","lat":43.317075,"lon":5.377367,"is_reserved":false,"is_disabled":false,"rental_uris":{"android":"levelo://app?vid=967b1596-263b-4a71-bae0-8fede07be14d","ios":"levelo://app?vid=967b1596-263b-4a71-bae0-8fede07be14d"},"vehicle_type_id":"4","last_reported":1712160511,"current_range_meters":3200,"station_id":"ce4bgth2rcd13ifvqch0","pricing_plan_id":"cebpf4jnsgd1na2vs0mg"},{"bike_id":"2bcc38b2-4941-4b1b-8538-cafb230e0a52","system_id":"levelo_inurba_marseille","lat":43.317075,"lon":5.377367,"is_reserved":false,"is_disabled":false,"rental_uris":{"android":"levelo://app?vid=2bcc38b2-4941-4b1b-8538-cafb230e0a52","ios":"levelo://app?vid=2bcc38b2-4941-4b1b-8538-cafb230e0a52"},"vehicle_type_id":"4","last_reported":1712160511,"current_range_meters":21200,"station_id":"ce4bgth2rcd13ifvqch0","pricing_plan_id":"cebpf4jnsgd1na2vs0mg"},{"bike_id":"5e72890e-031e-4686-866c-b249c65d2ba7","system_id":"levelo_inurba_marseille","lat":43.317075,"lon":5.377367,"is_reserved":false,"is_disabled":false,"rental_uris":{"android":"levelo://app?vid=5e72890e-031e-4686-866c-b249c65d2ba7","ios":"levelo://app?vid=5e72890e-031e-4686-866c-b249c65d2ba7"},"vehicle_type_id":"4","last_reported":1712160511,"current_range_meters":6400,"station_id":"ce4bgth2rcd13ifvqch0","pricing_plan_id":"cebpf4jnsgd1na2vs0mg"},{"bike_id":"0d76b948-fef1-4267-a7e6-2eae066ed4c5","system_id":"levelo_inurba_marseille","lat":43.315289,"lon":5.380349,"is_reserved":false,"is_disabled":false,"rental_uris":{"android":"levelo://app?vid=0d76b948-fef1-4267-a7e6-2eae066ed4c5","ios":"levelo://app?vid=0d76b948-fef1-4267-a7e6-2eae066ed4c5"},"vehicle_type_id":"4","last_reported":1712160511,"current_range_meters":23200,"station_id":"ce4bhsp2rcd13ifvqi50","pricing_plan_id":"cebpf4jnsgd1na2vs0mg"},{"bike_id":"9eb2c359-cf04-4b29-a6ab-7108c4580c82","system_id":"levelo_inurba_marseille","lat":43.315289,"lon":5.380349,"is_reserved":false,"is_disabled":false,"rental_uris":{"android":"levelo://app?vid=9eb2c359-cf04-4b29-a6ab-7108c4580c82","ios":"levelo://app?vid=9eb2c359-cf04-4b29-a6ab-7108c4580c82"},"vehicle_type_id":"4","last_reported":1712160511,"current_range_meters":17600,"station_id":"ce4bhsp2rcd13ifvqi50","pricing_plan_id":"cebpf4jnsgd1na2vs0mg"},{"bike_id":"34024670-66dc-4a76-9bdc-69b777e109c5","system_id":"levelo_inurba_marseille","lat":43.315293,"lon":5.380349,"is_reserved":false,"is_disabled":false,"rental_uris":{"android":"levelo://app?vid=34024670-66dc-4a76-9bdc-69b777e109c5","ios":"levelo://app?vid=34024670-66dc-4a76-9bdc-69b777e109c5"},"vehicle_type_id":"4","last_reported":1712160511,"current_range_meters":18400,"station_id":"ce4bhsp2rcd13ifvqi50","pricing_plan_id":"cebpf4jnsgd1na2vs0mg"},{"bike_id":"d2594c3b-cc04-4555-90b3-5163dd4aebcc","system_id":"levelo_inurba_marseille","lat":43.315293,"lon":5.380349,"is_reserved":false,"is_disabled":false,"rental_uris":{"android":"levelo://app?vid=d2594c3b-cc04-4555-90b3-5163dd4aebcc","ios":"levelo://app?vid=d2594c3b-cc04-4555-90b3-5163dd4aebcc"},"vehicle_type_id":"4","last_reported":1712160511,"current_range_meters":11200,"station_id":"ce4bhsp2rcd13ifvqi50","pricing_plan_id":"cebpf4jnsgd1na2vs0mg"},{"bike_id":"1179b424-e642-4cc9-8eef-6573e93ba9dd","system_id":"levelo_inurba_marseille","lat":43.302957,"lon":5.372327,"is_reserved":false,"is_disabled":false,"rental_uris":{"android":"levelo://app?vid=1179b424-e642-4cc9-8eef-6573e93ba9dd","ios":"levelo://app?vid=1179b424-e642-4cc9-8eef-6573e93ba9dd"},"vehicle_type_id":"4","last_reported":1712160511,"current_range_meters":7200,"station_id":"","pricing_plan_id":"cebpf4jnsgd1na2vs0mg"},{"bike_id":"5f520cf4-db21-4557-a0bc-2d901df2ce15","system_id":"levelo_inurba_marseille","lat":43.308012,"lon":5.381511,"is_reserved":false,"is_disabled":false,"rental_uris":{"android":"levelo://app?vid=5f520cf4-db21-4557-a0bc-2d901df2ce15","ios":"levelo://app?vid=5f520cf4-db21-4557-a0bc-2d901df2ce15"},"vehicle_type_id":"4","last_reported":1712160511,"current_range_meters":0,"station_id":"ce4bgt12rcd13ifvqce0","pricing_plan_id":"cebpf4jnsgd1na2vs0mg"},{"bike_id":"340b9729-6114-4549-9d6c-a057670b7ba2","system_id":"levelo_inurba_marseille","lat":43.296921,"lon":5.376579,"is_reserved":false,"is_disabled":false,"rental_uris":{"android":"levelo://app?vid=340b9729-6114-4549-9d6c-a057670b7ba2","ios":"levelo://app?vid=340b9729-6114-4549-9d6c-a057670b7ba2"},"vehicle_type_id":"4","last_reported":1712160511,"current_range_meters":0,"station_id":"ce4bgkh2rcd13ifvqbl0","pricing_plan_id":"cebpf4jnsgd1na2vs0mg"},{"bike_id":"421c6cc9-da27-4a72-af66-b5abff7f3fe5","system_id":"levelo_inurba_marseille","lat":43.308012,"lon":5.381511,"is_reserved":false,"is_disabled":false,"rental_uris":{"android":"levelo://app?vid=421c6cc9-da27-4a72-af66-b5abff7f3fe5","ios":"levelo://app?vid=421c6cc9-da27-4a72-af66-b5abff7f3fe5"},"vehicle_type_id":"4","last_reported":1712160511,"current_range_meters":2800,"station_id":"ce4bgt12rcd13ifvqce0","pricing_plan_id":"cebpf4jnsgd1na2vs0mg"},{"bike_id":"932ed71a-7403-4682-9583-505ca287f369","system_id":"levelo_inurba_marseille","lat":43.324771,"lon":5.36557,"is_reserved":false,"is_disabled":false,"rental_uris":{"android":"levelo://app?vid=932ed71a-7403-4682-9583-505ca287f369","ios":"levelo://app?vid=932ed71a-7403-4682-9583-505ca287f369"},"vehicle_type_id":"4","last_reported":1712160511,"current_range_meters":4400,"station_id":"ce4bhs12rcd13ifvqhvg","pricing_plan_id":"cebpf4jnsgd1na2vs0mg"},{"bike_id":"cdbf7076-7e1c-4277-9d57-17692054ed98","system_id":"levelo_inurba_marseille","lat":43.32473,"lon":5.36563,"is_reserved":false,"is_disabled":false,"rental_uris":{"android":"levelo://app?vid=cdbf7076-7e1c-4277-9d57-17692054ed98","ios":"levelo://app?vid=cdbf7076-7e1c-4277-9d57-17692054ed98"},"vehicle_type_id":"4","last_reported":1712160511,"current_range_meters":17600,"station_id":"ce4bhs12rcd13ifvqhvg","pricing_plan_id":"cebpf4jnsgd1na2vs0mg"},{"bike_id":"8379505a-b10f-401a-beb1-5671c297c8a4","system_id":"levelo_inurba_marseille","lat":43.324771,"lon":5.36557,"is_reserved":false,"is_disabled":false,"rental_uris":{"android":"levelo://app?vid=8379505a-b10f-401a-beb1-5671c297c8a4","ios":"levelo://app?vid=8379505a-b10f-401a-beb1-5671c297c8a4"},"vehicle_type_id":"4","last_reported":1712160511,"current_range_meters":17600,"station_id":"ce4bhs12rcd13ifvqhvg","pricing_plan_id":"cebpf4jnsgd1na2vs0mg"},{"bike_id":"401bc7b5-9ce9-443b-a290-c2f943b6888e","system_id":"levelo_inurba_marseille","lat":43.324771,"lon":5.36557,"is_reserved":false,"is_disabled":false,"rental_uris":{"android":"levelo://app?vid=401bc7b5-9ce9-443b-a290-c2f943b6888e","ios":"levelo://app?vid=401bc7b5-9ce9-443b-a290-c2f943b6888e"},"vehicle_type_id":"4","last_reported":1712160511,"current_range_meters":16800,"station_id":"ce4bhs12rcd13ifvqhvg","pricing_plan_id":"cebpf4jnsgd1na2vs0mg"},{"bike_id":"c8d339b3-c35c-49e7-930c-6b0ad251cb22","system_id":"levelo_inurba_marseille","lat":43.324771,"lon":5.36557,"is_reserved":false,"is_disabled":false,"rental_uris":{"android":"levelo://app?vid=c8d339b3-c35c-49e7-930c-6b0ad251cb22","ios":"levelo://app?vid=c8d339b3-c35c-49e7-930c-6b0ad251cb22"},"vehicle_type_id":"4","last_reported":1712160511,"current_range_meters":23200,"station_id":"ce4bhs12rcd13ifvqhvg","pricing_plan_id":"cebpf4jnsgd1na2vs0mg"},{"bike_id":"eb6b09c8-6428-45b7-9cbe-b857eee8a101","system_id":"levelo_inurba_marseille","lat":43.324771,"lon":5.36557,"is_reserved":false,"is_disabled":false,"rental_uris":{"android":"levelo://app?vid=eb6b09c8-6428-45b7-9cbe-b857eee8a101","ios":"levelo://app?vid=eb6b09c8-6428-45b7-9cbe-b857eee8a101"},"vehicle_type_id":"4","last_reported":1712160511,"current_range_meters":4800,"station_id":"ce4bhs12rcd13ifvqhvg","pricing_plan_id":"cebpf4jnsgd1na2vs0mg"},{"bike_id":"316cf51f-962b-4f4d-8e7a-32acc863ff9f","system_id":"levelo_inurba_marseille","lat":43.3107,"lon":5.383632,"is_reserved":false,"is_disabled":false,"rental_uris":{"android":"levelo://app?vid=316cf51f-962b-4f4d-8e7a-32acc863ff9f","ios":"levelo://app?vid=316cf51f-962b-4f4d-8e7a-32acc863ff9f"},"vehicle_type_id":"4","last_reported":1712160511,"current_range_meters":2800,"station_id":"ce4bgv92rcd13ifvqcr0","pricing_plan_id":"cebpf4jnsgd1na2vs0mg"},{"bike_id":"b70b5053-6115-4fef-b8a6-dd5efe9a11be","system_id":"levelo_inurba_marseille","lat":43.30136,"lon":5.37411,"is_reserved":false,"is_disabled":false,"rental_uris":{"android":"levelo://app?vid=b70b5053-6115-4fef-b8a6-dd5efe9a11be","ios":"levelo://app?vid=b70b5053-6115-4fef-b8a6-dd5efe9a11be"},"vehicle_type_id":"4","last_reported":1712160511,"current_range_meters":0,"station_id":"ce4bgs92rcd13ifvqcc0","pricing_plan_id":"cebpf4jnsgd1na2vs0mg"},{"bike_id":"2e39f1fc-b85a-4875-ac59-f9394a845a98","system_id":"levelo_inurba_marseille","lat":43.319935,"lon":5.381699,"is_reserved":false,"is_disabled":false,"rental_uris":{"android":"levelo://app?vid=2e39f1fc-b85a-4875-ac59-f9394a845a98","ios":"levelo://app?vid=2e39f1fc-b85a-4875-ac59-f9394a845a98"},"vehicle_type_id":"4","last_reported":1712160511,"current_range_meters":8800,"station_id":"ce4bhr12rcd13ifvqhpg","pricing_plan_id":"cebpf4jnsgd1na2vs0mg"},{"bike_id":"90967822-0d01-4979-ab6f-bdd1bbae9452","system_id":"levelo_inurba_marseille","lat":43.319935,"lon":5.381699,"is_reserved":false,"is_disabled":false,"rental_uris":{"android":"levelo://app?vid=90967822-0d01-4979-ab6f-bdd1bbae9452","ios":"levelo://app?vid=90967822-0d01-4979-ab6f-bdd1bbae9452"},"vehicle_type_id":"4","last_reported":1712160511,"current_range_meters":29200,"station_id":"ce4bhr12rcd13ifvqhpg","pricing_plan_id":"cebpf4jnsgd1na2vs0mg"},{"bike_id":"61b3a511-5189-4326-bde3-f88731593d9a","system_id":"levelo_inurba_marseille","lat":43.319935,"lon":5.381699,"is_reserved":false,"is_disabled":false,"rental_uris":{"android":"levelo://app?vid=61b3a511-5189-4326-bde3-f88731593d9a","ios":"levelo://app?vid=61b3a511-5189-4326-bde3-f88731593d9a"},"vehicle_type_id":"4","last_reported":1712160511,"current_range_meters":23200,"station_id":"ce4bhr12rcd13ifvqhpg","pricing_plan_id":"cebpf4jnsgd1na2vs0mg"},{"bike_id":"5be724ca-b930-40e3-9a57-5db3d4cb4a2f","system_id":"levelo_inurba_marseille","lat":43.31995,"lon":5.38155,"is_reserved":false,"is_disabled":false,"rental_uris":{"android":"levelo://app?vid=5be724ca-b930-40e3-9a57-5db3d4cb4a2f","ios":"levelo://app?vid=5be724ca-b930-40e3-9a57-5db3d4cb4a2f"},"vehicle_type_id":"4","last_reported":1712160511,"current_range_meters":18000,"station_id":"ce4bhr12rcd13ifvqhpg","pricing_plan_id":"cebpf4jnsgd1na2vs0mg"},{"bike_id":"07f56675-491b-41d9-9fc3-a36dce9ba1b9","system_id":"levelo_inurba_marseille","lat":43.31994,"lon":5.38159,"is_reserved":false,"is_disabled":false,"rental_uris":{"android":"levelo://app?vid=07f56675-491b-41d9-9fc3-a36dce9ba1b9","ios":"levelo://app?vid=07f56675-491b-41d9-9fc3-a36dce9ba1b9"},"vehicle_type_id":"4","last_reported":1712160511,"current_range_meters":18800,"station_id":"ce4bhr12rcd13ifvqhpg","pricing_plan_id":"cebpf4jnsgd1na2vs0mg"},{"bike_id":"42a0bf20-b24e-4f44-b085-c1bf12053021","system_id":"levelo_inurba_marseille","lat":43.31994,"lon":5.38162,"is_reserved":false,"is_disabled":false,"rental_uris":{"android":"levelo://app?vid=42a0bf20-b24e-4f44-b085-c1bf12053021","ios":"levelo://app?vid=42a0bf20-b24e-4f44-b085-c1bf12053021"},"vehicle_type_id":"4","last_reported":1712160511,"current_range_meters":13200,"station_id":"ce4bhr12rcd13ifvqhpg","pricing_plan_id":"cebpf4jnsgd1na2vs0mg"},{"bike_id":"6cd2839e-3499-4385-8140-af8bea97f9cb","system_id":"levelo_inurba_marseille","lat":43.313571,"lon":5.384829,"is_reserved":false,"is_disabled":false,"rental_uris":{"android":"levelo://app?vid=6cd2839e-3499-4385-8140-af8bea97f9cb","ios":"levelo://app?vid=6cd2839e-3499-4385-8140-af8bea97f9cb"},"vehicle_type_id":"4","last_reported":1712160511,"current_range_meters":16000,"station_id":"ce4bgt92rcd13ifvqcf0","pricing_plan_id":"cebpf4jnsgd1na2vs0mg"},{"bike_id":"5c34311c-0c66-4f57-a9ae-55290df5e0d9","system_id":"levelo_inurba_marseille","lat":43.313571,"lon":5.384829,"is_reserved":false,"is_disabled":false,"rental_uris":{"android":"levelo://app?vid=5c34311c-0c66-4f57-a9ae-55290df5e0d9","ios":"levelo://app?vid=5c34311c-0c66-4f57-a9ae-55290df5e0d9"},"vehicle_type_id":"4","last_reported":1712160511,"current_range_meters":800,"station_id":"ce4bgt92rcd13ifvqcf0","pricing_plan_id":"cebpf4jnsgd1na2vs0mg"},{"bike_id":"f775639c-d191-45ac-8931-a920f1df62ba","system_id":"levelo_inurba_marseille","lat":43.299641,"lon":5.371634,"is_reserved":false,"is_disabled":false,"rental_uris":{"android":"levelo://app?vid=f775639c-d191-45ac-8931-a920f1df62ba","ios":"levelo://app?vid=f775639c-d191-45ac-8931-a920f1df62ba"},"vehicle_type_id":"4","last_reported":1712160511,"current_range_meters":0,"station_id":"ce4bgr92rcd13ifvqc7g","pricing_plan_id":"cebpf4jnsgd1na2vs0mg"},{"bike_id":"e89ad0d0-46d9-4e96-8f21-1d13905d1f32","system_id":"levelo_inurba_marseille","lat":43.30216,"lon":5.37995,"is_reserved":false,"is_disabled":false,"rental_uris":{"android":"levelo://app?vid=e89ad0d0-46d9-4e96-8f21-1d13905d1f32","ios":"levelo://app?vid=e89ad0d0-46d9-4e96-8f21-1d13905d1f32"},"vehicle_type_id":"4","last_reported":1712160511,"current_range_meters":5600,"station_id":"","pricing_plan_id":"cebpf4jnsgd1na2vs0mg"},{"bike_id":"4b7ad9b3-d555-4d39-9ae5-9a5ee43ae3ec","system_id":"levelo_inurba_marseille","lat":43.29852,"lon":5.36286,"is_reserved":false,"is_disabled":false,"rental_uris":{"android":"levelo://app?vid=4b7ad9b3-d555-4d39-9ae5-9a5ee43ae3ec","ios":"levelo://app?vid=4b7ad9b3-d555-4d39-9ae5-9a5ee43ae3ec"},"vehicle_type_id":"4","last_reported":1712160511,"current_range_meters":24400,"station_id":"ce4bgpp2rcd13ifvqc3g","pricing_plan_id":"cebpf4jnsgd1na2vs0mg"},{"bike_id":"0fbc7e04-df36-46ca-b31d-5b060a588802","system_id":"levelo_inurba_marseille","lat":43.29852,"lon":5.36286,"is_reserved":false,"is_disabled":false,"rental_uris":{"android":"levelo://app?vid=0fbc7e04-df36-46ca-b31d-5b060a588802","ios":"levelo://app?vid=0fbc7e04-df36-46ca-b31d-5b060a588802"},"vehicle_type_id":"4","last_reported":1712160511,"current_range_meters":0,"station_id":"ce4bgpp2rcd13ifvqc3g","pricing_plan_id":"cebpf4jnsgd1na2vs0mg"},{"bike_id":"21b85214-177c-4a00-8560-3106a4d2e049","system_id":"levelo_inurba_marseille","lat":43.295748,"lon":5.37522,"is_reserved":false,"is_disabled":false,"rental_uris":{"android":"levelo://app?vid=21b85214-177c-4a00-8560-3106a4d2e049","ios":"levelo://app?vid=21b85214-177c-4a00-8560-3106a4d2e049"},"vehicle_type_id":"4","last_reported":1712160511,"current_range_meters":8800,"station_id":"ce4bgh92rcd13ifvqb50","pricing_plan_id":"cebpf4jnsgd1na2vs0mg"},{"bike_id":"c16de16e-a46a-4c28-a254-f0bb73ade469","system_id":"levelo_inurba_marseille","lat":43.29842,"lon":5.36266,"is_reserved":false,"is_disabled":false,"rental_uris":{"android":"levelo://app?vid=c16de16e-a46a-4c28-a254-f0bb73ade469","ios":"levelo://app?vid=c16de16e-a46a-4c28-a254-f0bb73ade469"},"vehicle_type_id":"4","last_reported":1712160511,"current_range_meters":11600,"station_id":"ce4bgpp2rcd13ifvqc3g","pricing_plan_id":"cebpf4jnsgd1na2vs0mg"},{"bike_id":"a9e3d456-64ff-474a-84a7-f111ca2d723d","system_id":"levelo_inurba_marseille","lat":43.298433,"lon":5.362774,"is_reserved":false,"is_disabled":false,"rental_uris":{"android":"levelo://app?vid=a9e3d456-64ff-474a-84a7-f111ca2d723d","ios":"levelo://app?vid=a9e3d456-64ff-474a-84a7-f111ca2d723d"},"vehicle_type_id":"4","last_reported":1712160511,"current_range_meters":0,"station_id":"ce4bgpp2rcd13ifvqc3g","pricing_plan_id":"cebpf4jnsgd1na2vs0mg"},{"bike_id":"de65971d-586c-4ce5-af50-40a6ab383d95","system_id":"levelo_inurba_marseille","lat":43.311722,"lon":5.387247,"is_reserved":false,"is_disabled":false,"rental_uris":{"android":"levelo://app?vid=de65971d-586c-4ce5-af50-40a6ab383d95","ios":"levelo://app?vid=de65971d-586c-4ce5-af50-40a6ab383d95"},"vehicle_type_id":"4","last_reported":1712160511,"current_range_meters":7200,"station_id":"ce4bgv12rcd13ifvqcp0","pricing_plan_id":"cebpf4jnsgd1na2vs0mg"},{"bike_id":"26923e7a-1cda-4606-bad0-5144049af557","system_id":"levelo_inurba_marseille","lat":43.3229,"lon":5.38258,"is_reserved":false,"is_disabled":false,"rental_uris":{"android":"levelo://app?vid=26923e7a-1cda-4606-bad0-5144049af557","ios":"levelo://app?vid=26923e7a-1cda-4606-bad0-5144049af557"},"vehicle_type_id":"4","last_reported":1712160511,"current_range_meters":26800,"station_id":"ce4bhr12rcd13ifvqhqg","pricing_plan_id":"cebpf4jnsgd1na2vs0mg"},{"bike_id":"5ed1088d-e0ad-4614-a220-0449cb3d1e58","system_id":"levelo_inurba_marseille","lat":43.322872,"lon":5.382756,"is_reserved":false,"is_disabled":false,"rental_uris":{"android":"levelo://app?vid=5ed1088d-e0ad-4614-a220-0449cb3d1e58","ios":"levelo://app?vid=5ed1088d-e0ad-4614-a220-0449cb3d1e58"},"vehicle_type_id":"4","last_reported":1712160511,"current_range_meters":3200,"station_id":"ce4bhr12rcd13ifvqhqg","pricing_plan_id":"cebpf4jnsgd1na2vs0mg"},{"bike_id":"8c3dad49-2614-4d9b-bd1e-1d381af501e9","system_id":"levelo_inurba_marseille","lat":43.322872,"lon":5.382756,"is_reserved":false,"is_disabled":false,"rental_uris":{"android":"levelo://app?vid=8c3dad49-2614-4d9b-bd1e-1d381af501e9","ios":"levelo://app?vid=8c3dad49-2614-4d9b-bd1e-1d381af501e9"},"vehicle_type_id":"4","last_reported":1712160511,"current_range_meters":26800,"station_id":"ce4bhr12rcd13ifvqhqg","pricing_plan_id":"cebpf4jnsgd1na2vs0mg"},{"bike_id":"5df532e5-5c86-4a98-8bde-e41b6075a0fa","system_id":"levelo_inurba_marseille","lat":43.322872,"lon":5.382756,"is_reserved":false,"is_disabled":false,"rental_uris":{"android":"levelo://app?vid=5df532e5-5c86-4a98-8bde-e41b6075a0fa","ios":"levelo://app?vid=5df532e5-5c86-4a98-8bde-e41b6075a0fa"},"vehicle_type_id":"4","last_reported":1712160511,"current_range_meters":13200,"station_id":"ce4bhr12rcd13ifvqhqg","pricing_plan_id":"cebpf4jnsgd1na2vs0mg"},{"bike_id":"af91ee66-ebec-4e5f-b566-646a8b5863b7","system_id":"levelo_inurba_marseille","lat":43.322872,"lon":5.382756,"is_reserved":false,"is_disabled":false,"rental_uris":{"android":"levelo://app?vid=af91ee66-ebec-4e5f-b566-646a8b5863b7","ios":"levelo://app?vid=af91ee66-ebec-4e5f-b566-646a8b5863b7"},"vehicle_type_id":"4","last_reported":1712160511,"current_range_meters":11200,"station_id":"ce4bhr12rcd13ifvqhqg","pricing_plan_id":"cebpf4jnsgd1na2vs0mg"},{"bike_id":"353ac126-27b4-449b-8dd4-072aa441f091","system_id":"levelo_inurba_marseille","lat":43.322893,"lon":5.38273,"is_reserved":false,"is_disabled":false,"rental_uris":{"android":"levelo://app?vid=353ac126-27b4-449b-8dd4-072aa441f091","ios":"levelo://app?vid=353ac126-27b4-449b-8dd4-072aa441f091"},"vehicle_type_id":"4","last_reported":1712160511,"current_range_meters":2800,"station_id":"ce4bhr12rcd13ifvqhqg","pricing_plan_id":"cebpf4jnsgd1na2vs0mg"},{"bike_id":"6db4ba56-cdbd-44f6-826d-1abf96302385","system_id":"levelo_inurba_marseille","lat":43.322872,"lon":5.382756,"is_reserved":false,"is_disabled":false,"rental_uris":{"android":"levelo://app?vid=6db4ba56-cdbd-44f6-826d-1abf96302385","ios":"levelo://app?vid=6db4ba56-cdbd-44f6-826d-1abf96302385"},"vehicle_type_id":"4","last_reported":1712160511,"current_range_meters":31600,"station_id":"ce4bhr12rcd13ifvqhqg","pricing_plan_id":"cebpf4jnsgd1na2vs0mg"},{"bike_id":"e9ecb505-fc9c-4061-ad11-37d408084452","system_id":"levelo_inurba_marseille","lat":43.29872,"lon":5.37587,"is_reserved":false,"is_disabled":false,"rental_uris":{"android":"levelo://app?vid=e9ecb505-fc9c-4061-ad11-37d408084452","ios":"levelo://app?vid=e9ecb505-fc9c-4061-ad11-37d408084452"},"vehicle_type_id":"4","last_reported":1712160511,"current_range_meters":0,"station_id":"","pricing_plan_id":"cebpf4jnsgd1na2vs0mg"},{"bike_id":"bbc25636-82ad-4a92-8f53-a5e79ee7650b","system_id":"levelo_inurba_marseille","lat":43.32794,"lon":5.36124,"is_reserved":false,"is_disabled":false,"rental_uris":{"android":"levelo://app?vid=bbc25636-82ad-4a92-8f53-a5e79ee7650b","ios":"levelo://app?vid=bbc25636-82ad-4a92-8f53-a5e79ee7650b"},"vehicle_type_id":"4","last_reported":1712160511,"current_range_meters":20400,"station_id":"","pricing_plan_id":"cebpf4jnsgd1na2vs0mg"},{"bike_id":"b1d3b15f-6c16-4769-8b46-df6e02e91666","system_id":"levelo_inurba_marseille","lat":43.297163,"lon":5.365866,"is_reserved":false,"is_disabled":false,"rental_uris":{"android":"levelo://app?vid=b1d3b15f-6c16-4769-8b46-df6e02e91666","ios":"levelo://app?vid=b1d3b15f-6c16-4769-8b46-df6e02e91666"},"vehicle_type_id":"4","last_reported":1712160511,"current_range_meters":18800,"station_id":"ce4bgn12rcd13ifvqbt0","pricing_plan_id":"cebpf4jnsgd1na2vs0mg"},{"bike_id":"c46411bc-aa1e-4588-9da5-00dd76cc35a6","system_id":"levelo_inurba_marseille","lat":43.329154,"lon":5.36703,"is_reserved":false,"is_disabled":false,"rental_uris":{"android":"levelo://app?vid=c46411bc-aa1e-4588-9da5-00dd76cc35a6","ios":"levelo://app?vid=c46411bc-aa1e-4588-9da5-00dd76cc35a6"},"vehicle_type_id":"4","last_reported":1712160511,"current_range_meters":0,"station_id":"","pricing_plan_id":"cebpf4jnsgd1na2vs0mg"},{"bike_id":"09a475bb-fd99-456d-85e5-11ea928c9ff9","system_id":"levelo_inurba_marseille","lat":43.2968,"lon":5.37291,"is_reserved":false,"is_disabled":false,"rental_uris":{"android":"levelo://app?vid=09a475bb-fd99-456d-85e5-11ea928c9ff9","ios":"levelo://app?vid=09a475bb-fd99-456d-85e5-11ea928c9ff9"},"vehicle_type_id":"4","last_reported":1712160511,"current_range_meters":1600,"station_id":"ce4bgk12rcd13ifvqbj0","pricing_plan_id":"cebpf4jnsgd1na2vs0mg"},{"bike_id":"15437c97-7635-4caa-9583-74405cae0c79","system_id":"levelo_inurba_marseille","lat":43.29573,"lon":5.367355,"is_reserved":false,"is_disabled":false,"rental_uris":{"android":"levelo://app?vid=15437c97-7635-4caa-9583-74405cae0c79","ios":"levelo://app?vid=15437c97-7635-4caa-9583-74405cae0c79"},"vehicle_type_id":"4","last_reported":1712160511,"current_range_meters":4400,"station_id":"ce4bgph2rcd13ifvqc2g","pricing_plan_id":"cebpf4jnsgd1na2vs0mg"},{"bike_id":"31479677-1dec-473f-b937-663fcd261966","system_id":"levelo_inurba_marseille","lat":43.296131,"lon":5.370791,"is_reserved":false,"is_disabled":false,"rental_uris":{"android":"levelo://app?vid=31479677-1dec-473f-b937-663fcd261966","ios":"levelo://app?vid=31479677-1dec-473f-b937-663fcd261966"},"vehicle_type_id":"4","last_reported":1712160511,"current_range_meters":15600,"station_id":"ce4bgnh2rcd13ifvqc0g","pricing_plan_id":"cebpf4jnsgd1na2vs0mg"},{"bike_id":"67077e55-3a6c-4357-8c73-074672ce54cf","system_id":"levelo_inurba_marseille","lat":43.296131,"lon":5.370791,"is_reserved":false,"is_disabled":false,"rental_uris":{"android":"levelo://app?vid=67077e55-3a6c-4357-8c73-074672ce54cf","ios":"levelo://app?vid=67077e55-3a6c-4357-8c73-074672ce54cf"},"vehicle_type_id":"4","last_reported":1712160511,"current_range_meters":10400,"station_id":"ce4bgnh2rcd13ifvqc0g","pricing_plan_id":"cebpf4jnsgd1na2vs0mg"},{"bike_id":"777b8f31-5e05-4fdc-9fb4-13f6ad61181b","system_id":"levelo_inurba_marseille","lat":43.296129,"lon":5.370777,"is_reserved":false,"is_disabled":false,"rental_uris":{"android":"levelo://app?vid=777b8f31-5e05-4fdc-9fb4-13f6ad61181b","ios":"levelo://app?vid=777b8f31-5e05-4fdc-9fb4-13f6ad61181b"},"vehicle_type_id":"4","last_reported":1712160511,"current_range_meters":19600,"station_id":"ce4bgnh2rcd13ifvqc0g","pricing_plan_id":"cebpf4jnsgd1na2vs0mg"},{"bike_id":"bec01cd6-e516-49a1-8f93-89be602ade0a","system_id":"levelo_inurba_marseille","lat":43.296131,"lon":5.370791,"is_reserved":false,"is_disabled":false,"rental_uris":{"android":"levelo://app?vid=bec01cd6-e516-49a1-8f93-89be602ade0a","ios":"levelo://app?vid=bec01cd6-e516-49a1-8f93-89be602ade0a"},"vehicle_type_id":"4","last_reported":1712160511,"current_range_meters":6400,"station_id":"ce4bgnh2rcd13ifvqc0g","pricing_plan_id":"cebpf4jnsgd1na2vs0mg"},{"bike_id":"8c199a8a-de15-4983-bd75-8c1d0a43cc3e","system_id":"levelo_inurba_marseille","lat":43.29573,"lon":5.367355,"is_reserved":false,"is_disabled":false,"rental_uris":{"android":"levelo://app?vid=8c199a8a-de15-4983-bd75-8c1d0a43cc3e","ios":"levelo://app?vid=8c199a8a-de15-4983-bd75-8c1d0a43cc3e"},"vehicle_type_id":"4","last_reported":1712160511,"current_range_meters":13200,"station_id":"ce4bgph2rcd13ifvqc2g","pricing_plan_id":"cebpf4jnsgd1na2vs0mg"},{"bike_id":"9ac09636-b08b-4b20-8800-2a965fb255ae","system_id":"levelo_inurba_marseille","lat":43.29573,"lon":5.367355,"is_reserved":false,"is_disabled":false,"rental_uris":{"android":"levelo://app?vid=9ac09636-b08b-4b20-8800-2a965fb255ae","ios":"levelo://app?vid=9ac09636-b08b-4b20-8800-2a965fb255ae"},"vehicle_type_id":"4","last_reported":1712160511,"current_range_meters":30400,"station_id":"ce4bgph2rcd13ifvqc2g","pricing_plan_id":"cebpf4jnsgd1na2vs0mg"},{"bike_id":"a06b2cde-2fe5-4ff0-8c2e-3096b994ca71","system_id":"levelo_inurba_marseille","lat":43.29573,"lon":5.367355,"is_reserved":false,"is_disabled":false,"rental_uris":{"android":"levelo://app?vid=a06b2cde-2fe5-4ff0-8c2e-3096b994ca71","ios":"levelo://app?vid=a06b2cde-2fe5-4ff0-8c2e-3096b994ca71"},"vehicle_type_id":"4","last_reported":1712160511,"current_range_meters":5600,"station_id":"ce4bgph2rcd13ifvqc2g","pricing_plan_id":"cebpf4jnsgd1na2vs0mg"},{"bike_id":"cf1f5c7b-1673-4cb3-bb55-1f1f77069855","system_id":"levelo_inurba_marseille","lat":43.29573,"lon":5.367355,"is_reserved":false,"is_disabled":false,"rental_uris":{"android":"levelo://app?vid=cf1f5c7b-1673-4cb3-bb55-1f1f77069855","ios":"levelo://app?vid=cf1f5c7b-1673-4cb3-bb55-1f1f77069855"},"vehicle_type_id":"4","last_reported":1712160511,"current_range_meters":12800,"station_id":"ce4bgph2rcd13ifvqc2g","pricing_plan_id":"cebpf4jnsgd1na2vs0mg"},{"bike_id":"f2457781-f948-4c5c-a978-0a312bd3871a","system_id":"levelo_inurba_marseille","lat":43.29573,"lon":5.367355,"is_reserved":false,"is_disabled":false,"rental_uris":{"android":"levelo://app?vid=f2457781-f948-4c5c-a978-0a312bd3871a","ios":"levelo://app?vid=f2457781-f948-4c5c-a978-0a312bd3871a"},"vehicle_type_id":"4","last_reported":1712160511,"current_range_meters":10400,"station_id":"ce4bgph2rcd13ifvqc2g","pricing_plan_id":"cebpf4jnsgd1na2vs0mg"},{"bike_id":"ab53b951-aff7-4bdc-8ea8-30479f649676","system_id":"levelo_inurba_marseille","lat":43.301939,"lon":5.366286,"is_reserved":false,"is_disabled":false,"rental_uris":{"android":"levelo://app?vid=ab53b951-aff7-4bdc-8ea8-30479f649676","ios":"levelo://app?vid=ab53b951-aff7-4bdc-8ea8-30479f649676"},"vehicle_type_id":"4","last_reported":1712160511,"current_range_meters":7600,"station_id":"ce4bgrh2rcd13ifvqc8g","pricing_plan_id":"cebpf4jnsgd1na2vs0mg"},{"bike_id":"0aae7a6d-4237-47f0-ae30-c8b0368546fb","system_id":"levelo_inurba_marseille","lat":43.29573,"lon":5.367355,"is_reserved":false,"is_disabled":false,"rental_uris":{"android":"levelo://app?vid=0aae7a6d-4237-47f0-ae30-c8b0368546fb","ios":"levelo://app?vid=0aae7a6d-4237-47f0-ae30-c8b0368546fb"},"vehicle_type_id":"4","last_reported":1712160511,"current_range_meters":16400,"station_id":"ce4bgph2rcd13ifvqc2g","pricing_plan_id":"cebpf4jnsgd1na2vs0mg"},{"bike_id":"71624307-611d-4b13-a512-ad2027d4577c","system_id":"levelo_inurba_marseille","lat":43.29573,"lon":5.367355,"is_reserved":false,"is_disabled":false,"rental_uris":{"android":"levelo://app?vid=71624307-611d-4b13-a512-ad2027d4577c","ios":"levelo://app?vid=71624307-611d-4b13-a512-ad2027d4577c"},"vehicle_type_id":"4","last_reported":1712160511,"current_range_meters":25200,"station_id":"ce4bgph2rcd13ifvqc2g","pricing_plan_id":"cebpf4jnsgd1na2vs0mg"},{"bike_id":"382602c8-acf9-4297-89fc-3a2d2656de37","system_id":"levelo_inurba_marseille","lat":43.29563,"lon":5.36518,"is_reserved":false,"is_disabled":false,"rental_uris":{"android":"levelo://app?vid=382602c8-acf9-4297-89fc-3a2d2656de37","ios":"levelo://app?vid=382602c8-acf9-4297-89fc-3a2d2656de37"},"vehicle_type_id":"4","last_reported":1712160511,"current_range_meters":15200,"station_id":"","pricing_plan_id":"cebpf4jnsgd1na2vs0mg"},{"bike_id":"83aad779-92ef-4ea4-8983-243f6fa4bc2f","system_id":"levelo_inurba_marseille","lat":43.29703,"lon":5.37679,"is_reserved":false,"is_disabled":false,"rental_uris":{"android":"levelo://app?vid=83aad779-92ef-4ea4-8983-243f6fa4bc2f","ios":"levelo://app?vid=83aad779-92ef-4ea4-8983-243f6fa4bc2f"},"vehicle_type_id":"4","last_reported":1712160511,"current_range_meters":13200,"station_id":"ce4bgl92rcd13ifvqbq0","pricing_plan_id":"cebpf4jnsgd1na2vs0mg"},{"bike_id":"4bc4ea82-5882-49c0-908e-dc463a5981a4","system_id":"levelo_inurba_marseille","lat":43.309583,"lon":5.390383,"is_reserved":false,"is_disabled":false,"rental_uris":{"android":"levelo://app?vid=4bc4ea82-5882-49c0-908e-dc463a5981a4","ios":"levelo://app?vid=4bc4ea82-5882-49c0-908e-dc463a5981a4"},"vehicle_type_id":"4","last_reported":1712160511,"current_range_meters":0,"station_id":"ce4bgup2rcd13ifvqco0","pricing_plan_id":"cebpf4jnsgd1na2vs0mg"},{"bike_id":"501794ed-c58b-4f79-b1e9-5bf67129ef99","system_id":"levelo_inurba_marseille","lat":43.29895,"lon":5.38149,"is_reserved":false,"is_disabled":false,"rental_uris":{"android":"levelo://app?vid=501794ed-c58b-4f79-b1e9-5bf67129ef99","ios":"levelo://app?vid=501794ed-c58b-4f79-b1e9-5bf67129ef99"},"vehicle_type_id":"4","last_reported":1712160511,"current_range_meters":8800,"station_id":"ce4bh0h2rcd13ifvqd40","pricing_plan_id":"cebpf4jnsgd1na2vs0mg"},{"bike_id":"7c599bbb-e1e3-46f2-8293-3261a453d88a","system_id":"levelo_inurba_marseille","lat":43.31742,"lon":5.39007,"is_reserved":false,"is_disabled":false,"rental_uris":{"android":"levelo://app?vid=7c599bbb-e1e3-46f2-8293-3261a453d88a","ios":"levelo://app?vid=7c599bbb-e1e3-46f2-8293-3261a453d88a"},"vehicle_type_id":"4","last_reported":1712160511,"current_range_meters":1600,"station_id":"ce4bhqp2rcd13ifvqhng","pricing_plan_id":"cebpf4jnsgd1na2vs0mg"},{"bike_id":"3e436348-e689-4f6e-8776-03ec33544270","system_id":"levelo_inurba_marseille","lat":43.317557,"lon":5.390173,"is_reserved":false,"is_disabled":false,"rental_uris":{"android":"levelo://app?vid=3e436348-e689-4f6e-8776-03ec33544270","ios":"levelo://app?vid=3e436348-e689-4f6e-8776-03ec33544270"},"vehicle_type_id":"4","last_reported":1712160511,"current_range_meters":24800,"station_id":"ce4bhqp2rcd13ifvqhng","pricing_plan_id":"cebpf4jnsgd1na2vs0mg"},{"bike_id":"981ecbda-8223-4d3f-8a06-12785a976ebb","system_id":"levelo_inurba_marseille","lat":43.317557,"lon":5.390173,"is_reserved":false,"is_disabled":false,"rental_uris":{"android":"levelo://app?vid=981ecbda-8223-4d3f-8a06-12785a976ebb","ios":"levelo://app?vid=981ecbda-8223-4d3f-8a06-12785a976ebb"},"vehicle_type_id":"4","last_reported":1712160511,"current_range_meters":0,"station_id":"ce4bhqp2rcd13ifvqhng","pricing_plan_id":"cebpf4jnsgd1na2vs0mg"},{"bike_id":"311c5eec-aa43-4974-87bd-f8d13047b375","system_id":"levelo_inurba_marseille","lat":43.317557,"lon":5.390173,"is_reserved":false,"is_disabled":false,"rental_uris":{"android":"levelo://app?vid=311c5eec-aa43-4974-87bd-f8d13047b375","ios":"levelo://app?vid=311c5eec-aa43-4974-87bd-f8d13047b375"},"vehicle_type_id":"4","last_reported":1712160511,"current_range_meters":6400,"station_id":"ce4bhqp2rcd13ifvqhng","pricing_plan_id":"cebpf4jnsgd1na2vs0mg"},{"bike_id":"d7259eb1-daad-48fc-8a74-4078b2d81c45","system_id":"levelo_inurba_marseille","lat":43.317557,"lon":5.390173,"is_reserved":false,"is_disabled":false,"rental_uris":{"android":"levelo://app?vid=d7259eb1-daad-48fc-8a74-4078b2d81c45","ios":"levelo://app?vid=d7259eb1-daad-48fc-8a74-4078b2d81c45"},"vehicle_type_id":"4","last_reported":1712160511,"current_range_meters":28000,"station_id":"ce4bhqp2rcd13ifvqhng","pricing_plan_id":"cebpf4jnsgd1na2vs0mg"},{"bike_id":"e9c9d0ab-16e3-4a62-85f5-b95b95b81749","system_id":"levelo_inurba_marseille","lat":43.317557,"lon":5.390173,"is_reserved":false,"is_disabled":false,"rental_uris":{"android":"levelo://app?vid=e9c9d0ab-16e3-4a62-85f5-b95b95b81749","ios":"levelo://app?vid=e9c9d0ab-16e3-4a62-85f5-b95b95b81749"},"vehicle_type_id":"4","last_reported":1712160511,"current_range_meters":2800,"station_id":"ce4bhqp2rcd13ifvqhng","pricing_plan_id":"cebpf4jnsgd1na2vs0mg"},{"bike_id":"78de3b95-47e6-4ca8-90e4-8d755b7be4e8","system_id":"levelo_inurba_marseille","lat":43.317566,"lon":5.390241,"is_reserved":false,"is_disabled":false,"rental_uris":{"android":"levelo://app?vid=78de3b95-47e6-4ca8-90e4-8d755b7be4e8","ios":"levelo://app?vid=78de3b95-47e6-4ca8-90e4-8d755b7be4e8"},"vehicle_type_id":"4","last_reported":1712160511,"current_range_meters":27600,"station_id":"ce4bhqp2rcd13ifvqhng","pricing_plan_id":"cebpf4jnsgd1na2vs0mg"},{"bike_id":"65007f04-8707-4d7b-a2eb-97118f58ea02","system_id":"levelo_inurba_marseille","lat":43.31756,"lon":5.39026,"is_reserved":false,"is_disabled":false,"rental_uris":{"android":"levelo://app?vid=65007f04-8707-4d7b-a2eb-97118f58ea02","ios":"levelo://app?vid=65007f04-8707-4d7b-a2eb-97118f58ea02"},"vehicle_type_id":"4","last_reported":1712160511,"current_range_meters":1200,"station_id":"ce4bhqp2rcd13ifvqhng","pricing_plan_id":"cebpf4jnsgd1na2vs0mg"},{"bike_id":"6774b486-b9e0-45cf-8ff1-929b4f15721d","system_id":"levelo_inurba_marseille","lat":43.30425,"lon":5.38832,"is_reserved":false,"is_disabled":false,"rental_uris":{"android":"levelo://app?vid=6774b486-b9e0-45cf-8ff1-929b4f15721d","ios":"levelo://app?vid=6774b486-b9e0-45cf-8ff1-929b4f15721d"},"vehicle_type_id":"4","last_reported":1712160511,"current_range_meters":6400,"station_id":"ce4bgk12rcd13ifvqbi0","pricing_plan_id":"cebpf4jnsgd1na2vs0mg"},{"bike_id":"05778160-c888-4970-8705-fb5c5b25683b","system_id":"levelo_inurba_marseille","lat":43.29545,"lon":5.37376,"is_reserved":false,"is_disabled":false,"rental_uris":{"android":"levelo://app?vid=05778160-c888-4970-8705-fb5c5b25683b","ios":"levelo://app?vid=05778160-c888-4970-8705-fb5c5b25683b"},"vehicle_type_id":"4","last_reported":1712160511,"current_range_meters":18800,"station_id":"","pricing_plan_id":"cebpf4jnsgd1na2vs0mg"},{"bike_id":"8c63c39b-446f-426d-b9ce-ede460a86db5","system_id":"levelo_inurba_marseille","lat":43.295748,"lon":5.37522,"is_reserved":false,"is_disabled":false,"rental_uris":{"android":"levelo://app?vid=8c63c39b-446f-426d-b9ce-ede460a86db5","ios":"levelo://app?vid=8c63c39b-446f-426d-b9ce-ede460a86db5"},"vehicle_type_id":"4","last_reported":1712160511,"current_range_meters":11200,"station_id":"ce4bgh92rcd13ifvqb50","pricing_plan_id":"cebpf4jnsgd1na2vs0mg"},{"bike_id":"3363c613-7ab5-424e-9f6b-0bcb460df766","system_id":"levelo_inurba_marseille","lat":43.29575,"lon":5.37525,"is_reserved":false,"is_disabled":false,"rental_uris":{"android":"levelo://app?vid=3363c613-7ab5-424e-9f6b-0bcb460df766","ios":"levelo://app?vid=3363c613-7ab5-424e-9f6b-0bcb460df766"},"vehicle_type_id":"4","last_reported":1712160511,"current_range_meters":2400,"station_id":"ce4bgh92rcd13ifvqb50","pricing_plan_id":"cebpf4jnsgd1na2vs0mg"},{"bike_id":"063d7971-47ef-4324-9e7e-afc9400fdb09","system_id":"levelo_inurba_marseille","lat":43.29568,"lon":5.37498,"is_reserved":false,"is_disabled":false,"rental_uris":{"android":"levelo://app?vid=063d7971-47ef-4324-9e7e-afc9400fdb09","ios":"levelo://app?vid=063d7971-47ef-4324-9e7e-afc9400fdb09"},"vehicle_type_id":"4","last_reported":1712160511,"current_range_meters":0,"station_id":"ce4bgh92rcd13ifvqb50","pricing_plan_id":"cebpf4jnsgd1na2vs0mg"},{"bike_id":"eadea4bc-d82e-45e4-badc-aabbebaf9cea","system_id":"levelo_inurba_marseille","lat":43.29529,"lon":5.385581,"is_reserved":false,"is_disabled":false,"rental_uris":{"android":"levelo://app?vid=eadea4bc-d82e-45e4-badc-aabbebaf9cea","ios":"levelo://app?vid=eadea4bc-d82e-45e4-badc-aabbebaf9cea"},"vehicle_type_id":"4","last_reported":1712160511,"current_range_meters":16400,"station_id":"ce4bgih2rcd13ifvqba0","pricing_plan_id":"cebpf4jnsgd1na2vs0mg"},{"bike_id":"f8d84bae-0db8-46ad-8d6b-86922006fee3","system_id":"levelo_inurba_marseille","lat":43.298037,"lon":5.381066,"is_reserved":false,"is_disabled":false,"rental_uris":{"android":"levelo://app?vid=f8d84bae-0db8-46ad-8d6b-86922006fee3","ios":"levelo://app?vid=f8d84bae-0db8-46ad-8d6b-86922006fee3"},"vehicle_type_id":"4","last_reported":1712160511,"current_range_meters":0,"station_id":"ce4bgip2rcd13ifvqbb0","pricing_plan_id":"cebpf4jnsgd1na2vs0mg"},{"bike_id":"4fa6ec5d-2905-41a9-974a-860d035a877d","system_id":"levelo_inurba_marseille","lat":43.29545,"lon":5.375,"is_reserved":false,"is_disabled":false,"rental_uris":{"android":"levelo://app?vid=4fa6ec5d-2905-41a9-974a-860d035a877d","ios":"levelo://app?vid=4fa6ec5d-2905-41a9-974a-860d035a877d"},"vehicle_type_id":"4","last_reported":1712160511,"current_range_meters":4000,"station_id":"ce4bgkp2rcd13ifvqbmg","pricing_plan_id":"cebpf4jnsgd1na2vs0mg"},{"bike_id":"e93abfb2-cbd3-49d3-a14c-72cf833d34c8","system_id":"levelo_inurba_marseille","lat":43.29534,"lon":5.37502,"is_reserved":false,"is_disabled":false,"rental_uris":{"android":"levelo://app?vid=e93abfb2-cbd3-49d3-a14c-72cf833d34c8","ios":"levelo://app?vid=e93abfb2-cbd3-49d3-a14c-72cf833d34c8"},"vehicle_type_id":"4","last_reported":1712160511,"current_range_meters":17200,"station_id":"ce4bgkp2rcd13ifvqbmg","pricing_plan_id":"cebpf4jnsgd1na2vs0mg"},{"bike_id":"d6c91bb0-6982-4d91-baec-a3db68c071ef","system_id":"levelo_inurba_marseille","lat":43.29977,"lon":5.38482,"is_reserved":false,"is_disabled":false,"rental_uris":{"android":"levelo://app?vid=d6c91bb0-6982-4d91-baec-a3db68c071ef","ios":"levelo://app?vid=d6c91bb0-6982-4d91-baec-a3db68c071ef"},"vehicle_type_id":"4","last_reported":1712160511,"current_range_meters":0,"station_id":"ce4bgj92rcd13ifvqbd0","pricing_plan_id":"cebpf4jnsgd1na2vs0mg"},{"bike_id":"a6e40009-960c-4c7c-ad07-7c41c8acc3b8","system_id":"levelo_inurba_marseille","lat":43.299717,"lon":5.384845,"is_reserved":false,"is_disabled":false,"rental_uris":{"android":"levelo://app?vid=a6e40009-960c-4c7c-ad07-7c41c8acc3b8","ios":"levelo://app?vid=a6e40009-960c-4c7c-ad07-7c41c8acc3b8"},"vehicle_type_id":"4","last_reported":1712160511,"current_range_meters":0,"station_id":"ce4bgj92rcd13ifvqbd0","pricing_plan_id":"cebpf4jnsgd1na2vs0mg"},{"bike_id":"fbe0236c-7b62-4dcb-8315-eecc93a38e81","system_id":"levelo_inurba_marseille","lat":43.299717,"lon":5.384845,"is_reserved":false,"is_disabled":false,"rental_uris":{"android":"levelo://app?vid=fbe0236c-7b62-4dcb-8315-eecc93a38e81","ios":"levelo://app?vid=fbe0236c-7b62-4dcb-8315-eecc93a38e81"},"vehicle_type_id":"4","last_reported":1712160511,"current_range_meters":19200,"station_id":"ce4bgj92rcd13ifvqbd0","pricing_plan_id":"cebpf4jnsgd1na2vs0mg"},{"bike_id":"5be9ef42-4051-4dbe-b336-544d35c25bc9","system_id":"levelo_inurba_marseille","lat":43.299724,"lon":5.384848,"is_reserved":false,"is_disabled":false,"rental_uris":{"android":"levelo://app?vid=5be9ef42-4051-4dbe-b336-544d35c25bc9","ios":"levelo://app?vid=5be9ef42-4051-4dbe-b336-544d35c25bc9"},"vehicle_type_id":"4","last_reported":1712160511,"current_range_meters":400,"station_id":"ce4bgj92rcd13ifvqbd0","pricing_plan_id":"cebpf4jnsgd1na2vs0mg"},{"bike_id":"5632e113-8b5b-4e0a-9e95-2bc238d37f93","system_id":"levelo_inurba_marseille","lat":43.299717,"lon":5.384845,"is_reserved":false,"is_disabled":false,"rental_uris":{"android":"levelo://app?vid=5632e113-8b5b-4e0a-9e95-2bc238d37f93","ios":"levelo://app?vid=5632e113-8b5b-4e0a-9e95-2bc238d37f93"},"vehicle_type_id":"4","last_reported":1712160511,"current_range_meters":0,"station_id":"ce4bgj92rcd13ifvqbd0","pricing_plan_id":"cebpf4jnsgd1na2vs0mg"},{"bike_id":"b7fc7207-7055-4065-b4bb-f09599979dfe","system_id":"levelo_inurba_marseille","lat":43.299724,"lon":5.384848,"is_reserved":false,"is_disabled":false,"rental_uris":{"android":"levelo://app?vid=b7fc7207-7055-4065-b4bb-f09599979dfe","ios":"levelo://app?vid=b7fc7207-7055-4065-b4bb-f09599979dfe"},"vehicle_type_id":"4","last_reported":1712160511,"current_range_meters":1200,"station_id":"ce4bgj92rcd13ifvqbd0","pricing_plan_id":"cebpf4jnsgd1na2vs0mg"},{"bike_id":"4fe1ab85-aa39-403f-882d-1cc1a212049d","system_id":"levelo_inurba_marseille","lat":43.299717,"lon":5.384845,"is_reserved":false,"is_disabled":false,"rental_uris":{"android":"levelo://app?vid=4fe1ab85-aa39-403f-882d-1cc1a212049d","ios":"levelo://app?vid=4fe1ab85-aa39-403f-882d-1cc1a212049d"},"vehicle_type_id":"4","last_reported":1712160511,"current_range_meters":8800,"station_id":"ce4bgj92rcd13ifvqbd0","pricing_plan_id":"cebpf4jnsgd1na2vs0mg"},{"bike_id":"c84fdbf4-35e5-4171-90f8-08b555274029","system_id":"levelo_inurba_marseille","lat":43.299717,"lon":5.384845,"is_reserved":false,"is_disabled":false,"rental_uris":{"android":"levelo://app?vid=c84fdbf4-35e5-4171-90f8-08b555274029","ios":"levelo://app?vid=c84fdbf4-35e5-4171-90f8-08b555274029"},"vehicle_type_id":"4","last_reported":1712160511,"current_range_meters":8000,"station_id":"ce4bgj92rcd13ifvqbd0","pricing_plan_id":"cebpf4jnsgd1na2vs0mg"},{"bike_id":"d259a20f-093c-42b5-ad76-0b59024375a4","system_id":"levelo_inurba_marseille","lat":43.299717,"lon":5.384845,"is_reserved":false,"is_disabled":false,"rental_uris":{"android":"levelo://app?vid=d259a20f-093c-42b5-ad76-0b59024375a4","ios":"levelo://app?vid=d259a20f-093c-42b5-ad76-0b59024375a4"},"vehicle_type_id":"4","last_reported":1712160511,"current_range_meters":0,"station_id":"ce4bgj92rcd13ifvqbd0","pricing_plan_id":"cebpf4jnsgd1na2vs0mg"},{"bike_id":"7aa86dfd-09e3-427c-831f-e9205e6e6210","system_id":"levelo_inurba_marseille","lat":43.299724,"lon":5.384848,"is_reserved":false,"is_disabled":false,"rental_uris":{"android":"levelo://app?vid=7aa86dfd-09e3-427c-831f-e9205e6e6210","ios":"levelo://app?vid=7aa86dfd-09e3-427c-831f-e9205e6e6210"},"vehicle_type_id":"4","last_reported":1712160511,"current_range_meters":1200,"station_id":"ce4bgj92rcd13ifvqbd0","pricing_plan_id":"cebpf4jnsgd1na2vs0mg"},{"bike_id":"5ba6cb42-a870-4663-8175-57824b404c71","system_id":"levelo_inurba_marseille","lat":43.299717,"lon":5.384845,"is_reserved":false,"is_disabled":false,"rental_uris":{"android":"levelo://app?vid=5ba6cb42-a870-4663-8175-57824b404c71","ios":"levelo://app?vid=5ba6cb42-a870-4663-8175-57824b404c71"},"vehicle_type_id":"4","last_reported":1712160511,"current_range_meters":800,"station_id":"ce4bgj92rcd13ifvqbd0","pricing_plan_id":"cebpf4jnsgd1na2vs0mg"},{"bike_id":"d7ae93fe-80d9-4b06-b801-b5f1757af4b2","system_id":"levelo_inurba_marseille","lat":43.32357,"lon":5.38878,"is_reserved":false,"is_disabled":false,"rental_uris":{"android":"levelo://app?vid=d7ae93fe-80d9-4b06-b801-b5f1757af4b2","ios":"levelo://app?vid=d7ae93fe-80d9-4b06-b801-b5f1757af4b2"},"vehicle_type_id":"4","last_reported":1712160511,"current_range_meters":4800,"station_id":"ce4bhqp2rcd13ifvqhog","pricing_plan_id":"cebpf4jnsgd1na2vs0mg"},{"bike_id":"eb32ceb2-da9c-416b-b73e-26be742f1e74","system_id":"levelo_inurba_marseille","lat":43.32358,"lon":5.38882,"is_reserved":false,"is_disabled":false,"rental_uris":{"android":"levelo://app?vid=eb32ceb2-da9c-416b-b73e-26be742f1e74","ios":"levelo://app?vid=eb32ceb2-da9c-416b-b73e-26be742f1e74"},"vehicle_type_id":"4","last_reported":1712160511,"current_range_meters":0,"station_id":"ce4bhqp2rcd13ifvqhog","pricing_plan_id":"cebpf4jnsgd1na2vs0mg"},{"bike_id":"907dbd5d-c21c-4a69-9ccc-cacb9df34ad3","system_id":"levelo_inurba_marseille","lat":43.32364,"lon":5.38877,"is_reserved":false,"is_disabled":false,"rental_uris":{"android":"levelo://app?vid=907dbd5d-c21c-4a69-9ccc-cacb9df34ad3","ios":"levelo://app?vid=907dbd5d-c21c-4a69-9ccc-cacb9df34ad3"},"vehicle_type_id":"4","last_reported":1712160511,"current_range_meters":0,"station_id":"ce4bhqp2rcd13ifvqhog","pricing_plan_id":"cebpf4jnsgd1na2vs0mg"},{"bike_id":"98875af4-dcb3-4d03-8aa4-5aa5cbd117b1","system_id":"levelo_inurba_marseille","lat":43.32362,"lon":5.38881,"is_reserved":false,"is_disabled":false,"rental_uris":{"android":"levelo://app?vid=98875af4-dcb3-4d03-8aa4-5aa5cbd117b1","ios":"levelo://app?vid=98875af4-dcb3-4d03-8aa4-5aa5cbd117b1"},"vehicle_type_id":"4","last_reported":1712160511,"current_range_meters":800,"station_id":"ce4bhqp2rcd13ifvqhog","pricing_plan_id":"cebpf4jnsgd1na2vs0mg"},{"bike_id":"0f6087a5-3ec0-43d6-a39c-6e7fe18c6484","system_id":"levelo_inurba_marseille","lat":43.323614,"lon":5.388816,"is_reserved":false,"is_disabled":false,"rental_uris":{"android":"levelo://app?vid=0f6087a5-3ec0-43d6-a39c-6e7fe18c6484","ios":"levelo://app?vid=0f6087a5-3ec0-43d6-a39c-6e7fe18c6484"},"vehicle_type_id":"4","last_reported":1712160511,"current_range_meters":24000,"station_id":"ce4bhqp2rcd13ifvqhog","pricing_plan_id":"cebpf4jnsgd1na2vs0mg"},{"bike_id":"fc3c8e27-f965-4134-8290-fbd1bdba132c","system_id":"levelo_inurba_marseille","lat":43.32361,"lon":5.38883,"is_reserved":false,"is_disabled":false,"rental_uris":{"android":"levelo://app?vid=fc3c8e27-f965-4134-8290-fbd1bdba132c","ios":"levelo://app?vid=fc3c8e27-f965-4134-8290-fbd1bdba132c"},"vehicle_type_id":"4","last_reported":1712160511,"current_range_meters":1200,"station_id":"ce4bhqp2rcd13ifvqhog","pricing_plan_id":"cebpf4jnsgd1na2vs0mg"},{"bike_id":"37bdf287-7513-4e1d-9a4c-3371de71fe89","system_id":"levelo_inurba_marseille","lat":43.323646,"lon":5.388844,"is_reserved":false,"is_disabled":false,"rental_uris":{"android":"levelo://app?vid=37bdf287-7513-4e1d-9a4c-3371de71fe89","ios":"levelo://app?vid=37bdf287-7513-4e1d-9a4c-3371de71fe89"},"vehicle_type_id":"4","last_reported":1712160511,"current_range_meters":28400,"station_id":"ce4bhqp2rcd13ifvqhog","pricing_plan_id":"cebpf4jnsgd1na2vs0mg"},{"bike_id":"c841a719-af38-4f16-8c6e-09f44bfdc5ca","system_id":"levelo_inurba_marseille","lat":43.323663,"lon":5.388846,"is_reserved":false,"is_disabled":false,"rental_uris":{"android":"levelo://app?vid=c841a719-af38-4f16-8c6e-09f44bfdc5ca","ios":"levelo://app?vid=c841a719-af38-4f16-8c6e-09f44bfdc5ca"},"vehicle_type_id":"4","last_reported":1712160511,"current_range_meters":11200,"station_id":"ce4bhqp2rcd13ifvqhog","pricing_plan_id":"cebpf4jnsgd1na2vs0mg"},{"bike_id":"dda67074-3a85-4af3-a4e9-cd49dcacb611","system_id":"levelo_inurba_marseille","lat":43.32371,"lon":5.38883,"is_reserved":false,"is_disabled":false,"rental_uris":{"android":"levelo://app?vid=dda67074-3a85-4af3-a4e9-cd49dcacb611","ios":"levelo://app?vid=dda67074-3a85-4af3-a4e9-cd49dcacb611"},"vehicle_type_id":"4","last_reported":1712160511,"current_range_meters":4800,"station_id":"ce4bhqp2rcd13ifvqhog","pricing_plan_id":"cebpf4jnsgd1na2vs0mg"},{"bike_id":"6d6a17d8-9928-4469-a29c-08171cd0fabc","system_id":"levelo_inurba_marseille","lat":43.32367,"lon":5.388836,"is_reserved":false,"is_disabled":false,"rental_uris":{"android":"levelo://app?vid=6d6a17d8-9928-4469-a29c-08171cd0fabc","ios":"levelo://app?vid=6d6a17d8-9928-4469-a29c-08171cd0fabc"},"vehicle_type_id":"4","last_reported":1712160511,"current_range_meters":0,"station_id":"ce4bhqp2rcd13ifvqhog","pricing_plan_id":"cebpf4jnsgd1na2vs0mg"},{"bike_id":"6f5e61ef-d188-4f5c-b014-2000658adf01","system_id":"levelo_inurba_marseille","lat":43.32367,"lon":5.388836,"is_reserved":false,"is_disabled":false,"rental_uris":{"android":"levelo://app?vid=6f5e61ef-d188-4f5c-b014-2000658adf01","ios":"levelo://app?vid=6f5e61ef-d188-4f5c-b014-2000658adf01"},"vehicle_type_id":"4","last_reported":1712160511,"current_range_meters":24000,"station_id":"ce4bhqp2rcd13ifvqhog","pricing_plan_id":"cebpf4jnsgd1na2vs0mg"},{"bike_id":"cdfe5023-0e68-4329-bb84-dff95a6dd74b","system_id":"levelo_inurba_marseille","lat":43.323587,"lon":5.389,"is_reserved":false,"is_disabled":false,"rental_uris":{"android":"levelo://app?vid=cdfe5023-0e68-4329-bb84-dff95a6dd74b","ios":"levelo://app?vid=cdfe5023-0e68-4329-bb84-dff95a6dd74b"},"vehicle_type_id":"4","last_reported":1712160511,"current_range_meters":0,"station_id":"ce4bhqp2rcd13ifvqhog","pricing_plan_id":"cebpf4jnsgd1na2vs0mg"},{"bike_id":"a6a907d3-639d-4efa-a47f-81e8e16119d9","system_id":"levelo_inurba_marseille","lat":43.296223,"lon":5.381357,"is_reserved":false,"is_disabled":false,"rental_uris":{"android":"levelo://app?vid=a6a907d3-639d-4efa-a47f-81e8e16119d9","ios":"levelo://app?vid=a6a907d3-639d-4efa-a47f-81e8e16119d9"},"vehicle_type_id":"4","last_reported":1712160511,"current_range_meters":0,"station_id":"ce4bgl12rcd13ifvqbo0","pricing_plan_id":"cebpf4jnsgd1na2vs0mg"},{"bike_id":"a8194db3-3447-434e-821c-5dae2cf9e5ac","system_id":"levelo_inurba_marseille","lat":43.29606,"lon":5.38101,"is_reserved":false,"is_disabled":false,"rental_uris":{"android":"levelo://app?vid=a8194db3-3447-434e-821c-5dae2cf9e5ac","ios":"levelo://app?vid=a8194db3-3447-434e-821c-5dae2cf9e5ac"},"vehicle_type_id":"4","last_reported":1712160511,"current_range_meters":12800,"station_id":"ce4bgl12rcd13ifvqbo0","pricing_plan_id":"cebpf4jnsgd1na2vs0mg"},{"bike_id":"5a535c89-dc78-48c3-9f4d-61e10a7a65d4","system_id":"levelo_inurba_marseille","lat":43.296,"lon":5.381071,"is_reserved":false,"is_disabled":false,"rental_uris":{"android":"levelo://app?vid=5a535c89-dc78-48c3-9f4d-61e10a7a65d4","ios":"levelo://app?vid=5a535c89-dc78-48c3-9f4d-61e10a7a65d4"},"vehicle_type_id":"4","last_reported":1712160511,"current_range_meters":2000,"station_id":"","pricing_plan_id":"cebpf4jnsgd1na2vs0mg"},{"bike_id":"d0b07594-0ff3-49fd-9bef-ab47903780da","system_id":"levelo_inurba_marseille","lat":43.293259,"lon":5.371586,"is_reserved":false,"is_disabled":false,"rental_uris":{"android":"levelo://app?vid=d0b07594-0ff3-49fd-9bef-ab47903780da","ios":"levelo://app?vid=d0b07594-0ff3-49fd-9bef-ab47903780da"},"vehicle_type_id":"4","last_reported":1712160511,"current_range_meters":7600,"station_id":"ce4bgh92rcd13ifvqb40","pricing_plan_id":"cebpf4jnsgd1na2vs0mg"},{"bike_id":"830e7dbb-886e-4ca9-90e3-3638b53b759c","system_id":"levelo_inurba_marseille","lat":43.293012,"lon":5.374379,"is_reserved":false,"is_disabled":false,"rental_uris":{"android":"levelo://app?vid=830e7dbb-886e-4ca9-90e3-3638b53b759c","ios":"levelo://app?vid=830e7dbb-886e-4ca9-90e3-3638b53b759c"},"vehicle_type_id":"4","last_reported":1712160511,"current_range_meters":0,"station_id":"ce4bgi12rcd13ifvqb70","pricing_plan_id":"cebpf4jnsgd1na2vs0mg"},{"bike_id":"d59d6874-e470-4bc5-b4aa-cbf968e75f7a","system_id":"levelo_inurba_marseille","lat":43.29303,"lon":5.37464,"is_reserved":false,"is_disabled":false,"rental_uris":{"android":"levelo://app?vid=d59d6874-e470-4bc5-b4aa-cbf968e75f7a","ios":"levelo://app?vid=d59d6874-e470-4bc5-b4aa-cbf968e75f7a"},"vehicle_type_id":"4","last_reported":1712160511,"current_range_meters":10000,"station_id":"ce4bgi12rcd13ifvqb70","pricing_plan_id":"cebpf4jnsgd1na2vs0mg"},{"bike_id":"ed44c445-0829-4fcc-93b6-037280f8842a","system_id":"levelo_inurba_marseille","lat":43.305994,"lon":5.393687,"is_reserved":false,"is_disabled":false,"rental_uris":{"android":"levelo://app?vid=ed44c445-0829-4fcc-93b6-037280f8842a","ios":"levelo://app?vid=ed44c445-0829-4fcc-93b6-037280f8842a"},"vehicle_type_id":"4","last_reported":1712160511,"current_range_meters":16400,"station_id":"ce4bh0p2rcd13ifvqd80","pricing_plan_id":"cebpf4jnsgd1na2vs0mg"},{"bike_id":"9d3b05a5-1564-4114-8404-45dea1e0465a","system_id":"levelo_inurba_marseille","lat":43.2936,"lon":5.37835,"is_reserved":false,"is_disabled":false,"rental_uris":{"android":"levelo://app?vid=9d3b05a5-1564-4114-8404-45dea1e0465a","ios":"levelo://app?vid=9d3b05a5-1564-4114-8404-45dea1e0465a"},"vehicle_type_id":"4","last_reported":1712160511,"current_range_meters":4400,"station_id":"ce4bgjh2rcd13ifvqbf0","pricing_plan_id":"cebpf4jnsgd1na2vs0mg"},{"bike_id":"1af99f3c-da31-4def-824f-9e791b77234e","system_id":"levelo_inurba_marseille","lat":43.295713,"lon":5.399639,"is_reserved":false,"is_disabled":false,"rental_uris":{"android":"levelo://app?vid=1af99f3c-da31-4def-824f-9e791b77234e","ios":"levelo://app?vid=1af99f3c-da31-4def-824f-9e791b77234e"},"vehicle_type_id":"4","last_reported":1712160511,"current_range_meters":400,"station_id":"ce4bh312rcd13ifvqdj0","pricing_plan_id":"cebpf4jnsgd1na2vs0mg"},{"bike_id":"c08135a1-e18f-4eda-8335-f1b3c426d11f","system_id":"levelo_inurba_marseille","lat":43.291994,"lon":5.357886,"is_reserved":false,"is_disabled":false,"rental_uris":{"android":"levelo://app?vid=c08135a1-e18f-4eda-8335-f1b3c426d11f","ios":"levelo://app?vid=c08135a1-e18f-4eda-8335-f1b3c426d11f"},"vehicle_type_id":"4","last_reported":1712160511,"current_range_meters":1200,"station_id":"ce4bhb12rcd13ifvqel0","pricing_plan_id":"cebpf4jnsgd1na2vs0mg"},{"bike_id":"f592c56f-595c-4d2d-94e3-56034221c517","system_id":"levelo_inurba_marseille","lat":43.303002,"lon":5.392142,"is_reserved":false,"is_disabled":false,"rental_uris":{"android":"levelo://app?vid=f592c56f-595c-4d2d-94e3-56034221c517","ios":"levelo://app?vid=f592c56f-595c-4d2d-94e3-56034221c517"},"vehicle_type_id":"4","last_reported":1712160511,"current_range_meters":0,"station_id":"ce4bgkh2rcd13ifvqbk0","pricing_plan_id":"cebpf4jnsgd1na2vs0mg"},{"bike_id":"682e8eaa-ac1c-44a0-b854-2ef338e6563c","system_id":"levelo_inurba_marseille","lat":43.305712,"lon":5.365641,"is_reserved":false,"is_disabled":false,"rental_uris":{"android":"levelo://app?vid=682e8eaa-ac1c-44a0-b854-2ef338e6563c","ios":"levelo://app?vid=682e8eaa-ac1c-44a0-b854-2ef338e6563c"},"vehicle_type_id":"4","last_reported":1712160511,"current_range_meters":2000,"station_id":"ce4bgs12rcd13ifvqcag","pricing_plan_id":"cebpf4jnsgd1na2vs0mg"},{"bike_id":"9bdeaee9-f20a-406b-a28d-5f8466b57a8d","system_id":"levelo_inurba_marseille","lat":43.302992,"lon":5.392136,"is_reserved":false,"is_disabled":false,"rental_uris":{"android":"levelo://app?vid=9bdeaee9-f20a-406b-a28d-5f8466b57a8d","ios":"levelo://app?vid=9bdeaee9-f20a-406b-a28d-5f8466b57a8d"},"vehicle_type_id":"4","last_reported":1712160511,"current_range_meters":9600,"station_id":"ce4bgkh2rcd13ifvqbk0","pricing_plan_id":"cebpf4jnsgd1na2vs0mg"},{"bike_id":"0f0185a2-4672-4723-a9cd-634ddf602963","system_id":"levelo_inurba_marseille","lat":43.292748,"lon":5.374686,"is_reserved":false,"is_disabled":false,"rental_uris":{"android":"levelo://app?vid=0f0185a2-4672-4723-a9cd-634ddf602963","ios":"levelo://app?vid=0f0185a2-4672-4723-a9cd-634ddf602963"},"vehicle_type_id":"4","last_reported":1712160511,"current_range_meters":0,"station_id":"ce4bgi12rcd13ifvqb70","pricing_plan_id":"cebpf4jnsgd1na2vs0mg"},{"bike_id":"c06714a1-8b53-4541-b177-abe473343fb7","system_id":"levelo_inurba_marseille","lat":43.29366,"lon":5.3785,"is_reserved":false,"is_disabled":false,"rental_uris":{"android":"levelo://app?vid=c06714a1-8b53-4541-b177-abe473343fb7","ios":"levelo://app?vid=c06714a1-8b53-4541-b177-abe473343fb7"},"vehicle_type_id":"4","last_reported":1712160511,"current_range_meters":0,"station_id":"ce4bgjh2rcd13ifvqbf0","pricing_plan_id":"cebpf4jnsgd1na2vs0mg"},{"bike_id":"8dbfabd5-de28-4ad8-aec1-a43480abb034","system_id":"levelo_inurba_marseille","lat":43.301044,"lon":5.39069,"is_reserved":false,"is_disabled":false,"rental_uris":{"android":"levelo://app?vid=8dbfabd5-de28-4ad8-aec1-a43480abb034","ios":"levelo://app?vid=8dbfabd5-de28-4ad8-aec1-a43480abb034"},"vehicle_type_id":"4","last_reported":1712160511,"current_range_meters":0,"station_id":"ce4bh192rcd13ifvqdb0","pricing_plan_id":"cebpf4jnsgd1na2vs0mg"},{"bike_id":"898ec547-b9c3-48bf-92e5-f9bd2d5f3f3d","system_id":"levelo_inurba_marseille","lat":43.283998,"lon":5.375062,"is_reserved":false,"is_disabled":false,"rental_uris":{"android":"levelo://app?vid=898ec547-b9c3-48bf-92e5-f9bd2d5f3f3d","ios":"levelo://app?vid=898ec547-b9c3-48bf-92e5-f9bd2d5f3f3d"},"vehicle_type_id":"4","last_reported":1712160511,"current_range_meters":0,"station_id":"ce4bh412rcd13ifvqds0","pricing_plan_id":"cebpf4jnsgd1na2vs0mg"},{"bike_id":"b4283f36-086d-4d38-abd4-d13450c82d6f","system_id":"levelo_inurba_marseille","lat":43.293009,"lon":5.374584,"is_reserved":false,"is_disabled":false,"rental_uris":{"android":"levelo://app?vid=b4283f36-086d-4d38-abd4-d13450c82d6f","ios":"levelo://app?vid=b4283f36-086d-4d38-abd4-d13450c82d6f"},"vehicle_type_id":"4","last_reported":1712160511,"current_range_meters":0,"station_id":"ce4bgi12rcd13ifvqb70","pricing_plan_id":"cebpf4jnsgd1na2vs0mg"},{"bike_id":"90947039-3e6d-4f79-a6e7-f9339dbcfeb1","system_id":"levelo_inurba_marseille","lat":43.298764,"lon":5.388973,"is_reserved":false,"is_disabled":false,"rental_uris":{"android":"levelo://app?vid=90947039-3e6d-4f79-a6e7-f9339dbcfeb1","ios":"levelo://app?vid=90947039-3e6d-4f79-a6e7-f9339dbcfeb1"},"vehicle_type_id":"4","last_reported":1712160511,"current_range_meters":0,"station_id":"ce4bh392rcd13ifvqdl0","pricing_plan_id":"cebpf4jnsgd1na2vs0mg"},{"bike_id":"2e173919-b65c-41e8-adf9-0c4cbb622305","system_id":"levelo_inurba_marseille","lat":43.29177,"lon":5.37157,"is_reserved":false,"is_disabled":false,"rental_uris":{"android":"levelo://app?vid=2e173919-b65c-41e8-adf9-0c4cbb622305","ios":"levelo://app?vid=2e173919-b65c-41e8-adf9-0c4cbb622305"},"vehicle_type_id":"4","last_reported":1712160511,"current_range_meters":0,"station_id":"ce4bha92rcd13ifvqeh0","pricing_plan_id":"cebpf4jnsgd1na2vs0mg"},{"bike_id":"28aa9438-7303-444f-8077-de9838e3eb1b","system_id":"levelo_inurba_marseille","lat":43.291671,"lon":5.371575,"is_reserved":false,"is_disabled":false,"rental_uris":{"android":"levelo://app?vid=28aa9438-7303-444f-8077-de9838e3eb1b","ios":"levelo://app?vid=28aa9438-7303-444f-8077-de9838e3eb1b"},"vehicle_type_id":"4","last_reported":1712160511,"current_range_meters":0,"station_id":"ce4bha92rcd13ifvqeh0","pricing_plan_id":"cebpf4jnsgd1na2vs0mg"},{"bike_id":"2540d5a7-434f-4f0a-83bb-7d60dd39b244","system_id":"levelo_inurba_marseille","lat":43.291671,"lon":5.371575,"is_reserved":false,"is_disabled":false,"rental_uris":{"android":"levelo://app?vid=2540d5a7-434f-4f0a-83bb-7d60dd39b244","ios":"levelo://app?vid=2540d5a7-434f-4f0a-83bb-7d60dd39b244"},"vehicle_type_id":"4","last_reported":1712160511,"current_range_meters":0,"station_id":"ce4bha92rcd13ifvqeh0","pricing_plan_id":"cebpf4jnsgd1na2vs0mg"},{"bike_id":"f7b40c4c-f83e-418d-8dc9-785c25952530","system_id":"levelo_inurba_marseille","lat":43.292005,"lon":5.357875,"is_reserved":false,"is_disabled":false,"rental_uris":{"android":"levelo://app?vid=f7b40c4c-f83e-418d-8dc9-785c25952530","ios":"levelo://app?vid=f7b40c4c-f83e-418d-8dc9-785c25952530"},"vehicle_type_id":"4","last_reported":1712160511,"current_range_meters":18400,"station_id":"ce4bhb12rcd13ifvqel0","pricing_plan_id":"cebpf4jnsgd1na2vs0mg"},{"bike_id":"3cbdba4a-7307-4047-8c34-716a00604c6f","system_id":"levelo_inurba_marseille","lat":43.31326,"lon":5.39684,"is_reserved":false,"is_disabled":false,"rental_uris":{"android":"levelo://app?vid=3cbdba4a-7307-4047-8c34-716a00604c6f","ios":"levelo://app?vid=3cbdba4a-7307-4047-8c34-716a00604c6f"},"vehicle_type_id":"4","last_reported":1712160511,"current_range_meters":3200,"station_id":"ce4bgvp2rcd13ifvqcu0","pricing_plan_id":"cebpf4jnsgd1na2vs0mg"},{"bike_id":"dcc2a99a-3928-4826-b5ee-2da5ff86ee7f","system_id":"levelo_inurba_marseille","lat":43.313291,"lon":5.396838,"is_reserved":false,"is_disabled":false,"rental_uris":{"android":"levelo://app?vid=dcc2a99a-3928-4826-b5ee-2da5ff86ee7f","ios":"levelo://app?vid=dcc2a99a-3928-4826-b5ee-2da5ff86ee7f"},"vehicle_type_id":"4","last_reported":1712160511,"current_range_meters":13600,"station_id":"ce4bgvp2rcd13ifvqcu0","pricing_plan_id":"cebpf4jnsgd1na2vs0mg"},{"bike_id":"6b6697f9-596a-4f0f-9158-9bca272952b1","system_id":"levelo_inurba_marseille","lat":43.291994,"lon":5.357886,"is_reserved":false,"is_disabled":false,"rental_uris":{"android":"levelo://app?vid=6b6697f9-596a-4f0f-9158-9bca272952b1","ios":"levelo://app?vid=6b6697f9-596a-4f0f-9158-9bca272952b1"},"vehicle_type_id":"4","last_reported":1712160511,"current_range_meters":8000,"station_id":"ce4bhb12rcd13ifvqel0","pricing_plan_id":"cebpf4jnsgd1na2vs0mg"},{"bike_id":"dd6176d4-4167-43e6-8a26-3ff0ce4e6bad","system_id":"levelo_inurba_marseille","lat":43.309038,"lon":5.396546,"is_reserved":false,"is_disabled":false,"rental_uris":{"android":"levelo://app?vid=dd6176d4-4167-43e6-8a26-3ff0ce4e6bad","ios":"levelo://app?vid=dd6176d4-4167-43e6-8a26-3ff0ce4e6bad"},"vehicle_type_id":"4","last_reported":1712160511,"current_range_meters":14800,"station_id":"ce4bh012rcd13ifvqcv0","pricing_plan_id":"cebpf4jnsgd1na2vs0mg"},{"bike_id":"1b64208b-5d14-4dde-b3f5-d03d18360ec0","system_id":"levelo_inurba_marseille","lat":43.309047,"lon":5.396551,"is_reserved":false,"is_disabled":false,"rental_uris":{"android":"levelo://app?vid=1b64208b-5d14-4dde-b3f5-d03d18360ec0","ios":"levelo://app?vid=1b64208b-5d14-4dde-b3f5-d03d18360ec0"},"vehicle_type_id":"4","last_reported":1712160511,"current_range_meters":8800,"station_id":"ce4bh012rcd13ifvqcv0","pricing_plan_id":"cebpf4jnsgd1na2vs0mg"},{"bike_id":"0f11f7f3-aa32-48b1-a39e-838aba0e1efa","system_id":"levelo_inurba_marseille","lat":43.309047,"lon":5.396551,"is_reserved":false,"is_disabled":false,"rental_uris":{"android":"levelo://app?vid=0f11f7f3-aa32-48b1-a39e-838aba0e1efa","ios":"levelo://app?vid=0f11f7f3-aa32-48b1-a39e-838aba0e1efa"},"vehicle_type_id":"4","last_reported":1712160511,"current_range_meters":10000,"station_id":"ce4bh012rcd13ifvqcv0","pricing_plan_id":"cebpf4jnsgd1na2vs0mg"},{"bike_id":"4f9a63fa-cc40-4b3e-b466-2ce0fb774da2","system_id":"levelo_inurba_marseille","lat":43.29539,"lon":5.38542,"is_reserved":false,"is_disabled":false,"rental_uris":{"android":"levelo://app?vid=4f9a63fa-cc40-4b3e-b466-2ce0fb774da2","ios":"levelo://app?vid=4f9a63fa-cc40-4b3e-b466-2ce0fb774da2"},"vehicle_type_id":"4","last_reported":1712160511,"current_range_meters":0,"station_id":"ce4bgih2rcd13ifvqba0","pricing_plan_id":"cebpf4jnsgd1na2vs0mg"},{"bike_id":"9df94147-81f5-4c49-8ed9-7940539661cb","system_id":"levelo_inurba_marseille","lat":43.29529,"lon":5.385581,"is_reserved":false,"is_disabled":false,"rental_uris":{"android":"levelo://app?vid=9df94147-81f5-4c49-8ed9-7940539661cb","ios":"levelo://app?vid=9df94147-81f5-4c49-8ed9-7940539661cb"},"vehicle_type_id":"4","last_reported":1712160511,"current_range_meters":20400,"station_id":"ce4bgih2rcd13ifvqba0","pricing_plan_id":"cebpf4jnsgd1na2vs0mg"},{"bike_id":"ae84a440-b190-4133-88fa-746a44927244","system_id":"levelo_inurba_marseille","lat":43.29529,"lon":5.385581,"is_reserved":false,"is_disabled":false,"rental_uris":{"android":"levelo://app?vid=ae84a440-b190-4133-88fa-746a44927244","ios":"levelo://app?vid=ae84a440-b190-4133-88fa-746a44927244"},"vehicle_type_id":"4","last_reported":1712160511,"current_range_meters":2000,"station_id":"ce4bgih2rcd13ifvqba0","pricing_plan_id":"cebpf4jnsgd1na2vs0mg"},{"bike_id":"cb02ff99-0daa-4aad-9f6b-6ee00254ee6d","system_id":"levelo_inurba_marseille","lat":43.29529,"lon":5.385581,"is_reserved":false,"is_disabled":false,"rental_uris":{"android":"levelo://app?vid=cb02ff99-0daa-4aad-9f6b-6ee00254ee6d","ios":"levelo://app?vid=cb02ff99-0daa-4aad-9f6b-6ee00254ee6d"},"vehicle_type_id":"4","last_reported":1712160511,"current_range_meters":0,"station_id":"ce4bgih2rcd13ifvqba0","pricing_plan_id":"cebpf4jnsgd1na2vs0mg"},{"bike_id":"5fe917f8-5950-46cc-ae45-aa55fcf979f2","system_id":"levelo_inurba_marseille","lat":43.29529,"lon":5.385581,"is_reserved":false,"is_disabled":false,"rental_uris":{"android":"levelo://app?vid=5fe917f8-5950-46cc-ae45-aa55fcf979f2","ios":"levelo://app?vid=5fe917f8-5950-46cc-ae45-aa55fcf979f2"},"vehicle_type_id":"4","last_reported":1712160511,"current_range_meters":29600,"station_id":"ce4bgih2rcd13ifvqba0","pricing_plan_id":"cebpf4jnsgd1na2vs0mg"},{"bike_id":"97ed580e-205a-4f0c-80e2-bb712eb998da","system_id":"levelo_inurba_marseille","lat":43.29529,"lon":5.385581,"is_reserved":false,"is_disabled":false,"rental_uris":{"android":"levelo://app?vid=97ed580e-205a-4f0c-80e2-bb712eb998da","ios":"levelo://app?vid=97ed580e-205a-4f0c-80e2-bb712eb998da"},"vehicle_type_id":"4","last_reported":1712160511,"current_range_meters":10400,"station_id":"ce4bgih2rcd13ifvqba0","pricing_plan_id":"cebpf4jnsgd1na2vs0mg"},{"bike_id":"72d872e2-8d3a-4196-b47f-d5081e20a4fb","system_id":"levelo_inurba_marseille","lat":43.29529,"lon":5.385581,"is_reserved":false,"is_disabled":false,"rental_uris":{"android":"levelo://app?vid=72d872e2-8d3a-4196-b47f-d5081e20a4fb","ios":"levelo://app?vid=72d872e2-8d3a-4196-b47f-d5081e20a4fb"},"vehicle_type_id":"4","last_reported":1712160511,"current_range_meters":6800,"station_id":"ce4bgih2rcd13ifvqba0","pricing_plan_id":"cebpf4jnsgd1na2vs0mg"},{"bike_id":"19847600-91be-4aa6-afed-a22f487ab76d","system_id":"levelo_inurba_marseille","lat":43.29529,"lon":5.385581,"is_reserved":false,"is_disabled":false,"rental_uris":{"android":"levelo://app?vid=19847600-91be-4aa6-afed-a22f487ab76d","ios":"levelo://app?vid=19847600-91be-4aa6-afed-a22f487ab76d"},"vehicle_type_id":"4","last_reported":1712160511,"current_range_meters":0,"station_id":"ce4bgih2rcd13ifvqba0","pricing_plan_id":"cebpf4jnsgd1na2vs0mg"},{"bike_id":"cef43d1d-6261-4a07-816b-cf429b034bf0","system_id":"levelo_inurba_marseille","lat":43.29529,"lon":5.385581,"is_reserved":false,"is_disabled":false,"rental_uris":{"android":"levelo://app?vid=cef43d1d-6261-4a07-816b-cf429b034bf0","ios":"levelo://app?vid=cef43d1d-6261-4a07-816b-cf429b034bf0"},"vehicle_type_id":"4","last_reported":1712160511,"current_range_meters":3200,"station_id":"ce4bgih2rcd13ifvqba0","pricing_plan_id":"cebpf4jnsgd1na2vs0mg"},{"bike_id":"844085a7-a226-40a8-93ea-c79793c8a9f3","system_id":"levelo_inurba_marseille","lat":43.29529,"lon":5.385581,"is_reserved":false,"is_disabled":false,"rental_uris":{"android":"levelo://app?vid=844085a7-a226-40a8-93ea-c79793c8a9f3","ios":"levelo://app?vid=844085a7-a226-40a8-93ea-c79793c8a9f3"},"vehicle_type_id":"4","last_reported":1712160511,"current_range_meters":16000,"station_id":"ce4bgih2rcd13ifvqba0","pricing_plan_id":"cebpf4jnsgd1na2vs0mg"},{"bike_id":"2e253b54-82a9-4515-bea3-d7ddb076c335","system_id":"levelo_inurba_marseille","lat":43.290779,"lon":5.371482,"is_reserved":false,"is_disabled":false,"rental_uris":{"android":"levelo://app?vid=2e253b54-82a9-4515-bea3-d7ddb076c335","ios":"levelo://app?vid=2e253b54-82a9-4515-bea3-d7ddb076c335"},"vehicle_type_id":"4","last_reported":1712160511,"current_range_meters":16000,"station_id":"ce4bh5p2rcd13ifvqe4g","pricing_plan_id":"cebpf4jnsgd1na2vs0mg"},{"bike_id":"ae290690-7934-41e0-9dda-ff9182760d3c","system_id":"levelo_inurba_marseille","lat":43.299724,"lon":5.371829,"is_reserved":false,"is_disabled":false,"rental_uris":{"android":"levelo://app?vid=ae290690-7934-41e0-9dda-ff9182760d3c","ios":"levelo://app?vid=ae290690-7934-41e0-9dda-ff9182760d3c"},"vehicle_type_id":"4","last_reported":1712160511,"current_range_meters":0,"station_id":"ce4bgr92rcd13ifvqc7g","pricing_plan_id":"cebpf4jnsgd1na2vs0mg"},{"bike_id":"ebcd22b3-e0df-4a68-8c1f-df8df786ff13","system_id":"levelo_inurba_marseille","lat":43.30202,"lon":5.39458,"is_reserved":false,"is_disabled":false,"rental_uris":{"android":"levelo://app?vid=ebcd22b3-e0df-4a68-8c1f-df8df786ff13","ios":"levelo://app?vid=ebcd22b3-e0df-4a68-8c1f-df8df786ff13"},"vehicle_type_id":"4","last_reported":1712160511,"current_range_meters":19600,"station_id":"ce4bh692rcd13ifvqea0","pricing_plan_id":"cebpf4jnsgd1na2vs0mg"},{"bike_id":"2e9addb0-1971-4336-bfbe-bd0bfefdd75c","system_id":"levelo_inurba_marseille","lat":43.290631,"lon":5.359244,"is_reserved":false,"is_disabled":false,"rental_uris":{"android":"levelo://app?vid=2e9addb0-1971-4336-bfbe-bd0bfefdd75c","ios":"levelo://app?vid=2e9addb0-1971-4336-bfbe-bd0bfefdd75c"},"vehicle_type_id":"4","last_reported":1712160511,"current_range_meters":14400,"station_id":"ce4bha92rcd13ifvqeg0","pricing_plan_id":"cebpf4jnsgd1na2vs0mg"},{"bike_id":"f9e9f55d-b3f2-493a-bcd5-b131edc1815a","system_id":"levelo_inurba_marseille","lat":43.294153,"lon":5.386305,"is_reserved":false,"is_disabled":false,"rental_uris":{"android":"levelo://app?vid=f9e9f55d-b3f2-493a-bcd5-b131edc1815a","ios":"levelo://app?vid=f9e9f55d-b3f2-493a-bcd5-b131edc1815a"},"vehicle_type_id":"4","last_reported":1712160511,"current_range_meters":4400,"station_id":"ce4bh2h2rcd13ifvqdh0","pricing_plan_id":"cebpf4jnsgd1na2vs0mg"},{"bike_id":"ba14b6c6-efaf-4ec8-b21e-144e89747092","system_id":"levelo_inurba_marseille","lat":43.29423,"lon":5.38625,"is_reserved":false,"is_disabled":false,"rental_uris":{"android":"levelo://app?vid=ba14b6c6-efaf-4ec8-b21e-144e89747092","ios":"levelo://app?vid=ba14b6c6-efaf-4ec8-b21e-144e89747092"},"vehicle_type_id":"4","last_reported":1712160511,"current_range_meters":0,"station_id":"ce4bh2h2rcd13ifvqdh0","pricing_plan_id":"cebpf4jnsgd1na2vs0mg"},{"bike_id":"8fc017d8-3dbe-4f9a-b9cd-5883fd831ba2","system_id":"levelo_inurba_marseille","lat":43.289184,"lon":5.366408,"is_reserved":false,"is_disabled":false,"rental_uris":{"android":"levelo://app?vid=8fc017d8-3dbe-4f9a-b9cd-5883fd831ba2","ios":"levelo://app?vid=8fc017d8-3dbe-4f9a-b9cd-5883fd831ba2"},"vehicle_type_id":"4","last_reported":1712160511,"current_range_meters":7600,"station_id":"ce4bhap2rcd13ifvqek0","pricing_plan_id":"cebpf4jnsgd1na2vs0mg"},{"bike_id":"48ab8c01-31f6-43f9-ad3c-7132d70348c5","system_id":"levelo_inurba_marseille","lat":43.290327,"lon":5.375711,"is_reserved":false,"is_disabled":false,"rental_uris":{"android":"levelo://app?vid=48ab8c01-31f6-43f9-ad3c-7132d70348c5","ios":"levelo://app?vid=48ab8c01-31f6-43f9-ad3c-7132d70348c5"},"vehicle_type_id":"4","last_reported":1712160511,"current_range_meters":20400,"station_id":"ce4bh692rcd13ifvqe90","pricing_plan_id":"cebpf4jnsgd1na2vs0mg"},{"bike_id":"75294633-ddb8-4aef-85d4-14f0de03422c","system_id":"levelo_inurba_marseille","lat":43.29419,"lon":5.38624,"is_reserved":false,"is_disabled":false,"rental_uris":{"android":"levelo://app?vid=75294633-ddb8-4aef-85d4-14f0de03422c","ios":"levelo://app?vid=75294633-ddb8-4aef-85d4-14f0de03422c"},"vehicle_type_id":"4","last_reported":1712160511,"current_range_meters":0,"station_id":"ce4bh2h2rcd13ifvqdh0","pricing_plan_id":"cebpf4jnsgd1na2vs0mg"},{"bike_id":"384a1c4b-cc67-4aff-bbca-1eac55612ace","system_id":"levelo_inurba_marseille","lat":43.29419,"lon":5.38625,"is_reserved":false,"is_disabled":false,"rental_uris":{"android":"levelo://app?vid=384a1c4b-cc67-4aff-bbca-1eac55612ace","ios":"levelo://app?vid=384a1c4b-cc67-4aff-bbca-1eac55612ace"},"vehicle_type_id":"4","last_reported":1712160511,"current_range_meters":0,"station_id":"ce4bh2h2rcd13ifvqdh0","pricing_plan_id":"cebpf4jnsgd1na2vs0mg"},{"bike_id":"3493d25e-e87b-4057-9bcf-f2f945b76582","system_id":"levelo_inurba_marseille","lat":43.29419,"lon":5.38625,"is_reserved":false,"is_disabled":false,"rental_uris":{"android":"levelo://app?vid=3493d25e-e87b-4057-9bcf-f2f945b76582","ios":"levelo://app?vid=3493d25e-e87b-4057-9bcf-f2f945b76582"},"vehicle_type_id":"4","last_reported":1712160511,"current_range_meters":0,"station_id":"ce4bh2h2rcd13ifvqdh0","pricing_plan_id":"cebpf4jnsgd1na2vs0mg"},{"bike_id":"c13cf45c-115b-4a7c-923e-df5595177965","system_id":"levelo_inurba_marseille","lat":43.29417,"lon":5.38625,"is_reserved":false,"is_disabled":false,"rental_uris":{"android":"levelo://app?vid=c13cf45c-115b-4a7c-923e-df5595177965","ios":"levelo://app?vid=c13cf45c-115b-4a7c-923e-df5595177965"},"vehicle_type_id":"4","last_reported":1712160511,"current_range_meters":24000,"station_id":"ce4bh2h2rcd13ifvqdh0","pricing_plan_id":"cebpf4jnsgd1na2vs0mg"},{"bike_id":"aa436adb-48e3-4c51-98f4-5c0145b0cc6a","system_id":"levelo_inurba_marseille","lat":43.290327,"lon":5.375711,"is_reserved":false,"is_disabled":false,"rental_uris":{"android":"levelo://app?vid=aa436adb-48e3-4c51-98f4-5c0145b0cc6a","ios":"levelo://app?vid=aa436adb-48e3-4c51-98f4-5c0145b0cc6a"},"vehicle_type_id":"4","last_reported":1712160511,"current_range_meters":27600,"station_id":"ce4bh692rcd13ifvqe90","pricing_plan_id":"cebpf4jnsgd1na2vs0mg"},{"bike_id":"490f97e1-3e24-4c40-b2eb-e51ca435ca7c","system_id":"levelo_inurba_marseille","lat":43.29416,"lon":5.38627,"is_reserved":false,"is_disabled":false,"rental_uris":{"android":"levelo://app?vid=490f97e1-3e24-4c40-b2eb-e51ca435ca7c","ios":"levelo://app?vid=490f97e1-3e24-4c40-b2eb-e51ca435ca7c"},"vehicle_type_id":"4","last_reported":1712160511,"current_range_meters":0,"station_id":"ce4bh2h2rcd13ifvqdh0","pricing_plan_id":"cebpf4jnsgd1na2vs0mg"},{"bike_id":"c1135e1b-4f2e-4585-bc25-dec3b382d4e0","system_id":"levelo_inurba_marseille","lat":43.289184,"lon":5.366408,"is_reserved":false,"is_disabled":false,"rental_uris":{"android":"levelo://app?vid=c1135e1b-4f2e-4585-bc25-dec3b382d4e0","ios":"levelo://app?vid=c1135e1b-4f2e-4585-bc25-dec3b382d4e0"},"vehicle_type_id":"4","last_reported":1712160511,"current_range_meters":11200,"station_id":"ce4bhap2rcd13ifvqek0","pricing_plan_id":"cebpf4jnsgd1na2vs0mg"},{"bike_id":"5aa8f0e4-396a-4805-af4b-bee903f4d587","system_id":"levelo_inurba_marseille","lat":43.294147,"lon":5.38628,"is_reserved":false,"is_disabled":false,"rental_uris":{"android":"levelo://app?vid=5aa8f0e4-396a-4805-af4b-bee903f4d587","ios":"levelo://app?vid=5aa8f0e4-396a-4805-af4b-bee903f4d587"},"vehicle_type_id":"4","last_reported":1712160511,"current_range_meters":8400,"station_id":"ce4bh2h2rcd13ifvqdh0","pricing_plan_id":"cebpf4jnsgd1na2vs0mg"},{"bike_id":"57eed3e0-1057-4502-8c3e-d6a7f8ad8c38","system_id":"levelo_inurba_marseille","lat":43.289184,"lon":5.366408,"is_reserved":false,"is_disabled":false,"rental_uris":{"android":"levelo://app?vid=57eed3e0-1057-4502-8c3e-d6a7f8ad8c38","ios":"levelo://app?vid=57eed3e0-1057-4502-8c3e-d6a7f8ad8c38"},"vehicle_type_id":"4","last_reported":1712160511,"current_range_meters":23600,"station_id":"ce4bhap2rcd13ifvqek0","pricing_plan_id":"cebpf4jnsgd1na2vs0mg"},{"bike_id":"77485206-640c-437c-9de9-3ca68c8b319b","system_id":"levelo_inurba_marseille","lat":43.289184,"lon":5.366408,"is_reserved":false,"is_disabled":false,"rental_uris":{"android":"levelo://app?vid=77485206-640c-437c-9de9-3ca68c8b319b","ios":"levelo://app?vid=77485206-640c-437c-9de9-3ca68c8b319b"},"vehicle_type_id":"4","last_reported":1712160511,"current_range_meters":4800,"station_id":"ce4bhap2rcd13ifvqek0","pricing_plan_id":"cebpf4jnsgd1na2vs0mg"},{"bike_id":"587b261e-3ff0-4959-ae40-d8e495f75cda","system_id":"levelo_inurba_marseille","lat":43.28939,"lon":5.36636,"is_reserved":false,"is_disabled":false,"rental_uris":{"android":"levelo://app?vid=587b261e-3ff0-4959-ae40-d8e495f75cda","ios":"levelo://app?vid=587b261e-3ff0-4959-ae40-d8e495f75cda"},"vehicle_type_id":"4","last_reported":1712160511,"current_range_meters":0,"station_id":"ce4bhap2rcd13ifvqek0","pricing_plan_id":"cebpf4jnsgd1na2vs0mg"},{"bike_id":"3b06d53b-bb60-436f-bc3d-6a30a2437f41","system_id":"levelo_inurba_marseille","lat":43.29274,"lon":5.38434,"is_reserved":false,"is_disabled":false,"rental_uris":{"android":"levelo://app?vid=3b06d53b-bb60-436f-bc3d-6a30a2437f41","ios":"levelo://app?vid=3b06d53b-bb60-436f-bc3d-6a30a2437f41"},"vehicle_type_id":"4","last_reported":1712160511,"current_range_meters":20400,"station_id":"","pricing_plan_id":"cebpf4jnsgd1na2vs0mg"},{"bike_id":"786e91db-180d-46dc-a90d-ad56ae4a9313","system_id":"levelo_inurba_marseille","lat":43.292843,"lon":5.384663,"is_reserved":false,"is_disabled":false,"rental_uris":{"android":"levelo://app?vid=786e91db-180d-46dc-a90d-ad56ae4a9313","ios":"levelo://app?vid=786e91db-180d-46dc-a90d-ad56ae4a9313"},"vehicle_type_id":"4","last_reported":1712160511,"current_range_meters":12000,"station_id":"ce4bh692rcd13ifvqea0","pricing_plan_id":"cebpf4jnsgd1na2vs0mg"},{"bike_id":"9d7c8158-7a0b-4ac1-a26c-57c339b78e9f","system_id":"levelo_inurba_marseille","lat":43.29268,"lon":5.38432,"is_reserved":false,"is_disabled":false,"rental_uris":{"android":"levelo://app?vid=9d7c8158-7a0b-4ac1-a26c-57c339b78e9f","ios":"levelo://app?vid=9d7c8158-7a0b-4ac1-a26c-57c339b78e9f"},"vehicle_type_id":"4","last_reported":1712160511,"current_range_meters":21600,"station_id":"ce4bh692rcd13ifvqea0","pricing_plan_id":"cebpf4jnsgd1na2vs0mg"},{"bike_id":"7fe56171-5f09-4817-b6d4-8e9bdef7ac29","system_id":"levelo_inurba_marseille","lat":43.292644,"lon":5.384257,"is_reserved":false,"is_disabled":false,"rental_uris":{"android":"levelo://app?vid=7fe56171-5f09-4817-b6d4-8e9bdef7ac29","ios":"levelo://app?vid=7fe56171-5f09-4817-b6d4-8e9bdef7ac29"},"vehicle_type_id":"4","last_reported":1712160511,"current_range_meters":8800,"station_id":"ce4bh692rcd13ifvqea0","pricing_plan_id":"cebpf4jnsgd1na2vs0mg"},{"bike_id":"36a77c79-63eb-427a-98dc-faae6e340fdd","system_id":"levelo_inurba_marseille","lat":43.292644,"lon":5.384257,"is_reserved":false,"is_disabled":false,"rental_uris":{"android":"levelo://app?vid=36a77c79-63eb-427a-98dc-faae6e340fdd","ios":"levelo://app?vid=36a77c79-63eb-427a-98dc-faae6e340fdd"},"vehicle_type_id":"4","last_reported":1712160511,"current_range_meters":0,"station_id":"ce4bh692rcd13ifvqea0","pricing_plan_id":"cebpf4jnsgd1na2vs0mg"},{"bike_id":"93edc49d-30b8-4ef4-8eb3-2c408626aab2","system_id":"levelo_inurba_marseille","lat":43.292644,"lon":5.384257,"is_reserved":false,"is_disabled":false,"rental_uris":{"android":"levelo://app?vid=93edc49d-30b8-4ef4-8eb3-2c408626aab2","ios":"levelo://app?vid=93edc49d-30b8-4ef4-8eb3-2c408626aab2"},"vehicle_type_id":"4","last_reported":1712160511,"current_range_meters":0,"station_id":"ce4bh692rcd13ifvqea0","pricing_plan_id":"cebpf4jnsgd1na2vs0mg"},{"bike_id":"b3431456-69ea-469a-a2bc-538455bedef7","system_id":"levelo_inurba_marseille","lat":43.29264,"lon":5.38429,"is_reserved":false,"is_disabled":false,"rental_uris":{"android":"levelo://app?vid=b3431456-69ea-469a-a2bc-538455bedef7","ios":"levelo://app?vid=b3431456-69ea-469a-a2bc-538455bedef7"},"vehicle_type_id":"4","last_reported":1712160511,"current_range_meters":24000,"station_id":"ce4bh692rcd13ifvqea0","pricing_plan_id":"cebpf4jnsgd1na2vs0mg"},{"bike_id":"0481aaac-b829-4054-8999-496d578580a0","system_id":"levelo_inurba_marseille","lat":43.29268,"lon":5.3844,"is_reserved":false,"is_disabled":false,"rental_uris":{"android":"levelo://app?vid=0481aaac-b829-4054-8999-496d578580a0","ios":"levelo://app?vid=0481aaac-b829-4054-8999-496d578580a0"},"vehicle_type_id":"4","last_reported":1712160511,"current_range_meters":0,"station_id":"ce4bh692rcd13ifvqea0","pricing_plan_id":"cebpf4jnsgd1na2vs0mg"},{"bike_id":"d8fc6058-e4b0-4d41-9891-407158f17c71","system_id":"levelo_inurba_marseille","lat":43.292644,"lon":5.384257,"is_reserved":false,"is_disabled":false,"rental_uris":{"android":"levelo://app?vid=d8fc6058-e4b0-4d41-9891-407158f17c71","ios":"levelo://app?vid=d8fc6058-e4b0-4d41-9891-407158f17c71"},"vehicle_type_id":"4","last_reported":1712160511,"current_range_meters":30400,"station_id":"ce4bh692rcd13ifvqea0","pricing_plan_id":"cebpf4jnsgd1na2vs0mg"},{"bike_id":"5c027ad7-d879-4940-b742-3c979ecc9f28","system_id":"levelo_inurba_marseille","lat":43.29263,"lon":5.3844,"is_reserved":false,"is_disabled":false,"rental_uris":{"android":"levelo://app?vid=5c027ad7-d879-4940-b742-3c979ecc9f28","ios":"levelo://app?vid=5c027ad7-d879-4940-b742-3c979ecc9f28"},"vehicle_type_id":"4","last_reported":1712160511,"current_range_meters":0,"station_id":"ce4bh692rcd13ifvqea0","pricing_plan_id":"cebpf4jnsgd1na2vs0mg"},{"bike_id":"5913b957-874f-4a2f-8e9f-9f1ad9759478","system_id":"levelo_inurba_marseille","lat":43.292644,"lon":5.384257,"is_reserved":false,"is_disabled":false,"rental_uris":{"android":"levelo://app?vid=5913b957-874f-4a2f-8e9f-9f1ad9759478","ios":"levelo://app?vid=5913b957-874f-4a2f-8e9f-9f1ad9759478"},"vehicle_type_id":"4","last_reported":1712160511,"current_range_meters":18800,"station_id":"ce4bh692rcd13ifvqea0","pricing_plan_id":"cebpf4jnsgd1na2vs0mg"},{"bike_id":"d8d48352-4562-488a-a16c-717e4fa46d4f","system_id":"levelo_inurba_marseille","lat":43.29256,"lon":5.38427,"is_reserved":false,"is_disabled":false,"rental_uris":{"android":"levelo://app?vid=d8d48352-4562-488a-a16c-717e4fa46d4f","ios":"levelo://app?vid=d8d48352-4562-488a-a16c-717e4fa46d4f"},"vehicle_type_id":"4","last_reported":1712160511,"current_range_meters":17600,"station_id":"ce4bh692rcd13ifvqea0","pricing_plan_id":"cebpf4jnsgd1na2vs0mg"},{"bike_id":"45228908-a7ab-40e3-b686-4315d898f461","system_id":"levelo_inurba_marseille","lat":43.292644,"lon":5.384257,"is_reserved":false,"is_disabled":false,"rental_uris":{"android":"levelo://app?vid=45228908-a7ab-40e3-b686-4315d898f461","ios":"levelo://app?vid=45228908-a7ab-40e3-b686-4315d898f461"},"vehicle_type_id":"4","last_reported":1712160511,"current_range_meters":0,"station_id":"ce4bh692rcd13ifvqea0","pricing_plan_id":"cebpf4jnsgd1na2vs0mg"},{"bike_id":"82c70774-3bbd-4947-bb25-5ae245da04b5","system_id":"levelo_inurba_marseille","lat":43.290104,"lon":5.356111,"is_reserved":false,"is_disabled":false,"rental_uris":{"android":"levelo://app?vid=82c70774-3bbd-4947-bb25-5ae245da04b5","ios":"levelo://app?vid=82c70774-3bbd-4947-bb25-5ae245da04b5"},"vehicle_type_id":"4","last_reported":1712160511,"current_range_meters":14000,"station_id":"ce4bhb92rcd13ifvqen0","pricing_plan_id":"cebpf4jnsgd1na2vs0mg"},{"bike_id":"2e1af327-105b-4a9f-8666-59edde95cf2a","system_id":"levelo_inurba_marseille","lat":43.292644,"lon":5.384257,"is_reserved":false,"is_disabled":false,"rental_uris":{"android":"levelo://app?vid=2e1af327-105b-4a9f-8666-59edde95cf2a","ios":"levelo://app?vid=2e1af327-105b-4a9f-8666-59edde95cf2a"},"vehicle_type_id":"4","last_reported":1712160511,"current_range_meters":6800,"station_id":"ce4bh692rcd13ifvqea0","pricing_plan_id":"cebpf4jnsgd1na2vs0mg"},{"bike_id":"8720e8cf-8fe0-4d7a-895b-aadd6ef3ad88","system_id":"levelo_inurba_marseille","lat":43.290104,"lon":5.356111,"is_reserved":false,"is_disabled":false,"rental_uris":{"android":"levelo://app?vid=8720e8cf-8fe0-4d7a-895b-aadd6ef3ad88","ios":"levelo://app?vid=8720e8cf-8fe0-4d7a-895b-aadd6ef3ad88"},"vehicle_type_id":"4","last_reported":1712160511,"current_range_meters":4400,"station_id":"ce4bhb92rcd13ifvqen0","pricing_plan_id":"cebpf4jnsgd1na2vs0mg"},{"bike_id":"2656377d-6371-4969-a700-5f21507bcb86","system_id":"levelo_inurba_marseille","lat":43.290104,"lon":5.356111,"is_reserved":false,"is_disabled":false,"rental_uris":{"android":"levelo://app?vid=2656377d-6371-4969-a700-5f21507bcb86","ios":"levelo://app?vid=2656377d-6371-4969-a700-5f21507bcb86"},"vehicle_type_id":"4","last_reported":1712160511,"current_range_meters":0,"station_id":"ce4bhb92rcd13ifvqen0","pricing_plan_id":"cebpf4jnsgd1na2vs0mg"},{"bike_id":"f8211ecd-b9d7-46eb-9ffb-0d18debbd4d1","system_id":"levelo_inurba_marseille","lat":43.298764,"lon":5.388973,"is_reserved":false,"is_disabled":false,"rental_uris":{"android":"levelo://app?vid=f8211ecd-b9d7-46eb-9ffb-0d18debbd4d1","ios":"levelo://app?vid=f8211ecd-b9d7-46eb-9ffb-0d18debbd4d1"},"vehicle_type_id":"4","last_reported":1712160511,"current_range_meters":19600,"station_id":"ce4bh392rcd13ifvqdl0","pricing_plan_id":"cebpf4jnsgd1na2vs0mg"},{"bike_id":"4675626d-f503-4af3-9748-4dc5c0ff9558","system_id":"levelo_inurba_marseille","lat":43.290104,"lon":5.356111,"is_reserved":false,"is_disabled":false,"rental_uris":{"android":"levelo://app?vid=4675626d-f503-4af3-9748-4dc5c0ff9558","ios":"levelo://app?vid=4675626d-f503-4af3-9748-4dc5c0ff9558"},"vehicle_type_id":"4","last_reported":1712160511,"current_range_meters":0,"station_id":"ce4bhb92rcd13ifvqen0","pricing_plan_id":"cebpf4jnsgd1na2vs0mg"},