{"last_updated":1761999518,"ttl":60,"version":"2.2","data":{"bikes":[{"bike_id":"8a965a0a-aa9f-48ca-9a16-2aaca87a2961","system_id":"levelo_inurba_marseille","lat":43.29266,"lon":5.3763,"is_reserved":false,"is_disabled":false,"rental_uris":{"android":"levelo://app?vid=8a965a0a-aa9f-48ca-9a16-2aaca87a2961","ios":"levelo://app?vid=8a965a0a-aa9f-48ca-9a16-2aaca87a2961"},"vehicle_type_id":"4","last_reported":1761999519,"current_range_meters":2800,"station_id":"ce4bgi12rcd13ifvqb80","pricing_plan_id":"cebpf4jnsgd1na2vs0mg"},{"bike_id":"065a0407-18a4-46c7-b173-e0a9f3e1e5a0","system_id":"levelo_inurba_marseille","lat":43.2953,"lon":5.39026,"is_reserved":false,"is_disabled":false,"rental_uris":{"android":"levelo://app?vid=065a0407-18a4-46c7-b173-e0a9f3e1e5a0","ios":"levelo://app?vid=065a0407-18a4-46c7-b173-e0a9f3e1e5a0"},"vehicle_type_id":"4","last_reported":1761999519,"current_range_meters":2800,"station_id":"ce4bh3p2rcd13ifvqdp0","pricing_plan_id":"cebpf4jnsgd1na2vs0mg"},{"bike_id":"d6390bc1-4a3c-4596-a0b8-6609338e6d38","system_id":"levelo_inurba_marseille","lat":43.295776,"lon":5.367399,"is_reserved":false,"is_disabled":false,"rental_uris":{"android":"levelo://app?vid=d6390bc1-4a3c-4596-a0b8-6609338e6d38","ios":"levelo://app?vid=d6390bc1-4a3c-4596-a0b8-6609338e6d38"},"vehicle_type_id":"4","last_reported":1761999519,"current_range_meters":2800,"station_id":"ce4bgph2rcd13ifvqc2g","pricing_plan_id":"cebpf4jnsgd1na2vs0mg"},{"bike_id":"76cd4da6-7143-4430-8999-59ec86f6aa4d","system_id":"levelo_inurba_marseille","lat":43.29473,"lon":5.43314,"is_reserved":false,"is_disabled":false,"rental_uris":{"android":"levelo://app?vid=76cd4da6-7143-4430-8999-59ec86f6aa4d","ios":"levelo://app?vid=76cd4da6-7143-4430-8999-59ec86f6aa4d"},"vehicle_type_id":"4","last_reported":1761999519,"current_range_meters":2800,"station_id":"st_d3j5ugp08ojc73fj9d10","pricing_plan_id":"cebpf4jnsgd1na2vs0mg"},{"bike_id":"a7abda09-8ec9-4bfd-b52f-9e0eca696880","system_id":"levelo_inurba_marseille","lat":43.255774,"lon":5.382403,"is_reserved":false,"is_disabled":false,"rental_uris":{"android":"levelo://app?vid=a7abda09-8ec9-4bfd-b52f-9e0eca696880","ios":"levelo://app?vid=a7abda09-8ec9-4bfd-b52f-9e0eca696880"},"vehicle_type_id":"4","last_reported":1761999519,"current_range_meters":3200,"station_id":"ce4bhih2rcd13ifvqfs0","pricing_plan_id":"cebpf4jnsgd1na2vs0mg"},{"bike_id":"d57a844b-264f-4723-85c5-c5335e858662","system_id":"levelo_inurba_marseille","lat":43.23184,"lon":5.40001,"is_reserved":false,"is_disabled":true,"rental_uris":{"android":"levelo://app?vid=d57a844b-264f-4723-85c5-c5335e858662","ios":"levelo://app?vid=d57a844b-264f-4723-85c5-c5335e858662"},"vehicle_type_id":"4","last_reported":1761999519,"current_range_meters":3200,"station_id":"ce4bhn12rcd13ifvqgqg","pricing_plan_id":"cebpf4jnsgd1na2vs0mg"},{"bike_id":"83e681f7-a772-4e16-95bc-2689078222bb","system_id":"levelo_inurba_marseille","lat":43.22934,"lon":5.353779,"is_reserved":false,"is_disabled":false,"rental_uris":{"android":"levelo://app?vid=83e681f7-a772-4e16-95bc-2689078222bb","ios":"levelo://app?vid=83e681f7-a772-4e16-95bc-2689078222bb"},"vehicle_type_id":"4","last_reported":1761999519,"current_range_meters":3200,"station_id":"cpo3532slgdg3j2ikp40","pricing_plan_id":"cebpf4jnsgd1na2vs0mg"},{"bike_id":"856bf0b1-be80-42ea-844d-a6cdaa5a7415","system_id":"levelo_inurba_marseille","lat":43.23203,"lon":5.35554,"is_reserved":false,"is_disabled":false,"rental_uris":{"android":"levelo://app?vid=856bf0b1-be80-42ea-844d-a6cdaa5a7415","ios":"levelo://app?vid=856bf0b1-be80-42ea-844d-a6cdaa5a7415"},"vehicle_type_id":"4","last_reported":1761999519,"current_range_meters":3200,"station_id":"ce4bhu92rcd13ifvqi70","pricing_plan_id":"cebpf4jnsgd1na2vs0mg"},{"bike_id":"fa2d2636-fb58-4fde-a766-b67e64a3a529","system_id":"levelo_inurba_marseille","lat":43.23152,"lon":5.4372,"is_reserved":false,"is_disabled":false,"rental_uris":{"android":"levelo://app?vid=fa2d2636-fb58-4fde-a766-b67e64a3a529","ios":"levelo://app?vid=fa2d2636-fb58-4fde-a766-b67e64a3a529"},"vehicle_type_id":"4","last_reported":1761999519,"current_range_meters":4000,"station_id":"ce4bhmp2rcd13ifvqgog","pricing_plan_id":"cebpf4jnsgd1na2vs0mg"},{"bike_id":"69753b13-9a79-42a4-9da4-95ec1be96ea8","system_id":"levelo_inurba_marseille","lat":43.28711,"lon":5.39979,"is_reserved":false,"is_disabled":false,"rental_uris":{"android":"levelo://app?vid=69753b13-9a79-42a4-9da4-95ec1be96ea8","ios":"levelo://app?vid=69753b13-9a79-42a4-9da4-95ec1be96ea8"},"vehicle_type_id":"4","last_reported":1761999519,"current_range_meters":4000,"station_id":"ce4bho92rcd13ifvqh3g","pricing_plan_id":"cebpf4jnsgd1na2vs0mg"},{"bike_id":"98c69ce9-b776-4a35-8190-c3322227776a","system_id":"levelo_inurba_marseille","lat":43.29356,"lon":5.39258,"is_reserved":false,"is_disabled":false,"rental_uris":{"android":"levelo://app?vid=98c69ce9-b776-4a35-8190-c3322227776a","ios":"levelo://app?vid=98c69ce9-b776-4a35-8190-c3322227776a"},"vehicle_type_id":"4","last_reported":1761999519,"current_range_meters":4400,"station_id":"","pricing_plan_id":"cebpf4jnsgd1na2vs0mg"},{"bike_id":"f2287fbd-65b0-4975-b44b-578b0e69e1ef","system_id":"levelo_inurba_marseille","lat":43.31221,"lon":5.37931,"is_reserved":false,"is_disabled":false,"rental_uris":{"android":"levelo://app?vid=f2287fbd-65b0-4975-b44b-578b0e69e1ef","ios":"levelo://app?vid=f2287fbd-65b0-4975-b44b-578b0e69e1ef"},"vehicle_type_id":"4","last_reported":1761999519,"current_range_meters":4800,"station_id":"","pricing_plan_id":"cebpf4jnsgd1na2vs0mg"},{"bike_id":"688e0991-23bb-4f67-a97d-b9bb7704a66a","system_id":"levelo_inurba_marseille","lat":43.29255,"lon":5.39101,"is_reserved":false,"is_disabled":false,"rental_uris":{"android":"levelo://app?vid=688e0991-23bb-4f67-a97d-b9bb7704a66a","ios":"levelo://app?vid=688e0991-23bb-4f67-a97d-b9bb7704a66a"},"vehicle_type_id":"4","last_reported":1761999519,"current_range_meters":4800,"station_id":"","pricing_plan_id":"cebpf4jnsgd1na2vs0mg"},{"bike_id":"da503111-5feb-4a8e-b697-ab299317bc1a","system_id":"levelo_inurba_marseille","lat":43.285104,"lon":5.366582,"is_reserved":false,"is_disabled":false,"rental_uris":{"android":"levelo://app?vid=da503111-5feb-4a8e-b697-ab299317bc1a","ios":"levelo://app?vid=da503111-5feb-4a8e-b697-ab299317bc1a"},"vehicle_type_id":"4","last_reported":1761999519,"current_range_meters":4800,"station_id":"","pricing_plan_id":"cebpf4jnsgd1na2vs0mg"},{"bike_id":"dbe5a017-5f48-48a9-a30c-d753021d6208","system_id":"levelo_inurba_marseille","lat":43.29749,"lon":5.39652,"is_reserved":false,"is_disabled":false,"rental_uris":{"android":"levelo://app?vid=dbe5a017-5f48-48a9-a30c-d753021d6208","ios":"levelo://app?vid=dbe5a017-5f48-48a9-a30c-d753021d6208"},"vehicle_type_id":"4","last_reported":1761999519,"current_range_meters":4800,"station_id":"","pricing_plan_id":"cebpf4jnsgd1na2vs0mg"},{"bike_id":"861ec309-79a1-447a-8447-e71413353617","system_id":"levelo_inurba_marseille","lat":43.22934,"lon":5.35374,"is_reserved":false,"is_disabled":false,"rental_uris":{"android":"levelo://app?vid=861ec309-79a1-447a-8447-e71413353617","ios":"levelo://app?vid=861ec309-79a1-447a-8447-e71413353617"},"vehicle_type_id":"4","last_reported":1761999519,"current_range_meters":5600,"station_id":"cpo3532slgdg3j2ikp40","pricing_plan_id":"cebpf4jnsgd1na2vs0mg"},{"bike_id":"3dab03ab-b250-4b40-b286-0668266ab52e","system_id":"levelo_inurba_marseille","lat":43.288598,"lon":5.425196,"is_reserved":false,"is_disabled":false,"rental_uris":{"android":"levelo://app?vid=3dab03ab-b250-4b40-b286-0668266ab52e","ios":"levelo://app?vid=3dab03ab-b250-4b40-b286-0668266ab52e"},"vehicle_type_id":"4","last_reported":1761999519,"current_range_meters":6000,"station_id":"st_d3b462108ojc7389ooeg","pricing_plan_id":"cebpf4jnsgd1na2vs0mg"},{"bike_id":"a18dbf48-2c4d-4fa4-a4c5-c9871d73c9a0","system_id":"levelo_inurba_marseille","lat":43.301994,"lon":5.383462,"is_reserved":false,"is_disabled":false,"rental_uris":{"android":"levelo://app?vid=a18dbf48-2c4d-4fa4-a4c5-c9871d73c9a0","ios":"levelo://app?vid=a18dbf48-2c4d-4fa4-a4c5-c9871d73c9a0"},"vehicle_type_id":"4","last_reported":1761999519,"current_range_meters":6000,"station_id":"ce4bgup2rcd13ifvqcn0","pricing_plan_id":"cebpf4jnsgd1na2vs0mg"},{"bike_id":"80388077-12d6-4972-a68c-5f13b71ad287","system_id":"levelo_inurba_marseille","lat":43.29528,"lon":5.3854,"is_reserved":false,"is_disabled":false,"rental_uris":{"android":"levelo://app?vid=80388077-12d6-4972-a68c-5f13b71ad287","ios":"levelo://app?vid=80388077-12d6-4972-a68c-5f13b71ad287"},"vehicle_type_id":"4","last_reported":1761999519,"current_range_meters":6000,"station_id":"ce4bgih2rcd13ifvqba0","pricing_plan_id":"cebpf4jnsgd1na2vs0mg"},{"bike_id":"3ee25206-8ab2-41b4-9df2-f468f657e699","system_id":"levelo_inurba_marseille","lat":43.29532,"lon":5.38545,"is_reserved":false,"is_disabled":false,"rental_uris":{"android":"levelo://app?vid=3ee25206-8ab2-41b4-9df2-f468f657e699","ios":"levelo://app?vid=3ee25206-8ab2-41b4-9df2-f468f657e699"},"vehicle_type_id":"4","last_reported":1761999519,"current_range_meters":6000,"station_id":"ce4bgih2rcd13ifvqba0","pricing_plan_id":"cebpf4jnsgd1na2vs0mg"},{"bike_id":"82a1362f-b61a-46be-a663-3fcb37750770","system_id":"levelo_inurba_marseille","lat":43.28468,"lon":5.48403,"is_reserved":false,"is_disabled":false,"rental_uris":{"android":"levelo://app?vid=82a1362f-b61a-46be-a663-3fcb37750770","ios":"levelo://app?vid=82a1362f-b61a-46be-a663-3fcb37750770"},"vehicle_type_id":"4","last_reported":1761999519,"current_range_meters":6000,"station_id":"st_d3svhcjqgbts73a3dn0g","pricing_plan_id":"cebpf4jnsgd1na2vs0mg"},{"bike_id":"ef777f47-3ec2-4a6f-92fd-6d371f9cfd72","system_id":"levelo_inurba_marseille","lat":43.305408,"lon":5.365626,"is_reserved":false,"is_disabled":false,"rental_uris":{"android":"levelo://app?vid=ef777f47-3ec2-4a6f-92fd-6d371f9cfd72","ios":"levelo://app?vid=ef777f47-3ec2-4a6f-92fd-6d371f9cfd72"},"vehicle_type_id":"4","last_reported":1761999519,"current_range_meters":6000,"station_id":"ce4bgs12rcd13ifvqcag","pricing_plan_id":"cebpf4jnsgd1na2vs0mg"},{"bike_id":"dd9ee18c-e76c-40e0-a374-3c06ecf5546b","system_id":"levelo_inurba_marseille","lat":43.306048,"lon":5.372289,"is_reserved":false,"is_disabled":false,"rental_uris":{"android":"levelo://app?vid=dd9ee18c-e76c-40e0-a374-3c06ecf5546b","ios":"levelo://app?vid=dd9ee18c-e76c-40e0-a374-3c06ecf5546b"},"vehicle_type_id":"4","last_reported":1761999519,"current_range_meters":6400,"station_id":"ce4bgqh2rcd13ifvqc4g","pricing_plan_id":"cebpf4jnsgd1na2vs0mg"},{"bike_id":"eafd4d7d-5667-44aa-b063-01875f73916a","system_id":"levelo_inurba_marseille","lat":43.26937,"lon":5.40254,"is_reserved":false,"is_disabled":false,"rental_uris":{"android":"levelo://app?vid=eafd4d7d-5667-44aa-b063-01875f73916a","ios":"levelo://app?vid=eafd4d7d-5667-44aa-b063-01875f73916a"},"vehicle_type_id":"4","last_reported":1761999519,"current_range_meters":6400,"station_id":"cjm6bp8fraef2m0cb0m0","pricing_plan_id":"cebpf4jnsgd1na2vs0mg"},{"bike_id":"9b93b5e1-c939-4745-bf85-2d21945442dc","system_id":"levelo_inurba_marseille","lat":43.299967,"lon":5.364018,"is_reserved":false,"is_disabled":false,"rental_uris":{"android":"levelo://app?vid=9b93b5e1-c939-4745-bf85-2d21945442dc","ios":"levelo://app?vid=9b93b5e1-c939-4745-bf85-2d21945442dc"},"vehicle_type_id":"4","last_reported":1761999519,"current_range_meters":6800,"station_id":"","pricing_plan_id":"cebpf4jnsgd1na2vs0mg"},{"bike_id":"ff789b22-a26c-456c-8a0c-ec4619f6549d","system_id":"levelo_inurba_marseille","lat":43.292678,"lon":5.376368,"is_reserved":false,"is_disabled":false,"rental_uris":{"android":"levelo://app?vid=ff789b22-a26c-456c-8a0c-ec4619f6549d","ios":"levelo://app?vid=ff789b22-a26c-456c-8a0c-ec4619f6549d"},"vehicle_type_id":"4","last_reported":1761999519,"current_range_meters":6800,"station_id":"ce4bgi12rcd13ifvqb80","pricing_plan_id":"cebpf4jnsgd1na2vs0mg"},{"bike_id":"564e48e8-b6e5-4a22-aa5e-5b998c30cfe9","system_id":"levelo_inurba_marseille","lat":43.28862,"lon":5.35842,"is_reserved":false,"is_disabled":false,"rental_uris":{"android":"levelo://app?vid=564e48e8-b6e5-4a22-aa5e-5b998c30cfe9","ios":"levelo://app?vid=564e48e8-b6e5-4a22-aa5e-5b998c30cfe9"},"vehicle_type_id":"4","last_reported":1761999519,"current_range_meters":6800,"station_id":"ce4bhb12rcd13ifvqem0","pricing_plan_id":"cebpf4jnsgd1na2vs0mg"},{"bike_id":"d1311481-3a07-4834-996f-5229084d4b23","system_id":"levelo_inurba_marseille","lat":43.30737,"lon":5.42446,"is_reserved":false,"is_disabled":false,"rental_uris":{"android":"levelo://app?vid=d1311481-3a07-4834-996f-5229084d4b23","ios":"levelo://app?vid=d1311481-3a07-4834-996f-5229084d4b23"},"vehicle_type_id":"4","last_reported":1761999519,"current_range_meters":6800,"station_id":"st_cvj6ca6bvosntc0bfgr0","pricing_plan_id":"cebpf4jnsgd1na2vs0mg"},{"bike_id":"f643c35b-c5a7-43c4-92a7-c4e52bde8db9","system_id":"levelo_inurba_marseille","lat":43.28151,"lon":5.4267,"is_reserved":false,"is_disabled":false,"rental_uris":{"android":"levelo://app?vid=f643c35b-c5a7-43c4-92a7-c4e52bde8db9","ios":"levelo://app?vid=f643c35b-c5a7-43c4-92a7-c4e52bde8db9"},"vehicle_type_id":"4","last_reported":1761999519,"current_range_meters":7200,"station_id":"ce4bhnh2rcd13ifvqgug","pricing_plan_id":"cebpf4jnsgd1na2vs0mg"},{"bike_id":"8ef375ee-8957-4dd0-81f8-313e58037a7d","system_id":"levelo_inurba_marseille","lat":43.3136,"lon":5.38491,"is_reserved":false,"is_disabled":false,"rental_uris":{"android":"levelo://app?vid=8ef375ee-8957-4dd0-81f8-313e58037a7d","ios":"levelo://app?vid=8ef375ee-8957-4dd0-81f8-313e58037a7d"},"vehicle_type_id":"4","last_reported":1761999519,"current_range_meters":7200,"station_id":"ce4bgt92rcd13ifvqcf0","pricing_plan_id":"cebpf4jnsgd1na2vs0mg"},{"bike_id":"6e08e923-71e6-40d6-bf57-0f39cf827e8d","system_id":"levelo_inurba_marseille","lat":43.31075,"lon":5.38354,"is_reserved":false,"is_disabled":false,"rental_uris":{"android":"levelo://app?vid=6e08e923-71e6-40d6-bf57-0f39cf827e8d","ios":"levelo://app?vid=6e08e923-71e6-40d6-bf57-0f39cf827e8d"},"vehicle_type_id":"4","last_reported":1761999519,"current_range_meters":7200,"station_id":"ce4bgv92rcd13ifvqcr0","pricing_plan_id":"cebpf4jnsgd1na2vs0mg"},{"bike_id":"5fb987d7-0fd0-4ae4-b81e-29cf312b29a5","system_id":"levelo_inurba_marseille","lat":43.28953,"lon":5.39065,"is_reserved":false,"is_disabled":false,"rental_uris":{"android":"levelo://app?vid=5fb987d7-0fd0-4ae4-b81e-29cf312b29a5","ios":"levelo://app?vid=5fb987d7-0fd0-4ae4-b81e-29cf312b29a5"},"vehicle_type_id":"4","last_reported":1761999519,"current_range_meters":8000,"station_id":"","pricing_plan_id":"cebpf4jnsgd1na2vs0mg"},{"bike_id":"2cb7ef3f-095f-4f0a-9b0d-b52b52432c45","system_id":"levelo_inurba_marseille","lat":43.25336,"lon":5.42169,"is_reserved":false,"is_disabled":false,"rental_uris":{"android":"levelo://app?vid=2cb7ef3f-095f-4f0a-9b0d-b52b52432c45","ios":"levelo://app?vid=2cb7ef3f-095f-4f0a-9b0d-b52b52432c45"},"vehicle_type_id":"4","last_reported":1761999519,"current_range_meters":8000,"station_id":"st_d2m65c5bi1j21697t3ng","pricing_plan_id":"cebpf4jnsgd1na2vs0mg"},{"bike_id":"421898f5-6c6d-4850-a304-3c0cc5951bee","system_id":"levelo_inurba_marseille","lat":43.28494,"lon":5.42195,"is_reserved":false,"is_disabled":false,"rental_uris":{"android":"levelo://app?vid=421898f5-6c6d-4850-a304-3c0cc5951bee","ios":"levelo://app?vid=421898f5-6c6d-4850-a304-3c0cc5951bee"},"vehicle_type_id":"4","last_reported":1761999519,"current_range_meters":8000,"station_id":"","pricing_plan_id":"cebpf4jnsgd1na2vs0mg"},{"bike_id":"70b7527d-67eb-4818-84c6-51aae343ca97","system_id":"levelo_inurba_marseille","lat":43.284736,"lon":5.484039,"is_reserved":false,"is_disabled":false,"rental_uris":{"android":"levelo://app?vid=70b7527d-67eb-4818-84c6-51aae343ca97","ios":"levelo://app?vid=70b7527d-67eb-4818-84c6-51aae343ca97"},"vehicle_type_id":"4","last_reported":1761999519,"current_range_meters":8400,"station_id":"st_d3svhcjqgbts73a3dn0g","pricing_plan_id":"cebpf4jnsgd1na2vs0mg"},{"bike_id":"3bfed08f-358f-4a61-bb08-62e2aa6fe126","system_id":"levelo_inurba_marseille","lat":43.25517,"lon":5.376638,"is_reserved":false,"is_disabled":false,"rental_uris":{"android":"levelo://app?vid=3bfed08f-358f-4a61-bb08-62e2aa6fe126","ios":"levelo://app?vid=3bfed08f-358f-4a61-bb08-62e2aa6fe126"},"vehicle_type_id":"4","last_reported":1761999519,"current_range_meters":8400,"station_id":"ce4bhh12rcd13ifvqff0","pricing_plan_id":"cebpf4jnsgd1na2vs0mg"},{"bike_id":"d2df2462-175e-4372-b243-499988c9cd73","system_id":"levelo_inurba_marseille","lat":43.2962,"lon":5.37168,"is_reserved":false,"is_disabled":false,"rental_uris":{"android":"levelo://app?vid=d2df2462-175e-4372-b243-499988c9cd73","ios":"levelo://app?vid=d2df2462-175e-4372-b243-499988c9cd73"},"vehicle_type_id":"4","last_reported":1761999519,"current_range_meters":8400,"station_id":"ce4bgnh2rcd13ifvqc0g","pricing_plan_id":"cebpf4jnsgd1na2vs0mg"},{"bike_id":"24b29ecd-3916-4980-a634-a063ca14f14e","system_id":"levelo_inurba_marseille","lat":43.29596,"lon":5.381,"is_reserved":false,"is_disabled":false,"rental_uris":{"android":"levelo://app?vid=24b29ecd-3916-4980-a634-a063ca14f14e","ios":"levelo://app?vid=24b29ecd-3916-4980-a634-a063ca14f14e"},"vehicle_type_id":"4","last_reported":1761999519,"current_range_meters":8400,"station_id":"ce4bgl12rcd13ifvqbo0","pricing_plan_id":"cebpf4jnsgd1na2vs0mg"},{"bike_id":"3a8851b0-bea2-4b80-afc7-0c6751111e32","system_id":"levelo_inurba_marseille","lat":43.28863,"lon":5.42513,"is_reserved":false,"is_disabled":false,"rental_uris":{"android":"levelo://app?vid=3a8851b0-bea2-4b80-afc7-0c6751111e32","ios":"levelo://app?vid=3a8851b0-bea2-4b80-afc7-0c6751111e32"},"vehicle_type_id":"4","last_reported":1761999519,"current_range_meters":8800,"station_id":"st_d3b462108ojc7389ooeg","pricing_plan_id":"cebpf4jnsgd1na2vs0mg"},{"bike_id":"672836ae-68f5-428f-b875-ba9c76f747b8","system_id":"levelo_inurba_marseille","lat":43.29531,"lon":5.3903,"is_reserved":false,"is_disabled":false,"rental_uris":{"android":"levelo://app?vid=672836ae-68f5-428f-b875-ba9c76f747b8","ios":"levelo://app?vid=672836ae-68f5-428f-b875-ba9c76f747b8"},"vehicle_type_id":"4","last_reported":1761999519,"current_range_meters":8800,"station_id":"ce4bh3p2rcd13ifvqdp0","pricing_plan_id":"cebpf4jnsgd1na2vs0mg"},{"bike_id":"96ad2f8e-1ff0-415a-a84a-9186f2a5baf6","system_id":"levelo_inurba_marseille","lat":43.29606,"lon":5.37672,"is_reserved":false,"is_disabled":false,"rental_uris":{"android":"levelo://app?vid=96ad2f8e-1ff0-415a-a84a-9186f2a5baf6","ios":"levelo://app?vid=96ad2f8e-1ff0-415a-a84a-9186f2a5baf6"},"vehicle_type_id":"4","last_reported":1761999519,"current_range_meters":8800,"station_id":"ce4bgi12rcd13ifvqb80","pricing_plan_id":"cebpf4jnsgd1na2vs0mg"},{"bike_id":"dcb5f4d6-a57a-45ea-b185-de3fe952058c","system_id":"levelo_inurba_marseille","lat":43.28101,"lon":5.378309,"is_reserved":false,"is_disabled":true,"rental_uris":{"android":"levelo://app?vid=dcb5f4d6-a57a-45ea-b185-de3fe952058c","ios":"levelo://app?vid=dcb5f4d6-a57a-45ea-b185-de3fe952058c"},"vehicle_type_id":"4","last_reported":1761999519,"current_range_meters":8800,"station_id":"","pricing_plan_id":"cebpf4jnsgd1na2vs0mg"},{"bike_id":"0e9956ee-24b2-4962-b06c-fa279c6ec4af","system_id":"levelo_inurba_marseille","lat":43.21192,"lon":5.35068,"is_reserved":false,"is_disabled":false,"rental_uris":{"android":"levelo://app?vid=0e9956ee-24b2-4962-b06c-fa279c6ec4af","ios":"levelo://app?vid=0e9956ee-24b2-4962-b06c-fa279c6ec4af"},"vehicle_type_id":"4","last_reported":1761999519,"current_range_meters":8800,"station_id":"st_cvj6sg6p6f1abm77japg","pricing_plan_id":"cebpf4jnsgd1na2vs0mg"},{"bike_id":"7658bc8f-a3da-47aa-8c17-9c3a5f4e8672","system_id":"levelo_inurba_marseille","lat":43.25103,"lon":5.40324,"is_reserved":false,"is_disabled":false,"rental_uris":{"android":"levelo://app?vid=7658bc8f-a3da-47aa-8c17-9c3a5f4e8672","ios":"levelo://app?vid=7658bc8f-a3da-47aa-8c17-9c3a5f4e8672"},"vehicle_type_id":"4","last_reported":1761999519,"current_range_meters":9200,"station_id":"ce4bhlh2rcd13ifvqgig","pricing_plan_id":"cebpf4jnsgd1na2vs0mg"},{"bike_id":"98c1a6ba-8fa1-4beb-b4a3-56f3b50f0302","system_id":"levelo_inurba_marseille","lat":43.2847,"lon":5.38421,"is_reserved":false,"is_disabled":true,"rental_uris":{"android":"levelo://app?vid=98c1a6ba-8fa1-4beb-b4a3-56f3b50f0302","ios":"levelo://app?vid=98c1a6ba-8fa1-4beb-b4a3-56f3b50f0302"},"vehicle_type_id":"4","last_reported":1761999519,"current_range_meters":9200,"station_id":"ce4bh512rcd13ifvqe3g","pricing_plan_id":"cebpf4jnsgd1na2vs0mg"},{"bike_id":"a4dac4fa-66e6-48be-a654-6e17cdc7ca0b","system_id":"levelo_inurba_marseille","lat":43.337571,"lon":5.374323,"is_reserved":false,"is_disabled":false,"rental_uris":{"android":"levelo://app?vid=a4dac4fa-66e6-48be-a654-6e17cdc7ca0b","ios":"levelo://app?vid=a4dac4fa-66e6-48be-a654-6e17cdc7ca0b"},"vehicle_type_id":"4","last_reported":1761999519,"current_range_meters":9200,"station_id":"","pricing_plan_id":"cebpf4jnsgd1na2vs0mg"},{"bike_id":"843e9c13-4f4d-4bf8-864a-5820ed6a75b1","system_id":"levelo_inurba_marseille","lat":43.31073,"lon":5.38359,"is_reserved":false,"is_disabled":false,"rental_uris":{"android":"levelo://app?vid=843e9c13-4f4d-4bf8-864a-5820ed6a75b1","ios":"levelo://app?vid=843e9c13-4f4d-4bf8-864a-5820ed6a75b1"},"vehicle_type_id":"4","last_reported":1761999519,"current_range_meters":9200,"station_id":"ce4bgv92rcd13ifvqcr0","pricing_plan_id":"cebpf4jnsgd1na2vs0mg"},{"bike_id":"ffc7132d-fc74-4510-a3f2-1e1120a9ca87","system_id":"levelo_inurba_marseille","lat":43.23962,"lon":5.36627,"is_reserved":false,"is_disabled":false,"rental_uris":{"android":"levelo://app?vid=ffc7132d-fc74-4510-a3f2-1e1120a9ca87","ios":"levelo://app?vid=ffc7132d-fc74-4510-a3f2-1e1120a9ca87"},"vehicle_type_id":"4","last_reported":1761999519,"current_range_meters":9600,"station_id":"ce4bhi12rcd13ifvqfp0","pricing_plan_id":"cebpf4jnsgd1na2vs0mg"},{"bike_id":"c4043172-c70a-474a-a225-3d1c64159339","system_id":"levelo_inurba_marseille","lat":43.30153,"lon":5.380851,"is_reserved":false,"is_disabled":false,"rental_uris":{"android":"levelo://app?vid=c4043172-c70a-474a-a225-3d1c64159339","ios":"levelo://app?vid=c4043172-c70a-474a-a225-3d1c64159339"},"vehicle_type_id":"4","last_reported":1761999519,"current_range_meters":9600,"station_id":"ce4bgjp2rcd13ifvqbh0","pricing_plan_id":"cebpf4jnsgd1na2vs0mg"},{"bike_id":"23d9c88b-fb47-4ca1-a20f-f717572b7502","system_id":"levelo_inurba_marseille","lat":43.28852,"lon":5.35846,"is_reserved":false,"is_disabled":false,"rental_uris":{"android":"levelo://app?vid=23d9c88b-fb47-4ca1-a20f-f717572b7502","ios":"levelo://app?vid=23d9c88b-fb47-4ca1-a20f-f717572b7502"},"vehicle_type_id":"4","last_reported":1761999519,"current_range_meters":9600,"station_id":"","pricing_plan_id":"cebpf4jnsgd1na2vs0mg"},{"bike_id":"736ad4a8-9745-4b40-a494-64b8776bf175","system_id":"levelo_inurba_marseille","lat":43.29259,"lon":5.40919,"is_reserved":false,"is_disabled":false,"rental_uris":{"android":"levelo://app?vid=736ad4a8-9745-4b40-a494-64b8776bf175","ios":"levelo://app?vid=736ad4a8-9745-4b40-a494-64b8776bf175"},"vehicle_type_id":"4","last_reported":1761999519,"current_range_meters":9600,"station_id":"ce4bh192rcd13ifvqdc0","pricing_plan_id":"cebpf4jnsgd1na2vs0mg"},{"bike_id":"27abc7d1-dd85-495f-9415-aa00cef4846e","system_id":"levelo_inurba_marseille","lat":43.27762,"lon":5.39567,"is_reserved":false,"is_disabled":false,"rental_uris":{"android":"levelo://app?vid=27abc7d1-dd85-495f-9415-aa00cef4846e","ios":"levelo://app?vid=27abc7d1-dd85-495f-9415-aa00cef4846e"},"vehicle_type_id":"4","last_reported":1761999519,"current_range_meters":9600,"station_id":"","pricing_plan_id":"cebpf4jnsgd1na2vs0mg"},{"bike_id":"6559e7c4-3b3b-40cf-9376-92c7b0d6f0bf","system_id":"levelo_inurba_marseille","lat":43.30137,"lon":5.38092,"is_reserved":false,"is_disabled":false,"rental_uris":{"android":"levelo://app?vid=6559e7c4-3b3b-40cf-9376-92c7b0d6f0bf","ios":"levelo://app?vid=6559e7c4-3b3b-40cf-9376-92c7b0d6f0bf"},"vehicle_type_id":"4","last_reported":1761999519,"current_range_meters":9600,"station_id":"ce4bgjp2rcd13ifvqbh0","pricing_plan_id":"cebpf4jnsgd1na2vs0mg"},{"bike_id":"2395b0db-6e82-47c6-b6f2-1db6eba2fced","system_id":"levelo_inurba_marseille","lat":43.22552,"lon":5.41642,"is_reserved":false,"is_disabled":false,"rental_uris":{"android":"levelo://app?vid=2395b0db-6e82-47c6-b6f2-1db6eba2fced","ios":"levelo://app?vid=2395b0db-6e82-47c6-b6f2-1db6eba2fced"},"vehicle_type_id":"4","last_reported":1761999519,"current_range_meters":10000,"station_id":"st_d2o4gvlbi1j2169b742g","pricing_plan_id":"cebpf4jnsgd1na2vs0mg"},{"bike_id":"83d7ab19-2ebb-4fd5-8c61-a3c20258bcd4","system_id":"levelo_inurba_marseille","lat":43.21191,"lon":5.35064,"is_reserved":false,"is_disabled":false,"rental_uris":{"android":"levelo://app?vid=83d7ab19-2ebb-4fd5-8c61-a3c20258bcd4","ios":"levelo://app?vid=83d7ab19-2ebb-4fd5-8c61-a3c20258bcd4"},"vehicle_type_id":"4","last_reported":1761999519,"current_range_meters":10000,"station_id":"st_cvj6sg6p6f1abm77japg","pricing_plan_id":"cebpf4jnsgd1na2vs0mg"},{"bike_id":"f4d76a5a-d9c2-4f93-ab54-c81b443939d5","system_id":"levelo_inurba_marseille","lat":43.27938,"lon":5.41049,"is_reserved":false,"is_disabled":false,"rental_uris":{"android":"levelo://app?vid=f4d76a5a-d9c2-4f93-ab54-c81b443939d5","ios":"levelo://app?vid=f4d76a5a-d9c2-4f93-ab54-c81b443939d5"},"vehicle_type_id":"4","last_reported":1761999519,"current_range_meters":10000,"station_id":"ce4bhnp2rcd13ifvqh0g","pricing_plan_id":"cebpf4jnsgd1na2vs0mg"},{"bike_id":"dacea13e-ff7f-4447-9d68-7558315e0463","system_id":"levelo_inurba_marseille","lat":43.30436,"lon":5.36734,"is_reserved":false,"is_disabled":false,"rental_uris":{"android":"levelo://app?vid=dacea13e-ff7f-4447-9d68-7558315e0463","ios":"levelo://app?vid=dacea13e-ff7f-4447-9d68-7558315e0463"},"vehicle_type_id":"4","last_reported":1761999519,"current_range_meters":10000,"station_id":"","pricing_plan_id":"cebpf4jnsgd1na2vs0mg"},{"bike_id":"0b2462d4-2ef3-40d1-be0d-a57eb4724e58","system_id":"levelo_inurba_marseille","lat":43.24388,"lon":5.37064,"is_reserved":false,"is_disabled":false,"rental_uris":{"android":"levelo://app?vid=0b2462d4-2ef3-40d1-be0d-a57eb4724e58","ios":"levelo://app?vid=0b2462d4-2ef3-40d1-be0d-a57eb4724e58"},"vehicle_type_id":"4","last_reported":1761999519,"current_range_meters":10800,"station_id":"ce4bhhh2rcd13ifvqfk0","pricing_plan_id":"cebpf4jnsgd1na2vs0mg"},{"bike_id":"6cd59db7-cb12-4301-8385-22b87d7a5cfd","system_id":"levelo_inurba_marseille","lat":43.285368,"lon":5.440971,"is_reserved":false,"is_disabled":false,"rental_uris":{"android":"levelo://app?vid=6cd59db7-cb12-4301-8385-22b87d7a5cfd","ios":"levelo://app?vid=6cd59db7-cb12-4301-8385-22b87d7a5cfd"},"vehicle_type_id":"4","last_reported":1761999519,"current_range_meters":10800,"station_id":"st_d3j3df2ikq2c7380ej80","pricing_plan_id":"cebpf4jnsgd1na2vs0mg"},{"bike_id":"52b117f2-4c01-4f66-887d-006722496528","system_id":"levelo_inurba_marseille","lat":43.308732,"lon":5.371491,"is_reserved":false,"is_disabled":false,"rental_uris":{"android":"levelo://app?vid=52b117f2-4c01-4f66-887d-006722496528","ios":"levelo://app?vid=52b117f2-4c01-4f66-887d-006722496528"},"vehicle_type_id":"4","last_reported":1761999519,"current_range_meters":10800,"station_id":"ce4bguh2rcd13ifvqckg","pricing_plan_id":"cebpf4jnsgd1na2vs0mg"},{"bike_id":"15168256-2f88-47b5-ab36-f1fe9b78a491","system_id":"levelo_inurba_marseille","lat":43.30537,"lon":5.36712,"is_reserved":false,"is_disabled":false,"rental_uris":{"android":"levelo://app?vid=15168256-2f88-47b5-ab36-f1fe9b78a491","ios":"levelo://app?vid=15168256-2f88-47b5-ab36-f1fe9b78a491"},"vehicle_type_id":"4","last_reported":1761999519,"current_range_meters":10800,"station_id":"ce4bgrp2rcd13ifvqc9g","pricing_plan_id":"cebpf4jnsgd1na2vs0mg"},{"bike_id":"7644a791-53ae-46ad-8b09-2baa1b987eb2","system_id":"levelo_inurba_marseille","lat":43.23196,"lon":5.35548,"is_reserved":false,"is_disabled":false,"rental_uris":{"android":"levelo://app?vid=7644a791-53ae-46ad-8b09-2baa1b987eb2","ios":"levelo://app?vid=7644a791-53ae-46ad-8b09-2baa1b987eb2"},"vehicle_type_id":"4","last_reported":1761999519,"current_range_meters":10800,"station_id":"ce4bhu92rcd13ifvqi70","pricing_plan_id":"cebpf4jnsgd1na2vs0mg"},{"bike_id":"07d9cad5-27e5-45b1-8100-dec66cdbf239","system_id":"levelo_inurba_marseille","lat":43.32102,"lon":5.36772,"is_reserved":false,"is_disabled":false,"rental_uris":{"android":"levelo://app?vid=07d9cad5-27e5-45b1-8100-dec66cdbf239","ios":"levelo://app?vid=07d9cad5-27e5-45b1-8100-dec66cdbf239"},"vehicle_type_id":"4","last_reported":1761999519,"current_range_meters":10800,"station_id":"ce4bhrh2rcd13ifvqhug","pricing_plan_id":"cebpf4jnsgd1na2vs0mg"},{"bike_id":"f34db612-7437-4eb6-b622-d7f6824be59a","system_id":"levelo_inurba_marseille","lat":43.28554,"lon":5.44128,"is_reserved":false,"is_disabled":false,"rental_uris":{"android":"levelo://app?vid=f34db612-7437-4eb6-b622-d7f6824be59a","ios":"levelo://app?vid=f34db612-7437-4eb6-b622-d7f6824be59a"},"vehicle_type_id":"4","last_reported":1761999519,"current_range_meters":10800,"station_id":"st_d3j3df2ikq2c7380ej80","pricing_plan_id":"cebpf4jnsgd1na2vs0mg"},{"bike_id":"7f4731d6-6be7-49ab-a86f-5454026e50fe","system_id":"levelo_inurba_marseille","lat":43.34147,"lon":5.40901,"is_reserved":false,"is_disabled":false,"rental_uris":{"android":"levelo://app?vid=7f4731d6-6be7-49ab-a86f-5454026e50fe","ios":"levelo://app?vid=7f4731d6-6be7-49ab-a86f-5454026e50fe"},"vehicle_type_id":"4","last_reported":1761999519,"current_range_meters":11200,"station_id":"ce4bhqh2rcd13ifvqhlg","pricing_plan_id":"cebpf4jnsgd1na2vs0mg"},{"bike_id":"d5216891-0792-4f7c-b512-d16314961536","system_id":"levelo_inurba_marseille","lat":43.26212,"lon":5.37442,"is_reserved":false,"is_disabled":false,"rental_uris":{"android":"levelo://app?vid=d5216891-0792-4f7c-b512-d16314961536","ios":"levelo://app?vid=d5216891-0792-4f7c-b512-d16314961536"},"vehicle_type_id":"4","last_reported":1761999519,"current_range_meters":11200,"station_id":"ce4bhgp2rcd13ifvqfc0","pricing_plan_id":"cebpf4jnsgd1na2vs0mg"},{"bike_id":"431bf94e-531e-4d14-8e95-24ec21283416","system_id":"levelo_inurba_marseille","lat":43.29514,"lon":5.3751,"is_reserved":false,"is_disabled":false,"rental_uris":{"android":"levelo://app?vid=431bf94e-531e-4d14-8e95-24ec21283416","ios":"levelo://app?vid=431bf94e-531e-4d14-8e95-24ec21283416"},"vehicle_type_id":"4","last_reported":1761999519,"current_range_meters":11200,"station_id":"ce4bgkp2rcd13ifvqbmg","pricing_plan_id":"cebpf4jnsgd1na2vs0mg"},{"bike_id":"ef3c599f-c4ca-4eb8-aa71-b3f4816507b8","system_id":"levelo_inurba_marseille","lat":43.29482,"lon":5.43313,"is_reserved":false,"is_disabled":false,"rental_uris":{"android":"levelo://app?vid=ef3c599f-c4ca-4eb8-aa71-b3f4816507b8","ios":"levelo://app?vid=ef3c599f-c4ca-4eb8-aa71-b3f4816507b8"},"vehicle_type_id":"4","last_reported":1761999519,"current_range_meters":11200,"station_id":"st_d3j5ugp08ojc73fj9d10","pricing_plan_id":"cebpf4jnsgd1na2vs0mg"},{"bike_id":"91d315bf-bf7a-40b7-bd30-9c9be63d88a8","system_id":"levelo_inurba_marseille","lat":43.25824,"lon":5.39429,"is_reserved":false,"is_disabled":false,"rental_uris":{"android":"levelo://app?vid=91d315bf-bf7a-40b7-bd30-9c9be63d88a8","ios":"levelo://app?vid=91d315bf-bf7a-40b7-bd30-9c9be63d88a8"},"vehicle_type_id":"4","last_reported":1761999519,"current_range_meters":11200,"station_id":"ce4bhip2rcd13ifvqft0","pricing_plan_id":"cebpf4jnsgd1na2vs0mg"},{"bike_id":"3e0ee96b-8fbf-40c7-b23e-bbfbbf69c224","system_id":"levelo_inurba_marseille","lat":43.28528,"lon":5.44103,"is_reserved":false,"is_disabled":false,"rental_uris":{"android":"levelo://app?vid=3e0ee96b-8fbf-40c7-b23e-bbfbbf69c224","ios":"levelo://app?vid=3e0ee96b-8fbf-40c7-b23e-bbfbbf69c224"},"vehicle_type_id":"4","last_reported":1761999519,"current_range_meters":11200,"station_id":"st_d3j3df2ikq2c7380ej80","pricing_plan_id":"cebpf4jnsgd1na2vs0mg"},{"bike_id":"74b15735-564b-4f09-952a-ba8cccb96884","system_id":"levelo_inurba_marseille","lat":43.298162,"lon":5.44069,"is_reserved":false,"is_disabled":false,"rental_uris":{"android":"levelo://app?vid=74b15735-564b-4f09-952a-ba8cccb96884","ios":"levelo://app?vid=74b15735-564b-4f09-952a-ba8cccb96884"},"vehicle_type_id":"4","last_reported":1761999519,"current_range_meters":11200,"station_id":"","pricing_plan_id":"cebpf4jnsgd1na2vs0mg"},{"bike_id":"1d84fc5a-2448-4e8a-aec1-2415dc97e40f","system_id":"levelo_inurba_marseille","lat":43.24545,"lon":5.39521,"is_reserved":false,"is_disabled":false,"rental_uris":{"android":"levelo://app?vid=1d84fc5a-2448-4e8a-aec1-2415dc97e40f","ios":"levelo://app?vid=1d84fc5a-2448-4e8a-aec1-2415dc97e40f"},"vehicle_type_id":"4","last_reported":1761999519,"current_range_meters":11600,"station_id":"ce4bhlp2rcd13ifvqgjg","pricing_plan_id":"cebpf4jnsgd1na2vs0mg"},{"bike_id":"8546e8e7-510b-44ce-8f7d-04b556c52f1e","system_id":"levelo_inurba_marseille","lat":43.24077,"lon":5.3777,"is_reserved":false,"is_disabled":false,"rental_uris":{"android":"levelo://app?vid=8546e8e7-510b-44ce-8f7d-04b556c52f1e","ios":"levelo://app?vid=8546e8e7-510b-44ce-8f7d-04b556c52f1e"},"vehicle_type_id":"4","last_reported":1761999519,"current_range_meters":12000,"station_id":"ce4bhnp2rcd13ifvqgvg","pricing_plan_id":"cebpf4jnsgd1na2vs0mg"},{"bike_id":"aeb250f6-9d26-491b-956a-8a106fbeece8","system_id":"levelo_inurba_marseille","lat":43.22557,"lon":5.41636,"is_reserved":false,"is_disabled":false,"rental_uris":{"android":"levelo://app?vid=aeb250f6-9d26-491b-956a-8a106fbeece8","ios":"levelo://app?vid=aeb250f6-9d26-491b-956a-8a106fbeece8"},"vehicle_type_id":"4","last_reported":1761999519,"current_range_meters":12000,"station_id":"st_d2o4gvlbi1j2169b742g","pricing_plan_id":"cebpf4jnsgd1na2vs0mg"},{"bike_id":"fc824454-039c-4f1f-b223-095e5958370f","system_id":"levelo_inurba_marseille","lat":43.3027,"lon":5.37698,"is_reserved":false,"is_disabled":false,"rental_uris":{"android":"levelo://app?vid=fc824454-039c-4f1f-b223-095e5958370f","ios":"levelo://app?vid=fc824454-039c-4f1f-b223-095e5958370f"},"vehicle_type_id":"4","last_reported":1761999519,"current_range_meters":12000,"station_id":"ce4bguh2rcd13ifvqcj0","pricing_plan_id":"cebpf4jnsgd1na2vs0mg"},{"bike_id":"f13402d6-bcfe-43c6-9455-f54d46eee62e","system_id":"levelo_inurba_marseille","lat":43.30458,"lon":5.36749,"is_reserved":false,"is_disabled":false,"rental_uris":{"android":"levelo://app?vid=f13402d6-bcfe-43c6-9455-f54d46eee62e","ios":"levelo://app?vid=f13402d6-bcfe-43c6-9455-f54d46eee62e"},"vehicle_type_id":"4","last_reported":1761999519,"current_range_meters":12000,"station_id":"","pricing_plan_id":"cebpf4jnsgd1na2vs0mg"},{"bike_id":"6df5d1b3-a573-47f0-acd9-dcc1039518a8","system_id":"levelo_inurba_marseille","lat":43.27938,"lon":5.41043,"is_reserved":false,"is_disabled":false,"rental_uris":{"android":"levelo://app?vid=6df5d1b3-a573-47f0-acd9-dcc1039518a8","ios":"levelo://app?vid=6df5d1b3-a573-47f0-acd9-dcc1039518a8"},"vehicle_type_id":"4","last_reported":1761999519,"current_range_meters":12000,"station_id":"ce4bhnp2rcd13ifvqh0g","pricing_plan_id":"cebpf4jnsgd1na2vs0mg"},{"bike_id":"1fc3004a-01dd-49f4-8601-2877bde851e3","system_id":"levelo_inurba_marseille","lat":43.30796,"lon":5.43517,"is_reserved":false,"is_disabled":false,"rental_uris":{"android":"levelo://app?vid=1fc3004a-01dd-49f4-8601-2877bde851e3","ios":"levelo://app?vid=1fc3004a-01dd-49f4-8601-2877bde851e3"},"vehicle_type_id":"4","last_reported":1761999519,"current_range_meters":12400,"station_id":"","pricing_plan_id":"cebpf4jnsgd1na2vs0mg"},{"bike_id":"b1e81361-2b17-4ef1-8a58-6def5753471b","system_id":"levelo_inurba_marseille","lat":43.33753,"lon":5.37484,"is_reserved":false,"is_disabled":false,"rental_uris":{"android":"levelo://app?vid=b1e81361-2b17-4ef1-8a58-6def5753471b","ios":"levelo://app?vid=b1e81361-2b17-4ef1-8a58-6def5753471b"},"vehicle_type_id":"4","last_reported":1761999519,"current_range_meters":12400,"station_id":"","pricing_plan_id":"cebpf4jnsgd1na2vs0mg"},{"bike_id":"e04f332d-b41c-47fd-b12f-6fdc7d63f429","system_id":"levelo_inurba_marseille","lat":43.308561,"lon":5.382981,"is_reserved":false,"is_disabled":false,"rental_uris":{"android":"levelo://app?vid=e04f332d-b41c-47fd-b12f-6fdc7d63f429","ios":"levelo://app?vid=e04f332d-b41c-47fd-b12f-6fdc7d63f429"},"vehicle_type_id":"4","last_reported":1761999519,"current_range_meters":12400,"station_id":"","pricing_plan_id":"cebpf4jnsgd1na2vs0mg"},{"bike_id":"c2807477-fd8d-44ed-9bdc-b3f90f0cbde0","system_id":"levelo_inurba_marseille","lat":43.31876,"lon":5.39992,"is_reserved":false,"is_disabled":false,"rental_uris":{"android":"levelo://app?vid=c2807477-fd8d-44ed-9bdc-b3f90f0cbde0","ios":"levelo://app?vid=c2807477-fd8d-44ed-9bdc-b3f90f0cbde0"},"vehicle_type_id":"4","last_reported":1761999519,"current_range_meters":12400,"station_id":"","pricing_plan_id":"cebpf4jnsgd1na2vs0mg"},{"bike_id":"44dcfba7-3720-4214-80db-f6574feaa764","system_id":"levelo_inurba_marseille","lat":43.2976,"lon":5.42777,"is_reserved":false,"is_disabled":false,"rental_uris":{"android":"levelo://app?vid=44dcfba7-3720-4214-80db-f6574feaa764","ios":"levelo://app?vid=44dcfba7-3720-4214-80db-f6574feaa764"},"vehicle_type_id":"4","last_reported":1761999519,"current_range_meters":12400,"station_id":"st_d3md5207bmas73dh9klg","pricing_plan_id":"cebpf4jnsgd1na2vs0mg"},{"bike_id":"53dc9ac6-5d68-43e2-a4dc-0f0020b4a51e","system_id":"levelo_inurba_marseille","lat":43.288147,"lon":5.391652,"is_reserved":false,"is_disabled":false,"rental_uris":{"android":"levelo://app?vid=53dc9ac6-5d68-43e2-a4dc-0f0020b4a51e","ios":"levelo://app?vid=53dc9ac6-5d68-43e2-a4dc-0f0020b4a51e"},"vehicle_type_id":"4","last_reported":1761999519,"current_range_meters":12800,"station_id":"","pricing_plan_id":"cebpf4jnsgd1na2vs0mg"},{"bike_id":"1acea688-eec6-4707-af41-61f98f4a72c3","system_id":"levelo_inurba_marseille","lat":43.30551,"lon":5.36522,"is_reserved":false,"is_disabled":false,"rental_uris":{"android":"levelo://app?vid=1acea688-eec6-4707-af41-61f98f4a72c3","ios":"levelo://app?vid=1acea688-eec6-4707-af41-61f98f4a72c3"},"vehicle_type_id":"4","last_reported":1761999519,"current_range_meters":12800,"station_id":"ce4bgs12rcd13ifvqcag","pricing_plan_id":"cebpf4jnsgd1na2vs0mg"},{"bike_id":"5a02a716-ea30-425d-a4c9-4cf34ce22f3a","system_id":"levelo_inurba_marseille","lat":43.28851,"lon":5.39308,"is_reserved":false,"is_disabled":false,"rental_uris":{"android":"levelo://app?vid=5a02a716-ea30-425d-a4c9-4cf34ce22f3a","ios":"levelo://app?vid=5a02a716-ea30-425d-a4c9-4cf34ce22f3a"},"vehicle_type_id":"4","last_reported":1761999519,"current_range_meters":12800,"station_id":"ce4bh2p2rcd13ifvqdi0","pricing_plan_id":"cebpf4jnsgd1na2vs0mg"},{"bike_id":"a97109ee-10ef-421f-881a-5be1f0dd9f7e","system_id":"levelo_inurba_marseille","lat":43.26191,"lon":5.37451,"is_reserved":false,"is_disabled":false,"rental_uris":{"android":"levelo://app?vid=a97109ee-10ef-421f-881a-5be1f0dd9f7e","ios":"levelo://app?vid=a97109ee-10ef-421f-881a-5be1f0dd9f7e"},"vehicle_type_id":"4","last_reported":1761999519,"current_range_meters":12800,"station_id":"ce4bhgp2rcd13ifvqfc0","pricing_plan_id":"cebpf4jnsgd1na2vs0mg"},{"bike_id":"5224dfc5-e8f6-493a-a7c3-4cc676f55caf","system_id":"levelo_inurba_marseille","lat":43.23961,"lon":5.36624,"is_reserved":false,"is_disabled":false,"rental_uris":{"android":"levelo://app?vid=5224dfc5-e8f6-493a-a7c3-4cc676f55caf","ios":"levelo://app?vid=5224dfc5-e8f6-493a-a7c3-4cc676f55caf"},"vehicle_type_id":"4","last_reported":1761999519,"current_range_meters":13600,"station_id":"ce4bhi12rcd13ifvqfp0","pricing_plan_id":"cebpf4jnsgd1na2vs0mg"},{"bike_id":"ae3598c3-d5d8-4133-922b-9187802cb4d8","system_id":"levelo_inurba_marseille","lat":43.32099,"lon":5.36789,"is_reserved":false,"is_disabled":false,"rental_uris":{"android":"levelo://app?vid=ae3598c3-d5d8-4133-922b-9187802cb4d8","ios":"levelo://app?vid=ae3598c3-d5d8-4133-922b-9187802cb4d8"},"vehicle_type_id":"4","last_reported":1761999519,"current_range_meters":13600,"station_id":"ce4bhrh2rcd13ifvqhug","pricing_plan_id":"cebpf4jnsgd1na2vs0mg"},{"bike_id":"bc97e72b-f479-4cfb-ba90-458ce1432bd8","system_id":"levelo_inurba_marseille","lat":43.30276,"lon":5.37703,"is_reserved":false,"is_disabled":false,"rental_uris":{"android":"levelo://app?vid=bc97e72b-f479-4cfb-ba90-458ce1432bd8","ios":"levelo://app?vid=bc97e72b-f479-4cfb-ba90-458ce1432bd8"},"vehicle_type_id":"4","last_reported":1761999519,"current_range_meters":13600,"station_id":"ce4bguh2rcd13ifvqcj0","pricing_plan_id":"cebpf4jnsgd1na2vs0mg"},{"bike_id":"0d33b67b-5d6f-4ac9-89f9-6a65e050f198","system_id":"levelo_inurba_marseille","lat":43.30149,"lon":5.38078,"is_reserved":false,"is_disabled":false,"rental_uris":{"android":"levelo://app?vid=0d33b67b-5d6f-4ac9-89f9-6a65e050f198","ios":"levelo://app?vid=0d33b67b-5d6f-4ac9-89f9-6a65e050f198"},"vehicle_type_id":"4","last_reported":1761999519,"current_range_meters":13600,"station_id":"ce4bgjp2rcd13ifvqbh0","pricing_plan_id":"cebpf4jnsgd1na2vs0mg"},{"bike_id":"c04ea6ec-c85d-4b9a-aa74-f0de2415a6d2","system_id":"levelo_inurba_marseille","lat":43.31573,"lon":5.38387,"is_reserved":false,"is_disabled":false,"rental_uris":{"android":"levelo://app?vid=c04ea6ec-c85d-4b9a-aa74-f0de2415a6d2","ios":"levelo://app?vid=c04ea6ec-c85d-4b9a-aa74-f0de2415a6d2"},"vehicle_type_id":"4","last_reported":1761999519,"current_range_meters":13600,"station_id":"","pricing_plan_id":"cebpf4jnsgd1na2vs0mg"},{"bike_id":"fbcc5886-69e3-488f-96fd-e45314a075e6","system_id":"levelo_inurba_marseille","lat":43.28868,"lon":5.42512,"is_reserved":false,"is_disabled":false,"rental_uris":{"android":"levelo://app?vid=fbcc5886-69e3-488f-96fd-e45314a075e6","ios":"levelo://app?vid=fbcc5886-69e3-488f-96fd-e45314a075e6"},"vehicle_type_id":"4","last_reported":1761999519,"current_range_meters":13600,"station_id":"st_d3b462108ojc7389ooeg","pricing_plan_id":"cebpf4jnsgd1na2vs0mg"},{"bike_id":"712b7649-f440-4e95-bc0a-6525a9259dc8","system_id":"levelo_inurba_marseille","lat":43.2914,"lon":5.40222,"is_reserved":false,"is_disabled":false,"rental_uris":{"android":"levelo://app?vid=712b7649-f440-4e95-bc0a-6525a9259dc8","ios":"levelo://app?vid=712b7649-f440-4e95-bc0a-6525a9259dc8"},"vehicle_type_id":"4","last_reported":1761999519,"current_range_meters":13600,"station_id":"","pricing_plan_id":"cebpf4jnsgd1na2vs0mg"},{"bike_id":"a3774602-6291-4068-ad68-36cb14644c80","system_id":"levelo_inurba_marseille","lat":43.2956,"lon":5.37513,"is_reserved":false,"is_disabled":false,"rental_uris":{"android":"levelo://app?vid=a3774602-6291-4068-ad68-36cb14644c80","ios":"levelo://app?vid=a3774602-6291-4068-ad68-36cb14644c80"},"vehicle_type_id":"4","last_reported":1761999519,"current_range_meters":14000,"station_id":"ce4bgkp2rcd13ifvqbmg","pricing_plan_id":"cebpf4jnsgd1na2vs0mg"},{"bike_id":"68dfe5bf-96d8-40ed-a701-d1cafa21ceb7","system_id":"levelo_inurba_marseille","lat":43.305783,"lon":5.389664,"is_reserved":false,"is_disabled":false,"rental_uris":{"android":"levelo://app?vid=68dfe5bf-96d8-40ed-a701-d1cafa21ceb7","ios":"levelo://app?vid=68dfe5bf-96d8-40ed-a701-d1cafa21ceb7"},"vehicle_type_id":"4","last_reported":1761999519,"current_range_meters":14000,"station_id":"ce4bgk12rcd13ifvqbi0","pricing_plan_id":"cebpf4jnsgd1na2vs0mg"},{"bike_id":"7a9e1e86-52dc-42e4-a53b-236a591ba00d","system_id":"levelo_inurba_marseille","lat":43.2882,"lon":5.36369,"is_reserved":false,"is_disabled":false,"rental_uris":{"android":"levelo://app?vid=7a9e1e86-52dc-42e4-a53b-236a591ba00d","ios":"levelo://app?vid=7a9e1e86-52dc-42e4-a53b-236a591ba00d"},"vehicle_type_id":"4","last_reported":1761999519,"current_range_meters":14400,"station_id":"","pricing_plan_id":"cebpf4jnsgd1na2vs0mg"},{"bike_id":"8ccfee4c-f8ac-44db-8261-ad497eab526d","system_id":"levelo_inurba_marseille","lat":43.29303,"lon":5.3746,"is_reserved":false,"is_disabled":false,"rental_uris":{"android":"levelo://app?vid=8ccfee4c-f8ac-44db-8261-ad497eab526d","ios":"levelo://app?vid=8ccfee4c-f8ac-44db-8261-ad497eab526d"},"vehicle_type_id":"4","last_reported":1761999519,"current_range_meters":14400,"station_id":"ce4bgi12rcd13ifvqb70","pricing_plan_id":"cebpf4jnsgd1na2vs0mg"},{"bike_id":"78f9b7df-8233-4f54-9163-a79804cd7986","system_id":"levelo_inurba_marseille","lat":43.243908,"lon":5.370638,"is_reserved":false,"is_disabled":false,"rental_uris":{"android":"levelo://app?vid=78f9b7df-8233-4f54-9163-a79804cd7986","ios":"levelo://app?vid=78f9b7df-8233-4f54-9163-a79804cd7986"},"vehicle_type_id":"4","last_reported":1761999519,"current_range_meters":14400,"station_id":"ce4bhhh2rcd13ifvqfk0","pricing_plan_id":"cebpf4jnsgd1na2vs0mg"},{"bike_id":"96cbfedc-d9e0-46b4-9278-ed5bad333296","system_id":"levelo_inurba_marseille","lat":43.29264,"lon":5.36842,"is_reserved":false,"is_disabled":false,"rental_uris":{"android":"levelo://app?vid=96cbfedc-d9e0-46b4-9278-ed5bad333296","ios":"levelo://app?vid=96cbfedc-d9e0-46b4-9278-ed5bad333296"},"vehicle_type_id":"4","last_reported":1761999519,"current_range_meters":14400,"station_id":"ce4bhbp2rcd13ifvqesg","pricing_plan_id":"cebpf4jnsgd1na2vs0mg"},{"bike_id":"e25684da-4040-4077-bcbf-5d8fa9ba59a9","system_id":"levelo_inurba_marseille","lat":43.270618,"lon":5.402605,"is_reserved":false,"is_disabled":false,"rental_uris":{"android":"levelo://app?vid=e25684da-4040-4077-bcbf-5d8fa9ba59a9","ios":"levelo://app?vid=e25684da-4040-4077-bcbf-5d8fa9ba59a9"},"vehicle_type_id":"4","last_reported":1761999519,"current_range_meters":14400,"station_id":"ce4bhk92rcd13ifvqgc0","pricing_plan_id":"cebpf4jnsgd1na2vs0mg"},{"bike_id":"5d4ea76f-92d5-46d2-aef5-13d5fc4809fa","system_id":"levelo_inurba_marseille","lat":43.21191,"lon":5.35073,"is_reserved":false,"is_disabled":false,"rental_uris":{"android":"levelo://app?vid=5d4ea76f-92d5-46d2-aef5-13d5fc4809fa","ios":"levelo://app?vid=5d4ea76f-92d5-46d2-aef5-13d5fc4809fa"},"vehicle_type_id":"4","last_reported":1761999519,"current_range_meters":14400,"station_id":"st_cvj6sg6p6f1abm77japg","pricing_plan_id":"cebpf4jnsgd1na2vs0mg"},{"bike_id":"3de3665a-9cf0-4883-af3c-2a3e3245fbc5","system_id":"levelo_inurba_marseille","lat":43.2847,"lon":5.38544,"is_reserved":false,"is_disabled":false,"rental_uris":{"android":"levelo://app?vid=3de3665a-9cf0-4883-af3c-2a3e3245fbc5","ios":"levelo://app?vid=3de3665a-9cf0-4883-af3c-2a3e3245fbc5"},"vehicle_type_id":"4","last_reported":1761999519,"current_range_meters":14800,"station_id":"ce4bh8p2rcd13ifvqeb0","pricing_plan_id":"cebpf4jnsgd1na2vs0mg"},{"bike_id":"9b528f9a-4ac4-4796-aeb5-0bae3ddc60ae","system_id":"levelo_inurba_marseille","lat":43.260307,"lon":5.375476,"is_reserved":false,"is_disabled":false,"rental_uris":{"android":"levelo://app?vid=9b528f9a-4ac4-4796-aeb5-0bae3ddc60ae","ios":"levelo://app?vid=9b528f9a-4ac4-4796-aeb5-0bae3ddc60ae"},"vehicle_type_id":"4","last_reported":1761999519,"current_range_meters":14800,"station_id":"ce4bhgh2rcd13ifvqfa0","pricing_plan_id":"cebpf4jnsgd1na2vs0mg"},{"bike_id":"90ea3df4-b5b6-4178-9a51-b6f256a79e15","system_id":"levelo_inurba_marseille","lat":43.21745,"lon":5.34604,"is_reserved":false,"is_disabled":false,"rental_uris":{"android":"levelo://app?vid=90ea3df4-b5b6-4178-9a51-b6f256a79e15","ios":"levelo://app?vid=90ea3df4-b5b6-4178-9a51-b6f256a79e15"},"vehicle_type_id":"4","last_reported":1761999519,"current_range_meters":14800,"station_id":"st_cvj6r9ubvosntc0bgbag","pricing_plan_id":"cebpf4jnsgd1na2vs0mg"},{"bike_id":"f4c38a56-4a35-49a9-bdea-5d14ae1ba768","system_id":"levelo_inurba_marseille","lat":43.29759,"lon":5.42784,"is_reserved":false,"is_disabled":false,"rental_uris":{"android":"levelo://app?vid=f4c38a56-4a35-49a9-bdea-5d14ae1ba768","ios":"levelo://app?vid=f4c38a56-4a35-49a9-bdea-5d14ae1ba768"},"vehicle_type_id":"4","last_reported":1761999519,"current_range_meters":14800,"station_id":"st_d3md5207bmas73dh9klg","pricing_plan_id":"cebpf4jnsgd1na2vs0mg"},{"bike_id":"cd34d17f-3532-46cd-94d6-9f325351c996","system_id":"levelo_inurba_marseille","lat":43.26567,"lon":5.40323,"is_reserved":false,"is_disabled":false,"rental_uris":{"android":"levelo://app?vid=cd34d17f-3532-46cd-94d6-9f325351c996","ios":"levelo://app?vid=cd34d17f-3532-46cd-94d6-9f325351c996"},"vehicle_type_id":"4","last_reported":1761999519,"current_range_meters":14800,"station_id":"ce4bhmp2rcd13ifvqgng","pricing_plan_id":"cebpf4jnsgd1na2vs0mg"},{"bike_id":"9b84df65-6fcc-427a-a60f-e07d73f1269f","system_id":"levelo_inurba_marseille","lat":43.23963,"lon":5.366259,"is_reserved":false,"is_disabled":false,"rental_uris":{"android":"levelo://app?vid=9b84df65-6fcc-427a-a60f-e07d73f1269f","ios":"levelo://app?vid=9b84df65-6fcc-427a-a60f-e07d73f1269f"},"vehicle_type_id":"4","last_reported":1761999519,"current_range_meters":14800,"station_id":"ce4bhi12rcd13ifvqfp0","pricing_plan_id":"cebpf4jnsgd1na2vs0mg"},{"bike_id":"0089665c-d050-4f0d-8d27-e9a6af9208fc","system_id":"levelo_inurba_marseille","lat":43.30184,"lon":5.38027,"is_reserved":false,"is_disabled":false,"rental_uris":{"android":"levelo://app?vid=0089665c-d050-4f0d-8d27-e9a6af9208fc","ios":"levelo://app?vid=0089665c-d050-4f0d-8d27-e9a6af9208fc"},"vehicle_type_id":"4","last_reported":1761999519,"current_range_meters":14800,"station_id":"","pricing_plan_id":"cebpf4jnsgd1na2vs0mg"},{"bike_id":"0c3bfe72-1bfa-4fe4-8ec1-abc531b0b6c5","system_id":"levelo_inurba_marseille","lat":43.26545,"lon":5.37285,"is_reserved":false,"is_disabled":true,"rental_uris":{"android":"levelo://app?vid=0c3bfe72-1bfa-4fe4-8ec1-abc531b0b6c5","ios":"levelo://app?vid=0c3bfe72-1bfa-4fe4-8ec1-abc531b0b6c5"},"vehicle_type_id":"4","last_reported":1761999519,"current_range_meters":14800,"station_id":"ce4bhg12rcd13ifvqf70","pricing_plan_id":"cebpf4jnsgd1na2vs0mg"},{"bike_id":"2aa1046b-dac3-4f5f-8bf0-201a34267787","system_id":"levelo_inurba_marseille","lat":43.2119,"lon":5.35077,"is_reserved":false,"is_disabled":false,"rental_uris":{"android":"levelo://app?vid=2aa1046b-dac3-4f5f-8bf0-201a34267787","ios":"levelo://app?vid=2aa1046b-dac3-4f5f-8bf0-201a34267787"},"vehicle_type_id":"4","last_reported":1761999519,"current_range_meters":14800,"station_id":"st_cvj6sg6p6f1abm77japg","pricing_plan_id":"cebpf4jnsgd1na2vs0mg"},{"bike_id":"a2c6fd4c-0900-4918-8bc2-05a21678876c","system_id":"levelo_inurba_marseille","lat":43.27374,"lon":5.36258,"is_reserved":false,"is_disabled":false,"rental_uris":{"android":"levelo://app?vid=a2c6fd4c-0900-4918-8bc2-05a21678876c","ios":"levelo://app?vid=a2c6fd4c-0900-4918-8bc2-05a21678876c"},"vehicle_type_id":"4","last_reported":1761999519,"current_range_meters":14800,"station_id":"ce4bhbh2rcd13ifvqeo0","pricing_plan_id":"cebpf4jnsgd1na2vs0mg"},{"bike_id":"1da464de-a87c-49fb-939a-9732a97a4ebd","system_id":"levelo_inurba_marseille","lat":43.32111,"lon":5.36768,"is_reserved":false,"is_disabled":false,"rental_uris":{"android":"levelo://app?vid=1da464de-a87c-49fb-939a-9732a97a4ebd","ios":"levelo://app?vid=1da464de-a87c-49fb-939a-9732a97a4ebd"},"vehicle_type_id":"4","last_reported":1761999519,"current_range_meters":15200,"station_id":"ce4bhrh2rcd13ifvqhug","pricing_plan_id":"cebpf4jnsgd1na2vs0mg"},{"bike_id":"1158a4f5-0465-4b2a-8b10-8dd281918206","system_id":"levelo_inurba_marseille","lat":43.2549,"lon":5.37652,"is_reserved":false,"is_disabled":false,"rental_uris":{"android":"levelo://app?vid=1158a4f5-0465-4b2a-8b10-8dd281918206","ios":"levelo://app?vid=1158a4f5-0465-4b2a-8b10-8dd281918206"},"vehicle_type_id":"4","last_reported":1761999519,"current_range_meters":15200,"station_id":"ce4bhh12rcd13ifvqff0","pricing_plan_id":"cebpf4jnsgd1na2vs0mg"},{"bike_id":"bd81e728-96f5-42d5-a60b-8dcd5e10c0f5","system_id":"levelo_inurba_marseille","lat":43.229313,"lon":5.353769,"is_reserved":false,"is_disabled":false,"rental_uris":{"android":"levelo://app?vid=bd81e728-96f5-42d5-a60b-8dcd5e10c0f5","ios":"levelo://app?vid=bd81e728-96f5-42d5-a60b-8dcd5e10c0f5"},"vehicle_type_id":"4","last_reported":1761999519,"current_range_meters":15200,"station_id":"cpo3532slgdg3j2ikp40","pricing_plan_id":"cebpf4jnsgd1na2vs0mg"},{"bike_id":"0687881b-cee6-48ef-8ed6-7b8c2a347f5c","system_id":"levelo_inurba_marseille","lat":43.29439,"lon":5.39755,"is_reserved":false,"is_disabled":false,"rental_uris":{"android":"levelo://app?vid=0687881b-cee6-48ef-8ed6-7b8c2a347f5c","ios":"levelo://app?vid=0687881b-cee6-48ef-8ed6-7b8c2a347f5c"},"vehicle_type_id":"4","last_reported":1761999519,"current_range_meters":15200,"station_id":"ce4bh3h2rcd13ifvqdo0","pricing_plan_id":"cebpf4jnsgd1na2vs0mg"},{"bike_id":"35c5eff1-6c48-49f5-b44e-1b2d21fe3798","system_id":"levelo_inurba_marseille","lat":43.32095,"lon":5.36784,"is_reserved":false,"is_disabled":false,"rental_uris":{"android":"levelo://app?vid=35c5eff1-6c48-49f5-b44e-1b2d21fe3798","ios":"levelo://app?vid=35c5eff1-6c48-49f5-b44e-1b2d21fe3798"},"vehicle_type_id":"4","last_reported":1761999519,"current_range_meters":15200,"station_id":"ce4bhrh2rcd13ifvqhug","pricing_plan_id":"cebpf4jnsgd1na2vs0mg"},{"bike_id":"1c2de41b-474e-40da-99a4-719f00c24016","system_id":"levelo_inurba_marseille","lat":43.22565,"lon":5.41627,"is_reserved":false,"is_disabled":false,"rental_uris":{"android":"levelo://app?vid=1c2de41b-474e-40da-99a4-719f00c24016","ios":"levelo://app?vid=1c2de41b-474e-40da-99a4-719f00c24016"},"vehicle_type_id":"4","last_reported":1761999519,"current_range_meters":15200,"station_id":"st_d2o4gvlbi1j2169b742g","pricing_plan_id":"cebpf4jnsgd1na2vs0mg"},{"bike_id":"f87a3b79-11da-430a-b9c8-69015821ac16","system_id":"levelo_inurba_marseille","lat":43.30161,"lon":5.38073,"is_reserved":false,"is_disabled":false,"rental_uris":{"android":"levelo://app?vid=f87a3b79-11da-430a-b9c8-69015821ac16","ios":"levelo://app?vid=f87a3b79-11da-430a-b9c8-69015821ac16"},"vehicle_type_id":"4","last_reported":1761999519,"current_range_meters":15200,"station_id":"ce4bgjp2rcd13ifvqbh0","pricing_plan_id":"cebpf4jnsgd1na2vs0mg"},{"bike_id":"01101f52-783d-4a69-b659-15bcb3f48805","system_id":"levelo_inurba_marseille","lat":43.31191,"lon":5.37881,"is_reserved":false,"is_disabled":false,"rental_uris":{"android":"levelo://app?vid=01101f52-783d-4a69-b659-15bcb3f48805","ios":"levelo://app?vid=01101f52-783d-4a69-b659-15bcb3f48805"},"vehicle_type_id":"4","last_reported":1761999519,"current_range_meters":15200,"station_id":"","pricing_plan_id":"cebpf4jnsgd1na2vs0mg"},{"bike_id":"bfd47976-4b12-4a3a-abee-96cc29a7d071","system_id":"levelo_inurba_marseille","lat":43.2948,"lon":5.43298,"is_reserved":false,"is_disabled":false,"rental_uris":{"android":"levelo://app?vid=bfd47976-4b12-4a3a-abee-96cc29a7d071","ios":"levelo://app?vid=bfd47976-4b12-4a3a-abee-96cc29a7d071"},"vehicle_type_id":"4","last_reported":1761999519,"current_range_meters":16000,"station_id":"st_d3j5ugp08ojc73fj9d10","pricing_plan_id":"cebpf4jnsgd1na2vs0mg"},{"bike_id":"05a43803-6330-4f9d-8f80-87bc3917bace","system_id":"levelo_inurba_marseille","lat":43.24392,"lon":5.37057,"is_reserved":false,"is_disabled":false,"rental_uris":{"android":"levelo://app?vid=05a43803-6330-4f9d-8f80-87bc3917bace","ios":"levelo://app?vid=05a43803-6330-4f9d-8f80-87bc3917bace"},"vehicle_type_id":"4","last_reported":1761999519,"current_range_meters":16000,"station_id":"ce4bhhh2rcd13ifvqfk0","pricing_plan_id":"cebpf4jnsgd1na2vs0mg"},{"bike_id":"b53b410a-a40b-481b-9abe-ce5047676323","system_id":"levelo_inurba_marseille","lat":43.2953,"lon":5.37507,"is_reserved":false,"is_disabled":false,"rental_uris":{"android":"levelo://app?vid=b53b410a-a40b-481b-9abe-ce5047676323","ios":"levelo://app?vid=b53b410a-a40b-481b-9abe-ce5047676323"},"vehicle_type_id":"4","last_reported":1761999519,"current_range_meters":16000,"station_id":"ce4bgkp2rcd13ifvqbmg","pricing_plan_id":"cebpf4jnsgd1na2vs0mg"},{"bike_id":"6f390ec4-b93e-4c6a-9b78-b1e87c8b4d7c","system_id":"levelo_inurba_marseille","lat":43.26679,"lon":5.3827,"is_reserved":false,"is_disabled":false,"rental_uris":{"android":"levelo://app?vid=6f390ec4-b93e-4c6a-9b78-b1e87c8b4d7c","ios":"levelo://app?vid=6f390ec4-b93e-4c6a-9b78-b1e87c8b4d7c"},"vehicle_type_id":"4","last_reported":1761999519,"current_range_meters":16000,"station_id":"ce4bhg92rcd13ifvqf90","pricing_plan_id":"cebpf4jnsgd1na2vs0mg"},{"bike_id":"9ca5a267-7f08-4088-baf9-443a2423a671","system_id":"levelo_inurba_marseille","lat":43.23961,"lon":5.36629,"is_reserved":false,"is_disabled":false,"rental_uris":{"android":"levelo://app?vid=9ca5a267-7f08-4088-baf9-443a2423a671","ios":"levelo://app?vid=9ca5a267-7f08-4088-baf9-443a2423a671"},"vehicle_type_id":"4","last_reported":1761999519,"current_range_meters":16400,"station_id":"ce4bhi12rcd13ifvqfp0","pricing_plan_id":"cebpf4jnsgd1na2vs0mg"},{"bike_id":"92c4ecea-a870-4734-96b0-1c8b639bde58","system_id":"levelo_inurba_marseille","lat":43.25323,"lon":5.42169,"is_reserved":false,"is_disabled":false,"rental_uris":{"android":"levelo://app?vid=92c4ecea-a870-4734-96b0-1c8b639bde58","ios":"levelo://app?vid=92c4ecea-a870-4734-96b0-1c8b639bde58"},"vehicle_type_id":"4","last_reported":1761999519,"current_range_meters":16400,"station_id":"st_d2m65c5bi1j21697t3ng","pricing_plan_id":"cebpf4jnsgd1na2vs0mg"},{"bike_id":"33ae0dab-3749-43ff-9793-2b7dc4ecf75d","system_id":"levelo_inurba_marseille","lat":43.253434,"lon":5.421676,"is_reserved":false,"is_disabled":false,"rental_uris":{"android":"levelo://app?vid=33ae0dab-3749-43ff-9793-2b7dc4ecf75d","ios":"levelo://app?vid=33ae0dab-3749-43ff-9793-2b7dc4ecf75d"},"vehicle_type_id":"4","last_reported":1761999519,"current_range_meters":16400,"station_id":"st_d2m65c5bi1j21697t3ng","pricing_plan_id":"cebpf4jnsgd1na2vs0mg"},{"bike_id":"7d482e72-21f4-4360-9573-28d41d0b46d0","system_id":"levelo_inurba_marseille","lat":43.29705,"lon":5.3772,"is_reserved":false,"is_disabled":false,"rental_uris":{"android":"levelo://app?vid=7d482e72-21f4-4360-9573-28d41d0b46d0","ios":"levelo://app?vid=7d482e72-21f4-4360-9573-28d41d0b46d0"},"vehicle_type_id":"4","last_reported":1761999519,"current_range_meters":16400,"station_id":"ce4bgkh2rcd13ifvqbl0","pricing_plan_id":"cebpf4jnsgd1na2vs0mg"},{"bike_id":"41598790-345d-414f-9e87-720cb432f278","system_id":"levelo_inurba_marseille","lat":43.29477,"lon":5.36227,"is_reserved":false,"is_disabled":false,"rental_uris":{"android":"levelo://app?vid=41598790-345d-414f-9e87-720cb432f278","ios":"levelo://app?vid=41598790-345d-414f-9e87-720cb432f278"},"vehicle_type_id":"4","last_reported":1761999519,"current_range_meters":16400,"station_id":"","pricing_plan_id":"cebpf4jnsgd1na2vs0mg"},{"bike_id":"fafa4589-30aa-410f-bafe-e1b351d8b989","system_id":"levelo_inurba_marseille","lat":43.22565,"lon":5.41625,"is_reserved":false,"is_disabled":false,"rental_uris":{"android":"levelo://app?vid=fafa4589-30aa-410f-bafe-e1b351d8b989","ios":"levelo://app?vid=fafa4589-30aa-410f-bafe-e1b351d8b989"},"vehicle_type_id":"4","last_reported":1761999519,"current_range_meters":16400,"station_id":"st_d2o4gvlbi1j2169b742g","pricing_plan_id":"cebpf4jnsgd1na2vs0mg"},{"bike_id":"f48c2369-952a-4c4f-864f-4da168ab283a","system_id":"levelo_inurba_marseille","lat":43.288629,"lon":5.425269,"is_reserved":false,"is_disabled":false,"rental_uris":{"android":"levelo://app?vid=f48c2369-952a-4c4f-864f-4da168ab283a","ios":"levelo://app?vid=f48c2369-952a-4c4f-864f-4da168ab283a"},"vehicle_type_id":"4","last_reported":1761999519,"current_range_meters":16400,"station_id":"st_d3b462108ojc7389ooeg","pricing_plan_id":"cebpf4jnsgd1na2vs0mg"},{"bike_id":"d3edba6f-a38d-4f39-85cd-ad176b184599","system_id":"levelo_inurba_marseille","lat":43.24087,"lon":5.3773,"is_reserved":false,"is_disabled":false,"rental_uris":{"android":"levelo://app?vid=d3edba6f-a38d-4f39-85cd-ad176b184599","ios":"levelo://app?vid=d3edba6f-a38d-4f39-85cd-ad176b184599"},"vehicle_type_id":"4","last_reported":1761999519,"current_range_meters":16400,"station_id":"ce4bhnp2rcd13ifvqgvg","pricing_plan_id":"cebpf4jnsgd1na2vs0mg"},{"bike_id":"269b302d-3c48-4bb6-a063-2ab24423c89a","system_id":"levelo_inurba_marseille","lat":43.22559,"lon":5.41632,"is_reserved":false,"is_disabled":false,"rental_uris":{"android":"levelo://app?vid=269b302d-3c48-4bb6-a063-2ab24423c89a","ios":"levelo://app?vid=269b302d-3c48-4bb6-a063-2ab24423c89a"},"vehicle_type_id":"4","last_reported":1761999519,"current_range_meters":16400,"station_id":"st_d2o4gvlbi1j2169b742g","pricing_plan_id":"cebpf4jnsgd1na2vs0mg"},{"bike_id":"1d29646a-da1f-4f66-b008-0838ffb2fa84","system_id":"levelo_inurba_marseille","lat":43.29992,"lon":5.37237,"is_reserved":false,"is_disabled":false,"rental_uris":{"android":"levelo://app?vid=1d29646a-da1f-4f66-b008-0838ffb2fa84","ios":"levelo://app?vid=1d29646a-da1f-4f66-b008-0838ffb2fa84"},"vehicle_type_id":"4","last_reported":1761999519,"current_range_meters":16400,"station_id":"ce4bgr92rcd13ifvqc7g","pricing_plan_id":"cebpf4jnsgd1na2vs0mg"},{"bike_id":"9f0acb02-e2a4-4b67-ad76-e83ffabc1387","system_id":"levelo_inurba_marseille","lat":43.23236,"lon":5.35514,"is_reserved":false,"is_disabled":false,"rental_uris":{"android":"levelo://app?vid=9f0acb02-e2a4-4b67-ad76-e83ffabc1387","ios":"levelo://app?vid=9f0acb02-e2a4-4b67-ad76-e83ffabc1387"},"vehicle_type_id":"4","last_reported":1761999519,"current_range_meters":16400,"station_id":"ce4bhu92rcd13ifvqi70","pricing_plan_id":"cebpf4jnsgd1na2vs0mg"},{"bike_id":"52b04612-cd38-411f-a68e-6bb9cb24a90a","system_id":"levelo_inurba_marseille","lat":43.24165,"lon":5.364,"is_reserved":false,"is_disabled":false,"rental_uris":{"android":"levelo://app?vid=52b04612-cd38-411f-a68e-6bb9cb24a90a","ios":"levelo://app?vid=52b04612-cd38-411f-a68e-6bb9cb24a90a"},"vehicle_type_id":"4","last_reported":1761999519,"current_range_meters":16800,"station_id":"cpo36qri1sfpv3e86is0","pricing_plan_id":"cebpf4jnsgd1na2vs0mg"},{"bike_id":"bd787a0f-baf0-43a5-a3f2-abe77af6fb04","system_id":"levelo_inurba_marseille","lat":43.31113,"lon":5.3776,"is_reserved":false,"is_disabled":false,"rental_uris":{"android":"levelo://app?vid=bd787a0f-baf0-43a5-a3f2-abe77af6fb04","ios":"levelo://app?vid=bd787a0f-baf0-43a5-a3f2-abe77af6fb04"},"vehicle_type_id":"4","last_reported":1761999519,"current_range_meters":16800,"station_id":"ce4bgt92rcd13ifvqcg0","pricing_plan_id":"cebpf4jnsgd1na2vs0mg"},{"bike_id":"528e3c88-b623-43f9-a15b-cba9eb4d6f1a","system_id":"levelo_inurba_marseille","lat":43.284849,"lon":5.483868,"is_reserved":false,"is_disabled":false,"rental_uris":{"android":"levelo://app?vid=528e3c88-b623-43f9-a15b-cba9eb4d6f1a","ios":"levelo://app?vid=528e3c88-b623-43f9-a15b-cba9eb4d6f1a"},"vehicle_type_id":"4","last_reported":1761999519,"current_range_meters":16800,"station_id":"st_d3svhcjqgbts73a3dn0g","pricing_plan_id":"cebpf4jnsgd1na2vs0mg"},{"bike_id":"565cc599-e2e4-4d0e-aef3-effc6ee3ffe7","system_id":"levelo_inurba_marseille","lat":43.279403,"lon":5.410401,"is_reserved":false,"is_disabled":false,"rental_uris":{"android":"levelo://app?vid=565cc599-e2e4-4d0e-aef3-effc6ee3ffe7","ios":"levelo://app?vid=565cc599-e2e4-4d0e-aef3-effc6ee3ffe7"},"vehicle_type_id":"4","last_reported":1761999519,"current_range_meters":16800,"station_id":"ce4bhnp2rcd13ifvqh0g","pricing_plan_id":"cebpf4jnsgd1na2vs0mg"},{"bike_id":"6517f05e-5b9c-4325-98fb-063d94bedb1e","system_id":"levelo_inurba_marseille","lat":43.231812,"lon":5.399868,"is_reserved":false,"is_disabled":false,"rental_uris":{"android":"levelo://app?vid=6517f05e-5b9c-4325-98fb-063d94bedb1e","ios":"levelo://app?vid=6517f05e-5b9c-4325-98fb-063d94bedb1e"},"vehicle_type_id":"4","last_reported":1761999519,"current_range_meters":16800,"station_id":"ce4bhn12rcd13ifvqgqg","pricing_plan_id":"cebpf4jnsgd1na2vs0mg"},{"bike_id":"aad6a064-c048-4ba9-a156-1745b89548aa","system_id":"levelo_inurba_marseille","lat":43.28307,"lon":5.41106,"is_reserved":false,"is_disabled":false,"rental_uris":{"android":"levelo://app?vid=aad6a064-c048-4ba9-a156-1745b89548aa","ios":"levelo://app?vid=aad6a064-c048-4ba9-a156-1745b89548aa"},"vehicle_type_id":"4","last_reported":1761999519,"current_range_meters":16800,"station_id":"","pricing_plan_id":"cebpf4jnsgd1na2vs0mg"},{"bike_id":"085e7e36-63e4-4e80-adbe-0ea1be54531a","system_id":"levelo_inurba_marseille","lat":43.26214,"lon":5.37432,"is_reserved":false,"is_disabled":false,"rental_uris":{"android":"levelo://app?vid=085e7e36-63e4-4e80-adbe-0ea1be54531a","ios":"levelo://app?vid=085e7e36-63e4-4e80-adbe-0ea1be54531a"},"vehicle_type_id":"4","last_reported":1761999519,"current_range_meters":16800,"station_id":"ce4bhgp2rcd13ifvqfc0","pricing_plan_id":"cebpf4jnsgd1na2vs0mg"},{"bike_id":"50c2c89c-4a9b-41f6-af05-b4e430e07029","system_id":"levelo_inurba_marseille","lat":43.2463,"lon":5.43142,"is_reserved":false,"is_disabled":false,"rental_uris":{"android":"levelo://app?vid=50c2c89c-4a9b-41f6-af05-b4e430e07029","ios":"levelo://app?vid=50c2c89c-4a9b-41f6-af05-b4e430e07029"},"vehicle_type_id":"4","last_reported":1761999519,"current_range_meters":16800,"station_id":"st_d2m6c4gdas8pm72e190g","pricing_plan_id":"cebpf4jnsgd1na2vs0mg"},{"bike_id":"319dec7b-fd42-435c-b70f-8dccdb714786","system_id":"levelo_inurba_marseille","lat":43.2823,"lon":5.39069,"is_reserved":false,"is_disabled":false,"rental_uris":{"android":"levelo://app?vid=319dec7b-fd42-435c-b70f-8dccdb714786","ios":"levelo://app?vid=319dec7b-fd42-435c-b70f-8dccdb714786"},"vehicle_type_id":"4","last_reported":1761999519,"current_range_meters":16800,"station_id":"ce4bhn92rcd13ifvqgsg","pricing_plan_id":"cebpf4jnsgd1na2vs0mg"},{"bike_id":"df54b105-3dee-4bc1-a224-29ef78bb8287","system_id":"levelo_inurba_marseille","lat":43.2952,"lon":5.37505,"is_reserved":false,"is_disabled":false,"rental_uris":{"android":"levelo://app?vid=df54b105-3dee-4bc1-a224-29ef78bb8287","ios":"levelo://app?vid=df54b105-3dee-4bc1-a224-29ef78bb8287"},"vehicle_type_id":"4","last_reported":1761999519,"current_range_meters":16800,"station_id":"ce4bgkp2rcd13ifvqbmg","pricing_plan_id":"cebpf4jnsgd1na2vs0mg"},{"bike_id":"559dd85a-7aa9-44d9-a59a-779baf8c5c22","system_id":"levelo_inurba_marseille","lat":43.29473,"lon":5.43287,"is_reserved":false,"is_disabled":false,"rental_uris":{"android":"levelo://app?vid=559dd85a-7aa9-44d9-a59a-779baf8c5c22","ios":"levelo://app?vid=559dd85a-7aa9-44d9-a59a-779baf8c5c22"},"vehicle_type_id":"4","last_reported":1761999519,"current_range_meters":17200,"station_id":"st_d3j5ugp08ojc73fj9d10","pricing_plan_id":"cebpf4jnsgd1na2vs0mg"},{"bike_id":"53cef4b8-a647-443f-b192-80e60040bf76","system_id":"levelo_inurba_marseille","lat":43.29549,"lon":5.37521,"is_reserved":false,"is_disabled":false,"rental_uris":{"android":"levelo://app?vid=53cef4b8-a647-443f-b192-80e60040bf76","ios":"levelo://app?vid=53cef4b8-a647-443f-b192-80e60040bf76"},"vehicle_type_id":"4","last_reported":1761999519,"current_range_meters":17200,"station_id":"ce4bgkp2rcd13ifvqbmg","pricing_plan_id":"cebpf4jnsgd1na2vs0mg"},{"bike_id":"a599ea86-16bb-4d79-89fe-01c4b3b42dc5","system_id":"levelo_inurba_marseille","lat":43.32103,"lon":5.36782,"is_reserved":false,"is_disabled":false,"rental_uris":{"android":"levelo://app?vid=a599ea86-16bb-4d79-89fe-01c4b3b42dc5","ios":"levelo://app?vid=a599ea86-16bb-4d79-89fe-01c4b3b42dc5"},"vehicle_type_id":"4","last_reported":1761999519,"current_range_meters":17200,"station_id":"ce4bhrh2rcd13ifvqhug","pricing_plan_id":"cebpf4jnsgd1na2vs0mg"},{"bike_id":"fe0f913b-1350-46be-84f3-9179f4d3fa97","system_id":"levelo_inurba_marseille","lat":43.25092,"lon":5.40346,"is_reserved":false,"is_disabled":false,"rental_uris":{"android":"levelo://app?vid=fe0f913b-1350-46be-84f3-9179f4d3fa97","ios":"levelo://app?vid=fe0f913b-1350-46be-84f3-9179f4d3fa97"},"vehicle_type_id":"4","last_reported":1761999519,"current_range_meters":17200,"station_id":"ce4bhlh2rcd13ifvqgig","pricing_plan_id":"cebpf4jnsgd1na2vs0mg"},{"bike_id":"465191f7-9511-4939-a863-d2a67de6fa5b","system_id":"levelo_inurba_marseille","lat":43.30312,"lon":5.36899,"is_reserved":false,"is_disabled":false,"rental_uris":{"android":"levelo://app?vid=465191f7-9511-4939-a863-d2a67de6fa5b","ios":"levelo://app?vid=465191f7-9511-4939-a863-d2a67de6fa5b"},"vehicle_type_id":"4","last_reported":1761999519,"current_range_meters":17200,"station_id":"ce4bgqh2rcd13ifvqc5g","pricing_plan_id":"cebpf4jnsgd1na2vs0mg"},{"bike_id":"9d6f858f-f0b8-4ec6-abfd-24c67f381e15","system_id":"levelo_inurba_marseille","lat":43.21731,"lon":5.34615,"is_reserved":false,"is_disabled":false,"rental_uris":{"android":"levelo://app?vid=9d6f858f-f0b8-4ec6-abfd-24c67f381e15","ios":"levelo://app?vid=9d6f858f-f0b8-4ec6-abfd-24c67f381e15"},"vehicle_type_id":"4","last_reported":1761999519,"current_range_meters":17200,"station_id":"st_cvj6r9ubvosntc0bgbag","pricing_plan_id":"cebpf4jnsgd1na2vs0mg"},{"bike_id":"ba541a52-7e4e-4241-9791-ae6f1fb03dcd","system_id":"levelo_inurba_marseille","lat":43.31991,"lon":5.41591,"is_reserved":false,"is_disabled":false,"rental_uris":{"android":"levelo://app?vid=ba541a52-7e4e-4241-9791-ae6f1fb03dcd","ios":"levelo://app?vid=ba541a52-7e4e-4241-9791-ae6f1fb03dcd"},"vehicle_type_id":"4","last_reported":1761999519,"current_range_meters":17200,"station_id":"","pricing_plan_id":"cebpf4jnsgd1na2vs0mg"},{"bike_id":"ce38a8a0-320d-4340-9845-70eec0c4e513","system_id":"levelo_inurba_marseille","lat":43.3019,"lon":5.36595,"is_reserved":false,"is_disabled":false,"rental_uris":{"android":"levelo://app?vid=ce38a8a0-320d-4340-9845-70eec0c4e513","ios":"levelo://app?vid=ce38a8a0-320d-4340-9845-70eec0c4e513"},"vehicle_type_id":"4","last_reported":1761999519,"current_range_meters":17600,"station_id":"ce4bgrh2rcd13ifvqc8g","pricing_plan_id":"cebpf4jnsgd1na2vs0mg"},{"bike_id":"137b611e-0d30-42e5-bd0e-4ca1b1f19b3a","system_id":"levelo_inurba_marseille","lat":43.27998,"lon":5.39996,"is_reserved":false,"is_disabled":false,"rental_uris":{"android":"levelo://app?vid=137b611e-0d30-42e5-bd0e-4ca1b1f19b3a","ios":"levelo://app?vid=137b611e-0d30-42e5-bd0e-4ca1b1f19b3a"},"vehicle_type_id":"4","last_reported":1761999519,"current_range_meters":17600,"station_id":"ce4bho92rcd13ifvqh4g","pricing_plan_id":"cebpf4jnsgd1na2vs0mg"},{"bike_id":"2ea8b295-6a13-47c7-8965-8106cf796d7e","system_id":"levelo_inurba_marseille","lat":43.313284,"lon":5.376782,"is_reserved":false,"is_disabled":false,"rental_uris":{"android":"levelo://app?vid=2ea8b295-6a13-47c7-8965-8106cf796d7e","ios":"levelo://app?vid=2ea8b295-6a13-47c7-8965-8106cf796d7e"},"vehicle_type_id":"4","last_reported":1761999519,"current_range_meters":17600,"station_id":"","pricing_plan_id":"cebpf4jnsgd1na2vs0mg"},{"bike_id":"bdf5add1-7572-4ce0-b182-befe3c7311ec","system_id":"levelo_inurba_marseille","lat":43.23964,"lon":5.3664,"is_reserved":false,"is_disabled":false,"rental_uris":{"android":"levelo://app?vid=bdf5add1-7572-4ce0-b182-befe3c7311ec","ios":"levelo://app?vid=bdf5add1-7572-4ce0-b182-befe3c7311ec"},"vehicle_type_id":"4","last_reported":1761999519,"current_range_meters":17600,"station_id":"ce4bhi12rcd13ifvqfp0","pricing_plan_id":"cebpf4jnsgd1na2vs0mg"},{"bike_id":"7b0eaa70-7657-4098-8e47-f6fae1ad1d21","system_id":"levelo_inurba_marseille","lat":43.25867,"lon":5.39891,"is_reserved":false,"is_disabled":false,"rental_uris":{"android":"levelo://app?vid=7b0eaa70-7657-4098-8e47-f6fae1ad1d21","ios":"levelo://app?vid=7b0eaa70-7657-4098-8e47-f6fae1ad1d21"},"vehicle_type_id":"4","last_reported":1761999519,"current_range_meters":17600,"station_id":"ce4bhl92rcd13ifvqghg","pricing_plan_id":"cebpf4jnsgd1na2vs0mg"},{"bike_id":"0462e1e6-c802-4473-8418-6ae2ab333385","system_id":"levelo_inurba_marseille","lat":43.28615,"lon":5.35094,"is_reserved":false,"is_disabled":false,"rental_uris":{"android":"levelo://app?vid=0462e1e6-c802-4473-8418-6ae2ab333385","ios":"levelo://app?vid=0462e1e6-c802-4473-8418-6ae2ab333385"},"vehicle_type_id":"4","last_reported":1761999519,"current_range_meters":17600,"station_id":"ce4bhch2rcd13ifvqeug","pricing_plan_id":"cebpf4jnsgd1na2vs0mg"},{"bike_id":"af835d6d-4934-4132-a56c-4c66dcd8f835","system_id":"levelo_inurba_marseille","lat":43.27945,"lon":5.41047,"is_reserved":false,"is_disabled":false,"rental_uris":{"android":"levelo://app?vid=af835d6d-4934-4132-a56c-4c66dcd8f835","ios":"levelo://app?vid=af835d6d-4934-4132-a56c-4c66dcd8f835"},"vehicle_type_id":"4","last_reported":1761999519,"current_range_meters":17600,"station_id":"ce4bhnp2rcd13ifvqh0g","pricing_plan_id":"cebpf4jnsgd1na2vs0mg"},{"bike_id":"b440dea1-8ddf-4f44-9115-5a951e045c6c","system_id":"levelo_inurba_marseille","lat":43.28024,"lon":5.36945,"is_reserved":false,"is_disabled":false,"rental_uris":{"android":"levelo://app?vid=b440dea1-8ddf-4f44-9115-5a951e045c6c","ios":"levelo://app?vid=b440dea1-8ddf-4f44-9115-5a951e045c6c"},"vehicle_type_id":"4","last_reported":1761999519,"current_range_meters":17600,"station_id":"ce4bha12rcd13ifvqef0","pricing_plan_id":"cebpf4jnsgd1na2vs0mg"},{"bike_id":"1407ca8e-dc3a-4c83-932b-399155c17789","system_id":"levelo_inurba_marseille","lat":43.27911,"lon":5.380148,"is_reserved":false,"is_disabled":false,"rental_uris":{"android":"levelo://app?vid=1407ca8e-dc3a-4c83-932b-399155c17789","ios":"levelo://app?vid=1407ca8e-dc3a-4c83-932b-399155c17789"},"vehicle_type_id":"4","last_reported":1761999519,"current_range_meters":18000,"station_id":"ce4bhf92rcd13ifvqf50","pricing_plan_id":"cebpf4jnsgd1na2vs0mg"},{"bike_id":"c7d57f9b-8ba9-4435-ac3b-54d333c0b4c7","system_id":"levelo_inurba_marseille","lat":43.32345,"lon":5.36697,"is_reserved":false,"is_disabled":false,"rental_uris":{"android":"levelo://app?vid=c7d57f9b-8ba9-4435-ac3b-54d333c0b4c7","ios":"levelo://app?vid=c7d57f9b-8ba9-4435-ac3b-54d333c0b4c7"},"vehicle_type_id":"4","last_reported":1761999519,"current_range_meters":18000,"station_id":"","pricing_plan_id":"cebpf4jnsgd1na2vs0mg"},{"bike_id":"2a32e756-8076-4328-a472-196c9c9d4e25","system_id":"levelo_inurba_marseille","lat":43.286115,"lon":5.370558,"is_reserved":false,"is_disabled":false,"rental_uris":{"android":"levelo://app?vid=2a32e756-8076-4328-a472-196c9c9d4e25","ios":"levelo://app?vid=2a32e756-8076-4328-a472-196c9c9d4e25"},"vehicle_type_id":"4","last_reported":1761999519,"current_range_meters":18000,"station_id":"ce4bht12rcd13ifvqi60","pricing_plan_id":"cebpf4jnsgd1na2vs0mg"},{"bike_id":"afe97da2-f9d7-4848-8f93-c409acdb075e","system_id":"levelo_inurba_marseille","lat":43.22554,"lon":5.41624,"is_reserved":false,"is_disabled":false,"rental_uris":{"android":"levelo://app?vid=afe97da2-f9d7-4848-8f93-c409acdb075e","ios":"levelo://app?vid=afe97da2-f9d7-4848-8f93-c409acdb075e"},"vehicle_type_id":"4","last_reported":1761999519,"current_range_meters":18800,"station_id":"st_d2o4gvlbi1j2169b742g","pricing_plan_id":"cebpf4jnsgd1na2vs0mg"},{"bike_id":"12a18d4a-7b67-4876-88d1-1820554fc400","system_id":"levelo_inurba_marseille","lat":43.29742,"lon":5.38082,"is_reserved":false,"is_disabled":false,"rental_uris":{"android":"levelo://app?vid=12a18d4a-7b67-4876-88d1-1820554fc400","ios":"levelo://app?vid=12a18d4a-7b67-4876-88d1-1820554fc400"},"vehicle_type_id":"4","last_reported":1761999519,"current_range_meters":18800,"station_id":"","pricing_plan_id":"cebpf4jnsgd1na2vs0mg"},{"bike_id":"9546a463-b3d5-43e1-bad1-e8a0689536a3","system_id":"levelo_inurba_marseille","lat":43.30133,"lon":5.39862,"is_reserved":false,"is_disabled":false,"rental_uris":{"android":"levelo://app?vid=9546a463-b3d5-43e1-bad1-e8a0689536a3","ios":"levelo://app?vid=9546a463-b3d5-43e1-bad1-e8a0689536a3"},"vehicle_type_id":"4","last_reported":1761999519,"current_range_meters":18800,"station_id":"ce4bh0h2rcd13ifvqd40","pricing_plan_id":"cebpf4jnsgd1na2vs0mg"},{"bike_id":"84f1bfac-8d21-499b-b8e1-fdc8049e10ac","system_id":"levelo_inurba_marseille","lat":43.31279,"lon":5.37736,"is_reserved":false,"is_disabled":false,"rental_uris":{"android":"levelo://app?vid=84f1bfac-8d21-499b-b8e1-fdc8049e10ac","ios":"levelo://app?vid=84f1bfac-8d21-499b-b8e1-fdc8049e10ac"},"vehicle_type_id":"4","last_reported":1761999519,"current_range_meters":18800,"station_id":"","pricing_plan_id":"cebpf4jnsgd1na2vs0mg"},{"bike_id":"90e32a66-7f51-4280-8ee9-d2d60faa5cea","system_id":"levelo_inurba_marseille","lat":43.24666,"lon":5.38164,"is_reserved":false,"is_disabled":false,"rental_uris":{"android":"levelo://app?vid=90e32a66-7f51-4280-8ee9-d2d60faa5cea","ios":"levelo://app?vid=90e32a66-7f51-4280-8ee9-d2d60faa5cea"},"vehicle_type_id":"4","last_reported":1761999519,"current_range_meters":18800,"station_id":"ce4bhih2rcd13ifvqfr0","pricing_plan_id":"cebpf4jnsgd1na2vs0mg"},{"bike_id":"fd2a3e15-d6ed-4064-b7e2-d83799925ad0","system_id":"levelo_inurba_marseille","lat":43.29762,"lon":5.42789,"is_reserved":false,"is_disabled":false,"rental_uris":{"android":"levelo://app?vid=fd2a3e15-d6ed-4064-b7e2-d83799925ad0","ios":"levelo://app?vid=fd2a3e15-d6ed-4064-b7e2-d83799925ad0"},"vehicle_type_id":"4","last_reported":1761999519,"current_range_meters":18800,"station_id":"st_d3md5207bmas73dh9klg","pricing_plan_id":"cebpf4jnsgd1na2vs0mg"},{"bike_id":"fbc899d2-8c60-432e-a054-080f9183e9de","system_id":"levelo_inurba_marseille","lat":43.253344,"lon":5.421668,"is_reserved":false,"is_disabled":false,"rental_uris":{"android":"levelo://app?vid=fbc899d2-8c60-432e-a054-080f9183e9de","ios":"levelo://app?vid=fbc899d2-8c60-432e-a054-080f9183e9de"},"vehicle_type_id":"4","last_reported":1761999519,"current_range_meters":19200,"station_id":"st_d2m65c5bi1j21697t3ng","pricing_plan_id":"cebpf4jnsgd1na2vs0mg"},{"bike_id":"3a626dbd-2899-439e-9240-0676b812c3b7","system_id":"levelo_inurba_marseille","lat":43.29629,"lon":5.40598,"is_reserved":false,"is_disabled":false,"rental_uris":{"android":"levelo://app?vid=3a626dbd-2899-439e-9240-0676b812c3b7","ios":"levelo://app?vid=3a626dbd-2899-439e-9240-0676b812c3b7"},"vehicle_type_id":"4","last_reported":1761999519,"current_range_meters":19200,"station_id":"ce4bh0h2rcd13ifvqd60","pricing_plan_id":"cebpf4jnsgd1na2vs0mg"},{"bike_id":"4687fc24-80e0-4ffe-8ead-a6cff3301ad1","system_id":"levelo_inurba_marseille","lat":43.29273,"lon":5.40113,"is_reserved":false,"is_disabled":false,"rental_uris":{"android":"levelo://app?vid=4687fc24-80e0-4ffe-8ead-a6cff3301ad1","ios":"levelo://app?vid=4687fc24-80e0-4ffe-8ead-a6cff3301ad1"},"vehicle_type_id":"4","last_reported":1761999519,"current_range_meters":19200,"station_id":"ce4bh312rcd13ifvqdk0","pricing_plan_id":"cebpf4jnsgd1na2vs0mg"},{"bike_id":"82307e5d-1d88-4836-b33e-a10a4da30997","system_id":"levelo_inurba_marseille","lat":43.26571,"lon":5.4034,"is_reserved":false,"is_disabled":false,"rental_uris":{"android":"levelo://app?vid=82307e5d-1d88-4836-b33e-a10a4da30997","ios":"levelo://app?vid=82307e5d-1d88-4836-b33e-a10a4da30997"},"vehicle_type_id":"4","last_reported":1761999519,"current_range_meters":19200,"station_id":"ce4bhmp2rcd13ifvqgng","pricing_plan_id":"cebpf4jnsgd1na2vs0mg"},{"bike_id":"9b0d9e28-79a3-4616-8e57-580f61942c1e","system_id":"levelo_inurba_marseille","lat":43.28806,"lon":5.38561,"is_reserved":false,"is_disabled":false,"rental_uris":{"android":"levelo://app?vid=9b0d9e28-79a3-4616-8e57-580f61942c1e","ios":"levelo://app?vid=9b0d9e28-79a3-4616-8e57-580f61942c1e"},"vehicle_type_id":"4","last_reported":1761999519,"current_range_meters":19200,"station_id":"","pricing_plan_id":"cebpf4jnsgd1na2vs0mg"},{"bike_id":"b5e49cce-4c50-4c05-8029-916464358c9e","system_id":"levelo_inurba_marseille","lat":43.229352,"lon":5.353766,"is_reserved":false,"is_disabled":false,"rental_uris":{"android":"levelo://app?vid=b5e49cce-4c50-4c05-8029-916464358c9e","ios":"levelo://app?vid=b5e49cce-4c50-4c05-8029-916464358c9e"},"vehicle_type_id":"4","last_reported":1761999519,"current_range_meters":19200,"station_id":"","pricing_plan_id":"cebpf4jnsgd1na2vs0mg"},{"bike_id":"f010a61e-1526-4e6b-91d6-dfa47624f251","system_id":"levelo_inurba_marseille","lat":43.22932,"lon":5.35377,"is_reserved":false,"is_disabled":false,"rental_uris":{"android":"levelo://app?vid=f010a61e-1526-4e6b-91d6-dfa47624f251","ios":"levelo://app?vid=f010a61e-1526-4e6b-91d6-dfa47624f251"},"vehicle_type_id":"4","last_reported":1761999519,"current_range_meters":19200,"station_id":"cpo3532slgdg3j2ikp40","pricing_plan_id":"cebpf4jnsgd1na2vs0mg"},{"bike_id":"bd5553c9-02ec-49fe-94c7-f4965cedefd7","system_id":"levelo_inurba_marseille","lat":43.25337,"lon":5.42172,"is_reserved":false,"is_disabled":false,"rental_uris":{"android":"levelo://app?vid=bd5553c9-02ec-49fe-94c7-f4965cedefd7","ios":"levelo://app?vid=bd5553c9-02ec-49fe-94c7-f4965cedefd7"},"vehicle_type_id":"4","last_reported":1761999519,"current_range_meters":19200,"station_id":"st_d2m65c5bi1j21697t3ng","pricing_plan_id":"cebpf4jnsgd1na2vs0mg"},{"bike_id":"423802bb-722e-4533-9018-c0f75cce34a6","system_id":"levelo_inurba_marseille","lat":43.306703,"lon":5.381715,"is_reserved":false,"is_disabled":false,"rental_uris":{"android":"levelo://app?vid=423802bb-722e-4533-9018-c0f75cce34a6","ios":"levelo://app?vid=423802bb-722e-4533-9018-c0f75cce34a6"},"vehicle_type_id":"4","last_reported":1761999519,"current_range_meters":19600,"station_id":"","pricing_plan_id":"cebpf4jnsgd1na2vs0mg"},{"bike_id":"de0ca7a8-116a-46c8-8c50-6b445a473423","system_id":"levelo_inurba_marseille","lat":43.288698,"lon":5.42534,"is_reserved":false,"is_disabled":false,"rental_uris":{"android":"levelo://app?vid=de0ca7a8-116a-46c8-8c50-6b445a473423","ios":"levelo://app?vid=de0ca7a8-116a-46c8-8c50-6b445a473423"},"vehicle_type_id":"4","last_reported":1761999519,"current_range_meters":19600,"station_id":"st_d3b462108ojc7389ooeg","pricing_plan_id":"cebpf4jnsgd1na2vs0mg"},{"bike_id":"ee5c5523-6c5d-4d6e-bd2f-441758d57bc0","system_id":"levelo_inurba_marseille","lat":43.30807,"lon":5.381515,"is_reserved":false,"is_disabled":true,"rental_uris":{"android":"levelo://app?vid=ee5c5523-6c5d-4d6e-bd2f-441758d57bc0","ios":"levelo://app?vid=ee5c5523-6c5d-4d6e-bd2f-441758d57bc0"},"vehicle_type_id":"4","last_reported":1761999519,"current_range_meters":19600,"station_id":"","pricing_plan_id":"cebpf4jnsgd1na2vs0mg"},{"bike_id":"0538e15b-99c5-43df-ac76-d01f5fd89928","system_id":"levelo_inurba_marseille","lat":43.29962,"lon":5.38495,"is_reserved":false,"is_disabled":false,"rental_uris":{"android":"levelo://app?vid=0538e15b-99c5-43df-ac76-d01f5fd89928","ios":"levelo://app?vid=0538e15b-99c5-43df-ac76-d01f5fd89928"},"vehicle_type_id":"4","last_reported":1761999519,"current_range_meters":19600,"station_id":"ce4bgj92rcd13ifvqbd0","pricing_plan_id":"cebpf4jnsgd1na2vs0mg"},{"bike_id":"14b92a7a-0805-475a-abfd-8c979184b42b","system_id":"levelo_inurba_marseille","lat":43.30988,"lon":5.37019,"is_reserved":false,"is_disabled":false,"rental_uris":{"android":"levelo://app?vid=14b92a7a-0805-475a-abfd-8c979184b42b","ios":"levelo://app?vid=14b92a7a-0805-475a-abfd-8c979184b42b"},"vehicle_type_id":"4","last_reported":1761999519,"current_range_meters":19600,"station_id":"","pricing_plan_id":"cebpf4jnsgd1na2vs0mg"},{"bike_id":"8adef542-af60-4b61-8a5b-4b604c3bcfe4","system_id":"levelo_inurba_marseille","lat":43.24632,"lon":5.4314,"is_reserved":false,"is_disabled":false,"rental_uris":{"android":"levelo://app?vid=8adef542-af60-4b61-8a5b-4b604c3bcfe4","ios":"levelo://app?vid=8adef542-af60-4b61-8a5b-4b604c3bcfe4"},"vehicle_type_id":"4","last_reported":1761999519,"current_range_meters":19600,"station_id":"st_d2m6c4gdas8pm72e190g","pricing_plan_id":"cebpf4jnsgd1na2vs0mg"},{"bike_id":"f20f3629-12f9-4df4-b72e-3fb18082368c","system_id":"levelo_inurba_marseille","lat":43.240711,"lon":5.377573,"is_reserved":false,"is_disabled":false,"rental_uris":{"android":"levelo://app?vid=f20f3629-12f9-4df4-b72e-3fb18082368c","ios":"levelo://app?vid=f20f3629-12f9-4df4-b72e-3fb18082368c"},"vehicle_type_id":"4","last_reported":1761999519,"current_range_meters":19600,"station_id":"ce4bhnp2rcd13ifvqgvg","pricing_plan_id":"cebpf4jnsgd1na2vs0mg"},{"bike_id":"72667045-b816-48de-95ee-6e55de9900ca","system_id":"levelo_inurba_marseille","lat":43.25104,"lon":5.40357,"is_reserved":false,"is_disabled":false,"rental_uris":{"android":"levelo://app?vid=72667045-b816-48de-95ee-6e55de9900ca","ios":"levelo://app?vid=72667045-b816-48de-95ee-6e55de9900ca"},"vehicle_type_id":"4","last_reported":1761999519,"current_range_meters":19600,"station_id":"ce4bhlh2rcd13ifvqgig","pricing_plan_id":"cebpf4jnsgd1na2vs0mg"},{"bike_id":"4c1896d9-a522-438b-a603-2b8556bd3edb","system_id":"levelo_inurba_marseille","lat":43.21177,"lon":5.35085,"is_reserved":false,"is_disabled":false,"rental_uris":{"android":"levelo://app?vid=4c1896d9-a522-438b-a603-2b8556bd3edb","ios":"levelo://app?vid=4c1896d9-a522-438b-a603-2b8556bd3edb"},"vehicle_type_id":"4","last_reported":1761999519,"current_range_meters":19600,"station_id":"st_cvj6sg6p6f1abm77japg","pricing_plan_id":"cebpf4jnsgd1na2vs0mg"},{"bike_id":"dd70bcc2-2e6b-447f-adc2-e0826cf93554","system_id":"levelo_inurba_marseille","lat":43.319076,"lon":5.401537,"is_reserved":false,"is_disabled":false,"rental_uris":{"android":"levelo://app?vid=dd70bcc2-2e6b-447f-adc2-e0826cf93554","ios":"levelo://app?vid=dd70bcc2-2e6b-447f-adc2-e0826cf93554"},"vehicle_type_id":"4","last_reported":1761999519,"current_range_meters":19600,"station_id":"","pricing_plan_id":"cebpf4jnsgd1na2vs0mg"},{"bike_id":"26837ae9-2031-4588-9990-ce3e79fe294d","system_id":"levelo_inurba_marseille","lat":43.23148,"lon":5.43726,"is_reserved":false,"is_disabled":false,"rental_uris":{"android":"levelo://app?vid=26837ae9-2031-4588-9990-ce3e79fe294d","ios":"levelo://app?vid=26837ae9-2031-4588-9990-ce3e79fe294d"},"vehicle_type_id":"4","last_reported":1761999519,"current_range_meters":19600,"station_id":"ce4bhmp2rcd13ifvqgog","pricing_plan_id":"cebpf4jnsgd1na2vs0mg"},{"bike_id":"641244de-664d-454b-8dd1-5d15c61abe65","system_id":"levelo_inurba_marseille","lat":43.292697,"lon":5.368274,"is_reserved":false,"is_disabled":false,"rental_uris":{"android":"levelo://app?vid=641244de-664d-454b-8dd1-5d15c61abe65","ios":"levelo://app?vid=641244de-664d-454b-8dd1-5d15c61abe65"},"vehicle_type_id":"4","last_reported":1761999519,"current_range_meters":20000,"station_id":"ce4bhbp2rcd13ifvqesg","pricing_plan_id":"cebpf4jnsgd1na2vs0mg"},{"bike_id":"fb4e872d-0b57-4490-a2dd-651bea7b6fbc","system_id":"levelo_inurba_marseille","lat":43.29199,"lon":5.39322,"is_reserved":false,"is_disabled":false,"rental_uris":{"android":"levelo://app?vid=fb4e872d-0b57-4490-a2dd-651bea7b6fbc","ios":"levelo://app?vid=fb4e872d-0b57-4490-a2dd-651bea7b6fbc"},"vehicle_type_id":"4","last_reported":1761999519,"current_range_meters":20000,"station_id":"ce4bh192rcd13ifvqdd0","pricing_plan_id":"cebpf4jnsgd1na2vs0mg"},{"bike_id":"d0fed751-922f-49cc-8c48-e0fe4a18bcc8","system_id":"levelo_inurba_marseille","lat":43.30134,"lon":5.38067,"is_reserved":false,"is_disabled":false,"rental_uris":{"android":"levelo://app?vid=d0fed751-922f-49cc-8c48-e0fe4a18bcc8","ios":"levelo://app?vid=d0fed751-922f-49cc-8c48-e0fe4a18bcc8"},"vehicle_type_id":"4","last_reported":1761999519,"current_range_meters":20000,"station_id":"ce4bgjp2rcd13ifvqbh0","pricing_plan_id":"cebpf4jnsgd1na2vs0mg"},{"bike_id":"689d4953-f27a-47ac-89d9-67240fc99334","system_id":"levelo_inurba_marseille","lat":43.26032,"lon":5.37562,"is_reserved":false,"is_disabled":false,"rental_uris":{"android":"levelo://app?vid=689d4953-f27a-47ac-89d9-67240fc99334","ios":"levelo://app?vid=689d4953-f27a-47ac-89d9-67240fc99334"},"vehicle_type_id":"4","last_reported":1761999519,"current_range_meters":20000,"station_id":"ce4bhgh2rcd13ifvqfa0","pricing_plan_id":"cebpf4jnsgd1na2vs0mg"},{"bike_id":"294d1ff9-24a0-4d63-b3df-e8ffc797a747","system_id":"levelo_inurba_marseille","lat":43.26195,"lon":5.37457,"is_reserved":false,"is_disabled":false,"rental_uris":{"android":"levelo://app?vid=294d1ff9-24a0-4d63-b3df-e8ffc797a747","ios":"levelo://app?vid=294d1ff9-24a0-4d63-b3df-e8ffc797a747"},"vehicle_type_id":"4","last_reported":1761999519,"current_range_meters":20000,"station_id":"ce4bhgp2rcd13ifvqfc0","pricing_plan_id":"cebpf4jnsgd1na2vs0mg"},{"bike_id":"19aeb116-b525-4535-ba33-4bbff96f57c9","system_id":"levelo_inurba_marseille","lat":43.28266,"lon":5.35063,"is_reserved":false,"is_disabled":false,"rental_uris":{"android":"levelo://app?vid=19aeb116-b525-4535-ba33-4bbff96f57c9","ios":"levelo://app?vid=19aeb116-b525-4535-ba33-4bbff96f57c9"},"vehicle_type_id":"4","last_reported":1761999519,"current_range_meters":20400,"station_id":"ce4bhbp2rcd13ifvqerg","pricing_plan_id":"cebpf4jnsgd1na2vs0mg"},{"bike_id":"6eb523a4-350d-4959-ac5e-1335d8f70954","system_id":"levelo_inurba_marseille","lat":43.315717,"lon":5.406423,"is_reserved":false,"is_disabled":false,"rental_uris":{"android":"levelo://app?vid=6eb523a4-350d-4959-ac5e-1335d8f70954","ios":"levelo://app?vid=6eb523a4-350d-4959-ac5e-1335d8f70954"},"vehicle_type_id":"4","last_reported":1761999519,"current_range_meters":20400,"station_id":"","pricing_plan_id":"cebpf4jnsgd1na2vs0mg"},{"bike_id":"ed062260-216a-4006-a7b0-960c217412b1","system_id":"levelo_inurba_marseille","lat":43.2873,"lon":5.37924,"is_reserved":false,"is_disabled":false,"rental_uris":{"android":"levelo://app?vid=ed062260-216a-4006-a7b0-960c217412b1","ios":"levelo://app?vid=ed062260-216a-4006-a7b0-960c217412b1"},"vehicle_type_id":"4","last_reported":1761999519,"current_range_meters":20400,"station_id":"ce4bh9p2rcd13ifvqec0","pricing_plan_id":"cebpf4jnsgd1na2vs0mg"},{"bike_id":"ea981441-de44-4e91-a60f-0f3605343256","system_id":"levelo_inurba_marseille","lat":43.32346,"lon":5.36745,"is_reserved":false,"is_disabled":false,"rental_uris":{"android":"levelo://app?vid=ea981441-de44-4e91-a60f-0f3605343256","ios":"levelo://app?vid=ea981441-de44-4e91-a60f-0f3605343256"},"vehicle_type_id":"4","last_reported":1761999519,"current_range_meters":20400,"station_id":"ce4bhsh2rcd13ifvqi2g","pricing_plan_id":"cebpf4jnsgd1na2vs0mg"},{"bike_id":"066ede02-47a2-4c83-bcb1-7eb633a370fb","system_id":"levelo_inurba_marseille","lat":43.31278,"lon":5.37754,"is_reserved":false,"is_disabled":false,"rental_uris":{"android":"levelo://app?vid=066ede02-47a2-4c83-bcb1-7eb633a370fb","ios":"levelo://app?vid=066ede02-47a2-4c83-bcb1-7eb633a370fb"},"vehicle_type_id":"4","last_reported":1761999519,"current_range_meters":20800,"station_id":"","pricing_plan_id":"cebpf4jnsgd1na2vs0mg"},{"bike_id":"8dabc28f-f436-427b-a6ee-3bff1fe923fd","system_id":"levelo_inurba_marseille","lat":43.29904,"lon":5.38158,"is_reserved":false,"is_disabled":false,"rental_uris":{"android":"levelo://app?vid=8dabc28f-f436-427b-a6ee-3bff1fe923fd","ios":"levelo://app?vid=8dabc28f-f436-427b-a6ee-3bff1fe923fd"},"vehicle_type_id":"4","last_reported":1761999519,"current_range_meters":20800,"station_id":"ce4bgj12rcd13ifvqbc0","pricing_plan_id":"cebpf4jnsgd1na2vs0mg"},{"bike_id":"628e781f-daeb-40a9-b4d5-7053576609e4","system_id":"levelo_inurba_marseille","lat":43.27942,"lon":5.41046,"is_reserved":false,"is_disabled":false,"rental_uris":{"android":"levelo://app?vid=628e781f-daeb-40a9-b4d5-7053576609e4","ios":"levelo://app?vid=628e781f-daeb-40a9-b4d5-7053576609e4"},"vehicle_type_id":"4","last_reported":1761999519,"current_range_meters":20800,"station_id":"ce4bhnp2rcd13ifvqh0g","pricing_plan_id":"cebpf4jnsgd1na2vs0mg"},{"bike_id":"44bd16d1-a04f-4bc6-b86e-e70554a3e0af","system_id":"levelo_inurba_marseille","lat":43.26563,"lon":5.39006,"is_reserved":false,"is_disabled":false,"rental_uris":{"android":"levelo://app?vid=44bd16d1-a04f-4bc6-b86e-e70554a3e0af","ios":"levelo://app?vid=44bd16d1-a04f-4bc6-b86e-e70554a3e0af"},"vehicle_type_id":"4","last_reported":1761999519,"current_range_meters":20800,"station_id":"ce4bhe12rcd13ifvqf30","pricing_plan_id":"cebpf4jnsgd1na2vs0mg"},{"bike_id":"fe2272ea-7316-4280-b90c-d8c4db7bc73e","system_id":"levelo_inurba_marseille","lat":43.27943,"lon":5.39285,"is_reserved":false,"is_disabled":false,"rental_uris":{"android":"levelo://app?vid=fe2272ea-7316-4280-b90c-d8c4db7bc73e","ios":"levelo://app?vid=fe2272ea-7316-4280-b90c-d8c4db7bc73e"},"vehicle_type_id":"4","last_reported":1761999519,"current_range_meters":20800,"station_id":"","pricing_plan_id":"cebpf4jnsgd1na2vs0mg"},{"bike_id":"0febceca-743e-4c28-b08b-2ca67f4c0e48","system_id":"levelo_inurba_marseille","lat":43.251118,"lon":5.403223,"is_reserved":false,"is_disabled":false,"rental_uris":{"android":"levelo://app?vid=0febceca-743e-4c28-b08b-2ca67f4c0e48","ios":"levelo://app?vid=0febceca-743e-4c28-b08b-2ca67f4c0e48"},"vehicle_type_id":"4","last_reported":1761999519,"current_range_meters":20800,"station_id":"","pricing_plan_id":"cebpf4jnsgd1na2vs0mg"},{"bike_id":"aa56963e-5f6a-4043-b1c7-23e4d9f05d8c","system_id":"levelo_inurba_marseille","lat":43.313499,"lon":5.379119,"is_reserved":false,"is_disabled":false,"rental_uris":{"android":"levelo://app?vid=aa56963e-5f6a-4043-b1c7-23e4d9f05d8c","ios":"levelo://app?vid=aa56963e-5f6a-4043-b1c7-23e4d9f05d8c"},"vehicle_type_id":"4","last_reported":1761999519,"current_range_meters":20800,"station_id":"","pricing_plan_id":"cebpf4jnsgd1na2vs0mg"},{"bike_id":"884f2abb-e155-4a16-a9ad-aa5578b2c2ec","system_id":"levelo_inurba_marseille","lat":43.28105,"lon":5.37852,"is_reserved":false,"is_disabled":false,"rental_uris":{"android":"levelo://app?vid=884f2abb-e155-4a16-a9ad-aa5578b2c2ec","ios":"levelo://app?vid=884f2abb-e155-4a16-a9ad-aa5578b2c2ec"},"vehicle_type_id":"4","last_reported":1761999519,"current_range_meters":20800,"station_id":"ce4bha12rcd13ifvqee0","pricing_plan_id":"cebpf4jnsgd1na2vs0mg"},{"bike_id":"f12cda4c-f18d-49c7-808c-3a750cd25b47","system_id":"levelo_inurba_marseille","lat":43.25511,"lon":5.37648,"is_reserved":false,"is_disabled":false,"rental_uris":{"android":"levelo://app?vid=f12cda4c-f18d-49c7-808c-3a750cd25b47","ios":"levelo://app?vid=f12cda4c-f18d-49c7-808c-3a750cd25b47"},"vehicle_type_id":"4","last_reported":1761999519,"current_range_meters":20800,"station_id":"ce4bhh12rcd13ifvqff0","pricing_plan_id":"cebpf4jnsgd1na2vs0mg"},{"bike_id":"b7bf08da-3155-4ebd-90f6-2c65138a1e9a","system_id":"levelo_inurba_marseille","lat":43.25492,"lon":5.37645,"is_reserved":false,"is_disabled":false,"rental_uris":{"android":"levelo://app?vid=b7bf08da-3155-4ebd-90f6-2c65138a1e9a","ios":"levelo://app?vid=b7bf08da-3155-4ebd-90f6-2c65138a1e9a"},"vehicle_type_id":"4","last_reported":1761999519,"current_range_meters":21600,"station_id":"ce4bhh12rcd13ifvqff0","pricing_plan_id":"cebpf4jnsgd1na2vs0mg"},{"bike_id":"65959e76-2dec-43d3-b15c-b4e7433182fd","system_id":"levelo_inurba_marseille","lat":43.293631,"lon":5.371955,"is_reserved":false,"is_disabled":false,"rental_uris":{"android":"levelo://app?vid=65959e76-2dec-43d3-b15c-b4e7433182fd","ios":"levelo://app?vid=65959e76-2dec-43d3-b15c-b4e7433182fd"},"vehicle_type_id":"4","last_reported":1761999519,"current_range_meters":21600,"station_id":"","pricing_plan_id":"cebpf4jnsgd1na2vs0mg"},{"bike_id":"cc475582-0cc3-4b14-a66c-6041b0d2e976","system_id":"levelo_inurba_marseille","lat":43.293311,"lon":5.41168,"is_reserved":false,"is_disabled":false,"rental_uris":{"android":"levelo://app?vid=cc475582-0cc3-4b14-a66c-6041b0d2e976","ios":"levelo://app?vid=cc475582-0cc3-4b14-a66c-6041b0d2e976"},"vehicle_type_id":"4","last_reported":1761999519,"current_range_meters":21600,"station_id":"","pricing_plan_id":"cebpf4jnsgd1na2vs0mg"},{"bike_id":"c695b713-3bc3-411d-b98f-7753f873ef56","system_id":"levelo_inurba_marseille","lat":43.28597,"lon":5.37056,"is_reserved":false,"is_disabled":false,"rental_uris":{"android":"levelo://app?vid=c695b713-3bc3-411d-b98f-7753f873ef56","ios":"levelo://app?vid=c695b713-3bc3-411d-b98f-7753f873ef56"},"vehicle_type_id":"4","last_reported":1761999519,"current_range_meters":21600,"station_id":"ce4bht12rcd13ifvqi60","pricing_plan_id":"cebpf4jnsgd1na2vs0mg"},{"bike_id":"ac22e436-8f12-4ec1-9035-73445f95f68a","system_id":"levelo_inurba_marseille","lat":43.26492,"lon":5.39544,"is_reserved":false,"is_disabled":false,"rental_uris":{"android":"levelo://app?vid=ac22e436-8f12-4ec1-9035-73445f95f68a","ios":"levelo://app?vid=ac22e436-8f12-4ec1-9035-73445f95f68a"},"vehicle_type_id":"4","last_reported":1761999519,"current_range_meters":21600,"station_id":"ce4bhi12rcd13ifvqfq0","pricing_plan_id":"cebpf4jnsgd1na2vs0mg"},{"bike_id":"d2104cd1-76bc-4af8-b76f-10f963b43660","system_id":"levelo_inurba_marseille","lat":43.29529,"lon":5.39041,"is_reserved":false,"is_disabled":false,"rental_uris":{"android":"levelo://app?vid=d2104cd1-76bc-4af8-b76f-10f963b43660","ios":"levelo://app?vid=d2104cd1-76bc-4af8-b76f-10f963b43660"},"vehicle_type_id":"4","last_reported":1761999519,"current_range_meters":21600,"station_id":"ce4bh3p2rcd13ifvqdp0","pricing_plan_id":"cebpf4jnsgd1na2vs0mg"},{"bike_id":"e0a9ae33-a56b-493b-87dd-817f322829b4","system_id":"levelo_inurba_marseille","lat":43.26192,"lon":5.37452,"is_reserved":false,"is_disabled":false,"rental_uris":{"android":"levelo://app?vid=e0a9ae33-a56b-493b-87dd-817f322829b4","ios":"levelo://app?vid=e0a9ae33-a56b-493b-87dd-817f322829b4"},"vehicle_type_id":"4","last_reported":1761999519,"current_range_meters":22000,"station_id":"ce4bhgp2rcd13ifvqfc0","pricing_plan_id":"cebpf4jnsgd1na2vs0mg"},{"bike_id":"beed1966-8b09-448b-a00b-57602d89131c","system_id":"levelo_inurba_marseille","lat":43.280986,"lon":5.396527,"is_reserved":false,"is_disabled":false,"rental_uris":{"android":"levelo://app?vid=beed1966-8b09-448b-a00b-57602d89131c","ios":"levelo://app?vid=beed1966-8b09-448b-a00b-57602d89131c"},"vehicle_type_id":"4","last_reported":1761999519,"current_range_meters":22000,"station_id":"ce4bh8p2rcd13ifvqeb0","pricing_plan_id":"cebpf4jnsgd1na2vs0mg"},{"bike_id":"fcc7a5b9-eb88-45bf-aebf-cf96cca8c3ef","system_id":"levelo_inurba_marseille","lat":43.24665,"lon":5.38165,"is_reserved":false,"is_disabled":false,"rental_uris":{"android":"levelo://app?vid=fcc7a5b9-eb88-45bf-aebf-cf96cca8c3ef","ios":"levelo://app?vid=fcc7a5b9-eb88-45bf-aebf-cf96cca8c3ef"},"vehicle_type_id":"4","last_reported":1761999519,"current_range_meters":22000,"station_id":"ce4bhih2rcd13ifvqfr0","pricing_plan_id":"cebpf4jnsgd1na2vs0mg"},{"bike_id":"ba7fe203-ff89-4a8c-ae21-8e9c552dd536","system_id":"levelo_inurba_marseille","lat":43.33013,"lon":5.39048,"is_reserved":false,"is_disabled":false,"rental_uris":{"android":"levelo://app?vid=ba7fe203-ff89-4a8c-ae21-8e9c552dd536","ios":"levelo://app?vid=ba7fe203-ff89-4a8c-ae21-8e9c552dd536"},"vehicle_type_id":"4","last_reported":1761999519,"current_range_meters":22000,"station_id":"ce4bhr92rcd13ifvqhrg","pricing_plan_id":"cebpf4jnsgd1na2vs0mg"},{"bike_id":"e53e30cd-2a1c-47b2-a58f-47c395ea8d44","system_id":"levelo_inurba_marseille","lat":43.246417,"lon":5.388927,"is_reserved":false,"is_disabled":false,"rental_uris":{"android":"levelo://app?vid=e53e30cd-2a1c-47b2-a58f-47c395ea8d44","ios":"levelo://app?vid=e53e30cd-2a1c-47b2-a58f-47c395ea8d44"},"vehicle_type_id":"4","last_reported":1761999519,"current_range_meters":22000,"station_id":"ce4bhg12rcd13ifvqf60","pricing_plan_id":"cebpf4jnsgd1na2vs0mg"},{"bike_id":"085fa7a2-04dc-466f-8a51-ea749a29fdf9","system_id":"levelo_inurba_marseille","lat":43.21742,"lon":5.34599,"is_reserved":false,"is_disabled":false,"rental_uris":{"android":"levelo://app?vid=085fa7a2-04dc-466f-8a51-ea749a29fdf9","ios":"levelo://app?vid=085fa7a2-04dc-466f-8a51-ea749a29fdf9"},"vehicle_type_id":"4","last_reported":1761999519,"current_range_meters":22000,"station_id":"st_cvj6r9ubvosntc0bgbag","pricing_plan_id":"cebpf4jnsgd1na2vs0mg"},{"bike_id":"123ec047-d6a2-4308-aee4-8ec0b2bea538","system_id":"levelo_inurba_marseille","lat":43.23176,"lon":5.3557,"is_reserved":false,"is_disabled":false,"rental_uris":{"android":"levelo://app?vid=123ec047-d6a2-4308-aee4-8ec0b2bea538","ios":"levelo://app?vid=123ec047-d6a2-4308-aee4-8ec0b2bea538"},"vehicle_type_id":"4","last_reported":1761999519,"current_range_meters":22000,"station_id":"ce4bhu92rcd13ifvqi70","pricing_plan_id":"cebpf4jnsgd1na2vs0mg"},{"bike_id":"fd8d76ee-a758-411a-bd8e-65c031bc9d17","system_id":"levelo_inurba_marseille","lat":43.22929,"lon":5.35375,"is_reserved":false,"is_disabled":false,"rental_uris":{"android":"levelo://app?vid=fd8d76ee-a758-411a-bd8e-65c031bc9d17","ios":"levelo://app?vid=fd8d76ee-a758-411a-bd8e-65c031bc9d17"},"vehicle_type_id":"4","last_reported":1761999519,"current_range_meters":22000,"station_id":"cpo3532slgdg3j2ikp40","pricing_plan_id":"cebpf4jnsgd1na2vs0mg"},{"bike_id":"4668435e-bcae-4775-b1ba-0c729cc77a71","system_id":"levelo_inurba_marseille","lat":43.284804,"lon":5.483947,"is_reserved":false,"is_disabled":false,"rental_uris":{"android":"levelo://app?vid=4668435e-bcae-4775-b1ba-0c729cc77a71","ios":"levelo://app?vid=4668435e-bcae-4775-b1ba-0c729cc77a71"},"vehicle_type_id":"4","last_reported":1761999519,"current_range_meters":22000,"station_id":"st_d3svhcjqgbts73a3dn0g","pricing_plan_id":"cebpf4jnsgd1na2vs0mg"},