{"last_updated":1748607602,"ttl":60,"version":"2.2","data":{"bikes":[{"bike_id":"55d42eeb-6b71-4987-a0f2-3d758b10d43e","system_id":"levelo_inurba_marseille","lat":43.33771,"lon":5.37424,"is_reserved":false,"is_disabled":true,"rental_uris":{"android":"levelo://app?vid=55d42eeb-6b71-4987-a0f2-3d758b10d43e","ios":"levelo://app?vid=55d42eeb-6b71-4987-a0f2-3d758b10d43e"},"vehicle_type_id":"4","last_reported":1748607603,"current_range_meters":0,"station_id":"","pricing_plan_id":"cebpf4jnsgd1na2vs0mg"},{"bike_id":"b7fe4621-b706-42f0-9085-4811142f84e8","system_id":"levelo_inurba_marseille","lat":43.337499,"lon":5.374469,"is_reserved":false,"is_disabled":true,"rental_uris":{"android":"levelo://app?vid=b7fe4621-b706-42f0-9085-4811142f84e8","ios":"levelo://app?vid=b7fe4621-b706-42f0-9085-4811142f84e8"},"vehicle_type_id":"4","last_reported":1748607603,"current_range_meters":0,"station_id":"","pricing_plan_id":"cebpf4jnsgd1na2vs0mg"},{"bike_id":"15a5fae3-e393-43f8-a68d-52d0a24ccaef","system_id":"levelo_inurba_marseille","lat":43.273786,"lon":5.362568,"is_reserved":false,"is_disabled":true,"rental_uris":{"android":"levelo://app?vid=15a5fae3-e393-43f8-a68d-52d0a24ccaef","ios":"levelo://app?vid=15a5fae3-e393-43f8-a68d-52d0a24ccaef"},"vehicle_type_id":"4","last_reported":1748607603,"current_range_meters":0,"station_id":"","pricing_plan_id":"cebpf4jnsgd1na2vs0mg"},{"bike_id":"ad402f0f-3192-410c-afac-8cf064a40c6d","system_id":"levelo_inurba_marseille","lat":43.337444,"lon":5.374475,"is_reserved":false,"is_disabled":true,"rental_uris":{"android":"levelo://app?vid=ad402f0f-3192-410c-afac-8cf064a40c6d","ios":"levelo://app?vid=ad402f0f-3192-410c-afac-8cf064a40c6d"},"vehicle_type_id":"4","last_reported":1748607603,"current_range_meters":0,"station_id":"","pricing_plan_id":"cebpf4jnsgd1na2vs0mg"},{"bike_id":"d90baf97-e6b3-4c48-bcd2-63bc44243da4","system_id":"levelo_inurba_marseille","lat":43.216527,"lon":5.342925,"is_reserved":false,"is_disabled":true,"rental_uris":{"android":"levelo://app?vid=d90baf97-e6b3-4c48-bcd2-63bc44243da4","ios":"levelo://app?vid=d90baf97-e6b3-4c48-bcd2-63bc44243da4"},"vehicle_type_id":"4","last_reported":1748607603,"current_range_meters":0,"station_id":"","pricing_plan_id":"cebpf4jnsgd1na2vs0mg"},{"bike_id":"df58c3ec-edbe-4afc-be0f-0fd8811e3d22","system_id":"levelo_inurba_marseille","lat":43.28614,"lon":5.35098,"is_reserved":false,"is_disabled":true,"rental_uris":{"android":"levelo://app?vid=df58c3ec-edbe-4afc-be0f-0fd8811e3d22","ios":"levelo://app?vid=df58c3ec-edbe-4afc-be0f-0fd8811e3d22"},"vehicle_type_id":"4","last_reported":1748607603,"current_range_meters":0,"station_id":"","pricing_plan_id":"cebpf4jnsgd1na2vs0mg"},{"bike_id":"80dc1064-d63f-4a22-ad21-d8abd70986c0","system_id":"levelo_inurba_marseille","lat":43.337558,"lon":5.374801,"is_reserved":false,"is_disabled":true,"rental_uris":{"android":"levelo://app?vid=80dc1064-d63f-4a22-ad21-d8abd70986c0","ios":"levelo://app?vid=80dc1064-d63f-4a22-ad21-d8abd70986c0"},"vehicle_type_id":"4","last_reported":1748607603,"current_range_meters":0,"station_id":"","pricing_plan_id":"cebpf4jnsgd1na2vs0mg"},{"bike_id":"bff8aa88-1500-49a7-a07f-269e29d42bd8","system_id":"levelo_inurba_marseille","lat":43.293723,"lon":5.378542,"is_reserved":false,"is_disabled":true,"rental_uris":{"android":"levelo://app?vid=bff8aa88-1500-49a7-a07f-269e29d42bd8","ios":"levelo://app?vid=bff8aa88-1500-49a7-a07f-269e29d42bd8"},"vehicle_type_id":"4","last_reported":1748607603,"current_range_meters":0,"station_id":"ce4bgjh2rcd13ifvqbf0","pricing_plan_id":"cebpf4jnsgd1na2vs0mg"},{"bike_id":"942195ec-efb3-4f25-8ee6-d975b6969060","system_id":"levelo_inurba_marseille","lat":43.27392,"lon":5.36252,"is_reserved":false,"is_disabled":true,"rental_uris":{"android":"levelo://app?vid=942195ec-efb3-4f25-8ee6-d975b6969060","ios":"levelo://app?vid=942195ec-efb3-4f25-8ee6-d975b6969060"},"vehicle_type_id":"4","last_reported":1748607603,"current_range_meters":0,"station_id":"ce4bhbh2rcd13ifvqeo0","pricing_plan_id":"cebpf4jnsgd1na2vs0mg"},{"bike_id":"46c8c49f-7a06-48d8-b4fa-a2d5049944d4","system_id":"levelo_inurba_marseille","lat":43.29228,"lon":5.36065,"is_reserved":false,"is_disabled":true,"rental_uris":{"android":"levelo://app?vid=46c8c49f-7a06-48d8-b4fa-a2d5049944d4","ios":"levelo://app?vid=46c8c49f-7a06-48d8-b4fa-a2d5049944d4"},"vehicle_type_id":"4","last_reported":1748607603,"current_range_meters":0,"station_id":"ce4bhbh2rcd13ifvqeqg","pricing_plan_id":"cebpf4jnsgd1na2vs0mg"},{"bike_id":"1a435556-7244-449d-986c-80036655391c","system_id":"levelo_inurba_marseille","lat":43.26207,"lon":5.37442,"is_reserved":false,"is_disabled":true,"rental_uris":{"android":"levelo://app?vid=1a435556-7244-449d-986c-80036655391c","ios":"levelo://app?vid=1a435556-7244-449d-986c-80036655391c"},"vehicle_type_id":"4","last_reported":1748607603,"current_range_meters":0,"station_id":"ce4bhgp2rcd13ifvqfc0","pricing_plan_id":"cebpf4jnsgd1na2vs0mg"},{"bike_id":"eff4034c-b66c-49ae-830e-af1a18dfcf73","system_id":"levelo_inurba_marseille","lat":43.26196,"lon":5.37453,"is_reserved":false,"is_disabled":true,"rental_uris":{"android":"levelo://app?vid=eff4034c-b66c-49ae-830e-af1a18dfcf73","ios":"levelo://app?vid=eff4034c-b66c-49ae-830e-af1a18dfcf73"},"vehicle_type_id":"4","last_reported":1748607603,"current_range_meters":0,"station_id":"ce4bhgp2rcd13ifvqfc0","pricing_plan_id":"cebpf4jnsgd1na2vs0mg"},{"bike_id":"e83578a1-a347-4126-8102-ced17574ee87","system_id":"levelo_inurba_marseille","lat":43.26196,"lon":5.37432,"is_reserved":false,"is_disabled":true,"rental_uris":{"android":"levelo://app?vid=e83578a1-a347-4126-8102-ced17574ee87","ios":"levelo://app?vid=e83578a1-a347-4126-8102-ced17574ee87"},"vehicle_type_id":"4","last_reported":1748607603,"current_range_meters":0,"station_id":"ce4bhgp2rcd13ifvqfc0","pricing_plan_id":"cebpf4jnsgd1na2vs0mg"},{"bike_id":"04038300-69cd-4d70-8ce5-12d07cfdb44b","system_id":"levelo_inurba_marseille","lat":43.27314,"lon":5.3908,"is_reserved":false,"is_disabled":true,"rental_uris":{"android":"levelo://app?vid=04038300-69cd-4d70-8ce5-12d07cfdb44b","ios":"levelo://app?vid=04038300-69cd-4d70-8ce5-12d07cfdb44b"},"vehicle_type_id":"4","last_reported":1748607603,"current_range_meters":0,"station_id":"ce4bhgp2rcd13ifvqfe0","pricing_plan_id":"cebpf4jnsgd1na2vs0mg"},{"bike_id":"d15385dd-e601-4661-b726-8b3c4d3a429c","system_id":"levelo_inurba_marseille","lat":43.241796,"lon":5.397225,"is_reserved":false,"is_disabled":true,"rental_uris":{"android":"levelo://app?vid=d15385dd-e601-4661-b726-8b3c4d3a429c","ios":"levelo://app?vid=d15385dd-e601-4661-b726-8b3c4d3a429c"},"vehicle_type_id":"4","last_reported":1748607603,"current_range_meters":0,"station_id":"ce4bhn12rcd13ifvqgpg","pricing_plan_id":"cebpf4jnsgd1na2vs0mg"},{"bike_id":"4e5a1d5f-5a6a-4a83-a5ff-d402a6d6435b","system_id":"levelo_inurba_marseille","lat":43.27814,"lon":5.40716,"is_reserved":false,"is_disabled":true,"rental_uris":{"android":"levelo://app?vid=4e5a1d5f-5a6a-4a83-a5ff-d402a6d6435b","ios":"levelo://app?vid=4e5a1d5f-5a6a-4a83-a5ff-d402a6d6435b"},"vehicle_type_id":"4","last_reported":1748607603,"current_range_meters":0,"station_id":"ce4bhnh2rcd13ifvqgtg","pricing_plan_id":"cebpf4jnsgd1na2vs0mg"},{"bike_id":"73692252-284e-452c-9b85-90a54145fcf6","system_id":"levelo_inurba_marseille","lat":43.21756,"lon":5.34613,"is_reserved":false,"is_disabled":true,"rental_uris":{"android":"levelo://app?vid=73692252-284e-452c-9b85-90a54145fcf6","ios":"levelo://app?vid=73692252-284e-452c-9b85-90a54145fcf6"},"vehicle_type_id":"4","last_reported":1748607603,"current_range_meters":0,"station_id":"st_cvj6r9ubvosntc0bgbag","pricing_plan_id":"cebpf4jnsgd1na2vs0mg"},{"bike_id":"dc924cef-0954-473c-a45f-bdf9b2400262","system_id":"levelo_inurba_marseille","lat":43.26575,"lon":5.39037,"is_reserved":false,"is_disabled":true,"rental_uris":{"android":"levelo://app?vid=dc924cef-0954-473c-a45f-bdf9b2400262","ios":"levelo://app?vid=dc924cef-0954-473c-a45f-bdf9b2400262"},"vehicle_type_id":"4","last_reported":1748607603,"current_range_meters":400,"station_id":"ce4bhe12rcd13ifvqf30","pricing_plan_id":"cebpf4jnsgd1na2vs0mg"},{"bike_id":"d544d600-9751-413e-8e27-2dd1341aa004","system_id":"levelo_inurba_marseille","lat":43.28003,"lon":5.40011,"is_reserved":false,"is_disabled":true,"rental_uris":{"android":"levelo://app?vid=d544d600-9751-413e-8e27-2dd1341aa004","ios":"levelo://app?vid=d544d600-9751-413e-8e27-2dd1341aa004"},"vehicle_type_id":"4","last_reported":1748607603,"current_range_meters":400,"station_id":"ce4bho92rcd13ifvqh4g","pricing_plan_id":"cebpf4jnsgd1na2vs0mg"},{"bike_id":"a9c8cc09-b81f-4b6d-ae1a-4da7ee8da825","system_id":"levelo_inurba_marseille","lat":43.25936,"lon":5.40905,"is_reserved":false,"is_disabled":true,"rental_uris":{"android":"levelo://app?vid=a9c8cc09-b81f-4b6d-ae1a-4da7ee8da825","ios":"levelo://app?vid=a9c8cc09-b81f-4b6d-ae1a-4da7ee8da825"},"vehicle_type_id":"4","last_reported":1748607603,"current_range_meters":800,"station_id":"ce4bhm92rcd13ifvqglg","pricing_plan_id":"cebpf4jnsgd1na2vs0mg"},{"bike_id":"ffab3924-25f4-4b3d-86bd-4ee689add3c3","system_id":"levelo_inurba_marseille","lat":43.27378,"lon":5.36257,"is_reserved":false,"is_disabled":true,"rental_uris":{"android":"levelo://app?vid=ffab3924-25f4-4b3d-86bd-4ee689add3c3","ios":"levelo://app?vid=ffab3924-25f4-4b3d-86bd-4ee689add3c3"},"vehicle_type_id":"4","last_reported":1748607603,"current_range_meters":1200,"station_id":"","pricing_plan_id":"cebpf4jnsgd1na2vs0mg"},{"bike_id":"13b0af23-cd14-4443-951f-8d68e6675bd1","system_id":"levelo_inurba_marseille","lat":43.27915,"lon":5.39582,"is_reserved":false,"is_disabled":true,"rental_uris":{"android":"levelo://app?vid=13b0af23-cd14-4443-951f-8d68e6675bd1","ios":"levelo://app?vid=13b0af23-cd14-4443-951f-8d68e6675bd1"},"vehicle_type_id":"4","last_reported":1748607603,"current_range_meters":1200,"station_id":"ce4bhf92rcd13ifvqf40","pricing_plan_id":"cebpf4jnsgd1na2vs0mg"},{"bike_id":"cf9fa339-df19-43b1-8529-7dcc6c56a9e5","system_id":"levelo_inurba_marseille","lat":43.2418,"lon":5.39738,"is_reserved":false,"is_disabled":true,"rental_uris":{"android":"levelo://app?vid=cf9fa339-df19-43b1-8529-7dcc6c56a9e5","ios":"levelo://app?vid=cf9fa339-df19-43b1-8529-7dcc6c56a9e5"},"vehicle_type_id":"4","last_reported":1748607603,"current_range_meters":1200,"station_id":"ce4bhn12rcd13ifvqgpg","pricing_plan_id":"cebpf4jnsgd1na2vs0mg"},{"bike_id":"ee811be6-56da-4b7b-b1b5-2f7e8687681c","system_id":"levelo_inurba_marseille","lat":43.31188,"lon":5.38755,"is_reserved":false,"is_disabled":true,"rental_uris":{"android":"levelo://app?vid=ee811be6-56da-4b7b-b1b5-2f7e8687681c","ios":"levelo://app?vid=ee811be6-56da-4b7b-b1b5-2f7e8687681c"},"vehicle_type_id":"4","last_reported":1748607603,"current_range_meters":1600,"station_id":"ce4bgv12rcd13ifvqcp0","pricing_plan_id":"cebpf4jnsgd1na2vs0mg"},{"bike_id":"eec9dfd8-c674-4343-8853-3fda936ebdd8","system_id":"levelo_inurba_marseille","lat":43.28358,"lon":5.38634,"is_reserved":false,"is_disabled":true,"rental_uris":{"android":"levelo://app?vid=eec9dfd8-c674-4343-8853-3fda936ebdd8","ios":"levelo://app?vid=eec9dfd8-c674-4343-8853-3fda936ebdd8"},"vehicle_type_id":"4","last_reported":1748607603,"current_range_meters":1600,"station_id":"ce4bh492rcd13ifvqdvg","pricing_plan_id":"cebpf4jnsgd1na2vs0mg"},{"bike_id":"d0836b2e-3cbb-4570-877f-56c8c757a639","system_id":"levelo_inurba_marseille","lat":43.26688,"lon":5.38274,"is_reserved":false,"is_disabled":true,"rental_uris":{"android":"levelo://app?vid=d0836b2e-3cbb-4570-877f-56c8c757a639","ios":"levelo://app?vid=d0836b2e-3cbb-4570-877f-56c8c757a639"},"vehicle_type_id":"4","last_reported":1748607603,"current_range_meters":1600,"station_id":"ce4bhg92rcd13ifvqf90","pricing_plan_id":"cebpf4jnsgd1na2vs0mg"},{"bike_id":"f25e314e-ccc5-4204-9a74-d0dc92bbfdc7","system_id":"levelo_inurba_marseille","lat":43.26784,"lon":5.39412,"is_reserved":false,"is_disabled":true,"rental_uris":{"android":"levelo://app?vid=f25e314e-ccc5-4204-9a74-d0dc92bbfdc7","ios":"levelo://app?vid=f25e314e-ccc5-4204-9a74-d0dc92bbfdc7"},"vehicle_type_id":"4","last_reported":1748607603,"current_range_meters":1600,"station_id":"ce4bhh12rcd13ifvqfg0","pricing_plan_id":"cebpf4jnsgd1na2vs0mg"},{"bike_id":"585cac5d-6a16-4ba2-a7b8-f04eff300b5b","system_id":"levelo_inurba_marseille","lat":43.29558,"lon":5.42293,"is_reserved":false,"is_disabled":true,"rental_uris":{"android":"levelo://app?vid=585cac5d-6a16-4ba2-a7b8-f04eff300b5b","ios":"levelo://app?vid=585cac5d-6a16-4ba2-a7b8-f04eff300b5b"},"vehicle_type_id":"4","last_reported":1748607603,"current_range_meters":1600,"station_id":"ce4bhph2rcd13ifvqhdg","pricing_plan_id":"cebpf4jnsgd1na2vs0mg"},{"bike_id":"24204c04-5d8c-4ac1-bc38-3e364dee5b7a","system_id":"levelo_inurba_marseille","lat":43.30246,"lon":5.41311,"is_reserved":false,"is_disabled":true,"rental_uris":{"android":"levelo://app?vid=24204c04-5d8c-4ac1-bc38-3e364dee5b7a","ios":"levelo://app?vid=24204c04-5d8c-4ac1-bc38-3e364dee5b7a"},"vehicle_type_id":"4","last_reported":1748607603,"current_range_meters":2000,"station_id":"","pricing_plan_id":"cebpf4jnsgd1na2vs0mg"},{"bike_id":"6ff7f44d-0d3f-4373-96d4-bf7dcc0b54fd","system_id":"levelo_inurba_marseille","lat":43.29281,"lon":5.3762,"is_reserved":false,"is_disabled":true,"rental_uris":{"android":"levelo://app?vid=6ff7f44d-0d3f-4373-96d4-bf7dcc0b54fd","ios":"levelo://app?vid=6ff7f44d-0d3f-4373-96d4-bf7dcc0b54fd"},"vehicle_type_id":"4","last_reported":1748607603,"current_range_meters":2000,"station_id":"ce4bgi12rcd13ifvqb80","pricing_plan_id":"cebpf4jnsgd1na2vs0mg"},{"bike_id":"6aeadafc-e7c5-4cd6-93b0-c59d32074f7f","system_id":"levelo_inurba_marseille","lat":43.30217,"lon":5.39482,"is_reserved":false,"is_disabled":true,"rental_uris":{"android":"levelo://app?vid=6aeadafc-e7c5-4cd6-93b0-c59d32074f7f","ios":"levelo://app?vid=6aeadafc-e7c5-4cd6-93b0-c59d32074f7f"},"vehicle_type_id":"4","last_reported":1748607603,"current_range_meters":2000,"station_id":"ce4bh0p2rcd13ifvqd70","pricing_plan_id":"cebpf4jnsgd1na2vs0mg"},{"bike_id":"be348bda-5d43-4688-9e0b-089d8f949063","system_id":"levelo_inurba_marseille","lat":43.29199,"lon":5.35804,"is_reserved":false,"is_disabled":false,"rental_uris":{"android":"levelo://app?vid=be348bda-5d43-4688-9e0b-089d8f949063","ios":"levelo://app?vid=be348bda-5d43-4688-9e0b-089d8f949063"},"vehicle_type_id":"4","last_reported":1748607603,"current_range_meters":2800,"station_id":"ce4bhb12rcd13ifvqel0","pricing_plan_id":"cebpf4jnsgd1na2vs0mg"},{"bike_id":"a3e04d0f-727b-4726-b2d8-f1bdfaa7df01","system_id":"levelo_inurba_marseille","lat":43.27359,"lon":5.36226,"is_reserved":false,"is_disabled":false,"rental_uris":{"android":"levelo://app?vid=a3e04d0f-727b-4726-b2d8-f1bdfaa7df01","ios":"levelo://app?vid=a3e04d0f-727b-4726-b2d8-f1bdfaa7df01"},"vehicle_type_id":"4","last_reported":1748607603,"current_range_meters":2800,"station_id":"ce4bhbh2rcd13ifvqeo0","pricing_plan_id":"cebpf4jnsgd1na2vs0mg"},{"bike_id":"d0d11734-21aa-4944-925e-69da45ea0150","system_id":"levelo_inurba_marseille","lat":43.26569,"lon":5.39008,"is_reserved":false,"is_disabled":false,"rental_uris":{"android":"levelo://app?vid=d0d11734-21aa-4944-925e-69da45ea0150","ios":"levelo://app?vid=d0d11734-21aa-4944-925e-69da45ea0150"},"vehicle_type_id":"4","last_reported":1748607603,"current_range_meters":2800,"station_id":"ce4bhe12rcd13ifvqf30","pricing_plan_id":"cebpf4jnsgd1na2vs0mg"},{"bike_id":"832765b1-8eef-4ffb-b398-7a3dc1187e49","system_id":"levelo_inurba_marseille","lat":43.32335,"lon":5.40621,"is_reserved":false,"is_disabled":false,"rental_uris":{"android":"levelo://app?vid=832765b1-8eef-4ffb-b398-7a3dc1187e49","ios":"levelo://app?vid=832765b1-8eef-4ffb-b398-7a3dc1187e49"},"vehicle_type_id":"4","last_reported":1748607603,"current_range_meters":2800,"station_id":"ce4bhq92rcd13ifvqhjg","pricing_plan_id":"cebpf4jnsgd1na2vs0mg"},{"bike_id":"64a535d1-bbc0-4afb-9914-d6d6b2207b7b","system_id":"levelo_inurba_marseille","lat":43.282654,"lon":5.350595,"is_reserved":false,"is_disabled":false,"rental_uris":{"android":"levelo://app?vid=64a535d1-bbc0-4afb-9914-d6d6b2207b7b","ios":"levelo://app?vid=64a535d1-bbc0-4afb-9914-d6d6b2207b7b"},"vehicle_type_id":"4","last_reported":1748607603,"current_range_meters":3200,"station_id":"","pricing_plan_id":"cebpf4jnsgd1na2vs0mg"},{"bike_id":"ae3b3dce-af27-4783-b46b-aceacebb4963","system_id":"levelo_inurba_marseille","lat":43.23056,"lon":5.35489,"is_reserved":false,"is_disabled":false,"rental_uris":{"android":"levelo://app?vid=ae3b3dce-af27-4783-b46b-aceacebb4963","ios":"levelo://app?vid=ae3b3dce-af27-4783-b46b-aceacebb4963"},"vehicle_type_id":"4","last_reported":1748607603,"current_range_meters":3200,"station_id":"cpo3342slgdg3j2ifvpg","pricing_plan_id":"cebpf4jnsgd1na2vs0mg"},{"bike_id":"2f650bb1-6027-4191-83d2-16315820a0a7","system_id":"levelo_inurba_marseille","lat":43.30002,"lon":5.37342,"is_reserved":false,"is_disabled":false,"rental_uris":{"android":"levelo://app?vid=2f650bb1-6027-4191-83d2-16315820a0a7","ios":"levelo://app?vid=2f650bb1-6027-4191-83d2-16315820a0a7"},"vehicle_type_id":"4","last_reported":1748607603,"current_range_meters":3600,"station_id":"","pricing_plan_id":"cebpf4jnsgd1na2vs0mg"},{"bike_id":"25912d97-ab68-4143-883e-7176bc00be93","system_id":"levelo_inurba_marseille","lat":43.31709,"lon":5.40451,"is_reserved":false,"is_disabled":false,"rental_uris":{"android":"levelo://app?vid=25912d97-ab68-4143-883e-7176bc00be93","ios":"levelo://app?vid=25912d97-ab68-4143-883e-7176bc00be93"},"vehicle_type_id":"4","last_reported":1748607603,"current_range_meters":3600,"station_id":"ce4bh012rcd13ifvqd00","pricing_plan_id":"cebpf4jnsgd1na2vs0mg"},{"bike_id":"c6a31a0d-9058-4787-aed5-d9fb8d71236f","system_id":"levelo_inurba_marseille","lat":43.26578,"lon":5.3903,"is_reserved":false,"is_disabled":false,"rental_uris":{"android":"levelo://app?vid=c6a31a0d-9058-4787-aed5-d9fb8d71236f","ios":"levelo://app?vid=c6a31a0d-9058-4787-aed5-d9fb8d71236f"},"vehicle_type_id":"4","last_reported":1748607603,"current_range_meters":3600,"station_id":"ce4bhe12rcd13ifvqf30","pricing_plan_id":"cebpf4jnsgd1na2vs0mg"},{"bike_id":"27db8ad3-e02e-49a6-a060-ee715b8a0a60","system_id":"levelo_inurba_marseille","lat":43.254983,"lon":5.376439,"is_reserved":false,"is_disabled":false,"rental_uris":{"android":"levelo://app?vid=27db8ad3-e02e-49a6-a060-ee715b8a0a60","ios":"levelo://app?vid=27db8ad3-e02e-49a6-a060-ee715b8a0a60"},"vehicle_type_id":"4","last_reported":1748607603,"current_range_meters":3600,"station_id":"ce4bhh12rcd13ifvqff0","pricing_plan_id":"cebpf4jnsgd1na2vs0mg"},{"bike_id":"8b96ce17-8309-42b6-80b6-642331455e48","system_id":"levelo_inurba_marseille","lat":43.23064,"lon":5.3549,"is_reserved":false,"is_disabled":false,"rental_uris":{"android":"levelo://app?vid=8b96ce17-8309-42b6-80b6-642331455e48","ios":"levelo://app?vid=8b96ce17-8309-42b6-80b6-642331455e48"},"vehicle_type_id":"4","last_reported":1748607603,"current_range_meters":3600,"station_id":"cpo3342slgdg3j2ifvpg","pricing_plan_id":"cebpf4jnsgd1na2vs0mg"},{"bike_id":"3f0441b1-6cb6-41fd-b679-f454d34b2118","system_id":"levelo_inurba_marseille","lat":43.21185,"lon":5.35059,"is_reserved":false,"is_disabled":false,"rental_uris":{"android":"levelo://app?vid=3f0441b1-6cb6-41fd-b679-f454d34b2118","ios":"levelo://app?vid=3f0441b1-6cb6-41fd-b679-f454d34b2118"},"vehicle_type_id":"4","last_reported":1748607603,"current_range_meters":3600,"station_id":"st_cvj6sg6p6f1abm77japg","pricing_plan_id":"cebpf4jnsgd1na2vs0mg"},{"bike_id":"0c71d4c1-69d0-4f98-a5f9-f8102232845f","system_id":"levelo_inurba_marseille","lat":43.29787,"lon":5.37096,"is_reserved":false,"is_disabled":false,"rental_uris":{"android":"levelo://app?vid=0c71d4c1-69d0-4f98-a5f9-f8102232845f","ios":"levelo://app?vid=0c71d4c1-69d0-4f98-a5f9-f8102232845f"},"vehicle_type_id":"4","last_reported":1748607603,"current_range_meters":4000,"station_id":"ce4bgop2rcd13ifvqc1g","pricing_plan_id":"cebpf4jnsgd1na2vs0mg"},{"bike_id":"38a1593a-8850-409d-8068-fe08b27d5585","system_id":"levelo_inurba_marseille","lat":43.29047,"lon":5.359103,"is_reserved":false,"is_disabled":false,"rental_uris":{"android":"levelo://app?vid=38a1593a-8850-409d-8068-fe08b27d5585","ios":"levelo://app?vid=38a1593a-8850-409d-8068-fe08b27d5585"},"vehicle_type_id":"4","last_reported":1748607603,"current_range_meters":4000,"station_id":"ce4bha92rcd13ifvqeg0","pricing_plan_id":"cebpf4jnsgd1na2vs0mg"},{"bike_id":"9c7fcb06-07c8-456a-a73a-80068d7f6ee0","system_id":"levelo_inurba_marseille","lat":43.23151,"lon":5.43727,"is_reserved":false,"is_disabled":false,"rental_uris":{"android":"levelo://app?vid=9c7fcb06-07c8-456a-a73a-80068d7f6ee0","ios":"levelo://app?vid=9c7fcb06-07c8-456a-a73a-80068d7f6ee0"},"vehicle_type_id":"4","last_reported":1748607603,"current_range_meters":4000,"station_id":"ce4bhmp2rcd13ifvqgog","pricing_plan_id":"cebpf4jnsgd1na2vs0mg"},{"bike_id":"a8857b1b-94dd-4e53-844c-8954ca2b30aa","system_id":"levelo_inurba_marseille","lat":43.29844,"lon":5.36273,"is_reserved":false,"is_disabled":false,"rental_uris":{"android":"levelo://app?vid=a8857b1b-94dd-4e53-844c-8954ca2b30aa","ios":"levelo://app?vid=a8857b1b-94dd-4e53-844c-8954ca2b30aa"},"vehicle_type_id":"4","last_reported":1748607603,"current_range_meters":4400,"station_id":"ce4bgpp2rcd13ifvqc3g","pricing_plan_id":"cebpf4jnsgd1na2vs0mg"},{"bike_id":"9a9cb396-7044-457f-a27f-bd74ff7f3507","system_id":"levelo_inurba_marseille","lat":43.2861,"lon":5.35122,"is_reserved":false,"is_disabled":false,"rental_uris":{"android":"levelo://app?vid=9a9cb396-7044-457f-a27f-bd74ff7f3507","ios":"levelo://app?vid=9a9cb396-7044-457f-a27f-bd74ff7f3507"},"vehicle_type_id":"4","last_reported":1748607603,"current_range_meters":4400,"station_id":"ce4bhch2rcd13ifvqeug","pricing_plan_id":"cebpf4jnsgd1na2vs0mg"},{"bike_id":"7f281b14-83cd-4565-8249-0cd5c4ede6dc","system_id":"levelo_inurba_marseille","lat":43.26196,"lon":5.37447,"is_reserved":false,"is_disabled":false,"rental_uris":{"android":"levelo://app?vid=7f281b14-83cd-4565-8249-0cd5c4ede6dc","ios":"levelo://app?vid=7f281b14-83cd-4565-8249-0cd5c4ede6dc"},"vehicle_type_id":"4","last_reported":1748607603,"current_range_meters":4800,"station_id":"ce4bhgp2rcd13ifvqfc0","pricing_plan_id":"cebpf4jnsgd1na2vs0mg"},{"bike_id":"97924de5-704b-4335-bfa8-efb0fb5c5565","system_id":"levelo_inurba_marseille","lat":43.24171,"lon":5.36389,"is_reserved":false,"is_disabled":false,"rental_uris":{"android":"levelo://app?vid=97924de5-704b-4335-bfa8-efb0fb5c5565","ios":"levelo://app?vid=97924de5-704b-4335-bfa8-efb0fb5c5565"},"vehicle_type_id":"4","last_reported":1748607603,"current_range_meters":4800,"station_id":"cpo36qri1sfpv3e86is0","pricing_plan_id":"cebpf4jnsgd1na2vs0mg"},{"bike_id":"7c6e48ab-b87e-4e89-9339-a1a2992e6797","system_id":"levelo_inurba_marseille","lat":43.26113,"lon":5.41468,"is_reserved":false,"is_disabled":false,"rental_uris":{"android":"levelo://app?vid=7c6e48ab-b87e-4e89-9339-a1a2992e6797","ios":"levelo://app?vid=7c6e48ab-b87e-4e89-9339-a1a2992e6797"},"vehicle_type_id":"4","last_reported":1748607603,"current_range_meters":5600,"station_id":"","pricing_plan_id":"cebpf4jnsgd1na2vs0mg"},{"bike_id":"882f96e6-6d51-400c-b332-99ec0e88ba27","system_id":"levelo_inurba_marseille","lat":43.276203,"lon":5.361119,"is_reserved":false,"is_disabled":false,"rental_uris":{"android":"levelo://app?vid=882f96e6-6d51-400c-b332-99ec0e88ba27","ios":"levelo://app?vid=882f96e6-6d51-400c-b332-99ec0e88ba27"},"vehicle_type_id":"4","last_reported":1748607603,"current_range_meters":5600,"station_id":"ce4bgj92rcd13ifvqbe0","pricing_plan_id":"cebpf4jnsgd1na2vs0mg"},{"bike_id":"9c577ffd-c617-42a2-81e0-c523deb63b21","system_id":"levelo_inurba_marseille","lat":43.24805,"lon":5.37458,"is_reserved":false,"is_disabled":false,"rental_uris":{"android":"levelo://app?vid=9c577ffd-c617-42a2-81e0-c523deb63b21","ios":"levelo://app?vid=9c577ffd-c617-42a2-81e0-c523deb63b21"},"vehicle_type_id":"4","last_reported":1748607603,"current_range_meters":5600,"station_id":"ce4bhgh2rcd13ifvqfb0","pricing_plan_id":"cebpf4jnsgd1na2vs0mg"},{"bike_id":"c131fbd3-3bd4-4ddc-96fe-a86b76749dfe","system_id":"levelo_inurba_marseille","lat":43.26214,"lon":5.37439,"is_reserved":false,"is_disabled":false,"rental_uris":{"android":"levelo://app?vid=c131fbd3-3bd4-4ddc-96fe-a86b76749dfe","ios":"levelo://app?vid=c131fbd3-3bd4-4ddc-96fe-a86b76749dfe"},"vehicle_type_id":"4","last_reported":1748607603,"current_range_meters":5600,"station_id":"ce4bhgp2rcd13ifvqfc0","pricing_plan_id":"cebpf4jnsgd1na2vs0mg"},{"bike_id":"614b8b1d-506a-4862-a2e3-8b70b8522cc3","system_id":"levelo_inurba_marseille","lat":43.2119,"lon":5.35077,"is_reserved":false,"is_disabled":false,"rental_uris":{"android":"levelo://app?vid=614b8b1d-506a-4862-a2e3-8b70b8522cc3","ios":"levelo://app?vid=614b8b1d-506a-4862-a2e3-8b70b8522cc3"},"vehicle_type_id":"4","last_reported":1748607603,"current_range_meters":5600,"station_id":"st_cvj6sg6p6f1abm77japg","pricing_plan_id":"cebpf4jnsgd1na2vs0mg"},{"bike_id":"7bbdb3cc-1274-406a-ade1-ac118eff5362","system_id":"levelo_inurba_marseille","lat":43.28268,"lon":5.35077,"is_reserved":false,"is_disabled":false,"rental_uris":{"android":"levelo://app?vid=7bbdb3cc-1274-406a-ade1-ac118eff5362","ios":"levelo://app?vid=7bbdb3cc-1274-406a-ade1-ac118eff5362"},"vehicle_type_id":"4","last_reported":1748607603,"current_range_meters":6000,"station_id":"ce4bhbp2rcd13ifvqerg","pricing_plan_id":"cebpf4jnsgd1na2vs0mg"},{"bike_id":"75e6316b-e083-43bd-b3cb-6ad2d0f11e92","system_id":"levelo_inurba_marseille","lat":43.2928,"lon":5.36843,"is_reserved":false,"is_disabled":false,"rental_uris":{"android":"levelo://app?vid=75e6316b-e083-43bd-b3cb-6ad2d0f11e92","ios":"levelo://app?vid=75e6316b-e083-43bd-b3cb-6ad2d0f11e92"},"vehicle_type_id":"4","last_reported":1748607603,"current_range_meters":6000,"station_id":"ce4bhbp2rcd13ifvqesg","pricing_plan_id":"cebpf4jnsgd1na2vs0mg"},{"bike_id":"1a3d922f-2617-42e2-95b9-c28f891a7af2","system_id":"levelo_inurba_marseille","lat":43.25496,"lon":5.37649,"is_reserved":false,"is_disabled":false,"rental_uris":{"android":"levelo://app?vid=1a3d922f-2617-42e2-95b9-c28f891a7af2","ios":"levelo://app?vid=1a3d922f-2617-42e2-95b9-c28f891a7af2"},"vehicle_type_id":"4","last_reported":1748607603,"current_range_meters":6000,"station_id":"ce4bhh12rcd13ifvqff0","pricing_plan_id":"cebpf4jnsgd1na2vs0mg"},{"bike_id":"697d924a-ea53-411b-88e3-ed7542c4178d","system_id":"levelo_inurba_marseille","lat":43.22501,"lon":5.34778,"is_reserved":false,"is_disabled":false,"rental_uris":{"android":"levelo://app?vid=697d924a-ea53-411b-88e3-ed7542c4178d","ios":"levelo://app?vid=697d924a-ea53-411b-88e3-ed7542c4178d"},"vehicle_type_id":"4","last_reported":1748607603,"current_range_meters":6000,"station_id":"st_cvj5dfep6f1abm77gieg","pricing_plan_id":"cebpf4jnsgd1na2vs0mg"},{"bike_id":"eb6f7b70-b554-4f0b-9071-c468db80e368","system_id":"levelo_inurba_marseille","lat":43.24008,"lon":5.36299,"is_reserved":false,"is_disabled":false,"rental_uris":{"android":"levelo://app?vid=eb6f7b70-b554-4f0b-9071-c468db80e368","ios":"levelo://app?vid=eb6f7b70-b554-4f0b-9071-c468db80e368"},"vehicle_type_id":"4","last_reported":1748607603,"current_range_meters":6400,"station_id":"","pricing_plan_id":"cebpf4jnsgd1na2vs0mg"},{"bike_id":"d515a244-2243-4d78-9ae3-5a75c859a9b6","system_id":"levelo_inurba_marseille","lat":43.29198,"lon":5.358127,"is_reserved":false,"is_disabled":false,"rental_uris":{"android":"levelo://app?vid=d515a244-2243-4d78-9ae3-5a75c859a9b6","ios":"levelo://app?vid=d515a244-2243-4d78-9ae3-5a75c859a9b6"},"vehicle_type_id":"4","last_reported":1748607603,"current_range_meters":6400,"station_id":"ce4bhb12rcd13ifvqel0","pricing_plan_id":"cebpf4jnsgd1na2vs0mg"},{"bike_id":"34803993-189f-43e5-b1e3-bb311218fbb8","system_id":"levelo_inurba_marseille","lat":43.28277,"lon":5.35072,"is_reserved":false,"is_disabled":false,"rental_uris":{"android":"levelo://app?vid=34803993-189f-43e5-b1e3-bb311218fbb8","ios":"levelo://app?vid=34803993-189f-43e5-b1e3-bb311218fbb8"},"vehicle_type_id":"4","last_reported":1748607603,"current_range_meters":6400,"station_id":"ce4bhbp2rcd13ifvqerg","pricing_plan_id":"cebpf4jnsgd1na2vs0mg"},{"bike_id":"8f2c5112-728f-4d72-bd08-62a02dfc39f4","system_id":"levelo_inurba_marseille","lat":43.25492,"lon":5.37651,"is_reserved":false,"is_disabled":false,"rental_uris":{"android":"levelo://app?vid=8f2c5112-728f-4d72-bd08-62a02dfc39f4","ios":"levelo://app?vid=8f2c5112-728f-4d72-bd08-62a02dfc39f4"},"vehicle_type_id":"4","last_reported":1748607603,"current_range_meters":6400,"station_id":"ce4bhh12rcd13ifvqff0","pricing_plan_id":"cebpf4jnsgd1na2vs0mg"},{"bike_id":"43c02a01-9c52-47d5-8059-5677dbfef88c","system_id":"levelo_inurba_marseille","lat":43.26787,"lon":5.39411,"is_reserved":false,"is_disabled":false,"rental_uris":{"android":"levelo://app?vid=43c02a01-9c52-47d5-8059-5677dbfef88c","ios":"levelo://app?vid=43c02a01-9c52-47d5-8059-5677dbfef88c"},"vehicle_type_id":"4","last_reported":1748607603,"current_range_meters":6400,"station_id":"ce4bhh12rcd13ifvqfg0","pricing_plan_id":"cebpf4jnsgd1na2vs0mg"},{"bike_id":"50f0e924-a51a-4cab-bba5-74b5d4dc3c56","system_id":"levelo_inurba_marseille","lat":43.26063,"lon":5.39396,"is_reserved":false,"is_disabled":false,"rental_uris":{"android":"levelo://app?vid=50f0e924-a51a-4cab-bba5-74b5d4dc3c56","ios":"levelo://app?vid=50f0e924-a51a-4cab-bba5-74b5d4dc3c56"},"vehicle_type_id":"4","last_reported":1748607603,"current_range_meters":6400,"station_id":"ce4bhh92rcd13ifvqfj0","pricing_plan_id":"cebpf4jnsgd1na2vs0mg"},{"bike_id":"22e42db0-3c20-40d0-9ac6-638ae89d656a","system_id":"levelo_inurba_marseille","lat":43.23965,"lon":5.36632,"is_reserved":false,"is_disabled":false,"rental_uris":{"android":"levelo://app?vid=22e42db0-3c20-40d0-9ac6-638ae89d656a","ios":"levelo://app?vid=22e42db0-3c20-40d0-9ac6-638ae89d656a"},"vehicle_type_id":"4","last_reported":1748607603,"current_range_meters":6400,"station_id":"ce4bhi12rcd13ifvqfp0","pricing_plan_id":"cebpf4jnsgd1na2vs0mg"},{"bike_id":"cb88469c-8067-43f3-83f6-c881895e7713","system_id":"levelo_inurba_marseille","lat":43.2396,"lon":5.36653,"is_reserved":false,"is_disabled":false,"rental_uris":{"android":"levelo://app?vid=cb88469c-8067-43f3-83f6-c881895e7713","ios":"levelo://app?vid=cb88469c-8067-43f3-83f6-c881895e7713"},"vehicle_type_id":"4","last_reported":1748607603,"current_range_meters":6400,"station_id":"ce4bhi12rcd13ifvqfp0","pricing_plan_id":"cebpf4jnsgd1na2vs0mg"},{"bike_id":"bd823385-5bcf-437d-ab55-cfea5529747f","system_id":"levelo_inurba_marseille","lat":43.2319,"lon":5.39995,"is_reserved":false,"is_disabled":false,"rental_uris":{"android":"levelo://app?vid=bd823385-5bcf-437d-ab55-cfea5529747f","ios":"levelo://app?vid=bd823385-5bcf-437d-ab55-cfea5529747f"},"vehicle_type_id":"4","last_reported":1748607603,"current_range_meters":6400,"station_id":"ce4bhn12rcd13ifvqgqg","pricing_plan_id":"cebpf4jnsgd1na2vs0mg"},{"bike_id":"e89a598f-638d-4aec-ba89-b46886dc99d7","system_id":"levelo_inurba_marseille","lat":43.21189,"lon":5.35065,"is_reserved":false,"is_disabled":false,"rental_uris":{"android":"levelo://app?vid=e89a598f-638d-4aec-ba89-b46886dc99d7","ios":"levelo://app?vid=e89a598f-638d-4aec-ba89-b46886dc99d7"},"vehicle_type_id":"4","last_reported":1748607603,"current_range_meters":6400,"station_id":"st_cvj6sg6p6f1abm77japg","pricing_plan_id":"cebpf4jnsgd1na2vs0mg"},{"bike_id":"299bc464-0062-40b9-b8fd-94e53cb49a69","system_id":"levelo_inurba_marseille","lat":43.29474,"lon":5.37616,"is_reserved":false,"is_disabled":false,"rental_uris":{"android":"levelo://app?vid=299bc464-0062-40b9-b8fd-94e53cb49a69","ios":"levelo://app?vid=299bc464-0062-40b9-b8fd-94e53cb49a69"},"vehicle_type_id":"4","last_reported":1748607603,"current_range_meters":6800,"station_id":"","pricing_plan_id":"cebpf4jnsgd1na2vs0mg"},{"bike_id":"b2e16e4f-8ec5-4b20-872e-4761b130f8fd","system_id":"levelo_inurba_marseille","lat":43.303531,"lon":5.386064,"is_reserved":false,"is_disabled":false,"rental_uris":{"android":"levelo://app?vid=b2e16e4f-8ec5-4b20-872e-4761b130f8fd","ios":"levelo://app?vid=b2e16e4f-8ec5-4b20-872e-4761b130f8fd"},"vehicle_type_id":"4","last_reported":1748607603,"current_range_meters":6800,"station_id":"ce4bgup2rcd13ifvqcn0","pricing_plan_id":"cebpf4jnsgd1na2vs0mg"},{"bike_id":"4d78e84e-9b3b-4ac9-8d25-ca032492c620","system_id":"levelo_inurba_marseille","lat":43.276123,"lon":5.360964,"is_reserved":false,"is_disabled":false,"rental_uris":{"android":"levelo://app?vid=4d78e84e-9b3b-4ac9-8d25-ca032492c620","ios":"levelo://app?vid=4d78e84e-9b3b-4ac9-8d25-ca032492c620"},"vehicle_type_id":"4","last_reported":1748607603,"current_range_meters":7200,"station_id":"ce4bgj92rcd13ifvqbe0","pricing_plan_id":"cebpf4jnsgd1na2vs0mg"},{"bike_id":"e1766bfa-25ce-445b-bcd8-a53cf1aeb985","system_id":"levelo_inurba_marseille","lat":43.30543,"lon":5.36529,"is_reserved":false,"is_disabled":false,"rental_uris":{"android":"levelo://app?vid=e1766bfa-25ce-445b-bcd8-a53cf1aeb985","ios":"levelo://app?vid=e1766bfa-25ce-445b-bcd8-a53cf1aeb985"},"vehicle_type_id":"4","last_reported":1748607603,"current_range_meters":7200,"station_id":"ce4bgs12rcd13ifvqcag","pricing_plan_id":"cebpf4jnsgd1na2vs0mg"},{"bike_id":"e8e0bb68-d210-428c-bc67-ea3e3c195383","system_id":"levelo_inurba_marseille","lat":43.29869,"lon":5.39729,"is_reserved":false,"is_disabled":false,"rental_uris":{"android":"levelo://app?vid=e8e0bb68-d210-428c-bc67-ea3e3c195383","ios":"levelo://app?vid=e8e0bb68-d210-428c-bc67-ea3e3c195383"},"vehicle_type_id":"4","last_reported":1748607603,"current_range_meters":7200,"station_id":"ce4bh0h2rcd13ifvqd50","pricing_plan_id":"cebpf4jnsgd1na2vs0mg"},{"bike_id":"ac6cb208-3d89-4e48-a1d2-f0692fc966ae","system_id":"levelo_inurba_marseille","lat":43.28702,"lon":5.37391,"is_reserved":false,"is_disabled":false,"rental_uris":{"android":"levelo://app?vid=ac6cb208-3d89-4e48-a1d2-f0692fc966ae","ios":"levelo://app?vid=ac6cb208-3d89-4e48-a1d2-f0692fc966ae"},"vehicle_type_id":"4","last_reported":1748607603,"current_range_meters":7200,"station_id":"ce4bh3p2rcd13ifvqdq0","pricing_plan_id":"cebpf4jnsgd1na2vs0mg"},{"bike_id":"68d1163c-0ea4-40b7-8e6f-86a71a704643","system_id":"levelo_inurba_marseille","lat":43.273109,"lon":5.390714,"is_reserved":false,"is_disabled":false,"rental_uris":{"android":"levelo://app?vid=68d1163c-0ea4-40b7-8e6f-86a71a704643","ios":"levelo://app?vid=68d1163c-0ea4-40b7-8e6f-86a71a704643"},"vehicle_type_id":"4","last_reported":1748607603,"current_range_meters":7200,"station_id":"ce4bhgp2rcd13ifvqfe0","pricing_plan_id":"cebpf4jnsgd1na2vs0mg"},{"bike_id":"480bdba7-4c1d-4e58-897c-0e32faed1cdf","system_id":"levelo_inurba_marseille","lat":43.2293,"lon":5.35377,"is_reserved":false,"is_disabled":false,"rental_uris":{"android":"levelo://app?vid=480bdba7-4c1d-4e58-897c-0e32faed1cdf","ios":"levelo://app?vid=480bdba7-4c1d-4e58-897c-0e32faed1cdf"},"vehicle_type_id":"4","last_reported":1748607603,"current_range_meters":7200,"station_id":"cpo3532slgdg3j2ikp40","pricing_plan_id":"cebpf4jnsgd1na2vs0mg"},{"bike_id":"09145ddb-e782-434f-bb3e-2211efb01dae","system_id":"levelo_inurba_marseille","lat":43.26085,"lon":5.37535,"is_reserved":false,"is_disabled":false,"rental_uris":{"android":"levelo://app?vid=09145ddb-e782-434f-bb3e-2211efb01dae","ios":"levelo://app?vid=09145ddb-e782-434f-bb3e-2211efb01dae"},"vehicle_type_id":"4","last_reported":1748607603,"current_range_meters":8000,"station_id":"","pricing_plan_id":"cebpf4jnsgd1na2vs0mg"},{"bike_id":"42dca157-bdb0-4361-8022-7979135f94aa","system_id":"levelo_inurba_marseille","lat":43.28565,"lon":5.36564,"is_reserved":false,"is_disabled":false,"rental_uris":{"android":"levelo://app?vid=42dca157-bdb0-4361-8022-7979135f94aa","ios":"levelo://app?vid=42dca157-bdb0-4361-8022-7979135f94aa"},"vehicle_type_id":"4","last_reported":1748607603,"current_range_meters":8000,"station_id":"","pricing_plan_id":"cebpf4jnsgd1na2vs0mg"},{"bike_id":"0a16dccc-8077-48da-ae09-def0e17f1889","system_id":"levelo_inurba_marseille","lat":43.30304,"lon":5.36896,"is_reserved":false,"is_disabled":false,"rental_uris":{"android":"levelo://app?vid=0a16dccc-8077-48da-ae09-def0e17f1889","ios":"levelo://app?vid=0a16dccc-8077-48da-ae09-def0e17f1889"},"vehicle_type_id":"4","last_reported":1748607603,"current_range_meters":8000,"station_id":"ce4bgqh2rcd13ifvqc5g","pricing_plan_id":"cebpf4jnsgd1na2vs0mg"},{"bike_id":"54295c8e-18d2-48df-80a0-84f948a0e95e","system_id":"levelo_inurba_marseille","lat":43.288513,"lon":5.393132,"is_reserved":false,"is_disabled":false,"rental_uris":{"android":"levelo://app?vid=54295c8e-18d2-48df-80a0-84f948a0e95e","ios":"levelo://app?vid=54295c8e-18d2-48df-80a0-84f948a0e95e"},"vehicle_type_id":"4","last_reported":1748607603,"current_range_meters":8000,"station_id":"ce4bh2p2rcd13ifvqdi0","pricing_plan_id":"cebpf4jnsgd1na2vs0mg"},{"bike_id":"c2fad513-497a-4e00-a791-38ecc8060f35","system_id":"levelo_inurba_marseille","lat":43.29039,"lon":5.39959,"is_reserved":false,"is_disabled":false,"rental_uris":{"android":"levelo://app?vid=c2fad513-497a-4e00-a791-38ecc8060f35","ios":"levelo://app?vid=c2fad513-497a-4e00-a791-38ecc8060f35"},"vehicle_type_id":"4","last_reported":1748607603,"current_range_meters":8000,"station_id":"ce4bh392rcd13ifvqdm0","pricing_plan_id":"cebpf4jnsgd1na2vs0mg"},{"bike_id":"aa37f21b-4079-46bb-946b-4c91c73d1ce0","system_id":"levelo_inurba_marseille","lat":43.29004,"lon":5.35606,"is_reserved":false,"is_disabled":false,"rental_uris":{"android":"levelo://app?vid=aa37f21b-4079-46bb-946b-4c91c73d1ce0","ios":"levelo://app?vid=aa37f21b-4079-46bb-946b-4c91c73d1ce0"},"vehicle_type_id":"4","last_reported":1748607603,"current_range_meters":8000,"station_id":"ce4bhb92rcd13ifvqen0","pricing_plan_id":"cebpf4jnsgd1na2vs0mg"},{"bike_id":"36db2632-d6c3-44c2-b292-0e991a59227d","system_id":"levelo_inurba_marseille","lat":43.27379,"lon":5.36251,"is_reserved":false,"is_disabled":false,"rental_uris":{"android":"levelo://app?vid=36db2632-d6c3-44c2-b292-0e991a59227d","ios":"levelo://app?vid=36db2632-d6c3-44c2-b292-0e991a59227d"},"vehicle_type_id":"4","last_reported":1748607603,"current_range_meters":8000,"station_id":"ce4bhbh2rcd13ifvqeo0","pricing_plan_id":"cebpf4jnsgd1na2vs0mg"},{"bike_id":"abfe4519-e2a3-4aea-a6a9-016dba2ff093","system_id":"levelo_inurba_marseille","lat":43.26552,"lon":5.37285,"is_reserved":false,"is_disabled":false,"rental_uris":{"android":"levelo://app?vid=abfe4519-e2a3-4aea-a6a9-016dba2ff093","ios":"levelo://app?vid=abfe4519-e2a3-4aea-a6a9-016dba2ff093"},"vehicle_type_id":"4","last_reported":1748607603,"current_range_meters":8000,"station_id":"ce4bhg12rcd13ifvqf70","pricing_plan_id":"cebpf4jnsgd1na2vs0mg"},{"bike_id":"3a9dde02-c5af-42c0-a956-b9063ad69494","system_id":"levelo_inurba_marseille","lat":43.24387,"lon":5.37055,"is_reserved":false,"is_disabled":false,"rental_uris":{"android":"levelo://app?vid=3a9dde02-c5af-42c0-a956-b9063ad69494","ios":"levelo://app?vid=3a9dde02-c5af-42c0-a956-b9063ad69494"},"vehicle_type_id":"4","last_reported":1748607603,"current_range_meters":8000,"station_id":"ce4bhhh2rcd13ifvqfk0","pricing_plan_id":"cebpf4jnsgd1na2vs0mg"},{"bike_id":"a0b44b20-89b3-41fb-bb26-259cf1852531","system_id":"levelo_inurba_marseille","lat":43.25715,"lon":5.41108,"is_reserved":false,"is_disabled":false,"rental_uris":{"android":"levelo://app?vid=a0b44b20-89b3-41fb-bb26-259cf1852531","ios":"levelo://app?vid=a0b44b20-89b3-41fb-bb26-259cf1852531"},"vehicle_type_id":"4","last_reported":1748607603,"current_range_meters":8000,"station_id":"ce4bhkp2rcd13ifvqgd0","pricing_plan_id":"cebpf4jnsgd1na2vs0mg"},{"bike_id":"6fdc4299-6802-439d-a809-304047183056","system_id":"levelo_inurba_marseille","lat":43.21746,"lon":5.34606,"is_reserved":false,"is_disabled":false,"rental_uris":{"android":"levelo://app?vid=6fdc4299-6802-439d-a809-304047183056","ios":"levelo://app?vid=6fdc4299-6802-439d-a809-304047183056"},"vehicle_type_id":"4","last_reported":1748607603,"current_range_meters":8000,"station_id":"st_cvj6r9ubvosntc0bgbag","pricing_plan_id":"cebpf4jnsgd1na2vs0mg"},{"bike_id":"339f38b0-f75b-4455-bd41-33673ac56d64","system_id":"levelo_inurba_marseille","lat":43.30985,"lon":5.4172,"is_reserved":false,"is_disabled":false,"rental_uris":{"android":"levelo://app?vid=339f38b0-f75b-4455-bd41-33673ac56d64","ios":"levelo://app?vid=339f38b0-f75b-4455-bd41-33673ac56d64"},"vehicle_type_id":"4","last_reported":1748607603,"current_range_meters":8400,"station_id":"","pricing_plan_id":"cebpf4jnsgd1na2vs0mg"},{"bike_id":"b47395ee-1c78-49b7-9ff1-88adc8546ce1","system_id":"levelo_inurba_marseille","lat":43.290471,"lon":5.359139,"is_reserved":false,"is_disabled":false,"rental_uris":{"android":"levelo://app?vid=b47395ee-1c78-49b7-9ff1-88adc8546ce1","ios":"levelo://app?vid=b47395ee-1c78-49b7-9ff1-88adc8546ce1"},"vehicle_type_id":"4","last_reported":1748607603,"current_range_meters":8400,"station_id":"ce4bha92rcd13ifvqeg0","pricing_plan_id":"cebpf4jnsgd1na2vs0mg"},{"bike_id":"e4682d0e-f11e-4413-a153-dda6f6bea265","system_id":"levelo_inurba_marseille","lat":43.23193,"lon":5.35559,"is_reserved":false,"is_disabled":false,"rental_uris":{"android":"levelo://app?vid=e4682d0e-f11e-4413-a153-dda6f6bea265","ios":"levelo://app?vid=e4682d0e-f11e-4413-a153-dda6f6bea265"},"vehicle_type_id":"4","last_reported":1748607603,"current_range_meters":8400,"station_id":"ce4bhu92rcd13ifvqi70","pricing_plan_id":"cebpf4jnsgd1na2vs0mg"},{"bike_id":"72119918-05f2-4c30-a402-85ca49013522","system_id":"levelo_inurba_marseille","lat":43.22929,"lon":5.35375,"is_reserved":false,"is_disabled":false,"rental_uris":{"android":"levelo://app?vid=72119918-05f2-4c30-a402-85ca49013522","ios":"levelo://app?vid=72119918-05f2-4c30-a402-85ca49013522"},"vehicle_type_id":"4","last_reported":1748607603,"current_range_meters":8400,"station_id":"cpo3532slgdg3j2ikp40","pricing_plan_id":"cebpf4jnsgd1na2vs0mg"},{"bike_id":"9fe1e697-36ec-421f-b0be-031c2f5ed7f3","system_id":"levelo_inurba_marseille","lat":43.33757,"lon":5.37424,"is_reserved":false,"is_disabled":false,"rental_uris":{"android":"levelo://app?vid=9fe1e697-36ec-421f-b0be-031c2f5ed7f3","ios":"levelo://app?vid=9fe1e697-36ec-421f-b0be-031c2f5ed7f3"},"vehicle_type_id":"4","last_reported":1748607603,"current_range_meters":8800,"station_id":"","pricing_plan_id":"cebpf4jnsgd1na2vs0mg"},{"bike_id":"42457cf4-066b-4e99-be8a-c611cdb501b2","system_id":"levelo_inurba_marseille","lat":43.23332,"lon":5.36141,"is_reserved":false,"is_disabled":false,"rental_uris":{"android":"levelo://app?vid=42457cf4-066b-4e99-be8a-c611cdb501b2","ios":"levelo://app?vid=42457cf4-066b-4e99-be8a-c611cdb501b2"},"vehicle_type_id":"4","last_reported":1748607603,"current_range_meters":8800,"station_id":"","pricing_plan_id":"cebpf4jnsgd1na2vs0mg"},{"bike_id":"00f77637-c960-45d0-b516-a2f6a0285858","system_id":"levelo_inurba_marseille","lat":43.297382,"lon":5.385318,"is_reserved":false,"is_disabled":false,"rental_uris":{"android":"levelo://app?vid=00f77637-c960-45d0-b516-a2f6a0285858","ios":"levelo://app?vid=00f77637-c960-45d0-b516-a2f6a0285858"},"vehicle_type_id":"4","last_reported":1748607603,"current_range_meters":8800,"station_id":"","pricing_plan_id":"cebpf4jnsgd1na2vs0mg"},{"bike_id":"1b4baf80-e71a-4d81-a05c-f59a75670d6f","system_id":"levelo_inurba_marseille","lat":43.27625,"lon":5.36104,"is_reserved":false,"is_disabled":false,"rental_uris":{"android":"levelo://app?vid=1b4baf80-e71a-4d81-a05c-f59a75670d6f","ios":"levelo://app?vid=1b4baf80-e71a-4d81-a05c-f59a75670d6f"},"vehicle_type_id":"4","last_reported":1748607603,"current_range_meters":8800,"station_id":"ce4bgj92rcd13ifvqbe0","pricing_plan_id":"cebpf4jnsgd1na2vs0mg"},{"bike_id":"d2c077a0-f16e-4c4c-bdc3-64234e80041c","system_id":"levelo_inurba_marseille","lat":43.28358,"lon":5.38633,"is_reserved":false,"is_disabled":false,"rental_uris":{"android":"levelo://app?vid=d2c077a0-f16e-4c4c-bdc3-64234e80041c","ios":"levelo://app?vid=d2c077a0-f16e-4c4c-bdc3-64234e80041c"},"vehicle_type_id":"4","last_reported":1748607603,"current_range_meters":8800,"station_id":"ce4bh492rcd13ifvqdvg","pricing_plan_id":"cebpf4jnsgd1na2vs0mg"},{"bike_id":"020d01e0-24d9-4551-a03d-4c28bdf4ea75","system_id":"levelo_inurba_marseille","lat":43.29006,"lon":5.35609,"is_reserved":false,"is_disabled":false,"rental_uris":{"android":"levelo://app?vid=020d01e0-24d9-4551-a03d-4c28bdf4ea75","ios":"levelo://app?vid=020d01e0-24d9-4551-a03d-4c28bdf4ea75"},"vehicle_type_id":"4","last_reported":1748607603,"current_range_meters":8800,"station_id":"ce4bhb92rcd13ifvqen0","pricing_plan_id":"cebpf4jnsgd1na2vs0mg"},{"bike_id":"330bd93a-857e-4035-a156-decfeb1e790b","system_id":"levelo_inurba_marseille","lat":43.2738,"lon":5.36253,"is_reserved":false,"is_disabled":false,"rental_uris":{"android":"levelo://app?vid=330bd93a-857e-4035-a156-decfeb1e790b","ios":"levelo://app?vid=330bd93a-857e-4035-a156-decfeb1e790b"},"vehicle_type_id":"4","last_reported":1748607603,"current_range_meters":8800,"station_id":"ce4bhbh2rcd13ifvqeo0","pricing_plan_id":"cebpf4jnsgd1na2vs0mg"},{"bike_id":"e35bc658-c1cc-4270-ba21-52b754fe9c65","system_id":"levelo_inurba_marseille","lat":43.27374,"lon":5.36251,"is_reserved":false,"is_disabled":false,"rental_uris":{"android":"levelo://app?vid=e35bc658-c1cc-4270-ba21-52b754fe9c65","ios":"levelo://app?vid=e35bc658-c1cc-4270-ba21-52b754fe9c65"},"vehicle_type_id":"4","last_reported":1748607603,"current_range_meters":8800,"station_id":"ce4bhbh2rcd13ifvqeo0","pricing_plan_id":"cebpf4jnsgd1na2vs0mg"},{"bike_id":"2678f8be-6420-4ee3-828b-2032fbbec775","system_id":"levelo_inurba_marseille","lat":43.23192,"lon":5.35555,"is_reserved":false,"is_disabled":false,"rental_uris":{"android":"levelo://app?vid=2678f8be-6420-4ee3-828b-2032fbbec775","ios":"levelo://app?vid=2678f8be-6420-4ee3-828b-2032fbbec775"},"vehicle_type_id":"4","last_reported":1748607603,"current_range_meters":8800,"station_id":"ce4bhu92rcd13ifvqi70","pricing_plan_id":"cebpf4jnsgd1na2vs0mg"},{"bike_id":"c484e154-33d2-4c69-98f9-ca095b2175da","system_id":"levelo_inurba_marseille","lat":43.21189,"lon":5.35073,"is_reserved":false,"is_disabled":false,"rental_uris":{"android":"levelo://app?vid=c484e154-33d2-4c69-98f9-ca095b2175da","ios":"levelo://app?vid=c484e154-33d2-4c69-98f9-ca095b2175da"},"vehicle_type_id":"4","last_reported":1748607603,"current_range_meters":8800,"station_id":"st_cvj6sg6p6f1abm77japg","pricing_plan_id":"cebpf4jnsgd1na2vs0mg"},{"bike_id":"f5733814-9732-4748-bcc9-3b2fac8e1564","system_id":"levelo_inurba_marseille","lat":43.31256,"lon":5.37829,"is_reserved":false,"is_disabled":false,"rental_uris":{"android":"levelo://app?vid=f5733814-9732-4748-bcc9-3b2fac8e1564","ios":"levelo://app?vid=f5733814-9732-4748-bcc9-3b2fac8e1564"},"vehicle_type_id":"4","last_reported":1748607603,"current_range_meters":9200,"station_id":"","pricing_plan_id":"cebpf4jnsgd1na2vs0mg"},{"bike_id":"df6e13b4-84dc-4efc-bbea-8dbfb531d069","system_id":"levelo_inurba_marseille","lat":43.28849,"lon":5.39311,"is_reserved":false,"is_disabled":false,"rental_uris":{"android":"levelo://app?vid=df6e13b4-84dc-4efc-bbea-8dbfb531d069","ios":"levelo://app?vid=df6e13b4-84dc-4efc-bbea-8dbfb531d069"},"vehicle_type_id":"4","last_reported":1748607603,"current_range_meters":9200,"station_id":"ce4bh2p2rcd13ifvqdi0","pricing_plan_id":"cebpf4jnsgd1na2vs0mg"},{"bike_id":"9132d63b-dc3d-42c8-99bc-3985d8fd6184","system_id":"levelo_inurba_marseille","lat":43.280368,"lon":5.369412,"is_reserved":false,"is_disabled":false,"rental_uris":{"android":"levelo://app?vid=9132d63b-dc3d-42c8-99bc-3985d8fd6184","ios":"levelo://app?vid=9132d63b-dc3d-42c8-99bc-3985d8fd6184"},"vehicle_type_id":"4","last_reported":1748607603,"current_range_meters":9200,"station_id":"ce4bha12rcd13ifvqef0","pricing_plan_id":"cebpf4jnsgd1na2vs0mg"},{"bike_id":"4258291f-daf6-4adf-952f-cf27f3ce12b6","system_id":"levelo_inurba_marseille","lat":43.26204,"lon":5.3744,"is_reserved":false,"is_disabled":false,"rental_uris":{"android":"levelo://app?vid=4258291f-daf6-4adf-952f-cf27f3ce12b6","ios":"levelo://app?vid=4258291f-daf6-4adf-952f-cf27f3ce12b6"},"vehicle_type_id":"4","last_reported":1748607603,"current_range_meters":9200,"station_id":"ce4bhgp2rcd13ifvqfc0","pricing_plan_id":"cebpf4jnsgd1na2vs0mg"},{"bike_id":"a426f99b-d34a-41bf-bbda-59f7dfd6939b","system_id":"levelo_inurba_marseille","lat":43.255796,"lon":5.382262,"is_reserved":false,"is_disabled":false,"rental_uris":{"android":"levelo://app?vid=a426f99b-d34a-41bf-bbda-59f7dfd6939b","ios":"levelo://app?vid=a426f99b-d34a-41bf-bbda-59f7dfd6939b"},"vehicle_type_id":"4","last_reported":1748607603,"current_range_meters":9200,"station_id":"ce501612rcd8frsf0b60","pricing_plan_id":"cebpf4jnsgd1na2vs0mg"},{"bike_id":"c666405f-462c-40b6-aad2-05c3e84c9054","system_id":"levelo_inurba_marseille","lat":43.24195,"lon":5.36443,"is_reserved":false,"is_disabled":false,"rental_uris":{"android":"levelo://app?vid=c666405f-462c-40b6-aad2-05c3e84c9054","ios":"levelo://app?vid=c666405f-462c-40b6-aad2-05c3e84c9054"},"vehicle_type_id":"4","last_reported":1748607603,"current_range_meters":9200,"station_id":"cpo36qri1sfpv3e86is0","pricing_plan_id":"cebpf4jnsgd1na2vs0mg"},{"bike_id":"a807c8dd-75ce-4f49-b322-50ddd08ec8d0","system_id":"levelo_inurba_marseille","lat":43.34749,"lon":5.37304,"is_reserved":false,"is_disabled":false,"rental_uris":{"android":"levelo://app?vid=a807c8dd-75ce-4f49-b322-50ddd08ec8d0","ios":"levelo://app?vid=a807c8dd-75ce-4f49-b322-50ddd08ec8d0"},"vehicle_type_id":"4","last_reported":1748607603,"current_range_meters":9600,"station_id":"","pricing_plan_id":"cebpf4jnsgd1na2vs0mg"},{"bike_id":"e9cda520-c6f4-465d-ad7f-8c059b3dc45a","system_id":"levelo_inurba_marseille","lat":43.313967,"lon":5.383993,"is_reserved":false,"is_disabled":false,"rental_uris":{"android":"levelo://app?vid=e9cda520-c6f4-465d-ad7f-8c059b3dc45a","ios":"levelo://app?vid=e9cda520-c6f4-465d-ad7f-8c059b3dc45a"},"vehicle_type_id":"4","last_reported":1748607603,"current_range_meters":9600,"station_id":"","pricing_plan_id":"cebpf4jnsgd1na2vs0mg"},{"bike_id":"bce81640-0256-40b6-b8e0-18c2503a3ce4","system_id":"levelo_inurba_marseille","lat":43.27377,"lon":5.36252,"is_reserved":false,"is_disabled":false,"rental_uris":{"android":"levelo://app?vid=bce81640-0256-40b6-b8e0-18c2503a3ce4","ios":"levelo://app?vid=bce81640-0256-40b6-b8e0-18c2503a3ce4"},"vehicle_type_id":"4","last_reported":1748607603,"current_range_meters":9600,"station_id":"ce4bhbh2rcd13ifvqeo0","pricing_plan_id":"cebpf4jnsgd1na2vs0mg"},{"bike_id":"31eafd4f-c771-4795-9fcf-9a1173682c94","system_id":"levelo_inurba_marseille","lat":43.2481,"lon":5.37461,"is_reserved":false,"is_disabled":false,"rental_uris":{"android":"levelo://app?vid=31eafd4f-c771-4795-9fcf-9a1173682c94","ios":"levelo://app?vid=31eafd4f-c771-4795-9fcf-9a1173682c94"},"vehicle_type_id":"4","last_reported":1748607603,"current_range_meters":9600,"station_id":"ce4bhgh2rcd13ifvqfb0","pricing_plan_id":"cebpf4jnsgd1na2vs0mg"},{"bike_id":"a0733277-9572-4c49-b86b-a255c71a8787","system_id":"levelo_inurba_marseille","lat":43.27184,"lon":5.40992,"is_reserved":false,"is_disabled":false,"rental_uris":{"android":"levelo://app?vid=a0733277-9572-4c49-b86b-a255c71a8787","ios":"levelo://app?vid=a0733277-9572-4c49-b86b-a255c71a8787"},"vehicle_type_id":"4","last_reported":1748607603,"current_range_meters":9600,"station_id":"ce4bhl12rcd13ifvqgf0","pricing_plan_id":"cebpf4jnsgd1na2vs0mg"},{"bike_id":"508efc4e-b1a4-4a29-ab1c-afc4a24abe97","system_id":"levelo_inurba_marseille","lat":43.32381,"lon":5.409295,"is_reserved":false,"is_disabled":false,"rental_uris":{"android":"levelo://app?vid=508efc4e-b1a4-4a29-ab1c-afc4a24abe97","ios":"levelo://app?vid=508efc4e-b1a4-4a29-ab1c-afc4a24abe97"},"vehicle_type_id":"4","last_reported":1748607603,"current_range_meters":9600,"station_id":"ce4bhq12rcd13ifvqhig","pricing_plan_id":"cebpf4jnsgd1na2vs0mg"},{"bike_id":"b433ccd5-cacf-41ad-b027-1bfde740b889","system_id":"levelo_inurba_marseille","lat":43.23056,"lon":5.35488,"is_reserved":false,"is_disabled":false,"rental_uris":{"android":"levelo://app?vid=b433ccd5-cacf-41ad-b027-1bfde740b889","ios":"levelo://app?vid=b433ccd5-cacf-41ad-b027-1bfde740b889"},"vehicle_type_id":"4","last_reported":1748607603,"current_range_meters":9600,"station_id":"cpo3342slgdg3j2ifvpg","pricing_plan_id":"cebpf4jnsgd1na2vs0mg"},{"bike_id":"f9c284c0-0345-4994-9570-ae69ca258290","system_id":"levelo_inurba_marseille","lat":43.273779,"lon":5.362576,"is_reserved":false,"is_disabled":false,"rental_uris":{"android":"levelo://app?vid=f9c284c0-0345-4994-9570-ae69ca258290","ios":"levelo://app?vid=f9c284c0-0345-4994-9570-ae69ca258290"},"vehicle_type_id":"4","last_reported":1748607603,"current_range_meters":10000,"station_id":"","pricing_plan_id":"cebpf4jnsgd1na2vs0mg"},{"bike_id":"54e0c0f7-b8f3-48f3-a8b9-65efc0d1fd7c","system_id":"levelo_inurba_marseille","lat":43.31385,"lon":5.36704,"is_reserved":false,"is_disabled":false,"rental_uris":{"android":"levelo://app?vid=54e0c0f7-b8f3-48f3-a8b9-65efc0d1fd7c","ios":"levelo://app?vid=54e0c0f7-b8f3-48f3-a8b9-65efc0d1fd7c"},"vehicle_type_id":"4","last_reported":1748607603,"current_range_meters":10000,"station_id":"","pricing_plan_id":"cebpf4jnsgd1na2vs0mg"},{"bike_id":"6d47c6fb-f9ef-492c-8385-30c75356f25f","system_id":"levelo_inurba_marseille","lat":43.30142,"lon":5.39844,"is_reserved":false,"is_disabled":false,"rental_uris":{"android":"levelo://app?vid=6d47c6fb-f9ef-492c-8385-30c75356f25f","ios":"levelo://app?vid=6d47c6fb-f9ef-492c-8385-30c75356f25f"},"vehicle_type_id":"4","last_reported":1748607603,"current_range_meters":10000,"station_id":"ce4bh0h2rcd13ifvqd40","pricing_plan_id":"cebpf4jnsgd1na2vs0mg"},{"bike_id":"e6fd2ca1-d968-4e6d-950a-3de70295f052","system_id":"levelo_inurba_marseille","lat":43.28406,"lon":5.34985,"is_reserved":false,"is_disabled":false,"rental_uris":{"android":"levelo://app?vid=e6fd2ca1-d968-4e6d-950a-3de70295f052","ios":"levelo://app?vid=e6fd2ca1-d968-4e6d-950a-3de70295f052"},"vehicle_type_id":"4","last_reported":1748607603,"current_range_meters":10000,"station_id":"ce4bhbh2rcd13ifvqepg","pricing_plan_id":"cebpf4jnsgd1na2vs0mg"},{"bike_id":"fbf62787-a3c6-4f23-83c5-9f8471a73f2d","system_id":"levelo_inurba_marseille","lat":43.265578,"lon":5.372838,"is_reserved":false,"is_disabled":false,"rental_uris":{"android":"levelo://app?vid=fbf62787-a3c6-4f23-83c5-9f8471a73f2d","ios":"levelo://app?vid=fbf62787-a3c6-4f23-83c5-9f8471a73f2d"},"vehicle_type_id":"4","last_reported":1748607603,"current_range_meters":10000,"station_id":"ce4bhg12rcd13ifvqf70","pricing_plan_id":"cebpf4jnsgd1na2vs0mg"},{"bike_id":"bbab1368-05d5-4c4e-8e11-aef257b6c786","system_id":"levelo_inurba_marseille","lat":43.30371,"lon":5.42485,"is_reserved":false,"is_disabled":false,"rental_uris":{"android":"levelo://app?vid=bbab1368-05d5-4c4e-8e11-aef257b6c786","ios":"levelo://app?vid=bbab1368-05d5-4c4e-8e11-aef257b6c786"},"vehicle_type_id":"4","last_reported":1748607603,"current_range_meters":10000,"station_id":"ce4bhoh2rcd13ifvqh6g","pricing_plan_id":"cebpf4jnsgd1na2vs0mg"},{"bike_id":"2a3c348e-e5f2-4525-ab4e-bb2a1935036a","system_id":"levelo_inurba_marseille","lat":43.297833,"lon":5.393341,"is_reserved":false,"is_disabled":false,"rental_uris":{"android":"levelo://app?vid=2a3c348e-e5f2-4525-ab4e-bb2a1935036a","ios":"levelo://app?vid=2a3c348e-e5f2-4525-ab4e-bb2a1935036a"},"vehicle_type_id":"4","last_reported":1748607603,"current_range_meters":10000,"station_id":"chh1huq6cuj3fo74tm60","pricing_plan_id":"cebpf4jnsgd1na2vs0mg"},{"bike_id":"2268d6eb-394c-4867-b8af-430a178523b0","system_id":"levelo_inurba_marseille","lat":43.22948,"lon":5.35394,"is_reserved":false,"is_disabled":false,"rental_uris":{"android":"levelo://app?vid=2268d6eb-394c-4867-b8af-430a178523b0","ios":"levelo://app?vid=2268d6eb-394c-4867-b8af-430a178523b0"},"vehicle_type_id":"4","last_reported":1748607603,"current_range_meters":10000,"station_id":"cpo3532slgdg3j2ikp40","pricing_plan_id":"cebpf4jnsgd1na2vs0mg"},{"bike_id":"b20bbe32-37ed-4b7f-abe4-fbeece7bebaa","system_id":"levelo_inurba_marseille","lat":43.21745,"lon":5.34601,"is_reserved":false,"is_disabled":false,"rental_uris":{"android":"levelo://app?vid=b20bbe32-37ed-4b7f-abe4-fbeece7bebaa","ios":"levelo://app?vid=b20bbe32-37ed-4b7f-abe4-fbeece7bebaa"},"vehicle_type_id":"4","last_reported":1748607603,"current_range_meters":10000,"station_id":"st_cvj6r9ubvosntc0bgbag","pricing_plan_id":"cebpf4jnsgd1na2vs0mg"},{"bike_id":"048ee714-11e0-405d-a47c-6cf612ee1fcc","system_id":"levelo_inurba_marseille","lat":43.27374,"lon":5.36248,"is_reserved":false,"is_disabled":false,"rental_uris":{"android":"levelo://app?vid=048ee714-11e0-405d-a47c-6cf612ee1fcc","ios":"levelo://app?vid=048ee714-11e0-405d-a47c-6cf612ee1fcc"},"vehicle_type_id":"4","last_reported":1748607603,"current_range_meters":10800,"station_id":"ce4bhbh2rcd13ifvqeo0","pricing_plan_id":"cebpf4jnsgd1na2vs0mg"},{"bike_id":"c7c3a5a4-b6e4-462b-80c7-827e33b91cd7","system_id":"levelo_inurba_marseille","lat":43.265541,"lon":5.37284,"is_reserved":false,"is_disabled":false,"rental_uris":{"android":"levelo://app?vid=c7c3a5a4-b6e4-462b-80c7-827e33b91cd7","ios":"levelo://app?vid=c7c3a5a4-b6e4-462b-80c7-827e33b91cd7"},"vehicle_type_id":"4","last_reported":1748607603,"current_range_meters":10800,"station_id":"ce4bhg12rcd13ifvqf70","pricing_plan_id":"cebpf4jnsgd1na2vs0mg"},{"bike_id":"87c82cdc-79c7-465c-83da-f5951b284467","system_id":"levelo_inurba_marseille","lat":43.24389,"lon":5.37063,"is_reserved":false,"is_disabled":false,"rental_uris":{"android":"levelo://app?vid=87c82cdc-79c7-465c-83da-f5951b284467","ios":"levelo://app?vid=87c82cdc-79c7-465c-83da-f5951b284467"},"vehicle_type_id":"4","last_reported":1748607603,"current_range_meters":10800,"station_id":"ce4bhhh2rcd13ifvqfk0","pricing_plan_id":"cebpf4jnsgd1na2vs0mg"},{"bike_id":"c9923fdf-c2a6-4d17-8777-e7be408fe174","system_id":"levelo_inurba_marseille","lat":43.27683,"lon":5.38882,"is_reserved":false,"is_disabled":false,"rental_uris":{"android":"levelo://app?vid=c9923fdf-c2a6-4d17-8777-e7be408fe174","ios":"levelo://app?vid=c9923fdf-c2a6-4d17-8777-e7be408fe174"},"vehicle_type_id":"4","last_reported":1748607603,"current_range_meters":10800,"station_id":"ce4bhi12rcd13ifvqfo0","pricing_plan_id":"cebpf4jnsgd1na2vs0mg"},{"bike_id":"1c95530b-3838-4dfd-a8c2-bdf1ef1b872f","system_id":"levelo_inurba_marseille","lat":43.27681,"lon":5.38882,"is_reserved":false,"is_disabled":false,"rental_uris":{"android":"levelo://app?vid=1c95530b-3838-4dfd-a8c2-bdf1ef1b872f","ios":"levelo://app?vid=1c95530b-3838-4dfd-a8c2-bdf1ef1b872f"},"vehicle_type_id":"4","last_reported":1748607603,"current_range_meters":10800,"station_id":"ce4bhi12rcd13ifvqfo0","pricing_plan_id":"cebpf4jnsgd1na2vs0mg"},{"bike_id":"678e6f28-0f09-4d85-87e1-363ec5da242f","system_id":"levelo_inurba_marseille","lat":43.2717,"lon":5.40986,"is_reserved":false,"is_disabled":false,"rental_uris":{"android":"levelo://app?vid=678e6f28-0f09-4d85-87e1-363ec5da242f","ios":"levelo://app?vid=678e6f28-0f09-4d85-87e1-363ec5da242f"},"vehicle_type_id":"4","last_reported":1748607603,"current_range_meters":10800,"station_id":"ce4bhl12rcd13ifvqgf0","pricing_plan_id":"cebpf4jnsgd1na2vs0mg"},{"bike_id":"452cbfa7-e61c-418a-859f-e52bd574a645","system_id":"levelo_inurba_marseille","lat":43.23136,"lon":5.43718,"is_reserved":false,"is_disabled":false,"rental_uris":{"android":"levelo://app?vid=452cbfa7-e61c-418a-859f-e52bd574a645","ios":"levelo://app?vid=452cbfa7-e61c-418a-859f-e52bd574a645"},"vehicle_type_id":"4","last_reported":1748607603,"current_range_meters":10800,"station_id":"ce4bhmp2rcd13ifvqgog","pricing_plan_id":"cebpf4jnsgd1na2vs0mg"},{"bike_id":"9b9b7fd9-83ca-4ded-b18c-9f01bb3e35cf","system_id":"levelo_inurba_marseille","lat":43.30596,"lon":5.36545,"is_reserved":false,"is_disabled":false,"rental_uris":{"android":"levelo://app?vid=9b9b7fd9-83ca-4ded-b18c-9f01bb3e35cf","ios":"levelo://app?vid=9b9b7fd9-83ca-4ded-b18c-9f01bb3e35cf"},"vehicle_type_id":"4","last_reported":1748607603,"current_range_meters":11200,"station_id":"ce4bgs12rcd13ifvqcag","pricing_plan_id":"cebpf4jnsgd1na2vs0mg"},{"bike_id":"06a00071-8e17-433c-b3ff-682313011488","system_id":"levelo_inurba_marseille","lat":43.27377,"lon":5.36253,"is_reserved":false,"is_disabled":false,"rental_uris":{"android":"levelo://app?vid=06a00071-8e17-433c-b3ff-682313011488","ios":"levelo://app?vid=06a00071-8e17-433c-b3ff-682313011488"},"vehicle_type_id":"4","last_reported":1748607603,"current_range_meters":11200,"station_id":"ce4bhbh2rcd13ifvqeo0","pricing_plan_id":"cebpf4jnsgd1na2vs0mg"},{"bike_id":"94d74484-c00f-4773-98b4-43f5ef9035c3","system_id":"levelo_inurba_marseille","lat":43.26191,"lon":5.40392,"is_reserved":false,"is_disabled":false,"rental_uris":{"android":"levelo://app?vid=94d74484-c00f-4773-98b4-43f5ef9035c3","ios":"levelo://app?vid=94d74484-c00f-4773-98b4-43f5ef9035c3"},"vehicle_type_id":"4","last_reported":1748607603,"current_range_meters":11200,"station_id":"ce4bhmh2rcd13ifvqgmg","pricing_plan_id":"cebpf4jnsgd1na2vs0mg"},{"bike_id":"095fd833-a156-45fe-a393-7ac2357cb7e4","system_id":"levelo_inurba_marseille","lat":43.23191,"lon":5.355485,"is_reserved":false,"is_disabled":false,"rental_uris":{"android":"levelo://app?vid=095fd833-a156-45fe-a393-7ac2357cb7e4","ios":"levelo://app?vid=095fd833-a156-45fe-a393-7ac2357cb7e4"},"vehicle_type_id":"4","last_reported":1748607603,"current_range_meters":11200,"station_id":"ce4bhu92rcd13ifvqi70","pricing_plan_id":"cebpf4jnsgd1na2vs0mg"},{"bike_id":"af78cd64-d0b1-4ec8-8285-880188198f73","system_id":"levelo_inurba_marseille","lat":43.2319,"lon":5.35549,"is_reserved":false,"is_disabled":false,"rental_uris":{"android":"levelo://app?vid=af78cd64-d0b1-4ec8-8285-880188198f73","ios":"levelo://app?vid=af78cd64-d0b1-4ec8-8285-880188198f73"},"vehicle_type_id":"4","last_reported":1748607603,"current_range_meters":11200,"station_id":"ce4bhu92rcd13ifvqi70","pricing_plan_id":"cebpf4jnsgd1na2vs0mg"},{"bike_id":"e65fa1cf-a35a-44e8-88a6-e35aee8c6b2b","system_id":"levelo_inurba_marseille","lat":43.27619,"lon":5.36126,"is_reserved":false,"is_disabled":false,"rental_uris":{"android":"levelo://app?vid=e65fa1cf-a35a-44e8-88a6-e35aee8c6b2b","ios":"levelo://app?vid=e65fa1cf-a35a-44e8-88a6-e35aee8c6b2b"},"vehicle_type_id":"4","last_reported":1748607603,"current_range_meters":11600,"station_id":"ce4bgj92rcd13ifvqbe0","pricing_plan_id":"cebpf4jnsgd1na2vs0mg"},{"bike_id":"6d9461e9-afcf-430b-8179-bb7d54f00db5","system_id":"levelo_inurba_marseille","lat":43.31479,"lon":5.37302,"is_reserved":false,"is_disabled":false,"rental_uris":{"android":"levelo://app?vid=6d9461e9-afcf-430b-8179-bb7d54f00db5","ios":"levelo://app?vid=6d9461e9-afcf-430b-8179-bb7d54f00db5"},"vehicle_type_id":"4","last_reported":1748607603,"current_range_meters":11600,"station_id":"ce4bgt12rcd13ifvqcd0","pricing_plan_id":"cebpf4jnsgd1na2vs0mg"},{"bike_id":"f67c0dea-1fe5-4948-9215-8f57b4153744","system_id":"levelo_inurba_marseille","lat":43.28418,"lon":5.34981,"is_reserved":false,"is_disabled":false,"rental_uris":{"android":"levelo://app?vid=f67c0dea-1fe5-4948-9215-8f57b4153744","ios":"levelo://app?vid=f67c0dea-1fe5-4948-9215-8f57b4153744"},"vehicle_type_id":"4","last_reported":1748607603,"current_range_meters":11600,"station_id":"ce4bhbh2rcd13ifvqepg","pricing_plan_id":"cebpf4jnsgd1na2vs0mg"},{"bike_id":"376e3220-304c-4620-9a1d-a8a356335e66","system_id":"levelo_inurba_marseille","lat":43.24812,"lon":5.37464,"is_reserved":false,"is_disabled":false,"rental_uris":{"android":"levelo://app?vid=376e3220-304c-4620-9a1d-a8a356335e66","ios":"levelo://app?vid=376e3220-304c-4620-9a1d-a8a356335e66"},"vehicle_type_id":"4","last_reported":1748607603,"current_range_meters":11600,"station_id":"ce4bhgh2rcd13ifvqfb0","pricing_plan_id":"cebpf4jnsgd1na2vs0mg"},{"bike_id":"e5f51ef8-c77f-47b7-b2fe-bfed9275d0e0","system_id":"levelo_inurba_marseille","lat":43.24805,"lon":5.37475,"is_reserved":false,"is_disabled":false,"rental_uris":{"android":"levelo://app?vid=e5f51ef8-c77f-47b7-b2fe-bfed9275d0e0","ios":"levelo://app?vid=e5f51ef8-c77f-47b7-b2fe-bfed9275d0e0"},"vehicle_type_id":"4","last_reported":1748607603,"current_range_meters":11600,"station_id":"ce4bhgh2rcd13ifvqfb0","pricing_plan_id":"cebpf4jnsgd1na2vs0mg"},{"bike_id":"541ad9a3-adb5-4112-ae88-a2ba289d8a87","system_id":"levelo_inurba_marseille","lat":43.243867,"lon":5.370475,"is_reserved":false,"is_disabled":false,"rental_uris":{"android":"levelo://app?vid=541ad9a3-adb5-4112-ae88-a2ba289d8a87","ios":"levelo://app?vid=541ad9a3-adb5-4112-ae88-a2ba289d8a87"},"vehicle_type_id":"4","last_reported":1748607603,"current_range_meters":11600,"station_id":"ce4bhhh2rcd13ifvqfk0","pricing_plan_id":"cebpf4jnsgd1na2vs0mg"},{"bike_id":"3cfcd708-bb66-4827-988c-59ab1f9ea42d","system_id":"levelo_inurba_marseille","lat":43.26219,"lon":5.40467,"is_reserved":false,"is_disabled":false,"rental_uris":{"android":"levelo://app?vid=3cfcd708-bb66-4827-988c-59ab1f9ea42d","ios":"levelo://app?vid=3cfcd708-bb66-4827-988c-59ab1f9ea42d"},"vehicle_type_id":"4","last_reported":1748607603,"current_range_meters":11600,"station_id":"ce4bhmh2rcd13ifvqgmg","pricing_plan_id":"cebpf4jnsgd1na2vs0mg"},{"bike_id":"3dd1b342-5d0a-4155-9da3-0dd9cd16e16e","system_id":"levelo_inurba_marseille","lat":43.2293,"lon":5.35389,"is_reserved":false,"is_disabled":false,"rental_uris":{"android":"levelo://app?vid=3dd1b342-5d0a-4155-9da3-0dd9cd16e16e","ios":"levelo://app?vid=3dd1b342-5d0a-4155-9da3-0dd9cd16e16e"},"vehicle_type_id":"4","last_reported":1748607603,"current_range_meters":11600,"station_id":"cpo3532slgdg3j2ikp40","pricing_plan_id":"cebpf4jnsgd1na2vs0mg"},{"bike_id":"32204e68-d82a-49c1-9816-42bdc5424f7e","system_id":"levelo_inurba_marseille","lat":43.2738,"lon":5.36256,"is_reserved":false,"is_disabled":false,"rental_uris":{"android":"levelo://app?vid=32204e68-d82a-49c1-9816-42bdc5424f7e","ios":"levelo://app?vid=32204e68-d82a-49c1-9816-42bdc5424f7e"},"vehicle_type_id":"4","last_reported":1748607603,"current_range_meters":12000,"station_id":"ce4bhbh2rcd13ifvqeo0","pricing_plan_id":"cebpf4jnsgd1na2vs0mg"},{"bike_id":"cf70fd7b-cb81-48b0-a363-0bcb6340789f","system_id":"levelo_inurba_marseille","lat":43.29227,"lon":5.36064,"is_reserved":false,"is_disabled":false,"rental_uris":{"android":"levelo://app?vid=cf70fd7b-cb81-48b0-a363-0bcb6340789f","ios":"levelo://app?vid=cf70fd7b-cb81-48b0-a363-0bcb6340789f"},"vehicle_type_id":"4","last_reported":1748607603,"current_range_meters":12000,"station_id":"ce4bhbh2rcd13ifvqeqg","pricing_plan_id":"cebpf4jnsgd1na2vs0mg"},{"bike_id":"abb8e33b-e663-4a8b-88d2-b0e186bde40e","system_id":"levelo_inurba_marseille","lat":43.259318,"lon":5.408998,"is_reserved":false,"is_disabled":false,"rental_uris":{"android":"levelo://app?vid=abb8e33b-e663-4a8b-88d2-b0e186bde40e","ios":"levelo://app?vid=abb8e33b-e663-4a8b-88d2-b0e186bde40e"},"vehicle_type_id":"4","last_reported":1748607603,"current_range_meters":12000,"station_id":"ce4bhm92rcd13ifvqglg","pricing_plan_id":"cebpf4jnsgd1na2vs0mg"},{"bike_id":"7243d7c8-02f5-4392-89cf-8c360e846d55","system_id":"levelo_inurba_marseille","lat":43.252745,"lon":5.378338,"is_reserved":false,"is_disabled":false,"rental_uris":{"android":"levelo://app?vid=7243d7c8-02f5-4392-89cf-8c360e846d55","ios":"levelo://app?vid=7243d7c8-02f5-4392-89cf-8c360e846d55"},"vehicle_type_id":"4","last_reported":1748607603,"current_range_meters":12400,"station_id":"","pricing_plan_id":"cebpf4jnsgd1na2vs0mg"},{"bike_id":"29a8d26a-8283-4e06-a431-070ffdafd7b3","system_id":"levelo_inurba_marseille","lat":43.29623,"lon":5.37167,"is_reserved":false,"is_disabled":false,"rental_uris":{"android":"levelo://app?vid=29a8d26a-8283-4e06-a431-070ffdafd7b3","ios":"levelo://app?vid=29a8d26a-8283-4e06-a431-070ffdafd7b3"},"vehicle_type_id":"4","last_reported":1748607603,"current_range_meters":12400,"station_id":"ce4bgnh2rcd13ifvqc0g","pricing_plan_id":"cebpf4jnsgd1na2vs0mg"},{"bike_id":"c5955212-23b9-47a9-8fed-0e2d976ea049","system_id":"levelo_inurba_marseille","lat":43.2656,"lon":5.37282,"is_reserved":false,"is_disabled":false,"rental_uris":{"android":"levelo://app?vid=c5955212-23b9-47a9-8fed-0e2d976ea049","ios":"levelo://app?vid=c5955212-23b9-47a9-8fed-0e2d976ea049"},"vehicle_type_id":"4","last_reported":1748607603,"current_range_meters":12400,"station_id":"ce4bhg12rcd13ifvqf70","pricing_plan_id":"cebpf4jnsgd1na2vs0mg"},{"bike_id":"d51d1b55-e49b-4aab-b17a-941d1955bf76","system_id":"levelo_inurba_marseille","lat":43.26206,"lon":5.37436,"is_reserved":false,"is_disabled":false,"rental_uris":{"android":"levelo://app?vid=d51d1b55-e49b-4aab-b17a-941d1955bf76","ios":"levelo://app?vid=d51d1b55-e49b-4aab-b17a-941d1955bf76"},"vehicle_type_id":"4","last_reported":1748607603,"current_range_meters":12400,"station_id":"ce4bhgp2rcd13ifvqfc0","pricing_plan_id":"cebpf4jnsgd1na2vs0mg"},{"bike_id":"990df701-79a7-41ec-b963-3693dc590a87","system_id":"levelo_inurba_marseille","lat":43.3021,"lon":5.37948,"is_reserved":false,"is_disabled":false,"rental_uris":{"android":"levelo://app?vid=990df701-79a7-41ec-b963-3693dc590a87","ios":"levelo://app?vid=990df701-79a7-41ec-b963-3693dc590a87"},"vehicle_type_id":"4","last_reported":1748607603,"current_range_meters":12800,"station_id":"","pricing_plan_id":"cebpf4jnsgd1na2vs0mg"},{"bike_id":"d414958d-d199-4e70-939b-9d4f379d3700","system_id":"levelo_inurba_marseille","lat":43.299061,"lon":5.381438,"is_reserved":false,"is_disabled":false,"rental_uris":{"android":"levelo://app?vid=d414958d-d199-4e70-939b-9d4f379d3700","ios":"levelo://app?vid=d414958d-d199-4e70-939b-9d4f379d3700"},"vehicle_type_id":"4","last_reported":1748607603,"current_range_meters":12800,"station_id":"ce4bgj12rcd13ifvqbc0","pricing_plan_id":"cebpf4jnsgd1na2vs0mg"},{"bike_id":"529137a1-0fec-4a4c-bbe8-03949b5f4bac","system_id":"levelo_inurba_marseille","lat":43.28432,"lon":5.34997,"is_reserved":false,"is_disabled":false,"rental_uris":{"android":"levelo://app?vid=529137a1-0fec-4a4c-bbe8-03949b5f4bac","ios":"levelo://app?vid=529137a1-0fec-4a4c-bbe8-03949b5f4bac"},"vehicle_type_id":"4","last_reported":1748607603,"current_range_meters":12800,"station_id":"ce4bhbh2rcd13ifvqepg","pricing_plan_id":"cebpf4jnsgd1na2vs0mg"},{"bike_id":"b4762fa1-e596-4ef5-8381-22e8d18b51b2","system_id":"levelo_inurba_marseille","lat":43.28418,"lon":5.34976,"is_reserved":false,"is_disabled":false,"rental_uris":{"android":"levelo://app?vid=b4762fa1-e596-4ef5-8381-22e8d18b51b2","ios":"levelo://app?vid=b4762fa1-e596-4ef5-8381-22e8d18b51b2"},"vehicle_type_id":"4","last_reported":1748607603,"current_range_meters":12800,"station_id":"ce4bhbh2rcd13ifvqepg","pricing_plan_id":"cebpf4jnsgd1na2vs0mg"},{"bike_id":"81929695-c996-4344-b136-61f971835187","system_id":"levelo_inurba_marseille","lat":43.26233,"lon":5.3745,"is_reserved":false,"is_disabled":false,"rental_uris":{"android":"levelo://app?vid=81929695-c996-4344-b136-61f971835187","ios":"levelo://app?vid=81929695-c996-4344-b136-61f971835187"},"vehicle_type_id":"4","last_reported":1748607603,"current_range_meters":12800,"station_id":"ce4bhgp2rcd13ifvqfc0","pricing_plan_id":"cebpf4jnsgd1na2vs0mg"},{"bike_id":"e4315e4c-03d9-4a52-b3fa-0d8017598ab0","system_id":"levelo_inurba_marseille","lat":43.31538,"lon":5.38025,"is_reserved":false,"is_disabled":false,"rental_uris":{"android":"levelo://app?vid=e4315e4c-03d9-4a52-b3fa-0d8017598ab0","ios":"levelo://app?vid=e4315e4c-03d9-4a52-b3fa-0d8017598ab0"},"vehicle_type_id":"4","last_reported":1748607603,"current_range_meters":12800,"station_id":"ce4bhsp2rcd13ifvqi50","pricing_plan_id":"cebpf4jnsgd1na2vs0mg"},{"bike_id":"85f488b5-f2d1-453d-9f13-38f4bd13329e","system_id":"levelo_inurba_marseille","lat":43.229291,"lon":5.353809,"is_reserved":false,"is_disabled":false,"rental_uris":{"android":"levelo://app?vid=85f488b5-f2d1-453d-9f13-38f4bd13329e","ios":"levelo://app?vid=85f488b5-f2d1-453d-9f13-38f4bd13329e"},"vehicle_type_id":"4","last_reported":1748607603,"current_range_meters":12800,"station_id":"cpo3532slgdg3j2ikp40","pricing_plan_id":"cebpf4jnsgd1na2vs0mg"},{"bike_id":"185ef902-b976-4dcb-adc5-16bcf1fbe96f","system_id":"levelo_inurba_marseille","lat":43.22926,"lon":5.353765,"is_reserved":false,"is_disabled":false,"rental_uris":{"android":"levelo://app?vid=185ef902-b976-4dcb-adc5-16bcf1fbe96f","ios":"levelo://app?vid=185ef902-b976-4dcb-adc5-16bcf1fbe96f"},"vehicle_type_id":"4","last_reported":1748607603,"current_range_meters":12800,"station_id":"cpo3532slgdg3j2ikp40","pricing_plan_id":"cebpf4jnsgd1na2vs0mg"},{"bike_id":"e2323763-e8bc-4c18-8623-deb9c58bfd9b","system_id":"levelo_inurba_marseille","lat":43.24171,"lon":5.36412,"is_reserved":false,"is_disabled":false,"rental_uris":{"android":"levelo://app?vid=e2323763-e8bc-4c18-8623-deb9c58bfd9b","ios":"levelo://app?vid=e2323763-e8bc-4c18-8623-deb9c58bfd9b"},"vehicle_type_id":"4","last_reported":1748607603,"current_range_meters":12800,"station_id":"cpo36qri1sfpv3e86is0","pricing_plan_id":"cebpf4jnsgd1na2vs0mg"},{"bike_id":"a880c703-54c6-4c7f-a753-2af950420730","system_id":"levelo_inurba_marseille","lat":43.22502,"lon":5.34783,"is_reserved":false,"is_disabled":false,"rental_uris":{"android":"levelo://app?vid=a880c703-54c6-4c7f-a753-2af950420730","ios":"levelo://app?vid=a880c703-54c6-4c7f-a753-2af950420730"},"vehicle_type_id":"4","last_reported":1748607603,"current_range_meters":12800,"station_id":"st_cvj5dfep6f1abm77gieg","pricing_plan_id":"cebpf4jnsgd1na2vs0mg"},{"bike_id":"dfe8fe35-d227-47d8-ac09-653652305ce4","system_id":"levelo_inurba_marseille","lat":43.21751,"lon":5.34615,"is_reserved":false,"is_disabled":false,"rental_uris":{"android":"levelo://app?vid=dfe8fe35-d227-47d8-ac09-653652305ce4","ios":"levelo://app?vid=dfe8fe35-d227-47d8-ac09-653652305ce4"},"vehicle_type_id":"4","last_reported":1748607603,"current_range_meters":12800,"station_id":"st_cvj6r9ubvosntc0bgbag","pricing_plan_id":"cebpf4jnsgd1na2vs0mg"},{"bike_id":"681f1864-ad8d-46bf-9e96-dcba598da153","system_id":"levelo_inurba_marseille","lat":43.28483,"lon":5.38571,"is_reserved":false,"is_disabled":false,"rental_uris":{"android":"levelo://app?vid=681f1864-ad8d-46bf-9e96-dcba598da153","ios":"levelo://app?vid=681f1864-ad8d-46bf-9e96-dcba598da153"},"vehicle_type_id":"4","last_reported":1748607603,"current_range_meters":13600,"station_id":"ce4bh8p2rcd13ifvqeb0","pricing_plan_id":"cebpf4jnsgd1na2vs0mg"},{"bike_id":"a4dcd63c-212a-4d34-8feb-4220e4ed3774","system_id":"levelo_inurba_marseille","lat":43.28424,"lon":5.34997,"is_reserved":false,"is_disabled":false,"rental_uris":{"android":"levelo://app?vid=a4dcd63c-212a-4d34-8feb-4220e4ed3774","ios":"levelo://app?vid=a4dcd63c-212a-4d34-8feb-4220e4ed3774"},"vehicle_type_id":"4","last_reported":1748607603,"current_range_meters":13600,"station_id":"ce4bhbh2rcd13ifvqepg","pricing_plan_id":"cebpf4jnsgd1na2vs0mg"},{"bike_id":"bac667cf-137e-4ea7-b037-7ebd6a2ad77c","system_id":"levelo_inurba_marseille","lat":43.28257,"lon":5.35102,"is_reserved":false,"is_disabled":false,"rental_uris":{"android":"levelo://app?vid=bac667cf-137e-4ea7-b037-7ebd6a2ad77c","ios":"levelo://app?vid=bac667cf-137e-4ea7-b037-7ebd6a2ad77c"},"vehicle_type_id":"4","last_reported":1748607603,"current_range_meters":13600,"station_id":"ce4bhbp2rcd13ifvqerg","pricing_plan_id":"cebpf4jnsgd1na2vs0mg"},{"bike_id":"0e8fb06b-5a96-4410-acb0-124552105a5f","system_id":"levelo_inurba_marseille","lat":43.23152,"lon":5.43716,"is_reserved":false,"is_disabled":false,"rental_uris":{"android":"levelo://app?vid=0e8fb06b-5a96-4410-acb0-124552105a5f","ios":"levelo://app?vid=0e8fb06b-5a96-4410-acb0-124552105a5f"},"vehicle_type_id":"4","last_reported":1748607603,"current_range_meters":13600,"station_id":"ce4bhmp2rcd13ifvqgog","pricing_plan_id":"cebpf4jnsgd1na2vs0mg"},{"bike_id":"9c35b943-5fd2-44fd-9abb-98eb98000b82","system_id":"levelo_inurba_marseille","lat":43.26947,"lon":5.40235,"is_reserved":false,"is_disabled":false,"rental_uris":{"android":"levelo://app?vid=9c35b943-5fd2-44fd-9abb-98eb98000b82","ios":"levelo://app?vid=9c35b943-5fd2-44fd-9abb-98eb98000b82"},"vehicle_type_id":"4","last_reported":1748607603,"current_range_meters":13600,"station_id":"cjm6bp8fraef2m0cb0m0","pricing_plan_id":"cebpf4jnsgd1na2vs0mg"},{"bike_id":"7920e439-3ff5-4641-aa23-192c084545b7","system_id":"levelo_inurba_marseille","lat":43.21752,"lon":5.34607,"is_reserved":false,"is_disabled":false,"rental_uris":{"android":"levelo://app?vid=7920e439-3ff5-4641-aa23-192c084545b7","ios":"levelo://app?vid=7920e439-3ff5-4641-aa23-192c084545b7"},"vehicle_type_id":"4","last_reported":1748607603,"current_range_meters":13600,"station_id":"st_cvj6r9ubvosntc0bgbag","pricing_plan_id":"cebpf4jnsgd1na2vs0mg"},{"bike_id":"22544eac-b5a4-43d1-ace1-a16432b7dbef","system_id":"levelo_inurba_marseille","lat":43.273752,"lon":5.36256,"is_reserved":false,"is_disabled":false,"rental_uris":{"android":"levelo://app?vid=22544eac-b5a4-43d1-ace1-a16432b7dbef","ios":"levelo://app?vid=22544eac-b5a4-43d1-ace1-a16432b7dbef"},"vehicle_type_id":"4","last_reported":1748607603,"current_range_meters":14000,"station_id":"","pricing_plan_id":"cebpf4jnsgd1na2vs0mg"},{"bike_id":"e3dba5b8-07b0-4cfc-88de-68138c31021f","system_id":"levelo_inurba_marseille","lat":43.29715,"lon":5.37693,"is_reserved":false,"is_disabled":false,"rental_uris":{"android":"levelo://app?vid=e3dba5b8-07b0-4cfc-88de-68138c31021f","ios":"levelo://app?vid=e3dba5b8-07b0-4cfc-88de-68138c31021f"},"vehicle_type_id":"4","last_reported":1748607603,"current_range_meters":14000,"station_id":"ce4bgkh2rcd13ifvqbl0","pricing_plan_id":"cebpf4jnsgd1na2vs0mg"},{"bike_id":"2b16b69f-8127-4a97-82be-ad97140a508d","system_id":"levelo_inurba_marseille","lat":43.28855,"lon":5.39318,"is_reserved":false,"is_disabled":false,"rental_uris":{"android":"levelo://app?vid=2b16b69f-8127-4a97-82be-ad97140a508d","ios":"levelo://app?vid=2b16b69f-8127-4a97-82be-ad97140a508d"},"vehicle_type_id":"4","last_reported":1748607603,"current_range_meters":14000,"station_id":"ce4bh2p2rcd13ifvqdi0","pricing_plan_id":"cebpf4jnsgd1na2vs0mg"},{"bike_id":"a2520603-029f-44b7-a85b-add72f916771","system_id":"levelo_inurba_marseille","lat":43.29006,"lon":5.35605,"is_reserved":false,"is_disabled":false,"rental_uris":{"android":"levelo://app?vid=a2520603-029f-44b7-a85b-add72f916771","ios":"levelo://app?vid=a2520603-029f-44b7-a85b-add72f916771"},"vehicle_type_id":"4","last_reported":1748607603,"current_range_meters":14000,"station_id":"ce4bhb92rcd13ifvqen0","pricing_plan_id":"cebpf4jnsgd1na2vs0mg"},{"bike_id":"9c8f2851-b94a-491b-9cb6-2e6f5d4c91c2","system_id":"levelo_inurba_marseille","lat":43.26206,"lon":5.37444,"is_reserved":false,"is_disabled":false,"rental_uris":{"android":"levelo://app?vid=9c8f2851-b94a-491b-9cb6-2e6f5d4c91c2","ios":"levelo://app?vid=9c8f2851-b94a-491b-9cb6-2e6f5d4c91c2"},"vehicle_type_id":"4","last_reported":1748607603,"current_range_meters":14000,"station_id":"ce4bhgp2rcd13ifvqfc0","pricing_plan_id":"cebpf4jnsgd1na2vs0mg"},{"bike_id":"2f12a8de-dc8d-403d-9597-d947bf08489f","system_id":"levelo_inurba_marseille","lat":43.2418,"lon":5.39729,"is_reserved":false,"is_disabled":false,"rental_uris":{"android":"levelo://app?vid=2f12a8de-dc8d-403d-9597-d947bf08489f","ios":"levelo://app?vid=2f12a8de-dc8d-403d-9597-d947bf08489f"},"vehicle_type_id":"4","last_reported":1748607603,"current_range_meters":14000,"station_id":"ce4bhn12rcd13ifvqgpg","pricing_plan_id":"cebpf4jnsgd1na2vs0mg"},{"bike_id":"bf9ada33-fac3-4c6c-a22e-d3b48e785518","system_id":"levelo_inurba_marseille","lat":43.28025,"lon":5.40871,"is_reserved":false,"is_disabled":false,"rental_uris":{"android":"levelo://app?vid=bf9ada33-fac3-4c6c-a22e-d3b48e785518","ios":"levelo://app?vid=bf9ada33-fac3-4c6c-a22e-d3b48e785518"},"vehicle_type_id":"4","last_reported":1748607603,"current_range_meters":14400,"station_id":"","pricing_plan_id":"cebpf4jnsgd1na2vs0mg"},{"bike_id":"e30be3e4-05a3-401f-ae8a-92cb71e58265","system_id":"levelo_inurba_marseille","lat":43.2762,"lon":5.36103,"is_reserved":false,"is_disabled":false,"rental_uris":{"android":"levelo://app?vid=e30be3e4-05a3-401f-ae8a-92cb71e58265","ios":"levelo://app?vid=e30be3e4-05a3-401f-ae8a-92cb71e58265"},"vehicle_type_id":"4","last_reported":1748607603,"current_range_meters":14400,"station_id":"ce4bgj92rcd13ifvqbe0","pricing_plan_id":"cebpf4jnsgd1na2vs0mg"},{"bike_id":"b18036e4-cdbb-441f-a4f1-99c9cdbece34","system_id":"levelo_inurba_marseille","lat":43.295001,"lon":5.390711,"is_reserved":false,"is_disabled":false,"rental_uris":{"android":"levelo://app?vid=b18036e4-cdbb-441f-a4f1-99c9cdbece34","ios":"levelo://app?vid=b18036e4-cdbb-441f-a4f1-99c9cdbece34"},"vehicle_type_id":"4","last_reported":1748607603,"current_range_meters":14400,"station_id":"ce4bh3p2rcd13ifvqdp0","pricing_plan_id":"cebpf4jnsgd1na2vs0mg"},{"bike_id":"96843e8c-e723-41b9-aa45-af8eb8780c31","system_id":"levelo_inurba_marseille","lat":43.29006,"lon":5.35607,"is_reserved":false,"is_disabled":false,"rental_uris":{"android":"levelo://app?vid=96843e8c-e723-41b9-aa45-af8eb8780c31","ios":"levelo://app?vid=96843e8c-e723-41b9-aa45-af8eb8780c31"},"vehicle_type_id":"4","last_reported":1748607603,"current_range_meters":14400,"station_id":"ce4bhb92rcd13ifvqen0","pricing_plan_id":"cebpf4jnsgd1na2vs0mg"},{"bike_id":"b8f73f1c-3287-44ca-a6ba-2379622d48d3","system_id":"levelo_inurba_marseille","lat":43.28418,"lon":5.34988,"is_reserved":false,"is_disabled":false,"rental_uris":{"android":"levelo://app?vid=b8f73f1c-3287-44ca-a6ba-2379622d48d3","ios":"levelo://app?vid=b8f73f1c-3287-44ca-a6ba-2379622d48d3"},"vehicle_type_id":"4","last_reported":1748607603,"current_range_meters":14400,"station_id":"ce4bhbh2rcd13ifvqepg","pricing_plan_id":"cebpf4jnsgd1na2vs0mg"},{"bike_id":"950a66c6-0112-4714-a007-202e42172c1f","system_id":"levelo_inurba_marseille","lat":43.248122,"lon":5.374541,"is_reserved":false,"is_disabled":false,"rental_uris":{"android":"levelo://app?vid=950a66c6-0112-4714-a007-202e42172c1f","ios":"levelo://app?vid=950a66c6-0112-4714-a007-202e42172c1f"},"vehicle_type_id":"4","last_reported":1748607603,"current_range_meters":14400,"station_id":"ce4bhgh2rcd13ifvqfb0","pricing_plan_id":"cebpf4jnsgd1na2vs0mg"},{"bike_id":"41899e76-e2a7-430a-9d06-af595898f7a5","system_id":"levelo_inurba_marseille","lat":43.25726,"lon":5.41112,"is_reserved":false,"is_disabled":false,"rental_uris":{"android":"levelo://app?vid=41899e76-e2a7-430a-9d06-af595898f7a5","ios":"levelo://app?vid=41899e76-e2a7-430a-9d06-af595898f7a5"},"vehicle_type_id":"4","last_reported":1748607603,"current_range_meters":14400,"station_id":"ce4bhkp2rcd13ifvqgd0","pricing_plan_id":"cebpf4jnsgd1na2vs0mg"},{"bike_id":"71362d22-96fa-401d-b0b7-c5c6289acbe1","system_id":"levelo_inurba_marseille","lat":43.23178,"lon":5.39986,"is_reserved":false,"is_disabled":false,"rental_uris":{"android":"levelo://app?vid=71362d22-96fa-401d-b0b7-c5c6289acbe1","ios":"levelo://app?vid=71362d22-96fa-401d-b0b7-c5c6289acbe1"},"vehicle_type_id":"4","last_reported":1748607603,"current_range_meters":14400,"station_id":"ce4bhn12rcd13ifvqgqg","pricing_plan_id":"cebpf4jnsgd1na2vs0mg"},{"bike_id":"688c26f5-2b5b-4dfa-a402-d50028d33cf9","system_id":"levelo_inurba_marseille","lat":43.32338,"lon":5.40589,"is_reserved":false,"is_disabled":false,"rental_uris":{"android":"levelo://app?vid=688c26f5-2b5b-4dfa-a402-d50028d33cf9","ios":"levelo://app?vid=688c26f5-2b5b-4dfa-a402-d50028d33cf9"},"vehicle_type_id":"4","last_reported":1748607603,"current_range_meters":14400,"station_id":"ce4bhq92rcd13ifvqhjg","pricing_plan_id":"cebpf4jnsgd1na2vs0mg"},{"bike_id":"f9afa1d5-d3ae-46d4-b280-d6849e7030b3","system_id":"levelo_inurba_marseille","lat":43.23064,"lon":5.35491,"is_reserved":false,"is_disabled":false,"rental_uris":{"android":"levelo://app?vid=f9afa1d5-d3ae-46d4-b280-d6849e7030b3","ios":"levelo://app?vid=f9afa1d5-d3ae-46d4-b280-d6849e7030b3"},"vehicle_type_id":"4","last_reported":1748607603,"current_range_meters":14400,"station_id":"cpo3342slgdg3j2ifvpg","pricing_plan_id":"cebpf4jnsgd1na2vs0mg"},{"bike_id":"c5920169-3583-4c5e-acb5-6aee94a72b98","system_id":"levelo_inurba_marseille","lat":43.21191,"lon":5.35068,"is_reserved":false,"is_disabled":false,"rental_uris":{"android":"levelo://app?vid=c5920169-3583-4c5e-acb5-6aee94a72b98","ios":"levelo://app?vid=c5920169-3583-4c5e-acb5-6aee94a72b98"},"vehicle_type_id":"4","last_reported":1748607603,"current_range_meters":14400,"station_id":"st_cvj6sg6p6f1abm77japg","pricing_plan_id":"cebpf4jnsgd1na2vs0mg"},{"bike_id":"d6d1ada7-d095-4848-a9c7-71d520f6d868","system_id":"levelo_inurba_marseille","lat":43.299666,"lon":5.384894,"is_reserved":false,"is_disabled":false,"rental_uris":{"android":"levelo://app?vid=d6d1ada7-d095-4848-a9c7-71d520f6d868","ios":"levelo://app?vid=d6d1ada7-d095-4848-a9c7-71d520f6d868"},"vehicle_type_id":"4","last_reported":1748607603,"current_range_meters":14800,"station_id":"","pricing_plan_id":"cebpf4jnsgd1na2vs0mg"},{"bike_id":"dd34afa2-f665-4263-85a8-7de7dbd3a196","system_id":"levelo_inurba_marseille","lat":43.27604,"lon":5.39718,"is_reserved":false,"is_disabled":false,"rental_uris":{"android":"levelo://app?vid=dd34afa2-f665-4263-85a8-7de7dbd3a196","ios":"levelo://app?vid=dd34afa2-f665-4263-85a8-7de7dbd3a196"},"vehicle_type_id":"4","last_reported":1748607603,"current_range_meters":14800,"station_id":"","pricing_plan_id":"cebpf4jnsgd1na2vs0mg"},{"bike_id":"caed8174-199f-47b2-a36a-d066cb3c05d1","system_id":"levelo_inurba_marseille","lat":43.26212,"lon":5.37436,"is_reserved":false,"is_disabled":false,"rental_uris":{"android":"levelo://app?vid=caed8174-199f-47b2-a36a-d066cb3c05d1","ios":"levelo://app?vid=caed8174-199f-47b2-a36a-d066cb3c05d1"},"vehicle_type_id":"4","last_reported":1748607603,"current_range_meters":14800,"station_id":"ce4bhgp2rcd13ifvqfc0","pricing_plan_id":"cebpf4jnsgd1na2vs0mg"},{"bike_id":"2d4947c0-ab8d-4ce9-b229-c854f2e1d9ff","system_id":"levelo_inurba_marseille","lat":43.27681,"lon":5.38883,"is_reserved":false,"is_disabled":false,"rental_uris":{"android":"levelo://app?vid=2d4947c0-ab8d-4ce9-b229-c854f2e1d9ff","ios":"levelo://app?vid=2d4947c0-ab8d-4ce9-b229-c854f2e1d9ff"},"vehicle_type_id":"4","last_reported":1748607603,"current_range_meters":14800,"station_id":"ce4bhi12rcd13ifvqfo0","pricing_plan_id":"cebpf4jnsgd1na2vs0mg"},{"bike_id":"de0075ed-c348-496e-a565-4f9ea2ff7c92","system_id":"levelo_inurba_marseille","lat":43.23961,"lon":5.3665,"is_reserved":false,"is_disabled":false,"rental_uris":{"android":"levelo://app?vid=de0075ed-c348-496e-a565-4f9ea2ff7c92","ios":"levelo://app?vid=de0075ed-c348-496e-a565-4f9ea2ff7c92"},"vehicle_type_id":"4","last_reported":1748607603,"current_range_meters":14800,"station_id":"ce4bhi12rcd13ifvqfp0","pricing_plan_id":"cebpf4jnsgd1na2vs0mg"},{"bike_id":"67a6560c-83dc-490e-9fc7-f17e3d931afd","system_id":"levelo_inurba_marseille","lat":43.24173,"lon":5.36403,"is_reserved":false,"is_disabled":false,"rental_uris":{"android":"levelo://app?vid=67a6560c-83dc-490e-9fc7-f17e3d931afd","ios":"levelo://app?vid=67a6560c-83dc-490e-9fc7-f17e3d931afd"},"vehicle_type_id":"4","last_reported":1748607603,"current_range_meters":14800,"station_id":"cpo36qri1sfpv3e86is0","pricing_plan_id":"cebpf4jnsgd1na2vs0mg"},{"bike_id":"98c9a65b-d67f-4bc8-8cb1-36868dd880c7","system_id":"levelo_inurba_marseille","lat":43.30144,"lon":5.37428,"is_reserved":false,"is_disabled":false,"rental_uris":{"android":"levelo://app?vid=98c9a65b-d67f-4bc8-8cb1-36868dd880c7","ios":"levelo://app?vid=98c9a65b-d67f-4bc8-8cb1-36868dd880c7"},"vehicle_type_id":"4","last_reported":1748607603,"current_range_meters":15200,"station_id":"ce4bgs92rcd13ifvqcc0","pricing_plan_id":"cebpf4jnsgd1na2vs0mg"},{"bike_id":"79cfff3f-5f0e-42cc-8338-9a15f632d103","system_id":"levelo_inurba_marseille","lat":43.23966,"lon":5.36631,"is_reserved":false,"is_disabled":false,"rental_uris":{"android":"levelo://app?vid=79cfff3f-5f0e-42cc-8338-9a15f632d103","ios":"levelo://app?vid=79cfff3f-5f0e-42cc-8338-9a15f632d103"},"vehicle_type_id":"4","last_reported":1748607603,"current_range_meters":15200,"station_id":"ce4bhi12rcd13ifvqfp0","pricing_plan_id":"cebpf4jnsgd1na2vs0mg"},{"bike_id":"e5f17177-5446-4000-ac93-41ada14f33cb","system_id":"levelo_inurba_marseille","lat":43.3247,"lon":5.36569,"is_reserved":false,"is_disabled":false,"rental_uris":{"android":"levelo://app?vid=e5f17177-5446-4000-ac93-41ada14f33cb","ios":"levelo://app?vid=e5f17177-5446-4000-ac93-41ada14f33cb"},"vehicle_type_id":"4","last_reported":1748607603,"current_range_meters":15200,"station_id":"ce4bhs12rcd13ifvqhvg","pricing_plan_id":"cebpf4jnsgd1na2vs0mg"},{"bike_id":"f4c85bb1-151c-4225-8341-b57c453190e1","system_id":"levelo_inurba_marseille","lat":43.287234,"lon":5.360923,"is_reserved":false,"is_disabled":false,"rental_uris":{"android":"levelo://app?vid=f4c85bb1-151c-4225-8341-b57c453190e1","ios":"levelo://app?vid=f4c85bb1-151c-4225-8341-b57c453190e1"},"vehicle_type_id":"4","last_reported":1748607603,"current_range_meters":15200,"station_id":"cki0cbj6b192h4jlfktg","pricing_plan_id":"cebpf4jnsgd1na2vs0mg"},{"bike_id":"565b3e3d-698b-4f09-8892-9a3ab833c044","system_id":"levelo_inurba_marseille","lat":43.27094,"lon":5.36256,"is_reserved":false,"is_disabled":false,"rental_uris":{"android":"levelo://app?vid=565b3e3d-698b-4f09-8892-9a3ab833c044","ios":"levelo://app?vid=565b3e3d-698b-4f09-8892-9a3ab833c044"},"vehicle_type_id":"4","last_reported":1748607603,"current_range_meters":16000,"station_id":"","pricing_plan_id":"cebpf4jnsgd1na2vs0mg"},{"bike_id":"18a92080-c5c7-426c-a7d0-2bf1592f2888","system_id":"levelo_inurba_marseille","lat":43.28278,"lon":5.35069,"is_reserved":false,"is_disabled":false,"rental_uris":{"android":"levelo://app?vid=18a92080-c5c7-426c-a7d0-2bf1592f2888","ios":"levelo://app?vid=18a92080-c5c7-426c-a7d0-2bf1592f2888"},"vehicle_type_id":"4","last_reported":1748607603,"current_range_meters":16000,"station_id":"ce4bhbp2rcd13ifvqerg","pricing_plan_id":"cebpf4jnsgd1na2vs0mg"},{"bike_id":"a1b28146-67ba-460f-a3b6-23293e9aee3a","system_id":"levelo_inurba_marseille","lat":43.28618,"lon":5.35091,"is_reserved":false,"is_disabled":false,"rental_uris":{"android":"levelo://app?vid=a1b28146-67ba-460f-a3b6-23293e9aee3a","ios":"levelo://app?vid=a1b28146-67ba-460f-a3b6-23293e9aee3a"},"vehicle_type_id":"4","last_reported":1748607603,"current_range_meters":16000,"station_id":"ce4bhch2rcd13ifvqeug","pricing_plan_id":"cebpf4jnsgd1na2vs0mg"},{"bike_id":"cf5c6fcc-5838-41e9-8ce3-7b81513792cd","system_id":"levelo_inurba_marseille","lat":43.24809,"lon":5.37455,"is_reserved":false,"is_disabled":false,"rental_uris":{"android":"levelo://app?vid=cf5c6fcc-5838-41e9-8ce3-7b81513792cd","ios":"levelo://app?vid=cf5c6fcc-5838-41e9-8ce3-7b81513792cd"},"vehicle_type_id":"4","last_reported":1748607603,"current_range_meters":16000,"station_id":"ce4bhgh2rcd13ifvqfb0","pricing_plan_id":"cebpf4jnsgd1na2vs0mg"},{"bike_id":"37b2fc18-6369-4e8a-ba90-d901e2b24586","system_id":"levelo_inurba_marseille","lat":43.26208,"lon":5.37439,"is_reserved":false,"is_disabled":false,"rental_uris":{"android":"levelo://app?vid=37b2fc18-6369-4e8a-ba90-d901e2b24586","ios":"levelo://app?vid=37b2fc18-6369-4e8a-ba90-d901e2b24586"},"vehicle_type_id":"4","last_reported":1748607603,"current_range_meters":16000,"station_id":"ce4bhgp2rcd13ifvqfc0","pricing_plan_id":"cebpf4jnsgd1na2vs0mg"},{"bike_id":"1cfecea6-a775-40ec-93aa-3ebfe5cd2631","system_id":"levelo_inurba_marseille","lat":43.24387,"lon":5.37061,"is_reserved":false,"is_disabled":false,"rental_uris":{"android":"levelo://app?vid=1cfecea6-a775-40ec-93aa-3ebfe5cd2631","ios":"levelo://app?vid=1cfecea6-a775-40ec-93aa-3ebfe5cd2631"},"vehicle_type_id":"4","last_reported":1748607603,"current_range_meters":16000,"station_id":"ce4bhhh2rcd13ifvqfk0","pricing_plan_id":"cebpf4jnsgd1na2vs0mg"},{"bike_id":"f694eaff-68be-493d-bc46-1a5a3a005ac6","system_id":"levelo_inurba_marseille","lat":43.2996,"lon":5.41319,"is_reserved":false,"is_disabled":false,"rental_uris":{"android":"levelo://app?vid=f694eaff-68be-493d-bc46-1a5a3a005ac6","ios":"levelo://app?vid=f694eaff-68be-493d-bc46-1a5a3a005ac6"},"vehicle_type_id":"4","last_reported":1748607603,"current_range_meters":16000,"station_id":"ce4bhp12rcd13ifvqh9g","pricing_plan_id":"cebpf4jnsgd1na2vs0mg"},{"bike_id":"1659c9e4-1731-4c62-b1b7-23057c14fac3","system_id":"levelo_inurba_marseille","lat":43.33719,"lon":5.39186,"is_reserved":false,"is_disabled":false,"rental_uris":{"android":"levelo://app?vid=1659c9e4-1731-4c62-b1b7-23057c14fac3","ios":"levelo://app?vid=1659c9e4-1731-4c62-b1b7-23057c14fac3"},"vehicle_type_id":"4","last_reported":1748607603,"current_range_meters":16000,"station_id":"ce4bhr92rcd13ifvqhsg","pricing_plan_id":"cebpf4jnsgd1na2vs0mg"},{"bike_id":"71930e17-fe3c-443f-b621-4d725e50390f","system_id":"levelo_inurba_marseille","lat":43.33721,"lon":5.3919,"is_reserved":false,"is_disabled":false,"rental_uris":{"android":"levelo://app?vid=71930e17-fe3c-443f-b621-4d725e50390f","ios":"levelo://app?vid=71930e17-fe3c-443f-b621-4d725e50390f"},"vehicle_type_id":"4","last_reported":1748607603,"current_range_meters":16000,"station_id":"ce4bhr92rcd13ifvqhsg","pricing_plan_id":"cebpf4jnsgd1na2vs0mg"},{"bike_id":"3fa2efd8-5fa0-4f2f-ae15-73d2e1aa5810","system_id":"levelo_inurba_marseille","lat":43.21188,"lon":5.35069,"is_reserved":false,"is_disabled":false,"rental_uris":{"android":"levelo://app?vid=3fa2efd8-5fa0-4f2f-ae15-73d2e1aa5810","ios":"levelo://app?vid=3fa2efd8-5fa0-4f2f-ae15-73d2e1aa5810"},"vehicle_type_id":"4","last_reported":1748607603,"current_range_meters":16000,"station_id":"st_cvj6sg6p6f1abm77japg","pricing_plan_id":"cebpf4jnsgd1na2vs0mg"},{"bike_id":"675f7893-4435-4c0e-ac27-6f4b62644828","system_id":"levelo_inurba_marseille","lat":43.27621,"lon":5.36106,"is_reserved":false,"is_disabled":false,"rental_uris":{"android":"levelo://app?vid=675f7893-4435-4c0e-ac27-6f4b62644828","ios":"levelo://app?vid=675f7893-4435-4c0e-ac27-6f4b62644828"},"vehicle_type_id":"4","last_reported":1748607603,"current_range_meters":16400,"station_id":"ce4bgj92rcd13ifvqbe0","pricing_plan_id":"cebpf4jnsgd1na2vs0mg"},{"bike_id":"3d6d58cc-8352-4b97-9998-257fad31a678","system_id":"levelo_inurba_marseille","lat":43.29351,"lon":5.37833,"is_reserved":false,"is_disabled":false,"rental_uris":{"android":"levelo://app?vid=3d6d58cc-8352-4b97-9998-257fad31a678","ios":"levelo://app?vid=3d6d58cc-8352-4b97-9998-257fad31a678"},"vehicle_type_id":"4","last_reported":1748607603,"current_range_meters":16400,"station_id":"ce4bgjh2rcd13ifvqbf0","pricing_plan_id":"cebpf4jnsgd1na2vs0mg"},{"bike_id":"28bffb43-061f-4fa1-9ad1-2b80ba08a31a","system_id":"levelo_inurba_marseille","lat":43.30468,"lon":5.37916,"is_reserved":false,"is_disabled":false,"rental_uris":{"android":"levelo://app?vid=28bffb43-061f-4fa1-9ad1-2b80ba08a31a","ios":"levelo://app?vid=28bffb43-061f-4fa1-9ad1-2b80ba08a31a"},"vehicle_type_id":"4","last_reported":1748607603,"current_range_meters":16400,"station_id":"ce4bgup2rcd13ifvqcn0","pricing_plan_id":"cebpf4jnsgd1na2vs0mg"},{"bike_id":"7dc7f12f-677c-4795-8c9a-b031794ebb57","system_id":"levelo_inurba_marseille","lat":43.2846,"lon":5.34997,"is_reserved":false,"is_disabled":false,"rental_uris":{"android":"levelo://app?vid=7dc7f12f-677c-4795-8c9a-b031794ebb57","ios":"levelo://app?vid=7dc7f12f-677c-4795-8c9a-b031794ebb57"},"vehicle_type_id":"4","last_reported":1748607603,"current_range_meters":16400,"station_id":"ce4bhbh2rcd13ifvqepg","pricing_plan_id":"cebpf4jnsgd1na2vs0mg"},{"bike_id":"725c8e19-2eae-4ab4-abe2-d36a49b2ffb5","system_id":"levelo_inurba_marseille","lat":43.26194,"lon":5.3745,"is_reserved":false,"is_disabled":false,"rental_uris":{"android":"levelo://app?vid=725c8e19-2eae-4ab4-abe2-d36a49b2ffb5","ios":"levelo://app?vid=725c8e19-2eae-4ab4-abe2-d36a49b2ffb5"},"vehicle_type_id":"4","last_reported":1748607603,"current_range_meters":16400,"station_id":"ce4bhgp2rcd13ifvqfc0","pricing_plan_id":"cebpf4jnsgd1na2vs0mg"},{"bike_id":"7607722b-2d8f-4f32-99d2-775d5c449594","system_id":"levelo_inurba_marseille","lat":43.23963,"lon":5.36643,"is_reserved":false,"is_disabled":false,"rental_uris":{"android":"levelo://app?vid=7607722b-2d8f-4f32-99d2-775d5c449594","ios":"levelo://app?vid=7607722b-2d8f-4f32-99d2-775d5c449594"},"vehicle_type_id":"4","last_reported":1748607603,"current_range_meters":16400,"station_id":"ce4bhi12rcd13ifvqfp0","pricing_plan_id":"cebpf4jnsgd1na2vs0mg"},{"bike_id":"53149a50-42d6-422b-81ff-d309079f9b29","system_id":"levelo_inurba_marseille","lat":43.259393,"lon":5.408917,"is_reserved":false,"is_disabled":false,"rental_uris":{"android":"levelo://app?vid=53149a50-42d6-422b-81ff-d309079f9b29","ios":"levelo://app?vid=53149a50-42d6-422b-81ff-d309079f9b29"},"vehicle_type_id":"4","last_reported":1748607603,"current_range_meters":16400,"station_id":"ce4bhm92rcd13ifvqglg","pricing_plan_id":"cebpf4jnsgd1na2vs0mg"},{"bike_id":"7eca6927-0eee-41fb-838c-8606d041ec62","system_id":"levelo_inurba_marseille","lat":43.262308,"lon":5.404541,"is_reserved":false,"is_disabled":false,"rental_uris":{"android":"levelo://app?vid=7eca6927-0eee-41fb-838c-8606d041ec62","ios":"levelo://app?vid=7eca6927-0eee-41fb-838c-8606d041ec62"},"vehicle_type_id":"4","last_reported":1748607603,"current_range_meters":16400,"station_id":"ce4bhmh2rcd13ifvqgmg","pricing_plan_id":"cebpf4jnsgd1na2vs0mg"},{"bike_id":"65cbc169-797e-4e8e-8be8-c90cfcafc3ac","system_id":"levelo_inurba_marseille","lat":43.28152,"lon":5.42626,"is_reserved":false,"is_disabled":false,"rental_uris":{"android":"levelo://app?vid=65cbc169-797e-4e8e-8be8-c90cfcafc3ac","ios":"levelo://app?vid=65cbc169-797e-4e8e-8be8-c90cfcafc3ac"},"vehicle_type_id":"4","last_reported":1748607603,"current_range_meters":16400,"station_id":"ce4bhnh2rcd13ifvqgug","pricing_plan_id":"cebpf4jnsgd1na2vs0mg"},{"bike_id":"198d720e-e932-4468-b419-4d100ac498fe","system_id":"levelo_inurba_marseille","lat":43.21186,"lon":5.35068,"is_reserved":false,"is_disabled":false,"rental_uris":{"android":"levelo://app?vid=198d720e-e932-4468-b419-4d100ac498fe","ios":"levelo://app?vid=198d720e-e932-4468-b419-4d100ac498fe"},"vehicle_type_id":"4","last_reported":1748607603,"current_range_meters":16400,"station_id":"st_cvj6sg6p6f1abm77japg","pricing_plan_id":"cebpf4jnsgd1na2vs0mg"},{"bike_id":"541a5c15-e574-4011-bf26-33a35edbbfef","system_id":"levelo_inurba_marseille","lat":43.31344,"lon":5.36728,"is_reserved":false,"is_disabled":false,"rental_uris":{"android":"levelo://app?vid=541a5c15-e574-4011-bf26-33a35edbbfef","ios":"levelo://app?vid=541a5c15-e574-4011-bf26-33a35edbbfef"},"vehicle_type_id":"4","last_reported":1748607603,"current_range_meters":16800,"station_id":"ce4bgr92rcd13ifvqc6g","pricing_plan_id":"cebpf4jnsgd1na2vs0mg"},{"bike_id":"d21f71ff-c88f-4711-8f10-b795e1f1b69f","system_id":"levelo_inurba_marseille","lat":43.28367,"lon":5.38103,"is_reserved":false,"is_disabled":false,"rental_uris":{"android":"levelo://app?vid=d21f71ff-c88f-4711-8f10-b795e1f1b69f","ios":"levelo://app?vid=d21f71ff-c88f-4711-8f10-b795e1f1b69f"},"vehicle_type_id":"4","last_reported":1748607603,"current_range_meters":16800,"station_id":"ce4bh412rcd13ifvqdr0","pricing_plan_id":"cebpf4jnsgd1na2vs0mg"},{"bike_id":"7d7349f5-4b74-491b-887e-26702480aa29","system_id":"levelo_inurba_marseille","lat":43.26026,"lon":5.3755,"is_reserved":false,"is_disabled":false,"rental_uris":{"android":"levelo://app?vid=7d7349f5-4b74-491b-887e-26702480aa29","ios":"levelo://app?vid=7d7349f5-4b74-491b-887e-26702480aa29"},"vehicle_type_id":"4","last_reported":1748607603,"current_range_meters":16800,"station_id":"ce4bhgh2rcd13ifvqfa0","pricing_plan_id":"cebpf4jnsgd1na2vs0mg"},{"bike_id":"086c1778-d0aa-4b98-b43f-15b45afd6f12","system_id":"levelo_inurba_marseille","lat":43.248026,"lon":5.374528,"is_reserved":false,"is_disabled":false,"rental_uris":{"android":"levelo://app?vid=086c1778-d0aa-4b98-b43f-15b45afd6f12","ios":"levelo://app?vid=086c1778-d0aa-4b98-b43f-15b45afd6f12"},"vehicle_type_id":"4","last_reported":1748607603,"current_range_meters":16800,"station_id":"ce4bhgh2rcd13ifvqfb0","pricing_plan_id":"cebpf4jnsgd1na2vs0mg"},{"bike_id":"6545bf54-02c5-464c-b470-b0caa72858a1","system_id":"levelo_inurba_marseille","lat":43.23961,"lon":5.36653,"is_reserved":false,"is_disabled":false,"rental_uris":{"android":"levelo://app?vid=6545bf54-02c5-464c-b470-b0caa72858a1","ios":"levelo://app?vid=6545bf54-02c5-464c-b470-b0caa72858a1"},"vehicle_type_id":"4","last_reported":1748607603,"current_range_meters":16800,"station_id":"ce4bhi12rcd13ifvqfp0","pricing_plan_id":"cebpf4jnsgd1na2vs0mg"},