{"last_updated":1702300263,"ttl":30,"version":"2.2","data":{"bikes":[{"bike_id":"8dead90f-577d-4d9f-9331-28e8ecb446e2","system_id":"levelo_inurba_marseille","lat":43.31341,"lon":5.367098,"is_reserved":false,"is_disabled":false,"rental_uris":{"android":"levelo://app?vid=8dead90f-577d-4d9f-9331-28e8ecb446e2","ios":"levelo://app?vid=8dead90f-577d-4d9f-9331-28e8ecb446e2"},"vehicle_type_id":"4","last_reported":1702300264,"current_range_meters":21600,"station_id":"ce4bgr92rcd13ifvqc6g","pricing_plan_id":"free"},{"bike_id":"bc58274e-d2d6-448d-ac09-facbdfbc86e7","system_id":"levelo_inurba_marseille","lat":43.31341,"lon":5.367098,"is_reserved":false,"is_disabled":false,"rental_uris":{"android":"levelo://app?vid=bc58274e-d2d6-448d-ac09-facbdfbc86e7","ios":"levelo://app?vid=bc58274e-d2d6-448d-ac09-facbdfbc86e7"},"vehicle_type_id":"4","last_reported":1702300264,"current_range_meters":17600,"station_id":"ce4bgr92rcd13ifvqc6g","pricing_plan_id":"free"},{"bike_id":"055d2ef5-9139-4356-9d69-cd322234ae4b","system_id":"levelo_inurba_marseille","lat":43.31341,"lon":5.367098,"is_reserved":false,"is_disabled":false,"rental_uris":{"android":"levelo://app?vid=055d2ef5-9139-4356-9d69-cd322234ae4b","ios":"levelo://app?vid=055d2ef5-9139-4356-9d69-cd322234ae4b"},"vehicle_type_id":"4","last_reported":1702300264,"current_range_meters":20000,"station_id":"ce4bgr92rcd13ifvqc6g","pricing_plan_id":"free"},{"bike_id":"fb5396cd-9819-4c4c-9c29-31a2ef65c667","system_id":"levelo_inurba_marseille","lat":43.312239,"lon":5.368562,"is_reserved":false,"is_disabled":false,"rental_uris":{"android":"levelo://app?vid=fb5396cd-9819-4c4c-9c29-31a2ef65c667","ios":"levelo://app?vid=fb5396cd-9819-4c4c-9c29-31a2ef65c667"},"vehicle_type_id":"4","last_reported":1702300264,"current_range_meters":5600,"station_id":"ce4bgl92rcd13ifvqbq0","pricing_plan_id":"free"},{"bike_id":"f85a2f99-be69-42fa-bea0-5e29ce5604cf","system_id":"levelo_inurba_marseille","lat":43.309076,"lon":5.368465,"is_reserved":false,"is_disabled":false,"rental_uris":{"android":"levelo://app?vid=f85a2f99-be69-42fa-bea0-5e29ce5604cf","ios":"levelo://app?vid=f85a2f99-be69-42fa-bea0-5e29ce5604cf"},"vehicle_type_id":"4","last_reported":1702300264,"current_range_meters":14400,"station_id":"ce4bgn92rcd13ifvqbvg","pricing_plan_id":"free"},{"bike_id":"74549815-4964-4b48-ad72-f337bc84b92f","system_id":"levelo_inurba_marseille","lat":43.305368,"lon":5.367343,"is_reserved":false,"is_disabled":false,"rental_uris":{"android":"levelo://app?vid=74549815-4964-4b48-ad72-f337bc84b92f","ios":"levelo://app?vid=74549815-4964-4b48-ad72-f337bc84b92f"},"vehicle_type_id":"4","last_reported":1702300264,"current_range_meters":22800,"station_id":"ce4bgrp2rcd13ifvqc9g","pricing_plan_id":"free"},{"bike_id":"f8725490-b11c-4c57-82c1-089051d5993e","system_id":"levelo_inurba_marseille","lat":43.307945,"lon":5.376487,"is_reserved":false,"is_disabled":false,"rental_uris":{"android":"levelo://app?vid=f8725490-b11c-4c57-82c1-089051d5993e","ios":"levelo://app?vid=f8725490-b11c-4c57-82c1-089051d5993e"},"vehicle_type_id":"4","last_reported":1702300264,"current_range_meters":21200,"station_id":"ce4bgv92rcd13ifvqcq0","pricing_plan_id":"free"},{"bike_id":"e9627390-7690-4fa6-86d0-ff8597dd3cc8","system_id":"levelo_inurba_marseille","lat":43.3153,"lon":5.38039,"is_reserved":false,"is_disabled":false,"rental_uris":{"android":"levelo://app?vid=e9627390-7690-4fa6-86d0-ff8597dd3cc8","ios":"levelo://app?vid=e9627390-7690-4fa6-86d0-ff8597dd3cc8"},"vehicle_type_id":"4","last_reported":1702300264,"current_range_meters":22800,"station_id":"ce4bhsp2rcd13ifvqi50","pricing_plan_id":"free"},{"bike_id":"11c1dbbc-7503-4437-a31c-65c9ac9ce2d5","system_id":"levelo_inurba_marseille","lat":43.301939,"lon":5.366286,"is_reserved":false,"is_disabled":false,"rental_uris":{"android":"levelo://app?vid=11c1dbbc-7503-4437-a31c-65c9ac9ce2d5","ios":"levelo://app?vid=11c1dbbc-7503-4437-a31c-65c9ac9ce2d5"},"vehicle_type_id":"4","last_reported":1702300264,"current_range_meters":6400,"station_id":"ce4bgrh2rcd13ifvqc8g","pricing_plan_id":"free"},{"bike_id":"1cdc5245-dbf2-4b57-9703-14e20d7459f2","system_id":"levelo_inurba_marseille","lat":43.308,"lon":5.38149,"is_reserved":false,"is_disabled":false,"rental_uris":{"android":"levelo://app?vid=1cdc5245-dbf2-4b57-9703-14e20d7459f2","ios":"levelo://app?vid=1cdc5245-dbf2-4b57-9703-14e20d7459f2"},"vehicle_type_id":"4","last_reported":1702300264,"current_range_meters":25200,"station_id":"ce4bgt12rcd13ifvqce0","pricing_plan_id":"free"},{"bike_id":"f1ce390f-5558-494e-82a3-ac30806a322e","system_id":"levelo_inurba_marseille","lat":43.308012,"lon":5.381511,"is_reserved":false,"is_disabled":false,"rental_uris":{"android":"levelo://app?vid=f1ce390f-5558-494e-82a3-ac30806a322e","ios":"levelo://app?vid=f1ce390f-5558-494e-82a3-ac30806a322e"},"vehicle_type_id":"4","last_reported":1702300264,"current_range_meters":21600,"station_id":"ce4bgt12rcd13ifvqce0","pricing_plan_id":"free"},{"bike_id":"109de30b-4b76-4350-83fd-cbb7431eb917","system_id":"levelo_inurba_marseille","lat":43.304606,"lon":5.379026,"is_reserved":false,"is_disabled":false,"rental_uris":{"android":"levelo://app?vid=109de30b-4b76-4350-83fd-cbb7431eb917","ios":"levelo://app?vid=109de30b-4b76-4350-83fd-cbb7431eb917"},"vehicle_type_id":"4","last_reported":1702300264,"current_range_meters":2000,"station_id":"ce4bgup2rcd13ifvqcn0","pricing_plan_id":"free"},{"bike_id":"5411de61-5810-477d-87f8-d59174744661","system_id":"levelo_inurba_marseille","lat":43.304606,"lon":5.379026,"is_reserved":false,"is_disabled":false,"rental_uris":{"android":"levelo://app?vid=5411de61-5810-477d-87f8-d59174744661","ios":"levelo://app?vid=5411de61-5810-477d-87f8-d59174744661"},"vehicle_type_id":"4","last_reported":1702300264,"current_range_meters":18800,"station_id":"ce4bgup2rcd13ifvqcn0","pricing_plan_id":"free"},{"bike_id":"de4521ed-1461-41b3-bd2e-e2cbd4754759","system_id":"levelo_inurba_marseille","lat":43.30143,"lon":5.37413,"is_reserved":false,"is_disabled":false,"rental_uris":{"android":"levelo://app?vid=de4521ed-1461-41b3-bd2e-e2cbd4754759","ios":"levelo://app?vid=de4521ed-1461-41b3-bd2e-e2cbd4754759"},"vehicle_type_id":"4","last_reported":1702300264,"current_range_meters":4000,"station_id":"ce4bgs92rcd13ifvqcc0","pricing_plan_id":"free"},{"bike_id":"d507dc20-f3f0-485a-b520-e5ecd0effbe5","system_id":"levelo_inurba_marseille","lat":43.319935,"lon":5.381699,"is_reserved":false,"is_disabled":false,"rental_uris":{"android":"levelo://app?vid=d507dc20-f3f0-485a-b520-e5ecd0effbe5","ios":"levelo://app?vid=d507dc20-f3f0-485a-b520-e5ecd0effbe5"},"vehicle_type_id":"4","last_reported":1702300264,"current_range_meters":18800,"station_id":"ce4bhr12rcd13ifvqhpg","pricing_plan_id":"free"},{"bike_id":"2b7f7a37-391a-4eb2-b1a1-ddc45a522eff","system_id":"levelo_inurba_marseille","lat":43.319935,"lon":5.381699,"is_reserved":false,"is_disabled":false,"rental_uris":{"android":"levelo://app?vid=2b7f7a37-391a-4eb2-b1a1-ddc45a522eff","ios":"levelo://app?vid=2b7f7a37-391a-4eb2-b1a1-ddc45a522eff"},"vehicle_type_id":"4","last_reported":1702300264,"current_range_meters":27200,"station_id":"ce4bhr12rcd13ifvqhpg","pricing_plan_id":"free"},{"bike_id":"b49195d1-5252-4b63-9ddd-c39017071e00","system_id":"levelo_inurba_marseille","lat":43.32474,"lon":5.37377,"is_reserved":false,"is_disabled":false,"rental_uris":{"android":"levelo://app?vid=b49195d1-5252-4b63-9ddd-c39017071e00","ios":"levelo://app?vid=b49195d1-5252-4b63-9ddd-c39017071e00"},"vehicle_type_id":"4","last_reported":1702300264,"current_range_meters":28400,"station_id":"","pricing_plan_id":"free"},{"bike_id":"f5dc87db-1627-40f9-8d4d-6dfa629a504a","system_id":"levelo_inurba_marseille","lat":43.31356,"lon":5.38493,"is_reserved":false,"is_disabled":false,"rental_uris":{"android":"levelo://app?vid=f5dc87db-1627-40f9-8d4d-6dfa629a504a","ios":"levelo://app?vid=f5dc87db-1627-40f9-8d4d-6dfa629a504a"},"vehicle_type_id":"4","last_reported":1702300264,"current_range_meters":16400,"station_id":"ce4bgt92rcd13ifvqcf0","pricing_plan_id":"free"},{"bike_id":"aafd61d3-1640-4244-8784-9792cf831160","system_id":"levelo_inurba_marseille","lat":43.2993,"lon":5.365483,"is_reserved":false,"is_disabled":false,"rental_uris":{"android":"levelo://app?vid=aafd61d3-1640-4244-8784-9792cf831160","ios":"levelo://app?vid=aafd61d3-1640-4244-8784-9792cf831160"},"vehicle_type_id":"4","last_reported":1702300264,"current_range_meters":0,"station_id":"ce4bgm92rcd13ifvqbr0","pricing_plan_id":"free"},{"bike_id":"c9bd1dac-6fb2-429e-acb2-1459eb0e5b14","system_id":"levelo_inurba_marseille","lat":43.29922,"lon":5.37428,"is_reserved":false,"is_disabled":false,"rental_uris":{"android":"levelo://app?vid=c9bd1dac-6fb2-429e-acb2-1459eb0e5b14","ios":"levelo://app?vid=c9bd1dac-6fb2-429e-acb2-1459eb0e5b14"},"vehicle_type_id":"4","last_reported":1702300264,"current_range_meters":4400,"station_id":"ce4bgjh2rcd13ifvqbg0","pricing_plan_id":"free"},{"bike_id":"8d1a07cb-160b-41e5-9ef6-aa20372c6a91","system_id":"levelo_inurba_marseille","lat":43.298445,"lon":5.36274,"is_reserved":false,"is_disabled":false,"rental_uris":{"android":"levelo://app?vid=8d1a07cb-160b-41e5-9ef6-aa20372c6a91","ios":"levelo://app?vid=8d1a07cb-160b-41e5-9ef6-aa20372c6a91"},"vehicle_type_id":"4","last_reported":1702300264,"current_range_meters":24400,"station_id":"ce4bgpp2rcd13ifvqc3g","pricing_plan_id":"free"},{"bike_id":"cb398e35-bb76-473b-a0fe-3feaee950bf5","system_id":"levelo_inurba_marseille","lat":43.298433,"lon":5.362774,"is_reserved":false,"is_disabled":false,"rental_uris":{"android":"levelo://app?vid=cb398e35-bb76-473b-a0fe-3feaee950bf5","ios":"levelo://app?vid=cb398e35-bb76-473b-a0fe-3feaee950bf5"},"vehicle_type_id":"4","last_reported":1702300264,"current_range_meters":19600,"station_id":"ce4bgpp2rcd13ifvqc3g","pricing_plan_id":"free"},{"bike_id":"cf7af36e-3152-4eef-be65-eeb21a9f1dd5","system_id":"levelo_inurba_marseille","lat":43.298433,"lon":5.362774,"is_reserved":false,"is_disabled":false,"rental_uris":{"android":"levelo://app?vid=cf7af36e-3152-4eef-be65-eeb21a9f1dd5","ios":"levelo://app?vid=cf7af36e-3152-4eef-be65-eeb21a9f1dd5"},"vehicle_type_id":"4","last_reported":1702300264,"current_range_meters":16000,"station_id":"ce4bgpp2rcd13ifvqc3g","pricing_plan_id":"free"},{"bike_id":"52d8b7ba-7505-413c-b898-efb75f14c13c","system_id":"levelo_inurba_marseille","lat":43.328371,"lon":5.366909,"is_reserved":false,"is_disabled":false,"rental_uris":{"android":"levelo://app?vid=52d8b7ba-7505-413c-b898-efb75f14c13c","ios":"levelo://app?vid=52d8b7ba-7505-413c-b898-efb75f14c13c"},"vehicle_type_id":"4","last_reported":1702300264,"current_range_meters":17600,"station_id":"ce4bhs92rcd13ifvqi0g","pricing_plan_id":"free"},{"bike_id":"9b0409c8-952e-43cd-8929-2c98668b8e00","system_id":"levelo_inurba_marseille","lat":43.328323,"lon":5.366751,"is_reserved":false,"is_disabled":false,"rental_uris":{"android":"levelo://app?vid=9b0409c8-952e-43cd-8929-2c98668b8e00","ios":"levelo://app?vid=9b0409c8-952e-43cd-8929-2c98668b8e00"},"vehicle_type_id":"4","last_reported":1702300264,"current_range_meters":14000,"station_id":"ce4bhs92rcd13ifvqi0g","pricing_plan_id":"free"},{"bike_id":"a5589e38-f15a-46fe-9b37-27cf16ba9de2","system_id":"levelo_inurba_marseille","lat":43.328359,"lon":5.366709,"is_reserved":false,"is_disabled":false,"rental_uris":{"android":"levelo://app?vid=a5589e38-f15a-46fe-9b37-27cf16ba9de2","ios":"levelo://app?vid=a5589e38-f15a-46fe-9b37-27cf16ba9de2"},"vehicle_type_id":"4","last_reported":1702300264,"current_range_meters":19600,"station_id":"ce4bhs92rcd13ifvqi0g","pricing_plan_id":"free"},{"bike_id":"e445088b-ea85-4a39-915c-fe076c5e8f64","system_id":"levelo_inurba_marseille","lat":43.328371,"lon":5.366909,"is_reserved":false,"is_disabled":false,"rental_uris":{"android":"levelo://app?vid=e445088b-ea85-4a39-915c-fe076c5e8f64","ios":"levelo://app?vid=e445088b-ea85-4a39-915c-fe076c5e8f64"},"vehicle_type_id":"4","last_reported":1702300264,"current_range_meters":0,"station_id":"ce4bhs92rcd13ifvqi0g","pricing_plan_id":"free"},{"bike_id":"7f17d0bb-61d5-440a-af75-bb82e6bfb3b5","system_id":"levelo_inurba_marseille","lat":43.297163,"lon":5.365866,"is_reserved":false,"is_disabled":false,"rental_uris":{"android":"levelo://app?vid=7f17d0bb-61d5-440a-af75-bb82e6bfb3b5","ios":"levelo://app?vid=7f17d0bb-61d5-440a-af75-bb82e6bfb3b5"},"vehicle_type_id":"4","last_reported":1702300264,"current_range_meters":5200,"station_id":"ce4bgn12rcd13ifvqbt0","pricing_plan_id":"free"},{"bike_id":"545a3c27-1bcd-49b2-8217-140bd126225a","system_id":"levelo_inurba_marseille","lat":43.317557,"lon":5.390173,"is_reserved":false,"is_disabled":false,"rental_uris":{"android":"levelo://app?vid=545a3c27-1bcd-49b2-8217-140bd126225a","ios":"levelo://app?vid=545a3c27-1bcd-49b2-8217-140bd126225a"},"vehicle_type_id":"4","last_reported":1702300264,"current_range_meters":25600,"station_id":"ce4bhqp2rcd13ifvqhng","pricing_plan_id":"free"},{"bike_id":"a5cdf1a6-1808-45e5-ad98-ff05c5d8a37a","system_id":"levelo_inurba_marseille","lat":43.295748,"lon":5.37522,"is_reserved":false,"is_disabled":false,"rental_uris":{"android":"levelo://app?vid=a5cdf1a6-1808-45e5-ad98-ff05c5d8a37a","ios":"levelo://app?vid=a5cdf1a6-1808-45e5-ad98-ff05c5d8a37a"},"vehicle_type_id":"4","last_reported":1702300264,"current_range_meters":16400,"station_id":"ce4bgh92rcd13ifvqb50","pricing_plan_id":"free"},{"bike_id":"b5371c5c-0e31-41b4-b532-e488b52b8409","system_id":"levelo_inurba_marseille","lat":43.29608,"lon":5.37715,"is_reserved":false,"is_disabled":false,"rental_uris":{"android":"levelo://app?vid=b5371c5c-0e31-41b4-b532-e488b52b8409","ios":"levelo://app?vid=b5371c5c-0e31-41b4-b532-e488b52b8409"},"vehicle_type_id":"4","last_reported":1702300264,"current_range_meters":6400,"station_id":"ce4bgi92rcd13ifvqb90","pricing_plan_id":"free"},{"bike_id":"77a6c46d-d898-4e4f-8846-efa91689c7f0","system_id":"levelo_inurba_marseille","lat":43.295508,"lon":5.379301,"is_reserved":false,"is_disabled":false,"rental_uris":{"android":"levelo://app?vid=77a6c46d-d898-4e4f-8846-efa91689c7f0","ios":"levelo://app?vid=77a6c46d-d898-4e4f-8846-efa91689c7f0"},"vehicle_type_id":"4","last_reported":1702300264,"current_range_meters":0,"station_id":"","pricing_plan_id":"free"},{"bike_id":"e2ad5e49-53cc-45bf-9d76-e9d99179a923","system_id":"levelo_inurba_marseille","lat":43.29601,"lon":5.381084,"is_reserved":false,"is_disabled":false,"rental_uris":{"android":"levelo://app?vid=e2ad5e49-53cc-45bf-9d76-e9d99179a923","ios":"levelo://app?vid=e2ad5e49-53cc-45bf-9d76-e9d99179a923"},"vehicle_type_id":"4","last_reported":1702300264,"current_range_meters":24400,"station_id":"ce4bgl12rcd13ifvqbo0","pricing_plan_id":"free"},{"bike_id":"e11a84c6-7ea2-41ba-9b49-cf7869a601fa","system_id":"levelo_inurba_marseille","lat":43.29601,"lon":5.381084,"is_reserved":false,"is_disabled":false,"rental_uris":{"android":"levelo://app?vid=e11a84c6-7ea2-41ba-9b49-cf7869a601fa","ios":"levelo://app?vid=e11a84c6-7ea2-41ba-9b49-cf7869a601fa"},"vehicle_type_id":"4","last_reported":1702300264,"current_range_meters":8400,"station_id":"ce4bgl12rcd13ifvqbo0","pricing_plan_id":"free"},{"bike_id":"48ebe2e4-86cb-48d8-be9a-a0da76f517cc","system_id":"levelo_inurba_marseille","lat":43.29602,"lon":5.381084,"is_reserved":false,"is_disabled":false,"rental_uris":{"android":"levelo://app?vid=48ebe2e4-86cb-48d8-be9a-a0da76f517cc","ios":"levelo://app?vid=48ebe2e4-86cb-48d8-be9a-a0da76f517cc"},"vehicle_type_id":"4","last_reported":1702300264,"current_range_meters":20800,"station_id":"ce4bgl12rcd13ifvqbo0","pricing_plan_id":"free"},{"bike_id":"6a730a43-fb38-46a9-aae8-67175bbfe832","system_id":"levelo_inurba_marseille","lat":43.292749,"lon":5.368402,"is_reserved":false,"is_disabled":false,"rental_uris":{"android":"levelo://app?vid=6a730a43-fb38-46a9-aae8-67175bbfe832","ios":"levelo://app?vid=6a730a43-fb38-46a9-aae8-67175bbfe832"},"vehicle_type_id":"4","last_reported":1702300264,"current_range_meters":19600,"station_id":"ce4bhbp2rcd13ifvqesg","pricing_plan_id":"free"},{"bike_id":"6c5fb39b-8bb0-4671-a8c8-6d8b7951ba6d","system_id":"levelo_inurba_marseille","lat":43.292749,"lon":5.368402,"is_reserved":false,"is_disabled":false,"rental_uris":{"android":"levelo://app?vid=6c5fb39b-8bb0-4671-a8c8-6d8b7951ba6d","ios":"levelo://app?vid=6c5fb39b-8bb0-4671-a8c8-6d8b7951ba6d"},"vehicle_type_id":"4","last_reported":1702300264,"current_range_meters":15600,"station_id":"ce4bhbp2rcd13ifvqesg","pricing_plan_id":"free"},{"bike_id":"e28196f7-9253-4bd6-9dea-9983d6c333fe","system_id":"levelo_inurba_marseille","lat":43.293259,"lon":5.371586,"is_reserved":false,"is_disabled":false,"rental_uris":{"android":"levelo://app?vid=e28196f7-9253-4bd6-9dea-9983d6c333fe","ios":"levelo://app?vid=e28196f7-9253-4bd6-9dea-9983d6c333fe"},"vehicle_type_id":"4","last_reported":1702300264,"current_range_meters":28800,"station_id":"ce4bgh92rcd13ifvqb40","pricing_plan_id":"free"},{"bike_id":"631f4f81-4eaa-4c5c-8e7a-fae5c13b1843","system_id":"levelo_inurba_marseille","lat":43.29241,"lon":5.3656,"is_reserved":false,"is_disabled":false,"rental_uris":{"android":"levelo://app?vid=631f4f81-4eaa-4c5c-8e7a-fae5c13b1843","ios":"levelo://app?vid=631f4f81-4eaa-4c5c-8e7a-fae5c13b1843"},"vehicle_type_id":"4","last_reported":1702300264,"current_range_meters":0,"station_id":"","pricing_plan_id":"free"},{"bike_id":"7da2f21f-35ba-46e9-97fe-aaafa60ec862","system_id":"levelo_inurba_marseille","lat":43.293009,"lon":5.374584,"is_reserved":false,"is_disabled":false,"rental_uris":{"android":"levelo://app?vid=7da2f21f-35ba-46e9-97fe-aaafa60ec862","ios":"levelo://app?vid=7da2f21f-35ba-46e9-97fe-aaafa60ec862"},"vehicle_type_id":"4","last_reported":1702300264,"current_range_meters":17200,"station_id":"ce4bgi12rcd13ifvqb70","pricing_plan_id":"free"},{"bike_id":"82edf2b9-c8d6-4884-aa22-9aff18d7a372","system_id":"levelo_inurba_marseille","lat":43.293009,"lon":5.374584,"is_reserved":false,"is_disabled":false,"rental_uris":{"android":"levelo://app?vid=82edf2b9-c8d6-4884-aa22-9aff18d7a372","ios":"levelo://app?vid=82edf2b9-c8d6-4884-aa22-9aff18d7a372"},"vehicle_type_id":"4","last_reported":1702300264,"current_range_meters":26400,"station_id":"ce4bgi12rcd13ifvqb70","pricing_plan_id":"free"},{"bike_id":"b98756d7-0c21-4a0b-b019-e10596f5c64b","system_id":"levelo_inurba_marseille","lat":43.291675,"lon":5.371583,"is_reserved":false,"is_disabled":false,"rental_uris":{"android":"levelo://app?vid=b98756d7-0c21-4a0b-b019-e10596f5c64b","ios":"levelo://app?vid=b98756d7-0c21-4a0b-b019-e10596f5c64b"},"vehicle_type_id":"4","last_reported":1702300264,"current_range_meters":20800,"station_id":"ce4bha92rcd13ifvqeh0","pricing_plan_id":"free"},{"bike_id":"43a7ffdd-023d-4b95-a634-330050d45d62","system_id":"levelo_inurba_marseille","lat":43.302008,"lon":5.394694,"is_reserved":false,"is_disabled":false,"rental_uris":{"android":"levelo://app?vid=43a7ffdd-023d-4b95-a634-330050d45d62","ios":"levelo://app?vid=43a7ffdd-023d-4b95-a634-330050d45d62"},"vehicle_type_id":"4","last_reported":1702300264,"current_range_meters":13600,"station_id":"ce4bh0p2rcd13ifvqd70","pricing_plan_id":"free"},{"bike_id":"c078e75c-bb68-4261-9173-15968ca28002","system_id":"levelo_inurba_marseille","lat":43.294153,"lon":5.386305,"is_reserved":false,"is_disabled":false,"rental_uris":{"android":"levelo://app?vid=c078e75c-bb68-4261-9173-15968ca28002","ios":"levelo://app?vid=c078e75c-bb68-4261-9173-15968ca28002"},"vehicle_type_id":"4","last_reported":1702300264,"current_range_meters":14800,"station_id":"ce4bh2h2rcd13ifvqdh0","pricing_plan_id":"free"},{"bike_id":"b7482c49-db10-4ceb-b5c7-58c95e2c3ad3","system_id":"levelo_inurba_marseille","lat":43.294153,"lon":5.386305,"is_reserved":false,"is_disabled":false,"rental_uris":{"android":"levelo://app?vid=b7482c49-db10-4ceb-b5c7-58c95e2c3ad3","ios":"levelo://app?vid=b7482c49-db10-4ceb-b5c7-58c95e2c3ad3"},"vehicle_type_id":"4","last_reported":1702300264,"current_range_meters":19200,"station_id":"ce4bh2h2rcd13ifvqdh0","pricing_plan_id":"free"},{"bike_id":"4e64682c-8649-4993-a32f-8a85be2ea7e4","system_id":"levelo_inurba_marseille","lat":43.294162,"lon":5.386292,"is_reserved":false,"is_disabled":false,"rental_uris":{"android":"levelo://app?vid=4e64682c-8649-4993-a32f-8a85be2ea7e4","ios":"levelo://app?vid=4e64682c-8649-4993-a32f-8a85be2ea7e4"},"vehicle_type_id":"4","last_reported":1702300264,"current_range_meters":22000,"station_id":"ce4bh2h2rcd13ifvqdh0","pricing_plan_id":"free"},{"bike_id":"207e4428-2f4c-4c3b-9e03-bae6df742a30","system_id":"levelo_inurba_marseille","lat":43.289184,"lon":5.366408,"is_reserved":false,"is_disabled":false,"rental_uris":{"android":"levelo://app?vid=207e4428-2f4c-4c3b-9e03-bae6df742a30","ios":"levelo://app?vid=207e4428-2f4c-4c3b-9e03-bae6df742a30"},"vehicle_type_id":"4","last_reported":1702300264,"current_range_meters":1600,"station_id":"ce4bhap2rcd13ifvqek0","pricing_plan_id":"free"},{"bike_id":"06bab517-b72e-4cda-ad68-033354318fcb","system_id":"levelo_inurba_marseille","lat":43.289184,"lon":5.366408,"is_reserved":false,"is_disabled":false,"rental_uris":{"android":"levelo://app?vid=06bab517-b72e-4cda-ad68-033354318fcb","ios":"levelo://app?vid=06bab517-b72e-4cda-ad68-033354318fcb"},"vehicle_type_id":"4","last_reported":1702300264,"current_range_meters":10800,"station_id":"ce4bhap2rcd13ifvqek0","pricing_plan_id":"free"},{"bike_id":"8a61ac76-0f7f-46c6-a361-c1e33f0ff36d","system_id":"levelo_inurba_marseille","lat":43.289184,"lon":5.366408,"is_reserved":false,"is_disabled":false,"rental_uris":{"android":"levelo://app?vid=8a61ac76-0f7f-46c6-a361-c1e33f0ff36d","ios":"levelo://app?vid=8a61ac76-0f7f-46c6-a361-c1e33f0ff36d"},"vehicle_type_id":"4","last_reported":1702300264,"current_range_meters":8400,"station_id":"ce4bhap2rcd13ifvqek0","pricing_plan_id":"free"},{"bike_id":"f02b05ec-f401-42dc-84e8-09d1d2d91763","system_id":"levelo_inurba_marseille","lat":43.289184,"lon":5.366408,"is_reserved":false,"is_disabled":false,"rental_uris":{"android":"levelo://app?vid=f02b05ec-f401-42dc-84e8-09d1d2d91763","ios":"levelo://app?vid=f02b05ec-f401-42dc-84e8-09d1d2d91763"},"vehicle_type_id":"4","last_reported":1702300264,"current_range_meters":11200,"station_id":"ce4bhap2rcd13ifvqek0","pricing_plan_id":"free"},{"bike_id":"83b4e04c-f77c-4253-960d-bb046b8a55b9","system_id":"levelo_inurba_marseille","lat":43.28934,"lon":5.363937,"is_reserved":false,"is_disabled":false,"rental_uris":{"android":"levelo://app?vid=83b4e04c-f77c-4253-960d-bb046b8a55b9","ios":"levelo://app?vid=83b4e04c-f77c-4253-960d-bb046b8a55b9"},"vehicle_type_id":"4","last_reported":1702300264,"current_range_meters":1200,"station_id":"ce4bhc92rcd13ifvqetg","pricing_plan_id":"free"},{"bike_id":"bc34645e-69d3-41a6-9238-449998fdb9ab","system_id":"levelo_inurba_marseille","lat":43.292642,"lon":5.384254,"is_reserved":false,"is_disabled":false,"rental_uris":{"android":"levelo://app?vid=bc34645e-69d3-41a6-9238-449998fdb9ab","ios":"levelo://app?vid=bc34645e-69d3-41a6-9238-449998fdb9ab"},"vehicle_type_id":"4","last_reported":1702300264,"current_range_meters":20800,"station_id":"ce4bh692rcd13ifvqea0","pricing_plan_id":"free"},{"bike_id":"2f080278-896e-4a67-bfec-ed32fdfa1f9a","system_id":"levelo_inurba_marseille","lat":43.304296,"lon":5.397513,"is_reserved":false,"is_disabled":false,"rental_uris":{"android":"levelo://app?vid=2f080278-896e-4a67-bfec-ed32fdfa1f9a","ios":"levelo://app?vid=2f080278-896e-4a67-bfec-ed32fdfa1f9a"},"vehicle_type_id":"4","last_reported":1702300264,"current_range_meters":24000,"station_id":"ce4bh092rcd13ifvqd20","pricing_plan_id":"free"},{"bike_id":"4955aa19-a9aa-463c-a45e-6a541d7f7032","system_id":"levelo_inurba_marseille","lat":43.290995,"lon":5.381361,"is_reserved":false,"is_disabled":false,"rental_uris":{"android":"levelo://app?vid=4955aa19-a9aa-463c-a45e-6a541d7f7032","ios":"levelo://app?vid=4955aa19-a9aa-463c-a45e-6a541d7f7032"},"vehicle_type_id":"4","last_reported":1702300264,"current_range_meters":30400,"station_id":"ce4bh512rcd13ifvqe2g","pricing_plan_id":"free"},{"bike_id":"99a5ca5c-93e1-4078-93ba-e7d8d01dc853","system_id":"levelo_inurba_marseille","lat":43.290995,"lon":5.381361,"is_reserved":false,"is_disabled":false,"rental_uris":{"android":"levelo://app?vid=99a5ca5c-93e1-4078-93ba-e7d8d01dc853","ios":"levelo://app?vid=99a5ca5c-93e1-4078-93ba-e7d8d01dc853"},"vehicle_type_id":"4","last_reported":1702300264,"current_range_meters":29600,"station_id":"ce4bh512rcd13ifvqe2g","pricing_plan_id":"free"},{"bike_id":"160d5a6b-e459-45ce-b464-c7d4e0757ed1","system_id":"levelo_inurba_marseille","lat":43.290995,"lon":5.381361,"is_reserved":false,"is_disabled":false,"rental_uris":{"android":"levelo://app?vid=160d5a6b-e459-45ce-b464-c7d4e0757ed1","ios":"levelo://app?vid=160d5a6b-e459-45ce-b464-c7d4e0757ed1"},"vehicle_type_id":"4","last_reported":1702300264,"current_range_meters":18400,"station_id":"ce4bh512rcd13ifvqe2g","pricing_plan_id":"free"},{"bike_id":"b20dd4e3-6625-409d-9edc-30291f6f13ba","system_id":"levelo_inurba_marseille","lat":43.297832,"lon":5.393457,"is_reserved":false,"is_disabled":false,"rental_uris":{"android":"levelo://app?vid=b20dd4e3-6625-409d-9edc-30291f6f13ba","ios":"levelo://app?vid=b20dd4e3-6625-409d-9edc-30291f6f13ba"},"vehicle_type_id":"4","last_reported":1702300264,"current_range_meters":6000,"station_id":"chh1huq6cuj3fo74tm60","pricing_plan_id":"free"},{"bike_id":"18a50aa9-7620-4925-8522-860ad31e8df8","system_id":"levelo_inurba_marseille","lat":43.295219,"lon":5.390326,"is_reserved":false,"is_disabled":false,"rental_uris":{"android":"levelo://app?vid=18a50aa9-7620-4925-8522-860ad31e8df8","ios":"levelo://app?vid=18a50aa9-7620-4925-8522-860ad31e8df8"},"vehicle_type_id":"4","last_reported":1702300264,"current_range_meters":0,"station_id":"ce4bh3p2rcd13ifvqdp0","pricing_plan_id":"free"},{"bike_id":"f4844d9b-c959-4053-be85-4d241303d57c","system_id":"levelo_inurba_marseille","lat":43.289743,"lon":5.378304,"is_reserved":false,"is_disabled":false,"rental_uris":{"android":"levelo://app?vid=f4844d9b-c959-4053-be85-4d241303d57c","ios":"levelo://app?vid=f4844d9b-c959-4053-be85-4d241303d57c"},"vehicle_type_id":"4","last_reported":1702300264,"current_range_meters":24800,"station_id":"ce4bh9p2rcd13ifvqed0","pricing_plan_id":"free"},{"bike_id":"6568f984-7c2d-4bcc-8db7-69ff95afd0eb","system_id":"levelo_inurba_marseille","lat":43.29028,"lon":5.38141,"is_reserved":false,"is_disabled":false,"rental_uris":{"android":"levelo://app?vid=6568f984-7c2d-4bcc-8db7-69ff95afd0eb","ios":"levelo://app?vid=6568f984-7c2d-4bcc-8db7-69ff95afd0eb"},"vehicle_type_id":"4","last_reported":1702300264,"current_range_meters":0,"station_id":"ce4bh4p2rcd13ifvqe1g","pricing_plan_id":"free"},{"bike_id":"4551d0f5-45e9-4174-b5e9-2e13c4d90dce","system_id":"levelo_inurba_marseille","lat":43.309371,"lon":5.401449,"is_reserved":false,"is_disabled":false,"rental_uris":{"android":"levelo://app?vid=4551d0f5-45e9-4174-b5e9-2e13c4d90dce","ios":"levelo://app?vid=4551d0f5-45e9-4174-b5e9-2e13c4d90dce"},"vehicle_type_id":"4","last_reported":1702300264,"current_range_meters":23600,"station_id":"ce4bgvp2rcd13ifvqct0","pricing_plan_id":"free"},{"bike_id":"0df358b2-a461-4a59-b299-6fd3eadddf20","system_id":"levelo_inurba_marseille","lat":43.33766,"lon":5.37422,"is_reserved":false,"is_disabled":false,"rental_uris":{"android":"levelo://app?vid=0df358b2-a461-4a59-b299-6fd3eadddf20","ios":"levelo://app?vid=0df358b2-a461-4a59-b299-6fd3eadddf20"},"vehicle_type_id":"4","last_reported":1702300264,"current_range_meters":27200,"station_id":"","pricing_plan_id":"free"},{"bike_id":"1f1df52c-a96f-4513-9b0c-a753ad882e75","system_id":"levelo_inurba_marseille","lat":43.306412,"lon":5.401035,"is_reserved":false,"is_disabled":false,"rental_uris":{"android":"levelo://app?vid=1f1df52c-a96f-4513-9b0c-a753ad882e75","ios":"levelo://app?vid=1f1df52c-a96f-4513-9b0c-a753ad882e75"},"vehicle_type_id":"4","last_reported":1702300264,"current_range_meters":15600,"station_id":"ce4bh112rcd13ifvqda0","pricing_plan_id":"free"},{"bike_id":"139875f7-3aae-43f8-bf81-06f97a33ad5a","system_id":"levelo_inurba_marseille","lat":43.301117,"lon":5.398795,"is_reserved":false,"is_disabled":false,"rental_uris":{"android":"levelo://app?vid=139875f7-3aae-43f8-bf81-06f97a33ad5a","ios":"levelo://app?vid=139875f7-3aae-43f8-bf81-06f97a33ad5a"},"vehicle_type_id":"4","last_reported":1702300264,"current_range_meters":16400,"station_id":"ce4bh0h2rcd13ifvqd40","pricing_plan_id":"free"},{"bike_id":"3f9429ce-0e2f-4adf-9908-c8a7985761c7","system_id":"levelo_inurba_marseille","lat":43.28727,"lon":5.36078,"is_reserved":false,"is_disabled":false,"rental_uris":{"android":"levelo://app?vid=3f9429ce-0e2f-4adf-9908-c8a7985761c7","ios":"levelo://app?vid=3f9429ce-0e2f-4adf-9908-c8a7985761c7"},"vehicle_type_id":"4","last_reported":1702300264,"current_range_meters":400,"station_id":"cki0cbj6b192h4jlfktg","pricing_plan_id":"free"},{"bike_id":"cf34a1e8-b11c-4e90-90fb-12ae54525705","system_id":"levelo_inurba_marseille","lat":43.295194,"lon":5.39397,"is_reserved":false,"is_disabled":false,"rental_uris":{"android":"levelo://app?vid=cf34a1e8-b11c-4e90-90fb-12ae54525705","ios":"levelo://app?vid=cf34a1e8-b11c-4e90-90fb-12ae54525705"},"vehicle_type_id":"4","last_reported":1702300264,"current_range_meters":0,"station_id":"ce4bh292rcd13ifvqdf0","pricing_plan_id":"free"},{"bike_id":"b11f810d-ac97-43f9-b578-2e7153e6cf8e","system_id":"levelo_inurba_marseille","lat":43.286039,"lon":5.370681,"is_reserved":false,"is_disabled":false,"rental_uris":{"android":"levelo://app?vid=b11f810d-ac97-43f9-b578-2e7153e6cf8e","ios":"levelo://app?vid=b11f810d-ac97-43f9-b578-2e7153e6cf8e"},"vehicle_type_id":"4","last_reported":1702300264,"current_range_meters":22000,"station_id":"ce4bht12rcd13ifvqi60","pricing_plan_id":"free"},{"bike_id":"941876f2-55c5-4960-b8fc-2b460b5f0481","system_id":"levelo_inurba_marseille","lat":43.3168,"lon":5.40473,"is_reserved":false,"is_disabled":false,"rental_uris":{"android":"levelo://app?vid=941876f2-55c5-4960-b8fc-2b460b5f0481","ios":"levelo://app?vid=941876f2-55c5-4960-b8fc-2b460b5f0481"},"vehicle_type_id":"4","last_reported":1702300264,"current_range_meters":20800,"station_id":"ce4bh012rcd13ifvqd00","pricing_plan_id":"free"},{"bike_id":"12f1ec2a-93a2-4872-a080-856b337bdb36","system_id":"levelo_inurba_marseille","lat":43.295713,"lon":5.399639,"is_reserved":false,"is_disabled":false,"rental_uris":{"android":"levelo://app?vid=12f1ec2a-93a2-4872-a080-856b337bdb36","ios":"levelo://app?vid=12f1ec2a-93a2-4872-a080-856b337bdb36"},"vehicle_type_id":"4","last_reported":1702300264,"current_range_meters":30800,"station_id":"ce4bh312rcd13ifvqdj0","pricing_plan_id":"free"},{"bike_id":"44312c78-89a1-4b43-a4ec-3dab616b1741","system_id":"levelo_inurba_marseille","lat":43.295713,"lon":5.399639,"is_reserved":false,"is_disabled":false,"rental_uris":{"android":"levelo://app?vid=44312c78-89a1-4b43-a4ec-3dab616b1741","ios":"levelo://app?vid=44312c78-89a1-4b43-a4ec-3dab616b1741"},"vehicle_type_id":"4","last_reported":1702300264,"current_range_meters":3200,"station_id":"ce4bh312rcd13ifvqdj0","pricing_plan_id":"free"},{"bike_id":"f354b1c6-b54e-4967-ba34-e694e23d9767","system_id":"levelo_inurba_marseille","lat":43.28665,"lon":5.38669,"is_reserved":false,"is_disabled":false,"rental_uris":{"android":"levelo://app?vid=f354b1c6-b54e-4967-ba34-e694e23d9767","ios":"levelo://app?vid=f354b1c6-b54e-4967-ba34-e694e23d9767"},"vehicle_type_id":"4","last_reported":1702300264,"current_range_meters":16400,"station_id":"ce4bh492rcd13ifvqdug","pricing_plan_id":"free"},{"bike_id":"24ed8910-57be-4f19-9e7e-f1a2caa45ab6","system_id":"levelo_inurba_marseille","lat":43.2866,"lon":5.38667,"is_reserved":false,"is_disabled":false,"rental_uris":{"android":"levelo://app?vid=24ed8910-57be-4f19-9e7e-f1a2caa45ab6","ios":"levelo://app?vid=24ed8910-57be-4f19-9e7e-f1a2caa45ab6"},"vehicle_type_id":"4","last_reported":1702300264,"current_range_meters":6800,"station_id":"ce4bh492rcd13ifvqdug","pricing_plan_id":"free"},{"bike_id":"b79ff084-2c64-4663-9c82-36d7504564de","system_id":"levelo_inurba_marseille","lat":43.28661,"lon":5.38671,"is_reserved":false,"is_disabled":false,"rental_uris":{"android":"levelo://app?vid=b79ff084-2c64-4663-9c82-36d7504564de","ios":"levelo://app?vid=b79ff084-2c64-4663-9c82-36d7504564de"},"vehicle_type_id":"4","last_reported":1702300264,"current_range_meters":26800,"station_id":"ce4bh492rcd13ifvqdug","pricing_plan_id":"free"},{"bike_id":"89e15144-dec0-414f-ae84-ce2cb256d16a","system_id":"levelo_inurba_marseille","lat":43.319179,"lon":5.407725,"is_reserved":false,"is_disabled":false,"rental_uris":{"android":"levelo://app?vid=89e15144-dec0-414f-ae84-ce2cb256d16a","ios":"levelo://app?vid=89e15144-dec0-414f-ae84-ce2cb256d16a"},"vehicle_type_id":"4","last_reported":1702300264,"current_range_meters":12800,"station_id":"ce4bhq12rcd13ifvqhig","pricing_plan_id":"free"},{"bike_id":"69e20244-39d9-4537-8b5f-15ae5909ee85","system_id":"levelo_inurba_marseille","lat":43.283494,"lon":5.380945,"is_reserved":false,"is_disabled":false,"rental_uris":{"android":"levelo://app?vid=69e20244-39d9-4537-8b5f-15ae5909ee85","ios":"levelo://app?vid=69e20244-39d9-4537-8b5f-15ae5909ee85"},"vehicle_type_id":"4","last_reported":1702300264,"current_range_meters":25600,"station_id":"ce4bh412rcd13ifvqdr0","pricing_plan_id":"free"},{"bike_id":"75feb2c7-e3af-414a-9a0f-2fcafe3f91a2","system_id":"levelo_inurba_marseille","lat":43.284214,"lon":5.349706,"is_reserved":false,"is_disabled":false,"rental_uris":{"android":"levelo://app?vid=75feb2c7-e3af-414a-9a0f-2fcafe3f91a2","ios":"levelo://app?vid=75feb2c7-e3af-414a-9a0f-2fcafe3f91a2"},"vehicle_type_id":"4","last_reported":1702300264,"current_range_meters":9200,"station_id":"ce4bhbh2rcd13ifvqepg","pricing_plan_id":"free"},{"bike_id":"9c82c356-17c9-49c7-871d-62444e865985","system_id":"levelo_inurba_marseille","lat":43.289363,"lon":5.396322,"is_reserved":false,"is_disabled":false,"rental_uris":{"android":"levelo://app?vid=9c82c356-17c9-49c7-871d-62444e865985","ios":"levelo://app?vid=9c82c356-17c9-49c7-871d-62444e865985"},"vehicle_type_id":"4","last_reported":1702300264,"current_range_meters":11200,"station_id":"ce4bh3h2rcd13ifvqdn0","pricing_plan_id":"free"},{"bike_id":"ce9a788c-35d8-4a7a-96d0-c144eb9bf652","system_id":"levelo_inurba_marseille","lat":43.296263,"lon":5.40601,"is_reserved":false,"is_disabled":false,"rental_uris":{"android":"levelo://app?vid=ce9a788c-35d8-4a7a-96d0-c144eb9bf652","ios":"levelo://app?vid=ce9a788c-35d8-4a7a-96d0-c144eb9bf652"},"vehicle_type_id":"4","last_reported":1702300264,"current_range_meters":4800,"station_id":"ce4bh0h2rcd13ifvqd60","pricing_plan_id":"free"},{"bike_id":"d611dd24-93fd-423d-bec0-d71b524c3d2e","system_id":"levelo_inurba_marseille","lat":43.282744,"lon":5.350533,"is_reserved":false,"is_disabled":false,"rental_uris":{"android":"levelo://app?vid=d611dd24-93fd-423d-bec0-d71b524c3d2e","ios":"levelo://app?vid=d611dd24-93fd-423d-bec0-d71b524c3d2e"},"vehicle_type_id":"4","last_reported":1702300264,"current_range_meters":4400,"station_id":"ce4bhbp2rcd13ifvqerg","pricing_plan_id":"free"},{"bike_id":"483bd2db-b7e8-4992-9c6b-dd90eb55e3ba","system_id":"levelo_inurba_marseille","lat":43.282754,"lon":5.350519,"is_reserved":false,"is_disabled":false,"rental_uris":{"android":"levelo://app?vid=483bd2db-b7e8-4992-9c6b-dd90eb55e3ba","ios":"levelo://app?vid=483bd2db-b7e8-4992-9c6b-dd90eb55e3ba"},"vehicle_type_id":"4","last_reported":1702300264,"current_range_meters":4000,"station_id":"ce4bhbp2rcd13ifvqerg","pricing_plan_id":"free"},{"bike_id":"bbc0c226-6d6b-4306-b722-4f1c96d3c35e","system_id":"levelo_inurba_marseille","lat":43.280382,"lon":5.369291,"is_reserved":false,"is_disabled":false,"rental_uris":{"android":"levelo://app?vid=bbc0c226-6d6b-4306-b722-4f1c96d3c35e","ios":"levelo://app?vid=bbc0c226-6d6b-4306-b722-4f1c96d3c35e"},"vehicle_type_id":"4","last_reported":1702300264,"current_range_meters":23200,"station_id":"ce4bha12rcd13ifvqef0","pricing_plan_id":"free"},{"bike_id":"d1597afc-689f-4de1-bec2-6a278a916c83","system_id":"levelo_inurba_marseille","lat":43.290412,"lon":5.399633,"is_reserved":false,"is_disabled":false,"rental_uris":{"android":"levelo://app?vid=d1597afc-689f-4de1-bec2-6a278a916c83","ios":"levelo://app?vid=d1597afc-689f-4de1-bec2-6a278a916c83"},"vehicle_type_id":"4","last_reported":1702300264,"current_range_meters":20800,"station_id":"ce4bh392rcd13ifvqdm0","pricing_plan_id":"free"},{"bike_id":"8b50371a-c8b9-46c8-84a0-a18090daf3e8","system_id":"levelo_inurba_marseille","lat":43.29041,"lon":5.399634,"is_reserved":false,"is_disabled":false,"rental_uris":{"android":"levelo://app?vid=8b50371a-c8b9-46c8-84a0-a18090daf3e8","ios":"levelo://app?vid=8b50371a-c8b9-46c8-84a0-a18090daf3e8"},"vehicle_type_id":"4","last_reported":1702300264,"current_range_meters":18800,"station_id":"ce4bh392rcd13ifvqdm0","pricing_plan_id":"free"},{"bike_id":"8385b1dd-b2e6-4fa1-9ff2-01bf7d3b0569","system_id":"levelo_inurba_marseille","lat":43.281044,"lon":5.378308,"is_reserved":false,"is_disabled":false,"rental_uris":{"android":"levelo://app?vid=8385b1dd-b2e6-4fa1-9ff2-01bf7d3b0569","ios":"levelo://app?vid=8385b1dd-b2e6-4fa1-9ff2-01bf7d3b0569"},"vehicle_type_id":"4","last_reported":1702300264,"current_range_meters":18000,"station_id":"ce4bha12rcd13ifvqee0","pricing_plan_id":"free"},{"bike_id":"c4cea2ca-4c2c-461a-aa13-00b2b2b136f6","system_id":"levelo_inurba_marseille","lat":43.29623,"lon":5.40597,"is_reserved":false,"is_disabled":false,"rental_uris":{"android":"levelo://app?vid=c4cea2ca-4c2c-461a-aa13-00b2b2b136f6","ios":"levelo://app?vid=c4cea2ca-4c2c-461a-aa13-00b2b2b136f6"},"vehicle_type_id":"4","last_reported":1702300264,"current_range_meters":19200,"station_id":"ce4bh0h2rcd13ifvqd60","pricing_plan_id":"free"},{"bike_id":"9b464766-32d5-4f18-8e2f-69477588b28e","system_id":"levelo_inurba_marseille","lat":43.304188,"lon":5.412904,"is_reserved":false,"is_disabled":false,"rental_uris":{"android":"levelo://app?vid=9b464766-32d5-4f18-8e2f-69477588b28e","ios":"levelo://app?vid=9b464766-32d5-4f18-8e2f-69477588b28e"},"vehicle_type_id":"4","last_reported":1702300264,"current_range_meters":29600,"station_id":"ce4bhop2rcd13ifvqh8g","pricing_plan_id":"free"},{"bike_id":"e6d7670e-59e6-46a3-8f95-ec9c7e71212b","system_id":"levelo_inurba_marseille","lat":43.304188,"lon":5.412904,"is_reserved":false,"is_disabled":false,"rental_uris":{"android":"levelo://app?vid=e6d7670e-59e6-46a3-8f95-ec9c7e71212b","ios":"levelo://app?vid=e6d7670e-59e6-46a3-8f95-ec9c7e71212b"},"vehicle_type_id":"4","last_reported":1702300264,"current_range_meters":14000,"station_id":"ce4bhop2rcd13ifvqh8g","pricing_plan_id":"free"},{"bike_id":"fa7b87db-24fd-4c04-926f-2ae44f2137e6","system_id":"levelo_inurba_marseille","lat":43.279742,"lon":5.38744,"is_reserved":false,"is_disabled":false,"rental_uris":{"android":"levelo://app?vid=fa7b87db-24fd-4c04-926f-2ae44f2137e6","ios":"levelo://app?vid=fa7b87db-24fd-4c04-926f-2ae44f2137e6"},"vehicle_type_id":"4","last_reported":1702300264,"current_range_meters":5600,"station_id":"ce4bhg12rcd13ifvqf80","pricing_plan_id":"free"},{"bike_id":"d93cd00b-6d5a-45dc-aa6a-20ef111aea20","system_id":"levelo_inurba_marseille","lat":43.27965,"lon":5.38738,"is_reserved":false,"is_disabled":false,"rental_uris":{"android":"levelo://app?vid=d93cd00b-6d5a-45dc-aa6a-20ef111aea20","ios":"levelo://app?vid=d93cd00b-6d5a-45dc-aa6a-20ef111aea20"},"vehicle_type_id":"4","last_reported":1702300264,"current_range_meters":15600,"station_id":"ce4bhg12rcd13ifvqf80","pricing_plan_id":"free"},{"bike_id":"673d22fd-e70b-4e62-8792-728b6f4817a1","system_id":"levelo_inurba_marseille","lat":43.2796,"lon":5.3875,"is_reserved":false,"is_disabled":false,"rental_uris":{"android":"levelo://app?vid=673d22fd-e70b-4e62-8792-728b6f4817a1","ios":"levelo://app?vid=673d22fd-e70b-4e62-8792-728b6f4817a1"},"vehicle_type_id":"4","last_reported":1702300264,"current_range_meters":2400,"station_id":"ce4bhg12rcd13ifvqf80","pricing_plan_id":"free"},{"bike_id":"f0d3ee3f-4a74-496f-80c0-f4035ab93d54","system_id":"levelo_inurba_marseille","lat":43.292571,"lon":5.409107,"is_reserved":false,"is_disabled":false,"rental_uris":{"android":"levelo://app?vid=f0d3ee3f-4a74-496f-80c0-f4035ab93d54","ios":"levelo://app?vid=f0d3ee3f-4a74-496f-80c0-f4035ab93d54"},"vehicle_type_id":"4","last_reported":1702300264,"current_range_meters":10800,"station_id":"ce4bh192rcd13ifvqdc0","pricing_plan_id":"free"},{"bike_id":"a4455adb-510f-4ac9-bbfa-5b5d87727cc5","system_id":"levelo_inurba_marseille","lat":43.292569,"lon":5.409107,"is_reserved":false,"is_disabled":false,"rental_uris":{"android":"levelo://app?vid=a4455adb-510f-4ac9-bbfa-5b5d87727cc5","ios":"levelo://app?vid=a4455adb-510f-4ac9-bbfa-5b5d87727cc5"},"vehicle_type_id":"4","last_reported":1702300264,"current_range_meters":25200,"station_id":"ce4bh192rcd13ifvqdc0","pricing_plan_id":"free"},{"bike_id":"c3c9af5b-4671-4064-8067-d2cdd8271060","system_id":"levelo_inurba_marseille","lat":43.27621,"lon":5.36099,"is_reserved":false,"is_disabled":false,"rental_uris":{"android":"levelo://app?vid=c3c9af5b-4671-4064-8067-d2cdd8271060","ios":"levelo://app?vid=c3c9af5b-4671-4064-8067-d2cdd8271060"},"vehicle_type_id":"4","last_reported":1702300264,"current_range_meters":26400,"station_id":"","pricing_plan_id":"free"},{"bike_id":"72192f0d-c2fa-4b4a-bc29-6517b5810c0a","system_id":"levelo_inurba_marseille","lat":43.280784,"lon":5.396622,"is_reserved":false,"is_disabled":false,"rental_uris":{"android":"levelo://app?vid=72192f0d-c2fa-4b4a-bc29-6517b5810c0a","ios":"levelo://app?vid=72192f0d-c2fa-4b4a-bc29-6517b5810c0a"},"vehicle_type_id":"4","last_reported":1702300264,"current_range_meters":22000,"station_id":"ce4bho12rcd13ifvqh2g","pricing_plan_id":"free"},{"bike_id":"2ff1f8ff-3a30-4b6b-89db-736010c07d56","system_id":"levelo_inurba_marseille","lat":43.303837,"lon":5.418724,"is_reserved":false,"is_disabled":false,"rental_uris":{"android":"levelo://app?vid=2ff1f8ff-3a30-4b6b-89db-736010c07d56","ios":"levelo://app?vid=2ff1f8ff-3a30-4b6b-89db-736010c07d56"},"vehicle_type_id":"4","last_reported":1702300264,"current_range_meters":31200,"station_id":"ce4bhop2rcd13ifvqh7g","pricing_plan_id":"free"},{"bike_id":"eccb62ee-cbdc-4aa3-b3ca-bbb6d588de34","system_id":"levelo_inurba_marseille","lat":43.273613,"lon":5.362705,"is_reserved":false,"is_disabled":false,"rental_uris":{"android":"levelo://app?vid=eccb62ee-cbdc-4aa3-b3ca-bbb6d588de34","ios":"levelo://app?vid=eccb62ee-cbdc-4aa3-b3ca-bbb6d588de34"},"vehicle_type_id":"4","last_reported":1702300264,"current_range_meters":22400,"station_id":"ce4bhbh2rcd13ifvqeo0","pricing_plan_id":"free"},{"bike_id":"27758b4d-2bcf-4b8f-a697-cb9fcaac0956","system_id":"levelo_inurba_marseille","lat":43.275625,"lon":5.384392,"is_reserved":false,"is_disabled":false,"rental_uris":{"android":"levelo://app?vid=27758b4d-2bcf-4b8f-a697-cb9fcaac0956","ios":"levelo://app?vid=27758b4d-2bcf-4b8f-a697-cb9fcaac0956"},"vehicle_type_id":"4","last_reported":1702300264,"current_range_meters":4400,"station_id":"ce4bhh92rcd13ifvqfi0","pricing_plan_id":"free"},{"bike_id":"2d9a2181-5e00-4ac8-b54c-ea34051187cf","system_id":"levelo_inurba_marseille","lat":43.336134,"lon":5.410341,"is_reserved":false,"is_disabled":false,"rental_uris":{"android":"levelo://app?vid=2d9a2181-5e00-4ac8-b54c-ea34051187cf","ios":"levelo://app?vid=2d9a2181-5e00-4ac8-b54c-ea34051187cf"},"vehicle_type_id":"4","last_reported":1702300264,"current_range_meters":28800,"station_id":"ce4bhqh2rcd13ifvqhmg","pricing_plan_id":"free"},{"bike_id":"58e571b6-3c46-40b7-85b3-bd5d403e4c13","system_id":"levelo_inurba_marseille","lat":43.2755,"lon":5.38432,"is_reserved":false,"is_disabled":false,"rental_uris":{"android":"levelo://app?vid=58e571b6-3c46-40b7-85b3-bd5d403e4c13","ios":"levelo://app?vid=58e571b6-3c46-40b7-85b3-bd5d403e4c13"},"vehicle_type_id":"4","last_reported":1702300264,"current_range_meters":16400,"station_id":"ce4bhh92rcd13ifvqfi0","pricing_plan_id":"free"},{"bike_id":"8865b7ea-93c1-4706-bbde-adc473318bdf","system_id":"levelo_inurba_marseille","lat":43.279952,"lon":5.400085,"is_reserved":false,"is_disabled":false,"rental_uris":{"android":"levelo://app?vid=8865b7ea-93c1-4706-bbde-adc473318bdf","ios":"levelo://app?vid=8865b7ea-93c1-4706-bbde-adc473318bdf"},"vehicle_type_id":"4","last_reported":1702300264,"current_range_meters":15600,"station_id":"ce4bho92rcd13ifvqh4g","pricing_plan_id":"free"},{"bike_id":"4fc55f1e-d09b-453a-9423-1344eb0e6956","system_id":"levelo_inurba_marseille","lat":43.279952,"lon":5.400085,"is_reserved":false,"is_disabled":false,"rental_uris":{"android":"levelo://app?vid=4fc55f1e-d09b-453a-9423-1344eb0e6956","ios":"levelo://app?vid=4fc55f1e-d09b-453a-9423-1344eb0e6956"},"vehicle_type_id":"4","last_reported":1702300264,"current_range_meters":14400,"station_id":"ce4bho92rcd13ifvqh4g","pricing_plan_id":"free"},{"bike_id":"a90d9cb4-3d99-4765-b157-b7fab1035369","system_id":"levelo_inurba_marseille","lat":43.317121,"lon":5.423936,"is_reserved":false,"is_disabled":false,"rental_uris":{"android":"levelo://app?vid=a90d9cb4-3d99-4765-b157-b7fab1035369","ios":"levelo://app?vid=a90d9cb4-3d99-4765-b157-b7fab1035369"},"vehicle_type_id":"4","last_reported":1702300264,"current_range_meters":23600,"station_id":"ce4bhp92rcd13ifvqhbg","pricing_plan_id":"free"},{"bike_id":"105072d3-81bc-41cb-b6c7-cd50bb20cc23","system_id":"levelo_inurba_marseille","lat":43.31723,"lon":5.42405,"is_reserved":false,"is_disabled":false,"rental_uris":{"android":"levelo://app?vid=105072d3-81bc-41cb-b6c7-cd50bb20cc23","ios":"levelo://app?vid=105072d3-81bc-41cb-b6c7-cd50bb20cc23"},"vehicle_type_id":"4","last_reported":1702300264,"current_range_meters":9600,"station_id":"ce4bhp92rcd13ifvqhbg","pricing_plan_id":"free"},{"bike_id":"b29cdc51-87f7-417f-9452-b5f91a85581c","system_id":"levelo_inurba_marseille","lat":43.340804,"lon":5.410219,"is_reserved":false,"is_disabled":false,"rental_uris":{"android":"levelo://app?vid=b29cdc51-87f7-417f-9452-b5f91a85581c","ios":"levelo://app?vid=b29cdc51-87f7-417f-9452-b5f91a85581c"},"vehicle_type_id":"4","last_reported":1702300264,"current_range_meters":25600,"station_id":"ce4bhqh2rcd13ifvqhlg","pricing_plan_id":"free"},{"bike_id":"b67dc672-aa13-4bf4-88e3-9fa9fe5c92fb","system_id":"levelo_inurba_marseille","lat":43.304149,"lon":5.42539,"is_reserved":false,"is_disabled":false,"rental_uris":{"android":"levelo://app?vid=b67dc672-aa13-4bf4-88e3-9fa9fe5c92fb","ios":"levelo://app?vid=b67dc672-aa13-4bf4-88e3-9fa9fe5c92fb"},"vehicle_type_id":"4","last_reported":1702300264,"current_range_meters":26800,"station_id":"ce4bhoh2rcd13ifvqh6g","pricing_plan_id":"free"},{"bike_id":"f3aea154-1934-4a2a-88f5-b4241eb6bcce","system_id":"levelo_inurba_marseille","lat":43.295511,"lon":5.422926,"is_reserved":false,"is_disabled":false,"rental_uris":{"android":"levelo://app?vid=f3aea154-1934-4a2a-88f5-b4241eb6bcce","ios":"levelo://app?vid=f3aea154-1934-4a2a-88f5-b4241eb6bcce"},"vehicle_type_id":"4","last_reported":1702300264,"current_range_meters":18400,"station_id":"ce4bhph2rcd13ifvqhdg","pricing_plan_id":"free"},{"bike_id":"2ff6cf7b-9f39-4a25-bf5e-2c7161c6f680","system_id":"levelo_inurba_marseille","lat":43.269467,"lon":5.386439,"is_reserved":false,"is_disabled":false,"rental_uris":{"android":"levelo://app?vid=2ff6cf7b-9f39-4a25-bf5e-2c7161c6f680","ios":"levelo://app?vid=2ff6cf7b-9f39-4a25-bf5e-2c7161c6f680"},"vehicle_type_id":"4","last_reported":1702300264,"current_range_meters":24000,"station_id":"ce4bhh92rcd13ifvqfh0","pricing_plan_id":"free"},{"bike_id":"16a551f1-5eac-4fe1-ac9e-f46cd64a02b2","system_id":"levelo_inurba_marseille","lat":43.279261,"lon":5.410849,"is_reserved":false,"is_disabled":false,"rental_uris":{"android":"levelo://app?vid=16a551f1-5eac-4fe1-ac9e-f46cd64a02b2","ios":"levelo://app?vid=16a551f1-5eac-4fe1-ac9e-f46cd64a02b2"},"vehicle_type_id":"4","last_reported":1702300264,"current_range_meters":22400,"station_id":"","pricing_plan_id":"free"},{"bike_id":"653b849c-8e9e-4dd7-a25d-0438250ceacc","system_id":"levelo_inurba_marseille","lat":43.265714,"lon":5.372891,"is_reserved":false,"is_disabled":false,"rental_uris":{"android":"levelo://app?vid=653b849c-8e9e-4dd7-a25d-0438250ceacc","ios":"levelo://app?vid=653b849c-8e9e-4dd7-a25d-0438250ceacc"},"vehicle_type_id":"4","last_reported":1702300264,"current_range_meters":8400,"station_id":"ce4bhg12rcd13ifvqf70","pricing_plan_id":"free"},{"bike_id":"fc71b285-583d-4c43-8722-cce25d73e405","system_id":"levelo_inurba_marseille","lat":43.267966,"lon":5.393976,"is_reserved":false,"is_disabled":false,"rental_uris":{"android":"levelo://app?vid=fc71b285-583d-4c43-8722-cce25d73e405","ios":"levelo://app?vid=fc71b285-583d-4c43-8722-cce25d73e405"},"vehicle_type_id":"4","last_reported":1702300264,"current_range_meters":31200,"station_id":"ce4bhh12rcd13ifvqfg0","pricing_plan_id":"free"},{"bike_id":"6c9a7769-40d4-42dc-9b48-47769de74c91","system_id":"levelo_inurba_marseille","lat":43.2633,"lon":5.37675,"is_reserved":false,"is_disabled":false,"rental_uris":{"android":"levelo://app?vid=6c9a7769-40d4-42dc-9b48-47769de74c91","ios":"levelo://app?vid=6c9a7769-40d4-42dc-9b48-47769de74c91"},"vehicle_type_id":"4","last_reported":1702300264,"current_range_meters":13200,"station_id":"","pricing_plan_id":"free"},{"bike_id":"4f791253-4e57-47de-9a8d-04259c61203b","system_id":"levelo_inurba_marseille","lat":43.26935,"lon":5.40261,"is_reserved":false,"is_disabled":false,"rental_uris":{"android":"levelo://app?vid=4f791253-4e57-47de-9a8d-04259c61203b","ios":"levelo://app?vid=4f791253-4e57-47de-9a8d-04259c61203b"},"vehicle_type_id":"4","last_reported":1702300264,"current_range_meters":14800,"station_id":"cjm6bp8fraef2m0cb0m0","pricing_plan_id":"free"},{"bike_id":"9cefd302-4f4b-4313-abfc-693463aa7e11","system_id":"levelo_inurba_marseille","lat":43.26202,"lon":5.379299,"is_reserved":false,"is_disabled":false,"rental_uris":{"android":"levelo://app?vid=9cefd302-4f4b-4313-abfc-693463aa7e11","ios":"levelo://app?vid=9cefd302-4f4b-4313-abfc-693463aa7e11"},"vehicle_type_id":"4","last_reported":1702300264,"current_range_meters":29600,"station_id":"ce4bhjp2rcd13ifvqg90","pricing_plan_id":"free"},{"bike_id":"8990913d-88bb-4203-8c22-f8e07bb74360","system_id":"levelo_inurba_marseille","lat":43.271368,"lon":5.40928,"is_reserved":false,"is_disabled":false,"rental_uris":{"android":"levelo://app?vid=8990913d-88bb-4203-8c22-f8e07bb74360","ios":"levelo://app?vid=8990913d-88bb-4203-8c22-f8e07bb74360"},"vehicle_type_id":"4","last_reported":1702300264,"current_range_meters":30000,"station_id":"ce4bhl12rcd13ifvqgf0","pricing_plan_id":"free"},{"bike_id":"09ac8165-54a9-41bb-b73a-52834dffdc95","system_id":"levelo_inurba_marseille","lat":43.271388,"lon":5.409269,"is_reserved":false,"is_disabled":false,"rental_uris":{"android":"levelo://app?vid=09ac8165-54a9-41bb-b73a-52834dffdc95","ios":"levelo://app?vid=09ac8165-54a9-41bb-b73a-52834dffdc95"},"vehicle_type_id":"4","last_reported":1702300264,"current_range_meters":20000,"station_id":"ce4bhl12rcd13ifvqgf0","pricing_plan_id":"free"},{"bike_id":"7ef0e874-4d14-4db6-97d3-23537a85b219","system_id":"levelo_inurba_marseille","lat":43.298768,"lon":5.43643,"is_reserved":false,"is_disabled":false,"rental_uris":{"android":"levelo://app?vid=7ef0e874-4d14-4db6-97d3-23537a85b219","ios":"levelo://app?vid=7ef0e874-4d14-4db6-97d3-23537a85b219"},"vehicle_type_id":"4","last_reported":1702300264,"current_range_meters":27200,"station_id":"ce4bhpp2rcd13ifvqhfg","pricing_plan_id":"free"},{"bike_id":"4005910e-7ca2-45d9-a38a-3b848a722d73","system_id":"levelo_inurba_marseille","lat":43.281548,"lon":5.42643,"is_reserved":false,"is_disabled":false,"rental_uris":{"android":"levelo://app?vid=4005910e-7ca2-45d9-a38a-3b848a722d73","ios":"levelo://app?vid=4005910e-7ca2-45d9-a38a-3b848a722d73"},"vehicle_type_id":"4","last_reported":1702300264,"current_range_meters":7600,"station_id":"ce4bhnh2rcd13ifvqgug","pricing_plan_id":"free"},{"bike_id":"2fa8e3b6-926b-4686-9f4e-e6187cfd85c5","system_id":"levelo_inurba_marseille","lat":43.26065,"lon":5.39396,"is_reserved":false,"is_disabled":false,"rental_uris":{"android":"levelo://app?vid=2fa8e3b6-926b-4686-9f4e-e6187cfd85c5","ios":"levelo://app?vid=2fa8e3b6-926b-4686-9f4e-e6187cfd85c5"},"vehicle_type_id":"4","last_reported":1702300264,"current_range_meters":31200,"station_id":"ce4bhh92rcd13ifvqfj0","pricing_plan_id":"free"},{"bike_id":"bbc0b2e4-acff-439b-99ea-14ce90be3513","system_id":"levelo_inurba_marseille","lat":43.2607,"lon":5.393983,"is_reserved":false,"is_disabled":false,"rental_uris":{"android":"levelo://app?vid=bbc0b2e4-acff-439b-99ea-14ce90be3513","ios":"levelo://app?vid=bbc0b2e4-acff-439b-99ea-14ce90be3513"},"vehicle_type_id":"4","last_reported":1702300264,"current_range_meters":12800,"station_id":"ce4bhh92rcd13ifvqfj0","pricing_plan_id":"free"},{"bike_id":"306a8d01-7f0f-4c08-bc04-55a1154c2b8c","system_id":"levelo_inurba_marseille","lat":43.275028,"lon":5.424534,"is_reserved":false,"is_disabled":false,"rental_uris":{"android":"levelo://app?vid=306a8d01-7f0f-4c08-bc04-55a1154c2b8c","ios":"levelo://app?vid=306a8d01-7f0f-4c08-bc04-55a1154c2b8c"},"vehicle_type_id":"4","last_reported":1702300264,"current_range_meters":21600,"station_id":"ce4bhn92rcd13ifvqgrg","pricing_plan_id":"free"},{"bike_id":"c4a8fae1-bc4d-40ff-932a-e57ec1494e01","system_id":"levelo_inurba_marseille","lat":43.275028,"lon":5.424534,"is_reserved":false,"is_disabled":false,"rental_uris":{"android":"levelo://app?vid=c4a8fae1-bc4d-40ff-932a-e57ec1494e01","ios":"levelo://app?vid=c4a8fae1-bc4d-40ff-932a-e57ec1494e01"},"vehicle_type_id":"4","last_reported":1702300264,"current_range_meters":0,"station_id":"ce4bhn92rcd13ifvqgrg","pricing_plan_id":"free"},{"bike_id":"329d6ba5-3c4c-4a2e-bcbb-39a2289ade3a","system_id":"levelo_inurba_marseille","lat":43.275028,"lon":5.424534,"is_reserved":false,"is_disabled":false,"rental_uris":{"android":"levelo://app?vid=329d6ba5-3c4c-4a2e-bcbb-39a2289ade3a","ios":"levelo://app?vid=329d6ba5-3c4c-4a2e-bcbb-39a2289ade3a"},"vehicle_type_id":"4","last_reported":1702300264,"current_range_meters":8400,"station_id":"ce4bhn92rcd13ifvqgrg","pricing_plan_id":"free"},{"bike_id":"2f2d4f9a-b0e3-4832-ad34-acba5721dcb8","system_id":"levelo_inurba_marseille","lat":43.2558,"lon":5.3823,"is_reserved":false,"is_disabled":false,"rental_uris":{"android":"levelo://app?vid=2f2d4f9a-b0e3-4832-ad34-acba5721dcb8","ios":"levelo://app?vid=2f2d4f9a-b0e3-4832-ad34-acba5721dcb8"},"vehicle_type_id":"4","last_reported":1702300264,"current_range_meters":16000,"station_id":"ce4bhih2rcd13ifvqfs0","pricing_plan_id":"free"},{"bike_id":"50e79332-3c1c-4087-b00a-445d369bcca8","system_id":"levelo_inurba_marseille","lat":43.2558,"lon":5.38231,"is_reserved":false,"is_disabled":false,"rental_uris":{"android":"levelo://app?vid=50e79332-3c1c-4087-b00a-445d369bcca8","ios":"levelo://app?vid=50e79332-3c1c-4087-b00a-445d369bcca8"},"vehicle_type_id":"4","last_reported":1702300264,"current_range_meters":0,"station_id":"ce4bhih2rcd13ifvqfs0","pricing_plan_id":"free"},{"bike_id":"008691f6-234a-4534-ae3a-200143d2c64c","system_id":"levelo_inurba_marseille","lat":43.254947,"lon":5.376454,"is_reserved":false,"is_disabled":false,"rental_uris":{"android":"levelo://app?vid=008691f6-234a-4534-ae3a-200143d2c64c","ios":"levelo://app?vid=008691f6-234a-4534-ae3a-200143d2c64c"},"vehicle_type_id":"4","last_reported":1702300264,"current_range_meters":28400,"station_id":"ce4bhh12rcd13ifvqff0","pricing_plan_id":"free"},{"bike_id":"73ad69f4-f461-4c87-a0c5-9732666b81e8","system_id":"levelo_inurba_marseille","lat":43.258658,"lon":5.398935,"is_reserved":false,"is_disabled":false,"rental_uris":{"android":"levelo://app?vid=73ad69f4-f461-4c87-a0c5-9732666b81e8","ios":"levelo://app?vid=73ad69f4-f461-4c87-a0c5-9732666b81e8"},"vehicle_type_id":"4","last_reported":1702300264,"current_range_meters":15200,"station_id":"ce4bhl92rcd13ifvqghg","pricing_plan_id":"free"},{"bike_id":"664f4887-83c6-4a54-a4b0-4fecba89a096","system_id":"levelo_inurba_marseille","lat":43.250023,"lon":5.38919,"is_reserved":false,"is_disabled":false,"rental_uris":{"android":"levelo://app?vid=664f4887-83c6-4a54-a4b0-4fecba89a096","ios":"levelo://app?vid=664f4887-83c6-4a54-a4b0-4fecba89a096"},"vehicle_type_id":"4","last_reported":1702300264,"current_range_meters":28800,"station_id":"ce4bhgp2rcd13ifvqfd0","pricing_plan_id":"free"},{"bike_id":"26a3b141-7af7-4d07-8f8e-675f1fa8783e","system_id":"levelo_inurba_marseille","lat":43.2479,"lon":5.374457,"is_reserved":false,"is_disabled":false,"rental_uris":{"android":"levelo://app?vid=26a3b141-7af7-4d07-8f8e-675f1fa8783e","ios":"levelo://app?vid=26a3b141-7af7-4d07-8f8e-675f1fa8783e"},"vehicle_type_id":"4","last_reported":1702300264,"current_range_meters":21200,"station_id":"ce4bhgh2rcd13ifvqfb0","pricing_plan_id":"free"},{"bike_id":"39367e71-0ffd-4dde-9e20-ab211765eadb","system_id":"levelo_inurba_marseille","lat":43.25102,"lon":5.403214,"is_reserved":false,"is_disabled":false,"rental_uris":{"android":"levelo://app?vid=39367e71-0ffd-4dde-9e20-ab211765eadb","ios":"levelo://app?vid=39367e71-0ffd-4dde-9e20-ab211765eadb"},"vehicle_type_id":"4","last_reported":1702300264,"current_range_meters":11600,"station_id":"ce4bhlh2rcd13ifvqgig","pricing_plan_id":"free"},{"bike_id":"5da67f74-ddd1-42f6-a58e-4a232e501cbe","system_id":"levelo_inurba_marseille","lat":43.25102,"lon":5.403214,"is_reserved":false,"is_disabled":false,"rental_uris":{"android":"levelo://app?vid=5da67f74-ddd1-42f6-a58e-4a232e501cbe","ios":"levelo://app?vid=5da67f74-ddd1-42f6-a58e-4a232e501cbe"},"vehicle_type_id":"4","last_reported":1702300264,"current_range_meters":30400,"station_id":"ce4bhlh2rcd13ifvqgig","pricing_plan_id":"free"},{"bike_id":"0c6d0347-81ca-4fb8-8166-cdfa0860b10b","system_id":"levelo_inurba_marseille","lat":43.25102,"lon":5.403214,"is_reserved":false,"is_disabled":false,"rental_uris":{"android":"levelo://app?vid=0c6d0347-81ca-4fb8-8166-cdfa0860b10b","ios":"levelo://app?vid=0c6d0347-81ca-4fb8-8166-cdfa0860b10b"},"vehicle_type_id":"4","last_reported":1702300264,"current_range_meters":3600,"station_id":"ce4bhlh2rcd13ifvqgig","pricing_plan_id":"free"},{"bike_id":"5c95425b-07d4-4ead-bb24-25a8966762b8","system_id":"levelo_inurba_marseille","lat":43.240623,"lon":5.377642,"is_reserved":false,"is_disabled":false,"rental_uris":{"android":"levelo://app?vid=5c95425b-07d4-4ead-bb24-25a8966762b8","ios":"levelo://app?vid=5c95425b-07d4-4ead-bb24-25a8966762b8"},"vehicle_type_id":"4","last_reported":1702300264,"current_range_meters":0,"station_id":"ce4bhnp2rcd13ifvqgvg","pricing_plan_id":"free"},{"bike_id":"aa52692c-5018-4782-8ecf-b67c5ef980bd","system_id":"levelo_inurba_marseille","lat":43.240623,"lon":5.377642,"is_reserved":false,"is_disabled":false,"rental_uris":{"android":"levelo://app?vid=aa52692c-5018-4782-8ecf-b67c5ef980bd","ios":"levelo://app?vid=aa52692c-5018-4782-8ecf-b67c5ef980bd"},"vehicle_type_id":"4","last_reported":1702300264,"current_range_meters":8400,"station_id":"ce4bhnp2rcd13ifvqgvg","pricing_plan_id":"free"},{"bike_id":"5a3733a4-a9d0-4a4d-b0f1-9f1b0004531b","system_id":"levelo_inurba_marseille","lat":43.240623,"lon":5.377642,"is_reserved":false,"is_disabled":false,"rental_uris":{"android":"levelo://app?vid=5a3733a4-a9d0-4a4d-b0f1-9f1b0004531b","ios":"levelo://app?vid=5a3733a4-a9d0-4a4d-b0f1-9f1b0004531b"},"vehicle_type_id":"4","last_reported":1702300264,"current_range_meters":19200,"station_id":"ce4bhnp2rcd13ifvqgvg","pricing_plan_id":"free"},{"bike_id":"99273208-c595-4fe4-a762-35d82c664411","system_id":"levelo_inurba_marseille","lat":43.24072,"lon":5.37765,"is_reserved":false,"is_disabled":false,"rental_uris":{"android":"levelo://app?vid=99273208-c595-4fe4-a762-35d82c664411","ios":"levelo://app?vid=99273208-c595-4fe4-a762-35d82c664411"},"vehicle_type_id":"4","last_reported":1702300264,"current_range_meters":4800,"station_id":"ce4bhnp2rcd13ifvqgvg","pricing_plan_id":"free"},{"bike_id":"019fd4e5-ec65-4613-9a18-b33e4431c62a","system_id":"levelo_inurba_marseille","lat":43.240623,"lon":5.377642,"is_reserved":false,"is_disabled":false,"rental_uris":{"android":"levelo://app?vid=019fd4e5-ec65-4613-9a18-b33e4431c62a","ios":"levelo://app?vid=019fd4e5-ec65-4613-9a18-b33e4431c62a"},"vehicle_type_id":"4","last_reported":1702300264,"current_range_meters":22800,"station_id":"ce4bhnp2rcd13ifvqgvg","pricing_plan_id":"free"},{"bike_id":"b18afd2b-3138-433e-aaad-3a04b6202ed3","system_id":"levelo_inurba_marseille","lat":43.240623,"lon":5.377642,"is_reserved":false,"is_disabled":false,"rental_uris":{"android":"levelo://app?vid=b18afd2b-3138-433e-aaad-3a04b6202ed3","ios":"levelo://app?vid=b18afd2b-3138-433e-aaad-3a04b6202ed3"},"vehicle_type_id":"4","last_reported":1702300264,"current_range_meters":13200,"station_id":"ce4bhnp2rcd13ifvqgvg","pricing_plan_id":"free"},{"bike_id":"648e2025-1a93-48bf-9a6e-d403f021559e","system_id":"levelo_inurba_marseille","lat":43.240623,"lon":5.377642,"is_reserved":false,"is_disabled":false,"rental_uris":{"android":"levelo://app?vid=648e2025-1a93-48bf-9a6e-d403f021559e","ios":"levelo://app?vid=648e2025-1a93-48bf-9a6e-d403f021559e"},"vehicle_type_id":"4","last_reported":1702300264,"current_range_meters":10800,"station_id":"ce4bhnp2rcd13ifvqgvg","pricing_plan_id":"free"},{"bike_id":"b1e5fdec-0ffa-4ae2-89b8-6046f4f09510","system_id":"levelo_inurba_marseille","lat":43.240623,"lon":5.377642,"is_reserved":false,"is_disabled":false,"rental_uris":{"android":"levelo://app?vid=b1e5fdec-0ffa-4ae2-89b8-6046f4f09510","ios":"levelo://app?vid=b1e5fdec-0ffa-4ae2-89b8-6046f4f09510"},"vehicle_type_id":"4","last_reported":1702300264,"current_range_meters":23600,"station_id":"ce4bhnp2rcd13ifvqgvg","pricing_plan_id":"free"},{"bike_id":"9c7bbb68-4a4a-4992-9024-3ce529962bcf","system_id":"levelo_inurba_marseille","lat":43.240623,"lon":5.377642,"is_reserved":false,"is_disabled":false,"rental_uris":{"android":"levelo://app?vid=9c7bbb68-4a4a-4992-9024-3ce529962bcf","ios":"levelo://app?vid=9c7bbb68-4a4a-4992-9024-3ce529962bcf"},"vehicle_type_id":"4","last_reported":1702300264,"current_range_meters":0,"station_id":"ce4bhnp2rcd13ifvqgvg","pricing_plan_id":"free"},{"bike_id":"ce0785ad-f508-4755-9f5c-fc556839680c","system_id":"levelo_inurba_marseille","lat":43.240623,"lon":5.377642,"is_reserved":false,"is_disabled":false,"rental_uris":{"android":"levelo://app?vid=ce0785ad-f508-4755-9f5c-fc556839680c","ios":"levelo://app?vid=ce0785ad-f508-4755-9f5c-fc556839680c"},"vehicle_type_id":"4","last_reported":1702300264,"current_range_meters":5600,"station_id":"ce4bhnp2rcd13ifvqgvg","pricing_plan_id":"free"},{"bike_id":"60ac4097-cfda-447c-bb21-f6a393399885","system_id":"levelo_inurba_marseille","lat":43.240623,"lon":5.377642,"is_reserved":false,"is_disabled":false,"rental_uris":{"android":"levelo://app?vid=60ac4097-cfda-447c-bb21-f6a393399885","ios":"levelo://app?vid=60ac4097-cfda-447c-bb21-f6a393399885"},"vehicle_type_id":"4","last_reported":1702300264,"current_range_meters":14800,"station_id":"ce4bhnp2rcd13ifvqgvg","pricing_plan_id":"free"},{"bike_id":"edfcf3c5-f434-43cd-aae1-1f61c3cc0063","system_id":"levelo_inurba_marseille","lat":43.240623,"lon":5.377642,"is_reserved":false,"is_disabled":false,"rental_uris":{"android":"levelo://app?vid=edfcf3c5-f434-43cd-aae1-1f61c3cc0063","ios":"levelo://app?vid=edfcf3c5-f434-43cd-aae1-1f61c3cc0063"},"vehicle_type_id":"4","last_reported":1702300264,"current_range_meters":27200,"station_id":"ce4bhnp2rcd13ifvqgvg","pricing_plan_id":"free"},{"bike_id":"e210c540-90af-44a9-8c70-0e80444adcf5","system_id":"levelo_inurba_marseille","lat":43.240623,"lon":5.377642,"is_reserved":false,"is_disabled":false,"rental_uris":{"android":"levelo://app?vid=e210c540-90af-44a9-8c70-0e80444adcf5","ios":"levelo://app?vid=e210c540-90af-44a9-8c70-0e80444adcf5"},"vehicle_type_id":"4","last_reported":1702300264,"current_range_meters":23200,"station_id":"ce4bhnp2rcd13ifvqgvg","pricing_plan_id":"free"},{"bike_id":"19d48628-c5b3-476f-9691-033d7a993a02","system_id":"levelo_inurba_marseille","lat":43.239588,"lon":5.366238,"is_reserved":false,"is_disabled":false,"rental_uris":{"android":"levelo://app?vid=19d48628-c5b3-476f-9691-033d7a993a02","ios":"levelo://app?vid=19d48628-c5b3-476f-9691-033d7a993a02"},"vehicle_type_id":"4","last_reported":1702300264,"current_range_meters":3200,"station_id":"ce4bhi12rcd13ifvqfp0","pricing_plan_id":"free"},{"bike_id":"5388cfcb-e194-444b-911f-37fef7b13c45","system_id":"levelo_inurba_marseille","lat":43.23963,"lon":5.36629,"is_reserved":false,"is_disabled":false,"rental_uris":{"android":"levelo://app?vid=5388cfcb-e194-444b-911f-37fef7b13c45","ios":"levelo://app?vid=5388cfcb-e194-444b-911f-37fef7b13c45"},"vehicle_type_id":"4","last_reported":1702300264,"current_range_meters":26400,"station_id":"ce4bhi12rcd13ifvqfp0","pricing_plan_id":"free"},{"bike_id":"f5f42c51-96cb-4034-9320-8073444b403e","system_id":"levelo_inurba_marseille","lat":43.241782,"lon":5.397261,"is_reserved":false,"is_disabled":false,"rental_uris":{"android":"levelo://app?vid=f5f42c51-96cb-4034-9320-8073444b403e","ios":"levelo://app?vid=f5f42c51-96cb-4034-9320-8073444b403e"},"vehicle_type_id":"4","last_reported":1702300264,"current_range_meters":18000,"station_id":"ce4bhn12rcd13ifvqgpg","pricing_plan_id":"free"},{"bike_id":"ee81ef4e-a1bb-4d6a-b3d1-997cc1fadc87","system_id":"levelo_inurba_marseille","lat":43.23193,"lon":5.3555,"is_reserved":false,"is_disabled":false,"rental_uris":{"android":"levelo://app?vid=ee81ef4e-a1bb-4d6a-b3d1-997cc1fadc87","ios":"levelo://app?vid=ee81ef4e-a1bb-4d6a-b3d1-997cc1fadc87"},"vehicle_type_id":"4","last_reported":1702300264,"current_range_meters":6400,"station_id":"ce4bhu92rcd13ifvqi70","pricing_plan_id":"free"},{"bike_id":"8b36b446-aead-44b8-88cc-484ca2b2b684","system_id":"levelo_inurba_marseille","lat":43.231853,"lon":5.39995,"is_reserved":false,"is_disabled":false,"rental_uris":{"android":"levelo://app?vid=8b36b446-aead-44b8-88cc-484ca2b2b684","ios":"levelo://app?vid=8b36b446-aead-44b8-88cc-484ca2b2b684"},"vehicle_type_id":"4","last_reported":1702300264,"current_range_meters":16400,"station_id":"ce4bhn12rcd13ifvqgqg","pricing_plan_id":"free"},{"bike_id":"04309115-d373-402b-ba36-b1c5f3db9ad3","system_id":"levelo_inurba_marseille","lat":43.231562,"lon":5.436933,"is_reserved":false,"is_disabled":false,"rental_uris":{"android":"levelo://app?vid=04309115-d373-402b-ba36-b1c5f3db9ad3","ios":"levelo://app?vid=04309115-d373-402b-ba36-b1c5f3db9ad3"},"vehicle_type_id":"4","last_reported":1702300264,"current_range_meters":30400,"station_id":"ce4bhmp2rcd13ifvqgog","pricing_plan_id":"free"},{"bike_id":"1aae6cdc-e4e2-4912-a240-f90a945937f8","system_id":"levelo_inurba_marseille","lat":43.231562,"lon":5.436933,"is_reserved":false,"is_disabled":false,"rental_uris":{"android":"levelo://app?vid=1aae6cdc-e4e2-4912-a240-f90a945937f8","ios":"levelo://app?vid=1aae6cdc-e4e2-4912-a240-f90a945937f8"},"vehicle_type_id":"4","last_reported":1702300264,"current_range_meters":31200,"station_id":"ce4bhmp2rcd13ifvqgog","pricing_plan_id":"free"},{"bike_id":"306b4233-33ae-4872-ad99-598bde4d3aff","system_id":"levelo_inurba_marseille","lat":43.231562,"lon":5.436933,"is_reserved":false,"is_disabled":false,"rental_uris":{"android":"levelo://app?vid=306b4233-33ae-4872-ad99-598bde4d3aff","ios":"levelo://app?vid=306b4233-33ae-4872-ad99-598bde4d3aff"},"vehicle_type_id":"4","last_reported":1702300264,"current_range_meters":1200,"station_id":"ce4bhmp2rcd13ifvqgog","pricing_plan_id":"free"},{"bike_id":"4b31c072-d96f-4396-8c3d-84387a185137","system_id":"levelo_inurba_marseille","lat":43.231562,"lon":5.436933,"is_reserved":false,"is_disabled":false,"rental_uris":{"android":"levelo://app?vid=4b31c072-d96f-4396-8c3d-84387a185137","ios":"levelo://app?vid=4b31c072-d96f-4396-8c3d-84387a185137"},"vehicle_type_id":"4","last_reported":1702300264,"current_range_meters":1200,"station_id":"ce4bhmp2rcd13ifvqgog","pricing_plan_id":"free"},{"bike_id":"cfb0f1e6-b90a-486c-b5ac-9ed8bb2466f8","system_id":"levelo_inurba_marseille","lat":43.231562,"lon":5.436933,"is_reserved":false,"is_disabled":false,"rental_uris":{"android":"levelo://app?vid=cfb0f1e6-b90a-486c-b5ac-9ed8bb2466f8","ios":"levelo://app?vid=cfb0f1e6-b90a-486c-b5ac-9ed8bb2466f8"},"vehicle_type_id":"4","last_reported":1702300264,"current_range_meters":9600,"station_id":"ce4bhmp2rcd13ifvqgog","pricing_plan_id":"free"}]}}