{"last_updated":1692831960,"ttl":30,"version":"2.2","data":{"bikes":[{"bike_id":"a25c981e-e50d-4910-947b-82939003475a","system_id":"levelo_inurba_marseille","lat":43.313391,"lon":5.36706,"is_reserved":false,"is_disabled":false,"rental_uris":{"android":"levelo://app?vid=a25c981e-e50d-4910-947b-82939003475a","ios":"levelo://app?vid=a25c981e-e50d-4910-947b-82939003475a"},"vehicle_type_id":"4","last_reported":1692831960,"current_range_meters":28800,"station_id":"ce4bgr92rcd13ifvqc6g","pricing_plan_id":"free"},{"bike_id":"f22ca441-4e4e-4660-b824-b2f46943e54d","system_id":"levelo_inurba_marseille","lat":43.31228,"lon":5.36851,"is_reserved":false,"is_disabled":false,"rental_uris":{"android":"levelo://app?vid=f22ca441-4e4e-4660-b824-b2f46943e54d","ios":"levelo://app?vid=f22ca441-4e4e-4660-b824-b2f46943e54d"},"vehicle_type_id":"4","last_reported":1692831960,"current_range_meters":31200,"station_id":"ce4bgl92rcd13ifvqbq0","pricing_plan_id":"free"},{"bike_id":"92263028-50da-44d0-b346-8a5790c07e4f","system_id":"levelo_inurba_marseille","lat":43.312239,"lon":5.368562,"is_reserved":false,"is_disabled":false,"rental_uris":{"android":"levelo://app?vid=92263028-50da-44d0-b346-8a5790c07e4f","ios":"levelo://app?vid=92263028-50da-44d0-b346-8a5790c07e4f"},"vehicle_type_id":"4","last_reported":1692831960,"current_range_meters":17200,"station_id":"ce4bgl92rcd13ifvqbq0","pricing_plan_id":"free"},{"bike_id":"037a00b3-f4e5-4590-8920-2bbc63390aab","system_id":"levelo_inurba_marseille","lat":43.309076,"lon":5.368465,"is_reserved":false,"is_disabled":false,"rental_uris":{"android":"levelo://app?vid=037a00b3-f4e5-4590-8920-2bbc63390aab","ios":"levelo://app?vid=037a00b3-f4e5-4590-8920-2bbc63390aab"},"vehicle_type_id":"4","last_reported":1692831960,"current_range_meters":9200,"station_id":"ce4bgn92rcd13ifvqbvg","pricing_plan_id":"free"},{"bike_id":"2b000077-1c24-44e5-b4d3-e171741b23f2","system_id":"levelo_inurba_marseille","lat":43.309076,"lon":5.368465,"is_reserved":false,"is_disabled":false,"rental_uris":{"android":"levelo://app?vid=2b000077-1c24-44e5-b4d3-e171741b23f2","ios":"levelo://app?vid=2b000077-1c24-44e5-b4d3-e171741b23f2"},"vehicle_type_id":"4","last_reported":1692831960,"current_range_meters":16800,"station_id":"ce4bgn92rcd13ifvqbvg","pricing_plan_id":"free"},{"bike_id":"d2be997d-44d2-40a5-bb20-02aeaaf65fa5","system_id":"levelo_inurba_marseille","lat":43.314811,"lon":5.373103,"is_reserved":false,"is_disabled":false,"rental_uris":{"android":"levelo://app?vid=d2be997d-44d2-40a5-bb20-02aeaaf65fa5","ios":"levelo://app?vid=d2be997d-44d2-40a5-bb20-02aeaaf65fa5"},"vehicle_type_id":"4","last_reported":1692831960,"current_range_meters":31600,"station_id":"ce4bgt12rcd13ifvqcd0","pricing_plan_id":"free"},{"bike_id":"c1e3cddb-b6a0-4f33-8cc1-ab5a28b1dbfa","system_id":"levelo_inurba_marseille","lat":43.314811,"lon":5.373103,"is_reserved":false,"is_disabled":false,"rental_uris":{"android":"levelo://app?vid=c1e3cddb-b6a0-4f33-8cc1-ab5a28b1dbfa","ios":"levelo://app?vid=c1e3cddb-b6a0-4f33-8cc1-ab5a28b1dbfa"},"vehicle_type_id":"4","last_reported":1692831960,"current_range_meters":0,"station_id":"ce4bgt12rcd13ifvqcd0","pricing_plan_id":"free"},{"bike_id":"7d989101-d680-4cac-a818-122e962c12e8","system_id":"levelo_inurba_marseille","lat":43.314811,"lon":5.373103,"is_reserved":false,"is_disabled":false,"rental_uris":{"android":"levelo://app?vid=7d989101-d680-4cac-a818-122e962c12e8","ios":"levelo://app?vid=7d989101-d680-4cac-a818-122e962c12e8"},"vehicle_type_id":"4","last_reported":1692831960,"current_range_meters":8800,"station_id":"ce4bgt12rcd13ifvqcd0","pricing_plan_id":"free"},{"bike_id":"b5ce5e63-2dac-4086-bb76-d4aef823bbe5","system_id":"levelo_inurba_marseille","lat":43.314811,"lon":5.373103,"is_reserved":false,"is_disabled":false,"rental_uris":{"android":"levelo://app?vid=b5ce5e63-2dac-4086-bb76-d4aef823bbe5","ios":"levelo://app?vid=b5ce5e63-2dac-4086-bb76-d4aef823bbe5"},"vehicle_type_id":"4","last_reported":1692831960,"current_range_meters":27200,"station_id":"ce4bgt12rcd13ifvqcd0","pricing_plan_id":"free"},{"bike_id":"5f41c204-4e80-4263-bc9b-1d8c754958e0","system_id":"levelo_inurba_marseille","lat":43.314811,"lon":5.373103,"is_reserved":false,"is_disabled":false,"rental_uris":{"android":"levelo://app?vid=5f41c204-4e80-4263-bc9b-1d8c754958e0","ios":"levelo://app?vid=5f41c204-4e80-4263-bc9b-1d8c754958e0"},"vehicle_type_id":"4","last_reported":1692831960,"current_range_meters":8800,"station_id":"ce4bgt12rcd13ifvqcd0","pricing_plan_id":"free"},{"bike_id":"b3574897-fe54-4e43-9f15-ca7c0420613f","system_id":"levelo_inurba_marseille","lat":43.314811,"lon":5.373103,"is_reserved":false,"is_disabled":false,"rental_uris":{"android":"levelo://app?vid=b3574897-fe54-4e43-9f15-ca7c0420613f","ios":"levelo://app?vid=b3574897-fe54-4e43-9f15-ca7c0420613f"},"vehicle_type_id":"4","last_reported":1692831960,"current_range_meters":10000,"station_id":"ce4bgt12rcd13ifvqcd0","pricing_plan_id":"free"},{"bike_id":"47f5fd29-272c-4c55-afb5-e409de310d1f","system_id":"levelo_inurba_marseille","lat":43.314811,"lon":5.373104,"is_reserved":false,"is_disabled":false,"rental_uris":{"android":"levelo://app?vid=47f5fd29-272c-4c55-afb5-e409de310d1f","ios":"levelo://app?vid=47f5fd29-272c-4c55-afb5-e409de310d1f"},"vehicle_type_id":"4","last_reported":1692831960,"current_range_meters":4400,"station_id":"ce4bgt12rcd13ifvqcd0","pricing_plan_id":"free"},{"bike_id":"a6ad10d2-fd88-4979-9746-8922eab6ce84","system_id":"levelo_inurba_marseille","lat":43.30902,"lon":5.37197,"is_reserved":false,"is_disabled":false,"rental_uris":{"android":"levelo://app?vid=a6ad10d2-fd88-4979-9746-8922eab6ce84","ios":"levelo://app?vid=a6ad10d2-fd88-4979-9746-8922eab6ce84"},"vehicle_type_id":"4","last_reported":1692831960,"current_range_meters":14400,"station_id":"ce4bguh2rcd13ifvqckg","pricing_plan_id":"free"},{"bike_id":"aaebfa27-a693-4bb4-bc1f-5e28710c1226","system_id":"levelo_inurba_marseille","lat":43.3054,"lon":5.3671,"is_reserved":false,"is_disabled":false,"rental_uris":{"android":"levelo://app?vid=aaebfa27-a693-4bb4-bc1f-5e28710c1226","ios":"levelo://app?vid=aaebfa27-a693-4bb4-bc1f-5e28710c1226"},"vehicle_type_id":"4","last_reported":1692831960,"current_range_meters":12800,"station_id":"ce4bgrp2rcd13ifvqc9g","pricing_plan_id":"free"},{"bike_id":"f36ca5c4-d228-4159-a753-241e1c64ed58","system_id":"levelo_inurba_marseille","lat":43.30533,"lon":5.36703,"is_reserved":false,"is_disabled":false,"rental_uris":{"android":"levelo://app?vid=f36ca5c4-d228-4159-a753-241e1c64ed58","ios":"levelo://app?vid=f36ca5c4-d228-4159-a753-241e1c64ed58"},"vehicle_type_id":"4","last_reported":1692831960,"current_range_meters":0,"station_id":"ce4bgrp2rcd13ifvqc9g","pricing_plan_id":"free"},{"bike_id":"9fbe6e18-d192-44c2-98b5-cafb68b41aa4","system_id":"levelo_inurba_marseille","lat":43.3053,"lon":5.36537,"is_reserved":false,"is_disabled":false,"rental_uris":{"android":"levelo://app?vid=9fbe6e18-d192-44c2-98b5-cafb68b41aa4","ios":"levelo://app?vid=9fbe6e18-d192-44c2-98b5-cafb68b41aa4"},"vehicle_type_id":"4","last_reported":1692831960,"current_range_meters":20800,"station_id":"ce4bgs12rcd13ifvqcag","pricing_plan_id":"free"},{"bike_id":"d42fdb58-0b0c-4575-a6f3-6686b49f30b0","system_id":"levelo_inurba_marseille","lat":43.305989,"lon":5.37225,"is_reserved":false,"is_disabled":false,"rental_uris":{"android":"levelo://app?vid=d42fdb58-0b0c-4575-a6f3-6686b49f30b0","ios":"levelo://app?vid=d42fdb58-0b0c-4575-a6f3-6686b49f30b0"},"vehicle_type_id":"4","last_reported":1692831960,"current_range_meters":31200,"station_id":"ce4bgqh2rcd13ifvqc4g","pricing_plan_id":"free"},{"bike_id":"29d52fa2-fc8c-48fe-b257-d9cb6ae63c27","system_id":"levelo_inurba_marseille","lat":43.305989,"lon":5.37225,"is_reserved":false,"is_disabled":false,"rental_uris":{"android":"levelo://app?vid=29d52fa2-fc8c-48fe-b257-d9cb6ae63c27","ios":"levelo://app?vid=29d52fa2-fc8c-48fe-b257-d9cb6ae63c27"},"vehicle_type_id":"4","last_reported":1692831960,"current_range_meters":20000,"station_id":"ce4bgqh2rcd13ifvqc4g","pricing_plan_id":"free"},{"bike_id":"1bc7ba5e-da27-4a88-b34b-2f348adaf71b","system_id":"levelo_inurba_marseille","lat":43.305989,"lon":5.37225,"is_reserved":false,"is_disabled":false,"rental_uris":{"android":"levelo://app?vid=1bc7ba5e-da27-4a88-b34b-2f348adaf71b","ios":"levelo://app?vid=1bc7ba5e-da27-4a88-b34b-2f348adaf71b"},"vehicle_type_id":"4","last_reported":1692831960,"current_range_meters":26400,"station_id":"ce4bgqh2rcd13ifvqc4g","pricing_plan_id":"free"},{"bike_id":"36ae873a-54c9-4eff-ac2f-01e70ce363e6","system_id":"levelo_inurba_marseille","lat":43.305989,"lon":5.37225,"is_reserved":false,"is_disabled":false,"rental_uris":{"android":"levelo://app?vid=36ae873a-54c9-4eff-ac2f-01e70ce363e6","ios":"levelo://app?vid=36ae873a-54c9-4eff-ac2f-01e70ce363e6"},"vehicle_type_id":"4","last_reported":1692831960,"current_range_meters":24000,"station_id":"ce4bgqh2rcd13ifvqc4g","pricing_plan_id":"free"},{"bike_id":"3b0cbce5-99ce-4b68-985e-4382aa22694c","system_id":"levelo_inurba_marseille","lat":43.305989,"lon":5.37225,"is_reserved":false,"is_disabled":false,"rental_uris":{"android":"levelo://app?vid=3b0cbce5-99ce-4b68-985e-4382aa22694c","ios":"levelo://app?vid=3b0cbce5-99ce-4b68-985e-4382aa22694c"},"vehicle_type_id":"4","last_reported":1692831960,"current_range_meters":21600,"station_id":"ce4bgqh2rcd13ifvqc4g","pricing_plan_id":"free"},{"bike_id":"a0d20208-bbbd-4010-addd-83ecd05fab94","system_id":"levelo_inurba_marseille","lat":43.305989,"lon":5.37225,"is_reserved":false,"is_disabled":false,"rental_uris":{"android":"levelo://app?vid=a0d20208-bbbd-4010-addd-83ecd05fab94","ios":"levelo://app?vid=a0d20208-bbbd-4010-addd-83ecd05fab94"},"vehicle_type_id":"4","last_reported":1692831960,"current_range_meters":14800,"station_id":"ce4bgqh2rcd13ifvqc4g","pricing_plan_id":"free"},{"bike_id":"3f83b234-e3ce-4325-bb90-ff809d988c3d","system_id":"levelo_inurba_marseille","lat":43.311131,"lon":5.377651,"is_reserved":false,"is_disabled":false,"rental_uris":{"android":"levelo://app?vid=3f83b234-e3ce-4325-bb90-ff809d988c3d","ios":"levelo://app?vid=3f83b234-e3ce-4325-bb90-ff809d988c3d"},"vehicle_type_id":"4","last_reported":1692831960,"current_range_meters":28000,"station_id":"ce4bgt92rcd13ifvqcg0","pricing_plan_id":"free"},{"bike_id":"a98f1a3c-7a59-4fab-b07d-e3c840cbf3a8","system_id":"levelo_inurba_marseille","lat":43.311131,"lon":5.377651,"is_reserved":false,"is_disabled":false,"rental_uris":{"android":"levelo://app?vid=a98f1a3c-7a59-4fab-b07d-e3c840cbf3a8","ios":"levelo://app?vid=a98f1a3c-7a59-4fab-b07d-e3c840cbf3a8"},"vehicle_type_id":"4","last_reported":1692831960,"current_range_meters":24000,"station_id":"ce4bgt92rcd13ifvqcg0","pricing_plan_id":"free"},{"bike_id":"9cee7e4f-d66b-49fe-bd61-819dd4614769","system_id":"levelo_inurba_marseille","lat":43.31124,"lon":5.37767,"is_reserved":false,"is_disabled":false,"rental_uris":{"android":"levelo://app?vid=9cee7e4f-d66b-49fe-bd61-819dd4614769","ios":"levelo://app?vid=9cee7e4f-d66b-49fe-bd61-819dd4614769"},"vehicle_type_id":"4","last_reported":1692831960,"current_range_meters":800,"station_id":"ce4bgt92rcd13ifvqcg0","pricing_plan_id":"free"},{"bike_id":"540a5351-8e39-4694-9a97-42e5a954b6fc","system_id":"levelo_inurba_marseille","lat":43.3112,"lon":5.37767,"is_reserved":false,"is_disabled":false,"rental_uris":{"android":"levelo://app?vid=540a5351-8e39-4694-9a97-42e5a954b6fc","ios":"levelo://app?vid=540a5351-8e39-4694-9a97-42e5a954b6fc"},"vehicle_type_id":"4","last_reported":1692831960,"current_range_meters":0,"station_id":"ce4bgt92rcd13ifvqcg0","pricing_plan_id":"free"},{"bike_id":"b594a8cb-c974-49ec-9422-e047edc939fe","system_id":"levelo_inurba_marseille","lat":43.31114,"lon":5.37766,"is_reserved":false,"is_disabled":false,"rental_uris":{"android":"levelo://app?vid=b594a8cb-c974-49ec-9422-e047edc939fe","ios":"levelo://app?vid=b594a8cb-c974-49ec-9422-e047edc939fe"},"vehicle_type_id":"4","last_reported":1692831960,"current_range_meters":12000,"station_id":"ce4bgt92rcd13ifvqcg0","pricing_plan_id":"free"},{"bike_id":"25b99eff-857e-4d4a-ad56-722ae7ce2a85","system_id":"levelo_inurba_marseille","lat":43.31117,"lon":5.37767,"is_reserved":false,"is_disabled":false,"rental_uris":{"android":"levelo://app?vid=25b99eff-857e-4d4a-ad56-722ae7ce2a85","ios":"levelo://app?vid=25b99eff-857e-4d4a-ad56-722ae7ce2a85"},"vehicle_type_id":"4","last_reported":1692831960,"current_range_meters":20400,"station_id":"ce4bgt92rcd13ifvqcg0","pricing_plan_id":"free"},{"bike_id":"a588e6b9-6af1-4245-829d-43855a167d42","system_id":"levelo_inurba_marseille","lat":43.3112,"lon":5.37768,"is_reserved":false,"is_disabled":false,"rental_uris":{"android":"levelo://app?vid=a588e6b9-6af1-4245-829d-43855a167d42","ios":"levelo://app?vid=a588e6b9-6af1-4245-829d-43855a167d42"},"vehicle_type_id":"4","last_reported":1692831960,"current_range_meters":14000,"station_id":"ce4bgt92rcd13ifvqcg0","pricing_plan_id":"free"},{"bike_id":"3efaf4fc-40ed-4381-8540-185e006de011","system_id":"levelo_inurba_marseille","lat":43.284534,"lon":5.358662,"is_reserved":false,"is_disabled":false,"rental_uris":{"android":"levelo://app?vid=3efaf4fc-40ed-4381-8540-185e006de011","ios":"levelo://app?vid=3efaf4fc-40ed-4381-8540-185e006de011"},"vehicle_type_id":"4","last_reported":1692831960,"current_range_meters":0,"station_id":"ce4bhah2rcd13ifvqei0","pricing_plan_id":"free"},{"bike_id":"c4cf5be3-5df6-4457-a08a-741156c6cbbe","system_id":"levelo_inurba_marseille","lat":43.30789,"lon":5.37642,"is_reserved":false,"is_disabled":false,"rental_uris":{"android":"levelo://app?vid=c4cf5be3-5df6-4457-a08a-741156c6cbbe","ios":"levelo://app?vid=c4cf5be3-5df6-4457-a08a-741156c6cbbe"},"vehicle_type_id":"4","last_reported":1692831960,"current_range_meters":0,"station_id":"ce4bgv92rcd13ifvqcq0","pricing_plan_id":"free"},{"bike_id":"910fa97f-5b49-4058-a9e0-a11c378166ee","system_id":"levelo_inurba_marseille","lat":43.30773,"lon":5.37654,"is_reserved":false,"is_disabled":false,"rental_uris":{"android":"levelo://app?vid=910fa97f-5b49-4058-a9e0-a11c378166ee","ios":"levelo://app?vid=910fa97f-5b49-4058-a9e0-a11c378166ee"},"vehicle_type_id":"4","last_reported":1692831960,"current_range_meters":5600,"station_id":"ce4bgv92rcd13ifvqcq0","pricing_plan_id":"free"},{"bike_id":"e148af1b-1d2c-420a-84d4-325e772d6178","system_id":"levelo_inurba_marseille","lat":43.30774,"lon":5.37657,"is_reserved":false,"is_disabled":false,"rental_uris":{"android":"levelo://app?vid=e148af1b-1d2c-420a-84d4-325e772d6178","ios":"levelo://app?vid=e148af1b-1d2c-420a-84d4-325e772d6178"},"vehicle_type_id":"4","last_reported":1692831960,"current_range_meters":22400,"station_id":"ce4bgv92rcd13ifvqcq0","pricing_plan_id":"free"},{"bike_id":"874e34a8-80c1-4d79-8e18-aa1bd38adad4","system_id":"levelo_inurba_marseille","lat":43.317065,"lon":5.377313,"is_reserved":false,"is_disabled":false,"rental_uris":{"android":"levelo://app?vid=874e34a8-80c1-4d79-8e18-aa1bd38adad4","ios":"levelo://app?vid=874e34a8-80c1-4d79-8e18-aa1bd38adad4"},"vehicle_type_id":"4","last_reported":1692831960,"current_range_meters":0,"station_id":"ce4bgth2rcd13ifvqch0","pricing_plan_id":"free"},{"bike_id":"38470911-a21b-45f6-890d-bf5a517781de","system_id":"levelo_inurba_marseille","lat":43.317075,"lon":5.377367,"is_reserved":false,"is_disabled":false,"rental_uris":{"android":"levelo://app?vid=38470911-a21b-45f6-890d-bf5a517781de","ios":"levelo://app?vid=38470911-a21b-45f6-890d-bf5a517781de"},"vehicle_type_id":"4","last_reported":1692831960,"current_range_meters":18400,"station_id":"ce4bgth2rcd13ifvqch0","pricing_plan_id":"free"},{"bike_id":"0f20967b-aded-44a8-81a5-82097375b4c8","system_id":"levelo_inurba_marseille","lat":43.30341,"lon":5.36859,"is_reserved":false,"is_disabled":false,"rental_uris":{"android":"levelo://app?vid=0f20967b-aded-44a8-81a5-82097375b4c8","ios":"levelo://app?vid=0f20967b-aded-44a8-81a5-82097375b4c8"},"vehicle_type_id":"4","last_reported":1692831960,"current_range_meters":31200,"station_id":"","pricing_plan_id":"free"},{"bike_id":"d592f257-aecd-4070-afd2-fd30c3c6e116","system_id":"levelo_inurba_marseille","lat":43.30307,"lon":5.36899,"is_reserved":false,"is_disabled":false,"rental_uris":{"android":"levelo://app?vid=d592f257-aecd-4070-afd2-fd30c3c6e116","ios":"levelo://app?vid=d592f257-aecd-4070-afd2-fd30c3c6e116"},"vehicle_type_id":"4","last_reported":1692831960,"current_range_meters":24800,"station_id":"ce4bgqh2rcd13ifvqc5g","pricing_plan_id":"free"},{"bike_id":"642c1fa3-86ce-4737-b50f-06b653d1921b","system_id":"levelo_inurba_marseille","lat":43.30307,"lon":5.36901,"is_reserved":false,"is_disabled":false,"rental_uris":{"android":"levelo://app?vid=642c1fa3-86ce-4737-b50f-06b653d1921b","ios":"levelo://app?vid=642c1fa3-86ce-4737-b50f-06b653d1921b"},"vehicle_type_id":"4","last_reported":1692831960,"current_range_meters":14400,"station_id":"ce4bgqh2rcd13ifvqc5g","pricing_plan_id":"free"},{"bike_id":"a8b7cb7b-3652-46d1-9fdd-9336168ab1a0","system_id":"levelo_inurba_marseille","lat":43.31529,"lon":5.38033,"is_reserved":false,"is_disabled":false,"rental_uris":{"android":"levelo://app?vid=a8b7cb7b-3652-46d1-9fdd-9336168ab1a0","ios":"levelo://app?vid=a8b7cb7b-3652-46d1-9fdd-9336168ab1a0"},"vehicle_type_id":"4","last_reported":1692831960,"current_range_meters":5600,"station_id":"ce4bhsp2rcd13ifvqi50","pricing_plan_id":"free"},{"bike_id":"4d1df9dd-351c-465f-a47f-7334cffb8179","system_id":"levelo_inurba_marseille","lat":43.308012,"lon":5.381511,"is_reserved":false,"is_disabled":false,"rental_uris":{"android":"levelo://app?vid=4d1df9dd-351c-465f-a47f-7334cffb8179","ios":"levelo://app?vid=4d1df9dd-351c-465f-a47f-7334cffb8179"},"vehicle_type_id":"4","last_reported":1692831960,"current_range_meters":10000,"station_id":"ce4bgt12rcd13ifvqce0","pricing_plan_id":"free"},{"bike_id":"3b15f34c-401b-4a52-8d62-065f79a3b57e","system_id":"levelo_inurba_marseille","lat":43.30788,"lon":5.38149,"is_reserved":false,"is_disabled":false,"rental_uris":{"android":"levelo://app?vid=3b15f34c-401b-4a52-8d62-065f79a3b57e","ios":"levelo://app?vid=3b15f34c-401b-4a52-8d62-065f79a3b57e"},"vehicle_type_id":"4","last_reported":1692831960,"current_range_meters":1200,"station_id":"ce4bgt12rcd13ifvqce0","pricing_plan_id":"free"},{"bike_id":"aad13686-4026-416f-9a99-2db4cd96e801","system_id":"levelo_inurba_marseille","lat":43.30803,"lon":5.38162,"is_reserved":false,"is_disabled":false,"rental_uris":{"android":"levelo://app?vid=aad13686-4026-416f-9a99-2db4cd96e801","ios":"levelo://app?vid=aad13686-4026-416f-9a99-2db4cd96e801"},"vehicle_type_id":"4","last_reported":1692831960,"current_range_meters":24800,"station_id":"ce4bgt12rcd13ifvqce0","pricing_plan_id":"free"},{"bike_id":"aee785de-a792-4c39-adae-32ea5caec14c","system_id":"levelo_inurba_marseille","lat":43.30793,"lon":5.38167,"is_reserved":false,"is_disabled":false,"rental_uris":{"android":"levelo://app?vid=aee785de-a792-4c39-adae-32ea5caec14c","ios":"levelo://app?vid=aee785de-a792-4c39-adae-32ea5caec14c"},"vehicle_type_id":"4","last_reported":1692831960,"current_range_meters":20400,"station_id":"ce4bgt12rcd13ifvqce0","pricing_plan_id":"free"},{"bike_id":"9ce40be5-a890-4a91-a48f-b1b63a7654df","system_id":"levelo_inurba_marseille","lat":43.30791,"lon":5.38166,"is_reserved":false,"is_disabled":false,"rental_uris":{"android":"levelo://app?vid=9ce40be5-a890-4a91-a48f-b1b63a7654df","ios":"levelo://app?vid=9ce40be5-a890-4a91-a48f-b1b63a7654df"},"vehicle_type_id":"4","last_reported":1692831960,"current_range_meters":0,"station_id":"ce4bgt12rcd13ifvqce0","pricing_plan_id":"free"},{"bike_id":"0a9eeab3-7127-44dc-a49c-2d97ab6c0909","system_id":"levelo_inurba_marseille","lat":43.304606,"lon":5.379026,"is_reserved":false,"is_disabled":false,"rental_uris":{"android":"levelo://app?vid=0a9eeab3-7127-44dc-a49c-2d97ab6c0909","ios":"levelo://app?vid=0a9eeab3-7127-44dc-a49c-2d97ab6c0909"},"vehicle_type_id":"4","last_reported":1692831960,"current_range_meters":0,"station_id":"ce4bgup2rcd13ifvqcn0","pricing_plan_id":"free"},{"bike_id":"46b4c022-4150-48ce-9e41-ecce35e7ccd5","system_id":"levelo_inurba_marseille","lat":43.30282,"lon":5.37698,"is_reserved":false,"is_disabled":false,"rental_uris":{"android":"levelo://app?vid=46b4c022-4150-48ce-9e41-ecce35e7ccd5","ios":"levelo://app?vid=46b4c022-4150-48ce-9e41-ecce35e7ccd5"},"vehicle_type_id":"4","last_reported":1692831960,"current_range_meters":4800,"station_id":"ce4bguh2rcd13ifvqcj0","pricing_plan_id":"free"},{"bike_id":"ad5cfe70-32e3-4fca-8baa-12058cf65b57","system_id":"levelo_inurba_marseille","lat":43.30139,"lon":5.37417,"is_reserved":false,"is_disabled":false,"rental_uris":{"android":"levelo://app?vid=ad5cfe70-32e3-4fca-8baa-12058cf65b57","ios":"levelo://app?vid=ad5cfe70-32e3-4fca-8baa-12058cf65b57"},"vehicle_type_id":"4","last_reported":1692831960,"current_range_meters":16400,"station_id":"ce4bgs92rcd13ifvqcc0","pricing_plan_id":"free"},{"bike_id":"0da3b7f3-557a-44e1-986f-caeaec8a9b87","system_id":"levelo_inurba_marseille","lat":43.31991,"lon":5.38157,"is_reserved":false,"is_disabled":false,"rental_uris":{"android":"levelo://app?vid=0da3b7f3-557a-44e1-986f-caeaec8a9b87","ios":"levelo://app?vid=0da3b7f3-557a-44e1-986f-caeaec8a9b87"},"vehicle_type_id":"4","last_reported":1692831960,"current_range_meters":26400,"station_id":"ce4bhr12rcd13ifvqhpg","pricing_plan_id":"free"},{"bike_id":"5be708f1-9aa7-489a-b1f6-f4b2c5e6f6d5","system_id":"levelo_inurba_marseille","lat":43.31998,"lon":5.38152,"is_reserved":false,"is_disabled":false,"rental_uris":{"android":"levelo://app?vid=5be708f1-9aa7-489a-b1f6-f4b2c5e6f6d5","ios":"levelo://app?vid=5be708f1-9aa7-489a-b1f6-f4b2c5e6f6d5"},"vehicle_type_id":"4","last_reported":1692831960,"current_range_meters":20800,"station_id":"ce4bhr12rcd13ifvqhpg","pricing_plan_id":"free"},{"bike_id":"f4b063da-562f-462d-bf8a-dedc1d4ababf","system_id":"levelo_inurba_marseille","lat":43.32,"lon":5.38171,"is_reserved":false,"is_disabled":false,"rental_uris":{"android":"levelo://app?vid=f4b063da-562f-462d-bf8a-dedc1d4ababf","ios":"levelo://app?vid=f4b063da-562f-462d-bf8a-dedc1d4ababf"},"vehicle_type_id":"4","last_reported":1692831960,"current_range_meters":20000,"station_id":"ce4bhr12rcd13ifvqhpg","pricing_plan_id":"free"},{"bike_id":"89a7615b-c715-46d4-8ee9-24e40c76a2bb","system_id":"levelo_inurba_marseille","lat":43.313571,"lon":5.384829,"is_reserved":false,"is_disabled":false,"rental_uris":{"android":"levelo://app?vid=89a7615b-c715-46d4-8ee9-24e40c76a2bb","ios":"levelo://app?vid=89a7615b-c715-46d4-8ee9-24e40c76a2bb"},"vehicle_type_id":"4","last_reported":1692831960,"current_range_meters":6800,"station_id":"ce4bgt92rcd13ifvqcf0","pricing_plan_id":"free"},{"bike_id":"aeea2cad-65f6-4f48-950f-bb4466e96279","system_id":"levelo_inurba_marseille","lat":43.313571,"lon":5.384829,"is_reserved":false,"is_disabled":false,"rental_uris":{"android":"levelo://app?vid=aeea2cad-65f6-4f48-950f-bb4466e96279","ios":"levelo://app?vid=aeea2cad-65f6-4f48-950f-bb4466e96279"},"vehicle_type_id":"4","last_reported":1692831960,"current_range_meters":10000,"station_id":"ce4bgt92rcd13ifvqcf0","pricing_plan_id":"free"},{"bike_id":"5b7ec981-f36b-440e-8f76-6ca79603408d","system_id":"levelo_inurba_marseille","lat":43.313571,"lon":5.384829,"is_reserved":false,"is_disabled":false,"rental_uris":{"android":"levelo://app?vid=5b7ec981-f36b-440e-8f76-6ca79603408d","ios":"levelo://app?vid=5b7ec981-f36b-440e-8f76-6ca79603408d"},"vehicle_type_id":"4","last_reported":1692831960,"current_range_meters":30800,"station_id":"ce4bgt92rcd13ifvqcf0","pricing_plan_id":"free"},{"bike_id":"41dfca3a-9d4e-48f2-87ad-f7be3d3daa6e","system_id":"levelo_inurba_marseille","lat":43.313571,"lon":5.384829,"is_reserved":false,"is_disabled":false,"rental_uris":{"android":"levelo://app?vid=41dfca3a-9d4e-48f2-87ad-f7be3d3daa6e","ios":"levelo://app?vid=41dfca3a-9d4e-48f2-87ad-f7be3d3daa6e"},"vehicle_type_id":"4","last_reported":1692831960,"current_range_meters":17200,"station_id":"ce4bgt92rcd13ifvqcf0","pricing_plan_id":"free"},{"bike_id":"52d9d43f-308d-484b-bc69-a72058ca8326","system_id":"levelo_inurba_marseille","lat":43.29931,"lon":5.36551,"is_reserved":false,"is_disabled":false,"rental_uris":{"android":"levelo://app?vid=52d9d43f-308d-484b-bc69-a72058ca8326","ios":"levelo://app?vid=52d9d43f-308d-484b-bc69-a72058ca8326"},"vehicle_type_id":"4","last_reported":1692831960,"current_range_meters":17600,"station_id":"ce4bgm92rcd13ifvqbr0","pricing_plan_id":"free"},{"bike_id":"cb73ddc7-0388-4cd7-b980-78e36b6adf96","system_id":"levelo_inurba_marseille","lat":43.29973,"lon":5.37172,"is_reserved":false,"is_disabled":false,"rental_uris":{"android":"levelo://app?vid=cb73ddc7-0388-4cd7-b980-78e36b6adf96","ios":"levelo://app?vid=cb73ddc7-0388-4cd7-b980-78e36b6adf96"},"vehicle_type_id":"4","last_reported":1692831960,"current_range_meters":4400,"station_id":"ce4bgr92rcd13ifvqc7g","pricing_plan_id":"free"},{"bike_id":"300d5a58-42d1-4f3b-a444-ac000c5efffc","system_id":"levelo_inurba_marseille","lat":43.29975,"lon":5.37185,"is_reserved":false,"is_disabled":false,"rental_uris":{"android":"levelo://app?vid=300d5a58-42d1-4f3b-a444-ac000c5efffc","ios":"levelo://app?vid=300d5a58-42d1-4f3b-a444-ac000c5efffc"},"vehicle_type_id":"4","last_reported":1692831960,"current_range_meters":30400,"station_id":"ce4bgr92rcd13ifvqc7g","pricing_plan_id":"free"},{"bike_id":"2f1061e6-5638-41b1-817c-5a4c75415498","system_id":"levelo_inurba_marseille","lat":43.29974,"lon":5.37185,"is_reserved":false,"is_disabled":false,"rental_uris":{"android":"levelo://app?vid=2f1061e6-5638-41b1-817c-5a4c75415498","ios":"levelo://app?vid=2f1061e6-5638-41b1-817c-5a4c75415498"},"vehicle_type_id":"4","last_reported":1692831960,"current_range_meters":4800,"station_id":"ce4bgr92rcd13ifvqc7g","pricing_plan_id":"free"},{"bike_id":"3b695b06-f173-4332-98a2-aa8bf1e7a5fe","system_id":"levelo_inurba_marseille","lat":43.29929,"lon":5.36545,"is_reserved":false,"is_disabled":false,"rental_uris":{"android":"levelo://app?vid=3b695b06-f173-4332-98a2-aa8bf1e7a5fe","ios":"levelo://app?vid=3b695b06-f173-4332-98a2-aa8bf1e7a5fe"},"vehicle_type_id":"4","last_reported":1692831960,"current_range_meters":0,"station_id":"ce4bgm92rcd13ifvqbr0","pricing_plan_id":"free"},{"bike_id":"95dc9ecf-047e-4c3a-bb12-a5676cb36ad4","system_id":"levelo_inurba_marseille","lat":43.3216,"lon":5.38166,"is_reserved":false,"is_disabled":false,"rental_uris":{"android":"levelo://app?vid=95dc9ecf-047e-4c3a-bb12-a5676cb36ad4","ios":"levelo://app?vid=95dc9ecf-047e-4c3a-bb12-a5676cb36ad4"},"vehicle_type_id":"4","last_reported":1692831960,"current_range_meters":2000,"station_id":"","pricing_plan_id":"free"},{"bike_id":"6b4dbd0d-723b-4cc1-849b-b1be32411881","system_id":"levelo_inurba_marseille","lat":43.29881,"lon":5.3653,"is_reserved":false,"is_disabled":false,"rental_uris":{"android":"levelo://app?vid=6b4dbd0d-723b-4cc1-849b-b1be32411881","ios":"levelo://app?vid=6b4dbd0d-723b-4cc1-849b-b1be32411881"},"vehicle_type_id":"4","last_reported":1692831960,"current_range_meters":0,"station_id":"ce4bgm92rcd13ifvqbr0","pricing_plan_id":"free"},{"bike_id":"266b904d-5df7-47d1-84d8-cfb3c9307061","system_id":"levelo_inurba_marseille","lat":43.30541,"lon":5.38422,"is_reserved":false,"is_disabled":false,"rental_uris":{"android":"levelo://app?vid=266b904d-5df7-47d1-84d8-cfb3c9307061","ios":"levelo://app?vid=266b904d-5df7-47d1-84d8-cfb3c9307061"},"vehicle_type_id":"4","last_reported":1692831960,"current_range_meters":24400,"station_id":"ce4bgg92rcd13ifvqb30","pricing_plan_id":"free"},{"bike_id":"96a8acf0-09cf-40c6-8dc5-a9d04e4a5dbe","system_id":"levelo_inurba_marseille","lat":43.305364,"lon":5.384119,"is_reserved":false,"is_disabled":false,"rental_uris":{"android":"levelo://app?vid=96a8acf0-09cf-40c6-8dc5-a9d04e4a5dbe","ios":"levelo://app?vid=96a8acf0-09cf-40c6-8dc5-a9d04e4a5dbe"},"vehicle_type_id":"4","last_reported":1692831960,"current_range_meters":25200,"station_id":"ce4bgg92rcd13ifvqb30","pricing_plan_id":"free"},{"bike_id":"fbc6c67a-65af-4665-85af-1df974d01f92","system_id":"levelo_inurba_marseille","lat":43.298433,"lon":5.362774,"is_reserved":false,"is_disabled":false,"rental_uris":{"android":"levelo://app?vid=fbc6c67a-65af-4665-85af-1df974d01f92","ios":"levelo://app?vid=fbc6c67a-65af-4665-85af-1df974d01f92"},"vehicle_type_id":"4","last_reported":1692831960,"current_range_meters":13600,"station_id":"ce4bgpp2rcd13ifvqc3g","pricing_plan_id":"free"},{"bike_id":"b885f463-e8c5-42cc-902f-7152167ce1c7","system_id":"levelo_inurba_marseille","lat":43.299243,"lon":5.374807,"is_reserved":false,"is_disabled":false,"rental_uris":{"android":"levelo://app?vid=b885f463-e8c5-42cc-902f-7152167ce1c7","ios":"levelo://app?vid=b885f463-e8c5-42cc-902f-7152167ce1c7"},"vehicle_type_id":"4","last_reported":1692831960,"current_range_meters":31200,"station_id":"ce4bgjh2rcd13ifvqbg0","pricing_plan_id":"free"},{"bike_id":"2f9e2def-2173-4eb4-a460-9a385f59debe","system_id":"levelo_inurba_marseille","lat":43.299243,"lon":5.37481,"is_reserved":false,"is_disabled":false,"rental_uris":{"android":"levelo://app?vid=2f9e2def-2173-4eb4-a460-9a385f59debe","ios":"levelo://app?vid=2f9e2def-2173-4eb4-a460-9a385f59debe"},"vehicle_type_id":"4","last_reported":1692831960,"current_range_meters":31200,"station_id":"ce4bgjh2rcd13ifvqbg0","pricing_plan_id":"free"},{"bike_id":"7cd3f2af-c330-4edf-8eab-cb44f77bd3b9","system_id":"levelo_inurba_marseille","lat":43.299243,"lon":5.37481,"is_reserved":false,"is_disabled":false,"rental_uris":{"android":"levelo://app?vid=7cd3f2af-c330-4edf-8eab-cb44f77bd3b9","ios":"levelo://app?vid=7cd3f2af-c330-4edf-8eab-cb44f77bd3b9"},"vehicle_type_id":"4","last_reported":1692831960,"current_range_meters":0,"station_id":"ce4bgjh2rcd13ifvqbg0","pricing_plan_id":"free"},{"bike_id":"407fb67e-2833-4ba7-9936-d5c41f25ecc2","system_id":"levelo_inurba_marseille","lat":43.31163,"lon":5.38727,"is_reserved":false,"is_disabled":false,"rental_uris":{"android":"levelo://app?vid=407fb67e-2833-4ba7-9936-d5c41f25ecc2","ios":"levelo://app?vid=407fb67e-2833-4ba7-9936-d5c41f25ecc2"},"vehicle_type_id":"4","last_reported":1692831960,"current_range_meters":8800,"station_id":"ce4bgv12rcd13ifvqcp0","pricing_plan_id":"free"},{"bike_id":"35eec3a1-aa54-4990-8eb4-78e6c0dd24d0","system_id":"levelo_inurba_marseille","lat":43.29906,"lon":5.37514,"is_reserved":false,"is_disabled":false,"rental_uris":{"android":"levelo://app?vid=35eec3a1-aa54-4990-8eb4-78e6c0dd24d0","ios":"levelo://app?vid=35eec3a1-aa54-4990-8eb4-78e6c0dd24d0"},"vehicle_type_id":"4","last_reported":1692831960,"current_range_meters":20000,"station_id":"ce4bgjh2rcd13ifvqbg0","pricing_plan_id":"free"},{"bike_id":"a993df1d-789a-49b3-8983-270e6b6e13b9","system_id":"levelo_inurba_marseille","lat":43.322872,"lon":5.382756,"is_reserved":false,"is_disabled":false,"rental_uris":{"android":"levelo://app?vid=a993df1d-789a-49b3-8983-270e6b6e13b9","ios":"levelo://app?vid=a993df1d-789a-49b3-8983-270e6b6e13b9"},"vehicle_type_id":"4","last_reported":1692831960,"current_range_meters":20800,"station_id":"ce4bhr12rcd13ifvqhqg","pricing_plan_id":"free"},{"bike_id":"dd789220-e7b5-42c1-b9dc-dc4243148021","system_id":"levelo_inurba_marseille","lat":43.297163,"lon":5.365866,"is_reserved":false,"is_disabled":false,"rental_uris":{"android":"levelo://app?vid=dd789220-e7b5-42c1-b9dc-dc4243148021","ios":"levelo://app?vid=dd789220-e7b5-42c1-b9dc-dc4243148021"},"vehicle_type_id":"4","last_reported":1692831960,"current_range_meters":31200,"station_id":"ce4bgn12rcd13ifvqbt0","pricing_plan_id":"free"},{"bike_id":"2a3a530f-b1a7-4681-8e8c-d9a7c03a002e","system_id":"levelo_inurba_marseille","lat":43.297163,"lon":5.365866,"is_reserved":false,"is_disabled":false,"rental_uris":{"android":"levelo://app?vid=2a3a530f-b1a7-4681-8e8c-d9a7c03a002e","ios":"levelo://app?vid=2a3a530f-b1a7-4681-8e8c-d9a7c03a002e"},"vehicle_type_id":"4","last_reported":1692831960,"current_range_meters":2000,"station_id":"ce4bgn12rcd13ifvqbt0","pricing_plan_id":"free"},{"bike_id":"865f507f-a571-4c8a-9a7c-1ccecb219263","system_id":"levelo_inurba_marseille","lat":43.296277,"lon":5.377108,"is_reserved":false,"is_disabled":false,"rental_uris":{"android":"levelo://app?vid=865f507f-a571-4c8a-9a7c-1ccecb219263","ios":"levelo://app?vid=865f507f-a571-4c8a-9a7c-1ccecb219263"},"vehicle_type_id":"4","last_reported":1692831960,"current_range_meters":30400,"station_id":"ce4bgi92rcd13ifvqb90","pricing_plan_id":"free"},{"bike_id":"d3139180-8ba9-4c91-b6e4-8baae3c22113","system_id":"levelo_inurba_marseille","lat":43.296129,"lon":5.370777,"is_reserved":false,"is_disabled":false,"rental_uris":{"android":"levelo://app?vid=d3139180-8ba9-4c91-b6e4-8baae3c22113","ios":"levelo://app?vid=d3139180-8ba9-4c91-b6e4-8baae3c22113"},"vehicle_type_id":"4","last_reported":1692831960,"current_range_meters":31200,"station_id":"ce4bgnh2rcd13ifvqc0g","pricing_plan_id":"free"},{"bike_id":"a2f0524a-25bb-4eac-852e-e6946344c8c2","system_id":"levelo_inurba_marseille","lat":43.299028,"lon":5.381509,"is_reserved":false,"is_disabled":false,"rental_uris":{"android":"levelo://app?vid=a2f0524a-25bb-4eac-852e-e6946344c8c2","ios":"levelo://app?vid=a2f0524a-25bb-4eac-852e-e6946344c8c2"},"vehicle_type_id":"4","last_reported":1692831960,"current_range_meters":27600,"station_id":"ce4bgj12rcd13ifvqbc0","pricing_plan_id":"free"},{"bike_id":"6b16e4a8-c460-445e-886c-186216c3993e","system_id":"levelo_inurba_marseille","lat":43.30942,"lon":5.3902,"is_reserved":false,"is_disabled":false,"rental_uris":{"android":"levelo://app?vid=6b16e4a8-c460-445e-886c-186216c3993e","ios":"levelo://app?vid=6b16e4a8-c460-445e-886c-186216c3993e"},"vehicle_type_id":"4","last_reported":1692831960,"current_range_meters":1600,"station_id":"ce4bgup2rcd13ifvqco0","pricing_plan_id":"free"},{"bike_id":"542793fb-5b88-481c-a637-cc5ff70e163a","system_id":"levelo_inurba_marseille","lat":43.30952,"lon":5.39028,"is_reserved":false,"is_disabled":false,"rental_uris":{"android":"levelo://app?vid=542793fb-5b88-481c-a637-cc5ff70e163a","ios":"levelo://app?vid=542793fb-5b88-481c-a637-cc5ff70e163a"},"vehicle_type_id":"4","last_reported":1692831960,"current_range_meters":24000,"station_id":"ce4bgup2rcd13ifvqco0","pricing_plan_id":"free"},{"bike_id":"b1d8a768-e476-4409-b3f3-92d30848e365","system_id":"levelo_inurba_marseille","lat":43.296935,"lon":5.376544,"is_reserved":false,"is_disabled":false,"rental_uris":{"android":"levelo://app?vid=b1d8a768-e476-4409-b3f3-92d30848e365","ios":"levelo://app?vid=b1d8a768-e476-4409-b3f3-92d30848e365"},"vehicle_type_id":"4","last_reported":1692831960,"current_range_meters":15600,"station_id":"ce4bgkh2rcd13ifvqbl0","pricing_plan_id":"free"},{"bike_id":"ee586a83-0395-44fe-a077-0bace3e9b2bb","system_id":"levelo_inurba_marseille","lat":43.309589,"lon":5.390258,"is_reserved":false,"is_disabled":false,"rental_uris":{"android":"levelo://app?vid=ee586a83-0395-44fe-a077-0bace3e9b2bb","ios":"levelo://app?vid=ee586a83-0395-44fe-a077-0bace3e9b2bb"},"vehicle_type_id":"4","last_reported":1692831960,"current_range_meters":2000,"station_id":"ce4bgup2rcd13ifvqco0","pricing_plan_id":"free"},{"bike_id":"8f7f468a-c0c7-4aba-98d6-7b03b8d239b1","system_id":"levelo_inurba_marseille","lat":43.317557,"lon":5.390173,"is_reserved":false,"is_disabled":false,"rental_uris":{"android":"levelo://app?vid=8f7f468a-c0c7-4aba-98d6-7b03b8d239b1","ios":"levelo://app?vid=8f7f468a-c0c7-4aba-98d6-7b03b8d239b1"},"vehicle_type_id":"4","last_reported":1692831960,"current_range_meters":9200,"station_id":"ce4bhqp2rcd13ifvqhng","pricing_plan_id":"free"},{"bike_id":"c6c83f5b-ba10-48ea-ab28-d36dba998bbd","system_id":"levelo_inurba_marseille","lat":43.317557,"lon":5.390173,"is_reserved":false,"is_disabled":false,"rental_uris":{"android":"levelo://app?vid=c6c83f5b-ba10-48ea-ab28-d36dba998bbd","ios":"levelo://app?vid=c6c83f5b-ba10-48ea-ab28-d36dba998bbd"},"vehicle_type_id":"4","last_reported":1692831960,"current_range_meters":9200,"station_id":"ce4bhqp2rcd13ifvqhng","pricing_plan_id":"free"},{"bike_id":"4183c994-c410-4e89-b897-a1a10ad1ed28","system_id":"levelo_inurba_marseille","lat":43.317557,"lon":5.390173,"is_reserved":false,"is_disabled":false,"rental_uris":{"android":"levelo://app?vid=4183c994-c410-4e89-b897-a1a10ad1ed28","ios":"levelo://app?vid=4183c994-c410-4e89-b897-a1a10ad1ed28"},"vehicle_type_id":"4","last_reported":1692831960,"current_range_meters":16400,"station_id":"ce4bhqp2rcd13ifvqhng","pricing_plan_id":"free"},{"bike_id":"2c93ce6f-c5e1-4ec9-9941-ebb7469bb8f2","system_id":"levelo_inurba_marseille","lat":43.317557,"lon":5.390173,"is_reserved":false,"is_disabled":false,"rental_uris":{"android":"levelo://app?vid=2c93ce6f-c5e1-4ec9-9941-ebb7469bb8f2","ios":"levelo://app?vid=2c93ce6f-c5e1-4ec9-9941-ebb7469bb8f2"},"vehicle_type_id":"4","last_reported":1692831960,"current_range_meters":31600,"station_id":"ce4bhqp2rcd13ifvqhng","pricing_plan_id":"free"},{"bike_id":"236ed6c3-86ca-435f-84e0-e4c3ce229bc0","system_id":"levelo_inurba_marseille","lat":43.31489,"lon":5.39118,"is_reserved":false,"is_disabled":false,"rental_uris":{"android":"levelo://app?vid=236ed6c3-86ca-435f-84e0-e4c3ce229bc0","ios":"levelo://app?vid=236ed6c3-86ca-435f-84e0-e4c3ce229bc0"},"vehicle_type_id":"4","last_reported":1692831960,"current_range_meters":6000,"station_id":"","pricing_plan_id":"free"},{"bike_id":"a4df99ce-0488-49dd-a888-94686f562e88","system_id":"levelo_inurba_marseille","lat":43.2957,"lon":5.3751,"is_reserved":false,"is_disabled":false,"rental_uris":{"android":"levelo://app?vid=a4df99ce-0488-49dd-a888-94686f562e88","ios":"levelo://app?vid=a4df99ce-0488-49dd-a888-94686f562e88"},"vehicle_type_id":"4","last_reported":1692831960,"current_range_meters":26400,"station_id":"ce4bgh92rcd13ifvqb50","pricing_plan_id":"free"},{"bike_id":"81fb830b-0c66-42d4-acad-2274c3d9fa31","system_id":"levelo_inurba_marseille","lat":43.304274,"lon":5.388873,"is_reserved":false,"is_disabled":false,"rental_uris":{"android":"levelo://app?vid=81fb830b-0c66-42d4-acad-2274c3d9fa31","ios":"levelo://app?vid=81fb830b-0c66-42d4-acad-2274c3d9fa31"},"vehicle_type_id":"4","last_reported":1692831960,"current_range_meters":5200,"station_id":"ce4bgk12rcd13ifvqbi0","pricing_plan_id":"free"},{"bike_id":"ff3f9fa0-8e86-45f7-998d-ea8acdd056c9","system_id":"levelo_inurba_marseille","lat":43.30132,"lon":5.38633,"is_reserved":false,"is_disabled":false,"rental_uris":{"android":"levelo://app?vid=ff3f9fa0-8e86-45f7-998d-ea8acdd056c9","ios":"levelo://app?vid=ff3f9fa0-8e86-45f7-998d-ea8acdd056c9"},"vehicle_type_id":"4","last_reported":1692831960,"current_range_meters":20400,"station_id":"","pricing_plan_id":"free"},{"bike_id":"adb6a408-392e-4a9c-a11a-7d842be49223","system_id":"levelo_inurba_marseille","lat":43.304274,"lon":5.388873,"is_reserved":false,"is_disabled":false,"rental_uris":{"android":"levelo://app?vid=adb6a408-392e-4a9c-a11a-7d842be49223","ios":"levelo://app?vid=adb6a408-392e-4a9c-a11a-7d842be49223"},"vehicle_type_id":"4","last_reported":1692831960,"current_range_meters":20400,"station_id":"ce4bgk12rcd13ifvqbi0","pricing_plan_id":"free"},{"bike_id":"e0bc2d91-c0b3-4b3f-9281-edc680b2039a","system_id":"levelo_inurba_marseille","lat":43.297686,"lon":5.38108,"is_reserved":false,"is_disabled":false,"rental_uris":{"android":"levelo://app?vid=e0bc2d91-c0b3-4b3f-9281-edc680b2039a","ios":"levelo://app?vid=e0bc2d91-c0b3-4b3f-9281-edc680b2039a"},"vehicle_type_id":"4","last_reported":1692831960,"current_range_meters":23600,"station_id":"ce4bgip2rcd13ifvqbb0","pricing_plan_id":"free"},{"bike_id":"329b52da-6179-4119-8885-76b50cbdc2a9","system_id":"levelo_inurba_marseille","lat":43.299707,"lon":5.384859,"is_reserved":false,"is_disabled":false,"rental_uris":{"android":"levelo://app?vid=329b52da-6179-4119-8885-76b50cbdc2a9","ios":"levelo://app?vid=329b52da-6179-4119-8885-76b50cbdc2a9"},"vehicle_type_id":"4","last_reported":1692831960,"current_range_meters":22000,"station_id":"ce4bgj92rcd13ifvqbd0","pricing_plan_id":"free"},{"bike_id":"952a19e7-6602-41c3-942f-79cfb514366f","system_id":"levelo_inurba_marseille","lat":43.29727,"lon":5.38065,"is_reserved":false,"is_disabled":false,"rental_uris":{"android":"levelo://app?vid=952a19e7-6602-41c3-942f-79cfb514366f","ios":"levelo://app?vid=952a19e7-6602-41c3-942f-79cfb514366f"},"vehicle_type_id":"4","last_reported":1692831960,"current_range_meters":26800,"station_id":"","pricing_plan_id":"free"},{"bike_id":"84a4921c-7d73-489e-a5ee-cbe26ad50651","system_id":"levelo_inurba_marseille","lat":43.299717,"lon":5.384845,"is_reserved":false,"is_disabled":false,"rental_uris":{"android":"levelo://app?vid=84a4921c-7d73-489e-a5ee-cbe26ad50651","ios":"levelo://app?vid=84a4921c-7d73-489e-a5ee-cbe26ad50651"},"vehicle_type_id":"4","last_reported":1692831960,"current_range_meters":0,"station_id":"ce4bgj92rcd13ifvqbd0","pricing_plan_id":"free"},{"bike_id":"deacb73d-beca-4a9c-ba52-9233800aee1f","system_id":"levelo_inurba_marseille","lat":43.301252,"lon":5.387877,"is_reserved":false,"is_disabled":false,"rental_uris":{"android":"levelo://app?vid=deacb73d-beca-4a9c-ba52-9233800aee1f","ios":"levelo://app?vid=deacb73d-beca-4a9c-ba52-9233800aee1f"},"vehicle_type_id":"4","last_reported":1692831960,"current_range_meters":25200,"station_id":"","pricing_plan_id":"free"},{"bike_id":"546c1590-e508-4530-9d13-371674c664b8","system_id":"levelo_inurba_marseille","lat":43.32358,"lon":5.38879,"is_reserved":false,"is_disabled":false,"rental_uris":{"android":"levelo://app?vid=546c1590-e508-4530-9d13-371674c664b8","ios":"levelo://app?vid=546c1590-e508-4530-9d13-371674c664b8"},"vehicle_type_id":"4","last_reported":1692831960,"current_range_meters":25200,"station_id":"ce4bhqp2rcd13ifvqhog","pricing_plan_id":"free"},{"bike_id":"828dede6-92f9-4c93-ad20-df1fdc8a0c35","system_id":"levelo_inurba_marseille","lat":43.32364,"lon":5.3888,"is_reserved":false,"is_disabled":false,"rental_uris":{"android":"levelo://app?vid=828dede6-92f9-4c93-ad20-df1fdc8a0c35","ios":"levelo://app?vid=828dede6-92f9-4c93-ad20-df1fdc8a0c35"},"vehicle_type_id":"4","last_reported":1692831960,"current_range_meters":16000,"station_id":"ce4bhqp2rcd13ifvqhog","pricing_plan_id":"free"},{"bike_id":"00883cd9-a56a-4720-bb55-237d0136a4a1","system_id":"levelo_inurba_marseille","lat":43.32367,"lon":5.388836,"is_reserved":false,"is_disabled":false,"rental_uris":{"android":"levelo://app?vid=00883cd9-a56a-4720-bb55-237d0136a4a1","ios":"levelo://app?vid=00883cd9-a56a-4720-bb55-237d0136a4a1"},"vehicle_type_id":"4","last_reported":1692831960,"current_range_meters":29600,"station_id":"ce4bhqp2rcd13ifvqhog","pricing_plan_id":"free"},{"bike_id":"baab8f95-6cb5-4cdb-8709-d526f67d1483","system_id":"levelo_inurba_marseille","lat":43.32366,"lon":5.3888,"is_reserved":false,"is_disabled":false,"rental_uris":{"android":"levelo://app?vid=baab8f95-6cb5-4cdb-8709-d526f67d1483","ios":"levelo://app?vid=baab8f95-6cb5-4cdb-8709-d526f67d1483"},"vehicle_type_id":"4","last_reported":1692831960,"current_range_meters":30000,"station_id":"ce4bhqp2rcd13ifvqhog","pricing_plan_id":"free"},{"bike_id":"f56184c8-73f8-47cd-bd4b-43ba382c0a0e","system_id":"levelo_inurba_marseille","lat":43.32365,"lon":5.38881,"is_reserved":false,"is_disabled":false,"rental_uris":{"android":"levelo://app?vid=f56184c8-73f8-47cd-bd4b-43ba382c0a0e","ios":"levelo://app?vid=f56184c8-73f8-47cd-bd4b-43ba382c0a0e"},"vehicle_type_id":"4","last_reported":1692831960,"current_range_meters":14800,"station_id":"ce4bhqp2rcd13ifvqhog","pricing_plan_id":"free"},{"bike_id":"9a99cb18-ec1d-4739-8684-cba09c28d2ea","system_id":"levelo_inurba_marseille","lat":43.32367,"lon":5.388836,"is_reserved":false,"is_disabled":false,"rental_uris":{"android":"levelo://app?vid=9a99cb18-ec1d-4739-8684-cba09c28d2ea","ios":"levelo://app?vid=9a99cb18-ec1d-4739-8684-cba09c28d2ea"},"vehicle_type_id":"4","last_reported":1692831960,"current_range_meters":20400,"station_id":"ce4bhqp2rcd13ifvqhog","pricing_plan_id":"free"},{"bike_id":"32ecad24-e92e-4fa4-967e-7876de8b623c","system_id":"levelo_inurba_marseille","lat":43.32369,"lon":5.38878,"is_reserved":false,"is_disabled":false,"rental_uris":{"android":"levelo://app?vid=32ecad24-e92e-4fa4-967e-7876de8b623c","ios":"levelo://app?vid=32ecad24-e92e-4fa4-967e-7876de8b623c"},"vehicle_type_id":"4","last_reported":1692831960,"current_range_meters":14800,"station_id":"ce4bhqp2rcd13ifvqhog","pricing_plan_id":"free"},{"bike_id":"2b9a2fce-dba0-4cf4-b5cf-3855da61766b","system_id":"levelo_inurba_marseille","lat":43.32363,"lon":5.38884,"is_reserved":false,"is_disabled":false,"rental_uris":{"android":"levelo://app?vid=2b9a2fce-dba0-4cf4-b5cf-3855da61766b","ios":"levelo://app?vid=2b9a2fce-dba0-4cf4-b5cf-3855da61766b"},"vehicle_type_id":"4","last_reported":1692831960,"current_range_meters":27200,"station_id":"ce4bhqp2rcd13ifvqhog","pricing_plan_id":"free"},{"bike_id":"9622801f-a665-42a8-bdea-eba2330a474a","system_id":"levelo_inurba_marseille","lat":43.32367,"lon":5.388836,"is_reserved":false,"is_disabled":false,"rental_uris":{"android":"levelo://app?vid=9622801f-a665-42a8-bdea-eba2330a474a","ios":"levelo://app?vid=9622801f-a665-42a8-bdea-eba2330a474a"},"vehicle_type_id":"4","last_reported":1692831960,"current_range_meters":27600,"station_id":"ce4bhqp2rcd13ifvqhog","pricing_plan_id":"free"},{"bike_id":"7c7d326f-cdfb-41e6-abbb-d7c1d9d2955d","system_id":"levelo_inurba_marseille","lat":43.32366,"lon":5.38885,"is_reserved":false,"is_disabled":false,"rental_uris":{"android":"levelo://app?vid=7c7d326f-cdfb-41e6-abbb-d7c1d9d2955d","ios":"levelo://app?vid=7c7d326f-cdfb-41e6-abbb-d7c1d9d2955d"},"vehicle_type_id":"4","last_reported":1692831960,"current_range_meters":26800,"station_id":"ce4bhqp2rcd13ifvqhog","pricing_plan_id":"free"},{"bike_id":"373c4bdf-e363-4db2-b092-deabc3a4907a","system_id":"levelo_inurba_marseille","lat":43.32375,"lon":5.38877,"is_reserved":false,"is_disabled":false,"rental_uris":{"android":"levelo://app?vid=373c4bdf-e363-4db2-b092-deabc3a4907a","ios":"levelo://app?vid=373c4bdf-e363-4db2-b092-deabc3a4907a"},"vehicle_type_id":"4","last_reported":1692831960,"current_range_meters":30400,"station_id":"ce4bhqp2rcd13ifvqhog","pricing_plan_id":"free"},{"bike_id":"d7fb9c00-6bf8-4bfa-822f-aac11f42d8d9","system_id":"levelo_inurba_marseille","lat":43.32367,"lon":5.388836,"is_reserved":false,"is_disabled":false,"rental_uris":{"android":"levelo://app?vid=d7fb9c00-6bf8-4bfa-822f-aac11f42d8d9","ios":"levelo://app?vid=d7fb9c00-6bf8-4bfa-822f-aac11f42d8d9"},"vehicle_type_id":"4","last_reported":1692831960,"current_range_meters":29600,"station_id":"ce4bhqp2rcd13ifvqhog","pricing_plan_id":"free"},{"bike_id":"d5288a56-1e31-4d12-bf06-1cd0ec26aa79","system_id":"levelo_inurba_marseille","lat":43.32371,"lon":5.38883,"is_reserved":false,"is_disabled":false,"rental_uris":{"android":"levelo://app?vid=d5288a56-1e31-4d12-bf06-1cd0ec26aa79","ios":"levelo://app?vid=d5288a56-1e31-4d12-bf06-1cd0ec26aa79"},"vehicle_type_id":"4","last_reported":1692831960,"current_range_meters":26400,"station_id":"ce4bhqp2rcd13ifvqhog","pricing_plan_id":"free"},{"bike_id":"49c5a9f4-e27f-4512-858e-1859315046f2","system_id":"levelo_inurba_marseille","lat":43.32372,"lon":5.38886,"is_reserved":false,"is_disabled":false,"rental_uris":{"android":"levelo://app?vid=49c5a9f4-e27f-4512-858e-1859315046f2","ios":"levelo://app?vid=49c5a9f4-e27f-4512-858e-1859315046f2"},"vehicle_type_id":"4","last_reported":1692831960,"current_range_meters":31200,"station_id":"ce4bhqp2rcd13ifvqhog","pricing_plan_id":"free"},{"bike_id":"086ccc2b-b3e2-402c-9fd3-6512af113421","system_id":"levelo_inurba_marseille","lat":43.32379,"lon":5.3888,"is_reserved":false,"is_disabled":false,"rental_uris":{"android":"levelo://app?vid=086ccc2b-b3e2-402c-9fd3-6512af113421","ios":"levelo://app?vid=086ccc2b-b3e2-402c-9fd3-6512af113421"},"vehicle_type_id":"4","last_reported":1692831960,"current_range_meters":26800,"station_id":"ce4bhqp2rcd13ifvqhog","pricing_plan_id":"free"},{"bike_id":"c5bc3cba-282e-484d-b591-63b5722745ec","system_id":"levelo_inurba_marseille","lat":43.32376,"lon":5.38883,"is_reserved":false,"is_disabled":false,"rental_uris":{"android":"levelo://app?vid=c5bc3cba-282e-484d-b591-63b5722745ec","ios":"levelo://app?vid=c5bc3cba-282e-484d-b591-63b5722745ec"},"vehicle_type_id":"4","last_reported":1692831960,"current_range_meters":8800,"station_id":"ce4bhqp2rcd13ifvqhog","pricing_plan_id":"free"},{"bike_id":"806c2268-3423-46f3-b665-6097df066def","system_id":"levelo_inurba_marseille","lat":43.32372,"lon":5.38887,"is_reserved":false,"is_disabled":false,"rental_uris":{"android":"levelo://app?vid=806c2268-3423-46f3-b665-6097df066def","ios":"levelo://app?vid=806c2268-3423-46f3-b665-6097df066def"},"vehicle_type_id":"4","last_reported":1692831960,"current_range_meters":30800,"station_id":"ce4bhqp2rcd13ifvqhog","pricing_plan_id":"free"},{"bike_id":"a5ec69c4-07ee-4c50-8775-821329b65a3d","system_id":"levelo_inurba_marseille","lat":43.32383,"lon":5.38881,"is_reserved":false,"is_disabled":false,"rental_uris":{"android":"levelo://app?vid=a5ec69c4-07ee-4c50-8775-821329b65a3d","ios":"levelo://app?vid=a5ec69c4-07ee-4c50-8775-821329b65a3d"},"vehicle_type_id":"4","last_reported":1692831960,"current_range_meters":28400,"station_id":"ce4bhqp2rcd13ifvqhog","pricing_plan_id":"free"},{"bike_id":"e13fafd0-d521-4afe-b07e-a170169805c2","system_id":"levelo_inurba_marseille","lat":43.293249,"lon":5.371578,"is_reserved":false,"is_disabled":false,"rental_uris":{"android":"levelo://app?vid=e13fafd0-d521-4afe-b07e-a170169805c2","ios":"levelo://app?vid=e13fafd0-d521-4afe-b07e-a170169805c2"},"vehicle_type_id":"4","last_reported":1692831960,"current_range_meters":4800,"station_id":"ce4bgh92rcd13ifvqb40","pricing_plan_id":"free"},{"bike_id":"b35bd58b-a929-4dcb-8146-be28d0acacd2","system_id":"levelo_inurba_marseille","lat":43.293076,"lon":5.371813,"is_reserved":false,"is_disabled":false,"rental_uris":{"android":"levelo://app?vid=b35bd58b-a929-4dcb-8146-be28d0acacd2","ios":"levelo://app?vid=b35bd58b-a929-4dcb-8146-be28d0acacd2"},"vehicle_type_id":"4","last_reported":1692831960,"current_range_meters":28800,"station_id":"ce4bgh92rcd13ifvqb40","pricing_plan_id":"free"},{"bike_id":"88f256bb-d624-441d-8897-cb2a80fbfdfb","system_id":"levelo_inurba_marseille","lat":43.29716,"lon":5.38479,"is_reserved":false,"is_disabled":false,"rental_uris":{"android":"levelo://app?vid=88f256bb-d624-441d-8897-cb2a80fbfdfb","ios":"levelo://app?vid=88f256bb-d624-441d-8897-cb2a80fbfdfb"},"vehicle_type_id":"4","last_reported":1692831960,"current_range_meters":0,"station_id":"","pricing_plan_id":"free"},{"bike_id":"38fef587-7cc5-4800-b069-87b8f296a10a","system_id":"levelo_inurba_marseille","lat":43.293009,"lon":5.374584,"is_reserved":false,"is_disabled":false,"rental_uris":{"android":"levelo://app?vid=38fef587-7cc5-4800-b069-87b8f296a10a","ios":"levelo://app?vid=38fef587-7cc5-4800-b069-87b8f296a10a"},"vehicle_type_id":"4","last_reported":1692831960,"current_range_meters":31200,"station_id":"ce4bgi12rcd13ifvqb70","pricing_plan_id":"free"},{"bike_id":"0724f352-a262-45b7-9b71-9a09ff17d945","system_id":"levelo_inurba_marseille","lat":43.30298,"lon":5.39217,"is_reserved":false,"is_disabled":false,"rental_uris":{"android":"levelo://app?vid=0724f352-a262-45b7-9b71-9a09ff17d945","ios":"levelo://app?vid=0724f352-a262-45b7-9b71-9a09ff17d945"},"vehicle_type_id":"4","last_reported":1692831960,"current_range_meters":25600,"station_id":"ce4bgkh2rcd13ifvqbk0","pricing_plan_id":"free"},{"bike_id":"59d4a7cc-c4d8-47e1-a63f-2e26b5d209c3","system_id":"levelo_inurba_marseille","lat":43.2936,"lon":5.37835,"is_reserved":false,"is_disabled":false,"rental_uris":{"android":"levelo://app?vid=59d4a7cc-c4d8-47e1-a63f-2e26b5d209c3","ios":"levelo://app?vid=59d4a7cc-c4d8-47e1-a63f-2e26b5d209c3"},"vehicle_type_id":"4","last_reported":1692831960,"current_range_meters":30800,"station_id":"ce4bgjh2rcd13ifvqbf0","pricing_plan_id":"free"},{"bike_id":"ac8e98e6-21db-422e-9001-18a39b306996","system_id":"levelo_inurba_marseille","lat":43.30085,"lon":5.390856,"is_reserved":false,"is_disabled":false,"rental_uris":{"android":"levelo://app?vid=ac8e98e6-21db-422e-9001-18a39b306996","ios":"levelo://app?vid=ac8e98e6-21db-422e-9001-18a39b306996"},"vehicle_type_id":"4","last_reported":1692831960,"current_range_meters":17600,"station_id":"ce4bh192rcd13ifvqdb0","pricing_plan_id":"free"},{"bike_id":"6f7a8eda-6284-46d3-81ff-cd54ae419e92","system_id":"levelo_inurba_marseille","lat":43.300852,"lon":5.390859,"is_reserved":false,"is_disabled":false,"rental_uris":{"android":"levelo://app?vid=6f7a8eda-6284-46d3-81ff-cd54ae419e92","ios":"levelo://app?vid=6f7a8eda-6284-46d3-81ff-cd54ae419e92"},"vehicle_type_id":"4","last_reported":1692831960,"current_range_meters":12400,"station_id":"ce4bh192rcd13ifvqdb0","pricing_plan_id":"free"},{"bike_id":"8919a1a3-6e69-49a3-9a2a-82959a7f4a8c","system_id":"levelo_inurba_marseille","lat":43.298764,"lon":5.388973,"is_reserved":false,"is_disabled":false,"rental_uris":{"android":"levelo://app?vid=8919a1a3-6e69-49a3-9a2a-82959a7f4a8c","ios":"levelo://app?vid=8919a1a3-6e69-49a3-9a2a-82959a7f4a8c"},"vehicle_type_id":"4","last_reported":1692831960,"current_range_meters":17200,"station_id":"ce4bh392rcd13ifvqdl0","pricing_plan_id":"free"},{"bike_id":"da940a22-066b-4d3f-86e9-2030dbdb4d94","system_id":"levelo_inurba_marseille","lat":43.30888,"lon":5.39645,"is_reserved":false,"is_disabled":false,"rental_uris":{"android":"levelo://app?vid=da940a22-066b-4d3f-86e9-2030dbdb4d94","ios":"levelo://app?vid=da940a22-066b-4d3f-86e9-2030dbdb4d94"},"vehicle_type_id":"4","last_reported":1692831960,"current_range_meters":6000,"station_id":"ce4bh012rcd13ifvqcv0","pricing_plan_id":"free"},{"bike_id":"6d0241da-f34a-47be-8b96-83c9274ff498","system_id":"levelo_inurba_marseille","lat":43.31342,"lon":5.39692,"is_reserved":false,"is_disabled":false,"rental_uris":{"android":"levelo://app?vid=6d0241da-f34a-47be-8b96-83c9274ff498","ios":"levelo://app?vid=6d0241da-f34a-47be-8b96-83c9274ff498"},"vehicle_type_id":"4","last_reported":1692831960,"current_range_meters":25600,"station_id":"ce4bgvp2rcd13ifvqcu0","pricing_plan_id":"free"},{"bike_id":"33948314-19c2-4cff-aa64-8b7f2180fee0","system_id":"levelo_inurba_marseille","lat":43.291889,"lon":5.35801,"is_reserved":false,"is_disabled":false,"rental_uris":{"android":"levelo://app?vid=33948314-19c2-4cff-aa64-8b7f2180fee0","ios":"levelo://app?vid=33948314-19c2-4cff-aa64-8b7f2180fee0"},"vehicle_type_id":"4","last_reported":1692831960,"current_range_meters":22000,"station_id":"ce4bhb12rcd13ifvqel0","pricing_plan_id":"free"},{"bike_id":"8a3658ce-1cba-4d9c-b806-0783e49410d8","system_id":"levelo_inurba_marseille","lat":43.31337,"lon":5.39696,"is_reserved":false,"is_disabled":false,"rental_uris":{"android":"levelo://app?vid=8a3658ce-1cba-4d9c-b806-0783e49410d8","ios":"levelo://app?vid=8a3658ce-1cba-4d9c-b806-0783e49410d8"},"vehicle_type_id":"4","last_reported":1692831960,"current_range_meters":14800,"station_id":"ce4bgvp2rcd13ifvqcu0","pricing_plan_id":"free"},{"bike_id":"fc1362ea-2b28-4277-9b97-3a330873f9c1","system_id":"levelo_inurba_marseille","lat":43.309038,"lon":5.396546,"is_reserved":false,"is_disabled":false,"rental_uris":{"android":"levelo://app?vid=fc1362ea-2b28-4277-9b97-3a330873f9c1","ios":"levelo://app?vid=fc1362ea-2b28-4277-9b97-3a330873f9c1"},"vehicle_type_id":"4","last_reported":1692831960,"current_range_meters":20000,"station_id":"ce4bh012rcd13ifvqcv0","pricing_plan_id":"free"},{"bike_id":"76391f75-8a50-4ea1-9c78-2b5222350cc8","system_id":"levelo_inurba_marseille","lat":43.313291,"lon":5.396838,"is_reserved":false,"is_disabled":false,"rental_uris":{"android":"levelo://app?vid=76391f75-8a50-4ea1-9c78-2b5222350cc8","ios":"levelo://app?vid=76391f75-8a50-4ea1-9c78-2b5222350cc8"},"vehicle_type_id":"4","last_reported":1692831960,"current_range_meters":15600,"station_id":"ce4bgvp2rcd13ifvqcu0","pricing_plan_id":"free"},{"bike_id":"36530337-74ce-4341-b862-4e84df848ead","system_id":"levelo_inurba_marseille","lat":43.309038,"lon":5.396546,"is_reserved":false,"is_disabled":false,"rental_uris":{"android":"levelo://app?vid=36530337-74ce-4341-b862-4e84df848ead","ios":"levelo://app?vid=36530337-74ce-4341-b862-4e84df848ead"},"vehicle_type_id":"4","last_reported":1692831960,"current_range_meters":19200,"station_id":"ce4bh012rcd13ifvqcv0","pricing_plan_id":"free"},{"bike_id":"4f0c0446-1f7e-4e3e-8e1e-cd9526c53add","system_id":"levelo_inurba_marseille","lat":43.309038,"lon":5.396546,"is_reserved":false,"is_disabled":false,"rental_uris":{"android":"levelo://app?vid=4f0c0446-1f7e-4e3e-8e1e-cd9526c53add","ios":"levelo://app?vid=4f0c0446-1f7e-4e3e-8e1e-cd9526c53add"},"vehicle_type_id":"4","last_reported":1692831960,"current_range_meters":25600,"station_id":"ce4bh012rcd13ifvqcv0","pricing_plan_id":"free"},{"bike_id":"4a74374e-e6df-4c5b-b59d-7042b698ed79","system_id":"levelo_inurba_marseille","lat":43.29529,"lon":5.385581,"is_reserved":false,"is_disabled":false,"rental_uris":{"android":"levelo://app?vid=4a74374e-e6df-4c5b-b59d-7042b698ed79","ios":"levelo://app?vid=4a74374e-e6df-4c5b-b59d-7042b698ed79"},"vehicle_type_id":"4","last_reported":1692831960,"current_range_meters":3200,"station_id":"ce4bgih2rcd13ifvqba0","pricing_plan_id":"free"},{"bike_id":"9e8fb0c5-aba8-4024-bc24-2d6048e1a61d","system_id":"levelo_inurba_marseille","lat":43.290779,"lon":5.371482,"is_reserved":false,"is_disabled":false,"rental_uris":{"android":"levelo://app?vid=9e8fb0c5-aba8-4024-bc24-2d6048e1a61d","ios":"levelo://app?vid=9e8fb0c5-aba8-4024-bc24-2d6048e1a61d"},"vehicle_type_id":"4","last_reported":1692831960,"current_range_meters":20000,"station_id":"ce4bh5p2rcd13ifvqe4g","pricing_plan_id":"free"},{"bike_id":"cc075ed5-a5c2-497c-a8fa-e8d45d536bce","system_id":"levelo_inurba_marseille","lat":43.290779,"lon":5.371482,"is_reserved":false,"is_disabled":false,"rental_uris":{"android":"levelo://app?vid=cc075ed5-a5c2-497c-a8fa-e8d45d536bce","ios":"levelo://app?vid=cc075ed5-a5c2-497c-a8fa-e8d45d536bce"},"vehicle_type_id":"4","last_reported":1692831960,"current_range_meters":16400,"station_id":"ce4bh5p2rcd13ifvqe4g","pricing_plan_id":"free"},{"bike_id":"c39f4eea-d1a0-445a-ba84-5e378b496967","system_id":"levelo_inurba_marseille","lat":43.290779,"lon":5.371482,"is_reserved":false,"is_disabled":false,"rental_uris":{"android":"levelo://app?vid=c39f4eea-d1a0-445a-ba84-5e378b496967","ios":"levelo://app?vid=c39f4eea-d1a0-445a-ba84-5e378b496967"},"vehicle_type_id":"4","last_reported":1692831960,"current_range_meters":14800,"station_id":"ce4bh5p2rcd13ifvqe4g","pricing_plan_id":"free"},{"bike_id":"489ba0a5-f407-4fa0-9047-7cc5ee5ee9b9","system_id":"levelo_inurba_marseille","lat":43.30217,"lon":5.39461,"is_reserved":false,"is_disabled":false,"rental_uris":{"android":"levelo://app?vid=489ba0a5-f407-4fa0-9047-7cc5ee5ee9b9","ios":"levelo://app?vid=489ba0a5-f407-4fa0-9047-7cc5ee5ee9b9"},"vehicle_type_id":"4","last_reported":1692831960,"current_range_meters":18000,"station_id":"ce4bh0p2rcd13ifvqd70","pricing_plan_id":"free"},{"bike_id":"39b5b5cf-86ef-48ea-a176-58e554756417","system_id":"levelo_inurba_marseille","lat":43.30206,"lon":5.39463,"is_reserved":false,"is_disabled":false,"rental_uris":{"android":"levelo://app?vid=39b5b5cf-86ef-48ea-a176-58e554756417","ios":"levelo://app?vid=39b5b5cf-86ef-48ea-a176-58e554756417"},"vehicle_type_id":"4","last_reported":1692831960,"current_range_meters":30400,"station_id":"ce4bh0p2rcd13ifvqd70","pricing_plan_id":"free"},{"bike_id":"eb40b504-fcb0-4841-bdb2-a44022b18250","system_id":"levelo_inurba_marseille","lat":43.302008,"lon":5.394694,"is_reserved":false,"is_disabled":false,"rental_uris":{"android":"levelo://app?vid=eb40b504-fcb0-4841-bdb2-a44022b18250","ios":"levelo://app?vid=eb40b504-fcb0-4841-bdb2-a44022b18250"},"vehicle_type_id":"4","last_reported":1692831960,"current_range_meters":19200,"station_id":"ce4bh0p2rcd13ifvqd70","pricing_plan_id":"free"},{"bike_id":"2433ad30-ac4b-453d-84a2-23410a1aeb8d","system_id":"levelo_inurba_marseille","lat":43.302008,"lon":5.394694,"is_reserved":false,"is_disabled":false,"rental_uris":{"android":"levelo://app?vid=2433ad30-ac4b-453d-84a2-23410a1aeb8d","ios":"levelo://app?vid=2433ad30-ac4b-453d-84a2-23410a1aeb8d"},"vehicle_type_id":"4","last_reported":1692831960,"current_range_meters":17600,"station_id":"ce4bh0p2rcd13ifvqd70","pricing_plan_id":"free"},{"bike_id":"a9ed1269-ac55-4823-9f46-4fc247d1d882","system_id":"levelo_inurba_marseille","lat":43.302008,"lon":5.394694,"is_reserved":false,"is_disabled":false,"rental_uris":{"android":"levelo://app?vid=a9ed1269-ac55-4823-9f46-4fc247d1d882","ios":"levelo://app?vid=a9ed1269-ac55-4823-9f46-4fc247d1d882"},"vehicle_type_id":"4","last_reported":1692831960,"current_range_meters":26000,"station_id":"ce4bh0p2rcd13ifvqd70","pricing_plan_id":"free"},{"bike_id":"fd2af928-b014-41c6-be32-1aada5697e3a","system_id":"levelo_inurba_marseille","lat":43.289184,"lon":5.366408,"is_reserved":false,"is_disabled":false,"rental_uris":{"android":"levelo://app?vid=fd2af928-b014-41c6-be32-1aada5697e3a","ios":"levelo://app?vid=fd2af928-b014-41c6-be32-1aada5697e3a"},"vehicle_type_id":"4","last_reported":1692831960,"current_range_meters":6000,"station_id":"ce4bhap2rcd13ifvqek0","pricing_plan_id":"free"},{"bike_id":"1b58876a-edd1-40ef-be28-e49227b748ac","system_id":"levelo_inurba_marseille","lat":43.29031,"lon":5.37569,"is_reserved":false,"is_disabled":false,"rental_uris":{"android":"levelo://app?vid=1b58876a-edd1-40ef-be28-e49227b748ac","ios":"levelo://app?vid=1b58876a-edd1-40ef-be28-e49227b748ac"},"vehicle_type_id":"4","last_reported":1692831960,"current_range_meters":0,"station_id":"ce4bh692rcd13ifvqe90","pricing_plan_id":"free"},{"bike_id":"5c671c2d-d30c-4655-9f31-bd430547aeb0","system_id":"levelo_inurba_marseille","lat":43.28938,"lon":5.36636,"is_reserved":false,"is_disabled":false,"rental_uris":{"android":"levelo://app?vid=5c671c2d-d30c-4655-9f31-bd430547aeb0","ios":"levelo://app?vid=5c671c2d-d30c-4655-9f31-bd430547aeb0"},"vehicle_type_id":"4","last_reported":1692831960,"current_range_meters":20800,"station_id":"ce4bhap2rcd13ifvqek0","pricing_plan_id":"free"},{"bike_id":"b67fb536-c325-41c7-8dbc-0d247844e842","system_id":"levelo_inurba_marseille","lat":43.290327,"lon":5.375711,"is_reserved":false,"is_disabled":false,"rental_uris":{"android":"levelo://app?vid=b67fb536-c325-41c7-8dbc-0d247844e842","ios":"levelo://app?vid=b67fb536-c325-41c7-8dbc-0d247844e842"},"vehicle_type_id":"4","last_reported":1692831960,"current_range_meters":4400,"station_id":"ce4bh692rcd13ifvqe90","pricing_plan_id":"free"},{"bike_id":"5126b9f4-3d14-4e4e-bdf7-f93fcc02894f","system_id":"levelo_inurba_marseille","lat":43.289184,"lon":5.366408,"is_reserved":false,"is_disabled":false,"rental_uris":{"android":"levelo://app?vid=5126b9f4-3d14-4e4e-bdf7-f93fcc02894f","ios":"levelo://app?vid=5126b9f4-3d14-4e4e-bdf7-f93fcc02894f"},"vehicle_type_id":"4","last_reported":1692831960,"current_range_meters":11200,"station_id":"ce4bhap2rcd13ifvqek0","pricing_plan_id":"free"},{"bike_id":"01ab38a3-2dce-4516-8c1f-771dad3fe9e4","system_id":"levelo_inurba_marseille","lat":43.289184,"lon":5.366408,"is_reserved":false,"is_disabled":false,"rental_uris":{"android":"levelo://app?vid=01ab38a3-2dce-4516-8c1f-771dad3fe9e4","ios":"levelo://app?vid=01ab38a3-2dce-4516-8c1f-771dad3fe9e4"},"vehicle_type_id":"4","last_reported":1692831960,"current_range_meters":0,"station_id":"ce4bhap2rcd13ifvqek0","pricing_plan_id":"free"},{"bike_id":"27f3ffa5-6574-447c-86b0-314cd0badcd8","system_id":"levelo_inurba_marseille","lat":43.289184,"lon":5.366408,"is_reserved":false,"is_disabled":false,"rental_uris":{"android":"levelo://app?vid=27f3ffa5-6574-447c-86b0-314cd0badcd8","ios":"levelo://app?vid=27f3ffa5-6574-447c-86b0-314cd0badcd8"},"vehicle_type_id":"4","last_reported":1692831960,"current_range_meters":8400,"station_id":"ce4bhap2rcd13ifvqek0","pricing_plan_id":"free"},{"bike_id":"b4d7cd26-5e08-436b-a1d4-9eb04023f82c","system_id":"levelo_inurba_marseille","lat":43.29021,"lon":5.37565,"is_reserved":false,"is_disabled":false,"rental_uris":{"android":"levelo://app?vid=b4d7cd26-5e08-436b-a1d4-9eb04023f82c","ios":"levelo://app?vid=b4d7cd26-5e08-436b-a1d4-9eb04023f82c"},"vehicle_type_id":"4","last_reported":1692831960,"current_range_meters":23200,"station_id":"ce4bh692rcd13ifvqe90","pricing_plan_id":"free"},{"bike_id":"ab73d391-b929-4ddb-8612-46936c80b79f","system_id":"levelo_inurba_marseille","lat":43.289184,"lon":5.366408,"is_reserved":false,"is_disabled":false,"rental_uris":{"android":"levelo://app?vid=ab73d391-b929-4ddb-8612-46936c80b79f","ios":"levelo://app?vid=ab73d391-b929-4ddb-8612-46936c80b79f"},"vehicle_type_id":"4","last_reported":1692831960,"current_range_meters":3200,"station_id":"ce4bhap2rcd13ifvqek0","pricing_plan_id":"free"},{"bike_id":"ce81bf7f-ae7e-4ea4-bd9a-b0c04769a396","system_id":"levelo_inurba_marseille","lat":43.289184,"lon":5.366408,"is_reserved":false,"is_disabled":false,"rental_uris":{"android":"levelo://app?vid=ce81bf7f-ae7e-4ea4-bd9a-b0c04769a396","ios":"levelo://app?vid=ce81bf7f-ae7e-4ea4-bd9a-b0c04769a396"},"vehicle_type_id":"4","last_reported":1692831960,"current_range_meters":22000,"station_id":"ce4bhap2rcd13ifvqek0","pricing_plan_id":"free"},{"bike_id":"fd4be355-1077-4ac6-94cd-0266c8da6b72","system_id":"levelo_inurba_marseille","lat":43.292642,"lon":5.384254,"is_reserved":false,"is_disabled":false,"rental_uris":{"android":"levelo://app?vid=fd4be355-1077-4ac6-94cd-0266c8da6b72","ios":"levelo://app?vid=fd4be355-1077-4ac6-94cd-0266c8da6b72"},"vehicle_type_id":"4","last_reported":1692831960,"current_range_meters":10800,"station_id":"ce4bh692rcd13ifvqea0","pricing_plan_id":"free"},{"bike_id":"237c1187-0b1e-4a6a-83f3-89fcb0ea5cea","system_id":"levelo_inurba_marseille","lat":43.292641,"lon":5.384387,"is_reserved":false,"is_disabled":false,"rental_uris":{"android":"levelo://app?vid=237c1187-0b1e-4a6a-83f3-89fcb0ea5cea","ios":"levelo://app?vid=237c1187-0b1e-4a6a-83f3-89fcb0ea5cea"},"vehicle_type_id":"4","last_reported":1692831960,"current_range_meters":0,"station_id":"ce4bgt92rcd13ifvqcg0","pricing_plan_id":"free"},{"bike_id":"b7a3cc8f-088b-409d-9c2c-52262c499e3f","system_id":"levelo_inurba_marseille","lat":43.292644,"lon":5.384257,"is_reserved":false,"is_disabled":false,"rental_uris":{"android":"levelo://app?vid=b7a3cc8f-088b-409d-9c2c-52262c499e3f","ios":"levelo://app?vid=b7a3cc8f-088b-409d-9c2c-52262c499e3f"},"vehicle_type_id":"4","last_reported":1692831960,"current_range_meters":400,"station_id":"ce4bh692rcd13ifvqea0","pricing_plan_id":"free"},{"bike_id":"1c07e25f-84db-4513-bedb-11b97c6ec9b6","system_id":"levelo_inurba_marseille","lat":43.33039,"lon":5.38917,"is_reserved":false,"is_disabled":false,"rental_uris":{"android":"levelo://app?vid=1c07e25f-84db-4513-bedb-11b97c6ec9b6","ios":"levelo://app?vid=1c07e25f-84db-4513-bedb-11b97c6ec9b6"},"vehicle_type_id":"4","last_reported":1692831960,"current_range_meters":6400,"station_id":"ce4bhr92rcd13ifvqhrg","pricing_plan_id":"free"},{"bike_id":"33a74228-ed2d-4fd0-bf1b-8fb5bd373a96","system_id":"levelo_inurba_marseille","lat":43.33039,"lon":5.38917,"is_reserved":false,"is_disabled":false,"rental_uris":{"android":"levelo://app?vid=33a74228-ed2d-4fd0-bf1b-8fb5bd373a96","ios":"levelo://app?vid=33a74228-ed2d-4fd0-bf1b-8fb5bd373a96"},"vehicle_type_id":"4","last_reported":1692831960,"current_range_meters":30000,"station_id":"ce4bhr92rcd13ifvqhrg","pricing_plan_id":"free"},{"bike_id":"cde08171-d87e-45a5-a8d0-c519ab926fc6","system_id":"levelo_inurba_marseille","lat":43.3304,"lon":5.38917,"is_reserved":false,"is_disabled":false,"rental_uris":{"android":"levelo://app?vid=cde08171-d87e-45a5-a8d0-c519ab926fc6","ios":"levelo://app?vid=cde08171-d87e-45a5-a8d0-c519ab926fc6"},"vehicle_type_id":"4","last_reported":1692831960,"current_range_meters":0,"station_id":"ce4bhr92rcd13ifvqhrg","pricing_plan_id":"free"},{"bike_id":"8b9f9b54-2e03-4d4e-bfd8-a7cfda03648a","system_id":"levelo_inurba_marseille","lat":43.33041,"lon":5.38918,"is_reserved":false,"is_disabled":false,"rental_uris":{"android":"levelo://app?vid=8b9f9b54-2e03-4d4e-bfd8-a7cfda03648a","ios":"levelo://app?vid=8b9f9b54-2e03-4d4e-bfd8-a7cfda03648a"},"vehicle_type_id":"4","last_reported":1692831960,"current_range_meters":25200,"station_id":"ce4bhr92rcd13ifvqhrg","pricing_plan_id":"free"},{"bike_id":"81bdd50f-e2c9-4875-93b8-ce66b1f39ff9","system_id":"levelo_inurba_marseille","lat":43.33041,"lon":5.38918,"is_reserved":false,"is_disabled":false,"rental_uris":{"android":"levelo://app?vid=81bdd50f-e2c9-4875-93b8-ce66b1f39ff9","ios":"levelo://app?vid=81bdd50f-e2c9-4875-93b8-ce66b1f39ff9"},"vehicle_type_id":"4","last_reported":1692831960,"current_range_meters":12400,"station_id":"ce4bhr92rcd13ifvqhrg","pricing_plan_id":"free"},{"bike_id":"883002d6-96d7-4961-a7c4-8d902095e50b","system_id":"levelo_inurba_marseille","lat":43.33043,"lon":5.38918,"is_reserved":false,"is_disabled":false,"rental_uris":{"android":"levelo://app?vid=883002d6-96d7-4961-a7c4-8d902095e50b","ios":"levelo://app?vid=883002d6-96d7-4961-a7c4-8d902095e50b"},"vehicle_type_id":"4","last_reported":1692831960,"current_range_meters":0,"station_id":"ce4bhr92rcd13ifvqhrg","pricing_plan_id":"free"},{"bike_id":"5f4f9907-0787-4bf8-8a56-fcaa0a043375","system_id":"levelo_inurba_marseille","lat":43.33037,"lon":5.38927,"is_reserved":false,"is_disabled":false,"rental_uris":{"android":"levelo://app?vid=5f4f9907-0787-4bf8-8a56-fcaa0a043375","ios":"levelo://app?vid=5f4f9907-0787-4bf8-8a56-fcaa0a043375"},"vehicle_type_id":"4","last_reported":1692831960,"current_range_meters":19200,"station_id":"ce4bhr92rcd13ifvqhrg","pricing_plan_id":"free"},{"bike_id":"0678614f-d9b2-44c2-a7b9-100783d9a08c","system_id":"levelo_inurba_marseille","lat":43.290104,"lon":5.356111,"is_reserved":false,"is_disabled":false,"rental_uris":{"android":"levelo://app?vid=0678614f-d9b2-44c2-a7b9-100783d9a08c","ios":"levelo://app?vid=0678614f-d9b2-44c2-a7b9-100783d9a08c"},"vehicle_type_id":"4","last_reported":1692831960,"current_range_meters":30400,"station_id":"ce4bhb92rcd13ifvqen0","pricing_plan_id":"free"},{"bike_id":"73e30c8d-1fec-42fa-994e-db63cd20ad16","system_id":"levelo_inurba_marseille","lat":43.33042,"lon":5.38921,"is_reserved":false,"is_disabled":false,"rental_uris":{"android":"levelo://app?vid=73e30c8d-1fec-42fa-994e-db63cd20ad16","ios":"levelo://app?vid=73e30c8d-1fec-42fa-994e-db63cd20ad16"},"vehicle_type_id":"4","last_reported":1692831960,"current_range_meters":23200,"station_id":"ce4bhr92rcd13ifvqhrg","pricing_plan_id":"free"},{"bike_id":"e08ad540-1b1b-4cb0-8265-da43b607be1e","system_id":"levelo_inurba_marseille","lat":43.33044,"lon":5.3892,"is_reserved":false,"is_disabled":false,"rental_uris":{"android":"levelo://app?vid=e08ad540-1b1b-4cb0-8265-da43b607be1e","ios":"levelo://app?vid=e08ad540-1b1b-4cb0-8265-da43b607be1e"},"vehicle_type_id":"4","last_reported":1692831960,"current_range_meters":14800,"station_id":"ce4bhr92rcd13ifvqhrg","pricing_plan_id":"free"},{"bike_id":"165a796c-a566-411e-b065-ae6f88409351","system_id":"levelo_inurba_marseille","lat":43.33044,"lon":5.38921,"is_reserved":false,"is_disabled":false,"rental_uris":{"android":"levelo://app?vid=165a796c-a566-411e-b065-ae6f88409351","ios":"levelo://app?vid=165a796c-a566-411e-b065-ae6f88409351"},"vehicle_type_id":"4","last_reported":1692831960,"current_range_meters":30400,"station_id":"ce4bhr92rcd13ifvqhrg","pricing_plan_id":"free"},{"bike_id":"fc185438-635c-4e8c-bfbf-0622c5361150","system_id":"levelo_inurba_marseille","lat":43.30483,"lon":5.39808,"is_reserved":false,"is_disabled":false,"rental_uris":{"android":"levelo://app?vid=fc185438-635c-4e8c-bfbf-0622c5361150","ios":"levelo://app?vid=fc185438-635c-4e8c-bfbf-0622c5361150"},"vehicle_type_id":"4","last_reported":1692831960,"current_range_meters":16800,"station_id":"","pricing_plan_id":"free"},{"bike_id":"660a9c61-eecd-47bf-bd41-67b6ed58dd12","system_id":"levelo_inurba_marseille","lat":43.33047,"lon":5.38923,"is_reserved":false,"is_disabled":false,"rental_uris":{"android":"levelo://app?vid=660a9c61-eecd-47bf-bd41-67b6ed58dd12","ios":"levelo://app?vid=660a9c61-eecd-47bf-bd41-67b6ed58dd12"},"vehicle_type_id":"4","last_reported":1692831960,"current_range_meters":2000,"station_id":"ce4bhr92rcd13ifvqhrg","pricing_plan_id":"free"},{"bike_id":"5f0f9e06-f142-4f1b-8b36-19d0c65bd445","system_id":"levelo_inurba_marseille","lat":43.290995,"lon":5.381361,"is_reserved":false,"is_disabled":false,"rental_uris":{"android":"levelo://app?vid=5f0f9e06-f142-4f1b-8b36-19d0c65bd445","ios":"levelo://app?vid=5f0f9e06-f142-4f1b-8b36-19d0c65bd445"},"vehicle_type_id":"4","last_reported":1692831960,"current_range_meters":28000,"station_id":"ce4bh512rcd13ifvqe2g","pricing_plan_id":"free"},{"bike_id":"b6e84e87-c8a1-4edd-bfc3-3662345539c1","system_id":"levelo_inurba_marseille","lat":43.29781,"lon":5.39362,"is_reserved":false,"is_disabled":false,"rental_uris":{"android":"levelo://app?vid=b6e84e87-c8a1-4edd-bfc3-3662345539c1","ios":"levelo://app?vid=b6e84e87-c8a1-4edd-bfc3-3662345539c1"},"vehicle_type_id":"4","last_reported":1692831960,"current_range_meters":800,"station_id":"chh1huq6cuj3fo74tm60","pricing_plan_id":"free"},{"bike_id":"042e8c41-b25a-4d00-a805-f0efc3e58bba","system_id":"levelo_inurba_marseille","lat":43.290094,"lon":5.381264,"is_reserved":false,"is_disabled":false,"rental_uris":{"android":"levelo://app?vid=042e8c41-b25a-4d00-a805-f0efc3e58bba","ios":"levelo://app?vid=042e8c41-b25a-4d00-a805-f0efc3e58bba"},"vehicle_type_id":"4","last_reported":1692831960,"current_range_meters":19200,"station_id":"ce4bh4p2rcd13ifvqe1g","pricing_plan_id":"free"},{"bike_id":"ff78f34c-014f-47fc-aee1-adfa60b9283d","system_id":"levelo_inurba_marseille","lat":43.2901,"lon":5.381269,"is_reserved":false,"is_disabled":false,"rental_uris":{"android":"levelo://app?vid=ff78f34c-014f-47fc-aee1-adfa60b9283d","ios":"levelo://app?vid=ff78f34c-014f-47fc-aee1-adfa60b9283d"},"vehicle_type_id":"4","last_reported":1692831960,"current_range_meters":0,"station_id":"ce4bh4p2rcd13ifvqe1g","pricing_plan_id":"free"},{"bike_id":"a93b206e-f800-4386-8c52-2411543a8c63","system_id":"levelo_inurba_marseille","lat":43.290094,"lon":5.381264,"is_reserved":false,"is_disabled":false,"rental_uris":{"android":"levelo://app?vid=a93b206e-f800-4386-8c52-2411543a8c63","ios":"levelo://app?vid=a93b206e-f800-4386-8c52-2411543a8c63"},"vehicle_type_id":"4","last_reported":1692831960,"current_range_meters":6000,"station_id":"ce4bh4p2rcd13ifvqe1g","pricing_plan_id":"free"},{"bike_id":"b8ba78ad-9094-4b4f-93be-7ff0fa48551a","system_id":"levelo_inurba_marseille","lat":43.28856,"lon":5.358371,"is_reserved":false,"is_disabled":false,"rental_uris":{"android":"levelo://app?vid=b8ba78ad-9094-4b4f-93be-7ff0fa48551a","ios":"levelo://app?vid=b8ba78ad-9094-4b4f-93be-7ff0fa48551a"},"vehicle_type_id":"4","last_reported":1692831960,"current_range_meters":6400,"station_id":"ce4bhb12rcd13ifvqem0","pricing_plan_id":"free"},{"bike_id":"a0ad5cbe-fb98-4625-a674-691fc68ef5bc","system_id":"levelo_inurba_marseille","lat":43.28841,"lon":5.35854,"is_reserved":false,"is_disabled":false,"rental_uris":{"android":"levelo://app?vid=a0ad5cbe-fb98-4625-a674-691fc68ef5bc","ios":"levelo://app?vid=a0ad5cbe-fb98-4625-a674-691fc68ef5bc"},"vehicle_type_id":"4","last_reported":1692831960,"current_range_meters":20800,"station_id":"ce4bhb12rcd13ifvqem0","pricing_plan_id":"free"},{"bike_id":"95045bb8-7e3d-4196-9a31-688306c8a66a","system_id":"levelo_inurba_marseille","lat":43.312359,"lon":5.401632,"is_reserved":false,"is_disabled":false,"rental_uris":{"android":"levelo://app?vid=95045bb8-7e3d-4196-9a31-688306c8a66a","ios":"levelo://app?vid=95045bb8-7e3d-4196-9a31-688306c8a66a"},"vehicle_type_id":"4","last_reported":1692831960,"current_range_meters":2000,"station_id":"","pricing_plan_id":"free"},{"bike_id":"9a4f38e4-0bcd-4b4a-8d07-98f583160b85","system_id":"levelo_inurba_marseille","lat":43.31274,"lon":5.4017,"is_reserved":false,"is_disabled":false,"rental_uris":{"android":"levelo://app?vid=9a4f38e4-0bcd-4b4a-8d07-98f583160b85","ios":"levelo://app?vid=9a4f38e4-0bcd-4b4a-8d07-98f583160b85"},"vehicle_type_id":"4","last_reported":1692831960,"current_range_meters":5200,"station_id":"ce4bh092rcd13ifvqd30","pricing_plan_id":"free"},{"bike_id":"eaec9dad-66af-4717-8f5e-7496678cd2d8","system_id":"levelo_inurba_marseille","lat":43.309371,"lon":5.401449,"is_reserved":false,"is_disabled":false,"rental_uris":{"android":"levelo://app?vid=eaec9dad-66af-4717-8f5e-7496678cd2d8","ios":"levelo://app?vid=eaec9dad-66af-4717-8f5e-7496678cd2d8"},"vehicle_type_id":"4","last_reported":1692831960,"current_range_meters":24400,"station_id":"ce4bgvp2rcd13ifvqct0","pricing_plan_id":"free"},{"bike_id":"3f09c4b3-cd69-4220-b677-37b43644e024","system_id":"levelo_inurba_marseille","lat":43.30926,"lon":5.40142,"is_reserved":false,"is_disabled":false,"rental_uris":{"android":"levelo://app?vid=3f09c4b3-cd69-4220-b677-37b43644e024","ios":"levelo://app?vid=3f09c4b3-cd69-4220-b677-37b43644e024"},"vehicle_type_id":"4","last_reported":1692831960,"current_range_meters":30000,"station_id":"ce4bgvp2rcd13ifvqct0","pricing_plan_id":"free"},{"bike_id":"b7f60c49-1d26-4e2c-baf2-2299aa6e1adc","system_id":"levelo_inurba_marseille","lat":43.30935,"lon":5.40144,"is_reserved":false,"is_disabled":false,"rental_uris":{"android":"levelo://app?vid=b7f60c49-1d26-4e2c-baf2-2299aa6e1adc","ios":"levelo://app?vid=b7f60c49-1d26-4e2c-baf2-2299aa6e1adc"},"vehicle_type_id":"4","last_reported":1692831960,"current_range_meters":400,"station_id":"ce4bgvp2rcd13ifvqct0","pricing_plan_id":"free"},{"bike_id":"550fda9a-ff93-4f02-bbf5-04874a4450d4","system_id":"levelo_inurba_marseille","lat":43.31272,"lon":5.40177,"is_reserved":false,"is_disabled":false,"rental_uris":{"android":"levelo://app?vid=550fda9a-ff93-4f02-bbf5-04874a4450d4","ios":"levelo://app?vid=550fda9a-ff93-4f02-bbf5-04874a4450d4"},"vehicle_type_id":"4","last_reported":1692831960,"current_range_meters":24800,"station_id":"ce4bh092rcd13ifvqd30","pricing_plan_id":"free"},{"bike_id":"90268d05-5bf9-4ad8-aab0-78842acef7e5","system_id":"levelo_inurba_marseille","lat":43.312609,"lon":5.401662,"is_reserved":false,"is_disabled":false,"rental_uris":{"android":"levelo://app?vid=90268d05-5bf9-4ad8-aab0-78842acef7e5","ios":"levelo://app?vid=90268d05-5bf9-4ad8-aab0-78842acef7e5"},"vehicle_type_id":"4","last_reported":1692831960,"current_range_meters":400,"station_id":"ce4bh092rcd13ifvqd30","pricing_plan_id":"free"},{"bike_id":"0f8cae40-b212-4574-8899-f0136f6ec52a","system_id":"levelo_inurba_marseille","lat":43.3092,"lon":5.40144,"is_reserved":false,"is_disabled":false,"rental_uris":{"android":"levelo://app?vid=0f8cae40-b212-4574-8899-f0136f6ec52a","ios":"levelo://app?vid=0f8cae40-b212-4574-8899-f0136f6ec52a"},"vehicle_type_id":"4","last_reported":1692831960,"current_range_meters":15600,"station_id":"ce4bgvp2rcd13ifvqct0","pricing_plan_id":"free"},{"bike_id":"5078e4fb-593c-4e9c-9867-6afbc20b5a3a","system_id":"levelo_inurba_marseille","lat":43.3093,"lon":5.40147,"is_reserved":false,"is_disabled":false,"rental_uris":{"android":"levelo://app?vid=5078e4fb-593c-4e9c-9867-6afbc20b5a3a","ios":"levelo://app?vid=5078e4fb-593c-4e9c-9867-6afbc20b5a3a"},"vehicle_type_id":"4","last_reported":1692831960,"current_range_meters":9600,"station_id":"ce4bgvp2rcd13ifvqct0","pricing_plan_id":"free"},{"bike_id":"41b3e0bf-ff23-4e5e-9c25-5a135e28dc06","system_id":"levelo_inurba_marseille","lat":43.30931,"lon":5.40148,"is_reserved":false,"is_disabled":false,"rental_uris":{"android":"levelo://app?vid=41b3e0bf-ff23-4e5e-9c25-5a135e28dc06","ios":"levelo://app?vid=41b3e0bf-ff23-4e5e-9c25-5a135e28dc06"},"vehicle_type_id":"4","last_reported":1692831960,"current_range_meters":18000,"station_id":"ce4bgvp2rcd13ifvqct0","pricing_plan_id":"free"},{"bike_id":"43bcbe70-ee45-4572-984e-23ced66a5b6e","system_id":"levelo_inurba_marseille","lat":43.31273,"lon":5.40182,"is_reserved":false,"is_disabled":false,"rental_uris":{"android":"levelo://app?vid=43bcbe70-ee45-4572-984e-23ced66a5b6e","ios":"levelo://app?vid=43bcbe70-ee45-4572-984e-23ced66a5b6e"},"vehicle_type_id":"4","last_reported":1692831960,"current_range_meters":8800,"station_id":"ce4bh092rcd13ifvqd30","pricing_plan_id":"free"},{"bike_id":"90ca258f-7d5a-49dd-9747-2e0ca7382964","system_id":"levelo_inurba_marseille","lat":43.30642,"lon":5.401031,"is_reserved":false,"is_disabled":false,"rental_uris":{"android":"levelo://app?vid=90ca258f-7d5a-49dd-9747-2e0ca7382964","ios":"levelo://app?vid=90ca258f-7d5a-49dd-9747-2e0ca7382964"},"vehicle_type_id":"4","last_reported":1692831960,"current_range_meters":4400,"station_id":"ce4bh112rcd13ifvqda0","pricing_plan_id":"free"},{"bike_id":"9f5b2968-eac6-4e55-8c49-81da9f944577","system_id":"levelo_inurba_marseille","lat":43.30652,"lon":5.40082,"is_reserved":false,"is_disabled":false,"rental_uris":{"android":"levelo://app?vid=9f5b2968-eac6-4e55-8c49-81da9f944577","ios":"levelo://app?vid=9f5b2968-eac6-4e55-8c49-81da9f944577"},"vehicle_type_id":"4","last_reported":1692831960,"current_range_meters":22400,"station_id":"ce4bh112rcd13ifvqda0","pricing_plan_id":"free"},{"bike_id":"4092bf01-da72-482f-a7fe-f425bad0c96a","system_id":"levelo_inurba_marseille","lat":43.30648,"lon":5.40084,"is_reserved":false,"is_disabled":false,"rental_uris":{"android":"levelo://app?vid=4092bf01-da72-482f-a7fe-f425bad0c96a","ios":"levelo://app?vid=4092bf01-da72-482f-a7fe-f425bad0c96a"},"vehicle_type_id":"4","last_reported":1692831960,"current_range_meters":25200,"station_id":"ce4bh112rcd13ifvqda0","pricing_plan_id":"free"},{"bike_id":"b75a64e9-4daf-4c10-93c3-88c227ea6aff","system_id":"levelo_inurba_marseille","lat":43.30635,"lon":5.40094,"is_reserved":false,"is_disabled":false,"rental_uris":{"android":"levelo://app?vid=b75a64e9-4daf-4c10-93c3-88c227ea6aff","ios":"levelo://app?vid=b75a64e9-4daf-4c10-93c3-88c227ea6aff"},"vehicle_type_id":"4","last_reported":1692831960,"current_range_meters":0,"station_id":"ce4bh112rcd13ifvqda0","pricing_plan_id":"free"},{"bike_id":"53f29205-328d-47fb-b3fc-b738fd6c2a42","system_id":"levelo_inurba_marseille","lat":43.301117,"lon":5.398795,"is_reserved":false,"is_disabled":false,"rental_uris":{"android":"levelo://app?vid=53f29205-328d-47fb-b3fc-b738fd6c2a42","ios":"levelo://app?vid=53f29205-328d-47fb-b3fc-b738fd6c2a42"},"vehicle_type_id":"4","last_reported":1692831960,"current_range_meters":4800,"station_id":"ce4bh0h2rcd13ifvqd40","pricing_plan_id":"free"},{"bike_id":"93424f78-8e1e-43a0-a353-1ec2433659c7","system_id":"levelo_inurba_marseille","lat":43.30294,"lon":5.39957,"is_reserved":false,"is_disabled":false,"rental_uris":{"android":"levelo://app?vid=93424f78-8e1e-43a0-a353-1ec2433659c7","ios":"levelo://app?vid=93424f78-8e1e-43a0-a353-1ec2433659c7"},"vehicle_type_id":"4","last_reported":1692831960,"current_range_meters":14000,"station_id":"","pricing_plan_id":"free"},{"bike_id":"33a22fe1-6d45-474c-b3cd-41a14d761ab1","system_id":"levelo_inurba_marseille","lat":43.301117,"lon":5.398795,"is_reserved":false,"is_disabled":false,"rental_uris":{"android":"levelo://app?vid=33a22fe1-6d45-474c-b3cd-41a14d761ab1","ios":"levelo://app?vid=33a22fe1-6d45-474c-b3cd-41a14d761ab1"},"vehicle_type_id":"4","last_reported":1692831960,"current_range_meters":29200,"station_id":"ce4bh0h2rcd13ifvqd40","pricing_plan_id":"free"},{"bike_id":"81843aeb-c6d6-42b1-84d7-e2897925a28f","system_id":"levelo_inurba_marseille","lat":43.301117,"lon":5.398795,"is_reserved":false,"is_disabled":false,"rental_uris":{"android":"levelo://app?vid=81843aeb-c6d6-42b1-84d7-e2897925a28f","ios":"levelo://app?vid=81843aeb-c6d6-42b1-84d7-e2897925a28f"},"vehicle_type_id":"4","last_reported":1692831960,"current_range_meters":5600,"station_id":"ce4bh0h2rcd13ifvqd40","pricing_plan_id":"free"},{"bike_id":"f17dcef1-050e-4a16-a595-0a49f93ea2ee","system_id":"levelo_inurba_marseille","lat":43.301117,"lon":5.398795,"is_reserved":false,"is_disabled":false,"rental_uris":{"android":"levelo://app?vid=f17dcef1-050e-4a16-a595-0a49f93ea2ee","ios":"levelo://app?vid=f17dcef1-050e-4a16-a595-0a49f93ea2ee"},"vehicle_type_id":"4","last_reported":1692831960,"current_range_meters":3600,"station_id":"ce4bh0h2rcd13ifvqd40","pricing_plan_id":"free"},{"bike_id":"0c0cdd35-e17f-4289-8cea-ed40b437842a","system_id":"levelo_inurba_marseille","lat":43.301117,"lon":5.398795,"is_reserved":false,"is_disabled":false,"rental_uris":{"android":"levelo://app?vid=0c0cdd35-e17f-4289-8cea-ed40b437842a","ios":"levelo://app?vid=0c0cdd35-e17f-4289-8cea-ed40b437842a"},"vehicle_type_id":"4","last_reported":1692831960,"current_range_meters":6800,"station_id":"ce4bh0h2rcd13ifvqd40","pricing_plan_id":"free"},{"bike_id":"e23c9617-0635-41d3-bf20-7240041a017f","system_id":"levelo_inurba_marseille","lat":43.286961,"lon":5.373785,"is_reserved":false,"is_disabled":false,"rental_uris":{"android":"levelo://app?vid=e23c9617-0635-41d3-bf20-7240041a017f","ios":"levelo://app?vid=e23c9617-0635-41d3-bf20-7240041a017f"},"vehicle_type_id":"4","last_reported":1692831960,"current_range_meters":12800,"station_id":"ce4bh3p2rcd13ifvqdq0","pricing_plan_id":"free"},{"bike_id":"cb999581-2d46-4542-8fb6-e52c0f490f37","system_id":"levelo_inurba_marseille","lat":43.28674,"lon":5.36346,"is_reserved":false,"is_disabled":false,"rental_uris":{"android":"levelo://app?vid=cb999581-2d46-4542-8fb6-e52c0f490f37","ios":"levelo://app?vid=cb999581-2d46-4542-8fb6-e52c0f490f37"},"vehicle_type_id":"4","last_reported":1692831960,"current_range_meters":0,"station_id":"ce4bhah2rcd13ifvqej0","pricing_plan_id":"free"},{"bike_id":"c09759b6-8008-4ad9-9776-2e474a4ac005","system_id":"levelo_inurba_marseille","lat":43.304188,"lon":5.412904,"is_reserved":false,"is_disabled":false,"rental_uris":{"android":"levelo://app?vid=c09759b6-8008-4ad9-9776-2e474a4ac005","ios":"levelo://app?vid=c09759b6-8008-4ad9-9776-2e474a4ac005"},"vehicle_type_id":"4","last_reported":1692831960,"current_range_meters":12800,"station_id":"ce4bhop2rcd13ifvqh8g","pricing_plan_id":"free"},{"bike_id":"183de52f-47b3-44ab-b7c9-601b04490307","system_id":"levelo_inurba_marseille","lat":43.286961,"lon":5.373785,"is_reserved":false,"is_disabled":false,"rental_uris":{"android":"levelo://app?vid=183de52f-47b3-44ab-b7c9-601b04490307","ios":"levelo://app?vid=183de52f-47b3-44ab-b7c9-601b04490307"},"vehicle_type_id":"4","last_reported":1692831960,"current_range_meters":31200,"station_id":"ce4bh3p2rcd13ifvqdq0","pricing_plan_id":"free"},{"bike_id":"58053526-dee0-4699-9a67-67f95bba0f99","system_id":"levelo_inurba_marseille","lat":43.286961,"lon":5.373785,"is_reserved":false,"is_disabled":false,"rental_uris":{"android":"levelo://app?vid=58053526-dee0-4699-9a67-67f95bba0f99","ios":"levelo://app?vid=58053526-dee0-4699-9a67-67f95bba0f99"},"vehicle_type_id":"4","last_reported":1692831960,"current_range_meters":24000,"station_id":"ce4bh3p2rcd13ifvqdq0","pricing_plan_id":"free"},{"bike_id":"75199276-b705-4ad7-b6a9-49aeaa84628a","system_id":"levelo_inurba_marseille","lat":43.286591,"lon":5.363346,"is_reserved":false,"is_disabled":false,"rental_uris":{"android":"levelo://app?vid=75199276-b705-4ad7-b6a9-49aeaa84628a","ios":"levelo://app?vid=75199276-b705-4ad7-b6a9-49aeaa84628a"},"vehicle_type_id":"4","last_reported":1692831960,"current_range_meters":28800,"station_id":"ce4bhah2rcd13ifvqej0","pricing_plan_id":"free"},{"bike_id":"f2aa3bec-0d7a-429a-857e-65231638ecd2","system_id":"levelo_inurba_marseille","lat":43.28667,"lon":5.36354,"is_reserved":false,"is_disabled":false,"rental_uris":{"android":"levelo://app?vid=f2aa3bec-0d7a-429a-857e-65231638ecd2","ios":"levelo://app?vid=f2aa3bec-0d7a-429a-857e-65231638ecd2"},"vehicle_type_id":"4","last_reported":1692831960,"current_range_meters":25200,"station_id":"ce4bhah2rcd13ifvqej0","pricing_plan_id":"free"},{"bike_id":"283b8dfd-6a30-4ea2-8ee4-6815314329ad","system_id":"levelo_inurba_marseille","lat":43.286961,"lon":5.373785,"is_reserved":false,"is_disabled":false,"rental_uris":{"android":"levelo://app?vid=283b8dfd-6a30-4ea2-8ee4-6815314329ad","ios":"levelo://app?vid=283b8dfd-6a30-4ea2-8ee4-6815314329ad"},"vehicle_type_id":"4","last_reported":1692831960,"current_range_meters":28400,"station_id":"ce4bh3p2rcd13ifvqdq0","pricing_plan_id":"free"},{"bike_id":"65501e42-dc6b-4ea1-8292-5b4213d4840d","system_id":"levelo_inurba_marseille","lat":43.286961,"lon":5.373785,"is_reserved":false,"is_disabled":false,"rental_uris":{"android":"levelo://app?vid=65501e42-dc6b-4ea1-8292-5b4213d4840d","ios":"levelo://app?vid=65501e42-dc6b-4ea1-8292-5b4213d4840d"},"vehicle_type_id":"4","last_reported":1692831960,"current_range_meters":11600,"station_id":"ce4bh3p2rcd13ifvqdq0","pricing_plan_id":"free"},{"bike_id":"0a54048b-2f3f-4e28-ba14-8208142dfbff","system_id":"levelo_inurba_marseille","lat":43.286591,"lon":5.363346,"is_reserved":false,"is_disabled":false,"rental_uris":{"android":"levelo://app?vid=0a54048b-2f3f-4e28-ba14-8208142dfbff","ios":"levelo://app?vid=0a54048b-2f3f-4e28-ba14-8208142dfbff"},"vehicle_type_id":"4","last_reported":1692831960,"current_range_meters":25600,"station_id":"ce4bhah2rcd13ifvqej0","pricing_plan_id":"free"},{"bike_id":"8cdfc280-0deb-49dc-8757-701665f78027","system_id":"levelo_inurba_marseille","lat":43.286961,"lon":5.373785,"is_reserved":false,"is_disabled":false,"rental_uris":{"android":"levelo://app?vid=8cdfc280-0deb-49dc-8757-701665f78027","ios":"levelo://app?vid=8cdfc280-0deb-49dc-8757-701665f78027"},"vehicle_type_id":"4","last_reported":1692831960,"current_range_meters":12000,"station_id":"ce4bh3p2rcd13ifvqdq0","pricing_plan_id":"free"},{"bike_id":"7d30df61-e2e3-4165-a4dd-17016d2ecb7b","system_id":"levelo_inurba_marseille","lat":43.286961,"lon":5.373785,"is_reserved":false,"is_disabled":false,"rental_uris":{"android":"levelo://app?vid=7d30df61-e2e3-4165-a4dd-17016d2ecb7b","ios":"levelo://app?vid=7d30df61-e2e3-4165-a4dd-17016d2ecb7b"},"vehicle_type_id":"4","last_reported":1692831960,"current_range_meters":3200,"station_id":"ce4bh3p2rcd13ifvqdq0","pricing_plan_id":"free"},{"bike_id":"11c23f52-7244-4c49-ae7b-39b3c5e7ac06","system_id":"levelo_inurba_marseille","lat":43.290345,"lon":5.38646,"is_reserved":false,"is_disabled":false,"rental_uris":{"android":"levelo://app?vid=11c23f52-7244-4c49-ae7b-39b3c5e7ac06","ios":"levelo://app?vid=11c23f52-7244-4c49-ae7b-39b3c5e7ac06"},"vehicle_type_id":"4","last_reported":1692831960,"current_range_meters":31200,"station_id":"ce4bh4p2rcd13ifvqe0g","pricing_plan_id":"free"},{"bike_id":"ab2d198f-d85f-470d-8507-8a0b2df6b1a5","system_id":"levelo_inurba_marseille","lat":43.302759,"lon":5.400793,"is_reserved":false,"is_disabled":false,"rental_uris":{"android":"levelo://app?vid=ab2d198f-d85f-470d-8507-8a0b2df6b1a5","ios":"levelo://app?vid=ab2d198f-d85f-470d-8507-8a0b2df6b1a5"},"vehicle_type_id":"4","last_reported":1692831960,"current_range_meters":29200,"station_id":"ce4bgvh2rcd13ifvqcs0","pricing_plan_id":"free"},{"bike_id":"62ca3a60-997e-4292-ac6f-83c345a94248","system_id":"levelo_inurba_marseille","lat":43.302759,"lon":5.400793,"is_reserved":false,"is_disabled":false,"rental_uris":{"android":"levelo://app?vid=62ca3a60-997e-4292-ac6f-83c345a94248","ios":"levelo://app?vid=62ca3a60-997e-4292-ac6f-83c345a94248"},"vehicle_type_id":"4","last_reported":1692831960,"current_range_meters":18800,"station_id":"ce4bgvh2rcd13ifvqcs0","pricing_plan_id":"free"},{"bike_id":"f7b91c7f-6c51-4ae3-8065-1a7606c2c638","system_id":"levelo_inurba_marseille","lat":43.30246,"lon":5.40064,"is_reserved":false,"is_disabled":false,"rental_uris":{"android":"levelo://app?vid=f7b91c7f-6c51-4ae3-8065-1a7606c2c638","ios":"levelo://app?vid=f7b91c7f-6c51-4ae3-8065-1a7606c2c638"},"vehicle_type_id":"4","last_reported":1692831960,"current_range_meters":0,"station_id":"ce4bgvh2rcd13ifvqcs0","pricing_plan_id":"free"},{"bike_id":"a2312b18-a31f-46e5-98fb-905ffff5ce1d","system_id":"levelo_inurba_marseille","lat":43.302759,"lon":5.400793,"is_reserved":false,"is_disabled":false,"rental_uris":{"android":"levelo://app?vid=a2312b18-a31f-46e5-98fb-905ffff5ce1d","ios":"levelo://app?vid=a2312b18-a31f-46e5-98fb-905ffff5ce1d"},"vehicle_type_id":"4","last_reported":1692831960,"current_range_meters":12400,"station_id":"ce4bgvh2rcd13ifvqcs0","pricing_plan_id":"free"},{"bike_id":"4f428326-7761-43e1-b15c-af8a9230646c","system_id":"levelo_inurba_marseille","lat":43.302759,"lon":5.400793,"is_reserved":false,"is_disabled":false,"rental_uris":{"android":"levelo://app?vid=4f428326-7761-43e1-b15c-af8a9230646c","ios":"levelo://app?vid=4f428326-7761-43e1-b15c-af8a9230646c"},"vehicle_type_id":"4","last_reported":1692831960,"current_range_meters":22800,"station_id":"ce4bgvh2rcd13ifvqcs0","pricing_plan_id":"free"},{"bike_id":"ca10f645-8bc2-4b4c-a1e3-9bfa895cde90","system_id":"levelo_inurba_marseille","lat":43.30245,"lon":5.40085,"is_reserved":false,"is_disabled":false,"rental_uris":{"android":"levelo://app?vid=ca10f645-8bc2-4b4c-a1e3-9bfa895cde90","ios":"levelo://app?vid=ca10f645-8bc2-4b4c-a1e3-9bfa895cde90"},"vehicle_type_id":"4","last_reported":1692831960,"current_range_meters":17200,"station_id":"ce4bgvh2rcd13ifvqcs0","pricing_plan_id":"free"},{"bike_id":"f9d9095c-5840-4087-b061-c23980cbdb3a","system_id":"levelo_inurba_marseille","lat":43.286039,"lon":5.370679,"is_reserved":false,"is_disabled":false,"rental_uris":{"android":"levelo://app?vid=f9d9095c-5840-4087-b061-c23980cbdb3a","ios":"levelo://app?vid=f9d9095c-5840-4087-b061-c23980cbdb3a"},"vehicle_type_id":"4","last_reported":1692831960,"current_range_meters":2400,"station_id":"ce4bht12rcd13ifvqi60","pricing_plan_id":"free"},{"bike_id":"a09684c8-a4b0-4eff-ab9d-27d1060c820f","system_id":"levelo_inurba_marseille","lat":43.286039,"lon":5.370679,"is_reserved":false,"is_disabled":false,"rental_uris":{"android":"levelo://app?vid=a09684c8-a4b0-4eff-ab9d-27d1060c820f","ios":"levelo://app?vid=a09684c8-a4b0-4eff-ab9d-27d1060c820f"},"vehicle_type_id":"4","last_reported":1692831960,"current_range_meters":10400,"station_id":"ce4bht12rcd13ifvqi60","pricing_plan_id":"free"},{"bike_id":"ecc669f9-1f49-4a35-8ced-bf13d9f958aa","system_id":"levelo_inurba_marseille","lat":43.31643,"lon":5.40433,"is_reserved":false,"is_disabled":false,"rental_uris":{"android":"levelo://app?vid=ecc669f9-1f49-4a35-8ced-bf13d9f958aa","ios":"levelo://app?vid=ecc669f9-1f49-4a35-8ced-bf13d9f958aa"},"vehicle_type_id":"4","last_reported":1692831960,"current_range_meters":0,"station_id":"ce4bh012rcd13ifvqd00","pricing_plan_id":"free"},{"bike_id":"7da9e437-1e79-4b5f-9ab0-65254ac17dd7","system_id":"levelo_inurba_marseille","lat":43.31651,"lon":5.40447,"is_reserved":false,"is_disabled":false,"rental_uris":{"android":"levelo://app?vid=7da9e437-1e79-4b5f-9ab0-65254ac17dd7","ios":"levelo://app?vid=7da9e437-1e79-4b5f-9ab0-65254ac17dd7"},"vehicle_type_id":"4","last_reported":1692831960,"current_range_meters":25600,"station_id":"ce4bh012rcd13ifvqd00","pricing_plan_id":"free"},{"bike_id":"1f2a9f1d-71b1-428e-a036-21422414d884","system_id":"levelo_inurba_marseille","lat":43.291994,"lon":5.392907,"is_reserved":false,"is_disabled":false,"rental_uris":{"android":"levelo://app?vid=1f2a9f1d-71b1-428e-a036-21422414d884","ios":"levelo://app?vid=1f2a9f1d-71b1-428e-a036-21422414d884"},"vehicle_type_id":"4","last_reported":1692831960,"current_range_meters":8800,"station_id":"ce4bh192rcd13ifvqdd0","pricing_plan_id":"free"},{"bike_id":"4cd5ae7a-2acc-4b97-b8fb-851f6d747362","system_id":"levelo_inurba_marseille","lat":43.284538,"lon":5.358657,"is_reserved":false,"is_disabled":false,"rental_uris":{"android":"levelo://app?vid=4cd5ae7a-2acc-4b97-b8fb-851f6d747362","ios":"levelo://app?vid=4cd5ae7a-2acc-4b97-b8fb-851f6d747362"},"vehicle_type_id":"4","last_reported":1692831960,"current_range_meters":16000,"station_id":"ce4bhah2rcd13ifvqei0","pricing_plan_id":"free"},{"bike_id":"8029b3f6-c2d7-4ec7-9f2b-6afcdb7ed5aa","system_id":"levelo_inurba_marseille","lat":43.284538,"lon":5.358657,"is_reserved":false,"is_disabled":false,"rental_uris":{"android":"levelo://app?vid=8029b3f6-c2d7-4ec7-9f2b-6afcdb7ed5aa","ios":"levelo://app?vid=8029b3f6-c2d7-4ec7-9f2b-6afcdb7ed5aa"},"vehicle_type_id":"4","last_reported":1692831960,"current_range_meters":24400,"station_id":"ce4bhah2rcd13ifvqei0","pricing_plan_id":"free"},{"bike_id":"24dc2e8a-4a04-4262-81bc-2d7287eaae04","system_id":"levelo_inurba_marseille","lat":43.284538,"lon":5.358657,"is_reserved":false,"is_disabled":false,"rental_uris":{"android":"levelo://app?vid=24dc2e8a-4a04-4262-81bc-2d7287eaae04","ios":"levelo://app?vid=24dc2e8a-4a04-4262-81bc-2d7287eaae04"},"vehicle_type_id":"4","last_reported":1692831960,"current_range_meters":15600,"station_id":"ce4bhah2rcd13ifvqei0","pricing_plan_id":"free"},{"bike_id":"db381a5b-9ec6-4381-bf22-4e6cb1b264a8","system_id":"levelo_inurba_marseille","lat":43.284538,"lon":5.358657,"is_reserved":false,"is_disabled":false,"rental_uris":{"android":"levelo://app?vid=db381a5b-9ec6-4381-bf22-4e6cb1b264a8","ios":"levelo://app?vid=db381a5b-9ec6-4381-bf22-4e6cb1b264a8"},"vehicle_type_id":"4","last_reported":1692831960,"current_range_meters":2400,"station_id":"ce4bhah2rcd13ifvqei0","pricing_plan_id":"free"},{"bike_id":"6df76a90-1d82-450d-9fef-9e4ec6af8b5a","system_id":"levelo_inurba_marseille","lat":43.284534,"lon":5.358662,"is_reserved":false,"is_disabled":false,"rental_uris":{"android":"levelo://app?vid=6df76a90-1d82-450d-9fef-9e4ec6af8b5a","ios":"levelo://app?vid=6df76a90-1d82-450d-9fef-9e4ec6af8b5a"},"vehicle_type_id":"4","last_reported":1692831960,"current_range_meters":6000,"station_id":"ce4bhah2rcd13ifvqei0","pricing_plan_id":"free"},{"bike_id":"66e6131c-7cfb-471a-91c3-eeedee7b345b","system_id":"levelo_inurba_marseille","lat":43.29435,"lon":5.39747,"is_reserved":false,"is_disabled":false,"rental_uris":{"android":"levelo://app?vid=66e6131c-7cfb-471a-91c3-eeedee7b345b","ios":"levelo://app?vid=66e6131c-7cfb-471a-91c3-eeedee7b345b"},"vehicle_type_id":"4","last_reported":1692831960,"current_range_meters":4800,"station_id":"ce4bh3h2rcd13ifvqdo0","pricing_plan_id":"free"},{"bike_id":"e92eae8b-3932-47f6-a561-aa01d70bdeb3","system_id":"levelo_inurba_marseille","lat":43.284534,"lon":5.358662,"is_reserved":false,"is_disabled":false,"rental_uris":{"android":"levelo://app?vid=e92eae8b-3932-47f6-a561-aa01d70bdeb3","ios":"levelo://app?vid=e92eae8b-3932-47f6-a561-aa01d70bdeb3"},"vehicle_type_id":"4","last_reported":1692831960,"current_range_meters":19200,"station_id":"ce4bhah2rcd13ifvqei0","pricing_plan_id":"free"},{"bike_id":"02bf6e5e-49eb-4eae-aa67-f4a7c3f9ca31","system_id":"levelo_inurba_marseille","lat":43.28613,"lon":5.35101,"is_reserved":false,"is_disabled":false,"rental_uris":{"android":"levelo://app?vid=02bf6e5e-49eb-4eae-aa67-f4a7c3f9ca31","ios":"levelo://app?vid=02bf6e5e-49eb-4eae-aa67-f4a7c3f9ca31"},"vehicle_type_id":"4","last_reported":1692831960,"current_range_meters":1200,"station_id":"ce4bhch2rcd13ifvqeug","pricing_plan_id":"free"},{"bike_id":"2363d3b5-6c15-401a-a59c-ee80bd4af927","system_id":"levelo_inurba_marseille","lat":43.28415,"lon":5.37522,"is_reserved":false,"is_disabled":false,"rental_uris":{"android":"levelo://app?vid=2363d3b5-6c15-401a-a59c-ee80bd4af927","ios":"levelo://app?vid=2363d3b5-6c15-401a-a59c-ee80bd4af927"},"vehicle_type_id":"4","last_reported":1692831960,"current_range_meters":4000,"station_id":"ce4bh412rcd13ifvqds0","pricing_plan_id":"free"},{"bike_id":"16a3b032-d00e-4eb4-bbc5-d8b54312766b","system_id":"levelo_inurba_marseille","lat":43.28411,"lon":5.3751,"is_reserved":false,"is_disabled":false,"rental_uris":{"android":"levelo://app?vid=16a3b032-d00e-4eb4-bbc5-d8b54312766b","ios":"levelo://app?vid=16a3b032-d00e-4eb4-bbc5-d8b54312766b"},"vehicle_type_id":"4","last_reported":1692831960,"current_range_meters":4400,"station_id":"ce4bh412rcd13ifvqds0","pricing_plan_id":"free"},{"bike_id":"5b93f108-a580-4017-bbea-dacfae536f8e","system_id":"levelo_inurba_marseille","lat":43.295713,"lon":5.399639,"is_reserved":false,"is_disabled":false,"rental_uris":{"android":"levelo://app?vid=5b93f108-a580-4017-bbea-dacfae536f8e","ios":"levelo://app?vid=5b93f108-a580-4017-bbea-dacfae536f8e"},"vehicle_type_id":"4","last_reported":1692831960,"current_range_meters":10400,"station_id":"ce4bh312rcd13ifvqdj0","pricing_plan_id":"free"},{"bike_id":"0d9fa715-43f6-4986-b696-d1a26a9238a1","system_id":"levelo_inurba_marseille","lat":43.295713,"lon":5.399639,"is_reserved":false,"is_disabled":false,"rental_uris":{"android":"levelo://app?vid=0d9fa715-43f6-4986-b696-d1a26a9238a1","ios":"levelo://app?vid=0d9fa715-43f6-4986-b696-d1a26a9238a1"},