{"last_updated":1746313719,"ttl":60,"version":"2.2","data":{"bikes":[{"bike_id":"01094e35-d98b-459b-93b9-6eaae48ab681","system_id":"levelo_inurba_marseille","lat":43.30931,"lon":5.40158,"is_reserved":false,"is_disabled":true,"rental_uris":{"android":"levelo://app?vid=01094e35-d98b-459b-93b9-6eaae48ab681","ios":"levelo://app?vid=01094e35-d98b-459b-93b9-6eaae48ab681"},"vehicle_type_id":"4","last_reported":1746313719,"current_range_meters":2800,"station_id":"ce4bgvp2rcd13ifvqct0","pricing_plan_id":"cebpf4jnsgd1na2vs0mg"},{"bike_id":"2f5482b8-fe39-4a75-af9a-6a3688c4010d","system_id":"levelo_inurba_marseille","lat":43.28613,"lon":5.35088,"is_reserved":false,"is_disabled":false,"rental_uris":{"android":"levelo://app?vid=2f5482b8-fe39-4a75-af9a-6a3688c4010d","ios":"levelo://app?vid=2f5482b8-fe39-4a75-af9a-6a3688c4010d"},"vehicle_type_id":"4","last_reported":1746313719,"current_range_meters":2800,"station_id":"ce4bhch2rcd13ifvqeug","pricing_plan_id":"cebpf4jnsgd1na2vs0mg"},{"bike_id":"adda7ae0-c013-469f-aa0e-1c7cd365aa64","system_id":"levelo_inurba_marseille","lat":43.30319,"lon":5.40433,"is_reserved":false,"is_disabled":false,"rental_uris":{"android":"levelo://app?vid=adda7ae0-c013-469f-aa0e-1c7cd365aa64","ios":"levelo://app?vid=adda7ae0-c013-469f-aa0e-1c7cd365aa64"},"vehicle_type_id":"4","last_reported":1746313719,"current_range_meters":2800,"station_id":"ce4bh012rcd13ifvqd10","pricing_plan_id":"cebpf4jnsgd1na2vs0mg"},{"bike_id":"5a8122b9-97f5-4e94-b954-193a46a808df","system_id":"levelo_inurba_marseille","lat":43.27614,"lon":5.360957,"is_reserved":false,"is_disabled":true,"rental_uris":{"android":"levelo://app?vid=5a8122b9-97f5-4e94-b954-193a46a808df","ios":"levelo://app?vid=5a8122b9-97f5-4e94-b954-193a46a808df"},"vehicle_type_id":"4","last_reported":1746313719,"current_range_meters":2800,"station_id":"ce4bgj92rcd13ifvqbe0","pricing_plan_id":"cebpf4jnsgd1na2vs0mg"},{"bike_id":"243c8c00-64dc-484a-8b2f-6a879c7a973e","system_id":"levelo_inurba_marseille","lat":43.27982,"lon":5.3874,"is_reserved":false,"is_disabled":false,"rental_uris":{"android":"levelo://app?vid=243c8c00-64dc-484a-8b2f-6a879c7a973e","ios":"levelo://app?vid=243c8c00-64dc-484a-8b2f-6a879c7a973e"},"vehicle_type_id":"4","last_reported":1746313719,"current_range_meters":2800,"station_id":"ce4bhg12rcd13ifvqf80","pricing_plan_id":"cebpf4jnsgd1na2vs0mg"},{"bike_id":"7a7f0eb2-e6dd-4386-af0b-d5e315fa2ddd","system_id":"levelo_inurba_marseille","lat":43.28003,"lon":5.35395,"is_reserved":false,"is_disabled":false,"rental_uris":{"android":"levelo://app?vid=7a7f0eb2-e6dd-4386-af0b-d5e315fa2ddd","ios":"levelo://app?vid=7a7f0eb2-e6dd-4386-af0b-d5e315fa2ddd"},"vehicle_type_id":"4","last_reported":1746313719,"current_range_meters":2800,"station_id":"","pricing_plan_id":"cebpf4jnsgd1na2vs0mg"},{"bike_id":"436aca94-cdbd-427c-99f0-2d7e97ff5ff4","system_id":"levelo_inurba_marseille","lat":43.2927,"lon":5.3684,"is_reserved":false,"is_disabled":false,"rental_uris":{"android":"levelo://app?vid=436aca94-cdbd-427c-99f0-2d7e97ff5ff4","ios":"levelo://app?vid=436aca94-cdbd-427c-99f0-2d7e97ff5ff4"},"vehicle_type_id":"4","last_reported":1746313719,"current_range_meters":2800,"station_id":"ce4bhbp2rcd13ifvqesg","pricing_plan_id":"cebpf4jnsgd1na2vs0mg"},{"bike_id":"0ff128ba-4f09-4abe-b9bd-5a897736cd37","system_id":"levelo_inurba_marseille","lat":43.24809,"lon":5.37459,"is_reserved":false,"is_disabled":false,"rental_uris":{"android":"levelo://app?vid=0ff128ba-4f09-4abe-b9bd-5a897736cd37","ios":"levelo://app?vid=0ff128ba-4f09-4abe-b9bd-5a897736cd37"},"vehicle_type_id":"4","last_reported":1746313719,"current_range_meters":3200,"station_id":"ce4bhgh2rcd13ifvqfb0","pricing_plan_id":"cebpf4jnsgd1na2vs0mg"},{"bike_id":"6a72580c-c76c-4721-b41b-47051e92ac98","system_id":"levelo_inurba_marseille","lat":43.29982,"lon":5.37193,"is_reserved":false,"is_disabled":true,"rental_uris":{"android":"levelo://app?vid=6a72580c-c76c-4721-b41b-47051e92ac98","ios":"levelo://app?vid=6a72580c-c76c-4721-b41b-47051e92ac98"},"vehicle_type_id":"4","last_reported":1746313719,"current_range_meters":3200,"station_id":"ce4bgr92rcd13ifvqc7g","pricing_plan_id":"cebpf4jnsgd1na2vs0mg"},{"bike_id":"ba017225-c9c2-4093-8014-67371d4e120c","system_id":"levelo_inurba_marseille","lat":43.30419,"lon":5.41283,"is_reserved":false,"is_disabled":false,"rental_uris":{"android":"levelo://app?vid=ba017225-c9c2-4093-8014-67371d4e120c","ios":"levelo://app?vid=ba017225-c9c2-4093-8014-67371d4e120c"},"vehicle_type_id":"4","last_reported":1746313719,"current_range_meters":3600,"station_id":"ce4bhop2rcd13ifvqh8g","pricing_plan_id":"cebpf4jnsgd1na2vs0mg"},{"bike_id":"23119e4f-0e29-493e-a873-544057f83776","system_id":"levelo_inurba_marseille","lat":43.268086,"lon":5.402615,"is_reserved":false,"is_disabled":true,"rental_uris":{"android":"levelo://app?vid=23119e4f-0e29-493e-a873-544057f83776","ios":"levelo://app?vid=23119e4f-0e29-493e-a873-544057f83776"},"vehicle_type_id":"4","last_reported":1746313719,"current_range_meters":4000,"station_id":"ce501612rcd8frsf0b60","pricing_plan_id":"cebpf4jnsgd1na2vs0mg"},{"bike_id":"09a1d8fa-4b91-4b44-8335-145c7122df30","system_id":"levelo_inurba_marseille","lat":43.29557,"lon":5.4229,"is_reserved":false,"is_disabled":false,"rental_uris":{"android":"levelo://app?vid=09a1d8fa-4b91-4b44-8335-145c7122df30","ios":"levelo://app?vid=09a1d8fa-4b91-4b44-8335-145c7122df30"},"vehicle_type_id":"4","last_reported":1746313719,"current_range_meters":4000,"station_id":"ce4bhph2rcd13ifvqhdg","pricing_plan_id":"cebpf4jnsgd1na2vs0mg"},{"bike_id":"bf418e83-e81c-41d6-8593-60d316e13025","system_id":"levelo_inurba_marseille","lat":43.23153,"lon":5.43715,"is_reserved":false,"is_disabled":false,"rental_uris":{"android":"levelo://app?vid=bf418e83-e81c-41d6-8593-60d316e13025","ios":"levelo://app?vid=bf418e83-e81c-41d6-8593-60d316e13025"},"vehicle_type_id":"4","last_reported":1746313719,"current_range_meters":4000,"station_id":"ce4bhmp2rcd13ifvqgog","pricing_plan_id":"cebpf4jnsgd1na2vs0mg"},{"bike_id":"4432578e-5b8b-4812-8cd3-236f73283bd6","system_id":"levelo_inurba_marseille","lat":43.24648,"lon":5.3889,"is_reserved":false,"is_disabled":false,"rental_uris":{"android":"levelo://app?vid=4432578e-5b8b-4812-8cd3-236f73283bd6","ios":"levelo://app?vid=4432578e-5b8b-4812-8cd3-236f73283bd6"},"vehicle_type_id":"4","last_reported":1746313719,"current_range_meters":4400,"station_id":"ce4bhg12rcd13ifvqf60","pricing_plan_id":"cebpf4jnsgd1na2vs0mg"},{"bike_id":"78647f6c-5b39-4fc3-8ddc-922db495866f","system_id":"levelo_inurba_marseille","lat":43.27826,"lon":5.40711,"is_reserved":false,"is_disabled":true,"rental_uris":{"android":"levelo://app?vid=78647f6c-5b39-4fc3-8ddc-922db495866f","ios":"levelo://app?vid=78647f6c-5b39-4fc3-8ddc-922db495866f"},"vehicle_type_id":"4","last_reported":1746313719,"current_range_meters":4400,"station_id":"ce4bhnh2rcd13ifvqgtg","pricing_plan_id":"cebpf4jnsgd1na2vs0mg"},{"bike_id":"8d7c1714-98e3-4027-8bf3-fd7ca893c021","system_id":"levelo_inurba_marseille","lat":43.25004,"lon":5.38926,"is_reserved":false,"is_disabled":false,"rental_uris":{"android":"levelo://app?vid=8d7c1714-98e3-4027-8bf3-fd7ca893c021","ios":"levelo://app?vid=8d7c1714-98e3-4027-8bf3-fd7ca893c021"},"vehicle_type_id":"4","last_reported":1746313719,"current_range_meters":4400,"station_id":"ce4bhgp2rcd13ifvqfd0","pricing_plan_id":"cebpf4jnsgd1na2vs0mg"},{"bike_id":"3b7e18b2-00b2-4f51-a8c5-6c2a84139356","system_id":"levelo_inurba_marseille","lat":43.272101,"lon":5.391784,"is_reserved":false,"is_disabled":false,"rental_uris":{"android":"levelo://app?vid=3b7e18b2-00b2-4f51-a8c5-6c2a84139356","ios":"levelo://app?vid=3b7e18b2-00b2-4f51-a8c5-6c2a84139356"},"vehicle_type_id":"4","last_reported":1746313719,"current_range_meters":4800,"station_id":"","pricing_plan_id":"cebpf4jnsgd1na2vs0mg"},{"bike_id":"ea54a43f-bc03-4784-86c5-a6aba0a39cd2","system_id":"levelo_inurba_marseille","lat":43.30787,"lon":5.3765,"is_reserved":false,"is_disabled":false,"rental_uris":{"android":"levelo://app?vid=ea54a43f-bc03-4784-86c5-a6aba0a39cd2","ios":"levelo://app?vid=ea54a43f-bc03-4784-86c5-a6aba0a39cd2"},"vehicle_type_id":"4","last_reported":1746313719,"current_range_meters":4800,"station_id":"ce4bgv92rcd13ifvqcq0","pricing_plan_id":"cebpf4jnsgd1na2vs0mg"},{"bike_id":"beb2536f-b95c-42a3-954e-a55ebb0abeec","system_id":"levelo_inurba_marseille","lat":43.30918,"lon":5.38147,"is_reserved":false,"is_disabled":false,"rental_uris":{"android":"levelo://app?vid=beb2536f-b95c-42a3-954e-a55ebb0abeec","ios":"levelo://app?vid=beb2536f-b95c-42a3-954e-a55ebb0abeec"},"vehicle_type_id":"4","last_reported":1746313719,"current_range_meters":4800,"station_id":"","pricing_plan_id":"cebpf4jnsgd1na2vs0mg"},{"bike_id":"68698297-0cc2-46cf-ae84-fa708b798549","system_id":"levelo_inurba_marseille","lat":43.29772,"lon":5.37111,"is_reserved":false,"is_disabled":false,"rental_uris":{"android":"levelo://app?vid=68698297-0cc2-46cf-ae84-fa708b798549","ios":"levelo://app?vid=68698297-0cc2-46cf-ae84-fa708b798549"},"vehicle_type_id":"4","last_reported":1746313719,"current_range_meters":4800,"station_id":"ce4bgop2rcd13ifvqc1g","pricing_plan_id":"cebpf4jnsgd1na2vs0mg"},{"bike_id":"bf5cbb69-6afc-4143-81d5-910a881a229d","system_id":"levelo_inurba_marseille","lat":43.28279,"lon":5.35093,"is_reserved":false,"is_disabled":false,"rental_uris":{"android":"levelo://app?vid=bf5cbb69-6afc-4143-81d5-910a881a229d","ios":"levelo://app?vid=bf5cbb69-6afc-4143-81d5-910a881a229d"},"vehicle_type_id":"4","last_reported":1746313719,"current_range_meters":5600,"station_id":"ce4bhbp2rcd13ifvqerg","pricing_plan_id":"cebpf4jnsgd1na2vs0mg"},{"bike_id":"d11b7274-ad1d-4343-a0b8-143798db8be1","system_id":"levelo_inurba_marseille","lat":43.22929,"lon":5.35378,"is_reserved":false,"is_disabled":true,"rental_uris":{"android":"levelo://app?vid=d11b7274-ad1d-4343-a0b8-143798db8be1","ios":"levelo://app?vid=d11b7274-ad1d-4343-a0b8-143798db8be1"},"vehicle_type_id":"4","last_reported":1746313719,"current_range_meters":6000,"station_id":"cpo3532slgdg3j2ikp40","pricing_plan_id":"cebpf4jnsgd1na2vs0mg"},{"bike_id":"4341dfab-438e-4d1a-8a6a-87a65b8fed8c","system_id":"levelo_inurba_marseille","lat":43.29907,"lon":5.38142,"is_reserved":false,"is_disabled":true,"rental_uris":{"android":"levelo://app?vid=4341dfab-438e-4d1a-8a6a-87a65b8fed8c","ios":"levelo://app?vid=4341dfab-438e-4d1a-8a6a-87a65b8fed8c"},"vehicle_type_id":"4","last_reported":1746313719,"current_range_meters":6000,"station_id":"ce4bgj12rcd13ifvqbc0","pricing_plan_id":"cebpf4jnsgd1na2vs0mg"},{"bike_id":"df09e0dd-fa02-4c1b-b625-6281edbd6bda","system_id":"levelo_inurba_marseille","lat":43.28049,"lon":5.36922,"is_reserved":false,"is_disabled":false,"rental_uris":{"android":"levelo://app?vid=df09e0dd-fa02-4c1b-b625-6281edbd6bda","ios":"levelo://app?vid=df09e0dd-fa02-4c1b-b625-6281edbd6bda"},"vehicle_type_id":"4","last_reported":1746313719,"current_range_meters":6000,"station_id":"ce4bha12rcd13ifvqef0","pricing_plan_id":"cebpf4jnsgd1na2vs0mg"},{"bike_id":"0cb5fcdd-8910-40d4-b91d-dcff2077234d","system_id":"levelo_inurba_marseille","lat":43.30128,"lon":5.39849,"is_reserved":false,"is_disabled":false,"rental_uris":{"android":"levelo://app?vid=0cb5fcdd-8910-40d4-b91d-dcff2077234d","ios":"levelo://app?vid=0cb5fcdd-8910-40d4-b91d-dcff2077234d"},"vehicle_type_id":"4","last_reported":1746313719,"current_range_meters":6000,"station_id":"ce4bh0h2rcd13ifvqd40","pricing_plan_id":"cebpf4jnsgd1na2vs0mg"},{"bike_id":"02b445bf-8103-43fd-96fb-7970a970f33c","system_id":"levelo_inurba_marseille","lat":43.28705,"lon":5.39989,"is_reserved":false,"is_disabled":false,"rental_uris":{"android":"levelo://app?vid=02b445bf-8103-43fd-96fb-7970a970f33c","ios":"levelo://app?vid=02b445bf-8103-43fd-96fb-7970a970f33c"},"vehicle_type_id":"4","last_reported":1746313719,"current_range_meters":6000,"station_id":"ce4bho92rcd13ifvqh3g","pricing_plan_id":"cebpf4jnsgd1na2vs0mg"},{"bike_id":"b24e1c00-6f34-4818-ab0a-32914331665c","system_id":"levelo_inurba_marseille","lat":43.3078,"lon":5.37657,"is_reserved":false,"is_disabled":false,"rental_uris":{"android":"levelo://app?vid=b24e1c00-6f34-4818-ab0a-32914331665c","ios":"levelo://app?vid=b24e1c00-6f34-4818-ab0a-32914331665c"},"vehicle_type_id":"4","last_reported":1746313719,"current_range_meters":6400,"station_id":"ce4bgv92rcd13ifvqcq0","pricing_plan_id":"cebpf4jnsgd1na2vs0mg"},{"bike_id":"909825d5-7ad2-409e-b0de-cec7d5b4fa06","system_id":"levelo_inurba_marseille","lat":43.242132,"lon":5.367226,"is_reserved":false,"is_disabled":false,"rental_uris":{"android":"levelo://app?vid=909825d5-7ad2-409e-b0de-cec7d5b4fa06","ios":"levelo://app?vid=909825d5-7ad2-409e-b0de-cec7d5b4fa06"},"vehicle_type_id":"4","last_reported":1746313719,"current_range_meters":6400,"station_id":"","pricing_plan_id":"cebpf4jnsgd1na2vs0mg"},{"bike_id":"7a465ed6-e072-4c53-9c8d-293f98289f5d","system_id":"levelo_inurba_marseille","lat":43.26231,"lon":5.37404,"is_reserved":false,"is_disabled":false,"rental_uris":{"android":"levelo://app?vid=7a465ed6-e072-4c53-9c8d-293f98289f5d","ios":"levelo://app?vid=7a465ed6-e072-4c53-9c8d-293f98289f5d"},"vehicle_type_id":"4","last_reported":1746313719,"current_range_meters":6800,"station_id":"","pricing_plan_id":"cebpf4jnsgd1na2vs0mg"},{"bike_id":"1e4bb08d-bac3-428b-9c4e-6193786cd3a3","system_id":"levelo_inurba_marseille","lat":43.298828,"lon":5.397362,"is_reserved":false,"is_disabled":false,"rental_uris":{"android":"levelo://app?vid=1e4bb08d-bac3-428b-9c4e-6193786cd3a3","ios":"levelo://app?vid=1e4bb08d-bac3-428b-9c4e-6193786cd3a3"},"vehicle_type_id":"4","last_reported":1746313719,"current_range_meters":6800,"station_id":"ce4bh0h2rcd13ifvqd50","pricing_plan_id":"cebpf4jnsgd1na2vs0mg"},{"bike_id":"b2be516e-2f32-4594-b4de-c3e58b68706d","system_id":"levelo_inurba_marseille","lat":43.29276,"lon":5.36845,"is_reserved":false,"is_disabled":true,"rental_uris":{"android":"levelo://app?vid=b2be516e-2f32-4594-b4de-c3e58b68706d","ios":"levelo://app?vid=b2be516e-2f32-4594-b4de-c3e58b68706d"},"vehicle_type_id":"4","last_reported":1746313719,"current_range_meters":6800,"station_id":"ce4bhbp2rcd13ifvqesg","pricing_plan_id":"cebpf4jnsgd1na2vs0mg"},{"bike_id":"d04bc1dd-0c9f-4ae3-8283-492385e57c9a","system_id":"levelo_inurba_marseille","lat":43.2511,"lon":5.40326,"is_reserved":false,"is_disabled":false,"rental_uris":{"android":"levelo://app?vid=d04bc1dd-0c9f-4ae3-8283-492385e57c9a","ios":"levelo://app?vid=d04bc1dd-0c9f-4ae3-8283-492385e57c9a"},"vehicle_type_id":"4","last_reported":1746313719,"current_range_meters":6800,"station_id":"ce4bhlh2rcd13ifvqgig","pricing_plan_id":"cebpf4jnsgd1na2vs0mg"},{"bike_id":"fefd08ec-5881-4aed-9781-2a8173dd5fb9","system_id":"levelo_inurba_marseille","lat":43.29431,"lon":5.38227,"is_reserved":false,"is_disabled":false,"rental_uris":{"android":"levelo://app?vid=fefd08ec-5881-4aed-9781-2a8173dd5fb9","ios":"levelo://app?vid=fefd08ec-5881-4aed-9781-2a8173dd5fb9"},"vehicle_type_id":"4","last_reported":1746313719,"current_range_meters":6800,"station_id":"","pricing_plan_id":"cebpf4jnsgd1na2vs0mg"},{"bike_id":"e341752c-8655-4500-bdaa-1fbfa4780079","system_id":"levelo_inurba_marseille","lat":43.29057,"lon":5.3715,"is_reserved":false,"is_disabled":true,"rental_uris":{"android":"levelo://app?vid=e341752c-8655-4500-bdaa-1fbfa4780079","ios":"levelo://app?vid=e341752c-8655-4500-bdaa-1fbfa4780079"},"vehicle_type_id":"4","last_reported":1746313719,"current_range_meters":7200,"station_id":"ce4bh5p2rcd13ifvqe4g","pricing_plan_id":"cebpf4jnsgd1na2vs0mg"},{"bike_id":"6cc88791-95e4-46dd-a33c-ae4d94ca2c4b","system_id":"levelo_inurba_marseille","lat":43.3153,"lon":5.38006,"is_reserved":false,"is_disabled":false,"rental_uris":{"android":"levelo://app?vid=6cc88791-95e4-46dd-a33c-ae4d94ca2c4b","ios":"levelo://app?vid=6cc88791-95e4-46dd-a33c-ae4d94ca2c4b"},"vehicle_type_id":"4","last_reported":1746313719,"current_range_meters":7200,"station_id":"ce4bhsp2rcd13ifvqi50","pricing_plan_id":"cebpf4jnsgd1na2vs0mg"},{"bike_id":"6e3aa27d-822b-4d4d-89f8-4ab45fe131af","system_id":"levelo_inurba_marseille","lat":43.28928,"lon":5.38394,"is_reserved":false,"is_disabled":false,"rental_uris":{"android":"levelo://app?vid=6e3aa27d-822b-4d4d-89f8-4ab45fe131af","ios":"levelo://app?vid=6e3aa27d-822b-4d4d-89f8-4ab45fe131af"},"vehicle_type_id":"4","last_reported":1746313719,"current_range_meters":6800,"station_id":"ce4bh612rcd13ifvqe6g","pricing_plan_id":"cebpf4jnsgd1na2vs0mg"},{"bike_id":"208c1a96-c46f-4193-b924-3bf7033ea14e","system_id":"levelo_inurba_marseille","lat":43.231893,"lon":5.355647,"is_reserved":false,"is_disabled":false,"rental_uris":{"android":"levelo://app?vid=208c1a96-c46f-4193-b924-3bf7033ea14e","ios":"levelo://app?vid=208c1a96-c46f-4193-b924-3bf7033ea14e"},"vehicle_type_id":"4","last_reported":1746313719,"current_range_meters":7200,"station_id":"ce4bhu92rcd13ifvqi70","pricing_plan_id":"cebpf4jnsgd1na2vs0mg"},{"bike_id":"ece1dfa1-f83b-4432-9417-f937192681df","system_id":"levelo_inurba_marseille","lat":43.30435,"lon":5.38884,"is_reserved":false,"is_disabled":false,"rental_uris":{"android":"levelo://app?vid=ece1dfa1-f83b-4432-9417-f937192681df","ios":"levelo://app?vid=ece1dfa1-f83b-4432-9417-f937192681df"},"vehicle_type_id":"4","last_reported":1746313719,"current_range_meters":7200,"station_id":"ce4bgk12rcd13ifvqbi0","pricing_plan_id":"cebpf4jnsgd1na2vs0mg"},{"bike_id":"cd86a536-7dca-41c5-a835-ce5db5fac5c3","system_id":"levelo_inurba_marseille","lat":43.27419,"lon":5.39416,"is_reserved":false,"is_disabled":false,"rental_uris":{"android":"levelo://app?vid=cd86a536-7dca-41c5-a835-ce5db5fac5c3","ios":"levelo://app?vid=cd86a536-7dca-41c5-a835-ce5db5fac5c3"},"vehicle_type_id":"4","last_reported":1746313719,"current_range_meters":8000,"station_id":"ce4bhdp2rcd13ifvqf20","pricing_plan_id":"cebpf4jnsgd1na2vs0mg"},{"bike_id":"39d83911-e17e-4776-b8f2-6450602c8696","system_id":"levelo_inurba_marseille","lat":43.298959,"lon":5.436554,"is_reserved":false,"is_disabled":false,"rental_uris":{"android":"levelo://app?vid=39d83911-e17e-4776-b8f2-6450602c8696","ios":"levelo://app?vid=39d83911-e17e-4776-b8f2-6450602c8696"},"vehicle_type_id":"4","last_reported":1746313719,"current_range_meters":8000,"station_id":"ce4bhpp2rcd13ifvqhfg","pricing_plan_id":"cebpf4jnsgd1na2vs0mg"},{"bike_id":"db9be0c1-80d5-4315-9367-2a96fca91123","system_id":"levelo_inurba_marseille","lat":43.30658,"lon":5.40078,"is_reserved":false,"is_disabled":false,"rental_uris":{"android":"levelo://app?vid=db9be0c1-80d5-4315-9367-2a96fca91123","ios":"levelo://app?vid=db9be0c1-80d5-4315-9367-2a96fca91123"},"vehicle_type_id":"4","last_reported":1746313719,"current_range_meters":8000,"station_id":"ce4bh112rcd13ifvqda0","pricing_plan_id":"cebpf4jnsgd1na2vs0mg"},{"bike_id":"f2b82d46-aa38-4e41-bdca-3656c46543c7","system_id":"levelo_inurba_marseille","lat":43.293073,"lon":5.383577,"is_reserved":false,"is_disabled":false,"rental_uris":{"android":"levelo://app?vid=f2b82d46-aa38-4e41-bdca-3656c46543c7","ios":"levelo://app?vid=f2b82d46-aa38-4e41-bdca-3656c46543c7"},"vehicle_type_id":"4","last_reported":1746313719,"current_range_meters":8000,"station_id":"","pricing_plan_id":"cebpf4jnsgd1na2vs0mg"},{"bike_id":"d585ab89-bd6a-4c0e-86d7-0db2a94d222a","system_id":"levelo_inurba_marseille","lat":43.30942,"lon":5.39039,"is_reserved":false,"is_disabled":false,"rental_uris":{"android":"levelo://app?vid=d585ab89-bd6a-4c0e-86d7-0db2a94d222a","ios":"levelo://app?vid=d585ab89-bd6a-4c0e-86d7-0db2a94d222a"},"vehicle_type_id":"4","last_reported":1746313719,"current_range_meters":8000,"station_id":"ce4bgup2rcd13ifvqco0","pricing_plan_id":"cebpf4jnsgd1na2vs0mg"},{"bike_id":"e27ce41e-d31e-4411-a762-387f29d91877","system_id":"levelo_inurba_marseille","lat":43.29558,"lon":5.42268,"is_reserved":false,"is_disabled":false,"rental_uris":{"android":"levelo://app?vid=e27ce41e-d31e-4411-a762-387f29d91877","ios":"levelo://app?vid=e27ce41e-d31e-4411-a762-387f29d91877"},"vehicle_type_id":"4","last_reported":1746313719,"current_range_meters":8000,"station_id":"ce4bhph2rcd13ifvqhdg","pricing_plan_id":"cebpf4jnsgd1na2vs0mg"},{"bike_id":"570b486c-50df-4f1f-97df-caa86c0d419e","system_id":"levelo_inurba_marseille","lat":43.33695,"lon":5.35573,"is_reserved":false,"is_disabled":false,"rental_uris":{"android":"levelo://app?vid=570b486c-50df-4f1f-97df-caa86c0d419e","ios":"levelo://app?vid=570b486c-50df-4f1f-97df-caa86c0d419e"},"vehicle_type_id":"4","last_reported":1746313719,"current_range_meters":8000,"station_id":"","pricing_plan_id":"cebpf4jnsgd1na2vs0mg"},{"bike_id":"0f53b038-46c4-4a2d-92c2-8fa07ea9b8da","system_id":"levelo_inurba_marseille","lat":43.30787,"lon":5.37655,"is_reserved":false,"is_disabled":false,"rental_uris":{"android":"levelo://app?vid=0f53b038-46c4-4a2d-92c2-8fa07ea9b8da","ios":"levelo://app?vid=0f53b038-46c4-4a2d-92c2-8fa07ea9b8da"},"vehicle_type_id":"4","last_reported":1746313719,"current_range_meters":8000,"station_id":"ce4bgv92rcd13ifvqcq0","pricing_plan_id":"cebpf4jnsgd1na2vs0mg"},{"bike_id":"662b39d1-88ec-4f06-b732-0dc367247795","system_id":"levelo_inurba_marseille","lat":43.28456,"lon":5.35874,"is_reserved":false,"is_disabled":false,"rental_uris":{"android":"levelo://app?vid=662b39d1-88ec-4f06-b732-0dc367247795","ios":"levelo://app?vid=662b39d1-88ec-4f06-b732-0dc367247795"},"vehicle_type_id":"4","last_reported":1746313719,"current_range_meters":8400,"station_id":"ce4bhah2rcd13ifvqei0","pricing_plan_id":"cebpf4jnsgd1na2vs0mg"},{"bike_id":"3958c1b9-db78-4d14-82c7-3ecaf5fa8f89","system_id":"levelo_inurba_marseille","lat":43.26229,"lon":5.40453,"is_reserved":false,"is_disabled":false,"rental_uris":{"android":"levelo://app?vid=3958c1b9-db78-4d14-82c7-3ecaf5fa8f89","ios":"levelo://app?vid=3958c1b9-db78-4d14-82c7-3ecaf5fa8f89"},"vehicle_type_id":"4","last_reported":1746313719,"current_range_meters":8400,"station_id":"ce4bhmh2rcd13ifvqgmg","pricing_plan_id":"cebpf4jnsgd1na2vs0mg"},{"bike_id":"38a0dbcd-2be8-44bc-838b-f55006af8ebd","system_id":"levelo_inurba_marseille","lat":43.248048,"lon":5.374513,"is_reserved":false,"is_disabled":false,"rental_uris":{"android":"levelo://app?vid=38a0dbcd-2be8-44bc-838b-f55006af8ebd","ios":"levelo://app?vid=38a0dbcd-2be8-44bc-838b-f55006af8ebd"},"vehicle_type_id":"4","last_reported":1746313719,"current_range_meters":8400,"station_id":"ce4bhgh2rcd13ifvqfb0","pricing_plan_id":"cebpf4jnsgd1na2vs0mg"},{"bike_id":"c7e47698-0020-47cf-94a4-404079760935","system_id":"levelo_inurba_marseille","lat":43.28403,"lon":5.37512,"is_reserved":false,"is_disabled":true,"rental_uris":{"android":"levelo://app?vid=c7e47698-0020-47cf-94a4-404079760935","ios":"levelo://app?vid=c7e47698-0020-47cf-94a4-404079760935"},"vehicle_type_id":"4","last_reported":1746313719,"current_range_meters":8400,"station_id":"ce4bh412rcd13ifvqds0","pricing_plan_id":"cebpf4jnsgd1na2vs0mg"},{"bike_id":"125ca05d-5a4c-4327-ae64-e200198cedf3","system_id":"levelo_inurba_marseille","lat":43.29561,"lon":5.42288,"is_reserved":false,"is_disabled":false,"rental_uris":{"android":"levelo://app?vid=125ca05d-5a4c-4327-ae64-e200198cedf3","ios":"levelo://app?vid=125ca05d-5a4c-4327-ae64-e200198cedf3"},"vehicle_type_id":"4","last_reported":1746313719,"current_range_meters":8400,"station_id":"ce4bhph2rcd13ifvqhdg","pricing_plan_id":"cebpf4jnsgd1na2vs0mg"},{"bike_id":"ee6e3e94-ef1f-47ac-907e-4c4f4ceade90","system_id":"levelo_inurba_marseille","lat":43.27205,"lon":5.39184,"is_reserved":false,"is_disabled":false,"rental_uris":{"android":"levelo://app?vid=ee6e3e94-ef1f-47ac-907e-4c4f4ceade90","ios":"levelo://app?vid=ee6e3e94-ef1f-47ac-907e-4c4f4ceade90"},"vehicle_type_id":"4","last_reported":1746313719,"current_range_meters":8400,"station_id":"ce4bhhp2rcd13ifvqfm0","pricing_plan_id":"cebpf4jnsgd1na2vs0mg"},{"bike_id":"7d6d18ee-0ef8-4e14-ae57-24b20e7f5fed","system_id":"levelo_inurba_marseille","lat":43.3201,"lon":5.38129,"is_reserved":false,"is_disabled":false,"rental_uris":{"android":"levelo://app?vid=7d6d18ee-0ef8-4e14-ae57-24b20e7f5fed","ios":"levelo://app?vid=7d6d18ee-0ef8-4e14-ae57-24b20e7f5fed"},"vehicle_type_id":"4","last_reported":1746313719,"current_range_meters":8400,"station_id":"ce4bhr12rcd13ifvqhpg","pricing_plan_id":"cebpf4jnsgd1na2vs0mg"},{"bike_id":"dfb3396e-96f5-457c-af11-f6f27dad33e9","system_id":"levelo_inurba_marseille","lat":43.27203,"lon":5.36493,"is_reserved":false,"is_disabled":false,"rental_uris":{"android":"levelo://app?vid=dfb3396e-96f5-457c-af11-f6f27dad33e9","ios":"levelo://app?vid=dfb3396e-96f5-457c-af11-f6f27dad33e9"},"vehicle_type_id":"4","last_reported":1746313719,"current_range_meters":8800,"station_id":"","pricing_plan_id":"cebpf4jnsgd1na2vs0mg"},{"bike_id":"0ca2aeff-c10c-4be3-8c0b-3162193c983e","system_id":"levelo_inurba_marseille","lat":43.30785,"lon":5.37654,"is_reserved":false,"is_disabled":true,"rental_uris":{"android":"levelo://app?vid=0ca2aeff-c10c-4be3-8c0b-3162193c983e","ios":"levelo://app?vid=0ca2aeff-c10c-4be3-8c0b-3162193c983e"},"vehicle_type_id":"4","last_reported":1746313719,"current_range_meters":8800,"station_id":"","pricing_plan_id":"cebpf4jnsgd1na2vs0mg"},{"bike_id":"721f19a3-6fc8-4aa3-b8d6-b74174066f05","system_id":"levelo_inurba_marseille","lat":43.31978,"lon":5.38128,"is_reserved":false,"is_disabled":false,"rental_uris":{"android":"levelo://app?vid=721f19a3-6fc8-4aa3-b8d6-b74174066f05","ios":"levelo://app?vid=721f19a3-6fc8-4aa3-b8d6-b74174066f05"},"vehicle_type_id":"4","last_reported":1746313719,"current_range_meters":8800,"station_id":"ce4bhr12rcd13ifvqhpg","pricing_plan_id":"cebpf4jnsgd1na2vs0mg"},{"bike_id":"3a6c1c4a-dd80-4e9d-9632-aaca59f6d0aa","system_id":"levelo_inurba_marseille","lat":43.3233,"lon":5.38915,"is_reserved":false,"is_disabled":false,"rental_uris":{"android":"levelo://app?vid=3a6c1c4a-dd80-4e9d-9632-aaca59f6d0aa","ios":"levelo://app?vid=3a6c1c4a-dd80-4e9d-9632-aaca59f6d0aa"},"vehicle_type_id":"4","last_reported":1746313719,"current_range_meters":8800,"station_id":"ce4bhqp2rcd13ifvqhog","pricing_plan_id":"cebpf4jnsgd1na2vs0mg"},{"bike_id":"efed8418-36b3-4a2f-8a3a-c844b0d0e3ad","system_id":"levelo_inurba_marseille","lat":43.31538,"lon":5.38015,"is_reserved":false,"is_disabled":false,"rental_uris":{"android":"levelo://app?vid=efed8418-36b3-4a2f-8a3a-c844b0d0e3ad","ios":"levelo://app?vid=efed8418-36b3-4a2f-8a3a-c844b0d0e3ad"},"vehicle_type_id":"4","last_reported":1746313719,"current_range_meters":8800,"station_id":"ce4bhsp2rcd13ifvqi50","pricing_plan_id":"cebpf4jnsgd1na2vs0mg"},{"bike_id":"50b837a0-2c82-46d2-8800-80f330abaac7","system_id":"levelo_inurba_marseille","lat":43.31273,"lon":5.40166,"is_reserved":false,"is_disabled":false,"rental_uris":{"android":"levelo://app?vid=50b837a0-2c82-46d2-8800-80f330abaac7","ios":"levelo://app?vid=50b837a0-2c82-46d2-8800-80f330abaac7"},"vehicle_type_id":"4","last_reported":1746313719,"current_range_meters":8400,"station_id":"ce4bh092rcd13ifvqd30","pricing_plan_id":"cebpf4jnsgd1na2vs0mg"},{"bike_id":"8df6e310-0880-40a9-a691-cd475dfa3928","system_id":"levelo_inurba_marseille","lat":43.285883,"lon":5.4425,"is_reserved":false,"is_disabled":false,"rental_uris":{"android":"levelo://app?vid=8df6e310-0880-40a9-a691-cd475dfa3928","ios":"levelo://app?vid=8df6e310-0880-40a9-a691-cd475dfa3928"},"vehicle_type_id":"4","last_reported":1746313719,"current_range_meters":8800,"station_id":"","pricing_plan_id":"cebpf4jnsgd1na2vs0mg"},{"bike_id":"1535a100-a5e3-470b-8112-05a549965b00","system_id":"levelo_inurba_marseille","lat":43.31324,"lon":5.39667,"is_reserved":false,"is_disabled":false,"rental_uris":{"android":"levelo://app?vid=1535a100-a5e3-470b-8112-05a549965b00","ios":"levelo://app?vid=1535a100-a5e3-470b-8112-05a549965b00"},"vehicle_type_id":"4","last_reported":1746313719,"current_range_meters":8800,"station_id":"ce4bgvp2rcd13ifvqcu0","pricing_plan_id":"cebpf4jnsgd1na2vs0mg"},{"bike_id":"d51bd1f8-5797-40a8-8b2d-1b322c3a66a4","system_id":"levelo_inurba_marseille","lat":43.30919,"lon":5.40143,"is_reserved":false,"is_disabled":false,"rental_uris":{"android":"levelo://app?vid=d51bd1f8-5797-40a8-8b2d-1b322c3a66a4","ios":"levelo://app?vid=d51bd1f8-5797-40a8-8b2d-1b322c3a66a4"},"vehicle_type_id":"4","last_reported":1746313719,"current_range_meters":9200,"station_id":"ce4bgvp2rcd13ifvqct0","pricing_plan_id":"cebpf4jnsgd1na2vs0mg"},{"bike_id":"f1ffd2b9-91e9-4bf5-a319-6e95940b0de6","system_id":"levelo_inurba_marseille","lat":43.295614,"lon":5.422748,"is_reserved":false,"is_disabled":false,"rental_uris":{"android":"levelo://app?vid=f1ffd2b9-91e9-4bf5-a319-6e95940b0de6","ios":"levelo://app?vid=f1ffd2b9-91e9-4bf5-a319-6e95940b0de6"},"vehicle_type_id":"4","last_reported":1746313719,"current_range_meters":9200,"station_id":"ce4bhph2rcd13ifvqhdg","pricing_plan_id":"cebpf4jnsgd1na2vs0mg"},{"bike_id":"d1b80fc2-f795-44b4-b467-b83495b681df","system_id":"levelo_inurba_marseille","lat":43.30417,"lon":5.41285,"is_reserved":false,"is_disabled":false,"rental_uris":{"android":"levelo://app?vid=d1b80fc2-f795-44b4-b467-b83495b681df","ios":"levelo://app?vid=d1b80fc2-f795-44b4-b467-b83495b681df"},"vehicle_type_id":"4","last_reported":1746313719,"current_range_meters":9200,"station_id":"ce4bhop2rcd13ifvqh8g","pricing_plan_id":"cebpf4jnsgd1na2vs0mg"},{"bike_id":"17bb867a-ff4b-4fc4-aef0-507aca66f5f8","system_id":"levelo_inurba_marseille","lat":43.26568,"lon":5.38986,"is_reserved":false,"is_disabled":false,"rental_uris":{"android":"levelo://app?vid=17bb867a-ff4b-4fc4-aef0-507aca66f5f8","ios":"levelo://app?vid=17bb867a-ff4b-4fc4-aef0-507aca66f5f8"},"vehicle_type_id":"4","last_reported":1746313719,"current_range_meters":9200,"station_id":"ce4bhe12rcd13ifvqf30","pricing_plan_id":"cebpf4jnsgd1na2vs0mg"},{"bike_id":"985a90ce-d60b-4656-8d16-86293aa1f9f9","system_id":"levelo_inurba_marseille","lat":43.29255,"lon":5.409016,"is_reserved":false,"is_disabled":false,"rental_uris":{"android":"levelo://app?vid=985a90ce-d60b-4656-8d16-86293aa1f9f9","ios":"levelo://app?vid=985a90ce-d60b-4656-8d16-86293aa1f9f9"},"vehicle_type_id":"4","last_reported":1746313719,"current_range_meters":9200,"station_id":"ce4bh192rcd13ifvqdc0","pricing_plan_id":"cebpf4jnsgd1na2vs0mg"},{"bike_id":"42b265ee-2f6e-42e6-be1a-7cd522f1be6f","system_id":"levelo_inurba_marseille","lat":43.278169,"lon":5.407207,"is_reserved":false,"is_disabled":false,"rental_uris":{"android":"levelo://app?vid=42b265ee-2f6e-42e6-be1a-7cd522f1be6f","ios":"levelo://app?vid=42b265ee-2f6e-42e6-be1a-7cd522f1be6f"},"vehicle_type_id":"4","last_reported":1746313719,"current_range_meters":9600,"station_id":"ce4bhnh2rcd13ifvqgtg","pricing_plan_id":"cebpf4jnsgd1na2vs0mg"},{"bike_id":"be9042c4-716a-416e-af52-c92d47776467","system_id":"levelo_inurba_marseille","lat":43.30932,"lon":5.40136,"is_reserved":false,"is_disabled":true,"rental_uris":{"android":"levelo://app?vid=be9042c4-716a-416e-af52-c92d47776467","ios":"levelo://app?vid=be9042c4-716a-416e-af52-c92d47776467"},"vehicle_type_id":"4","last_reported":1746313719,"current_range_meters":9600,"station_id":"ce4bgvp2rcd13ifvqct0","pricing_plan_id":"cebpf4jnsgd1na2vs0mg"},{"bike_id":"5d9a54ab-8ca5-45ce-9e8d-1ecc587fe2f3","system_id":"levelo_inurba_marseille","lat":43.297255,"lon":5.407268,"is_reserved":false,"is_disabled":false,"rental_uris":{"android":"levelo://app?vid=5d9a54ab-8ca5-45ce-9e8d-1ecc587fe2f3","ios":"levelo://app?vid=5d9a54ab-8ca5-45ce-9e8d-1ecc587fe2f3"},"vehicle_type_id":"4","last_reported":1746313719,"current_range_meters":9600,"station_id":"","pricing_plan_id":"cebpf4jnsgd1na2vs0mg"},{"bike_id":"4466a348-ba1c-46d7-981b-a5e5602811c3","system_id":"levelo_inurba_marseille","lat":43.30936,"lon":5.40129,"is_reserved":false,"is_disabled":false,"rental_uris":{"android":"levelo://app?vid=4466a348-ba1c-46d7-981b-a5e5602811c3","ios":"levelo://app?vid=4466a348-ba1c-46d7-981b-a5e5602811c3"},"vehicle_type_id":"4","last_reported":1746313719,"current_range_meters":9600,"station_id":"ce4bgvp2rcd13ifvqct0","pricing_plan_id":"cebpf4jnsgd1na2vs0mg"},{"bike_id":"34a07fe9-d312-484f-9b9b-c3a8b5e5e439","system_id":"levelo_inurba_marseille","lat":43.29532,"lon":5.38532,"is_reserved":false,"is_disabled":false,"rental_uris":{"android":"levelo://app?vid=34a07fe9-d312-484f-9b9b-c3a8b5e5e439","ios":"levelo://app?vid=34a07fe9-d312-484f-9b9b-c3a8b5e5e439"},"vehicle_type_id":"4","last_reported":1746313719,"current_range_meters":9600,"station_id":"ce4bgih2rcd13ifvqba0","pricing_plan_id":"cebpf4jnsgd1na2vs0mg"},{"bike_id":"6ae9068b-8534-47e2-832a-cb0e5255371d","system_id":"levelo_inurba_marseille","lat":43.337444,"lon":5.374475,"is_reserved":false,"is_disabled":false,"rental_uris":{"android":"levelo://app?vid=6ae9068b-8534-47e2-832a-cb0e5255371d","ios":"levelo://app?vid=6ae9068b-8534-47e2-832a-cb0e5255371d"},"vehicle_type_id":"4","last_reported":1746313719,"current_range_meters":9600,"station_id":"ce4bgvp2rcd13ifvqct0","pricing_plan_id":"cebpf4jnsgd1na2vs0mg"},{"bike_id":"eca0c70f-2168-48b0-96be-1e019bae5ee4","system_id":"levelo_inurba_marseille","lat":43.30929,"lon":5.4015,"is_reserved":false,"is_disabled":false,"rental_uris":{"android":"levelo://app?vid=eca0c70f-2168-48b0-96be-1e019bae5ee4","ios":"levelo://app?vid=eca0c70f-2168-48b0-96be-1e019bae5ee4"},"vehicle_type_id":"4","last_reported":1746313719,"current_range_meters":9600,"station_id":"ce4bgvp2rcd13ifvqct0","pricing_plan_id":"cebpf4jnsgd1na2vs0mg"},{"bike_id":"5453d414-cef1-4589-be92-1374fcb92d09","system_id":"levelo_inurba_marseille","lat":43.31364,"lon":5.384852,"is_reserved":false,"is_disabled":false,"rental_uris":{"android":"levelo://app?vid=5453d414-cef1-4589-be92-1374fcb92d09","ios":"levelo://app?vid=5453d414-cef1-4589-be92-1374fcb92d09"},"vehicle_type_id":"4","last_reported":1746313719,"current_range_meters":9600,"station_id":"ce4bgt92rcd13ifvqcf0","pricing_plan_id":"cebpf4jnsgd1na2vs0mg"},{"bike_id":"0e34a68a-1e7e-4217-99de-5fd03012d1b6","system_id":"levelo_inurba_marseille","lat":43.23968,"lon":5.36618,"is_reserved":false,"is_disabled":false,"rental_uris":{"android":"levelo://app?vid=0e34a68a-1e7e-4217-99de-5fd03012d1b6","ios":"levelo://app?vid=0e34a68a-1e7e-4217-99de-5fd03012d1b6"},"vehicle_type_id":"4","last_reported":1746313719,"current_range_meters":9600,"station_id":"ce4bhi12rcd13ifvqfp0","pricing_plan_id":"cebpf4jnsgd1na2vs0mg"},{"bike_id":"8bca6a68-24be-4919-828c-8b42767c2d8f","system_id":"levelo_inurba_marseille","lat":43.3011,"lon":5.39859,"is_reserved":false,"is_disabled":false,"rental_uris":{"android":"levelo://app?vid=8bca6a68-24be-4919-828c-8b42767c2d8f","ios":"levelo://app?vid=8bca6a68-24be-4919-828c-8b42767c2d8f"},"vehicle_type_id":"4","last_reported":1746313719,"current_range_meters":9200,"station_id":"ce4bh0h2rcd13ifvqd40","pricing_plan_id":"cebpf4jnsgd1na2vs0mg"},{"bike_id":"f0259f55-382d-4317-a5a3-c63365a0d76b","system_id":"levelo_inurba_marseille","lat":43.25488,"lon":5.41813,"is_reserved":false,"is_disabled":false,"rental_uris":{"android":"levelo://app?vid=f0259f55-382d-4317-a5a3-c63365a0d76b","ios":"levelo://app?vid=f0259f55-382d-4317-a5a3-c63365a0d76b"},"vehicle_type_id":"4","last_reported":1746313719,"current_range_meters":10000,"station_id":"","pricing_plan_id":"cebpf4jnsgd1na2vs0mg"},{"bike_id":"69fc3547-156d-4f01-9ac4-97f0a423ea7c","system_id":"levelo_inurba_marseille","lat":43.28042,"lon":5.36941,"is_reserved":false,"is_disabled":false,"rental_uris":{"android":"levelo://app?vid=69fc3547-156d-4f01-9ac4-97f0a423ea7c","ios":"levelo://app?vid=69fc3547-156d-4f01-9ac4-97f0a423ea7c"},"vehicle_type_id":"4","last_reported":1746313719,"current_range_meters":10000,"station_id":"ce4bha12rcd13ifvqef0","pricing_plan_id":"cebpf4jnsgd1na2vs0mg"},{"bike_id":"59c05668-9a78-4683-b670-a7794c85b3b0","system_id":"levelo_inurba_marseille","lat":43.293726,"lon":5.378621,"is_reserved":false,"is_disabled":true,"rental_uris":{"android":"levelo://app?vid=59c05668-9a78-4683-b670-a7794c85b3b0","ios":"levelo://app?vid=59c05668-9a78-4683-b670-a7794c85b3b0"},"vehicle_type_id":"4","last_reported":1746313719,"current_range_meters":10000,"station_id":"ce4bgjh2rcd13ifvqbf0","pricing_plan_id":"cebpf4jnsgd1na2vs0mg"},{"bike_id":"f2c0fc38-9870-4ac8-b04b-9b0297c9943f","system_id":"levelo_inurba_marseille","lat":43.24684,"lon":5.38157,"is_reserved":false,"is_disabled":false,"rental_uris":{"android":"levelo://app?vid=f2c0fc38-9870-4ac8-b04b-9b0297c9943f","ios":"levelo://app?vid=f2c0fc38-9870-4ac8-b04b-9b0297c9943f"},"vehicle_type_id":"4","last_reported":1746313719,"current_range_meters":10000,"station_id":"ce4bhih2rcd13ifvqfr0","pricing_plan_id":"cebpf4jnsgd1na2vs0mg"},{"bike_id":"d9864190-930a-48ae-986f-535de6dd6226","system_id":"levelo_inurba_marseille","lat":43.292,"lon":5.35795,"is_reserved":false,"is_disabled":false,"rental_uris":{"android":"levelo://app?vid=d9864190-930a-48ae-986f-535de6dd6226","ios":"levelo://app?vid=d9864190-930a-48ae-986f-535de6dd6226"},"vehicle_type_id":"4","last_reported":1746313719,"current_range_meters":10000,"station_id":"ce4bhb12rcd13ifvqel0","pricing_plan_id":"cebpf4jnsgd1na2vs0mg"},{"bike_id":"67dd2929-fb76-4bca-9589-abaab85e50ac","system_id":"levelo_inurba_marseille","lat":43.26571,"lon":5.39006,"is_reserved":false,"is_disabled":false,"rental_uris":{"android":"levelo://app?vid=67dd2929-fb76-4bca-9589-abaab85e50ac","ios":"levelo://app?vid=67dd2929-fb76-4bca-9589-abaab85e50ac"},"vehicle_type_id":"4","last_reported":1746313719,"current_range_meters":10000,"station_id":"ce4bhe12rcd13ifvqf30","pricing_plan_id":"cebpf4jnsgd1na2vs0mg"},{"bike_id":"7e828c7e-6891-4097-9132-c00eba58b4ee","system_id":"levelo_inurba_marseille","lat":43.29254,"lon":5.409,"is_reserved":false,"is_disabled":false,"rental_uris":{"android":"levelo://app?vid=7e828c7e-6891-4097-9132-c00eba58b4ee","ios":"levelo://app?vid=7e828c7e-6891-4097-9132-c00eba58b4ee"},"vehicle_type_id":"4","last_reported":1746313719,"current_range_meters":9600,"station_id":"ce4bh192rcd13ifvqdc0","pricing_plan_id":"cebpf4jnsgd1na2vs0mg"},{"bike_id":"fb582505-15b6-40c6-97cc-2feebea7d568","system_id":"levelo_inurba_marseille","lat":43.304291,"lon":5.39736,"is_reserved":false,"is_disabled":true,"rental_uris":{"android":"levelo://app?vid=fb582505-15b6-40c6-97cc-2feebea7d568","ios":"levelo://app?vid=fb582505-15b6-40c6-97cc-2feebea7d568"},"vehicle_type_id":"4","last_reported":1746313719,"current_range_meters":10800,"station_id":"ce4bh092rcd13ifvqd20","pricing_plan_id":"cebpf4jnsgd1na2vs0mg"},{"bike_id":"75fa9943-cbe0-4940-a9be-f80f8dede2da","system_id":"levelo_inurba_marseille","lat":43.22517,"lon":5.34777,"is_reserved":false,"is_disabled":false,"rental_uris":{"android":"levelo://app?vid=75fa9943-cbe0-4940-a9be-f80f8dede2da","ios":"levelo://app?vid=75fa9943-cbe0-4940-a9be-f80f8dede2da"},"vehicle_type_id":"4","last_reported":1746313719,"current_range_meters":10800,"station_id":"st_cvj5dfep6f1abm77gieg","pricing_plan_id":"cebpf4jnsgd1na2vs0mg"},{"bike_id":"b2bed98a-b840-49dc-9665-7e2b295b016b","system_id":"levelo_inurba_marseille","lat":43.292596,"lon":5.384408,"is_reserved":false,"is_disabled":true,"rental_uris":{"android":"levelo://app?vid=b2bed98a-b840-49dc-9665-7e2b295b016b","ios":"levelo://app?vid=b2bed98a-b840-49dc-9665-7e2b295b016b"},"vehicle_type_id":"4","last_reported":1746313719,"current_range_meters":10800,"station_id":"ce4bh692rcd13ifvqea0","pricing_plan_id":"cebpf4jnsgd1na2vs0mg"},{"bike_id":"2f2e2422-0ca9-4635-8561-f770e540dc91","system_id":"levelo_inurba_marseille","lat":43.29783,"lon":5.37015,"is_reserved":false,"is_disabled":false,"rental_uris":{"android":"levelo://app?vid=2f2e2422-0ca9-4635-8561-f770e540dc91","ios":"levelo://app?vid=2f2e2422-0ca9-4635-8561-f770e540dc91"},"vehicle_type_id":"4","last_reported":1746313719,"current_range_meters":10800,"station_id":"","pricing_plan_id":"cebpf4jnsgd1na2vs0mg"},{"bike_id":"c9667bec-b4e1-4aba-85da-6ad1e46c0b9d","system_id":"levelo_inurba_marseille","lat":43.27063,"lon":5.42271,"is_reserved":false,"is_disabled":false,"rental_uris":{"android":"levelo://app?vid=c9667bec-b4e1-4aba-85da-6ad1e46c0b9d","ios":"levelo://app?vid=c9667bec-b4e1-4aba-85da-6ad1e46c0b9d"},"vehicle_type_id":"4","last_reported":1746313719,"current_range_meters":10800,"station_id":"ce4bhk92rcd13ifvqgb0","pricing_plan_id":"cebpf4jnsgd1na2vs0mg"},{"bike_id":"ff85802d-0bcd-4a45-9f91-6d6fa0c2c4f0","system_id":"levelo_inurba_marseille","lat":43.30939,"lon":5.4014,"is_reserved":false,"is_disabled":false,"rental_uris":{"android":"levelo://app?vid=ff85802d-0bcd-4a45-9f91-6d6fa0c2c4f0","ios":"levelo://app?vid=ff85802d-0bcd-4a45-9f91-6d6fa0c2c4f0"},"vehicle_type_id":"4","last_reported":1746313719,"current_range_meters":10800,"station_id":"ce4bgvp2rcd13ifvqct0","pricing_plan_id":"cebpf4jnsgd1na2vs0mg"},{"bike_id":"d11ad4ed-5483-4abb-b8ae-c4e0f73880b4","system_id":"levelo_inurba_marseille","lat":43.317165,"lon":5.437008,"is_reserved":false,"is_disabled":false,"rental_uris":{"android":"levelo://app?vid=d11ad4ed-5483-4abb-b8ae-c4e0f73880b4","ios":"levelo://app?vid=d11ad4ed-5483-4abb-b8ae-c4e0f73880b4"},"vehicle_type_id":"4","last_reported":1746313719,"current_range_meters":10800,"station_id":"ce4bhp92rcd13ifvqhcg","pricing_plan_id":"cebpf4jnsgd1na2vs0mg"},{"bike_id":"4ba868f1-7884-4df1-931d-574bcb62eaf3","system_id":"levelo_inurba_marseille","lat":43.31358,"lon":5.38487,"is_reserved":false,"is_disabled":false,"rental_uris":{"android":"levelo://app?vid=4ba868f1-7884-4df1-931d-574bcb62eaf3","ios":"levelo://app?vid=4ba868f1-7884-4df1-931d-574bcb62eaf3"},"vehicle_type_id":"4","last_reported":1746313719,"current_range_meters":10800,"station_id":"ce4bgt92rcd13ifvqcf0","pricing_plan_id":"cebpf4jnsgd1na2vs0mg"},{"bike_id":"be702881-2a75-42d9-9739-ce60034c0430","system_id":"levelo_inurba_marseille","lat":43.30887,"lon":5.39632,"is_reserved":false,"is_disabled":false,"rental_uris":{"android":"levelo://app?vid=be702881-2a75-42d9-9739-ce60034c0430","ios":"levelo://app?vid=be702881-2a75-42d9-9739-ce60034c0430"},"vehicle_type_id":"4","last_reported":1746313719,"current_range_meters":10800,"station_id":"ce4bh012rcd13ifvqcv0","pricing_plan_id":"cebpf4jnsgd1na2vs0mg"},{"bike_id":"e141d286-5a2c-470e-8ce3-fc63bfe9226f","system_id":"levelo_inurba_marseille","lat":43.33747,"lon":5.41887,"is_reserved":false,"is_disabled":false,"rental_uris":{"android":"levelo://app?vid=e141d286-5a2c-470e-8ce3-fc63bfe9226f","ios":"levelo://app?vid=e141d286-5a2c-470e-8ce3-fc63bfe9226f"},"vehicle_type_id":"4","last_reported":1746313719,"current_range_meters":10800,"station_id":"","pricing_plan_id":"cebpf4jnsgd1na2vs0mg"},{"bike_id":"9e4ac6c0-9237-43a7-b95c-8b42b41c7d3f","system_id":"levelo_inurba_marseille","lat":43.3054,"lon":5.3842,"is_reserved":false,"is_disabled":false,"rental_uris":{"android":"levelo://app?vid=9e4ac6c0-9237-43a7-b95c-8b42b41c7d3f","ios":"levelo://app?vid=9e4ac6c0-9237-43a7-b95c-8b42b41c7d3f"},"vehicle_type_id":"4","last_reported":1746313719,"current_range_meters":10000,"station_id":"ce4bgg92rcd13ifvqb30","pricing_plan_id":"cebpf4jnsgd1na2vs0mg"},{"bike_id":"312c32b8-4dbd-4de6-88c2-27508a8345fb","system_id":"levelo_inurba_marseille","lat":43.26572,"lon":5.38993,"is_reserved":false,"is_disabled":false,"rental_uris":{"android":"levelo://app?vid=312c32b8-4dbd-4de6-88c2-27508a8345fb","ios":"levelo://app?vid=312c32b8-4dbd-4de6-88c2-27508a8345fb"},"vehicle_type_id":"4","last_reported":1746313719,"current_range_meters":10800,"station_id":"ce4bhe12rcd13ifvqf30","pricing_plan_id":"cebpf4jnsgd1na2vs0mg"},{"bike_id":"c6063f25-88c2-4ee8-8b47-7eeebc20b14f","system_id":"levelo_inurba_marseille","lat":43.24784,"lon":5.37454,"is_reserved":false,"is_disabled":false,"rental_uris":{"android":"levelo://app?vid=c6063f25-88c2-4ee8-8b47-7eeebc20b14f","ios":"levelo://app?vid=c6063f25-88c2-4ee8-8b47-7eeebc20b14f"},"vehicle_type_id":"4","last_reported":1746313719,"current_range_meters":10800,"station_id":"ce4bhgh2rcd13ifvqfb0","pricing_plan_id":"cebpf4jnsgd1na2vs0mg"},{"bike_id":"b8028bbc-e0b2-47d7-951d-2ca751c3d28a","system_id":"levelo_inurba_marseille","lat":43.27818,"lon":5.40716,"is_reserved":false,"is_disabled":false,"rental_uris":{"android":"levelo://app?vid=b8028bbc-e0b2-47d7-951d-2ca751c3d28a","ios":"levelo://app?vid=b8028bbc-e0b2-47d7-951d-2ca751c3d28a"},"vehicle_type_id":"4","last_reported":1746313719,"current_range_meters":10800,"station_id":"ce4bhnh2rcd13ifvqgtg","pricing_plan_id":"cebpf4jnsgd1na2vs0mg"},{"bike_id":"482f00aa-c3ee-446b-8f24-a1d4dffa2e19","system_id":"levelo_inurba_marseille","lat":43.296977,"lon":5.376917,"is_reserved":false,"is_disabled":true,"rental_uris":{"android":"levelo://app?vid=482f00aa-c3ee-446b-8f24-a1d4dffa2e19","ios":"levelo://app?vid=482f00aa-c3ee-446b-8f24-a1d4dffa2e19"},"vehicle_type_id":"4","last_reported":1746313719,"current_range_meters":10800,"station_id":"ce4bgkh2rcd13ifvqbl0","pricing_plan_id":"cebpf4jnsgd1na2vs0mg"},{"bike_id":"ca90b15d-e8b3-442a-8266-f294686dfc53","system_id":"levelo_inurba_marseille","lat":43.30535,"lon":5.3843,"is_reserved":false,"is_disabled":false,"rental_uris":{"android":"levelo://app?vid=ca90b15d-e8b3-442a-8266-f294686dfc53","ios":"levelo://app?vid=ca90b15d-e8b3-442a-8266-f294686dfc53"},"vehicle_type_id":"4","last_reported":1746313719,"current_range_meters":10800,"station_id":"ce4bgg92rcd13ifvqb30","pricing_plan_id":"cebpf4jnsgd1na2vs0mg"},{"bike_id":"fbe03a6a-9df9-4ccf-80fc-134dc54c5db3","system_id":"levelo_inurba_marseille","lat":43.265657,"lon":5.372937,"is_reserved":false,"is_disabled":false,"rental_uris":{"android":"levelo://app?vid=fbe03a6a-9df9-4ccf-80fc-134dc54c5db3","ios":"levelo://app?vid=fbe03a6a-9df9-4ccf-80fc-134dc54c5db3"},"vehicle_type_id":"4","last_reported":1746313719,"current_range_meters":11200,"station_id":"ce4bhg12rcd13ifvqf70","pricing_plan_id":"cebpf4jnsgd1na2vs0mg"},{"bike_id":"a37779e7-3d8a-4c82-9997-3090313b05d7","system_id":"levelo_inurba_marseille","lat":43.22926,"lon":5.3537,"is_reserved":false,"is_disabled":true,"rental_uris":{"android":"levelo://app?vid=a37779e7-3d8a-4c82-9997-3090313b05d7","ios":"levelo://app?vid=a37779e7-3d8a-4c82-9997-3090313b05d7"},"vehicle_type_id":"4","last_reported":1746313719,"current_range_meters":11200,"station_id":"cpo3532slgdg3j2ikp40","pricing_plan_id":"cebpf4jnsgd1na2vs0mg"},{"bike_id":"c42d6fc4-22d2-4b20-b724-d98e4c8fa6ee","system_id":"levelo_inurba_marseille","lat":43.3138,"lon":5.38481,"is_reserved":false,"is_disabled":false,"rental_uris":{"android":"levelo://app?vid=c42d6fc4-22d2-4b20-b724-d98e4c8fa6ee","ios":"levelo://app?vid=c42d6fc4-22d2-4b20-b724-d98e4c8fa6ee"},"vehicle_type_id":"4","last_reported":1746313719,"current_range_meters":11200,"station_id":"ce4bgt92rcd13ifvqcf0","pricing_plan_id":"cebpf4jnsgd1na2vs0mg"},{"bike_id":"dde313c9-2956-4963-9e10-a6ae4348ff85","system_id":"levelo_inurba_marseille","lat":43.31486,"lon":5.37301,"is_reserved":false,"is_disabled":false,"rental_uris":{"android":"levelo://app?vid=dde313c9-2956-4963-9e10-a6ae4348ff85","ios":"levelo://app?vid=dde313c9-2956-4963-9e10-a6ae4348ff85"},"vehicle_type_id":"4","last_reported":1746313719,"current_range_meters":11200,"station_id":"ce4bgt12rcd13ifvqcd0","pricing_plan_id":"cebpf4jnsgd1na2vs0mg"},{"bike_id":"fd2c3c67-23a6-4380-b7ca-8f23c8f78921","system_id":"levelo_inurba_marseille","lat":43.32368,"lon":5.3673,"is_reserved":false,"is_disabled":false,"rental_uris":{"android":"levelo://app?vid=fd2c3c67-23a6-4380-b7ca-8f23c8f78921","ios":"levelo://app?vid=fd2c3c67-23a6-4380-b7ca-8f23c8f78921"},"vehicle_type_id":"4","last_reported":1746313719,"current_range_meters":11200,"station_id":"ce4bhsh2rcd13ifvqi2g","pricing_plan_id":"cebpf4jnsgd1na2vs0mg"},{"bike_id":"e4856e11-0139-477e-a022-4b979369719b","system_id":"levelo_inurba_marseille","lat":43.23968,"lon":5.36622,"is_reserved":false,"is_disabled":false,"rental_uris":{"android":"levelo://app?vid=e4856e11-0139-477e-a022-4b979369719b","ios":"levelo://app?vid=e4856e11-0139-477e-a022-4b979369719b"},"vehicle_type_id":"4","last_reported":1746313719,"current_range_meters":11600,"station_id":"ce4bhi12rcd13ifvqfp0","pricing_plan_id":"cebpf4jnsgd1na2vs0mg"},{"bike_id":"d447b317-7fe8-4b25-a86f-02fbc65ddcfa","system_id":"levelo_inurba_marseille","lat":43.23151,"lon":5.43725,"is_reserved":false,"is_disabled":false,"rental_uris":{"android":"levelo://app?vid=d447b317-7fe8-4b25-a86f-02fbc65ddcfa","ios":"levelo://app?vid=d447b317-7fe8-4b25-a86f-02fbc65ddcfa"},"vehicle_type_id":"4","last_reported":1746313719,"current_range_meters":11600,"station_id":"ce4bhmp2rcd13ifvqgog","pricing_plan_id":"cebpf4jnsgd1na2vs0mg"},{"bike_id":"c2c5beff-ec8e-48ee-825a-e3cdf2e54b49","system_id":"levelo_inurba_marseille","lat":43.29221,"lon":5.40002,"is_reserved":false,"is_disabled":false,"rental_uris":{"android":"levelo://app?vid=c2c5beff-ec8e-48ee-825a-e3cdf2e54b49","ios":"levelo://app?vid=c2c5beff-ec8e-48ee-825a-e3cdf2e54b49"},"vehicle_type_id":"4","last_reported":1746313719,"current_range_meters":11600,"station_id":"","pricing_plan_id":"cebpf4jnsgd1na2vs0mg"},{"bike_id":"1f192409-3bd6-4ef0-ae18-1d604dedc99e","system_id":"levelo_inurba_marseille","lat":43.23312,"lon":5.357447,"is_reserved":false,"is_disabled":false,"rental_uris":{"android":"levelo://app?vid=1f192409-3bd6-4ef0-ae18-1d604dedc99e","ios":"levelo://app?vid=1f192409-3bd6-4ef0-ae18-1d604dedc99e"},"vehicle_type_id":"4","last_reported":1746313719,"current_range_meters":11600,"station_id":"","pricing_plan_id":"cebpf4jnsgd1na2vs0mg"},{"bike_id":"490f4dd2-526f-486e-be14-25a2ce708a63","system_id":"levelo_inurba_marseille","lat":43.284164,"lon":5.3857,"is_reserved":false,"is_disabled":false,"rental_uris":{"android":"levelo://app?vid=490f4dd2-526f-486e-be14-25a2ce708a63","ios":"levelo://app?vid=490f4dd2-526f-486e-be14-25a2ce708a63"},"vehicle_type_id":"4","last_reported":1746313719,"current_range_meters":12000,"station_id":"ce4bh492rcd13ifvqdvg","pricing_plan_id":"cebpf4jnsgd1na2vs0mg"},{"bike_id":"274ad913-cb5d-44ea-8484-26eae07424ea","system_id":"levelo_inurba_marseille","lat":43.25862,"lon":5.39902,"is_reserved":false,"is_disabled":true,"rental_uris":{"android":"levelo://app?vid=274ad913-cb5d-44ea-8484-26eae07424ea","ios":"levelo://app?vid=274ad913-cb5d-44ea-8484-26eae07424ea"},"vehicle_type_id":"4","last_reported":1746313719,"current_range_meters":12000,"station_id":"ce4bhl92rcd13ifvqghg","pricing_plan_id":"cebpf4jnsgd1na2vs0mg"},{"bike_id":"783515b3-7f7d-42e0-b08a-88f954d1a2f6","system_id":"levelo_inurba_marseille","lat":43.30417,"lon":5.39756,"is_reserved":false,"is_disabled":false,"rental_uris":{"android":"levelo://app?vid=783515b3-7f7d-42e0-b08a-88f954d1a2f6","ios":"levelo://app?vid=783515b3-7f7d-42e0-b08a-88f954d1a2f6"},"vehicle_type_id":"4","last_reported":1746313719,"current_range_meters":12000,"station_id":"ce4bh092rcd13ifvqd20","pricing_plan_id":"cebpf4jnsgd1na2vs0mg"},{"bike_id":"372299a9-78dc-45c3-97d0-fb50adbcc687","system_id":"levelo_inurba_marseille","lat":43.2668,"lon":5.38272,"is_reserved":false,"is_disabled":false,"rental_uris":{"android":"levelo://app?vid=372299a9-78dc-45c3-97d0-fb50adbcc687","ios":"levelo://app?vid=372299a9-78dc-45c3-97d0-fb50adbcc687"},"vehicle_type_id":"4","last_reported":1746313719,"current_range_meters":11600,"station_id":"ce4bhg92rcd13ifvqf90","pricing_plan_id":"cebpf4jnsgd1na2vs0mg"},{"bike_id":"aedf206f-89f3-4f30-9da6-56fb7ff8915b","system_id":"levelo_inurba_marseille","lat":43.281144,"lon":5.404045,"is_reserved":false,"is_disabled":false,"rental_uris":{"android":"levelo://app?vid=aedf206f-89f3-4f30-9da6-56fb7ff8915b","ios":"levelo://app?vid=aedf206f-89f3-4f30-9da6-56fb7ff8915b"},"vehicle_type_id":"4","last_reported":1746313719,"current_range_meters":12400,"station_id":"","pricing_plan_id":"cebpf4jnsgd1na2vs0mg"},{"bike_id":"7e885929-d2cf-4406-84ca-9354d096bfe7","system_id":"levelo_inurba_marseille","lat":43.24389,"lon":5.37058,"is_reserved":false,"is_disabled":false,"rental_uris":{"android":"levelo://app?vid=7e885929-d2cf-4406-84ca-9354d096bfe7","ios":"levelo://app?vid=7e885929-d2cf-4406-84ca-9354d096bfe7"},"vehicle_type_id":"4","last_reported":1746313719,"current_range_meters":12000,"station_id":"ce4bhhh2rcd13ifvqfk0","pricing_plan_id":"cebpf4jnsgd1na2vs0mg"},{"bike_id":"1d59b5c9-cca4-43f9-a7f4-1bb7ebcfb8ae","system_id":"levelo_inurba_marseille","lat":43.27373,"lon":5.362545,"is_reserved":false,"is_disabled":true,"rental_uris":{"android":"levelo://app?vid=1d59b5c9-cca4-43f9-a7f4-1bb7ebcfb8ae","ios":"levelo://app?vid=1d59b5c9-cca4-43f9-a7f4-1bb7ebcfb8ae"},"vehicle_type_id":"4","last_reported":1746313719,"current_range_meters":12400,"station_id":"","pricing_plan_id":"cebpf4jnsgd1na2vs0mg"},{"bike_id":"137e2f05-7a3f-4469-b764-489029ad32c6","system_id":"levelo_inurba_marseille","lat":43.30956,"lon":5.39034,"is_reserved":false,"is_disabled":false,"rental_uris":{"android":"levelo://app?vid=137e2f05-7a3f-4469-b764-489029ad32c6","ios":"levelo://app?vid=137e2f05-7a3f-4469-b764-489029ad32c6"},"vehicle_type_id":"4","last_reported":1746313719,"current_range_meters":12400,"station_id":"ce4bgup2rcd13ifvqco0","pricing_plan_id":"cebpf4jnsgd1na2vs0mg"},{"bike_id":"3bd56796-a588-4245-b00a-65ccc252ae20","system_id":"levelo_inurba_marseille","lat":43.323412,"lon":5.406202,"is_reserved":false,"is_disabled":false,"rental_uris":{"android":"levelo://app?vid=3bd56796-a588-4245-b00a-65ccc252ae20","ios":"levelo://app?vid=3bd56796-a588-4245-b00a-65ccc252ae20"},"vehicle_type_id":"4","last_reported":1746313719,"current_range_meters":12400,"station_id":"ce4bhq92rcd13ifvqhjg","pricing_plan_id":"cebpf4jnsgd1na2vs0mg"},{"bike_id":"6338e318-2f80-4349-ae11-615c887b4fb9","system_id":"levelo_inurba_marseille","lat":43.25925,"lon":5.40859,"is_reserved":false,"is_disabled":false,"rental_uris":{"android":"levelo://app?vid=6338e318-2f80-4349-ae11-615c887b4fb9","ios":"levelo://app?vid=6338e318-2f80-4349-ae11-615c887b4fb9"},"vehicle_type_id":"4","last_reported":1746313719,"current_range_meters":12400,"station_id":"ce4bhm92rcd13ifvqglg","pricing_plan_id":"cebpf4jnsgd1na2vs0mg"},{"bike_id":"366ceea0-0f7f-419d-846d-974b09ac10ef","system_id":"levelo_inurba_marseille","lat":43.28036,"lon":5.36939,"is_reserved":false,"is_disabled":false,"rental_uris":{"android":"levelo://app?vid=366ceea0-0f7f-419d-846d-974b09ac10ef","ios":"levelo://app?vid=366ceea0-0f7f-419d-846d-974b09ac10ef"},"vehicle_type_id":"4","last_reported":1746313719,"current_range_meters":12800,"station_id":"ce4bha12rcd13ifvqef0","pricing_plan_id":"cebpf4jnsgd1na2vs0mg"},{"bike_id":"3478d228-fbca-4a4a-aef8-f4aacb27dbf9","system_id":"levelo_inurba_marseille","lat":43.284434,"lon":5.39207,"is_reserved":false,"is_disabled":false,"rental_uris":{"android":"levelo://app?vid=3478d228-fbca-4a4a-aef8-f4aacb27dbf9","ios":"levelo://app?vid=3478d228-fbca-4a4a-aef8-f4aacb27dbf9"},"vehicle_type_id":"4","last_reported":1746313719,"current_range_meters":12800,"station_id":"ce4bhoh2rcd13ifvqh5g","pricing_plan_id":"cebpf4jnsgd1na2vs0mg"},{"bike_id":"4cd32815-4894-41a0-9a3d-e6c837dcaeea","system_id":"levelo_inurba_marseille","lat":43.299732,"lon":5.384915,"is_reserved":false,"is_disabled":true,"rental_uris":{"android":"levelo://app?vid=4cd32815-4894-41a0-9a3d-e6c837dcaeea","ios":"levelo://app?vid=4cd32815-4894-41a0-9a3d-e6c837dcaeea"},"vehicle_type_id":"4","last_reported":1746313719,"current_range_meters":12800,"station_id":"ce4bgj92rcd13ifvqbd0","pricing_plan_id":"cebpf4jnsgd1na2vs0mg"},{"bike_id":"3e84121a-71ad-4261-b6a9-37316f8cbd59","system_id":"levelo_inurba_marseille","lat":43.290249,"lon":5.386426,"is_reserved":false,"is_disabled":true,"rental_uris":{"android":"levelo://app?vid=3e84121a-71ad-4261-b6a9-37316f8cbd59","ios":"levelo://app?vid=3e84121a-71ad-4261-b6a9-37316f8cbd59"},"vehicle_type_id":"4","last_reported":1746313719,"current_range_meters":12800,"station_id":"ce4bh4p2rcd13ifvqe0g","pricing_plan_id":"cebpf4jnsgd1na2vs0mg"},{"bike_id":"c99436f9-8239-47d1-849f-3200a0b98988","system_id":"levelo_inurba_marseille","lat":43.28468,"lon":5.3589,"is_reserved":false,"is_disabled":false,"rental_uris":{"android":"levelo://app?vid=c99436f9-8239-47d1-849f-3200a0b98988","ios":"levelo://app?vid=c99436f9-8239-47d1-849f-3200a0b98988"},"vehicle_type_id":"4","last_reported":1746313719,"current_range_meters":13600,"station_id":"ce4bhah2rcd13ifvqei0","pricing_plan_id":"cebpf4jnsgd1na2vs0mg"},{"bike_id":"9732b7e1-1614-4bf9-9ec9-f2c1bbf4aeb4","system_id":"levelo_inurba_marseille","lat":43.30641,"lon":5.401,"is_reserved":false,"is_disabled":false,"rental_uris":{"android":"levelo://app?vid=9732b7e1-1614-4bf9-9ec9-f2c1bbf4aeb4","ios":"levelo://app?vid=9732b7e1-1614-4bf9-9ec9-f2c1bbf4aeb4"},"vehicle_type_id":"4","last_reported":1746313719,"current_range_meters":13600,"station_id":"ce4bh112rcd13ifvqda0","pricing_plan_id":"cebpf4jnsgd1na2vs0mg"},{"bike_id":"cd610a96-6273-4883-84ac-22b6ba560ca0","system_id":"levelo_inurba_marseille","lat":43.306,"lon":5.39348,"is_reserved":false,"is_disabled":false,"rental_uris":{"android":"levelo://app?vid=cd610a96-6273-4883-84ac-22b6ba560ca0","ios":"levelo://app?vid=cd610a96-6273-4883-84ac-22b6ba560ca0"},"vehicle_type_id":"4","last_reported":1746313719,"current_range_meters":13600,"station_id":"ce4bh0p2rcd13ifvqd80","pricing_plan_id":"cebpf4jnsgd1na2vs0mg"},{"bike_id":"1f0adf54-0dd1-46c7-894d-c4baf2800894","system_id":"levelo_inurba_marseille","lat":43.30963,"lon":5.39051,"is_reserved":false,"is_disabled":false,"rental_uris":{"android":"levelo://app?vid=1f0adf54-0dd1-46c7-894d-c4baf2800894","ios":"levelo://app?vid=1f0adf54-0dd1-46c7-894d-c4baf2800894"},"vehicle_type_id":"4","last_reported":1746313719,"current_range_meters":13600,"station_id":"ce4bgup2rcd13ifvqco0","pricing_plan_id":"cebpf4jnsgd1na2vs0mg"},{"bike_id":"4c281719-0627-4ebf-8af4-07cb2ba7736a","system_id":"levelo_inurba_marseille","lat":43.33721,"lon":5.39188,"is_reserved":false,"is_disabled":false,"rental_uris":{"android":"levelo://app?vid=4c281719-0627-4ebf-8af4-07cb2ba7736a","ios":"levelo://app?vid=4c281719-0627-4ebf-8af4-07cb2ba7736a"},"vehicle_type_id":"4","last_reported":1746313719,"current_range_meters":13600,"station_id":"ce4bhr92rcd13ifvqhsg","pricing_plan_id":"cebpf4jnsgd1na2vs0mg"},{"bike_id":"752c9bc6-8e15-4e2c-8ef7-07a7e584aed9","system_id":"levelo_inurba_marseille","lat":43.28682,"lon":5.38672,"is_reserved":false,"is_disabled":false,"rental_uris":{"android":"levelo://app?vid=752c9bc6-8e15-4e2c-8ef7-07a7e584aed9","ios":"levelo://app?vid=752c9bc6-8e15-4e2c-8ef7-07a7e584aed9"},"vehicle_type_id":"4","last_reported":1746313719,"current_range_meters":14000,"station_id":"ce4bh492rcd13ifvqdug","pricing_plan_id":"cebpf4jnsgd1na2vs0mg"},{"bike_id":"7f41a797-7828-47fe-ba40-a8a82c4e02df","system_id":"levelo_inurba_marseille","lat":43.28465,"lon":5.35879,"is_reserved":false,"is_disabled":false,"rental_uris":{"android":"levelo://app?vid=7f41a797-7828-47fe-ba40-a8a82c4e02df","ios":"levelo://app?vid=7f41a797-7828-47fe-ba40-a8a82c4e02df"},"vehicle_type_id":"4","last_reported":1746313719,"current_range_meters":12000,"station_id":"ce4bhah2rcd13ifvqei0","pricing_plan_id":"cebpf4jnsgd1na2vs0mg"},{"bike_id":"cfc6a7c1-96e7-4f7d-8a03-23f3e8d00dbc","system_id":"levelo_inurba_marseille","lat":43.27572,"lon":5.38429,"is_reserved":false,"is_disabled":false,"rental_uris":{"android":"levelo://app?vid=cfc6a7c1-96e7-4f7d-8a03-23f3e8d00dbc","ios":"levelo://app?vid=cfc6a7c1-96e7-4f7d-8a03-23f3e8d00dbc"},"vehicle_type_id":"4","last_reported":1746313719,"current_range_meters":14000,"station_id":"ce4bhh92rcd13ifvqfi0","pricing_plan_id":"cebpf4jnsgd1na2vs0mg"},{"bike_id":"caa3b617-1d43-4682-a780-1cb1e02d32bc","system_id":"levelo_inurba_marseille","lat":43.2866,"lon":5.36355,"is_reserved":false,"is_disabled":false,"rental_uris":{"android":"levelo://app?vid=caa3b617-1d43-4682-a780-1cb1e02d32bc","ios":"levelo://app?vid=caa3b617-1d43-4682-a780-1cb1e02d32bc"},"vehicle_type_id":"4","last_reported":1746313719,"current_range_meters":14000,"station_id":"ce4bhah2rcd13ifvqej0","pricing_plan_id":"cebpf4jnsgd1na2vs0mg"},{"bike_id":"28b4bc83-5c8b-4e9d-aba4-7a153d3e0dfe","system_id":"levelo_inurba_marseille","lat":43.30328,"lon":5.40439,"is_reserved":false,"is_disabled":false,"rental_uris":{"android":"levelo://app?vid=28b4bc83-5c8b-4e9d-aba4-7a153d3e0dfe","ios":"levelo://app?vid=28b4bc83-5c8b-4e9d-aba4-7a153d3e0dfe"},"vehicle_type_id":"4","last_reported":1746313719,"current_range_meters":14000,"station_id":"ce4bh012rcd13ifvqd10","pricing_plan_id":"cebpf4jnsgd1na2vs0mg"},{"bike_id":"ce27a5e3-1ab3-4959-b40b-a3fdbb9f2ee0","system_id":"levelo_inurba_marseille","lat":43.31358,"lon":5.38491,"is_reserved":false,"is_disabled":false,"rental_uris":{"android":"levelo://app?vid=ce27a5e3-1ab3-4959-b40b-a3fdbb9f2ee0","ios":"levelo://app?vid=ce27a5e3-1ab3-4959-b40b-a3fdbb9f2ee0"},"vehicle_type_id":"4","last_reported":1746313719,"current_range_meters":14400,"station_id":"ce4bgt92rcd13ifvqcf0","pricing_plan_id":"cebpf4jnsgd1na2vs0mg"},{"bike_id":"9e4b3a90-ddc0-4bdb-9b76-191a6dfed04c","system_id":"levelo_inurba_marseille","lat":43.27965,"lon":5.38727,"is_reserved":false,"is_disabled":false,"rental_uris":{"android":"levelo://app?vid=9e4b3a90-ddc0-4bdb-9b76-191a6dfed04c","ios":"levelo://app?vid=9e4b3a90-ddc0-4bdb-9b76-191a6dfed04c"},"vehicle_type_id":"4","last_reported":1746313719,"current_range_meters":14400,"station_id":"ce4bhg12rcd13ifvqf80","pricing_plan_id":"cebpf4jnsgd1na2vs0mg"},{"bike_id":"05fb8e53-690e-4c91-83ac-d946606b1d9d","system_id":"levelo_inurba_marseille","lat":43.31269,"lon":5.40165,"is_reserved":false,"is_disabled":false,"rental_uris":{"android":"levelo://app?vid=05fb8e53-690e-4c91-83ac-d946606b1d9d","ios":"levelo://app?vid=05fb8e53-690e-4c91-83ac-d946606b1d9d"},"vehicle_type_id":"4","last_reported":1746313719,"current_range_meters":14400,"station_id":"ce4bh092rcd13ifvqd30","pricing_plan_id":"cebpf4jnsgd1na2vs0mg"},{"bike_id":"e40ab1b2-78ac-41ce-b8f8-34f84a0def9e","system_id":"levelo_inurba_marseille","lat":43.250262,"lon":5.396213,"is_reserved":false,"is_disabled":false,"rental_uris":{"android":"levelo://app?vid=e40ab1b2-78ac-41ce-b8f8-34f84a0def9e","ios":"levelo://app?vid=e40ab1b2-78ac-41ce-b8f8-34f84a0def9e"},"vehicle_type_id":"4","last_reported":1746313719,"current_range_meters":14800,"station_id":"ce4bhlp2rcd13ifvqgjg","pricing_plan_id":"cebpf4jnsgd1na2vs0mg"},{"bike_id":"e14f0e0b-57ce-42d5-80f6-e3d891b564d1","system_id":"levelo_inurba_marseille","lat":43.27069,"lon":5.42269,"is_reserved":false,"is_disabled":false,"rental_uris":{"android":"levelo://app?vid=e14f0e0b-57ce-42d5-80f6-e3d891b564d1","ios":"levelo://app?vid=e14f0e0b-57ce-42d5-80f6-e3d891b564d1"},"vehicle_type_id":"4","last_reported":1746313719,"current_range_meters":14800,"station_id":"ce4bhk92rcd13ifvqgb0","pricing_plan_id":"cebpf4jnsgd1na2vs0mg"},{"bike_id":"abda6e04-8333-4d18-9296-15b09d46edef","system_id":"levelo_inurba_marseille","lat":43.28456,"lon":5.35875,"is_reserved":false,"is_disabled":false,"rental_uris":{"android":"levelo://app?vid=abda6e04-8333-4d18-9296-15b09d46edef","ios":"levelo://app?vid=abda6e04-8333-4d18-9296-15b09d46edef"},"vehicle_type_id":"4","last_reported":1746313719,"current_range_meters":15200,"station_id":"ce4bhah2rcd13ifvqei0","pricing_plan_id":"cebpf4jnsgd1na2vs0mg"},{"bike_id":"dffda755-2feb-41dd-8db8-12eafc41bdf7","system_id":"levelo_inurba_marseille","lat":43.31532,"lon":5.38042,"is_reserved":false,"is_disabled":false,"rental_uris":{"android":"levelo://app?vid=dffda755-2feb-41dd-8db8-12eafc41bdf7","ios":"levelo://app?vid=dffda755-2feb-41dd-8db8-12eafc41bdf7"},"vehicle_type_id":"4","last_reported":1746313719,"current_range_meters":15200,"station_id":"ce4bhsp2rcd13ifvqi50","pricing_plan_id":"cebpf4jnsgd1na2vs0mg"},{"bike_id":"0ecfd02f-f853-4362-9dcd-e959b1ad8321","system_id":"levelo_inurba_marseille","lat":43.24179,"lon":5.39734,"is_reserved":false,"is_disabled":false,"rental_uris":{"android":"levelo://app?vid=0ecfd02f-f853-4362-9dcd-e959b1ad8321","ios":"levelo://app?vid=0ecfd02f-f853-4362-9dcd-e959b1ad8321"},"vehicle_type_id":"4","last_reported":1746313719,"current_range_meters":15200,"station_id":"ce4bhn12rcd13ifvqgpg","pricing_plan_id":"cebpf4jnsgd1na2vs0mg"},{"bike_id":"62833c51-00b3-43f2-9ca0-3fb0b91c3c0a","system_id":"levelo_inurba_marseille","lat":43.31357,"lon":5.38498,"is_reserved":false,"is_disabled":false,"rental_uris":{"android":"levelo://app?vid=62833c51-00b3-43f2-9ca0-3fb0b91c3c0a","ios":"levelo://app?vid=62833c51-00b3-43f2-9ca0-3fb0b91c3c0a"},"vehicle_type_id":"4","last_reported":1746313719,"current_range_meters":15200,"station_id":"ce4bgt92rcd13ifvqcf0","pricing_plan_id":"cebpf4jnsgd1na2vs0mg"},{"bike_id":"9e9917b0-d598-41de-a76c-42601ae26af1","system_id":"levelo_inurba_marseille","lat":43.29274,"lon":5.3684,"is_reserved":false,"is_disabled":false,"rental_uris":{"android":"levelo://app?vid=9e9917b0-d598-41de-a76c-42601ae26af1","ios":"levelo://app?vid=9e9917b0-d598-41de-a76c-42601ae26af1"},"vehicle_type_id":"4","last_reported":1746313719,"current_range_meters":15200,"station_id":"ce4bhbp2rcd13ifvqesg","pricing_plan_id":"cebpf4jnsgd1na2vs0mg"},{"bike_id":"fb80c1da-d845-467b-9c3b-2f591f4d56ae","system_id":"levelo_inurba_marseille","lat":43.323406,"lon":5.37422,"is_reserved":false,"is_disabled":false,"rental_uris":{"android":"levelo://app?vid=fb80c1da-d845-467b-9c3b-2f591f4d56ae","ios":"levelo://app?vid=fb80c1da-d845-467b-9c3b-2f591f4d56ae"},"vehicle_type_id":"4","last_reported":1746313719,"current_range_meters":16000,"station_id":"","pricing_plan_id":"cebpf4jnsgd1na2vs0mg"},{"bike_id":"4dc943bb-1ed9-4900-ab20-fff806a47378","system_id":"levelo_inurba_marseille","lat":43.23148,"lon":5.43721,"is_reserved":false,"is_disabled":false,"rental_uris":{"android":"levelo://app?vid=4dc943bb-1ed9-4900-ab20-fff806a47378","ios":"levelo://app?vid=4dc943bb-1ed9-4900-ab20-fff806a47378"},"vehicle_type_id":"4","last_reported":1746313719,"current_range_meters":16000,"station_id":"ce4bhmp2rcd13ifvqgog","pricing_plan_id":"cebpf4jnsgd1na2vs0mg"},{"bike_id":"936e36fc-addc-4749-bc91-1ba4ca6c4068","system_id":"levelo_inurba_marseille","lat":43.24659,"lon":5.38903,"is_reserved":false,"is_disabled":false,"rental_uris":{"android":"levelo://app?vid=936e36fc-addc-4749-bc91-1ba4ca6c4068","ios":"levelo://app?vid=936e36fc-addc-4749-bc91-1ba4ca6c4068"},"vehicle_type_id":"4","last_reported":1746313719,"current_range_meters":16000,"station_id":"ce4bhg12rcd13ifvqf60","pricing_plan_id":"cebpf4jnsgd1na2vs0mg"},{"bike_id":"57b577a6-05e4-403f-8e08-8a8bb593ff51","system_id":"levelo_inurba_marseille","lat":43.28942,"lon":5.3664,"is_reserved":false,"is_disabled":true,"rental_uris":{"android":"levelo://app?vid=57b577a6-05e4-403f-8e08-8a8bb593ff51","ios":"levelo://app?vid=57b577a6-05e4-403f-8e08-8a8bb593ff51"},"vehicle_type_id":"4","last_reported":1746313719,"current_range_meters":16000,"station_id":"ce4bhap2rcd13ifvqek0","pricing_plan_id":"cebpf4jnsgd1na2vs0mg"},{"bike_id":"9e056832-cd86-4684-93c4-9eb67745f60c","system_id":"levelo_inurba_marseille","lat":43.29276,"lon":5.4012,"is_reserved":false,"is_disabled":false,"rental_uris":{"android":"levelo://app?vid=9e056832-cd86-4684-93c4-9eb67745f60c","ios":"levelo://app?vid=9e056832-cd86-4684-93c4-9eb67745f60c"},"vehicle_type_id":"4","last_reported":1746313719,"current_range_meters":16000,"station_id":"ce4bh312rcd13ifvqdk0","pricing_plan_id":"cebpf4jnsgd1na2vs0mg"},{"bike_id":"b51e8583-0fb2-49ca-9c11-9dbce28dfa5d","system_id":"levelo_inurba_marseille","lat":43.231949,"lon":5.355482,"is_reserved":false,"is_disabled":false,"rental_uris":{"android":"levelo://app?vid=b51e8583-0fb2-49ca-9c11-9dbce28dfa5d","ios":"levelo://app?vid=b51e8583-0fb2-49ca-9c11-9dbce28dfa5d"},"vehicle_type_id":"4","last_reported":1746313719,"current_range_meters":16000,"station_id":"ce4bhu92rcd13ifvqi70","pricing_plan_id":"cebpf4jnsgd1na2vs0mg"},{"bike_id":"ea6b92fb-c0b2-4b25-a45e-34bc39c0c89f","system_id":"levelo_inurba_marseille","lat":43.30949,"lon":5.390402,"is_reserved":false,"is_disabled":false,"rental_uris":{"android":"levelo://app?vid=ea6b92fb-c0b2-4b25-a45e-34bc39c0c89f","ios":"levelo://app?vid=ea6b92fb-c0b2-4b25-a45e-34bc39c0c89f"},"vehicle_type_id":"4","last_reported":1746313719,"current_range_meters":16000,"station_id":"ce4bgup2rcd13ifvqco0","pricing_plan_id":"cebpf4jnsgd1na2vs0mg"},{"bike_id":"08b28c00-9888-4180-b698-788fa7149393","system_id":"levelo_inurba_marseille","lat":43.29281,"lon":5.4012,"is_reserved":false,"is_disabled":false,"rental_uris":{"android":"levelo://app?vid=08b28c00-9888-4180-b698-788fa7149393","ios":"levelo://app?vid=08b28c00-9888-4180-b698-788fa7149393"},"vehicle_type_id":"4","last_reported":1746313719,"current_range_meters":15200,"station_id":"ce4bh312rcd13ifvqdk0","pricing_plan_id":"cebpf4jnsgd1na2vs0mg"},{"bike_id":"efaeaa07-3112-40b8-8030-8ab28120e56b","system_id":"levelo_inurba_marseille","lat":43.32544,"lon":5.41422,"is_reserved":false,"is_disabled":false,"rental_uris":{"android":"levelo://app?vid=efaeaa07-3112-40b8-8030-8ab28120e56b","ios":"levelo://app?vid=efaeaa07-3112-40b8-8030-8ab28120e56b"},"vehicle_type_id":"4","last_reported":1746313719,"current_range_meters":15200,"station_id":"ce4bhq12rcd13ifvqhhg","pricing_plan_id":"cebpf4jnsgd1na2vs0mg"},{"bike_id":"e4af5016-5b2e-4604-91b6-0f355b51caa5","system_id":"levelo_inurba_marseille","lat":43.30791,"lon":5.38159,"is_reserved":false,"is_disabled":false,"rental_uris":{"android":"levelo://app?vid=e4af5016-5b2e-4604-91b6-0f355b51caa5","ios":"levelo://app?vid=e4af5016-5b2e-4604-91b6-0f355b51caa5"},"vehicle_type_id":"4","last_reported":1746313719,"current_range_meters":16000,"station_id":"ce4bgt12rcd13ifvqce0","pricing_plan_id":"cebpf4jnsgd1na2vs0mg"},{"bike_id":"7f94af4d-81ec-4f11-8ad5-90fb2fdafca2","system_id":"levelo_inurba_marseille","lat":43.28053,"lon":5.36963,"is_reserved":false,"is_disabled":false,"rental_uris":{"android":"levelo://app?vid=7f94af4d-81ec-4f11-8ad5-90fb2fdafca2","ios":"levelo://app?vid=7f94af4d-81ec-4f11-8ad5-90fb2fdafca2"},"vehicle_type_id":"4","last_reported":1746313719,"current_range_meters":16000,"station_id":"ce4bha12rcd13ifvqef0","pricing_plan_id":"cebpf4jnsgd1na2vs0mg"},{"bike_id":"ae2be41a-9156-47e3-8f0c-ae1081637a33","system_id":"levelo_inurba_marseille","lat":43.30944,"lon":5.39032,"is_reserved":false,"is_disabled":false,"rental_uris":{"android":"levelo://app?vid=ae2be41a-9156-47e3-8f0c-ae1081637a33","ios":"levelo://app?vid=ae2be41a-9156-47e3-8f0c-ae1081637a33"},"vehicle_type_id":"4","last_reported":1746313719,"current_range_meters":16000,"station_id":"ce4bgup2rcd13ifvqco0","pricing_plan_id":"cebpf4jnsgd1na2vs0mg"},{"bike_id":"2b044811-5853-48c0-a0ed-d727992c9cfc","system_id":"levelo_inurba_marseille","lat":43.24651,"lon":5.38898,"is_reserved":false,"is_disabled":false,"rental_uris":{"android":"levelo://app?vid=2b044811-5853-48c0-a0ed-d727992c9cfc","ios":"levelo://app?vid=2b044811-5853-48c0-a0ed-d727992c9cfc"},"vehicle_type_id":"4","last_reported":1746313719,"current_range_meters":16000,"station_id":"ce4bhg12rcd13ifvqf60","pricing_plan_id":"cebpf4jnsgd1na2vs0mg"},{"bike_id":"ae576fa8-f121-4598-a386-5129d3c6dd9e","system_id":"levelo_inurba_marseille","lat":43.31337,"lon":5.38463,"is_reserved":false,"is_disabled":false,"rental_uris":{"android":"levelo://app?vid=ae576fa8-f121-4598-a386-5129d3c6dd9e","ios":"levelo://app?vid=ae576fa8-f121-4598-a386-5129d3c6dd9e"},"vehicle_type_id":"4","last_reported":1746313719,"current_range_meters":16000,"station_id":"ce4bgt92rcd13ifvqcf0","pricing_plan_id":"cebpf4jnsgd1na2vs0mg"},{"bike_id":"4cc851da-e1ec-42ff-95e4-8b92ad8a1e2f","system_id":"levelo_inurba_marseille","lat":43.300313,"lon":5.401763,"is_reserved":false,"is_disabled":false,"rental_uris":{"android":"levelo://app?vid=4cc851da-e1ec-42ff-95e4-8b92ad8a1e2f","ios":"levelo://app?vid=4cc851da-e1ec-42ff-95e4-8b92ad8a1e2f"},"vehicle_type_id":"4","last_reported":1746313719,"current_range_meters":16000,"station_id":"","pricing_plan_id":"cebpf4jnsgd1na2vs0mg"},{"bike_id":"d5900543-9f0c-4e84-834c-8747aa1e309d","system_id":"levelo_inurba_marseille","lat":43.30943,"lon":5.3903,"is_reserved":false,"is_disabled":false,"rental_uris":{"android":"levelo://app?vid=d5900543-9f0c-4e84-834c-8747aa1e309d","ios":"levelo://app?vid=d5900543-9f0c-4e84-834c-8747aa1e309d"},"vehicle_type_id":"4","last_reported":1746313719,"current_range_meters":16000,"station_id":"ce4bgup2rcd13ifvqco0","pricing_plan_id":"cebpf4jnsgd1na2vs0mg"},{"bike_id":"ed2bb2c0-0169-44b4-994e-e3a453cd8966","system_id":"levelo_inurba_marseille","lat":43.24806,"lon":5.3745,"is_reserved":false,"is_disabled":false,"rental_uris":{"android":"levelo://app?vid=ed2bb2c0-0169-44b4-994e-e3a453cd8966","ios":"levelo://app?vid=ed2bb2c0-0169-44b4-994e-e3a453cd8966"},"vehicle_type_id":"4","last_reported":1746313719,"current_range_meters":16000,"station_id":"ce4bhgh2rcd13ifvqfb0","pricing_plan_id":"cebpf4jnsgd1na2vs0mg"},{"bike_id":"2a1262f2-35d5-469b-9d0d-130c6876fe29","system_id":"levelo_inurba_marseille","lat":43.24072,"lon":5.37745,"is_reserved":false,"is_disabled":false,"rental_uris":{"android":"levelo://app?vid=2a1262f2-35d5-469b-9d0d-130c6876fe29","ios":"levelo://app?vid=2a1262f2-35d5-469b-9d0d-130c6876fe29"},"vehicle_type_id":"4","last_reported":1746313719,"current_range_meters":16000,"station_id":"ce4bhnp2rcd13ifvqgvg","pricing_plan_id":"cebpf4jnsgd1na2vs0mg"},{"bike_id":"e8eb4224-5eb3-435c-8fb2-8ef027d5e452","system_id":"levelo_inurba_marseille","lat":43.30418,"lon":5.41289,"is_reserved":false,"is_disabled":false,"rental_uris":{"android":"levelo://app?vid=e8eb4224-5eb3-435c-8fb2-8ef027d5e452","ios":"levelo://app?vid=e8eb4224-5eb3-435c-8fb2-8ef027d5e452"},"vehicle_type_id":"4","last_reported":1746313719,"current_range_meters":16400,"station_id":"ce4bhop2rcd13ifvqh8g","pricing_plan_id":"cebpf4jnsgd1na2vs0mg"},{"bike_id":"86b26b56-3573-42a8-ae99-1ff808ff1f63","system_id":"levelo_inurba_marseille","lat":43.30689,"lon":5.37371,"is_reserved":false,"is_disabled":false,"rental_uris":{"android":"levelo://app?vid=86b26b56-3573-42a8-ae99-1ff808ff1f63","ios":"levelo://app?vid=86b26b56-3573-42a8-ae99-1ff808ff1f63"},"vehicle_type_id":"4","last_reported":1746313719,"current_range_meters":16800,"station_id":"","pricing_plan_id":"cebpf4jnsgd1na2vs0mg"},{"bike_id":"53fc6da9-e514-40a1-930a-132fbcae5612","system_id":"levelo_inurba_marseille","lat":43.25822,"lon":5.39437,"is_reserved":false,"is_disabled":false,"rental_uris":{"android":"levelo://app?vid=53fc6da9-e514-40a1-930a-132fbcae5612","ios":"levelo://app?vid=53fc6da9-e514-40a1-930a-132fbcae5612"},"vehicle_type_id":"4","last_reported":1746313719,"current_range_meters":16400,"station_id":"ce4bhip2rcd13ifvqft0","pricing_plan_id":"cebpf4jnsgd1na2vs0mg"},{"bike_id":"79969e10-0fb9-4e2f-9403-bc87f14e18ec","system_id":"levelo_inurba_marseille","lat":43.31279,"lon":5.40163,"is_reserved":false,"is_disabled":false,"rental_uris":{"android":"levelo://app?vid=79969e10-0fb9-4e2f-9403-bc87f14e18ec","ios":"levelo://app?vid=79969e10-0fb9-4e2f-9403-bc87f14e18ec"},"vehicle_type_id":"4","last_reported":1746313719,"current_range_meters":16400,"station_id":"ce4bh092rcd13ifvqd30","pricing_plan_id":"cebpf4jnsgd1na2vs0mg"},{"bike_id":"ebb3d409-a942-472a-92de-d86c8cef9261","system_id":"levelo_inurba_marseille","lat":43.24383,"lon":5.37053,"is_reserved":false,"is_disabled":false,"rental_uris":{"android":"levelo://app?vid=ebb3d409-a942-472a-92de-d86c8cef9261","ios":"levelo://app?vid=ebb3d409-a942-472a-92de-d86c8cef9261"},"vehicle_type_id":"4","last_reported":1746313719,"current_range_meters":16400,"station_id":"ce4bhhh2rcd13ifvqfk0","pricing_plan_id":"cebpf4jnsgd1na2vs0mg"},{"bike_id":"4fcfd32e-d34e-4e38-94ab-9a66301bb532","system_id":"levelo_inurba_marseille","lat":43.26558,"lon":5.37284,"is_reserved":false,"is_disabled":false,"rental_uris":{"android":"levelo://app?vid=4fcfd32e-d34e-4e38-94ab-9a66301bb532","ios":"levelo://app?vid=4fcfd32e-d34e-4e38-94ab-9a66301bb532"},"vehicle_type_id":"4","last_reported":1746313719,"current_range_meters":16800,"station_id":"ce4bhg12rcd13ifvqf70","pricing_plan_id":"cebpf4jnsgd1na2vs0mg"},{"bike_id":"8ffdb51b-723f-4ccf-bf41-5da3e3683448","system_id":"levelo_inurba_marseille","lat":43.27562,"lon":5.38409,"is_reserved":false,"is_disabled":false,"rental_uris":{"android":"levelo://app?vid=8ffdb51b-723f-4ccf-bf41-5da3e3683448","ios":"levelo://app?vid=8ffdb51b-723f-4ccf-bf41-5da3e3683448"},"vehicle_type_id":"4","last_reported":1746313719,"current_range_meters":16800,"station_id":"ce4bhh92rcd13ifvqfi0","pricing_plan_id":"cebpf4jnsgd1na2vs0mg"},{"bike_id":"2daf09ec-1696-4167-9e55-54a2898d3406","system_id":"levelo_inurba_marseille","lat":43.31367,"lon":5.38484,"is_reserved":false,"is_disabled":false,"rental_uris":{"android":"levelo://app?vid=2daf09ec-1696-4167-9e55-54a2898d3406","ios":"levelo://app?vid=2daf09ec-1696-4167-9e55-54a2898d3406"},"vehicle_type_id":"4","last_reported":1746313719,"current_range_meters":16800,"station_id":"ce4bgt92rcd13ifvqcf0","pricing_plan_id":"cebpf4jnsgd1na2vs0mg"},{"bike_id":"fb2dc60d-6652-473d-a686-f9c92c21a630","system_id":"levelo_inurba_marseille","lat":43.29562,"lon":5.42286,"is_reserved":false,"is_disabled":false,"rental_uris":{"android":"levelo://app?vid=fb2dc60d-6652-473d-a686-f9c92c21a630","ios":"levelo://app?vid=fb2dc60d-6652-473d-a686-f9c92c21a630"},"vehicle_type_id":"4","last_reported":1746313719,"current_range_meters":16800,"station_id":"ce4bhph2rcd13ifvqhdg","pricing_plan_id":"cebpf4jnsgd1na2vs0mg"},{"bike_id":"f3faad1b-d44f-4617-b9b9-5fe128283391","system_id":"levelo_inurba_marseille","lat":43.28468,"lon":5.38403,"is_reserved":false,"is_disabled":false,"rental_uris":{"android":"levelo://app?vid=f3faad1b-d44f-4617-b9b9-5fe128283391","ios":"levelo://app?vid=f3faad1b-d44f-4617-b9b9-5fe128283391"},"vehicle_type_id":"4","last_reported":1746313719,"current_range_meters":16800,"station_id":"ce4bh512rcd13ifvqe3g","pricing_plan_id":"cebpf4jnsgd1na2vs0mg"},{"bike_id":"a4f9e8d7-c60b-4569-9e6a-ca435fceed0a","system_id":"levelo_inurba_marseille","lat":43.275707,"lon":5.384227,"is_reserved":false,"is_disabled":false,"rental_uris":{"android":"levelo://app?vid=a4f9e8d7-c60b-4569-9e6a-ca435fceed0a","ios":"levelo://app?vid=a4f9e8d7-c60b-4569-9e6a-ca435fceed0a"},"vehicle_type_id":"4","last_reported":1746313719,"current_range_meters":16800,"station_id":"ce4bhh92rcd13ifvqfi0","pricing_plan_id":"cebpf4jnsgd1na2vs0mg"},{"bike_id":"15e1fe92-aaf8-4888-832f-7ec1c1776144","system_id":"levelo_inurba_marseille","lat":43.24812,"lon":5.37467,"is_reserved":false,"is_disabled":false,"rental_uris":{"android":"levelo://app?vid=15e1fe92-aaf8-4888-832f-7ec1c1776144","ios":"levelo://app?vid=15e1fe92-aaf8-4888-832f-7ec1c1776144"},"vehicle_type_id":"4","last_reported":1746313719,"current_range_meters":17200,"station_id":"ce4bhgh2rcd13ifvqfb0","pricing_plan_id":"cebpf4jnsgd1na2vs0mg"},{"bike_id":"7fba94fb-3d5e-4a7d-abc5-e37723a96b55","system_id":"levelo_inurba_marseille","lat":43.2314,"lon":5.43723,"is_reserved":false,"is_disabled":false,"rental_uris":{"android":"levelo://app?vid=7fba94fb-3d5e-4a7d-abc5-e37723a96b55","ios":"levelo://app?vid=7fba94fb-3d5e-4a7d-abc5-e37723a96b55"},"vehicle_type_id":"4","last_reported":1746313719,"current_range_meters":17200,"station_id":"ce4bhmp2rcd13ifvqgog","pricing_plan_id":"cebpf4jnsgd1na2vs0mg"},{"bike_id":"ae97f59b-b48e-402b-9ac2-2eba71290cd1","system_id":"levelo_inurba_marseille","lat":43.3093,"lon":5.40138,"is_reserved":false,"is_disabled":false,"rental_uris":{"android":"levelo://app?vid=ae97f59b-b48e-402b-9ac2-2eba71290cd1","ios":"levelo://app?vid=ae97f59b-b48e-402b-9ac2-2eba71290cd1"},"vehicle_type_id":"4","last_reported":1746313719,"current_range_meters":17200,"station_id":"ce4bgvp2rcd13ifvqct0","pricing_plan_id":"cebpf4jnsgd1na2vs0mg"},{"bike_id":"cc39cdc5-0417-4f88-b75a-a7a63ab3f1d6","system_id":"levelo_inurba_marseille","lat":43.31365,"lon":5.38244,"is_reserved":false,"is_disabled":false,"rental_uris":{"android":"levelo://app?vid=cc39cdc5-0417-4f88-b75a-a7a63ab3f1d6","ios":"levelo://app?vid=cc39cdc5-0417-4f88-b75a-a7a63ab3f1d6"},"vehicle_type_id":"4","last_reported":1746313719,"current_range_meters":17200,"station_id":"","pricing_plan_id":"cebpf4jnsgd1na2vs0mg"},{"bike_id":"69560e90-e413-4c42-a185-4bdb740c9242","system_id":"levelo_inurba_marseille","lat":43.28352,"lon":5.38103,"is_reserved":false,"is_disabled":false,"rental_uris":{"android":"levelo://app?vid=69560e90-e413-4c42-a185-4bdb740c9242","ios":"levelo://app?vid=69560e90-e413-4c42-a185-4bdb740c9242"},"vehicle_type_id":"4","last_reported":1746313719,"current_range_meters":17200,"station_id":"ce4bh412rcd13ifvqdr0","pricing_plan_id":"cebpf4jnsgd1na2vs0mg"},{"bike_id":"46f42e40-f872-4063-b060-640456b3d6a0","system_id":"levelo_inurba_marseille","lat":43.29901,"lon":5.3973,"is_reserved":false,"is_disabled":false,"rental_uris":{"android":"levelo://app?vid=46f42e40-f872-4063-b060-640456b3d6a0","ios":"levelo://app?vid=46f42e40-f872-4063-b060-640456b3d6a0"},"vehicle_type_id":"4","last_reported":1746313719,"current_range_meters":17200,"station_id":"ce4bh0h2rcd13ifvqd50","pricing_plan_id":"cebpf4jnsgd1na2vs0mg"},{"bike_id":"451a7c9d-0337-4b39-ac04-ae1053feba01","system_id":"levelo_inurba_marseille","lat":43.29717,"lon":5.36626,"is_reserved":false,"is_disabled":false,"rental_uris":{"android":"levelo://app?vid=451a7c9d-0337-4b39-ac04-ae1053feba01","ios":"levelo://app?vid=451a7c9d-0337-4b39-ac04-ae1053feba01"},"vehicle_type_id":"4","last_reported":1746313719,"current_range_meters":17200,"station_id":"ce4bgn12rcd13ifvqbt0","pricing_plan_id":"cebpf4jnsgd1na2vs0mg"},{"bike_id":"696b71f0-972e-4fa6-831c-b2001014ab23","system_id":"levelo_inurba_marseille","lat":43.25119,"lon":5.40311,"is_reserved":false,"is_disabled":false,"rental_uris":{"android":"levelo://app?vid=696b71f0-972e-4fa6-831c-b2001014ab23","ios":"levelo://app?vid=696b71f0-972e-4fa6-831c-b2001014ab23"},"vehicle_type_id":"4","last_reported":1746313719,"current_range_meters":17200,"station_id":"ce4bhlh2rcd13ifvqgig","pricing_plan_id":"cebpf4jnsgd1na2vs0mg"},{"bike_id":"52b2b11c-fa93-4c1e-a120-3fdc360b4a73","system_id":"levelo_inurba_marseille","lat":43.280365,"lon":5.369451,"is_reserved":false,"is_disabled":false,"rental_uris":{"android":"levelo://app?vid=52b2b11c-fa93-4c1e-a120-3fdc360b4a73","ios":"levelo://app?vid=52b2b11c-fa93-4c1e-a120-3fdc360b4a73"},"vehicle_type_id":"4","last_reported":1746313719,"current_range_meters":17200,"station_id":"ce4bha12rcd13ifvqef0","pricing_plan_id":"cebpf4jnsgd1na2vs0mg"},{"bike_id":"f0f6b689-09e9-465d-afc6-1ec70b024348","system_id":"levelo_inurba_marseille","lat":43.313184,"lon":5.396943,"is_reserved":false,"is_disabled":false,"rental_uris":{"android":"levelo://app?vid=f0f6b689-09e9-465d-afc6-1ec70b024348","ios":"levelo://app?vid=f0f6b689-09e9-465d-afc6-1ec70b024348"},"vehicle_type_id":"4","last_reported":1746313719,"current_range_meters":17600,"station_id":"ce4bgvp2rcd13ifvqcu0","pricing_plan_id":"cebpf4jnsgd1na2vs0mg"},{"bike_id":"fdef9e55-be0f-41e0-8526-8e8fa7260880","system_id":"levelo_inurba_marseille","lat":43.31289,"lon":5.37394,"is_reserved":false,"is_disabled":false,"rental_uris":{"android":"levelo://app?vid=fdef9e55-be0f-41e0-8526-8e8fa7260880","ios":"levelo://app?vid=fdef9e55-be0f-41e0-8526-8e8fa7260880"},"vehicle_type_id":"4","last_reported":1746313719,"current_range_meters":17600,"station_id":"","pricing_plan_id":"cebpf4jnsgd1na2vs0mg"},{"bike_id":"8a1c92bd-6777-477a-9eaf-2b1631a1f0a6","system_id":"levelo_inurba_marseille","lat":43.30943,"lon":5.40145,"is_reserved":false,"is_disabled":false,"rental_uris":{"android":"levelo://app?vid=8a1c92bd-6777-477a-9eaf-2b1631a1f0a6","ios":"levelo://app?vid=8a1c92bd-6777-477a-9eaf-2b1631a1f0a6"},"vehicle_type_id":"4","last_reported":1746313719,"current_range_meters":17600,"station_id":"ce4bgvp2rcd13ifvqct0","pricing_plan_id":"cebpf4jnsgd1na2vs0mg"},{"bike_id":"096ea8cf-a2ca-4652-8c03-2a70db048b45","system_id":"levelo_inurba_marseille","lat":43.3032,"lon":5.4043,"is_reserved":false,"is_disabled":false,"rental_uris":{"android":"levelo://app?vid=096ea8cf-a2ca-4652-8c03-2a70db048b45","ios":"levelo://app?vid=096ea8cf-a2ca-4652-8c03-2a70db048b45"},"vehicle_type_id":"4","last_reported":1746313719,"current_range_meters":17600,"station_id":"ce4bh012rcd13ifvqd10","pricing_plan_id":"cebpf4jnsgd1na2vs0mg"},{"bike_id":"e4ca52ac-e588-445c-b0de-9cb1f1de67b4","system_id":"levelo_inurba_marseille","lat":43.28466,"lon":5.35881,"is_reserved":false,"is_disabled":false,"rental_uris":{"android":"levelo://app?vid=e4ca52ac-e588-445c-b0de-9cb1f1de67b4","ios":"levelo://app?vid=e4ca52ac-e588-445c-b0de-9cb1f1de67b4"},"vehicle_type_id":"4","last_reported":1746313719,"current_range_meters":17200,"station_id":"ce4bhah2rcd13ifvqei0","pricing_plan_id":"cebpf4jnsgd1na2vs0mg"},{"bike_id":"f465d441-dee5-4916-a2b2-63b707c25a24","system_id":"levelo_inurba_marseille","lat":43.31378,"lon":5.38499,"is_reserved":false,"is_disabled":false,"rental_uris":{"android":"levelo://app?vid=f465d441-dee5-4916-a2b2-63b707c25a24","ios":"levelo://app?vid=f465d441-dee5-4916-a2b2-63b707c25a24"},"vehicle_type_id":"4","last_reported":1746313719,"current_range_meters":17600,"station_id":"ce4bgt92rcd13ifvqcf0","pricing_plan_id":"cebpf4jnsgd1na2vs0mg"},{"bike_id":"43f220ab-0408-46b3-abe5-60437ce3bc1e","system_id":"levelo_inurba_marseille","lat":43.231958,"lon":5.355486,"is_reserved":false,"is_disabled":false,"rental_uris":{"android":"levelo://app?vid=43f220ab-0408-46b3-abe5-60437ce3bc1e","ios":"levelo://app?vid=43f220ab-0408-46b3-abe5-60437ce3bc1e"},"vehicle_type_id":"4","last_reported":1746313719,"current_range_meters":18000,"station_id":"ce4bhu92rcd13ifvqi70","pricing_plan_id":"cebpf4jnsgd1na2vs0mg"},{"bike_id":"36ba41e4-71e5-4435-857e-58cb28890d47","system_id":"levelo_inurba_marseille","lat":43.27955,"lon":5.38715,"is_reserved":false,"is_disabled":false,"rental_uris":{"android":"levelo://app?vid=36ba41e4-71e5-4435-857e-58cb28890d47","ios":"levelo://app?vid=36ba41e4-71e5-4435-857e-58cb28890d47"},"vehicle_type_id":"4","last_reported":1746313719,"current_range_meters":18000,"station_id":"ce4bhg12rcd13ifvqf80","pricing_plan_id":"cebpf4jnsgd1na2vs0mg"},{"bike_id":"d1b7232d-ecd4-4fac-afe5-df8266262141","system_id":"levelo_inurba_marseille","lat":43.30445,"lon":5.38886,"is_reserved":false,"is_disabled":false,"rental_uris":{"android":"levelo://app?vid=d1b7232d-ecd4-4fac-afe5-df8266262141","ios":"levelo://app?vid=d1b7232d-ecd4-4fac-afe5-df8266262141"},"vehicle_type_id":"4","last_reported":1746313719,"current_range_meters":18000,"station_id":"ce4bgk12rcd13ifvqbi0","pricing_plan_id":"cebpf4jnsgd1na2vs0mg"},{"bike_id":"de98497a-0445-4045-b883-e50311a6dc6c","system_id":"levelo_inurba_marseille","lat":43.3058,"lon":5.3934,"is_reserved":false,"is_disabled":false,"rental_uris":{"android":"levelo://app?vid=de98497a-0445-4045-b883-e50311a6dc6c","ios":"levelo://app?vid=de98497a-0445-4045-b883-e50311a6dc6c"},"vehicle_type_id":"4","last_reported":1746313719,"current_range_meters":18000,"station_id":"ce4bh0p2rcd13ifvqd80","pricing_plan_id":"cebpf4jnsgd1na2vs0mg"},{"bike_id":"83ac374c-b8f1-4572-bdb1-e1729e4aa079","system_id":"levelo_inurba_marseille","lat":43.313656,"lon":5.384974,"is_reserved":false,"is_disabled":false,"rental_uris":{"android":"levelo://app?vid=83ac374c-b8f1-4572-bdb1-e1729e4aa079","ios":"levelo://app?vid=83ac374c-b8f1-4572-bdb1-e1729e4aa079"},"vehicle_type_id":"4","last_reported":1746313719,"current_range_meters":18000,"station_id":"ce4bgt92rcd13ifvqcf0","pricing_plan_id":"cebpf4jnsgd1na2vs0mg"},{"bike_id":"66223c10-b75f-46be-aafb-42e1395c771d","system_id":"levelo_inurba_marseille","lat":43.28084,"lon":5.39661,"is_reserved":false,"is_disabled":false,"rental_uris":{"android":"levelo://app?vid=66223c10-b75f-46be-aafb-42e1395c771d","ios":"levelo://app?vid=66223c10-b75f-46be-aafb-42e1395c771d"},"vehicle_type_id":"4","last_reported":1746313719,"current_range_meters":18000,"station_id":"","pricing_plan_id":"cebpf4jnsgd1na2vs0mg"},{"bike_id":"073ee896-7ffd-4eeb-ba0c-a255d4c8e537","system_id":"levelo_inurba_marseille","lat":43.25724,"lon":5.41108,"is_reserved":false,"is_disabled":false,"rental_uris":{"android":"levelo://app?vid=073ee896-7ffd-4eeb-ba0c-a255d4c8e537","ios":"levelo://app?vid=073ee896-7ffd-4eeb-ba0c-a255d4c8e537"},"vehicle_type_id":"4","last_reported":1746313719,"current_range_meters":18000,"station_id":"ce4bhkp2rcd13ifvqgd0","pricing_plan_id":"cebpf4jnsgd1na2vs0mg"},{"bike_id":"838953c0-5207-4dd4-a4c4-6cd84e5c58c8","system_id":"levelo_inurba_marseille","lat":43.28033,"lon":5.3691,"is_reserved":false,"is_disabled":false,"rental_uris":{"android":"levelo://app?vid=838953c0-5207-4dd4-a4c4-6cd84e5c58c8","ios":"levelo://app?vid=838953c0-5207-4dd4-a4c4-6cd84e5c58c8"},"vehicle_type_id":"4","last_reported":1746313719,"current_range_meters":18800,"station_id":"ce4bha12rcd13ifvqef0","pricing_plan_id":"cebpf4jnsgd1na2vs0mg"},{"bike_id":"44a4c1aa-e659-41ae-8ef4-e3bc1e502d2a","system_id":"levelo_inurba_marseille","lat":43.32364,"lon":5.367547,"is_reserved":false,"is_disabled":false,"rental_uris":{"android":"levelo://app?vid=44a4c1aa-e659-41ae-8ef4-e3bc1e502d2a","ios":"levelo://app?vid=44a4c1aa-e659-41ae-8ef4-e3bc1e502d2a"},"vehicle_type_id":"4","last_reported":1746313719,"current_range_meters":18800,"station_id":"ce4bhsh2rcd13ifvqi2g","pricing_plan_id":"cebpf4jnsgd1na2vs0mg"},{"bike_id":"ea828a45-c243-45d9-9d9a-fee286f2e709","system_id":"levelo_inurba_marseille","lat":43.25821,"lon":5.39419,"is_reserved":false,"is_disabled":false,"rental_uris":{"android":"levelo://app?vid=ea828a45-c243-45d9-9d9a-fee286f2e709","ios":"levelo://app?vid=ea828a45-c243-45d9-9d9a-fee286f2e709"},"vehicle_type_id":"4","last_reported":1746313719,"current_range_meters":18800,"station_id":"ce4bhip2rcd13ifvqft0","pricing_plan_id":"cebpf4jnsgd1na2vs0mg"},{"bike_id":"a257f054-1d7f-4fae-a3c4-1088d6c15b72","system_id":"levelo_inurba_marseille","lat":43.29715,"lon":5.36605,"is_reserved":false,"is_disabled":false,"rental_uris":{"android":"levelo://app?vid=a257f054-1d7f-4fae-a3c4-1088d6c15b72","ios":"levelo://app?vid=a257f054-1d7f-4fae-a3c4-1088d6c15b72"},"vehicle_type_id":"4","last_reported":1746313719,"current_range_meters":18000,"station_id":"ce4bgn12rcd13ifvqbt0","pricing_plan_id":"cebpf4jnsgd1na2vs0mg"},{"bike_id":"da86dbc1-1e83-43ca-9dfc-bf9622d5f196","system_id":"levelo_inurba_marseille","lat":43.30329,"lon":5.40433,"is_reserved":false,"is_disabled":false,"rental_uris":{"android":"levelo://app?vid=da86dbc1-1e83-43ca-9dfc-bf9622d5f196","ios":"levelo://app?vid=da86dbc1-1e83-43ca-9dfc-bf9622d5f196"},"vehicle_type_id":"4","last_reported":1746313719,"current_range_meters":18800,"station_id":"ce4bh012rcd13ifvqd10","pricing_plan_id":"cebpf4jnsgd1na2vs0mg"},{"bike_id":"2b44e6f2-5bd4-4a13-93f7-f9b3275649b0","system_id":"levelo_inurba_marseille","lat":43.24073,"lon":5.37772,"is_reserved":false,"is_disabled":false,"rental_uris":{"android":"levelo://app?vid=2b44e6f2-5bd4-4a13-93f7-f9b3275649b0","ios":"levelo://app?vid=2b44e6f2-5bd4-4a13-93f7-f9b3275649b0"},"vehicle_type_id":"4","last_reported":1746313719,"current_range_meters":18800,"station_id":"ce4bhnp2rcd13ifvqgvg","pricing_plan_id":"cebpf4jnsgd1na2vs0mg"},{"bike_id":"fff989e9-64dd-40de-8a4c-e30222516b94","system_id":"levelo_inurba_marseille","lat":43.28155,"lon":5.42642,"is_reserved":false,"is_disabled":false,"rental_uris":{"android":"levelo://app?vid=fff989e9-64dd-40de-8a4c-e30222516b94","ios":"levelo://app?vid=fff989e9-64dd-40de-8a4c-e30222516b94"},"vehicle_type_id":"4","last_reported":1746313719,"current_range_meters":18800,"station_id":"ce4bhnh2rcd13ifvqgug","pricing_plan_id":"cebpf4jnsgd1na2vs0mg"},{"bike_id":"e84eee43-7ebe-4b56-a08b-27d6e58561fd","system_id":"levelo_inurba_marseille","lat":43.24179,"lon":5.39732,"is_reserved":false,"is_disabled":false,"rental_uris":{"android":"levelo://app?vid=e84eee43-7ebe-4b56-a08b-27d6e58561fd","ios":"levelo://app?vid=e84eee43-7ebe-4b56-a08b-27d6e58561fd"},"vehicle_type_id":"4","last_reported":1746313719,"current_range_meters":18800,"station_id":"ce4bhn12rcd13ifvqgpg","pricing_plan_id":"cebpf4jnsgd1na2vs0mg"},{"bike_id":"ed18508f-1431-4895-9241-da34b0a7ca80","system_id":"levelo_inurba_marseille","lat":43.313702,"lon":5.384971,"is_reserved":false,"is_disabled":false,"rental_uris":{"android":"levelo://app?vid=ed18508f-1431-4895-9241-da34b0a7ca80","ios":"levelo://app?vid=ed18508f-1431-4895-9241-da34b0a7ca80"},"vehicle_type_id":"4","last_reported":1746313719,"current_range_meters":18800,"station_id":"ce4bgt92rcd13ifvqcf0","pricing_plan_id":"cebpf4jnsgd1na2vs0mg"},{"bike_id":"1cb20923-3b0d-4df1-a3ee-be944d3f904f","system_id":"levelo_inurba_marseille","lat":43.32336,"lon":5.40616,"is_reserved":false,"is_disabled":false,"rental_uris":{"android":"levelo://app?vid=1cb20923-3b0d-4df1-a3ee-be944d3f904f","ios":"levelo://app?vid=1cb20923-3b0d-4df1-a3ee-be944d3f904f"},"vehicle_type_id":"4","last_reported":1746313719,"current_range_meters":19200,"station_id":"ce4bhq92rcd13ifvqhjg","pricing_plan_id":"cebpf4jnsgd1na2vs0mg"},{"bike_id":"c623d70a-bdb5-4762-be01-7a2f1f698668","system_id":"levelo_inurba_marseille","lat":43.30139,"lon":5.39856,"is_reserved":false,"is_disabled":false,"rental_uris":{"android":"levelo://app?vid=c623d70a-bdb5-4762-be01-7a2f1f698668","ios":"levelo://app?vid=c623d70a-bdb5-4762-be01-7a2f1f698668"},"vehicle_type_id":"4","last_reported":1746313719,"current_range_meters":19200,"station_id":"ce4bh0h2rcd13ifvqd40","pricing_plan_id":"cebpf4jnsgd1na2vs0mg"},{"bike_id":"a2f70bf7-42a3-42ef-b332-715d1dd3acec","system_id":"levelo_inurba_marseille","lat":43.29823,"lon":5.40394,"is_reserved":false,"is_disabled":false,"rental_uris":{"android":"levelo://app?vid=a2f70bf7-42a3-42ef-b332-715d1dd3acec","ios":"levelo://app?vid=a2f70bf7-42a3-42ef-b332-715d1dd3acec"},"vehicle_type_id":"4","last_reported":1746313719,"current_range_meters":19600,"station_id":"ce4bh112rcd13ifvqd90","pricing_plan_id":"cebpf4jnsgd1na2vs0mg"},{"bike_id":"020b5a72-3ed4-4efa-ac90-fde34228cf06","system_id":"levelo_inurba_marseille","lat":43.30798,"lon":5.37653,"is_reserved":false,"is_disabled":false,"rental_uris":{"android":"levelo://app?vid=020b5a72-3ed4-4efa-ac90-fde34228cf06","ios":"levelo://app?vid=020b5a72-3ed4-4efa-ac90-fde34228cf06"},"vehicle_type_id":"4","last_reported":1746313719,"current_range_meters":19600,"station_id":"ce4bgv92rcd13ifvqcq0","pricing_plan_id":"cebpf4jnsgd1na2vs0mg"},{"bike_id":"0abe7365-362a-4c2d-949a-e32faf9d4099","system_id":"levelo_inurba_marseille","lat":43.21209,"lon":5.3506,"is_reserved":false,"is_disabled":true,"rental_uris":{"android":"levelo://app?vid=0abe7365-362a-4c2d-949a-e32faf9d4099","ios":"levelo://app?vid=0abe7365-362a-4c2d-949a-e32faf9d4099"},"vehicle_type_id":"4","last_reported":1746313719,"current_range_meters":19600,"station_id":"st_cvj6sg6p6f1abm77japg","pricing_plan_id":"cebpf4jnsgd1na2vs0mg"},{"bike_id":"c934a038-999c-4097-b244-e68883d621e3","system_id":"levelo_inurba_marseille","lat":43.305377,"lon":5.365375,"is_reserved":false,"is_disabled":true,"rental_uris":{"android":"levelo://app?vid=c934a038-999c-4097-b244-e68883d621e3","ios":"levelo://app?vid=c934a038-999c-4097-b244-e68883d621e3"},"vehicle_type_id":"4","last_reported":1746313719,"current_range_meters":19600,"station_id":"ce4bgs12rcd13ifvqcag","pricing_plan_id":"cebpf4jnsgd1na2vs0mg"},{"bike_id":"8c48f210-1ece-4c20-bb47-8ef2235ac6c4","system_id":"levelo_inurba_marseille","lat":43.25113,"lon":5.40319,"is_reserved":false,"is_disabled":false,"rental_uris":{"android":"levelo://app?vid=8c48f210-1ece-4c20-bb47-8ef2235ac6c4","ios":"levelo://app?vid=8c48f210-1ece-4c20-bb47-8ef2235ac6c4"},"vehicle_type_id":"4","last_reported":1746313719,"current_range_meters":19600,"station_id":"ce4bhlh2rcd13ifvqgig","pricing_plan_id":"cebpf4jnsgd1na2vs0mg"},{"bike_id":"3d795f75-c682-4a9c-9824-3a4663c368e4","system_id":"levelo_inurba_marseille","lat":43.30785,"lon":5.37647,"is_reserved":false,"is_disabled":false,"rental_uris":{"android":"levelo://app?vid=3d795f75-c682-4a9c-9824-3a4663c368e4","ios":"levelo://app?vid=3d795f75-c682-4a9c-9824-3a4663c368e4"},"vehicle_type_id":"4","last_reported":1746313719,"current_range_meters":19600,"station_id":"ce4bgv92rcd13ifvqcq0","pricing_plan_id":"cebpf4jnsgd1na2vs0mg"},{"bike_id":"ef892f1b-9196-4b86-8f2e-cdeeb1520e19","system_id":"levelo_inurba_marseille","lat":43.280053,"lon":5.400037,"is_reserved":false,"is_disabled":false,"rental_uris":{"android":"levelo://app?vid=ef892f1b-9196-4b86-8f2e-cdeeb1520e19","ios":"levelo://app?vid=ef892f1b-9196-4b86-8f2e-cdeeb1520e19"},"vehicle_type_id":"4","last_reported":1746313719,"current_range_meters":19600,"station_id":"ce4bho92rcd13ifvqh4g","pricing_plan_id":"cebpf4jnsgd1na2vs0mg"},{"bike_id":"c627b57c-a364-4991-bf18-9b2dfa26592e","system_id":"levelo_inurba_marseille","lat":43.2316,"lon":5.43705,"is_reserved":false,"is_disabled":false,"rental_uris":{"android":"levelo://app?vid=c627b57c-a364-4991-bf18-9b2dfa26592e","ios":"levelo://app?vid=c627b57c-a364-4991-bf18-9b2dfa26592e"},"vehicle_type_id":"4","last_reported":1746313719,"current_range_meters":20000,"station_id":"ce4bhmp2rcd13ifvqgog","pricing_plan_id":"cebpf4jnsgd1na2vs0mg"},{"bike_id":"2d67f524-d1b6-41d2-a965-93a5634baa46","system_id":"levelo_inurba_marseille","lat":43.294427,"lon":5.39753,"is_reserved":false,"is_disabled":false,"rental_uris":{"android":"levelo://app?vid=2d67f524-d1b6-41d2-a965-93a5634baa46","ios":"levelo://app?vid=2d67f524-d1b6-41d2-a965-93a5634baa46"},"vehicle_type_id":"4","last_reported":1746313719,"current_range_meters":19600,"station_id":"ce4bh3h2rcd13ifvqdo0","pricing_plan_id":"cebpf4jnsgd1na2vs0mg"},{"bike_id":"ae43e540-4108-4c6d-87c5-913aa4323c4e","system_id":"levelo_inurba_marseille","lat":43.31376,"lon":5.3849,"is_reserved":false,"is_disabled":false,"rental_uris":{"android":"levelo://app?vid=ae43e540-4108-4c6d-87c5-913aa4323c4e","ios":"levelo://app?vid=ae43e540-4108-4c6d-87c5-913aa4323c4e"},"vehicle_type_id":"4","last_reported":1746313719,"current_range_meters":20000,"station_id":"ce4bgt92rcd13ifvqcf0","pricing_plan_id":"cebpf4jnsgd1na2vs0mg"},{"bike_id":"f6c1dcb0-1295-4680-af32-4dc24d6ef29b","system_id":"levelo_inurba_marseille","lat":43.27194,"lon":5.39194,"is_reserved":false,"is_disabled":true,"rental_uris":{"android":"levelo://app?vid=f6c1dcb0-1295-4680-af32-4dc24d6ef29b","ios":"levelo://app?vid=f6c1dcb0-1295-4680-af32-4dc24d6ef29b"},"vehicle_type_id":"4","last_reported":1746313719,"current_range_meters":20000,"station_id":"ce4bhhp2rcd13ifvqfm0","pricing_plan_id":"cebpf4jnsgd1na2vs0mg"},{"bike_id":"1885e4e4-787e-4399-a182-13afb5671e8f","system_id":"levelo_inurba_marseille","lat":43.31768,"lon":5.3903,"is_reserved":false,"is_disabled":false,"rental_uris":{"android":"levelo://app?vid=1885e4e4-787e-4399-a182-13afb5671e8f","ios":"levelo://app?vid=1885e4e4-787e-4399-a182-13afb5671e8f"},"vehicle_type_id":"4","last_reported":1746313719,"current_range_meters":20400,"station_id":"ce4bhqp2rcd13ifvqhng","pricing_plan_id":"cebpf4jnsgd1na2vs0mg"},{"bike_id":"2a83f628-6bc6-4805-bbb5-042e251d7a0f","system_id":"levelo_inurba_marseille","lat":43.31543,"lon":5.38022,"is_reserved":false,"is_disabled":false,"rental_uris":{"android":"levelo://app?vid=2a83f628-6bc6-4805-bbb5-042e251d7a0f","ios":"levelo://app?vid=2a83f628-6bc6-4805-bbb5-042e251d7a0f"},"vehicle_type_id":"4","last_reported":1746313719,"current_range_meters":20400,"station_id":"ce4bhsp2rcd13ifvqi50","pricing_plan_id":"cebpf4jnsgd1na2vs0mg"},{"bike_id":"1e4c8eca-44f1-4bf0-b96f-01b79f3e652f","system_id":"levelo_inurba_marseille","lat":43.27943,"lon":5.41051,"is_reserved":false,"is_disabled":false,"rental_uris":{"android":"levelo://app?vid=1e4c8eca-44f1-4bf0-b96f-01b79f3e652f","ios":"levelo://app?vid=1e4c8eca-44f1-4bf0-b96f-01b79f3e652f"},"vehicle_type_id":"4","last_reported":1746313719,"current_range_meters":19200,"station_id":"ce4bhnp2rcd13ifvqh0g","pricing_plan_id":"cebpf4jnsgd1na2vs0mg"},{"bike_id":"7bf6a437-cc4c-4bf4-92ca-efcf86e0ad1e","system_id":"levelo_inurba_marseille","lat":43.2804,"lon":5.36944,"is_reserved":false,"is_disabled":false,"rental_uris":{"android":"levelo://app?vid=7bf6a437-cc4c-4bf4-92ca-efcf86e0ad1e","ios":"levelo://app?vid=7bf6a437-cc4c-4bf4-92ca-efcf86e0ad1e"},"vehicle_type_id":"4","last_reported":1746313719,"current_range_meters":20400,"station_id":"ce4bha12rcd13ifvqef0","pricing_plan_id":"cebpf4jnsgd1na2vs0mg"},{"bike_id":"ffed5df9-9158-4bc8-9118-308956cef2f4","system_id":"levelo_inurba_marseille","lat":43.2756,"lon":5.38411,"is_reserved":false,"is_disabled":false,"rental_uris":{"android":"levelo://app?vid=ffed5df9-9158-4bc8-9118-308956cef2f4","ios":"levelo://app?vid=ffed5df9-9158-4bc8-9118-308956cef2f4"},