{"last_updated":1721318952,"ttl":30,"version":"2.2","data":{"bikes":[{"bike_id":"7b3889bf-33f4-443c-a235-1ef73d9692fd","system_id":"levelo_inurba_marseille","lat":43.31346,"lon":5.36716,"is_reserved":false,"is_disabled":false,"rental_uris":{"android":"levelo://app?vid=7b3889bf-33f4-443c-a235-1ef73d9692fd","ios":"levelo://app?vid=7b3889bf-33f4-443c-a235-1ef73d9692fd"},"vehicle_type_id":"4","last_reported":1721318952,"current_range_meters":0,"station_id":"ce4bgr92rcd13ifvqc6g","pricing_plan_id":"cebpf4jnsgd1na2vs0mg"},{"bike_id":"d1d81e54-fed9-443c-944a-6820c8a62e66","system_id":"levelo_inurba_marseille","lat":43.31251,"lon":5.36793,"is_reserved":false,"is_disabled":false,"rental_uris":{"android":"levelo://app?vid=d1d81e54-fed9-443c-944a-6820c8a62e66","ios":"levelo://app?vid=d1d81e54-fed9-443c-944a-6820c8a62e66"},"vehicle_type_id":"4","last_reported":1721318952,"current_range_meters":8000,"station_id":"","pricing_plan_id":"cebpf4jnsgd1na2vs0mg"},{"bike_id":"8b745c84-b10d-43d3-ab60-9ecae3e5113a","system_id":"levelo_inurba_marseille","lat":43.31226,"lon":5.368587,"is_reserved":false,"is_disabled":false,"rental_uris":{"android":"levelo://app?vid=8b745c84-b10d-43d3-ab60-9ecae3e5113a","ios":"levelo://app?vid=8b745c84-b10d-43d3-ab60-9ecae3e5113a"},"vehicle_type_id":"4","last_reported":1721318952,"current_range_meters":0,"station_id":"ce4bgl92rcd13ifvqbq0","pricing_plan_id":"cebpf4jnsgd1na2vs0mg"},{"bike_id":"d1291b05-9385-4a17-90da-1b19add4ef1a","system_id":"levelo_inurba_marseille","lat":43.31497,"lon":5.37307,"is_reserved":false,"is_disabled":false,"rental_uris":{"android":"levelo://app?vid=d1291b05-9385-4a17-90da-1b19add4ef1a","ios":"levelo://app?vid=d1291b05-9385-4a17-90da-1b19add4ef1a"},"vehicle_type_id":"4","last_reported":1721318952,"current_range_meters":0,"station_id":"ce4bgt12rcd13ifvqcd0","pricing_plan_id":"cebpf4jnsgd1na2vs0mg"},{"bike_id":"ccaa9f3f-8e02-4387-9c99-8e8216e94f1c","system_id":"levelo_inurba_marseille","lat":43.31492,"lon":5.37314,"is_reserved":false,"is_disabled":false,"rental_uris":{"android":"levelo://app?vid=ccaa9f3f-8e02-4387-9c99-8e8216e94f1c","ios":"levelo://app?vid=ccaa9f3f-8e02-4387-9c99-8e8216e94f1c"},"vehicle_type_id":"4","last_reported":1721318952,"current_range_meters":14800,"station_id":"ce4bgt12rcd13ifvqcd0","pricing_plan_id":"cebpf4jnsgd1na2vs0mg"},{"bike_id":"32b15b39-0afe-42df-a1c7-442a67c766e0","system_id":"levelo_inurba_marseille","lat":43.309034,"lon":5.371783,"is_reserved":false,"is_disabled":false,"rental_uris":{"android":"levelo://app?vid=32b15b39-0afe-42df-a1c7-442a67c766e0","ios":"levelo://app?vid=32b15b39-0afe-42df-a1c7-442a67c766e0"},"vehicle_type_id":"4","last_reported":1721318952,"current_range_meters":14000,"station_id":"ce4bguh2rcd13ifvqckg","pricing_plan_id":"cebpf4jnsgd1na2vs0mg"},{"bike_id":"01e87a0c-f045-4fbd-a9b0-f4b0798cc513","system_id":"levelo_inurba_marseille","lat":43.314563,"lon":5.373808,"is_reserved":false,"is_disabled":false,"rental_uris":{"android":"levelo://app?vid=01e87a0c-f045-4fbd-a9b0-f4b0798cc513","ios":"levelo://app?vid=01e87a0c-f045-4fbd-a9b0-f4b0798cc513"},"vehicle_type_id":"4","last_reported":1721318952,"current_range_meters":6400,"station_id":"","pricing_plan_id":"cebpf4jnsgd1na2vs0mg"},{"bike_id":"70465c97-b6ce-4cce-97b8-8a7b5d6bd44e","system_id":"levelo_inurba_marseille","lat":43.3053,"lon":5.36652,"is_reserved":false,"is_disabled":false,"rental_uris":{"android":"levelo://app?vid=70465c97-b6ce-4cce-97b8-8a7b5d6bd44e","ios":"levelo://app?vid=70465c97-b6ce-4cce-97b8-8a7b5d6bd44e"},"vehicle_type_id":"4","last_reported":1721318952,"current_range_meters":5200,"station_id":"","pricing_plan_id":"cebpf4jnsgd1na2vs0mg"},{"bike_id":"7380aaf3-5eef-415b-9515-7f59da418f3c","system_id":"levelo_inurba_marseille","lat":43.305714,"lon":5.365633,"is_reserved":false,"is_disabled":false,"rental_uris":{"android":"levelo://app?vid=7380aaf3-5eef-415b-9515-7f59da418f3c","ios":"levelo://app?vid=7380aaf3-5eef-415b-9515-7f59da418f3c"},"vehicle_type_id":"4","last_reported":1721318952,"current_range_meters":0,"station_id":"ce4bgs12rcd13ifvqcag","pricing_plan_id":"cebpf4jnsgd1na2vs0mg"},{"bike_id":"a8e071f7-9236-4ae5-9bd0-04d10314385c","system_id":"levelo_inurba_marseille","lat":43.305989,"lon":5.37225,"is_reserved":false,"is_disabled":false,"rental_uris":{"android":"levelo://app?vid=a8e071f7-9236-4ae5-9bd0-04d10314385c","ios":"levelo://app?vid=a8e071f7-9236-4ae5-9bd0-04d10314385c"},"vehicle_type_id":"4","last_reported":1721318952,"current_range_meters":0,"station_id":"ce4bgqh2rcd13ifvqc4g","pricing_plan_id":"cebpf4jnsgd1na2vs0mg"},{"bike_id":"1a28bfa3-fc58-484e-ac91-547d08f03fa4","system_id":"levelo_inurba_marseille","lat":43.307945,"lon":5.376487,"is_reserved":false,"is_disabled":false,"rental_uris":{"android":"levelo://app?vid=1a28bfa3-fc58-484e-ac91-547d08f03fa4","ios":"levelo://app?vid=1a28bfa3-fc58-484e-ac91-547d08f03fa4"},"vehicle_type_id":"4","last_reported":1721318952,"current_range_meters":28400,"station_id":"ce4bgv92rcd13ifvqcq0","pricing_plan_id":"cebpf4jnsgd1na2vs0mg"},{"bike_id":"bdea75a1-eff4-4fc0-b5b2-90f54dd58ddf","system_id":"levelo_inurba_marseille","lat":43.30341,"lon":5.36493,"is_reserved":false,"is_disabled":false,"rental_uris":{"android":"levelo://app?vid=bdea75a1-eff4-4fc0-b5b2-90f54dd58ddf","ios":"levelo://app?vid=bdea75a1-eff4-4fc0-b5b2-90f54dd58ddf"},"vehicle_type_id":"4","last_reported":1721318952,"current_range_meters":21600,"station_id":"","pricing_plan_id":"cebpf4jnsgd1na2vs0mg"},{"bike_id":"9d747ef4-c62d-43e4-bcec-4074adc69fd4","system_id":"levelo_inurba_marseille","lat":43.311407,"lon":5.37987,"is_reserved":false,"is_disabled":false,"rental_uris":{"android":"levelo://app?vid=9d747ef4-c62d-43e4-bcec-4074adc69fd4","ios":"levelo://app?vid=9d747ef4-c62d-43e4-bcec-4074adc69fd4"},"vehicle_type_id":"4","last_reported":1721318952,"current_range_meters":800,"station_id":"","pricing_plan_id":"cebpf4jnsgd1na2vs0mg"},{"bike_id":"c9211448-e945-427f-803a-d50c535c9dd5","system_id":"levelo_inurba_marseille","lat":43.30304,"lon":5.368987,"is_reserved":false,"is_disabled":false,"rental_uris":{"android":"levelo://app?vid=c9211448-e945-427f-803a-d50c535c9dd5","ios":"levelo://app?vid=c9211448-e945-427f-803a-d50c535c9dd5"},"vehicle_type_id":"4","last_reported":1721318952,"current_range_meters":0,"station_id":"ce4bgqh2rcd13ifvqc5g","pricing_plan_id":"cebpf4jnsgd1na2vs0mg"},{"bike_id":"f1ddb867-7080-48b7-9f46-6e35e8641320","system_id":"levelo_inurba_marseille","lat":43.315289,"lon":5.380349,"is_reserved":false,"is_disabled":false,"rental_uris":{"android":"levelo://app?vid=f1ddb867-7080-48b7-9f46-6e35e8641320","ios":"levelo://app?vid=f1ddb867-7080-48b7-9f46-6e35e8641320"},"vehicle_type_id":"4","last_reported":1721318952,"current_range_meters":6000,"station_id":"ce4bhsp2rcd13ifvqi50","pricing_plan_id":"cebpf4jnsgd1na2vs0mg"},{"bike_id":"40397692-cc33-4bf5-b4a1-7f79bdeb6e8c","system_id":"levelo_inurba_marseille","lat":43.304606,"lon":5.379026,"is_reserved":false,"is_disabled":false,"rental_uris":{"android":"levelo://app?vid=40397692-cc33-4bf5-b4a1-7f79bdeb6e8c","ios":"levelo://app?vid=40397692-cc33-4bf5-b4a1-7f79bdeb6e8c"},"vehicle_type_id":"4","last_reported":1721318952,"current_range_meters":0,"station_id":"ce4bgup2rcd13ifvqcn0","pricing_plan_id":"cebpf4jnsgd1na2vs0mg"},{"bike_id":"334794cd-ffb5-4f3a-be20-362886a2dc0d","system_id":"levelo_inurba_marseille","lat":43.324771,"lon":5.36557,"is_reserved":false,"is_disabled":false,"rental_uris":{"android":"levelo://app?vid=334794cd-ffb5-4f3a-be20-362886a2dc0d","ios":"levelo://app?vid=334794cd-ffb5-4f3a-be20-362886a2dc0d"},"vehicle_type_id":"4","last_reported":1721318952,"current_range_meters":30400,"station_id":"ce4bhs12rcd13ifvqhvg","pricing_plan_id":"cebpf4jnsgd1na2vs0mg"},{"bike_id":"e394fee5-f9ac-4bc6-af25-aef4e3f792d6","system_id":"levelo_inurba_marseille","lat":43.324771,"lon":5.36557,"is_reserved":false,"is_disabled":false,"rental_uris":{"android":"levelo://app?vid=e394fee5-f9ac-4bc6-af25-aef4e3f792d6","ios":"levelo://app?vid=e394fee5-f9ac-4bc6-af25-aef4e3f792d6"},"vehicle_type_id":"4","last_reported":1721318952,"current_range_meters":31200,"station_id":"ce4bhs12rcd13ifvqhvg","pricing_plan_id":"cebpf4jnsgd1na2vs0mg"},{"bike_id":"ece5a2d6-e52e-4a8e-a357-bdde3ce67fcf","system_id":"levelo_inurba_marseille","lat":43.324771,"lon":5.36557,"is_reserved":false,"is_disabled":false,"rental_uris":{"android":"levelo://app?vid=ece5a2d6-e52e-4a8e-a357-bdde3ce67fcf","ios":"levelo://app?vid=ece5a2d6-e52e-4a8e-a357-bdde3ce67fcf"},"vehicle_type_id":"4","last_reported":1721318952,"current_range_meters":26400,"station_id":"ce4bhs12rcd13ifvqhvg","pricing_plan_id":"cebpf4jnsgd1na2vs0mg"},{"bike_id":"44473456-1f89-43be-a60a-6fd9dd5c859b","system_id":"levelo_inurba_marseille","lat":43.324771,"lon":5.36557,"is_reserved":false,"is_disabled":false,"rental_uris":{"android":"levelo://app?vid=44473456-1f89-43be-a60a-6fd9dd5c859b","ios":"levelo://app?vid=44473456-1f89-43be-a60a-6fd9dd5c859b"},"vehicle_type_id":"4","last_reported":1721318952,"current_range_meters":28800,"station_id":"ce4bhs12rcd13ifvqhvg","pricing_plan_id":"cebpf4jnsgd1na2vs0mg"},{"bike_id":"ed1d9b98-9384-42ad-92e9-0c970fb93bee","system_id":"levelo_inurba_marseille","lat":43.324771,"lon":5.36557,"is_reserved":false,"is_disabled":false,"rental_uris":{"android":"levelo://app?vid=ed1d9b98-9384-42ad-92e9-0c970fb93bee","ios":"levelo://app?vid=ed1d9b98-9384-42ad-92e9-0c970fb93bee"},"vehicle_type_id":"4","last_reported":1721318952,"current_range_meters":26400,"station_id":"ce4bhs12rcd13ifvqhvg","pricing_plan_id":"cebpf4jnsgd1na2vs0mg"},{"bike_id":"ed6518d3-2dad-47df-817c-a42834444454","system_id":"levelo_inurba_marseille","lat":43.324872,"lon":5.365736,"is_reserved":false,"is_disabled":false,"rental_uris":{"android":"levelo://app?vid=ed6518d3-2dad-47df-817c-a42834444454","ios":"levelo://app?vid=ed6518d3-2dad-47df-817c-a42834444454"},"vehicle_type_id":"4","last_reported":1721318952,"current_range_meters":1200,"station_id":"ce4bhs12rcd13ifvqhvg","pricing_plan_id":"cebpf4jnsgd1na2vs0mg"},{"bike_id":"9d3ad9e9-768f-4d74-9053-c832934ce231","system_id":"levelo_inurba_marseille","lat":43.31071,"lon":5.38353,"is_reserved":false,"is_disabled":false,"rental_uris":{"android":"levelo://app?vid=9d3ad9e9-768f-4d74-9053-c832934ce231","ios":"levelo://app?vid=9d3ad9e9-768f-4d74-9053-c832934ce231"},"vehicle_type_id":"4","last_reported":1721318952,"current_range_meters":0,"station_id":"ce4bgv92rcd13ifvqcr0","pricing_plan_id":"cebpf4jnsgd1na2vs0mg"},{"bike_id":"2fcc9612-af6d-4890-bae6-a61d510e336d","system_id":"levelo_inurba_marseille","lat":43.319935,"lon":5.381699,"is_reserved":false,"is_disabled":false,"rental_uris":{"android":"levelo://app?vid=2fcc9612-af6d-4890-bae6-a61d510e336d","ios":"levelo://app?vid=2fcc9612-af6d-4890-bae6-a61d510e336d"},"vehicle_type_id":"4","last_reported":1721318952,"current_range_meters":13200,"station_id":"ce4bhr12rcd13ifvqhpg","pricing_plan_id":"cebpf4jnsgd1na2vs0mg"},{"bike_id":"9f08c15d-cf1e-4f50-9750-ff3de75189df","system_id":"levelo_inurba_marseille","lat":43.313571,"lon":5.384829,"is_reserved":false,"is_disabled":false,"rental_uris":{"android":"levelo://app?vid=9f08c15d-cf1e-4f50-9750-ff3de75189df","ios":"levelo://app?vid=9f08c15d-cf1e-4f50-9750-ff3de75189df"},"vehicle_type_id":"4","last_reported":1721318952,"current_range_meters":12800,"station_id":"ce4bgt92rcd13ifvqcf0","pricing_plan_id":"cebpf4jnsgd1na2vs0mg"},{"bike_id":"b78b161f-9c1d-4a00-995b-a1c0b47e30e6","system_id":"levelo_inurba_marseille","lat":43.31371,"lon":5.38492,"is_reserved":false,"is_disabled":false,"rental_uris":{"android":"levelo://app?vid=b78b161f-9c1d-4a00-995b-a1c0b47e30e6","ios":"levelo://app?vid=b78b161f-9c1d-4a00-995b-a1c0b47e30e6"},"vehicle_type_id":"4","last_reported":1721318952,"current_range_meters":26800,"station_id":"ce4bgt92rcd13ifvqcf0","pricing_plan_id":"cebpf4jnsgd1na2vs0mg"},{"bike_id":"d74c33cc-c47a-426b-9e14-c47c9c69b852","system_id":"levelo_inurba_marseille","lat":43.313571,"lon":5.384829,"is_reserved":false,"is_disabled":false,"rental_uris":{"android":"levelo://app?vid=d74c33cc-c47a-426b-9e14-c47c9c69b852","ios":"levelo://app?vid=d74c33cc-c47a-426b-9e14-c47c9c69b852"},"vehicle_type_id":"4","last_reported":1721318952,"current_range_meters":6400,"station_id":"ce4bgt92rcd13ifvqcf0","pricing_plan_id":"cebpf4jnsgd1na2vs0mg"},{"bike_id":"a45256b4-0045-46f5-bc9e-39653c5b985a","system_id":"levelo_inurba_marseille","lat":43.313607,"lon":5.38496,"is_reserved":false,"is_disabled":false,"rental_uris":{"android":"levelo://app?vid=a45256b4-0045-46f5-bc9e-39653c5b985a","ios":"levelo://app?vid=a45256b4-0045-46f5-bc9e-39653c5b985a"},"vehicle_type_id":"4","last_reported":1721318952,"current_range_meters":0,"station_id":"ce4bgt92rcd13ifvqcf0","pricing_plan_id":"cebpf4jnsgd1na2vs0mg"},{"bike_id":"14b8b709-7f46-40bf-ac9f-50e93cc4f9be","system_id":"levelo_inurba_marseille","lat":43.301633,"lon":5.376997,"is_reserved":false,"is_disabled":false,"rental_uris":{"android":"levelo://app?vid=14b8b709-7f46-40bf-ac9f-50e93cc4f9be","ios":"levelo://app?vid=14b8b709-7f46-40bf-ac9f-50e93cc4f9be"},"vehicle_type_id":"4","last_reported":1721318952,"current_range_meters":18800,"station_id":"","pricing_plan_id":"cebpf4jnsgd1na2vs0mg"},{"bike_id":"732807a5-9b94-40aa-9744-7237e20b953e","system_id":"levelo_inurba_marseille","lat":43.299724,"lon":5.371829,"is_reserved":false,"is_disabled":false,"rental_uris":{"android":"levelo://app?vid=732807a5-9b94-40aa-9744-7237e20b953e","ios":"levelo://app?vid=732807a5-9b94-40aa-9744-7237e20b953e"},"vehicle_type_id":"4","last_reported":1721318952,"current_range_meters":0,"station_id":"ce4bgr92rcd13ifvqc7g","pricing_plan_id":"cebpf4jnsgd1na2vs0mg"},{"bike_id":"f0cfff1d-8585-4de9-98d5-dc195e746d5b","system_id":"levelo_inurba_marseille","lat":43.299724,"lon":5.371829,"is_reserved":false,"is_disabled":false,"rental_uris":{"android":"levelo://app?vid=f0cfff1d-8585-4de9-98d5-dc195e746d5b","ios":"levelo://app?vid=f0cfff1d-8585-4de9-98d5-dc195e746d5b"},"vehicle_type_id":"4","last_reported":1721318952,"current_range_meters":8000,"station_id":"ce4bgr92rcd13ifvqc7g","pricing_plan_id":"cebpf4jnsgd1na2vs0mg"},{"bike_id":"726abc1b-cb05-4b0b-8461-fe53430395ee","system_id":"levelo_inurba_marseille","lat":43.299243,"lon":5.37481,"is_reserved":false,"is_disabled":false,"rental_uris":{"android":"levelo://app?vid=726abc1b-cb05-4b0b-8461-fe53430395ee","ios":"levelo://app?vid=726abc1b-cb05-4b0b-8461-fe53430395ee"},"vehicle_type_id":"4","last_reported":1721318952,"current_range_meters":23200,"station_id":"ce4bgjh2rcd13ifvqbg0","pricing_plan_id":"cebpf4jnsgd1na2vs0mg"},{"bike_id":"f6e044be-3a3d-4f68-9d95-35d3eae87a7f","system_id":"levelo_inurba_marseille","lat":43.311131,"lon":5.377651,"is_reserved":false,"is_disabled":false,"rental_uris":{"android":"levelo://app?vid=f6e044be-3a3d-4f68-9d95-35d3eae87a7f","ios":"levelo://app?vid=f6e044be-3a3d-4f68-9d95-35d3eae87a7f"},"vehicle_type_id":"4","last_reported":1721318952,"current_range_meters":10400,"station_id":"ce4bgt92rcd13ifvqcg0","pricing_plan_id":"cebpf4jnsgd1na2vs0mg"},{"bike_id":"01616b36-001b-4ba6-b03a-7d4abcbfd445","system_id":"levelo_inurba_marseille","lat":43.311722,"lon":5.387247,"is_reserved":false,"is_disabled":false,"rental_uris":{"android":"levelo://app?vid=01616b36-001b-4ba6-b03a-7d4abcbfd445","ios":"levelo://app?vid=01616b36-001b-4ba6-b03a-7d4abcbfd445"},"vehicle_type_id":"4","last_reported":1721318952,"current_range_meters":7200,"station_id":"ce4bgv12rcd13ifvqcp0","pricing_plan_id":"cebpf4jnsgd1na2vs0mg"},{"bike_id":"760dbf3a-bd56-4052-ab9c-f968d06ea1db","system_id":"levelo_inurba_marseille","lat":43.311722,"lon":5.387247,"is_reserved":false,"is_disabled":false,"rental_uris":{"android":"levelo://app?vid=760dbf3a-bd56-4052-ab9c-f968d06ea1db","ios":"levelo://app?vid=760dbf3a-bd56-4052-ab9c-f968d06ea1db"},"vehicle_type_id":"4","last_reported":1721318952,"current_range_meters":0,"station_id":"ce4bgv12rcd13ifvqcp0","pricing_plan_id":"cebpf4jnsgd1na2vs0mg"},{"bike_id":"3eaa814b-ec7d-4c48-bae8-14be28e3db3f","system_id":"levelo_inurba_marseille","lat":43.311722,"lon":5.387247,"is_reserved":false,"is_disabled":false,"rental_uris":{"android":"levelo://app?vid=3eaa814b-ec7d-4c48-bae8-14be28e3db3f","ios":"levelo://app?vid=3eaa814b-ec7d-4c48-bae8-14be28e3db3f"},"vehicle_type_id":"4","last_reported":1721318952,"current_range_meters":18000,"station_id":"ce4bgv12rcd13ifvqcp0","pricing_plan_id":"cebpf4jnsgd1na2vs0mg"},{"bike_id":"09922c3c-4de5-4e36-8113-a3f6f87c09cc","system_id":"levelo_inurba_marseille","lat":43.311722,"lon":5.387247,"is_reserved":false,"is_disabled":false,"rental_uris":{"android":"levelo://app?vid=09922c3c-4de5-4e36-8113-a3f6f87c09cc","ios":"levelo://app?vid=09922c3c-4de5-4e36-8113-a3f6f87c09cc"},"vehicle_type_id":"4","last_reported":1721318952,"current_range_meters":400,"station_id":"ce4bgv12rcd13ifvqcp0","pricing_plan_id":"cebpf4jnsgd1na2vs0mg"},{"bike_id":"5ca1c0b9-9f3b-43c2-b361-96c103c82edb","system_id":"levelo_inurba_marseille","lat":43.311722,"lon":5.387247,"is_reserved":false,"is_disabled":false,"rental_uris":{"android":"levelo://app?vid=5ca1c0b9-9f3b-43c2-b361-96c103c82edb","ios":"levelo://app?vid=5ca1c0b9-9f3b-43c2-b361-96c103c82edb"},"vehicle_type_id":"4","last_reported":1721318952,"current_range_meters":8800,"station_id":"ce4bgv12rcd13ifvqcp0","pricing_plan_id":"cebpf4jnsgd1na2vs0mg"},{"bike_id":"57f55f51-2305-41e4-99a3-79b2e4b2b68b","system_id":"levelo_inurba_marseille","lat":43.299724,"lon":5.371829,"is_reserved":false,"is_disabled":false,"rental_uris":{"android":"levelo://app?vid=57f55f51-2305-41e4-99a3-79b2e4b2b68b","ios":"levelo://app?vid=57f55f51-2305-41e4-99a3-79b2e4b2b68b"},"vehicle_type_id":"4","last_reported":1721318952,"current_range_meters":10400,"station_id":"ce4bgr92rcd13ifvqc7g","pricing_plan_id":"cebpf4jnsgd1na2vs0mg"},{"bike_id":"ec5b73a8-23a3-43f4-8676-31c54a037e4c","system_id":"levelo_inurba_marseille","lat":43.297794,"lon":5.370888,"is_reserved":false,"is_disabled":false,"rental_uris":{"android":"levelo://app?vid=ec5b73a8-23a3-43f4-8676-31c54a037e4c","ios":"levelo://app?vid=ec5b73a8-23a3-43f4-8676-31c54a037e4c"},"vehicle_type_id":"4","last_reported":1721318952,"current_range_meters":2800,"station_id":"ce4bgop2rcd13ifvqc1g","pricing_plan_id":"cebpf4jnsgd1na2vs0mg"},{"bike_id":"2ba1cd19-4d4f-45ac-aae7-9679f5682841","system_id":"levelo_inurba_marseille","lat":43.32284,"lon":5.382626,"is_reserved":false,"is_disabled":false,"rental_uris":{"android":"levelo://app?vid=2ba1cd19-4d4f-45ac-aae7-9679f5682841","ios":"levelo://app?vid=2ba1cd19-4d4f-45ac-aae7-9679f5682841"},"vehicle_type_id":"4","last_reported":1721318952,"current_range_meters":30800,"station_id":"ce4bhr12rcd13ifvqhqg","pricing_plan_id":"cebpf4jnsgd1na2vs0mg"},{"bike_id":"8fbf040a-df4c-4abe-9cb9-86a3ac17fb6b","system_id":"levelo_inurba_marseille","lat":43.322872,"lon":5.382756,"is_reserved":false,"is_disabled":false,"rental_uris":{"android":"levelo://app?vid=8fbf040a-df4c-4abe-9cb9-86a3ac17fb6b","ios":"levelo://app?vid=8fbf040a-df4c-4abe-9cb9-86a3ac17fb6b"},"vehicle_type_id":"4","last_reported":1721318952,"current_range_meters":4400,"station_id":"ce4bhr12rcd13ifvqhqg","pricing_plan_id":"cebpf4jnsgd1na2vs0mg"},{"bike_id":"ae1195a7-138c-4467-b571-5280a2475549","system_id":"levelo_inurba_marseille","lat":43.297163,"lon":5.365866,"is_reserved":false,"is_disabled":false,"rental_uris":{"android":"levelo://app?vid=ae1195a7-138c-4467-b571-5280a2475549","ios":"levelo://app?vid=ae1195a7-138c-4467-b571-5280a2475549"},"vehicle_type_id":"4","last_reported":1721318952,"current_range_meters":0,"station_id":"ce4bgn12rcd13ifvqbt0","pricing_plan_id":"cebpf4jnsgd1na2vs0mg"},{"bike_id":"de0d59d5-7ecf-4ac6-a03b-3866ba88d844","system_id":"levelo_inurba_marseille","lat":43.29709,"lon":5.36609,"is_reserved":false,"is_disabled":false,"rental_uris":{"android":"levelo://app?vid=de0d59d5-7ecf-4ac6-a03b-3866ba88d844","ios":"levelo://app?vid=de0d59d5-7ecf-4ac6-a03b-3866ba88d844"},"vehicle_type_id":"4","last_reported":1721318952,"current_range_meters":31200,"station_id":"","pricing_plan_id":"cebpf4jnsgd1na2vs0mg"},{"bike_id":"cfa24e32-d149-403e-9556-592fea1adbaa","system_id":"levelo_inurba_marseille","lat":43.29706,"lon":5.3661,"is_reserved":false,"is_disabled":false,"rental_uris":{"android":"levelo://app?vid=cfa24e32-d149-403e-9556-592fea1adbaa","ios":"levelo://app?vid=cfa24e32-d149-403e-9556-592fea1adbaa"},"vehicle_type_id":"4","last_reported":1721318952,"current_range_meters":31200,"station_id":"ce4bgn12rcd13ifvqbt0","pricing_plan_id":"cebpf4jnsgd1na2vs0mg"},{"bike_id":"e6c2bbbb-f1e9-4959-967d-3de115bab34f","system_id":"levelo_inurba_marseille","lat":43.29573,"lon":5.367355,"is_reserved":false,"is_disabled":false,"rental_uris":{"android":"levelo://app?vid=e6c2bbbb-f1e9-4959-967d-3de115bab34f","ios":"levelo://app?vid=e6c2bbbb-f1e9-4959-967d-3de115bab34f"},"vehicle_type_id":"4","last_reported":1721318952,"current_range_meters":19200,"station_id":"ce4bgph2rcd13ifvqc2g","pricing_plan_id":"cebpf4jnsgd1na2vs0mg"},{"bike_id":"e89eaed1-4bf2-417f-9830-5357b8e452a3","system_id":"levelo_inurba_marseille","lat":43.29573,"lon":5.367355,"is_reserved":false,"is_disabled":false,"rental_uris":{"android":"levelo://app?vid=e89eaed1-4bf2-417f-9830-5357b8e452a3","ios":"levelo://app?vid=e89eaed1-4bf2-417f-9830-5357b8e452a3"},"vehicle_type_id":"4","last_reported":1721318952,"current_range_meters":20400,"station_id":"ce4bgph2rcd13ifvqc2g","pricing_plan_id":"cebpf4jnsgd1na2vs0mg"},{"bike_id":"1c9bdcd8-5174-49c3-af9f-97b94d6bec2c","system_id":"levelo_inurba_marseille","lat":43.29573,"lon":5.367355,"is_reserved":false,"is_disabled":false,"rental_uris":{"android":"levelo://app?vid=1c9bdcd8-5174-49c3-af9f-97b94d6bec2c","ios":"levelo://app?vid=1c9bdcd8-5174-49c3-af9f-97b94d6bec2c"},"vehicle_type_id":"4","last_reported":1721318952,"current_range_meters":6400,"station_id":"ce4bgph2rcd13ifvqc2g","pricing_plan_id":"cebpf4jnsgd1na2vs0mg"},{"bike_id":"9ad25be3-0ed1-4a29-b35e-9bc68675ad94","system_id":"levelo_inurba_marseille","lat":43.29906,"lon":5.38137,"is_reserved":false,"is_disabled":false,"rental_uris":{"android":"levelo://app?vid=9ad25be3-0ed1-4a29-b35e-9bc68675ad94","ios":"levelo://app?vid=9ad25be3-0ed1-4a29-b35e-9bc68675ad94"},"vehicle_type_id":"4","last_reported":1721318952,"current_range_meters":0,"station_id":"ce4bgj12rcd13ifvqbc0","pricing_plan_id":"cebpf4jnsgd1na2vs0mg"},{"bike_id":"09fb79c6-1cea-40ab-8f7f-220f9c67f93c","system_id":"levelo_inurba_marseille","lat":43.317557,"lon":5.390173,"is_reserved":false,"is_disabled":false,"rental_uris":{"android":"levelo://app?vid=09fb79c6-1cea-40ab-8f7f-220f9c67f93c","ios":"levelo://app?vid=09fb79c6-1cea-40ab-8f7f-220f9c67f93c"},"vehicle_type_id":"4","last_reported":1721318952,"current_range_meters":26400,"station_id":"ce4bhqp2rcd13ifvqhng","pricing_plan_id":"cebpf4jnsgd1na2vs0mg"},{"bike_id":"5b376316-b63d-438c-ac97-bcf5dbadbdb3","system_id":"levelo_inurba_marseille","lat":43.295748,"lon":5.37522,"is_reserved":false,"is_disabled":false,"rental_uris":{"android":"levelo://app?vid=5b376316-b63d-438c-ac97-bcf5dbadbdb3","ios":"levelo://app?vid=5b376316-b63d-438c-ac97-bcf5dbadbdb3"},"vehicle_type_id":"4","last_reported":1721318952,"current_range_meters":0,"station_id":"ce4bgh92rcd13ifvqb50","pricing_plan_id":"cebpf4jnsgd1na2vs0mg"},{"bike_id":"f76e231e-a50e-43de-bf1e-238f365263f7","system_id":"levelo_inurba_marseille","lat":43.2952,"lon":5.37433,"is_reserved":false,"is_disabled":false,"rental_uris":{"android":"levelo://app?vid=f76e231e-a50e-43de-bf1e-238f365263f7","ios":"levelo://app?vid=f76e231e-a50e-43de-bf1e-238f365263f7"},"vehicle_type_id":"4","last_reported":1721318952,"current_range_meters":0,"station_id":"","pricing_plan_id":"cebpf4jnsgd1na2vs0mg"},{"bike_id":"597584cb-99c8-45b7-b5f9-a3a0833d669d","system_id":"levelo_inurba_marseille","lat":43.29526,"lon":5.37497,"is_reserved":false,"is_disabled":false,"rental_uris":{"android":"levelo://app?vid=597584cb-99c8-45b7-b5f9-a3a0833d669d","ios":"levelo://app?vid=597584cb-99c8-45b7-b5f9-a3a0833d669d"},"vehicle_type_id":"4","last_reported":1721318952,"current_range_meters":0,"station_id":"ce4bgkp2rcd13ifvqbmg","pricing_plan_id":"cebpf4jnsgd1na2vs0mg"},{"bike_id":"18491e9b-089a-423d-92a6-2224fb4ac1cb","system_id":"levelo_inurba_marseille","lat":43.30473,"lon":5.39011,"is_reserved":false,"is_disabled":false,"rental_uris":{"android":"levelo://app?vid=18491e9b-089a-423d-92a6-2224fb4ac1cb","ios":"levelo://app?vid=18491e9b-089a-423d-92a6-2224fb4ac1cb"},"vehicle_type_id":"4","last_reported":1721318952,"current_range_meters":10800,"station_id":"","pricing_plan_id":"cebpf4jnsgd1na2vs0mg"},{"bike_id":"ba514446-4531-4ecf-9c09-350be85521cf","system_id":"levelo_inurba_marseille","lat":43.32367,"lon":5.388836,"is_reserved":false,"is_disabled":false,"rental_uris":{"android":"levelo://app?vid=ba514446-4531-4ecf-9c09-350be85521cf","ios":"levelo://app?vid=ba514446-4531-4ecf-9c09-350be85521cf"},"vehicle_type_id":"4","last_reported":1721318952,"current_range_meters":0,"station_id":"ce4bhqp2rcd13ifvqhog","pricing_plan_id":"cebpf4jnsgd1na2vs0mg"},{"bike_id":"ad164462-2a7f-47f1-bba2-49d2f6773ad0","system_id":"levelo_inurba_marseille","lat":43.32367,"lon":5.388836,"is_reserved":false,"is_disabled":false,"rental_uris":{"android":"levelo://app?vid=ad164462-2a7f-47f1-bba2-49d2f6773ad0","ios":"levelo://app?vid=ad164462-2a7f-47f1-bba2-49d2f6773ad0"},"vehicle_type_id":"4","last_reported":1721318952,"current_range_meters":10800,"station_id":"ce4bhqp2rcd13ifvqhog","pricing_plan_id":"cebpf4jnsgd1na2vs0mg"},{"bike_id":"2aeaaab9-ad82-417d-8e44-8375dffaf90a","system_id":"levelo_inurba_marseille","lat":43.30747,"lon":5.39261,"is_reserved":false,"is_disabled":false,"rental_uris":{"android":"levelo://app?vid=2aeaaab9-ad82-417d-8e44-8375dffaf90a","ios":"levelo://app?vid=2aeaaab9-ad82-417d-8e44-8375dffaf90a"},"vehicle_type_id":"4","last_reported":1721318952,"current_range_meters":17600,"station_id":"","pricing_plan_id":"cebpf4jnsgd1na2vs0mg"},{"bike_id":"7a52eb6e-da9e-4f7d-8fd4-b023ddc369d0","system_id":"levelo_inurba_marseille","lat":43.294018,"lon":5.374228,"is_reserved":false,"is_disabled":false,"rental_uris":{"android":"levelo://app?vid=7a52eb6e-da9e-4f7d-8fd4-b023ddc369d0","ios":"levelo://app?vid=7a52eb6e-da9e-4f7d-8fd4-b023ddc369d0"},"vehicle_type_id":"4","last_reported":1721318952,"current_range_meters":0,"station_id":"","pricing_plan_id":"cebpf4jnsgd1na2vs0mg"},{"bike_id":"1b8136a3-0cc1-4ab8-8fd6-5eb484bba2a3","system_id":"levelo_inurba_marseille","lat":43.292749,"lon":5.368398,"is_reserved":false,"is_disabled":false,"rental_uris":{"android":"levelo://app?vid=1b8136a3-0cc1-4ab8-8fd6-5eb484bba2a3","ios":"levelo://app?vid=1b8136a3-0cc1-4ab8-8fd6-5eb484bba2a3"},"vehicle_type_id":"4","last_reported":1721318952,"current_range_meters":16000,"station_id":"ce4bhbp2rcd13ifvqesg","pricing_plan_id":"cebpf4jnsgd1na2vs0mg"},{"bike_id":"b4a9df49-b983-4d00-ae21-ea4b739fcf0b","system_id":"levelo_inurba_marseille","lat":43.29304,"lon":5.37452,"is_reserved":false,"is_disabled":false,"rental_uris":{"android":"levelo://app?vid=b4a9df49-b983-4d00-ae21-ea4b739fcf0b","ios":"levelo://app?vid=b4a9df49-b983-4d00-ae21-ea4b739fcf0b"},"vehicle_type_id":"4","last_reported":1721318952,"current_range_meters":0,"station_id":"ce4bgi12rcd13ifvqb70","pricing_plan_id":"cebpf4jnsgd1na2vs0mg"},{"bike_id":"94f32e54-4f04-4bff-a3d7-54b4853680bd","system_id":"levelo_inurba_marseille","lat":43.29303,"lon":5.37462,"is_reserved":false,"is_disabled":false,"rental_uris":{"android":"levelo://app?vid=94f32e54-4f04-4bff-a3d7-54b4853680bd","ios":"levelo://app?vid=94f32e54-4f04-4bff-a3d7-54b4853680bd"},"vehicle_type_id":"4","last_reported":1721318952,"current_range_meters":0,"station_id":"ce4bgi12rcd13ifvqb70","pricing_plan_id":"cebpf4jnsgd1na2vs0mg"},{"bike_id":"e0dbeed9-9dd5-4a1f-a3b6-7949b3d41d95","system_id":"levelo_inurba_marseille","lat":43.29301,"lon":5.37454,"is_reserved":false,"is_disabled":false,"rental_uris":{"android":"levelo://app?vid=e0dbeed9-9dd5-4a1f-a3b6-7949b3d41d95","ios":"levelo://app?vid=e0dbeed9-9dd5-4a1f-a3b6-7949b3d41d95"},"vehicle_type_id":"4","last_reported":1721318952,"current_range_meters":0,"station_id":"ce4bgi12rcd13ifvqb70","pricing_plan_id":"cebpf4jnsgd1na2vs0mg"},{"bike_id":"73abd374-7335-4133-9b53-e0bc6c238b58","system_id":"levelo_inurba_marseille","lat":43.29298,"lon":5.37447,"is_reserved":false,"is_disabled":false,"rental_uris":{"android":"levelo://app?vid=73abd374-7335-4133-9b53-e0bc6c238b58","ios":"levelo://app?vid=73abd374-7335-4133-9b53-e0bc6c238b58"},"vehicle_type_id":"4","last_reported":1721318952,"current_range_meters":0,"station_id":"ce4bgi12rcd13ifvqb70","pricing_plan_id":"cebpf4jnsgd1na2vs0mg"},{"bike_id":"12b8459a-6a87-4648-bb13-5fdd4422523f","system_id":"levelo_inurba_marseille","lat":43.292953,"lon":5.374493,"is_reserved":false,"is_disabled":false,"rental_uris":{"android":"levelo://app?vid=12b8459a-6a87-4648-bb13-5fdd4422523f","ios":"levelo://app?vid=12b8459a-6a87-4648-bb13-5fdd4422523f"},"vehicle_type_id":"4","last_reported":1721318952,"current_range_meters":20400,"station_id":"ce4bgi12rcd13ifvqb70","pricing_plan_id":"cebpf4jnsgd1na2vs0mg"},{"bike_id":"268537f4-02fe-403b-919c-189993458cfe","system_id":"levelo_inurba_marseille","lat":43.303002,"lon":5.392142,"is_reserved":false,"is_disabled":false,"rental_uris":{"android":"levelo://app?vid=268537f4-02fe-403b-919c-189993458cfe","ios":"levelo://app?vid=268537f4-02fe-403b-919c-189993458cfe"},"vehicle_type_id":"4","last_reported":1721318952,"current_range_meters":0,"station_id":"ce4bgkh2rcd13ifvqbk0","pricing_plan_id":"cebpf4jnsgd1na2vs0mg"},{"bike_id":"292eb626-e5dd-453c-95ea-80a2878e4db8","system_id":"levelo_inurba_marseille","lat":43.302992,"lon":5.392136,"is_reserved":false,"is_disabled":false,"rental_uris":{"android":"levelo://app?vid=292eb626-e5dd-453c-95ea-80a2878e4db8","ios":"levelo://app?vid=292eb626-e5dd-453c-95ea-80a2878e4db8"},"vehicle_type_id":"4","last_reported":1721318952,"current_range_meters":0,"station_id":"ce4bgkh2rcd13ifvqbk0","pricing_plan_id":"cebpf4jnsgd1na2vs0mg"},{"bike_id":"1a449d44-185b-465b-a497-0b1736e8522c","system_id":"levelo_inurba_marseille","lat":43.303002,"lon":5.392142,"is_reserved":false,"is_disabled":false,"rental_uris":{"android":"levelo://app?vid=1a449d44-185b-465b-a497-0b1736e8522c","ios":"levelo://app?vid=1a449d44-185b-465b-a497-0b1736e8522c"},"vehicle_type_id":"4","last_reported":1721318952,"current_range_meters":20400,"station_id":"ce4bgkh2rcd13ifvqbk0","pricing_plan_id":"cebpf4jnsgd1na2vs0mg"},{"bike_id":"2e1ce660-7efb-496b-b8ea-f5f6ff2995bd","system_id":"levelo_inurba_marseille","lat":43.303002,"lon":5.392142,"is_reserved":false,"is_disabled":false,"rental_uris":{"android":"levelo://app?vid=2e1ce660-7efb-496b-b8ea-f5f6ff2995bd","ios":"levelo://app?vid=2e1ce660-7efb-496b-b8ea-f5f6ff2995bd"},"vehicle_type_id":"4","last_reported":1721318952,"current_range_meters":18000,"station_id":"ce4bgkh2rcd13ifvqbk0","pricing_plan_id":"cebpf4jnsgd1na2vs0mg"},{"bike_id":"3cc1fbec-3d07-4e6e-8e74-557cc830a160","system_id":"levelo_inurba_marseille","lat":43.30301,"lon":5.39214,"is_reserved":false,"is_disabled":false,"rental_uris":{"android":"levelo://app?vid=3cc1fbec-3d07-4e6e-8e74-557cc830a160","ios":"levelo://app?vid=3cc1fbec-3d07-4e6e-8e74-557cc830a160"},"vehicle_type_id":"4","last_reported":1721318952,"current_range_meters":5600,"station_id":"","pricing_plan_id":"cebpf4jnsgd1na2vs0mg"},{"bike_id":"35be563d-06da-4d7b-8d19-8db32067a76b","system_id":"levelo_inurba_marseille","lat":43.29225,"lon":5.36065,"is_reserved":false,"is_disabled":false,"rental_uris":{"android":"levelo://app?vid=35be563d-06da-4d7b-8d19-8db32067a76b","ios":"levelo://app?vid=35be563d-06da-4d7b-8d19-8db32067a76b"},"vehicle_type_id":"4","last_reported":1721318952,"current_range_meters":0,"station_id":"ce4bhbh2rcd13ifvqeqg","pricing_plan_id":"cebpf4jnsgd1na2vs0mg"},{"bike_id":"f51a59ca-6a0a-4421-857c-e2c241b20338","system_id":"levelo_inurba_marseille","lat":43.298764,"lon":5.388973,"is_reserved":false,"is_disabled":false,"rental_uris":{"android":"levelo://app?vid=f51a59ca-6a0a-4421-857c-e2c241b20338","ios":"levelo://app?vid=f51a59ca-6a0a-4421-857c-e2c241b20338"},"vehicle_type_id":"4","last_reported":1721318952,"current_range_meters":2400,"station_id":"ce4bh392rcd13ifvqdl0","pricing_plan_id":"cebpf4jnsgd1na2vs0mg"},{"bike_id":"8a61b9af-3098-41a3-aa7b-7d57f552775f","system_id":"levelo_inurba_marseille","lat":43.29886,"lon":5.38901,"is_reserved":false,"is_disabled":false,"rental_uris":{"android":"levelo://app?vid=8a61b9af-3098-41a3-aa7b-7d57f552775f","ios":"levelo://app?vid=8a61b9af-3098-41a3-aa7b-7d57f552775f"},"vehicle_type_id":"4","last_reported":1721318952,"current_range_meters":10000,"station_id":"ce4bh392rcd13ifvqdl0","pricing_plan_id":"cebpf4jnsgd1na2vs0mg"},{"bike_id":"d53d4172-85b7-48a9-b332-84384ad9bb50","system_id":"levelo_inurba_marseille","lat":43.29196,"lon":5.35999,"is_reserved":false,"is_disabled":false,"rental_uris":{"android":"levelo://app?vid=d53d4172-85b7-48a9-b332-84384ad9bb50","ios":"levelo://app?vid=d53d4172-85b7-48a9-b332-84384ad9bb50"},"vehicle_type_id":"4","last_reported":1721318952,"current_range_meters":25200,"station_id":"ce4bhbh2rcd13ifvqeqg","pricing_plan_id":"cebpf4jnsgd1na2vs0mg"},{"bike_id":"e2851aa7-1ff7-419a-b7e1-78ba0d65d85a","system_id":"levelo_inurba_marseille","lat":43.313291,"lon":5.396838,"is_reserved":false,"is_disabled":false,"rental_uris":{"android":"levelo://app?vid=e2851aa7-1ff7-419a-b7e1-78ba0d65d85a","ios":"levelo://app?vid=e2851aa7-1ff7-419a-b7e1-78ba0d65d85a"},"vehicle_type_id":"4","last_reported":1721318952,"current_range_meters":11200,"station_id":"ce4bgvp2rcd13ifvqcu0","pricing_plan_id":"cebpf4jnsgd1na2vs0mg"},{"bike_id":"e8d93517-706e-45f6-bc55-93bd6d055ffc","system_id":"levelo_inurba_marseille","lat":43.313291,"lon":5.396838,"is_reserved":false,"is_disabled":false,"rental_uris":{"android":"levelo://app?vid=e8d93517-706e-45f6-bc55-93bd6d055ffc","ios":"levelo://app?vid=e8d93517-706e-45f6-bc55-93bd6d055ffc"},"vehicle_type_id":"4","last_reported":1721318952,"current_range_meters":3600,"station_id":"ce4bgvp2rcd13ifvqcu0","pricing_plan_id":"cebpf4jnsgd1na2vs0mg"},{"bike_id":"7d1adcf2-b0f1-4713-8f79-1d596a41b213","system_id":"levelo_inurba_marseille","lat":43.309038,"lon":5.396546,"is_reserved":false,"is_disabled":false,"rental_uris":{"android":"levelo://app?vid=7d1adcf2-b0f1-4713-8f79-1d596a41b213","ios":"levelo://app?vid=7d1adcf2-b0f1-4713-8f79-1d596a41b213"},"vehicle_type_id":"4","last_reported":1721318952,"current_range_meters":27600,"station_id":"ce4bh012rcd13ifvqcv0","pricing_plan_id":"cebpf4jnsgd1na2vs0mg"},{"bike_id":"819dfe07-b654-4706-a08b-aaa604f0d348","system_id":"levelo_inurba_marseille","lat":43.29529,"lon":5.385581,"is_reserved":false,"is_disabled":false,"rental_uris":{"android":"levelo://app?vid=819dfe07-b654-4706-a08b-aaa604f0d348","ios":"levelo://app?vid=819dfe07-b654-4706-a08b-aaa604f0d348"},"vehicle_type_id":"4","last_reported":1721318952,"current_range_meters":22800,"station_id":"ce4bgih2rcd13ifvqba0","pricing_plan_id":"cebpf4jnsgd1na2vs0mg"},{"bike_id":"a7cc4874-70f2-4e34-8ffc-4c5c59ef00e3","system_id":"levelo_inurba_marseille","lat":43.290624,"lon":5.359245,"is_reserved":false,"is_disabled":false,"rental_uris":{"android":"levelo://app?vid=a7cc4874-70f2-4e34-8ffc-4c5c59ef00e3","ios":"levelo://app?vid=a7cc4874-70f2-4e34-8ffc-4c5c59ef00e3"},"vehicle_type_id":"4","last_reported":1721318952,"current_range_meters":29200,"station_id":"ce4bha92rcd13ifvqeg0","pricing_plan_id":"cebpf4jnsgd1na2vs0mg"},{"bike_id":"e4af1189-4829-408c-b125-0ebe8ba4c302","system_id":"levelo_inurba_marseille","lat":43.294162,"lon":5.386292,"is_reserved":false,"is_disabled":false,"rental_uris":{"android":"levelo://app?vid=e4af1189-4829-408c-b125-0ebe8ba4c302","ios":"levelo://app?vid=e4af1189-4829-408c-b125-0ebe8ba4c302"},"vehicle_type_id":"4","last_reported":1721318952,"current_range_meters":400,"station_id":"ce4bh2h2rcd13ifvqdh0","pricing_plan_id":"cebpf4jnsgd1na2vs0mg"},{"bike_id":"75ba2332-b563-418d-9c7a-a2e94c0ccfc4","system_id":"levelo_inurba_marseille","lat":43.290327,"lon":5.375711,"is_reserved":false,"is_disabled":false,"rental_uris":{"android":"levelo://app?vid=75ba2332-b563-418d-9c7a-a2e94c0ccfc4","ios":"levelo://app?vid=75ba2332-b563-418d-9c7a-a2e94c0ccfc4"},"vehicle_type_id":"4","last_reported":1721318952,"current_range_meters":2800,"station_id":"ce4bh692rcd13ifvqe90","pricing_plan_id":"cebpf4jnsgd1na2vs0mg"},{"bike_id":"ca1d5cb4-c0b6-49a8-b602-130ef62ce6c9","system_id":"levelo_inurba_marseille","lat":43.289184,"lon":5.366408,"is_reserved":false,"is_disabled":false,"rental_uris":{"android":"levelo://app?vid=ca1d5cb4-c0b6-49a8-b602-130ef62ce6c9","ios":"levelo://app?vid=ca1d5cb4-c0b6-49a8-b602-130ef62ce6c9"},"vehicle_type_id":"4","last_reported":1721318952,"current_range_meters":18400,"station_id":"ce4bhap2rcd13ifvqek0","pricing_plan_id":"cebpf4jnsgd1na2vs0mg"},{"bike_id":"7ee62931-adc3-49b5-b01e-9eb888fb8472","system_id":"levelo_inurba_marseille","lat":43.29414,"lon":5.38626,"is_reserved":false,"is_disabled":false,"rental_uris":{"android":"levelo://app?vid=7ee62931-adc3-49b5-b01e-9eb888fb8472","ios":"levelo://app?vid=7ee62931-adc3-49b5-b01e-9eb888fb8472"},"vehicle_type_id":"4","last_reported":1721318952,"current_range_meters":0,"station_id":"ce4bh2h2rcd13ifvqdh0","pricing_plan_id":"cebpf4jnsgd1na2vs0mg"},{"bike_id":"7781129f-74ca-42c1-9486-50fb63c4fe69","system_id":"levelo_inurba_marseille","lat":43.289184,"lon":5.366408,"is_reserved":false,"is_disabled":false,"rental_uris":{"android":"levelo://app?vid=7781129f-74ca-42c1-9486-50fb63c4fe69","ios":"levelo://app?vid=7781129f-74ca-42c1-9486-50fb63c4fe69"},"vehicle_type_id":"4","last_reported":1721318952,"current_range_meters":0,"station_id":"ce4bhap2rcd13ifvqek0","pricing_plan_id":"cebpf4jnsgd1na2vs0mg"},{"bike_id":"c229eace-afed-4d58-838c-6304f875ced1","system_id":"levelo_inurba_marseille","lat":43.289468,"lon":5.363719,"is_reserved":false,"is_disabled":false,"rental_uris":{"android":"levelo://app?vid=c229eace-afed-4d58-838c-6304f875ced1","ios":"levelo://app?vid=c229eace-afed-4d58-838c-6304f875ced1"},"vehicle_type_id":"4","last_reported":1721318952,"current_range_meters":9200,"station_id":"ce4bhc92rcd13ifvqetg","pricing_plan_id":"cebpf4jnsgd1na2vs0mg"},{"bike_id":"5c66d770-29e6-40c2-ba37-3a14e98a71ff","system_id":"levelo_inurba_marseille","lat":43.289468,"lon":5.363719,"is_reserved":false,"is_disabled":false,"rental_uris":{"android":"levelo://app?vid=5c66d770-29e6-40c2-ba37-3a14e98a71ff","ios":"levelo://app?vid=5c66d770-29e6-40c2-ba37-3a14e98a71ff"},"vehicle_type_id":"4","last_reported":1721318952,"current_range_meters":0,"station_id":"ce4bhc92rcd13ifvqetg","pricing_plan_id":"cebpf4jnsgd1na2vs0mg"},{"bike_id":"f3df83ba-b542-4bb8-9493-82752ec6b17d","system_id":"levelo_inurba_marseille","lat":43.29271,"lon":5.38439,"is_reserved":false,"is_disabled":false,"rental_uris":{"android":"levelo://app?vid=f3df83ba-b542-4bb8-9493-82752ec6b17d","ios":"levelo://app?vid=f3df83ba-b542-4bb8-9493-82752ec6b17d"},"vehicle_type_id":"4","last_reported":1721318952,"current_range_meters":16800,"station_id":"ce4bh692rcd13ifvqea0","pricing_plan_id":"cebpf4jnsgd1na2vs0mg"},{"bike_id":"5709f63a-80e0-474c-98ef-2ecc4c7a59b5","system_id":"levelo_inurba_marseille","lat":43.29266,"lon":5.38439,"is_reserved":false,"is_disabled":false,"rental_uris":{"android":"levelo://app?vid=5709f63a-80e0-474c-98ef-2ecc4c7a59b5","ios":"levelo://app?vid=5709f63a-80e0-474c-98ef-2ecc4c7a59b5"},"vehicle_type_id":"4","last_reported":1721318952,"current_range_meters":0,"station_id":"ce4bh692rcd13ifvqea0","pricing_plan_id":"cebpf4jnsgd1na2vs0mg"},{"bike_id":"26fda2a7-b761-467c-8c55-3226afe1a7d8","system_id":"levelo_inurba_marseille","lat":43.292537,"lon":5.38452,"is_reserved":false,"is_disabled":false,"rental_uris":{"android":"levelo://app?vid=26fda2a7-b761-467c-8c55-3226afe1a7d8","ios":"levelo://app?vid=26fda2a7-b761-467c-8c55-3226afe1a7d8"},"vehicle_type_id":"4","last_reported":1721318952,"current_range_meters":0,"station_id":"ce4bh692rcd13ifvqea0","pricing_plan_id":"cebpf4jnsgd1na2vs0mg"},{"bike_id":"c2f5ba14-01c2-4b4c-9a8c-07e127a45b2e","system_id":"levelo_inurba_marseille","lat":43.29008,"lon":5.35609,"is_reserved":false,"is_disabled":false,"rental_uris":{"android":"levelo://app?vid=c2f5ba14-01c2-4b4c-9a8c-07e127a45b2e","ios":"levelo://app?vid=c2f5ba14-01c2-4b4c-9a8c-07e127a45b2e"},"vehicle_type_id":"4","last_reported":1721318952,"current_range_meters":24400,"station_id":"ce4bhb92rcd13ifvqen0","pricing_plan_id":"cebpf4jnsgd1na2vs0mg"},{"bike_id":"6ec13639-2e69-49bc-af12-3aaae00212f4","system_id":"levelo_inurba_marseille","lat":43.29005,"lon":5.35612,"is_reserved":false,"is_disabled":false,"rental_uris":{"android":"levelo://app?vid=6ec13639-2e69-49bc-af12-3aaae00212f4","ios":"levelo://app?vid=6ec13639-2e69-49bc-af12-3aaae00212f4"},"vehicle_type_id":"4","last_reported":1721318952,"current_range_meters":0,"station_id":"ce4bhb92rcd13ifvqen0","pricing_plan_id":"cebpf4jnsgd1na2vs0mg"},{"bike_id":"b88ca8f6-c1f6-499d-8b81-667816c68f2c","system_id":"levelo_inurba_marseille","lat":43.290104,"lon":5.356111,"is_reserved":false,"is_disabled":false,"rental_uris":{"android":"levelo://app?vid=b88ca8f6-c1f6-499d-8b81-667816c68f2c","ios":"levelo://app?vid=b88ca8f6-c1f6-499d-8b81-667816c68f2c"},"vehicle_type_id":"4","last_reported":1721318952,"current_range_meters":14800,"station_id":"ce4bhb92rcd13ifvqen0","pricing_plan_id":"cebpf4jnsgd1na2vs0mg"},{"bike_id":"53f916fa-263e-4242-a0de-b22991a3d93c","system_id":"levelo_inurba_marseille","lat":43.290103,"lon":5.356114,"is_reserved":false,"is_disabled":false,"rental_uris":{"android":"levelo://app?vid=53f916fa-263e-4242-a0de-b22991a3d93c","ios":"levelo://app?vid=53f916fa-263e-4242-a0de-b22991a3d93c"},"vehicle_type_id":"4","last_reported":1721318952,"current_range_meters":28400,"station_id":"ce4bhb92rcd13ifvqen0","pricing_plan_id":"cebpf4jnsgd1na2vs0mg"},{"bike_id":"885d37d1-d869-4dbd-83e1-46ebfc06fac2","system_id":"levelo_inurba_marseille","lat":43.290995,"lon":5.381361,"is_reserved":false,"is_disabled":false,"rental_uris":{"android":"levelo://app?vid=885d37d1-d869-4dbd-83e1-46ebfc06fac2","ios":"levelo://app?vid=885d37d1-d869-4dbd-83e1-46ebfc06fac2"},"vehicle_type_id":"4","last_reported":1721318952,"current_range_meters":13600,"station_id":"ce4bh512rcd13ifvqe2g","pricing_plan_id":"cebpf4jnsgd1na2vs0mg"},{"bike_id":"42d850a8-8ef8-4dc9-9e2c-b888a46e4a14","system_id":"levelo_inurba_marseille","lat":43.290995,"lon":5.381361,"is_reserved":false,"is_disabled":false,"rental_uris":{"android":"levelo://app?vid=42d850a8-8ef8-4dc9-9e2c-b888a46e4a14","ios":"levelo://app?vid=42d850a8-8ef8-4dc9-9e2c-b888a46e4a14"},"vehicle_type_id":"4","last_reported":1721318952,"current_range_meters":0,"station_id":"ce4bh512rcd13ifvqe2g","pricing_plan_id":"cebpf4jnsgd1na2vs0mg"},{"bike_id":"8e510998-0e91-4472-99f9-bb5d2e611663","system_id":"levelo_inurba_marseille","lat":43.295169,"lon":5.390426,"is_reserved":false,"is_disabled":false,"rental_uris":{"android":"levelo://app?vid=8e510998-0e91-4472-99f9-bb5d2e611663","ios":"levelo://app?vid=8e510998-0e91-4472-99f9-bb5d2e611663"},"vehicle_type_id":"4","last_reported":1721318952,"current_range_meters":0,"station_id":"ce4bh3p2rcd13ifvqdp0","pricing_plan_id":"cebpf4jnsgd1na2vs0mg"},{"bike_id":"9962a812-0f08-4b26-94bd-5422627a187c","system_id":"levelo_inurba_marseille","lat":43.330442,"lon":5.389148,"is_reserved":false,"is_disabled":false,"rental_uris":{"android":"levelo://app?vid=9962a812-0f08-4b26-94bd-5422627a187c","ios":"levelo://app?vid=9962a812-0f08-4b26-94bd-5422627a187c"},"vehicle_type_id":"4","last_reported":1721318952,"current_range_meters":400,"station_id":"ce4bhr92rcd13ifvqhrg","pricing_plan_id":"cebpf4jnsgd1na2vs0mg"},{"bike_id":"d79d67a1-5ba7-43a1-af3b-5c5a1c6d42a0","system_id":"levelo_inurba_marseille","lat":43.330442,"lon":5.389148,"is_reserved":false,"is_disabled":false,"rental_uris":{"android":"levelo://app?vid=d79d67a1-5ba7-43a1-af3b-5c5a1c6d42a0","ios":"levelo://app?vid=d79d67a1-5ba7-43a1-af3b-5c5a1c6d42a0"},"vehicle_type_id":"4","last_reported":1721318952,"current_range_meters":31200,"station_id":"ce4bhr92rcd13ifvqhrg","pricing_plan_id":"cebpf4jnsgd1na2vs0mg"},{"bike_id":"1a1e49db-4fb8-4aa5-872c-9523ffd79d65","system_id":"levelo_inurba_marseille","lat":43.330442,"lon":5.389148,"is_reserved":false,"is_disabled":false,"rental_uris":{"android":"levelo://app?vid=1a1e49db-4fb8-4aa5-872c-9523ffd79d65","ios":"levelo://app?vid=1a1e49db-4fb8-4aa5-872c-9523ffd79d65"},"vehicle_type_id":"4","last_reported":1721318952,"current_range_meters":17600,"station_id":"ce4bhr92rcd13ifvqhrg","pricing_plan_id":"cebpf4jnsgd1na2vs0mg"},{"bike_id":"2f2dd33d-1de6-46ae-bc90-5a5ad622b6ae","system_id":"levelo_inurba_marseille","lat":43.330442,"lon":5.389148,"is_reserved":false,"is_disabled":false,"rental_uris":{"android":"levelo://app?vid=2f2dd33d-1de6-46ae-bc90-5a5ad622b6ae","ios":"levelo://app?vid=2f2dd33d-1de6-46ae-bc90-5a5ad622b6ae"},"vehicle_type_id":"4","last_reported":1721318952,"current_range_meters":5200,"station_id":"ce4bhr92rcd13ifvqhrg","pricing_plan_id":"cebpf4jnsgd1na2vs0mg"},{"bike_id":"25e3f1c0-4992-4380-b070-a5c25ba7c9ca","system_id":"levelo_inurba_marseille","lat":43.330442,"lon":5.389148,"is_reserved":false,"is_disabled":false,"rental_uris":{"android":"levelo://app?vid=25e3f1c0-4992-4380-b070-a5c25ba7c9ca","ios":"levelo://app?vid=25e3f1c0-4992-4380-b070-a5c25ba7c9ca"},"vehicle_type_id":"4","last_reported":1721318952,"current_range_meters":8400,"station_id":"ce4bhr92rcd13ifvqhrg","pricing_plan_id":"cebpf4jnsgd1na2vs0mg"},{"bike_id":"fcfb50b9-dd9f-45a5-9741-c9c65f489866","system_id":"levelo_inurba_marseille","lat":43.295169,"lon":5.390426,"is_reserved":false,"is_disabled":false,"rental_uris":{"android":"levelo://app?vid=fcfb50b9-dd9f-45a5-9741-c9c65f489866","ios":"levelo://app?vid=fcfb50b9-dd9f-45a5-9741-c9c65f489866"},"vehicle_type_id":"4","last_reported":1721318952,"current_range_meters":0,"station_id":"ce4bh3p2rcd13ifvqdp0","pricing_plan_id":"cebpf4jnsgd1na2vs0mg"},{"bike_id":"d619085c-0d12-4884-bd96-816cb1e6e42f","system_id":"levelo_inurba_marseille","lat":43.295169,"lon":5.390426,"is_reserved":false,"is_disabled":false,"rental_uris":{"android":"levelo://app?vid=d619085c-0d12-4884-bd96-816cb1e6e42f","ios":"levelo://app?vid=d619085c-0d12-4884-bd96-816cb1e6e42f"},"vehicle_type_id":"4","last_reported":1721318952,"current_range_meters":15600,"station_id":"ce4bh3p2rcd13ifvqdp0","pricing_plan_id":"cebpf4jnsgd1na2vs0mg"},{"bike_id":"8894b11d-8549-4402-95b2-b8fd7d12018c","system_id":"levelo_inurba_marseille","lat":43.2902,"lon":5.38144,"is_reserved":false,"is_disabled":false,"rental_uris":{"android":"levelo://app?vid=8894b11d-8549-4402-95b2-b8fd7d12018c","ios":"levelo://app?vid=8894b11d-8549-4402-95b2-b8fd7d12018c"},"vehicle_type_id":"4","last_reported":1721318952,"current_range_meters":0,"station_id":"ce4bh4p2rcd13ifvqe1g","pricing_plan_id":"cebpf4jnsgd1na2vs0mg"},{"bike_id":"2fcc2955-a94b-4ada-999b-7b3a0b03968e","system_id":"levelo_inurba_marseille","lat":43.28856,"lon":5.358371,"is_reserved":false,"is_disabled":false,"rental_uris":{"android":"levelo://app?vid=2fcc2955-a94b-4ada-999b-7b3a0b03968e","ios":"levelo://app?vid=2fcc2955-a94b-4ada-999b-7b3a0b03968e"},"vehicle_type_id":"4","last_reported":1721318952,"current_range_meters":20000,"station_id":"ce4bhb12rcd13ifvqem0","pricing_plan_id":"cebpf4jnsgd1na2vs0mg"},{"bike_id":"f49ead70-d4be-42c6-baa4-d0e12c9ab8e4","system_id":"levelo_inurba_marseille","lat":43.30936,"lon":5.40144,"is_reserved":false,"is_disabled":false,"rental_uris":{"android":"levelo://app?vid=f49ead70-d4be-42c6-baa4-d0e12c9ab8e4","ios":"levelo://app?vid=f49ead70-d4be-42c6-baa4-d0e12c9ab8e4"},"vehicle_type_id":"4","last_reported":1721318952,"current_range_meters":0,"station_id":"ce4bgvp2rcd13ifvqct0","pricing_plan_id":"cebpf4jnsgd1na2vs0mg"},{"bike_id":"fc1985b8-5314-41fe-8e24-abd61fd01251","system_id":"levelo_inurba_marseille","lat":43.337466,"lon":5.374604,"is_reserved":false,"is_disabled":false,"rental_uris":{"android":"levelo://app?vid=fc1985b8-5314-41fe-8e24-abd61fd01251","ios":"levelo://app?vid=fc1985b8-5314-41fe-8e24-abd61fd01251"},"vehicle_type_id":"4","last_reported":1721318952,"current_range_meters":28000,"station_id":"","pricing_plan_id":"cebpf4jnsgd1na2vs0mg"},{"bike_id":"241d666c-dfd7-4426-8dfc-fba405eb68f7","system_id":"levelo_inurba_marseille","lat":43.33752,"lon":5.37444,"is_reserved":false,"is_disabled":false,"rental_uris":{"android":"levelo://app?vid=241d666c-dfd7-4426-8dfc-fba405eb68f7","ios":"levelo://app?vid=241d666c-dfd7-4426-8dfc-fba405eb68f7"},"vehicle_type_id":"4","last_reported":1721318952,"current_range_meters":30800,"station_id":"","pricing_plan_id":"cebpf4jnsgd1na2vs0mg"},{"bike_id":"10596a36-7342-43d6-bc7f-04036d8a160b","system_id":"levelo_inurba_marseille","lat":43.33755,"lon":5.37452,"is_reserved":false,"is_disabled":false,"rental_uris":{"android":"levelo://app?vid=10596a36-7342-43d6-bc7f-04036d8a160b","ios":"levelo://app?vid=10596a36-7342-43d6-bc7f-04036d8a160b"},"vehicle_type_id":"4","last_reported":1721318952,"current_range_meters":10800,"station_id":"","pricing_plan_id":"cebpf4jnsgd1na2vs0mg"},{"bike_id":"8cbba9d7-8f80-4a33-a97d-d5654d8e6dee","system_id":"levelo_inurba_marseille","lat":43.33756,"lon":5.37449,"is_reserved":false,"is_disabled":false,"rental_uris":{"android":"levelo://app?vid=8cbba9d7-8f80-4a33-a97d-d5654d8e6dee","ios":"levelo://app?vid=8cbba9d7-8f80-4a33-a97d-d5654d8e6dee"},"vehicle_type_id":"4","last_reported":1721318952,"current_range_meters":6800,"station_id":"","pricing_plan_id":"cebpf4jnsgd1na2vs0mg"},{"bike_id":"3b3dae0a-66bb-4a95-9083-9afce2248bf6","system_id":"levelo_inurba_marseille","lat":43.337557,"lon":5.374567,"is_reserved":false,"is_disabled":false,"rental_uris":{"android":"levelo://app?vid=3b3dae0a-66bb-4a95-9083-9afce2248bf6","ios":"levelo://app?vid=3b3dae0a-66bb-4a95-9083-9afce2248bf6"},"vehicle_type_id":"4","last_reported":1721318952,"current_range_meters":29600,"station_id":"","pricing_plan_id":"cebpf4jnsgd1na2vs0mg"},{"bike_id":"ac377a63-6a02-42fa-8a70-d5bb9b7546c9","system_id":"levelo_inurba_marseille","lat":43.337628,"lon":5.37436,"is_reserved":false,"is_disabled":false,"rental_uris":{"android":"levelo://app?vid=ac377a63-6a02-42fa-8a70-d5bb9b7546c9","ios":"levelo://app?vid=ac377a63-6a02-42fa-8a70-d5bb9b7546c9"},"vehicle_type_id":"4","last_reported":1721318952,"current_range_meters":29200,"station_id":"","pricing_plan_id":"cebpf4jnsgd1na2vs0mg"},{"bike_id":"0332d023-1a84-46bb-9d50-5cfeaed1610e","system_id":"levelo_inurba_marseille","lat":43.33765,"lon":5.374756,"is_reserved":false,"is_disabled":false,"rental_uris":{"android":"levelo://app?vid=0332d023-1a84-46bb-9d50-5cfeaed1610e","ios":"levelo://app?vid=0332d023-1a84-46bb-9d50-5cfeaed1610e"},"vehicle_type_id":"4","last_reported":1721318952,"current_range_meters":4400,"station_id":"","pricing_plan_id":"cebpf4jnsgd1na2vs0mg"},{"bike_id":"14f20a29-f48c-457d-9f11-0899f4206813","system_id":"levelo_inurba_marseille","lat":43.30642,"lon":5.401031,"is_reserved":false,"is_disabled":false,"rental_uris":{"android":"levelo://app?vid=14f20a29-f48c-457d-9f11-0899f4206813","ios":"levelo://app?vid=14f20a29-f48c-457d-9f11-0899f4206813"},"vehicle_type_id":"4","last_reported":1721318952,"current_range_meters":0,"station_id":"ce4bh112rcd13ifvqda0","pricing_plan_id":"cebpf4jnsgd1na2vs0mg"},{"bike_id":"b5f84fb0-09bb-4914-b36d-004ae4988198","system_id":"levelo_inurba_marseille","lat":43.33769,"lon":5.374615,"is_reserved":false,"is_disabled":false,"rental_uris":{"android":"levelo://app?vid=b5f84fb0-09bb-4914-b36d-004ae4988198","ios":"levelo://app?vid=b5f84fb0-09bb-4914-b36d-004ae4988198"},"vehicle_type_id":"4","last_reported":1721318952,"current_range_meters":3600,"station_id":"","pricing_plan_id":"cebpf4jnsgd1na2vs0mg"},{"bike_id":"f55e91aa-ebf4-458b-a117-e13233208d1a","system_id":"levelo_inurba_marseille","lat":43.33041,"lon":5.39233,"is_reserved":false,"is_disabled":false,"rental_uris":{"android":"levelo://app?vid=f55e91aa-ebf4-458b-a117-e13233208d1a","ios":"levelo://app?vid=f55e91aa-ebf4-458b-a117-e13233208d1a"},"vehicle_type_id":"4","last_reported":1721318952,"current_range_meters":6800,"station_id":"","pricing_plan_id":"cebpf4jnsgd1na2vs0mg"},{"bike_id":"8e660b4d-a4d0-4f38-8d92-3f61b3288742","system_id":"levelo_inurba_marseille","lat":43.301117,"lon":5.398795,"is_reserved":false,"is_disabled":false,"rental_uris":{"android":"levelo://app?vid=8e660b4d-a4d0-4f38-8d92-3f61b3288742","ios":"levelo://app?vid=8e660b4d-a4d0-4f38-8d92-3f61b3288742"},"vehicle_type_id":"4","last_reported":1721318952,"current_range_meters":0,"station_id":"ce4bh0h2rcd13ifvqd40","pricing_plan_id":"cebpf4jnsgd1na2vs0mg"},{"bike_id":"9bd43f1b-5806-47dc-a136-39f41fd51542","system_id":"levelo_inurba_marseille","lat":43.30136,"lon":5.39864,"is_reserved":false,"is_disabled":false,"rental_uris":{"android":"levelo://app?vid=9bd43f1b-5806-47dc-a136-39f41fd51542","ios":"levelo://app?vid=9bd43f1b-5806-47dc-a136-39f41fd51542"},"vehicle_type_id":"4","last_reported":1721318952,"current_range_meters":19600,"station_id":"ce4bh0h2rcd13ifvqd40","pricing_plan_id":"cebpf4jnsgd1na2vs0mg"},{"bike_id":"d5e699af-1258-4c32-94d2-faac3f8f7c64","system_id":"levelo_inurba_marseille","lat":43.301117,"lon":5.398795,"is_reserved":false,"is_disabled":false,"rental_uris":{"android":"levelo://app?vid=d5e699af-1258-4c32-94d2-faac3f8f7c64","ios":"levelo://app?vid=d5e699af-1258-4c32-94d2-faac3f8f7c64"},"vehicle_type_id":"4","last_reported":1721318952,"current_range_meters":15200,"station_id":"ce4bh0h2rcd13ifvqd40","pricing_plan_id":"cebpf4jnsgd1na2vs0mg"},{"bike_id":"d9d6ef28-f9a0-426d-adfa-f955055f7169","system_id":"levelo_inurba_marseille","lat":43.28727,"lon":5.36078,"is_reserved":false,"is_disabled":false,"rental_uris":{"android":"levelo://app?vid=d9d6ef28-f9a0-426d-adfa-f955055f7169","ios":"levelo://app?vid=d9d6ef28-f9a0-426d-adfa-f955055f7169"},"vehicle_type_id":"4","last_reported":1721318952,"current_range_meters":14800,"station_id":"cki0cbj6b192h4jlfktg","pricing_plan_id":"cebpf4jnsgd1na2vs0mg"},{"bike_id":"7f7af24e-b3b5-4e79-a974-f663ed8f2b56","system_id":"levelo_inurba_marseille","lat":43.28727,"lon":5.36078,"is_reserved":false,"is_disabled":false,"rental_uris":{"android":"levelo://app?vid=7f7af24e-b3b5-4e79-a974-f663ed8f2b56","ios":"levelo://app?vid=7f7af24e-b3b5-4e79-a974-f663ed8f2b56"},"vehicle_type_id":"4","last_reported":1721318952,"current_range_meters":5600,"station_id":"cki0cbj6b192h4jlfktg","pricing_plan_id":"cebpf4jnsgd1na2vs0mg"},{"bike_id":"00e75105-d418-477d-98e3-6c463cd38266","system_id":"levelo_inurba_marseille","lat":43.28727,"lon":5.36078,"is_reserved":false,"is_disabled":false,"rental_uris":{"android":"levelo://app?vid=00e75105-d418-477d-98e3-6c463cd38266","ios":"levelo://app?vid=00e75105-d418-477d-98e3-6c463cd38266"},"vehicle_type_id":"4","last_reported":1721318952,"current_range_meters":23200,"station_id":"cki0cbj6b192h4jlfktg","pricing_plan_id":"cebpf4jnsgd1na2vs0mg"},{"bike_id":"e8d96bef-eece-4fa8-9d06-d2f6475b2b75","system_id":"levelo_inurba_marseille","lat":43.298681,"lon":5.397225,"is_reserved":false,"is_disabled":false,"rental_uris":{"android":"levelo://app?vid=e8d96bef-eece-4fa8-9d06-d2f6475b2b75","ios":"levelo://app?vid=e8d96bef-eece-4fa8-9d06-d2f6475b2b75"},"vehicle_type_id":"4","last_reported":1721318952,"current_range_meters":4000,"station_id":"ce4bh0h2rcd13ifvqd50","pricing_plan_id":"cebpf4jnsgd1na2vs0mg"},{"bike_id":"d2c67605-341c-4a87-b631-adb0a1385817","system_id":"levelo_inurba_marseille","lat":43.28668,"lon":5.36347,"is_reserved":false,"is_disabled":false,"rental_uris":{"android":"levelo://app?vid=d2c67605-341c-4a87-b631-adb0a1385817","ios":"levelo://app?vid=d2c67605-341c-4a87-b631-adb0a1385817"},"vehicle_type_id":"4","last_reported":1721318952,"current_range_meters":0,"station_id":"ce4bhah2rcd13ifvqej0","pricing_plan_id":"cebpf4jnsgd1na2vs0mg"},{"bike_id":"e001d297-d006-4dfd-8dfd-0e9f794bdf24","system_id":"levelo_inurba_marseille","lat":43.298681,"lon":5.397225,"is_reserved":false,"is_disabled":false,"rental_uris":{"android":"levelo://app?vid=e001d297-d006-4dfd-8dfd-0e9f794bdf24","ios":"levelo://app?vid=e001d297-d006-4dfd-8dfd-0e9f794bdf24"},"vehicle_type_id":"4","last_reported":1721318952,"current_range_meters":11600,"station_id":"ce4bh0h2rcd13ifvqd50","pricing_plan_id":"cebpf4jnsgd1na2vs0mg"},{"bike_id":"9b983dcd-8af5-4024-85b0-c569b9380d33","system_id":"levelo_inurba_marseille","lat":43.298681,"lon":5.397225,"is_reserved":false,"is_disabled":false,"rental_uris":{"android":"levelo://app?vid=9b983dcd-8af5-4024-85b0-c569b9380d33","ios":"levelo://app?vid=9b983dcd-8af5-4024-85b0-c569b9380d33"},"vehicle_type_id":"4","last_reported":1721318952,"current_range_meters":11600,"station_id":"ce4bh0h2rcd13ifvqd50","pricing_plan_id":"cebpf4jnsgd1na2vs0mg"},{"bike_id":"7c180671-76b4-44f0-97df-54f779601478","system_id":"levelo_inurba_marseille","lat":43.286591,"lon":5.363346,"is_reserved":false,"is_disabled":false,"rental_uris":{"android":"levelo://app?vid=7c180671-76b4-44f0-97df-54f779601478","ios":"levelo://app?vid=7c180671-76b4-44f0-97df-54f779601478"},"vehicle_type_id":"4","last_reported":1721318952,"current_range_meters":12000,"station_id":"ce4bhah2rcd13ifvqej0","pricing_plan_id":"cebpf4jnsgd1na2vs0mg"},{"bike_id":"42bcba3a-54b4-4251-8a83-e015d8e231fd","system_id":"levelo_inurba_marseille","lat":43.28658,"lon":5.36343,"is_reserved":false,"is_disabled":false,"rental_uris":{"android":"levelo://app?vid=42bcba3a-54b4-4251-8a83-e015d8e231fd","ios":"levelo://app?vid=42bcba3a-54b4-4251-8a83-e015d8e231fd"},"vehicle_type_id":"4","last_reported":1721318952,"current_range_meters":0,"station_id":"ce4bhah2rcd13ifvqej0","pricing_plan_id":"cebpf4jnsgd1na2vs0mg"},{"bike_id":"252220fd-9a84-4d9d-8ae5-e2ee5558bb76","system_id":"levelo_inurba_marseille","lat":43.302255,"lon":5.400413,"is_reserved":false,"is_disabled":false,"rental_uris":{"android":"levelo://app?vid=252220fd-9a84-4d9d-8ae5-e2ee5558bb76","ios":"levelo://app?vid=252220fd-9a84-4d9d-8ae5-e2ee5558bb76"},"vehicle_type_id":"4","last_reported":1721318952,"current_range_meters":0,"station_id":"ce4bgvh2rcd13ifvqcs0","pricing_plan_id":"cebpf4jnsgd1na2vs0mg"},{"bike_id":"3e3bcf15-b0b7-437e-9d13-2d008b9ed72b","system_id":"levelo_inurba_marseille","lat":43.29028,"lon":5.3865,"is_reserved":false,"is_disabled":false,"rental_uris":{"android":"levelo://app?vid=3e3bcf15-b0b7-437e-9d13-2d008b9ed72b","ios":"levelo://app?vid=3e3bcf15-b0b7-437e-9d13-2d008b9ed72b"},"vehicle_type_id":"4","last_reported":1721318952,"current_range_meters":0,"station_id":"ce4bh4p2rcd13ifvqe0g","pricing_plan_id":"cebpf4jnsgd1na2vs0mg"},{"bike_id":"35e51dbf-355a-4e66-9be6-eb7e48ea6a2e","system_id":"levelo_inurba_marseille","lat":43.29019,"lon":5.38644,"is_reserved":false,"is_disabled":false,"rental_uris":{"android":"levelo://app?vid=35e51dbf-355a-4e66-9be6-eb7e48ea6a2e","ios":"levelo://app?vid=35e51dbf-355a-4e66-9be6-eb7e48ea6a2e"},"vehicle_type_id":"4","last_reported":1721318952,"current_range_meters":4400,"station_id":"ce4bh4p2rcd13ifvqe0g","pricing_plan_id":"cebpf4jnsgd1na2vs0mg"},{"bike_id":"43ac093d-ac6c-4550-888c-ced91b98c063","system_id":"levelo_inurba_marseille","lat":43.286039,"lon":5.370679,"is_reserved":false,"is_disabled":false,"rental_uris":{"android":"levelo://app?vid=43ac093d-ac6c-4550-888c-ced91b98c063","ios":"levelo://app?vid=43ac093d-ac6c-4550-888c-ced91b98c063"},"vehicle_type_id":"4","last_reported":1721318952,"current_range_meters":6000,"station_id":"ce4bht12rcd13ifvqi60","pricing_plan_id":"cebpf4jnsgd1na2vs0mg"},{"bike_id":"d5bcbab6-f5b0-47e5-8047-dfd2e87d8d3b","system_id":"levelo_inurba_marseille","lat":43.286039,"lon":5.370679,"is_reserved":false,"is_disabled":false,"rental_uris":{"android":"levelo://app?vid=d5bcbab6-f5b0-47e5-8047-dfd2e87d8d3b","ios":"levelo://app?vid=d5bcbab6-f5b0-47e5-8047-dfd2e87d8d3b"},"vehicle_type_id":"4","last_reported":1721318952,"current_range_meters":16400,"station_id":"ce4bht12rcd13ifvqi60","pricing_plan_id":"cebpf4jnsgd1na2vs0mg"},{"bike_id":"75457490-6f4e-42e9-a9b7-940b8770b3ba","system_id":"levelo_inurba_marseille","lat":43.286039,"lon":5.370681,"is_reserved":false,"is_disabled":false,"rental_uris":{"android":"levelo://app?vid=75457490-6f4e-42e9-a9b7-940b8770b3ba","ios":"levelo://app?vid=75457490-6f4e-42e9-a9b7-940b8770b3ba"},"vehicle_type_id":"4","last_reported":1721318952,"current_range_meters":2400,"station_id":"ce4bht12rcd13ifvqi60","pricing_plan_id":"cebpf4jnsgd1na2vs0mg"},{"bike_id":"2453c674-07ef-4e11-ba85-63d88ee976c4","system_id":"levelo_inurba_marseille","lat":43.286039,"lon":5.370679,"is_reserved":false,"is_disabled":false,"rental_uris":{"android":"levelo://app?vid=2453c674-07ef-4e11-ba85-63d88ee976c4","ios":"levelo://app?vid=2453c674-07ef-4e11-ba85-63d88ee976c4"},"vehicle_type_id":"4","last_reported":1721318952,"current_range_meters":14800,"station_id":"ce4bht12rcd13ifvqi60","pricing_plan_id":"cebpf4jnsgd1na2vs0mg"},{"bike_id":"81b4ce8a-1476-41ac-b139-25cb09932af6","system_id":"levelo_inurba_marseille","lat":43.28821,"lon":5.38255,"is_reserved":false,"is_disabled":false,"rental_uris":{"android":"levelo://app?vid=81b4ce8a-1476-41ac-b139-25cb09932af6","ios":"levelo://app?vid=81b4ce8a-1476-41ac-b139-25cb09932af6"},"vehicle_type_id":"4","last_reported":1721318952,"current_range_meters":16000,"station_id":"","pricing_plan_id":"cebpf4jnsgd1na2vs0mg"},{"bike_id":"2bb3a5e9-c217-4c9d-8637-098a19a86bdd","system_id":"levelo_inurba_marseille","lat":43.29198,"lon":5.393167,"is_reserved":false,"is_disabled":false,"rental_uris":{"android":"levelo://app?vid=2bb3a5e9-c217-4c9d-8637-098a19a86bdd","ios":"levelo://app?vid=2bb3a5e9-c217-4c9d-8637-098a19a86bdd"},"vehicle_type_id":"4","last_reported":1721318952,"current_range_meters":0,"station_id":"ce4bh192rcd13ifvqdd0","pricing_plan_id":"cebpf4jnsgd1na2vs0mg"},{"bike_id":"6a3bb692-1b5e-437b-a6b5-3f38b98d2686","system_id":"levelo_inurba_marseille","lat":43.28495,"lon":5.37456,"is_reserved":false,"is_disabled":false,"rental_uris":{"android":"levelo://app?vid=6a3bb692-1b5e-437b-a6b5-3f38b98d2686","ios":"levelo://app?vid=6a3bb692-1b5e-437b-a6b5-3f38b98d2686"},"vehicle_type_id":"4","last_reported":1721318952,"current_range_meters":0,"station_id":"","pricing_plan_id":"cebpf4jnsgd1na2vs0mg"},{"bike_id":"8d73cdd0-d625-43aa-b48c-07273933e40c","system_id":"levelo_inurba_marseille","lat":43.284538,"lon":5.358657,"is_reserved":false,"is_disabled":false,"rental_uris":{"android":"levelo://app?vid=8d73cdd0-d625-43aa-b48c-07273933e40c","ios":"levelo://app?vid=8d73cdd0-d625-43aa-b48c-07273933e40c"},"vehicle_type_id":"4","last_reported":1721318952,"current_range_meters":4800,"station_id":"ce4bhah2rcd13ifvqei0","pricing_plan_id":"cebpf4jnsgd1na2vs0mg"},{"bike_id":"3bf0acb4-6c4b-4f00-a016-c8d0124e3437","system_id":"levelo_inurba_marseille","lat":43.284534,"lon":5.358662,"is_reserved":false,"is_disabled":false,"rental_uris":{"android":"levelo://app?vid=3bf0acb4-6c4b-4f00-a016-c8d0124e3437","ios":"levelo://app?vid=3bf0acb4-6c4b-4f00-a016-c8d0124e3437"},"vehicle_type_id":"4","last_reported":1721318952,"current_range_meters":21600,"station_id":"ce4bhah2rcd13ifvqei0","pricing_plan_id":"cebpf4jnsgd1na2vs0mg"},{"bike_id":"e49b9bf8-2bdc-42ac-b11b-126c4b0c033c","system_id":"levelo_inurba_marseille","lat":43.284534,"lon":5.358662,"is_reserved":false,"is_disabled":false,"rental_uris":{"android":"levelo://app?vid=e49b9bf8-2bdc-42ac-b11b-126c4b0c033c","ios":"levelo://app?vid=e49b9bf8-2bdc-42ac-b11b-126c4b0c033c"},"vehicle_type_id":"4","last_reported":1721318952,"current_range_meters":22400,"station_id":"ce4bhah2rcd13ifvqei0","pricing_plan_id":"cebpf4jnsgd1na2vs0mg"},{"bike_id":"e192cd56-dbfc-422a-82f7-8fb7ef6ddd0e","system_id":"levelo_inurba_marseille","lat":43.28455,"lon":5.35893,"is_reserved":false,"is_disabled":false,"rental_uris":{"android":"levelo://app?vid=e192cd56-dbfc-422a-82f7-8fb7ef6ddd0e","ios":"levelo://app?vid=e192cd56-dbfc-422a-82f7-8fb7ef6ddd0e"},"vehicle_type_id":"4","last_reported":1721318952,"current_range_meters":0,"station_id":"ce4bhah2rcd13ifvqei0","pricing_plan_id":"cebpf4jnsgd1na2vs0mg"},{"bike_id":"b5ddad76-d231-4a45-b399-57dbd223881c","system_id":"levelo_inurba_marseille","lat":43.284534,"lon":5.358662,"is_reserved":false,"is_disabled":false,"rental_uris":{"android":"levelo://app?vid=b5ddad76-d231-4a45-b399-57dbd223881c","ios":"levelo://app?vid=b5ddad76-d231-4a45-b399-57dbd223881c"},"vehicle_type_id":"4","last_reported":1721318952,"current_range_meters":1600,"station_id":"ce4bhah2rcd13ifvqei0","pricing_plan_id":"cebpf4jnsgd1na2vs0mg"},{"bike_id":"a478f871-d6c3-461d-abd5-865dc7103460","system_id":"levelo_inurba_marseille","lat":43.28622,"lon":5.35112,"is_reserved":false,"is_disabled":false,"rental_uris":{"android":"levelo://app?vid=a478f871-d6c3-461d-abd5-865dc7103460","ios":"levelo://app?vid=a478f871-d6c3-461d-abd5-865dc7103460"},"vehicle_type_id":"4","last_reported":1721318952,"current_range_meters":31200,"station_id":"ce4bhch2rcd13ifvqeug","pricing_plan_id":"cebpf4jnsgd1na2vs0mg"},{"bike_id":"0def47cd-f445-4c28-9217-845210829efe","system_id":"levelo_inurba_marseille","lat":43.28619,"lon":5.35113,"is_reserved":false,"is_disabled":false,"rental_uris":{"android":"levelo://app?vid=0def47cd-f445-4c28-9217-845210829efe","ios":"levelo://app?vid=0def47cd-f445-4c28-9217-845210829efe"},"vehicle_type_id":"4","last_reported":1721318952,"current_range_meters":10400,"station_id":"ce4bhch2rcd13ifvqeug","pricing_plan_id":"cebpf4jnsgd1na2vs0mg"},{"bike_id":"dd493ff4-484d-4994-8369-59a814a5ab99","system_id":"levelo_inurba_marseille","lat":43.28618,"lon":5.35108,"is_reserved":false,"is_disabled":false,"rental_uris":{"android":"levelo://app?vid=dd493ff4-484d-4994-8369-59a814a5ab99","ios":"levelo://app?vid=dd493ff4-484d-4994-8369-59a814a5ab99"},"vehicle_type_id":"4","last_reported":1721318952,"current_range_meters":1600,"station_id":"ce4bhch2rcd13ifvqeug","pricing_plan_id":"cebpf4jnsgd1na2vs0mg"},{"bike_id":"b1922a13-bb1b-459d-b952-088d3074d058","system_id":"levelo_inurba_marseille","lat":43.285856,"lon":5.350771,"is_reserved":false,"is_disabled":false,"rental_uris":{"android":"levelo://app?vid=b1922a13-bb1b-459d-b952-088d3074d058","ios":"levelo://app?vid=b1922a13-bb1b-459d-b952-088d3074d058"},"vehicle_type_id":"4","last_reported":1721318952,"current_range_meters":20400,"station_id":"ce4bhch2rcd13ifvqeug","pricing_plan_id":"cebpf4jnsgd1na2vs0mg"},{"bike_id":"31ac1f36-8bf4-40e4-bc2b-4856c880d327","system_id":"levelo_inurba_marseille","lat":43.28619,"lon":5.35104,"is_reserved":false,"is_disabled":false,"rental_uris":{"android":"levelo://app?vid=31ac1f36-8bf4-40e4-bc2b-4856c880d327","ios":"levelo://app?vid=31ac1f36-8bf4-40e4-bc2b-4856c880d327"},"vehicle_type_id":"4","last_reported":1721318952,"current_range_meters":14800,"station_id":"ce4bhch2rcd13ifvqeug","pricing_plan_id":"cebpf4jnsgd1na2vs0mg"},{"bike_id":"1f51a966-dd6c-4a25-941a-a061ac626e23","system_id":"levelo_inurba_marseille","lat":43.28619,"lon":5.35104,"is_reserved":false,"is_disabled":false,"rental_uris":{"android":"levelo://app?vid=1f51a966-dd6c-4a25-941a-a061ac626e23","ios":"levelo://app?vid=1f51a966-dd6c-4a25-941a-a061ac626e23"},"vehicle_type_id":"4","last_reported":1721318952,"current_range_meters":14800,"station_id":"ce4bhch2rcd13ifvqeug","pricing_plan_id":"cebpf4jnsgd1na2vs0mg"},{"bike_id":"c339d891-cfa5-4df2-8c05-f297c92ceac5","system_id":"levelo_inurba_marseille","lat":43.28617,"lon":5.3511,"is_reserved":false,"is_disabled":false,"rental_uris":{"android":"levelo://app?vid=c339d891-cfa5-4df2-8c05-f297c92ceac5","ios":"levelo://app?vid=c339d891-cfa5-4df2-8c05-f297c92ceac5"},"vehicle_type_id":"4","last_reported":1721318952,"current_range_meters":0,"station_id":"ce4bhch2rcd13ifvqeug","pricing_plan_id":"cebpf4jnsgd1na2vs0mg"},{"bike_id":"35de9dc5-5a99-443e-a3fb-f85c82674dde","system_id":"levelo_inurba_marseille","lat":43.28615,"lon":5.35114,"is_reserved":false,"is_disabled":false,"rental_uris":{"android":"levelo://app?vid=35de9dc5-5a99-443e-a3fb-f85c82674dde","ios":"levelo://app?vid=35de9dc5-5a99-443e-a3fb-f85c82674dde"},"vehicle_type_id":"4","last_reported":1721318952,"current_range_meters":16000,"station_id":"ce4bhch2rcd13ifvqeug","pricing_plan_id":"cebpf4jnsgd1na2vs0mg"},{"bike_id":"821d2922-9d08-4d00-8a09-2748101005d9","system_id":"levelo_inurba_marseille","lat":43.2862,"lon":5.35098,"is_reserved":false,"is_disabled":false,"rental_uris":{"android":"levelo://app?vid=821d2922-9d08-4d00-8a09-2748101005d9","ios":"levelo://app?vid=821d2922-9d08-4d00-8a09-2748101005d9"},"vehicle_type_id":"4","last_reported":1721318952,"current_range_meters":30400,"station_id":"ce4bhch2rcd13ifvqeug","pricing_plan_id":"cebpf4jnsgd1na2vs0mg"},{"bike_id":"31adee5a-ff43-4706-b9b5-6ec2db9ecc9f","system_id":"levelo_inurba_marseille","lat":43.28617,"lon":5.35107,"is_reserved":false,"is_disabled":false,"rental_uris":{"android":"levelo://app?vid=31adee5a-ff43-4706-b9b5-6ec2db9ecc9f","ios":"levelo://app?vid=31adee5a-ff43-4706-b9b5-6ec2db9ecc9f"},"vehicle_type_id":"4","last_reported":1721318952,"current_range_meters":23200,"station_id":"ce4bhch2rcd13ifvqeug","pricing_plan_id":"cebpf4jnsgd1na2vs0mg"},{"bike_id":"26dd1c49-1444-4881-aa72-a074489c4ac9","system_id":"levelo_inurba_marseille","lat":43.28616,"lon":5.3511,"is_reserved":false,"is_disabled":false,"rental_uris":{"android":"levelo://app?vid=26dd1c49-1444-4881-aa72-a074489c4ac9","ios":"levelo://app?vid=26dd1c49-1444-4881-aa72-a074489c4ac9"},"vehicle_type_id":"4","last_reported":1721318952,"current_range_meters":3200,"station_id":"ce4bhch2rcd13ifvqeug","pricing_plan_id":"cebpf4jnsgd1na2vs0mg"},{"bike_id":"b32b3249-74a6-41de-9e4a-9300fdb0e7ac","system_id":"levelo_inurba_marseille","lat":43.28617,"lon":5.35106,"is_reserved":false,"is_disabled":false,"rental_uris":{"android":"levelo://app?vid=b32b3249-74a6-41de-9e4a-9300fdb0e7ac","ios":"levelo://app?vid=b32b3249-74a6-41de-9e4a-9300fdb0e7ac"},"vehicle_type_id":"4","last_reported":1721318952,"current_range_meters":14800,"station_id":"ce4bhch2rcd13ifvqeug","pricing_plan_id":"cebpf4jnsgd1na2vs0mg"},{"bike_id":"e3bbc366-bcfa-4dd5-aed5-2bf46ebe789c","system_id":"levelo_inurba_marseille","lat":43.28616,"lon":5.35109,"is_reserved":false,"is_disabled":false,"rental_uris":{"android":"levelo://app?vid=e3bbc366-bcfa-4dd5-aed5-2bf46ebe789c","ios":"levelo://app?vid=e3bbc366-bcfa-4dd5-aed5-2bf46ebe789c"},"vehicle_type_id":"4","last_reported":1721318952,"current_range_meters":5600,"station_id":"ce4bhch2rcd13ifvqeug","pricing_plan_id":"cebpf4jnsgd1na2vs0mg"},{"bike_id":"3115e094-4b39-46db-9769-92196f11cee7","system_id":"levelo_inurba_marseille","lat":43.28619,"lon":5.35099,"is_reserved":false,"is_disabled":false,"rental_uris":{"android":"levelo://app?vid=3115e094-4b39-46db-9769-92196f11cee7","ios":"levelo://app?vid=3115e094-4b39-46db-9769-92196f11cee7"},"vehicle_type_id":"4","last_reported":1721318952,"current_range_meters":31200,"station_id":"ce4bhch2rcd13ifvqeug","pricing_plan_id":"cebpf4jnsgd1na2vs0mg"},{"bike_id":"59b4e33f-ef41-45b7-a502-6fa560455702","system_id":"levelo_inurba_marseille","lat":43.285856,"lon":5.350771,"is_reserved":false,"is_disabled":false,"rental_uris":{"android":"levelo://app?vid=59b4e33f-ef41-45b7-a502-6fa560455702","ios":"levelo://app?vid=59b4e33f-ef41-45b7-a502-6fa560455702"},"vehicle_type_id":"4","last_reported":1721318952,"current_range_meters":22400,"station_id":"ce4bhch2rcd13ifvqeug","pricing_plan_id":"cebpf4jnsgd1na2vs0mg"},{"bike_id":"1be3355b-cc99-449e-a946-98b065fa4a65","system_id":"levelo_inurba_marseille","lat":43.28616,"lon":5.35108,"is_reserved":false,"is_disabled":false,"rental_uris":{"android":"levelo://app?vid=1be3355b-cc99-449e-a946-98b065fa4a65","ios":"levelo://app?vid=1be3355b-cc99-449e-a946-98b065fa4a65"},"vehicle_type_id":"4","last_reported":1721318952,"current_range_meters":27200,"station_id":"ce4bhch2rcd13ifvqeug","pricing_plan_id":"cebpf4jnsgd1na2vs0mg"},{"bike_id":"a74ea487-0528-4d59-9d97-a0d165a2bc80","system_id":"levelo_inurba_marseille","lat":43.28616,"lon":5.35108,"is_reserved":false,"is_disabled":false,"rental_uris":{"android":"levelo://app?vid=a74ea487-0528-4d59-9d97-a0d165a2bc80","ios":"levelo://app?vid=a74ea487-0528-4d59-9d97-a0d165a2bc80"},"vehicle_type_id":"4","last_reported":1721318952,"current_range_meters":10000,"station_id":"ce4bhch2rcd13ifvqeug","pricing_plan_id":"cebpf4jnsgd1na2vs0mg"},{"bike_id":"3f877351-e7bf-4314-a684-0da59bf5c9c8","system_id":"levelo_inurba_marseille","lat":43.285856,"lon":5.350771,"is_reserved":false,"is_disabled":false,"rental_uris":{"android":"levelo://app?vid=3f877351-e7bf-4314-a684-0da59bf5c9c8","ios":"levelo://app?vid=3f877351-e7bf-4314-a684-0da59bf5c9c8"},"vehicle_type_id":"4","last_reported":1721318952,"current_range_meters":31200,"station_id":"ce4bhch2rcd13ifvqeug","pricing_plan_id":"cebpf4jnsgd1na2vs0mg"},{"bike_id":"f5165278-a717-4bb5-a36a-7dca917b6549","system_id":"levelo_inurba_marseille","lat":43.28616,"lon":5.35107,"is_reserved":false,"is_disabled":false,"rental_uris":{"android":"levelo://app?vid=f5165278-a717-4bb5-a36a-7dca917b6549","ios":"levelo://app?vid=f5165278-a717-4bb5-a36a-7dca917b6549"},"vehicle_type_id":"4","last_reported":1721318952,"current_range_meters":20000,"station_id":"ce4bhch2rcd13ifvqeug","pricing_plan_id":"cebpf4jnsgd1na2vs0mg"},{"bike_id":"f5c83dec-9ed9-4ae1-a51e-4c985b9ca530","system_id":"levelo_inurba_marseille","lat":43.285856,"lon":5.350771,"is_reserved":false,"is_disabled":false,"rental_uris":{"android":"levelo://app?vid=f5c83dec-9ed9-4ae1-a51e-4c985b9ca530","ios":"levelo://app?vid=f5c83dec-9ed9-4ae1-a51e-4c985b9ca530"},"vehicle_type_id":"4","last_reported":1721318952,"current_range_meters":22800,"station_id":"ce4bhch2rcd13ifvqeug","pricing_plan_id":"cebpf4jnsgd1na2vs0mg"},{"bike_id":"1aa64797-5d70-452c-827c-0d30c27ad18b","system_id":"levelo_inurba_marseille","lat":43.28615,"lon":5.35108,"is_reserved":false,"is_disabled":false,"rental_uris":{"android":"levelo://app?vid=1aa64797-5d70-452c-827c-0d30c27ad18b","ios":"levelo://app?vid=1aa64797-5d70-452c-827c-0d30c27ad18b"},"vehicle_type_id":"4","last_reported":1721318952,"current_range_meters":30800,"station_id":"ce4bhch2rcd13ifvqeug","pricing_plan_id":"cebpf4jnsgd1na2vs0mg"},{"bike_id":"6c3b523c-a0bc-495a-9a2b-3d989cc81631","system_id":"levelo_inurba_marseille","lat":43.2862,"lon":5.35092,"is_reserved":false,"is_disabled":false,"rental_uris":{"android":"levelo://app?vid=6c3b523c-a0bc-495a-9a2b-3d989cc81631","ios":"levelo://app?vid=6c3b523c-a0bc-495a-9a2b-3d989cc81631"},"vehicle_type_id":"4","last_reported":1721318952,"current_range_meters":22000,"station_id":"ce4bhch2rcd13ifvqeug","pricing_plan_id":"cebpf4jnsgd1na2vs0mg"},{"bike_id":"04c5f6ca-10a5-485c-b33d-49319d281786","system_id":"levelo_inurba_marseille","lat":43.28616,"lon":5.35104,"is_reserved":false,"is_disabled":false,"rental_uris":{"android":"levelo://app?vid=04c5f6ca-10a5-485c-b33d-49319d281786","ios":"levelo://app?vid=04c5f6ca-10a5-485c-b33d-49319d281786"},"vehicle_type_id":"4","last_reported":1721318952,"current_range_meters":26800,"station_id":"ce4bhch2rcd13ifvqeug","pricing_plan_id":"cebpf4jnsgd1na2vs0mg"},{"bike_id":"fbc74263-9210-45cd-94ab-c30968181cb5","system_id":"levelo_inurba_marseille","lat":43.285856,"lon":5.350771,"is_reserved":false,"is_disabled":false,"rental_uris":{"android":"levelo://app?vid=fbc74263-9210-45cd-94ab-c30968181cb5","ios":"levelo://app?vid=fbc74263-9210-45cd-94ab-c30968181cb5"},"vehicle_type_id":"4","last_reported":1721318952,"current_range_meters":30800,"station_id":"ce4bhch2rcd13ifvqeug","pricing_plan_id":"cebpf4jnsgd1na2vs0mg"},{"bike_id":"55e2bc88-5e34-4d23-bbcc-885e6e074d49","system_id":"levelo_inurba_marseille","lat":43.285856,"lon":5.350771,"is_reserved":false,"is_disabled":false,"rental_uris":{"android":"levelo://app?vid=55e2bc88-5e34-4d23-bbcc-885e6e074d49","ios":"levelo://app?vid=55e2bc88-5e34-4d23-bbcc-885e6e074d49"},"vehicle_type_id":"4","last_reported":1721318952,"current_range_meters":17200,"station_id":"ce4bhch2rcd13ifvqeug","pricing_plan_id":"cebpf4jnsgd1na2vs0mg"},{"bike_id":"5b9bc24a-1841-4259-abb8-699956c5238a","system_id":"levelo_inurba_marseille","lat":43.28614,"lon":5.35109,"is_reserved":false,"is_disabled":false,"rental_uris":{"android":"levelo://app?vid=5b9bc24a-1841-4259-abb8-699956c5238a","ios":"levelo://app?vid=5b9bc24a-1841-4259-abb8-699956c5238a"},"vehicle_type_id":"4","last_reported":1721318952,"current_range_meters":0,"station_id":"ce4bhch2rcd13ifvqeug","pricing_plan_id":"cebpf4jnsgd1na2vs0mg"},{"bike_id":"d38968bc-8a21-4d75-aab6-ad3c12be08d4","system_id":"levelo_inurba_marseille","lat":43.28614,"lon":5.35109,"is_reserved":false,"is_disabled":false,"rental_uris":{"android":"levelo://app?vid=d38968bc-8a21-4d75-aab6-ad3c12be08d4","ios":"levelo://app?vid=d38968bc-8a21-4d75-aab6-ad3c12be08d4"},"vehicle_type_id":"4","last_reported":1721318952,"current_range_meters":31200,"station_id":"ce4bhch2rcd13ifvqeug","pricing_plan_id":"cebpf4jnsgd1na2vs0mg"},{"bike_id":"f4c2fe82-37be-4b8a-97fb-43647e8da0a9","system_id":"levelo_inurba_marseille","lat":43.285856,"lon":5.350771,"is_reserved":false,"is_disabled":false,"rental_uris":{"android":"levelo://app?vid=f4c2fe82-37be-4b8a-97fb-43647e8da0a9","ios":"levelo://app?vid=f4c2fe82-37be-4b8a-97fb-43647e8da0a9"},"vehicle_type_id":"4","last_reported":1721318952,"current_range_meters":9200,"station_id":"ce4bhch2rcd13ifvqeug","pricing_plan_id":"cebpf4jnsgd1na2vs0mg"},{"bike_id":"27393c35-1eef-4777-8e87-b8bb8e87308f","system_id":"levelo_inurba_marseille","lat":43.285856,"lon":5.350771,"is_reserved":false,"is_disabled":false,"rental_uris":{"android":"levelo://app?vid=27393c35-1eef-4777-8e87-b8bb8e87308f","ios":"levelo://app?vid=27393c35-1eef-4777-8e87-b8bb8e87308f"},"vehicle_type_id":"4","last_reported":1721318952,"current_range_meters":31200,"station_id":"ce4bhch2rcd13ifvqeug","pricing_plan_id":"cebpf4jnsgd1na2vs0mg"},{"bike_id":"3b771264-842e-4b92-85e7-b4c0d7885d1e","system_id":"levelo_inurba_marseille","lat":43.28614,"lon":5.35106,"is_reserved":false,"is_disabled":false,"rental_uris":{"android":"levelo://app?vid=3b771264-842e-4b92-85e7-b4c0d7885d1e","ios":"levelo://app?vid=3b771264-842e-4b92-85e7-b4c0d7885d1e"},"vehicle_type_id":"4","last_reported":1721318952,"current_range_meters":31200,"station_id":"ce4bhch2rcd13ifvqeug","pricing_plan_id":"cebpf4jnsgd1na2vs0mg"},{"bike_id":"4befd426-1355-4c33-8f1a-7bcf972eba94","system_id":"levelo_inurba_marseille","lat":43.28614,"lon":5.35105,"is_reserved":false,"is_disabled":false,"rental_uris":{"android":"levelo://app?vid=4befd426-1355-4c33-8f1a-7bcf972eba94","ios":"levelo://app?vid=4befd426-1355-4c33-8f1a-7bcf972eba94"},"vehicle_type_id":"4","last_reported":1721318952,"current_range_meters":9600,"station_id":"ce4bhch2rcd13ifvqeug","pricing_plan_id":"cebpf4jnsgd1na2vs0mg"},{"bike_id":"bde9eac1-96dc-43e8-b8fb-5167d1aacfcc","system_id":"levelo_inurba_marseille","lat":43.28613,"lon":5.35107,"is_reserved":false,"is_disabled":false,"rental_uris":{"android":"levelo://app?vid=bde9eac1-96dc-43e8-b8fb-5167d1aacfcc","ios":"levelo://app?vid=bde9eac1-96dc-43e8-b8fb-5167d1aacfcc"},"vehicle_type_id":"4","last_reported":1721318952,"current_range_meters":19600,"station_id":"ce4bhch2rcd13ifvqeug","pricing_plan_id":"cebpf4jnsgd1na2vs0mg"},{"bike_id":"a9bf7301-f081-4405-ba4e-e8655e950cd2","system_id":"levelo_inurba_marseille","lat":43.28613,"lon":5.35105,"is_reserved":false,"is_disabled":false,"rental_uris":{"android":"levelo://app?vid=a9bf7301-f081-4405-ba4e-e8655e950cd2","ios":"levelo://app?vid=a9bf7301-f081-4405-ba4e-e8655e950cd2"},"vehicle_type_id":"4","last_reported":1721318952,"current_range_meters":31200,"station_id":"ce4bhch2rcd13ifvqeug","pricing_plan_id":"cebpf4jnsgd1na2vs0mg"},{"bike_id":"24400e2b-9450-443b-b77a-919a26bd84bf","system_id":"levelo_inurba_marseille","lat":43.28615,"lon":5.35098,"is_reserved":false,"is_disabled":false,"rental_uris":{"android":"levelo://app?vid=24400e2b-9450-443b-b77a-919a26bd84bf","ios":"levelo://app?vid=24400e2b-9450-443b-b77a-919a26bd84bf"},"vehicle_type_id":"4","last_reported":1721318952,"current_range_meters":9600,"station_id":"ce4bhch2rcd13ifvqeug","pricing_plan_id":"cebpf4jnsgd1na2vs0mg"},{"bike_id":"d6f231a2-516c-4a0c-aa2c-11efdfe4d9d0","system_id":"levelo_inurba_marseille","lat":43.28613,"lon":5.35104,"is_reserved":false,"is_disabled":false,"rental_uris":{"android":"levelo://app?vid=d6f231a2-516c-4a0c-aa2c-11efdfe4d9d0","ios":"levelo://app?vid=d6f231a2-516c-4a0c-aa2c-11efdfe4d9d0"},"vehicle_type_id":"4","last_reported":1721318952,"current_range_meters":27200,"station_id":"ce4bhch2rcd13ifvqeug","pricing_plan_id":"cebpf4jnsgd1na2vs0mg"},{"bike_id":"4f1788e4-ff7c-46a0-b9ef-ebedf1cb35c5","system_id":"levelo_inurba_marseille","lat":43.28613,"lon":5.35104,"is_reserved":false,"is_disabled":false,"rental_uris":{"android":"levelo://app?vid=4f1788e4-ff7c-46a0-b9ef-ebedf1cb35c5","ios":"levelo://app?vid=4f1788e4-ff7c-46a0-b9ef-ebedf1cb35c5"},"vehicle_type_id":"4","last_reported":1721318952,"current_range_meters":28800,"station_id":"ce4bhch2rcd13ifvqeug","pricing_plan_id":"cebpf4jnsgd1na2vs0mg"},{"bike_id":"57456ec0-75b4-4217-8ae1-e37845eed5e6","system_id":"levelo_inurba_marseille","lat":43.28611,"lon":5.35109,"is_reserved":false,"is_disabled":false,"rental_uris":{"android":"levelo://app?vid=57456ec0-75b4-4217-8ae1-e37845eed5e6","ios":"levelo://app?vid=57456ec0-75b4-4217-8ae1-e37845eed5e6"},"vehicle_type_id":"4","last_reported":1721318952,"current_range_meters":14800,"station_id":"ce4bhch2rcd13ifvqeug","pricing_plan_id":"cebpf4jnsgd1na2vs0mg"},{"bike_id":"92f4c697-7618-40b3-b8af-81143d0e34a7","system_id":"levelo_inurba_marseille","lat":43.28613,"lon":5.35101,"is_reserved":false,"is_disabled":false,"rental_uris":{"android":"levelo://app?vid=92f4c697-7618-40b3-b8af-81143d0e34a7","ios":"levelo://app?vid=92f4c697-7618-40b3-b8af-81143d0e34a7"},"vehicle_type_id":"4","last_reported":1721318952,"current_range_meters":26400,"station_id":"ce4bhch2rcd13ifvqeug","pricing_plan_id":"cebpf4jnsgd1na2vs0mg"},{"bike_id":"94852403-906d-4810-a5fe-c67de6eab2fa","system_id":"levelo_inurba_marseille","lat":43.285856,"lon":5.350771,"is_reserved":false,"is_disabled":false,"rental_uris":{"android":"levelo://app?vid=94852403-906d-4810-a5fe-c67de6eab2fa","ios":"levelo://app?vid=94852403-906d-4810-a5fe-c67de6eab2fa"},"vehicle_type_id":"4","last_reported":1721318952,"current_range_meters":31200,"station_id":"ce4bhch2rcd13ifvqeug","pricing_plan_id":"cebpf4jnsgd1na2vs0mg"},{"bike_id":"3e630b39-a46c-421e-b0f8-a9bfe1f589a4","system_id":"levelo_inurba_marseille","lat":43.285856,"lon":5.350771,"is_reserved":false,"is_disabled":false,"rental_uris":{"android":"levelo://app?vid=3e630b39-a46c-421e-b0f8-a9bfe1f589a4","ios":"levelo://app?vid=3e630b39-a46c-421e-b0f8-a9bfe1f589a4"},"vehicle_type_id":"4","last_reported":1721318952,"current_range_meters":30400,"station_id":"ce4bhch2rcd13ifvqeug","pricing_plan_id":"cebpf4jnsgd1na2vs0mg"},{"bike_id":"70a09adb-9338-456f-9562-00aff33a3367","system_id":"levelo_inurba_marseille","lat":43.2861,"lon":5.35106,"is_reserved":false,"is_disabled":false,"rental_uris":{"android":"levelo://app?vid=70a09adb-9338-456f-9562-00aff33a3367","ios":"levelo://app?vid=70a09adb-9338-456f-9562-00aff33a3367"},"vehicle_type_id":"4","last_reported":1721318952,"current_range_meters":24800,"station_id":"ce4bhch2rcd13ifvqeug","pricing_plan_id":"cebpf4jnsgd1na2vs0mg"},{"bike_id":"8b6d68d4-84a2-454b-a07e-9aa2429dd2b3","system_id":"levelo_inurba_marseille","lat":43.28604,"lon":5.351203,"is_reserved":false,"is_disabled":false,"rental_uris":{"android":"levelo://app?vid=8b6d68d4-84a2-454b-a07e-9aa2429dd2b3","ios":"levelo://app?vid=8b6d68d4-84a2-454b-a07e-9aa2429dd2b3"},"vehicle_type_id":"4","last_reported":1721318952,"current_range_meters":0,"station_id":"ce4bhch2rcd13ifvqeug","pricing_plan_id":"cebpf4jnsgd1na2vs0mg"},{"bike_id":"3c4a8069-0bfa-4460-9236-ac3a77acc894","system_id":"levelo_inurba_marseille","lat":43.283998,"lon":5.375062,"is_reserved":false,"is_disabled":false,"rental_uris":{"android":"levelo://app?vid=3c4a8069-0bfa-4460-9236-ac3a77acc894","ios":"levelo://app?vid=3c4a8069-0bfa-4460-9236-ac3a77acc894"},"vehicle_type_id":"4","last_reported":1721318952,"current_range_meters":400,"station_id":"ce4bh412rcd13ifvqds0","pricing_plan_id":"cebpf4jnsgd1na2vs0mg"},{"bike_id":"238d7b75-5d81-4200-aa63-209c7c2e7ad2","system_id":"levelo_inurba_marseille","lat":43.299675,"lon":5.402805,"is_reserved":false,"is_disabled":false,"rental_uris":{"android":"levelo://app?vid=238d7b75-5d81-4200-aa63-209c7c2e7ad2","ios":"levelo://app?vid=238d7b75-5d81-4200-aa63-209c7c2e7ad2"},"vehicle_type_id":"4","last_reported":1721318952,"current_range_meters":28400,"station_id":"","pricing_plan_id":"cebpf4jnsgd1na2vs0mg"},{"bike_id":"529199b2-0820-4258-96b7-0669c32b3b2b","system_id":"levelo_inurba_marseille","lat":43.28412,"lon":5.37507,"is_reserved":false,"is_disabled":false,"rental_uris":{"android":"levelo://app?vid=529199b2-0820-4258-96b7-0669c32b3b2b","ios":"levelo://app?vid=529199b2-0820-4258-96b7-0669c32b3b2b"},"vehicle_type_id":"4","last_reported":1721318952,"current_range_meters":0,"station_id":"ce4bh412rcd13ifvqds0","pricing_plan_id":"cebpf4jnsgd1na2vs0mg"},{"bike_id":"c031cfcc-c688-4921-922c-db71a8673f88","system_id":"levelo_inurba_marseille","lat":43.2996,"lon":5.40316,"is_reserved":false,"is_disabled":false,"rental_uris":{"android":"levelo://app?vid=c031cfcc-c688-4921-922c-db71a8673f88","ios":"levelo://app?vid=c031cfcc-c688-4921-922c-db71a8673f88"},"vehicle_type_id":"4","last_reported":1721318952,"current_range_meters":21200,"station_id":"","pricing_plan_id":"cebpf4jnsgd1na2vs0mg"},{"bike_id":"bf2896eb-aa36-4837-ba7e-1eb786b03e00","system_id":"levelo_inurba_marseille","lat":43.298037,"lon":5.381066,"is_reserved":false,"is_disabled":false,"rental_uris":{"android":"levelo://app?vid=bf2896eb-aa36-4837-ba7e-1eb786b03e00","ios":"levelo://app?vid=bf2896eb-aa36-4837-ba7e-1eb786b03e00"},"vehicle_type_id":"4","last_reported":1721318952,"current_range_meters":7600,"station_id":"ce4bgip2rcd13ifvqbb0","pricing_plan_id":"cebpf4jnsgd1na2vs0mg"},{"bike_id":"10f26044-515d-478d-9630-b7b7c0d4e8ec","system_id":"levelo_inurba_marseille","lat":43.339952,"lon":5.384422,"is_reserved":false,"is_disabled":false,"rental_uris":{"android":"levelo://app?vid=10f26044-515d-478d-9630-b7b7c0d4e8ec","ios":"levelo://app?vid=10f26044-515d-478d-9630-b7b7c0d4e8ec"},"vehicle_type_id":"4","last_reported":1721318952,"current_range_meters":25600,"station_id":"","pricing_plan_id":"cebpf4jnsgd1na2vs0mg"},{"bike_id":"c4952a28-825a-4a2a-a52c-a1d351efe14e","system_id":"levelo_inurba_marseille","lat":43.319179,"lon":5.407725,"is_reserved":false,"is_disabled":false,"rental_uris":{"android":"levelo://app?vid=c4952a28-825a-4a2a-a52c-a1d351efe14e","ios":"levelo://app?vid=c4952a28-825a-4a2a-a52c-a1d351efe14e"},"vehicle_type_id":"4","last_reported":1721318952,"current_range_meters":28400,"station_id":"ce4bhq12rcd13ifvqhig","pricing_plan_id":"cebpf4jnsgd1na2vs0mg"},{"bike_id":"5be0d062-c8a9-4aff-bd3b-ca1080479798","system_id":"levelo_inurba_marseille","lat":43.33717,"lon":5.391857,"is_reserved":false,"is_disabled":false,"rental_uris":{"android":"levelo://app?vid=5be0d062-c8a9-4aff-bd3b-ca1080479798","ios":"levelo://app?vid=5be0d062-c8a9-4aff-bd3b-ca1080479798"},"vehicle_type_id":"4","last_reported":1721318952,"current_range_meters":24800,"station_id":"ce4bhr92rcd13ifvqhsg","pricing_plan_id":"cebpf4jnsgd1na2vs0mg"},{"bike_id":"4c737145-9cc2-431c-a1eb-dec9887a898d","system_id":"levelo_inurba_marseille","lat":43.323433,"lon":5.406248,"is_reserved":false,"is_disabled":false,"rental_uris":{"android":"levelo://app?vid=4c737145-9cc2-431c-a1eb-dec9887a898d","ios":"levelo://app?vid=4c737145-9cc2-431c-a1eb-dec9887a898d"},"vehicle_type_id":"4","last_reported":1721318952,"current_range_meters":28800,"station_id":"ce4bhq92rcd13ifvqhjg","pricing_plan_id":"cebpf4jnsgd1na2vs0mg"},{"bike_id":"fd0a3084-8e3d-4938-a072-d8449f5a41c6","system_id":"levelo_inurba_marseille","lat":43.32342,"lon":5.40626,"is_reserved":false,"is_disabled":false,"rental_uris":{"android":"levelo://app?vid=fd0a3084-8e3d-4938-a072-d8449f5a41c6","ios":"levelo://app?vid=fd0a3084-8e3d-4938-a072-d8449f5a41c6"},"vehicle_type_id":"4","last_reported":1721318952,"current_range_meters":8000,"station_id":"ce4bhq92rcd13ifvqhjg","pricing_plan_id":"cebpf4jnsgd1na2vs0mg"},{"bike_id":"6e77038f-bd2c-450c-a133-60570cf90a3e","system_id":"levelo_inurba_marseille","lat":43.284787,"lon":5.384116,"is_reserved":false,"is_disabled":false,"rental_uris":{"android":"levelo://app?vid=6e77038f-bd2c-450c-a133-60570cf90a3e","ios":"levelo://app?vid=6e77038f-bd2c-450c-a133-60570cf90a3e"},"vehicle_type_id":"4","last_reported":1721318952,"current_range_meters":2800,"station_id":"ce4bh512rcd13ifvqe3g","pricing_plan_id":"cebpf4jnsgd1na2vs0mg"},{"bike_id":"866815d0-593c-4f6b-9a52-1495f7212592","system_id":"levelo_inurba_marseille","lat":43.284793,"lon":5.384119,"is_reserved":false,"is_disabled":false,"rental_uris":{"android":"levelo://app?vid=866815d0-593c-4f6b-9a52-1495f7212592","ios":"levelo://app?vid=866815d0-593c-4f6b-9a52-1495f7212592"},"vehicle_type_id":"4","last_reported":1721318952,"current_range_meters":16000,"station_id":"ce4bh512rcd13ifvqe3g","pricing_plan_id":"cebpf4jnsgd1na2vs0mg"},{"bike_id":"23ddcf02-1114-431d-babf-1183a2a3571c","system_id":"levelo_inurba_marseille","lat":43.288497,"lon":5.393089,"is_reserved":false,"is_disabled":false,"rental_uris":{"android":"levelo://app?vid=23ddcf02-1114-431d-babf-1183a2a3571c","ios":"levelo://app?vid=23ddcf02-1114-431d-babf-1183a2a3571c"},"vehicle_type_id":"4","last_reported":1721318952,"current_range_meters":0,"station_id":"ce4bh2p2rcd13ifvqdi0","pricing_plan_id":"cebpf4jnsgd1na2vs0mg"},{"bike_id":"145dbe2f-f652-4e5a-8d61-6f440fd005d1","system_id":"levelo_inurba_marseille","lat":43.283494,"lon":5.380945,"is_reserved":false,"is_disabled":false,"rental_uris":{"android":"levelo://app?vid=145dbe2f-f652-4e5a-8d61-6f440fd005d1","ios":"levelo://app?vid=145dbe2f-f652-4e5a-8d61-6f440fd005d1"},"vehicle_type_id":"4","last_reported":1721318952,"current_range_meters":8400,"station_id":"ce4bh412rcd13ifvqdr0","pricing_plan_id":"cebpf4jnsgd1na2vs0mg"},{"bike_id":"7c10f830-9624-4228-a012-6beafe0a9b37","system_id":"levelo_inurba_marseille","lat":43.284219,"lon":5.3497,"is_reserved":false,"is_disabled":false,"rental_uris":{"android":"levelo://app?vid=7c10f830-9624-4228-a012-6beafe0a9b37","ios":"levelo://app?vid=7c10f830-9624-4228-a012-6beafe0a9b37"},"vehicle_type_id":"4","last_reported":1721318952,"current_range_meters":19600,"station_id":"ce4bhbh2rcd13ifvqepg","pricing_plan_id":"cebpf4jnsgd1na2vs0mg"},{"bike_id":"2028fc78-d262-4713-9f42-498fa81711e1","system_id":"levelo_inurba_marseille","lat":43.284219,"lon":5.3497,"is_reserved":false,"is_disabled":false,"rental_uris":{"android":"levelo://app?vid=2028fc78-d262-4713-9f42-498fa81711e1","ios":"levelo://app?vid=2028fc78-d262-4713-9f42-498fa81711e1"},"vehicle_type_id":"4","last_reported":1721318952,"current_range_meters":31200,"station_id":"ce4bhbh2rcd13ifvqepg","pricing_plan_id":"cebpf4jnsgd1na2vs0mg"},{"bike_id":"daa57792-0304-4f40-b1e7-78e9a3ce2c65","system_id":"levelo_inurba_marseille","lat":43.284325,"lon":5.349735,"is_reserved":false,"is_disabled":false,"rental_uris":{"android":"levelo://app?vid=daa57792-0304-4f40-b1e7-78e9a3ce2c65","ios":"levelo://app?vid=daa57792-0304-4f40-b1e7-78e9a3ce2c65"},"vehicle_type_id":"4","last_reported":1721318952,"current_range_meters":2000,"station_id":"ce4bhbh2rcd13ifvqepg","pricing_plan_id":"cebpf4jnsgd1na2vs0mg"},{"bike_id":"e5ec382f-4872-410b-b9c9-0ba2dcccfd07","system_id":"levelo_inurba_marseille","lat":43.284219,"lon":5.3497,"is_reserved":false,"is_disabled":false,"rental_uris":{"android":"levelo://app?vid=e5ec382f-4872-410b-b9c9-0ba2dcccfd07","ios":"levelo://app?vid=e5ec382f-4872-410b-b9c9-0ba2dcccfd07"},"vehicle_type_id":"4","last_reported":1721318952,"current_range_meters":30800,"station_id":"ce4bhbh2rcd13ifvqepg","pricing_plan_id":"cebpf4jnsgd1na2vs0mg"},{"bike_id":"af98fdaa-7688-428a-9f77-5c308db3ff36","system_id":"levelo_inurba_marseille","lat":43.28421,"lon":5.35,"is_reserved":false,"is_disabled":false,"rental_uris":{"android":"levelo://app?vid=af98fdaa-7688-428a-9f77-5c308db3ff36","ios":"levelo://app?vid=af98fdaa-7688-428a-9f77-5c308db3ff36"},"vehicle_type_id":"4","last_reported":1721318952,"current_range_meters":8400,"station_id":"ce4bhbh2rcd13ifvqepg","pricing_plan_id":"cebpf4jnsgd1na2vs0mg"},{"bike_id":"722aa620-7c0f-4276-abfb-370b5a620db6","system_id":"levelo_inurba_marseille","lat":43.284219,"lon":5.3497,"is_reserved":false,"is_disabled":false,"rental_uris":{"android":"levelo://app?vid=722aa620-7c0f-4276-abfb-370b5a620db6","ios":"levelo://app?vid=722aa620-7c0f-4276-abfb-370b5a620db6"},"vehicle_type_id":"4","last_reported":1721318952,"current_range_meters":31200,"station_id":"ce4bhbh2rcd13ifvqepg","pricing_plan_id":"cebpf4jnsgd1na2vs0mg"},{"bike_id":"32d059d5-bd03-45aa-b5ef-f577fbcc5b21","system_id":"levelo_inurba_marseille","lat":43.284219,"lon":5.3497,"is_reserved":false,"is_disabled":false,"rental_uris":{"android":"levelo://app?vid=32d059d5-bd03-45aa-b5ef-f577fbcc5b21","ios":"levelo://app?vid=32d059d5-bd03-45aa-b5ef-f577fbcc5b21"},"vehicle_type_id":"4","last_reported":1721318952,"current_range_meters":31200,"station_id":"ce4bhbh2rcd13ifvqepg","pricing_plan_id":"cebpf4jnsgd1na2vs0mg"},{"bike_id":"92de1830-9021-425e-8b24-5088cd7f09b0","system_id":"levelo_inurba_marseille","lat":43.284219,"lon":5.3497,"is_reserved":false,"is_disabled":false,"rental_uris":{"android":"levelo://app?vid=92de1830-9021-425e-8b24-5088cd7f09b0","ios":"levelo://app?vid=92de1830-9021-425e-8b24-5088cd7f09b0"},"vehicle_type_id":"4","last_reported":1721318952,"current_range_meters":26800,"station_id":"ce4bhbh2rcd13ifvqepg","pricing_plan_id":"cebpf4jnsgd1na2vs0mg"},{"bike_id":"44ab605a-12c2-4178-a79b-cc48191ead05","system_id":"levelo_inurba_marseille","lat":43.2842,"lon":5.34999,"is_reserved":false,"is_disabled":false,"rental_uris":{"android":"levelo://app?vid=44ab605a-12c2-4178-a79b-cc48191ead05","ios":"levelo://app?vid=44ab605a-12c2-4178-a79b-cc48191ead05"},"vehicle_type_id":"4","last_reported":1721318952,"current_range_meters":10000,"station_id":"ce4bhbh2rcd13ifvqepg","pricing_plan_id":"cebpf4jnsgd1na2vs0mg"},{"bike_id":"3a68fe6e-4c81-43fd-b175-b6863f63bd81","system_id":"levelo_inurba_marseille","lat":43.28425,"lon":5.34982,"is_reserved":false,"is_disabled":false,"rental_uris":{"android":"levelo://app?vid=3a68fe6e-4c81-43fd-b175-b6863f63bd81","ios":"levelo://app?vid=3a68fe6e-4c81-43fd-b175-b6863f63bd81"},"vehicle_type_id":"4","last_reported":1721318952,"current_range_meters":20800,"station_id":"ce4bhbh2rcd13ifvqepg","pricing_plan_id":"cebpf4jnsgd1na2vs0mg"},{"bike_id":"6cc41710-e3e6-47c3-ac5f-30e124b50fbe","system_id":"levelo_inurba_marseille","lat":43.284217,"lon":5.349697,"is_reserved":false,"is_disabled":false,"rental_uris":{"android":"levelo://app?vid=6cc41710-e3e6-47c3-ac5f-30e124b50fbe","ios":"levelo://app?vid=6cc41710-e3e6-47c3-ac5f-30e124b50fbe"},"vehicle_type_id":"4","last_reported":1721318952,"current_range_meters":31200,"station_id":"ce4bhbh2rcd13ifvqepg","pricing_plan_id":"cebpf4jnsgd1na2vs0mg"},{"bike_id":"d47405cb-5110-442b-92b8-8857a7cdd55d","system_id":"levelo_inurba_marseille","lat":43.284219,"lon":5.3497,"is_reserved":false,"is_disabled":false,"rental_uris":{"android":"levelo://app?vid=d47405cb-5110-442b-92b8-8857a7cdd55d","ios":"levelo://app?vid=d47405cb-5110-442b-92b8-8857a7cdd55d"},"vehicle_type_id":"4","last_reported":1721318952,"current_range_meters":26800,"station_id":"ce4bhbh2rcd13ifvqepg","pricing_plan_id":"cebpf4jnsgd1na2vs0mg"},{"bike_id":"2fe37e6f-e923-455d-99ea-ae65f1537ed6","system_id":"levelo_inurba_marseille","lat":43.28424,"lon":5.34979,"is_reserved":false,"is_disabled":false,"rental_uris":{"android":"levelo://app?vid=2fe37e6f-e923-455d-99ea-ae65f1537ed6","ios":"levelo://app?vid=2fe37e6f-e923-455d-99ea-ae65f1537ed6"},"vehicle_type_id":"4","last_reported":1721318952,"current_range_meters":5200,"station_id":"ce4bhbh2rcd13ifvqepg","pricing_plan_id":"cebpf4jnsgd1na2vs0mg"},{"bike_id":"816989f2-7282-4d2b-ba88-968195698072","system_id":"levelo_inurba_marseille","lat":43.28418,"lon":5.349942,"is_reserved":false,"is_disabled":false,"rental_uris":{"android":"levelo://app?vid=816989f2-7282-4d2b-ba88-968195698072","ios":"levelo://app?vid=816989f2-7282-4d2b-ba88-968195698072"},"vehicle_type_id":"4","last_reported":1721318952,"current_range_meters":15600,"station_id":"ce4bhbh2rcd13ifvqepg","pricing_plan_id":"cebpf4jnsgd1na2vs0mg"},{"bike_id":"06cecaf9-e931-42cd-a8c1-f1a7fbf6e39d","system_id":"levelo_inurba_marseille","lat":43.284219,"lon":5.3497,"is_reserved":false,"is_disabled":false,"rental_uris":{"android":"levelo://app?vid=06cecaf9-e931-42cd-a8c1-f1a7fbf6e39d","ios":"levelo://app?vid=06cecaf9-e931-42cd-a8c1-f1a7fbf6e39d"},"vehicle_type_id":"4","last_reported":1721318952,"current_range_meters":16000,"station_id":"ce4bhbh2rcd13ifvqepg","pricing_plan_id":"cebpf4jnsgd1na2vs0mg"},{"bike_id":"4c607646-34cc-4f2a-9416-43ce474a14ad","system_id":"levelo_inurba_marseille","lat":43.28416,"lon":5.349993,"is_reserved":false,"is_disabled":false,"rental_uris":{"android":"levelo://app?vid=4c607646-34cc-4f2a-9416-43ce474a14ad","ios":"levelo://app?vid=4c607646-34cc-4f2a-9416-43ce474a14ad"},"vehicle_type_id":"4","last_reported":1721318952,"current_range_meters":23600,"station_id":"ce4bhbh2rcd13ifvqepg","pricing_plan_id":"cebpf4jnsgd1na2vs0mg"},{"bike_id":"6f5b166d-20a3-4fe9-87ad-251c9a035021","system_id":"levelo_inurba_marseille","lat":43.284183,"lon":5.34992,"is_reserved":false,"is_disabled":false,"rental_uris":{"android":"levelo://app?vid=6f5b166d-20a3-4fe9-87ad-251c9a035021","ios":"levelo://app?vid=6f5b166d-20a3-4fe9-87ad-251c9a035021"},"vehicle_type_id":"4","last_reported":1721318952,"current_range_meters":0,"station_id":"ce4bhbh2rcd13ifvqepg","pricing_plan_id":"cebpf4jnsgd1na2vs0mg"},{"bike_id":"6452f904-9e73-4451-99e9-20aea32a3319","system_id":"levelo_inurba_marseille","lat":43.28423,"lon":5.34977,"is_reserved":false,"is_disabled":false,"rental_uris":{"android":"levelo://app?vid=6452f904-9e73-4451-99e9-20aea32a3319","ios":"levelo://app?vid=6452f904-9e73-4451-99e9-20aea32a3319"},"vehicle_type_id":"4","last_reported":1721318952,"current_range_meters":8800,"station_id":"ce4bhbh2rcd13ifvqepg","pricing_plan_id":"cebpf4jnsgd1na2vs0mg"},{"bike_id":"43215655-e73a-4ae1-8441-88541a68b572","system_id":"levelo_inurba_marseille","lat":43.28421,"lon":5.34982,"is_reserved":false,"is_disabled":false,"rental_uris":{"android":"levelo://app?vid=43215655-e73a-4ae1-8441-88541a68b572","ios":"levelo://app?vid=43215655-e73a-4ae1-8441-88541a68b572"},"vehicle_type_id":"4","last_reported":1721318952,"current_range_meters":2000,"station_id":"ce4bhbh2rcd13ifvqepg","pricing_plan_id":"cebpf4jnsgd1na2vs0mg"},{"bike_id":"2965969b-27ce-4aa5-a62c-063d88732322","system_id":"levelo_inurba_marseille","lat":43.28419,"lon":5.34988,"is_reserved":false,"is_disabled":false,"rental_uris":{"android":"levelo://app?vid=2965969b-27ce-4aa5-a62c-063d88732322","ios":"levelo://app?vid=2965969b-27ce-4aa5-a62c-063d88732322"},"vehicle_type_id":"4","last_reported":1721318952,"current_range_meters":9200,"station_id":"ce4bhbh2rcd13ifvqepg","pricing_plan_id":"cebpf4jnsgd1na2vs0mg"},{"bike_id":"f9a3c649-2096-49ee-b1e2-bee4201a0f4c","system_id":"levelo_inurba_marseille","lat":43.284217,"lon":5.349697,"is_reserved":false,"is_disabled":false,"rental_uris":{"android":"levelo://app?vid=f9a3c649-2096-49ee-b1e2-bee4201a0f4c","ios":"levelo://app?vid=f9a3c649-2096-49ee-b1e2-bee4201a0f4c"},"vehicle_type_id":"4","last_reported":1721318952,"current_range_meters":30800,"station_id":"ce4bhbh2rcd13ifvqepg","pricing_plan_id":"cebpf4jnsgd1na2vs0mg"},{"bike_id":"124e3ca7-4a4d-4d04-b771-1fc87c1ea702","system_id":"levelo_inurba_marseille","lat":43.284217,"lon":5.349697,"is_reserved":false,"is_disabled":false,"rental_uris":{"android":"levelo://app?vid=124e3ca7-4a4d-4d04-b771-1fc87c1ea702","ios":"levelo://app?vid=124e3ca7-4a4d-4d04-b771-1fc87c1ea702"},