{"last_updated":1723496923,"ttl":30,"version":"2.2","data":{"bikes":[{"bike_id":"c5b9fbec-7f69-4561-b3bc-00f6f1f12a47","system_id":"levelo_inurba_marseille","lat":43.312239,"lon":5.368562,"is_reserved":false,"is_disabled":false,"rental_uris":{"android":"levelo://app?vid=c5b9fbec-7f69-4561-b3bc-00f6f1f12a47","ios":"levelo://app?vid=c5b9fbec-7f69-4561-b3bc-00f6f1f12a47"},"vehicle_type_id":"4","last_reported":1723496923,"current_range_meters":17600,"station_id":"ce4bgl92rcd13ifvqbq0","pricing_plan_id":"cebpf4jnsgd1na2vs0mg"},{"bike_id":"285cdc23-9bfd-4e0f-bfb5-40c37d83357f","system_id":"levelo_inurba_marseille","lat":43.312239,"lon":5.368562,"is_reserved":false,"is_disabled":false,"rental_uris":{"android":"levelo://app?vid=285cdc23-9bfd-4e0f-bfb5-40c37d83357f","ios":"levelo://app?vid=285cdc23-9bfd-4e0f-bfb5-40c37d83357f"},"vehicle_type_id":"4","last_reported":1723496923,"current_range_meters":10400,"station_id":"ce4bgl92rcd13ifvqbq0","pricing_plan_id":"cebpf4jnsgd1na2vs0mg"},{"bike_id":"a85b2223-c575-459d-bc2a-8279c5d66e54","system_id":"levelo_inurba_marseille","lat":43.312239,"lon":5.368562,"is_reserved":false,"is_disabled":false,"rental_uris":{"android":"levelo://app?vid=a85b2223-c575-459d-bc2a-8279c5d66e54","ios":"levelo://app?vid=a85b2223-c575-459d-bc2a-8279c5d66e54"},"vehicle_type_id":"4","last_reported":1723496923,"current_range_meters":24400,"station_id":"ce4bgl92rcd13ifvqbq0","pricing_plan_id":"cebpf4jnsgd1na2vs0mg"},{"bike_id":"1e58430f-ae40-4120-8c73-1607613062f1","system_id":"levelo_inurba_marseille","lat":43.312239,"lon":5.368562,"is_reserved":false,"is_disabled":false,"rental_uris":{"android":"levelo://app?vid=1e58430f-ae40-4120-8c73-1607613062f1","ios":"levelo://app?vid=1e58430f-ae40-4120-8c73-1607613062f1"},"vehicle_type_id":"4","last_reported":1723496923,"current_range_meters":24400,"station_id":"ce4bgl92rcd13ifvqbq0","pricing_plan_id":"cebpf4jnsgd1na2vs0mg"},{"bike_id":"b65a4e4b-08ee-4c33-9933-6913fc931382","system_id":"levelo_inurba_marseille","lat":43.312239,"lon":5.368562,"is_reserved":false,"is_disabled":false,"rental_uris":{"android":"levelo://app?vid=b65a4e4b-08ee-4c33-9933-6913fc931382","ios":"levelo://app?vid=b65a4e4b-08ee-4c33-9933-6913fc931382"},"vehicle_type_id":"4","last_reported":1723496923,"current_range_meters":6800,"station_id":"ce4bgl92rcd13ifvqbq0","pricing_plan_id":"cebpf4jnsgd1na2vs0mg"},{"bike_id":"75ac590d-0ed5-47ff-bb82-9ae08f392913","system_id":"levelo_inurba_marseille","lat":43.309076,"lon":5.368465,"is_reserved":false,"is_disabled":false,"rental_uris":{"android":"levelo://app?vid=75ac590d-0ed5-47ff-bb82-9ae08f392913","ios":"levelo://app?vid=75ac590d-0ed5-47ff-bb82-9ae08f392913"},"vehicle_type_id":"4","last_reported":1723496923,"current_range_meters":29600,"station_id":"ce4bgn92rcd13ifvqbvg","pricing_plan_id":"cebpf4jnsgd1na2vs0mg"},{"bike_id":"a9992630-7268-4e7b-b3d4-7cc1b6751272","system_id":"levelo_inurba_marseille","lat":43.314811,"lon":5.373103,"is_reserved":false,"is_disabled":false,"rental_uris":{"android":"levelo://app?vid=a9992630-7268-4e7b-b3d4-7cc1b6751272","ios":"levelo://app?vid=a9992630-7268-4e7b-b3d4-7cc1b6751272"},"vehicle_type_id":"4","last_reported":1723496923,"current_range_meters":0,"station_id":"ce4bgt12rcd13ifvqcd0","pricing_plan_id":"cebpf4jnsgd1na2vs0mg"},{"bike_id":"1e81dc46-7251-42eb-8b8c-d83c1808e383","system_id":"levelo_inurba_marseille","lat":43.309039,"lon":5.371797,"is_reserved":false,"is_disabled":false,"rental_uris":{"android":"levelo://app?vid=1e81dc46-7251-42eb-8b8c-d83c1808e383","ios":"levelo://app?vid=1e81dc46-7251-42eb-8b8c-d83c1808e383"},"vehicle_type_id":"4","last_reported":1723496923,"current_range_meters":1600,"station_id":"ce4bguh2rcd13ifvqckg","pricing_plan_id":"cebpf4jnsgd1na2vs0mg"},{"bike_id":"71a95ffe-0700-4216-b6ea-7990c9a319fc","system_id":"levelo_inurba_marseille","lat":43.307869,"lon":5.376432,"is_reserved":false,"is_disabled":false,"rental_uris":{"android":"levelo://app?vid=71a95ffe-0700-4216-b6ea-7990c9a319fc","ios":"levelo://app?vid=71a95ffe-0700-4216-b6ea-7990c9a319fc"},"vehicle_type_id":"4","last_reported":1723496923,"current_range_meters":22800,"station_id":"ce4bgv92rcd13ifvqcq0","pricing_plan_id":"cebpf4jnsgd1na2vs0mg"},{"bike_id":"ba8ab5e6-0cd2-4b9a-b712-af431eba44bd","system_id":"levelo_inurba_marseille","lat":43.30786,"lon":5.3765,"is_reserved":false,"is_disabled":false,"rental_uris":{"android":"levelo://app?vid=ba8ab5e6-0cd2-4b9a-b712-af431eba44bd","ios":"levelo://app?vid=ba8ab5e6-0cd2-4b9a-b712-af431eba44bd"},"vehicle_type_id":"4","last_reported":1723496923,"current_range_meters":6000,"station_id":"ce4bgv92rcd13ifvqcq0","pricing_plan_id":"cebpf4jnsgd1na2vs0mg"},{"bike_id":"7d825e55-9435-4b74-99a7-d1f79858bb2d","system_id":"levelo_inurba_marseille","lat":43.307945,"lon":5.376487,"is_reserved":false,"is_disabled":false,"rental_uris":{"android":"levelo://app?vid=7d825e55-9435-4b74-99a7-d1f79858bb2d","ios":"levelo://app?vid=7d825e55-9435-4b74-99a7-d1f79858bb2d"},"vehicle_type_id":"4","last_reported":1723496923,"current_range_meters":6400,"station_id":"ce4bgv92rcd13ifvqcq0","pricing_plan_id":"cebpf4jnsgd1na2vs0mg"},{"bike_id":"4c497721-79eb-4158-aa50-4b48e50f9df3","system_id":"levelo_inurba_marseille","lat":43.30778,"lon":5.37652,"is_reserved":false,"is_disabled":false,"rental_uris":{"android":"levelo://app?vid=4c497721-79eb-4158-aa50-4b48e50f9df3","ios":"levelo://app?vid=4c497721-79eb-4158-aa50-4b48e50f9df3"},"vehicle_type_id":"4","last_reported":1723496923,"current_range_meters":19600,"station_id":"","pricing_plan_id":"cebpf4jnsgd1na2vs0mg"},{"bike_id":"1b3240fd-cb8c-430c-b5c2-16286a07b938","system_id":"levelo_inurba_marseille","lat":43.317075,"lon":5.377367,"is_reserved":false,"is_disabled":false,"rental_uris":{"android":"levelo://app?vid=1b3240fd-cb8c-430c-b5c2-16286a07b938","ios":"levelo://app?vid=1b3240fd-cb8c-430c-b5c2-16286a07b938"},"vehicle_type_id":"4","last_reported":1723496923,"current_range_meters":0,"station_id":"ce4bgth2rcd13ifvqch0","pricing_plan_id":"cebpf4jnsgd1na2vs0mg"},{"bike_id":"99ebb70c-b180-4860-b9ce-f7dcf559f7f2","system_id":"levelo_inurba_marseille","lat":43.317075,"lon":5.377367,"is_reserved":false,"is_disabled":false,"rental_uris":{"android":"levelo://app?vid=99ebb70c-b180-4860-b9ce-f7dcf559f7f2","ios":"levelo://app?vid=99ebb70c-b180-4860-b9ce-f7dcf559f7f2"},"vehicle_type_id":"4","last_reported":1723496923,"current_range_meters":30400,"station_id":"ce4bgth2rcd13ifvqch0","pricing_plan_id":"cebpf4jnsgd1na2vs0mg"},{"bike_id":"ec59cc1e-3bf0-4709-8399-5378374a0ac7","system_id":"levelo_inurba_marseille","lat":43.31711,"lon":5.3774,"is_reserved":false,"is_disabled":false,"rental_uris":{"android":"levelo://app?vid=ec59cc1e-3bf0-4709-8399-5378374a0ac7","ios":"levelo://app?vid=ec59cc1e-3bf0-4709-8399-5378374a0ac7"},"vehicle_type_id":"4","last_reported":1723496923,"current_range_meters":31600,"station_id":"","pricing_plan_id":"cebpf4jnsgd1na2vs0mg"},{"bike_id":"a777809c-2bde-4f7f-b775-aa4bda9c4ec1","system_id":"levelo_inurba_marseille","lat":43.30995,"lon":5.37947,"is_reserved":false,"is_disabled":false,"rental_uris":{"android":"levelo://app?vid=a777809c-2bde-4f7f-b775-aa4bda9c4ec1","ios":"levelo://app?vid=a777809c-2bde-4f7f-b775-aa4bda9c4ec1"},"vehicle_type_id":"4","last_reported":1723496923,"current_range_meters":29200,"station_id":"","pricing_plan_id":"cebpf4jnsgd1na2vs0mg"},{"bike_id":"b54fb166-5b41-4c1e-8467-9af2cc26849b","system_id":"levelo_inurba_marseille","lat":43.303046,"lon":5.368981,"is_reserved":false,"is_disabled":false,"rental_uris":{"android":"levelo://app?vid=b54fb166-5b41-4c1e-8467-9af2cc26849b","ios":"levelo://app?vid=b54fb166-5b41-4c1e-8467-9af2cc26849b"},"vehicle_type_id":"4","last_reported":1723496923,"current_range_meters":23600,"station_id":"ce4bgqh2rcd13ifvqc5g","pricing_plan_id":"cebpf4jnsgd1na2vs0mg"},{"bike_id":"e43d9e2c-9d56-4741-96c8-9ef311a5fe37","system_id":"levelo_inurba_marseille","lat":43.308691,"lon":5.379047,"is_reserved":false,"is_disabled":false,"rental_uris":{"android":"levelo://app?vid=e43d9e2c-9d56-4741-96c8-9ef311a5fe37","ios":"levelo://app?vid=e43d9e2c-9d56-4741-96c8-9ef311a5fe37"},"vehicle_type_id":"4","last_reported":1723496923,"current_range_meters":19200,"station_id":"","pricing_plan_id":"cebpf4jnsgd1na2vs0mg"},{"bike_id":"4d80e100-12fb-4ca1-8f00-9f741af6a400","system_id":"levelo_inurba_marseille","lat":43.303046,"lon":5.368981,"is_reserved":false,"is_disabled":false,"rental_uris":{"android":"levelo://app?vid=4d80e100-12fb-4ca1-8f00-9f741af6a400","ios":"levelo://app?vid=4d80e100-12fb-4ca1-8f00-9f741af6a400"},"vehicle_type_id":"4","last_reported":1723496923,"current_range_meters":19600,"station_id":"ce4bgqh2rcd13ifvqc5g","pricing_plan_id":"cebpf4jnsgd1na2vs0mg"},{"bike_id":"d4941bed-d7a5-4f00-abba-580baaf484b7","system_id":"levelo_inurba_marseille","lat":43.315289,"lon":5.380349,"is_reserved":false,"is_disabled":false,"rental_uris":{"android":"levelo://app?vid=d4941bed-d7a5-4f00-abba-580baaf484b7","ios":"levelo://app?vid=d4941bed-d7a5-4f00-abba-580baaf484b7"},"vehicle_type_id":"4","last_reported":1723496923,"current_range_meters":30400,"station_id":"ce4bhsp2rcd13ifvqi50","pricing_plan_id":"cebpf4jnsgd1na2vs0mg"},{"bike_id":"fb44fd25-a998-458e-9b98-bb402ab7637b","system_id":"levelo_inurba_marseille","lat":43.30788,"lon":5.38163,"is_reserved":false,"is_disabled":false,"rental_uris":{"android":"levelo://app?vid=fb44fd25-a998-458e-9b98-bb402ab7637b","ios":"levelo://app?vid=fb44fd25-a998-458e-9b98-bb402ab7637b"},"vehicle_type_id":"4","last_reported":1723496923,"current_range_meters":16400,"station_id":"ce4bgt12rcd13ifvqce0","pricing_plan_id":"cebpf4jnsgd1na2vs0mg"},{"bike_id":"a3a134fb-8c12-45f9-ab85-8910c18e48bc","system_id":"levelo_inurba_marseille","lat":43.324771,"lon":5.36557,"is_reserved":false,"is_disabled":false,"rental_uris":{"android":"levelo://app?vid=a3a134fb-8c12-45f9-ab85-8910c18e48bc","ios":"levelo://app?vid=a3a134fb-8c12-45f9-ab85-8910c18e48bc"},"vehicle_type_id":"4","last_reported":1723496923,"current_range_meters":14800,"station_id":"ce4bhs12rcd13ifvqhvg","pricing_plan_id":"cebpf4jnsgd1na2vs0mg"},{"bike_id":"e26ff339-8dda-47c5-9554-73751644bfdc","system_id":"levelo_inurba_marseille","lat":43.324771,"lon":5.36557,"is_reserved":false,"is_disabled":false,"rental_uris":{"android":"levelo://app?vid=e26ff339-8dda-47c5-9554-73751644bfdc","ios":"levelo://app?vid=e26ff339-8dda-47c5-9554-73751644bfdc"},"vehicle_type_id":"4","last_reported":1723496923,"current_range_meters":31200,"station_id":"ce4bhs12rcd13ifvqhvg","pricing_plan_id":"cebpf4jnsgd1na2vs0mg"},{"bike_id":"55b7ff80-d183-43f9-8ad1-98259ae13231","system_id":"levelo_inurba_marseille","lat":43.31048,"lon":5.38319,"is_reserved":false,"is_disabled":false,"rental_uris":{"android":"levelo://app?vid=55b7ff80-d183-43f9-8ad1-98259ae13231","ios":"levelo://app?vid=55b7ff80-d183-43f9-8ad1-98259ae13231"},"vehicle_type_id":"4","last_reported":1723496923,"current_range_meters":30800,"station_id":"ce4bgv92rcd13ifvqcr0","pricing_plan_id":"cebpf4jnsgd1na2vs0mg"},{"bike_id":"5bfd8e36-e96d-48a7-bf3e-62ca9145e01d","system_id":"levelo_inurba_marseille","lat":43.324771,"lon":5.36557,"is_reserved":false,"is_disabled":false,"rental_uris":{"android":"levelo://app?vid=5bfd8e36-e96d-48a7-bf3e-62ca9145e01d","ios":"levelo://app?vid=5bfd8e36-e96d-48a7-bf3e-62ca9145e01d"},"vehicle_type_id":"4","last_reported":1723496923,"current_range_meters":7200,"station_id":"ce4bhs12rcd13ifvqhvg","pricing_plan_id":"cebpf4jnsgd1na2vs0mg"},{"bike_id":"1f68f981-5a64-4c89-88fe-dffdb0ae2210","system_id":"levelo_inurba_marseille","lat":43.324771,"lon":5.36557,"is_reserved":false,"is_disabled":false,"rental_uris":{"android":"levelo://app?vid=1f68f981-5a64-4c89-88fe-dffdb0ae2210","ios":"levelo://app?vid=1f68f981-5a64-4c89-88fe-dffdb0ae2210"},"vehicle_type_id":"4","last_reported":1723496923,"current_range_meters":24800,"station_id":"ce4bhs12rcd13ifvqhvg","pricing_plan_id":"cebpf4jnsgd1na2vs0mg"},{"bike_id":"8c98dfe9-b716-4aa2-929a-9703cb95d0f2","system_id":"levelo_inurba_marseille","lat":43.324771,"lon":5.36557,"is_reserved":false,"is_disabled":false,"rental_uris":{"android":"levelo://app?vid=8c98dfe9-b716-4aa2-929a-9703cb95d0f2","ios":"levelo://app?vid=8c98dfe9-b716-4aa2-929a-9703cb95d0f2"},"vehicle_type_id":"4","last_reported":1723496923,"current_range_meters":18400,"station_id":"ce4bhs12rcd13ifvqhvg","pricing_plan_id":"cebpf4jnsgd1na2vs0mg"},{"bike_id":"c2de56f7-4a2c-4ba3-97bc-1091bb114208","system_id":"levelo_inurba_marseille","lat":43.324771,"lon":5.36557,"is_reserved":false,"is_disabled":false,"rental_uris":{"android":"levelo://app?vid=c2de56f7-4a2c-4ba3-97bc-1091bb114208","ios":"levelo://app?vid=c2de56f7-4a2c-4ba3-97bc-1091bb114208"},"vehicle_type_id":"4","last_reported":1723496923,"current_range_meters":14400,"station_id":"ce4bhs12rcd13ifvqhvg","pricing_plan_id":"cebpf4jnsgd1na2vs0mg"},{"bike_id":"ab9b9637-d344-4ba5-bad1-3ff67e25f0a6","system_id":"levelo_inurba_marseille","lat":43.324771,"lon":5.36557,"is_reserved":false,"is_disabled":false,"rental_uris":{"android":"levelo://app?vid=ab9b9637-d344-4ba5-bad1-3ff67e25f0a6","ios":"levelo://app?vid=ab9b9637-d344-4ba5-bad1-3ff67e25f0a6"},"vehicle_type_id":"4","last_reported":1723496923,"current_range_meters":13200,"station_id":"ce4bhs12rcd13ifvqhvg","pricing_plan_id":"cebpf4jnsgd1na2vs0mg"},{"bike_id":"ef8e40aa-4990-4922-a5e4-2bf3cd18334a","system_id":"levelo_inurba_marseille","lat":43.324771,"lon":5.36557,"is_reserved":false,"is_disabled":false,"rental_uris":{"android":"levelo://app?vid=ef8e40aa-4990-4922-a5e4-2bf3cd18334a","ios":"levelo://app?vid=ef8e40aa-4990-4922-a5e4-2bf3cd18334a"},"vehicle_type_id":"4","last_reported":1723496923,"current_range_meters":10000,"station_id":"ce4bhs12rcd13ifvqhvg","pricing_plan_id":"cebpf4jnsgd1na2vs0mg"},{"bike_id":"f692e9ef-7283-49f0-8b56-acfff3aaa772","system_id":"levelo_inurba_marseille","lat":43.324771,"lon":5.36557,"is_reserved":false,"is_disabled":false,"rental_uris":{"android":"levelo://app?vid=f692e9ef-7283-49f0-8b56-acfff3aaa772","ios":"levelo://app?vid=f692e9ef-7283-49f0-8b56-acfff3aaa772"},"vehicle_type_id":"4","last_reported":1723496923,"current_range_meters":26800,"station_id":"ce4bhs12rcd13ifvqhvg","pricing_plan_id":"cebpf4jnsgd1na2vs0mg"},{"bike_id":"b23d956e-89e7-428a-9e46-09bacc32c3f9","system_id":"levelo_inurba_marseille","lat":43.324771,"lon":5.36557,"is_reserved":false,"is_disabled":false,"rental_uris":{"android":"levelo://app?vid=b23d956e-89e7-428a-9e46-09bacc32c3f9","ios":"levelo://app?vid=b23d956e-89e7-428a-9e46-09bacc32c3f9"},"vehicle_type_id":"4","last_reported":1723496923,"current_range_meters":22400,"station_id":"ce4bhs12rcd13ifvqhvg","pricing_plan_id":"cebpf4jnsgd1na2vs0mg"},{"bike_id":"5a1f27a2-b0a2-4173-99f3-538337df1992","system_id":"levelo_inurba_marseille","lat":43.310804,"lon":5.38359,"is_reserved":false,"is_disabled":false,"rental_uris":{"android":"levelo://app?vid=5a1f27a2-b0a2-4173-99f3-538337df1992","ios":"levelo://app?vid=5a1f27a2-b0a2-4173-99f3-538337df1992"},"vehicle_type_id":"4","last_reported":1723496923,"current_range_meters":14400,"station_id":"ce4bgv92rcd13ifvqcr0","pricing_plan_id":"cebpf4jnsgd1na2vs0mg"},{"bike_id":"dbc8613d-a36b-44e8-95f0-9f904d8f42db","system_id":"levelo_inurba_marseille","lat":43.31077,"lon":5.38352,"is_reserved":false,"is_disabled":false,"rental_uris":{"android":"levelo://app?vid=dbc8613d-a36b-44e8-95f0-9f904d8f42db","ios":"levelo://app?vid=dbc8613d-a36b-44e8-95f0-9f904d8f42db"},"vehicle_type_id":"4","last_reported":1723496923,"current_range_meters":5200,"station_id":"ce4bgv92rcd13ifvqcr0","pricing_plan_id":"cebpf4jnsgd1na2vs0mg"},{"bike_id":"d1d0b087-a9d5-4336-bc0e-d7fa15adb032","system_id":"levelo_inurba_marseille","lat":43.310804,"lon":5.38359,"is_reserved":false,"is_disabled":false,"rental_uris":{"android":"levelo://app?vid=d1d0b087-a9d5-4336-bc0e-d7fa15adb032","ios":"levelo://app?vid=d1d0b087-a9d5-4336-bc0e-d7fa15adb032"},"vehicle_type_id":"4","last_reported":1723496923,"current_range_meters":5200,"station_id":"ce4bgv92rcd13ifvqcr0","pricing_plan_id":"cebpf4jnsgd1na2vs0mg"},{"bike_id":"1c9fb37a-2c1c-46e3-922c-ca3588cae9d3","system_id":"levelo_inurba_marseille","lat":43.301429,"lon":5.37413,"is_reserved":false,"is_disabled":false,"rental_uris":{"android":"levelo://app?vid=1c9fb37a-2c1c-46e3-922c-ca3588cae9d3","ios":"levelo://app?vid=1c9fb37a-2c1c-46e3-922c-ca3588cae9d3"},"vehicle_type_id":"4","last_reported":1723496923,"current_range_meters":24400,"station_id":"ce4bgs92rcd13ifvqcc0","pricing_plan_id":"cebpf4jnsgd1na2vs0mg"},{"bike_id":"b2245de5-5f52-413e-853a-d1da03e9b097","system_id":"levelo_inurba_marseille","lat":43.30612,"lon":5.38149,"is_reserved":false,"is_disabled":false,"rental_uris":{"android":"levelo://app?vid=b2245de5-5f52-413e-853a-d1da03e9b097","ios":"levelo://app?vid=b2245de5-5f52-413e-853a-d1da03e9b097"},"vehicle_type_id":"4","last_reported":1723496923,"current_range_meters":20400,"station_id":"","pricing_plan_id":"cebpf4jnsgd1na2vs0mg"},{"bike_id":"f6432cf8-e63b-455e-8a30-2446de4beb5e","system_id":"levelo_inurba_marseille","lat":43.301429,"lon":5.37413,"is_reserved":false,"is_disabled":false,"rental_uris":{"android":"levelo://app?vid=f6432cf8-e63b-455e-8a30-2446de4beb5e","ios":"levelo://app?vid=f6432cf8-e63b-455e-8a30-2446de4beb5e"},"vehicle_type_id":"4","last_reported":1723496923,"current_range_meters":25600,"station_id":"ce4bgs92rcd13ifvqcc0","pricing_plan_id":"cebpf4jnsgd1na2vs0mg"},{"bike_id":"af1fc654-00fb-4ce0-85f2-6991face75ea","system_id":"levelo_inurba_marseille","lat":43.301429,"lon":5.37413,"is_reserved":false,"is_disabled":false,"rental_uris":{"android":"levelo://app?vid=af1fc654-00fb-4ce0-85f2-6991face75ea","ios":"levelo://app?vid=af1fc654-00fb-4ce0-85f2-6991face75ea"},"vehicle_type_id":"4","last_reported":1723496923,"current_range_meters":12400,"station_id":"ce4bgs92rcd13ifvqcc0","pricing_plan_id":"cebpf4jnsgd1na2vs0mg"},{"bike_id":"02c9dd0b-9bd8-4ac8-a213-24400626f233","system_id":"levelo_inurba_marseille","lat":43.319935,"lon":5.381699,"is_reserved":false,"is_disabled":false,"rental_uris":{"android":"levelo://app?vid=02c9dd0b-9bd8-4ac8-a213-24400626f233","ios":"levelo://app?vid=02c9dd0b-9bd8-4ac8-a213-24400626f233"},"vehicle_type_id":"4","last_reported":1723496923,"current_range_meters":31600,"station_id":"ce4bhr12rcd13ifvqhpg","pricing_plan_id":"cebpf4jnsgd1na2vs0mg"},{"bike_id":"c6027860-74df-4ab4-93f9-a98aa64c5525","system_id":"levelo_inurba_marseille","lat":43.31997,"lon":5.38163,"is_reserved":false,"is_disabled":false,"rental_uris":{"android":"levelo://app?vid=c6027860-74df-4ab4-93f9-a98aa64c5525","ios":"levelo://app?vid=c6027860-74df-4ab4-93f9-a98aa64c5525"},"vehicle_type_id":"4","last_reported":1723496923,"current_range_meters":0,"station_id":"ce4bhr12rcd13ifvqhpg","pricing_plan_id":"cebpf4jnsgd1na2vs0mg"},{"bike_id":"4b1ef414-7887-45cd-8cf3-3773ffda85e9","system_id":"levelo_inurba_marseille","lat":43.313571,"lon":5.384829,"is_reserved":false,"is_disabled":false,"rental_uris":{"android":"levelo://app?vid=4b1ef414-7887-45cd-8cf3-3773ffda85e9","ios":"levelo://app?vid=4b1ef414-7887-45cd-8cf3-3773ffda85e9"},"vehicle_type_id":"4","last_reported":1723496923,"current_range_meters":7600,"station_id":"ce4bgt92rcd13ifvqcf0","pricing_plan_id":"cebpf4jnsgd1na2vs0mg"},{"bike_id":"b6faeb52-b832-49ac-8123-1fed668bece2","system_id":"levelo_inurba_marseille","lat":43.313571,"lon":5.384829,"is_reserved":false,"is_disabled":false,"rental_uris":{"android":"levelo://app?vid=b6faeb52-b832-49ac-8123-1fed668bece2","ios":"levelo://app?vid=b6faeb52-b832-49ac-8123-1fed668bece2"},"vehicle_type_id":"4","last_reported":1723496923,"current_range_meters":15200,"station_id":"ce4bgt92rcd13ifvqcf0","pricing_plan_id":"cebpf4jnsgd1na2vs0mg"},{"bike_id":"573dc77f-56f3-4816-bd8b-374f952cda56","system_id":"levelo_inurba_marseille","lat":43.313571,"lon":5.384829,"is_reserved":false,"is_disabled":false,"rental_uris":{"android":"levelo://app?vid=573dc77f-56f3-4816-bd8b-374f952cda56","ios":"levelo://app?vid=573dc77f-56f3-4816-bd8b-374f952cda56"},"vehicle_type_id":"4","last_reported":1723496923,"current_range_meters":30000,"station_id":"ce4bgt92rcd13ifvqcf0","pricing_plan_id":"cebpf4jnsgd1na2vs0mg"},{"bike_id":"fe4694ac-b5f3-4abb-b744-606b54beefbf","system_id":"levelo_inurba_marseille","lat":43.313636,"lon":5.385004,"is_reserved":false,"is_disabled":false,"rental_uris":{"android":"levelo://app?vid=fe4694ac-b5f3-4abb-b744-606b54beefbf","ios":"levelo://app?vid=fe4694ac-b5f3-4abb-b744-606b54beefbf"},"vehicle_type_id":"4","last_reported":1723496923,"current_range_meters":25600,"station_id":"ce4bgt92rcd13ifvqcf0","pricing_plan_id":"cebpf4jnsgd1na2vs0mg"},{"bike_id":"6a4c771e-ffde-48f4-9abe-6c4b26bb07c2","system_id":"levelo_inurba_marseille","lat":43.305364,"lon":5.384119,"is_reserved":false,"is_disabled":false,"rental_uris":{"android":"levelo://app?vid=6a4c771e-ffde-48f4-9abe-6c4b26bb07c2","ios":"levelo://app?vid=6a4c771e-ffde-48f4-9abe-6c4b26bb07c2"},"vehicle_type_id":"4","last_reported":1723496923,"current_range_meters":6400,"station_id":"ce4bgg92rcd13ifvqb30","pricing_plan_id":"cebpf4jnsgd1na2vs0mg"},{"bike_id":"f975603c-7349-43e4-b2b3-ef8a8fee65ac","system_id":"levelo_inurba_marseille","lat":43.298497,"lon":5.362847,"is_reserved":false,"is_disabled":false,"rental_uris":{"android":"levelo://app?vid=f975603c-7349-43e4-b2b3-ef8a8fee65ac","ios":"levelo://app?vid=f975603c-7349-43e4-b2b3-ef8a8fee65ac"},"vehicle_type_id":"4","last_reported":1723496923,"current_range_meters":0,"station_id":"ce4bgpp2rcd13ifvqc3g","pricing_plan_id":"cebpf4jnsgd1na2vs0mg"},{"bike_id":"7264af4e-6c3a-4b7c-94ee-89480bd36397","system_id":"levelo_inurba_marseille","lat":43.299243,"lon":5.37481,"is_reserved":false,"is_disabled":false,"rental_uris":{"android":"levelo://app?vid=7264af4e-6c3a-4b7c-94ee-89480bd36397","ios":"levelo://app?vid=7264af4e-6c3a-4b7c-94ee-89480bd36397"},"vehicle_type_id":"4","last_reported":1723496923,"current_range_meters":26400,"station_id":"ce4bgjh2rcd13ifvqbg0","pricing_plan_id":"cebpf4jnsgd1na2vs0mg"},{"bike_id":"0f57b7f2-bb48-42d3-b44d-ce84d0086e76","system_id":"levelo_inurba_marseille","lat":43.311722,"lon":5.387247,"is_reserved":false,"is_disabled":false,"rental_uris":{"android":"levelo://app?vid=0f57b7f2-bb48-42d3-b44d-ce84d0086e76","ios":"levelo://app?vid=0f57b7f2-bb48-42d3-b44d-ce84d0086e76"},"vehicle_type_id":"4","last_reported":1723496923,"current_range_meters":15200,"station_id":"ce4bgv12rcd13ifvqcp0","pricing_plan_id":"cebpf4jnsgd1na2vs0mg"},{"bike_id":"fccc26dd-30dc-41a7-89f9-0b0f1733b4a8","system_id":"levelo_inurba_marseille","lat":43.311722,"lon":5.387247,"is_reserved":false,"is_disabled":false,"rental_uris":{"android":"levelo://app?vid=fccc26dd-30dc-41a7-89f9-0b0f1733b4a8","ios":"levelo://app?vid=fccc26dd-30dc-41a7-89f9-0b0f1733b4a8"},"vehicle_type_id":"4","last_reported":1723496923,"current_range_meters":0,"station_id":"ce4bgv12rcd13ifvqcp0","pricing_plan_id":"cebpf4jnsgd1na2vs0mg"},{"bike_id":"e444f464-b21a-40c0-901b-fab418e60e1b","system_id":"levelo_inurba_marseille","lat":43.299243,"lon":5.37481,"is_reserved":false,"is_disabled":false,"rental_uris":{"android":"levelo://app?vid=e444f464-b21a-40c0-901b-fab418e60e1b","ios":"levelo://app?vid=e444f464-b21a-40c0-901b-fab418e60e1b"},"vehicle_type_id":"4","last_reported":1723496923,"current_range_meters":12800,"station_id":"ce4bgjh2rcd13ifvqbg0","pricing_plan_id":"cebpf4jnsgd1na2vs0mg"},{"bike_id":"a2e86810-6e93-47ea-bff2-765789434bba","system_id":"levelo_inurba_marseille","lat":43.311722,"lon":5.387247,"is_reserved":false,"is_disabled":false,"rental_uris":{"android":"levelo://app?vid=a2e86810-6e93-47ea-bff2-765789434bba","ios":"levelo://app?vid=a2e86810-6e93-47ea-bff2-765789434bba"},"vehicle_type_id":"4","last_reported":1723496923,"current_range_meters":18000,"station_id":"ce4bgv12rcd13ifvqcp0","pricing_plan_id":"cebpf4jnsgd1na2vs0mg"},{"bike_id":"ee1abed7-bc3c-44da-85eb-ad4e538b2f23","system_id":"levelo_inurba_marseille","lat":43.311722,"lon":5.387247,"is_reserved":false,"is_disabled":false,"rental_uris":{"android":"levelo://app?vid=ee1abed7-bc3c-44da-85eb-ad4e538b2f23","ios":"levelo://app?vid=ee1abed7-bc3c-44da-85eb-ad4e538b2f23"},"vehicle_type_id":"4","last_reported":1723496923,"current_range_meters":26800,"station_id":"ce4bgv12rcd13ifvqcp0","pricing_plan_id":"cebpf4jnsgd1na2vs0mg"},{"bike_id":"741339b6-672d-4eb2-8b67-c598191f0ff1","system_id":"levelo_inurba_marseille","lat":43.311722,"lon":5.387247,"is_reserved":false,"is_disabled":false,"rental_uris":{"android":"levelo://app?vid=741339b6-672d-4eb2-8b67-c598191f0ff1","ios":"levelo://app?vid=741339b6-672d-4eb2-8b67-c598191f0ff1"},"vehicle_type_id":"4","last_reported":1723496923,"current_range_meters":7600,"station_id":"ce4bgv12rcd13ifvqcp0","pricing_plan_id":"cebpf4jnsgd1na2vs0mg"},{"bike_id":"3e315c03-bb88-4419-a1bb-0cce4e0eaae7","system_id":"levelo_inurba_marseille","lat":43.322872,"lon":5.382756,"is_reserved":false,"is_disabled":false,"rental_uris":{"android":"levelo://app?vid=3e315c03-bb88-4419-a1bb-0cce4e0eaae7","ios":"levelo://app?vid=3e315c03-bb88-4419-a1bb-0cce4e0eaae7"},"vehicle_type_id":"4","last_reported":1723496923,"current_range_meters":27600,"station_id":"ce4bhr12rcd13ifvqhqg","pricing_plan_id":"cebpf4jnsgd1na2vs0mg"},{"bike_id":"bfb5024a-4052-4a78-b3f7-736eccea99b0","system_id":"levelo_inurba_marseille","lat":43.297163,"lon":5.365866,"is_reserved":false,"is_disabled":false,"rental_uris":{"android":"levelo://app?vid=bfb5024a-4052-4a78-b3f7-736eccea99b0","ios":"levelo://app?vid=bfb5024a-4052-4a78-b3f7-736eccea99b0"},"vehicle_type_id":"4","last_reported":1723496923,"current_range_meters":26800,"station_id":"ce4bgn12rcd13ifvqbt0","pricing_plan_id":"cebpf4jnsgd1na2vs0mg"},{"bike_id":"37cdd66b-5b0b-4141-a43f-f4a6c81786b4","system_id":"levelo_inurba_marseille","lat":43.305853,"lon":5.386887,"is_reserved":false,"is_disabled":false,"rental_uris":{"android":"levelo://app?vid=37cdd66b-5b0b-4141-a43f-f4a6c81786b4","ios":"levelo://app?vid=37cdd66b-5b0b-4141-a43f-f4a6c81786b4"},"vehicle_type_id":"4","last_reported":1723496923,"current_range_meters":0,"station_id":"ce4bh2h2rcd13ifvqdh0","pricing_plan_id":"cebpf4jnsgd1na2vs0mg"},{"bike_id":"aeec4916-b49a-4dfa-8b33-bd84b40c8910","system_id":"levelo_inurba_marseille","lat":43.2968,"lon":5.37291,"is_reserved":false,"is_disabled":false,"rental_uris":{"android":"levelo://app?vid=aeec4916-b49a-4dfa-8b33-bd84b40c8910","ios":"levelo://app?vid=aeec4916-b49a-4dfa-8b33-bd84b40c8910"},"vehicle_type_id":"4","last_reported":1723496923,"current_range_meters":23200,"station_id":"ce4bgk12rcd13ifvqbj0","pricing_plan_id":"cebpf4jnsgd1na2vs0mg"},{"bike_id":"abc8c46e-ddb5-4cd4-8dad-a01456a51803","system_id":"levelo_inurba_marseille","lat":43.309589,"lon":5.390258,"is_reserved":false,"is_disabled":false,"rental_uris":{"android":"levelo://app?vid=abc8c46e-ddb5-4cd4-8dad-a01456a51803","ios":"levelo://app?vid=abc8c46e-ddb5-4cd4-8dad-a01456a51803"},"vehicle_type_id":"4","last_reported":1723496923,"current_range_meters":12000,"station_id":"ce4bgup2rcd13ifvqco0","pricing_plan_id":"cebpf4jnsgd1na2vs0mg"},{"bike_id":"b63036e6-61ee-4911-905a-6029fdb953f6","system_id":"levelo_inurba_marseille","lat":43.299028,"lon":5.381509,"is_reserved":false,"is_disabled":false,"rental_uris":{"android":"levelo://app?vid=b63036e6-61ee-4911-905a-6029fdb953f6","ios":"levelo://app?vid=b63036e6-61ee-4911-905a-6029fdb953f6"},"vehicle_type_id":"4","last_reported":1723496923,"current_range_meters":14000,"station_id":"ce4bgj12rcd13ifvqbc0","pricing_plan_id":"cebpf4jnsgd1na2vs0mg"},{"bike_id":"15e927fb-3a3a-4c20-be42-d161be6de745","system_id":"levelo_inurba_marseille","lat":43.309589,"lon":5.390258,"is_reserved":false,"is_disabled":false,"rental_uris":{"android":"levelo://app?vid=15e927fb-3a3a-4c20-be42-d161be6de745","ios":"levelo://app?vid=15e927fb-3a3a-4c20-be42-d161be6de745"},"vehicle_type_id":"4","last_reported":1723496923,"current_range_meters":28800,"station_id":"ce4bgup2rcd13ifvqco0","pricing_plan_id":"cebpf4jnsgd1na2vs0mg"},{"bike_id":"8a180877-a40d-47c8-a7af-1e92d66369f5","system_id":"levelo_inurba_marseille","lat":43.309589,"lon":5.390258,"is_reserved":false,"is_disabled":false,"rental_uris":{"android":"levelo://app?vid=8a180877-a40d-47c8-a7af-1e92d66369f5","ios":"levelo://app?vid=8a180877-a40d-47c8-a7af-1e92d66369f5"},"vehicle_type_id":"4","last_reported":1723496923,"current_range_meters":17600,"station_id":"ce4bgup2rcd13ifvqco0","pricing_plan_id":"cebpf4jnsgd1na2vs0mg"},{"bike_id":"9e386b9f-4961-4d90-baed-bb345e6ffc07","system_id":"levelo_inurba_marseille","lat":43.309589,"lon":5.390258,"is_reserved":false,"is_disabled":false,"rental_uris":{"android":"levelo://app?vid=9e386b9f-4961-4d90-baed-bb345e6ffc07","ios":"levelo://app?vid=9e386b9f-4961-4d90-baed-bb345e6ffc07"},"vehicle_type_id":"4","last_reported":1723496923,"current_range_meters":26400,"station_id":"ce4bgup2rcd13ifvqco0","pricing_plan_id":"cebpf4jnsgd1na2vs0mg"},{"bike_id":"551e3da2-4327-4b66-b1f2-0bd3d89a8a6e","system_id":"levelo_inurba_marseille","lat":43.317557,"lon":5.390173,"is_reserved":false,"is_disabled":false,"rental_uris":{"android":"levelo://app?vid=551e3da2-4327-4b66-b1f2-0bd3d89a8a6e","ios":"levelo://app?vid=551e3da2-4327-4b66-b1f2-0bd3d89a8a6e"},"vehicle_type_id":"4","last_reported":1723496923,"current_range_meters":15200,"station_id":"ce4bhqp2rcd13ifvqhng","pricing_plan_id":"cebpf4jnsgd1na2vs0mg"},{"bike_id":"7616d157-9395-48b3-8b86-6d62acea177f","system_id":"levelo_inurba_marseille","lat":43.317557,"lon":5.390173,"is_reserved":false,"is_disabled":false,"rental_uris":{"android":"levelo://app?vid=7616d157-9395-48b3-8b86-6d62acea177f","ios":"levelo://app?vid=7616d157-9395-48b3-8b86-6d62acea177f"},"vehicle_type_id":"4","last_reported":1723496923,"current_range_meters":30000,"station_id":"ce4bhqp2rcd13ifvqhng","pricing_plan_id":"cebpf4jnsgd1na2vs0mg"},{"bike_id":"8823d6eb-fc55-4840-91ef-4e1f77002655","system_id":"levelo_inurba_marseille","lat":43.317557,"lon":5.390173,"is_reserved":false,"is_disabled":false,"rental_uris":{"android":"levelo://app?vid=8823d6eb-fc55-4840-91ef-4e1f77002655","ios":"levelo://app?vid=8823d6eb-fc55-4840-91ef-4e1f77002655"},"vehicle_type_id":"4","last_reported":1723496923,"current_range_meters":5200,"station_id":"ce4bhqp2rcd13ifvqhng","pricing_plan_id":"cebpf4jnsgd1na2vs0mg"},{"bike_id":"ee60cf92-a5fc-4445-aeb3-28b8bf97d121","system_id":"levelo_inurba_marseille","lat":43.31759,"lon":5.39025,"is_reserved":false,"is_disabled":false,"rental_uris":{"android":"levelo://app?vid=ee60cf92-a5fc-4445-aeb3-28b8bf97d121","ios":"levelo://app?vid=ee60cf92-a5fc-4445-aeb3-28b8bf97d121"},"vehicle_type_id":"4","last_reported":1723496923,"current_range_meters":29600,"station_id":"ce4bhqp2rcd13ifvqhng","pricing_plan_id":"cebpf4jnsgd1na2vs0mg"},{"bike_id":"59941097-33f8-47f8-ab88-83c14e0d09cc","system_id":"levelo_inurba_marseille","lat":43.29982,"lon":5.38479,"is_reserved":false,"is_disabled":false,"rental_uris":{"android":"levelo://app?vid=59941097-33f8-47f8-ab88-83c14e0d09cc","ios":"levelo://app?vid=59941097-33f8-47f8-ab88-83c14e0d09cc"},"vehicle_type_id":"4","last_reported":1723496923,"current_range_meters":26400,"station_id":"ce4bgj92rcd13ifvqbd0","pricing_plan_id":"cebpf4jnsgd1na2vs0mg"},{"bike_id":"fbbb5242-5f25-4302-a232-38baa700cb9e","system_id":"levelo_inurba_marseille","lat":43.304606,"lon":5.379026,"is_reserved":false,"is_disabled":false,"rental_uris":{"android":"levelo://app?vid=fbbb5242-5f25-4302-a232-38baa700cb9e","ios":"levelo://app?vid=fbbb5242-5f25-4302-a232-38baa700cb9e"},"vehicle_type_id":"4","last_reported":1723496923,"current_range_meters":21200,"station_id":"ce4bgup2rcd13ifvqcn0","pricing_plan_id":"cebpf4jnsgd1na2vs0mg"},{"bike_id":"c5da9a15-6816-4f8c-bb6a-2052975137d6","system_id":"levelo_inurba_marseille","lat":43.299707,"lon":5.384859,"is_reserved":false,"is_disabled":false,"rental_uris":{"android":"levelo://app?vid=c5da9a15-6816-4f8c-bb6a-2052975137d6","ios":"levelo://app?vid=c5da9a15-6816-4f8c-bb6a-2052975137d6"},"vehicle_type_id":"4","last_reported":1723496923,"current_range_meters":12000,"station_id":"ce4bgj92rcd13ifvqbd0","pricing_plan_id":"cebpf4jnsgd1na2vs0mg"},{"bike_id":"599d326e-744f-487c-891e-6826e7937cd1","system_id":"levelo_inurba_marseille","lat":43.299724,"lon":5.384848,"is_reserved":false,"is_disabled":false,"rental_uris":{"android":"levelo://app?vid=599d326e-744f-487c-891e-6826e7937cd1","ios":"levelo://app?vid=599d326e-744f-487c-891e-6826e7937cd1"},"vehicle_type_id":"4","last_reported":1723496923,"current_range_meters":28800,"station_id":"ce4bgj92rcd13ifvqbd0","pricing_plan_id":"cebpf4jnsgd1na2vs0mg"},{"bike_id":"bab419d1-16c3-4183-a9c4-0090366005e0","system_id":"levelo_inurba_marseille","lat":43.30131,"lon":5.38765,"is_reserved":false,"is_disabled":false,"rental_uris":{"android":"levelo://app?vid=bab419d1-16c3-4183-a9c4-0090366005e0","ios":"levelo://app?vid=bab419d1-16c3-4183-a9c4-0090366005e0"},"vehicle_type_id":"4","last_reported":1723496923,"current_range_meters":0,"station_id":"ce4bghh2rcd13ifvqb60","pricing_plan_id":"cebpf4jnsgd1na2vs0mg"},{"bike_id":"cbdcb4f7-9950-4c6a-bec7-54c8353795b6","system_id":"levelo_inurba_marseille","lat":43.29456,"lon":5.37431,"is_reserved":false,"is_disabled":false,"rental_uris":{"android":"levelo://app?vid=cbdcb4f7-9950-4c6a-bec7-54c8353795b6","ios":"levelo://app?vid=cbdcb4f7-9950-4c6a-bec7-54c8353795b6"},"vehicle_type_id":"4","last_reported":1723496923,"current_range_meters":18000,"station_id":"","pricing_plan_id":"cebpf4jnsgd1na2vs0mg"},{"bike_id":"e635bd85-97e8-4161-8564-d56ae231eec1","system_id":"levelo_inurba_marseille","lat":43.3014,"lon":5.38788,"is_reserved":false,"is_disabled":false,"rental_uris":{"android":"levelo://app?vid=e635bd85-97e8-4161-8564-d56ae231eec1","ios":"levelo://app?vid=e635bd85-97e8-4161-8564-d56ae231eec1"},"vehicle_type_id":"4","last_reported":1723496923,"current_range_meters":0,"station_id":"ce4bghh2rcd13ifvqb60","pricing_plan_id":"cebpf4jnsgd1na2vs0mg"},{"bike_id":"2aa5a390-65ea-46a2-b3d0-7fa7bfb4c62f","system_id":"levelo_inurba_marseille","lat":43.32366,"lon":5.3888,"is_reserved":false,"is_disabled":false,"rental_uris":{"android":"levelo://app?vid=2aa5a390-65ea-46a2-b3d0-7fa7bfb4c62f","ios":"levelo://app?vid=2aa5a390-65ea-46a2-b3d0-7fa7bfb4c62f"},"vehicle_type_id":"4","last_reported":1723496923,"current_range_meters":19600,"station_id":"ce4bhqp2rcd13ifvqhog","pricing_plan_id":"cebpf4jnsgd1na2vs0mg"},{"bike_id":"63424c74-ab85-4a35-893c-d805903c8e00","system_id":"levelo_inurba_marseille","lat":43.32367,"lon":5.388836,"is_reserved":false,"is_disabled":false,"rental_uris":{"android":"levelo://app?vid=63424c74-ab85-4a35-893c-d805903c8e00","ios":"levelo://app?vid=63424c74-ab85-4a35-893c-d805903c8e00"},"vehicle_type_id":"4","last_reported":1723496923,"current_range_meters":22400,"station_id":"ce4bhqp2rcd13ifvqhog","pricing_plan_id":"cebpf4jnsgd1na2vs0mg"},{"bike_id":"c7ecfac4-b4d0-4777-aa85-159904d6f96a","system_id":"levelo_inurba_marseille","lat":43.32367,"lon":5.388836,"is_reserved":false,"is_disabled":false,"rental_uris":{"android":"levelo://app?vid=c7ecfac4-b4d0-4777-aa85-159904d6f96a","ios":"levelo://app?vid=c7ecfac4-b4d0-4777-aa85-159904d6f96a"},"vehicle_type_id":"4","last_reported":1723496923,"current_range_meters":31200,"station_id":"ce4bhqp2rcd13ifvqhog","pricing_plan_id":"cebpf4jnsgd1na2vs0mg"},{"bike_id":"4c876a2d-6f70-45f3-98fa-f3e866000dc7","system_id":"levelo_inurba_marseille","lat":43.32367,"lon":5.388836,"is_reserved":false,"is_disabled":false,"rental_uris":{"android":"levelo://app?vid=4c876a2d-6f70-45f3-98fa-f3e866000dc7","ios":"levelo://app?vid=4c876a2d-6f70-45f3-98fa-f3e866000dc7"},"vehicle_type_id":"4","last_reported":1723496923,"current_range_meters":30000,"station_id":"ce4bhqp2rcd13ifvqhog","pricing_plan_id":"cebpf4jnsgd1na2vs0mg"},{"bike_id":"753d917b-7ed6-49a7-aed3-0991d0de9fcc","system_id":"levelo_inurba_marseille","lat":43.32367,"lon":5.388836,"is_reserved":false,"is_disabled":false,"rental_uris":{"android":"levelo://app?vid=753d917b-7ed6-49a7-aed3-0991d0de9fcc","ios":"levelo://app?vid=753d917b-7ed6-49a7-aed3-0991d0de9fcc"},"vehicle_type_id":"4","last_reported":1723496923,"current_range_meters":31200,"station_id":"ce4bhqp2rcd13ifvqhog","pricing_plan_id":"cebpf4jnsgd1na2vs0mg"},{"bike_id":"9b49dcab-cea0-459f-b818-040cee7ea3e9","system_id":"levelo_inurba_marseille","lat":43.29602,"lon":5.381084,"is_reserved":false,"is_disabled":false,"rental_uris":{"android":"levelo://app?vid=9b49dcab-cea0-459f-b818-040cee7ea3e9","ios":"levelo://app?vid=9b49dcab-cea0-459f-b818-040cee7ea3e9"},"vehicle_type_id":"4","last_reported":1723496923,"current_range_meters":11600,"station_id":"ce4bgl12rcd13ifvqbo0","pricing_plan_id":"cebpf4jnsgd1na2vs0mg"},{"bike_id":"0b0cc8d0-aaa1-4993-a675-fec0825ec8a3","system_id":"levelo_inurba_marseille","lat":43.29602,"lon":5.381084,"is_reserved":false,"is_disabled":false,"rental_uris":{"android":"levelo://app?vid=0b0cc8d0-aaa1-4993-a675-fec0825ec8a3","ios":"levelo://app?vid=0b0cc8d0-aaa1-4993-a675-fec0825ec8a3"},"vehicle_type_id":"4","last_reported":1723496923,"current_range_meters":5600,"station_id":"ce4bgl12rcd13ifvqbo0","pricing_plan_id":"cebpf4jnsgd1na2vs0mg"},{"bike_id":"0e16e597-4502-4d4b-b606-01ca6ca2d0f6","system_id":"levelo_inurba_marseille","lat":43.29602,"lon":5.381084,"is_reserved":false,"is_disabled":false,"rental_uris":{"android":"levelo://app?vid=0e16e597-4502-4d4b-b606-01ca6ca2d0f6","ios":"levelo://app?vid=0e16e597-4502-4d4b-b606-01ca6ca2d0f6"},"vehicle_type_id":"4","last_reported":1723496923,"current_range_meters":19200,"station_id":"ce4bgl12rcd13ifvqbo0","pricing_plan_id":"cebpf4jnsgd1na2vs0mg"},{"bike_id":"9b940ba7-0bec-4c26-8578-2d467f788bf2","system_id":"levelo_inurba_marseille","lat":43.29591,"lon":5.38099,"is_reserved":false,"is_disabled":false,"rental_uris":{"android":"levelo://app?vid=9b940ba7-0bec-4c26-8578-2d467f788bf2","ios":"levelo://app?vid=9b940ba7-0bec-4c26-8578-2d467f788bf2"},"vehicle_type_id":"4","last_reported":1723496923,"current_range_meters":14400,"station_id":"ce4bgl12rcd13ifvqbo0","pricing_plan_id":"cebpf4jnsgd1na2vs0mg"},{"bike_id":"420584a8-8ec6-4883-a049-a4755531d9fc","system_id":"levelo_inurba_marseille","lat":43.29282,"lon":5.36837,"is_reserved":false,"is_disabled":false,"rental_uris":{"android":"levelo://app?vid=420584a8-8ec6-4883-a049-a4755531d9fc","ios":"levelo://app?vid=420584a8-8ec6-4883-a049-a4755531d9fc"},"vehicle_type_id":"4","last_reported":1723496923,"current_range_meters":0,"station_id":"ce4bhbp2rcd13ifvqesg","pricing_plan_id":"cebpf4jnsgd1na2vs0mg"},{"bike_id":"12da4448-f9dc-4137-a3cd-aba682985bb2","system_id":"levelo_inurba_marseille","lat":43.2931,"lon":5.37187,"is_reserved":false,"is_disabled":false,"rental_uris":{"android":"levelo://app?vid=12da4448-f9dc-4137-a3cd-aba682985bb2","ios":"levelo://app?vid=12da4448-f9dc-4137-a3cd-aba682985bb2"},"vehicle_type_id":"4","last_reported":1723496923,"current_range_meters":0,"station_id":"ce4bgh92rcd13ifvqb40","pricing_plan_id":"cebpf4jnsgd1na2vs0mg"},{"bike_id":"1639f63f-1541-4264-b753-9472f579b2e2","system_id":"levelo_inurba_marseille","lat":43.29309,"lon":5.37181,"is_reserved":false,"is_disabled":false,"rental_uris":{"android":"levelo://app?vid=1639f63f-1541-4264-b753-9472f579b2e2","ios":"levelo://app?vid=1639f63f-1541-4264-b753-9472f579b2e2"},"vehicle_type_id":"4","last_reported":1723496923,"current_range_meters":0,"station_id":"ce4bgh92rcd13ifvqb40","pricing_plan_id":"cebpf4jnsgd1na2vs0mg"},{"bike_id":"4507ab37-b2e7-41fe-a1e8-0180b196abb7","system_id":"levelo_inurba_marseille","lat":43.293259,"lon":5.371586,"is_reserved":false,"is_disabled":false,"rental_uris":{"android":"levelo://app?vid=4507ab37-b2e7-41fe-a1e8-0180b196abb7","ios":"levelo://app?vid=4507ab37-b2e7-41fe-a1e8-0180b196abb7"},"vehicle_type_id":"4","last_reported":1723496923,"current_range_meters":6800,"station_id":"ce4bgh92rcd13ifvqb40","pricing_plan_id":"cebpf4jnsgd1na2vs0mg"},{"bike_id":"a0ff9aef-0a26-49f9-b656-37a06e9cbd33","system_id":"levelo_inurba_marseille","lat":43.293259,"lon":5.371586,"is_reserved":false,"is_disabled":false,"rental_uris":{"android":"levelo://app?vid=a0ff9aef-0a26-49f9-b656-37a06e9cbd33","ios":"levelo://app?vid=a0ff9aef-0a26-49f9-b656-37a06e9cbd33"},"vehicle_type_id":"4","last_reported":1723496923,"current_range_meters":31200,"station_id":"ce4bgh92rcd13ifvqb40","pricing_plan_id":"cebpf4jnsgd1na2vs0mg"},{"bike_id":"5c659c83-2aa2-4e70-8a55-2f2f8a54662c","system_id":"levelo_inurba_marseille","lat":43.292749,"lon":5.368402,"is_reserved":false,"is_disabled":false,"rental_uris":{"android":"levelo://app?vid=5c659c83-2aa2-4e70-8a55-2f2f8a54662c","ios":"levelo://app?vid=5c659c83-2aa2-4e70-8a55-2f2f8a54662c"},"vehicle_type_id":"4","last_reported":1723496923,"current_range_meters":0,"station_id":"ce4bhbp2rcd13ifvqesg","pricing_plan_id":"cebpf4jnsgd1na2vs0mg"},{"bike_id":"34e7e9d3-d0e0-410a-a36c-d97b1bf38285","system_id":"levelo_inurba_marseille","lat":43.293009,"lon":5.374584,"is_reserved":false,"is_disabled":false,"rental_uris":{"android":"levelo://app?vid=34e7e9d3-d0e0-410a-a36c-d97b1bf38285","ios":"levelo://app?vid=34e7e9d3-d0e0-410a-a36c-d97b1bf38285"},"vehicle_type_id":"4","last_reported":1723496923,"current_range_meters":20400,"station_id":"ce4bgi12rcd13ifvqb70","pricing_plan_id":"cebpf4jnsgd1na2vs0mg"},{"bike_id":"1241db0c-2f18-4571-a361-7f258dcad0e2","system_id":"levelo_inurba_marseille","lat":43.29303,"lon":5.37456,"is_reserved":false,"is_disabled":false,"rental_uris":{"android":"levelo://app?vid=1241db0c-2f18-4571-a361-7f258dcad0e2","ios":"levelo://app?vid=1241db0c-2f18-4571-a361-7f258dcad0e2"},"vehicle_type_id":"4","last_reported":1723496923,"current_range_meters":0,"station_id":"ce4bgi12rcd13ifvqb70","pricing_plan_id":"cebpf4jnsgd1na2vs0mg"},{"bike_id":"6fb7f67e-42df-4b26-bd9f-c551a03652b3","system_id":"levelo_inurba_marseille","lat":43.292953,"lon":5.374573,"is_reserved":false,"is_disabled":false,"rental_uris":{"android":"levelo://app?vid=6fb7f67e-42df-4b26-bd9f-c551a03652b3","ios":"levelo://app?vid=6fb7f67e-42df-4b26-bd9f-c551a03652b3"},"vehicle_type_id":"4","last_reported":1723496923,"current_range_meters":0,"station_id":"ce4bgi12rcd13ifvqb70","pricing_plan_id":"cebpf4jnsgd1na2vs0mg"},{"bike_id":"8d37495d-9961-45f8-ba67-ee81725ae3ae","system_id":"levelo_inurba_marseille","lat":43.29228,"lon":5.36363,"is_reserved":false,"is_disabled":false,"rental_uris":{"android":"levelo://app?vid=8d37495d-9961-45f8-ba67-ee81725ae3ae","ios":"levelo://app?vid=8d37495d-9961-45f8-ba67-ee81725ae3ae"},"vehicle_type_id":"4","last_reported":1723496923,"current_range_meters":0,"station_id":"","pricing_plan_id":"cebpf4jnsgd1na2vs0mg"},{"bike_id":"e53139e1-58da-467e-a291-149f210912e5","system_id":"levelo_inurba_marseille","lat":43.30085,"lon":5.390856,"is_reserved":false,"is_disabled":false,"rental_uris":{"android":"levelo://app?vid=e53139e1-58da-467e-a291-149f210912e5","ios":"levelo://app?vid=e53139e1-58da-467e-a291-149f210912e5"},"vehicle_type_id":"4","last_reported":1723496923,"current_range_meters":31200,"station_id":"ce4bh192rcd13ifvqdb0","pricing_plan_id":"cebpf4jnsgd1na2vs0mg"},{"bike_id":"d4bc8ee3-8b53-4ee0-94e3-3407642f5745","system_id":"levelo_inurba_marseille","lat":43.302992,"lon":5.392136,"is_reserved":false,"is_disabled":false,"rental_uris":{"android":"levelo://app?vid=d4bc8ee3-8b53-4ee0-94e3-3407642f5745","ios":"levelo://app?vid=d4bc8ee3-8b53-4ee0-94e3-3407642f5745"},"vehicle_type_id":"4","last_reported":1723496923,"current_range_meters":4400,"station_id":"ce4bgkh2rcd13ifvqbk0","pricing_plan_id":"cebpf4jnsgd1na2vs0mg"},{"bike_id":"a56879b3-69c6-4d97-acf4-3c497d1929fe","system_id":"levelo_inurba_marseille","lat":43.30294,"lon":5.39209,"is_reserved":false,"is_disabled":false,"rental_uris":{"android":"levelo://app?vid=a56879b3-69c6-4d97-acf4-3c497d1929fe","ios":"levelo://app?vid=a56879b3-69c6-4d97-acf4-3c497d1929fe"},"vehicle_type_id":"4","last_reported":1723496923,"current_range_meters":4000,"station_id":"ce4bgkh2rcd13ifvqbk0","pricing_plan_id":"cebpf4jnsgd1na2vs0mg"},{"bike_id":"4fca7005-a0a5-42eb-8a9c-ab6bb3b849c7","system_id":"levelo_inurba_marseille","lat":43.2936,"lon":5.37835,"is_reserved":false,"is_disabled":false,"rental_uris":{"android":"levelo://app?vid=4fca7005-a0a5-42eb-8a9c-ab6bb3b849c7","ios":"levelo://app?vid=4fca7005-a0a5-42eb-8a9c-ab6bb3b849c7"},"vehicle_type_id":"4","last_reported":1723496923,"current_range_meters":16000,"station_id":"ce4bgjh2rcd13ifvqbf0","pricing_plan_id":"cebpf4jnsgd1na2vs0mg"},{"bike_id":"8a660a37-3c7d-4632-bc98-36102bd54fed","system_id":"levelo_inurba_marseille","lat":43.30087,"lon":5.39076,"is_reserved":false,"is_disabled":false,"rental_uris":{"android":"levelo://app?vid=8a660a37-3c7d-4632-bc98-36102bd54fed","ios":"levelo://app?vid=8a660a37-3c7d-4632-bc98-36102bd54fed"},"vehicle_type_id":"4","last_reported":1723496923,"current_range_meters":12800,"station_id":"","pricing_plan_id":"cebpf4jnsgd1na2vs0mg"},{"bike_id":"9d7f3295-91cb-4c25-bfdb-9650b905895c","system_id":"levelo_inurba_marseille","lat":43.30085,"lon":5.390856,"is_reserved":false,"is_disabled":false,"rental_uris":{"android":"levelo://app?vid=9d7f3295-91cb-4c25-bfdb-9650b905895c","ios":"levelo://app?vid=9d7f3295-91cb-4c25-bfdb-9650b905895c"},"vehicle_type_id":"4","last_reported":1723496923,"current_range_meters":30000,"station_id":"ce4bh192rcd13ifvqdb0","pricing_plan_id":"cebpf4jnsgd1na2vs0mg"},{"bike_id":"b865eca1-f25b-4ece-8857-391af7f8f4de","system_id":"levelo_inurba_marseille","lat":43.32653,"lon":5.388778,"is_reserved":false,"is_disabled":false,"rental_uris":{"android":"levelo://app?vid=b865eca1-f25b-4ece-8857-391af7f8f4de","ios":"levelo://app?vid=b865eca1-f25b-4ece-8857-391af7f8f4de"},"vehicle_type_id":"4","last_reported":1723496923,"current_range_meters":22400,"station_id":"ce4bhqp2rcd13ifvqhog","pricing_plan_id":"cebpf4jnsgd1na2vs0mg"},{"bike_id":"dda58cd8-d20b-4d42-a313-d5b89bb776f6","system_id":"levelo_inurba_marseille","lat":43.29329,"lon":5.378427,"is_reserved":false,"is_disabled":false,"rental_uris":{"android":"levelo://app?vid=dda58cd8-d20b-4d42-a313-d5b89bb776f6","ios":"levelo://app?vid=dda58cd8-d20b-4d42-a313-d5b89bb776f6"},"vehicle_type_id":"4","last_reported":1723496923,"current_range_meters":11600,"station_id":"ce4bgjh2rcd13ifvqbf0","pricing_plan_id":"cebpf4jnsgd1na2vs0mg"},{"bike_id":"5df28f73-d2f2-4fd1-b8f8-e41f1a250eb9","system_id":"levelo_inurba_marseille","lat":43.29873,"lon":5.38903,"is_reserved":false,"is_disabled":false,"rental_uris":{"android":"levelo://app?vid=5df28f73-d2f2-4fd1-b8f8-e41f1a250eb9","ios":"levelo://app?vid=5df28f73-d2f2-4fd1-b8f8-e41f1a250eb9"},"vehicle_type_id":"4","last_reported":1723496923,"current_range_meters":0,"station_id":"ce4bh392rcd13ifvqdl0","pricing_plan_id":"cebpf4jnsgd1na2vs0mg"},{"bike_id":"a69b9eda-ae45-4fd6-9de4-df8648707295","system_id":"levelo_inurba_marseille","lat":43.298764,"lon":5.388973,"is_reserved":false,"is_disabled":false,"rental_uris":{"android":"levelo://app?vid=a69b9eda-ae45-4fd6-9de4-df8648707295","ios":"levelo://app?vid=a69b9eda-ae45-4fd6-9de4-df8648707295"},"vehicle_type_id":"4","last_reported":1723496923,"current_range_meters":31200,"station_id":"ce4bh392rcd13ifvqdl0","pricing_plan_id":"cebpf4jnsgd1na2vs0mg"},{"bike_id":"d76a161e-7671-486a-a84d-63da4ae8be5a","system_id":"levelo_inurba_marseille","lat":43.291994,"lon":5.357886,"is_reserved":false,"is_disabled":false,"rental_uris":{"android":"levelo://app?vid=d76a161e-7671-486a-a84d-63da4ae8be5a","ios":"levelo://app?vid=d76a161e-7671-486a-a84d-63da4ae8be5a"},"vehicle_type_id":"4","last_reported":1723496923,"current_range_meters":2800,"station_id":"ce4bhb12rcd13ifvqel0","pricing_plan_id":"cebpf4jnsgd1na2vs0mg"},{"bike_id":"b9f2fb1c-4d6e-4100-b37f-99400c235047","system_id":"levelo_inurba_marseille","lat":43.309038,"lon":5.396546,"is_reserved":false,"is_disabled":false,"rental_uris":{"android":"levelo://app?vid=b9f2fb1c-4d6e-4100-b37f-99400c235047","ios":"levelo://app?vid=b9f2fb1c-4d6e-4100-b37f-99400c235047"},"vehicle_type_id":"4","last_reported":1723496923,"current_range_meters":5200,"station_id":"ce4bh012rcd13ifvqcv0","pricing_plan_id":"cebpf4jnsgd1na2vs0mg"},{"bike_id":"a42774ca-6732-40c4-bec4-fd57b56a99a8","system_id":"levelo_inurba_marseille","lat":43.313291,"lon":5.396838,"is_reserved":false,"is_disabled":false,"rental_uris":{"android":"levelo://app?vid=a42774ca-6732-40c4-bec4-fd57b56a99a8","ios":"levelo://app?vid=a42774ca-6732-40c4-bec4-fd57b56a99a8"},"vehicle_type_id":"4","last_reported":1723496923,"current_range_meters":29200,"station_id":"ce4bgvp2rcd13ifvqcu0","pricing_plan_id":"cebpf4jnsgd1na2vs0mg"},{"bike_id":"9d4b68a5-c93f-4844-a235-5ff4a055b660","system_id":"levelo_inurba_marseille","lat":43.292385,"lon":5.37767,"is_reserved":false,"is_disabled":false,"rental_uris":{"android":"levelo://app?vid=9d4b68a5-c93f-4844-a235-5ff4a055b660","ios":"levelo://app?vid=9d4b68a5-c93f-4844-a235-5ff4a055b660"},"vehicle_type_id":"4","last_reported":1723496923,"current_range_meters":2800,"station_id":"","pricing_plan_id":"cebpf4jnsgd1na2vs0mg"},{"bike_id":"5f463f61-1553-4c5a-93e6-e557bb5c58d2","system_id":"levelo_inurba_marseille","lat":43.313291,"lon":5.396838,"is_reserved":false,"is_disabled":false,"rental_uris":{"android":"levelo://app?vid=5f463f61-1553-4c5a-93e6-e557bb5c58d2","ios":"levelo://app?vid=5f463f61-1553-4c5a-93e6-e557bb5c58d2"},"vehicle_type_id":"4","last_reported":1723496923,"current_range_meters":27600,"station_id":"ce4bgvp2rcd13ifvqcu0","pricing_plan_id":"cebpf4jnsgd1na2vs0mg"},{"bike_id":"fde95ec3-28c2-41d9-b214-961e49cc06d5","system_id":"levelo_inurba_marseille","lat":43.313291,"lon":5.396838,"is_reserved":false,"is_disabled":false,"rental_uris":{"android":"levelo://app?vid=fde95ec3-28c2-41d9-b214-961e49cc06d5","ios":"levelo://app?vid=fde95ec3-28c2-41d9-b214-961e49cc06d5"},"vehicle_type_id":"4","last_reported":1723496923,"current_range_meters":12000,"station_id":"ce4bgvp2rcd13ifvqcu0","pricing_plan_id":"cebpf4jnsgd1na2vs0mg"},{"bike_id":"9aa610dd-c3e8-49a7-ac09-c9cfc285b951","system_id":"levelo_inurba_marseille","lat":43.309047,"lon":5.396551,"is_reserved":false,"is_disabled":false,"rental_uris":{"android":"levelo://app?vid=9aa610dd-c3e8-49a7-ac09-c9cfc285b951","ios":"levelo://app?vid=9aa610dd-c3e8-49a7-ac09-c9cfc285b951"},"vehicle_type_id":"4","last_reported":1723496923,"current_range_meters":6800,"station_id":"ce4bh012rcd13ifvqcv0","pricing_plan_id":"cebpf4jnsgd1na2vs0mg"},{"bike_id":"41f2a558-b074-4d4b-8466-8d21492e6001","system_id":"levelo_inurba_marseille","lat":43.309038,"lon":5.396546,"is_reserved":false,"is_disabled":false,"rental_uris":{"android":"levelo://app?vid=41f2a558-b074-4d4b-8466-8d21492e6001","ios":"levelo://app?vid=41f2a558-b074-4d4b-8466-8d21492e6001"},"vehicle_type_id":"4","last_reported":1723496923,"current_range_meters":31600,"station_id":"ce4bh012rcd13ifvqcv0","pricing_plan_id":"cebpf4jnsgd1na2vs0mg"},{"bike_id":"4a5b625e-f1f5-4b84-8038-80245af8f729","system_id":"levelo_inurba_marseille","lat":43.313291,"lon":5.396838,"is_reserved":false,"is_disabled":false,"rental_uris":{"android":"levelo://app?vid=4a5b625e-f1f5-4b84-8038-80245af8f729","ios":"levelo://app?vid=4a5b625e-f1f5-4b84-8038-80245af8f729"},"vehicle_type_id":"4","last_reported":1723496923,"current_range_meters":5200,"station_id":"ce4bgvp2rcd13ifvqcu0","pricing_plan_id":"cebpf4jnsgd1na2vs0mg"},{"bike_id":"f4df8200-490c-4d5c-9e05-7ded5445480b","system_id":"levelo_inurba_marseille","lat":43.31329,"lon":5.39693,"is_reserved":false,"is_disabled":false,"rental_uris":{"android":"levelo://app?vid=f4df8200-490c-4d5c-9e05-7ded5445480b","ios":"levelo://app?vid=f4df8200-490c-4d5c-9e05-7ded5445480b"},"vehicle_type_id":"4","last_reported":1723496923,"current_range_meters":3600,"station_id":"ce4bgvp2rcd13ifvqcu0","pricing_plan_id":"cebpf4jnsgd1na2vs0mg"},{"bike_id":"ea53cc93-bddf-470a-879f-9924033ba557","system_id":"levelo_inurba_marseille","lat":43.31336,"lon":5.39694,"is_reserved":false,"is_disabled":false,"rental_uris":{"android":"levelo://app?vid=ea53cc93-bddf-470a-879f-9924033ba557","ios":"levelo://app?vid=ea53cc93-bddf-470a-879f-9924033ba557"},"vehicle_type_id":"4","last_reported":1723496923,"current_range_meters":6400,"station_id":"ce4bgvp2rcd13ifvqcu0","pricing_plan_id":"cebpf4jnsgd1na2vs0mg"},{"bike_id":"f3d54999-3381-4cce-842b-02df29928fb0","system_id":"levelo_inurba_marseille","lat":43.309047,"lon":5.396551,"is_reserved":false,"is_disabled":false,"rental_uris":{"android":"levelo://app?vid=f3d54999-3381-4cce-842b-02df29928fb0","ios":"levelo://app?vid=f3d54999-3381-4cce-842b-02df29928fb0"},"vehicle_type_id":"4","last_reported":1723496923,"current_range_meters":31200,"station_id":"ce4bh012rcd13ifvqcv0","pricing_plan_id":"cebpf4jnsgd1na2vs0mg"},{"bike_id":"8e0cacf4-a916-4e02-b86a-83342c533c2e","system_id":"levelo_inurba_marseille","lat":43.309038,"lon":5.396546,"is_reserved":false,"is_disabled":false,"rental_uris":{"android":"levelo://app?vid=8e0cacf4-a916-4e02-b86a-83342c533c2e","ios":"levelo://app?vid=8e0cacf4-a916-4e02-b86a-83342c533c2e"},"vehicle_type_id":"4","last_reported":1723496923,"current_range_meters":13200,"station_id":"ce4bh012rcd13ifvqcv0","pricing_plan_id":"cebpf4jnsgd1na2vs0mg"},{"bike_id":"79579090-ae5d-4b6a-b6c0-1b5a21d1fbab","system_id":"levelo_inurba_marseille","lat":43.29529,"lon":5.385581,"is_reserved":false,"is_disabled":false,"rental_uris":{"android":"levelo://app?vid=79579090-ae5d-4b6a-b6c0-1b5a21d1fbab","ios":"levelo://app?vid=79579090-ae5d-4b6a-b6c0-1b5a21d1fbab"},"vehicle_type_id":"4","last_reported":1723496923,"current_range_meters":1200,"station_id":"ce4bgih2rcd13ifvqba0","pricing_plan_id":"cebpf4jnsgd1na2vs0mg"},{"bike_id":"52ebf12f-3254-48db-8293-a306ef373d1f","system_id":"levelo_inurba_marseille","lat":43.29529,"lon":5.385581,"is_reserved":false,"is_disabled":false,"rental_uris":{"android":"levelo://app?vid=52ebf12f-3254-48db-8293-a306ef373d1f","ios":"levelo://app?vid=52ebf12f-3254-48db-8293-a306ef373d1f"},"vehicle_type_id":"4","last_reported":1723496923,"current_range_meters":4000,"station_id":"ce4bgih2rcd13ifvqba0","pricing_plan_id":"cebpf4jnsgd1na2vs0mg"},{"bike_id":"97f7b6bf-7552-45dc-b64a-a84c25715868","system_id":"levelo_inurba_marseille","lat":43.29529,"lon":5.385581,"is_reserved":false,"is_disabled":false,"rental_uris":{"android":"levelo://app?vid=97f7b6bf-7552-45dc-b64a-a84c25715868","ios":"levelo://app?vid=97f7b6bf-7552-45dc-b64a-a84c25715868"},"vehicle_type_id":"4","last_reported":1723496923,"current_range_meters":22800,"station_id":"ce4bgih2rcd13ifvqba0","pricing_plan_id":"cebpf4jnsgd1na2vs0mg"},{"bike_id":"6527d852-2719-46fa-8c57-23164f231323","system_id":"levelo_inurba_marseille","lat":43.29529,"lon":5.385581,"is_reserved":false,"is_disabled":false,"rental_uris":{"android":"levelo://app?vid=6527d852-2719-46fa-8c57-23164f231323","ios":"levelo://app?vid=6527d852-2719-46fa-8c57-23164f231323"},"vehicle_type_id":"4","last_reported":1723496923,"current_range_meters":13600,"station_id":"ce4bgih2rcd13ifvqba0","pricing_plan_id":"cebpf4jnsgd1na2vs0mg"},{"bike_id":"d4fbc468-50b0-4c09-b85e-ffe19b4e6d40","system_id":"levelo_inurba_marseille","lat":43.29529,"lon":5.385581,"is_reserved":false,"is_disabled":false,"rental_uris":{"android":"levelo://app?vid=d4fbc468-50b0-4c09-b85e-ffe19b4e6d40","ios":"levelo://app?vid=d4fbc468-50b0-4c09-b85e-ffe19b4e6d40"},"vehicle_type_id":"4","last_reported":1723496923,"current_range_meters":6400,"station_id":"ce4bgih2rcd13ifvqba0","pricing_plan_id":"cebpf4jnsgd1na2vs0mg"},{"bike_id":"320239dc-0b92-4c8f-ad90-3ff2978c4afa","system_id":"levelo_inurba_marseille","lat":43.29529,"lon":5.385581,"is_reserved":false,"is_disabled":false,"rental_uris":{"android":"levelo://app?vid=320239dc-0b92-4c8f-ad90-3ff2978c4afa","ios":"levelo://app?vid=320239dc-0b92-4c8f-ad90-3ff2978c4afa"},"vehicle_type_id":"4","last_reported":1723496923,"current_range_meters":21200,"station_id":"ce4bgih2rcd13ifvqba0","pricing_plan_id":"cebpf4jnsgd1na2vs0mg"},{"bike_id":"2d917870-d205-4e21-9fbd-08a6af903380","system_id":"levelo_inurba_marseille","lat":43.29529,"lon":5.385581,"is_reserved":false,"is_disabled":false,"rental_uris":{"android":"levelo://app?vid=2d917870-d205-4e21-9fbd-08a6af903380","ios":"levelo://app?vid=2d917870-d205-4e21-9fbd-08a6af903380"},"vehicle_type_id":"4","last_reported":1723496923,"current_range_meters":4400,"station_id":"ce4bgih2rcd13ifvqba0","pricing_plan_id":"cebpf4jnsgd1na2vs0mg"},{"bike_id":"6d0839d9-cc37-413a-ad55-fa2ce7a587f5","system_id":"levelo_inurba_marseille","lat":43.29529,"lon":5.385581,"is_reserved":false,"is_disabled":false,"rental_uris":{"android":"levelo://app?vid=6d0839d9-cc37-413a-ad55-fa2ce7a587f5","ios":"levelo://app?vid=6d0839d9-cc37-413a-ad55-fa2ce7a587f5"},"vehicle_type_id":"4","last_reported":1723496923,"current_range_meters":18000,"station_id":"ce4bgih2rcd13ifvqba0","pricing_plan_id":"cebpf4jnsgd1na2vs0mg"},{"bike_id":"81b7ff0e-eac9-4986-9908-e1dbd3c8cc0d","system_id":"levelo_inurba_marseille","lat":43.290779,"lon":5.371482,"is_reserved":false,"is_disabled":false,"rental_uris":{"android":"levelo://app?vid=81b7ff0e-eac9-4986-9908-e1dbd3c8cc0d","ios":"levelo://app?vid=81b7ff0e-eac9-4986-9908-e1dbd3c8cc0d"},"vehicle_type_id":"4","last_reported":1723496923,"current_range_meters":23600,"station_id":"ce4bh5p2rcd13ifvqe4g","pricing_plan_id":"cebpf4jnsgd1na2vs0mg"},{"bike_id":"c30615c6-08e6-44c9-902d-a2191811a49f","system_id":"levelo_inurba_marseille","lat":43.302008,"lon":5.394694,"is_reserved":false,"is_disabled":false,"rental_uris":{"android":"levelo://app?vid=c30615c6-08e6-44c9-902d-a2191811a49f","ios":"levelo://app?vid=c30615c6-08e6-44c9-902d-a2191811a49f"},"vehicle_type_id":"4","last_reported":1723496923,"current_range_meters":25600,"station_id":"ce4bh0p2rcd13ifvqd70","pricing_plan_id":"cebpf4jnsgd1na2vs0mg"},{"bike_id":"7594fb0e-600b-49f0-ae10-50f1d582d142","system_id":"levelo_inurba_marseille","lat":43.302008,"lon":5.394694,"is_reserved":false,"is_disabled":false,"rental_uris":{"android":"levelo://app?vid=7594fb0e-600b-49f0-ae10-50f1d582d142","ios":"levelo://app?vid=7594fb0e-600b-49f0-ae10-50f1d582d142"},"vehicle_type_id":"4","last_reported":1723496923,"current_range_meters":22400,"station_id":"ce4bh0p2rcd13ifvqd70","pricing_plan_id":"cebpf4jnsgd1na2vs0mg"},{"bike_id":"840d9c17-0fc7-4ea1-86a8-a8d82adba189","system_id":"levelo_inurba_marseille","lat":43.302008,"lon":5.394694,"is_reserved":false,"is_disabled":false,"rental_uris":{"android":"levelo://app?vid=840d9c17-0fc7-4ea1-86a8-a8d82adba189","ios":"levelo://app?vid=840d9c17-0fc7-4ea1-86a8-a8d82adba189"},"vehicle_type_id":"4","last_reported":1723496923,"current_range_meters":14000,"station_id":"ce4bh0p2rcd13ifvqd70","pricing_plan_id":"cebpf4jnsgd1na2vs0mg"},{"bike_id":"943d167e-252d-4474-923d-de567831eae7","system_id":"levelo_inurba_marseille","lat":43.290327,"lon":5.375711,"is_reserved":false,"is_disabled":false,"rental_uris":{"android":"levelo://app?vid=943d167e-252d-4474-923d-de567831eae7","ios":"levelo://app?vid=943d167e-252d-4474-923d-de567831eae7"},"vehicle_type_id":"4","last_reported":1723496923,"current_range_meters":0,"station_id":"ce4bh692rcd13ifvqe90","pricing_plan_id":"cebpf4jnsgd1na2vs0mg"},{"bike_id":"cd93c1c7-986b-4572-913e-ff2bd6ed752b","system_id":"levelo_inurba_marseille","lat":43.290327,"lon":5.375711,"is_reserved":false,"is_disabled":false,"rental_uris":{"android":"levelo://app?vid=cd93c1c7-986b-4572-913e-ff2bd6ed752b","ios":"levelo://app?vid=cd93c1c7-986b-4572-913e-ff2bd6ed752b"},"vehicle_type_id":"4","last_reported":1723496923,"current_range_meters":3600,"station_id":"ce4bh692rcd13ifvqe90","pricing_plan_id":"cebpf4jnsgd1na2vs0mg"},{"bike_id":"f02d7b68-c74e-4def-ba58-fbbb43e3c668","system_id":"levelo_inurba_marseille","lat":43.294162,"lon":5.386292,"is_reserved":false,"is_disabled":false,"rental_uris":{"android":"levelo://app?vid=f02d7b68-c74e-4def-ba58-fbbb43e3c668","ios":"levelo://app?vid=f02d7b68-c74e-4def-ba58-fbbb43e3c668"},"vehicle_type_id":"4","last_reported":1723496923,"current_range_meters":4800,"station_id":"ce4bh2h2rcd13ifvqdh0","pricing_plan_id":"cebpf4jnsgd1na2vs0mg"},{"bike_id":"792ac964-c542-4438-b025-9c7fac6e78ff","system_id":"levelo_inurba_marseille","lat":43.294162,"lon":5.386292,"is_reserved":false,"is_disabled":false,"rental_uris":{"android":"levelo://app?vid=792ac964-c542-4438-b025-9c7fac6e78ff","ios":"levelo://app?vid=792ac964-c542-4438-b025-9c7fac6e78ff"},"vehicle_type_id":"4","last_reported":1723496923,"current_range_meters":25600,"station_id":"ce4bh2h2rcd13ifvqdh0","pricing_plan_id":"cebpf4jnsgd1na2vs0mg"},{"bike_id":"c4d2855f-0252-4da7-a585-36e86a750cee","system_id":"levelo_inurba_marseille","lat":43.294153,"lon":5.386305,"is_reserved":false,"is_disabled":false,"rental_uris":{"android":"levelo://app?vid=c4d2855f-0252-4da7-a585-36e86a750cee","ios":"levelo://app?vid=c4d2855f-0252-4da7-a585-36e86a750cee"},"vehicle_type_id":"4","last_reported":1723496923,"current_range_meters":3600,"station_id":"ce4bh2h2rcd13ifvqdh0","pricing_plan_id":"cebpf4jnsgd1na2vs0mg"},{"bike_id":"6fce9959-66a2-43fe-b795-ce60c61a5268","system_id":"levelo_inurba_marseille","lat":43.290327,"lon":5.375711,"is_reserved":false,"is_disabled":false,"rental_uris":{"android":"levelo://app?vid=6fce9959-66a2-43fe-b795-ce60c61a5268","ios":"levelo://app?vid=6fce9959-66a2-43fe-b795-ce60c61a5268"},"vehicle_type_id":"4","last_reported":1723496923,"current_range_meters":0,"station_id":"ce4bh692rcd13ifvqe90","pricing_plan_id":"cebpf4jnsgd1na2vs0mg"},{"bike_id":"9d38dad8-1566-4bee-a5ae-cc673c9dca81","system_id":"levelo_inurba_marseille","lat":43.294162,"lon":5.386292,"is_reserved":false,"is_disabled":false,"rental_uris":{"android":"levelo://app?vid=9d38dad8-1566-4bee-a5ae-cc673c9dca81","ios":"levelo://app?vid=9d38dad8-1566-4bee-a5ae-cc673c9dca81"},"vehicle_type_id":"4","last_reported":1723496923,"current_range_meters":0,"station_id":"ce4bh2h2rcd13ifvqdh0","pricing_plan_id":"cebpf4jnsgd1na2vs0mg"},{"bike_id":"a3718b42-8878-4021-bf43-b4449cc1e3a3","system_id":"levelo_inurba_marseille","lat":43.290327,"lon":5.375711,"is_reserved":false,"is_disabled":false,"rental_uris":{"android":"levelo://app?vid=a3718b42-8878-4021-bf43-b4449cc1e3a3","ios":"levelo://app?vid=a3718b42-8878-4021-bf43-b4449cc1e3a3"},"vehicle_type_id":"4","last_reported":1723496923,"current_range_meters":10400,"station_id":"ce4bh692rcd13ifvqe90","pricing_plan_id":"cebpf4jnsgd1na2vs0mg"},{"bike_id":"0a7752be-215e-400b-a757-6e7c19787e4c","system_id":"levelo_inurba_marseille","lat":43.294153,"lon":5.386305,"is_reserved":false,"is_disabled":false,"rental_uris":{"android":"levelo://app?vid=0a7752be-215e-400b-a757-6e7c19787e4c","ios":"levelo://app?vid=0a7752be-215e-400b-a757-6e7c19787e4c"},"vehicle_type_id":"4","last_reported":1723496923,"current_range_meters":6400,"station_id":"ce4bh2h2rcd13ifvqdh0","pricing_plan_id":"cebpf4jnsgd1na2vs0mg"},{"bike_id":"11504275-2c5e-4908-aec3-8e55ab82b2ad","system_id":"levelo_inurba_marseille","lat":43.294162,"lon":5.386292,"is_reserved":false,"is_disabled":false,"rental_uris":{"android":"levelo://app?vid=11504275-2c5e-4908-aec3-8e55ab82b2ad","ios":"levelo://app?vid=11504275-2c5e-4908-aec3-8e55ab82b2ad"},"vehicle_type_id":"4","last_reported":1723496923,"current_range_meters":800,"station_id":"ce4bh2h2rcd13ifvqdh0","pricing_plan_id":"cebpf4jnsgd1na2vs0mg"},{"bike_id":"6f010b85-3974-4e2c-b5e8-2e537014c7f4","system_id":"levelo_inurba_marseille","lat":43.294162,"lon":5.386292,"is_reserved":false,"is_disabled":false,"rental_uris":{"android":"levelo://app?vid=6f010b85-3974-4e2c-b5e8-2e537014c7f4","ios":"levelo://app?vid=6f010b85-3974-4e2c-b5e8-2e537014c7f4"},"vehicle_type_id":"4","last_reported":1723496923,"current_range_meters":4000,"station_id":"ce4bh2h2rcd13ifvqdh0","pricing_plan_id":"cebpf4jnsgd1na2vs0mg"},{"bike_id":"c9256018-60fb-4520-8499-d3560a546d32","system_id":"levelo_inurba_marseille","lat":43.294162,"lon":5.386292,"is_reserved":false,"is_disabled":false,"rental_uris":{"android":"levelo://app?vid=c9256018-60fb-4520-8499-d3560a546d32","ios":"levelo://app?vid=c9256018-60fb-4520-8499-d3560a546d32"},"vehicle_type_id":"4","last_reported":1723496923,"current_range_meters":24800,"station_id":"ce4bh2h2rcd13ifvqdh0","pricing_plan_id":"cebpf4jnsgd1na2vs0mg"},{"bike_id":"fb495c57-9791-4a3d-87f4-d1adfb84cef5","system_id":"levelo_inurba_marseille","lat":43.294162,"lon":5.386292,"is_reserved":false,"is_disabled":false,"rental_uris":{"android":"levelo://app?vid=fb495c57-9791-4a3d-87f4-d1adfb84cef5","ios":"levelo://app?vid=fb495c57-9791-4a3d-87f4-d1adfb84cef5"},"vehicle_type_id":"4","last_reported":1723496923,"current_range_meters":27600,"station_id":"ce4bh2h2rcd13ifvqdh0","pricing_plan_id":"cebpf4jnsgd1na2vs0mg"},{"bike_id":"f5029273-b65d-4134-94b3-43d346271373","system_id":"levelo_inurba_marseille","lat":43.294162,"lon":5.386292,"is_reserved":false,"is_disabled":false,"rental_uris":{"android":"levelo://app?vid=f5029273-b65d-4134-94b3-43d346271373","ios":"levelo://app?vid=f5029273-b65d-4134-94b3-43d346271373"},"vehicle_type_id":"4","last_reported":1723496923,"current_range_meters":800,"station_id":"ce4bh2h2rcd13ifvqdh0","pricing_plan_id":"cebpf4jnsgd1na2vs0mg"},{"bike_id":"50d5eeaf-8b3a-4d6f-9491-6cfc4aba07d4","system_id":"levelo_inurba_marseille","lat":43.289184,"lon":5.366408,"is_reserved":false,"is_disabled":false,"rental_uris":{"android":"levelo://app?vid=50d5eeaf-8b3a-4d6f-9491-6cfc4aba07d4","ios":"levelo://app?vid=50d5eeaf-8b3a-4d6f-9491-6cfc4aba07d4"},"vehicle_type_id":"4","last_reported":1723496923,"current_range_meters":22000,"station_id":"ce4bhap2rcd13ifvqek0","pricing_plan_id":"cebpf4jnsgd1na2vs0mg"},{"bike_id":"82592ad8-ddc9-444d-bbe9-6218e45336e1","system_id":"levelo_inurba_marseille","lat":43.28942,"lon":5.36639,"is_reserved":false,"is_disabled":false,"rental_uris":{"android":"levelo://app?vid=82592ad8-ddc9-444d-bbe9-6218e45336e1","ios":"levelo://app?vid=82592ad8-ddc9-444d-bbe9-6218e45336e1"},"vehicle_type_id":"4","last_reported":1723496923,"current_range_meters":2000,"station_id":"ce4bhap2rcd13ifvqek0","pricing_plan_id":"cebpf4jnsgd1na2vs0mg"},{"bike_id":"aeef6fc2-a59d-42c3-a9e4-c524c3fe6202","system_id":"levelo_inurba_marseille","lat":43.29413,"lon":5.38633,"is_reserved":false,"is_disabled":false,"rental_uris":{"android":"levelo://app?vid=aeef6fc2-a59d-42c3-a9e4-c524c3fe6202","ios":"levelo://app?vid=aeef6fc2-a59d-42c3-a9e4-c524c3fe6202"},"vehicle_type_id":"4","last_reported":1723496923,"current_range_meters":2000,"station_id":"ce4bh2h2rcd13ifvqdh0","pricing_plan_id":"cebpf4jnsgd1na2vs0mg"},{"bike_id":"f530f6ff-4714-4fa7-8618-07eedd607fbd","system_id":"levelo_inurba_marseille","lat":43.29257,"lon":5.38316,"is_reserved":false,"is_disabled":false,"rental_uris":{"android":"levelo://app?vid=f530f6ff-4714-4fa7-8618-07eedd607fbd","ios":"levelo://app?vid=f530f6ff-4714-4fa7-8618-07eedd607fbd"},"vehicle_type_id":"4","last_reported":1723496923,"current_range_meters":29200,"station_id":"","pricing_plan_id":"cebpf4jnsgd1na2vs0mg"},{"bike_id":"b380623a-948e-47d6-b9b9-90d6e120faf0","system_id":"levelo_inurba_marseille","lat":43.28936,"lon":5.36635,"is_reserved":false,"is_disabled":false,"rental_uris":{"android":"levelo://app?vid=b380623a-948e-47d6-b9b9-90d6e120faf0","ios":"levelo://app?vid=b380623a-948e-47d6-b9b9-90d6e120faf0"},"vehicle_type_id":"4","last_reported":1723496923,"current_range_meters":0,"station_id":"ce4bhap2rcd13ifvqek0","pricing_plan_id":"cebpf4jnsgd1na2vs0mg"},{"bike_id":"d69cd8c2-6127-4064-837d-731a006e9aa6","system_id":"levelo_inurba_marseille","lat":43.289184,"lon":5.366408,"is_reserved":false,"is_disabled":false,"rental_uris":{"android":"levelo://app?vid=d69cd8c2-6127-4064-837d-731a006e9aa6","ios":"levelo://app?vid=d69cd8c2-6127-4064-837d-731a006e9aa6"},"vehicle_type_id":"4","last_reported":1723496923,"current_range_meters":20000,"station_id":"ce4bhap2rcd13ifvqek0","pricing_plan_id":"cebpf4jnsgd1na2vs0mg"},{"bike_id":"476bacc2-82a9-4968-94cd-d6ee0606e481","system_id":"levelo_inurba_marseille","lat":43.294186,"lon":5.38668,"is_reserved":false,"is_disabled":false,"rental_uris":{"android":"levelo://app?vid=476bacc2-82a9-4968-94cd-d6ee0606e481","ios":"levelo://app?vid=476bacc2-82a9-4968-94cd-d6ee0606e481"},"vehicle_type_id":"4","last_reported":1723496923,"current_range_meters":400,"station_id":"ce4bh2h2rcd13ifvqdh0","pricing_plan_id":"cebpf4jnsgd1na2vs0mg"},{"bike_id":"a9c2fc64-86fc-4599-9a1d-b858c8415194","system_id":"levelo_inurba_marseille","lat":43.292642,"lon":5.384254,"is_reserved":false,"is_disabled":false,"rental_uris":{"android":"levelo://app?vid=a9c2fc64-86fc-4599-9a1d-b858c8415194","ios":"levelo://app?vid=a9c2fc64-86fc-4599-9a1d-b858c8415194"},"vehicle_type_id":"4","last_reported":1723496923,"current_range_meters":20000,"station_id":"ce4bh692rcd13ifvqea0","pricing_plan_id":"cebpf4jnsgd1na2vs0mg"},{"bike_id":"39d0c092-4bd1-48b0-aa7d-1d48ef4fa76b","system_id":"levelo_inurba_marseille","lat":43.292642,"lon":5.384254,"is_reserved":false,"is_disabled":false,"rental_uris":{"android":"levelo://app?vid=39d0c092-4bd1-48b0-aa7d-1d48ef4fa76b","ios":"levelo://app?vid=39d0c092-4bd1-48b0-aa7d-1d48ef4fa76b"},"vehicle_type_id":"4","last_reported":1723496923,"current_range_meters":27600,"station_id":"ce4bh692rcd13ifvqea0","pricing_plan_id":"cebpf4jnsgd1na2vs0mg"},{"bike_id":"e7accb1d-f89c-4c39-af70-dde8b12a589e","system_id":"levelo_inurba_marseille","lat":43.292642,"lon":5.384254,"is_reserved":false,"is_disabled":false,"rental_uris":{"android":"levelo://app?vid=e7accb1d-f89c-4c39-af70-dde8b12a589e","ios":"levelo://app?vid=e7accb1d-f89c-4c39-af70-dde8b12a589e"},"vehicle_type_id":"4","last_reported":1723496923,"current_range_meters":4400,"station_id":"ce4bh692rcd13ifvqea0","pricing_plan_id":"cebpf4jnsgd1na2vs0mg"},{"bike_id":"fa862299-1f37-4755-9854-5b3dc344cab9","system_id":"levelo_inurba_marseille","lat":43.292642,"lon":5.384254,"is_reserved":false,"is_disabled":false,"rental_uris":{"android":"levelo://app?vid=fa862299-1f37-4755-9854-5b3dc344cab9","ios":"levelo://app?vid=fa862299-1f37-4755-9854-5b3dc344cab9"},"vehicle_type_id":"4","last_reported":1723496923,"current_range_meters":29200,"station_id":"ce4bh692rcd13ifvqea0","pricing_plan_id":"cebpf4jnsgd1na2vs0mg"},{"bike_id":"5ff9ebba-3045-4891-b649-83b4b9fbb42f","system_id":"levelo_inurba_marseille","lat":43.292644,"lon":5.384257,"is_reserved":false,"is_disabled":false,"rental_uris":{"android":"levelo://app?vid=5ff9ebba-3045-4891-b649-83b4b9fbb42f","ios":"levelo://app?vid=5ff9ebba-3045-4891-b649-83b4b9fbb42f"},"vehicle_type_id":"4","last_reported":1723496923,"current_range_meters":23200,"station_id":"ce4bh692rcd13ifvqea0","pricing_plan_id":"cebpf4jnsgd1na2vs0mg"},{"bike_id":"38750f9a-e19b-4ad7-8fdb-bb2ebc279bcf","system_id":"levelo_inurba_marseille","lat":43.292644,"lon":5.384257,"is_reserved":false,"is_disabled":false,"rental_uris":{"android":"levelo://app?vid=38750f9a-e19b-4ad7-8fdb-bb2ebc279bcf","ios":"levelo://app?vid=38750f9a-e19b-4ad7-8fdb-bb2ebc279bcf"},"vehicle_type_id":"4","last_reported":1723496923,"current_range_meters":31600,"station_id":"ce4bh692rcd13ifvqea0","pricing_plan_id":"cebpf4jnsgd1na2vs0mg"},{"bike_id":"6e500484-afa5-4658-a4f1-b7c9070bc792","system_id":"levelo_inurba_marseille","lat":43.29263,"lon":5.38439,"is_reserved":false,"is_disabled":false,"rental_uris":{"android":"levelo://app?vid=6e500484-afa5-4658-a4f1-b7c9070bc792","ios":"levelo://app?vid=6e500484-afa5-4658-a4f1-b7c9070bc792"},"vehicle_type_id":"4","last_reported":1723496923,"current_range_meters":14000,"station_id":"ce4bh692rcd13ifvqea0","pricing_plan_id":"cebpf4jnsgd1na2vs0mg"},{"bike_id":"4f298da3-9cfc-4a77-9cce-7c60984f78d1","system_id":"levelo_inurba_marseille","lat":43.292644,"lon":5.384257,"is_reserved":false,"is_disabled":false,"rental_uris":{"android":"levelo://app?vid=4f298da3-9cfc-4a77-9cce-7c60984f78d1","ios":"levelo://app?vid=4f298da3-9cfc-4a77-9cce-7c60984f78d1"},"vehicle_type_id":"4","last_reported":1723496923,"current_range_meters":29600,"station_id":"ce4bh692rcd13ifvqea0","pricing_plan_id":"cebpf4jnsgd1na2vs0mg"},{"bike_id":"d1b0c8f8-e814-48ac-953a-9d186aaea6d0","system_id":"levelo_inurba_marseille","lat":43.30424,"lon":5.39749,"is_reserved":false,"is_disabled":false,"rental_uris":{"android":"levelo://app?vid=d1b0c8f8-e814-48ac-953a-9d186aaea6d0","ios":"levelo://app?vid=d1b0c8f8-e814-48ac-953a-9d186aaea6d0"},"vehicle_type_id":"4","last_reported":1723496923,"current_range_meters":4800,"station_id":"ce4bh092rcd13ifvqd20","pricing_plan_id":"cebpf4jnsgd1na2vs0mg"},{"bike_id":"9f9e3c31-f097-4234-97d8-fac73bde0c32","system_id":"levelo_inurba_marseille","lat":43.29262,"lon":5.38442,"is_reserved":false,"is_disabled":false,"rental_uris":{"android":"levelo://app?vid=9f9e3c31-f097-4234-97d8-fac73bde0c32","ios":"levelo://app?vid=9f9e3c31-f097-4234-97d8-fac73bde0c32"},"vehicle_type_id":"4","last_reported":1723496923,"current_range_meters":2400,"station_id":"ce4bh692rcd13ifvqea0","pricing_plan_id":"cebpf4jnsgd1na2vs0mg"},{"bike_id":"7b224bff-8108-4612-9472-a9456fb8754d","system_id":"levelo_inurba_marseille","lat":43.292642,"lon":5.384254,"is_reserved":false,"is_disabled":false,"rental_uris":{"android":"levelo://app?vid=7b224bff-8108-4612-9472-a9456fb8754d","ios":"levelo://app?vid=7b224bff-8108-4612-9472-a9456fb8754d"},"vehicle_type_id":"4","last_reported":1723496923,"current_range_meters":29600,"station_id":"ce4bh692rcd13ifvqea0","pricing_plan_id":"cebpf4jnsgd1na2vs0mg"},{"bike_id":"fd1e818c-6930-4444-8d64-cf304f687132","system_id":"levelo_inurba_marseille","lat":43.292644,"lon":5.384257,"is_reserved":false,"is_disabled":false,"rental_uris":{"android":"levelo://app?vid=fd1e818c-6930-4444-8d64-cf304f687132","ios":"levelo://app?vid=fd1e818c-6930-4444-8d64-cf304f687132"},"vehicle_type_id":"4","last_reported":1723496923,"current_range_meters":30800,"station_id":"ce4bh692rcd13ifvqea0","pricing_plan_id":"cebpf4jnsgd1na2vs0mg"},{"bike_id":"4c1c816b-7893-4c15-be95-71d6d6db8e43","system_id":"levelo_inurba_marseille","lat":43.292642,"lon":5.384254,"is_reserved":false,"is_disabled":false,"rental_uris":{"android":"levelo://app?vid=4c1c816b-7893-4c15-be95-71d6d6db8e43","ios":"levelo://app?vid=4c1c816b-7893-4c15-be95-71d6d6db8e43"},"vehicle_type_id":"4","last_reported":1723496923,"current_range_meters":19200,"station_id":"ce4bh692rcd13ifvqea0","pricing_plan_id":"cebpf4jnsgd1na2vs0mg"},{"bike_id":"f30a5eb7-dda4-4cb4-bff4-6f6d920577ad","system_id":"levelo_inurba_marseille","lat":43.292644,"lon":5.384257,"is_reserved":false,"is_disabled":false,"rental_uris":{"android":"levelo://app?vid=f30a5eb7-dda4-4cb4-bff4-6f6d920577ad","ios":"levelo://app?vid=f30a5eb7-dda4-4cb4-bff4-6f6d920577ad"},"vehicle_type_id":"4","last_reported":1723496923,"current_range_meters":31200,"station_id":"ce4bh692rcd13ifvqea0","pricing_plan_id":"cebpf4jnsgd1na2vs0mg"},{"bike_id":"b8170c66-9fb2-44a4-9bfa-e49ec5b61386","system_id":"levelo_inurba_marseille","lat":43.292644,"lon":5.384257,"is_reserved":false,"is_disabled":false,"rental_uris":{"android":"levelo://app?vid=b8170c66-9fb2-44a4-9bfa-e49ec5b61386","ios":"levelo://app?vid=b8170c66-9fb2-44a4-9bfa-e49ec5b61386"},"vehicle_type_id":"4","last_reported":1723496923,"current_range_meters":32000,"station_id":"ce4bh692rcd13ifvqea0","pricing_plan_id":"cebpf4jnsgd1na2vs0mg"},{"bike_id":"4f4763a8-4917-40ed-a551-10cf62ad6d75","system_id":"levelo_inurba_marseille","lat":43.292642,"lon":5.384254,"is_reserved":false,"is_disabled":false,"rental_uris":{"android":"levelo://app?vid=4f4763a8-4917-40ed-a551-10cf62ad6d75","ios":"levelo://app?vid=4f4763a8-4917-40ed-a551-10cf62ad6d75"},"vehicle_type_id":"4","last_reported":1723496923,"current_range_meters":21200,"station_id":"ce4bh692rcd13ifvqea0","pricing_plan_id":"cebpf4jnsgd1na2vs0mg"},{"bike_id":"a3ec07d6-2e57-44f0-b414-5e4a30686454","system_id":"levelo_inurba_marseille","lat":43.29006,"lon":5.35622,"is_reserved":false,"is_disabled":false,"rental_uris":{"android":"levelo://app?vid=a3ec07d6-2e57-44f0-b414-5e4a30686454","ios":"levelo://app?vid=a3ec07d6-2e57-44f0-b414-5e4a30686454"},"vehicle_type_id":"4","last_reported":1723496923,"current_range_meters":0,"station_id":"ce4bhb92rcd13ifvqen0","pricing_plan_id":"cebpf4jnsgd1na2vs0mg"},{"bike_id":"fb773e5e-a078-43d9-9372-c5dc9078eebb","system_id":"levelo_inurba_marseille","lat":43.290995,"lon":5.381361,"is_reserved":false,"is_disabled":false,"rental_uris":{"android":"levelo://app?vid=fb773e5e-a078-43d9-9372-c5dc9078eebb","ios":"levelo://app?vid=fb773e5e-a078-43d9-9372-c5dc9078eebb"},"vehicle_type_id":"4","last_reported":1723496923,"current_range_meters":26400,"station_id":"ce4bh512rcd13ifvqe2g","pricing_plan_id":"cebpf4jnsgd1na2vs0mg"},{"bike_id":"4a63cffd-7be5-4406-8d7e-09ddeb873d10","system_id":"levelo_inurba_marseille","lat":43.295169,"lon":5.390426,"is_reserved":false,"is_disabled":false,"rental_uris":{"android":"levelo://app?vid=4a63cffd-7be5-4406-8d7e-09ddeb873d10","ios":"levelo://app?vid=4a63cffd-7be5-4406-8d7e-09ddeb873d10"},"vehicle_type_id":"4","last_reported":1723496923,"current_range_meters":13200,"station_id":"ce4bh3p2rcd13ifvqdp0","pricing_plan_id":"cebpf4jnsgd1na2vs0mg"},{"bike_id":"1d9a7058-9902-4062-9e14-b07955306548","system_id":"levelo_inurba_marseille","lat":43.28987,"lon":5.37831,"is_reserved":false,"is_disabled":false,"rental_uris":{"android":"levelo://app?vid=1d9a7058-9902-4062-9e14-b07955306548","ios":"levelo://app?vid=1d9a7058-9902-4062-9e14-b07955306548"},"vehicle_type_id":"4","last_reported":1723496923,"current_range_meters":0,"station_id":"ce4bh9p2rcd13ifvqed0","pricing_plan_id":"cebpf4jnsgd1na2vs0mg"},{"bike_id":"79064ed4-a816-4d3e-a41a-2278b6567484","system_id":"levelo_inurba_marseille","lat":43.297815,"lon":5.393548,"is_reserved":false,"is_disabled":false,"rental_uris":{"android":"levelo://app?vid=79064ed4-a816-4d3e-a41a-2278b6567484","ios":"levelo://app?vid=79064ed4-a816-4d3e-a41a-2278b6567484"},"vehicle_type_id":"4","last_reported":1723496923,"current_range_meters":20800,"station_id":"chh1huq6cuj3fo74tm60","pricing_plan_id":"cebpf4jnsgd1na2vs0mg"},{"bike_id":"ee815ca8-f1d9-4c96-ac72-259672df4a9e","system_id":"levelo_inurba_marseille","lat":43.297815,"lon":5.393548,"is_reserved":false,"is_disabled":false,"rental_uris":{"android":"levelo://app?vid=ee815ca8-f1d9-4c96-ac72-259672df4a9e","ios":"levelo://app?vid=ee815ca8-f1d9-4c96-ac72-259672df4a9e"},"vehicle_type_id":"4","last_reported":1723496923,"current_range_meters":18400,"station_id":"chh1huq6cuj3fo74tm60","pricing_plan_id":"cebpf4jnsgd1na2vs0mg"},{"bike_id":"fc13499f-86ad-46f6-ae96-111fc77b2d0f","system_id":"levelo_inurba_marseille","lat":43.29789,"lon":5.39348,"is_reserved":false,"is_disabled":false,"rental_uris":{"android":"levelo://app?vid=fc13499f-86ad-46f6-ae96-111fc77b2d0f","ios":"levelo://app?vid=fc13499f-86ad-46f6-ae96-111fc77b2d0f"},"vehicle_type_id":"4","last_reported":1723496923,"current_range_meters":0,"station_id":"chh1huq6cuj3fo74tm60","pricing_plan_id":"cebpf4jnsgd1na2vs0mg"},{"bike_id":"4448e7f6-dbb9-489a-a79b-86a3b801614a","system_id":"levelo_inurba_marseille","lat":43.295169,"lon":5.390426,"is_reserved":false,"is_disabled":false,"rental_uris":{"android":"levelo://app?vid=4448e7f6-dbb9-489a-a79b-86a3b801614a","ios":"levelo://app?vid=4448e7f6-dbb9-489a-a79b-86a3b801614a"},"vehicle_type_id":"4","last_reported":1723496923,"current_range_meters":24400,"station_id":"ce4bh3p2rcd13ifvqdp0","pricing_plan_id":"cebpf4jnsgd1na2vs0mg"},{"bike_id":"91e82132-ca21-478b-8468-f70c9ca221d7","system_id":"levelo_inurba_marseille","lat":43.297807,"lon":5.393533,"is_reserved":false,"is_disabled":false,"rental_uris":{"android":"levelo://app?vid=91e82132-ca21-478b-8468-f70c9ca221d7","ios":"levelo://app?vid=91e82132-ca21-478b-8468-f70c9ca221d7"},"vehicle_type_id":"4","last_reported":1723496923,"current_range_meters":4000,"station_id":"chh1huq6cuj3fo74tm60","pricing_plan_id":"cebpf4jnsgd1na2vs0mg"},{"bike_id":"2d22280c-3b1c-4772-828b-7b0c17939085","system_id":"levelo_inurba_marseille","lat":43.295169,"lon":5.390426,"is_reserved":false,"is_disabled":false,"rental_uris":{"android":"levelo://app?vid=2d22280c-3b1c-4772-828b-7b0c17939085","ios":"levelo://app?vid=2d22280c-3b1c-4772-828b-7b0c17939085"},"vehicle_type_id":"4","last_reported":1723496923,"current_range_meters":21600,"station_id":"ce4bh3p2rcd13ifvqdp0","pricing_plan_id":"cebpf4jnsgd1na2vs0mg"},{"bike_id":"e9504aff-f00b-4abf-8e1f-9255a6d8c5fb","system_id":"levelo_inurba_marseille","lat":43.295169,"lon":5.390426,"is_reserved":false,"is_disabled":false,"rental_uris":{"android":"levelo://app?vid=e9504aff-f00b-4abf-8e1f-9255a6d8c5fb","ios":"levelo://app?vid=e9504aff-f00b-4abf-8e1f-9255a6d8c5fb"},"vehicle_type_id":"4","last_reported":1723496923,"current_range_meters":10800,"station_id":"ce4bh3p2rcd13ifvqdp0","pricing_plan_id":"cebpf4jnsgd1na2vs0mg"},{"bike_id":"31126441-6dde-4e70-8f30-1236ccd8f2cb","system_id":"levelo_inurba_marseille","lat":43.295169,"lon":5.390426,"is_reserved":false,"is_disabled":false,"rental_uris":{"android":"levelo://app?vid=31126441-6dde-4e70-8f30-1236ccd8f2cb","ios":"levelo://app?vid=31126441-6dde-4e70-8f30-1236ccd8f2cb"},"vehicle_type_id":"4","last_reported":1723496923,"current_range_meters":10400,"station_id":"ce4bh3p2rcd13ifvqdp0","pricing_plan_id":"cebpf4jnsgd1na2vs0mg"},{"bike_id":"fd529168-1207-4973-bea3-51ca2d797807","system_id":"levelo_inurba_marseille","lat":43.330278,"lon":5.390404,"is_reserved":false,"is_disabled":false,"rental_uris":{"android":"levelo://app?vid=fd529168-1207-4973-bea3-51ca2d797807","ios":"levelo://app?vid=fd529168-1207-4973-bea3-51ca2d797807"},"vehicle_type_id":"4","last_reported":1723496923,"current_range_meters":31200,"station_id":"","pricing_plan_id":"cebpf4jnsgd1na2vs0mg"},{"bike_id":"836ee494-88be-4996-bc10-e129d9ba4942","system_id":"levelo_inurba_marseille","lat":43.295169,"lon":5.390426,"is_reserved":false,"is_disabled":false,"rental_uris":{"android":"levelo://app?vid=836ee494-88be-4996-bc10-e129d9ba4942","ios":"levelo://app?vid=836ee494-88be-4996-bc10-e129d9ba4942"},"vehicle_type_id":"4","last_reported":1723496923,"current_range_meters":1600,"station_id":"ce4bh3p2rcd13ifvqdp0","pricing_plan_id":"cebpf4jnsgd1na2vs0mg"},{"bike_id":"55d8be9c-023f-4057-80d5-3f71d63b8ab1","system_id":"levelo_inurba_marseille","lat":43.295169,"lon":5.390426,"is_reserved":false,"is_disabled":false,"rental_uris":{"android":"levelo://app?vid=55d8be9c-023f-4057-80d5-3f71d63b8ab1","ios":"levelo://app?vid=55d8be9c-023f-4057-80d5-3f71d63b8ab1"},"vehicle_type_id":"4","last_reported":1723496923,"current_range_meters":1600,"station_id":"ce4bh3p2rcd13ifvqdp0","pricing_plan_id":"cebpf4jnsgd1na2vs0mg"},{"bike_id":"e321dceb-5d2e-48d0-99b0-ec5da406cb33","system_id":"levelo_inurba_marseille","lat":43.295169,"lon":5.390426,"is_reserved":false,"is_disabled":false,"rental_uris":{"android":"levelo://app?vid=e321dceb-5d2e-48d0-99b0-ec5da406cb33","ios":"levelo://app?vid=e321dceb-5d2e-48d0-99b0-ec5da406cb33"},"vehicle_type_id":"4","last_reported":1723496923,"current_range_meters":10800,"station_id":"ce4bh3p2rcd13ifvqdp0","pricing_plan_id":"cebpf4jnsgd1na2vs0mg"},{"bike_id":"a9b05283-e368-4036-bff0-1553a309c98f","system_id":"levelo_inurba_marseille","lat":43.30797,"lon":5.4,"is_reserved":false,"is_disabled":false,"rental_uris":{"android":"levelo://app?vid=a9b05283-e368-4036-bff0-1553a309c98f","ios":"levelo://app?vid=a9b05283-e368-4036-bff0-1553a309c98f"},"vehicle_type_id":"4","last_reported":1723496923,"current_range_meters":2800,"station_id":"","pricing_plan_id":"cebpf4jnsgd1na2vs0mg"},{"bike_id":"348ddd36-a23e-421f-b64e-4e01a2b9b2f5","system_id":"levelo_inurba_marseille","lat":43.289741,"lon":5.378306,"is_reserved":false,"is_disabled":false,"rental_uris":{"android":"levelo://app?vid=348ddd36-a23e-421f-b64e-4e01a2b9b2f5","ios":"levelo://app?vid=348ddd36-a23e-421f-b64e-4e01a2b9b2f5"},"vehicle_type_id":"4","last_reported":1723496923,"current_range_meters":30400,"station_id":"ce4bh9p2rcd13ifvqed0","pricing_plan_id":"cebpf4jnsgd1na2vs0mg"},{"bike_id":"f6848fbd-db10-47c6-82eb-f45135f531c9","system_id":"levelo_inurba_marseille","lat":43.297815,"lon":5.393548,"is_reserved":false,"is_disabled":false,"rental_uris":{"android":"levelo://app?vid=f6848fbd-db10-47c6-82eb-f45135f531c9","ios":"levelo://app?vid=f6848fbd-db10-47c6-82eb-f45135f531c9"},"vehicle_type_id":"4","last_reported":1723496923,"current_range_meters":16800,"station_id":"chh1huq6cuj3fo74tm60","pricing_plan_id":"cebpf4jnsgd1na2vs0mg"},{"bike_id":"8c20dde3-cb30-4650-9e0f-e78059040f15","system_id":"levelo_inurba_marseille","lat":43.312609,"lon":5.401662,"is_reserved":false,"is_disabled":false,"rental_uris":{"android":"levelo://app?vid=8c20dde3-cb30-4650-9e0f-e78059040f15","ios":"levelo://app?vid=8c20dde3-cb30-4650-9e0f-e78059040f15"},"vehicle_type_id":"4","last_reported":1723496923,"current_range_meters":20400,"station_id":"ce4bh092rcd13ifvqd30","pricing_plan_id":"cebpf4jnsgd1na2vs0mg"},{"bike_id":"d369b526-ec77-4e7c-9f5c-aedd3d5c3a88","system_id":"levelo_inurba_marseille","lat":43.28856,"lon":5.358371,"is_reserved":false,"is_disabled":false,"rental_uris":{"android":"levelo://app?vid=d369b526-ec77-4e7c-9f5c-aedd3d5c3a88","ios":"levelo://app?vid=d369b526-ec77-4e7c-9f5c-aedd3d5c3a88"},"vehicle_type_id":"4","last_reported":1723496923,"current_range_meters":2000,"station_id":"ce4bhb12rcd13ifvqem0","pricing_plan_id":"cebpf4jnsgd1na2vs0mg"},{"bike_id":"458a119d-1ac2-455a-a7b9-4523219ce730","system_id":"levelo_inurba_marseille","lat":43.312609,"lon":5.401662,"is_reserved":false,"is_disabled":false,"rental_uris":{"android":"levelo://app?vid=458a119d-1ac2-455a-a7b9-4523219ce730","ios":"levelo://app?vid=458a119d-1ac2-455a-a7b9-4523219ce730"},"vehicle_type_id":"4","last_reported":1723496923,"current_range_meters":1600,"station_id":"ce4bh092rcd13ifvqd30","pricing_plan_id":"cebpf4jnsgd1na2vs0mg"},{"bike_id":"e94c047a-54db-4daa-97b7-51207978ff31","system_id":"levelo_inurba_marseille","lat":43.309371,"lon":5.401449,"is_reserved":false,"is_disabled":false,"rental_uris":{"android":"levelo://app?vid=e94c047a-54db-4daa-97b7-51207978ff31","ios":"levelo://app?vid=e94c047a-54db-4daa-97b7-51207978ff31"},"vehicle_type_id":"4","last_reported":1723496923,"current_range_meters":0,"station_id":"ce4bgvp2rcd13ifvqct0","pricing_plan_id":"cebpf4jnsgd1na2vs0mg"},{"bike_id":"ac75d8e5-5139-4e43-a64e-51e7994c2517","system_id":"levelo_inurba_marseille","lat":43.337444,"lon":5.374475,"is_reserved":false,"is_disabled":false,"rental_uris":{"android":"levelo://app?vid=ac75d8e5-5139-4e43-a64e-51e7994c2517","ios":"levelo://app?vid=ac75d8e5-5139-4e43-a64e-51e7994c2517"},"vehicle_type_id":"3","last_reported":1723496923,"current_range_meters":24800,"station_id":"","pricing_plan_id":"cebpf4jnsgd1na2vs0mg"},{"bike_id":"43f21911-683d-4ba4-93d3-8a7e20e1c78c","system_id":"levelo_inurba_marseille","lat":43.33746,"lon":5.374626,"is_reserved":false,"is_disabled":false,"rental_uris":{"android":"levelo://app?vid=43f21911-683d-4ba4-93d3-8a7e20e1c78c","ios":"levelo://app?vid=43f21911-683d-4ba4-93d3-8a7e20e1c78c"},"vehicle_type_id":"4","last_reported":1723496923,"current_range_meters":24000,"station_id":"","pricing_plan_id":"cebpf4jnsgd1na2vs0mg"},{"bike_id":"6086599c-14e6-492d-8b53-d8808720b8a6","system_id":"levelo_inurba_marseille","lat":43.287839,"lon":5.373678,"is_reserved":false,"is_disabled":false,"rental_uris":{"android":"levelo://app?vid=6086599c-14e6-492d-8b53-d8808720b8a6","ios":"levelo://app?vid=6086599c-14e6-492d-8b53-d8808720b8a6"},"vehicle_type_id":"4","last_reported":1723496923,"current_range_meters":7600,"station_id":"","pricing_plan_id":"cebpf4jnsgd1na2vs0mg"},{"bike_id":"50503b1c-23de-412c-8bb5-4f40012a64e8","system_id":"levelo_inurba_marseille","lat":43.33753,"lon":5.37444,"is_reserved":false,"is_disabled":false,"rental_uris":{"android":"levelo://app?vid=50503b1c-23de-412c-8bb5-4f40012a64e8","ios":"levelo://app?vid=50503b1c-23de-412c-8bb5-4f40012a64e8"},"vehicle_type_id":"4","last_reported":1723496923,"current_range_meters":23200,"station_id":"","pricing_plan_id":"cebpf4jnsgd1na2vs0mg"},{"bike_id":"29ff136d-1873-4cfe-93fd-d2f215fd3ef1","system_id":"levelo_inurba_marseille","lat":43.309371,"lon":5.401449,"is_reserved":false,"is_disabled":false,"rental_uris":{"android":"levelo://app?vid=29ff136d-1873-4cfe-93fd-d2f215fd3ef1","ios":"levelo://app?vid=29ff136d-1873-4cfe-93fd-d2f215fd3ef1"},"vehicle_type_id":"4","last_reported":1723496923,"current_range_meters":3600,"station_id":"ce4bgvp2rcd13ifvqct0","pricing_plan_id":"cebpf4jnsgd1na2vs0mg"},{"bike_id":"1f70fe2c-0fe3-4171-acbd-34546fa833cf","system_id":"levelo_inurba_marseille","lat":43.309371,"lon":5.401449,"is_reserved":false,"is_disabled":false,"rental_uris":{"android":"levelo://app?vid=1f70fe2c-0fe3-4171-acbd-34546fa833cf","ios":"levelo://app?vid=1f70fe2c-0fe3-4171-acbd-34546fa833cf"},"vehicle_type_id":"4","last_reported":1723496923,"current_range_meters":27600,"station_id":"ce4bgvp2rcd13ifvqct0","pricing_plan_id":"cebpf4jnsgd1na2vs0mg"},{"bike_id":"7b9e8744-1a62-4d79-83e6-366501021f18","system_id":"levelo_inurba_marseille","lat":43.3376,"lon":5.37436,"is_reserved":false,"is_disabled":false,"rental_uris":{"android":"levelo://app?vid=7b9e8744-1a62-4d79-83e6-366501021f18","ios":"levelo://app?vid=7b9e8744-1a62-4d79-83e6-366501021f18"},"vehicle_type_id":"4","last_reported":1723496923,"current_range_meters":31200,"station_id":"","pricing_plan_id":"cebpf4jnsgd1na2vs0mg"},{"bike_id":"1ece39e8-5ec5-465b-b0d5-bdea3554c74d","system_id":"levelo_inurba_marseille","lat":43.337605,"lon":5.374508,"is_reserved":false,"is_disabled":false,"rental_uris":{"android":"levelo://app?vid=1ece39e8-5ec5-465b-b0d5-bdea3554c74d","ios":"levelo://app?vid=1ece39e8-5ec5-465b-b0d5-bdea3554c74d"},"vehicle_type_id":"4","last_reported":1723496923,"current_range_meters":15200,"station_id":"","pricing_plan_id":"cebpf4jnsgd1na2vs0mg"},{"bike_id":"00b24386-6901-4699-b776-b52c694703c9","system_id":"levelo_inurba_marseille","lat":43.306412,"lon":5.401035,"is_reserved":false,"is_disabled":false,"rental_uris":{"android":"levelo://app?vid=00b24386-6901-4699-b776-b52c694703c9","ios":"levelo://app?vid=00b24386-6901-4699-b776-b52c694703c9"},"vehicle_type_id":"4","last_reported":1723496923,"current_range_meters":0,"station_id":"ce4bh112rcd13ifvqda0","pricing_plan_id":"cebpf4jnsgd1na2vs0mg"},{"bike_id":"b2d6b700-be3e-4c27-ab3b-d1fbb5513dee","system_id":"levelo_inurba_marseille","lat":43.33769,"lon":5.37468,"is_reserved":false,"is_disabled":false,"rental_uris":{"android":"levelo://app?vid=b2d6b700-be3e-4c27-ab3b-d1fbb5513dee","ios":"levelo://app?vid=b2d6b700-be3e-4c27-ab3b-d1fbb5513dee"},"vehicle_type_id":"4","last_reported":1723496923,"current_range_meters":26400,"station_id":"","pricing_plan_id":"cebpf4jnsgd1na2vs0mg"},{"bike_id":"22d23e81-d601-4c76-9973-e595fa549c3b","system_id":"levelo_inurba_marseille","lat":43.33769,"lon":5.37477,"is_reserved":false,"is_disabled":false,"rental_uris":{"android":"levelo://app?vid=22d23e81-d601-4c76-9973-e595fa549c3b","ios":"levelo://app?vid=22d23e81-d601-4c76-9973-e595fa549c3b"},"vehicle_type_id":"4","last_reported":1723496923,"current_range_meters":800,"station_id":"","pricing_plan_id":"cebpf4jnsgd1na2vs0mg"},{"bike_id":"a0eeb4a3-6ae3-44c3-8527-155da571cd64","system_id":"levelo_inurba_marseille","lat":43.3377,"lon":5.37475,"is_reserved":false,"is_disabled":false,"rental_uris":{"android":"levelo://app?vid=a0eeb4a3-6ae3-44c3-8527-155da571cd64","ios":"levelo://app?vid=a0eeb4a3-6ae3-44c3-8527-155da571cd64"},"vehicle_type_id":"4","last_reported":1723496923,"current_range_meters":22400,"station_id":"","pricing_plan_id":"cebpf4jnsgd1na2vs0mg"},{"bike_id":"ace12e57-f66f-4efa-96db-c6aa50a829e9","system_id":"levelo_inurba_marseille","lat":43.33773,"lon":5.37477,"is_reserved":false,"is_disabled":false,"rental_uris":{"android":"levelo://app?vid=ace12e57-f66f-4efa-96db-c6aa50a829e9","ios":"levelo://app?vid=ace12e57-f66f-4efa-96db-c6aa50a829e9"},"vehicle_type_id":"4","last_reported":1723496923,"current_range_meters":18800,"station_id":"","pricing_plan_id":"cebpf4jnsgd1na2vs0mg"},{"bike_id":"8580717d-eb3f-4f14-b031-ffa8a147d520","system_id":"levelo_inurba_marseille","lat":43.33776,"lon":5.37482,"is_reserved":false,"is_disabled":false,"rental_uris":{"android":"levelo://app?vid=8580717d-eb3f-4f14-b031-ffa8a147d520","ios":"levelo://app?vid=8580717d-eb3f-4f14-b031-ffa8a147d520"},"vehicle_type_id":"4","last_reported":1723496923,"current_range_meters":15200,"station_id":"","pricing_plan_id":"cebpf4jnsgd1na2vs0mg"},{"bike_id":"b30140dc-9691-46aa-b1c9-23fa94d20e1b","system_id":"levelo_inurba_marseille","lat":43.28727,"lon":5.36078,"is_reserved":false,"is_disabled":false,"rental_uris":{"android":"levelo://app?vid=b30140dc-9691-46aa-b1c9-23fa94d20e1b","ios":"levelo://app?vid=b30140dc-9691-46aa-b1c9-23fa94d20e1b"},"vehicle_type_id":"4","last_reported":1723496923,"current_range_meters":31600,"station_id":"cki0cbj6b192h4jlfktg","pricing_plan_id":"cebpf4jnsgd1na2vs0mg"},{"bike_id":"b9114623-9cf0-4c5b-a25a-c82a2f5fbe44","system_id":"levelo_inurba_marseille","lat":43.33888,"lon":5.36605,"is_reserved":false,"is_disabled":false,"rental_uris":{"android":"levelo://app?vid=b9114623-9cf0-4c5b-a25a-c82a2f5fbe44","ios":"levelo://app?vid=b9114623-9cf0-4c5b-a25a-c82a2f5fbe44"},"vehicle_type_id":"4","last_reported":1723496923,"current_range_meters":4000,"station_id":"","pricing_plan_id":"cebpf4jnsgd1na2vs0mg"},{"bike_id":"0aa55886-fbb1-4aae-b870-84b61ccc4053","system_id":"levelo_inurba_marseille","lat":43.298681,"lon":5.397225,"is_reserved":false,"is_disabled":false,"rental_uris":{"android":"levelo://app?vid=0aa55886-fbb1-4aae-b870-84b61ccc4053","ios":"levelo://app?vid=0aa55886-fbb1-4aae-b870-84b61ccc4053"},"vehicle_type_id":"4","last_reported":1723496923,"current_range_meters":8800,"station_id":"ce4bh0h2rcd13ifvqd50","pricing_plan_id":"cebpf4jnsgd1na2vs0mg"},{"bike_id":"9c6d9aa8-864f-4396-94bb-bc7b80b91abb","system_id":"levelo_inurba_marseille","lat":43.286591,"lon":5.363346,"is_reserved":false,"is_disabled":false,"rental_uris":{"android":"levelo://app?vid=9c6d9aa8-864f-4396-94bb-bc7b80b91abb","ios":"levelo://app?vid=9c6d9aa8-864f-4396-94bb-bc7b80b91abb"},"vehicle_type_id":"4","last_reported":1723496923,"current_range_meters":24000,"station_id":"ce4bhah2rcd13ifvqej0","pricing_plan_id":"cebpf4jnsgd1na2vs0mg"},{"bike_id":"b07bb2ae-282f-4725-af53-8f8ad8f4e51c","system_id":"levelo_inurba_marseille","lat":43.286591,"lon":5.363346,"is_reserved":false,"is_disabled":false,"rental_uris":{"android":"levelo://app?vid=b07bb2ae-282f-4725-af53-8f8ad8f4e51c","ios":"levelo://app?vid=b07bb2ae-282f-4725-af53-8f8ad8f4e51c"},"vehicle_type_id":"4","last_reported":1723496923,"current_range_meters":7200,"station_id":"ce4bhah2rcd13ifvqej0","pricing_plan_id":"cebpf4jnsgd1na2vs0mg"},{"bike_id":"2a424c12-555e-4010-b9c4-89ec11c0ebe2","system_id":"levelo_inurba_marseille","lat":43.286591,"lon":5.363346,"is_reserved":false,"is_disabled":false,"rental_uris":{"android":"levelo://app?vid=2a424c12-555e-4010-b9c4-89ec11c0ebe2","ios":"levelo://app?vid=2a424c12-555e-4010-b9c4-89ec11c0ebe2"},"vehicle_type_id":"4","last_reported":1723496923,"current_range_meters":15200,"station_id":"ce4bhah2rcd13ifvqej0","pricing_plan_id":"cebpf4jnsgd1na2vs0mg"},{"bike_id":"85fb1feb-3e53-4d65-864a-2f079ab84026","system_id":"levelo_inurba_marseille","lat":43.298681,"lon":5.397225,"is_reserved":false,"is_disabled":false,"rental_uris":{"android":"levelo://app?vid=85fb1feb-3e53-4d65-864a-2f079ab84026","ios":"levelo://app?vid=85fb1feb-3e53-4d65-864a-2f079ab84026"},"vehicle_type_id":"4","last_reported":1723496923,"current_range_meters":30000,"station_id":"ce4bh0h2rcd13ifvqd50","pricing_plan_id":"cebpf4jnsgd1na2vs0mg"},{"bike_id":"9cbf9d2e-7fa3-4165-978b-4725008db32c","system_id":"levelo_inurba_marseille","lat":43.28701,"lon":5.37398,"is_reserved":false,"is_disabled":false,"rental_uris":{"android":"levelo://app?vid=9cbf9d2e-7fa3-4165-978b-4725008db32c","ios":"levelo://app?vid=9cbf9d2e-7fa3-4165-978b-4725008db32c"},"vehicle_type_id":"4","last_reported":1723496923,"current_range_meters":2000,"station_id":"ce4bh3p2rcd13ifvqdq0","pricing_plan_id":"cebpf4jnsgd1na2vs0mg"},{"bike_id":"617a0282-dd52-4adc-beaf-6b36ef21cfd1","system_id":"levelo_inurba_marseille","lat":43.286961,"lon":5.373785,"is_reserved":false,"is_disabled":false,"rental_uris":{"android":"levelo://app?vid=617a0282-dd52-4adc-beaf-6b36ef21cfd1","ios":"levelo://app?vid=617a0282-dd52-4adc-beaf-6b36ef21cfd1"},"vehicle_type_id":"4","last_reported":1723496923,"current_range_meters":8400,"station_id":"ce4bh3p2rcd13ifvqdq0","pricing_plan_id":"cebpf4jnsgd1na2vs0mg"},{"bike_id":"bac858af-f0ed-40ff-9444-ceec2ec61702","system_id":"levelo_inurba_marseille","lat":43.298681,"lon":5.397225,"is_reserved":false,"is_disabled":false,"rental_uris":{"android":"levelo://app?vid=bac858af-f0ed-40ff-9444-ceec2ec61702","ios":"levelo://app?vid=bac858af-f0ed-40ff-9444-ceec2ec61702"},"vehicle_type_id":"4","last_reported":1723496923,"current_range_meters":10000,"station_id":"ce4bh0h2rcd13ifvqd50","pricing_plan_id":"cebpf4jnsgd1na2vs0mg"},{"bike_id":"40d3d170-0b81-47b8-86f0-6052d802b512","system_id":"levelo_inurba_marseille","lat":43.286961,"lon":5.373785,"is_reserved":false,"is_disabled":false,"rental_uris":{"android":"levelo://app?vid=40d3d170-0b81-47b8-86f0-6052d802b512","ios":"levelo://app?vid=40d3d170-0b81-47b8-86f0-6052d802b512"},"vehicle_type_id":"4","last_reported":1723496923,"current_range_meters":16000,"station_id":"ce4bh3p2rcd13ifvqdq0","pricing_plan_id":"cebpf4jnsgd1na2vs0mg"},{"bike_id":"298cdea8-ed59-4d8f-b1b6-f9ad455f5e4a","system_id":"levelo_inurba_marseille","lat":43.289307,"lon":5.38406,"is_reserved":false,"is_disabled":false,"rental_uris":{"android":"levelo://app?vid=298cdea8-ed59-4d8f-b1b6-f9ad455f5e4a","ios":"levelo://app?vid=298cdea8-ed59-4d8f-b1b6-f9ad455f5e4a"},"vehicle_type_id":"4","last_reported":1723496923,"current_range_meters":31600,"station_id":"ce4bh612rcd13ifvqe6g","pricing_plan_id":"cebpf4jnsgd1na2vs0mg"},{"bike_id":"97fa2eab-b258-4abe-9e99-0d60fea31097","system_id":"levelo_inurba_marseille","lat":43.289307,"lon":5.38406,"is_reserved":false,"is_disabled":false,"rental_uris":{"android":"levelo://app?vid=97fa2eab-b258-4abe-9e99-0d60fea31097","ios":"levelo://app?vid=97fa2eab-b258-4abe-9e99-0d60fea31097"},"vehicle_type_id":"4","last_reported":1723496923,"current_range_meters":0,"station_id":"ce4bh612rcd13ifvqe6g","pricing_plan_id":"cebpf4jnsgd1na2vs0mg"},{"bike_id":"0a2ca1d2-9a32-4d20-8be7-1df87d28f133","system_id":"levelo_inurba_marseille","lat":43.289307,"lon":5.38406,"is_reserved":false,"is_disabled":false,"rental_uris":{"android":"levelo://app?vid=0a2ca1d2-9a32-4d20-8be7-1df87d28f133","ios":"levelo://app?vid=0a2ca1d2-9a32-4d20-8be7-1df87d28f133"},"vehicle_type_id":"4","last_reported":1723496923,"current_range_meters":0,"station_id":"ce4bh612rcd13ifvqe6g","pricing_plan_id":"cebpf4jnsgd1na2vs0mg"},{"bike_id":"0b06c8e0-5362-47d2-a928-1778352afe8c","system_id":"levelo_inurba_marseille","lat":43.302759,"lon":5.400793,"is_reserved":false,"is_disabled":false,"rental_uris":{"android":"levelo://app?vid=0b06c8e0-5362-47d2-a928-1778352afe8c","ios":"levelo://app?vid=0b06c8e0-5362-47d2-a928-1778352afe8c"},"vehicle_type_id":"4","last_reported":1723496923,"current_range_meters":19600,"station_id":"ce4bgvh2rcd13ifvqcs0","pricing_plan_id":"cebpf4jnsgd1na2vs0mg"},{"bike_id":"c56504f6-f08d-410f-b9cd-9f06b6b7dc20","system_id":"levelo_inurba_marseille","lat":43.290336,"lon":5.386425,"is_reserved":false,"is_disabled":false,"rental_uris":{"android":"levelo://app?vid=c56504f6-f08d-410f-b9cd-9f06b6b7dc20","ios":"levelo://app?vid=c56504f6-f08d-410f-b9cd-9f06b6b7dc20"},"vehicle_type_id":"4","last_reported":1723496923,"current_range_meters":2000,"station_id":"ce4bh4p2rcd13ifvqe0g","pricing_plan_id":"cebpf4jnsgd1na2vs0mg"},{"bike_id":"878cff72-3438-44ba-9a72-01ec32ed8a6e","system_id":"levelo_inurba_marseille","lat":43.290336,"lon":5.386425,"is_reserved":false,"is_disabled":false,"rental_uris":{"android":"levelo://app?vid=878cff72-3438-44ba-9a72-01ec32ed8a6e","ios":"levelo://app?vid=878cff72-3438-44ba-9a72-01ec32ed8a6e"},"vehicle_type_id":"4","last_reported":1723496923,"current_range_meters":4400,"station_id":"ce4bh4p2rcd13ifvqe0g","pricing_plan_id":"cebpf4jnsgd1na2vs0mg"},