{"last_updated":1687135285,"ttl":30,"version":"2.2","data":{"bikes":[{"bike_id":"c579cd28-6ce2-4362-8391-740fa74ceac5","system_id":"levelo_inurba_marseille","lat":43.313391,"lon":5.36706,"is_reserved":false,"is_disabled":false,"rental_uris":{"android":"levelo://app?vid=c579cd28-6ce2-4362-8391-740fa74ceac5","ios":"levelo://app?vid=c579cd28-6ce2-4362-8391-740fa74ceac5"},"vehicle_type_id":"4","last_reported":1687135286,"current_range_meters":26400,"station_id":"ce4bgr92rcd13ifvqc6g","pricing_plan_id":"free"},{"bike_id":"3ff33863-9e1a-4530-b904-4468e06a9077","system_id":"levelo_inurba_marseille","lat":43.309076,"lon":5.368465,"is_reserved":false,"is_disabled":false,"rental_uris":{"android":"levelo://app?vid=3ff33863-9e1a-4530-b904-4468e06a9077","ios":"levelo://app?vid=3ff33863-9e1a-4530-b904-4468e06a9077"},"vehicle_type_id":"4","last_reported":1687135286,"current_range_meters":30400,"station_id":"ce4bgn92rcd13ifvqbvg","pricing_plan_id":"free"},{"bike_id":"9c010ccd-71df-4eb6-916b-68947abfa074","system_id":"levelo_inurba_marseille","lat":43.314811,"lon":5.373103,"is_reserved":false,"is_disabled":false,"rental_uris":{"android":"levelo://app?vid=9c010ccd-71df-4eb6-916b-68947abfa074","ios":"levelo://app?vid=9c010ccd-71df-4eb6-916b-68947abfa074"},"vehicle_type_id":"4","last_reported":1687135286,"current_range_meters":29200,"station_id":"ce4bgt12rcd13ifvqcd0","pricing_plan_id":"free"},{"bike_id":"9eebdab9-8cc7-45ea-9423-bb8fec1a65f5","system_id":"levelo_inurba_marseille","lat":43.308614,"lon":5.372098,"is_reserved":false,"is_disabled":false,"rental_uris":{"android":"levelo://app?vid=9eebdab9-8cc7-45ea-9423-bb8fec1a65f5","ios":"levelo://app?vid=9eebdab9-8cc7-45ea-9423-bb8fec1a65f5"},"vehicle_type_id":"4","last_reported":1687135286,"current_range_meters":25600,"station_id":"ce4bguh2rcd13ifvqckg","pricing_plan_id":"free"},{"bike_id":"588b1978-e3e8-4353-a027-5dd43166cd77","system_id":"levelo_inurba_marseille","lat":43.308614,"lon":5.372098,"is_reserved":false,"is_disabled":false,"rental_uris":{"android":"levelo://app?vid=588b1978-e3e8-4353-a027-5dd43166cd77","ios":"levelo://app?vid=588b1978-e3e8-4353-a027-5dd43166cd77"},"vehicle_type_id":"4","last_reported":1687135286,"current_range_meters":12400,"station_id":"ce4bguh2rcd13ifvqckg","pricing_plan_id":"free"},{"bike_id":"80dbd797-15cf-4881-9371-5a4e8c5d7370","system_id":"levelo_inurba_marseille","lat":43.305989,"lon":5.37225,"is_reserved":false,"is_disabled":false,"rental_uris":{"android":"levelo://app?vid=80dbd797-15cf-4881-9371-5a4e8c5d7370","ios":"levelo://app?vid=80dbd797-15cf-4881-9371-5a4e8c5d7370"},"vehicle_type_id":"4","last_reported":1687135286,"current_range_meters":29200,"station_id":"ce4bgqh2rcd13ifvqc4g","pricing_plan_id":"free"},{"bike_id":"47e6996c-d18a-483c-be14-bb4789c5a5d0","system_id":"levelo_inurba_marseille","lat":43.305989,"lon":5.37225,"is_reserved":false,"is_disabled":false,"rental_uris":{"android":"levelo://app?vid=47e6996c-d18a-483c-be14-bb4789c5a5d0","ios":"levelo://app?vid=47e6996c-d18a-483c-be14-bb4789c5a5d0"},"vehicle_type_id":"4","last_reported":1687135286,"current_range_meters":30000,"station_id":"ce4bgqh2rcd13ifvqc4g","pricing_plan_id":"free"},{"bike_id":"14156c24-c8c8-4f46-8ca8-64611fe1e34d","system_id":"levelo_inurba_marseille","lat":43.305989,"lon":5.37225,"is_reserved":false,"is_disabled":false,"rental_uris":{"android":"levelo://app?vid=14156c24-c8c8-4f46-8ca8-64611fe1e34d","ios":"levelo://app?vid=14156c24-c8c8-4f46-8ca8-64611fe1e34d"},"vehicle_type_id":"4","last_reported":1687135286,"current_range_meters":23200,"station_id":"ce4bgqh2rcd13ifvqc4g","pricing_plan_id":"free"},{"bike_id":"d6d95a10-4f91-49e7-8dcf-ad0a702eeeb4","system_id":"levelo_inurba_marseille","lat":43.305989,"lon":5.37225,"is_reserved":false,"is_disabled":false,"rental_uris":{"android":"levelo://app?vid=d6d95a10-4f91-49e7-8dcf-ad0a702eeeb4","ios":"levelo://app?vid=d6d95a10-4f91-49e7-8dcf-ad0a702eeeb4"},"vehicle_type_id":"4","last_reported":1687135286,"current_range_meters":31600,"station_id":"ce4bgqh2rcd13ifvqc4g","pricing_plan_id":"free"},{"bike_id":"99bccd45-8b5d-4c82-904c-d741ee6c6530","system_id":"levelo_inurba_marseille","lat":43.305989,"lon":5.37225,"is_reserved":false,"is_disabled":false,"rental_uris":{"android":"levelo://app?vid=99bccd45-8b5d-4c82-904c-d741ee6c6530","ios":"levelo://app?vid=99bccd45-8b5d-4c82-904c-d741ee6c6530"},"vehicle_type_id":"4","last_reported":1687135286,"current_range_meters":26400,"station_id":"ce4bgqh2rcd13ifvqc4g","pricing_plan_id":"free"},{"bike_id":"e1453fe6-cf26-4275-a503-1b1bdf83fcfd","system_id":"levelo_inurba_marseille","lat":43.311131,"lon":5.377651,"is_reserved":false,"is_disabled":false,"rental_uris":{"android":"levelo://app?vid=e1453fe6-cf26-4275-a503-1b1bdf83fcfd","ios":"levelo://app?vid=e1453fe6-cf26-4275-a503-1b1bdf83fcfd"},"vehicle_type_id":"4","last_reported":1687135286,"current_range_meters":31200,"station_id":"ce4bgt92rcd13ifvqcg0","pricing_plan_id":"free"},{"bike_id":"38d96d2c-86ec-4e14-8601-9862d726f6c4","system_id":"levelo_inurba_marseille","lat":43.31124,"lon":5.37758,"is_reserved":false,"is_disabled":false,"rental_uris":{"android":"levelo://app?vid=38d96d2c-86ec-4e14-8601-9862d726f6c4","ios":"levelo://app?vid=38d96d2c-86ec-4e14-8601-9862d726f6c4"},"vehicle_type_id":"4","last_reported":1687135286,"current_range_meters":0,"station_id":"ce4bgt92rcd13ifvqcg0","pricing_plan_id":"free"},{"bike_id":"8a0fa7c2-7b49-4ba1-98a1-041115fd5a60","system_id":"levelo_inurba_marseille","lat":43.305989,"lon":5.37225,"is_reserved":false,"is_disabled":false,"rental_uris":{"android":"levelo://app?vid=8a0fa7c2-7b49-4ba1-98a1-041115fd5a60","ios":"levelo://app?vid=8a0fa7c2-7b49-4ba1-98a1-041115fd5a60"},"vehicle_type_id":"4","last_reported":1687135286,"current_range_meters":27600,"station_id":"ce4bgqh2rcd13ifvqc4g","pricing_plan_id":"free"},{"bike_id":"0ed3a6fa-7a08-42a5-b766-3b15fdcea44b","system_id":"levelo_inurba_marseille","lat":43.311131,"lon":5.377651,"is_reserved":false,"is_disabled":false,"rental_uris":{"android":"levelo://app?vid=0ed3a6fa-7a08-42a5-b766-3b15fdcea44b","ios":"levelo://app?vid=0ed3a6fa-7a08-42a5-b766-3b15fdcea44b"},"vehicle_type_id":"4","last_reported":1687135286,"current_range_meters":31600,"station_id":"ce4bgt92rcd13ifvqcg0","pricing_plan_id":"free"},{"bike_id":"3f477db4-e94c-44e7-bdb2-fb41c71c4191","system_id":"levelo_inurba_marseille","lat":43.311131,"lon":5.377651,"is_reserved":false,"is_disabled":false,"rental_uris":{"android":"levelo://app?vid=3f477db4-e94c-44e7-bdb2-fb41c71c4191","ios":"levelo://app?vid=3f477db4-e94c-44e7-bdb2-fb41c71c4191"},"vehicle_type_id":"4","last_reported":1687135286,"current_range_meters":26000,"station_id":"ce4bgt92rcd13ifvqcg0","pricing_plan_id":"free"},{"bike_id":"19e5742b-e687-4bc8-95dc-bd301e8e29c0","system_id":"levelo_inurba_marseille","lat":43.311131,"lon":5.377651,"is_reserved":false,"is_disabled":false,"rental_uris":{"android":"levelo://app?vid=19e5742b-e687-4bc8-95dc-bd301e8e29c0","ios":"levelo://app?vid=19e5742b-e687-4bc8-95dc-bd301e8e29c0"},"vehicle_type_id":"4","last_reported":1687135286,"current_range_meters":22400,"station_id":"ce4bgt92rcd13ifvqcg0","pricing_plan_id":"free"},{"bike_id":"65f9b37b-2031-4fd4-9367-36713af23104","system_id":"levelo_inurba_marseille","lat":43.31116,"lon":5.3777,"is_reserved":false,"is_disabled":false,"rental_uris":{"android":"levelo://app?vid=65f9b37b-2031-4fd4-9367-36713af23104","ios":"levelo://app?vid=65f9b37b-2031-4fd4-9367-36713af23104"},"vehicle_type_id":"4","last_reported":1687135286,"current_range_meters":31200,"station_id":"ce4bgt92rcd13ifvqcg0","pricing_plan_id":"free"},{"bike_id":"eeed8461-0ed9-4066-8c91-7ad68a51ba1d","system_id":"levelo_inurba_marseille","lat":43.311131,"lon":5.377651,"is_reserved":false,"is_disabled":false,"rental_uris":{"android":"levelo://app?vid=eeed8461-0ed9-4066-8c91-7ad68a51ba1d","ios":"levelo://app?vid=eeed8461-0ed9-4066-8c91-7ad68a51ba1d"},"vehicle_type_id":"4","last_reported":1687135286,"current_range_meters":6800,"station_id":"ce4bgt92rcd13ifvqcg0","pricing_plan_id":"free"},{"bike_id":"41b7a610-dc5c-4a1e-9e29-7b84b2af8861","system_id":"levelo_inurba_marseille","lat":43.311125,"lon":5.377624,"is_reserved":false,"is_disabled":false,"rental_uris":{"android":"levelo://app?vid=41b7a610-dc5c-4a1e-9e29-7b84b2af8861","ios":"levelo://app?vid=41b7a610-dc5c-4a1e-9e29-7b84b2af8861"},"vehicle_type_id":"4","last_reported":1687135286,"current_range_meters":30400,"station_id":"ce4bgt92rcd13ifvqcg0","pricing_plan_id":"free"},{"bike_id":"4424f651-13ad-4b34-b9fb-7087dec7bd04","system_id":"levelo_inurba_marseille","lat":43.317075,"lon":5.377367,"is_reserved":false,"is_disabled":false,"rental_uris":{"android":"levelo://app?vid=4424f651-13ad-4b34-b9fb-7087dec7bd04","ios":"levelo://app?vid=4424f651-13ad-4b34-b9fb-7087dec7bd04"},"vehicle_type_id":"4","last_reported":1687135286,"current_range_meters":30000,"station_id":"ce4bgth2rcd13ifvqch0","pricing_plan_id":"free"},{"bike_id":"2424216c-0462-4ad0-b127-d0366c91b61c","system_id":"levelo_inurba_marseille","lat":43.31751,"lon":5.37807,"is_reserved":false,"is_disabled":false,"rental_uris":{"android":"levelo://app?vid=2424216c-0462-4ad0-b127-d0366c91b61c","ios":"levelo://app?vid=2424216c-0462-4ad0-b127-d0366c91b61c"},"vehicle_type_id":"4","last_reported":1687135286,"current_range_meters":26000,"station_id":"","pricing_plan_id":"free"},{"bike_id":"502767a0-18e7-454c-a6d8-8f7fedbe0d99","system_id":"levelo_inurba_marseille","lat":43.30968,"lon":5.37926,"is_reserved":false,"is_disabled":false,"rental_uris":{"android":"levelo://app?vid=502767a0-18e7-454c-a6d8-8f7fedbe0d99","ios":"levelo://app?vid=502767a0-18e7-454c-a6d8-8f7fedbe0d99"},"vehicle_type_id":"4","last_reported":1687135286,"current_range_meters":26000,"station_id":"","pricing_plan_id":"free"},{"bike_id":"ace46086-22e0-47cc-90c2-91943afa8e38","system_id":"levelo_inurba_marseille","lat":43.303046,"lon":5.368981,"is_reserved":false,"is_disabled":false,"rental_uris":{"android":"levelo://app?vid=ace46086-22e0-47cc-90c2-91943afa8e38","ios":"levelo://app?vid=ace46086-22e0-47cc-90c2-91943afa8e38"},"vehicle_type_id":"4","last_reported":1687135286,"current_range_meters":31200,"station_id":"ce4bgqh2rcd13ifvqc5g","pricing_plan_id":"free"},{"bike_id":"fc87152f-0e3b-4aad-8608-cf4fcdb3a723","system_id":"levelo_inurba_marseille","lat":43.303046,"lon":5.368981,"is_reserved":false,"is_disabled":false,"rental_uris":{"android":"levelo://app?vid=fc87152f-0e3b-4aad-8608-cf4fcdb3a723","ios":"levelo://app?vid=fc87152f-0e3b-4aad-8608-cf4fcdb3a723"},"vehicle_type_id":"4","last_reported":1687135286,"current_range_meters":23200,"station_id":"ce4bgqh2rcd13ifvqc5g","pricing_plan_id":"free"},{"bike_id":"33847c6f-088f-4e59-a70d-c7b84235f175","system_id":"levelo_inurba_marseille","lat":43.303046,"lon":5.368981,"is_reserved":false,"is_disabled":false,"rental_uris":{"android":"levelo://app?vid=33847c6f-088f-4e59-a70d-c7b84235f175","ios":"levelo://app?vid=33847c6f-088f-4e59-a70d-c7b84235f175"},"vehicle_type_id":"4","last_reported":1687135286,"current_range_meters":20800,"station_id":"ce4bgqh2rcd13ifvqc5g","pricing_plan_id":"free"},{"bike_id":"34998e13-65d1-4e4e-b49b-70f63b9f80eb","system_id":"levelo_inurba_marseille","lat":43.301939,"lon":5.366286,"is_reserved":false,"is_disabled":false,"rental_uris":{"android":"levelo://app?vid=34998e13-65d1-4e4e-b49b-70f63b9f80eb","ios":"levelo://app?vid=34998e13-65d1-4e4e-b49b-70f63b9f80eb"},"vehicle_type_id":"4","last_reported":1687135286,"current_range_meters":26800,"station_id":"ce4bgrh2rcd13ifvqc8g","pricing_plan_id":"free"},{"bike_id":"b3e3a1b6-7535-45cf-b1b5-944d84c830a6","system_id":"levelo_inurba_marseille","lat":43.30185,"lon":5.36626,"is_reserved":false,"is_disabled":false,"rental_uris":{"android":"levelo://app?vid=b3e3a1b6-7535-45cf-b1b5-944d84c830a6","ios":"levelo://app?vid=b3e3a1b6-7535-45cf-b1b5-944d84c830a6"},"vehicle_type_id":"4","last_reported":1687135286,"current_range_meters":29600,"station_id":"ce4bgrh2rcd13ifvqc8g","pricing_plan_id":"free"},{"bike_id":"9fa312fe-1fee-4498-b79f-0788ede51bc8","system_id":"levelo_inurba_marseille","lat":43.308012,"lon":5.381511,"is_reserved":false,"is_disabled":false,"rental_uris":{"android":"levelo://app?vid=9fa312fe-1fee-4498-b79f-0788ede51bc8","ios":"levelo://app?vid=9fa312fe-1fee-4498-b79f-0788ede51bc8"},"vehicle_type_id":"4","last_reported":1687135286,"current_range_meters":24800,"station_id":"ce4bgt12rcd13ifvqce0","pricing_plan_id":"free"},{"bike_id":"ae33307b-fcd5-479b-9ae1-9002ed226c6e","system_id":"levelo_inurba_marseille","lat":43.308012,"lon":5.381511,"is_reserved":false,"is_disabled":false,"rental_uris":{"android":"levelo://app?vid=ae33307b-fcd5-479b-9ae1-9002ed226c6e","ios":"levelo://app?vid=ae33307b-fcd5-479b-9ae1-9002ed226c6e"},"vehicle_type_id":"4","last_reported":1687135286,"current_range_meters":27600,"station_id":"ce4bgt12rcd13ifvqce0","pricing_plan_id":"free"},{"bike_id":"8eac0eaa-8f2a-4c56-a22f-4cc6b891e4d8","system_id":"levelo_inurba_marseille","lat":43.308012,"lon":5.381511,"is_reserved":false,"is_disabled":false,"rental_uris":{"android":"levelo://app?vid=8eac0eaa-8f2a-4c56-a22f-4cc6b891e4d8","ios":"levelo://app?vid=8eac0eaa-8f2a-4c56-a22f-4cc6b891e4d8"},"vehicle_type_id":"4","last_reported":1687135286,"current_range_meters":3600,"station_id":"ce4bgt12rcd13ifvqce0","pricing_plan_id":"free"},{"bike_id":"199b9545-dfea-422e-a4f8-2731fbbfdefe","system_id":"levelo_inurba_marseille","lat":43.308012,"lon":5.381511,"is_reserved":false,"is_disabled":false,"rental_uris":{"android":"levelo://app?vid=199b9545-dfea-422e-a4f8-2731fbbfdefe","ios":"levelo://app?vid=199b9545-dfea-422e-a4f8-2731fbbfdefe"},"vehicle_type_id":"4","last_reported":1687135286,"current_range_meters":9600,"station_id":"ce4bgt12rcd13ifvqce0","pricing_plan_id":"free"},{"bike_id":"b491640b-ae18-43db-995c-dd61be1591d8","system_id":"levelo_inurba_marseille","lat":43.308012,"lon":5.381511,"is_reserved":false,"is_disabled":false,"rental_uris":{"android":"levelo://app?vid=b491640b-ae18-43db-995c-dd61be1591d8","ios":"levelo://app?vid=b491640b-ae18-43db-995c-dd61be1591d8"},"vehicle_type_id":"4","last_reported":1687135286,"current_range_meters":9200,"station_id":"ce4bgt12rcd13ifvqce0","pricing_plan_id":"free"},{"bike_id":"678e2ee5-b39e-4d54-ab47-e87bd5f2ea63","system_id":"levelo_inurba_marseille","lat":43.308012,"lon":5.381511,"is_reserved":false,"is_disabled":false,"rental_uris":{"android":"levelo://app?vid=678e2ee5-b39e-4d54-ab47-e87bd5f2ea63","ios":"levelo://app?vid=678e2ee5-b39e-4d54-ab47-e87bd5f2ea63"},"vehicle_type_id":"4","last_reported":1687135286,"current_range_meters":4000,"station_id":"ce4bgt12rcd13ifvqce0","pricing_plan_id":"free"},{"bike_id":"43fc693e-f2a9-4aec-8fd9-d094bb02cb70","system_id":"levelo_inurba_marseille","lat":43.304606,"lon":5.379026,"is_reserved":false,"is_disabled":false,"rental_uris":{"android":"levelo://app?vid=43fc693e-f2a9-4aec-8fd9-d094bb02cb70","ios":"levelo://app?vid=43fc693e-f2a9-4aec-8fd9-d094bb02cb70"},"vehicle_type_id":"4","last_reported":1687135286,"current_range_meters":15600,"station_id":"ce4bgup2rcd13ifvqcn0","pricing_plan_id":"free"},{"bike_id":"49a2accd-c02c-4dc7-af57-fd56772b3ff9","system_id":"levelo_inurba_marseille","lat":43.30143,"lon":5.37413,"is_reserved":false,"is_disabled":false,"rental_uris":{"android":"levelo://app?vid=49a2accd-c02c-4dc7-af57-fd56772b3ff9","ios":"levelo://app?vid=49a2accd-c02c-4dc7-af57-fd56772b3ff9"},"vehicle_type_id":"4","last_reported":1687135286,"current_range_meters":11600,"station_id":"ce4bgs92rcd13ifvqcc0","pricing_plan_id":"free"},{"bike_id":"a7eb4f1d-cd13-4524-9267-91d005bfadd3","system_id":"levelo_inurba_marseille","lat":43.30143,"lon":5.37413,"is_reserved":false,"is_disabled":false,"rental_uris":{"android":"levelo://app?vid=a7eb4f1d-cd13-4524-9267-91d005bfadd3","ios":"levelo://app?vid=a7eb4f1d-cd13-4524-9267-91d005bfadd3"},"vehicle_type_id":"4","last_reported":1687135286,"current_range_meters":5600,"station_id":"ce4bgs92rcd13ifvqcc0","pricing_plan_id":"free"},{"bike_id":"abb15d38-9ee6-4113-8939-36cef9e63da7","system_id":"levelo_inurba_marseille","lat":43.319935,"lon":5.381699,"is_reserved":false,"is_disabled":false,"rental_uris":{"android":"levelo://app?vid=abb15d38-9ee6-4113-8939-36cef9e63da7","ios":"levelo://app?vid=abb15d38-9ee6-4113-8939-36cef9e63da7"},"vehicle_type_id":"4","last_reported":1687135286,"current_range_meters":5200,"station_id":"ce4bhr12rcd13ifvqhpg","pricing_plan_id":"free"},{"bike_id":"5c9eecb4-0262-4e4c-92f0-80adc6e03893","system_id":"levelo_inurba_marseille","lat":43.319935,"lon":5.381699,"is_reserved":false,"is_disabled":false,"rental_uris":{"android":"levelo://app?vid=5c9eecb4-0262-4e4c-92f0-80adc6e03893","ios":"levelo://app?vid=5c9eecb4-0262-4e4c-92f0-80adc6e03893"},"vehicle_type_id":"4","last_reported":1687135286,"current_range_meters":12800,"station_id":"ce4bhr12rcd13ifvqhpg","pricing_plan_id":"free"},{"bike_id":"4f861f33-07f1-4fa8-9f28-eb3be314e697","system_id":"levelo_inurba_marseille","lat":43.319935,"lon":5.381699,"is_reserved":false,"is_disabled":false,"rental_uris":{"android":"levelo://app?vid=4f861f33-07f1-4fa8-9f28-eb3be314e697","ios":"levelo://app?vid=4f861f33-07f1-4fa8-9f28-eb3be314e697"},"vehicle_type_id":"4","last_reported":1687135286,"current_range_meters":20000,"station_id":"ce4bhr12rcd13ifvqhpg","pricing_plan_id":"free"},{"bike_id":"54c4cd93-4f19-4287-b17c-af99a21d6bf6","system_id":"levelo_inurba_marseille","lat":43.313571,"lon":5.384829,"is_reserved":false,"is_disabled":false,"rental_uris":{"android":"levelo://app?vid=54c4cd93-4f19-4287-b17c-af99a21d6bf6","ios":"levelo://app?vid=54c4cd93-4f19-4287-b17c-af99a21d6bf6"},"vehicle_type_id":"4","last_reported":1687135286,"current_range_meters":25600,"station_id":"ce4bgt92rcd13ifvqcf0","pricing_plan_id":"free"},{"bike_id":"b8517f10-21b9-4f46-b0d0-288f35a10cfd","system_id":"levelo_inurba_marseille","lat":43.313571,"lon":5.384829,"is_reserved":false,"is_disabled":false,"rental_uris":{"android":"levelo://app?vid=b8517f10-21b9-4f46-b0d0-288f35a10cfd","ios":"levelo://app?vid=b8517f10-21b9-4f46-b0d0-288f35a10cfd"},"vehicle_type_id":"4","last_reported":1687135286,"current_range_meters":30400,"station_id":"ce4bgt92rcd13ifvqcf0","pricing_plan_id":"free"},{"bike_id":"508561eb-8626-4050-bba9-1618414d7152","system_id":"levelo_inurba_marseille","lat":43.313571,"lon":5.384829,"is_reserved":false,"is_disabled":false,"rental_uris":{"android":"levelo://app?vid=508561eb-8626-4050-bba9-1618414d7152","ios":"levelo://app?vid=508561eb-8626-4050-bba9-1618414d7152"},"vehicle_type_id":"4","last_reported":1687135286,"current_range_meters":30000,"station_id":"ce4bgt92rcd13ifvqcf0","pricing_plan_id":"free"},{"bike_id":"94ef9b91-9a73-4a36-9ad7-e6ce59db45a8","system_id":"levelo_inurba_marseille","lat":43.313571,"lon":5.384829,"is_reserved":false,"is_disabled":false,"rental_uris":{"android":"levelo://app?vid=94ef9b91-9a73-4a36-9ad7-e6ce59db45a8","ios":"levelo://app?vid=94ef9b91-9a73-4a36-9ad7-e6ce59db45a8"},"vehicle_type_id":"4","last_reported":1687135286,"current_range_meters":24800,"station_id":"ce4bgt92rcd13ifvqcf0","pricing_plan_id":"free"},{"bike_id":"2255ca2e-ae7f-4125-a151-9b6121c03059","system_id":"levelo_inurba_marseille","lat":43.313571,"lon":5.384829,"is_reserved":false,"is_disabled":false,"rental_uris":{"android":"levelo://app?vid=2255ca2e-ae7f-4125-a151-9b6121c03059","ios":"levelo://app?vid=2255ca2e-ae7f-4125-a151-9b6121c03059"},"vehicle_type_id":"4","last_reported":1687135286,"current_range_meters":30400,"station_id":"ce4bgt92rcd13ifvqcf0","pricing_plan_id":"free"},{"bike_id":"c02fdf1a-ac20-4222-af51-0c54b199124c","system_id":"levelo_inurba_marseille","lat":43.31375,"lon":5.38528,"is_reserved":false,"is_disabled":false,"rental_uris":{"android":"levelo://app?vid=c02fdf1a-ac20-4222-af51-0c54b199124c","ios":"levelo://app?vid=c02fdf1a-ac20-4222-af51-0c54b199124c"},"vehicle_type_id":"4","last_reported":1687135286,"current_range_meters":18400,"station_id":"","pricing_plan_id":"free"},{"bike_id":"ce6824bb-555d-41f6-bbc0-49968aeb414e","system_id":"levelo_inurba_marseille","lat":43.299222,"lon":5.365554,"is_reserved":false,"is_disabled":false,"rental_uris":{"android":"levelo://app?vid=ce6824bb-555d-41f6-bbc0-49968aeb414e","ios":"levelo://app?vid=ce6824bb-555d-41f6-bbc0-49968aeb414e"},"vehicle_type_id":"4","last_reported":1687135286,"current_range_meters":2400,"station_id":"ce4bgm92rcd13ifvqbr0","pricing_plan_id":"free"},{"bike_id":"cb1a8bb3-98a3-4cd9-b86b-992d79913eb2","system_id":"levelo_inurba_marseille","lat":43.305364,"lon":5.384119,"is_reserved":false,"is_disabled":false,"rental_uris":{"android":"levelo://app?vid=cb1a8bb3-98a3-4cd9-b86b-992d79913eb2","ios":"levelo://app?vid=cb1a8bb3-98a3-4cd9-b86b-992d79913eb2"},"vehicle_type_id":"4","last_reported":1687135286,"current_range_meters":18400,"station_id":"ce4bgg92rcd13ifvqb30","pricing_plan_id":"free"},{"bike_id":"aae09e38-c8e1-4b5a-b25b-873d580b0cf1","system_id":"levelo_inurba_marseille","lat":43.298433,"lon":5.362774,"is_reserved":false,"is_disabled":false,"rental_uris":{"android":"levelo://app?vid=aae09e38-c8e1-4b5a-b25b-873d580b0cf1","ios":"levelo://app?vid=aae09e38-c8e1-4b5a-b25b-873d580b0cf1"},"vehicle_type_id":"4","last_reported":1687135286,"current_range_meters":15600,"station_id":"ce4bgpp2rcd13ifvqc3g","pricing_plan_id":"free"},{"bike_id":"26fb3d9e-349e-4452-aa18-e14e4d4ee6ec","system_id":"levelo_inurba_marseille","lat":43.311722,"lon":5.387247,"is_reserved":false,"is_disabled":false,"rental_uris":{"android":"levelo://app?vid=26fb3d9e-349e-4452-aa18-e14e4d4ee6ec","ios":"levelo://app?vid=26fb3d9e-349e-4452-aa18-e14e4d4ee6ec"},"vehicle_type_id":"4","last_reported":1687135286,"current_range_meters":26800,"station_id":"ce4bgv12rcd13ifvqcp0","pricing_plan_id":"free"},{"bike_id":"e961735d-01b5-4005-b4ca-7e950fa12171","system_id":"levelo_inurba_marseille","lat":43.311722,"lon":5.387247,"is_reserved":false,"is_disabled":false,"rental_uris":{"android":"levelo://app?vid=e961735d-01b5-4005-b4ca-7e950fa12171","ios":"levelo://app?vid=e961735d-01b5-4005-b4ca-7e950fa12171"},"vehicle_type_id":"4","last_reported":1687135286,"current_range_meters":4000,"station_id":"ce4bgv12rcd13ifvqcp0","pricing_plan_id":"free"},{"bike_id":"4c4be89d-30ae-4c75-9600-ceea1d217d16","system_id":"levelo_inurba_marseille","lat":43.311722,"lon":5.387247,"is_reserved":false,"is_disabled":false,"rental_uris":{"android":"levelo://app?vid=4c4be89d-30ae-4c75-9600-ceea1d217d16","ios":"levelo://app?vid=4c4be89d-30ae-4c75-9600-ceea1d217d16"},"vehicle_type_id":"4","last_reported":1687135286,"current_range_meters":28800,"station_id":"ce4bgv12rcd13ifvqcp0","pricing_plan_id":"free"},{"bike_id":"a001fc12-e88f-4cef-80cf-4aa00128ef3c","system_id":"levelo_inurba_marseille","lat":43.311722,"lon":5.387247,"is_reserved":false,"is_disabled":false,"rental_uris":{"android":"levelo://app?vid=a001fc12-e88f-4cef-80cf-4aa00128ef3c","ios":"levelo://app?vid=a001fc12-e88f-4cef-80cf-4aa00128ef3c"},"vehicle_type_id":"4","last_reported":1687135286,"current_range_meters":31200,"station_id":"ce4bgv12rcd13ifvqcp0","pricing_plan_id":"free"},{"bike_id":"a54d45d8-7ccc-4b4a-8034-c656383b27dc","system_id":"levelo_inurba_marseille","lat":43.31168,"lon":5.38715,"is_reserved":false,"is_disabled":false,"rental_uris":{"android":"levelo://app?vid=a54d45d8-7ccc-4b4a-8034-c656383b27dc","ios":"levelo://app?vid=a54d45d8-7ccc-4b4a-8034-c656383b27dc"},"vehicle_type_id":"4","last_reported":1687135286,"current_range_meters":24400,"station_id":"ce4bgv12rcd13ifvqcp0","pricing_plan_id":"free"},{"bike_id":"00abe58a-7989-40f4-bf2d-076efc7505b3","system_id":"levelo_inurba_marseille","lat":43.31164,"lon":5.38716,"is_reserved":false,"is_disabled":false,"rental_uris":{"android":"levelo://app?vid=00abe58a-7989-40f4-bf2d-076efc7505b3","ios":"levelo://app?vid=00abe58a-7989-40f4-bf2d-076efc7505b3"},"vehicle_type_id":"4","last_reported":1687135286,"current_range_meters":30400,"station_id":"ce4bgv12rcd13ifvqcp0","pricing_plan_id":"free"},{"bike_id":"a18869f0-6d32-4e7f-9bb4-d1773baeef3c","system_id":"levelo_inurba_marseille","lat":43.31166,"lon":5.38717,"is_reserved":false,"is_disabled":false,"rental_uris":{"android":"levelo://app?vid=a18869f0-6d32-4e7f-9bb4-d1773baeef3c","ios":"levelo://app?vid=a18869f0-6d32-4e7f-9bb4-d1773baeef3c"},"vehicle_type_id":"4","last_reported":1687135286,"current_range_meters":26400,"station_id":"ce4bgv12rcd13ifvqcp0","pricing_plan_id":"free"},{"bike_id":"40251fb6-e2d0-4b5d-b2df-ae489de72ccf","system_id":"levelo_inurba_marseille","lat":43.31163,"lon":5.38719,"is_reserved":false,"is_disabled":false,"rental_uris":{"android":"levelo://app?vid=40251fb6-e2d0-4b5d-b2df-ae489de72ccf","ios":"levelo://app?vid=40251fb6-e2d0-4b5d-b2df-ae489de72ccf"},"vehicle_type_id":"4","last_reported":1687135286,"current_range_meters":18800,"station_id":"ce4bgv12rcd13ifvqcp0","pricing_plan_id":"free"},{"bike_id":"7ba9e514-8e7c-4705-a489-72254707f22a","system_id":"levelo_inurba_marseille","lat":43.3117,"lon":5.3872,"is_reserved":false,"is_disabled":false,"rental_uris":{"android":"levelo://app?vid=7ba9e514-8e7c-4705-a489-72254707f22a","ios":"levelo://app?vid=7ba9e514-8e7c-4705-a489-72254707f22a"},"vehicle_type_id":"4","last_reported":1687135286,"current_range_meters":16000,"station_id":"ce4bgv12rcd13ifvqcp0","pricing_plan_id":"free"},{"bike_id":"c215ade0-a7db-40a8-aac4-cd66bb1d033f","system_id":"levelo_inurba_marseille","lat":43.297794,"lon":5.370888,"is_reserved":false,"is_disabled":false,"rental_uris":{"android":"levelo://app?vid=c215ade0-a7db-40a8-aac4-cd66bb1d033f","ios":"levelo://app?vid=c215ade0-a7db-40a8-aac4-cd66bb1d033f"},"vehicle_type_id":"4","last_reported":1687135286,"current_range_meters":27600,"station_id":"ce4bgop2rcd13ifvqc1g","pricing_plan_id":"free"},{"bike_id":"d4766ed6-823d-430b-952e-d4b60ac307f9","system_id":"levelo_inurba_marseille","lat":43.297794,"lon":5.370888,"is_reserved":false,"is_disabled":false,"rental_uris":{"android":"levelo://app?vid=d4766ed6-823d-430b-952e-d4b60ac307f9","ios":"levelo://app?vid=d4766ed6-823d-430b-952e-d4b60ac307f9"},"vehicle_type_id":"4","last_reported":1687135286,"current_range_meters":28800,"station_id":"ce4bgop2rcd13ifvqc1g","pricing_plan_id":"free"},{"bike_id":"af0a39cb-c9f7-4640-b9ca-1943a1bfa220","system_id":"levelo_inurba_marseille","lat":43.297794,"lon":5.370888,"is_reserved":false,"is_disabled":false,"rental_uris":{"android":"levelo://app?vid=af0a39cb-c9f7-4640-b9ca-1943a1bfa220","ios":"levelo://app?vid=af0a39cb-c9f7-4640-b9ca-1943a1bfa220"},"vehicle_type_id":"4","last_reported":1687135286,"current_range_meters":23600,"station_id":"ce4bgop2rcd13ifvqc1g","pricing_plan_id":"free"},{"bike_id":"69bf5c29-7e5d-45c7-b1b2-514d42707ee7","system_id":"levelo_inurba_marseille","lat":43.32825,"lon":5.36682,"is_reserved":false,"is_disabled":false,"rental_uris":{"android":"levelo://app?vid=69bf5c29-7e5d-45c7-b1b2-514d42707ee7","ios":"levelo://app?vid=69bf5c29-7e5d-45c7-b1b2-514d42707ee7"},"vehicle_type_id":"4","last_reported":1687135286,"current_range_meters":28400,"station_id":"ce4bhs92rcd13ifvqi0g","pricing_plan_id":"free"},{"bike_id":"27e857a0-6074-435d-85c0-7fc3761f1cbb","system_id":"levelo_inurba_marseille","lat":43.32826,"lon":5.36677,"is_reserved":false,"is_disabled":false,"rental_uris":{"android":"levelo://app?vid=27e857a0-6074-435d-85c0-7fc3761f1cbb","ios":"levelo://app?vid=27e857a0-6074-435d-85c0-7fc3761f1cbb"},"vehicle_type_id":"4","last_reported":1687135286,"current_range_meters":28000,"station_id":"ce4bhs92rcd13ifvqi0g","pricing_plan_id":"free"},{"bike_id":"c4c82479-60a6-4390-8970-3229e3eebb9c","system_id":"levelo_inurba_marseille","lat":43.32827,"lon":5.36686,"is_reserved":false,"is_disabled":false,"rental_uris":{"android":"levelo://app?vid=c4c82479-60a6-4390-8970-3229e3eebb9c","ios":"levelo://app?vid=c4c82479-60a6-4390-8970-3229e3eebb9c"},"vehicle_type_id":"4","last_reported":1687135286,"current_range_meters":17200,"station_id":"ce4bhs92rcd13ifvqi0g","pricing_plan_id":"free"},{"bike_id":"6d5ccf33-759a-4c7a-af82-9f67388b4177","system_id":"levelo_inurba_marseille","lat":43.32827,"lon":5.3668,"is_reserved":false,"is_disabled":false,"rental_uris":{"android":"levelo://app?vid=6d5ccf33-759a-4c7a-af82-9f67388b4177","ios":"levelo://app?vid=6d5ccf33-759a-4c7a-af82-9f67388b4177"},"vehicle_type_id":"4","last_reported":1687135286,"current_range_meters":28800,"station_id":"ce4bhs92rcd13ifvqi0g","pricing_plan_id":"free"},{"bike_id":"208819ee-4941-406c-8824-cfd62db04c30","system_id":"levelo_inurba_marseille","lat":43.328371,"lon":5.366909,"is_reserved":false,"is_disabled":false,"rental_uris":{"android":"levelo://app?vid=208819ee-4941-406c-8824-cfd62db04c30","ios":"levelo://app?vid=208819ee-4941-406c-8824-cfd62db04c30"},"vehicle_type_id":"4","last_reported":1687135286,"current_range_meters":27200,"station_id":"ce4bhs92rcd13ifvqi0g","pricing_plan_id":"free"},{"bike_id":"78911849-321a-41c5-b67b-eefecdab885b","system_id":"levelo_inurba_marseille","lat":43.32829,"lon":5.36696,"is_reserved":false,"is_disabled":false,"rental_uris":{"android":"levelo://app?vid=78911849-321a-41c5-b67b-eefecdab885b","ios":"levelo://app?vid=78911849-321a-41c5-b67b-eefecdab885b"},"vehicle_type_id":"4","last_reported":1687135286,"current_range_meters":2400,"station_id":"ce4bhs92rcd13ifvqi0g","pricing_plan_id":"free"},{"bike_id":"731cce5d-c725-402d-b941-54910a08f036","system_id":"levelo_inurba_marseille","lat":43.32829,"lon":5.36688,"is_reserved":false,"is_disabled":false,"rental_uris":{"android":"levelo://app?vid=731cce5d-c725-402d-b941-54910a08f036","ios":"levelo://app?vid=731cce5d-c725-402d-b941-54910a08f036"},"vehicle_type_id":"4","last_reported":1687135286,"current_range_meters":28000,"station_id":"ce4bhs92rcd13ifvqi0g","pricing_plan_id":"free"},{"bike_id":"9e60ff88-fe04-4b70-9af4-05a83fe316c7","system_id":"levelo_inurba_marseille","lat":43.32834,"lon":5.36681,"is_reserved":false,"is_disabled":false,"rental_uris":{"android":"levelo://app?vid=9e60ff88-fe04-4b70-9af4-05a83fe316c7","ios":"levelo://app?vid=9e60ff88-fe04-4b70-9af4-05a83fe316c7"},"vehicle_type_id":"4","last_reported":1687135286,"current_range_meters":26800,"station_id":"ce4bhs92rcd13ifvqi0g","pricing_plan_id":"free"},{"bike_id":"176f4894-d7fc-460e-aa5d-7c8c1e206dc3","system_id":"levelo_inurba_marseille","lat":43.297163,"lon":5.365866,"is_reserved":false,"is_disabled":false,"rental_uris":{"android":"levelo://app?vid=176f4894-d7fc-460e-aa5d-7c8c1e206dc3","ios":"levelo://app?vid=176f4894-d7fc-460e-aa5d-7c8c1e206dc3"},"vehicle_type_id":"4","last_reported":1687135286,"current_range_meters":8400,"station_id":"ce4bgn12rcd13ifvqbt0","pricing_plan_id":"free"},{"bike_id":"8e55f297-7b33-4769-81db-8719731e03c2","system_id":"levelo_inurba_marseille","lat":43.31076,"lon":5.389,"is_reserved":false,"is_disabled":false,"rental_uris":{"android":"levelo://app?vid=8e55f297-7b33-4769-81db-8719731e03c2","ios":"levelo://app?vid=8e55f297-7b33-4769-81db-8719731e03c2"},"vehicle_type_id":"4","last_reported":1687135286,"current_range_meters":19200,"station_id":"ce4bgv12rcd13ifvqcp0","pricing_plan_id":"free"},{"bike_id":"88d0330c-5bb0-4a19-9b65-d4683b42e015","system_id":"levelo_inurba_marseille","lat":43.29683,"lon":5.36046,"is_reserved":false,"is_disabled":false,"rental_uris":{"android":"levelo://app?vid=88d0330c-5bb0-4a19-9b65-d4683b42e015","ios":"levelo://app?vid=88d0330c-5bb0-4a19-9b65-d4683b42e015"},"vehicle_type_id":"4","last_reported":1687135286,"current_range_meters":800,"station_id":"","pricing_plan_id":"free"},{"bike_id":"a2d8af68-4719-4941-b59f-bdf367b0ae45","system_id":"levelo_inurba_marseille","lat":43.296131,"lon":5.370791,"is_reserved":false,"is_disabled":false,"rental_uris":{"android":"levelo://app?vid=a2d8af68-4719-4941-b59f-bdf367b0ae45","ios":"levelo://app?vid=a2d8af68-4719-4941-b59f-bdf367b0ae45"},"vehicle_type_id":"4","last_reported":1687135286,"current_range_meters":26400,"station_id":"ce4bgnh2rcd13ifvqc0g","pricing_plan_id":"free"},{"bike_id":"c5d7044c-af0d-4939-b89b-fc3166cba1b8","system_id":"levelo_inurba_marseille","lat":43.29573,"lon":5.367355,"is_reserved":false,"is_disabled":false,"rental_uris":{"android":"levelo://app?vid=c5d7044c-af0d-4939-b89b-fc3166cba1b8","ios":"levelo://app?vid=c5d7044c-af0d-4939-b89b-fc3166cba1b8"},"vehicle_type_id":"4","last_reported":1687135286,"current_range_meters":31200,"station_id":"ce4bgph2rcd13ifvqc2g","pricing_plan_id":"free"},{"bike_id":"2aa1a7e3-384e-46f7-96c7-d252d5cee3fa","system_id":"levelo_inurba_marseille","lat":43.29573,"lon":5.367355,"is_reserved":false,"is_disabled":false,"rental_uris":{"android":"levelo://app?vid=2aa1a7e3-384e-46f7-96c7-d252d5cee3fa","ios":"levelo://app?vid=2aa1a7e3-384e-46f7-96c7-d252d5cee3fa"},"vehicle_type_id":"4","last_reported":1687135286,"current_range_meters":30000,"station_id":"ce4bgph2rcd13ifvqc2g","pricing_plan_id":"free"},{"bike_id":"24f41ca5-b432-4feb-a0c8-a15026b97306","system_id":"levelo_inurba_marseille","lat":43.296131,"lon":5.370773,"is_reserved":false,"is_disabled":false,"rental_uris":{"android":"levelo://app?vid=24f41ca5-b432-4feb-a0c8-a15026b97306","ios":"levelo://app?vid=24f41ca5-b432-4feb-a0c8-a15026b97306"},"vehicle_type_id":"4","last_reported":1687135286,"current_range_meters":10400,"station_id":"ce4bgnh2rcd13ifvqc0g","pricing_plan_id":"free"},{"bike_id":"4d497ffc-2d56-464b-b2a8-20f9b853bda5","system_id":"levelo_inurba_marseille","lat":43.296935,"lon":5.376544,"is_reserved":false,"is_disabled":false,"rental_uris":{"android":"levelo://app?vid=4d497ffc-2d56-464b-b2a8-20f9b853bda5","ios":"levelo://app?vid=4d497ffc-2d56-464b-b2a8-20f9b853bda5"},"vehicle_type_id":"4","last_reported":1687135286,"current_range_meters":14000,"station_id":"ce4bgkh2rcd13ifvqbl0","pricing_plan_id":"free"},{"bike_id":"2f4ffc9a-a396-4289-8339-052543e2ed97","system_id":"levelo_inurba_marseille","lat":43.299028,"lon":5.381509,"is_reserved":false,"is_disabled":false,"rental_uris":{"android":"levelo://app?vid=2f4ffc9a-a396-4289-8339-052543e2ed97","ios":"levelo://app?vid=2f4ffc9a-a396-4289-8339-052543e2ed97"},"vehicle_type_id":"4","last_reported":1687135286,"current_range_meters":400,"station_id":"ce4bgj12rcd13ifvqbc0","pricing_plan_id":"free"},{"bike_id":"28e8a6eb-40a0-4725-aeca-f3cf6a52fd33","system_id":"levelo_inurba_marseille","lat":43.317557,"lon":5.390173,"is_reserved":false,"is_disabled":false,"rental_uris":{"android":"levelo://app?vid=28e8a6eb-40a0-4725-aeca-f3cf6a52fd33","ios":"levelo://app?vid=28e8a6eb-40a0-4725-aeca-f3cf6a52fd33"},"vehicle_type_id":"4","last_reported":1687135286,"current_range_meters":10400,"station_id":"ce4bhqp2rcd13ifvqhng","pricing_plan_id":"free"},{"bike_id":"2b530860-7440-4e44-9a24-de613bf580ad","system_id":"levelo_inurba_marseille","lat":43.304278,"lon":5.388868,"is_reserved":false,"is_disabled":false,"rental_uris":{"android":"levelo://app?vid=2b530860-7440-4e44-9a24-de613bf580ad","ios":"levelo://app?vid=2b530860-7440-4e44-9a24-de613bf580ad"},"vehicle_type_id":"4","last_reported":1687135286,"current_range_meters":17600,"station_id":"ce4bgk12rcd13ifvqbi0","pricing_plan_id":"free"},{"bike_id":"a690f3c6-9702-4888-8eb9-51a8caa1a384","system_id":"levelo_inurba_marseille","lat":43.304278,"lon":5.388868,"is_reserved":false,"is_disabled":false,"rental_uris":{"android":"levelo://app?vid=a690f3c6-9702-4888-8eb9-51a8caa1a384","ios":"levelo://app?vid=a690f3c6-9702-4888-8eb9-51a8caa1a384"},"vehicle_type_id":"4","last_reported":1687135286,"current_range_meters":23600,"station_id":"ce4bgk12rcd13ifvqbi0","pricing_plan_id":"free"},{"bike_id":"0aad11ca-a293-41f2-a0d5-a6a0e2f16969","system_id":"levelo_inurba_marseille","lat":43.30436,"lon":5.38888,"is_reserved":false,"is_disabled":false,"rental_uris":{"android":"levelo://app?vid=0aad11ca-a293-41f2-a0d5-a6a0e2f16969","ios":"levelo://app?vid=0aad11ca-a293-41f2-a0d5-a6a0e2f16969"},"vehicle_type_id":"4","last_reported":1687135286,"current_range_meters":6000,"station_id":"ce4bgk12rcd13ifvqbi0","pricing_plan_id":"free"},{"bike_id":"250c8a96-8498-4211-b8f3-1b00a8d1fbaf","system_id":"levelo_inurba_marseille","lat":43.296477,"lon":5.37768,"is_reserved":false,"is_disabled":false,"rental_uris":{"android":"levelo://app?vid=250c8a96-8498-4211-b8f3-1b00a8d1fbaf","ios":"levelo://app?vid=250c8a96-8498-4211-b8f3-1b00a8d1fbaf"},"vehicle_type_id":"4","last_reported":1687135286,"current_range_meters":10800,"station_id":"","pricing_plan_id":"free"},{"bike_id":"9055fb76-2d8e-4d12-8b12-6495ee760c5f","system_id":"levelo_inurba_marseille","lat":43.304278,"lon":5.388868,"is_reserved":false,"is_disabled":false,"rental_uris":{"android":"levelo://app?vid=9055fb76-2d8e-4d12-8b12-6495ee760c5f","ios":"levelo://app?vid=9055fb76-2d8e-4d12-8b12-6495ee760c5f"},"vehicle_type_id":"4","last_reported":1687135286,"current_range_meters":13600,"station_id":"ce4bgk12rcd13ifvqbi0","pricing_plan_id":"free"},{"bike_id":"bb335696-9086-470f-9c5f-1244bc2e0b8f","system_id":"levelo_inurba_marseille","lat":43.299717,"lon":5.384845,"is_reserved":false,"is_disabled":false,"rental_uris":{"android":"levelo://app?vid=bb335696-9086-470f-9c5f-1244bc2e0b8f","ios":"levelo://app?vid=bb335696-9086-470f-9c5f-1244bc2e0b8f"},"vehicle_type_id":"4","last_reported":1687135286,"current_range_meters":31200,"station_id":"ce4bgj92rcd13ifvqbd0","pricing_plan_id":"free"},{"bike_id":"eb56f040-d7e3-440c-9d05-82afe187dd21","system_id":"levelo_inurba_marseille","lat":43.299724,"lon":5.384848,"is_reserved":false,"is_disabled":false,"rental_uris":{"android":"levelo://app?vid=eb56f040-d7e3-440c-9d05-82afe187dd21","ios":"levelo://app?vid=eb56f040-d7e3-440c-9d05-82afe187dd21"},"vehicle_type_id":"4","last_reported":1687135286,"current_range_meters":30400,"station_id":"ce4bgj92rcd13ifvqbd0","pricing_plan_id":"free"},{"bike_id":"0100a688-6eac-43d0-bf90-97c080a6e462","system_id":"levelo_inurba_marseille","lat":43.32367,"lon":5.388836,"is_reserved":false,"is_disabled":false,"rental_uris":{"android":"levelo://app?vid=0100a688-6eac-43d0-bf90-97c080a6e462","ios":"levelo://app?vid=0100a688-6eac-43d0-bf90-97c080a6e462"},"vehicle_type_id":"4","last_reported":1687135286,"current_range_meters":14800,"station_id":"ce4bhqp2rcd13ifvqhog","pricing_plan_id":"free"},{"bike_id":"9ff5e686-c760-4fee-b5de-d5d0394be428","system_id":"levelo_inurba_marseille","lat":43.32367,"lon":5.388836,"is_reserved":false,"is_disabled":false,"rental_uris":{"android":"levelo://app?vid=9ff5e686-c760-4fee-b5de-d5d0394be428","ios":"levelo://app?vid=9ff5e686-c760-4fee-b5de-d5d0394be428"},"vehicle_type_id":"4","last_reported":1687135286,"current_range_meters":9600,"station_id":"ce4bhqp2rcd13ifvqhog","pricing_plan_id":"free"},{"bike_id":"37d845e9-3c8f-4eb1-bf92-0a9f519c8ecb","system_id":"levelo_inurba_marseille","lat":43.32367,"lon":5.388836,"is_reserved":false,"is_disabled":false,"rental_uris":{"android":"levelo://app?vid=37d845e9-3c8f-4eb1-bf92-0a9f519c8ecb","ios":"levelo://app?vid=37d845e9-3c8f-4eb1-bf92-0a9f519c8ecb"},"vehicle_type_id":"4","last_reported":1687135286,"current_range_meters":18000,"station_id":"ce4bhqp2rcd13ifvqhog","pricing_plan_id":"free"},{"bike_id":"64bf5995-e1cd-400c-b4dd-97956e1f681e","system_id":"levelo_inurba_marseille","lat":43.32367,"lon":5.388836,"is_reserved":false,"is_disabled":false,"rental_uris":{"android":"levelo://app?vid=64bf5995-e1cd-400c-b4dd-97956e1f681e","ios":"levelo://app?vid=64bf5995-e1cd-400c-b4dd-97956e1f681e"},"vehicle_type_id":"4","last_reported":1687135286,"current_range_meters":7200,"station_id":"ce4bhqp2rcd13ifvqhog","pricing_plan_id":"free"},{"bike_id":"d852f6e7-92f3-42a5-90b9-92d33ffa9a5c","system_id":"levelo_inurba_marseille","lat":43.32367,"lon":5.388836,"is_reserved":false,"is_disabled":false,"rental_uris":{"android":"levelo://app?vid=d852f6e7-92f3-42a5-90b9-92d33ffa9a5c","ios":"levelo://app?vid=d852f6e7-92f3-42a5-90b9-92d33ffa9a5c"},"vehicle_type_id":"4","last_reported":1687135286,"current_range_meters":14000,"station_id":"ce4bhqp2rcd13ifvqhog","pricing_plan_id":"free"},{"bike_id":"c25bbca6-334a-48c9-b2aa-c69eb97c9d81","system_id":"levelo_inurba_marseille","lat":43.32367,"lon":5.388836,"is_reserved":false,"is_disabled":false,"rental_uris":{"android":"levelo://app?vid=c25bbca6-334a-48c9-b2aa-c69eb97c9d81","ios":"levelo://app?vid=c25bbca6-334a-48c9-b2aa-c69eb97c9d81"},"vehicle_type_id":"4","last_reported":1687135286,"current_range_meters":28000,"station_id":"ce4bhqp2rcd13ifvqhog","pricing_plan_id":"free"},{"bike_id":"fbdf5ff8-682d-42c5-a408-39d68fee2ee7","system_id":"levelo_inurba_marseille","lat":43.29602,"lon":5.381084,"is_reserved":false,"is_disabled":false,"rental_uris":{"android":"levelo://app?vid=fbdf5ff8-682d-42c5-a408-39d68fee2ee7","ios":"levelo://app?vid=fbdf5ff8-682d-42c5-a408-39d68fee2ee7"},"vehicle_type_id":"4","last_reported":1687135286,"current_range_meters":5600,"station_id":"ce4bgl12rcd13ifvqbo0","pricing_plan_id":"free"},{"bike_id":"50c6b16a-a581-4486-a79b-0bb2828ef218","system_id":"levelo_inurba_marseille","lat":43.292749,"lon":5.368398,"is_reserved":false,"is_disabled":false,"rental_uris":{"android":"levelo://app?vid=50c6b16a-a581-4486-a79b-0bb2828ef218","ios":"levelo://app?vid=50c6b16a-a581-4486-a79b-0bb2828ef218"},"vehicle_type_id":"4","last_reported":1687135286,"current_range_meters":31200,"station_id":"ce4bhbp2rcd13ifvqesg","pricing_plan_id":"free"},{"bike_id":"0405ee42-0511-48c8-b322-a05a8f5e7733","system_id":"levelo_inurba_marseille","lat":43.29276,"lon":5.36842,"is_reserved":false,"is_disabled":false,"rental_uris":{"android":"levelo://app?vid=0405ee42-0511-48c8-b322-a05a8f5e7733","ios":"levelo://app?vid=0405ee42-0511-48c8-b322-a05a8f5e7733"},"vehicle_type_id":"4","last_reported":1687135286,"current_range_meters":31200,"station_id":"ce4bhbp2rcd13ifvqesg","pricing_plan_id":"free"},{"bike_id":"85ac9799-954f-4348-9849-390729a4cb33","system_id":"levelo_inurba_marseille","lat":43.292749,"lon":5.368398,"is_reserved":false,"is_disabled":false,"rental_uris":{"android":"levelo://app?vid=85ac9799-954f-4348-9849-390729a4cb33","ios":"levelo://app?vid=85ac9799-954f-4348-9849-390729a4cb33"},"vehicle_type_id":"4","last_reported":1687135286,"current_range_meters":30800,"station_id":"ce4bhbp2rcd13ifvqesg","pricing_plan_id":"free"},{"bike_id":"a4ded9c5-a526-4c4f-ac6e-61fb22154aeb","system_id":"levelo_inurba_marseille","lat":43.29272,"lon":5.36835,"is_reserved":false,"is_disabled":false,"rental_uris":{"android":"levelo://app?vid=a4ded9c5-a526-4c4f-ac6e-61fb22154aeb","ios":"levelo://app?vid=a4ded9c5-a526-4c4f-ac6e-61fb22154aeb"},"vehicle_type_id":"4","last_reported":1687135286,"current_range_meters":31200,"station_id":"ce4bhbp2rcd13ifvqesg","pricing_plan_id":"free"},{"bike_id":"4486e74e-1e0b-4deb-9462-a1a3fd740926","system_id":"levelo_inurba_marseille","lat":43.29272,"lon":5.36836,"is_reserved":false,"is_disabled":false,"rental_uris":{"android":"levelo://app?vid=4486e74e-1e0b-4deb-9462-a1a3fd740926","ios":"levelo://app?vid=4486e74e-1e0b-4deb-9462-a1a3fd740926"},"vehicle_type_id":"4","last_reported":1687135286,"current_range_meters":30000,"station_id":"ce4bhbp2rcd13ifvqesg","pricing_plan_id":"free"},{"bike_id":"4d537006-7341-449e-a615-8468b2ec73a8","system_id":"levelo_inurba_marseille","lat":43.29271,"lon":5.36846,"is_reserved":false,"is_disabled":false,"rental_uris":{"android":"levelo://app?vid=4d537006-7341-449e-a615-8468b2ec73a8","ios":"levelo://app?vid=4d537006-7341-449e-a615-8468b2ec73a8"},"vehicle_type_id":"4","last_reported":1687135286,"current_range_meters":30400,"station_id":"ce4bhbp2rcd13ifvqesg","pricing_plan_id":"free"},{"bike_id":"8e97e258-dd3f-472c-888e-e51362a8a9c8","system_id":"levelo_inurba_marseille","lat":43.292749,"lon":5.368398,"is_reserved":false,"is_disabled":false,"rental_uris":{"android":"levelo://app?vid=8e97e258-dd3f-472c-888e-e51362a8a9c8","ios":"levelo://app?vid=8e97e258-dd3f-472c-888e-e51362a8a9c8"},"vehicle_type_id":"4","last_reported":1687135286,"current_range_meters":30800,"station_id":"ce4bhbp2rcd13ifvqesg","pricing_plan_id":"free"},{"bike_id":"ffb2eda2-9505-4658-ac80-0887b2e5a1ff","system_id":"levelo_inurba_marseille","lat":43.292749,"lon":5.368398,"is_reserved":false,"is_disabled":false,"rental_uris":{"android":"levelo://app?vid=ffb2eda2-9505-4658-ac80-0887b2e5a1ff","ios":"levelo://app?vid=ffb2eda2-9505-4658-ac80-0887b2e5a1ff"},"vehicle_type_id":"4","last_reported":1687135286,"current_range_meters":14000,"station_id":"ce4bhbp2rcd13ifvqesg","pricing_plan_id":"free"},{"bike_id":"9da37661-331c-4243-a156-b35aa300a42c","system_id":"levelo_inurba_marseille","lat":43.305994,"lon":5.393687,"is_reserved":false,"is_disabled":false,"rental_uris":{"android":"levelo://app?vid=9da37661-331c-4243-a156-b35aa300a42c","ios":"levelo://app?vid=9da37661-331c-4243-a156-b35aa300a42c"},"vehicle_type_id":"4","last_reported":1687135286,"current_range_meters":28000,"station_id":"ce4bh0p2rcd13ifvqd80","pricing_plan_id":"free"},{"bike_id":"0f9e7a89-9d8f-4f73-99eb-f368fba3d8a9","system_id":"levelo_inurba_marseille","lat":43.305994,"lon":5.393687,"is_reserved":false,"is_disabled":false,"rental_uris":{"android":"levelo://app?vid=0f9e7a89-9d8f-4f73-99eb-f368fba3d8a9","ios":"levelo://app?vid=0f9e7a89-9d8f-4f73-99eb-f368fba3d8a9"},"vehicle_type_id":"4","last_reported":1687135286,"current_range_meters":22400,"station_id":"ce4bh0p2rcd13ifvqd80","pricing_plan_id":"free"},{"bike_id":"a86485b1-5b49-48ce-a761-8f5bf2f7b859","system_id":"levelo_inurba_marseille","lat":43.298681,"lon":5.397225,"is_reserved":false,"is_disabled":false,"rental_uris":{"android":"levelo://app?vid=a86485b1-5b49-48ce-a761-8f5bf2f7b859","ios":"levelo://app?vid=a86485b1-5b49-48ce-a761-8f5bf2f7b859"},"vehicle_type_id":"4","last_reported":1687135286,"current_range_meters":18800,"station_id":"ce4bh0h2rcd13ifvqd50","pricing_plan_id":"free"},{"bike_id":"1b58b38e-240f-48f1-beed-e4ba6b17b95f","system_id":"levelo_inurba_marseille","lat":43.305994,"lon":5.393687,"is_reserved":false,"is_disabled":false,"rental_uris":{"android":"levelo://app?vid=1b58b38e-240f-48f1-beed-e4ba6b17b95f","ios":"levelo://app?vid=1b58b38e-240f-48f1-beed-e4ba6b17b95f"},"vehicle_type_id":"4","last_reported":1687135286,"current_range_meters":14800,"station_id":"ce4bh0p2rcd13ifvqd80","pricing_plan_id":"free"},{"bike_id":"e71a80d0-178b-49cc-92a7-3282a736eaea","system_id":"levelo_inurba_marseille","lat":43.305994,"lon":5.393687,"is_reserved":false,"is_disabled":false,"rental_uris":{"android":"levelo://app?vid=e71a80d0-178b-49cc-92a7-3282a736eaea","ios":"levelo://app?vid=e71a80d0-178b-49cc-92a7-3282a736eaea"},"vehicle_type_id":"4","last_reported":1687135286,"current_range_meters":25200,"station_id":"ce4bh0p2rcd13ifvqd80","pricing_plan_id":"free"},{"bike_id":"66f7b604-8671-4154-a3a1-78698d96b66a","system_id":"levelo_inurba_marseille","lat":43.30309,"lon":5.39202,"is_reserved":false,"is_disabled":false,"rental_uris":{"android":"levelo://app?vid=66f7b604-8671-4154-a3a1-78698d96b66a","ios":"levelo://app?vid=66f7b604-8671-4154-a3a1-78698d96b66a"},"vehicle_type_id":"4","last_reported":1687135286,"current_range_meters":20800,"station_id":"ce4bgkh2rcd13ifvqbk0","pricing_plan_id":"free"},{"bike_id":"45f25c22-755f-4f80-a6b5-4605dade26e4","system_id":"levelo_inurba_marseille","lat":43.302992,"lon":5.392136,"is_reserved":false,"is_disabled":false,"rental_uris":{"android":"levelo://app?vid=45f25c22-755f-4f80-a6b5-4605dade26e4","ios":"levelo://app?vid=45f25c22-755f-4f80-a6b5-4605dade26e4"},"vehicle_type_id":"4","last_reported":1687135286,"current_range_meters":13200,"station_id":"ce4bgkh2rcd13ifvqbk0","pricing_plan_id":"free"},{"bike_id":"5cd39362-48f6-4555-8363-2ac971881ec8","system_id":"levelo_inurba_marseille","lat":43.302992,"lon":5.392136,"is_reserved":false,"is_disabled":false,"rental_uris":{"android":"levelo://app?vid=5cd39362-48f6-4555-8363-2ac971881ec8","ios":"levelo://app?vid=5cd39362-48f6-4555-8363-2ac971881ec8"},"vehicle_type_id":"4","last_reported":1687135286,"current_range_meters":31200,"station_id":"ce4bgkh2rcd13ifvqbk0","pricing_plan_id":"free"},{"bike_id":"296431dc-0e5d-4ce9-8e5e-2209647c4d2e","system_id":"levelo_inurba_marseille","lat":43.2936,"lon":5.37835,"is_reserved":false,"is_disabled":false,"rental_uris":{"android":"levelo://app?vid=296431dc-0e5d-4ce9-8e5e-2209647c4d2e","ios":"levelo://app?vid=296431dc-0e5d-4ce9-8e5e-2209647c4d2e"},"vehicle_type_id":"4","last_reported":1687135286,"current_range_meters":15600,"station_id":"ce4bgjh2rcd13ifvqbf0","pricing_plan_id":"free"},{"bike_id":"eaf9320f-08d0-412e-9001-ad5d233332ce","system_id":"levelo_inurba_marseille","lat":43.30085,"lon":5.390856,"is_reserved":false,"is_disabled":false,"rental_uris":{"android":"levelo://app?vid=eaf9320f-08d0-412e-9001-ad5d233332ce","ios":"levelo://app?vid=eaf9320f-08d0-412e-9001-ad5d233332ce"},"vehicle_type_id":"4","last_reported":1687135286,"current_range_meters":30800,"station_id":"ce4bh192rcd13ifvqdb0","pricing_plan_id":"free"},{"bike_id":"ce4a4fc3-2b84-45ad-8007-802f5a5bb3d0","system_id":"levelo_inurba_marseille","lat":43.300852,"lon":5.390859,"is_reserved":false,"is_disabled":false,"rental_uris":{"android":"levelo://app?vid=ce4a4fc3-2b84-45ad-8007-802f5a5bb3d0","ios":"levelo://app?vid=ce4a4fc3-2b84-45ad-8007-802f5a5bb3d0"},"vehicle_type_id":"4","last_reported":1687135286,"current_range_meters":31200,"station_id":"ce4bh192rcd13ifvqdb0","pricing_plan_id":"free"},{"bike_id":"4e7eb53a-175b-4075-9545-88ae7fd21a33","system_id":"levelo_inurba_marseille","lat":43.30085,"lon":5.390856,"is_reserved":false,"is_disabled":false,"rental_uris":{"android":"levelo://app?vid=4e7eb53a-175b-4075-9545-88ae7fd21a33","ios":"levelo://app?vid=4e7eb53a-175b-4075-9545-88ae7fd21a33"},"vehicle_type_id":"4","last_reported":1687135286,"current_range_meters":30400,"station_id":"ce4bh192rcd13ifvqdb0","pricing_plan_id":"free"},{"bike_id":"0c6470f8-d2dd-48e8-b10a-6f84692d9d86","system_id":"levelo_inurba_marseille","lat":43.30401,"lon":5.39313,"is_reserved":false,"is_disabled":false,"rental_uris":{"android":"levelo://app?vid=0c6470f8-d2dd-48e8-b10a-6f84692d9d86","ios":"levelo://app?vid=0c6470f8-d2dd-48e8-b10a-6f84692d9d86"},"vehicle_type_id":"4","last_reported":1687135286,"current_range_meters":10000,"station_id":"","pricing_plan_id":"free"},{"bike_id":"02401813-cfd7-45a7-a153-0e9255cc48d1","system_id":"levelo_inurba_marseille","lat":43.300852,"lon":5.390859,"is_reserved":false,"is_disabled":false,"rental_uris":{"android":"levelo://app?vid=02401813-cfd7-45a7-a153-0e9255cc48d1","ios":"levelo://app?vid=02401813-cfd7-45a7-a153-0e9255cc48d1"},"vehicle_type_id":"4","last_reported":1687135286,"current_range_meters":26800,"station_id":"ce4bh192rcd13ifvqdb0","pricing_plan_id":"free"},{"bike_id":"ef3a4ba8-2bf8-42e3-9420-16136fb749a0","system_id":"levelo_inurba_marseille","lat":43.300852,"lon":5.390859,"is_reserved":false,"is_disabled":false,"rental_uris":{"android":"levelo://app?vid=ef3a4ba8-2bf8-42e3-9420-16136fb749a0","ios":"levelo://app?vid=ef3a4ba8-2bf8-42e3-9420-16136fb749a0"},"vehicle_type_id":"4","last_reported":1687135286,"current_range_meters":30000,"station_id":"ce4bh192rcd13ifvqdb0","pricing_plan_id":"free"},{"bike_id":"f566c84e-7972-4f76-9d0f-b6c764ecb224","system_id":"levelo_inurba_marseille","lat":43.30095,"lon":5.39086,"is_reserved":false,"is_disabled":false,"rental_uris":{"android":"levelo://app?vid=f566c84e-7972-4f76-9d0f-b6c764ecb224","ios":"levelo://app?vid=f566c84e-7972-4f76-9d0f-b6c764ecb224"},"vehicle_type_id":"4","last_reported":1687135286,"current_range_meters":30400,"station_id":"ce4bh192rcd13ifvqdb0","pricing_plan_id":"free"},{"bike_id":"bf98c3f1-2cf4-4863-b6fc-1df2b5837e42","system_id":"levelo_inurba_marseille","lat":43.32702,"lon":5.38836,"is_reserved":false,"is_disabled":false,"rental_uris":{"android":"levelo://app?vid=bf98c3f1-2cf4-4863-b6fc-1df2b5837e42","ios":"levelo://app?vid=bf98c3f1-2cf4-4863-b6fc-1df2b5837e42"},"vehicle_type_id":"4","last_reported":1687135286,"current_range_meters":17200,"station_id":"","pricing_plan_id":"free"},{"bike_id":"3c6da382-aa58-45cb-96da-320ddd52cfe2","system_id":"levelo_inurba_marseille","lat":43.298764,"lon":5.388973,"is_reserved":false,"is_disabled":false,"rental_uris":{"android":"levelo://app?vid=3c6da382-aa58-45cb-96da-320ddd52cfe2","ios":"levelo://app?vid=3c6da382-aa58-45cb-96da-320ddd52cfe2"},"vehicle_type_id":"4","last_reported":1687135286,"current_range_meters":21600,"station_id":"ce4bh392rcd13ifvqdl0","pricing_plan_id":"free"},{"bike_id":"2f58d735-5305-4fee-a21a-a1d9d3a9a68d","system_id":"levelo_inurba_marseille","lat":43.298764,"lon":5.388973,"is_reserved":false,"is_disabled":false,"rental_uris":{"android":"levelo://app?vid=2f58d735-5305-4fee-a21a-a1d9d3a9a68d","ios":"levelo://app?vid=2f58d735-5305-4fee-a21a-a1d9d3a9a68d"},"vehicle_type_id":"4","last_reported":1687135286,"current_range_meters":8000,"station_id":"ce4bh392rcd13ifvqdl0","pricing_plan_id":"free"},{"bike_id":"f7755168-90d1-4eed-90a6-fe86bac6802e","system_id":"levelo_inurba_marseille","lat":43.298764,"lon":5.388973,"is_reserved":false,"is_disabled":false,"rental_uris":{"android":"levelo://app?vid=f7755168-90d1-4eed-90a6-fe86bac6802e","ios":"levelo://app?vid=f7755168-90d1-4eed-90a6-fe86bac6802e"},"vehicle_type_id":"4","last_reported":1687135286,"current_range_meters":16800,"station_id":"ce4bh392rcd13ifvqdl0","pricing_plan_id":"free"},{"bike_id":"22a05438-496d-46eb-8651-444db4427ca4","system_id":"levelo_inurba_marseille","lat":43.298764,"lon":5.388973,"is_reserved":false,"is_disabled":false,"rental_uris":{"android":"levelo://app?vid=22a05438-496d-46eb-8651-444db4427ca4","ios":"levelo://app?vid=22a05438-496d-46eb-8651-444db4427ca4"},"vehicle_type_id":"4","last_reported":1687135286,"current_range_meters":1200,"station_id":"ce4bh392rcd13ifvqdl0","pricing_plan_id":"free"},{"bike_id":"de108613-76ad-4371-ae1b-3e18354851d8","system_id":"levelo_inurba_marseille","lat":43.298764,"lon":5.388973,"is_reserved":false,"is_disabled":false,"rental_uris":{"android":"levelo://app?vid=de108613-76ad-4371-ae1b-3e18354851d8","ios":"levelo://app?vid=de108613-76ad-4371-ae1b-3e18354851d8"},"vehicle_type_id":"4","last_reported":1687135286,"current_range_meters":28800,"station_id":"ce4bh392rcd13ifvqdl0","pricing_plan_id":"free"},{"bike_id":"313e9307-45da-44e1-ac4f-23150195e0b3","system_id":"levelo_inurba_marseille","lat":43.298764,"lon":5.388973,"is_reserved":false,"is_disabled":false,"rental_uris":{"android":"levelo://app?vid=313e9307-45da-44e1-ac4f-23150195e0b3","ios":"levelo://app?vid=313e9307-45da-44e1-ac4f-23150195e0b3"},"vehicle_type_id":"4","last_reported":1687135286,"current_range_meters":11600,"station_id":"ce4bh392rcd13ifvqdl0","pricing_plan_id":"free"},{"bike_id":"f99e9929-8072-4af1-bf79-5cf6bf4bfb6c","system_id":"levelo_inurba_marseille","lat":43.298764,"lon":5.388973,"is_reserved":false,"is_disabled":false,"rental_uris":{"android":"levelo://app?vid=f99e9929-8072-4af1-bf79-5cf6bf4bfb6c","ios":"levelo://app?vid=f99e9929-8072-4af1-bf79-5cf6bf4bfb6c"},"vehicle_type_id":"4","last_reported":1687135286,"current_range_meters":22400,"station_id":"ce4bh392rcd13ifvqdl0","pricing_plan_id":"free"},{"bike_id":"1e502d6d-d24c-475f-945a-f94eed8c286a","system_id":"levelo_inurba_marseille","lat":43.298764,"lon":5.388973,"is_reserved":false,"is_disabled":false,"rental_uris":{"android":"levelo://app?vid=1e502d6d-d24c-475f-945a-f94eed8c286a","ios":"levelo://app?vid=1e502d6d-d24c-475f-945a-f94eed8c286a"},"vehicle_type_id":"4","last_reported":1687135286,"current_range_meters":16000,"station_id":"ce4bh392rcd13ifvqdl0","pricing_plan_id":"free"},{"bike_id":"bf58b19c-1ce5-4b18-9b43-f98882f13702","system_id":"levelo_inurba_marseille","lat":43.29875,"lon":5.38913,"is_reserved":false,"is_disabled":false,"rental_uris":{"android":"levelo://app?vid=bf58b19c-1ce5-4b18-9b43-f98882f13702","ios":"levelo://app?vid=bf58b19c-1ce5-4b18-9b43-f98882f13702"},"vehicle_type_id":"4","last_reported":1687135286,"current_range_meters":21600,"station_id":"ce4bh392rcd13ifvqdl0","pricing_plan_id":"free"},{"bike_id":"14ee1114-0460-4f89-bc73-dbad1833d94c","system_id":"levelo_inurba_marseille","lat":43.298764,"lon":5.388973,"is_reserved":false,"is_disabled":false,"rental_uris":{"android":"levelo://app?vid=14ee1114-0460-4f89-bc73-dbad1833d94c","ios":"levelo://app?vid=14ee1114-0460-4f89-bc73-dbad1833d94c"},"vehicle_type_id":"4","last_reported":1687135286,"current_range_meters":25200,"station_id":"ce4bh392rcd13ifvqdl0","pricing_plan_id":"free"},{"bike_id":"cd36d071-8bc3-4c89-aeab-3bef428bdd9d","system_id":"levelo_inurba_marseille","lat":43.298764,"lon":5.388973,"is_reserved":false,"is_disabled":false,"rental_uris":{"android":"levelo://app?vid=cd36d071-8bc3-4c89-aeab-3bef428bdd9d","ios":"levelo://app?vid=cd36d071-8bc3-4c89-aeab-3bef428bdd9d"},"vehicle_type_id":"4","last_reported":1687135286,"current_range_meters":6400,"station_id":"ce4bh392rcd13ifvqdl0","pricing_plan_id":"free"},{"bike_id":"71a76f18-1818-4937-985c-15ce0eb0fb48","system_id":"levelo_inurba_marseille","lat":43.298764,"lon":5.388973,"is_reserved":false,"is_disabled":false,"rental_uris":{"android":"levelo://app?vid=71a76f18-1818-4937-985c-15ce0eb0fb48","ios":"levelo://app?vid=71a76f18-1818-4937-985c-15ce0eb0fb48"},"vehicle_type_id":"4","last_reported":1687135286,"current_range_meters":6800,"station_id":"ce4bh392rcd13ifvqdl0","pricing_plan_id":"free"},{"bike_id":"b82419e8-1db5-4f11-9caf-d00fff04d9f9","system_id":"levelo_inurba_marseille","lat":43.309038,"lon":5.396546,"is_reserved":false,"is_disabled":false,"rental_uris":{"android":"levelo://app?vid=b82419e8-1db5-4f11-9caf-d00fff04d9f9","ios":"levelo://app?vid=b82419e8-1db5-4f11-9caf-d00fff04d9f9"},"vehicle_type_id":"4","last_reported":1687135286,"current_range_meters":800,"station_id":"ce4bh012rcd13ifvqcv0","pricing_plan_id":"free"},{"bike_id":"32b7c34e-f5d2-4ccf-8e71-62fb2dd0223f","system_id":"levelo_inurba_marseille","lat":43.309038,"lon":5.396546,"is_reserved":false,"is_disabled":false,"rental_uris":{"android":"levelo://app?vid=32b7c34e-f5d2-4ccf-8e71-62fb2dd0223f","ios":"levelo://app?vid=32b7c34e-f5d2-4ccf-8e71-62fb2dd0223f"},"vehicle_type_id":"4","last_reported":1687135286,"current_range_meters":25600,"station_id":"ce4bh012rcd13ifvqcv0","pricing_plan_id":"free"},{"bike_id":"d598a5a7-2c23-4c57-bdf9-72ab96cb7db2","system_id":"levelo_inurba_marseille","lat":43.291994,"lon":5.357886,"is_reserved":false,"is_disabled":false,"rental_uris":{"android":"levelo://app?vid=d598a5a7-2c23-4c57-bdf9-72ab96cb7db2","ios":"levelo://app?vid=d598a5a7-2c23-4c57-bdf9-72ab96cb7db2"},"vehicle_type_id":"4","last_reported":1687135286,"current_range_meters":31200,"station_id":"ce4bhb12rcd13ifvqel0","pricing_plan_id":"free"},{"bike_id":"9c1458c4-b639-4a86-9a81-ea49cd674f04","system_id":"levelo_inurba_marseille","lat":43.313291,"lon":5.396838,"is_reserved":false,"is_disabled":false,"rental_uris":{"android":"levelo://app?vid=9c1458c4-b639-4a86-9a81-ea49cd674f04","ios":"levelo://app?vid=9c1458c4-b639-4a86-9a81-ea49cd674f04"},"vehicle_type_id":"4","last_reported":1687135286,"current_range_meters":24800,"station_id":"ce4bgvp2rcd13ifvqcu0","pricing_plan_id":"free"},{"bike_id":"ea413654-fc39-4260-aa32-4beb87fb56d1","system_id":"levelo_inurba_marseille","lat":43.313291,"lon":5.396838,"is_reserved":false,"is_disabled":false,"rental_uris":{"android":"levelo://app?vid=ea413654-fc39-4260-aa32-4beb87fb56d1","ios":"levelo://app?vid=ea413654-fc39-4260-aa32-4beb87fb56d1"},"vehicle_type_id":"4","last_reported":1687135286,"current_range_meters":16400,"station_id":"ce4bgvp2rcd13ifvqcu0","pricing_plan_id":"free"},{"bike_id":"6199cfac-86e0-4c58-9bc6-f36f45e72daf","system_id":"levelo_inurba_marseille","lat":43.313291,"lon":5.396838,"is_reserved":false,"is_disabled":false,"rental_uris":{"android":"levelo://app?vid=6199cfac-86e0-4c58-9bc6-f36f45e72daf","ios":"levelo://app?vid=6199cfac-86e0-4c58-9bc6-f36f45e72daf"},"vehicle_type_id":"4","last_reported":1687135286,"current_range_meters":6000,"station_id":"ce4bgvp2rcd13ifvqcu0","pricing_plan_id":"free"},{"bike_id":"915bcf72-ec55-4ea2-afb4-1fc09a4c88f7","system_id":"levelo_inurba_marseille","lat":43.309038,"lon":5.396546,"is_reserved":false,"is_disabled":false,"rental_uris":{"android":"levelo://app?vid=915bcf72-ec55-4ea2-afb4-1fc09a4c88f7","ios":"levelo://app?vid=915bcf72-ec55-4ea2-afb4-1fc09a4c88f7"},"vehicle_type_id":"4","last_reported":1687135286,"current_range_meters":4000,"station_id":"ce4bh012rcd13ifvqcv0","pricing_plan_id":"free"},{"bike_id":"4118b929-43d8-4ac3-bc91-8e1770bbe076","system_id":"levelo_inurba_marseille","lat":43.29189,"lon":5.35792,"is_reserved":false,"is_disabled":false,"rental_uris":{"android":"levelo://app?vid=4118b929-43d8-4ac3-bc91-8e1770bbe076","ios":"levelo://app?vid=4118b929-43d8-4ac3-bc91-8e1770bbe076"},"vehicle_type_id":"4","last_reported":1687135286,"current_range_meters":30800,"station_id":"ce4bhb12rcd13ifvqel0","pricing_plan_id":"free"},{"bike_id":"27ff1faf-c357-439a-8654-98173f2e9ffd","system_id":"levelo_inurba_marseille","lat":43.29187,"lon":5.35794,"is_reserved":false,"is_disabled":false,"rental_uris":{"android":"levelo://app?vid=27ff1faf-c357-439a-8654-98173f2e9ffd","ios":"levelo://app?vid=27ff1faf-c357-439a-8654-98173f2e9ffd"},"vehicle_type_id":"4","last_reported":1687135286,"current_range_meters":30800,"station_id":"ce4bhb12rcd13ifvqel0","pricing_plan_id":"free"},{"bike_id":"744c215c-ceca-4b2d-84c5-ba444d9b7d86","system_id":"levelo_inurba_marseille","lat":43.313291,"lon":5.396838,"is_reserved":false,"is_disabled":false,"rental_uris":{"android":"levelo://app?vid=744c215c-ceca-4b2d-84c5-ba444d9b7d86","ios":"levelo://app?vid=744c215c-ceca-4b2d-84c5-ba444d9b7d86"},"vehicle_type_id":"4","last_reported":1687135286,"current_range_meters":800,"station_id":"ce4bgvp2rcd13ifvqcu0","pricing_plan_id":"free"},{"bike_id":"fcdaff7c-a783-4aae-84b7-4519306962da","system_id":"levelo_inurba_marseille","lat":43.309038,"lon":5.396546,"is_reserved":false,"is_disabled":false,"rental_uris":{"android":"levelo://app?vid=fcdaff7c-a783-4aae-84b7-4519306962da","ios":"levelo://app?vid=fcdaff7c-a783-4aae-84b7-4519306962da"},"vehicle_type_id":"4","last_reported":1687135286,"current_range_meters":7200,"station_id":"ce4bh012rcd13ifvqcv0","pricing_plan_id":"free"},{"bike_id":"f90825ef-b2cc-4750-97eb-6f2da5f9dfa8","system_id":"levelo_inurba_marseille","lat":43.29186,"lon":5.35737,"is_reserved":false,"is_disabled":false,"rental_uris":{"android":"levelo://app?vid=f90825ef-b2cc-4750-97eb-6f2da5f9dfa8","ios":"levelo://app?vid=f90825ef-b2cc-4750-97eb-6f2da5f9dfa8"},"vehicle_type_id":"4","last_reported":1687135286,"current_range_meters":22000,"station_id":"","pricing_plan_id":"free"},{"bike_id":"cfd819df-bae9-4337-9367-2d0c3e60aadc","system_id":"levelo_inurba_marseille","lat":43.290779,"lon":5.371482,"is_reserved":false,"is_disabled":false,"rental_uris":{"android":"levelo://app?vid=cfd819df-bae9-4337-9367-2d0c3e60aadc","ios":"levelo://app?vid=cfd819df-bae9-4337-9367-2d0c3e60aadc"},"vehicle_type_id":"4","last_reported":1687135286,"current_range_meters":28000,"station_id":"ce4bh5p2rcd13ifvqe4g","pricing_plan_id":"free"},{"bike_id":"6edc281d-b85f-4bf0-b424-f7d3c81a63c9","system_id":"levelo_inurba_marseille","lat":43.29065,"lon":5.3717,"is_reserved":false,"is_disabled":false,"rental_uris":{"android":"levelo://app?vid=6edc281d-b85f-4bf0-b424-f7d3c81a63c9","ios":"levelo://app?vid=6edc281d-b85f-4bf0-b424-f7d3c81a63c9"},"vehicle_type_id":"4","last_reported":1687135286,"current_range_meters":31200,"station_id":"ce4bh5p2rcd13ifvqe4g","pricing_plan_id":"free"},{"bike_id":"56590fcc-4342-4828-a4a2-1e2ced8611ec","system_id":"levelo_inurba_marseille","lat":43.29182,"lon":5.35582,"is_reserved":false,"is_disabled":false,"rental_uris":{"android":"levelo://app?vid=56590fcc-4342-4828-a4a2-1e2ced8611ec","ios":"levelo://app?vid=56590fcc-4342-4828-a4a2-1e2ced8611ec"},"vehicle_type_id":"4","last_reported":1687135286,"current_range_meters":11600,"station_id":"","pricing_plan_id":"free"},{"bike_id":"194217e3-db30-418a-8bd7-aedd37e823c5","system_id":"levelo_inurba_marseille","lat":43.302008,"lon":5.394694,"is_reserved":false,"is_disabled":false,"rental_uris":{"android":"levelo://app?vid=194217e3-db30-418a-8bd7-aedd37e823c5","ios":"levelo://app?vid=194217e3-db30-418a-8bd7-aedd37e823c5"},"vehicle_type_id":"4","last_reported":1687135286,"current_range_meters":25600,"station_id":"ce4bh0p2rcd13ifvqd70","pricing_plan_id":"free"},{"bike_id":"d97c918d-11dc-4031-9eb4-bab3d56e5436","system_id":"levelo_inurba_marseille","lat":43.290624,"lon":5.359245,"is_reserved":false,"is_disabled":false,"rental_uris":{"android":"levelo://app?vid=d97c918d-11dc-4031-9eb4-bab3d56e5436","ios":"levelo://app?vid=d97c918d-11dc-4031-9eb4-bab3d56e5436"},"vehicle_type_id":"4","last_reported":1687135286,"current_range_meters":31200,"station_id":"ce4bha92rcd13ifvqeg0","pricing_plan_id":"free"},{"bike_id":"2c89f12c-d497-48a8-9399-b335ba088479","system_id":"levelo_inurba_marseille","lat":43.302008,"lon":5.394694,"is_reserved":false,"is_disabled":false,"rental_uris":{"android":"levelo://app?vid=2c89f12c-d497-48a8-9399-b335ba088479","ios":"levelo://app?vid=2c89f12c-d497-48a8-9399-b335ba088479"},"vehicle_type_id":"4","last_reported":1687135286,"current_range_meters":29200,"station_id":"ce4bh0p2rcd13ifvqd70","pricing_plan_id":"free"},{"bike_id":"89d611fd-611a-4549-9f29-09f73e324d69","system_id":"levelo_inurba_marseille","lat":43.290624,"lon":5.359245,"is_reserved":false,"is_disabled":false,"rental_uris":{"android":"levelo://app?vid=89d611fd-611a-4549-9f29-09f73e324d69","ios":"levelo://app?vid=89d611fd-611a-4549-9f29-09f73e324d69"},"vehicle_type_id":"4","last_reported":1687135286,"current_range_meters":29200,"station_id":"ce4bha92rcd13ifvqeg0","pricing_plan_id":"free"},{"bike_id":"941e43a6-40a3-4579-a6be-3e0d7af56df4","system_id":"levelo_inurba_marseille","lat":43.290631,"lon":5.359244,"is_reserved":false,"is_disabled":false,"rental_uris":{"android":"levelo://app?vid=941e43a6-40a3-4579-a6be-3e0d7af56df4","ios":"levelo://app?vid=941e43a6-40a3-4579-a6be-3e0d7af56df4"},"vehicle_type_id":"4","last_reported":1687135286,"current_range_meters":28000,"station_id":"ce4bha92rcd13ifvqeg0","pricing_plan_id":"free"},{"bike_id":"8f2a0428-3847-44af-b58b-6f2b146225cb","system_id":"levelo_inurba_marseille","lat":43.290631,"lon":5.359244,"is_reserved":false,"is_disabled":false,"rental_uris":{"android":"levelo://app?vid=8f2a0428-3847-44af-b58b-6f2b146225cb","ios":"levelo://app?vid=8f2a0428-3847-44af-b58b-6f2b146225cb"},"vehicle_type_id":"4","last_reported":1687135286,"current_range_meters":20000,"station_id":"ce4bha92rcd13ifvqeg0","pricing_plan_id":"free"},{"bike_id":"6d30c830-86d3-4c9f-996e-a5334ff431ae","system_id":"levelo_inurba_marseille","lat":43.29039,"lon":5.37557,"is_reserved":false,"is_disabled":false,"rental_uris":{"android":"levelo://app?vid=6d30c830-86d3-4c9f-996e-a5334ff431ae","ios":"levelo://app?vid=6d30c830-86d3-4c9f-996e-a5334ff431ae"},"vehicle_type_id":"4","last_reported":1687135286,"current_range_meters":31200,"station_id":"ce4bh692rcd13ifvqe90","pricing_plan_id":"free"},{"bike_id":"2142bea3-103d-4516-a389-0afd4b889c5c","system_id":"levelo_inurba_marseille","lat":43.290327,"lon":5.375711,"is_reserved":false,"is_disabled":false,"rental_uris":{"android":"levelo://app?vid=2142bea3-103d-4516-a389-0afd4b889c5c","ios":"levelo://app?vid=2142bea3-103d-4516-a389-0afd4b889c5c"},"vehicle_type_id":"4","last_reported":1687135286,"current_range_meters":7600,"station_id":"ce4bh692rcd13ifvqe90","pricing_plan_id":"free"},{"bike_id":"3fcc2d2a-cfbf-43ed-a7fb-5eaa2a3ccaac","system_id":"levelo_inurba_marseille","lat":43.290327,"lon":5.375711,"is_reserved":false,"is_disabled":false,"rental_uris":{"android":"levelo://app?vid=3fcc2d2a-cfbf-43ed-a7fb-5eaa2a3ccaac","ios":"levelo://app?vid=3fcc2d2a-cfbf-43ed-a7fb-5eaa2a3ccaac"},"vehicle_type_id":"4","last_reported":1687135286,"current_range_meters":4000,"station_id":"ce4bh692rcd13ifvqe90","pricing_plan_id":"free"},{"bike_id":"a6698733-23c2-423e-a820-900e26a7b3d1","system_id":"levelo_inurba_marseille","lat":43.289184,"lon":5.366408,"is_reserved":false,"is_disabled":false,"rental_uris":{"android":"levelo://app?vid=a6698733-23c2-423e-a820-900e26a7b3d1","ios":"levelo://app?vid=a6698733-23c2-423e-a820-900e26a7b3d1"},"vehicle_type_id":"4","last_reported":1687135286,"current_range_meters":26800,"station_id":"ce4bhap2rcd13ifvqek0","pricing_plan_id":"free"},{"bike_id":"1bd9a516-bac2-4b1d-84ff-04287a768a71","system_id":"levelo_inurba_marseille","lat":43.28941,"lon":5.36624,"is_reserved":false,"is_disabled":false,"rental_uris":{"android":"levelo://app?vid=1bd9a516-bac2-4b1d-84ff-04287a768a71","ios":"levelo://app?vid=1bd9a516-bac2-4b1d-84ff-04287a768a71"},"vehicle_type_id":"4","last_reported":1687135286,"current_range_meters":29600,"station_id":"ce4bhap2rcd13ifvqek0","pricing_plan_id":"free"},{"bike_id":"7c4dce5c-dbcb-4604-9878-55917cc58073","system_id":"levelo_inurba_marseille","lat":43.289184,"lon":5.366408,"is_reserved":false,"is_disabled":false,"rental_uris":{"android":"levelo://app?vid=7c4dce5c-dbcb-4604-9878-55917cc58073","ios":"levelo://app?vid=7c4dce5c-dbcb-4604-9878-55917cc58073"},"vehicle_type_id":"4","last_reported":1687135286,"current_range_meters":17600,"station_id":"ce4bhap2rcd13ifvqek0","pricing_plan_id":"free"},{"bike_id":"938b656f-0f72-4c52-b8b8-9ea63a28b7f5","system_id":"levelo_inurba_marseille","lat":43.289184,"lon":5.366408,"is_reserved":false,"is_disabled":false,"rental_uris":{"android":"levelo://app?vid=938b656f-0f72-4c52-b8b8-9ea63a28b7f5","ios":"levelo://app?vid=938b656f-0f72-4c52-b8b8-9ea63a28b7f5"},"vehicle_type_id":"4","last_reported":1687135286,"current_range_meters":31200,"station_id":"ce4bhap2rcd13ifvqek0","pricing_plan_id":"free"},{"bike_id":"4427a18a-94e6-4de1-8ed4-fe747958f834","system_id":"levelo_inurba_marseille","lat":43.289468,"lon":5.363719,"is_reserved":false,"is_disabled":false,"rental_uris":{"android":"levelo://app?vid=4427a18a-94e6-4de1-8ed4-fe747958f834","ios":"levelo://app?vid=4427a18a-94e6-4de1-8ed4-fe747958f834"},"vehicle_type_id":"4","last_reported":1687135286,"current_range_meters":28000,"station_id":"ce4bhc92rcd13ifvqetg","pricing_plan_id":"free"},{"bike_id":"38eb09af-7166-42b9-865e-84246929498f","system_id":"levelo_inurba_marseille","lat":43.292644,"lon":5.384257,"is_reserved":false,"is_disabled":false,"rental_uris":{"android":"levelo://app?vid=38eb09af-7166-42b9-865e-84246929498f","ios":"levelo://app?vid=38eb09af-7166-42b9-865e-84246929498f"},"vehicle_type_id":"4","last_reported":1687135286,"current_range_meters":31200,"station_id":"ce4bh692rcd13ifvqea0","pricing_plan_id":"free"},{"bike_id":"28147565-b24d-486c-9f6f-e539413c8027","system_id":"levelo_inurba_marseille","lat":43.304274,"lon":5.397513,"is_reserved":false,"is_disabled":false,"rental_uris":{"android":"levelo://app?vid=28147565-b24d-486c-9f6f-e539413c8027","ios":"levelo://app?vid=28147565-b24d-486c-9f6f-e539413c8027"},"vehicle_type_id":"4","last_reported":1687135286,"current_range_meters":13600,"station_id":"ce4bh092rcd13ifvqd20","pricing_plan_id":"free"},{"bike_id":"590d8cf8-e70f-4b7e-ac66-2d294da883ab","system_id":"levelo_inurba_marseille","lat":43.292642,"lon":5.384254,"is_reserved":false,"is_disabled":false,"rental_uris":{"android":"levelo://app?vid=590d8cf8-e70f-4b7e-ac66-2d294da883ab","ios":"levelo://app?vid=590d8cf8-e70f-4b7e-ac66-2d294da883ab"},"vehicle_type_id":"4","last_reported":1687135286,"current_range_meters":28400,"station_id":"ce4bh692rcd13ifvqea0","pricing_plan_id":"free"},{"bike_id":"087fefa5-24e7-42b9-ab9e-4cf642dac6d5","system_id":"levelo_inurba_marseille","lat":43.304274,"lon":5.397513,"is_reserved":false,"is_disabled":false,"rental_uris":{"android":"levelo://app?vid=087fefa5-24e7-42b9-ab9e-4cf642dac6d5","ios":"levelo://app?vid=087fefa5-24e7-42b9-ab9e-4cf642dac6d5"},"vehicle_type_id":"4","last_reported":1687135286,"current_range_meters":27200,"station_id":"ce4bh092rcd13ifvqd20","pricing_plan_id":"free"},{"bike_id":"f2740e75-47f2-4fd8-82cc-60c1c802768b","system_id":"levelo_inurba_marseille","lat":43.292642,"lon":5.384254,"is_reserved":false,"is_disabled":false,"rental_uris":{"android":"levelo://app?vid=f2740e75-47f2-4fd8-82cc-60c1c802768b","ios":"levelo://app?vid=f2740e75-47f2-4fd8-82cc-60c1c802768b"},"vehicle_type_id":"4","last_reported":1687135286,"current_range_meters":20800,"station_id":"ce4bh692rcd13ifvqea0","pricing_plan_id":"free"},{"bike_id":"50f4c0fb-7fa7-4575-95d8-ea4f43834bf1","system_id":"levelo_inurba_marseille","lat":43.304296,"lon":5.397513,"is_reserved":false,"is_disabled":false,"rental_uris":{"android":"levelo://app?vid=50f4c0fb-7fa7-4575-95d8-ea4f43834bf1","ios":"levelo://app?vid=50f4c0fb-7fa7-4575-95d8-ea4f43834bf1"},"vehicle_type_id":"4","last_reported":1687135286,"current_range_meters":23200,"station_id":"ce4bh092rcd13ifvqd20","pricing_plan_id":"free"},{"bike_id":"c9d6c6cf-50bc-4d44-9c79-63dd9b78bed0","system_id":"levelo_inurba_marseille","lat":43.304274,"lon":5.397513,"is_reserved":false,"is_disabled":false,"rental_uris":{"android":"levelo://app?vid=c9d6c6cf-50bc-4d44-9c79-63dd9b78bed0","ios":"levelo://app?vid=c9d6c6cf-50bc-4d44-9c79-63dd9b78bed0"},"vehicle_type_id":"4","last_reported":1687135286,"current_range_meters":16000,"station_id":"ce4bh092rcd13ifvqd20","pricing_plan_id":"free"},{"bike_id":"e25ee598-7238-4304-9305-a540eca54ba1","system_id":"levelo_inurba_marseille","lat":43.304296,"lon":5.397513,"is_reserved":false,"is_disabled":false,"rental_uris":{"android":"levelo://app?vid=e25ee598-7238-4304-9305-a540eca54ba1","ios":"levelo://app?vid=e25ee598-7238-4304-9305-a540eca54ba1"},"vehicle_type_id":"4","last_reported":1687135286,"current_range_meters":28800,"station_id":"ce4bh092rcd13ifvqd20","pricing_plan_id":"free"},{"bike_id":"91e454ec-6031-4a68-94a1-55191f634a66","system_id":"levelo_inurba_marseille","lat":43.304274,"lon":5.397513,"is_reserved":false,"is_disabled":false,"rental_uris":{"android":"levelo://app?vid=91e454ec-6031-4a68-94a1-55191f634a66","ios":"levelo://app?vid=91e454ec-6031-4a68-94a1-55191f634a66"},"vehicle_type_id":"4","last_reported":1687135286,"current_range_meters":24000,"station_id":"ce4bh092rcd13ifvqd20","pricing_plan_id":"free"},{"bike_id":"a7a527cc-e8e9-4135-8b50-e0a1e8dfe9e2","system_id":"levelo_inurba_marseille","lat":43.33044,"lon":5.38916,"is_reserved":false,"is_disabled":false,"rental_uris":{"android":"levelo://app?vid=a7a527cc-e8e9-4135-8b50-e0a1e8dfe9e2","ios":"levelo://app?vid=a7a527cc-e8e9-4135-8b50-e0a1e8dfe9e2"},"vehicle_type_id":"4","last_reported":1687135286,"current_range_meters":18000,"station_id":"ce4bhr92rcd13ifvqhrg","pricing_plan_id":"free"},{"bike_id":"1da7afd4-000f-47f5-958f-ef003d5b26bb","system_id":"levelo_inurba_marseille","lat":43.33046,"lon":5.38914,"is_reserved":false,"is_disabled":false,"rental_uris":{"android":"levelo://app?vid=1da7afd4-000f-47f5-958f-ef003d5b26bb","ios":"levelo://app?vid=1da7afd4-000f-47f5-958f-ef003d5b26bb"},"vehicle_type_id":"4","last_reported":1687135286,"current_range_meters":11600,"station_id":"ce4bhr92rcd13ifvqhrg","pricing_plan_id":"free"},{"bike_id":"174382b5-9354-4d66-9fac-9849667dd312","system_id":"levelo_inurba_marseille","lat":43.290104,"lon":5.356111,"is_reserved":false,"is_disabled":false,"rental_uris":{"android":"levelo://app?vid=174382b5-9354-4d66-9fac-9849667dd312","ios":"levelo://app?vid=174382b5-9354-4d66-9fac-9849667dd312"},"vehicle_type_id":"4","last_reported":1687135286,"current_range_meters":12800,"station_id":"ce4bhb92rcd13ifvqen0","pricing_plan_id":"free"},{"bike_id":"99664008-913c-47d3-8080-9aea8de7b1d5","system_id":"levelo_inurba_marseille","lat":43.29097,"lon":5.38119,"is_reserved":false,"is_disabled":false,"rental_uris":{"android":"levelo://app?vid=99664008-913c-47d3-8080-9aea8de7b1d5","ios":"levelo://app?vid=99664008-913c-47d3-8080-9aea8de7b1d5"},"vehicle_type_id":"4","last_reported":1687135286,"current_range_meters":27600,"station_id":"ce4bh512rcd13ifvqe2g","pricing_plan_id":"free"},{"bike_id":"b2879593-322f-463e-8414-13bba393022a","system_id":"levelo_inurba_marseille","lat":43.297815,"lon":5.393548,"is_reserved":false,"is_disabled":false,"rental_uris":{"android":"levelo://app?vid=b2879593-322f-463e-8414-13bba393022a","ios":"levelo://app?vid=b2879593-322f-463e-8414-13bba393022a"},"vehicle_type_id":"4","last_reported":1687135286,"current_range_meters":20800,"station_id":"chh1huq6cuj3fo74tm60","pricing_plan_id":"free"},{"bike_id":"76fbe22b-617d-4875-9d9f-6847b24d6897","system_id":"levelo_inurba_marseille","lat":43.29789,"lon":5.39341,"is_reserved":false,"is_disabled":false,"rental_uris":{"android":"levelo://app?vid=76fbe22b-617d-4875-9d9f-6847b24d6897","ios":"levelo://app?vid=76fbe22b-617d-4875-9d9f-6847b24d6897"},"vehicle_type_id":"4","last_reported":1687135286,"current_range_meters":28400,"station_id":"chh1huq6cuj3fo74tm60","pricing_plan_id":"free"},{"bike_id":"cb787d84-7d69-46fc-9769-3f1ec5266e06","system_id":"levelo_inurba_marseille","lat":43.297815,"lon":5.393548,"is_reserved":false,"is_disabled":false,"rental_uris":{"android":"levelo://app?vid=cb787d84-7d69-46fc-9769-3f1ec5266e06","ios":"levelo://app?vid=cb787d84-7d69-46fc-9769-3f1ec5266e06"},"vehicle_type_id":"4","last_reported":1687135286,"current_range_meters":25600,"station_id":"chh1huq6cuj3fo74tm60","pricing_plan_id":"free"},{"bike_id":"b4ad362f-d97a-4117-9c3a-29e0810a2be0","system_id":"levelo_inurba_marseille","lat":43.289743,"lon":5.378304,"is_reserved":false,"is_disabled":false,"rental_uris":{"android":"levelo://app?vid=b4ad362f-d97a-4117-9c3a-29e0810a2be0","ios":"levelo://app?vid=b4ad362f-d97a-4117-9c3a-29e0810a2be0"},"vehicle_type_id":"4","last_reported":1687135286,"current_range_meters":30000,"station_id":"ce4bh9p2rcd13ifvqed0","pricing_plan_id":"free"},{"bike_id":"b9b44b37-7edf-4ab6-8685-17eb58a26dbc","system_id":"levelo_inurba_marseille","lat":43.295169,"lon":5.390426,"is_reserved":false,"is_disabled":false,"rental_uris":{"android":"levelo://app?vid=b9b44b37-7edf-4ab6-8685-17eb58a26dbc","ios":"levelo://app?vid=b9b44b37-7edf-4ab6-8685-17eb58a26dbc"},"vehicle_type_id":"4","last_reported":1687135286,"current_range_meters":31200,"station_id":"ce4bh3p2rcd13ifvqdp0","pricing_plan_id":"free"},{"bike_id":"9a23f46c-f727-44b8-9d2c-6299bc6d695a","system_id":"levelo_inurba_marseille","lat":43.28856,"lon":5.358371,"is_reserved":false,"is_disabled":false,"rental_uris":{"android":"levelo://app?vid=9a23f46c-f727-44b8-9d2c-6299bc6d695a","ios":"levelo://app?vid=9a23f46c-f727-44b8-9d2c-6299bc6d695a"},"vehicle_type_id":"4","last_reported":1687135286,"current_range_meters":16000,"station_id":"ce4bhb12rcd13ifvqem0","pricing_plan_id":"free"},{"bike_id":"425568bc-331e-4230-b8a8-0c17a04d1cec","system_id":"levelo_inurba_marseille","lat":43.28856,"lon":5.358371,"is_reserved":false,"is_disabled":false,"rental_uris":{"android":"levelo://app?vid=425568bc-331e-4230-b8a8-0c17a04d1cec","ios":"levelo://app?vid=425568bc-331e-4230-b8a8-0c17a04d1cec"},"vehicle_type_id":"4","last_reported":1687135286,"current_range_meters":31200,"station_id":"ce4bhb12rcd13ifvqem0","pricing_plan_id":"free"},{"bike_id":"7badc410-e7b8-45f9-80cd-f6ea04ee8abe","system_id":"levelo_inurba_marseille","lat":43.28856,"lon":5.358371,"is_reserved":false,"is_disabled":false,"rental_uris":{"android":"levelo://app?vid=7badc410-e7b8-45f9-80cd-f6ea04ee8abe","ios":"levelo://app?vid=7badc410-e7b8-45f9-80cd-f6ea04ee8abe"},"vehicle_type_id":"4","last_reported":1687135286,"current_range_meters":10400,"station_id":"ce4bhb12rcd13ifvqem0","pricing_plan_id":"free"},{"bike_id":"b267138b-d513-4e57-b806-18fa7eb0ed0a","system_id":"levelo_inurba_marseille","lat":43.28856,"lon":5.358371,"is_reserved":false,"is_disabled":false,"rental_uris":{"android":"levelo://app?vid=b267138b-d513-4e57-b806-18fa7eb0ed0a","ios":"levelo://app?vid=b267138b-d513-4e57-b806-18fa7eb0ed0a"},"vehicle_type_id":"4","last_reported":1687135286,"current_range_meters":19200,"station_id":"ce4bhb12rcd13ifvqem0","pricing_plan_id":"free"},{"bike_id":"de9ab74e-06a4-4470-bf4d-cd3c4ae056d5","system_id":"levelo_inurba_marseille","lat":43.28856,"lon":5.358371,"is_reserved":false,"is_disabled":false,"rental_uris":{"android":"levelo://app?vid=de9ab74e-06a4-4470-bf4d-cd3c4ae056d5","ios":"levelo://app?vid=de9ab74e-06a4-4470-bf4d-cd3c4ae056d5"},"vehicle_type_id":"4","last_reported":1687135286,"current_range_meters":26800,"station_id":"ce4bhb12rcd13ifvqem0","pricing_plan_id":"free"},{"bike_id":"6da895e4-0279-4c68-8523-1dbfadb426e5","system_id":"levelo_inurba_marseille","lat":43.309371,"lon":5.401449,"is_reserved":false,"is_disabled":false,"rental_uris":{"android":"levelo://app?vid=6da895e4-0279-4c68-8523-1dbfadb426e5","ios":"levelo://app?vid=6da895e4-0279-4c68-8523-1dbfadb426e5"},"vehicle_type_id":"4","last_reported":1687135286,"current_range_meters":26400,"station_id":"ce4bgvp2rcd13ifvqct0","pricing_plan_id":"free"},{"bike_id":"cbf85b53-9c02-4930-b0db-6a58ba23aa47","system_id":"levelo_inurba_marseille","lat":43.30643,"lon":5.40069,"is_reserved":false,"is_disabled":false,"rental_uris":{"android":"levelo://app?vid=cbf85b53-9c02-4930-b0db-6a58ba23aa47","ios":"levelo://app?vid=cbf85b53-9c02-4930-b0db-6a58ba23aa47"},"vehicle_type_id":"4","last_reported":1687135286,"current_range_meters":2400,"station_id":"","pricing_plan_id":"free"},{"bike_id":"41a8749b-6d93-4d1b-8e52-c5f60f65ae7c","system_id":"levelo_inurba_marseille","lat":43.33752,"lon":5.37443,"is_reserved":false,"is_disabled":false,"rental_uris":{"android":"levelo://app?vid=41a8749b-6d93-4d1b-8e52-c5f60f65ae7c","ios":"levelo://app?vid=41a8749b-6d93-4d1b-8e52-c5f60f65ae7c"},"vehicle_type_id":"4","last_reported":1687135286,"current_range_meters":25200,"station_id":"","pricing_plan_id":"free"},{"bike_id":"03dc7bc4-0651-47b3-9419-e601814ec75b","system_id":"levelo_inurba_marseille","lat":43.30647,"lon":5.40072,"is_reserved":false,"is_disabled":false,"rental_uris":{"android":"levelo://app?vid=03dc7bc4-0651-47b3-9419-e601814ec75b","ios":"levelo://app?vid=03dc7bc4-0651-47b3-9419-e601814ec75b"},"vehicle_type_id":"4","last_reported":1687135286,"current_range_meters":22000,"station_id":"ce4bh112rcd13ifvqda0","pricing_plan_id":"free"},{"bike_id":"7397650f-39d3-438c-ac58-cf41e68c9386","system_id":"levelo_inurba_marseille","lat":43.30639,"lon":5.4007,"is_reserved":false,"is_disabled":false,"rental_uris":{"android":"levelo://app?vid=7397650f-39d3-438c-ac58-cf41e68c9386","ios":"levelo://app?vid=7397650f-39d3-438c-ac58-cf41e68c9386"},"vehicle_type_id":"4","last_reported":1687135286,"current_range_meters":0,"station_id":"ce4bh112rcd13ifvqda0","pricing_plan_id":"free"},{"bike_id":"50eca23c-1a34-4bcc-a54e-1738014a05bb","system_id":"levelo_inurba_marseille","lat":43.309371,"lon":5.401449,"is_reserved":false,"is_disabled":false,"rental_uris":{"android":"levelo://app?vid=50eca23c-1a34-4bcc-a54e-1738014a05bb","ios":"levelo://app?vid=50eca23c-1a34-4bcc-a54e-1738014a05bb"},"vehicle_type_id":"4","last_reported":1687135286,"current_range_meters":26000,"station_id":"ce4bgvp2rcd13ifvqct0","pricing_plan_id":"free"},{"bike_id":"2e6ada8f-e51a-46b5-94b2-8213266ede8b","system_id":"levelo_inurba_marseille","lat":43.30642,"lon":5.40075,"is_reserved":false,"is_disabled":false,"rental_uris":{"android":"levelo://app?vid=2e6ada8f-e51a-46b5-94b2-8213266ede8b","ios":"levelo://app?vid=2e6ada8f-e51a-46b5-94b2-8213266ede8b"},"vehicle_type_id":"4","last_reported":1687135286,"current_range_meters":11600,"station_id":"ce4bh112rcd13ifvqda0","pricing_plan_id":"free"},{"bike_id":"e9dca547-42ba-4d28-93d5-aece827ff329","system_id":"levelo_inurba_marseille","lat":43.30643,"lon":5.40077,"is_reserved":false,"is_disabled":false,"rental_uris":{"android":"levelo://app?vid=e9dca547-42ba-4d28-93d5-aece827ff329","ios":"levelo://app?vid=e9dca547-42ba-4d28-93d5-aece827ff329"},"vehicle_type_id":"4","last_reported":1687135286,"current_range_meters":8400,"station_id":"ce4bh112rcd13ifvqda0","pricing_plan_id":"free"},{"bike_id":"2d476d93-328d-4dd2-876e-4ec798ebadb3","system_id":"levelo_inurba_marseille","lat":43.309371,"lon":5.401449,"is_reserved":false,"is_disabled":false,"rental_uris":{"android":"levelo://app?vid=2d476d93-328d-4dd2-876e-4ec798ebadb3","ios":"levelo://app?vid=2d476d93-328d-4dd2-876e-4ec798ebadb3"},"vehicle_type_id":"4","last_reported":1687135286,"current_range_meters":2400,"station_id":"ce4bgvp2rcd13ifvqct0","pricing_plan_id":"free"},{"bike_id":"f903dd80-5e27-4921-8689-d51d9c88e358","system_id":"levelo_inurba_marseille","lat":43.30644,"lon":5.40078,"is_reserved":false,"is_disabled":false,"rental_uris":{"android":"levelo://app?vid=f903dd80-5e27-4921-8689-d51d9c88e358","ios":"levelo://app?vid=f903dd80-5e27-4921-8689-d51d9c88e358"},"vehicle_type_id":"4","last_reported":1687135286,"current_range_meters":16000,"station_id":"ce4bh112rcd13ifvqda0","pricing_plan_id":"free"},{"bike_id":"bed57762-0138-472e-ae04-05554cc4d403","system_id":"levelo_inurba_marseille","lat":43.30642,"lon":5.40078,"is_reserved":false,"is_disabled":false,"rental_uris":{"android":"levelo://app?vid=bed57762-0138-472e-ae04-05554cc4d403","ios":"levelo://app?vid=bed57762-0138-472e-ae04-05554cc4d403"},"vehicle_type_id":"4","last_reported":1687135286,"current_range_meters":22400,"station_id":"ce4bh112rcd13ifvqda0","pricing_plan_id":"free"},{"bike_id":"a712f5d2-8503-49cc-970c-22735b41c06d","system_id":"levelo_inurba_marseille","lat":43.30646,"lon":5.40085,"is_reserved":false,"is_disabled":false,"rental_uris":{"android":"levelo://app?vid=a712f5d2-8503-49cc-970c-22735b41c06d","ios":"levelo://app?vid=a712f5d2-8503-49cc-970c-22735b41c06d"},"vehicle_type_id":"4","last_reported":1687135286,"current_range_meters":22000,"station_id":"ce4bh112rcd13ifvqda0","pricing_plan_id":"free"},{"bike_id":"074875a9-df1c-41c5-925b-ea72e7bf9ccb","system_id":"levelo_inurba_marseille","lat":43.30645,"lon":5.40099,"is_reserved":false,"is_disabled":false,"rental_uris":{"android":"levelo://app?vid=074875a9-df1c-41c5-925b-ea72e7bf9ccb","ios":"levelo://app?vid=074875a9-df1c-41c5-925b-ea72e7bf9ccb"},"vehicle_type_id":"4","last_reported":1687135286,"current_range_meters":11600,"station_id":"ce4bh112rcd13ifvqda0","pricing_plan_id":"free"},{"bike_id":"db74f92f-ffff-494c-8c7f-abdf64215cc0","system_id":"levelo_inurba_marseille","lat":43.30642,"lon":5.40099,"is_reserved":false,"is_disabled":false,"rental_uris":{"android":"levelo://app?vid=db74f92f-ffff-494c-8c7f-abdf64215cc0","ios":"levelo://app?vid=db74f92f-ffff-494c-8c7f-abdf64215cc0"},"vehicle_type_id":"4","last_reported":1687135286,"current_range_meters":25600,"station_id":"ce4bh112rcd13ifvqda0","pricing_plan_id":"free"},{"bike_id":"4daf90a2-5f6c-480c-961e-82f93fc10705","system_id":"levelo_inurba_marseille","lat":43.30643,"lon":5.401,"is_reserved":false,"is_disabled":false,"rental_uris":{"android":"levelo://app?vid=4daf90a2-5f6c-480c-961e-82f93fc10705","ios":"levelo://app?vid=4daf90a2-5f6c-480c-961e-82f93fc10705"},"vehicle_type_id":"4","last_reported":1687135286,"current_range_meters":26800,"station_id":"ce4bh112rcd13ifvqda0","pricing_plan_id":"free"},{"bike_id":"e06a53f4-4138-46b1-9cf8-88865ec09156","system_id":"levelo_inurba_marseille","lat":43.301117,"lon":5.398795,"is_reserved":false,"is_disabled":false,"rental_uris":{"android":"levelo://app?vid=e06a53f4-4138-46b1-9cf8-88865ec09156","ios":"levelo://app?vid=e06a53f4-4138-46b1-9cf8-88865ec09156"},"vehicle_type_id":"4","last_reported":1687135286,"current_range_meters":7200,"station_id":"ce4bh0h2rcd13ifvqd40","pricing_plan_id":"free"},{"bike_id":"a47ed742-21c9-4f54-ad39-8c71bf2b52d7","system_id":"levelo_inurba_marseille","lat":43.301117,"lon":5.398795,"is_reserved":false,"is_disabled":false,"rental_uris":{"android":"levelo://app?vid=a47ed742-21c9-4f54-ad39-8c71bf2b52d7","ios":"levelo://app?vid=a47ed742-21c9-4f54-ad39-8c71bf2b52d7"},"vehicle_type_id":"4","last_reported":1687135286,"current_range_meters":16400,"station_id":"ce4bh0h2rcd13ifvqd40","pricing_plan_id":"free"},{"bike_id":"4f7bb7f8-fd52-4323-8c30-6e7598d4b7d6","system_id":"levelo_inurba_marseille","lat":43.301117,"lon":5.398795,"is_reserved":false,"is_disabled":false,"rental_uris":{"android":"levelo://app?vid=4f7bb7f8-fd52-4323-8c30-6e7598d4b7d6","ios":"levelo://app?vid=4f7bb7f8-fd52-4323-8c30-6e7598d4b7d6"},"vehicle_type_id":"4","last_reported":1687135286,"current_range_meters":17600,"station_id":"ce4bh0h2rcd13ifvqd40","pricing_plan_id":"free"},{"bike_id":"bfa3d14e-aac3-49f9-9efb-e7c149f3b661","system_id":"levelo_inurba_marseille","lat":43.30135,"lon":5.39879,"is_reserved":false,"is_disabled":false,"rental_uris":{"android":"levelo://app?vid=bfa3d14e-aac3-49f9-9efb-e7c149f3b661","ios":"levelo://app?vid=bfa3d14e-aac3-49f9-9efb-e7c149f3b661"},"vehicle_type_id":"4","last_reported":1687135286,"current_range_meters":0,"station_id":"ce4bh0h2rcd13ifvqd40","pricing_plan_id":"free"},{"bike_id":"0582e994-7dbf-46bf-95ed-2ab64e39290b","system_id":"levelo_inurba_marseille","lat":43.2867,"lon":5.36345,"is_reserved":false,"is_disabled":false,"rental_uris":{"android":"levelo://app?vid=0582e994-7dbf-46bf-95ed-2ab64e39290b","ios":"levelo://app?vid=0582e994-7dbf-46bf-95ed-2ab64e39290b"},"vehicle_type_id":"4","last_reported":1687135286,"current_range_meters":31200,"station_id":"ce4bhah2rcd13ifvqej0","pricing_plan_id":"free"},{"bike_id":"20384575-0642-4493-8ef5-e03ee732e5f7","system_id":"levelo_inurba_marseille","lat":43.298681,"lon":5.397225,"is_reserved":false,"is_disabled":false,"rental_uris":{"android":"levelo://app?vid=20384575-0642-4493-8ef5-e03ee732e5f7","ios":"levelo://app?vid=20384575-0642-4493-8ef5-e03ee732e5f7"},"vehicle_type_id":"4","last_reported":1687135286,"current_range_meters":29200,"station_id":"ce4bh0h2rcd13ifvqd50","pricing_plan_id":"free"},{"bike_id":"1180b230-3f8c-4967-8871-b6397673eea9","system_id":"levelo_inurba_marseille","lat":43.28704,"lon":5.37389,"is_reserved":false,"is_disabled":false,"rental_uris":{"android":"levelo://app?vid=1180b230-3f8c-4967-8871-b6397673eea9","ios":"levelo://app?vid=1180b230-3f8c-4967-8871-b6397673eea9"},"vehicle_type_id":"4","last_reported":1687135286,"current_range_meters":31200,"station_id":"ce4bh3p2rcd13ifvqdq0","pricing_plan_id":"free"},{"bike_id":"2e495cab-1af4-49bf-882c-5bdbd135a45e","system_id":"levelo_inurba_marseille","lat":43.298681,"lon":5.397225,"is_reserved":false,"is_disabled":false,"rental_uris":{"android":"levelo://app?vid=2e495cab-1af4-49bf-882c-5bdbd135a45e","ios":"levelo://app?vid=2e495cab-1af4-49bf-882c-5bdbd135a45e"},"vehicle_type_id":"4","last_reported":1687135286,"current_range_meters":28400,"station_id":"ce4bh0h2rcd13ifvqd50","pricing_plan_id":"free"},{"bike_id":"d262aa38-4783-4c1c-a59a-5764628ea97b","system_id":"levelo_inurba_marseille","lat":43.28703,"lon":5.37398,"is_reserved":false,"is_disabled":false,"rental_uris":{"android":"levelo://app?vid=d262aa38-4783-4c1c-a59a-5764628ea97b","ios":"levelo://app?vid=d262aa38-4783-4c1c-a59a-5764628ea97b"},"vehicle_type_id":"4","last_reported":1687135286,"current_range_meters":31200,"station_id":"ce4bh3p2rcd13ifvqdq0","pricing_plan_id":"free"},{"bike_id":"0e6acab3-cfe9-477b-9b25-e6a01e48363e","system_id":"levelo_inurba_marseille","lat":43.28702,"lon":5.37392,"is_reserved":false,"is_disabled":false,"rental_uris":{"android":"levelo://app?vid=0e6acab3-cfe9-477b-9b25-e6a01e48363e","ios":"levelo://app?vid=0e6acab3-cfe9-477b-9b25-e6a01e48363e"},"vehicle_type_id":"4","last_reported":1687135286,"current_range_meters":31200,"station_id":"ce4bh3p2rcd13ifvqdq0","pricing_plan_id":"free"},{"bike_id":"4d905b1c-2994-4256-9b3f-e986b4d96428","system_id":"levelo_inurba_marseille","lat":43.286591,"lon":5.363346,"is_reserved":false,"is_disabled":false,"rental_uris":{"android":"levelo://app?vid=4d905b1c-2994-4256-9b3f-e986b4d96428","ios":"levelo://app?vid=4d905b1c-2994-4256-9b3f-e986b4d96428"},"vehicle_type_id":"4","last_reported":1687135286,"current_range_meters":22400,"station_id":"ce4bhah2rcd13ifvqej0","pricing_plan_id":"free"},{"bike_id":"c38cdeef-88c8-40ec-848a-b7eff2c38546","system_id":"levelo_inurba_marseille","lat":43.286591,"lon":5.363346,"is_reserved":false,"is_disabled":false,"rental_uris":{"android":"levelo://app?vid=c38cdeef-88c8-40ec-848a-b7eff2c38546","ios":"levelo://app?vid=c38cdeef-88c8-40ec-848a-b7eff2c38546"},"vehicle_type_id":"4","last_reported":1687135286,"current_range_meters":30400,"station_id":"ce4bhah2rcd13ifvqej0","pricing_plan_id":"free"},{"bike_id":"6419555d-a5fa-4e58-8ffc-653801ae2719","system_id":"levelo_inurba_marseille","lat":43.287,"lon":5.37382,"is_reserved":false,"is_disabled":false,"rental_uris":{"android":"levelo://app?vid=6419555d-a5fa-4e58-8ffc-653801ae2719","ios":"levelo://app?vid=6419555d-a5fa-4e58-8ffc-653801ae2719"},"vehicle_type_id":"4","last_reported":1687135286,"current_range_meters":31200,"station_id":"ce4bh3p2rcd13ifvqdq0","pricing_plan_id":"free"},{"bike_id":"274ebb1f-94b4-413f-a076-55ecae2ec87a","system_id":"levelo_inurba_marseille","lat":43.28701,"lon":5.37393,"is_reserved":false,"is_disabled":false,"rental_uris":{"android":"levelo://app?vid=274ebb1f-94b4-413f-a076-55ecae2ec87a","ios":"levelo://app?vid=274ebb1f-94b4-413f-a076-55ecae2ec87a"},"vehicle_type_id":"4","last_reported":1687135286,"current_range_meters":31200,"station_id":"ce4bh3p2rcd13ifvqdq0","pricing_plan_id":"free"},{"bike_id":"e2a50de1-2987-464f-802c-523d0397a87b","system_id":"levelo_inurba_marseille","lat":43.28662,"lon":5.36352,"is_reserved":false,"is_disabled":false,"rental_uris":{"android":"levelo://app?vid=e2a50de1-2987-464f-802c-523d0397a87b","ios":"levelo://app?vid=e2a50de1-2987-464f-802c-523d0397a87b"},"vehicle_type_id":"4","last_reported":1687135286,"current_range_meters":21600,"station_id":"ce4bhah2rcd13ifvqej0","pricing_plan_id":"free"},{"bike_id":"b35a8eac-918a-41ad-bd30-cfae5e8fe887","system_id":"levelo_inurba_marseille","lat":43.295196,"lon":5.39397,"is_reserved":false,"is_disabled":false,"rental_uris":{"android":"levelo://app?vid=b35a8eac-918a-41ad-bd30-cfae5e8fe887","ios":"levelo://app?vid=b35a8eac-918a-41ad-bd30-cfae5e8fe887"},"vehicle_type_id":"4","last_reported":1687135286,"current_range_meters":13200,"station_id":"ce4bh292rcd13ifvqdf0","pricing_plan_id":"free"},{"bike_id":"b745c08b-51b6-4522-ae41-7889b197ad7e","system_id":"levelo_inurba_marseille","lat":43.28659,"lon":5.36356,"is_reserved":false,"is_disabled":false,"rental_uris":{"android":"levelo://app?vid=b745c08b-51b6-4522-ae41-7889b197ad7e","ios":"levelo://app?vid=b745c08b-51b6-4522-ae41-7889b197ad7e"},"vehicle_type_id":"4","last_reported":1687135286,"current_range_meters":30000,"station_id":"ce4bhah2rcd13ifvqej0","pricing_plan_id":"free"},{"bike_id":"3d3ad460-eabb-42de-b02f-f3d69d424970","system_id":"levelo_inurba_marseille","lat":43.295196,"lon":5.39397,"is_reserved":false,"is_disabled":false,"rental_uris":{"android":"levelo://app?vid=3d3ad460-eabb-42de-b02f-f3d69d424970","ios":"levelo://app?vid=3d3ad460-eabb-42de-b02f-f3d69d424970"},"vehicle_type_id":"4","last_reported":1687135286,"current_range_meters":29200,"station_id":"ce4bh292rcd13ifvqdf0","pricing_plan_id":"free"},{"bike_id":"12b9249f-9b52-4ce3-ba01-1a73ea0868ee","system_id":"levelo_inurba_marseille","lat":43.286593,"lon":5.363346,"is_reserved":false,"is_disabled":false,"rental_uris":{"android":"levelo://app?vid=12b9249f-9b52-4ce3-ba01-1a73ea0868ee","ios":"levelo://app?vid=12b9249f-9b52-4ce3-ba01-1a73ea0868ee"},"vehicle_type_id":"4","last_reported":1687135286,"current_range_meters":28400,"station_id":"ce4bhah2rcd13ifvqej0","pricing_plan_id":"free"},{"bike_id":"2836a377-c092-4a53-88be-7a880ae7d14d","system_id":"levelo_inurba_marseille","lat":43.295196,"lon":5.39397,"is_reserved":false,"is_disabled":false,"rental_uris":{"android":"levelo://app?vid=2836a377-c092-4a53-88be-7a880ae7d14d","ios":"levelo://app?vid=2836a377-c092-4a53-88be-7a880ae7d14d"},"vehicle_type_id":"4","last_reported":1687135286,"current_range_meters":13200,"station_id":"ce4bh292rcd13ifvqdf0","pricing_plan_id":"free"},{"bike_id":"4990af2e-1302-48a0-9b1b-f5ddaa6f1560","system_id":"levelo_inurba_marseille","lat":43.295196,"lon":5.39397,"is_reserved":false,"is_disabled":false,"rental_uris":{"android":"levelo://app?vid=4990af2e-1302-48a0-9b1b-f5ddaa6f1560","ios":"levelo://app?vid=4990af2e-1302-48a0-9b1b-f5ddaa6f1560"},"vehicle_type_id":"4","last_reported":1687135286,"current_range_meters":22800,"station_id":"ce4bh292rcd13ifvqdf0","pricing_plan_id":"free"},{"bike_id":"2e554465-ed21-4c12-b59a-8689d03eac3d","system_id":"levelo_inurba_marseille","lat":43.295196,"lon":5.39397,"is_reserved":false,"is_disabled":false,"rental_uris":{"android":"levelo://app?vid=2e554465-ed21-4c12-b59a-8689d03eac3d","ios":"levelo://app?vid=2e554465-ed21-4c12-b59a-8689d03eac3d"},"vehicle_type_id":"4","last_reported":1687135286,"current_range_meters":17600,"station_id":"ce4bh292rcd13ifvqdf0","pricing_plan_id":"free"},{"bike_id":"d6c00486-9f3e-4191-ae6c-5c4d3d3a2932","system_id":"levelo_inurba_marseille","lat":43.290345,"lon":5.38646,"is_reserved":false,"is_disabled":false,"rental_uris":{"android":"levelo://app?vid=d6c00486-9f3e-4191-ae6c-5c4d3d3a2932","ios":"levelo://app?vid=d6c00486-9f3e-4191-ae6c-5c4d3d3a2932"},"vehicle_type_id":"4","last_reported":1687135286,"current_range_meters":24800,"station_id":"ce4bh4p2rcd13ifvqe0g","pricing_plan_id":"free"},{"bike_id":"6bde02f7-0c2f-4ae7-9086-27581741be8b","system_id":"levelo_inurba_marseille","lat":43.290336,"lon":5.386425,"is_reserved":false,"is_disabled":false,"rental_uris":{"android":"levelo://app?vid=6bde02f7-0c2f-4ae7-9086-27581741be8b","ios":"levelo://app?vid=6bde02f7-0c2f-4ae7-9086-27581741be8b"},"vehicle_type_id":"4","last_reported":1687135286,"current_range_meters":17200,"station_id":"ce4bh4p2rcd13ifvqe0g","pricing_plan_id":"free"},{"bike_id":"28648f74-cb7e-4312-9d87-3c3a98ecb12b","system_id":"levelo_inurba_marseille","lat":43.302759,"lon":5.400793,"is_reserved":false,"is_disabled":false,"rental_uris":{"android":"levelo://app?vid=28648f74-cb7e-4312-9d87-3c3a98ecb12b","ios":"levelo://app?vid=28648f74-cb7e-4312-9d87-3c3a98ecb12b"},"vehicle_type_id":"4","last_reported":1687135286,"current_range_meters":28800,"station_id":"ce4bgvh2rcd13ifvqcs0","pricing_plan_id":"free"},{"bike_id":"10bf59de-190b-461b-93b0-521a8d654a15","system_id":"levelo_inurba_marseille","lat":43.30259,"lon":5.40082,"is_reserved":false,"is_disabled":false,"rental_uris":{"android":"levelo://app?vid=10bf59de-190b-461b-93b0-521a8d654a15","ios":"levelo://app?vid=10bf59de-190b-461b-93b0-521a8d654a15"},"vehicle_type_id":"4","last_reported":1687135286,"current_range_meters":29600,"station_id":"ce4bgvh2rcd13ifvqcs0","pricing_plan_id":"free"},{"bike_id":"180ba63a-5efa-4855-8d38-31ab3c721341","system_id":"levelo_inurba_marseille","lat":43.286039,"lon":5.370679,"is_reserved":false,"is_disabled":false,"rental_uris":{"android":"levelo://app?vid=180ba63a-5efa-4855-8d38-31ab3c721341","ios":"levelo://app?vid=180ba63a-5efa-4855-8d38-31ab3c721341"},"vehicle_type_id":"4","last_reported":1687135286,"current_range_meters":26800,"station_id":"ce4bht12rcd13ifvqi60","pricing_plan_id":"free"},{"bike_id":"c68f5399-aaf0-40e1-b636-b2672cdc9ea5","system_id":"levelo_inurba_marseille","lat":43.286039,"lon":5.370681,"is_reserved":false,"is_disabled":false,"rental_uris":{"android":"levelo://app?vid=c68f5399-aaf0-40e1-b636-b2672cdc9ea5","ios":"levelo://app?vid=c68f5399-aaf0-40e1-b636-b2672cdc9ea5"},"vehicle_type_id":"4","last_reported":1687135286,"current_range_meters":18800,"station_id":"ce4bht12rcd13ifvqi60","pricing_plan_id":"free"},{"bike_id":"36b3e68b-3432-4dca-a726-03cc1d1def05","system_id":"levelo_inurba_marseille","lat":43.316517,"lon":5.404375,"is_reserved":false,"is_disabled":false,"rental_uris":{"android":"levelo://app?vid=36b3e68b-3432-4dca-a726-03cc1d1def05","ios":"levelo://app?vid=36b3e68b-3432-4dca-a726-03cc1d1def05"},"vehicle_type_id":"4","last_reported":1687135286,"current_range_meters":10000,"station_id":"ce4bh012rcd13ifvqd00","pricing_plan_id":"free"},{"bike_id":"125b205e-fb1a-4fa4-b869-739ee7ab2002","system_id":"levelo_inurba_marseille","lat":43.316517,"lon":5.404375,"is_reserved":false,"is_disabled":false,"rental_uris":{"android":"levelo://app?vid=125b205e-fb1a-4fa4-b869-739ee7ab2002","ios":"levelo://app?vid=125b205e-fb1a-4fa4-b869-739ee7ab2002"},"vehicle_type_id":"4","last_reported":1687135286,"current_range_meters":17200,"station_id":"ce4bh012rcd13ifvqd00","pricing_plan_id":"free"},