{"last_updated":1756451382,"ttl":60,"version":"2.2","data":{"bikes":[{"bike_id":"3786bc3f-a1ef-4971-82b5-53ee21f255a9","system_id":"levelo_inurba_marseille","lat":43.337444,"lon":5.374475,"is_reserved":false,"is_disabled":true,"rental_uris":{"android":"levelo://app?vid=3786bc3f-a1ef-4971-82b5-53ee21f255a9","ios":"levelo://app?vid=3786bc3f-a1ef-4971-82b5-53ee21f255a9"},"vehicle_type_id":"4","last_reported":1756451382,"current_range_meters":0,"station_id":"","pricing_plan_id":"cebpf4jnsgd1na2vs0mg"},{"bike_id":"eaf33fba-ed97-48de-8903-7533cbd22295","system_id":"levelo_inurba_marseille","lat":43.337444,"lon":5.374475,"is_reserved":false,"is_disabled":true,"rental_uris":{"android":"levelo://app?vid=eaf33fba-ed97-48de-8903-7533cbd22295","ios":"levelo://app?vid=eaf33fba-ed97-48de-8903-7533cbd22295"},"vehicle_type_id":"4","last_reported":1756451382,"current_range_meters":0,"station_id":"","pricing_plan_id":"cebpf4jnsgd1na2vs0mg"},{"bike_id":"d165ff19-8e79-4669-a0ec-2766941625b3","system_id":"levelo_inurba_marseille","lat":43.337444,"lon":5.374475,"is_reserved":false,"is_disabled":true,"rental_uris":{"android":"levelo://app?vid=d165ff19-8e79-4669-a0ec-2766941625b3","ios":"levelo://app?vid=d165ff19-8e79-4669-a0ec-2766941625b3"},"vehicle_type_id":"4","last_reported":1756451382,"current_range_meters":0,"station_id":"","pricing_plan_id":"cebpf4jnsgd1na2vs0mg"},{"bike_id":"fee6e365-1410-47ff-aac6-460fe19870cf","system_id":"levelo_inurba_marseille","lat":43.33771,"lon":5.37424,"is_reserved":false,"is_disabled":true,"rental_uris":{"android":"levelo://app?vid=fee6e365-1410-47ff-aac6-460fe19870cf","ios":"levelo://app?vid=fee6e365-1410-47ff-aac6-460fe19870cf"},"vehicle_type_id":"4","last_reported":1756451382,"current_range_meters":0,"station_id":"","pricing_plan_id":"cebpf4jnsgd1na2vs0mg"},{"bike_id":"e7907bf2-9f85-4fec-b00b-f77b1a4a873c","system_id":"levelo_inurba_marseille","lat":43.33751,"lon":5.37456,"is_reserved":false,"is_disabled":true,"rental_uris":{"android":"levelo://app?vid=e7907bf2-9f85-4fec-b00b-f77b1a4a873c","ios":"levelo://app?vid=e7907bf2-9f85-4fec-b00b-f77b1a4a873c"},"vehicle_type_id":"4","last_reported":1756451382,"current_range_meters":0,"station_id":"","pricing_plan_id":"cebpf4jnsgd1na2vs0mg"},{"bike_id":"c060c1ec-0d33-42db-9a3d-6fb7fae5ea5e","system_id":"levelo_inurba_marseille","lat":43.33747,"lon":5.37463,"is_reserved":false,"is_disabled":true,"rental_uris":{"android":"levelo://app?vid=c060c1ec-0d33-42db-9a3d-6fb7fae5ea5e","ios":"levelo://app?vid=c060c1ec-0d33-42db-9a3d-6fb7fae5ea5e"},"vehicle_type_id":"1","last_reported":1756451382,"current_range_meters":0,"station_id":"","pricing_plan_id":"cebpf4jnsgd1na2vs0mg"},{"bike_id":"e6546109-cd3c-4cd0-ac12-e78c09da4ae6","system_id":"levelo_inurba_marseille","lat":43.33737,"lon":5.37465,"is_reserved":false,"is_disabled":true,"rental_uris":{"android":"levelo://app?vid=e6546109-cd3c-4cd0-ac12-e78c09da4ae6","ios":"levelo://app?vid=e6546109-cd3c-4cd0-ac12-e78c09da4ae6"},"vehicle_type_id":"4","last_reported":1756451382,"current_range_meters":0,"station_id":"","pricing_plan_id":"cebpf4jnsgd1na2vs0mg"},{"bike_id":"8facfda0-e588-46c6-8323-70578ba699b1","system_id":"levelo_inurba_marseille","lat":43.30501,"lon":5.37043,"is_reserved":false,"is_disabled":true,"rental_uris":{"android":"levelo://app?vid=8facfda0-e588-46c6-8323-70578ba699b1","ios":"levelo://app?vid=8facfda0-e588-46c6-8323-70578ba699b1"},"vehicle_type_id":"4","last_reported":1756451382,"current_range_meters":0,"station_id":"","pricing_plan_id":"cebpf4jnsgd1na2vs0mg"},{"bike_id":"b3fa04f4-753f-44ec-9319-e8b6b49d76a7","system_id":"levelo_inurba_marseille","lat":43.28837,"lon":5.38521,"is_reserved":false,"is_disabled":true,"rental_uris":{"android":"levelo://app?vid=b3fa04f4-753f-44ec-9319-e8b6b49d76a7","ios":"levelo://app?vid=b3fa04f4-753f-44ec-9319-e8b6b49d76a7"},"vehicle_type_id":"4","last_reported":1756451382,"current_range_meters":0,"station_id":"","pricing_plan_id":"cebpf4jnsgd1na2vs0mg"},{"bike_id":"0d006835-dfc4-460a-8c56-acc02ce01133","system_id":"levelo_inurba_marseille","lat":43.281085,"lon":5.398238,"is_reserved":false,"is_disabled":true,"rental_uris":{"android":"levelo://app?vid=0d006835-dfc4-460a-8c56-acc02ce01133","ios":"levelo://app?vid=0d006835-dfc4-460a-8c56-acc02ce01133"},"vehicle_type_id":"4","last_reported":1756451382,"current_range_meters":0,"station_id":"","pricing_plan_id":"cebpf4jnsgd1na2vs0mg"},{"bike_id":"ce4d1951-77de-4223-bddc-08947fafc799","system_id":"levelo_inurba_marseille","lat":43.29804,"lon":5.38072,"is_reserved":false,"is_disabled":true,"rental_uris":{"android":"levelo://app?vid=ce4d1951-77de-4223-bddc-08947fafc799","ios":"levelo://app?vid=ce4d1951-77de-4223-bddc-08947fafc799"},"vehicle_type_id":"4","last_reported":1756451382,"current_range_meters":0,"station_id":"","pricing_plan_id":"cebpf4jnsgd1na2vs0mg"},{"bike_id":"5d315e57-bb67-481f-b455-26ecfe9889ad","system_id":"levelo_inurba_marseille","lat":43.28069,"lon":5.34773,"is_reserved":false,"is_disabled":true,"rental_uris":{"android":"levelo://app?vid=5d315e57-bb67-481f-b455-26ecfe9889ad","ios":"levelo://app?vid=5d315e57-bb67-481f-b455-26ecfe9889ad"},"vehicle_type_id":"4","last_reported":1756451382,"current_range_meters":0,"station_id":"","pricing_plan_id":"cebpf4jnsgd1na2vs0mg"},{"bike_id":"27170fb1-f0bd-4786-863d-ce792ebde707","system_id":"levelo_inurba_marseille","lat":43.225027,"lon":5.347839,"is_reserved":false,"is_disabled":true,"rental_uris":{"android":"levelo://app?vid=27170fb1-f0bd-4786-863d-ce792ebde707","ios":"levelo://app?vid=27170fb1-f0bd-4786-863d-ce792ebde707"},"vehicle_type_id":"4","last_reported":1756451382,"current_range_meters":0,"station_id":"","pricing_plan_id":"cebpf4jnsgd1na2vs0mg"},{"bike_id":"58f13290-b773-4dc1-8214-28f177939ddc","system_id":"levelo_inurba_marseille","lat":43.24645,"lon":5.39627,"is_reserved":false,"is_disabled":true,"rental_uris":{"android":"levelo://app?vid=58f13290-b773-4dc1-8214-28f177939ddc","ios":"levelo://app?vid=58f13290-b773-4dc1-8214-28f177939ddc"},"vehicle_type_id":"4","last_reported":1756451382,"current_range_meters":0,"station_id":"","pricing_plan_id":"cebpf4jnsgd1na2vs0mg"},{"bike_id":"d2455067-1891-474b-a2c4-af07d10e4bfa","system_id":"levelo_inurba_marseille","lat":43.337631,"lon":5.374721,"is_reserved":false,"is_disabled":true,"rental_uris":{"android":"levelo://app?vid=d2455067-1891-474b-a2c4-af07d10e4bfa","ios":"levelo://app?vid=d2455067-1891-474b-a2c4-af07d10e4bfa"},"vehicle_type_id":"4","last_reported":1756451382,"current_range_meters":0,"station_id":"","pricing_plan_id":"cebpf4jnsgd1na2vs0mg"},{"bike_id":"03990fa4-91b5-4a77-b4ae-e0463ec14de5","system_id":"levelo_inurba_marseille","lat":43.3169,"lon":5.40482,"is_reserved":false,"is_disabled":true,"rental_uris":{"android":"levelo://app?vid=03990fa4-91b5-4a77-b4ae-e0463ec14de5","ios":"levelo://app?vid=03990fa4-91b5-4a77-b4ae-e0463ec14de5"},"vehicle_type_id":"4","last_reported":1756451382,"current_range_meters":0,"station_id":"ce4bh012rcd13ifvqd00","pricing_plan_id":"cebpf4jnsgd1na2vs0mg"},{"bike_id":"2f300b1b-c591-489a-881e-0b5edef6dd9a","system_id":"levelo_inurba_marseille","lat":43.28933,"lon":5.36642,"is_reserved":false,"is_disabled":true,"rental_uris":{"android":"levelo://app?vid=2f300b1b-c591-489a-881e-0b5edef6dd9a","ios":"levelo://app?vid=2f300b1b-c591-489a-881e-0b5edef6dd9a"},"vehicle_type_id":"4","last_reported":1756451382,"current_range_meters":0,"station_id":"ce4bhap2rcd13ifvqek0","pricing_plan_id":"cebpf4jnsgd1na2vs0mg"},{"bike_id":"23038a23-8213-4d5b-a784-616373105311","system_id":"levelo_inurba_marseille","lat":43.298927,"lon":5.43664,"is_reserved":false,"is_disabled":true,"rental_uris":{"android":"levelo://app?vid=23038a23-8213-4d5b-a784-616373105311","ios":"levelo://app?vid=23038a23-8213-4d5b-a784-616373105311"},"vehicle_type_id":"4","last_reported":1756451382,"current_range_meters":0,"station_id":"ce4bhpp2rcd13ifvqhfg","pricing_plan_id":"cebpf4jnsgd1na2vs0mg"},{"bike_id":"95fc99c2-9eee-4369-8f07-e23387a9fbd1","system_id":"levelo_inurba_marseille","lat":43.2177,"lon":5.34593,"is_reserved":false,"is_disabled":true,"rental_uris":{"android":"levelo://app?vid=95fc99c2-9eee-4369-8f07-e23387a9fbd1","ios":"levelo://app?vid=95fc99c2-9eee-4369-8f07-e23387a9fbd1"},"vehicle_type_id":"4","last_reported":1756451382,"current_range_meters":0,"station_id":"st_cvj6r9ubvosntc0bgbag","pricing_plan_id":"cebpf4jnsgd1na2vs0mg"},{"bike_id":"1b4152e4-08ce-47ca-a058-25cba902569b","system_id":"levelo_inurba_marseille","lat":43.323457,"lon":5.367489,"is_reserved":false,"is_disabled":true,"rental_uris":{"android":"levelo://app?vid=1b4152e4-08ce-47ca-a058-25cba902569b","ios":"levelo://app?vid=1b4152e4-08ce-47ca-a058-25cba902569b"},"vehicle_type_id":"4","last_reported":1756451382,"current_range_meters":400,"station_id":"ce4bhsh2rcd13ifvqi2g","pricing_plan_id":"cebpf4jnsgd1na2vs0mg"},{"bike_id":"b937509b-3a5c-4ea0-838b-1bffb8d95da4","system_id":"levelo_inurba_marseille","lat":43.34652,"lon":5.34615,"is_reserved":false,"is_disabled":true,"rental_uris":{"android":"levelo://app?vid=b937509b-3a5c-4ea0-838b-1bffb8d95da4","ios":"levelo://app?vid=b937509b-3a5c-4ea0-838b-1bffb8d95da4"},"vehicle_type_id":"4","last_reported":1756451382,"current_range_meters":800,"station_id":"","pricing_plan_id":"cebpf4jnsgd1na2vs0mg"},{"bike_id":"49c11e1b-d673-4449-8898-4b156b9f29ee","system_id":"levelo_inurba_marseille","lat":43.25487,"lon":5.37659,"is_reserved":false,"is_disabled":true,"rental_uris":{"android":"levelo://app?vid=49c11e1b-d673-4449-8898-4b156b9f29ee","ios":"levelo://app?vid=49c11e1b-d673-4449-8898-4b156b9f29ee"},"vehicle_type_id":"4","last_reported":1756451382,"current_range_meters":800,"station_id":"ce4bhh12rcd13ifvqff0","pricing_plan_id":"cebpf4jnsgd1na2vs0mg"},{"bike_id":"9ebbca0f-8b0f-49e0-bbc0-5934ebb0e846","system_id":"levelo_inurba_marseille","lat":43.211909,"lon":5.350793,"is_reserved":false,"is_disabled":true,"rental_uris":{"android":"levelo://app?vid=9ebbca0f-8b0f-49e0-bbc0-5934ebb0e846","ios":"levelo://app?vid=9ebbca0f-8b0f-49e0-bbc0-5934ebb0e846"},"vehicle_type_id":"4","last_reported":1756451382,"current_range_meters":800,"station_id":"st_cvj6sg6p6f1abm77japg","pricing_plan_id":"cebpf4jnsgd1na2vs0mg"},{"bike_id":"b7f5d4fc-8af5-442f-b471-e28f343fd67e","system_id":"levelo_inurba_marseille","lat":43.33757,"lon":5.37481,"is_reserved":false,"is_disabled":true,"rental_uris":{"android":"levelo://app?vid=b7f5d4fc-8af5-442f-b471-e28f343fd67e","ios":"levelo://app?vid=b7f5d4fc-8af5-442f-b471-e28f343fd67e"},"vehicle_type_id":"4","last_reported":1756451382,"current_range_meters":1200,"station_id":"","pricing_plan_id":"cebpf4jnsgd1na2vs0mg"},{"bike_id":"72ad73f8-ec78-4d1c-adef-5e4bde17ed13","system_id":"levelo_inurba_marseille","lat":43.26947,"lon":5.38639,"is_reserved":false,"is_disabled":true,"rental_uris":{"android":"levelo://app?vid=72ad73f8-ec78-4d1c-adef-5e4bde17ed13","ios":"levelo://app?vid=72ad73f8-ec78-4d1c-adef-5e4bde17ed13"},"vehicle_type_id":"4","last_reported":1756451382,"current_range_meters":1600,"station_id":"ce4bhh92rcd13ifvqfh0","pricing_plan_id":"cebpf4jnsgd1na2vs0mg"},{"bike_id":"0ff9af53-9fa1-4acd-987d-091e0b0fa873","system_id":"levelo_inurba_marseille","lat":43.29038,"lon":5.39973,"is_reserved":false,"is_disabled":false,"rental_uris":{"android":"levelo://app?vid=0ff9af53-9fa1-4acd-987d-091e0b0fa873","ios":"levelo://app?vid=0ff9af53-9fa1-4acd-987d-091e0b0fa873"},"vehicle_type_id":"4","last_reported":1756451382,"current_range_meters":3200,"station_id":"ce4bh392rcd13ifvqdm0","pricing_plan_id":"cebpf4jnsgd1na2vs0mg"},{"bike_id":"5bce688b-fc81-4596-8277-b66f54be87c1","system_id":"levelo_inurba_marseille","lat":43.337645,"lon":5.374409,"is_reserved":false,"is_disabled":false,"rental_uris":{"android":"levelo://app?vid=5bce688b-fc81-4596-8277-b66f54be87c1","ios":"levelo://app?vid=5bce688b-fc81-4596-8277-b66f54be87c1"},"vehicle_type_id":"4","last_reported":1756451382,"current_range_meters":3600,"station_id":"","pricing_plan_id":"cebpf4jnsgd1na2vs0mg"},{"bike_id":"5ac02311-14a9-49d2-9e79-fa31a99cd8ae","system_id":"levelo_inurba_marseille","lat":43.30246,"lon":5.40077,"is_reserved":false,"is_disabled":false,"rental_uris":{"android":"levelo://app?vid=5ac02311-14a9-49d2-9e79-fa31a99cd8ae","ios":"levelo://app?vid=5ac02311-14a9-49d2-9e79-fa31a99cd8ae"},"vehicle_type_id":"4","last_reported":1756451382,"current_range_meters":3600,"station_id":"ce4bgvh2rcd13ifvqcs0","pricing_plan_id":"cebpf4jnsgd1na2vs0mg"},{"bike_id":"11846fff-2bb2-4084-99b7-c13bc0442c27","system_id":"levelo_inurba_marseille","lat":43.30126,"lon":5.39835,"is_reserved":false,"is_disabled":false,"rental_uris":{"android":"levelo://app?vid=11846fff-2bb2-4084-99b7-c13bc0442c27","ios":"levelo://app?vid=11846fff-2bb2-4084-99b7-c13bc0442c27"},"vehicle_type_id":"4","last_reported":1756451382,"current_range_meters":4000,"station_id":"ce4bh0h2rcd13ifvqd40","pricing_plan_id":"cebpf4jnsgd1na2vs0mg"},{"bike_id":"589304c3-05df-4f44-9d04-6f61c98a7874","system_id":"levelo_inurba_marseille","lat":43.3234,"lon":5.36736,"is_reserved":false,"is_disabled":false,"rental_uris":{"android":"levelo://app?vid=589304c3-05df-4f44-9d04-6f61c98a7874","ios":"levelo://app?vid=589304c3-05df-4f44-9d04-6f61c98a7874"},"vehicle_type_id":"4","last_reported":1756451382,"current_range_meters":4000,"station_id":"ce4bhsh2rcd13ifvqi2g","pricing_plan_id":"cebpf4jnsgd1na2vs0mg"},{"bike_id":"760c0603-5d15-4be2-b0cd-ebedd235961d","system_id":"levelo_inurba_marseille","lat":43.273753,"lon":5.362585,"is_reserved":false,"is_disabled":false,"rental_uris":{"android":"levelo://app?vid=760c0603-5d15-4be2-b0cd-ebedd235961d","ios":"levelo://app?vid=760c0603-5d15-4be2-b0cd-ebedd235961d"},"vehicle_type_id":"4","last_reported":1756451382,"current_range_meters":4400,"station_id":"","pricing_plan_id":"cebpf4jnsgd1na2vs0mg"},{"bike_id":"a6ef8657-5b8a-423b-993f-c3df43dec0a0","system_id":"levelo_inurba_marseille","lat":43.337595,"lon":5.374806,"is_reserved":false,"is_disabled":false,"rental_uris":{"android":"levelo://app?vid=a6ef8657-5b8a-423b-993f-c3df43dec0a0","ios":"levelo://app?vid=a6ef8657-5b8a-423b-993f-c3df43dec0a0"},"vehicle_type_id":"4","last_reported":1756451382,"current_range_meters":4400,"station_id":"","pricing_plan_id":"cebpf4jnsgd1na2vs0mg"},{"bike_id":"e58ca063-10bf-4751-92a0-67a8fe64638a","system_id":"levelo_inurba_marseille","lat":43.30902,"lon":5.3684,"is_reserved":false,"is_disabled":false,"rental_uris":{"android":"levelo://app?vid=e58ca063-10bf-4751-92a0-67a8fe64638a","ios":"levelo://app?vid=e58ca063-10bf-4751-92a0-67a8fe64638a"},"vehicle_type_id":"4","last_reported":1756451382,"current_range_meters":4400,"station_id":"ce4bgn92rcd13ifvqbvg","pricing_plan_id":"cebpf4jnsgd1na2vs0mg"},{"bike_id":"4d6eef0e-c2c3-4bc7-8049-00d1eb9ea64c","system_id":"levelo_inurba_marseille","lat":43.24998,"lon":5.38934,"is_reserved":false,"is_disabled":false,"rental_uris":{"android":"levelo://app?vid=4d6eef0e-c2c3-4bc7-8049-00d1eb9ea64c","ios":"levelo://app?vid=4d6eef0e-c2c3-4bc7-8049-00d1eb9ea64c"},"vehicle_type_id":"4","last_reported":1756451382,"current_range_meters":4400,"station_id":"ce4bhgp2rcd13ifvqfd0","pricing_plan_id":"cebpf4jnsgd1na2vs0mg"},{"bike_id":"c010ac1a-7128-4615-bfa9-e4be05df887a","system_id":"levelo_inurba_marseille","lat":43.24998,"lon":5.38935,"is_reserved":false,"is_disabled":false,"rental_uris":{"android":"levelo://app?vid=c010ac1a-7128-4615-bfa9-e4be05df887a","ios":"levelo://app?vid=c010ac1a-7128-4615-bfa9-e4be05df887a"},"vehicle_type_id":"4","last_reported":1756451382,"current_range_meters":4800,"station_id":"ce4bhgp2rcd13ifvqfd0","pricing_plan_id":"cebpf4jnsgd1na2vs0mg"},{"bike_id":"0c0807ab-a98c-4fc1-bfa8-aec101b681fb","system_id":"levelo_inurba_marseille","lat":43.27831,"lon":5.39221,"is_reserved":false,"is_disabled":false,"rental_uris":{"android":"levelo://app?vid=0c0807ab-a98c-4fc1-bfa8-aec101b681fb","ios":"levelo://app?vid=0c0807ab-a98c-4fc1-bfa8-aec101b681fb"},"vehicle_type_id":"4","last_reported":1756451382,"current_range_meters":4800,"station_id":"ce4bhjp2rcd13ifvqga0","pricing_plan_id":"cebpf4jnsgd1na2vs0mg"},{"bike_id":"96e8c7fa-bc45-4dd0-b54b-5266f43cacf7","system_id":"levelo_inurba_marseille","lat":43.32342,"lon":5.40616,"is_reserved":false,"is_disabled":false,"rental_uris":{"android":"levelo://app?vid=96e8c7fa-bc45-4dd0-b54b-5266f43cacf7","ios":"levelo://app?vid=96e8c7fa-bc45-4dd0-b54b-5266f43cacf7"},"vehicle_type_id":"4","last_reported":1756451382,"current_range_meters":4800,"station_id":"ce4bhq92rcd13ifvqhjg","pricing_plan_id":"cebpf4jnsgd1na2vs0mg"},{"bike_id":"2fb23f0c-ef96-4850-b342-e28d01ccbeb2","system_id":"levelo_inurba_marseille","lat":43.31678,"lon":5.40478,"is_reserved":false,"is_disabled":false,"rental_uris":{"android":"levelo://app?vid=2fb23f0c-ef96-4850-b342-e28d01ccbeb2","ios":"levelo://app?vid=2fb23f0c-ef96-4850-b342-e28d01ccbeb2"},"vehicle_type_id":"4","last_reported":1756451382,"current_range_meters":5600,"station_id":"ce4bh012rcd13ifvqd00","pricing_plan_id":"cebpf4jnsgd1na2vs0mg"},{"bike_id":"3cf0a87b-6b86-46c7-966d-39b7cc02ffef","system_id":"levelo_inurba_marseille","lat":43.26555,"lon":5.37291,"is_reserved":false,"is_disabled":false,"rental_uris":{"android":"levelo://app?vid=3cf0a87b-6b86-46c7-966d-39b7cc02ffef","ios":"levelo://app?vid=3cf0a87b-6b86-46c7-966d-39b7cc02ffef"},"vehicle_type_id":"4","last_reported":1756451382,"current_range_meters":6000,"station_id":"ce4bhg12rcd13ifvqf70","pricing_plan_id":"cebpf4jnsgd1na2vs0mg"},{"bike_id":"893d89dd-ece9-487a-9a25-0a9551e7a38b","system_id":"levelo_inurba_marseille","lat":43.29621,"lon":5.37167,"is_reserved":false,"is_disabled":false,"rental_uris":{"android":"levelo://app?vid=893d89dd-ece9-487a-9a25-0a9551e7a38b","ios":"levelo://app?vid=893d89dd-ece9-487a-9a25-0a9551e7a38b"},"vehicle_type_id":"4","last_reported":1756451382,"current_range_meters":6400,"station_id":"ce4bgnh2rcd13ifvqc0g","pricing_plan_id":"cebpf4jnsgd1na2vs0mg"},{"bike_id":"452c64c1-c18e-429f-ac02-5f3cc7af3941","system_id":"levelo_inurba_marseille","lat":43.21743,"lon":5.34638,"is_reserved":false,"is_disabled":false,"rental_uris":{"android":"levelo://app?vid=452c64c1-c18e-429f-ac02-5f3cc7af3941","ios":"levelo://app?vid=452c64c1-c18e-429f-ac02-5f3cc7af3941"},"vehicle_type_id":"4","last_reported":1756451382,"current_range_meters":6400,"station_id":"st_cvj6r9ubvosntc0bgbag","pricing_plan_id":"cebpf4jnsgd1na2vs0mg"},{"bike_id":"5c723a17-945a-4ba0-a30f-566af902de46","system_id":"levelo_inurba_marseille","lat":43.31737,"lon":5.43786,"is_reserved":false,"is_disabled":false,"rental_uris":{"android":"levelo://app?vid=5c723a17-945a-4ba0-a30f-566af902de46","ios":"levelo://app?vid=5c723a17-945a-4ba0-a30f-566af902de46"},"vehicle_type_id":"4","last_reported":1756451382,"current_range_meters":6800,"station_id":"","pricing_plan_id":"cebpf4jnsgd1na2vs0mg"},{"bike_id":"33484c39-5288-4d11-9c00-92ce90fa6b3e","system_id":"levelo_inurba_marseille","lat":43.31348,"lon":5.36724,"is_reserved":false,"is_disabled":false,"rental_uris":{"android":"levelo://app?vid=33484c39-5288-4d11-9c00-92ce90fa6b3e","ios":"levelo://app?vid=33484c39-5288-4d11-9c00-92ce90fa6b3e"},"vehicle_type_id":"4","last_reported":1756451382,"current_range_meters":6800,"station_id":"ce4bgr92rcd13ifvqc6g","pricing_plan_id":"cebpf4jnsgd1na2vs0mg"},{"bike_id":"d0162226-7f9a-4494-8ea3-ab7b8b83946d","system_id":"levelo_inurba_marseille","lat":43.30458,"lon":5.379,"is_reserved":false,"is_disabled":false,"rental_uris":{"android":"levelo://app?vid=d0162226-7f9a-4494-8ea3-ab7b8b83946d","ios":"levelo://app?vid=d0162226-7f9a-4494-8ea3-ab7b8b83946d"},"vehicle_type_id":"4","last_reported":1756451382,"current_range_meters":6800,"station_id":"ce4bgup2rcd13ifvqcn0","pricing_plan_id":"cebpf4jnsgd1na2vs0mg"},{"bike_id":"7ca56112-d71b-482d-841c-4a694bca12aa","system_id":"levelo_inurba_marseille","lat":43.24993,"lon":5.38938,"is_reserved":false,"is_disabled":false,"rental_uris":{"android":"levelo://app?vid=7ca56112-d71b-482d-841c-4a694bca12aa","ios":"levelo://app?vid=7ca56112-d71b-482d-841c-4a694bca12aa"},"vehicle_type_id":"4","last_reported":1756451382,"current_range_meters":6800,"station_id":"ce4bhgp2rcd13ifvqfd0","pricing_plan_id":"cebpf4jnsgd1na2vs0mg"},{"bike_id":"e3f4bd3d-9524-4e13-b480-56cba9317ad7","system_id":"levelo_inurba_marseille","lat":43.24184,"lon":5.3972,"is_reserved":false,"is_disabled":false,"rental_uris":{"android":"levelo://app?vid=e3f4bd3d-9524-4e13-b480-56cba9317ad7","ios":"levelo://app?vid=e3f4bd3d-9524-4e13-b480-56cba9317ad7"},"vehicle_type_id":"4","last_reported":1756451382,"current_range_meters":6800,"station_id":"ce4bhn12rcd13ifvqgpg","pricing_plan_id":"cebpf4jnsgd1na2vs0mg"},{"bike_id":"3091e42a-5528-4881-bef2-02a10038c1e8","system_id":"levelo_inurba_marseille","lat":43.27295,"lon":5.36287,"is_reserved":false,"is_disabled":false,"rental_uris":{"android":"levelo://app?vid=3091e42a-5528-4881-bef2-02a10038c1e8","ios":"levelo://app?vid=3091e42a-5528-4881-bef2-02a10038c1e8"},"vehicle_type_id":"4","last_reported":1756451382,"current_range_meters":7200,"station_id":"","pricing_plan_id":"cebpf4jnsgd1na2vs0mg"},{"bike_id":"e348c6a4-d882-4064-8c88-9d43c57d9cb6","system_id":"levelo_inurba_marseille","lat":43.29972,"lon":5.38502,"is_reserved":false,"is_disabled":false,"rental_uris":{"android":"levelo://app?vid=e348c6a4-d882-4064-8c88-9d43c57d9cb6","ios":"levelo://app?vid=e348c6a4-d882-4064-8c88-9d43c57d9cb6"},"vehicle_type_id":"4","last_reported":1756451382,"current_range_meters":7200,"station_id":"ce4bgj92rcd13ifvqbd0","pricing_plan_id":"cebpf4jnsgd1na2vs0mg"},{"bike_id":"6648f693-cfe8-42d0-a46c-91b715c07dc6","system_id":"levelo_inurba_marseille","lat":43.28291,"lon":5.35092,"is_reserved":false,"is_disabled":false,"rental_uris":{"android":"levelo://app?vid=6648f693-cfe8-42d0-a46c-91b715c07dc6","ios":"levelo://app?vid=6648f693-cfe8-42d0-a46c-91b715c07dc6"},"vehicle_type_id":"4","last_reported":1756451382,"current_range_meters":7200,"station_id":"ce4bhbp2rcd13ifvqerg","pricing_plan_id":"cebpf4jnsgd1na2vs0mg"},{"bike_id":"3b0fe17f-67f2-4db8-87a8-510865db0ab8","system_id":"levelo_inurba_marseille","lat":43.30149,"lon":5.38074,"is_reserved":false,"is_disabled":false,"rental_uris":{"android":"levelo://app?vid=3b0fe17f-67f2-4db8-87a8-510865db0ab8","ios":"levelo://app?vid=3b0fe17f-67f2-4db8-87a8-510865db0ab8"},"vehicle_type_id":"4","last_reported":1756451382,"current_range_meters":8000,"station_id":"ce4bgjp2rcd13ifvqbh0","pricing_plan_id":"cebpf4jnsgd1na2vs0mg"},{"bike_id":"f2fdff00-334d-4a69-9441-db6916eddde5","system_id":"levelo_inurba_marseille","lat":43.31207,"lon":5.36858,"is_reserved":false,"is_disabled":false,"rental_uris":{"android":"levelo://app?vid=f2fdff00-334d-4a69-9441-db6916eddde5","ios":"levelo://app?vid=f2fdff00-334d-4a69-9441-db6916eddde5"},"vehicle_type_id":"4","last_reported":1756451382,"current_range_meters":8000,"station_id":"ce4bgl92rcd13ifvqbq0","pricing_plan_id":"cebpf4jnsgd1na2vs0mg"},{"bike_id":"73138b5c-26a0-4865-8944-57654eb0cbb7","system_id":"levelo_inurba_marseille","lat":43.29052,"lon":5.37167,"is_reserved":false,"is_disabled":false,"rental_uris":{"android":"levelo://app?vid=73138b5c-26a0-4865-8944-57654eb0cbb7","ios":"levelo://app?vid=73138b5c-26a0-4865-8944-57654eb0cbb7"},"vehicle_type_id":"4","last_reported":1756451382,"current_range_meters":8000,"station_id":"ce4bh5p2rcd13ifvqe4g","pricing_plan_id":"cebpf4jnsgd1na2vs0mg"},{"bike_id":"95035b82-7f54-44af-a234-7c46c01f45ab","system_id":"levelo_inurba_marseille","lat":43.24072,"lon":5.37765,"is_reserved":false,"is_disabled":false,"rental_uris":{"android":"levelo://app?vid=95035b82-7f54-44af-a234-7c46c01f45ab","ios":"levelo://app?vid=95035b82-7f54-44af-a234-7c46c01f45ab"},"vehicle_type_id":"4","last_reported":1756451382,"current_range_meters":8400,"station_id":"ce4bhnp2rcd13ifvqgvg","pricing_plan_id":"cebpf4jnsgd1na2vs0mg"},{"bike_id":"d810acf0-5bd2-4bf1-848d-31cd30d105e6","system_id":"levelo_inurba_marseille","lat":43.269831,"lon":5.392782,"is_reserved":false,"is_disabled":false,"rental_uris":{"android":"levelo://app?vid=d810acf0-5bd2-4bf1-848d-31cd30d105e6","ios":"levelo://app?vid=d810acf0-5bd2-4bf1-848d-31cd30d105e6"},"vehicle_type_id":"4","last_reported":1756451382,"current_range_meters":8800,"station_id":"","pricing_plan_id":"cebpf4jnsgd1na2vs0mg"},{"bike_id":"d63bf899-7e70-49b1-84ac-e161b5c66dde","system_id":"levelo_inurba_marseille","lat":43.28572,"lon":5.39499,"is_reserved":false,"is_disabled":false,"rental_uris":{"android":"levelo://app?vid=d63bf899-7e70-49b1-84ac-e161b5c66dde","ios":"levelo://app?vid=d63bf899-7e70-49b1-84ac-e161b5c66dde"},"vehicle_type_id":"4","last_reported":1756451382,"current_range_meters":8800,"station_id":"ce4bh292rcd13ifvqdg0","pricing_plan_id":"cebpf4jnsgd1na2vs0mg"},{"bike_id":"d1329dea-1d9b-4096-b1d0-72c866b13dd7","system_id":"levelo_inurba_marseille","lat":43.21763,"lon":5.34613,"is_reserved":false,"is_disabled":false,"rental_uris":{"android":"levelo://app?vid=d1329dea-1d9b-4096-b1d0-72c866b13dd7","ios":"levelo://app?vid=d1329dea-1d9b-4096-b1d0-72c866b13dd7"},"vehicle_type_id":"4","last_reported":1756451382,"current_range_meters":8800,"station_id":"st_cvj6r9ubvosntc0bgbag","pricing_plan_id":"cebpf4jnsgd1na2vs0mg"},{"bike_id":"4d5f2738-4b64-47ef-b10d-be38af201a0d","system_id":"levelo_inurba_marseille","lat":43.3095,"lon":5.3903,"is_reserved":false,"is_disabled":false,"rental_uris":{"android":"levelo://app?vid=4d5f2738-4b64-47ef-b10d-be38af201a0d","ios":"levelo://app?vid=4d5f2738-4b64-47ef-b10d-be38af201a0d"},"vehicle_type_id":"4","last_reported":1756451382,"current_range_meters":9200,"station_id":"ce4bgup2rcd13ifvqco0","pricing_plan_id":"cebpf4jnsgd1na2vs0mg"},{"bike_id":"395b11ca-ff54-4b90-a9e0-383c3ae74222","system_id":"levelo_inurba_marseille","lat":43.28598,"lon":5.38385,"is_reserved":false,"is_disabled":false,"rental_uris":{"android":"levelo://app?vid=395b11ca-ff54-4b90-a9e0-383c3ae74222","ios":"levelo://app?vid=395b11ca-ff54-4b90-a9e0-383c3ae74222"},"vehicle_type_id":"4","last_reported":1756451382,"current_range_meters":9600,"station_id":"","pricing_plan_id":"cebpf4jnsgd1na2vs0mg"},{"bike_id":"ab17eff8-2f18-4f23-a300-de9e4c35495d","system_id":"levelo_inurba_marseille","lat":43.29313,"lon":5.37165,"is_reserved":false,"is_disabled":false,"rental_uris":{"android":"levelo://app?vid=ab17eff8-2f18-4f23-a300-de9e4c35495d","ios":"levelo://app?vid=ab17eff8-2f18-4f23-a300-de9e4c35495d"},"vehicle_type_id":"4","last_reported":1756451382,"current_range_meters":9600,"station_id":"ce4bgh92rcd13ifvqb40","pricing_plan_id":"cebpf4jnsgd1na2vs0mg"},{"bike_id":"fcdc944b-dec5-46e2-91e1-6122928c2b64","system_id":"levelo_inurba_marseille","lat":43.28477,"lon":5.38443,"is_reserved":false,"is_disabled":false,"rental_uris":{"android":"levelo://app?vid=fcdc944b-dec5-46e2-91e1-6122928c2b64","ios":"levelo://app?vid=fcdc944b-dec5-46e2-91e1-6122928c2b64"},"vehicle_type_id":"4","last_reported":1756451382,"current_range_meters":9600,"station_id":"ce4bh512rcd13ifvqe3g","pricing_plan_id":"cebpf4jnsgd1na2vs0mg"},{"bike_id":"70be4f49-b387-452f-9990-b684cf9fd21e","system_id":"levelo_inurba_marseille","lat":43.30322,"lon":5.40344,"is_reserved":false,"is_disabled":false,"rental_uris":{"android":"levelo://app?vid=70be4f49-b387-452f-9990-b684cf9fd21e","ios":"levelo://app?vid=70be4f49-b387-452f-9990-b684cf9fd21e"},"vehicle_type_id":"4","last_reported":1756451382,"current_range_meters":10000,"station_id":"","pricing_plan_id":"cebpf4jnsgd1na2vs0mg"},{"bike_id":"b9a2bbbb-69ac-40be-bf46-27119ee9c404","system_id":"levelo_inurba_marseille","lat":43.25354,"lon":5.42253,"is_reserved":false,"is_disabled":false,"rental_uris":{"android":"levelo://app?vid=b9a2bbbb-69ac-40be-bf46-27119ee9c404","ios":"levelo://app?vid=b9a2bbbb-69ac-40be-bf46-27119ee9c404"},"vehicle_type_id":"4","last_reported":1756451382,"current_range_meters":10000,"station_id":"","pricing_plan_id":"cebpf4jnsgd1na2vs0mg"},{"bike_id":"627842c6-8d1f-498e-a557-4c8fc1328dbd","system_id":"levelo_inurba_marseille","lat":43.242255,"lon":5.393965,"is_reserved":false,"is_disabled":false,"rental_uris":{"android":"levelo://app?vid=627842c6-8d1f-498e-a557-4c8fc1328dbd","ios":"levelo://app?vid=627842c6-8d1f-498e-a557-4c8fc1328dbd"},"vehicle_type_id":"4","last_reported":1756451382,"current_range_meters":10000,"station_id":"","pricing_plan_id":"cebpf4jnsgd1na2vs0mg"},{"bike_id":"d06d0091-cc59-4318-8a02-233e8fae0bf8","system_id":"levelo_inurba_marseille","lat":43.29254,"lon":5.37638,"is_reserved":false,"is_disabled":false,"rental_uris":{"android":"levelo://app?vid=d06d0091-cc59-4318-8a02-233e8fae0bf8","ios":"levelo://app?vid=d06d0091-cc59-4318-8a02-233e8fae0bf8"},"vehicle_type_id":"4","last_reported":1756451382,"current_range_meters":10800,"station_id":"ce4bgi12rcd13ifvqb80","pricing_plan_id":"cebpf4jnsgd1na2vs0mg"},{"bike_id":"880e483c-9e08-4c9e-b5d8-2ff53ef84f37","system_id":"levelo_inurba_marseille","lat":43.31124,"lon":5.37766,"is_reserved":false,"is_disabled":false,"rental_uris":{"android":"levelo://app?vid=880e483c-9e08-4c9e-b5d8-2ff53ef84f37","ios":"levelo://app?vid=880e483c-9e08-4c9e-b5d8-2ff53ef84f37"},"vehicle_type_id":"4","last_reported":1756451382,"current_range_meters":10800,"station_id":"ce4bgt92rcd13ifvqcg0","pricing_plan_id":"cebpf4jnsgd1na2vs0mg"},{"bike_id":"4bc47689-b6b7-4bf0-b25f-e7a519aca4fe","system_id":"levelo_inurba_marseille","lat":43.31686,"lon":5.40477,"is_reserved":false,"is_disabled":false,"rental_uris":{"android":"levelo://app?vid=4bc47689-b6b7-4bf0-b25f-e7a519aca4fe","ios":"levelo://app?vid=4bc47689-b6b7-4bf0-b25f-e7a519aca4fe"},"vehicle_type_id":"4","last_reported":1756451382,"current_range_meters":10800,"station_id":"ce4bh012rcd13ifvqd00","pricing_plan_id":"cebpf4jnsgd1na2vs0mg"},{"bike_id":"e1c64e54-4ce9-4ac2-a21d-7f622a17813a","system_id":"levelo_inurba_marseille","lat":43.2894,"lon":5.39637,"is_reserved":false,"is_disabled":false,"rental_uris":{"android":"levelo://app?vid=e1c64e54-4ce9-4ac2-a21d-7f622a17813a","ios":"levelo://app?vid=e1c64e54-4ce9-4ac2-a21d-7f622a17813a"},"vehicle_type_id":"4","last_reported":1756451382,"current_range_meters":10800,"station_id":"ce4bh3h2rcd13ifvqdn0","pricing_plan_id":"cebpf4jnsgd1na2vs0mg"},{"bike_id":"29ba5153-3674-401e-b6f4-546d2cd32a64","system_id":"levelo_inurba_marseille","lat":43.24388,"lon":5.37064,"is_reserved":false,"is_disabled":false,"rental_uris":{"android":"levelo://app?vid=29ba5153-3674-401e-b6f4-546d2cd32a64","ios":"levelo://app?vid=29ba5153-3674-401e-b6f4-546d2cd32a64"},"vehicle_type_id":"4","last_reported":1756451382,"current_range_meters":10800,"station_id":"ce4bhhh2rcd13ifvqfk0","pricing_plan_id":"cebpf4jnsgd1na2vs0mg"},{"bike_id":"3df5d7ba-61aa-4584-9a4e-9ba0b61ed706","system_id":"levelo_inurba_marseille","lat":43.240802,"lon":5.377469,"is_reserved":false,"is_disabled":false,"rental_uris":{"android":"levelo://app?vid=3df5d7ba-61aa-4584-9a4e-9ba0b61ed706","ios":"levelo://app?vid=3df5d7ba-61aa-4584-9a4e-9ba0b61ed706"},"vehicle_type_id":"4","last_reported":1756451382,"current_range_meters":10800,"station_id":"ce4bhnp2rcd13ifvqgvg","pricing_plan_id":"cebpf4jnsgd1na2vs0mg"},{"bike_id":"731ff345-1377-45e9-acf9-0825f15b172a","system_id":"levelo_inurba_marseille","lat":43.229276,"lon":5.353742,"is_reserved":false,"is_disabled":false,"rental_uris":{"android":"levelo://app?vid=731ff345-1377-45e9-acf9-0825f15b172a","ios":"levelo://app?vid=731ff345-1377-45e9-acf9-0825f15b172a"},"vehicle_type_id":"4","last_reported":1756451382,"current_range_meters":10800,"station_id":"cpo3532slgdg3j2ikp40","pricing_plan_id":"cebpf4jnsgd1na2vs0mg"},{"bike_id":"5bdfa0e5-c5fc-4cfd-bc08-50665156356d","system_id":"levelo_inurba_marseille","lat":43.295294,"lon":5.375061,"is_reserved":false,"is_disabled":false,"rental_uris":{"android":"levelo://app?vid=5bdfa0e5-c5fc-4cfd-bc08-50665156356d","ios":"levelo://app?vid=5bdfa0e5-c5fc-4cfd-bc08-50665156356d"},"vehicle_type_id":"4","last_reported":1756451382,"current_range_meters":11200,"station_id":"","pricing_plan_id":"cebpf4jnsgd1na2vs0mg"},{"bike_id":"eebfbe73-f440-4706-b477-601b1f8fe6e6","system_id":"levelo_inurba_marseille","lat":43.24921,"lon":5.37517,"is_reserved":false,"is_disabled":false,"rental_uris":{"android":"levelo://app?vid=eebfbe73-f440-4706-b477-601b1f8fe6e6","ios":"levelo://app?vid=eebfbe73-f440-4706-b477-601b1f8fe6e6"},"vehicle_type_id":"4","last_reported":1756451382,"current_range_meters":11200,"station_id":"","pricing_plan_id":"cebpf4jnsgd1na2vs0mg"},{"bike_id":"152895b1-e57b-460f-8219-5dde2f69f3a8","system_id":"levelo_inurba_marseille","lat":43.30146,"lon":5.3809,"is_reserved":false,"is_disabled":false,"rental_uris":{"android":"levelo://app?vid=152895b1-e57b-460f-8219-5dde2f69f3a8","ios":"levelo://app?vid=152895b1-e57b-460f-8219-5dde2f69f3a8"},"vehicle_type_id":"4","last_reported":1756451382,"current_range_meters":11200,"station_id":"ce4bgjp2rcd13ifvqbh0","pricing_plan_id":"cebpf4jnsgd1na2vs0mg"},{"bike_id":"9ac21e25-3540-4990-8fc9-2e34c61b23d8","system_id":"levelo_inurba_marseille","lat":43.29035,"lon":5.3865,"is_reserved":false,"is_disabled":false,"rental_uris":{"android":"levelo://app?vid=9ac21e25-3540-4990-8fc9-2e34c61b23d8","ios":"levelo://app?vid=9ac21e25-3540-4990-8fc9-2e34c61b23d8"},"vehicle_type_id":"4","last_reported":1756451382,"current_range_meters":11200,"station_id":"ce4bh4p2rcd13ifvqe0g","pricing_plan_id":"cebpf4jnsgd1na2vs0mg"},{"bike_id":"3d484bad-65f2-44e3-8c14-fba5a2aa89f0","system_id":"levelo_inurba_marseille","lat":43.2503,"lon":5.38914,"is_reserved":false,"is_disabled":false,"rental_uris":{"android":"levelo://app?vid=3d484bad-65f2-44e3-8c14-fba5a2aa89f0","ios":"levelo://app?vid=3d484bad-65f2-44e3-8c14-fba5a2aa89f0"},"vehicle_type_id":"4","last_reported":1756451382,"current_range_meters":11200,"station_id":"ce4bhgp2rcd13ifvqfd0","pricing_plan_id":"cebpf4jnsgd1na2vs0mg"},{"bike_id":"49e3e0dc-7bc3-4c21-b5e7-64678061068b","system_id":"levelo_inurba_marseille","lat":43.241847,"lon":5.397056,"is_reserved":false,"is_disabled":false,"rental_uris":{"android":"levelo://app?vid=49e3e0dc-7bc3-4c21-b5e7-64678061068b","ios":"levelo://app?vid=49e3e0dc-7bc3-4c21-b5e7-64678061068b"},"vehicle_type_id":"4","last_reported":1756451382,"current_range_meters":11200,"station_id":"ce4bhn12rcd13ifvqgpg","pricing_plan_id":"cebpf4jnsgd1na2vs0mg"},{"bike_id":"fb732470-5d35-4da3-b085-3e040cbfc33a","system_id":"levelo_inurba_marseille","lat":43.23195,"lon":5.39992,"is_reserved":false,"is_disabled":false,"rental_uris":{"android":"levelo://app?vid=fb732470-5d35-4da3-b085-3e040cbfc33a","ios":"levelo://app?vid=fb732470-5d35-4da3-b085-3e040cbfc33a"},"vehicle_type_id":"4","last_reported":1756451382,"current_range_meters":11200,"station_id":"ce4bhn12rcd13ifvqgqg","pricing_plan_id":"cebpf4jnsgd1na2vs0mg"},{"bike_id":"d005b541-909d-4c5d-bde1-94285008f478","system_id":"levelo_inurba_marseille","lat":43.32376,"lon":5.36753,"is_reserved":false,"is_disabled":false,"rental_uris":{"android":"levelo://app?vid=d005b541-909d-4c5d-bde1-94285008f478","ios":"levelo://app?vid=d005b541-909d-4c5d-bde1-94285008f478"},"vehicle_type_id":"4","last_reported":1756451382,"current_range_meters":11200,"station_id":"ce4bhsh2rcd13ifvqi2g","pricing_plan_id":"cebpf4jnsgd1na2vs0mg"},{"bike_id":"11e3b63a-7498-4037-a1da-178dcd0fbd98","system_id":"levelo_inurba_marseille","lat":43.337444,"lon":5.374475,"is_reserved":false,"is_disabled":false,"rental_uris":{"android":"levelo://app?vid=11e3b63a-7498-4037-a1da-178dcd0fbd98","ios":"levelo://app?vid=11e3b63a-7498-4037-a1da-178dcd0fbd98"},"vehicle_type_id":"4","last_reported":1756451382,"current_range_meters":11600,"station_id":"","pricing_plan_id":"cebpf4jnsgd1na2vs0mg"},{"bike_id":"af09662e-0e11-4d40-8c48-8416e4a955de","system_id":"levelo_inurba_marseille","lat":43.30951,"lon":5.3903,"is_reserved":false,"is_disabled":false,"rental_uris":{"android":"levelo://app?vid=af09662e-0e11-4d40-8c48-8416e4a955de","ios":"levelo://app?vid=af09662e-0e11-4d40-8c48-8416e4a955de"},"vehicle_type_id":"4","last_reported":1756451382,"current_range_meters":11600,"station_id":"ce4bgup2rcd13ifvqco0","pricing_plan_id":"cebpf4jnsgd1na2vs0mg"},{"bike_id":"eee636c0-7af7-4c3b-9af2-f3c8bb1f68e6","system_id":"levelo_inurba_marseille","lat":43.28946,"lon":5.39628,"is_reserved":false,"is_disabled":false,"rental_uris":{"android":"levelo://app?vid=eee636c0-7af7-4c3b-9af2-f3c8bb1f68e6","ios":"levelo://app?vid=eee636c0-7af7-4c3b-9af2-f3c8bb1f68e6"},"vehicle_type_id":"4","last_reported":1756451382,"current_range_meters":11600,"station_id":"ce4bh3h2rcd13ifvqdn0","pricing_plan_id":"cebpf4jnsgd1na2vs0mg"},{"bike_id":"f837d271-acba-4f96-a3b8-3d0885fdf42d","system_id":"levelo_inurba_marseille","lat":43.2407,"lon":5.377399,"is_reserved":false,"is_disabled":false,"rental_uris":{"android":"levelo://app?vid=f837d271-acba-4f96-a3b8-3d0885fdf42d","ios":"levelo://app?vid=f837d271-acba-4f96-a3b8-3d0885fdf42d"},"vehicle_type_id":"4","last_reported":1756451382,"current_range_meters":11600,"station_id":"ce4bhnp2rcd13ifvqgvg","pricing_plan_id":"cebpf4jnsgd1na2vs0mg"},{"bike_id":"00865bff-72de-47be-acda-9cf6ec16a836","system_id":"levelo_inurba_marseille","lat":43.321022,"lon":5.367823,"is_reserved":false,"is_disabled":false,"rental_uris":{"android":"levelo://app?vid=00865bff-72de-47be-acda-9cf6ec16a836","ios":"levelo://app?vid=00865bff-72de-47be-acda-9cf6ec16a836"},"vehicle_type_id":"4","last_reported":1756451382,"current_range_meters":11600,"station_id":"ce4bhrh2rcd13ifvqhug","pricing_plan_id":"cebpf4jnsgd1na2vs0mg"},{"bike_id":"8a3d08a4-6e22-43fc-a3af-efea32020201","system_id":"levelo_inurba_marseille","lat":43.32363,"lon":5.36731,"is_reserved":false,"is_disabled":false,"rental_uris":{"android":"levelo://app?vid=8a3d08a4-6e22-43fc-a3af-efea32020201","ios":"levelo://app?vid=8a3d08a4-6e22-43fc-a3af-efea32020201"},"vehicle_type_id":"4","last_reported":1756451382,"current_range_meters":11600,"station_id":"ce4bhsh2rcd13ifvqi2g","pricing_plan_id":"cebpf4jnsgd1na2vs0mg"},{"bike_id":"14ae51e3-8c71-4a8a-8e0c-cca79b6c0ab1","system_id":"levelo_inurba_marseille","lat":43.24183,"lon":5.39716,"is_reserved":false,"is_disabled":false,"rental_uris":{"android":"levelo://app?vid=14ae51e3-8c71-4a8a-8e0c-cca79b6c0ab1","ios":"levelo://app?vid=14ae51e3-8c71-4a8a-8e0c-cca79b6c0ab1"},"vehicle_type_id":"4","last_reported":1756451382,"current_range_meters":12000,"station_id":"ce4bhn12rcd13ifvqgpg","pricing_plan_id":"cebpf4jnsgd1na2vs0mg"},{"bike_id":"b3efac22-2ff7-46de-9cc3-baba63b6b5f7","system_id":"levelo_inurba_marseille","lat":43.23168,"lon":5.39992,"is_reserved":false,"is_disabled":false,"rental_uris":{"android":"levelo://app?vid=b3efac22-2ff7-46de-9cc3-baba63b6b5f7","ios":"levelo://app?vid=b3efac22-2ff7-46de-9cc3-baba63b6b5f7"},"vehicle_type_id":"4","last_reported":1756451382,"current_range_meters":12000,"station_id":"ce4bhn12rcd13ifvqgqg","pricing_plan_id":"cebpf4jnsgd1na2vs0mg"},{"bike_id":"58b0f458-6d83-41ca-9901-eee7b5b8a27a","system_id":"levelo_inurba_marseille","lat":43.24415,"lon":5.37126,"is_reserved":false,"is_disabled":false,"rental_uris":{"android":"levelo://app?vid=58b0f458-6d83-41ca-9901-eee7b5b8a27a","ios":"levelo://app?vid=58b0f458-6d83-41ca-9901-eee7b5b8a27a"},"vehicle_type_id":"4","last_reported":1756451382,"current_range_meters":12400,"station_id":"","pricing_plan_id":"cebpf4jnsgd1na2vs0mg"},{"bike_id":"7f6bb1e9-6380-4855-8656-37ee5e47f2cd","system_id":"levelo_inurba_marseille","lat":43.24637,"lon":5.38894,"is_reserved":false,"is_disabled":false,"rental_uris":{"android":"levelo://app?vid=7f6bb1e9-6380-4855-8656-37ee5e47f2cd","ios":"levelo://app?vid=7f6bb1e9-6380-4855-8656-37ee5e47f2cd"},"vehicle_type_id":"4","last_reported":1756451382,"current_range_meters":12400,"station_id":"ce4bhg12rcd13ifvqf60","pricing_plan_id":"cebpf4jnsgd1na2vs0mg"},{"bike_id":"e0d19f60-91ef-47bd-ad0d-2297c5275758","system_id":"levelo_inurba_marseille","lat":43.2594,"lon":5.40901,"is_reserved":false,"is_disabled":false,"rental_uris":{"android":"levelo://app?vid=e0d19f60-91ef-47bd-ad0d-2297c5275758","ios":"levelo://app?vid=e0d19f60-91ef-47bd-ad0d-2297c5275758"},"vehicle_type_id":"4","last_reported":1756451382,"current_range_meters":12400,"station_id":"ce4bhm92rcd13ifvqglg","pricing_plan_id":"cebpf4jnsgd1na2vs0mg"},{"bike_id":"06669016-cd47-459f-9dbc-b8f7fe75d379","system_id":"levelo_inurba_marseille","lat":43.32282,"lon":5.38273,"is_reserved":false,"is_disabled":false,"rental_uris":{"android":"levelo://app?vid=06669016-cd47-459f-9dbc-b8f7fe75d379","ios":"levelo://app?vid=06669016-cd47-459f-9dbc-b8f7fe75d379"},"vehicle_type_id":"4","last_reported":1756451382,"current_range_meters":12400,"station_id":"ce4bhr12rcd13ifvqhqg","pricing_plan_id":"cebpf4jnsgd1na2vs0mg"},{"bike_id":"bed9141a-7e78-42f0-866b-59ca2db4ebab","system_id":"levelo_inurba_marseille","lat":43.2847,"lon":5.38427,"is_reserved":false,"is_disabled":false,"rental_uris":{"android":"levelo://app?vid=bed9141a-7e78-42f0-866b-59ca2db4ebab","ios":"levelo://app?vid=bed9141a-7e78-42f0-866b-59ca2db4ebab"},"vehicle_type_id":"4","last_reported":1756451382,"current_range_meters":12800,"station_id":"ce4bh512rcd13ifvqe3g","pricing_plan_id":"cebpf4jnsgd1na2vs0mg"},{"bike_id":"334e1d7c-f2e6-4543-b473-959658949a73","system_id":"levelo_inurba_marseille","lat":43.23962,"lon":5.36642,"is_reserved":false,"is_disabled":false,"rental_uris":{"android":"levelo://app?vid=334e1d7c-f2e6-4543-b473-959658949a73","ios":"levelo://app?vid=334e1d7c-f2e6-4543-b473-959658949a73"},"vehicle_type_id":"4","last_reported":1756451382,"current_range_meters":12800,"station_id":"ce4bhi12rcd13ifvqfp0","pricing_plan_id":"cebpf4jnsgd1na2vs0mg"},{"bike_id":"c8ed8afa-4750-4d5e-b29e-7da3cd8f4dc7","system_id":"levelo_inurba_marseille","lat":43.32429,"lon":5.36497,"is_reserved":false,"is_disabled":false,"rental_uris":{"android":"levelo://app?vid=c8ed8afa-4750-4d5e-b29e-7da3cd8f4dc7","ios":"levelo://app?vid=c8ed8afa-4750-4d5e-b29e-7da3cd8f4dc7"},"vehicle_type_id":"4","last_reported":1756451382,"current_range_meters":12800,"station_id":"ce4bhs12rcd13ifvqhvg","pricing_plan_id":"cebpf4jnsgd1na2vs0mg"},{"bike_id":"ca808d34-9391-4691-b4c5-e9180d9c16d9","system_id":"levelo_inurba_marseille","lat":43.2534,"lon":5.42125,"is_reserved":false,"is_disabled":false,"rental_uris":{"android":"levelo://app?vid=ca808d34-9391-4691-b4c5-e9180d9c16d9","ios":"levelo://app?vid=ca808d34-9391-4691-b4c5-e9180d9c16d9"},"vehicle_type_id":"4","last_reported":1756451382,"current_range_meters":12800,"station_id":"st_d2m65c5bi1j21697t3ng","pricing_plan_id":"cebpf4jnsgd1na2vs0mg"},{"bike_id":"42515969-df58-4bc3-81b4-d2c5b3092781","system_id":"levelo_inurba_marseille","lat":43.277278,"lon":5.4202,"is_reserved":false,"is_disabled":false,"rental_uris":{"android":"levelo://app?vid=42515969-df58-4bc3-81b4-d2c5b3092781","ios":"levelo://app?vid=42515969-df58-4bc3-81b4-d2c5b3092781"},"vehicle_type_id":"4","last_reported":1756451382,"current_range_meters":13600,"station_id":"","pricing_plan_id":"cebpf4jnsgd1na2vs0mg"},{"bike_id":"d639d56b-a900-4608-8db7-b0c59844a3e2","system_id":"levelo_inurba_marseille","lat":43.31493,"lon":5.38614,"is_reserved":false,"is_disabled":false,"rental_uris":{"android":"levelo://app?vid=d639d56b-a900-4608-8db7-b0c59844a3e2","ios":"levelo://app?vid=d639d56b-a900-4608-8db7-b0c59844a3e2"},"vehicle_type_id":"4","last_reported":1756451382,"current_range_meters":13600,"station_id":"","pricing_plan_id":"cebpf4jnsgd1na2vs0mg"},{"bike_id":"a583a2d5-64ba-4a63-99f9-a273677678f2","system_id":"levelo_inurba_marseille","lat":43.281566,"lon":5.426482,"is_reserved":false,"is_disabled":false,"rental_uris":{"android":"levelo://app?vid=a583a2d5-64ba-4a63-99f9-a273677678f2","ios":"levelo://app?vid=a583a2d5-64ba-4a63-99f9-a273677678f2"},"vehicle_type_id":"4","last_reported":1756451382,"current_range_meters":13600,"station_id":"ce4bhnh2rcd13ifvqgug","pricing_plan_id":"cebpf4jnsgd1na2vs0mg"},{"bike_id":"e88813c3-e63a-4665-b0f4-72e6c6c89a00","system_id":"levelo_inurba_marseille","lat":43.2117,"lon":5.35093,"is_reserved":false,"is_disabled":false,"rental_uris":{"android":"levelo://app?vid=e88813c3-e63a-4665-b0f4-72e6c6c89a00","ios":"levelo://app?vid=e88813c3-e63a-4665-b0f4-72e6c6c89a00"},"vehicle_type_id":"4","last_reported":1756451382,"current_range_meters":13600,"station_id":"st_cvj6sg6p6f1abm77japg","pricing_plan_id":"cebpf4jnsgd1na2vs0mg"},{"bike_id":"90923ea6-dd2a-4e43-9300-65739ad4fb8a","system_id":"levelo_inurba_marseille","lat":43.30534,"lon":5.3654,"is_reserved":false,"is_disabled":false,"rental_uris":{"android":"levelo://app?vid=90923ea6-dd2a-4e43-9300-65739ad4fb8a","ios":"levelo://app?vid=90923ea6-dd2a-4e43-9300-65739ad4fb8a"},"vehicle_type_id":"4","last_reported":1756451382,"current_range_meters":14000,"station_id":"ce4bgs12rcd13ifvqcag","pricing_plan_id":"cebpf4jnsgd1na2vs0mg"},{"bike_id":"cc68f40b-2f4c-469e-8ef6-c49a3f265b18","system_id":"levelo_inurba_marseille","lat":43.30934,"lon":5.40156,"is_reserved":false,"is_disabled":false,"rental_uris":{"android":"levelo://app?vid=cc68f40b-2f4c-469e-8ef6-c49a3f265b18","ios":"levelo://app?vid=cc68f40b-2f4c-469e-8ef6-c49a3f265b18"},"vehicle_type_id":"4","last_reported":1756451382,"current_range_meters":14000,"station_id":"ce4bgvp2rcd13ifvqct0","pricing_plan_id":"cebpf4jnsgd1na2vs0mg"},{"bike_id":"a3e4ee41-5175-47da-ad6e-4c5ae3eb42d9","system_id":"levelo_inurba_marseille","lat":43.211937,"lon":5.350683,"is_reserved":false,"is_disabled":false,"rental_uris":{"android":"levelo://app?vid=a3e4ee41-5175-47da-ad6e-4c5ae3eb42d9","ios":"levelo://app?vid=a3e4ee41-5175-47da-ad6e-4c5ae3eb42d9"},"vehicle_type_id":"4","last_reported":1756451382,"current_range_meters":14000,"station_id":"st_cvj6sg6p6f1abm77japg","pricing_plan_id":"cebpf4jnsgd1na2vs0mg"},{"bike_id":"e461ed12-be1c-4090-904b-e04bc75cdc27","system_id":"levelo_inurba_marseille","lat":43.304712,"lon":5.379025,"is_reserved":false,"is_disabled":false,"rental_uris":{"android":"levelo://app?vid=e461ed12-be1c-4090-904b-e04bc75cdc27","ios":"levelo://app?vid=e461ed12-be1c-4090-904b-e04bc75cdc27"},"vehicle_type_id":"4","last_reported":1756451382,"current_range_meters":14400,"station_id":"ce4bgup2rcd13ifvqcn0","pricing_plan_id":"cebpf4jnsgd1na2vs0mg"},{"bike_id":"7ab6d03c-02d3-4733-a375-638025fc2fa6","system_id":"levelo_inurba_marseille","lat":43.211913,"lon":5.350734,"is_reserved":false,"is_disabled":false,"rental_uris":{"android":"levelo://app?vid=7ab6d03c-02d3-4733-a375-638025fc2fa6","ios":"levelo://app?vid=7ab6d03c-02d3-4733-a375-638025fc2fa6"},"vehicle_type_id":"4","last_reported":1756451382,"current_range_meters":14400,"station_id":"st_cvj6sg6p6f1abm77japg","pricing_plan_id":"cebpf4jnsgd1na2vs0mg"},{"bike_id":"d2037d0a-1a03-43ff-992a-62cb59c74480","system_id":"levelo_inurba_marseille","lat":43.24633,"lon":5.43146,"is_reserved":false,"is_disabled":false,"rental_uris":{"android":"levelo://app?vid=d2037d0a-1a03-43ff-992a-62cb59c74480","ios":"levelo://app?vid=d2037d0a-1a03-43ff-992a-62cb59c74480"},"vehicle_type_id":"4","last_reported":1756451382,"current_range_meters":14400,"station_id":"st_d2m6c4gdas8pm72e190g","pricing_plan_id":"cebpf4jnsgd1na2vs0mg"},{"bike_id":"083dca62-c227-468f-ad9d-5d65b88e5579","system_id":"levelo_inurba_marseille","lat":43.26016,"lon":5.37539,"is_reserved":false,"is_disabled":false,"rental_uris":{"android":"levelo://app?vid=083dca62-c227-468f-ad9d-5d65b88e5579","ios":"levelo://app?vid=083dca62-c227-468f-ad9d-5d65b88e5579"},"vehicle_type_id":"4","last_reported":1756451382,"current_range_meters":14800,"station_id":"","pricing_plan_id":"cebpf4jnsgd1na2vs0mg"},{"bike_id":"3dd23926-ae78-488e-8f33-e0fe0712154d","system_id":"levelo_inurba_marseille","lat":43.312038,"lon":5.377945,"is_reserved":false,"is_disabled":false,"rental_uris":{"android":"levelo://app?vid=3dd23926-ae78-488e-8f33-e0fe0712154d","ios":"levelo://app?vid=3dd23926-ae78-488e-8f33-e0fe0712154d"},"vehicle_type_id":"4","last_reported":1756451382,"current_range_meters":14800,"station_id":"","pricing_plan_id":"cebpf4jnsgd1na2vs0mg"},{"bike_id":"967a664f-7bfc-421b-91d7-0dfd0429f49b","system_id":"levelo_inurba_marseille","lat":43.25009,"lon":5.38927,"is_reserved":false,"is_disabled":false,"rental_uris":{"android":"levelo://app?vid=967a664f-7bfc-421b-91d7-0dfd0429f49b","ios":"levelo://app?vid=967a664f-7bfc-421b-91d7-0dfd0429f49b"},"vehicle_type_id":"4","last_reported":1756451382,"current_range_meters":14800,"station_id":"ce4bhgp2rcd13ifvqfd0","pricing_plan_id":"cebpf4jnsgd1na2vs0mg"},{"bike_id":"fb184afe-457e-4586-8c60-90359094b8a7","system_id":"levelo_inurba_marseille","lat":43.25004,"lon":5.38947,"is_reserved":false,"is_disabled":false,"rental_uris":{"android":"levelo://app?vid=fb184afe-457e-4586-8c60-90359094b8a7","ios":"levelo://app?vid=fb184afe-457e-4586-8c60-90359094b8a7"},"vehicle_type_id":"4","last_reported":1756451382,"current_range_meters":14800,"station_id":"ce4bhgp2rcd13ifvqfd0","pricing_plan_id":"cebpf4jnsgd1na2vs0mg"},{"bike_id":"23ac27e1-7201-4574-ab35-1e4f37036f45","system_id":"levelo_inurba_marseille","lat":43.271834,"lon":5.409808,"is_reserved":false,"is_disabled":false,"rental_uris":{"android":"levelo://app?vid=23ac27e1-7201-4574-ab35-1e4f37036f45","ios":"levelo://app?vid=23ac27e1-7201-4574-ab35-1e4f37036f45"},"vehicle_type_id":"4","last_reported":1756451382,"current_range_meters":14800,"station_id":"ce4bhl12rcd13ifvqgf0","pricing_plan_id":"cebpf4jnsgd1na2vs0mg"},{"bike_id":"bd0b3a9b-47a6-4440-9f23-38e93ba205fd","system_id":"levelo_inurba_marseille","lat":43.240728,"lon":5.377645,"is_reserved":false,"is_disabled":false,"rental_uris":{"android":"levelo://app?vid=bd0b3a9b-47a6-4440-9f23-38e93ba205fd","ios":"levelo://app?vid=bd0b3a9b-47a6-4440-9f23-38e93ba205fd"},"vehicle_type_id":"4","last_reported":1756451382,"current_range_meters":14800,"station_id":"ce4bhnp2rcd13ifvqgvg","pricing_plan_id":"cebpf4jnsgd1na2vs0mg"},{"bike_id":"c3147317-ff3b-4e2b-afd6-fec25c94c399","system_id":"levelo_inurba_marseille","lat":43.292618,"lon":5.376212,"is_reserved":false,"is_disabled":false,"rental_uris":{"android":"levelo://app?vid=c3147317-ff3b-4e2b-afd6-fec25c94c399","ios":"levelo://app?vid=c3147317-ff3b-4e2b-afd6-fec25c94c399"},"vehicle_type_id":"4","last_reported":1756451382,"current_range_meters":15200,"station_id":"ce4bgi12rcd13ifvqb80","pricing_plan_id":"cebpf4jnsgd1na2vs0mg"},{"bike_id":"90fdb152-6a3a-41f1-a9ff-4ad922a0821f","system_id":"levelo_inurba_marseille","lat":43.250045,"lon":5.389323,"is_reserved":false,"is_disabled":false,"rental_uris":{"android":"levelo://app?vid=90fdb152-6a3a-41f1-a9ff-4ad922a0821f","ios":"levelo://app?vid=90fdb152-6a3a-41f1-a9ff-4ad922a0821f"},"vehicle_type_id":"4","last_reported":1756451382,"current_range_meters":15200,"station_id":"ce4bhgp2rcd13ifvqfd0","pricing_plan_id":"cebpf4jnsgd1na2vs0mg"},{"bike_id":"f39fd7e1-3dc8-4472-8e53-356863876e59","system_id":"levelo_inurba_marseille","lat":43.2315,"lon":5.43715,"is_reserved":false,"is_disabled":false,"rental_uris":{"android":"levelo://app?vid=f39fd7e1-3dc8-4472-8e53-356863876e59","ios":"levelo://app?vid=f39fd7e1-3dc8-4472-8e53-356863876e59"},"vehicle_type_id":"4","last_reported":1756451382,"current_range_meters":15200,"station_id":"ce4bhmp2rcd13ifvqgog","pricing_plan_id":"cebpf4jnsgd1na2vs0mg"},{"bike_id":"c4151c63-4628-4474-99f2-c45cdba62403","system_id":"levelo_inurba_marseille","lat":43.26225,"lon":5.40007,"is_reserved":false,"is_disabled":false,"rental_uris":{"android":"levelo://app?vid=c4151c63-4628-4474-99f2-c45cdba62403","ios":"levelo://app?vid=c4151c63-4628-4474-99f2-c45cdba62403"},"vehicle_type_id":"4","last_reported":1756451382,"current_range_meters":16000,"station_id":"","pricing_plan_id":"cebpf4jnsgd1na2vs0mg"},{"bike_id":"60ae6dd0-73ad-4a7d-af1c-f790af6cecb2","system_id":"levelo_inurba_marseille","lat":43.31245,"lon":5.36856,"is_reserved":false,"is_disabled":false,"rental_uris":{"android":"levelo://app?vid=60ae6dd0-73ad-4a7d-af1c-f790af6cecb2","ios":"levelo://app?vid=60ae6dd0-73ad-4a7d-af1c-f790af6cecb2"},"vehicle_type_id":"4","last_reported":1756451382,"current_range_meters":16000,"station_id":"ce4bgl92rcd13ifvqbq0","pricing_plan_id":"cebpf4jnsgd1na2vs0mg"},{"bike_id":"08a2fe1f-0b3e-4639-98c7-8aa590610a1f","system_id":"levelo_inurba_marseille","lat":43.258301,"lon":5.39431,"is_reserved":false,"is_disabled":false,"rental_uris":{"android":"levelo://app?vid=08a2fe1f-0b3e-4639-98c7-8aa590610a1f","ios":"levelo://app?vid=08a2fe1f-0b3e-4639-98c7-8aa590610a1f"},"vehicle_type_id":"4","last_reported":1756451382,"current_range_meters":16000,"station_id":"ce4bhip2rcd13ifvqft0","pricing_plan_id":"cebpf4jnsgd1na2vs0mg"},{"bike_id":"ecf6cca4-fe16-4786-be49-19c3a25c6f58","system_id":"levelo_inurba_marseille","lat":43.23156,"lon":5.43727,"is_reserved":false,"is_disabled":false,"rental_uris":{"android":"levelo://app?vid=ecf6cca4-fe16-4786-be49-19c3a25c6f58","ios":"levelo://app?vid=ecf6cca4-fe16-4786-be49-19c3a25c6f58"},"vehicle_type_id":"4","last_reported":1756451382,"current_range_meters":16000,"station_id":"ce4bhmp2rcd13ifvqgog","pricing_plan_id":"cebpf4jnsgd1na2vs0mg"},{"bike_id":"74274ad5-6399-428d-9721-a8b66898c91c","system_id":"levelo_inurba_marseille","lat":43.30437,"lon":5.41313,"is_reserved":false,"is_disabled":false,"rental_uris":{"android":"levelo://app?vid=74274ad5-6399-428d-9721-a8b66898c91c","ios":"levelo://app?vid=74274ad5-6399-428d-9721-a8b66898c91c"},"vehicle_type_id":"4","last_reported":1756451382,"current_range_meters":16000,"station_id":"ce4bhop2rcd13ifvqh8g","pricing_plan_id":"cebpf4jnsgd1na2vs0mg"},{"bike_id":"dee5fc92-9d8d-42ec-97e1-996d8f5266a8","system_id":"levelo_inurba_marseille","lat":43.22931,"lon":5.35396,"is_reserved":false,"is_disabled":false,"rental_uris":{"android":"levelo://app?vid=dee5fc92-9d8d-42ec-97e1-996d8f5266a8","ios":"levelo://app?vid=dee5fc92-9d8d-42ec-97e1-996d8f5266a8"},"vehicle_type_id":"4","last_reported":1756451382,"current_range_meters":16000,"station_id":"cpo3532slgdg3j2ikp40","pricing_plan_id":"cebpf4jnsgd1na2vs0mg"},{"bike_id":"ad4c4a01-d30a-43d7-80ed-b34d62d5e9ef","system_id":"levelo_inurba_marseille","lat":43.24164,"lon":5.36409,"is_reserved":false,"is_disabled":false,"rental_uris":{"android":"levelo://app?vid=ad4c4a01-d30a-43d7-80ed-b34d62d5e9ef","ios":"levelo://app?vid=ad4c4a01-d30a-43d7-80ed-b34d62d5e9ef"},"vehicle_type_id":"4","last_reported":1756451382,"current_range_meters":16000,"station_id":"cpo36qri1sfpv3e86is0","pricing_plan_id":"cebpf4jnsgd1na2vs0mg"},{"bike_id":"eeaa07a2-e6c8-4d22-9f05-df6f717e96ef","system_id":"levelo_inurba_marseille","lat":43.29035,"lon":5.40031,"is_reserved":false,"is_disabled":false,"rental_uris":{"android":"levelo://app?vid=eeaa07a2-e6c8-4d22-9f05-df6f717e96ef","ios":"levelo://app?vid=eeaa07a2-e6c8-4d22-9f05-df6f717e96ef"},"vehicle_type_id":"4","last_reported":1756451382,"current_range_meters":16400,"station_id":"","pricing_plan_id":"cebpf4jnsgd1na2vs0mg"},{"bike_id":"7462d663-36c2-4cb8-9995-06037a114314","system_id":"levelo_inurba_marseille","lat":43.33145,"lon":5.38183,"is_reserved":false,"is_disabled":false,"rental_uris":{"android":"levelo://app?vid=7462d663-36c2-4cb8-9995-06037a114314","ios":"levelo://app?vid=7462d663-36c2-4cb8-9995-06037a114314"},"vehicle_type_id":"4","last_reported":1756451382,"current_range_meters":16400,"station_id":"","pricing_plan_id":"cebpf4jnsgd1na2vs0mg"},{"bike_id":"5b064a53-e079-4430-8825-152cf4e0210b","system_id":"levelo_inurba_marseille","lat":43.286138,"lon":5.350948,"is_reserved":false,"is_disabled":false,"rental_uris":{"android":"levelo://app?vid=5b064a53-e079-4430-8825-152cf4e0210b","ios":"levelo://app?vid=5b064a53-e079-4430-8825-152cf4e0210b"},"vehicle_type_id":"4","last_reported":1756451382,"current_range_meters":16400,"station_id":"ce4bhch2rcd13ifvqeug","pricing_plan_id":"cebpf4jnsgd1na2vs0mg"},{"bike_id":"5a937f72-7303-414a-a934-a11ce3d1027c","system_id":"levelo_inurba_marseille","lat":43.2861,"lon":5.35109,"is_reserved":false,"is_disabled":false,"rental_uris":{"android":"levelo://app?vid=5a937f72-7303-414a-a934-a11ce3d1027c","ios":"levelo://app?vid=5a937f72-7303-414a-a934-a11ce3d1027c"},"vehicle_type_id":"4","last_reported":1756451382,"current_range_meters":16400,"station_id":"ce4bhch2rcd13ifvqeug","pricing_plan_id":"cebpf4jnsgd1na2vs0mg"},{"bike_id":"233ce54d-453b-4be7-81f9-eb852f571988","system_id":"levelo_inurba_marseille","lat":43.259369,"lon":5.409016,"is_reserved":false,"is_disabled":false,"rental_uris":{"android":"levelo://app?vid=233ce54d-453b-4be7-81f9-eb852f571988","ios":"levelo://app?vid=233ce54d-453b-4be7-81f9-eb852f571988"},"vehicle_type_id":"4","last_reported":1756451382,"current_range_meters":16400,"station_id":"ce4bhm92rcd13ifvqglg","pricing_plan_id":"cebpf4jnsgd1na2vs0mg"},{"bike_id":"e66b3941-edc1-47d2-a508-6af05bed5109","system_id":"levelo_inurba_marseille","lat":43.225073,"lon":5.347843,"is_reserved":false,"is_disabled":false,"rental_uris":{"android":"levelo://app?vid=e66b3941-edc1-47d2-a508-6af05bed5109","ios":"levelo://app?vid=e66b3941-edc1-47d2-a508-6af05bed5109"},"vehicle_type_id":"4","last_reported":1756451382,"current_range_meters":16400,"station_id":"st_cvj5dfep6f1abm77gieg","pricing_plan_id":"cebpf4jnsgd1na2vs0mg"},{"bike_id":"b36642ca-71c4-496a-bfe2-7949a7fe3773","system_id":"levelo_inurba_marseille","lat":43.30146,"lon":5.38084,"is_reserved":false,"is_disabled":false,"rental_uris":{"android":"levelo://app?vid=b36642ca-71c4-496a-bfe2-7949a7fe3773","ios":"levelo://app?vid=b36642ca-71c4-496a-bfe2-7949a7fe3773"},"vehicle_type_id":"4","last_reported":1756451382,"current_range_meters":16800,"station_id":"ce4bgjp2rcd13ifvqbh0","pricing_plan_id":"cebpf4jnsgd1na2vs0mg"},{"bike_id":"e0e7e1d3-a1c3-4b91-af9b-25557b03eb6c","system_id":"levelo_inurba_marseille","lat":43.305412,"lon":5.372749,"is_reserved":false,"is_disabled":false,"rental_uris":{"android":"levelo://app?vid=e0e7e1d3-a1c3-4b91-af9b-25557b03eb6c","ios":"levelo://app?vid=e0e7e1d3-a1c3-4b91-af9b-25557b03eb6c"},"vehicle_type_id":"4","last_reported":1756451382,"current_range_meters":16800,"station_id":"ce4bgqh2rcd13ifvqc4g","pricing_plan_id":"cebpf4jnsgd1na2vs0mg"},{"bike_id":"f5f2ca21-5d95-4289-978c-eadf93ad3706","system_id":"levelo_inurba_marseille","lat":43.2315,"lon":5.437185,"is_reserved":false,"is_disabled":false,"rental_uris":{"android":"levelo://app?vid=f5f2ca21-5d95-4289-978c-eadf93ad3706","ios":"levelo://app?vid=f5f2ca21-5d95-4289-978c-eadf93ad3706"},"vehicle_type_id":"4","last_reported":1756451382,"current_range_meters":16800,"station_id":"ce4bhmp2rcd13ifvqgog","pricing_plan_id":"cebpf4jnsgd1na2vs0mg"},{"bike_id":"258158f0-e507-44cf-9ba0-0bacc9740d7a","system_id":"levelo_inurba_marseille","lat":43.25349,"lon":5.4218,"is_reserved":false,"is_disabled":false,"rental_uris":{"android":"levelo://app?vid=258158f0-e507-44cf-9ba0-0bacc9740d7a","ios":"levelo://app?vid=258158f0-e507-44cf-9ba0-0bacc9740d7a"},"vehicle_type_id":"4","last_reported":1756451382,"current_range_meters":16800,"station_id":"st_d2m65c5bi1j21697t3ng","pricing_plan_id":"cebpf4jnsgd1na2vs0mg"},{"bike_id":"94469496-96ae-450e-adaf-a7663bfd0e82","system_id":"levelo_inurba_marseille","lat":43.27726,"lon":5.39925,"is_reserved":false,"is_disabled":false,"rental_uris":{"android":"levelo://app?vid=94469496-96ae-450e-adaf-a7663bfd0e82","ios":"levelo://app?vid=94469496-96ae-450e-adaf-a7663bfd0e82"},"vehicle_type_id":"4","last_reported":1756451382,"current_range_meters":17200,"station_id":"","pricing_plan_id":"cebpf4jnsgd1na2vs0mg"},{"bike_id":"a5565afc-8294-4250-8907-9603b8ce7d8d","system_id":"levelo_inurba_marseille","lat":43.29775,"lon":5.37117,"is_reserved":false,"is_disabled":false,"rental_uris":{"android":"levelo://app?vid=a5565afc-8294-4250-8907-9603b8ce7d8d","ios":"levelo://app?vid=a5565afc-8294-4250-8907-9603b8ce7d8d"},"vehicle_type_id":"4","last_reported":1756451382,"current_range_meters":17200,"station_id":"ce4bgop2rcd13ifvqc1g","pricing_plan_id":"cebpf4jnsgd1na2vs0mg"},{"bike_id":"d1ce62e6-4ec9-49dc-a884-ed5de6032936","system_id":"levelo_inurba_marseille","lat":43.243835,"lon":5.37068,"is_reserved":false,"is_disabled":false,"rental_uris":{"android":"levelo://app?vid=d1ce62e6-4ec9-49dc-a884-ed5de6032936","ios":"levelo://app?vid=d1ce62e6-4ec9-49dc-a884-ed5de6032936"},"vehicle_type_id":"4","last_reported":1756451382,"current_range_meters":17200,"station_id":"ce4bhhh2rcd13ifvqfk0","pricing_plan_id":"cebpf4jnsgd1na2vs0mg"},{"bike_id":"dd3e800d-b166-4731-a822-a8de95f8298c","system_id":"levelo_inurba_marseille","lat":43.25824,"lon":5.394303,"is_reserved":false,"is_disabled":false,"rental_uris":{"android":"levelo://app?vid=dd3e800d-b166-4731-a822-a8de95f8298c","ios":"levelo://app?vid=dd3e800d-b166-4731-a822-a8de95f8298c"},"vehicle_type_id":"4","last_reported":1756451382,"current_range_meters":17200,"station_id":"ce4bhip2rcd13ifvqft0","pricing_plan_id":"cebpf4jnsgd1na2vs0mg"},{"bike_id":"be56a579-3870-4545-85bd-dad43950a1f0","system_id":"levelo_inurba_marseille","lat":43.281402,"lon":5.42645,"is_reserved":false,"is_disabled":false,"rental_uris":{"android":"levelo://app?vid=be56a579-3870-4545-85bd-dad43950a1f0","ios":"levelo://app?vid=be56a579-3870-4545-85bd-dad43950a1f0"},"vehicle_type_id":"4","last_reported":1756451382,"current_range_meters":17200,"station_id":"ce4bhnh2rcd13ifvqgug","pricing_plan_id":"cebpf4jnsgd1na2vs0mg"},{"bike_id":"64346152-8516-402d-8b56-fd46659eb20d","system_id":"levelo_inurba_marseille","lat":43.240758,"lon":5.377542,"is_reserved":false,"is_disabled":false,"rental_uris":{"android":"levelo://app?vid=64346152-8516-402d-8b56-fd46659eb20d","ios":"levelo://app?vid=64346152-8516-402d-8b56-fd46659eb20d"},"vehicle_type_id":"4","last_reported":1756451382,"current_range_meters":17200,"station_id":"ce4bhnp2rcd13ifvqgvg","pricing_plan_id":"cebpf4jnsgd1na2vs0mg"},{"bike_id":"2859ae8c-18b6-4d6c-aa83-eb9336e7b92f","system_id":"levelo_inurba_marseille","lat":43.24643,"lon":5.4314,"is_reserved":false,"is_disabled":false,"rental_uris":{"android":"levelo://app?vid=2859ae8c-18b6-4d6c-aa83-eb9336e7b92f","ios":"levelo://app?vid=2859ae8c-18b6-4d6c-aa83-eb9336e7b92f"},"vehicle_type_id":"4","last_reported":1756451382,"current_range_meters":17200,"station_id":"st_d2m6c4gdas8pm72e190g","pricing_plan_id":"cebpf4jnsgd1na2vs0mg"},{"bike_id":"391548fe-3d54-4e64-9958-ffccb3f4a193","system_id":"levelo_inurba_marseille","lat":43.284254,"lon":5.350018,"is_reserved":false,"is_disabled":false,"rental_uris":{"android":"levelo://app?vid=391548fe-3d54-4e64-9958-ffccb3f4a193","ios":"levelo://app?vid=391548fe-3d54-4e64-9958-ffccb3f4a193"},"vehicle_type_id":"4","last_reported":1756451382,"current_range_meters":17600,"station_id":"","pricing_plan_id":"cebpf4jnsgd1na2vs0mg"},{"bike_id":"0e16483d-7c29-42d6-90d2-d9cb7ef31592","system_id":"levelo_inurba_marseille","lat":43.32404,"lon":5.36584,"is_reserved":false,"is_disabled":false,"rental_uris":{"android":"levelo://app?vid=0e16483d-7c29-42d6-90d2-d9cb7ef31592","ios":"levelo://app?vid=0e16483d-7c29-42d6-90d2-d9cb7ef31592"},"vehicle_type_id":"4","last_reported":1756451382,"current_range_meters":17600,"station_id":"","pricing_plan_id":"cebpf4jnsgd1na2vs0mg"},{"bike_id":"0b538fb2-1ca8-4bb2-8cf3-a29567939395","system_id":"levelo_inurba_marseille","lat":43.25724,"lon":5.41107,"is_reserved":false,"is_disabled":false,"rental_uris":{"android":"levelo://app?vid=0b538fb2-1ca8-4bb2-8cf3-a29567939395","ios":"levelo://app?vid=0b538fb2-1ca8-4bb2-8cf3-a29567939395"},"vehicle_type_id":"4","last_reported":1756451382,"current_range_meters":17600,"station_id":"ce4bhkp2rcd13ifvqgd0","pricing_plan_id":"cebpf4jnsgd1na2vs0mg"},{"bike_id":"66fede0c-7dce-451e-9da2-40306588627d","system_id":"levelo_inurba_marseille","lat":43.25933,"lon":5.40867,"is_reserved":false,"is_disabled":false,"rental_uris":{"android":"levelo://app?vid=66fede0c-7dce-451e-9da2-40306588627d","ios":"levelo://app?vid=66fede0c-7dce-451e-9da2-40306588627d"},"vehicle_type_id":"4","last_reported":1756451382,"current_range_meters":17600,"station_id":"ce4bhm92rcd13ifvqglg","pricing_plan_id":"cebpf4jnsgd1na2vs0mg"},{"bike_id":"b63e190f-51f9-4632-a617-20e60d6c22c6","system_id":"levelo_inurba_marseille","lat":43.21749,"lon":5.34601,"is_reserved":false,"is_disabled":false,"rental_uris":{"android":"levelo://app?vid=b63e190f-51f9-4632-a617-20e60d6c22c6","ios":"levelo://app?vid=b63e190f-51f9-4632-a617-20e60d6c22c6"},"vehicle_type_id":"4","last_reported":1756451382,"current_range_meters":17600,"station_id":"st_cvj6r9ubvosntc0bgbag","pricing_plan_id":"cebpf4jnsgd1na2vs0mg"},{"bike_id":"6ed01907-fd97-4f04-ac2e-5876f4b4c330","system_id":"levelo_inurba_marseille","lat":43.31331,"lon":5.39749,"is_reserved":false,"is_disabled":false,"rental_uris":{"android":"levelo://app?vid=6ed01907-fd97-4f04-ac2e-5876f4b4c330","ios":"levelo://app?vid=6ed01907-fd97-4f04-ac2e-5876f4b4c330"},"vehicle_type_id":"4","last_reported":1756451382,"current_range_meters":18000,"station_id":"","pricing_plan_id":"cebpf4jnsgd1na2vs0mg"},{"bike_id":"95a410e3-7d20-44f8-bf8b-1709722bb60b","system_id":"levelo_inurba_marseille","lat":43.290437,"lon":5.399479,"is_reserved":false,"is_disabled":false,"rental_uris":{"android":"levelo://app?vid=95a410e3-7d20-44f8-bf8b-1709722bb60b","ios":"levelo://app?vid=95a410e3-7d20-44f8-bf8b-1709722bb60b"},"vehicle_type_id":"4","last_reported":1756451382,"current_range_meters":18000,"station_id":"ce4bh392rcd13ifvqdm0","pricing_plan_id":"cebpf4jnsgd1na2vs0mg"},{"bike_id":"b7334faf-f3b8-448b-9568-b921a0e48879","system_id":"levelo_inurba_marseille","lat":43.28428,"lon":5.349936,"is_reserved":false,"is_disabled":false,"rental_uris":{"android":"levelo://app?vid=b7334faf-f3b8-448b-9568-b921a0e48879","ios":"levelo://app?vid=b7334faf-f3b8-448b-9568-b921a0e48879"},"vehicle_type_id":"4","last_reported":1756451382,"current_range_meters":18000,"station_id":"ce4bhbh2rcd13ifvqepg","pricing_plan_id":"cebpf4jnsgd1na2vs0mg"},{"bike_id":"950d72aa-0b54-4ee8-a3cc-6f1640ce0908","system_id":"levelo_inurba_marseille","lat":43.25095,"lon":5.39527,"is_reserved":false,"is_disabled":false,"rental_uris":{"android":"levelo://app?vid=950d72aa-0b54-4ee8-a3cc-6f1640ce0908","ios":"levelo://app?vid=950d72aa-0b54-4ee8-a3cc-6f1640ce0908"},"vehicle_type_id":"4","last_reported":1756451382,"current_range_meters":18000,"station_id":"ce4bhm12rcd13ifvqgkg","pricing_plan_id":"cebpf4jnsgd1na2vs0mg"},{"bike_id":"30299ad2-46a4-4821-bfbf-3ae4376ad74a","system_id":"levelo_inurba_marseille","lat":43.321062,"lon":5.36787,"is_reserved":false,"is_disabled":false,"rental_uris":{"android":"levelo://app?vid=30299ad2-46a4-4821-bfbf-3ae4376ad74a","ios":"levelo://app?vid=30299ad2-46a4-4821-bfbf-3ae4376ad74a"},"vehicle_type_id":"4","last_reported":1756451382,"current_range_meters":18000,"station_id":"ce4bhrh2rcd13ifvqhug","pricing_plan_id":"cebpf4jnsgd1na2vs0mg"},{"bike_id":"c0881cb5-357f-468d-a3c1-b313679c3509","system_id":"levelo_inurba_marseille","lat":43.337579,"lon":5.37436,"is_reserved":false,"is_disabled":false,"rental_uris":{"android":"levelo://app?vid=c0881cb5-357f-468d-a3c1-b313679c3509","ios":"levelo://app?vid=c0881cb5-357f-468d-a3c1-b313679c3509"},"vehicle_type_id":"4","last_reported":1756451382,"current_range_meters":18800,"station_id":"","pricing_plan_id":"cebpf4jnsgd1na2vs0mg"},{"bike_id":"811d38a2-b1a3-4165-87cb-544c28852b6b","system_id":"levelo_inurba_marseille","lat":43.29689,"lon":5.3729,"is_reserved":false,"is_disabled":false,"rental_uris":{"android":"levelo://app?vid=811d38a2-b1a3-4165-87cb-544c28852b6b","ios":"levelo://app?vid=811d38a2-b1a3-4165-87cb-544c28852b6b"},"vehicle_type_id":"4","last_reported":1756451382,"current_range_meters":18800,"station_id":"ce4bgk12rcd13ifvqbj0","pricing_plan_id":"cebpf4jnsgd1na2vs0mg"},{"bike_id":"26046b3f-47ed-4c49-b7bb-75b22b7c918b","system_id":"levelo_inurba_marseille","lat":43.3046,"lon":5.37908,"is_reserved":false,"is_disabled":false,"rental_uris":{"android":"levelo://app?vid=26046b3f-47ed-4c49-b7bb-75b22b7c918b","ios":"levelo://app?vid=26046b3f-47ed-4c49-b7bb-75b22b7c918b"},"vehicle_type_id":"4","last_reported":1756451382,"current_range_meters":18800,"station_id":"ce4bgup2rcd13ifvqcn0","pricing_plan_id":"cebpf4jnsgd1na2vs0mg"},{"bike_id":"a454d19e-96b4-446c-aab4-ca598501e6c1","system_id":"levelo_inurba_marseille","lat":43.28563,"lon":5.39527,"is_reserved":false,"is_disabled":false,"rental_uris":{"android":"levelo://app?vid=a454d19e-96b4-446c-aab4-ca598501e6c1","ios":"levelo://app?vid=a454d19e-96b4-446c-aab4-ca598501e6c1"},"vehicle_type_id":"4","last_reported":1756451382,"current_range_meters":18800,"station_id":"ce4bh292rcd13ifvqdg0","pricing_plan_id":"cebpf4jnsgd1na2vs0mg"},{"bike_id":"294d3572-ad02-4b2b-a564-7fc58fa0fef2","system_id":"levelo_inurba_marseille","lat":43.24391,"lon":5.37066,"is_reserved":false,"is_disabled":false,"rental_uris":{"android":"levelo://app?vid=294d3572-ad02-4b2b-a564-7fc58fa0fef2","ios":"levelo://app?vid=294d3572-ad02-4b2b-a564-7fc58fa0fef2"},"vehicle_type_id":"4","last_reported":1756451382,"current_range_meters":18800,"station_id":"ce4bhhh2rcd13ifvqfk0","pricing_plan_id":"cebpf4jnsgd1na2vs0mg"},{"bike_id":"93cc04ec-00cd-4c5a-9919-841c31df513d","system_id":"levelo_inurba_marseille","lat":43.25844,"lon":5.39435,"is_reserved":false,"is_disabled":false,"rental_uris":{"android":"levelo://app?vid=93cc04ec-00cd-4c5a-9919-841c31df513d","ios":"levelo://app?vid=93cc04ec-00cd-4c5a-9919-841c31df513d"},"vehicle_type_id":"4","last_reported":1756451382,"current_range_meters":18800,"station_id":"ce4bhip2rcd13ifvqft0","pricing_plan_id":"cebpf4jnsgd1na2vs0mg"},{"bike_id":"642dedb9-f923-40d8-a457-0c7904c0406b","system_id":"levelo_inurba_marseille","lat":43.25109,"lon":5.40315,"is_reserved":false,"is_disabled":false,"rental_uris":{"android":"levelo://app?vid=642dedb9-f923-40d8-a457-0c7904c0406b","ios":"levelo://app?vid=642dedb9-f923-40d8-a457-0c7904c0406b"},"vehicle_type_id":"4","last_reported":1756451382,"current_range_meters":18800,"station_id":"ce4bhlh2rcd13ifvqgig","pricing_plan_id":"cebpf4jnsgd1na2vs0mg"},{"bike_id":"f794880e-3bf0-4d32-bf3b-2fd9f67fe523","system_id":"levelo_inurba_marseille","lat":43.24178,"lon":5.39729,"is_reserved":false,"is_disabled":false,"rental_uris":{"android":"levelo://app?vid=f794880e-3bf0-4d32-bf3b-2fd9f67fe523","ios":"levelo://app?vid=f794880e-3bf0-4d32-bf3b-2fd9f67fe523"},"vehicle_type_id":"4","last_reported":1756451382,"current_range_meters":18800,"station_id":"ce4bhn12rcd13ifvqgpg","pricing_plan_id":"cebpf4jnsgd1na2vs0mg"},{"bike_id":"3e64b6a3-f093-4b38-82bd-c40422d84ba3","system_id":"levelo_inurba_marseille","lat":43.24182,"lon":5.39719,"is_reserved":false,"is_disabled":false,"rental_uris":{"android":"levelo://app?vid=3e64b6a3-f093-4b38-82bd-c40422d84ba3","ios":"levelo://app?vid=3e64b6a3-f093-4b38-82bd-c40422d84ba3"},"vehicle_type_id":"4","last_reported":1756451382,"current_range_meters":18800,"station_id":"ce4bhn12rcd13ifvqgpg","pricing_plan_id":"cebpf4jnsgd1na2vs0mg"},{"bike_id":"329cd2e3-3f50-464b-b205-37b738369eeb","system_id":"levelo_inurba_marseille","lat":43.32365,"lon":5.36736,"is_reserved":false,"is_disabled":false,"rental_uris":{"android":"levelo://app?vid=329cd2e3-3f50-464b-b205-37b738369eeb","ios":"levelo://app?vid=329cd2e3-3f50-464b-b205-37b738369eeb"},"vehicle_type_id":"4","last_reported":1756451382,"current_range_meters":18800,"station_id":"ce4bhsh2rcd13ifvqi2g","pricing_plan_id":"cebpf4jnsgd1na2vs0mg"},{"bike_id":"59521d5b-78d8-4d56-91a3-95a35d06475c","system_id":"levelo_inurba_marseille","lat":43.22623,"lon":5.34636,"is_reserved":false,"is_disabled":false,"rental_uris":{"android":"levelo://app?vid=59521d5b-78d8-4d56-91a3-95a35d06475c","ios":"levelo://app?vid=59521d5b-78d8-4d56-91a3-95a35d06475c"},"vehicle_type_id":"4","last_reported":1756451382,"current_range_meters":18800,"station_id":"st_cvj5dfep6f1abm77gieg","pricing_plan_id":"cebpf4jnsgd1na2vs0mg"},{"bike_id":"fc9b7f13-7e12-4e22-a2e9-4d73e71fe40c","system_id":"levelo_inurba_marseille","lat":43.30148,"lon":5.37404,"is_reserved":false,"is_disabled":false,"rental_uris":{"android":"levelo://app?vid=fc9b7f13-7e12-4e22-a2e9-4d73e71fe40c","ios":"levelo://app?vid=fc9b7f13-7e12-4e22-a2e9-4d73e71fe40c"},"vehicle_type_id":"4","last_reported":1756451382,"current_range_meters":19200,"station_id":"","pricing_plan_id":"cebpf4jnsgd1na2vs0mg"},{"bike_id":"cfd53cf9-1e7d-4d7a-a017-0e8dce088433","system_id":"levelo_inurba_marseille","lat":43.30881,"lon":5.37197,"is_reserved":false,"is_disabled":false,"rental_uris":{"android":"levelo://app?vid=cfd53cf9-1e7d-4d7a-a017-0e8dce088433","ios":"levelo://app?vid=cfd53cf9-1e7d-4d7a-a017-0e8dce088433"},"vehicle_type_id":"4","last_reported":1756451382,"current_range_meters":19200,"station_id":"","pricing_plan_id":"cebpf4jnsgd1na2vs0mg"},{"bike_id":"79aa5766-eb91-4571-ac92-0c9f674de243","system_id":"levelo_inurba_marseille","lat":43.30952,"lon":5.39028,"is_reserved":false,"is_disabled":false,"rental_uris":{"android":"levelo://app?vid=79aa5766-eb91-4571-ac92-0c9f674de243","ios":"levelo://app?vid=79aa5766-eb91-4571-ac92-0c9f674de243"},"vehicle_type_id":"4","last_reported":1756451382,"current_range_meters":19200,"station_id":"ce4bgup2rcd13ifvqco0","pricing_plan_id":"cebpf4jnsgd1na2vs0mg"},{"bike_id":"ecfa0206-e182-4f0a-b981-51129e0a4b6b","system_id":"levelo_inurba_marseille","lat":43.292815,"lon":5.401158,"is_reserved":false,"is_disabled":false,"rental_uris":{"android":"levelo://app?vid=ecfa0206-e182-4f0a-b981-51129e0a4b6b","ios":"levelo://app?vid=ecfa0206-e182-4f0a-b981-51129e0a4b6b"},"vehicle_type_id":"4","last_reported":1756451382,"current_range_meters":19200,"station_id":"ce4bh312rcd13ifvqdk0","pricing_plan_id":"cebpf4jnsgd1na2vs0mg"},{"bike_id":"275f4e82-96f2-4e31-b484-98c9302ea3df","system_id":"levelo_inurba_marseille","lat":43.27174,"lon":5.41014,"is_reserved":false,"is_disabled":false,"rental_uris":{"android":"levelo://app?vid=275f4e82-96f2-4e31-b484-98c9302ea3df","ios":"levelo://app?vid=275f4e82-96f2-4e31-b484-98c9302ea3df"},"vehicle_type_id":"4","last_reported":1756451382,"current_range_meters":19200,"station_id":"ce4bhl12rcd13ifvqgf0","pricing_plan_id":"cebpf4jnsgd1na2vs0mg"},{"bike_id":"cbeb5191-1a50-4bcf-84b3-54f1b20400d7","system_id":"levelo_inurba_marseille","lat":43.3007,"lon":5.36495,"is_reserved":false,"is_disabled":false,"rental_uris":{"android":"levelo://app?vid=cbeb5191-1a50-4bcf-84b3-54f1b20400d7","ios":"levelo://app?vid=cbeb5191-1a50-4bcf-84b3-54f1b20400d7"},"vehicle_type_id":"4","last_reported":1756451382,"current_range_meters":19600,"station_id":"","pricing_plan_id":"cebpf4jnsgd1na2vs0mg"},{"bike_id":"ae5218ac-b720-4178-9dfe-a8b27a46e711","system_id":"levelo_inurba_marseille","lat":43.246551,"lon":5.388898,"is_reserved":false,"is_disabled":false,"rental_uris":{"android":"levelo://app?vid=ae5218ac-b720-4178-9dfe-a8b27a46e711","ios":"levelo://app?vid=ae5218ac-b720-4178-9dfe-a8b27a46e711"},"vehicle_type_id":"4","last_reported":1756451382,"current_range_meters":19600,"station_id":"ce4bhg12rcd13ifvqf60","pricing_plan_id":"cebpf4jnsgd1na2vs0mg"},{"bike_id":"b25115e4-cd48-4db0-8370-86dc2287611b","system_id":"levelo_inurba_marseille","lat":43.25502,"lon":5.37649,"is_reserved":false,"is_disabled":false,"rental_uris":{"android":"levelo://app?vid=b25115e4-cd48-4db0-8370-86dc2287611b","ios":"levelo://app?vid=b25115e4-cd48-4db0-8370-86dc2287611b"},"vehicle_type_id":"4","last_reported":1756451382,"current_range_meters":19600,"station_id":"ce4bhh12rcd13ifvqff0","pricing_plan_id":"cebpf4jnsgd1na2vs0mg"},{"bike_id":"de56a6ed-197b-4141-bdca-e04b68b822ba","system_id":"levelo_inurba_marseille","lat":43.25822,"lon":5.39451,"is_reserved":false,"is_disabled":false,"rental_uris":{"android":"levelo://app?vid=de56a6ed-197b-4141-bdca-e04b68b822ba","ios":"levelo://app?vid=de56a6ed-197b-4141-bdca-e04b68b822ba"},"vehicle_type_id":"4","last_reported":1756451382,"current_range_meters":19600,"station_id":"ce4bhip2rcd13ifvqft0","pricing_plan_id":"cebpf4jnsgd1na2vs0mg"},{"bike_id":"fd8fdbd5-79ed-4498-bab4-bd9c86dd98db","system_id":"levelo_inurba_marseille","lat":43.23187,"lon":5.39991,"is_reserved":false,"is_disabled":false,"rental_uris":{"android":"levelo://app?vid=fd8fdbd5-79ed-4498-bab4-bd9c86dd98db","ios":"levelo://app?vid=fd8fdbd5-79ed-4498-bab4-bd9c86dd98db"},"vehicle_type_id":"4","last_reported":1756451382,"current_range_meters":19600,"station_id":"ce4bhn12rcd13ifvqgqg","pricing_plan_id":"cebpf4jnsgd1na2vs0mg"},{"bike_id":"05955278-86d9-47b6-8d3a-f6df9e3a30d4","system_id":"levelo_inurba_marseille","lat":43.321177,"lon":5.36795,"is_reserved":false,"is_disabled":false,"rental_uris":{"android":"levelo://app?vid=05955278-86d9-47b6-8d3a-f6df9e3a30d4","ios":"levelo://app?vid=05955278-86d9-47b6-8d3a-f6df9e3a30d4"},"vehicle_type_id":"4","last_reported":1756451382,"current_range_meters":19600,"station_id":"ce4bhrh2rcd13ifvqhug","pricing_plan_id":"cebpf4jnsgd1na2vs0mg"},{"bike_id":"e9cb6436-0428-41b2-925a-cf5b31128397","system_id":"levelo_inurba_marseille","lat":43.32841,"lon":5.391445,"is_reserved":false,"is_disabled":false,"rental_uris":{"android":"levelo://app?vid=e9cb6436-0428-41b2-925a-cf5b31128397","ios":"levelo://app?vid=e9cb6436-0428-41b2-925a-cf5b31128397"},"vehicle_type_id":"4","last_reported":1756451382,"current_range_meters":20000,"station_id":"","pricing_plan_id":"cebpf4jnsgd1na2vs0mg"},{"bike_id":"46de5df2-8c9a-4556-bc52-4e9eb95a5496","system_id":"levelo_inurba_marseille","lat":43.33348,"lon":5.38601,"is_reserved":false,"is_disabled":false,"rental_uris":{"android":"levelo://app?vid=46de5df2-8c9a-4556-bc52-4e9eb95a5496","ios":"levelo://app?vid=46de5df2-8c9a-4556-bc52-4e9eb95a5496"},"vehicle_type_id":"4","last_reported":1756451382,"current_range_meters":20000,"station_id":"","pricing_plan_id":"cebpf4jnsgd1na2vs0mg"},{"bike_id":"f9ae6c14-cd03-4c62-b600-9d6cc2d50a4c","system_id":"levelo_inurba_marseille","lat":43.28365,"lon":5.4079,"is_reserved":false,"is_disabled":false,"rental_uris":{"android":"levelo://app?vid=f9ae6c14-cd03-4c62-b600-9d6cc2d50a4c","ios":"levelo://app?vid=f9ae6c14-cd03-4c62-b600-9d6cc2d50a4c"},"vehicle_type_id":"4","last_reported":1756451382,"current_range_meters":20000,"station_id":"","pricing_plan_id":"cebpf4jnsgd1na2vs0mg"},{"bike_id":"b12439ed-492c-4dfc-a973-aeb41283df65","system_id":"levelo_inurba_marseille","lat":43.29796,"lon":5.40411,"is_reserved":false,"is_disabled":false,"rental_uris":{"android":"levelo://app?vid=b12439ed-492c-4dfc-a973-aeb41283df65","ios":"levelo://app?vid=b12439ed-492c-4dfc-a973-aeb41283df65"},"vehicle_type_id":"4","last_reported":1756451382,"current_range_meters":20000,"station_id":"ce4bh112rcd13ifvqd90","pricing_plan_id":"cebpf4jnsgd1na2vs0mg"},{"bike_id":"1abc099f-e9b2-4892-a789-192c456b7601","system_id":"levelo_inurba_marseille","lat":43.25931,"lon":5.40897,"is_reserved":false,"is_disabled":false,"rental_uris":{"android":"levelo://app?vid=1abc099f-e9b2-4892-a789-192c456b7601","ios":"levelo://app?vid=1abc099f-e9b2-4892-a789-192c456b7601"},"vehicle_type_id":"4","last_reported":1756451382,"current_range_meters":20000,"station_id":"ce4bhm92rcd13ifvqglg","pricing_plan_id":"cebpf4jnsgd1na2vs0mg"},{"bike_id":"70a20fb1-96a5-431d-b69d-e7d9050e436c","system_id":"levelo_inurba_marseille","lat":43.23168,"lon":5.43722,"is_reserved":false,"is_disabled":false,"rental_uris":{"android":"levelo://app?vid=70a20fb1-96a5-431d-b69d-e7d9050e436c","ios":"levelo://app?vid=70a20fb1-96a5-431d-b69d-e7d9050e436c"},"vehicle_type_id":"4","last_reported":1756451382,"current_range_meters":20000,"station_id":"ce4bhmp2rcd13ifvqgog","pricing_plan_id":"cebpf4jnsgd1na2vs0mg"},{"bike_id":"f1fbb265-fe65-4215-a98a-21daf0a7df7c","system_id":"levelo_inurba_marseille","lat":43.24062,"lon":5.37772,"is_reserved":false,"is_disabled":false,"rental_uris":{"android":"levelo://app?vid=f1fbb265-fe65-4215-a98a-21daf0a7df7c","ios":"levelo://app?vid=f1fbb265-fe65-4215-a98a-21daf0a7df7c"},"vehicle_type_id":"4","last_reported":1756451382,"current_range_meters":20000,"station_id":"ce4bhnp2rcd13ifvqgvg","pricing_plan_id":"cebpf4jnsgd1na2vs0mg"},{"bike_id":"8435bb2b-2ad9-43a4-abd1-2def052f85e8","system_id":"levelo_inurba_marseille","lat":43.217501,"lon":5.345975,"is_reserved":false,"is_disabled":false,"rental_uris":{"android":"levelo://app?vid=8435bb2b-2ad9-43a4-abd1-2def052f85e8","ios":"levelo://app?vid=8435bb2b-2ad9-43a4-abd1-2def052f85e8"},"vehicle_type_id":"4","last_reported":1756451382,"current_range_meters":20000,"station_id":"st_cvj6r9ubvosntc0bgbag","pricing_plan_id":"cebpf4jnsgd1na2vs0mg"},{"bike_id":"52445a9d-969d-4194-8338-3903c8755925","system_id":"levelo_inurba_marseille","lat":43.28276,"lon":5.39006,"is_reserved":false,"is_disabled":false,"rental_uris":{"android":"levelo://app?vid=52445a9d-969d-4194-8338-3903c8755925","ios":"levelo://app?vid=52445a9d-969d-4194-8338-3903c8755925"},"vehicle_type_id":"4","last_reported":1756451382,"current_range_meters":20400,"station_id":"","pricing_plan_id":"cebpf4jnsgd1na2vs0mg"},{"bike_id":"e0b4c03b-1691-4b36-9ebc-35fa149798e4","system_id":"levelo_inurba_marseille","lat":43.337628,"lon":5.374401,"is_reserved":false,"is_disabled":false,"rental_uris":{"android":"levelo://app?vid=e0b4c03b-1691-4b36-9ebc-35fa149798e4","ios":"levelo://app?vid=e0b4c03b-1691-4b36-9ebc-35fa149798e4"},"vehicle_type_id":"4","last_reported":1756451382,"current_range_meters":20400,"station_id":"","pricing_plan_id":"cebpf4jnsgd1na2vs0mg"},{"bike_id":"ad342a57-16de-4802-917b-2c54902b8e93","system_id":"levelo_inurba_marseille","lat":43.33767,"lon":5.374384,"is_reserved":false,"is_disabled":false,"rental_uris":{"android":"levelo://app?vid=ad342a57-16de-4802-917b-2c54902b8e93","ios":"levelo://app?vid=ad342a57-16de-4802-917b-2c54902b8e93"},"vehicle_type_id":"4","last_reported":1756451382,"current_range_meters":20400,"station_id":"","pricing_plan_id":"cebpf4jnsgd1na2vs0mg"},{"bike_id":"29f74bcb-3b6e-4095-b834-717bc1c3c0e4","system_id":"levelo_inurba_marseille","lat":43.31354,"lon":5.38492,"is_reserved":false,"is_disabled":false,"rental_uris":{"android":"levelo://app?vid=29f74bcb-3b6e-4095-b834-717bc1c3c0e4","ios":"levelo://app?vid=29f74bcb-3b6e-4095-b834-717bc1c3c0e4"},"vehicle_type_id":"4","last_reported":1756451382,"current_range_meters":20400,"station_id":"ce4bgt92rcd13ifvqcf0","pricing_plan_id":"cebpf4jnsgd1na2vs0mg"},{"bike_id":"727462af-4730-4a97-9ef8-61eeb09af5c3","system_id":"levelo_inurba_marseille","lat":43.28023,"lon":5.36936,"is_reserved":false,"is_disabled":false,"rental_uris":{"android":"levelo://app?vid=727462af-4730-4a97-9ef8-61eeb09af5c3","ios":"levelo://app?vid=727462af-4730-4a97-9ef8-61eeb09af5c3"},"vehicle_type_id":"4","last_reported":1756451382,"current_range_meters":20400,"station_id":"ce4bha12rcd13ifvqef0","pricing_plan_id":"cebpf4jnsgd1na2vs0mg"},{"bike_id":"d1545ad3-8e2a-49f5-8e72-2979cc277b06","system_id":"levelo_inurba_marseille","lat":43.25018,"lon":5.3892,"is_reserved":false,"is_disabled":false,"rental_uris":{"android":"levelo://app?vid=d1545ad3-8e2a-49f5-8e72-2979cc277b06","ios":"levelo://app?vid=d1545ad3-8e2a-49f5-8e72-2979cc277b06"},"vehicle_type_id":"4","last_reported":1756451382,"current_range_meters":20400,"station_id":"ce4bhgp2rcd13ifvqfd0","pricing_plan_id":"cebpf4jnsgd1na2vs0mg"},{"bike_id":"37e18486-81d7-4abd-9f5c-1da572297c85","system_id":"levelo_inurba_marseille","lat":43.231478,"lon":5.437102,"is_reserved":false,"is_disabled":false,"rental_uris":{"android":"levelo://app?vid=37e18486-81d7-4abd-9f5c-1da572297c85","ios":"levelo://app?vid=37e18486-81d7-4abd-9f5c-1da572297c85"},"vehicle_type_id":"4","last_reported":1756451382,"current_range_meters":20400,"station_id":"ce4bhmp2rcd13ifvqgog","pricing_plan_id":"cebpf4jnsgd1na2vs0mg"},{"bike_id":"9b9ae7e5-3c1e-4c72-b93a-61607eeb0e0c","system_id":"levelo_inurba_marseille","lat":43.231499,"lon":5.437181,"is_reserved":false,"is_disabled":false,"rental_uris":{"android":"levelo://app?vid=9b9ae7e5-3c1e-4c72-b93a-61607eeb0e0c","ios":"levelo://app?vid=9b9ae7e5-3c1e-4c72-b93a-61607eeb0e0c"},"vehicle_type_id":"4","last_reported":1756451382,"current_range_meters":20400,"station_id":"ce4bhmp2rcd13ifvqgog","pricing_plan_id":"cebpf4jnsgd1na2vs0mg"},{"bike_id":"8b010fd9-4db6-4657-820b-6fbbf5ba41d2","system_id":"levelo_inurba_marseille","lat":43.32542,"lon":5.41446,"is_reserved":false,"is_disabled":false,"rental_uris":{"android":"levelo://app?vid=8b010fd9-4db6-4657-820b-6fbbf5ba41d2","ios":"levelo://app?vid=8b010fd9-4db6-4657-820b-6fbbf5ba41d2"},"vehicle_type_id":"4","last_reported":1756451382,"current_range_meters":20400,"station_id":"ce4bhq12rcd13ifvqhhg","pricing_plan_id":"cebpf4jnsgd1na2vs0mg"},{"bike_id":"711b579a-e492-442a-8a08-454e93550a0e","system_id":"levelo_inurba_marseille","lat":43.321108,"lon":5.36771,"is_reserved":false,"is_disabled":false,"rental_uris":{"android":"levelo://app?vid=711b579a-e492-442a-8a08-454e93550a0e","ios":"levelo://app?vid=711b579a-e492-442a-8a08-454e93550a0e"},"vehicle_type_id":"4","last_reported":1756451382,"current_range_meters":20400,"station_id":"ce4bhrh2rcd13ifvqhug","pricing_plan_id":"cebpf4jnsgd1na2vs0mg"},{"bike_id":"2d8460f5-3adb-491c-94f5-d14fb1520f96","system_id":"levelo_inurba_marseille","lat":43.345203,"lon":5.382736,"is_reserved":false,"is_disabled":false,"rental_uris":{"android":"levelo://app?vid=2d8460f5-3adb-491c-94f5-d14fb1520f96","ios":"levelo://app?vid=2d8460f5-3adb-491c-94f5-d14fb1520f96"},"vehicle_type_id":"4","last_reported":1756451382,"current_range_meters":20800,"station_id":"","pricing_plan_id":"cebpf4jnsgd1na2vs0mg"},{"bike_id":"94e1306f-81b8-480f-ae8e-3a2ae7b1fbe1","system_id":"levelo_inurba_marseille","lat":43.24093,"lon":5.37722,"is_reserved":false,"is_disabled":false,"rental_uris":{"android":"levelo://app?vid=94e1306f-81b8-480f-ae8e-3a2ae7b1fbe1","ios":"levelo://app?vid=94e1306f-81b8-480f-ae8e-3a2ae7b1fbe1"},"vehicle_type_id":"4","last_reported":1756451382,"current_range_meters":20800,"station_id":"ce4bhnp2rcd13ifvqgvg","pricing_plan_id":"cebpf4jnsgd1na2vs0mg"},{"bike_id":"0239ac48-9348-4078-b44d-3be244539bf5","system_id":"levelo_inurba_marseille","lat":43.27996,"lon":5.4004,"is_reserved":false,"is_disabled":false,"rental_uris":{"android":"levelo://app?vid=0239ac48-9348-4078-b44d-3be244539bf5","ios":"levelo://app?vid=0239ac48-9348-4078-b44d-3be244539bf5"},"vehicle_type_id":"4","last_reported":1756451382,"current_range_meters":20800,"station_id":"ce4bho92rcd13ifvqh4g","pricing_plan_id":"cebpf4jnsgd1na2vs0mg"},{"bike_id":"e739884e-4f63-4b6f-b5bd-7088a32c450d","system_id":"levelo_inurba_marseille","lat":43.303499,"lon":5.364961,"is_reserved":false,"is_disabled":false,"rental_uris":{"android":"levelo://app?vid=e739884e-4f63-4b6f-b5bd-7088a32c450d","ios":"levelo://app?vid=e739884e-4f63-4b6f-b5bd-7088a32c450d"},"vehicle_type_id":"4","last_reported":1756451382,"current_range_meters":21600,"station_id":"ce4bgs12rcd13ifvqcag","pricing_plan_id":"cebpf4jnsgd1na2vs0mg"},{"bike_id":"5fc38212-6340-400b-9c24-533d5d6652ca","system_id":"levelo_inurba_marseille","lat":43.30143,"lon":5.37422,"is_reserved":false,"is_disabled":false,"rental_uris":{"android":"levelo://app?vid=5fc38212-6340-400b-9c24-533d5d6652ca","ios":"levelo://app?vid=5fc38212-6340-400b-9c24-533d5d6652ca"},"vehicle_type_id":"4","last_reported":1756451382,"current_range_meters":21600,"station_id":"ce4bgs92rcd13ifvqcc0","pricing_plan_id":"cebpf4jnsgd1na2vs0mg"},{"bike_id":"41ce3545-05a6-41be-9e3f-9fabb2d67693","system_id":"levelo_inurba_marseille","lat":43.28941,"lon":5.36403,"is_reserved":false,"is_disabled":false,"rental_uris":{"android":"levelo://app?vid=41ce3545-05a6-41be-9e3f-9fabb2d67693","ios":"levelo://app?vid=41ce3545-05a6-41be-9e3f-9fabb2d67693"},"vehicle_type_id":"4","last_reported":1756451382,"current_range_meters":21600,"station_id":"ce4bhc92rcd13ifvqetg","pricing_plan_id":"cebpf4jnsgd1na2vs0mg"},{"bike_id":"029d0bb6-0710-49d0-b018-b956f92713b6","system_id":"levelo_inurba_marseille","lat":43.281543,"lon":5.426428,"is_reserved":false,"is_disabled":false,"rental_uris":{"android":"levelo://app?vid=029d0bb6-0710-49d0-b018-b956f92713b6","ios":"levelo://app?vid=029d0bb6-0710-49d0-b018-b956f92713b6"},"vehicle_type_id":"4","last_reported":1756451382,"current_range_meters":21600,"station_id":"ce4bhnh2rcd13ifvqgug","pricing_plan_id":"cebpf4jnsgd1na2vs0mg"},{"bike_id":"952cec70-12e6-456e-b42d-8784d0bc4fe7","system_id":"levelo_inurba_marseille","lat":43.29549,"lon":5.42292,"is_reserved":false,"is_disabled":false,"rental_uris":{"android":"levelo://app?vid=952cec70-12e6-456e-b42d-8784d0bc4fe7","ios":"levelo://app?vid=952cec70-12e6-456e-b42d-8784d0bc4fe7"},"vehicle_type_id":"4","last_reported":1756451382,"current_range_meters":21600,"station_id":"ce4bhph2rcd13ifvqhdg","pricing_plan_id":"cebpf4jnsgd1na2vs0mg"},{"bike_id":"49f72641-d9d1-474b-9179-38fbcf44f56b","system_id":"levelo_inurba_marseille","lat":43.29732,"lon":5.37678,"is_reserved":false,"is_disabled":false,"rental_uris":{"android":"levelo://app?vid=49f72641-d9d1-474b-9179-38fbcf44f56b","ios":"levelo://app?vid=49f72641-d9d1-474b-9179-38fbcf44f56b"},"vehicle_type_id":"4","last_reported":1756451382,"current_range_meters":22000,"station_id":"ce4bgkh2rcd13ifvqbl0","pricing_plan_id":"cebpf4jnsgd1na2vs0mg"},{"bike_id":"6e339963-33fb-41fb-b486-3381c3e02fd2","system_id":"levelo_inurba_marseille","lat":43.28501,"lon":5.38564,"is_reserved":false,"is_disabled":false,"rental_uris":{"android":"levelo://app?vid=6e339963-33fb-41fb-b486-3381c3e02fd2","ios":"levelo://app?vid=6e339963-33fb-41fb-b486-3381c3e02fd2"},"vehicle_type_id":"4","last_reported":1756451382,"current_range_meters":22000,"station_id":"ce4bh8p2rcd13ifvqeb0","pricing_plan_id":"cebpf4jnsgd1na2vs0mg"},{"bike_id":"d79e3971-3817-4f8c-8bbd-3ef2d4011c69","system_id":"levelo_inurba_marseille","lat":43.260548,"lon":5.393935,"is_reserved":false,"is_disabled":false,"rental_uris":{"android":"levelo://app?vid=d79e3971-3817-4f8c-8bbd-3ef2d4011c69","ios":"levelo://app?vid=d79e3971-3817-4f8c-8bbd-3ef2d4011c69"},"vehicle_type_id":"4","last_reported":1756451382,"current_range_meters":22000,"station_id":"ce4bhh92rcd13ifvqfj0","pricing_plan_id":"cebpf4jnsgd1na2vs0mg"},{"bike_id":"4f082a9e-96d4-4772-9729-576b57a0c2ae","system_id":"levelo_inurba_marseille","lat":43.292289,"lon":5.364504,"is_reserved":false,"is_disabled":false,"rental_uris":{"android":"levelo://app?vid=4f082a9e-96d4-4772-9729-576b57a0c2ae","ios":"levelo://app?vid=4f082a9e-96d4-4772-9729-576b57a0c2ae"},"vehicle_type_id":"4","last_reported":1756451382,"current_range_meters":22400,"station_id":"","pricing_plan_id":"cebpf4jnsgd1na2vs0mg"},{"bike_id":"21f76fc9-bdc8-4aad-985e-2e408a8620aa","system_id":"levelo_inurba_marseille","lat":43.29688,"lon":5.37288,"is_reserved":false,"is_disabled":false,"rental_uris":{"android":"levelo://app?vid=21f76fc9-bdc8-4aad-985e-2e408a8620aa","ios":"levelo://app?vid=21f76fc9-bdc8-4aad-985e-2e408a8620aa"},"vehicle_type_id":"4","last_reported":1756451382,"current_range_meters":22400,"station_id":"ce4bgk12rcd13ifvqbj0","pricing_plan_id":"cebpf4jnsgd1na2vs0mg"},{"bike_id":"7c9bddab-552c-4032-bdc3-39812d136399","system_id":"levelo_inurba_marseille","lat":43.31225,"lon":5.36858,"is_reserved":false,"is_disabled":false,"rental_uris":{"android":"levelo://app?vid=7c9bddab-552c-4032-bdc3-39812d136399","ios":"levelo://app?vid=7c9bddab-552c-4032-bdc3-39812d136399"},"vehicle_type_id":"4","last_reported":1756451382,"current_range_meters":22400,"station_id":"ce4bgl92rcd13ifvqbq0","pricing_plan_id":"cebpf4jnsgd1na2vs0mg"},{"bike_id":"52da660f-4ab4-4b0e-8b17-428402956745","system_id":"levelo_inurba_marseille","lat":43.31544,"lon":5.37302,"is_reserved":false,"is_disabled":false,"rental_uris":{"android":"levelo://app?vid=52da660f-4ab4-4b0e-8b17-428402956745","ios":"levelo://app?vid=52da660f-4ab4-4b0e-8b17-428402956745"},"vehicle_type_id":"4","last_reported":1756451382,"current_range_meters":22400,"station_id":"ce4bgt12rcd13ifvqcd0","pricing_plan_id":"cebpf4jnsgd1na2vs0mg"},{"bike_id":"c7a1b53c-de53-434d-9138-fcfda0138696","system_id":"levelo_inurba_marseille","lat":43.31122,"lon":5.37799,"is_reserved":false,"is_disabled":false,"rental_uris":{"android":"levelo://app?vid=c7a1b53c-de53-434d-9138-fcfda0138696","ios":"levelo://app?vid=c7a1b53c-de53-434d-9138-fcfda0138696"},"vehicle_type_id":"4","last_reported":1756451382,"current_range_meters":22400,"station_id":"ce4bgt92rcd13ifvqcg0","pricing_plan_id":"cebpf4jnsgd1na2vs0mg"},{"bike_id":"c8015fb0-a617-47a3-9b38-05e01dfe015a","system_id":"levelo_inurba_marseille","lat":43.30656,"lon":5.40076,"is_reserved":false,"is_disabled":false,"rental_uris":{"android":"levelo://app?vid=c8015fb0-a617-47a3-9b38-05e01dfe015a","ios":"levelo://app?vid=c8015fb0-a617-47a3-9b38-05e01dfe015a"},"vehicle_type_id":"4","last_reported":1756451382,"current_range_meters":22400,"station_id":"ce4bh112rcd13ifvqda0","pricing_plan_id":"cebpf4jnsgd1na2vs0mg"},{"bike_id":"7763b818-5aba-4e31-ba43-5f3e56736827","system_id":"levelo_inurba_marseille","lat":43.29029,"lon":5.38153,"is_reserved":false,"is_disabled":false,"rental_uris":{"android":"levelo://app?vid=7763b818-5aba-4e31-ba43-5f3e56736827","ios":"levelo://app?vid=7763b818-5aba-4e31-ba43-5f3e56736827"},"vehicle_type_id":"4","last_reported":1756451382,"current_range_meters":22400,"station_id":"ce4bh4p2rcd13ifvqe1g","pricing_plan_id":"cebpf4jnsgd1na2vs0mg"},{"bike_id":"285c877c-4b73-49bd-9a91-6f6b9ac3c3f2","system_id":"levelo_inurba_marseille","lat":43.28407,"lon":5.34984,"is_reserved":false,"is_disabled":false,"rental_uris":{"android":"levelo://app?vid=285c877c-4b73-49bd-9a91-6f6b9ac3c3f2","ios":"levelo://app?vid=285c877c-4b73-49bd-9a91-6f6b9ac3c3f2"},"vehicle_type_id":"4","last_reported":1756451382,"current_range_meters":22400,"station_id":"ce4bhbh2rcd13ifvqepg","pricing_plan_id":"cebpf4jnsgd1na2vs0mg"},{"bike_id":"5f6a98b9-96aa-4bb8-9ac2-c6ceb65ea5da","system_id":"levelo_inurba_marseille","lat":43.295471,"lon":5.390316,"is_reserved":false,"is_disabled":false,"rental_uris":{"android":"levelo://app?vid=5f6a98b9-96aa-4bb8-9ac2-c6ceb65ea5da","ios":"levelo://app?vid=5f6a98b9-96aa-4bb8-9ac2-c6ceb65ea5da"},"vehicle_type_id":"4","last_reported":1756451382,"current_range_meters":22800,"station_id":"","pricing_plan_id":"cebpf4jnsgd1na2vs0mg"},{"bike_id":"e91f497a-c0ba-4a6b-907d-a5f1f03f205d","system_id":"levelo_inurba_marseille","lat":43.29094,"lon":5.36557,"is_reserved":false,"is_disabled":false,"rental_uris":{"android":"levelo://app?vid=e91f497a-c0ba-4a6b-907d-a5f1f03f205d","ios":"levelo://app?vid=e91f497a-c0ba-4a6b-907d-a5f1f03f205d"},"vehicle_type_id":"4","last_reported":1756451382,"current_range_meters":22800,"station_id":"","pricing_plan_id":"cebpf4jnsgd1na2vs0mg"},{"bike_id":"668451d0-20ff-4eb8-8063-a89e7b98ba33","system_id":"levelo_inurba_marseille","lat":43.24395,"lon":5.37043,"is_reserved":false,"is_disabled":false,"rental_uris":{"android":"levelo://app?vid=668451d0-20ff-4eb8-8063-a89e7b98ba33","ios":"levelo://app?vid=668451d0-20ff-4eb8-8063-a89e7b98ba33"},"vehicle_type_id":"4","last_reported":1756451382,"current_range_meters":22800,"station_id":"ce4bhhh2rcd13ifvqfk0","pricing_plan_id":"cebpf4jnsgd1na2vs0mg"},{"bike_id":"248449c4-c34f-425e-bacd-419d7bdd3341","system_id":"levelo_inurba_marseille","lat":43.24182,"lon":5.39727,"is_reserved":false,"is_disabled":false,"rental_uris":{"android":"levelo://app?vid=248449c4-c34f-425e-bacd-419d7bdd3341","ios":"levelo://app?vid=248449c4-c34f-425e-bacd-419d7bdd3341"},"vehicle_type_id":"4","last_reported":1756451382,"current_range_meters":22800,"station_id":"ce4bhn12rcd13ifvqgpg","pricing_plan_id":"cebpf4jnsgd1na2vs0mg"},{"bike_id":"c821426f-b74a-4110-b371-84f0ef279375","system_id":"levelo_inurba_marseille","lat":43.31863,"lon":5.37556,"is_reserved":false,"is_disabled":false,"rental_uris":{"android":"levelo://app?vid=c821426f-b74a-4110-b371-84f0ef279375","ios":"levelo://app?vid=c821426f-b74a-4110-b371-84f0ef279375"},"vehicle_type_id":"4","last_reported":1756451382,"current_range_meters":23200,"station_id":"","pricing_plan_id":"cebpf4jnsgd1na2vs0mg"},{"bike_id":"be387c0a-c688-467a-9073-324f56cef8ee","system_id":"levelo_inurba_marseille","lat":43.25953,"lon":5.41371,"is_reserved":false,"is_disabled":false,"rental_uris":{"android":"levelo://app?vid=be387c0a-c688-467a-9073-324f56cef8ee","ios":"levelo://app?vid=be387c0a-c688-467a-9073-324f56cef8ee"},"vehicle_type_id":"4","last_reported":1756451382,"current_range_meters":23200,"station_id":"","pricing_plan_id":"cebpf4jnsgd1na2vs0mg"},{"bike_id":"d001259f-338c-4d0e-9c5e-24a89e5f161b","system_id":"levelo_inurba_marseille","lat":43.30522,"lon":5.36648,"is_reserved":false,"is_disabled":false,"rental_uris":{"android":"levelo://app?vid=d001259f-338c-4d0e-9c5e-24a89e5f161b","ios":"levelo://app?vid=d001259f-338c-4d0e-9c5e-24a89e5f161b"},"vehicle_type_id":"4","last_reported":1756451382,"current_range_meters":23200,"station_id":"ce4bgrp2rcd13ifvqc9g","pricing_plan_id":"cebpf4jnsgd1na2vs0mg"},{"bike_id":"4c9e2758-fdc6-44ba-8f69-2b86b039005d","system_id":"levelo_inurba_marseille","lat":43.30466,"lon":5.37913,"is_reserved":false,"is_disabled":false,"rental_uris":{"android":"levelo://app?vid=4c9e2758-fdc6-44ba-8f69-2b86b039005d","ios":"levelo://app?vid=4c9e2758-fdc6-44ba-8f69-2b86b039005d"},"vehicle_type_id":"4","last_reported":1756451382,"current_range_meters":23200,"station_id":"ce4bgup2rcd13ifvqcn0","pricing_plan_id":"cebpf4jnsgd1na2vs0mg"},{"bike_id":"cc9dccb6-d020-4414-8de1-7a3c59fef50c","system_id":"levelo_inurba_marseille","lat":43.24806,"lon":5.37448,"is_reserved":false,"is_disabled":false,"rental_uris":{"android":"levelo://app?vid=cc9dccb6-d020-4414-8de1-7a3c59fef50c","ios":"levelo://app?vid=cc9dccb6-d020-4414-8de1-7a3c59fef50c"},"vehicle_type_id":"4","last_reported":1756451382,"current_range_meters":23200,"station_id":"ce4bhgh2rcd13ifvqfb0","pricing_plan_id":"cebpf4jnsgd1na2vs0mg"},{"bike_id":"0bee7dd8-a6ae-4823-8eae-cb20d97cd4e6","system_id":"levelo_inurba_marseille","lat":43.25018,"lon":5.38925,"is_reserved":false,"is_disabled":false,"rental_uris":{"android":"levelo://app?vid=0bee7dd8-a6ae-4823-8eae-cb20d97cd4e6","ios":"levelo://app?vid=0bee7dd8-a6ae-4823-8eae-cb20d97cd4e6"},"vehicle_type_id":"4","last_reported":1756451382,"current_range_meters":23200,"station_id":"ce4bhgp2rcd13ifvqfd0","pricing_plan_id":"cebpf4jnsgd1na2vs0mg"},{"bike_id":"0efa3758-95c3-4040-9042-bec3d222a753","system_id":"levelo_inurba_marseille","lat":43.25092,"lon":5.39537,"is_reserved":false,"is_disabled":false,"rental_uris":{"android":"levelo://app?vid=0efa3758-95c3-4040-9042-bec3d222a753","ios":"levelo://app?vid=0efa3758-95c3-4040-9042-bec3d222a753"},"vehicle_type_id":"4","last_reported":1756451382,"current_range_meters":23200,"station_id":"ce4bhm12rcd13ifvqgkg","pricing_plan_id":"cebpf4jnsgd1na2vs0mg"},{"bike_id":"057104f4-373b-4e36-8924-11060a8c8164","system_id":"levelo_inurba_marseille","lat":43.25942,"lon":5.40923,"is_reserved":false,"is_disabled":false,"rental_uris":{"android":"levelo://app?vid=057104f4-373b-4e36-8924-11060a8c8164","ios":"levelo://app?vid=057104f4-373b-4e36-8924-11060a8c8164"},"vehicle_type_id":"4","last_reported":1756451382,"current_range_meters":23200,"station_id":"ce4bhm92rcd13ifvqglg","pricing_plan_id":"cebpf4jnsgd1na2vs0mg"},{"bike_id":"57976081-001c-4a7e-b490-405d27fc7592","system_id":"levelo_inurba_marseille","lat":43.24075,"lon":5.377564,"is_reserved":false,"is_disabled":false,"rental_uris":{"android":"levelo://app?vid=57976081-001c-4a7e-b490-405d27fc7592","ios":"levelo://app?vid=57976081-001c-4a7e-b490-405d27fc7592"},"vehicle_type_id":"4","last_reported":1756451382,"current_range_meters":23200,"station_id":"ce4bhnp2rcd13ifvqgvg","pricing_plan_id":"cebpf4jnsgd1na2vs0mg"},{"bike_id":"dcf1c330-252c-468e-87c4-49821e335428","system_id":"levelo_inurba_marseille","lat":43.211979,"lon":5.350652,"is_reserved":false,"is_disabled":false,"rental_uris":{"android":"levelo://app?vid=dcf1c330-252c-468e-87c4-49821e335428","ios":"levelo://app?vid=dcf1c330-252c-468e-87c4-49821e335428"},"vehicle_type_id":"4","last_reported":1756451382,"current_range_meters":23200,"station_id":"st_cvj6sg6p6f1abm77japg","pricing_plan_id":"cebpf4jnsgd1na2vs0mg"},{"bike_id":"110f1c02-fc96-407e-995f-720380f10bc7","system_id":"levelo_inurba_marseille","lat":43.31454,"lon":5.3698,"is_reserved":false,"is_disabled":false,"rental_uris":{"android":"levelo://app?vid=110f1c02-fc96-407e-995f-720380f10bc7","ios":"levelo://app?vid=110f1c02-fc96-407e-995f-720380f10bc7"},"vehicle_type_id":"4","last_reported":1756451382,"current_range_meters":24000,"station_id":"","pricing_plan_id":"cebpf4jnsgd1na2vs0mg"},