{"last_updated":1730038100,"ttl":60,"version":"2.2","data":{"bikes":[{"bike_id":"46ca7a5a-b63f-4a23-af18-d368d3c3861e","system_id":"levelo_inurba_marseille","lat":43.27318,"lon":5.39084,"is_reserved":false,"is_disabled":false,"rental_uris":{"android":"levelo://app?vid=46ca7a5a-b63f-4a23-af18-d368d3c3861e","ios":"levelo://app?vid=46ca7a5a-b63f-4a23-af18-d368d3c3861e"},"vehicle_type_id":"4","last_reported":1730038101,"current_range_meters":32800,"station_id":"ce4bhgp2rcd13ifvqfe0","pricing_plan_id":"cebpf4jnsgd1na2vs0mg"},{"bike_id":"afcafc6c-ecc3-4f5c-a312-79b6f9633782","system_id":"levelo_inurba_marseille","lat":43.28415,"lon":5.34983,"is_reserved":false,"is_disabled":false,"rental_uris":{"android":"levelo://app?vid=afcafc6c-ecc3-4f5c-a312-79b6f9633782","ios":"levelo://app?vid=afcafc6c-ecc3-4f5c-a312-79b6f9633782"},"vehicle_type_id":"4","last_reported":1730038101,"current_range_meters":29600,"station_id":"ce4bhbh2rcd13ifvqepg","pricing_plan_id":"cebpf4jnsgd1na2vs0mg"},{"bike_id":"69f4165a-13a2-4bd8-b4d6-abfa25614867","system_id":"levelo_inurba_marseille","lat":43.26798,"lon":5.40259,"is_reserved":false,"is_disabled":false,"rental_uris":{"android":"levelo://app?vid=69f4165a-13a2-4bd8-b4d6-abfa25614867","ios":"levelo://app?vid=69f4165a-13a2-4bd8-b4d6-abfa25614867"},"vehicle_type_id":"4","last_reported":1730038101,"current_range_meters":38800,"station_id":"ce501612rcd8frsf0b60","pricing_plan_id":"cebpf4jnsgd1na2vs0mg"},{"bike_id":"e1b14ab4-2b76-420e-a174-7a1fd9099112","system_id":"levelo_inurba_marseille","lat":43.29913,"lon":5.37477,"is_reserved":false,"is_disabled":false,"rental_uris":{"android":"levelo://app?vid=e1b14ab4-2b76-420e-a174-7a1fd9099112","ios":"levelo://app?vid=e1b14ab4-2b76-420e-a174-7a1fd9099112"},"vehicle_type_id":"4","last_reported":1730038101,"current_range_meters":37600,"station_id":"ce4bgjh2rcd13ifvqbg0","pricing_plan_id":"cebpf4jnsgd1na2vs0mg"},{"bike_id":"556647e4-9c26-4576-bd8c-415461ddabd4","system_id":"levelo_inurba_marseille","lat":43.27562,"lon":5.38434,"is_reserved":false,"is_disabled":false,"rental_uris":{"android":"levelo://app?vid=556647e4-9c26-4576-bd8c-415461ddabd4","ios":"levelo://app?vid=556647e4-9c26-4576-bd8c-415461ddabd4"},"vehicle_type_id":"4","last_reported":1730038101,"current_range_meters":38800,"station_id":"ce4bhh92rcd13ifvqfi0","pricing_plan_id":"cebpf4jnsgd1na2vs0mg"},{"bike_id":"48660d12-eacc-4f93-a06c-04c2aa9e37e4","system_id":"levelo_inurba_marseille","lat":43.26802,"lon":5.40264,"is_reserved":false,"is_disabled":false,"rental_uris":{"android":"levelo://app?vid=48660d12-eacc-4f93-a06c-04c2aa9e37e4","ios":"levelo://app?vid=48660d12-eacc-4f93-a06c-04c2aa9e37e4"},"vehicle_type_id":"4","last_reported":1730038101,"current_range_meters":17600,"station_id":"ce501612rcd8frsf0b60","pricing_plan_id":"cebpf4jnsgd1na2vs0mg"},{"bike_id":"ca9c0d86-94d4-47f2-b6ab-72355598b38c","system_id":"levelo_inurba_marseille","lat":43.28418,"lon":5.34981,"is_reserved":false,"is_disabled":false,"rental_uris":{"android":"levelo://app?vid=ca9c0d86-94d4-47f2-b6ab-72355598b38c","ios":"levelo://app?vid=ca9c0d86-94d4-47f2-b6ab-72355598b38c"},"vehicle_type_id":"4","last_reported":1730038101,"current_range_meters":33600,"station_id":"ce4bhbh2rcd13ifvqepg","pricing_plan_id":"cebpf4jnsgd1na2vs0mg"},{"bike_id":"f3d5c86c-ab11-4ca3-aa72-c97ea732ed17","system_id":"levelo_inurba_marseille","lat":43.2733,"lon":5.39097,"is_reserved":false,"is_disabled":false,"rental_uris":{"android":"levelo://app?vid=f3d5c86c-ab11-4ca3-aa72-c97ea732ed17","ios":"levelo://app?vid=f3d5c86c-ab11-4ca3-aa72-c97ea732ed17"},"vehicle_type_id":"4","last_reported":1730038101,"current_range_meters":29600,"station_id":"ce4bhgp2rcd13ifvqfe0","pricing_plan_id":"cebpf4jnsgd1na2vs0mg"},{"bike_id":"3381cd79-1316-4c50-ad86-ee5056cd0e14","system_id":"levelo_inurba_marseille","lat":43.26061,"lon":5.39393,"is_reserved":false,"is_disabled":false,"rental_uris":{"android":"levelo://app?vid=3381cd79-1316-4c50-ad86-ee5056cd0e14","ios":"levelo://app?vid=3381cd79-1316-4c50-ad86-ee5056cd0e14"},"vehicle_type_id":"4","last_reported":1730038101,"current_range_meters":31200,"station_id":"ce4bhh92rcd13ifvqfj0","pricing_plan_id":"cebpf4jnsgd1na2vs0mg"},{"bike_id":"cba112a0-44f4-4f47-a8fa-15542b39a456","system_id":"levelo_inurba_marseille","lat":43.23193,"lon":5.35555,"is_reserved":false,"is_disabled":false,"rental_uris":{"android":"levelo://app?vid=cba112a0-44f4-4f47-a8fa-15542b39a456","ios":"levelo://app?vid=cba112a0-44f4-4f47-a8fa-15542b39a456"},"vehicle_type_id":"4","last_reported":1730038101,"current_range_meters":24800,"station_id":"ce4bhu92rcd13ifvqi70","pricing_plan_id":"cebpf4jnsgd1na2vs0mg"},{"bike_id":"4e3333ab-59b0-4f50-b119-280a4e2859f6","system_id":"levelo_inurba_marseille","lat":43.29569,"lon":5.37514,"is_reserved":false,"is_disabled":false,"rental_uris":{"android":"levelo://app?vid=4e3333ab-59b0-4f50-b119-280a4e2859f6","ios":"levelo://app?vid=4e3333ab-59b0-4f50-b119-280a4e2859f6"},"vehicle_type_id":"4","last_reported":1730038101,"current_range_meters":19200,"station_id":"ce4bgh92rcd13ifvqb50","pricing_plan_id":"cebpf4jnsgd1na2vs0mg"},{"bike_id":"96e8a04e-eaaa-4c54-b7b2-d27222ec8868","system_id":"levelo_inurba_marseille","lat":43.24998,"lon":5.38913,"is_reserved":false,"is_disabled":false,"rental_uris":{"android":"levelo://app?vid=96e8a04e-eaaa-4c54-b7b2-d27222ec8868","ios":"levelo://app?vid=96e8a04e-eaaa-4c54-b7b2-d27222ec8868"},"vehicle_type_id":"4","last_reported":1730038101,"current_range_meters":8800,"station_id":"ce4bhgp2rcd13ifvqfd0","pricing_plan_id":"cebpf4jnsgd1na2vs0mg"},{"bike_id":"d901d4c8-5277-43e4-be05-a3fbc1657e97","system_id":"levelo_inurba_marseille","lat":43.32657,"lon":5.40992,"is_reserved":false,"is_disabled":false,"rental_uris":{"android":"levelo://app?vid=d901d4c8-5277-43e4-be05-a3fbc1657e97","ios":"levelo://app?vid=d901d4c8-5277-43e4-be05-a3fbc1657e97"},"vehicle_type_id":"4","last_reported":1730038101,"current_range_meters":38800,"station_id":"ce4bhpp2rcd13ifvqhgg","pricing_plan_id":"cebpf4jnsgd1na2vs0mg"},{"bike_id":"335eec49-ecc1-4032-b2e5-2b1945acefb0","system_id":"levelo_inurba_marseille","lat":43.300936,"lon":5.390892,"is_reserved":false,"is_disabled":false,"rental_uris":{"android":"levelo://app?vid=335eec49-ecc1-4032-b2e5-2b1945acefb0","ios":"levelo://app?vid=335eec49-ecc1-4032-b2e5-2b1945acefb0"},"vehicle_type_id":"4","last_reported":1730038101,"current_range_meters":14800,"station_id":"ce4bh192rcd13ifvqdb0","pricing_plan_id":"cebpf4jnsgd1na2vs0mg"},{"bike_id":"2c09fb57-d6c5-4cee-ac64-e27454aca700","system_id":"levelo_inurba_marseille","lat":43.30348,"lon":5.39333,"is_reserved":false,"is_disabled":false,"rental_uris":{"android":"levelo://app?vid=2c09fb57-d6c5-4cee-ac64-e27454aca700","ios":"levelo://app?vid=2c09fb57-d6c5-4cee-ac64-e27454aca700"},"vehicle_type_id":"4","last_reported":1730038101,"current_range_meters":38400,"station_id":"ce4bgkh2rcd13ifvqbk0","pricing_plan_id":"cebpf4jnsgd1na2vs0mg"},{"bike_id":"2fe630f9-59ec-43a0-b554-98564f77cde5","system_id":"levelo_inurba_marseille","lat":43.28271,"lon":5.35067,"is_reserved":false,"is_disabled":false,"rental_uris":{"android":"levelo://app?vid=2fe630f9-59ec-43a0-b554-98564f77cde5","ios":"levelo://app?vid=2fe630f9-59ec-43a0-b554-98564f77cde5"},"vehicle_type_id":"4","last_reported":1730038101,"current_range_meters":16000,"station_id":"ce4bhbp2rcd13ifvqerg","pricing_plan_id":"cebpf4jnsgd1na2vs0mg"},{"bike_id":"a6d2a57d-0a81-46ef-b4c5-b15c9777c584","system_id":"levelo_inurba_marseille","lat":43.30429,"lon":5.38901,"is_reserved":false,"is_disabled":false,"rental_uris":{"android":"levelo://app?vid=a6d2a57d-0a81-46ef-b4c5-b15c9777c584","ios":"levelo://app?vid=a6d2a57d-0a81-46ef-b4c5-b15c9777c584"},"vehicle_type_id":"4","last_reported":1730038101,"current_range_meters":38800,"station_id":"ce4bgk12rcd13ifvqbi0","pricing_plan_id":"cebpf4jnsgd1na2vs0mg"},{"bike_id":"633bdd84-8a27-486c-8d5a-62bd9dd56f9f","system_id":"levelo_inurba_marseille","lat":43.26934,"lon":5.40244,"is_reserved":false,"is_disabled":false,"rental_uris":{"android":"levelo://app?vid=633bdd84-8a27-486c-8d5a-62bd9dd56f9f","ios":"levelo://app?vid=633bdd84-8a27-486c-8d5a-62bd9dd56f9f"},"vehicle_type_id":"4","last_reported":1730038101,"current_range_meters":38400,"station_id":"cjm6bp8fraef2m0cb0m0","pricing_plan_id":"cebpf4jnsgd1na2vs0mg"},{"bike_id":"92486913-3069-465a-9940-1f6062124ee2","system_id":"levelo_inurba_marseille","lat":43.29836,"lon":5.36264,"is_reserved":false,"is_disabled":false,"rental_uris":{"android":"levelo://app?vid=92486913-3069-465a-9940-1f6062124ee2","ios":"levelo://app?vid=92486913-3069-465a-9940-1f6062124ee2"},"vehicle_type_id":"4","last_reported":1730038101,"current_range_meters":38800,"station_id":"ce4bgpp2rcd13ifvqc3g","pricing_plan_id":"cebpf4jnsgd1na2vs0mg"},{"bike_id":"0c5cd99c-9f06-4e90-a5fc-6ff2c5bc4703","system_id":"levelo_inurba_marseille","lat":43.2693,"lon":5.38918,"is_reserved":false,"is_disabled":false,"rental_uris":{"android":"levelo://app?vid=0c5cd99c-9f06-4e90-a5fc-6ff2c5bc4703","ios":"levelo://app?vid=0c5cd99c-9f06-4e90-a5fc-6ff2c5bc4703"},"vehicle_type_id":"4","last_reported":1730038101,"current_range_meters":37600,"station_id":"ce4bhhh2rcd13ifvqfl0","pricing_plan_id":"cebpf4jnsgd1na2vs0mg"},{"bike_id":"23c5d7b7-57db-44da-99cb-79d34187b21f","system_id":"levelo_inurba_marseille","lat":43.29008,"lon":5.35614,"is_reserved":false,"is_disabled":false,"rental_uris":{"android":"levelo://app?vid=23c5d7b7-57db-44da-99cb-79d34187b21f","ios":"levelo://app?vid=23c5d7b7-57db-44da-99cb-79d34187b21f"},"vehicle_type_id":"4","last_reported":1730038101,"current_range_meters":38000,"station_id":"ce4bhb92rcd13ifvqen0","pricing_plan_id":"cebpf4jnsgd1na2vs0mg"},{"bike_id":"00a44bb9-fba8-4503-ad48-86fa55d0fc53","system_id":"levelo_inurba_marseille","lat":43.28103,"lon":5.37833,"is_reserved":false,"is_disabled":false,"rental_uris":{"android":"levelo://app?vid=00a44bb9-fba8-4503-ad48-86fa55d0fc53","ios":"levelo://app?vid=00a44bb9-fba8-4503-ad48-86fa55d0fc53"},"vehicle_type_id":"4","last_reported":1730038101,"current_range_meters":6800,"station_id":"ce4bha12rcd13ifvqee0","pricing_plan_id":"cebpf4jnsgd1na2vs0mg"},{"bike_id":"a402349c-2289-4512-8e06-ddedd18ccc18","system_id":"levelo_inurba_marseille","lat":43.27311,"lon":5.39113,"is_reserved":false,"is_disabled":false,"rental_uris":{"android":"levelo://app?vid=a402349c-2289-4512-8e06-ddedd18ccc18","ios":"levelo://app?vid=a402349c-2289-4512-8e06-ddedd18ccc18"},"vehicle_type_id":"4","last_reported":1730038101,"current_range_meters":12000,"station_id":"ce4bhgp2rcd13ifvqfe0","pricing_plan_id":"cebpf4jnsgd1na2vs0mg"},{"bike_id":"ff081f0c-ea21-431a-8d61-ad48db65fd3a","system_id":"levelo_inurba_marseille","lat":43.30353,"lon":5.41885,"is_reserved":false,"is_disabled":false,"rental_uris":{"android":"levelo://app?vid=ff081f0c-ea21-431a-8d61-ad48db65fd3a","ios":"levelo://app?vid=ff081f0c-ea21-431a-8d61-ad48db65fd3a"},"vehicle_type_id":"4","last_reported":1730038101,"current_range_meters":28800,"station_id":"ce4bhop2rcd13ifvqh7g","pricing_plan_id":"cebpf4jnsgd1na2vs0mg"},{"bike_id":"d1ab3f74-4dd0-4b92-b8bb-5df1308bfc6f","system_id":"levelo_inurba_marseille","lat":43.29781,"lon":5.37099,"is_reserved":false,"is_disabled":false,"rental_uris":{"android":"levelo://app?vid=d1ab3f74-4dd0-4b92-b8bb-5df1308bfc6f","ios":"levelo://app?vid=d1ab3f74-4dd0-4b92-b8bb-5df1308bfc6f"},"vehicle_type_id":"4","last_reported":1730038101,"current_range_meters":10000,"station_id":"ce4bgop2rcd13ifvqc1g","pricing_plan_id":"cebpf4jnsgd1na2vs0mg"},{"bike_id":"8ed0e600-52f7-4841-aa09-f2be0f0fd557","system_id":"levelo_inurba_marseille","lat":43.26803,"lon":5.40256,"is_reserved":false,"is_disabled":false,"rental_uris":{"android":"levelo://app?vid=8ed0e600-52f7-4841-aa09-f2be0f0fd557","ios":"levelo://app?vid=8ed0e600-52f7-4841-aa09-f2be0f0fd557"},"vehicle_type_id":"4","last_reported":1730038101,"current_range_meters":38800,"station_id":"ce501612rcd8frsf0b60","pricing_plan_id":"cebpf4jnsgd1na2vs0mg"},{"bike_id":"77bdee59-8b1a-4a67-a616-a0a4a9f1faaa","system_id":"levelo_inurba_marseille","lat":43.29178,"lon":5.37163,"is_reserved":false,"is_disabled":false,"rental_uris":{"android":"levelo://app?vid=77bdee59-8b1a-4a67-a616-a0a4a9f1faaa","ios":"levelo://app?vid=77bdee59-8b1a-4a67-a616-a0a4a9f1faaa"},"vehicle_type_id":"4","last_reported":1730038101,"current_range_meters":39200,"station_id":"ce4bha92rcd13ifvqeh0","pricing_plan_id":"cebpf4jnsgd1na2vs0mg"},{"bike_id":"fc878cdc-d263-458e-9517-004cdcbee913","system_id":"levelo_inurba_marseille","lat":43.2979,"lon":5.38104,"is_reserved":false,"is_disabled":false,"rental_uris":{"android":"levelo://app?vid=fc878cdc-d263-458e-9517-004cdcbee913","ios":"levelo://app?vid=fc878cdc-d263-458e-9517-004cdcbee913"},"vehicle_type_id":"4","last_reported":1730038101,"current_range_meters":38800,"station_id":"ce4bgip2rcd13ifvqbb0","pricing_plan_id":"cebpf4jnsgd1na2vs0mg"},{"bike_id":"36d17d26-e661-454a-8ae5-ec2865ae040a","system_id":"levelo_inurba_marseille","lat":43.27995,"lon":5.40013,"is_reserved":false,"is_disabled":false,"rental_uris":{"android":"levelo://app?vid=36d17d26-e661-454a-8ae5-ec2865ae040a","ios":"levelo://app?vid=36d17d26-e661-454a-8ae5-ec2865ae040a"},"vehicle_type_id":"4","last_reported":1730038101,"current_range_meters":8400,"station_id":"ce4bho92rcd13ifvqh4g","pricing_plan_id":"cebpf4jnsgd1na2vs0mg"},{"bike_id":"5de0a329-7698-4bce-b772-88bd5818048d","system_id":"levelo_inurba_marseille","lat":43.26067,"lon":5.39391,"is_reserved":false,"is_disabled":false,"rental_uris":{"android":"levelo://app?vid=5de0a329-7698-4bce-b772-88bd5818048d","ios":"levelo://app?vid=5de0a329-7698-4bce-b772-88bd5818048d"},"vehicle_type_id":"4","last_reported":1730038101,"current_range_meters":32000,"station_id":"ce4bhh92rcd13ifvqfj0","pricing_plan_id":"cebpf4jnsgd1na2vs0mg"},{"bike_id":"27f39214-437b-402f-ba70-e8fd46f4e41b","system_id":"levelo_inurba_marseille","lat":43.28486,"lon":5.36928,"is_reserved":false,"is_disabled":false,"rental_uris":{"android":"levelo://app?vid=27f39214-437b-402f-ba70-e8fd46f4e41b","ios":"levelo://app?vid=27f39214-437b-402f-ba70-e8fd46f4e41b"},"vehicle_type_id":"4","last_reported":1730038101,"current_range_meters":18800,"station_id":"","pricing_plan_id":"cebpf4jnsgd1na2vs0mg"},{"bike_id":"5ed72901-e44e-460e-9669-5f1f8a6d2f53","system_id":"levelo_inurba_marseille","lat":43.28652,"lon":5.44463,"is_reserved":false,"is_disabled":false,"rental_uris":{"android":"levelo://app?vid=5ed72901-e44e-460e-9669-5f1f8a6d2f53","ios":"levelo://app?vid=5ed72901-e44e-460e-9669-5f1f8a6d2f53"},"vehicle_type_id":"4","last_reported":1730038101,"current_range_meters":9200,"station_id":"","pricing_plan_id":"cebpf4jnsgd1na2vs0mg"},{"bike_id":"c9a59e1b-bab3-4a38-9847-a56d363b3049","system_id":"levelo_inurba_marseille","lat":43.28464,"lon":5.3842,"is_reserved":false,"is_disabled":false,"rental_uris":{"android":"levelo://app?vid=c9a59e1b-bab3-4a38-9847-a56d363b3049","ios":"levelo://app?vid=c9a59e1b-bab3-4a38-9847-a56d363b3049"},"vehicle_type_id":"4","last_reported":1730038101,"current_range_meters":10800,"station_id":"ce4bh512rcd13ifvqe3g","pricing_plan_id":"cebpf4jnsgd1na2vs0mg"},{"bike_id":"e7360508-6978-487a-a79b-5e2dad5d0ea3","system_id":"levelo_inurba_marseille","lat":43.22932,"lon":5.35374,"is_reserved":false,"is_disabled":false,"rental_uris":{"android":"levelo://app?vid=e7360508-6978-487a-a79b-5e2dad5d0ea3","ios":"levelo://app?vid=e7360508-6978-487a-a79b-5e2dad5d0ea3"},"vehicle_type_id":"4","last_reported":1730038101,"current_range_meters":24800,"station_id":"cpo3532slgdg3j2ikp40","pricing_plan_id":"cebpf4jnsgd1na2vs0mg"},{"bike_id":"72fff3d2-f3e9-45aa-ae6a-0949dc559f0e","system_id":"levelo_inurba_marseille","lat":43.27055,"lon":5.40261,"is_reserved":false,"is_disabled":false,"rental_uris":{"android":"levelo://app?vid=72fff3d2-f3e9-45aa-ae6a-0949dc559f0e","ios":"levelo://app?vid=72fff3d2-f3e9-45aa-ae6a-0949dc559f0e"},"vehicle_type_id":"4","last_reported":1730038101,"current_range_meters":33200,"station_id":"ce4bhk92rcd13ifvqgc0","pricing_plan_id":"cebpf4jnsgd1na2vs0mg"},{"bike_id":"1e7b6f17-4e08-497c-ba01-c6876a6ec097","system_id":"levelo_inurba_marseille","lat":43.27837,"lon":5.39213,"is_reserved":false,"is_disabled":false,"rental_uris":{"android":"levelo://app?vid=1e7b6f17-4e08-497c-ba01-c6876a6ec097","ios":"levelo://app?vid=1e7b6f17-4e08-497c-ba01-c6876a6ec097"},"vehicle_type_id":"4","last_reported":1730038101,"current_range_meters":30000,"station_id":"ce4bhjp2rcd13ifvqga0","pricing_plan_id":"cebpf4jnsgd1na2vs0mg"},{"bike_id":"6d93db74-657f-4f4f-be72-dbe9cbcf05bb","system_id":"levelo_inurba_marseille","lat":43.28415,"lon":5.34982,"is_reserved":false,"is_disabled":false,"rental_uris":{"android":"levelo://app?vid=6d93db74-657f-4f4f-be72-dbe9cbcf05bb","ios":"levelo://app?vid=6d93db74-657f-4f4f-be72-dbe9cbcf05bb"},"vehicle_type_id":"4","last_reported":1730038101,"current_range_meters":22800,"station_id":"ce4bhbh2rcd13ifvqepg","pricing_plan_id":"cebpf4jnsgd1na2vs0mg"},{"bike_id":"34c0b19e-e327-425b-bf09-25bec92dd9c4","system_id":"levelo_inurba_marseille","lat":43.293295,"lon":5.454689,"is_reserved":false,"is_disabled":false,"rental_uris":{"android":"levelo://app?vid=34c0b19e-e327-425b-bf09-25bec92dd9c4","ios":"levelo://app?vid=34c0b19e-e327-425b-bf09-25bec92dd9c4"},"vehicle_type_id":"4","last_reported":1730038101,"current_range_meters":4400,"station_id":"","pricing_plan_id":"cebpf4jnsgd1na2vs0mg"},{"bike_id":"4477c74a-7194-4d36-b421-970eb727bc6e","system_id":"levelo_inurba_marseille","lat":43.28356,"lon":5.38108,"is_reserved":false,"is_disabled":false,"rental_uris":{"android":"levelo://app?vid=4477c74a-7194-4d36-b421-970eb727bc6e","ios":"levelo://app?vid=4477c74a-7194-4d36-b421-970eb727bc6e"},"vehicle_type_id":"4","last_reported":1730038101,"current_range_meters":27200,"station_id":"ce4bh412rcd13ifvqdr0","pricing_plan_id":"cebpf4jnsgd1na2vs0mg"},{"bike_id":"34f93e00-5029-4642-b0c4-0b8938f16f5d","system_id":"levelo_inurba_marseille","lat":43.31354,"lon":5.36731,"is_reserved":false,"is_disabled":false,"rental_uris":{"android":"levelo://app?vid=34f93e00-5029-4642-b0c4-0b8938f16f5d","ios":"levelo://app?vid=34f93e00-5029-4642-b0c4-0b8938f16f5d"},"vehicle_type_id":"4","last_reported":1730038101,"current_range_meters":30800,"station_id":"ce4bgr92rcd13ifvqc6g","pricing_plan_id":"cebpf4jnsgd1na2vs0mg"},{"bike_id":"5913964e-e93c-4b5a-93c1-99994c33183c","system_id":"levelo_inurba_marseille","lat":43.248078,"lon":5.374623,"is_reserved":false,"is_disabled":false,"rental_uris":{"android":"levelo://app?vid=5913964e-e93c-4b5a-93c1-99994c33183c","ios":"levelo://app?vid=5913964e-e93c-4b5a-93c1-99994c33183c"},"vehicle_type_id":"4","last_reported":1730038101,"current_range_meters":10000,"station_id":"ce4bhgh2rcd13ifvqfb0","pricing_plan_id":"cebpf4jnsgd1na2vs0mg"},{"bike_id":"b19015df-d7f1-431e-ac48-b60ddefe24e8","system_id":"levelo_inurba_marseille","lat":43.27943,"lon":5.41048,"is_reserved":false,"is_disabled":false,"rental_uris":{"android":"levelo://app?vid=b19015df-d7f1-431e-ac48-b60ddefe24e8","ios":"levelo://app?vid=b19015df-d7f1-431e-ac48-b60ddefe24e8"},"vehicle_type_id":"4","last_reported":1730038101,"current_range_meters":6800,"station_id":"ce4bhnp2rcd13ifvqh0g","pricing_plan_id":"cebpf4jnsgd1na2vs0mg"},{"bike_id":"e16ba0fb-c8f9-4074-a1c8-ad626ad5602f","system_id":"levelo_inurba_marseille","lat":43.26945,"lon":5.40259,"is_reserved":false,"is_disabled":false,"rental_uris":{"android":"levelo://app?vid=e16ba0fb-c8f9-4074-a1c8-ad626ad5602f","ios":"levelo://app?vid=e16ba0fb-c8f9-4074-a1c8-ad626ad5602f"},"vehicle_type_id":"4","last_reported":1730038101,"current_range_meters":38400,"station_id":"cjm6bp8fraef2m0cb0m0","pricing_plan_id":"cebpf4jnsgd1na2vs0mg"},{"bike_id":"5f5d6975-b8a8-4ca9-923b-aef665246e27","system_id":"levelo_inurba_marseille","lat":43.260162,"lon":5.375274,"is_reserved":false,"is_disabled":false,"rental_uris":{"android":"levelo://app?vid=5f5d6975-b8a8-4ca9-923b-aef665246e27","ios":"levelo://app?vid=5f5d6975-b8a8-4ca9-923b-aef665246e27"},"vehicle_type_id":"4","last_reported":1730038101,"current_range_meters":24400,"station_id":"ce4bh292rcd13ifvqdf0","pricing_plan_id":"cebpf4jnsgd1na2vs0mg"},{"bike_id":"516d2c7e-30e2-429a-adec-fbbadb0d1d0b","system_id":"levelo_inurba_marseille","lat":43.28618,"lon":5.351,"is_reserved":false,"is_disabled":false,"rental_uris":{"android":"levelo://app?vid=516d2c7e-30e2-429a-adec-fbbadb0d1d0b","ios":"levelo://app?vid=516d2c7e-30e2-429a-adec-fbbadb0d1d0b"},"vehicle_type_id":"4","last_reported":1730038101,"current_range_meters":32400,"station_id":"ce4bhch2rcd13ifvqeug","pricing_plan_id":"cebpf4jnsgd1na2vs0mg"},{"bike_id":"4d7d64cb-4164-424b-a836-497b0f11cc8a","system_id":"levelo_inurba_marseille","lat":43.27171,"lon":5.4099,"is_reserved":false,"is_disabled":false,"rental_uris":{"android":"levelo://app?vid=4d7d64cb-4164-424b-a836-497b0f11cc8a","ios":"levelo://app?vid=4d7d64cb-4164-424b-a836-497b0f11cc8a"},"vehicle_type_id":"4","last_reported":1730038101,"current_range_meters":10000,"station_id":"ce4bhl12rcd13ifvqgf0","pricing_plan_id":"cebpf4jnsgd1na2vs0mg"},{"bike_id":"6eab45e1-878d-45f9-a8de-e42917679362","system_id":"levelo_inurba_marseille","lat":43.3013,"lon":5.39869,"is_reserved":false,"is_disabled":false,"rental_uris":{"android":"levelo://app?vid=6eab45e1-878d-45f9-a8de-e42917679362","ios":"levelo://app?vid=6eab45e1-878d-45f9-a8de-e42917679362"},"vehicle_type_id":"4","last_reported":1730038101,"current_range_meters":22000,"station_id":"ce4bh0h2rcd13ifvqd40","pricing_plan_id":"cebpf4jnsgd1na2vs0mg"},{"bike_id":"6875a1a6-32b9-4783-93f5-84a3a0c85f67","system_id":"levelo_inurba_marseille","lat":43.23069,"lon":5.35489,"is_reserved":false,"is_disabled":false,"rental_uris":{"android":"levelo://app?vid=6875a1a6-32b9-4783-93f5-84a3a0c85f67","ios":"levelo://app?vid=6875a1a6-32b9-4783-93f5-84a3a0c85f67"},"vehicle_type_id":"4","last_reported":1730038101,"current_range_meters":25200,"station_id":"cpo3342slgdg3j2ifvpg","pricing_plan_id":"cebpf4jnsgd1na2vs0mg"},{"bike_id":"4d119be0-f244-48af-924a-f5cd3481568e","system_id":"levelo_inurba_marseille","lat":43.30135,"lon":5.37414,"is_reserved":false,"is_disabled":false,"rental_uris":{"android":"levelo://app?vid=4d119be0-f244-48af-924a-f5cd3481568e","ios":"levelo://app?vid=4d119be0-f244-48af-924a-f5cd3481568e"},"vehicle_type_id":"4","last_reported":1730038101,"current_range_meters":37600,"station_id":"ce4bgs92rcd13ifvqcc0","pricing_plan_id":"cebpf4jnsgd1na2vs0mg"},{"bike_id":"3a3fc28a-c88c-4595-bd32-d24c86b4641f","system_id":"levelo_inurba_marseille","lat":43.3025,"lon":5.36958,"is_reserved":false,"is_disabled":false,"rental_uris":{"android":"levelo://app?vid=3a3fc28a-c88c-4595-bd32-d24c86b4641f","ios":"levelo://app?vid=3a3fc28a-c88c-4595-bd32-d24c86b4641f"},"vehicle_type_id":"4","last_reported":1730038101,"current_range_meters":7200,"station_id":"ce4bgqh2rcd13ifvqc5g","pricing_plan_id":"cebpf4jnsgd1na2vs0mg"},{"bike_id":"272108ab-c66d-4277-b942-346fbf20d819","system_id":"levelo_inurba_marseille","lat":43.30347,"lon":5.41883,"is_reserved":false,"is_disabled":false,"rental_uris":{"android":"levelo://app?vid=272108ab-c66d-4277-b942-346fbf20d819","ios":"levelo://app?vid=272108ab-c66d-4277-b942-346fbf20d819"},"vehicle_type_id":"4","last_reported":1730038101,"current_range_meters":8000,"station_id":"ce4bhop2rcd13ifvqh7g","pricing_plan_id":"cebpf4jnsgd1na2vs0mg"},{"bike_id":"9bf2ab5d-f85c-4d9a-a1f6-70dc559d4a7f","system_id":"levelo_inurba_marseille","lat":43.26024,"lon":5.37548,"is_reserved":false,"is_disabled":false,"rental_uris":{"android":"levelo://app?vid=9bf2ab5d-f85c-4d9a-a1f6-70dc559d4a7f","ios":"levelo://app?vid=9bf2ab5d-f85c-4d9a-a1f6-70dc559d4a7f"},"vehicle_type_id":"4","last_reported":1730038101,"current_range_meters":37600,"station_id":"ce4bhgh2rcd13ifvqfa0","pricing_plan_id":"cebpf4jnsgd1na2vs0mg"},{"bike_id":"8fbb3d87-cdca-4c4a-859f-e70dea3485a5","system_id":"levelo_inurba_marseille","lat":43.27484,"lon":5.4246,"is_reserved":false,"is_disabled":false,"rental_uris":{"android":"levelo://app?vid=8fbb3d87-cdca-4c4a-859f-e70dea3485a5","ios":"levelo://app?vid=8fbb3d87-cdca-4c4a-859f-e70dea3485a5"},"vehicle_type_id":"4","last_reported":1730038101,"current_range_meters":33200,"station_id":"ce4bhn92rcd13ifvqgrg","pricing_plan_id":"cebpf4jnsgd1na2vs0mg"},{"bike_id":"bf753f7d-144c-41f9-8ed7-88db1cf62d20","system_id":"levelo_inurba_marseille","lat":43.29165,"lon":5.37163,"is_reserved":false,"is_disabled":false,"rental_uris":{"android":"levelo://app?vid=bf753f7d-144c-41f9-8ed7-88db1cf62d20","ios":"levelo://app?vid=bf753f7d-144c-41f9-8ed7-88db1cf62d20"},"vehicle_type_id":"4","last_reported":1730038101,"current_range_meters":20400,"station_id":"ce4bha92rcd13ifvqeh0","pricing_plan_id":"cebpf4jnsgd1na2vs0mg"},{"bike_id":"2be9bc69-5576-493e-b388-d7931fb7b8fd","system_id":"levelo_inurba_marseille","lat":43.29521,"lon":5.39055,"is_reserved":false,"is_disabled":false,"rental_uris":{"android":"levelo://app?vid=2be9bc69-5576-493e-b388-d7931fb7b8fd","ios":"levelo://app?vid=2be9bc69-5576-493e-b388-d7931fb7b8fd"},"vehicle_type_id":"4","last_reported":1730038101,"current_range_meters":24800,"station_id":"ce4bh3p2rcd13ifvqdp0","pricing_plan_id":"cebpf4jnsgd1na2vs0mg"},{"bike_id":"2ced1d73-af18-4c86-9452-d3fb74b13b70","system_id":"levelo_inurba_marseille","lat":43.29608,"lon":5.38109,"is_reserved":false,"is_disabled":false,"rental_uris":{"android":"levelo://app?vid=2ced1d73-af18-4c86-9452-d3fb74b13b70","ios":"levelo://app?vid=2ced1d73-af18-4c86-9452-d3fb74b13b70"},"vehicle_type_id":"4","last_reported":1730038101,"current_range_meters":26000,"station_id":"ce4bgl12rcd13ifvqbo0","pricing_plan_id":"cebpf4jnsgd1na2vs0mg"},{"bike_id":"5337d091-ce0e-4a5e-9e1b-7b32c0fa943a","system_id":"levelo_inurba_marseille","lat":43.30089,"lon":5.39071,"is_reserved":false,"is_disabled":false,"rental_uris":{"android":"levelo://app?vid=5337d091-ce0e-4a5e-9e1b-7b32c0fa943a","ios":"levelo://app?vid=5337d091-ce0e-4a5e-9e1b-7b32c0fa943a"},"vehicle_type_id":"4","last_reported":1730038101,"current_range_meters":17600,"station_id":"ce4bh192rcd13ifvqdb0","pricing_plan_id":"cebpf4jnsgd1na2vs0mg"},{"bike_id":"cae5512b-eeb1-4b21-8d8f-d8841b2677f3","system_id":"levelo_inurba_marseille","lat":43.241825,"lon":5.397274,"is_reserved":false,"is_disabled":false,"rental_uris":{"android":"levelo://app?vid=cae5512b-eeb1-4b21-8d8f-d8841b2677f3","ios":"levelo://app?vid=cae5512b-eeb1-4b21-8d8f-d8841b2677f3"},"vehicle_type_id":"4","last_reported":1730038101,"current_range_meters":20000,"station_id":"ce4bhn12rcd13ifvqgpg","pricing_plan_id":"cebpf4jnsgd1na2vs0mg"},{"bike_id":"1386b891-06e0-464d-8fb3-c42e8dbec220","system_id":"levelo_inurba_marseille","lat":43.28409,"lon":5.34996,"is_reserved":false,"is_disabled":false,"rental_uris":{"android":"levelo://app?vid=1386b891-06e0-464d-8fb3-c42e8dbec220","ios":"levelo://app?vid=1386b891-06e0-464d-8fb3-c42e8dbec220"},"vehicle_type_id":"4","last_reported":1730038101,"current_range_meters":9200,"station_id":"ce4bhbh2rcd13ifvqepg","pricing_plan_id":"cebpf4jnsgd1na2vs0mg"},{"bike_id":"cd8988cf-34e0-4cd8-92c1-67d3cd8c964e","system_id":"levelo_inurba_marseille","lat":43.23959,"lon":5.3663,"is_reserved":false,"is_disabled":false,"rental_uris":{"android":"levelo://app?vid=cd8988cf-34e0-4cd8-92c1-67d3cd8c964e","ios":"levelo://app?vid=cd8988cf-34e0-4cd8-92c1-67d3cd8c964e"},"vehicle_type_id":"4","last_reported":1730038101,"current_range_meters":16400,"station_id":"ce4bhi12rcd13ifvqfp0","pricing_plan_id":"cebpf4jnsgd1na2vs0mg"},{"bike_id":"58bf05d7-0814-449c-ae98-94b44029fc0a","system_id":"levelo_inurba_marseille","lat":43.27833,"lon":5.39216,"is_reserved":false,"is_disabled":false,"rental_uris":{"android":"levelo://app?vid=58bf05d7-0814-449c-ae98-94b44029fc0a","ios":"levelo://app?vid=58bf05d7-0814-449c-ae98-94b44029fc0a"},"vehicle_type_id":"4","last_reported":1730038101,"current_range_meters":13600,"station_id":"ce4bhjp2rcd13ifvqga0","pricing_plan_id":"cebpf4jnsgd1na2vs0mg"},{"bike_id":"f9e24c3d-8618-449d-9ffe-3d34a3b95afa","system_id":"levelo_inurba_marseille","lat":43.28618,"lon":5.35107,"is_reserved":false,"is_disabled":false,"rental_uris":{"android":"levelo://app?vid=f9e24c3d-8618-449d-9ffe-3d34a3b95afa","ios":"levelo://app?vid=f9e24c3d-8618-449d-9ffe-3d34a3b95afa"},"vehicle_type_id":"4","last_reported":1730038101,"current_range_meters":27200,"station_id":"ce4bhch2rcd13ifvqeug","pricing_plan_id":"cebpf4jnsgd1na2vs0mg"},{"bike_id":"fdcd1d78-8f66-4941-a815-9564b6e1b739","system_id":"levelo_inurba_marseille","lat":43.29533,"lon":5.394,"is_reserved":false,"is_disabled":false,"rental_uris":{"android":"levelo://app?vid=fdcd1d78-8f66-4941-a815-9564b6e1b739","ios":"levelo://app?vid=fdcd1d78-8f66-4941-a815-9564b6e1b739"},"vehicle_type_id":"4","last_reported":1730038101,"current_range_meters":25200,"station_id":"ce4bh292rcd13ifvqdf0","pricing_plan_id":"cebpf4jnsgd1na2vs0mg"},{"bike_id":"ef136fa5-257b-4ee5-bd73-f0de7405e6ba","system_id":"levelo_inurba_marseille","lat":43.24538,"lon":5.39525,"is_reserved":false,"is_disabled":false,"rental_uris":{"android":"levelo://app?vid=ef136fa5-257b-4ee5-bd73-f0de7405e6ba","ios":"levelo://app?vid=ef136fa5-257b-4ee5-bd73-f0de7405e6ba"},"vehicle_type_id":"4","last_reported":1730038101,"current_range_meters":24800,"station_id":"ce4bhlp2rcd13ifvqgjg","pricing_plan_id":"cebpf4jnsgd1na2vs0mg"},{"bike_id":"ccb34791-ccc2-4912-b6b1-d0a9daca9da8","system_id":"levelo_inurba_marseille","lat":43.27215,"lon":5.39175,"is_reserved":false,"is_disabled":false,"rental_uris":{"android":"levelo://app?vid=ccb34791-ccc2-4912-b6b1-d0a9daca9da8","ios":"levelo://app?vid=ccb34791-ccc2-4912-b6b1-d0a9daca9da8"},"vehicle_type_id":"4","last_reported":1730038101,"current_range_meters":38000,"station_id":"ce4bhhp2rcd13ifvqfm0","pricing_plan_id":"cebpf4jnsgd1na2vs0mg"},{"bike_id":"65bbbc38-f821-4a59-ae0f-5a06f57c77e3","system_id":"levelo_inurba_marseille","lat":43.27807,"lon":5.40708,"is_reserved":false,"is_disabled":false,"rental_uris":{"android":"levelo://app?vid=65bbbc38-f821-4a59-ae0f-5a06f57c77e3","ios":"levelo://app?vid=65bbbc38-f821-4a59-ae0f-5a06f57c77e3"},"vehicle_type_id":"4","last_reported":1730038101,"current_range_meters":30800,"station_id":"ce4bhnh2rcd13ifvqgtg","pricing_plan_id":"cebpf4jnsgd1na2vs0mg"},{"bike_id":"9488ca84-aa5e-4311-bde9-38d634703444","system_id":"levelo_inurba_marseille","lat":43.32477,"lon":5.36558,"is_reserved":false,"is_disabled":false,"rental_uris":{"android":"levelo://app?vid=9488ca84-aa5e-4311-bde9-38d634703444","ios":"levelo://app?vid=9488ca84-aa5e-4311-bde9-38d634703444"},"vehicle_type_id":"4","last_reported":1730038101,"current_range_meters":38800,"station_id":"ce4bhs12rcd13ifvqhvg","pricing_plan_id":"cebpf4jnsgd1na2vs0mg"},{"bike_id":"5809a0b6-4a3c-4116-a401-5ea44791b160","system_id":"levelo_inurba_marseille","lat":43.26682,"lon":5.38268,"is_reserved":false,"is_disabled":false,"rental_uris":{"android":"levelo://app?vid=5809a0b6-4a3c-4116-a401-5ea44791b160","ios":"levelo://app?vid=5809a0b6-4a3c-4116-a401-5ea44791b160"},"vehicle_type_id":"4","last_reported":1730038101,"current_range_meters":28800,"station_id":"ce4bhg92rcd13ifvqf90","pricing_plan_id":"cebpf4jnsgd1na2vs0mg"},{"bike_id":"e5e817e3-05ee-42a0-97b8-792b18b2b2d7","system_id":"levelo_inurba_marseille","lat":43.32484,"lon":5.36574,"is_reserved":false,"is_disabled":false,"rental_uris":{"android":"levelo://app?vid=e5e817e3-05ee-42a0-97b8-792b18b2b2d7","ios":"levelo://app?vid=e5e817e3-05ee-42a0-97b8-792b18b2b2d7"},"vehicle_type_id":"4","last_reported":1730038101,"current_range_meters":24000,"station_id":"ce4bhs12rcd13ifvqhvg","pricing_plan_id":"cebpf4jnsgd1na2vs0mg"},{"bike_id":"e145adb6-5aa2-4b11-96d2-eb3a71fb3ad1","system_id":"levelo_inurba_marseille","lat":43.29838,"lon":5.36274,"is_reserved":false,"is_disabled":false,"rental_uris":{"android":"levelo://app?vid=e145adb6-5aa2-4b11-96d2-eb3a71fb3ad1","ios":"levelo://app?vid=e145adb6-5aa2-4b11-96d2-eb3a71fb3ad1"},"vehicle_type_id":"4","last_reported":1730038101,"current_range_meters":38800,"station_id":"ce4bgpp2rcd13ifvqc3g","pricing_plan_id":"cebpf4jnsgd1na2vs0mg"},{"bike_id":"d39756c5-3e64-4211-9f44-1d5c9d245905","system_id":"levelo_inurba_marseille","lat":43.28612,"lon":5.351,"is_reserved":false,"is_disabled":false,"rental_uris":{"android":"levelo://app?vid=d39756c5-3e64-4211-9f44-1d5c9d245905","ios":"levelo://app?vid=d39756c5-3e64-4211-9f44-1d5c9d245905"},"vehicle_type_id":"4","last_reported":1730038101,"current_range_meters":38800,"station_id":"ce4bhch2rcd13ifvqeug","pricing_plan_id":"cebpf4jnsgd1na2vs0mg"},{"bike_id":"601916c5-3274-4e01-863c-d96df39ce3b1","system_id":"levelo_inurba_marseille","lat":43.26562,"lon":5.39009,"is_reserved":false,"is_disabled":false,"rental_uris":{"android":"levelo://app?vid=601916c5-3274-4e01-863c-d96df39ce3b1","ios":"levelo://app?vid=601916c5-3274-4e01-863c-d96df39ce3b1"},"vehicle_type_id":"4","last_reported":1730038101,"current_range_meters":36400,"station_id":"ce4bhe12rcd13ifvqf30","pricing_plan_id":"cebpf4jnsgd1na2vs0mg"},{"bike_id":"1fafbe93-2ba4-4077-bfcf-7b3992b30a25","system_id":"levelo_inurba_marseille","lat":43.29552,"lon":5.42283,"is_reserved":false,"is_disabled":false,"rental_uris":{"android":"levelo://app?vid=1fafbe93-2ba4-4077-bfcf-7b3992b30a25","ios":"levelo://app?vid=1fafbe93-2ba4-4077-bfcf-7b3992b30a25"},"vehicle_type_id":"4","last_reported":1730038101,"current_range_meters":38800,"station_id":"ce4bhph2rcd13ifvqhdg","pricing_plan_id":"cebpf4jnsgd1na2vs0mg"},{"bike_id":"22ec0ce8-1477-4f5a-89ed-8ecb85facd8a","system_id":"levelo_inurba_marseille","lat":43.28099,"lon":5.3784,"is_reserved":false,"is_disabled":false,"rental_uris":{"android":"levelo://app?vid=22ec0ce8-1477-4f5a-89ed-8ecb85facd8a","ios":"levelo://app?vid=22ec0ce8-1477-4f5a-89ed-8ecb85facd8a"},"vehicle_type_id":"4","last_reported":1730038101,"current_range_meters":32800,"station_id":"ce4bha12rcd13ifvqee0","pricing_plan_id":"cebpf4jnsgd1na2vs0mg"},{"bike_id":"eaf0b3f1-8a41-427a-b224-9fe6f602051b","system_id":"levelo_inurba_marseille","lat":43.29303,"lon":5.37455,"is_reserved":false,"is_disabled":false,"rental_uris":{"android":"levelo://app?vid=eaf0b3f1-8a41-427a-b224-9fe6f602051b","ios":"levelo://app?vid=eaf0b3f1-8a41-427a-b224-9fe6f602051b"},"vehicle_type_id":"4","last_reported":1730038101,"current_range_meters":38800,"station_id":"ce4bgi12rcd13ifvqb70","pricing_plan_id":"cebpf4jnsgd1na2vs0mg"},{"bike_id":"04990240-91ff-43ce-b5da-8726796f6318","system_id":"levelo_inurba_marseille","lat":43.27418,"lon":5.39416,"is_reserved":false,"is_disabled":false,"rental_uris":{"android":"levelo://app?vid=04990240-91ff-43ce-b5da-8726796f6318","ios":"levelo://app?vid=04990240-91ff-43ce-b5da-8726796f6318"},"vehicle_type_id":"4","last_reported":1730038101,"current_range_meters":7200,"station_id":"ce4bhdp2rcd13ifvqf20","pricing_plan_id":"cebpf4jnsgd1na2vs0mg"},{"bike_id":"e113f747-4daa-44f7-a218-9e030daa2565","system_id":"levelo_inurba_marseille","lat":43.32105,"lon":5.36773,"is_reserved":false,"is_disabled":false,"rental_uris":{"android":"levelo://app?vid=e113f747-4daa-44f7-a218-9e030daa2565","ios":"levelo://app?vid=e113f747-4daa-44f7-a218-9e030daa2565"},"vehicle_type_id":"4","last_reported":1730038101,"current_range_meters":26000,"station_id":"ce4bhrh2rcd13ifvqhug","pricing_plan_id":"cebpf4jnsgd1na2vs0mg"},{"bike_id":"5ec09d5b-d956-4533-93cc-842956bdf7a3","system_id":"levelo_inurba_marseille","lat":43.23965,"lon":5.36628,"is_reserved":false,"is_disabled":false,"rental_uris":{"android":"levelo://app?vid=5ec09d5b-d956-4533-93cc-842956bdf7a3","ios":"levelo://app?vid=5ec09d5b-d956-4533-93cc-842956bdf7a3"},"vehicle_type_id":"4","last_reported":1730038101,"current_range_meters":4000,"station_id":"ce4bhi12rcd13ifvqfp0","pricing_plan_id":"cebpf4jnsgd1na2vs0mg"},{"bike_id":"9fd56fad-5f3d-42b4-b491-7b57b76bc0cf","system_id":"levelo_inurba_marseille","lat":43.27816,"lon":5.40717,"is_reserved":false,"is_disabled":false,"rental_uris":{"android":"levelo://app?vid=9fd56fad-5f3d-42b4-b491-7b57b76bc0cf","ios":"levelo://app?vid=9fd56fad-5f3d-42b4-b491-7b57b76bc0cf"},"vehicle_type_id":"4","last_reported":1730038101,"current_range_meters":22800,"station_id":"ce4bhnh2rcd13ifvqgtg","pricing_plan_id":"cebpf4jnsgd1na2vs0mg"},{"bike_id":"0a0cae3f-87cd-4945-9776-ef285d024a56","system_id":"levelo_inurba_marseille","lat":43.30776,"lon":5.37656,"is_reserved":false,"is_disabled":false,"rental_uris":{"android":"levelo://app?vid=0a0cae3f-87cd-4945-9776-ef285d024a56","ios":"levelo://app?vid=0a0cae3f-87cd-4945-9776-ef285d024a56"},"vehicle_type_id":"4","last_reported":1730038101,"current_range_meters":14400,"station_id":"ce4bgv92rcd13ifvqcq0","pricing_plan_id":"cebpf4jnsgd1na2vs0mg"},{"bike_id":"b74ec415-3b01-4bbe-95ce-e44ed8a199fb","system_id":"levelo_inurba_marseille","lat":43.27371,"lon":5.36266,"is_reserved":false,"is_disabled":false,"rental_uris":{"android":"levelo://app?vid=b74ec415-3b01-4bbe-95ce-e44ed8a199fb","ios":"levelo://app?vid=b74ec415-3b01-4bbe-95ce-e44ed8a199fb"},"vehicle_type_id":"4","last_reported":1730038101,"current_range_meters":38400,"station_id":"ce4bhbh2rcd13ifvqeo0","pricing_plan_id":"cebpf4jnsgd1na2vs0mg"},{"bike_id":"f7c6796a-94a1-470a-b2a7-ab81b364b766","system_id":"levelo_inurba_marseille","lat":43.31121,"lon":5.37762,"is_reserved":false,"is_disabled":false,"rental_uris":{"android":"levelo://app?vid=f7c6796a-94a1-470a-b2a7-ab81b364b766","ios":"levelo://app?vid=f7c6796a-94a1-470a-b2a7-ab81b364b766"},"vehicle_type_id":"4","last_reported":1730038101,"current_range_meters":27200,"station_id":"ce4bgt92rcd13ifvqcg0","pricing_plan_id":"cebpf4jnsgd1na2vs0mg"},{"bike_id":"0638c0d6-e592-4ce2-8b9f-449ee85c4f80","system_id":"levelo_inurba_marseille","lat":43.25574,"lon":5.38223,"is_reserved":false,"is_disabled":false,"rental_uris":{"android":"levelo://app?vid=0638c0d6-e592-4ce2-8b9f-449ee85c4f80","ios":"levelo://app?vid=0638c0d6-e592-4ce2-8b9f-449ee85c4f80"},"vehicle_type_id":"4","last_reported":1730038101,"current_range_meters":25600,"station_id":"ce4bhih2rcd13ifvqfs0","pricing_plan_id":"cebpf4jnsgd1na2vs0mg"},{"bike_id":"76655054-c5bb-403b-83de-851da69c462b","system_id":"levelo_inurba_marseille","lat":43.30412,"lon":5.4128,"is_reserved":false,"is_disabled":false,"rental_uris":{"android":"levelo://app?vid=76655054-c5bb-403b-83de-851da69c462b","ios":"levelo://app?vid=76655054-c5bb-403b-83de-851da69c462b"},"vehicle_type_id":"4","last_reported":1730038101,"current_range_meters":26800,"station_id":"ce4bhop2rcd13ifvqh8g","pricing_plan_id":"cebpf4jnsgd1na2vs0mg"},{"bike_id":"4edede36-b3e0-49b6-8588-44edbb653aeb","system_id":"levelo_inurba_marseille","lat":43.29226,"lon":5.3607,"is_reserved":false,"is_disabled":false,"rental_uris":{"android":"levelo://app?vid=4edede36-b3e0-49b6-8588-44edbb653aeb","ios":"levelo://app?vid=4edede36-b3e0-49b6-8588-44edbb653aeb"},"vehicle_type_id":"4","last_reported":1730038101,"current_range_meters":38800,"station_id":"ce4bhbh2rcd13ifvqeqg","pricing_plan_id":"cebpf4jnsgd1na2vs0mg"},{"bike_id":"d7ff7165-6d5c-4f76-865c-b2ea1a2a3c7a","system_id":"levelo_inurba_marseille","lat":43.27496,"lon":5.42449,"is_reserved":false,"is_disabled":false,"rental_uris":{"android":"levelo://app?vid=d7ff7165-6d5c-4f76-865c-b2ea1a2a3c7a","ios":"levelo://app?vid=d7ff7165-6d5c-4f76-865c-b2ea1a2a3c7a"},"vehicle_type_id":"4","last_reported":1730038101,"current_range_meters":38800,"station_id":"ce4bhn92rcd13ifvqgrg","pricing_plan_id":"cebpf4jnsgd1na2vs0mg"},{"bike_id":"33a6c2c5-b377-495c-a8bd-771ab1db77e9","system_id":"levelo_inurba_marseille","lat":43.29851,"lon":5.36289,"is_reserved":false,"is_disabled":false,"rental_uris":{"android":"levelo://app?vid=33a6c2c5-b377-495c-a8bd-771ab1db77e9","ios":"levelo://app?vid=33a6c2c5-b377-495c-a8bd-771ab1db77e9"},"vehicle_type_id":"4","last_reported":1730038101,"current_range_meters":31200,"station_id":"ce4bgpp2rcd13ifvqc3g","pricing_plan_id":"cebpf4jnsgd1na2vs0mg"},{"bike_id":"da41005b-3fbd-4389-9128-80ea7e3c96a4","system_id":"levelo_inurba_marseille","lat":43.26947,"lon":5.38636,"is_reserved":false,"is_disabled":false,"rental_uris":{"android":"levelo://app?vid=da41005b-3fbd-4389-9128-80ea7e3c96a4","ios":"levelo://app?vid=da41005b-3fbd-4389-9128-80ea7e3c96a4"},"vehicle_type_id":"4","last_reported":1730038101,"current_range_meters":37600,"station_id":"ce4bhh92rcd13ifvqfh0","pricing_plan_id":"cebpf4jnsgd1na2vs0mg"},{"bike_id":"263f93c9-144a-4508-b60e-cbaf71ba2571","system_id":"levelo_inurba_marseille","lat":43.24191,"lon":5.39729,"is_reserved":false,"is_disabled":false,"rental_uris":{"android":"levelo://app?vid=263f93c9-144a-4508-b60e-cbaf71ba2571","ios":"levelo://app?vid=263f93c9-144a-4508-b60e-cbaf71ba2571"},"vehicle_type_id":"4","last_reported":1730038101,"current_range_meters":36800,"station_id":"ce4bhn12rcd13ifvqgpg","pricing_plan_id":"cebpf4jnsgd1na2vs0mg"},{"bike_id":"76055501-39fb-4f8a-85d9-54343636c378","system_id":"levelo_inurba_marseille","lat":43.28476,"lon":5.38426,"is_reserved":false,"is_disabled":false,"rental_uris":{"android":"levelo://app?vid=76055501-39fb-4f8a-85d9-54343636c378","ios":"levelo://app?vid=76055501-39fb-4f8a-85d9-54343636c378"},"vehicle_type_id":"4","last_reported":1730038101,"current_range_meters":28400,"station_id":"ce4bh512rcd13ifvqe3g","pricing_plan_id":"cebpf4jnsgd1na2vs0mg"},{"bike_id":"4d49d52d-785d-411e-b344-5872062c1849","system_id":"levelo_inurba_marseille","lat":43.23049,"lon":5.35489,"is_reserved":false,"is_disabled":false,"rental_uris":{"android":"levelo://app?vid=4d49d52d-785d-411e-b344-5872062c1849","ios":"levelo://app?vid=4d49d52d-785d-411e-b344-5872062c1849"},"vehicle_type_id":"4","last_reported":1730038101,"current_range_meters":24800,"station_id":"cpo3342slgdg3j2ifvpg","pricing_plan_id":"cebpf4jnsgd1na2vs0mg"},{"bike_id":"877858f1-59bf-454c-ab39-1db982b681d3","system_id":"levelo_inurba_marseille","lat":43.296875,"lon":5.37921,"is_reserved":false,"is_disabled":false,"rental_uris":{"android":"levelo://app?vid=877858f1-59bf-454c-ab39-1db982b681d3","ios":"levelo://app?vid=877858f1-59bf-454c-ab39-1db982b681d3"},"vehicle_type_id":"4","last_reported":1730038101,"current_range_meters":34000,"station_id":"","pricing_plan_id":"cebpf4jnsgd1na2vs0mg"},{"bike_id":"ebe4e8e9-1711-4cda-90ff-02c36befaedf","system_id":"levelo_inurba_marseille","lat":43.26195,"lon":5.37446,"is_reserved":false,"is_disabled":false,"rental_uris":{"android":"levelo://app?vid=ebe4e8e9-1711-4cda-90ff-02c36befaedf","ios":"levelo://app?vid=ebe4e8e9-1711-4cda-90ff-02c36befaedf"},"vehicle_type_id":"4","last_reported":1730038101,"current_range_meters":25600,"station_id":"ce4bhgp2rcd13ifvqfc0","pricing_plan_id":"cebpf4jnsgd1na2vs0mg"},{"bike_id":"fdb7a2ea-1502-497e-9330-45cbda59e4b8","system_id":"levelo_inurba_marseille","lat":43.25932,"lon":5.40907,"is_reserved":false,"is_disabled":false,"rental_uris":{"android":"levelo://app?vid=fdb7a2ea-1502-497e-9330-45cbda59e4b8","ios":"levelo://app?vid=fdb7a2ea-1502-497e-9330-45cbda59e4b8"},"vehicle_type_id":"4","last_reported":1730038101,"current_range_meters":38000,"station_id":"ce4bhm92rcd13ifvqglg","pricing_plan_id":"cebpf4jnsgd1na2vs0mg"},{"bike_id":"66573150-901d-4315-999f-1bdf296e6efc","system_id":"levelo_inurba_marseille","lat":43.28842,"lon":5.35856,"is_reserved":false,"is_disabled":false,"rental_uris":{"android":"levelo://app?vid=66573150-901d-4315-999f-1bdf296e6efc","ios":"levelo://app?vid=66573150-901d-4315-999f-1bdf296e6efc"},"vehicle_type_id":"4","last_reported":1730038101,"current_range_meters":38800,"station_id":"ce4bhb12rcd13ifvqem0","pricing_plan_id":"cebpf4jnsgd1na2vs0mg"},{"bike_id":"e054b74b-6cfa-4c56-9a30-1c18a6abb467","system_id":"levelo_inurba_marseille","lat":43.29575,"lon":5.37506,"is_reserved":false,"is_disabled":false,"rental_uris":{"android":"levelo://app?vid=e054b74b-6cfa-4c56-9a30-1c18a6abb467","ios":"levelo://app?vid=e054b74b-6cfa-4c56-9a30-1c18a6abb467"},"vehicle_type_id":"4","last_reported":1730038101,"current_range_meters":38000,"station_id":"ce4bgh92rcd13ifvqb50","pricing_plan_id":"cebpf4jnsgd1na2vs0mg"},{"bike_id":"a67a580c-521c-43da-981f-297ad02a30db","system_id":"levelo_inurba_marseille","lat":43.28424,"lon":5.34987,"is_reserved":false,"is_disabled":false,"rental_uris":{"android":"levelo://app?vid=a67a580c-521c-43da-981f-297ad02a30db","ios":"levelo://app?vid=a67a580c-521c-43da-981f-297ad02a30db"},"vehicle_type_id":"4","last_reported":1730038101,"current_range_meters":10800,"station_id":"ce4bhbh2rcd13ifvqepg","pricing_plan_id":"cebpf4jnsgd1na2vs0mg"},{"bike_id":"8e05c1c9-c561-470b-83c7-44b67333075d","system_id":"levelo_inurba_marseille","lat":43.29274,"lon":5.3845,"is_reserved":false,"is_disabled":false,"rental_uris":{"android":"levelo://app?vid=8e05c1c9-c561-470b-83c7-44b67333075d","ios":"levelo://app?vid=8e05c1c9-c561-470b-83c7-44b67333075d"},"vehicle_type_id":"4","last_reported":1730038101,"current_range_meters":36800,"station_id":"ce4bh692rcd13ifvqea0","pricing_plan_id":"cebpf4jnsgd1na2vs0mg"},{"bike_id":"863e3f57-878e-4383-97e3-2f6936cd42ee","system_id":"levelo_inurba_marseille","lat":43.2655,"lon":5.37282,"is_reserved":false,"is_disabled":false,"rental_uris":{"android":"levelo://app?vid=863e3f57-878e-4383-97e3-2f6936cd42ee","ios":"levelo://app?vid=863e3f57-878e-4383-97e3-2f6936cd42ee"},"vehicle_type_id":"4","last_reported":1730038101,"current_range_meters":25600,"station_id":"ce4bhg12rcd13ifvqf70","pricing_plan_id":"cebpf4jnsgd1na2vs0mg"},{"bike_id":"618a1dca-35f9-4a03-9e8a-d8ff55bd9493","system_id":"levelo_inurba_marseille","lat":43.26029,"lon":5.37544,"is_reserved":false,"is_disabled":false,"rental_uris":{"android":"levelo://app?vid=618a1dca-35f9-4a03-9e8a-d8ff55bd9493","ios":"levelo://app?vid=618a1dca-35f9-4a03-9e8a-d8ff55bd9493"},"vehicle_type_id":"4","last_reported":1730038101,"current_range_meters":38000,"station_id":"ce4bhgh2rcd13ifvqfa0","pricing_plan_id":"cebpf4jnsgd1na2vs0mg"},{"bike_id":"c6408af5-7431-4d42-8163-501b18da2dec","system_id":"levelo_inurba_marseille","lat":43.245749,"lon":5.390321,"is_reserved":false,"is_disabled":false,"rental_uris":{"android":"levelo://app?vid=c6408af5-7431-4d42-8163-501b18da2dec","ios":"levelo://app?vid=c6408af5-7431-4d42-8163-501b18da2dec"},"vehicle_type_id":"4","last_reported":1730038101,"current_range_meters":12400,"station_id":"ce4bhn12rcd13ifvqgqg","pricing_plan_id":"cebpf4jnsgd1na2vs0mg"},{"bike_id":"488036ca-7994-4e23-a5d9-e4b3ac45f05e","system_id":"levelo_inurba_marseille","lat":43.29174,"lon":5.3716,"is_reserved":false,"is_disabled":false,"rental_uris":{"android":"levelo://app?vid=488036ca-7994-4e23-a5d9-e4b3ac45f05e","ios":"levelo://app?vid=488036ca-7994-4e23-a5d9-e4b3ac45f05e"},"vehicle_type_id":"4","last_reported":1730038101,"current_range_meters":38000,"station_id":"ce4bha92rcd13ifvqeh0","pricing_plan_id":"cebpf4jnsgd1na2vs0mg"},{"bike_id":"8d1224ea-8c67-414f-8e8e-8dff85dd0343","system_id":"levelo_inurba_marseille","lat":43.24999,"lon":5.3893,"is_reserved":false,"is_disabled":false,"rental_uris":{"android":"levelo://app?vid=8d1224ea-8c67-414f-8e8e-8dff85dd0343","ios":"levelo://app?vid=8d1224ea-8c67-414f-8e8e-8dff85dd0343"},"vehicle_type_id":"4","last_reported":1730038101,"current_range_meters":36800,"station_id":"ce4bhgp2rcd13ifvqfd0","pricing_plan_id":"cebpf4jnsgd1na2vs0mg"},{"bike_id":"9befed88-9f8c-464c-b07b-093bd97066bb","system_id":"levelo_inurba_marseille","lat":43.29805,"lon":5.37136,"is_reserved":false,"is_disabled":false,"rental_uris":{"android":"levelo://app?vid=9befed88-9f8c-464c-b07b-093bd97066bb","ios":"levelo://app?vid=9befed88-9f8c-464c-b07b-093bd97066bb"},"vehicle_type_id":"4","last_reported":1730038101,"current_range_meters":19600,"station_id":"","pricing_plan_id":"cebpf4jnsgd1na2vs0mg"},{"bike_id":"f37e3b02-a49c-4c4e-b112-f9c8c24edf90","system_id":"levelo_inurba_marseille","lat":43.2319,"lon":5.35552,"is_reserved":false,"is_disabled":false,"rental_uris":{"android":"levelo://app?vid=f37e3b02-a49c-4c4e-b112-f9c8c24edf90","ios":"levelo://app?vid=f37e3b02-a49c-4c4e-b112-f9c8c24edf90"},"vehicle_type_id":"4","last_reported":1730038101,"current_range_meters":16400,"station_id":"ce4bhu92rcd13ifvqi70","pricing_plan_id":"cebpf4jnsgd1na2vs0mg"},{"bike_id":"601b34eb-bb27-49aa-bc78-4cf12d6bde95","system_id":"levelo_inurba_marseille","lat":43.28268,"lon":5.35075,"is_reserved":false,"is_disabled":false,"rental_uris":{"android":"levelo://app?vid=601b34eb-bb27-49aa-bc78-4cf12d6bde95","ios":"levelo://app?vid=601b34eb-bb27-49aa-bc78-4cf12d6bde95"},"vehicle_type_id":"4","last_reported":1730038101,"current_range_meters":26000,"station_id":"ce4bhbp2rcd13ifvqerg","pricing_plan_id":"cebpf4jnsgd1na2vs0mg"},{"bike_id":"33997266-224b-4d06-8495-99ed3e655c49","system_id":"levelo_inurba_marseille","lat":43.29978,"lon":5.37178,"is_reserved":false,"is_disabled":false,"rental_uris":{"android":"levelo://app?vid=33997266-224b-4d06-8495-99ed3e655c49","ios":"levelo://app?vid=33997266-224b-4d06-8495-99ed3e655c49"},"vehicle_type_id":"4","last_reported":1730038101,"current_range_meters":32800,"station_id":"ce4bgr92rcd13ifvqc7g","pricing_plan_id":"cebpf4jnsgd1na2vs0mg"},{"bike_id":"5c8d47df-cace-44d5-9922-d4ea86fc841f","system_id":"levelo_inurba_marseille","lat":43.23957,"lon":5.36626,"is_reserved":false,"is_disabled":false,"rental_uris":{"android":"levelo://app?vid=5c8d47df-cace-44d5-9922-d4ea86fc841f","ios":"levelo://app?vid=5c8d47df-cace-44d5-9922-d4ea86fc841f"},"vehicle_type_id":"4","last_reported":1730038101,"current_range_meters":37600,"station_id":"ce4bhi12rcd13ifvqfp0","pricing_plan_id":"cebpf4jnsgd1na2vs0mg"},{"bike_id":"872bf1d7-f852-4002-8545-4ba28e44ca4c","system_id":"levelo_inurba_marseille","lat":43.27494,"lon":5.42454,"is_reserved":false,"is_disabled":false,"rental_uris":{"android":"levelo://app?vid=872bf1d7-f852-4002-8545-4ba28e44ca4c","ios":"levelo://app?vid=872bf1d7-f852-4002-8545-4ba28e44ca4c"},"vehicle_type_id":"4","last_reported":1730038101,"current_range_meters":24400,"station_id":"ce4bhn92rcd13ifvqgrg","pricing_plan_id":"cebpf4jnsgd1na2vs0mg"},{"bike_id":"7c415667-afd5-4e51-88b5-a0f16e35d58c","system_id":"levelo_inurba_marseille","lat":43.27489,"lon":5.42462,"is_reserved":false,"is_disabled":false,"rental_uris":{"android":"levelo://app?vid=7c415667-afd5-4e51-88b5-a0f16e35d58c","ios":"levelo://app?vid=7c415667-afd5-4e51-88b5-a0f16e35d58c"},"vehicle_type_id":"4","last_reported":1730038101,"current_range_meters":27200,"station_id":"ce4bhn92rcd13ifvqgrg","pricing_plan_id":"cebpf4jnsgd1na2vs0mg"},{"bike_id":"63dffe58-b321-4992-b66b-9f28a3e3e3b4","system_id":"levelo_inurba_marseille","lat":43.29957,"lon":5.41313,"is_reserved":false,"is_disabled":false,"rental_uris":{"android":"levelo://app?vid=63dffe58-b321-4992-b66b-9f28a3e3e3b4","ios":"levelo://app?vid=63dffe58-b321-4992-b66b-9f28a3e3e3b4"},"vehicle_type_id":"4","last_reported":1730038101,"current_range_meters":39200,"station_id":"ce4bhp12rcd13ifvqh9g","pricing_plan_id":"cebpf4jnsgd1na2vs0mg"},{"bike_id":"a3e0d9da-5427-4778-8249-427ccd80d981","system_id":"levelo_inurba_marseille","lat":43.29551,"lon":5.42283,"is_reserved":false,"is_disabled":false,"rental_uris":{"android":"levelo://app?vid=a3e0d9da-5427-4778-8249-427ccd80d981","ios":"levelo://app?vid=a3e0d9da-5427-4778-8249-427ccd80d981"},"vehicle_type_id":"4","last_reported":1730038101,"current_range_meters":38800,"station_id":"ce4bhph2rcd13ifvqhdg","pricing_plan_id":"cebpf4jnsgd1na2vs0mg"},{"bike_id":"b3395865-638c-409f-8ba5-b009807c2e9a","system_id":"levelo_inurba_marseille","lat":43.29933,"lon":5.36553,"is_reserved":false,"is_disabled":false,"rental_uris":{"android":"levelo://app?vid=b3395865-638c-409f-8ba5-b009807c2e9a","ios":"levelo://app?vid=b3395865-638c-409f-8ba5-b009807c2e9a"},"vehicle_type_id":"4","last_reported":1730038101,"current_range_meters":36000,"station_id":"ce4bgm92rcd13ifvqbr0","pricing_plan_id":"cebpf4jnsgd1na2vs0mg"},{"bike_id":"fc7a8f21-cd61-4765-bae7-33c8d4a0a3c0","system_id":"levelo_inurba_marseille","lat":43.23966,"lon":5.36632,"is_reserved":false,"is_disabled":false,"rental_uris":{"android":"levelo://app?vid=fc7a8f21-cd61-4765-bae7-33c8d4a0a3c0","ios":"levelo://app?vid=fc7a8f21-cd61-4765-bae7-33c8d4a0a3c0"},"vehicle_type_id":"4","last_reported":1730038101,"current_range_meters":24000,"station_id":"ce4bhi12rcd13ifvqfp0","pricing_plan_id":"cebpf4jnsgd1na2vs0mg"},{"bike_id":"bd18d8de-434e-4e40-910d-cc274a75664c","system_id":"levelo_inurba_marseille","lat":43.28267,"lon":5.35075,"is_reserved":false,"is_disabled":false,"rental_uris":{"android":"levelo://app?vid=bd18d8de-434e-4e40-910d-cc274a75664c","ios":"levelo://app?vid=bd18d8de-434e-4e40-910d-cc274a75664c"},"vehicle_type_id":"4","last_reported":1730038101,"current_range_meters":19600,"station_id":"ce4bhbp2rcd13ifvqerg","pricing_plan_id":"cebpf4jnsgd1na2vs0mg"},{"bike_id":"ac9c73bc-e256-4262-8461-8889ed8fa717","system_id":"levelo_inurba_marseille","lat":43.23061,"lon":5.35491,"is_reserved":false,"is_disabled":false,"rental_uris":{"android":"levelo://app?vid=ac9c73bc-e256-4262-8461-8889ed8fa717","ios":"levelo://app?vid=ac9c73bc-e256-4262-8461-8889ed8fa717"},"vehicle_type_id":"4","last_reported":1730038101,"current_range_meters":14800,"station_id":"cpo3342slgdg3j2ifvpg","pricing_plan_id":"cebpf4jnsgd1na2vs0mg"},{"bike_id":"27f930f3-ca7c-4a0e-b174-db23700fbe27","system_id":"levelo_inurba_marseille","lat":43.29845,"lon":5.36277,"is_reserved":false,"is_disabled":false,"rental_uris":{"android":"levelo://app?vid=27f930f3-ca7c-4a0e-b174-db23700fbe27","ios":"levelo://app?vid=27f930f3-ca7c-4a0e-b174-db23700fbe27"},"vehicle_type_id":"4","last_reported":1730038101,"current_range_meters":34800,"station_id":"ce4bgpp2rcd13ifvqc3g","pricing_plan_id":"cebpf4jnsgd1na2vs0mg"},{"bike_id":"2fdd8efd-807f-43c0-a5f8-acb8d352d834","system_id":"levelo_inurba_marseille","lat":43.32365,"lon":5.38884,"is_reserved":false,"is_disabled":false,"rental_uris":{"android":"levelo://app?vid=2fdd8efd-807f-43c0-a5f8-acb8d352d834","ios":"levelo://app?vid=2fdd8efd-807f-43c0-a5f8-acb8d352d834"},"vehicle_type_id":"4","last_reported":1730038101,"current_range_meters":4000,"station_id":"ce4bhqp2rcd13ifvqhog","pricing_plan_id":"cebpf4jnsgd1na2vs0mg"},{"bike_id":"de6437c4-d475-431b-ab1e-63b273636dd1","system_id":"levelo_inurba_marseille","lat":43.28667,"lon":5.36344,"is_reserved":false,"is_disabled":false,"rental_uris":{"android":"levelo://app?vid=de6437c4-d475-431b-ab1e-63b273636dd1","ios":"levelo://app?vid=de6437c4-d475-431b-ab1e-63b273636dd1"},"vehicle_type_id":"4","last_reported":1730038101,"current_range_meters":8000,"station_id":"ce4bhah2rcd13ifvqej0","pricing_plan_id":"cebpf4jnsgd1na2vs0mg"},{"bike_id":"43df6f01-ce4c-441f-bf0c-95fe2920d7eb","system_id":"levelo_inurba_marseille","lat":43.26561,"lon":5.3901,"is_reserved":false,"is_disabled":false,"rental_uris":{"android":"levelo://app?vid=43df6f01-ce4c-441f-bf0c-95fe2920d7eb","ios":"levelo://app?vid=43df6f01-ce4c-441f-bf0c-95fe2920d7eb"},"vehicle_type_id":"4","last_reported":1730038101,"current_range_meters":28000,"station_id":"ce4bhe12rcd13ifvqf30","pricing_plan_id":"cebpf4jnsgd1na2vs0mg"},{"bike_id":"d8f505d6-798a-4749-a258-19819e87b361","system_id":"levelo_inurba_marseille","lat":43.28619,"lon":5.35108,"is_reserved":false,"is_disabled":false,"rental_uris":{"android":"levelo://app?vid=d8f505d6-798a-4749-a258-19819e87b361","ios":"levelo://app?vid=d8f505d6-798a-4749-a258-19819e87b361"},"vehicle_type_id":"4","last_reported":1730038101,"current_range_meters":36000,"station_id":"ce4bhch2rcd13ifvqeug","pricing_plan_id":"cebpf4jnsgd1na2vs0mg"},{"bike_id":"a4a5ebe2-f8fa-45fe-9cc8-92df43ed124b","system_id":"levelo_inurba_marseille","lat":43.26211,"lon":5.37438,"is_reserved":false,"is_disabled":false,"rental_uris":{"android":"levelo://app?vid=a4a5ebe2-f8fa-45fe-9cc8-92df43ed124b","ios":"levelo://app?vid=a4a5ebe2-f8fa-45fe-9cc8-92df43ed124b"},"vehicle_type_id":"4","last_reported":1730038101,"current_range_meters":22800,"station_id":"ce4bhgp2rcd13ifvqfc0","pricing_plan_id":"cebpf4jnsgd1na2vs0mg"},{"bike_id":"ef57adbe-bff3-4d54-9e89-06dd32561fed","system_id":"levelo_inurba_marseille","lat":43.28343,"lon":5.38104,"is_reserved":false,"is_disabled":false,"rental_uris":{"android":"levelo://app?vid=ef57adbe-bff3-4d54-9e89-06dd32561fed","ios":"levelo://app?vid=ef57adbe-bff3-4d54-9e89-06dd32561fed"},"vehicle_type_id":"4","last_reported":1730038101,"current_range_meters":13600,"station_id":"ce4bh412rcd13ifvqdr0","pricing_plan_id":"cebpf4jnsgd1na2vs0mg"},{"bike_id":"764364f0-86a2-4166-8605-314636f3daef","system_id":"levelo_inurba_marseille","lat":43.29854,"lon":5.36261,"is_reserved":false,"is_disabled":false,"rental_uris":{"android":"levelo://app?vid=764364f0-86a2-4166-8605-314636f3daef","ios":"levelo://app?vid=764364f0-86a2-4166-8605-314636f3daef"},"vehicle_type_id":"4","last_reported":1730038101,"current_range_meters":38000,"station_id":"ce4bgpp2rcd13ifvqc3g","pricing_plan_id":"cebpf4jnsgd1na2vs0mg"},{"bike_id":"d4b0d68a-ae82-42a1-b0da-b39254ee1044","system_id":"levelo_inurba_marseille","lat":43.2319,"lon":5.35543,"is_reserved":false,"is_disabled":false,"rental_uris":{"android":"levelo://app?vid=d4b0d68a-ae82-42a1-b0da-b39254ee1044","ios":"levelo://app?vid=d4b0d68a-ae82-42a1-b0da-b39254ee1044"},"vehicle_type_id":"4","last_reported":1730038101,"current_range_meters":10000,"station_id":"ce4bhu92rcd13ifvqi70","pricing_plan_id":"cebpf4jnsgd1na2vs0mg"},{"bike_id":"7cdd88d2-5824-40fa-8faf-90ef733261c2","system_id":"levelo_inurba_marseille","lat":43.23964,"lon":5.36633,"is_reserved":false,"is_disabled":false,"rental_uris":{"android":"levelo://app?vid=7cdd88d2-5824-40fa-8faf-90ef733261c2","ios":"levelo://app?vid=7cdd88d2-5824-40fa-8faf-90ef733261c2"},"vehicle_type_id":"4","last_reported":1730038101,"current_range_meters":16400,"station_id":"ce4bhi12rcd13ifvqfp0","pricing_plan_id":"cebpf4jnsgd1na2vs0mg"},{"bike_id":"25824153-b4b3-483b-b4a4-390dc16890cc","system_id":"levelo_inurba_marseille","lat":43.2799,"lon":5.40014,"is_reserved":false,"is_disabled":false,"rental_uris":{"android":"levelo://app?vid=25824153-b4b3-483b-b4a4-390dc16890cc","ios":"levelo://app?vid=25824153-b4b3-483b-b4a4-390dc16890cc"},"vehicle_type_id":"4","last_reported":1730038101,"current_range_meters":37600,"station_id":"ce4bho92rcd13ifvqh4g","pricing_plan_id":"cebpf4jnsgd1na2vs0mg"},{"bike_id":"d93f5d66-5801-405e-8177-d8044aa5543d","system_id":"levelo_inurba_marseille","lat":43.2815,"lon":5.42649,"is_reserved":false,"is_disabled":false,"rental_uris":{"android":"levelo://app?vid=d93f5d66-5801-405e-8177-d8044aa5543d","ios":"levelo://app?vid=d93f5d66-5801-405e-8177-d8044aa5543d"},"vehicle_type_id":"4","last_reported":1730038101,"current_range_meters":6400,"station_id":"ce4bhnh2rcd13ifvqgug","pricing_plan_id":"cebpf4jnsgd1na2vs0mg"},{"bike_id":"8a7ea3b3-7c19-4f13-a31a-07202c98e2c3","system_id":"levelo_inurba_marseille","lat":43.324828,"lon":5.365605,"is_reserved":false,"is_disabled":false,"rental_uris":{"android":"levelo://app?vid=8a7ea3b3-7c19-4f13-a31a-07202c98e2c3","ios":"levelo://app?vid=8a7ea3b3-7c19-4f13-a31a-07202c98e2c3"},"vehicle_type_id":"4","last_reported":1730038101,"current_range_meters":20800,"station_id":"ce4bhs12rcd13ifvqhvg","pricing_plan_id":"cebpf4jnsgd1na2vs0mg"},{"bike_id":"04518ea9-c53f-40a3-80da-3e58bba4a32f","system_id":"levelo_inurba_marseille","lat":43.2293,"lon":5.35377,"is_reserved":false,"is_disabled":false,"rental_uris":{"android":"levelo://app?vid=04518ea9-c53f-40a3-80da-3e58bba4a32f","ios":"levelo://app?vid=04518ea9-c53f-40a3-80da-3e58bba4a32f"},"vehicle_type_id":"4","last_reported":1730038101,"current_range_meters":27600,"station_id":"cpo3532slgdg3j2ikp40","pricing_plan_id":"cebpf4jnsgd1na2vs0mg"},{"bike_id":"4c6d8b7d-88f5-4961-a58e-c22f9aec1c25","system_id":"levelo_inurba_marseille","lat":43.28419,"lon":5.34991,"is_reserved":false,"is_disabled":false,"rental_uris":{"android":"levelo://app?vid=4c6d8b7d-88f5-4961-a58e-c22f9aec1c25","ios":"levelo://app?vid=4c6d8b7d-88f5-4961-a58e-c22f9aec1c25"},"vehicle_type_id":"4","last_reported":1730038101,"current_range_meters":28400,"station_id":"ce4bhb92rcd13ifvqen0","pricing_plan_id":"cebpf4jnsgd1na2vs0mg"},{"bike_id":"37715975-b7d7-45ae-87a1-9fd2bf4e6777","system_id":"levelo_inurba_marseille","lat":43.23959,"lon":5.36639,"is_reserved":false,"is_disabled":false,"rental_uris":{"android":"levelo://app?vid=37715975-b7d7-45ae-87a1-9fd2bf4e6777","ios":"levelo://app?vid=37715975-b7d7-45ae-87a1-9fd2bf4e6777"},"vehicle_type_id":"4","last_reported":1730038101,"current_range_meters":8000,"station_id":"ce4bhi12rcd13ifvqfp0","pricing_plan_id":"cebpf4jnsgd1na2vs0mg"},{"bike_id":"1a504bb3-387b-4e83-ae89-5c5ddfebd1d6","system_id":"levelo_inurba_marseille","lat":43.26929,"lon":5.38913,"is_reserved":false,"is_disabled":false,"rental_uris":{"android":"levelo://app?vid=1a504bb3-387b-4e83-ae89-5c5ddfebd1d6","ios":"levelo://app?vid=1a504bb3-387b-4e83-ae89-5c5ddfebd1d6"},"vehicle_type_id":"4","last_reported":1730038101,"current_range_meters":38800,"station_id":"ce4bhhh2rcd13ifvqfl0","pricing_plan_id":"cebpf4jnsgd1na2vs0mg"},{"bike_id":"d434865b-33ba-4930-8154-7a77f6e2c440","system_id":"levelo_inurba_marseille","lat":43.28407,"lon":5.34992,"is_reserved":false,"is_disabled":false,"rental_uris":{"android":"levelo://app?vid=d434865b-33ba-4930-8154-7a77f6e2c440","ios":"levelo://app?vid=d434865b-33ba-4930-8154-7a77f6e2c440"},"vehicle_type_id":"4","last_reported":1730038101,"current_range_meters":28800,"station_id":"ce4bhbh2rcd13ifvqepg","pricing_plan_id":"cebpf4jnsgd1na2vs0mg"},{"bike_id":"6495af04-c874-4345-ae15-2fb517b868e4","system_id":"levelo_inurba_marseille","lat":43.30545,"lon":5.36531,"is_reserved":false,"is_disabled":false,"rental_uris":{"android":"levelo://app?vid=6495af04-c874-4345-ae15-2fb517b868e4","ios":"levelo://app?vid=6495af04-c874-4345-ae15-2fb517b868e4"},"vehicle_type_id":"4","last_reported":1730038101,"current_range_meters":28400,"station_id":"ce4bgs12rcd13ifvqcag","pricing_plan_id":"cebpf4jnsgd1na2vs0mg"},{"bike_id":"f4631f00-861a-46ec-b21f-552db9300126","system_id":"levelo_inurba_marseille","lat":43.24386,"lon":5.37053,"is_reserved":false,"is_disabled":false,"rental_uris":{"android":"levelo://app?vid=f4631f00-861a-46ec-b21f-552db9300126","ios":"levelo://app?vid=f4631f00-861a-46ec-b21f-552db9300126"},"vehicle_type_id":"4","last_reported":1730038101,"current_range_meters":22000,"station_id":"ce4bhhh2rcd13ifvqfk0","pricing_plan_id":"cebpf4jnsgd1na2vs0mg"},{"bike_id":"38b74e8b-77ed-4fed-80ba-6528e6fe3165","system_id":"levelo_inurba_marseille","lat":43.2989,"lon":5.38902,"is_reserved":false,"is_disabled":false,"rental_uris":{"android":"levelo://app?vid=38b74e8b-77ed-4fed-80ba-6528e6fe3165","ios":"levelo://app?vid=38b74e8b-77ed-4fed-80ba-6528e6fe3165"},"vehicle_type_id":"4","last_reported":1730038101,"current_range_meters":9600,"station_id":"ce4bh392rcd13ifvqdl0","pricing_plan_id":"cebpf4jnsgd1na2vs0mg"},{"bike_id":"b5dee5ec-54e7-4940-998e-f3900f504e22","system_id":"levelo_inurba_marseille","lat":43.30211,"lon":5.39471,"is_reserved":false,"is_disabled":false,"rental_uris":{"android":"levelo://app?vid=b5dee5ec-54e7-4940-998e-f3900f504e22","ios":"levelo://app?vid=b5dee5ec-54e7-4940-998e-f3900f504e22"},"vehicle_type_id":"4","last_reported":1730038101,"current_range_meters":38800,"station_id":"ce4bh0p2rcd13ifvqd70","pricing_plan_id":"cebpf4jnsgd1na2vs0mg"},{"bike_id":"6e45bd55-8d3d-47a0-ae26-852c24ebcb13","system_id":"levelo_inurba_marseille","lat":43.2781,"lon":5.40704,"is_reserved":false,"is_disabled":false,"rental_uris":{"android":"levelo://app?vid=6e45bd55-8d3d-47a0-ae26-852c24ebcb13","ios":"levelo://app?vid=6e45bd55-8d3d-47a0-ae26-852c24ebcb13"},"vehicle_type_id":"4","last_reported":1730038101,"current_range_meters":39200,"station_id":"ce4bhnh2rcd13ifvqgtg","pricing_plan_id":"cebpf4jnsgd1na2vs0mg"},{"bike_id":"e89316dc-a19a-469f-a9cd-dc00b495757e","system_id":"levelo_inurba_marseille","lat":43.27442,"lon":5.40652,"is_reserved":false,"is_disabled":false,"rental_uris":{"android":"levelo://app?vid=e89316dc-a19a-469f-a9cd-dc00b495757e","ios":"levelo://app?vid=e89316dc-a19a-469f-a9cd-dc00b495757e"},"vehicle_type_id":"4","last_reported":1730038101,"current_range_meters":9200,"station_id":"","pricing_plan_id":"cebpf4jnsgd1na2vs0mg"},{"bike_id":"9bd13758-eaa9-47d7-bf79-6c0e8c9219b5","system_id":"levelo_inurba_marseille","lat":43.29841,"lon":5.36266,"is_reserved":false,"is_disabled":false,"rental_uris":{"android":"levelo://app?vid=9bd13758-eaa9-47d7-bf79-6c0e8c9219b5","ios":"levelo://app?vid=9bd13758-eaa9-47d7-bf79-6c0e8c9219b5"},"vehicle_type_id":"4","last_reported":1730038101,"current_range_meters":28800,"station_id":"ce4bgpp2rcd13ifvqc3g","pricing_plan_id":"cebpf4jnsgd1na2vs0mg"},{"bike_id":"4e90dce3-3f42-4f94-8629-afc4c02aed34","system_id":"levelo_inurba_marseille","lat":43.29033,"lon":5.37556,"is_reserved":false,"is_disabled":false,"rental_uris":{"android":"levelo://app?vid=4e90dce3-3f42-4f94-8629-afc4c02aed34","ios":"levelo://app?vid=4e90dce3-3f42-4f94-8629-afc4c02aed34"},"vehicle_type_id":"4","last_reported":1730038101,"current_range_meters":28800,"station_id":"ce4bh692rcd13ifvqe90","pricing_plan_id":"cebpf4jnsgd1na2vs0mg"},{"bike_id":"81e500be-3ff6-45b1-af40-237783c8efb0","system_id":"levelo_inurba_marseille","lat":43.27821,"lon":5.40717,"is_reserved":false,"is_disabled":false,"rental_uris":{"android":"levelo://app?vid=81e500be-3ff6-45b1-af40-237783c8efb0","ios":"levelo://app?vid=81e500be-3ff6-45b1-af40-237783c8efb0"},"vehicle_type_id":"4","last_reported":1730038101,"current_range_meters":15200,"station_id":"ce4bhnh2rcd13ifvqgtg","pricing_plan_id":"cebpf4jnsgd1na2vs0mg"},{"bike_id":"7b3b741d-a094-426f-91d3-b81d9fa8a93e","system_id":"levelo_inurba_marseille","lat":43.28056,"lon":5.40986,"is_reserved":false,"is_disabled":false,"rental_uris":{"android":"levelo://app?vid=7b3b741d-a094-426f-91d3-b81d9fa8a93e","ios":"levelo://app?vid=7b3b741d-a094-426f-91d3-b81d9fa8a93e"},"vehicle_type_id":"4","last_reported":1730038101,"current_range_meters":16400,"station_id":"","pricing_plan_id":"cebpf4jnsgd1na2vs0mg"},{"bike_id":"fa30867d-31fd-449d-bf86-f380d61b29ca","system_id":"levelo_inurba_marseille","lat":43.28424,"lon":5.34989,"is_reserved":false,"is_disabled":false,"rental_uris":{"android":"levelo://app?vid=fa30867d-31fd-449d-bf86-f380d61b29ca","ios":"levelo://app?vid=fa30867d-31fd-449d-bf86-f380d61b29ca"},"vehicle_type_id":"4","last_reported":1730038101,"current_range_meters":30800,"station_id":"ce4bhbh2rcd13ifvqepg","pricing_plan_id":"cebpf4jnsgd1na2vs0mg"},{"bike_id":"d8ee650a-d3a8-4135-a06c-ed80a904e08d","system_id":"levelo_inurba_marseille","lat":43.28606,"lon":5.35111,"is_reserved":false,"is_disabled":false,"rental_uris":{"android":"levelo://app?vid=d8ee650a-d3a8-4135-a06c-ed80a904e08d","ios":"levelo://app?vid=d8ee650a-d3a8-4135-a06c-ed80a904e08d"},"vehicle_type_id":"4","last_reported":1730038101,"current_range_meters":19200,"station_id":"ce4bhch2rcd13ifvqeug","pricing_plan_id":"cebpf4jnsgd1na2vs0mg"},{"bike_id":"c312429d-2065-4029-aed9-0c897d38c8df","system_id":"levelo_inurba_marseille","lat":43.29618,"lon":5.37157,"is_reserved":false,"is_disabled":false,"rental_uris":{"android":"levelo://app?vid=c312429d-2065-4029-aed9-0c897d38c8df","ios":"levelo://app?vid=c312429d-2065-4029-aed9-0c897d38c8df"},"vehicle_type_id":"4","last_reported":1730038101,"current_range_meters":36800,"station_id":"ce4bgnh2rcd13ifvqc0g","pricing_plan_id":"cebpf4jnsgd1na2vs0mg"},{"bike_id":"a1cd8d37-45cd-453d-91fb-914c576bac81","system_id":"levelo_inurba_marseille","lat":43.29637,"lon":5.40597,"is_reserved":false,"is_disabled":false,"rental_uris":{"android":"levelo://app?vid=a1cd8d37-45cd-453d-91fb-914c576bac81","ios":"levelo://app?vid=a1cd8d37-45cd-453d-91fb-914c576bac81"},"vehicle_type_id":"4","last_reported":1730038101,"current_range_meters":24000,"station_id":"ce4bh0h2rcd13ifvqd60","pricing_plan_id":"cebpf4jnsgd1na2vs0mg"},{"bike_id":"4f0cb714-8cb1-4bff-b7c2-9cdb0a6a534f","system_id":"levelo_inurba_marseille","lat":43.28125,"lon":5.43993,"is_reserved":false,"is_disabled":false,"rental_uris":{"android":"levelo://app?vid=4f0cb714-8cb1-4bff-b7c2-9cdb0a6a534f","ios":"levelo://app?vid=4f0cb714-8cb1-4bff-b7c2-9cdb0a6a534f"},"vehicle_type_id":"4","last_reported":1730038101,"current_range_meters":19600,"station_id":"ce4bhnh2rcd13ifvqgug","pricing_plan_id":"cebpf4jnsgd1na2vs0mg"},{"bike_id":"cb696053-2e30-4a81-b859-aadec176acde","system_id":"levelo_inurba_marseille","lat":43.26203,"lon":5.37928,"is_reserved":false,"is_disabled":false,"rental_uris":{"android":"levelo://app?vid=cb696053-2e30-4a81-b859-aadec176acde","ios":"levelo://app?vid=cb696053-2e30-4a81-b859-aadec176acde"},"vehicle_type_id":"4","last_reported":1730038101,"current_range_meters":39200,"station_id":"ce4bhjp2rcd13ifvqg90","pricing_plan_id":"cebpf4jnsgd1na2vs0mg"},{"bike_id":"4f40e012-ea5b-4575-9527-1f943967bef1","system_id":"levelo_inurba_marseille","lat":43.23965,"lon":5.36628,"is_reserved":false,"is_disabled":false,"rental_uris":{"android":"levelo://app?vid=4f40e012-ea5b-4575-9527-1f943967bef1","ios":"levelo://app?vid=4f40e012-ea5b-4575-9527-1f943967bef1"},"vehicle_type_id":"4","last_reported":1730038101,"current_range_meters":16800,"station_id":"ce4bhi12rcd13ifvqfp0","pricing_plan_id":"cebpf4jnsgd1na2vs0mg"},{"bike_id":"4d18fdf7-40fd-43b3-89ca-7d0f38bd83c5","system_id":"levelo_inurba_marseille","lat":43.3248,"lon":5.36555,"is_reserved":false,"is_disabled":false,"rental_uris":{"android":"levelo://app?vid=4d18fdf7-40fd-43b3-89ca-7d0f38bd83c5","ios":"levelo://app?vid=4d18fdf7-40fd-43b3-89ca-7d0f38bd83c5"},"vehicle_type_id":"4","last_reported":1730038101,"current_range_meters":22000,"station_id":"ce4bhs12rcd13ifvqhvg","pricing_plan_id":"cebpf4jnsgd1na2vs0mg"},{"bike_id":"ec544e73-f03c-418a-b19e-58778fa8a67d","system_id":"levelo_inurba_marseille","lat":43.23189,"lon":5.35548,"is_reserved":false,"is_disabled":false,"rental_uris":{"android":"levelo://app?vid=ec544e73-f03c-418a-b19e-58778fa8a67d","ios":"levelo://app?vid=ec544e73-f03c-418a-b19e-58778fa8a67d"},"vehicle_type_id":"4","last_reported":1730038101,"current_range_meters":39200,"station_id":"ce4bhu92rcd13ifvqi70","pricing_plan_id":"cebpf4jnsgd1na2vs0mg"},{"bike_id":"0d2dad77-65b4-495d-a554-fbe297a6bfa9","system_id":"levelo_inurba_marseille","lat":43.2893,"lon":5.36628,"is_reserved":false,"is_disabled":false,"rental_uris":{"android":"levelo://app?vid=0d2dad77-65b4-495d-a554-fbe297a6bfa9","ios":"levelo://app?vid=0d2dad77-65b4-495d-a554-fbe297a6bfa9"},"vehicle_type_id":"4","last_reported":1730038101,"current_range_meters":38800,"station_id":"ce4bhap2rcd13ifvqek0","pricing_plan_id":"cebpf4jnsgd1na2vs0mg"},{"bike_id":"4fce8218-6bfc-440b-b108-5cf1b5e5e58a","system_id":"levelo_inurba_marseille","lat":43.23192,"lon":5.35552,"is_reserved":false,"is_disabled":false,"rental_uris":{"android":"levelo://app?vid=4fce8218-6bfc-440b-b108-5cf1b5e5e58a","ios":"levelo://app?vid=4fce8218-6bfc-440b-b108-5cf1b5e5e58a"},"vehicle_type_id":"4","last_reported":1730038101,"current_range_meters":38800,"station_id":"ce4bhu92rcd13ifvqi70","pricing_plan_id":"cebpf4jnsgd1na2vs0mg"},{"bike_id":"e2082c5c-9f16-465d-a177-6cb759129b32","system_id":"levelo_inurba_marseille","lat":43.30143,"lon":5.37422,"is_reserved":false,"is_disabled":false,"rental_uris":{"android":"levelo://app?vid=e2082c5c-9f16-465d-a177-6cb759129b32","ios":"levelo://app?vid=e2082c5c-9f16-465d-a177-6cb759129b32"},"vehicle_type_id":"4","last_reported":1730038101,"current_range_meters":38000,"station_id":"ce4bgs92rcd13ifvqcc0","pricing_plan_id":"cebpf4jnsgd1na2vs0mg"},{"bike_id":"6b10aa57-a20f-4a52-8be5-7f69bd4f0e4a","system_id":"levelo_inurba_marseille","lat":43.24648,"lon":5.38887,"is_reserved":false,"is_disabled":false,"rental_uris":{"android":"levelo://app?vid=6b10aa57-a20f-4a52-8be5-7f69bd4f0e4a","ios":"levelo://app?vid=6b10aa57-a20f-4a52-8be5-7f69bd4f0e4a"},"vehicle_type_id":"4","last_reported":1730038101,"current_range_meters":36400,"station_id":"ce4bhg12rcd13ifvqf60","pricing_plan_id":"cebpf4jnsgd1na2vs0mg"},{"bike_id":"3119b666-b043-466d-b44b-94fc7abaa02b","system_id":"levelo_inurba_marseille","lat":43.30135,"lon":5.37405,"is_reserved":false,"is_disabled":false,"rental_uris":{"android":"levelo://app?vid=3119b666-b043-466d-b44b-94fc7abaa02b","ios":"levelo://app?vid=3119b666-b043-466d-b44b-94fc7abaa02b"},"vehicle_type_id":"4","last_reported":1730038101,"current_range_meters":22800,"station_id":"ce4bgs92rcd13ifvqcc0","pricing_plan_id":"cebpf4jnsgd1na2vs0mg"},{"bike_id":"0f50c4f3-ab69-4ac6-9713-3daf1633d791","system_id":"levelo_inurba_marseille","lat":43.31227,"lon":5.36873,"is_reserved":false,"is_disabled":false,"rental_uris":{"android":"levelo://app?vid=0f50c4f3-ab69-4ac6-9713-3daf1633d791","ios":"levelo://app?vid=0f50c4f3-ab69-4ac6-9713-3daf1633d791"},"vehicle_type_id":"4","last_reported":1730038101,"current_range_meters":19200,"station_id":"ce4bgl92rcd13ifvqbq0","pricing_plan_id":"cebpf4jnsgd1na2vs0mg"},{"bike_id":"a64c9bae-96b6-4749-b19c-ac41d1700858","system_id":"levelo_inurba_marseille","lat":43.27491,"lon":5.42466,"is_reserved":false,"is_disabled":false,"rental_uris":{"android":"levelo://app?vid=a64c9bae-96b6-4749-b19c-ac41d1700858","ios":"levelo://app?vid=a64c9bae-96b6-4749-b19c-ac41d1700858"},"vehicle_type_id":"4","last_reported":1730038101,"current_range_meters":29600,"station_id":"ce4bhn92rcd13ifvqgrg","pricing_plan_id":"cebpf4jnsgd1na2vs0mg"},{"bike_id":"17d244ad-5b9c-4afc-b3e8-7771e244d9b1","system_id":"levelo_inurba_marseille","lat":43.2894,"lon":5.36641,"is_reserved":false,"is_disabled":false,"rental_uris":{"android":"levelo://app?vid=17d244ad-5b9c-4afc-b3e8-7771e244d9b1","ios":"levelo://app?vid=17d244ad-5b9c-4afc-b3e8-7771e244d9b1"},"vehicle_type_id":"4","last_reported":1730038101,"current_range_meters":8800,"station_id":"ce4bhap2rcd13ifvqek0","pricing_plan_id":"cebpf4jnsgd1na2vs0mg"},{"bike_id":"a637ddb5-b9e8-4510-912c-1884ad257272","system_id":"levelo_inurba_marseille","lat":43.26806,"lon":5.40264,"is_reserved":false,"is_disabled":false,"rental_uris":{"android":"levelo://app?vid=a637ddb5-b9e8-4510-912c-1884ad257272","ios":"levelo://app?vid=a637ddb5-b9e8-4510-912c-1884ad257272"},"vehicle_type_id":"4","last_reported":1730038101,"current_range_meters":34000,"station_id":"ce501612rcd8frsf0b60","pricing_plan_id":"cebpf4jnsgd1na2vs0mg"},{"bike_id":"85ac3782-a481-4c19-82eb-99e53814c534","system_id":"levelo_inurba_marseille","lat":43.29952,"lon":5.41314,"is_reserved":false,"is_disabled":false,"rental_uris":{"android":"levelo://app?vid=85ac3782-a481-4c19-82eb-99e53814c534","ios":"levelo://app?vid=85ac3782-a481-4c19-82eb-99e53814c534"},"vehicle_type_id":"4","last_reported":1730038101,"current_range_meters":36400,"station_id":"ce4bhp12rcd13ifvqh9g","pricing_plan_id":"cebpf4jnsgd1na2vs0mg"},{"bike_id":"b9124405-f3c9-465b-801b-cc84dbf4e28d","system_id":"levelo_inurba_marseille","lat":43.30946,"lon":5.39057,"is_reserved":false,"is_disabled":false,"rental_uris":{"android":"levelo://app?vid=b9124405-f3c9-465b-801b-cc84dbf4e28d","ios":"levelo://app?vid=b9124405-f3c9-465b-801b-cc84dbf4e28d"},"vehicle_type_id":"4","last_reported":1730038101,"current_range_meters":38000,"station_id":"ce4bgup2rcd13ifvqco0","pricing_plan_id":"cebpf4jnsgd1na2vs0mg"},{"bike_id":"8861eb66-d5ce-4076-aaa4-e1d1e19b72ca","system_id":"levelo_inurba_marseille","lat":43.28475,"lon":5.38412,"is_reserved":false,"is_disabled":false,"rental_uris":{"android":"levelo://app?vid=8861eb66-d5ce-4076-aaa4-e1d1e19b72ca","ios":"levelo://app?vid=8861eb66-d5ce-4076-aaa4-e1d1e19b72ca"},"vehicle_type_id":"4","last_reported":1730038101,"current_range_meters":29600,"station_id":"ce4bh512rcd13ifvqe3g","pricing_plan_id":"cebpf4jnsgd1na2vs0mg"},{"bike_id":"26cd1ee8-3372-4b95-bd4f-a262e3d69f37","system_id":"levelo_inurba_marseille","lat":43.284027,"lon":5.349786,"is_reserved":false,"is_disabled":false,"rental_uris":{"android":"levelo://app?vid=26cd1ee8-3372-4b95-bd4f-a262e3d69f37","ios":"levelo://app?vid=26cd1ee8-3372-4b95-bd4f-a262e3d69f37"},"vehicle_type_id":"4","last_reported":1730038101,"current_range_meters":30400,"station_id":"ce4bhbh2rcd13ifvqepg","pricing_plan_id":"cebpf4jnsgd1na2vs0mg"},{"bike_id":"7af0d532-f314-459d-aee5-f126a8ca0f1d","system_id":"levelo_inurba_marseille","lat":43.22928,"lon":5.35382,"is_reserved":false,"is_disabled":false,"rental_uris":{"android":"levelo://app?vid=7af0d532-f314-459d-aee5-f126a8ca0f1d","ios":"levelo://app?vid=7af0d532-f314-459d-aee5-f126a8ca0f1d"},"vehicle_type_id":"4","last_reported":1730038101,"current_range_meters":8000,"station_id":"cpo3532slgdg3j2ikp40","pricing_plan_id":"cebpf4jnsgd1na2vs0mg"},{"bike_id":"2d830caa-b02f-49b3-ade7-bd7ddef5abda","system_id":"levelo_inurba_marseille","lat":43.27814,"lon":5.40719,"is_reserved":false,"is_disabled":false,"rental_uris":{"android":"levelo://app?vid=2d830caa-b02f-49b3-ade7-bd7ddef5abda","ios":"levelo://app?vid=2d830caa-b02f-49b3-ade7-bd7ddef5abda"},"vehicle_type_id":"4","last_reported":1730038101,"current_range_meters":38800,"station_id":"ce4bhnh2rcd13ifvqgtg","pricing_plan_id":"cebpf4jnsgd1na2vs0mg"},{"bike_id":"726c41b7-0612-492f-8ed2-37123ff1474f","system_id":"levelo_inurba_marseille","lat":43.31073,"lon":5.40084,"is_reserved":false,"is_disabled":false,"rental_uris":{"android":"levelo://app?vid=726c41b7-0612-492f-8ed2-37123ff1474f","ios":"levelo://app?vid=726c41b7-0612-492f-8ed2-37123ff1474f"},"vehicle_type_id":"4","last_reported":1730038101,"current_range_meters":10800,"station_id":"","pricing_plan_id":"cebpf4jnsgd1na2vs0mg"},{"bike_id":"c059b18a-c78b-49a8-94ee-98d314b4324e","system_id":"levelo_inurba_marseille","lat":43.26798,"lon":5.40257,"is_reserved":false,"is_disabled":false,"rental_uris":{"android":"levelo://app?vid=c059b18a-c78b-49a8-94ee-98d314b4324e","ios":"levelo://app?vid=c059b18a-c78b-49a8-94ee-98d314b4324e"},"vehicle_type_id":"4","last_reported":1730038101,"current_range_meters":21600,"station_id":"ce501612rcd8frsf0b60","pricing_plan_id":"cebpf4jnsgd1na2vs0mg"},{"bike_id":"b41fa1df-0ff5-4311-912d-ce8cc0c4ef8d","system_id":"levelo_inurba_marseille","lat":43.25931,"lon":5.40909,"is_reserved":false,"is_disabled":false,"rental_uris":{"android":"levelo://app?vid=b41fa1df-0ff5-4311-912d-ce8cc0c4ef8d","ios":"levelo://app?vid=b41fa1df-0ff5-4311-912d-ce8cc0c4ef8d"},"vehicle_type_id":"4","last_reported":1730038101,"current_range_meters":38000,"station_id":"ce4bhm92rcd13ifvqglg","pricing_plan_id":"cebpf4jnsgd1na2vs0mg"},{"bike_id":"5f309689-e017-4833-b270-af2713a13570","system_id":"levelo_inurba_marseille","lat":43.28306,"lon":5.35052,"is_reserved":false,"is_disabled":false,"rental_uris":{"android":"levelo://app?vid=5f309689-e017-4833-b270-af2713a13570","ios":"levelo://app?vid=5f309689-e017-4833-b270-af2713a13570"},"vehicle_type_id":"4","last_reported":1730038101,"current_range_meters":37600,"station_id":"ce4bhbp2rcd13ifvqerg","pricing_plan_id":"cebpf4jnsgd1na2vs0mg"},{"bike_id":"e0b5f2bb-65ca-44c6-90f4-fd13c0403f3d","system_id":"levelo_inurba_marseille","lat":43.28936,"lon":5.36639,"is_reserved":false,"is_disabled":false,"rental_uris":{"android":"levelo://app?vid=e0b5f2bb-65ca-44c6-90f4-fd13c0403f3d","ios":"levelo://app?vid=e0b5f2bb-65ca-44c6-90f4-fd13c0403f3d"},"vehicle_type_id":"4","last_reported":1730038101,"current_range_meters":19200,"station_id":"ce4bhap2rcd13ifvqek0","pricing_plan_id":"cebpf4jnsgd1na2vs0mg"},{"bike_id":"e255a10d-9d36-4272-a63f-86a4ea3292d5","system_id":"levelo_inurba_marseille","lat":43.22921,"lon":5.35372,"is_reserved":false,"is_disabled":false,"rental_uris":{"android":"levelo://app?vid=e255a10d-9d36-4272-a63f-86a4ea3292d5","ios":"levelo://app?vid=e255a10d-9d36-4272-a63f-86a4ea3292d5"},"vehicle_type_id":"4","last_reported":1730038101,"current_range_meters":10800,"station_id":"cpo3532slgdg3j2ikp40","pricing_plan_id":"cebpf4jnsgd1na2vs0mg"},{"bike_id":"0c271aff-c618-4831-a8e8-a4491f3c159f","system_id":"levelo_inurba_marseille","lat":43.28426,"lon":5.34983,"is_reserved":false,"is_disabled":false,"rental_uris":{"android":"levelo://app?vid=0c271aff-c618-4831-a8e8-a4491f3c159f","ios":"levelo://app?vid=0c271aff-c618-4831-a8e8-a4491f3c159f"},"vehicle_type_id":"4","last_reported":1730038101,"current_range_meters":28000,"station_id":"ce4bhbh2rcd13ifvqepg","pricing_plan_id":"cebpf4jnsgd1na2vs0mg"},{"bike_id":"5ae86afc-df22-4887-b264-4a50bd169bc9","system_id":"levelo_inurba_marseille","lat":43.28151,"lon":5.42636,"is_reserved":false,"is_disabled":false,"rental_uris":{"android":"levelo://app?vid=5ae86afc-df22-4887-b264-4a50bd169bc9","ios":"levelo://app?vid=5ae86afc-df22-4887-b264-4a50bd169bc9"},"vehicle_type_id":"4","last_reported":1730038101,"current_range_meters":28400,"station_id":"ce4bhnh2rcd13ifvqgug","pricing_plan_id":"cebpf4jnsgd1na2vs0mg"},{"bike_id":"8e7b6cf7-a9ca-4a31-a11e-a02eb609a9b1","system_id":"levelo_inurba_marseille","lat":43.29195,"lon":5.35805,"is_reserved":false,"is_disabled":false,"rental_uris":{"android":"levelo://app?vid=8e7b6cf7-a9ca-4a31-a11e-a02eb609a9b1","ios":"levelo://app?vid=8e7b6cf7-a9ca-4a31-a11e-a02eb609a9b1"},"vehicle_type_id":"4","last_reported":1730038101,"current_range_meters":10000,"station_id":"ce4bhb12rcd13ifvqel0","pricing_plan_id":"cebpf4jnsgd1na2vs0mg"},{"bike_id":"13ad7faa-d752-4d8c-97da-8116b887ab08","system_id":"levelo_inurba_marseille","lat":43.27976,"lon":5.38746,"is_reserved":false,"is_disabled":false,"rental_uris":{"android":"levelo://app?vid=13ad7faa-d752-4d8c-97da-8116b887ab08","ios":"levelo://app?vid=13ad7faa-d752-4d8c-97da-8116b887ab08"},"vehicle_type_id":"4","last_reported":1730038101,"current_range_meters":9200,"station_id":"ce4bhg12rcd13ifvqf80","pricing_plan_id":"cebpf4jnsgd1na2vs0mg"},{"bike_id":"1a150c10-a36f-48c6-baf3-abd8139f7f7c","system_id":"levelo_inurba_marseille","lat":43.28467,"lon":5.38416,"is_reserved":false,"is_disabled":false,"rental_uris":{"android":"levelo://app?vid=1a150c10-a36f-48c6-baf3-abd8139f7f7c","ios":"levelo://app?vid=1a150c10-a36f-48c6-baf3-abd8139f7f7c"},"vehicle_type_id":"4","last_reported":1730038101,"current_range_meters":38800,"station_id":"ce4bh512rcd13ifvqe3g","pricing_plan_id":"cebpf4jnsgd1na2vs0mg"},{"bike_id":"13d0d843-77d7-462d-87b4-44a56e4e6f32","system_id":"levelo_inurba_marseille","lat":43.22934,"lon":5.3538,"is_reserved":false,"is_disabled":false,"rental_uris":{"android":"levelo://app?vid=13d0d843-77d7-462d-87b4-44a56e4e6f32","ios":"levelo://app?vid=13d0d843-77d7-462d-87b4-44a56e4e6f32"},"vehicle_type_id":"4","last_reported":1730038101,"current_range_meters":19200,"station_id":"cpo3532slgdg3j2ikp40","pricing_plan_id":"cebpf4jnsgd1na2vs0mg"},{"bike_id":"d4daaf4c-da62-4a32-bd7f-3443b04f913e","system_id":"levelo_inurba_marseille","lat":43.26926,"lon":5.38912,"is_reserved":false,"is_disabled":false,"rental_uris":{"android":"levelo://app?vid=d4daaf4c-da62-4a32-bd7f-3443b04f913e","ios":"levelo://app?vid=d4daaf4c-da62-4a32-bd7f-3443b04f913e"},"vehicle_type_id":"4","last_reported":1730038101,"current_range_meters":36000,"station_id":"ce4bhhh2rcd13ifvqfl0","pricing_plan_id":"cebpf4jnsgd1na2vs0mg"},{"bike_id":"054e6880-9c02-4a6c-b074-e380851e9b71","system_id":"levelo_inurba_marseille","lat":43.26063,"lon":5.39391,"is_reserved":false,"is_disabled":false,"rental_uris":{"android":"levelo://app?vid=054e6880-9c02-4a6c-b074-e380851e9b71","ios":"levelo://app?vid=054e6880-9c02-4a6c-b074-e380851e9b71"},"vehicle_type_id":"4","last_reported":1730038101,"current_range_meters":36800,"station_id":"ce4bhh92rcd13ifvqfj0","pricing_plan_id":"cebpf4jnsgd1na2vs0mg"},{"bike_id":"38270249-4977-4bd5-827b-d731857343a9","system_id":"levelo_inurba_marseille","lat":43.23061,"lon":5.35491,"is_reserved":false,"is_disabled":false,"rental_uris":{"android":"levelo://app?vid=38270249-4977-4bd5-827b-d731857343a9","ios":"levelo://app?vid=38270249-4977-4bd5-827b-d731857343a9"},"vehicle_type_id":"4","last_reported":1730038101,"current_range_meters":25600,"station_id":"cpo3342slgdg3j2ifvpg","pricing_plan_id":"cebpf4jnsgd1na2vs0mg"},{"bike_id":"e49103e6-4dc1-498f-8c5c-9341215d0efa","system_id":"levelo_inurba_marseille","lat":43.26936,"lon":5.38922,"is_reserved":false,"is_disabled":false,"rental_uris":{"android":"levelo://app?vid=e49103e6-4dc1-498f-8c5c-9341215d0efa","ios":"levelo://app?vid=e49103e6-4dc1-498f-8c5c-9341215d0efa"},"vehicle_type_id":"4","last_reported":1730038101,"current_range_meters":19600,"station_id":"ce4bhhh2rcd13ifvqfl0","pricing_plan_id":"cebpf4jnsgd1na2vs0mg"},{"bike_id":"4edc0e7b-846f-42d2-bf75-6ed9a6e6eba8","system_id":"levelo_inurba_marseille","lat":43.26934,"lon":5.40245,"is_reserved":false,"is_disabled":false,"rental_uris":{"android":"levelo://app?vid=4edc0e7b-846f-42d2-bf75-6ed9a6e6eba8","ios":"levelo://app?vid=4edc0e7b-846f-42d2-bf75-6ed9a6e6eba8"},"vehicle_type_id":"4","last_reported":1730038101,"current_range_meters":21600,"station_id":"cjm6bp8fraef2m0cb0m0","pricing_plan_id":"cebpf4jnsgd1na2vs0mg"},{"bike_id":"8857b64b-d22c-4616-9a88-662d4d97cb82","system_id":"levelo_inurba_marseille","lat":43.27489,"lon":5.42454,"is_reserved":false,"is_disabled":false,"rental_uris":{"android":"levelo://app?vid=8857b64b-d22c-4616-9a88-662d4d97cb82","ios":"levelo://app?vid=8857b64b-d22c-4616-9a88-662d4d97cb82"},"vehicle_type_id":"4","last_reported":1730038101,"current_range_meters":10800,"station_id":"ce4bhn92rcd13ifvqgrg","pricing_plan_id":"cebpf4jnsgd1na2vs0mg"},{"bike_id":"7abe7c79-f690-40e8-9ce6-4391f304d07a","system_id":"levelo_inurba_marseille","lat":43.30539,"lon":5.3653,"is_reserved":false,"is_disabled":false,"rental_uris":{"android":"levelo://app?vid=7abe7c79-f690-40e8-9ce6-4391f304d07a","ios":"levelo://app?vid=7abe7c79-f690-40e8-9ce6-4391f304d07a"},"vehicle_type_id":"4","last_reported":1730038101,"current_range_meters":16400,"station_id":"ce4bgs12rcd13ifvqcag","pricing_plan_id":"cebpf4jnsgd1na2vs0mg"},{"bike_id":"57340b07-1e76-48cb-8873-d17edef6fb07","system_id":"levelo_inurba_marseille","lat":43.28099,"lon":5.37835,"is_reserved":false,"is_disabled":false,"rental_uris":{"android":"levelo://app?vid=57340b07-1e76-48cb-8873-d17edef6fb07","ios":"levelo://app?vid=57340b07-1e76-48cb-8873-d17edef6fb07"},"vehicle_type_id":"4","last_reported":1730038101,"current_range_meters":27600,"station_id":"ce4bha12rcd13ifvqee0","pricing_plan_id":"cebpf4jnsgd1na2vs0mg"},{"bike_id":"d6f1df54-5bdc-44a7-b2d1-ba5ab3d0aa92","system_id":"levelo_inurba_marseille","lat":43.31274,"lon":5.40167,"is_reserved":false,"is_disabled":false,"rental_uris":{"android":"levelo://app?vid=d6f1df54-5bdc-44a7-b2d1-ba5ab3d0aa92","ios":"levelo://app?vid=d6f1df54-5bdc-44a7-b2d1-ba5ab3d0aa92"},"vehicle_type_id":"4","last_reported":1730038101,"current_range_meters":38800,"station_id":"ce4bh092rcd13ifvqd30","pricing_plan_id":"cebpf4jnsgd1na2vs0mg"},{"bike_id":"d3cce7df-c439-4e5c-84ae-d70692e77aa8","system_id":"levelo_inurba_marseille","lat":43.30881,"lon":5.39657,"is_reserved":false,"is_disabled":false,"rental_uris":{"android":"levelo://app?vid=d3cce7df-c439-4e5c-84ae-d70692e77aa8","ios":"levelo://app?vid=d3cce7df-c439-4e5c-84ae-d70692e77aa8"},"vehicle_type_id":"4","last_reported":1730038101,"current_range_meters":8400,"station_id":"ce4bh012rcd13ifvqcv0","pricing_plan_id":"cebpf4jnsgd1na2vs0mg"},{"bike_id":"1038e9a3-c91c-4116-bb97-2e59525110fc","system_id":"levelo_inurba_marseille","lat":43.24802,"lon":5.37456,"is_reserved":false,"is_disabled":false,"rental_uris":{"android":"levelo://app?vid=1038e9a3-c91c-4116-bb97-2e59525110fc","ios":"levelo://app?vid=1038e9a3-c91c-4116-bb97-2e59525110fc"},"vehicle_type_id":"4","last_reported":1730038101,"current_range_meters":39200,"station_id":"ce4bhgh2rcd13ifvqfb0","pricing_plan_id":"cebpf4jnsgd1na2vs0mg"},{"bike_id":"2815d1e2-11ce-4524-9e7f-9e18b5aae66a","system_id":"levelo_inurba_marseille","lat":43.26204,"lon":5.37926,"is_reserved":false,"is_disabled":false,"rental_uris":{"android":"levelo://app?vid=2815d1e2-11ce-4524-9e7f-9e18b5aae66a","ios":"levelo://app?vid=2815d1e2-11ce-4524-9e7f-9e18b5aae66a"},"vehicle_type_id":"4","last_reported":1730038101,"current_range_meters":28800,"station_id":"ce4bhjp2rcd13ifvqg90","pricing_plan_id":"cebpf4jnsgd1na2vs0mg"},{"bike_id":"ba33a694-1651-4ada-b08c-98e3bfd2397c","system_id":"levelo_inurba_marseille","lat":43.27902,"lon":5.38024,"is_reserved":false,"is_disabled":false,"rental_uris":{"android":"levelo://app?vid=ba33a694-1651-4ada-b08c-98e3bfd2397c","ios":"levelo://app?vid=ba33a694-1651-4ada-b08c-98e3bfd2397c"},"vehicle_type_id":"4","last_reported":1730038101,"current_range_meters":20000,"station_id":"ce4bhf92rcd13ifvqf50","pricing_plan_id":"cebpf4jnsgd1na2vs0mg"},{"bike_id":"12a9756b-11c4-45d3-b35e-8117da99dd87","system_id":"levelo_inurba_marseille","lat":43.2966,"lon":5.3734,"is_reserved":false,"is_disabled":false,"rental_uris":{"android":"levelo://app?vid=12a9756b-11c4-45d3-b35e-8117da99dd87","ios":"levelo://app?vid=12a9756b-11c4-45d3-b35e-8117da99dd87"},"vehicle_type_id":"4","last_reported":1730038101,"current_range_meters":38000,"station_id":"ce4bgk12rcd13ifvqbj0","pricing_plan_id":"cebpf4jnsgd1na2vs0mg"},{"bike_id":"8facd186-4138-4a0d-88db-13f87457893f","system_id":"levelo_inurba_marseille","lat":43.29972,"lon":5.38492,"is_reserved":false,"is_disabled":false,"rental_uris":{"android":"levelo://app?vid=8facd186-4138-4a0d-88db-13f87457893f","ios":"levelo://app?vid=8facd186-4138-4a0d-88db-13f87457893f"},"vehicle_type_id":"4","last_reported":1730038101,"current_range_meters":20800,"station_id":"ce4bgj92rcd13ifvqbd0","pricing_plan_id":"cebpf4jnsgd1na2vs0mg"},{"bike_id":"eb27c4b7-cac4-4127-a52e-c869f84ad10a","system_id":"levelo_inurba_marseille","lat":43.23196,"lon":5.35554,"is_reserved":false,"is_disabled":false,"rental_uris":{"android":"levelo://app?vid=eb27c4b7-cac4-4127-a52e-c869f84ad10a","ios":"levelo://app?vid=eb27c4b7-cac4-4127-a52e-c869f84ad10a"},"vehicle_type_id":"4","last_reported":1730038101,"current_range_meters":36400,"station_id":"ce4bhu92rcd13ifvqi70","pricing_plan_id":"cebpf4jnsgd1na2vs0mg"},{"bike_id":"a11daa0e-09df-49d7-90c7-48cf77cfdfbf","system_id":"levelo_inurba_marseille","lat":43.26562,"lon":5.39016,"is_reserved":false,"is_disabled":false,"rental_uris":{"android":"levelo://app?vid=a11daa0e-09df-49d7-90c7-48cf77cfdfbf","ios":"levelo://app?vid=a11daa0e-09df-49d7-90c7-48cf77cfdfbf"},"vehicle_type_id":"4","last_reported":1730038101,"current_range_meters":37600,"station_id":"ce4bhe12rcd13ifvqf30","pricing_plan_id":"cebpf4jnsgd1na2vs0mg"},{"bike_id":"e9fdb513-f417-42c5-953a-a44140c0ab7a","system_id":"levelo_inurba_marseille","lat":43.27811,"lon":5.40711,"is_reserved":false,"is_disabled":false,"rental_uris":{"android":"levelo://app?vid=e9fdb513-f417-42c5-953a-a44140c0ab7a","ios":"levelo://app?vid=e9fdb513-f417-42c5-953a-a44140c0ab7a"},"vehicle_type_id":"4","last_reported":1730038101,"current_range_meters":37600,"station_id":"ce4bhnh2rcd13ifvqgtg","pricing_plan_id":"cebpf4jnsgd1na2vs0mg"},{"bike_id":"d36b2e27-72fa-4ec6-aca1-92eec313c742","system_id":"levelo_inurba_marseille","lat":43.28443,"lon":5.39176,"is_reserved":false,"is_disabled":false,"rental_uris":{"android":"levelo://app?vid=d36b2e27-72fa-4ec6-aca1-92eec313c742","ios":"levelo://app?vid=d36b2e27-72fa-4ec6-aca1-92eec313c742"},"vehicle_type_id":"4","last_reported":1730038101,"current_range_meters":36000,"station_id":"ce4bhoh2rcd13ifvqh5g","pricing_plan_id":"cebpf4jnsgd1na2vs0mg"},{"bike_id":"397cf596-5f8b-4fef-ac42-da95aa474ef9","system_id":"levelo_inurba_marseille","lat":43.31347,"lon":5.36735,"is_reserved":false,"is_disabled":false,"rental_uris":{"android":"levelo://app?vid=397cf596-5f8b-4fef-ac42-da95aa474ef9","ios":"levelo://app?vid=397cf596-5f8b-4fef-ac42-da95aa474ef9"},"vehicle_type_id":"4","last_reported":1730038101,"current_range_meters":38800,"station_id":"ce4bgr92rcd13ifvqc6g","pricing_plan_id":"cebpf4jnsgd1na2vs0mg"},{"bike_id":"d22b15a5-02d8-4897-a426-f64247bea35c","system_id":"levelo_inurba_marseille","lat":43.24537,"lon":5.39518,"is_reserved":false,"is_disabled":false,"rental_uris":{"android":"levelo://app?vid=d22b15a5-02d8-4897-a426-f64247bea35c","ios":"levelo://app?vid=d22b15a5-02d8-4897-a426-f64247bea35c"},"vehicle_type_id":"4","last_reported":1730038101,"current_range_meters":37600,"station_id":"ce4bhlp2rcd13ifvqgjg","pricing_plan_id":"cebpf4jnsgd1na2vs0mg"},{"bike_id":"3c447e9e-f665-4c94-b4f7-b1a1adbf746d","system_id":"levelo_inurba_marseille","lat":43.24723,"lon":5.38017,"is_reserved":false,"is_disabled":false,"rental_uris":{"android":"levelo://app?vid=3c447e9e-f665-4c94-b4f7-b1a1adbf746d","ios":"levelo://app?vid=3c447e9e-f665-4c94-b4f7-b1a1adbf746d"},"vehicle_type_id":"4","last_reported":1730038101,"current_range_meters":7200,"station_id":"","pricing_plan_id":"cebpf4jnsgd1na2vs0mg"},{"bike_id":"d576abd6-1650-442d-a604-f8cb4943dd99","system_id":"levelo_inurba_marseille","lat":43.24177,"lon":5.39734,"is_reserved":false,"is_disabled":false,"rental_uris":{"android":"levelo://app?vid=d576abd6-1650-442d-a604-f8cb4943dd99","ios":"levelo://app?vid=d576abd6-1650-442d-a604-f8cb4943dd99"},"vehicle_type_id":"4","last_reported":1730038101,"current_range_meters":14800,"station_id":"ce4bhn12rcd13ifvqgpg","pricing_plan_id":"cebpf4jnsgd1na2vs0mg"},{"bike_id":"463dbfe0-7776-487a-8ff4-fe0cb35b7ed5","system_id":"levelo_inurba_marseille","lat":43.296253,"lon":5.380573,"is_reserved":false,"is_disabled":false,"rental_uris":{"android":"levelo://app?vid=463dbfe0-7776-487a-8ff4-fe0cb35b7ed5","ios":"levelo://app?vid=463dbfe0-7776-487a-8ff4-fe0cb35b7ed5"},"vehicle_type_id":"4","last_reported":1730038101,"current_range_meters":34000,"station_id":"ce4bgl12rcd13ifvqbo0","pricing_plan_id":"cebpf4jnsgd1na2vs0mg"},{"bike_id":"4d5826b6-9f06-436c-bfe7-72c33ff97835","system_id":"levelo_inurba_marseille","lat":43.29837,"lon":5.36266,"is_reserved":false,"is_disabled":false,"rental_uris":{"android":"levelo://app?vid=4d5826b6-9f06-436c-bfe7-72c33ff97835","ios":"levelo://app?vid=4d5826b6-9f06-436c-bfe7-72c33ff97835"},"vehicle_type_id":"4","last_reported":1730038101,"current_range_meters":38800,"station_id":"ce4bgpp2rcd13ifvqc3g","pricing_plan_id":"cebpf4jnsgd1na2vs0mg"},{"bike_id":"48936a2e-3a9b-4509-9996-c69e1b2c8e0c","system_id":"levelo_inurba_marseille","lat":43.24802,"lon":5.37452,"is_reserved":false,"is_disabled":false,"rental_uris":{"android":"levelo://app?vid=48936a2e-3a9b-4509-9996-c69e1b2c8e0c","ios":"levelo://app?vid=48936a2e-3a9b-4509-9996-c69e1b2c8e0c"},"vehicle_type_id":"4","last_reported":1730038101,"current_range_meters":39200,"station_id":"ce4bhgh2rcd13ifvqfb0","pricing_plan_id":"cebpf4jnsgd1na2vs0mg"},{"bike_id":"c505d207-5467-49bf-b1a5-4fc57d09adc4","system_id":"levelo_inurba_marseille","lat":43.23193,"lon":5.35557,"is_reserved":false,"is_disabled":false,"rental_uris":{"android":"levelo://app?vid=c505d207-5467-49bf-b1a5-4fc57d09adc4","ios":"levelo://app?vid=c505d207-5467-49bf-b1a5-4fc57d09adc4"},"vehicle_type_id":"4","last_reported":1730038101,"current_range_meters":38800,"station_id":"ce4bhu92rcd13ifvqi70","pricing_plan_id":"cebpf4jnsgd1na2vs0mg"},{"bike_id":"d8cb9839-0852-4e79-92df-bf79c224c10a","system_id":"levelo_inurba_marseille","lat":43.29707,"lon":5.37698,"is_reserved":false,"is_disabled":false,"rental_uris":{"android":"levelo://app?vid=d8cb9839-0852-4e79-92df-bf79c224c10a","ios":"levelo://app?vid=d8cb9839-0852-4e79-92df-bf79c224c10a"},"vehicle_type_id":"4","last_reported":1730038101,"current_range_meters":29600,"station_id":"ce4bgkh2rcd13ifvqbl0","pricing_plan_id":"cebpf4jnsgd1na2vs0mg"},{"bike_id":"8fd174d4-65c7-4a4e-8833-e33b1c869618","system_id":"levelo_inurba_marseille","lat":43.23956,"lon":5.36633,"is_reserved":false,"is_disabled":false,"rental_uris":{"android":"levelo://app?vid=8fd174d4-65c7-4a4e-8833-e33b1c869618","ios":"levelo://app?vid=8fd174d4-65c7-4a4e-8833-e33b1c869618"},"vehicle_type_id":"4","last_reported":1730038101,"current_range_meters":20000,"station_id":"ce4bhi12rcd13ifvqfp0","pricing_plan_id":"cebpf4jnsgd1na2vs0mg"},{"bike_id":"ddc73c40-5fda-4166-9894-2c12bc47834c","system_id":"levelo_inurba_marseille","lat":43.33376,"lon":5.39882,"is_reserved":false,"is_disabled":false,"rental_uris":{"android":"levelo://app?vid=ddc73c40-5fda-4166-9894-2c12bc47834c","ios":"levelo://app?vid=ddc73c40-5fda-4166-9894-2c12bc47834c"},"vehicle_type_id":"4","last_reported":1730038101,"current_range_meters":26800,"station_id":"","pricing_plan_id":"cebpf4jnsgd1na2vs0mg"},{"bike_id":"0d6b873d-e923-49a0-9239-f4225fc66f41","system_id":"levelo_inurba_marseille","lat":43.31491,"lon":5.3731,"is_reserved":false,"is_disabled":false,"rental_uris":{"android":"levelo://app?vid=0d6b873d-e923-49a0-9239-f4225fc66f41","ios":"levelo://app?vid=0d6b873d-e923-49a0-9239-f4225fc66f41"},"vehicle_type_id":"4","last_reported":1730038101,"current_range_meters":26000,"station_id":"ce4bgt12rcd13ifvqcd0","pricing_plan_id":"cebpf4jnsgd1na2vs0mg"},{"bike_id":"053e0ede-21d9-4b38-bf08-5704ea134c7f","system_id":"levelo_inurba_marseille","lat":43.28149,"lon":5.42637,"is_reserved":false,"is_disabled":false,"rental_uris":{"android":"levelo://app?vid=053e0ede-21d9-4b38-bf08-5704ea134c7f","ios":"levelo://app?vid=053e0ede-21d9-4b38-bf08-5704ea134c7f"},"vehicle_type_id":"4","last_reported":1730038101,"current_range_meters":8000,"station_id":"ce4bhnh2rcd13ifvqgug","pricing_plan_id":"cebpf4jnsgd1na2vs0mg"},{"bike_id":"084e2e45-23ff-420c-805b-f642cb4744ee","system_id":"levelo_inurba_marseille","lat":43.23196,"lon":5.3555,"is_reserved":false,"is_disabled":false,"rental_uris":{"android":"levelo://app?vid=084e2e45-23ff-420c-805b-f642cb4744ee","ios":"levelo://app?vid=084e2e45-23ff-420c-805b-f642cb4744ee"},"vehicle_type_id":"4","last_reported":1730038101,"current_range_meters":5600,"station_id":"ce4bhu92rcd13ifvqi70","pricing_plan_id":"cebpf4jnsgd1na2vs0mg"},{"bike_id":"db91c9ae-da6e-4b38-bb37-ea5508f35a42","system_id":"levelo_inurba_marseille","lat":43.30549,"lon":5.36531,"is_reserved":false,"is_disabled":false,"rental_uris":{"android":"levelo://app?vid=db91c9ae-da6e-4b38-bb37-ea5508f35a42","ios":"levelo://app?vid=db91c9ae-da6e-4b38-bb37-ea5508f35a42"},"vehicle_type_id":"4","last_reported":1730038101,"current_range_meters":22800,"station_id":"ce4bgs12rcd13ifvqcag","pricing_plan_id":"cebpf4jnsgd1na2vs0mg"},{"bike_id":"790451a4-c73c-4194-945a-ad302bc6dbf8","system_id":"levelo_inurba_marseille","lat":43.27186,"lon":5.40989,"is_reserved":false,"is_disabled":false,"rental_uris":{"android":"levelo://app?vid=790451a4-c73c-4194-945a-ad302bc6dbf8","ios":"levelo://app?vid=790451a4-c73c-4194-945a-ad302bc6dbf8"},"vehicle_type_id":"4","last_reported":1730038101,"current_range_meters":38800,"station_id":"ce4bhl12rcd13ifvqgf0","pricing_plan_id":"cebpf4jnsgd1na2vs0mg"},{"bike_id":"fd0f7cc6-0b22-4640-8013-42d5234a6b87","system_id":"levelo_inurba_marseille","lat":43.29414,"lon":5.43051,"is_reserved":false,"is_disabled":false,"rental_uris":{"android":"levelo://app?vid=fd0f7cc6-0b22-4640-8013-42d5234a6b87","ios":"levelo://app?vid=fd0f7cc6-0b22-4640-8013-42d5234a6b87"},"vehicle_type_id":"4","last_reported":1730038101,"current_range_meters":24400,"station_id":"ce4bh192rcd13ifvqdc0","pricing_plan_id":"cebpf4jnsgd1na2vs0mg"},{"bike_id":"2a00d2ac-d941-4872-a605-21095c5afb3c","system_id":"levelo_inurba_marseille","lat":43.326671,"lon":5.409932,"is_reserved":false,"is_disabled":false,"rental_uris":{"android":"levelo://app?vid=2a00d2ac-d941-4872-a605-21095c5afb3c","ios":"levelo://app?vid=2a00d2ac-d941-4872-a605-21095c5afb3c"},"vehicle_type_id":"4","last_reported":1730038101,"current_range_meters":22000,"station_id":"ce4bgt92rcd13ifvqcf0","pricing_plan_id":"cebpf4jnsgd1na2vs0mg"},{"bike_id":"e09f8030-be69-46c6-84b0-e8b01e6c089a","system_id":"levelo_inurba_marseille","lat":43.22934,"lon":5.35377,"is_reserved":false,"is_disabled":false,"rental_uris":{"android":"levelo://app?vid=e09f8030-be69-46c6-84b0-e8b01e6c089a","ios":"levelo://app?vid=e09f8030-be69-46c6-84b0-e8b01e6c089a"},"vehicle_type_id":"4","last_reported":1730038101,"current_range_meters":36800,"station_id":"cpo3532slgdg3j2ikp40","pricing_plan_id":"cebpf4jnsgd1na2vs0mg"},{"bike_id":"4a56d163-5adc-44cc-bf49-e0909cdecbad","system_id":"levelo_inurba_marseille","lat":43.23054,"lon":5.35491,"is_reserved":false,"is_disabled":false,"rental_uris":{"android":"levelo://app?vid=4a56d163-5adc-44cc-bf49-e0909cdecbad","ios":"levelo://app?vid=4a56d163-5adc-44cc-bf49-e0909cdecbad"},"vehicle_type_id":"4","last_reported":1730038101,"current_range_meters":4400,"station_id":"cpo3342slgdg3j2ifvpg","pricing_plan_id":"cebpf4jnsgd1na2vs0mg"},