{"last_updated":1758276725,"ttl":60,"version":"2.2","data":{"bikes":[{"bike_id":"e820c689-e974-4315-9bed-010e44b9c698","system_id":"levelo_inurba_marseille","lat":43.28202,"lon":5.35028,"is_reserved":false,"is_disabled":false,"rental_uris":{"android":"levelo://app?vid=e820c689-e974-4315-9bed-010e44b9c698","ios":"levelo://app?vid=e820c689-e974-4315-9bed-010e44b9c698"},"vehicle_type_id":"4","last_reported":1758276725,"current_range_meters":2800,"station_id":"","pricing_plan_id":"cebpf4jnsgd1na2vs0mg"},{"bike_id":"3df33f29-d8b6-4f92-8a0d-3477ddb3b74f","system_id":"levelo_inurba_marseille","lat":43.29971,"lon":5.38501,"is_reserved":false,"is_disabled":false,"rental_uris":{"android":"levelo://app?vid=3df33f29-d8b6-4f92-8a0d-3477ddb3b74f","ios":"levelo://app?vid=3df33f29-d8b6-4f92-8a0d-3477ddb3b74f"},"vehicle_type_id":"4","last_reported":1758276725,"current_range_meters":2800,"station_id":"ce4bgj92rcd13ifvqbd0","pricing_plan_id":"cebpf4jnsgd1na2vs0mg"},{"bike_id":"e929cc78-63a1-4829-b098-ce3935e58c8c","system_id":"levelo_inurba_marseille","lat":43.30409,"lon":5.3779,"is_reserved":false,"is_disabled":false,"rental_uris":{"android":"levelo://app?vid=e929cc78-63a1-4829-b098-ce3935e58c8c","ios":"levelo://app?vid=e929cc78-63a1-4829-b098-ce3935e58c8c"},"vehicle_type_id":"4","last_reported":1758276725,"current_range_meters":3200,"station_id":"","pricing_plan_id":"cebpf4jnsgd1na2vs0mg"},{"bike_id":"11cc1308-bde6-4691-a49c-6ea1585492c8","system_id":"levelo_inurba_marseille","lat":43.28924,"lon":5.36377,"is_reserved":false,"is_disabled":false,"rental_uris":{"android":"levelo://app?vid=11cc1308-bde6-4691-a49c-6ea1585492c8","ios":"levelo://app?vid=11cc1308-bde6-4691-a49c-6ea1585492c8"},"vehicle_type_id":"4","last_reported":1758276725,"current_range_meters":3200,"station_id":"ce4bhc92rcd13ifvqetg","pricing_plan_id":"cebpf4jnsgd1na2vs0mg"},{"bike_id":"6d6a658c-74d9-42fd-a62d-e86d2e16bf4d","system_id":"levelo_inurba_marseille","lat":43.29547,"lon":5.38563,"is_reserved":false,"is_disabled":false,"rental_uris":{"android":"levelo://app?vid=6d6a658c-74d9-42fd-a62d-e86d2e16bf4d","ios":"levelo://app?vid=6d6a658c-74d9-42fd-a62d-e86d2e16bf4d"},"vehicle_type_id":"4","last_reported":1758276725,"current_range_meters":2800,"station_id":"ce4bgih2rcd13ifvqba0","pricing_plan_id":"cebpf4jnsgd1na2vs0mg"},{"bike_id":"9a1724d4-c108-428b-925b-935aa8489c24","system_id":"levelo_inurba_marseille","lat":43.30537,"lon":5.36697,"is_reserved":false,"is_disabled":false,"rental_uris":{"android":"levelo://app?vid=9a1724d4-c108-428b-925b-935aa8489c24","ios":"levelo://app?vid=9a1724d4-c108-428b-925b-935aa8489c24"},"vehicle_type_id":"4","last_reported":1758276725,"current_range_meters":3600,"station_id":"ce4bgrp2rcd13ifvqc9g","pricing_plan_id":"cebpf4jnsgd1na2vs0mg"},{"bike_id":"c8f22e9e-b4d2-43ee-b3b0-8c4373db1570","system_id":"levelo_inurba_marseille","lat":43.29571,"lon":5.375,"is_reserved":false,"is_disabled":false,"rental_uris":{"android":"levelo://app?vid=c8f22e9e-b4d2-43ee-b3b0-8c4373db1570","ios":"levelo://app?vid=c8f22e9e-b4d2-43ee-b3b0-8c4373db1570"},"vehicle_type_id":"4","last_reported":1758276725,"current_range_meters":3600,"station_id":"ce4bgh92rcd13ifvqb50","pricing_plan_id":"cebpf4jnsgd1na2vs0mg"},{"bike_id":"6f23014c-eadd-44d8-8739-0edc9f01479a","system_id":"levelo_inurba_marseille","lat":43.33469,"lon":5.4098,"is_reserved":false,"is_disabled":false,"rental_uris":{"android":"levelo://app?vid=6f23014c-eadd-44d8-8739-0edc9f01479a","ios":"levelo://app?vid=6f23014c-eadd-44d8-8739-0edc9f01479a"},"vehicle_type_id":"4","last_reported":1758276725,"current_range_meters":4000,"station_id":"","pricing_plan_id":"cebpf4jnsgd1na2vs0mg"},{"bike_id":"190d0825-c1b9-4efd-8a03-d87285d4a5b6","system_id":"levelo_inurba_marseille","lat":43.29806,"lon":5.37723,"is_reserved":false,"is_disabled":false,"rental_uris":{"android":"levelo://app?vid=190d0825-c1b9-4efd-8a03-d87285d4a5b6","ios":"levelo://app?vid=190d0825-c1b9-4efd-8a03-d87285d4a5b6"},"vehicle_type_id":"4","last_reported":1758276725,"current_range_meters":4000,"station_id":"","pricing_plan_id":"cebpf4jnsgd1na2vs0mg"},{"bike_id":"f7982851-4633-40f8-b04f-0343f46fbf3d","system_id":"levelo_inurba_marseille","lat":43.28,"lon":5.41673,"is_reserved":false,"is_disabled":false,"rental_uris":{"android":"levelo://app?vid=f7982851-4633-40f8-b04f-0343f46fbf3d","ios":"levelo://app?vid=f7982851-4633-40f8-b04f-0343f46fbf3d"},"vehicle_type_id":"4","last_reported":1758276725,"current_range_meters":4400,"station_id":"ce4bho12rcd13ifvqh1g","pricing_plan_id":"cebpf4jnsgd1na2vs0mg"},{"bike_id":"059c0ba7-1dcb-4f29-8d05-6060640937cc","system_id":"levelo_inurba_marseille","lat":43.3298,"lon":5.38926,"is_reserved":false,"is_disabled":false,"rental_uris":{"android":"levelo://app?vid=059c0ba7-1dcb-4f29-8d05-6060640937cc","ios":"levelo://app?vid=059c0ba7-1dcb-4f29-8d05-6060640937cc"},"vehicle_type_id":"4","last_reported":1758276725,"current_range_meters":4400,"station_id":"","pricing_plan_id":"cebpf4jnsgd1na2vs0mg"},{"bike_id":"fd8a79ae-83f6-4ba6-a41d-a462a115a33e","system_id":"levelo_inurba_marseille","lat":43.29796,"lon":5.38088,"is_reserved":false,"is_disabled":false,"rental_uris":{"android":"levelo://app?vid=fd8a79ae-83f6-4ba6-a41d-a462a115a33e","ios":"levelo://app?vid=fd8a79ae-83f6-4ba6-a41d-a462a115a33e"},"vehicle_type_id":"4","last_reported":1758276725,"current_range_meters":4800,"station_id":"ce4bgip2rcd13ifvqbb0","pricing_plan_id":"cebpf4jnsgd1na2vs0mg"},{"bike_id":"71f98bea-d2c6-4708-9011-517b72f720c3","system_id":"levelo_inurba_marseille","lat":43.22558,"lon":5.41626,"is_reserved":false,"is_disabled":false,"rental_uris":{"android":"levelo://app?vid=71f98bea-d2c6-4708-9011-517b72f720c3","ios":"levelo://app?vid=71f98bea-d2c6-4708-9011-517b72f720c3"},"vehicle_type_id":"4","last_reported":1758276725,"current_range_meters":4800,"station_id":"st_d2o4gvlbi1j2169b742g","pricing_plan_id":"cebpf4jnsgd1na2vs0mg"},{"bike_id":"67d70ad3-efca-42cd-b410-89e44cdae1cb","system_id":"levelo_inurba_marseille","lat":43.29903,"lon":5.36533,"is_reserved":false,"is_disabled":false,"rental_uris":{"android":"levelo://app?vid=67d70ad3-efca-42cd-b410-89e44cdae1cb","ios":"levelo://app?vid=67d70ad3-efca-42cd-b410-89e44cdae1cb"},"vehicle_type_id":"4","last_reported":1758276725,"current_range_meters":5600,"station_id":"ce4bgm92rcd13ifvqbr0","pricing_plan_id":"cebpf4jnsgd1na2vs0mg"},{"bike_id":"a768fa05-719e-41f6-b14f-ccf759966259","system_id":"levelo_inurba_marseille","lat":43.2861,"lon":5.35102,"is_reserved":false,"is_disabled":false,"rental_uris":{"android":"levelo://app?vid=a768fa05-719e-41f6-b14f-ccf759966259","ios":"levelo://app?vid=a768fa05-719e-41f6-b14f-ccf759966259"},"vehicle_type_id":"4","last_reported":1758276725,"current_range_meters":5600,"station_id":"ce4bhch2rcd13ifvqeug","pricing_plan_id":"cebpf4jnsgd1na2vs0mg"},{"bike_id":"a826ad86-657e-471a-9f88-068a8cb0ac1f","system_id":"levelo_inurba_marseille","lat":43.28247,"lon":5.43075,"is_reserved":false,"is_disabled":false,"rental_uris":{"android":"levelo://app?vid=a826ad86-657e-471a-9f88-068a8cb0ac1f","ios":"levelo://app?vid=a826ad86-657e-471a-9f88-068a8cb0ac1f"},"vehicle_type_id":"4","last_reported":1758276725,"current_range_meters":5600,"station_id":"","pricing_plan_id":"cebpf4jnsgd1na2vs0mg"},{"bike_id":"1f826529-9ccc-455a-9800-20757672384e","system_id":"levelo_inurba_marseille","lat":43.29438,"lon":5.39758,"is_reserved":false,"is_disabled":false,"rental_uris":{"android":"levelo://app?vid=1f826529-9ccc-455a-9800-20757672384e","ios":"levelo://app?vid=1f826529-9ccc-455a-9800-20757672384e"},"vehicle_type_id":"4","last_reported":1758276725,"current_range_meters":6000,"station_id":"ce4bh3h2rcd13ifvqdo0","pricing_plan_id":"cebpf4jnsgd1na2vs0mg"},{"bike_id":"45afe5f4-5cbe-49c2-a913-33c967100178","system_id":"levelo_inurba_marseille","lat":43.29776,"lon":5.380931,"is_reserved":false,"is_disabled":false,"rental_uris":{"android":"levelo://app?vid=45afe5f4-5cbe-49c2-a913-33c967100178","ios":"levelo://app?vid=45afe5f4-5cbe-49c2-a913-33c967100178"},"vehicle_type_id":"4","last_reported":1758276725,"current_range_meters":6000,"station_id":"","pricing_plan_id":"cebpf4jnsgd1na2vs0mg"},{"bike_id":"d17ab834-bdd3-4214-b36a-fdd114b51ecb","system_id":"levelo_inurba_marseille","lat":43.24388,"lon":5.37056,"is_reserved":false,"is_disabled":false,"rental_uris":{"android":"levelo://app?vid=d17ab834-bdd3-4214-b36a-fdd114b51ecb","ios":"levelo://app?vid=d17ab834-bdd3-4214-b36a-fdd114b51ecb"},"vehicle_type_id":"4","last_reported":1758276725,"current_range_meters":6400,"station_id":"ce4bhhh2rcd13ifvqfk0","pricing_plan_id":"cebpf4jnsgd1na2vs0mg"},{"bike_id":"0e21f20d-e541-4e87-b362-394afbfa1e68","system_id":"levelo_inurba_marseille","lat":43.2655,"lon":5.37287,"is_reserved":false,"is_disabled":false,"rental_uris":{"android":"levelo://app?vid=0e21f20d-e541-4e87-b362-394afbfa1e68","ios":"levelo://app?vid=0e21f20d-e541-4e87-b362-394afbfa1e68"},"vehicle_type_id":"4","last_reported":1758276725,"current_range_meters":6400,"station_id":"ce4bhg12rcd13ifvqf70","pricing_plan_id":"cebpf4jnsgd1na2vs0mg"},{"bike_id":"61beea36-4bda-4aa6-84ea-eeb119cc83ff","system_id":"levelo_inurba_marseille","lat":43.225324,"lon":5.348382,"is_reserved":false,"is_disabled":false,"rental_uris":{"android":"levelo://app?vid=61beea36-4bda-4aa6-84ea-eeb119cc83ff","ios":"levelo://app?vid=61beea36-4bda-4aa6-84ea-eeb119cc83ff"},"vehicle_type_id":"4","last_reported":1758276725,"current_range_meters":6400,"station_id":"","pricing_plan_id":"cebpf4jnsgd1na2vs0mg"},{"bike_id":"55dabd6d-650f-4485-8c0b-6a5763700e61","system_id":"levelo_inurba_marseille","lat":43.25765,"lon":5.38721,"is_reserved":false,"is_disabled":false,"rental_uris":{"android":"levelo://app?vid=55dabd6d-650f-4485-8c0b-6a5763700e61","ios":"levelo://app?vid=55dabd6d-650f-4485-8c0b-6a5763700e61"},"vehicle_type_id":"4","last_reported":1758276725,"current_range_meters":6400,"station_id":"","pricing_plan_id":"cebpf4jnsgd1na2vs0mg"},{"bike_id":"55dfb17a-dc13-4669-82ac-2c676d600c2d","system_id":"levelo_inurba_marseille","lat":43.31351,"lon":5.37936,"is_reserved":false,"is_disabled":true,"rental_uris":{"android":"levelo://app?vid=55dfb17a-dc13-4669-82ac-2c676d600c2d","ios":"levelo://app?vid=55dfb17a-dc13-4669-82ac-2c676d600c2d"},"vehicle_type_id":"4","last_reported":1758276725,"current_range_meters":6800,"station_id":"","pricing_plan_id":"cebpf4jnsgd1na2vs0mg"},{"bike_id":"7745eab8-3d48-4349-b863-861b7cc7cbd1","system_id":"levelo_inurba_marseille","lat":43.290054,"lon":5.381405,"is_reserved":false,"is_disabled":false,"rental_uris":{"android":"levelo://app?vid=7745eab8-3d48-4349-b863-861b7cc7cbd1","ios":"levelo://app?vid=7745eab8-3d48-4349-b863-861b7cc7cbd1"},"vehicle_type_id":"4","last_reported":1758276725,"current_range_meters":7200,"station_id":"","pricing_plan_id":"cebpf4jnsgd1na2vs0mg"},{"bike_id":"ec810861-4c59-4575-a018-36ae138f4e19","system_id":"levelo_inurba_marseille","lat":43.30153,"lon":5.38103,"is_reserved":false,"is_disabled":false,"rental_uris":{"android":"levelo://app?vid=ec810861-4c59-4575-a018-36ae138f4e19","ios":"levelo://app?vid=ec810861-4c59-4575-a018-36ae138f4e19"},"vehicle_type_id":"4","last_reported":1758276725,"current_range_meters":7200,"station_id":"ce4bgjp2rcd13ifvqbh0","pricing_plan_id":"cebpf4jnsgd1na2vs0mg"},{"bike_id":"c7dca2fb-32e2-452d-adf3-ca32ac5cb29d","system_id":"levelo_inurba_marseille","lat":43.292324,"lon":5.360706,"is_reserved":false,"is_disabled":false,"rental_uris":{"android":"levelo://app?vid=c7dca2fb-32e2-452d-adf3-ca32ac5cb29d","ios":"levelo://app?vid=c7dca2fb-32e2-452d-adf3-ca32ac5cb29d"},"vehicle_type_id":"4","last_reported":1758276725,"current_range_meters":7200,"station_id":"ce4bhbh2rcd13ifvqeqg","pricing_plan_id":"cebpf4jnsgd1na2vs0mg"},{"bike_id":"c6e43c84-e260-44e8-952b-98a444cd3151","system_id":"levelo_inurba_marseille","lat":43.28362,"lon":5.38645,"is_reserved":false,"is_disabled":false,"rental_uris":{"android":"levelo://app?vid=c6e43c84-e260-44e8-952b-98a444cd3151","ios":"levelo://app?vid=c6e43c84-e260-44e8-952b-98a444cd3151"},"vehicle_type_id":"4","last_reported":1758276725,"current_range_meters":8000,"station_id":"ce4bh492rcd13ifvqdvg","pricing_plan_id":"cebpf4jnsgd1na2vs0mg"},{"bike_id":"7b107543-a713-4a73-b399-f6e2e4e099a5","system_id":"levelo_inurba_marseille","lat":43.30284,"lon":5.37711,"is_reserved":false,"is_disabled":false,"rental_uris":{"android":"levelo://app?vid=7b107543-a713-4a73-b399-f6e2e4e099a5","ios":"levelo://app?vid=7b107543-a713-4a73-b399-f6e2e4e099a5"},"vehicle_type_id":"4","last_reported":1758276725,"current_range_meters":8000,"station_id":"ce4bguh2rcd13ifvqcj0","pricing_plan_id":"cebpf4jnsgd1na2vs0mg"},{"bike_id":"cf66592a-d8fa-4c6c-9927-5d7a9fef5026","system_id":"levelo_inurba_marseille","lat":43.26281,"lon":5.39854,"is_reserved":false,"is_disabled":false,"rental_uris":{"android":"levelo://app?vid=cf66592a-d8fa-4c6c-9927-5d7a9fef5026","ios":"levelo://app?vid=cf66592a-d8fa-4c6c-9927-5d7a9fef5026"},"vehicle_type_id":"4","last_reported":1758276725,"current_range_meters":8400,"station_id":"","pricing_plan_id":"cebpf4jnsgd1na2vs0mg"},{"bike_id":"59028b69-047a-4dce-8d71-00f904471d6e","system_id":"levelo_inurba_marseille","lat":43.21751,"lon":5.34602,"is_reserved":false,"is_disabled":false,"rental_uris":{"android":"levelo://app?vid=59028b69-047a-4dce-8d71-00f904471d6e","ios":"levelo://app?vid=59028b69-047a-4dce-8d71-00f904471d6e"},"vehicle_type_id":"4","last_reported":1758276725,"current_range_meters":8400,"station_id":"","pricing_plan_id":"cebpf4jnsgd1na2vs0mg"},{"bike_id":"71d14a8e-c5ad-46c5-96f5-4a6d2fc67505","system_id":"levelo_inurba_marseille","lat":43.26557,"lon":5.37285,"is_reserved":false,"is_disabled":false,"rental_uris":{"android":"levelo://app?vid=71d14a8e-c5ad-46c5-96f5-4a6d2fc67505","ios":"levelo://app?vid=71d14a8e-c5ad-46c5-96f5-4a6d2fc67505"},"vehicle_type_id":"4","last_reported":1758276725,"current_range_meters":8400,"station_id":"ce4bhg12rcd13ifvqf70","pricing_plan_id":"cebpf4jnsgd1na2vs0mg"},{"bike_id":"2dec8c38-8e53-4475-a4f2-5caebfd8a70e","system_id":"levelo_inurba_marseille","lat":43.33774,"lon":5.37412,"is_reserved":false,"is_disabled":false,"rental_uris":{"android":"levelo://app?vid=2dec8c38-8e53-4475-a4f2-5caebfd8a70e","ios":"levelo://app?vid=2dec8c38-8e53-4475-a4f2-5caebfd8a70e"},"vehicle_type_id":"4","last_reported":1758276725,"current_range_meters":8400,"station_id":"","pricing_plan_id":"cebpf4jnsgd1na2vs0mg"},{"bike_id":"64b8f5d2-16ee-4c85-a97d-7145fcb10104","system_id":"levelo_inurba_marseille","lat":43.225343,"lon":5.348349,"is_reserved":false,"is_disabled":false,"rental_uris":{"android":"levelo://app?vid=64b8f5d2-16ee-4c85-a97d-7145fcb10104","ios":"levelo://app?vid=64b8f5d2-16ee-4c85-a97d-7145fcb10104"},"vehicle_type_id":"4","last_reported":1758276725,"current_range_meters":8800,"station_id":"","pricing_plan_id":"cebpf4jnsgd1na2vs0mg"},{"bike_id":"405f7bc7-f721-4f9d-847e-2b9edb89ec2a","system_id":"levelo_inurba_marseille","lat":43.2463,"lon":5.43149,"is_reserved":false,"is_disabled":false,"rental_uris":{"android":"levelo://app?vid=405f7bc7-f721-4f9d-847e-2b9edb89ec2a","ios":"levelo://app?vid=405f7bc7-f721-4f9d-847e-2b9edb89ec2a"},"vehicle_type_id":"4","last_reported":1758276725,"current_range_meters":8800,"station_id":"st_d2m6c4gdas8pm72e190g","pricing_plan_id":"cebpf4jnsgd1na2vs0mg"},{"bike_id":"21a4b02b-9151-41e7-89e0-403ad01d24d6","system_id":"levelo_inurba_marseille","lat":43.29102,"lon":5.38129,"is_reserved":false,"is_disabled":false,"rental_uris":{"android":"levelo://app?vid=21a4b02b-9151-41e7-89e0-403ad01d24d6","ios":"levelo://app?vid=21a4b02b-9151-41e7-89e0-403ad01d24d6"},"vehicle_type_id":"4","last_reported":1758276725,"current_range_meters":8800,"station_id":"ce4bh512rcd13ifvqe2g","pricing_plan_id":"cebpf4jnsgd1na2vs0mg"},{"bike_id":"8f85300c-2404-4398-81c9-e87d9e70d8aa","system_id":"levelo_inurba_marseille","lat":43.29892,"lon":5.43668,"is_reserved":false,"is_disabled":false,"rental_uris":{"android":"levelo://app?vid=8f85300c-2404-4398-81c9-e87d9e70d8aa","ios":"levelo://app?vid=8f85300c-2404-4398-81c9-e87d9e70d8aa"},"vehicle_type_id":"4","last_reported":1758276725,"current_range_meters":8800,"station_id":"ce4bhpp2rcd13ifvqhfg","pricing_plan_id":"cebpf4jnsgd1na2vs0mg"},{"bike_id":"1d5286bb-d7d1-4615-b8e0-de3343823f4e","system_id":"levelo_inurba_marseille","lat":43.298785,"lon":5.397386,"is_reserved":false,"is_disabled":false,"rental_uris":{"android":"levelo://app?vid=1d5286bb-d7d1-4615-b8e0-de3343823f4e","ios":"levelo://app?vid=1d5286bb-d7d1-4615-b8e0-de3343823f4e"},"vehicle_type_id":"4","last_reported":1758276725,"current_range_meters":8800,"station_id":"ce4bh0h2rcd13ifvqd50","pricing_plan_id":"cebpf4jnsgd1na2vs0mg"},{"bike_id":"d1788760-0706-4b90-8999-db00a9e42210","system_id":"levelo_inurba_marseille","lat":43.32797,"lon":5.41011,"is_reserved":false,"is_disabled":true,"rental_uris":{"android":"levelo://app?vid=d1788760-0706-4b90-8999-db00a9e42210","ios":"levelo://app?vid=d1788760-0706-4b90-8999-db00a9e42210"},"vehicle_type_id":"4","last_reported":1758276725,"current_range_meters":8800,"station_id":"","pricing_plan_id":"cebpf4jnsgd1na2vs0mg"},{"bike_id":"0ce4224c-3da6-4873-bf9e-d112e9cd9bfb","system_id":"levelo_inurba_marseille","lat":43.22554,"lon":5.41609,"is_reserved":false,"is_disabled":false,"rental_uris":{"android":"levelo://app?vid=0ce4224c-3da6-4873-bf9e-d112e9cd9bfb","ios":"levelo://app?vid=0ce4224c-3da6-4873-bf9e-d112e9cd9bfb"},"vehicle_type_id":"4","last_reported":1758276725,"current_range_meters":9200,"station_id":"st_d2o4gvlbi1j2169b742g","pricing_plan_id":"cebpf4jnsgd1na2vs0mg"},{"bike_id":"a3b31de1-adcb-4dde-9b1a-b9c6c36ed5e9","system_id":"levelo_inurba_marseille","lat":43.26568,"lon":5.37285,"is_reserved":false,"is_disabled":false,"rental_uris":{"android":"levelo://app?vid=a3b31de1-adcb-4dde-9b1a-b9c6c36ed5e9","ios":"levelo://app?vid=a3b31de1-adcb-4dde-9b1a-b9c6c36ed5e9"},"vehicle_type_id":"4","last_reported":1758276725,"current_range_meters":9200,"station_id":"ce4bhg12rcd13ifvqf70","pricing_plan_id":"cebpf4jnsgd1na2vs0mg"},{"bike_id":"cd5ea3c4-33a7-4755-986b-502c7b2660f7","system_id":"levelo_inurba_marseille","lat":43.337613,"lon":5.374325,"is_reserved":false,"is_disabled":false,"rental_uris":{"android":"levelo://app?vid=cd5ea3c4-33a7-4755-986b-502c7b2660f7","ios":"levelo://app?vid=cd5ea3c4-33a7-4755-986b-502c7b2660f7"},"vehicle_type_id":"4","last_reported":1758276725,"current_range_meters":9600,"station_id":"","pricing_plan_id":"cebpf4jnsgd1na2vs0mg"},{"bike_id":"b63b878b-abc4-4c7a-b0cb-efef31b124d6","system_id":"levelo_inurba_marseille","lat":43.30132,"lon":5.39855,"is_reserved":false,"is_disabled":false,"rental_uris":{"android":"levelo://app?vid=b63b878b-abc4-4c7a-b0cb-efef31b124d6","ios":"levelo://app?vid=b63b878b-abc4-4c7a-b0cb-efef31b124d6"},"vehicle_type_id":"4","last_reported":1758276725,"current_range_meters":10000,"station_id":"ce4bh0h2rcd13ifvqd40","pricing_plan_id":"cebpf4jnsgd1na2vs0mg"},{"bike_id":"56a4f75d-eaf2-44b4-aa02-4a439b19699b","system_id":"levelo_inurba_marseille","lat":43.33769,"lon":5.37404,"is_reserved":false,"is_disabled":false,"rental_uris":{"android":"levelo://app?vid=56a4f75d-eaf2-44b4-aa02-4a439b19699b","ios":"levelo://app?vid=56a4f75d-eaf2-44b4-aa02-4a439b19699b"},"vehicle_type_id":"4","last_reported":1758276725,"current_range_meters":9600,"station_id":"","pricing_plan_id":"cebpf4jnsgd1na2vs0mg"},{"bike_id":"c03db5d6-931c-41e0-bfa5-6550a106fb99","system_id":"levelo_inurba_marseille","lat":43.23284,"lon":5.3605,"is_reserved":false,"is_disabled":false,"rental_uris":{"android":"levelo://app?vid=c03db5d6-931c-41e0-bfa5-6550a106fb99","ios":"levelo://app?vid=c03db5d6-931c-41e0-bfa5-6550a106fb99"},"vehicle_type_id":"4","last_reported":1758276725,"current_range_meters":9600,"station_id":"","pricing_plan_id":"cebpf4jnsgd1na2vs0mg"},{"bike_id":"522fc171-8073-469b-b474-aea08624c032","system_id":"levelo_inurba_marseille","lat":43.26212,"lon":5.37438,"is_reserved":false,"is_disabled":false,"rental_uris":{"android":"levelo://app?vid=522fc171-8073-469b-b474-aea08624c032","ios":"levelo://app?vid=522fc171-8073-469b-b474-aea08624c032"},"vehicle_type_id":"4","last_reported":1758276725,"current_range_meters":9600,"station_id":"ce4bhgp2rcd13ifvqfc0","pricing_plan_id":"cebpf4jnsgd1na2vs0mg"},{"bike_id":"42323a1a-489c-43cb-90ae-c675b27444d5","system_id":"levelo_inurba_marseille","lat":43.21641,"lon":5.34375,"is_reserved":false,"is_disabled":false,"rental_uris":{"android":"levelo://app?vid=42323a1a-489c-43cb-90ae-c675b27444d5","ios":"levelo://app?vid=42323a1a-489c-43cb-90ae-c675b27444d5"},"vehicle_type_id":"4","last_reported":1758276725,"current_range_meters":9600,"station_id":"","pricing_plan_id":"cebpf4jnsgd1na2vs0mg"},{"bike_id":"f9d3c771-525d-4368-b251-f90db35fb366","system_id":"levelo_inurba_marseille","lat":43.29794,"lon":5.37108,"is_reserved":false,"is_disabled":false,"rental_uris":{"android":"levelo://app?vid=f9d3c771-525d-4368-b251-f90db35fb366","ios":"levelo://app?vid=f9d3c771-525d-4368-b251-f90db35fb366"},"vehicle_type_id":"4","last_reported":1758276725,"current_range_meters":9600,"station_id":"ce4bgop2rcd13ifvqc1g","pricing_plan_id":"cebpf4jnsgd1na2vs0mg"},{"bike_id":"cad97885-b582-49b2-8b83-0a6c3d079fc6","system_id":"levelo_inurba_marseille","lat":43.297018,"lon":5.365873,"is_reserved":false,"is_disabled":false,"rental_uris":{"android":"levelo://app?vid=cad97885-b582-49b2-8b83-0a6c3d079fc6","ios":"levelo://app?vid=cad97885-b582-49b2-8b83-0a6c3d079fc6"},"vehicle_type_id":"4","last_reported":1758276725,"current_range_meters":10000,"station_id":"ce4bgn12rcd13ifvqbt0","pricing_plan_id":"cebpf4jnsgd1na2vs0mg"},{"bike_id":"53dcd9c2-773f-4712-86a1-98083136b91b","system_id":"levelo_inurba_marseille","lat":43.31351,"lon":5.38494,"is_reserved":false,"is_disabled":true,"rental_uris":{"android":"levelo://app?vid=53dcd9c2-773f-4712-86a1-98083136b91b","ios":"levelo://app?vid=53dcd9c2-773f-4712-86a1-98083136b91b"},"vehicle_type_id":"4","last_reported":1758276725,"current_range_meters":10000,"station_id":"ce4bgt92rcd13ifvqcf0","pricing_plan_id":"cebpf4jnsgd1na2vs0mg"},{"bike_id":"b9022aaf-2716-44ee-b6f8-e66fdff79ada","system_id":"levelo_inurba_marseille","lat":43.28101,"lon":5.3784,"is_reserved":false,"is_disabled":false,"rental_uris":{"android":"levelo://app?vid=b9022aaf-2716-44ee-b6f8-e66fdff79ada","ios":"levelo://app?vid=b9022aaf-2716-44ee-b6f8-e66fdff79ada"},"vehicle_type_id":"4","last_reported":1758276725,"current_range_meters":10000,"station_id":"ce4bha12rcd13ifvqee0","pricing_plan_id":"cebpf4jnsgd1na2vs0mg"},{"bike_id":"be9ee84b-9ec1-497c-800c-5907ad1418ae","system_id":"levelo_inurba_marseille","lat":43.22563,"lon":5.41624,"is_reserved":false,"is_disabled":false,"rental_uris":{"android":"levelo://app?vid=be9ee84b-9ec1-497c-800c-5907ad1418ae","ios":"levelo://app?vid=be9ee84b-9ec1-497c-800c-5907ad1418ae"},"vehicle_type_id":"4","last_reported":1758276725,"current_range_meters":10000,"station_id":"st_d2o4gvlbi1j2169b742g","pricing_plan_id":"cebpf4jnsgd1na2vs0mg"},{"bike_id":"e6f8489d-fe42-4015-a82c-b604c2c8b33e","system_id":"levelo_inurba_marseille","lat":43.29795,"lon":5.36682,"is_reserved":false,"is_disabled":false,"rental_uris":{"android":"levelo://app?vid=e6f8489d-fe42-4015-a82c-b604c2c8b33e","ios":"levelo://app?vid=e6f8489d-fe42-4015-a82c-b604c2c8b33e"},"vehicle_type_id":"4","last_reported":1758276725,"current_range_meters":10000,"station_id":"","pricing_plan_id":"cebpf4jnsgd1na2vs0mg"},{"bike_id":"80a9a218-f77f-42ce-8136-b0dceb9fc366","system_id":"levelo_inurba_marseille","lat":43.267867,"lon":5.394102,"is_reserved":false,"is_disabled":true,"rental_uris":{"android":"levelo://app?vid=80a9a218-f77f-42ce-8136-b0dceb9fc366","ios":"levelo://app?vid=80a9a218-f77f-42ce-8136-b0dceb9fc366"},"vehicle_type_id":"4","last_reported":1758276725,"current_range_meters":10800,"station_id":"ce4bhh12rcd13ifvqfg0","pricing_plan_id":"cebpf4jnsgd1na2vs0mg"},{"bike_id":"02851a83-66f7-457b-acbf-d17a6fc45d98","system_id":"levelo_inurba_marseille","lat":43.27552,"lon":5.38427,"is_reserved":false,"is_disabled":false,"rental_uris":{"android":"levelo://app?vid=02851a83-66f7-457b-acbf-d17a6fc45d98","ios":"levelo://app?vid=02851a83-66f7-457b-acbf-d17a6fc45d98"},"vehicle_type_id":"4","last_reported":1758276725,"current_range_meters":10800,"station_id":"ce4bhh92rcd13ifvqfi0","pricing_plan_id":"cebpf4jnsgd1na2vs0mg"},{"bike_id":"fa0847a4-8d8b-47a2-9c0d-c16fe7a48c9b","system_id":"levelo_inurba_marseille","lat":43.330285,"lon":5.390556,"is_reserved":false,"is_disabled":false,"rental_uris":{"android":"levelo://app?vid=fa0847a4-8d8b-47a2-9c0d-c16fe7a48c9b","ios":"levelo://app?vid=fa0847a4-8d8b-47a2-9c0d-c16fe7a48c9b"},"vehicle_type_id":"4","last_reported":1758276725,"current_range_meters":10800,"station_id":"","pricing_plan_id":"cebpf4jnsgd1na2vs0mg"},{"bike_id":"77987ce2-687c-4245-9c45-2cf4fe8a0673","system_id":"levelo_inurba_marseille","lat":43.3127,"lon":5.40174,"is_reserved":false,"is_disabled":false,"rental_uris":{"android":"levelo://app?vid=77987ce2-687c-4245-9c45-2cf4fe8a0673","ios":"levelo://app?vid=77987ce2-687c-4245-9c45-2cf4fe8a0673"},"vehicle_type_id":"4","last_reported":1758276725,"current_range_meters":10800,"station_id":"ce4bh092rcd13ifvqd30","pricing_plan_id":"cebpf4jnsgd1na2vs0mg"},{"bike_id":"a4faa1fd-62ee-404a-aff8-b79ea6b6b5d2","system_id":"levelo_inurba_marseille","lat":43.32986,"lon":5.39245,"is_reserved":false,"is_disabled":false,"rental_uris":{"android":"levelo://app?vid=a4faa1fd-62ee-404a-aff8-b79ea6b6b5d2","ios":"levelo://app?vid=a4faa1fd-62ee-404a-aff8-b79ea6b6b5d2"},"vehicle_type_id":"4","last_reported":1758276725,"current_range_meters":11200,"station_id":"","pricing_plan_id":"cebpf4jnsgd1na2vs0mg"},{"bike_id":"22f0687d-25d3-4094-9c4a-293a61e189a6","system_id":"levelo_inurba_marseille","lat":43.2463,"lon":5.39626,"is_reserved":false,"is_disabled":true,"rental_uris":{"android":"levelo://app?vid=22f0687d-25d3-4094-9c4a-293a61e189a6","ios":"levelo://app?vid=22f0687d-25d3-4094-9c4a-293a61e189a6"},"vehicle_type_id":"4","last_reported":1758276725,"current_range_meters":11200,"station_id":"","pricing_plan_id":"cebpf4jnsgd1na2vs0mg"},{"bike_id":"0738ee16-9763-4263-80d3-9a67057543ec","system_id":"levelo_inurba_marseille","lat":43.2792,"lon":5.39576,"is_reserved":false,"is_disabled":false,"rental_uris":{"android":"levelo://app?vid=0738ee16-9763-4263-80d3-9a67057543ec","ios":"levelo://app?vid=0738ee16-9763-4263-80d3-9a67057543ec"},"vehicle_type_id":"4","last_reported":1758276725,"current_range_meters":11200,"station_id":"ce4bhf92rcd13ifvqf40","pricing_plan_id":"cebpf4jnsgd1na2vs0mg"},{"bike_id":"f7e71be9-9390-4791-a469-2a3df86235c9","system_id":"levelo_inurba_marseille","lat":43.33778,"lon":5.37444,"is_reserved":false,"is_disabled":false,"rental_uris":{"android":"levelo://app?vid=f7e71be9-9390-4791-a469-2a3df86235c9","ios":"levelo://app?vid=f7e71be9-9390-4791-a469-2a3df86235c9"},"vehicle_type_id":"4","last_reported":1758276725,"current_range_meters":11600,"station_id":"","pricing_plan_id":"cebpf4jnsgd1na2vs0mg"},{"bike_id":"7d99ff38-bc24-476a-898f-c8182591600b","system_id":"levelo_inurba_marseille","lat":43.3041,"lon":5.41276,"is_reserved":false,"is_disabled":false,"rental_uris":{"android":"levelo://app?vid=7d99ff38-bc24-476a-898f-c8182591600b","ios":"levelo://app?vid=7d99ff38-bc24-476a-898f-c8182591600b"},"vehicle_type_id":"4","last_reported":1758276725,"current_range_meters":11600,"station_id":"ce4bhop2rcd13ifvqh8g","pricing_plan_id":"cebpf4jnsgd1na2vs0mg"},{"bike_id":"e942f984-8fe7-48d1-8f04-3806656b9996","system_id":"levelo_inurba_marseille","lat":43.33631,"lon":5.37922,"is_reserved":false,"is_disabled":false,"rental_uris":{"android":"levelo://app?vid=e942f984-8fe7-48d1-8f04-3806656b9996","ios":"levelo://app?vid=e942f984-8fe7-48d1-8f04-3806656b9996"},"vehicle_type_id":"4","last_reported":1758276725,"current_range_meters":11600,"station_id":"","pricing_plan_id":"cebpf4jnsgd1na2vs0mg"},{"bike_id":"e8dae9a5-2841-49d9-b572-94d735628ab9","system_id":"levelo_inurba_marseille","lat":43.3374,"lon":5.39174,"is_reserved":false,"is_disabled":false,"rental_uris":{"android":"levelo://app?vid=e8dae9a5-2841-49d9-b572-94d735628ab9","ios":"levelo://app?vid=e8dae9a5-2841-49d9-b572-94d735628ab9"},"vehicle_type_id":"4","last_reported":1758276725,"current_range_meters":11600,"station_id":"ce4bhr92rcd13ifvqhsg","pricing_plan_id":"cebpf4jnsgd1na2vs0mg"},{"bike_id":"86aca593-efa9-474b-a4cf-6cf24e2fd7ce","system_id":"levelo_inurba_marseille","lat":43.29192,"lon":5.35811,"is_reserved":false,"is_disabled":false,"rental_uris":{"android":"levelo://app?vid=86aca593-efa9-474b-a4cf-6cf24e2fd7ce","ios":"levelo://app?vid=86aca593-efa9-474b-a4cf-6cf24e2fd7ce"},"vehicle_type_id":"4","last_reported":1758276725,"current_range_meters":11200,"station_id":"ce4bhb12rcd13ifvqel0","pricing_plan_id":"cebpf4jnsgd1na2vs0mg"},{"bike_id":"ed20f1d8-bc72-415d-8a8f-af83da4fa7d9","system_id":"levelo_inurba_marseille","lat":43.33521,"lon":5.36221,"is_reserved":false,"is_disabled":false,"rental_uris":{"android":"levelo://app?vid=ed20f1d8-bc72-415d-8a8f-af83da4fa7d9","ios":"levelo://app?vid=ed20f1d8-bc72-415d-8a8f-af83da4fa7d9"},"vehicle_type_id":"4","last_reported":1758276725,"current_range_meters":11600,"station_id":"","pricing_plan_id":"cebpf4jnsgd1na2vs0mg"},{"bike_id":"a9e927ab-fd51-48eb-8267-b301060a42ed","system_id":"levelo_inurba_marseille","lat":43.28963,"lon":5.36374,"is_reserved":false,"is_disabled":false,"rental_uris":{"android":"levelo://app?vid=a9e927ab-fd51-48eb-8267-b301060a42ed","ios":"levelo://app?vid=a9e927ab-fd51-48eb-8267-b301060a42ed"},"vehicle_type_id":"4","last_reported":1758276725,"current_range_meters":12000,"station_id":"ce4bhc92rcd13ifvqetg","pricing_plan_id":"cebpf4jnsgd1na2vs0mg"},{"bike_id":"ebcc5e35-367b-4d49-ab53-3452a270c76b","system_id":"levelo_inurba_marseille","lat":43.29967,"lon":5.38491,"is_reserved":false,"is_disabled":false,"rental_uris":{"android":"levelo://app?vid=ebcc5e35-367b-4d49-ab53-3452a270c76b","ios":"levelo://app?vid=ebcc5e35-367b-4d49-ab53-3452a270c76b"},"vehicle_type_id":"4","last_reported":1758276725,"current_range_meters":12000,"station_id":"ce4bgj92rcd13ifvqbd0","pricing_plan_id":"cebpf4jnsgd1na2vs0mg"},{"bike_id":"5abd5005-6e1a-4e4a-8cf1-5135d482aac9","system_id":"levelo_inurba_marseille","lat":43.33726,"lon":5.39189,"is_reserved":false,"is_disabled":false,"rental_uris":{"android":"levelo://app?vid=5abd5005-6e1a-4e4a-8cf1-5135d482aac9","ios":"levelo://app?vid=5abd5005-6e1a-4e4a-8cf1-5135d482aac9"},"vehicle_type_id":"4","last_reported":1758276725,"current_range_meters":12000,"station_id":"ce4bhr92rcd13ifvqhsg","pricing_plan_id":"cebpf4jnsgd1na2vs0mg"},{"bike_id":"f9418cc9-c64d-43d9-9060-3aeedd69cdee","system_id":"levelo_inurba_marseille","lat":43.33087,"lon":5.37844,"is_reserved":false,"is_disabled":false,"rental_uris":{"android":"levelo://app?vid=f9418cc9-c64d-43d9-9060-3aeedd69cdee","ios":"levelo://app?vid=f9418cc9-c64d-43d9-9060-3aeedd69cdee"},"vehicle_type_id":"4","last_reported":1758276725,"current_range_meters":12000,"station_id":"","pricing_plan_id":"cebpf4jnsgd1na2vs0mg"},{"bike_id":"fb78ea42-e26f-45b3-a617-d3474b811b72","system_id":"levelo_inurba_marseille","lat":43.29866,"lon":5.37968,"is_reserved":false,"is_disabled":false,"rental_uris":{"android":"levelo://app?vid=fb78ea42-e26f-45b3-a617-d3474b811b72","ios":"levelo://app?vid=fb78ea42-e26f-45b3-a617-d3474b811b72"},"vehicle_type_id":"4","last_reported":1758276725,"current_range_meters":12400,"station_id":"","pricing_plan_id":"cebpf4jnsgd1na2vs0mg"},{"bike_id":"77296618-5126-4bd2-9383-ee97a55ced7c","system_id":"levelo_inurba_marseille","lat":43.29076,"lon":5.38183,"is_reserved":false,"is_disabled":false,"rental_uris":{"android":"levelo://app?vid=77296618-5126-4bd2-9383-ee97a55ced7c","ios":"levelo://app?vid=77296618-5126-4bd2-9383-ee97a55ced7c"},"vehicle_type_id":"4","last_reported":1758276725,"current_range_meters":12800,"station_id":"ce4bh512rcd13ifvqe2g","pricing_plan_id":"cebpf4jnsgd1na2vs0mg"},{"bike_id":"9d8b4944-013e-4958-9415-40d7b5ee9701","system_id":"levelo_inurba_marseille","lat":43.3161,"lon":5.38184,"is_reserved":false,"is_disabled":false,"rental_uris":{"android":"levelo://app?vid=9d8b4944-013e-4958-9415-40d7b5ee9701","ios":"levelo://app?vid=9d8b4944-013e-4958-9415-40d7b5ee9701"},"vehicle_type_id":"4","last_reported":1758276725,"current_range_meters":12800,"station_id":"","pricing_plan_id":"cebpf4jnsgd1na2vs0mg"},{"bike_id":"ac260877-7ab0-4ad9-8272-b2006ed0df38","system_id":"levelo_inurba_marseille","lat":43.24165,"lon":5.36391,"is_reserved":false,"is_disabled":false,"rental_uris":{"android":"levelo://app?vid=ac260877-7ab0-4ad9-8272-b2006ed0df38","ios":"levelo://app?vid=ac260877-7ab0-4ad9-8272-b2006ed0df38"},"vehicle_type_id":"4","last_reported":1758276725,"current_range_meters":12800,"station_id":"cpo36qri1sfpv3e86is0","pricing_plan_id":"cebpf4jnsgd1na2vs0mg"},{"bike_id":"af39a0bc-2d86-451e-9395-4158bb4bccfc","system_id":"levelo_inurba_marseille","lat":43.239627,"lon":5.366278,"is_reserved":false,"is_disabled":true,"rental_uris":{"android":"levelo://app?vid=af39a0bc-2d86-451e-9395-4158bb4bccfc","ios":"levelo://app?vid=af39a0bc-2d86-451e-9395-4158bb4bccfc"},"vehicle_type_id":"4","last_reported":1758276725,"current_range_meters":12800,"station_id":"ce4bhi12rcd13ifvqfp0","pricing_plan_id":"cebpf4jnsgd1na2vs0mg"},{"bike_id":"8991c380-af7b-413e-9f38-0b4d2534c86e","system_id":"levelo_inurba_marseille","lat":43.29521,"lon":5.39053,"is_reserved":false,"is_disabled":false,"rental_uris":{"android":"levelo://app?vid=8991c380-af7b-413e-9f38-0b4d2534c86e","ios":"levelo://app?vid=8991c380-af7b-413e-9f38-0b4d2534c86e"},"vehicle_type_id":"4","last_reported":1758276725,"current_range_meters":13600,"station_id":"ce4bh3p2rcd13ifvqdp0","pricing_plan_id":"cebpf4jnsgd1na2vs0mg"},{"bike_id":"11b9a68a-3bd7-4f7d-b39f-de1ac70d8aff","system_id":"levelo_inurba_marseille","lat":43.31169,"lon":5.37608,"is_reserved":false,"is_disabled":false,"rental_uris":{"android":"levelo://app?vid=11b9a68a-3bd7-4f7d-b39f-de1ac70d8aff","ios":"levelo://app?vid=11b9a68a-3bd7-4f7d-b39f-de1ac70d8aff"},"vehicle_type_id":"4","last_reported":1758276725,"current_range_meters":13600,"station_id":"","pricing_plan_id":"cebpf4jnsgd1na2vs0mg"},{"bike_id":"feb75832-14a2-49ba-8ce1-843e0e3af9dd","system_id":"levelo_inurba_marseille","lat":43.29517,"lon":5.38582,"is_reserved":false,"is_disabled":false,"rental_uris":{"android":"levelo://app?vid=feb75832-14a2-49ba-8ce1-843e0e3af9dd","ios":"levelo://app?vid=feb75832-14a2-49ba-8ce1-843e0e3af9dd"},"vehicle_type_id":"4","last_reported":1758276725,"current_range_meters":12800,"station_id":"ce4bgih2rcd13ifvqba0","pricing_plan_id":"cebpf4jnsgd1na2vs0mg"},{"bike_id":"85b2f184-eabf-4304-911c-4aaceb0860d6","system_id":"levelo_inurba_marseille","lat":43.32374,"lon":5.3675,"is_reserved":false,"is_disabled":false,"rental_uris":{"android":"levelo://app?vid=85b2f184-eabf-4304-911c-4aaceb0860d6","ios":"levelo://app?vid=85b2f184-eabf-4304-911c-4aaceb0860d6"},"vehicle_type_id":"4","last_reported":1758276725,"current_range_meters":13600,"station_id":"ce4bhsh2rcd13ifvqi2g","pricing_plan_id":"cebpf4jnsgd1na2vs0mg"},{"bike_id":"cad0bc08-c6ea-486f-92f5-3f0ce0941725","system_id":"levelo_inurba_marseille","lat":43.30534,"lon":5.36666,"is_reserved":false,"is_disabled":false,"rental_uris":{"android":"levelo://app?vid=cad0bc08-c6ea-486f-92f5-3f0ce0941725","ios":"levelo://app?vid=cad0bc08-c6ea-486f-92f5-3f0ce0941725"},"vehicle_type_id":"4","last_reported":1758276725,"current_range_meters":13600,"station_id":"","pricing_plan_id":"cebpf4jnsgd1na2vs0mg"},{"bike_id":"bf6e6d27-c09e-4725-9fbc-20073fd5a515","system_id":"levelo_inurba_marseille","lat":43.289376,"lon":5.396214,"is_reserved":false,"is_disabled":false,"rental_uris":{"android":"levelo://app?vid=bf6e6d27-c09e-4725-9fbc-20073fd5a515","ios":"levelo://app?vid=bf6e6d27-c09e-4725-9fbc-20073fd5a515"},"vehicle_type_id":"4","last_reported":1758276725,"current_range_meters":13600,"station_id":"","pricing_plan_id":"cebpf4jnsgd1na2vs0mg"},{"bike_id":"0960e3dd-c358-4474-bd10-8223758e1f6b","system_id":"levelo_inurba_marseille","lat":43.296996,"lon":5.376855,"is_reserved":false,"is_disabled":false,"rental_uris":{"android":"levelo://app?vid=0960e3dd-c358-4474-bd10-8223758e1f6b","ios":"levelo://app?vid=0960e3dd-c358-4474-bd10-8223758e1f6b"},"vehicle_type_id":"4","last_reported":1758276725,"current_range_meters":13600,"station_id":"","pricing_plan_id":"cebpf4jnsgd1na2vs0mg"},{"bike_id":"676df6b7-430f-4093-b95e-256b6af5ed85","system_id":"levelo_inurba_marseille","lat":43.29087,"lon":5.38138,"is_reserved":false,"is_disabled":false,"rental_uris":{"android":"levelo://app?vid=676df6b7-430f-4093-b95e-256b6af5ed85","ios":"levelo://app?vid=676df6b7-430f-4093-b95e-256b6af5ed85"},"vehicle_type_id":"4","last_reported":1758276725,"current_range_meters":14000,"station_id":"ce4bh512rcd13ifvqe2g","pricing_plan_id":"cebpf4jnsgd1na2vs0mg"},{"bike_id":"0dc941c8-29ff-4ab8-8316-7c70af97a6ee","system_id":"levelo_inurba_marseille","lat":43.30594,"lon":5.37245,"is_reserved":false,"is_disabled":false,"rental_uris":{"android":"levelo://app?vid=0dc941c8-29ff-4ab8-8316-7c70af97a6ee","ios":"levelo://app?vid=0dc941c8-29ff-4ab8-8316-7c70af97a6ee"},"vehicle_type_id":"4","last_reported":1758276725,"current_range_meters":14400,"station_id":"ce4bgqh2rcd13ifvqc4g","pricing_plan_id":"cebpf4jnsgd1na2vs0mg"},{"bike_id":"c083e150-c459-4275-a224-25efb0df5a5b","system_id":"levelo_inurba_marseille","lat":43.29577,"lon":5.3674,"is_reserved":false,"is_disabled":false,"rental_uris":{"android":"levelo://app?vid=c083e150-c459-4275-a224-25efb0df5a5b","ios":"levelo://app?vid=c083e150-c459-4275-a224-25efb0df5a5b"},"vehicle_type_id":"4","last_reported":1758276725,"current_range_meters":14000,"station_id":"ce4bgph2rcd13ifvqc2g","pricing_plan_id":"cebpf4jnsgd1na2vs0mg"},{"bike_id":"72cb56ec-5883-4fde-8464-df6a9c03c91a","system_id":"levelo_inurba_marseille","lat":43.29594,"lon":5.36748,"is_reserved":false,"is_disabled":false,"rental_uris":{"android":"levelo://app?vid=72cb56ec-5883-4fde-8464-df6a9c03c91a","ios":"levelo://app?vid=72cb56ec-5883-4fde-8464-df6a9c03c91a"},"vehicle_type_id":"4","last_reported":1758276725,"current_range_meters":14000,"station_id":"ce4bgph2rcd13ifvqc2g","pricing_plan_id":"cebpf4jnsgd1na2vs0mg"},{"bike_id":"c52abb94-5b85-4197-8121-bf0f477c7924","system_id":"levelo_inurba_marseille","lat":43.333009,"lon":5.410255,"is_reserved":false,"is_disabled":false,"rental_uris":{"android":"levelo://app?vid=c52abb94-5b85-4197-8121-bf0f477c7924","ios":"levelo://app?vid=c52abb94-5b85-4197-8121-bf0f477c7924"},"vehicle_type_id":"4","last_reported":1758276725,"current_range_meters":14400,"station_id":"","pricing_plan_id":"cebpf4jnsgd1na2vs0mg"},{"bike_id":"5c5339d3-66d3-4775-b401-7b17c0d8cada","system_id":"levelo_inurba_marseille","lat":43.31353,"lon":5.36708,"is_reserved":false,"is_disabled":false,"rental_uris":{"android":"levelo://app?vid=5c5339d3-66d3-4775-b401-7b17c0d8cada","ios":"levelo://app?vid=5c5339d3-66d3-4775-b401-7b17c0d8cada"},"vehicle_type_id":"4","last_reported":1758276725,"current_range_meters":14400,"station_id":"ce4bgr92rcd13ifvqc6g","pricing_plan_id":"cebpf4jnsgd1na2vs0mg"},{"bike_id":"7606323b-0e1f-4f0f-b1c6-d6569d2061de","system_id":"levelo_inurba_marseille","lat":43.25917,"lon":5.40909,"is_reserved":false,"is_disabled":false,"rental_uris":{"android":"levelo://app?vid=7606323b-0e1f-4f0f-b1c6-d6569d2061de","ios":"levelo://app?vid=7606323b-0e1f-4f0f-b1c6-d6569d2061de"},"vehicle_type_id":"4","last_reported":1758276725,"current_range_meters":14400,"station_id":"ce4bhm92rcd13ifvqglg","pricing_plan_id":"cebpf4jnsgd1na2vs0mg"},{"bike_id":"f42d6184-5a89-47c2-a265-d290dd8607d6","system_id":"levelo_inurba_marseille","lat":43.30958,"lon":5.40138,"is_reserved":false,"is_disabled":false,"rental_uris":{"android":"levelo://app?vid=f42d6184-5a89-47c2-a265-d290dd8607d6","ios":"levelo://app?vid=f42d6184-5a89-47c2-a265-d290dd8607d6"},"vehicle_type_id":"4","last_reported":1758276725,"current_range_meters":14400,"station_id":"ce4bgvp2rcd13ifvqct0","pricing_plan_id":"cebpf4jnsgd1na2vs0mg"},{"bike_id":"451fb341-f87d-4b15-b790-9032b4190ea4","system_id":"levelo_inurba_marseille","lat":43.30401,"lon":5.37788,"is_reserved":false,"is_disabled":false,"rental_uris":{"android":"levelo://app?vid=451fb341-f87d-4b15-b790-9032b4190ea4","ios":"levelo://app?vid=451fb341-f87d-4b15-b790-9032b4190ea4"},"vehicle_type_id":"4","last_reported":1758276725,"current_range_meters":14800,"station_id":"","pricing_plan_id":"cebpf4jnsgd1na2vs0mg"},{"bike_id":"533ea5d6-713d-4081-995b-48c29018efd3","system_id":"levelo_inurba_marseille","lat":43.27178,"lon":5.40988,"is_reserved":false,"is_disabled":false,"rental_uris":{"android":"levelo://app?vid=533ea5d6-713d-4081-995b-48c29018efd3","ios":"levelo://app?vid=533ea5d6-713d-4081-995b-48c29018efd3"},"vehicle_type_id":"4","last_reported":1758276725,"current_range_meters":14800,"station_id":"ce4bhl12rcd13ifvqgf0","pricing_plan_id":"cebpf4jnsgd1na2vs0mg"},{"bike_id":"9c0693b2-33f4-40d9-85fa-754a770a9d54","system_id":"levelo_inurba_marseille","lat":43.295188,"lon":5.390328,"is_reserved":false,"is_disabled":false,"rental_uris":{"android":"levelo://app?vid=9c0693b2-33f4-40d9-85fa-754a770a9d54","ios":"levelo://app?vid=9c0693b2-33f4-40d9-85fa-754a770a9d54"},"vehicle_type_id":"4","last_reported":1758276725,"current_range_meters":14800,"station_id":"ce4bh312rcd13ifvqdj0","pricing_plan_id":"cebpf4jnsgd1na2vs0mg"},{"bike_id":"438ead59-de14-4fa0-a61d-03a70a4122ae","system_id":"levelo_inurba_marseille","lat":43.75397,"lon":5.0689,"is_reserved":false,"is_disabled":true,"rental_uris":{"android":"levelo://app?vid=438ead59-de14-4fa0-a61d-03a70a4122ae","ios":"levelo://app?vid=438ead59-de14-4fa0-a61d-03a70a4122ae"},"vehicle_type_id":"4","last_reported":1758276725,"current_range_meters":14800,"station_id":"","pricing_plan_id":"cebpf4jnsgd1na2vs0mg"},{"bike_id":"406dd351-e380-4466-988e-4978e24204ff","system_id":"levelo_inurba_marseille","lat":43.29277,"lon":5.37454,"is_reserved":false,"is_disabled":false,"rental_uris":{"android":"levelo://app?vid=406dd351-e380-4466-988e-4978e24204ff","ios":"levelo://app?vid=406dd351-e380-4466-988e-4978e24204ff"},"vehicle_type_id":"4","last_reported":1758276725,"current_range_meters":15200,"station_id":"ce4bgi12rcd13ifvqb70","pricing_plan_id":"cebpf4jnsgd1na2vs0mg"},{"bike_id":"e372231e-d0ff-459f-b2e9-df8c69780738","system_id":"levelo_inurba_marseille","lat":43.30584,"lon":5.37225,"is_reserved":false,"is_disabled":false,"rental_uris":{"android":"levelo://app?vid=e372231e-d0ff-459f-b2e9-df8c69780738","ios":"levelo://app?vid=e372231e-d0ff-459f-b2e9-df8c69780738"},"vehicle_type_id":"4","last_reported":1758276725,"current_range_meters":15200,"station_id":"ce4bgqh2rcd13ifvqc4g","pricing_plan_id":"cebpf4jnsgd1na2vs0mg"},{"bike_id":"7bb05219-6e3b-4b0d-8c79-bfc0c25c024c","system_id":"levelo_inurba_marseille","lat":43.30607,"lon":5.37239,"is_reserved":false,"is_disabled":false,"rental_uris":{"android":"levelo://app?vid=7bb05219-6e3b-4b0d-8c79-bfc0c25c024c","ios":"levelo://app?vid=7bb05219-6e3b-4b0d-8c79-bfc0c25c024c"},"vehicle_type_id":"4","last_reported":1758276725,"current_range_meters":15200,"station_id":"ce4bgqh2rcd13ifvqc4g","pricing_plan_id":"cebpf4jnsgd1na2vs0mg"},{"bike_id":"8ea90b6d-c3fd-47f4-81f3-f2e2084e5c0b","system_id":"levelo_inurba_marseille","lat":43.29557,"lon":5.36778,"is_reserved":false,"is_disabled":false,"rental_uris":{"android":"levelo://app?vid=8ea90b6d-c3fd-47f4-81f3-f2e2084e5c0b","ios":"levelo://app?vid=8ea90b6d-c3fd-47f4-81f3-f2e2084e5c0b"},"vehicle_type_id":"4","last_reported":1758276725,"current_range_meters":16000,"station_id":"ce4bgph2rcd13ifvqc2g","pricing_plan_id":"cebpf4jnsgd1na2vs0mg"},{"bike_id":"3bc55b74-eb07-4466-8bdc-16723c3f40c8","system_id":"levelo_inurba_marseille","lat":43.2663,"lon":5.39369,"is_reserved":false,"is_disabled":false,"rental_uris":{"android":"levelo://app?vid=3bc55b74-eb07-4466-8bdc-16723c3f40c8","ios":"levelo://app?vid=3bc55b74-eb07-4466-8bdc-16723c3f40c8"},"vehicle_type_id":"4","last_reported":1758276725,"current_range_meters":16000,"station_id":"","pricing_plan_id":"cebpf4jnsgd1na2vs0mg"},{"bike_id":"607b30c7-a52e-4d82-8fbd-5f098dbfcdb7","system_id":"levelo_inurba_marseille","lat":43.30193,"lon":5.36625,"is_reserved":false,"is_disabled":false,"rental_uris":{"android":"levelo://app?vid=607b30c7-a52e-4d82-8fbd-5f098dbfcdb7","ios":"levelo://app?vid=607b30c7-a52e-4d82-8fbd-5f098dbfcdb7"},"vehicle_type_id":"4","last_reported":1758276725,"current_range_meters":16000,"station_id":"ce4bgrh2rcd13ifvqc8g","pricing_plan_id":"cebpf4jnsgd1na2vs0mg"},{"bike_id":"131f89e5-5e3e-4b73-b0a4-92a60e8a1093","system_id":"levelo_inurba_marseille","lat":43.29778,"lon":5.39351,"is_reserved":false,"is_disabled":false,"rental_uris":{"android":"levelo://app?vid=131f89e5-5e3e-4b73-b0a4-92a60e8a1093","ios":"levelo://app?vid=131f89e5-5e3e-4b73-b0a4-92a60e8a1093"},"vehicle_type_id":"4","last_reported":1758276725,"current_range_meters":16000,"station_id":"chh1huq6cuj3fo74tm60","pricing_plan_id":"cebpf4jnsgd1na2vs0mg"},{"bike_id":"a1759435-7c8c-454b-b3b7-2dee821a2bbd","system_id":"levelo_inurba_marseille","lat":43.24104,"lon":5.39739,"is_reserved":false,"is_disabled":false,"rental_uris":{"android":"levelo://app?vid=a1759435-7c8c-454b-b3b7-2dee821a2bbd","ios":"levelo://app?vid=a1759435-7c8c-454b-b3b7-2dee821a2bbd"},"vehicle_type_id":"4","last_reported":1758276725,"current_range_meters":16000,"station_id":"","pricing_plan_id":"cebpf4jnsgd1na2vs0mg"},{"bike_id":"82ff2aa5-7947-4d6a-b628-a72140befcb9","system_id":"levelo_inurba_marseille","lat":43.23148,"lon":5.43719,"is_reserved":false,"is_disabled":false,"rental_uris":{"android":"levelo://app?vid=82ff2aa5-7947-4d6a-b628-a72140befcb9","ios":"levelo://app?vid=82ff2aa5-7947-4d6a-b628-a72140befcb9"},"vehicle_type_id":"4","last_reported":1758276725,"current_range_meters":16000,"station_id":"ce4bhmp2rcd13ifvqgog","pricing_plan_id":"cebpf4jnsgd1na2vs0mg"},{"bike_id":"bd6a2a12-24e1-459e-a927-4d9be7b68e6b","system_id":"levelo_inurba_marseille","lat":43.30404,"lon":5.37787,"is_reserved":false,"is_disabled":false,"rental_uris":{"android":"levelo://app?vid=bd6a2a12-24e1-459e-a927-4d9be7b68e6b","ios":"levelo://app?vid=bd6a2a12-24e1-459e-a927-4d9be7b68e6b"},"vehicle_type_id":"4","last_reported":1758276725,"current_range_meters":16000,"station_id":"","pricing_plan_id":"cebpf4jnsgd1na2vs0mg"},{"bike_id":"26b43886-fa77-4bdc-88cd-18b348cfd5a1","system_id":"levelo_inurba_marseille","lat":43.24174,"lon":5.39723,"is_reserved":false,"is_disabled":false,"rental_uris":{"android":"levelo://app?vid=26b43886-fa77-4bdc-88cd-18b348cfd5a1","ios":"levelo://app?vid=26b43886-fa77-4bdc-88cd-18b348cfd5a1"},"vehicle_type_id":"4","last_reported":1758276725,"current_range_meters":16000,"station_id":"ce4bhn12rcd13ifvqgpg","pricing_plan_id":"cebpf4jnsgd1na2vs0mg"},{"bike_id":"7df5983d-afc7-4c15-a3e6-ba7d41a736f9","system_id":"levelo_inurba_marseille","lat":43.24545,"lon":5.37322,"is_reserved":false,"is_disabled":true,"rental_uris":{"android":"levelo://app?vid=7df5983d-afc7-4c15-a3e6-ba7d41a736f9","ios":"levelo://app?vid=7df5983d-afc7-4c15-a3e6-ba7d41a736f9"},"vehicle_type_id":"4","last_reported":1758276725,"current_range_meters":16000,"station_id":"","pricing_plan_id":"cebpf4jnsgd1na2vs0mg"},{"bike_id":"518eef5b-9e3c-4b06-94a9-56e70af9d262","system_id":"levelo_inurba_marseille","lat":43.308,"lon":5.38167,"is_reserved":false,"is_disabled":true,"rental_uris":{"android":"levelo://app?vid=518eef5b-9e3c-4b06-94a9-56e70af9d262","ios":"levelo://app?vid=518eef5b-9e3c-4b06-94a9-56e70af9d262"},"vehicle_type_id":"4","last_reported":1758276725,"current_range_meters":16000,"station_id":"ce4bgt12rcd13ifvqce0","pricing_plan_id":"cebpf4jnsgd1na2vs0mg"},{"bike_id":"f85a8c4d-f9d0-4136-9b57-8bfb28db950c","system_id":"levelo_inurba_marseille","lat":43.3188,"lon":5.37433,"is_reserved":false,"is_disabled":false,"rental_uris":{"android":"levelo://app?vid=f85a8c4d-f9d0-4136-9b57-8bfb28db950c","ios":"levelo://app?vid=f85a8c4d-f9d0-4136-9b57-8bfb28db950c"},"vehicle_type_id":"4","last_reported":1758276725,"current_range_meters":16400,"station_id":"","pricing_plan_id":"cebpf4jnsgd1na2vs0mg"},{"bike_id":"b1aea033-d9a7-44a7-8a23-2e263bbc1dee","system_id":"levelo_inurba_marseille","lat":43.30487,"lon":5.36653,"is_reserved":false,"is_disabled":false,"rental_uris":{"android":"levelo://app?vid=b1aea033-d9a7-44a7-8a23-2e263bbc1dee","ios":"levelo://app?vid=b1aea033-d9a7-44a7-8a23-2e263bbc1dee"},"vehicle_type_id":"4","last_reported":1758276725,"current_range_meters":16400,"station_id":"","pricing_plan_id":"cebpf4jnsgd1na2vs0mg"},{"bike_id":"799a10ac-a92e-4989-9fb1-6a83669b35f2","system_id":"levelo_inurba_marseille","lat":43.29255,"lon":5.37617,"is_reserved":false,"is_disabled":false,"rental_uris":{"android":"levelo://app?vid=799a10ac-a92e-4989-9fb1-6a83669b35f2","ios":"levelo://app?vid=799a10ac-a92e-4989-9fb1-6a83669b35f2"},"vehicle_type_id":"4","last_reported":1758276725,"current_range_meters":16400,"station_id":"","pricing_plan_id":"cebpf4jnsgd1na2vs0mg"},{"bike_id":"ec026350-25f2-4376-b2ea-6db5cb4a2303","system_id":"levelo_inurba_marseille","lat":43.250901,"lon":5.395231,"is_reserved":false,"is_disabled":false,"rental_uris":{"android":"levelo://app?vid=ec026350-25f2-4376-b2ea-6db5cb4a2303","ios":"levelo://app?vid=ec026350-25f2-4376-b2ea-6db5cb4a2303"},"vehicle_type_id":"4","last_reported":1758276725,"current_range_meters":16400,"station_id":"ce4bhm12rcd13ifvqgkg","pricing_plan_id":"cebpf4jnsgd1na2vs0mg"},{"bike_id":"8b709b79-be31-47c0-8e6a-6bb242b3edef","system_id":"levelo_inurba_marseille","lat":43.28857,"lon":5.39312,"is_reserved":false,"is_disabled":false,"rental_uris":{"android":"levelo://app?vid=8b709b79-be31-47c0-8e6a-6bb242b3edef","ios":"levelo://app?vid=8b709b79-be31-47c0-8e6a-6bb242b3edef"},"vehicle_type_id":"4","last_reported":1758276725,"current_range_meters":16400,"station_id":"ce4bh2p2rcd13ifvqdi0","pricing_plan_id":"cebpf4jnsgd1na2vs0mg"},{"bike_id":"3a0966a2-c500-4147-8c9f-b002587ec121","system_id":"levelo_inurba_marseille","lat":43.29583,"lon":5.36729,"is_reserved":false,"is_disabled":false,"rental_uris":{"android":"levelo://app?vid=3a0966a2-c500-4147-8c9f-b002587ec121","ios":"levelo://app?vid=3a0966a2-c500-4147-8c9f-b002587ec121"},"vehicle_type_id":"4","last_reported":1758276725,"current_range_meters":16800,"station_id":"ce4bgph2rcd13ifvqc2g","pricing_plan_id":"cebpf4jnsgd1na2vs0mg"},{"bike_id":"a521828a-21f2-4627-8095-0f720588c481","system_id":"levelo_inurba_marseille","lat":43.211768,"lon":5.351226,"is_reserved":false,"is_disabled":false,"rental_uris":{"android":"levelo://app?vid=a521828a-21f2-4627-8095-0f720588c481","ios":"levelo://app?vid=a521828a-21f2-4627-8095-0f720588c481"},"vehicle_type_id":"4","last_reported":1758276725,"current_range_meters":16800,"station_id":"","pricing_plan_id":"cebpf4jnsgd1na2vs0mg"},{"bike_id":"8f60fe26-a162-426b-b827-8e3a549ca362","system_id":"levelo_inurba_marseille","lat":43.26806,"lon":5.40271,"is_reserved":false,"is_disabled":false,"rental_uris":{"android":"levelo://app?vid=8f60fe26-a162-426b-b827-8e3a549ca362","ios":"levelo://app?vid=8f60fe26-a162-426b-b827-8e3a549ca362"},"vehicle_type_id":"4","last_reported":1758276725,"current_range_meters":16000,"station_id":"ce501612rcd8frsf0b60","pricing_plan_id":"cebpf4jnsgd1na2vs0mg"},{"bike_id":"95233a57-4c59-40da-993c-be52748b44b3","system_id":"levelo_inurba_marseille","lat":43.30141,"lon":5.38063,"is_reserved":false,"is_disabled":false,"rental_uris":{"android":"levelo://app?vid=95233a57-4c59-40da-993c-be52748b44b3","ios":"levelo://app?vid=95233a57-4c59-40da-993c-be52748b44b3"},"vehicle_type_id":"4","last_reported":1758276725,"current_range_meters":16800,"station_id":"ce4bgjp2rcd13ifvqbh0","pricing_plan_id":"cebpf4jnsgd1na2vs0mg"},{"bike_id":"8745c251-e416-4ea6-8fbc-d4e92795e895","system_id":"levelo_inurba_marseille","lat":43.28266,"lon":5.35065,"is_reserved":false,"is_disabled":false,"rental_uris":{"android":"levelo://app?vid=8745c251-e416-4ea6-8fbc-d4e92795e895","ios":"levelo://app?vid=8745c251-e416-4ea6-8fbc-d4e92795e895"},"vehicle_type_id":"4","last_reported":1758276725,"current_range_meters":16800,"station_id":"ce4bhbp2rcd13ifvqerg","pricing_plan_id":"cebpf4jnsgd1na2vs0mg"},{"bike_id":"ac44697c-3299-4243-9cfe-d6b82f25a58c","system_id":"levelo_inurba_marseille","lat":43.298027,"lon":5.380979,"is_reserved":false,"is_disabled":false,"rental_uris":{"android":"levelo://app?vid=ac44697c-3299-4243-9cfe-d6b82f25a58c","ios":"levelo://app?vid=ac44697c-3299-4243-9cfe-d6b82f25a58c"},"vehicle_type_id":"4","last_reported":1758276725,"current_range_meters":16800,"station_id":"ce4bgip2rcd13ifvqbb0","pricing_plan_id":"cebpf4jnsgd1na2vs0mg"},{"bike_id":"591f8168-109d-40e8-931b-920b177feea8","system_id":"levelo_inurba_marseille","lat":43.30925,"lon":5.40155,"is_reserved":false,"is_disabled":false,"rental_uris":{"android":"levelo://app?vid=591f8168-109d-40e8-931b-920b177feea8","ios":"levelo://app?vid=591f8168-109d-40e8-931b-920b177feea8"},"vehicle_type_id":"4","last_reported":1758276725,"current_range_meters":16800,"station_id":"ce4bgvp2rcd13ifvqct0","pricing_plan_id":"cebpf4jnsgd1na2vs0mg"},{"bike_id":"cf0f283a-24c1-428f-8366-31573aedefdb","system_id":"levelo_inurba_marseille","lat":43.298383,"lon":5.362678,"is_reserved":false,"is_disabled":false,"rental_uris":{"android":"levelo://app?vid=cf0f283a-24c1-428f-8366-31573aedefdb","ios":"levelo://app?vid=cf0f283a-24c1-428f-8366-31573aedefdb"},"vehicle_type_id":"4","last_reported":1758276725,"current_range_meters":16800,"station_id":"ce4bgpp2rcd13ifvqc3g","pricing_plan_id":"cebpf4jnsgd1na2vs0mg"},{"bike_id":"6c2c7fc8-53c9-4e73-8e20-f193590dbe08","system_id":"levelo_inurba_marseille","lat":43.25935,"lon":5.40905,"is_reserved":false,"is_disabled":false,"rental_uris":{"android":"levelo://app?vid=6c2c7fc8-53c9-4e73-8e20-f193590dbe08","ios":"levelo://app?vid=6c2c7fc8-53c9-4e73-8e20-f193590dbe08"},"vehicle_type_id":"4","last_reported":1758276725,"current_range_meters":17200,"station_id":"ce4bhm92rcd13ifvqglg","pricing_plan_id":"cebpf4jnsgd1na2vs0mg"},{"bike_id":"c4706891-6ce1-4440-91ff-a3ecf2ff007e","system_id":"levelo_inurba_marseille","lat":43.26374,"lon":5.40075,"is_reserved":false,"is_disabled":false,"rental_uris":{"android":"levelo://app?vid=c4706891-6ce1-4440-91ff-a3ecf2ff007e","ios":"levelo://app?vid=c4706891-6ce1-4440-91ff-a3ecf2ff007e"},"vehicle_type_id":"4","last_reported":1758276725,"current_range_meters":17200,"station_id":"","pricing_plan_id":"cebpf4jnsgd1na2vs0mg"},{"bike_id":"835975a0-27c7-47e7-bc1c-b8ba0b505127","system_id":"levelo_inurba_marseille","lat":43.32596,"lon":5.37816,"is_reserved":false,"is_disabled":false,"rental_uris":{"android":"levelo://app?vid=835975a0-27c7-47e7-bc1c-b8ba0b505127","ios":"levelo://app?vid=835975a0-27c7-47e7-bc1c-b8ba0b505127"},"vehicle_type_id":"4","last_reported":1758276725,"current_range_meters":17200,"station_id":"","pricing_plan_id":"cebpf4jnsgd1na2vs0mg"},{"bike_id":"ed935d0f-1bf6-40b5-8882-8aba8f3cb115","system_id":"levelo_inurba_marseille","lat":43.31367,"lon":5.38481,"is_reserved":false,"is_disabled":false,"rental_uris":{"android":"levelo://app?vid=ed935d0f-1bf6-40b5-8882-8aba8f3cb115","ios":"levelo://app?vid=ed935d0f-1bf6-40b5-8882-8aba8f3cb115"},"vehicle_type_id":"4","last_reported":1758276725,"current_range_meters":17200,"station_id":"ce4bgt92rcd13ifvqcf0","pricing_plan_id":"cebpf4jnsgd1na2vs0mg"},{"bike_id":"75efcba1-972a-4dd8-acee-f4f9364c39f9","system_id":"levelo_inurba_marseille","lat":43.29629,"lon":5.37718,"is_reserved":false,"is_disabled":false,"rental_uris":{"android":"levelo://app?vid=75efcba1-972a-4dd8-acee-f4f9364c39f9","ios":"levelo://app?vid=75efcba1-972a-4dd8-acee-f4f9364c39f9"},"vehicle_type_id":"4","last_reported":1758276725,"current_range_meters":16800,"station_id":"ce4bgi92rcd13ifvqb90","pricing_plan_id":"cebpf4jnsgd1na2vs0mg"},{"bike_id":"0d9edbf8-e222-4f58-8507-cb6fd06720fd","system_id":"levelo_inurba_marseille","lat":43.2315,"lon":5.43716,"is_reserved":false,"is_disabled":false,"rental_uris":{"android":"levelo://app?vid=0d9edbf8-e222-4f58-8507-cb6fd06720fd","ios":"levelo://app?vid=0d9edbf8-e222-4f58-8507-cb6fd06720fd"},"vehicle_type_id":"4","last_reported":1758276725,"current_range_meters":17200,"station_id":"ce4bhmp2rcd13ifvqgog","pricing_plan_id":"cebpf4jnsgd1na2vs0mg"},{"bike_id":"68eafd5c-b788-4ca1-8b39-eaff32497f70","system_id":"levelo_inurba_marseille","lat":43.295324,"lon":5.385473,"is_reserved":false,"is_disabled":false,"rental_uris":{"android":"levelo://app?vid=68eafd5c-b788-4ca1-8b39-eaff32497f70","ios":"levelo://app?vid=68eafd5c-b788-4ca1-8b39-eaff32497f70"},"vehicle_type_id":"4","last_reported":1758276725,"current_range_meters":17200,"station_id":"ce4bgih2rcd13ifvqba0","pricing_plan_id":"cebpf4jnsgd1na2vs0mg"},{"bike_id":"29fe1240-3a82-4e69-9ceb-0d84b972bfbb","system_id":"levelo_inurba_marseille","lat":43.31511,"lon":5.37303,"is_reserved":false,"is_disabled":false,"rental_uris":{"android":"levelo://app?vid=29fe1240-3a82-4e69-9ceb-0d84b972bfbb","ios":"levelo://app?vid=29fe1240-3a82-4e69-9ceb-0d84b972bfbb"},"vehicle_type_id":"4","last_reported":1758276725,"current_range_meters":17600,"station_id":"ce4bgt12rcd13ifvqcd0","pricing_plan_id":"cebpf4jnsgd1na2vs0mg"},{"bike_id":"0dba3ccc-f697-45a3-ad71-ac6009ba20e9","system_id":"levelo_inurba_marseille","lat":43.25501,"lon":5.37652,"is_reserved":false,"is_disabled":false,"rental_uris":{"android":"levelo://app?vid=0dba3ccc-f697-45a3-ad71-ac6009ba20e9","ios":"levelo://app?vid=0dba3ccc-f697-45a3-ad71-ac6009ba20e9"},"vehicle_type_id":"4","last_reported":1758276725,"current_range_meters":17600,"station_id":"ce4bhh12rcd13ifvqff0","pricing_plan_id":"cebpf4jnsgd1na2vs0mg"},{"bike_id":"d0800c74-8054-46c5-8886-40d371b2bb58","system_id":"levelo_inurba_marseille","lat":43.29284,"lon":5.37166,"is_reserved":false,"is_disabled":false,"rental_uris":{"android":"levelo://app?vid=d0800c74-8054-46c5-8886-40d371b2bb58","ios":"levelo://app?vid=d0800c74-8054-46c5-8886-40d371b2bb58"},"vehicle_type_id":"4","last_reported":1758276725,"current_range_meters":17600,"station_id":"ce4bgh92rcd13ifvqb40","pricing_plan_id":"cebpf4jnsgd1na2vs0mg"},{"bike_id":"f5a08839-963d-4e2e-b96b-e3948ca7d862","system_id":"levelo_inurba_marseille","lat":43.306519,"lon":5.401041,"is_reserved":false,"is_disabled":false,"rental_uris":{"android":"levelo://app?vid=f5a08839-963d-4e2e-b96b-e3948ca7d862","ios":"levelo://app?vid=f5a08839-963d-4e2e-b96b-e3948ca7d862"},"vehicle_type_id":"4","last_reported":1758276725,"current_range_meters":17200,"station_id":"ce4bh112rcd13ifvqda0","pricing_plan_id":"cebpf4jnsgd1na2vs0mg"},{"bike_id":"43d57fd4-047e-4ac8-97e5-ec9b96239472","system_id":"levelo_inurba_marseille","lat":43.32935,"lon":5.3913,"is_reserved":false,"is_disabled":false,"rental_uris":{"android":"levelo://app?vid=43d57fd4-047e-4ac8-97e5-ec9b96239472","ios":"levelo://app?vid=43d57fd4-047e-4ac8-97e5-ec9b96239472"},"vehicle_type_id":"4","last_reported":1758276725,"current_range_meters":17600,"station_id":"","pricing_plan_id":"cebpf4jnsgd1na2vs0mg"},{"bike_id":"af92115d-6f7a-49ce-a65e-77f9182df835","system_id":"levelo_inurba_marseille","lat":43.21752,"lon":5.34607,"is_reserved":false,"is_disabled":false,"rental_uris":{"android":"levelo://app?vid=af92115d-6f7a-49ce-a65e-77f9182df835","ios":"levelo://app?vid=af92115d-6f7a-49ce-a65e-77f9182df835"},"vehicle_type_id":"4","last_reported":1758276725,"current_range_meters":18000,"station_id":"st_cvj6r9ubvosntc0bgbag","pricing_plan_id":"cebpf4jnsgd1na2vs0mg"},{"bike_id":"7f1be994-af2d-4c9a-807a-220e9a43367d","system_id":"levelo_inurba_marseille","lat":43.21749,"lon":5.34601,"is_reserved":false,"is_disabled":false,"rental_uris":{"android":"levelo://app?vid=7f1be994-af2d-4c9a-807a-220e9a43367d","ios":"levelo://app?vid=7f1be994-af2d-4c9a-807a-220e9a43367d"},"vehicle_type_id":"4","last_reported":1758276725,"current_range_meters":18000,"station_id":"st_cvj6r9ubvosntc0bgbag","pricing_plan_id":"cebpf4jnsgd1na2vs0mg"},{"bike_id":"af0490b6-c1c9-4895-8a15-568d23e0a730","system_id":"levelo_inurba_marseille","lat":43.28063,"lon":5.40753,"is_reserved":false,"is_disabled":false,"rental_uris":{"android":"levelo://app?vid=af0490b6-c1c9-4895-8a15-568d23e0a730","ios":"levelo://app?vid=af0490b6-c1c9-4895-8a15-568d23e0a730"},"vehicle_type_id":"4","last_reported":1758276725,"current_range_meters":18000,"station_id":"","pricing_plan_id":"cebpf4jnsgd1na2vs0mg"},{"bike_id":"55d1bc08-fd54-4a82-afc7-2adcaa7b1c4e","system_id":"levelo_inurba_marseille","lat":43.30053,"lon":5.37693,"is_reserved":false,"is_disabled":false,"rental_uris":{"android":"levelo://app?vid=55d1bc08-fd54-4a82-afc7-2adcaa7b1c4e","ios":"levelo://app?vid=55d1bc08-fd54-4a82-afc7-2adcaa7b1c4e"},"vehicle_type_id":"4","last_reported":1758276725,"current_range_meters":18000,"station_id":"","pricing_plan_id":"cebpf4jnsgd1na2vs0mg"},{"bike_id":"d582ba82-de0a-401e-8bd3-378f0cec80f7","system_id":"levelo_inurba_marseille","lat":43.25942,"lon":5.40906,"is_reserved":false,"is_disabled":false,"rental_uris":{"android":"levelo://app?vid=d582ba82-de0a-401e-8bd3-378f0cec80f7","ios":"levelo://app?vid=d582ba82-de0a-401e-8bd3-378f0cec80f7"},"vehicle_type_id":"4","last_reported":1758276725,"current_range_meters":18000,"station_id":"ce4bhm92rcd13ifvqglg","pricing_plan_id":"cebpf4jnsgd1na2vs0mg"},{"bike_id":"1d6512d2-0abe-496f-b56b-70823fb272b1","system_id":"levelo_inurba_marseille","lat":43.3377,"lon":5.37478,"is_reserved":false,"is_disabled":false,"rental_uris":{"android":"levelo://app?vid=1d6512d2-0abe-496f-b56b-70823fb272b1","ios":"levelo://app?vid=1d6512d2-0abe-496f-b56b-70823fb272b1"},"vehicle_type_id":"4","last_reported":1758276725,"current_range_meters":18000,"station_id":"ce4bgrh2rcd13ifvqc8g","pricing_plan_id":"cebpf4jnsgd1na2vs0mg"},{"bike_id":"5e3d6065-cb7d-4e16-aa3f-8ea31c1dc5e3","system_id":"levelo_inurba_marseille","lat":43.284127,"lon":5.34976,"is_reserved":false,"is_disabled":false,"rental_uris":{"android":"levelo://app?vid=5e3d6065-cb7d-4e16-aa3f-8ea31c1dc5e3","ios":"levelo://app?vid=5e3d6065-cb7d-4e16-aa3f-8ea31c1dc5e3"},"vehicle_type_id":"4","last_reported":1758276725,"current_range_meters":18000,"station_id":"ce4bhbh2rcd13ifvqepg","pricing_plan_id":"cebpf4jnsgd1na2vs0mg"},{"bike_id":"e88386b8-7aca-418e-890a-a1ac409a820e","system_id":"levelo_inurba_marseille","lat":43.25927,"lon":5.40892,"is_reserved":false,"is_disabled":false,"rental_uris":{"android":"levelo://app?vid=e88386b8-7aca-418e-890a-a1ac409a820e","ios":"levelo://app?vid=e88386b8-7aca-418e-890a-a1ac409a820e"},"vehicle_type_id":"4","last_reported":1758276725,"current_range_meters":18000,"station_id":"ce4bhm92rcd13ifvqglg","pricing_plan_id":"cebpf4jnsgd1na2vs0mg"},{"bike_id":"9d41ede7-1c3b-40e8-a998-06df58a38971","system_id":"levelo_inurba_marseille","lat":43.23185,"lon":5.3999,"is_reserved":false,"is_disabled":false,"rental_uris":{"android":"levelo://app?vid=9d41ede7-1c3b-40e8-a998-06df58a38971","ios":"levelo://app?vid=9d41ede7-1c3b-40e8-a998-06df58a38971"},"vehicle_type_id":"4","last_reported":1758276725,"current_range_meters":18800,"station_id":"ce4bhn12rcd13ifvqgqg","pricing_plan_id":"cebpf4jnsgd1na2vs0mg"},{"bike_id":"285d44ac-9e85-441d-9152-47f7f1fb07b1","system_id":"levelo_inurba_marseille","lat":43.3015,"lon":5.38087,"is_reserved":false,"is_disabled":false,"rental_uris":{"android":"levelo://app?vid=285d44ac-9e85-441d-9152-47f7f1fb07b1","ios":"levelo://app?vid=285d44ac-9e85-441d-9152-47f7f1fb07b1"},"vehicle_type_id":"4","last_reported":1758276725,"current_range_meters":18800,"station_id":"ce4bgjp2rcd13ifvqbh0","pricing_plan_id":"cebpf4jnsgd1na2vs0mg"},{"bike_id":"579524a7-534b-4d5e-8393-4b981fc7ceec","system_id":"levelo_inurba_marseille","lat":43.29238,"lon":5.37261,"is_reserved":false,"is_disabled":false,"rental_uris":{"android":"levelo://app?vid=579524a7-534b-4d5e-8393-4b981fc7ceec","ios":"levelo://app?vid=579524a7-534b-4d5e-8393-4b981fc7ceec"},"vehicle_type_id":"4","last_reported":1758276725,"current_range_meters":18800,"station_id":"","pricing_plan_id":"cebpf4jnsgd1na2vs0mg"},{"bike_id":"fcae965b-ac21-4078-851f-e67d29961456","system_id":"levelo_inurba_marseille","lat":43.33773,"lon":5.37469,"is_reserved":false,"is_disabled":false,"rental_uris":{"android":"levelo://app?vid=fcae965b-ac21-4078-851f-e67d29961456","ios":"levelo://app?vid=fcae965b-ac21-4078-851f-e67d29961456"},"vehicle_type_id":"4","last_reported":1758276725,"current_range_meters":18800,"station_id":"","pricing_plan_id":"cebpf4jnsgd1na2vs0mg"},{"bike_id":"fb2a1bfb-e0b2-41b3-b4dc-0e44ebd11862","system_id":"levelo_inurba_marseille","lat":43.27806,"lon":5.40716,"is_reserved":false,"is_disabled":false,"rental_uris":{"android":"levelo://app?vid=fb2a1bfb-e0b2-41b3-b4dc-0e44ebd11862","ios":"levelo://app?vid=fb2a1bfb-e0b2-41b3-b4dc-0e44ebd11862"},"vehicle_type_id":"4","last_reported":1758276725,"current_range_meters":18800,"station_id":"ce4bhnh2rcd13ifvqgtg","pricing_plan_id":"cebpf4jnsgd1na2vs0mg"},{"bike_id":"708e4897-2631-432d-bb06-f6c778bbf0b3","system_id":"levelo_inurba_marseille","lat":43.299087,"lon":5.381447,"is_reserved":false,"is_disabled":false,"rental_uris":{"android":"levelo://app?vid=708e4897-2631-432d-bb06-f6c778bbf0b3","ios":"levelo://app?vid=708e4897-2631-432d-bb06-f6c778bbf0b3"},"vehicle_type_id":"4","last_reported":1758276725,"current_range_meters":18000,"station_id":"ce4bgj12rcd13ifvqbc0","pricing_plan_id":"cebpf4jnsgd1na2vs0mg"},{"bike_id":"3d158a28-bece-4b10-9f82-ab3eb3313408","system_id":"levelo_inurba_marseille","lat":43.337485,"lon":5.374512,"is_reserved":false,"is_disabled":false,"rental_uris":{"android":"levelo://app?vid=3d158a28-bece-4b10-9f82-ab3eb3313408","ios":"levelo://app?vid=3d158a28-bece-4b10-9f82-ab3eb3313408"},"vehicle_type_id":"4","last_reported":1758276725,"current_range_meters":18800,"station_id":"","pricing_plan_id":"cebpf4jnsgd1na2vs0mg"},{"bike_id":"419910d5-6432-4b45-8071-c82fa6be016b","system_id":"levelo_inurba_marseille","lat":43.29301,"lon":5.37129,"is_reserved":false,"is_disabled":false,"rental_uris":{"android":"levelo://app?vid=419910d5-6432-4b45-8071-c82fa6be016b","ios":"levelo://app?vid=419910d5-6432-4b45-8071-c82fa6be016b"},"vehicle_type_id":"4","last_reported":1758276725,"current_range_meters":18800,"station_id":"ce4bgh92rcd13ifvqb40","pricing_plan_id":"cebpf4jnsgd1na2vs0mg"},{"bike_id":"969e50c3-a6fa-49a2-8381-35f10a15b038","system_id":"levelo_inurba_marseille","lat":43.22557,"lon":5.41641,"is_reserved":false,"is_disabled":false,"rental_uris":{"android":"levelo://app?vid=969e50c3-a6fa-49a2-8381-35f10a15b038","ios":"levelo://app?vid=969e50c3-a6fa-49a2-8381-35f10a15b038"},"vehicle_type_id":"4","last_reported":1758276725,"current_range_meters":18800,"station_id":"st_d2o4gvlbi1j2169b742g","pricing_plan_id":"cebpf4jnsgd1na2vs0mg"},{"bike_id":"6e33e01c-37ba-45a5-91d3-e67172d5764c","system_id":"levelo_inurba_marseille","lat":43.29099,"lon":5.38139,"is_reserved":false,"is_disabled":false,"rental_uris":{"android":"levelo://app?vid=6e33e01c-37ba-45a5-91d3-e67172d5764c","ios":"levelo://app?vid=6e33e01c-37ba-45a5-91d3-e67172d5764c"},"vehicle_type_id":"4","last_reported":1758276725,"current_range_meters":18800,"station_id":"ce4bh512rcd13ifvqe2g","pricing_plan_id":"cebpf4jnsgd1na2vs0mg"},{"bike_id":"0f7caa9f-1d1a-40d7-9b4a-2f8720e63681","system_id":"levelo_inurba_marseille","lat":43.30852,"lon":5.3748,"is_reserved":false,"is_disabled":false,"rental_uris":{"android":"levelo://app?vid=0f7caa9f-1d1a-40d7-9b4a-2f8720e63681","ios":"levelo://app?vid=0f7caa9f-1d1a-40d7-9b4a-2f8720e63681"},"vehicle_type_id":"4","last_reported":1758276725,"current_range_meters":19200,"station_id":"","pricing_plan_id":"cebpf4jnsgd1na2vs0mg"},{"bike_id":"b810ec46-97ab-4356-95f9-0c9d02506d5a","system_id":"levelo_inurba_marseille","lat":43.24458,"lon":5.39039,"is_reserved":false,"is_disabled":false,"rental_uris":{"android":"levelo://app?vid=b810ec46-97ab-4356-95f9-0c9d02506d5a","ios":"levelo://app?vid=b810ec46-97ab-4356-95f9-0c9d02506d5a"},"vehicle_type_id":"4","last_reported":1758276725,"current_range_meters":19200,"station_id":"","pricing_plan_id":"cebpf4jnsgd1na2vs0mg"},{"bike_id":"13eb3edd-9f60-4741-ac45-2e7c3cc7d73c","system_id":"levelo_inurba_marseille","lat":43.28423,"lon":5.3498,"is_reserved":false,"is_disabled":false,"rental_uris":{"android":"levelo://app?vid=13eb3edd-9f60-4741-ac45-2e7c3cc7d73c","ios":"levelo://app?vid=13eb3edd-9f60-4741-ac45-2e7c3cc7d73c"},"vehicle_type_id":"4","last_reported":1758276725,"current_range_meters":19200,"station_id":"ce4bhbh2rcd13ifvqepg","pricing_plan_id":"cebpf4jnsgd1na2vs0mg"},{"bike_id":"5ebd48b0-645e-4205-b793-a2a06fda28d8","system_id":"levelo_inurba_marseille","lat":43.25491,"lon":5.37651,"is_reserved":false,"is_disabled":false,"rental_uris":{"android":"levelo://app?vid=5ebd48b0-645e-4205-b793-a2a06fda28d8","ios":"levelo://app?vid=5ebd48b0-645e-4205-b793-a2a06fda28d8"},"vehicle_type_id":"4","last_reported":1758276725,"current_range_meters":19200,"station_id":"ce4bhh12rcd13ifvqff0","pricing_plan_id":"cebpf4jnsgd1na2vs0mg"},{"bike_id":"934f0361-1b8c-4403-a038-6971d78a5b5b","system_id":"levelo_inurba_marseille","lat":43.31717,"lon":5.42404,"is_reserved":false,"is_disabled":false,"rental_uris":{"android":"levelo://app?vid=934f0361-1b8c-4403-a038-6971d78a5b5b","ios":"levelo://app?vid=934f0361-1b8c-4403-a038-6971d78a5b5b"},"vehicle_type_id":"4","last_reported":1758276725,"current_range_meters":19200,"station_id":"ce4bhp92rcd13ifvqhbg","pricing_plan_id":"cebpf4jnsgd1na2vs0mg"},{"bike_id":"34281898-710b-40e8-9f07-1195d2ccd80b","system_id":"levelo_inurba_marseille","lat":43.30414,"lon":5.4129,"is_reserved":false,"is_disabled":false,"rental_uris":{"android":"levelo://app?vid=34281898-710b-40e8-9f07-1195d2ccd80b","ios":"levelo://app?vid=34281898-710b-40e8-9f07-1195d2ccd80b"},"vehicle_type_id":"4","last_reported":1758276725,"current_range_meters":19200,"station_id":"ce4bhop2rcd13ifvqh8g","pricing_plan_id":"cebpf4jnsgd1na2vs0mg"},{"bike_id":"f2e49732-6a84-44dd-8bcb-da6447440a25","system_id":"levelo_inurba_marseille","lat":43.29313,"lon":5.37457,"is_reserved":false,"is_disabled":false,"rental_uris":{"android":"levelo://app?vid=f2e49732-6a84-44dd-8bcb-da6447440a25","ios":"levelo://app?vid=f2e49732-6a84-44dd-8bcb-da6447440a25"},"vehicle_type_id":"4","last_reported":1758276725,"current_range_meters":19600,"station_id":"ce4bgi12rcd13ifvqb70","pricing_plan_id":"cebpf4jnsgd1na2vs0mg"},{"bike_id":"2c734c36-442f-468e-ab47-e34ad5183e32","system_id":"levelo_inurba_marseille","lat":43.25772,"lon":5.41047,"is_reserved":false,"is_disabled":true,"rental_uris":{"android":"levelo://app?vid=2c734c36-442f-468e-ab47-e34ad5183e32","ios":"levelo://app?vid=2c734c36-442f-468e-ab47-e34ad5183e32"},"vehicle_type_id":"4","last_reported":1758276725,"current_range_meters":19600,"station_id":"","pricing_plan_id":"cebpf4jnsgd1na2vs0mg"},{"bike_id":"4bd4d194-9121-4c59-9abb-87f6519689fe","system_id":"levelo_inurba_marseille","lat":43.31074,"lon":5.38354,"is_reserved":false,"is_disabled":false,"rental_uris":{"android":"levelo://app?vid=4bd4d194-9121-4c59-9abb-87f6519689fe","ios":"levelo://app?vid=4bd4d194-9121-4c59-9abb-87f6519689fe"},"vehicle_type_id":"4","last_reported":1758276725,"current_range_meters":19600,"station_id":"ce4bgv92rcd13ifvqcr0","pricing_plan_id":"cebpf4jnsgd1na2vs0mg"},{"bike_id":"016479c8-adb3-4e9f-91ab-63dde4601175","system_id":"levelo_inurba_marseille","lat":43.29779,"lon":5.38114,"is_reserved":false,"is_disabled":true,"rental_uris":{"android":"levelo://app?vid=016479c8-adb3-4e9f-91ab-63dde4601175","ios":"levelo://app?vid=016479c8-adb3-4e9f-91ab-63dde4601175"},"vehicle_type_id":"4","last_reported":1758276725,"current_range_meters":19600,"station_id":"ce4bgip2rcd13ifvqbb0","pricing_plan_id":"cebpf4jnsgd1na2vs0mg"},{"bike_id":"6ad822c8-1781-41ad-a7c7-7110f452c983","system_id":"levelo_inurba_marseille","lat":43.27967,"lon":5.41676,"is_reserved":false,"is_disabled":false,"rental_uris":{"android":"levelo://app?vid=6ad822c8-1781-41ad-a7c7-7110f452c983","ios":"levelo://app?vid=6ad822c8-1781-41ad-a7c7-7110f452c983"},"vehicle_type_id":"4","last_reported":1758276725,"current_range_meters":19600,"station_id":"ce4bho12rcd13ifvqh1g","pricing_plan_id":"cebpf4jnsgd1na2vs0mg"},{"bike_id":"58cf797e-3a87-4d23-b3dd-f2ada5fb26ef","system_id":"levelo_inurba_marseille","lat":43.25931,"lon":5.40908,"is_reserved":false,"is_disabled":false,"rental_uris":{"android":"levelo://app?vid=58cf797e-3a87-4d23-b3dd-f2ada5fb26ef","ios":"levelo://app?vid=58cf797e-3a87-4d23-b3dd-f2ada5fb26ef"},"vehicle_type_id":"4","last_reported":1758276725,"current_range_meters":19600,"station_id":"ce4bhm92rcd13ifvqglg","pricing_plan_id":"cebpf4jnsgd1na2vs0mg"},{"bike_id":"9cb5d102-4789-43d5-a7fc-a51bd54b652c","system_id":"levelo_inurba_marseille","lat":43.289359,"lon":5.396211,"is_reserved":false,"is_disabled":false,"rental_uris":{"android":"levelo://app?vid=9cb5d102-4789-43d5-a7fc-a51bd54b652c","ios":"levelo://app?vid=9cb5d102-4789-43d5-a7fc-a51bd54b652c"},"vehicle_type_id":"4","last_reported":1758276725,"current_range_meters":20000,"station_id":"ce4bh3h2rcd13ifvqdn0","pricing_plan_id":"cebpf4jnsgd1na2vs0mg"},{"bike_id":"d44243c4-acb3-43df-8dbd-271f9d005665","system_id":"levelo_inurba_marseille","lat":43.25089,"lon":5.39518,"is_reserved":false,"is_disabled":false,"rental_uris":{"android":"levelo://app?vid=d44243c4-acb3-43df-8dbd-271f9d005665","ios":"levelo://app?vid=d44243c4-acb3-43df-8dbd-271f9d005665"},"vehicle_type_id":"4","last_reported":1758276725,"current_range_meters":19600,"station_id":"ce4bhm12rcd13ifvqgkg","pricing_plan_id":"cebpf4jnsgd1na2vs0mg"},{"bike_id":"2edf7ded-d9ed-4aa0-9877-3bf00ba833a8","system_id":"levelo_inurba_marseille","lat":43.29799,"lon":5.40413,"is_reserved":false,"is_disabled":false,"rental_uris":{"android":"levelo://app?vid=2edf7ded-d9ed-4aa0-9877-3bf00ba833a8","ios":"levelo://app?vid=2edf7ded-d9ed-4aa0-9877-3bf00ba833a8"},"vehicle_type_id":"4","last_reported":1758276725,"current_range_meters":19200,"station_id":"ce4bh112rcd13ifvqd90","pricing_plan_id":"cebpf4jnsgd1na2vs0mg"},{"bike_id":"a07a513e-e5a9-4481-8592-d991379bc662","system_id":"levelo_inurba_marseille","lat":43.337536,"lon":5.374536,"is_reserved":false,"is_disabled":false,"rental_uris":{"android":"levelo://app?vid=a07a513e-e5a9-4481-8592-d991379bc662","ios":"levelo://app?vid=a07a513e-e5a9-4481-8592-d991379bc662"},"vehicle_type_id":"4","last_reported":1758276725,"current_range_meters":19600,"station_id":"","pricing_plan_id":"cebpf4jnsgd1na2vs0mg"},{"bike_id":"2a00cb84-e9e6-4781-804d-0494d7480777","system_id":"levelo_inurba_marseille","lat":43.22547,"lon":5.41637,"is_reserved":false,"is_disabled":false,"rental_uris":{"android":"levelo://app?vid=2a00cb84-e9e6-4781-804d-0494d7480777","ios":"levelo://app?vid=2a00cb84-e9e6-4781-804d-0494d7480777"},"vehicle_type_id":"4","last_reported":1758276725,"current_range_meters":20000,"station_id":"st_d2o4gvlbi1j2169b742g","pricing_plan_id":"cebpf4jnsgd1na2vs0mg"},{"bike_id":"9e6e8d14-e508-4a52-baa8-7e77dfd85e84","system_id":"levelo_inurba_marseille","lat":43.2319,"lon":5.3555,"is_reserved":false,"is_disabled":false,"rental_uris":{"android":"levelo://app?vid=9e6e8d14-e508-4a52-baa8-7e77dfd85e84","ios":"levelo://app?vid=9e6e8d14-e508-4a52-baa8-7e77dfd85e84"},"vehicle_type_id":"4","last_reported":1758276725,"current_range_meters":20000,"station_id":"ce4bhu92rcd13ifvqi70","pricing_plan_id":"cebpf4jnsgd1na2vs0mg"},{"bike_id":"27e25ff4-9284-4961-a2bf-ceb8bfb07996","system_id":"levelo_inurba_marseille","lat":43.27058,"lon":5.40267,"is_reserved":false,"is_disabled":false,"rental_uris":{"android":"levelo://app?vid=27e25ff4-9284-4961-a2bf-ceb8bfb07996","ios":"levelo://app?vid=27e25ff4-9284-4961-a2bf-ceb8bfb07996"},"vehicle_type_id":"4","last_reported":1758276725,"current_range_meters":19600,"station_id":"ce4bhk92rcd13ifvqgc0","pricing_plan_id":"cebpf4jnsgd1na2vs0mg"},{"bike_id":"68adab37-f5ad-4072-b58a-fe6c68285ca6","system_id":"levelo_inurba_marseille","lat":43.30597,"lon":5.37641,"is_reserved":false,"is_disabled":false,"rental_uris":{"android":"levelo://app?vid=68adab37-f5ad-4072-b58a-fe6c68285ca6","ios":"levelo://app?vid=68adab37-f5ad-4072-b58a-fe6c68285ca6"},"vehicle_type_id":"4","last_reported":1758276725,"current_range_meters":20000,"station_id":"","pricing_plan_id":"cebpf4jnsgd1na2vs0mg"},{"bike_id":"b05ab237-5916-46ac-a2fb-5139a54b4b22","system_id":"levelo_inurba_marseille","lat":43.2415,"lon":5.36419,"is_reserved":false,"is_disabled":false,"rental_uris":{"android":"levelo://app?vid=b05ab237-5916-46ac-a2fb-5139a54b4b22","ios":"levelo://app?vid=b05ab237-5916-46ac-a2fb-5139a54b4b22"},"vehicle_type_id":"4","last_reported":1758276725,"current_range_meters":20000,"station_id":"cpo36qri1sfpv3e86is0","pricing_plan_id":"cebpf4jnsgd1na2vs0mg"},{"bike_id":"8e047761-4cb2-4fa7-920f-ce3feb6390f9","system_id":"levelo_inurba_marseille","lat":43.337571,"lon":5.374461,"is_reserved":false,"is_disabled":false,"rental_uris":{"android":"levelo://app?vid=8e047761-4cb2-4fa7-920f-ce3feb6390f9","ios":"levelo://app?vid=8e047761-4cb2-4fa7-920f-ce3feb6390f9"},"vehicle_type_id":"4","last_reported":1758276725,"current_range_meters":20000,"station_id":"","pricing_plan_id":"cebpf4jnsgd1na2vs0mg"},{"bike_id":"b82f0259-678f-49b8-b7f8-2b64e33c43a1","system_id":"levelo_inurba_marseille","lat":43.29561,"lon":5.36734,"is_reserved":false,"is_disabled":false,"rental_uris":{"android":"levelo://app?vid=b82f0259-678f-49b8-b7f8-2b64e33c43a1","ios":"levelo://app?vid=b82f0259-678f-49b8-b7f8-2b64e33c43a1"},"vehicle_type_id":"4","last_reported":1758276725,"current_range_meters":20400,"station_id":"ce4bgph2rcd13ifvqc2g","pricing_plan_id":"cebpf4jnsgd1na2vs0mg"},{"bike_id":"0af51575-84a2-4790-a75c-e66566c075fc","system_id":"levelo_inurba_marseille","lat":43.30424,"lon":5.39751,"is_reserved":false,"is_disabled":false,"rental_uris":{"android":"levelo://app?vid=0af51575-84a2-4790-a75c-e66566c075fc","ios":"levelo://app?vid=0af51575-84a2-4790-a75c-e66566c075fc"},"vehicle_type_id":"4","last_reported":1758276725,"current_range_meters":20400,"station_id":"ce4bh092rcd13ifvqd20","pricing_plan_id":"cebpf4jnsgd1na2vs0mg"},{"bike_id":"e26424ca-8e61-4792-8c48-17cb93dcbe5a","system_id":"levelo_inurba_marseille","lat":43.29871,"lon":5.37761,"is_reserved":false,"is_disabled":false,"rental_uris":{"android":"levelo://app?vid=e26424ca-8e61-4792-8c48-17cb93dcbe5a","ios":"levelo://app?vid=e26424ca-8e61-4792-8c48-17cb93dcbe5a"},"vehicle_type_id":"4","last_reported":1758276725,"current_range_meters":20400,"station_id":"","pricing_plan_id":"cebpf4jnsgd1na2vs0mg"},{"bike_id":"8eb08b31-ec0a-4287-90df-6555aa1e5579","system_id":"levelo_inurba_marseille","lat":43.3041,"lon":5.37804,"is_reserved":false,"is_disabled":false,"rental_uris":{"android":"levelo://app?vid=8eb08b31-ec0a-4287-90df-6555aa1e5579","ios":"levelo://app?vid=8eb08b31-ec0a-4287-90df-6555aa1e5579"},"vehicle_type_id":"4","last_reported":1758276725,"current_range_meters":20800,"station_id":"","pricing_plan_id":"cebpf4jnsgd1na2vs0mg"},{"bike_id":"622e6da0-7ea0-4709-acc3-5fab7e337770","system_id":"levelo_inurba_marseille","lat":43.29933,"lon":5.36531,"is_reserved":false,"is_disabled":false,"rental_uris":{"android":"levelo://app?vid=622e6da0-7ea0-4709-acc3-5fab7e337770","ios":"levelo://app?vid=622e6da0-7ea0-4709-acc3-5fab7e337770"},"vehicle_type_id":"4","last_reported":1758276725,"current_range_meters":20800,"station_id":"ce4bgm92rcd13ifvqbr0","pricing_plan_id":"cebpf4jnsgd1na2vs0mg"},{"bike_id":"71f2778a-2b29-41d4-b5cc-f35efa4b34b3","system_id":"levelo_inurba_marseille","lat":43.3097,"lon":5.36843,"is_reserved":false,"is_disabled":false,"rental_uris":{"android":"levelo://app?vid=71f2778a-2b29-41d4-b5cc-f35efa4b34b3","ios":"levelo://app?vid=71f2778a-2b29-41d4-b5cc-f35efa4b34b3"},"vehicle_type_id":"4","last_reported":1758276725,"current_range_meters":20800,"station_id":"ce4bgn92rcd13ifvqbvg","pricing_plan_id":"cebpf4jnsgd1na2vs0mg"},{"bike_id":"7fe6c8da-25a7-4222-8008-95160a674091","system_id":"levelo_inurba_marseille","lat":43.288553,"lon":5.392914,"is_reserved":false,"is_disabled":false,"rental_uris":{"android":"levelo://app?vid=7fe6c8da-25a7-4222-8008-95160a674091","ios":"levelo://app?vid=7fe6c8da-25a7-4222-8008-95160a674091"},"vehicle_type_id":"4","last_reported":1758276725,"current_range_meters":21600,"station_id":"ce4bh2p2rcd13ifvqdi0","pricing_plan_id":"cebpf4jnsgd1na2vs0mg"},{"bike_id":"4341df71-11d4-4878-b657-c65b2d88e04c","system_id":"levelo_inurba_marseille","lat":43.24393,"lon":5.37061,"is_reserved":false,"is_disabled":false,"rental_uris":{"android":"levelo://app?vid=4341df71-11d4-4878-b657-c65b2d88e04c","ios":"levelo://app?vid=4341df71-11d4-4878-b657-c65b2d88e04c"},"vehicle_type_id":"4","last_reported":1758276725,"current_range_meters":21600,"station_id":"ce4bhhh2rcd13ifvqfk0","pricing_plan_id":"cebpf4jnsgd1na2vs0mg"},{"bike_id":"932aaedf-dd17-4047-8c0a-8fa28c4ede96","system_id":"levelo_inurba_marseille","lat":43.33961,"lon":5.37248,"is_reserved":false,"is_disabled":false,"rental_uris":{"android":"levelo://app?vid=932aaedf-dd17-4047-8c0a-8fa28c4ede96","ios":"levelo://app?vid=932aaedf-dd17-4047-8c0a-8fa28c4ede96"},"vehicle_type_id":"4","last_reported":1758276725,"current_range_meters":21600,"station_id":"","pricing_plan_id":"cebpf4jnsgd1na2vs0mg"},{"bike_id":"c9526b42-f3ba-447b-9f01-5cc91de7e6ba","system_id":"levelo_inurba_marseille","lat":43.30397,"lon":5.3779,"is_reserved":false,"is_disabled":false,"rental_uris":{"android":"levelo://app?vid=c9526b42-f3ba-447b-9f01-5cc91de7e6ba","ios":"levelo://app?vid=c9526b42-f3ba-447b-9f01-5cc91de7e6ba"},"vehicle_type_id":"4","last_reported":1758276725,"current_range_meters":21600,"station_id":"","pricing_plan_id":"cebpf4jnsgd1na2vs0mg"},{"bike_id":"b8af4056-fb36-4e39-a4f0-5cd179383459","system_id":"levelo_inurba_marseille","lat":43.32918,"lon":5.38949,"is_reserved":false,"is_disabled":false,"rental_uris":{"android":"levelo://app?vid=b8af4056-fb36-4e39-a4f0-5cd179383459","ios":"levelo://app?vid=b8af4056-fb36-4e39-a4f0-5cd179383459"},"vehicle_type_id":"4","last_reported":1758276725,"current_range_meters":21600,"station_id":"","pricing_plan_id":"cebpf4jnsgd1na2vs0mg"},{"bike_id":"76bbf107-7ec5-4826-b296-ab629ecd14ab","system_id":"levelo_inurba_marseille","lat":43.29823,"lon":5.42086,"is_reserved":false,"is_disabled":false,"rental_uris":{"android":"levelo://app?vid=76bbf107-7ec5-4826-b296-ab629ecd14ab","ios":"levelo://app?vid=76bbf107-7ec5-4826-b296-ab629ecd14ab"},"vehicle_type_id":"4","last_reported":1758276725,"current_range_meters":21600,"station_id":"","pricing_plan_id":"cebpf4jnsgd1na2vs0mg"},{"bike_id":"97514a44-1f4d-4ae1-a270-04ca7b75c621","system_id":"levelo_inurba_marseille","lat":43.28871,"lon":5.42529,"is_reserved":false,"is_disabled":false,"rental_uris":{"android":"levelo://app?vid=97514a44-1f4d-4ae1-a270-04ca7b75c621","ios":"levelo://app?vid=97514a44-1f4d-4ae1-a270-04ca7b75c621"},"vehicle_type_id":"4","last_reported":1758276725,"current_range_meters":22000,"station_id":"","pricing_plan_id":"cebpf4jnsgd1na2vs0mg"},{"bike_id":"05e697d9-69d9-403b-8383-1e1277147bbe","system_id":"levelo_inurba_marseille","lat":43.28266,"lon":5.35076,"is_reserved":false,"is_disabled":false,"rental_uris":{"android":"levelo://app?vid=05e697d9-69d9-403b-8383-1e1277147bbe","ios":"levelo://app?vid=05e697d9-69d9-403b-8383-1e1277147bbe"},"vehicle_type_id":"4","last_reported":1758276725,"current_range_meters":22000,"station_id":"ce4bhbp2rcd13ifvqerg","pricing_plan_id":"cebpf4jnsgd1na2vs0mg"},{"bike_id":"e0983708-d01c-4c76-8c9a-1be4fe58f5e9","system_id":"levelo_inurba_marseille","lat":43.30287,"lon":5.36946,"is_reserved":false,"is_disabled":false,"rental_uris":{"android":"levelo://app?vid=e0983708-d01c-4c76-8c9a-1be4fe58f5e9","ios":"levelo://app?vid=e0983708-d01c-4c76-8c9a-1be4fe58f5e9"},"vehicle_type_id":"4","last_reported":1758276725,"current_range_meters":22000,"station_id":"","pricing_plan_id":"cebpf4jnsgd1na2vs0mg"},{"bike_id":"51129906-a9c8-4c6f-a717-df3f39ff3e49","system_id":"levelo_inurba_marseille","lat":43.30607,"lon":5.37222,"is_reserved":false,"is_disabled":false,"rental_uris":{"android":"levelo://app?vid=51129906-a9c8-4c6f-a717-df3f39ff3e49","ios":"levelo://app?vid=51129906-a9c8-4c6f-a717-df3f39ff3e49"},"vehicle_type_id":"4","last_reported":1758276725,"current_range_meters":21600,"station_id":"ce4bgqh2rcd13ifvqc4g","pricing_plan_id":"cebpf4jnsgd1na2vs0mg"},{"bike_id":"37f99d20-8b7f-45c6-94aa-9a4143897022","system_id":"levelo_inurba_marseille","lat":43.30924,"lon":5.40131,"is_reserved":false,"is_disabled":false,"rental_uris":{"android":"levelo://app?vid=37f99d20-8b7f-45c6-94aa-9a4143897022","ios":"levelo://app?vid=37f99d20-8b7f-45c6-94aa-9a4143897022"},"vehicle_type_id":"4","last_reported":1758276725,"current_range_meters":22000,"station_id":"","pricing_plan_id":"cebpf4jnsgd1na2vs0mg"},{"bike_id":"fa51ffa4-3f55-4a3d-86f2-f41a060a75bb","system_id":"levelo_inurba_marseille","lat":43.23955,"lon":5.36624,"is_reserved":false,"is_disabled":true,"rental_uris":{"android":"levelo://app?vid=fa51ffa4-3f55-4a3d-86f2-f41a060a75bb","ios":"levelo://app?vid=fa51ffa4-3f55-4a3d-86f2-f41a060a75bb"},"vehicle_type_id":"4","last_reported":1758276725,"current_range_meters":22400,"station_id":"ce4bhi12rcd13ifvqfp0","pricing_plan_id":"cebpf4jnsgd1na2vs0mg"},{"bike_id":"60aea336-3b31-4a74-9501-a8f78508a41d","system_id":"levelo_inurba_marseille","lat":43.290891,"lon":5.381324,"is_reserved":false,"is_disabled":false,"rental_uris":{"android":"levelo://app?vid=60aea336-3b31-4a74-9501-a8f78508a41d","ios":"levelo://app?vid=60aea336-3b31-4a74-9501-a8f78508a41d"},"vehicle_type_id":"4","last_reported":1758276725,"current_range_meters":22400,"station_id":"","pricing_plan_id":"cebpf4jnsgd1na2vs0mg"},{"bike_id":"7a9d1c79-5f96-47e7-88c6-dc6ab59e08d5","system_id":"levelo_inurba_marseille","lat":43.30143,"lon":5.38087,"is_reserved":false,"is_disabled":false,"rental_uris":{"android":"levelo://app?vid=7a9d1c79-5f96-47e7-88c6-dc6ab59e08d5","ios":"levelo://app?vid=7a9d1c79-5f96-47e7-88c6-dc6ab59e08d5"},"vehicle_type_id":"4","last_reported":1758276725,"current_range_meters":22800,"station_id":"ce4bgjp2rcd13ifvqbh0","pricing_plan_id":"cebpf4jnsgd1na2vs0mg"},{"bike_id":"d7de6ddb-d79e-4253-996c-2ead4e72dbd2","system_id":"levelo_inurba_marseille","lat":43.3038,"lon":5.37008,"is_reserved":false,"is_disabled":false,"rental_uris":{"android":"levelo://app?vid=d7de6ddb-d79e-4253-996c-2ead4e72dbd2","ios":"levelo://app?vid=d7de6ddb-d79e-4253-996c-2ead4e72dbd2"},"vehicle_type_id":"4","last_reported":1758276725,"current_range_meters":22800,"station_id":"","pricing_plan_id":"cebpf4jnsgd1na2vs0mg"},{"bike_id":"32523b89-f4ba-4dde-9540-3228f8036f1a","system_id":"levelo_inurba_marseille","lat":43.29363,"lon":5.37843,"is_reserved":false,"is_disabled":false,"rental_uris":{"android":"levelo://app?vid=32523b89-f4ba-4dde-9540-3228f8036f1a","ios":"levelo://app?vid=32523b89-f4ba-4dde-9540-3228f8036f1a"},"vehicle_type_id":"4","last_reported":1758276725,"current_range_meters":22400,"station_id":"ce4bgjh2rcd13ifvqbf0","pricing_plan_id":"cebpf4jnsgd1na2vs0mg"},{"bike_id":"324ee83b-842b-423e-a470-daf37e9c3516","system_id":"levelo_inurba_marseille","lat":43.278667,"lon":5.407368,"is_reserved":false,"is_disabled":false,"rental_uris":{"android":"levelo://app?vid=324ee83b-842b-423e-a470-daf37e9c3516","ios":"levelo://app?vid=324ee83b-842b-423e-a470-daf37e9c3516"},"vehicle_type_id":"4","last_reported":1758276725,"current_range_meters":22800,"station_id":"","pricing_plan_id":"cebpf4jnsgd1na2vs0mg"},{"bike_id":"e86857f8-f405-4657-b145-ec58ed187087","system_id":"levelo_inurba_marseille","lat":43.31484,"lon":5.3881,"is_reserved":false,"is_disabled":false,"rental_uris":{"android":"levelo://app?vid=e86857f8-f405-4657-b145-ec58ed187087","ios":"levelo://app?vid=e86857f8-f405-4657-b145-ec58ed187087"},"vehicle_type_id":"4","last_reported":1758276725,"current_range_meters":22800,"station_id":"ce4bgt92rcd13ifvqcf0","pricing_plan_id":"cebpf4jnsgd1na2vs0mg"},{"bike_id":"a271aaca-ecb5-49af-a1e0-02fd6255653e","system_id":"levelo_inurba_marseille","lat":43.29885,"lon":5.39761,"is_reserved":false,"is_disabled":false,"rental_uris":{"android":"levelo://app?vid=a271aaca-ecb5-49af-a1e0-02fd6255653e","ios":"levelo://app?vid=a271aaca-ecb5-49af-a1e0-02fd6255653e"},"vehicle_type_id":"4","last_reported":1758276725,"current_range_meters":22800,"station_id":"ce4bh0h2rcd13ifvqd50","pricing_plan_id":"cebpf4jnsgd1na2vs0mg"},{"bike_id":"1501bf1e-77e9-434c-85ae-7aeb8fdf4254","system_id":"levelo_inurba_marseille","lat":43.315754,"lon":5.403653,"is_reserved":false,"is_disabled":false,"rental_uris":{"android":"levelo://app?vid=1501bf1e-77e9-434c-85ae-7aeb8fdf4254","ios":"levelo://app?vid=1501bf1e-77e9-434c-85ae-7aeb8fdf4254"},"vehicle_type_id":"4","last_reported":1758276725,"current_range_meters":22800,"station_id":"ce4bh012rcd13ifvqd00","pricing_plan_id":"cebpf4jnsgd1na2vs0mg"},{"bike_id":"1d0b5d60-568f-4170-98dc-84bbc30b1c4e","system_id":"levelo_inurba_marseille","lat":43.28374,"lon":5.43848,"is_reserved":false,"is_disabled":false,"rental_uris":{"android":"levelo://app?vid=1d0b5d60-568f-4170-98dc-84bbc30b1c4e","ios":"levelo://app?vid=1d0b5d60-568f-4170-98dc-84bbc30b1c4e"},"vehicle_type_id":"4","last_reported":1758276725,"current_range_meters":22800,"station_id":"","pricing_plan_id":"cebpf4jnsgd1na2vs0mg"},{"bike_id":"3dda5bd9-0fb0-451b-8bde-1f497da9105a","system_id":"levelo_inurba_marseille","lat":43.29524,"lon":5.39043,"is_reserved":false,"is_disabled":false,"rental_uris":{"android":"levelo://app?vid=3dda5bd9-0fb0-451b-8bde-1f497da9105a","ios":"levelo://app?vid=3dda5bd9-0fb0-451b-8bde-1f497da9105a"},"vehicle_type_id":"4","last_reported":1758276725,"current_range_meters":22800,"station_id":"ce4bh3p2rcd13ifvqdp0","pricing_plan_id":"cebpf4jnsgd1na2vs0mg"},{"bike_id":"a139b30b-b64f-4669-971d-31c78166d39d","system_id":"levelo_inurba_marseille","lat":43.29292,"lon":5.37143,"is_reserved":false,"is_disabled":false,"rental_uris":{"android":"levelo://app?vid=a139b30b-b64f-4669-971d-31c78166d39d","ios":"levelo://app?vid=a139b30b-b64f-4669-971d-31c78166d39d"},"vehicle_type_id":"4","last_reported":1758276725,"current_range_meters":23200,"station_id":"ce4bgh92rcd13ifvqb40","pricing_plan_id":"cebpf4jnsgd1na2vs0mg"},{"bike_id":"d6b38026-8952-45b3-89b3-295a30b3e10a","system_id":"levelo_inurba_marseille","lat":43.30782,"lon":5.37656,"is_reserved":false,"is_disabled":false,"rental_uris":{"android":"levelo://app?vid=d6b38026-8952-45b3-89b3-295a30b3e10a","ios":"levelo://app?vid=d6b38026-8952-45b3-89b3-295a30b3e10a"},"vehicle_type_id":"4","last_reported":1758276725,"current_range_meters":23200,"station_id":"ce4bgv92rcd13ifvqcq0","pricing_plan_id":"cebpf4jnsgd1na2vs0mg"},{"bike_id":"e251fffa-9f5c-4101-b2f6-5edce6d65ec8","system_id":"levelo_inurba_marseille","lat":43.28346,"lon":5.38104,"is_reserved":false,"is_disabled":false,"rental_uris":{"android":"levelo://app?vid=e251fffa-9f5c-4101-b2f6-5edce6d65ec8","ios":"levelo://app?vid=e251fffa-9f5c-4101-b2f6-5edce6d65ec8"},"vehicle_type_id":"4","last_reported":1758276725,"current_range_meters":23200,"station_id":"ce4bh412rcd13ifvqdr0","pricing_plan_id":"cebpf4jnsgd1na2vs0mg"},{"bike_id":"04921636-af71-4dfc-8c19-627f76493082","system_id":"levelo_inurba_marseille","lat":43.281036,"lon":5.378305,"is_reserved":false,"is_disabled":false,"rental_uris":{"android":"levelo://app?vid=04921636-af71-4dfc-8c19-627f76493082","ios":"levelo://app?vid=04921636-af71-4dfc-8c19-627f76493082"},"vehicle_type_id":"4","last_reported":1758276725,"current_range_meters":23200,"station_id":"ce4bha12rcd13ifvqee0","pricing_plan_id":"cebpf4jnsgd1na2vs0mg"},{"bike_id":"4266b374-d4bf-4fd2-bb94-51b2d7d40946","system_id":"levelo_inurba_marseille","lat":43.22568,"lon":5.41626,"is_reserved":false,"is_disabled":false,"rental_uris":{"android":"levelo://app?vid=4266b374-d4bf-4fd2-bb94-51b2d7d40946","ios":"levelo://app?vid=4266b374-d4bf-4fd2-bb94-51b2d7d40946"},"vehicle_type_id":"4","last_reported":1758276725,"current_range_meters":23200,"station_id":"st_d2o4gvlbi1j2169b742g","pricing_plan_id":"cebpf4jnsgd1na2vs0mg"},{"bike_id":"7d193f5f-076c-4e25-86b5-6fec88fb321d","system_id":"levelo_inurba_marseille","lat":43.26558,"lon":5.39008,"is_reserved":false,"is_disabled":false,"rental_uris":{"android":"levelo://app?vid=7d193f5f-076c-4e25-86b5-6fec88fb321d","ios":"levelo://app?vid=7d193f5f-076c-4e25-86b5-6fec88fb321d"},"vehicle_type_id":"4","last_reported":1758276725,"current_range_meters":23200,"station_id":"ce4bhe12rcd13ifvqf30","pricing_plan_id":"cebpf4jnsgd1na2vs0mg"},{"bike_id":"c56daac4-8da4-4f6a-84b1-6c561ece6ba4","system_id":"levelo_inurba_marseille","lat":43.290977,"lon":5.381292,"is_reserved":false,"is_disabled":false,"rental_uris":{"android":"levelo://app?vid=c56daac4-8da4-4f6a-84b1-6c561ece6ba4","ios":"levelo://app?vid=c56daac4-8da4-4f6a-84b1-6c561ece6ba4"},"vehicle_type_id":"4","last_reported":1758276725,"current_range_meters":23200,"station_id":"ce4bh512rcd13ifvqe2g","pricing_plan_id":"cebpf4jnsgd1na2vs0mg"},{"bike_id":"9caffb0e-16a2-4a38-a56a-5a4258bb8b8d","system_id":"levelo_inurba_marseille","lat":43.33722,"lon":5.39188,"is_reserved":false,"is_disabled":false,"rental_uris":{"android":"levelo://app?vid=9caffb0e-16a2-4a38-a56a-5a4258bb8b8d","ios":"levelo://app?vid=9caffb0e-16a2-4a38-a56a-5a4258bb8b8d"},"vehicle_type_id":"4","last_reported":1758276725,"current_range_meters":23200,"station_id":"ce4bhr92rcd13ifvqhsg","pricing_plan_id":"cebpf4jnsgd1na2vs0mg"},{"bike_id":"f0a7dead-c107-4943-b803-28630d8500e3","system_id":"levelo_inurba_marseille","lat":43.24159,"lon":5.36401,"is_reserved":false,"is_disabled":false,"rental_uris":{"android":"levelo://app?vid=f0a7dead-c107-4943-b803-28630d8500e3","ios":"levelo://app?vid=f0a7dead-c107-4943-b803-28630d8500e3"},"vehicle_type_id":"4","last_reported":1758276725,"current_range_meters":23200,"station_id":"cpo36qri1sfpv3e86is0","pricing_plan_id":"cebpf4jnsgd1na2vs0mg"},{"bike_id":"2c89442f-819d-43eb-a97b-c43ccf61e8be","system_id":"levelo_inurba_marseille","lat":43.31901,"lon":5.4085,"is_reserved":false,"is_disabled":false,"rental_uris":{"android":"levelo://app?vid=2c89442f-819d-43eb-a97b-c43ccf61e8be","ios":"levelo://app?vid=2c89442f-819d-43eb-a97b-c43ccf61e8be"},"vehicle_type_id":"4","last_reported":1758276725,"current_range_meters":23200,"station_id":"","pricing_plan_id":"cebpf4jnsgd1na2vs0mg"},{"bike_id":"74a37ab0-9093-4506-9885-a6c3ac2425dd","system_id":"levelo_inurba_marseille","lat":43.292971,"lon":5.374575,"is_reserved":false,"is_disabled":false,"rental_uris":{"android":"levelo://app?vid=74a37ab0-9093-4506-9885-a6c3ac2425dd","ios":"levelo://app?vid=74a37ab0-9093-4506-9885-a6c3ac2425dd"},"vehicle_type_id":"4","last_reported":1758276725,"current_range_meters":23200,"station_id":"ce4bgi12rcd13ifvqb70","pricing_plan_id":"cebpf4jnsgd1na2vs0mg"},{"bike_id":"5de9a53a-c5c7-45f1-8614-220cda8126de","system_id":"levelo_inurba_marseille","lat":43.32358,"lon":5.36716,"is_reserved":false,"is_disabled":false,"rental_uris":{"android":"levelo://app?vid=5de9a53a-c5c7-45f1-8614-220cda8126de","ios":"levelo://app?vid=5de9a53a-c5c7-45f1-8614-220cda8126de"},"vehicle_type_id":"4","last_reported":1758276725,"current_range_meters":23200,"station_id":"ce4bhsh2rcd13ifvqi2g","pricing_plan_id":"cebpf4jnsgd1na2vs0mg"},{"bike_id":"f21d9eaf-9398-465a-94b3-6193adf4562a","system_id":"levelo_inurba_marseille","lat":43.27993,"lon":5.41659,"is_reserved":false,"is_disabled":false,"rental_uris":{"android":"levelo://app?vid=f21d9eaf-9398-465a-94b3-6193adf4562a","ios":"levelo://app?vid=f21d9eaf-9398-465a-94b3-6193adf4562a"},"vehicle_type_id":"4","last_reported":1758276725,"current_range_meters":23200,"station_id":"ce4bho12rcd13ifvqh1g","pricing_plan_id":"cebpf4jnsgd1na2vs0mg"},{"bike_id":"ce0cd5f5-c4f6-4c98-aee9-463abc6bed00","system_id":"levelo_inurba_marseille","lat":43.29617,"lon":5.36273,"is_reserved":false,"is_disabled":false,"rental_uris":{"android":"levelo://app?vid=ce0cd5f5-c4f6-4c98-aee9-463abc6bed00","ios":"levelo://app?vid=ce0cd5f5-c4f6-4c98-aee9-463abc6bed00"},"vehicle_type_id":"4","last_reported":1758276725,"current_range_meters":23200,"station_id":"","pricing_plan_id":"cebpf4jnsgd1na2vs0mg"},{"bike_id":"20313d8a-459f-44df-968e-76ee622b2e21","system_id":"levelo_inurba_marseille","lat":43.29579,"lon":5.36743,"is_reserved":false,"is_disabled":false,"rental_uris":{"android":"levelo://app?vid=20313d8a-459f-44df-968e-76ee622b2e21","ios":"levelo://app?vid=20313d8a-459f-44df-968e-76ee622b2e21"},"vehicle_type_id":"4","last_reported":1758276725,"current_range_meters":24000,"station_id":"ce4bgph2rcd13ifvqc2g","pricing_plan_id":"cebpf4jnsgd1na2vs0mg"},{"bike_id":"c95b8cc9-c86f-469a-b0d6-475fcbdc06fc","system_id":"levelo_inurba_marseille","lat":43.29098,"lon":5.38132,"is_reserved":false,"is_disabled":false,"rental_uris":{"android":"levelo://app?vid=c95b8cc9-c86f-469a-b0d6-475fcbdc06fc","ios":"levelo://app?vid=c95b8cc9-c86f-469a-b0d6-475fcbdc06fc"},"vehicle_type_id":"4","last_reported":1758276725,"current_range_meters":24000,"station_id":"ce4bh512rcd13ifvqe2g","pricing_plan_id":"cebpf4jnsgd1na2vs0mg"},{"bike_id":"c7aef6b3-35b5-491e-a90f-bfaf42e9b9a1","system_id":"levelo_inurba_marseille","lat":43.33597,"lon":5.41025,"is_reserved":false,"is_disabled":false,"rental_uris":{"android":"levelo://app?vid=c7aef6b3-35b5-491e-a90f-bfaf42e9b9a1","ios":"levelo://app?vid=c7aef6b3-35b5-491e-a90f-bfaf42e9b9a1"},"vehicle_type_id":"4","last_reported":1758276725,"current_range_meters":24000,"station_id":"ce4bhqh2rcd13ifvqhmg","pricing_plan_id":"cebpf4jnsgd1na2vs0mg"},{"bike_id":"8f3f0f0f-47be-411d-9ef8-5f8e7cb3eaad","system_id":"levelo_inurba_marseille","lat":43.24384,"lon":5.3706,"is_reserved":false,"is_disabled":false,"rental_uris":{"android":"levelo://app?vid=8f3f0f0f-47be-411d-9ef8-5f8e7cb3eaad","ios":"levelo://app?vid=8f3f0f0f-47be-411d-9ef8-5f8e7cb3eaad"},"vehicle_type_id":"4","last_reported":1758276725,"current_range_meters":24000,"station_id":"ce4bhhh2rcd13ifvqfk0","pricing_plan_id":"cebpf4jnsgd1na2vs0mg"},{"bike_id":"94bdc54d-cbd1-4ec5-9891-7eebd2767e7f","system_id":"levelo_inurba_marseille","lat":43.30135,"lon":5.37416,"is_reserved":false,"is_disabled":false,"rental_uris":{"android":"levelo://app?vid=94bdc54d-cbd1-4ec5-9891-7eebd2767e7f","ios":"levelo://app?vid=94bdc54d-cbd1-4ec5-9891-7eebd2767e7f"},"vehicle_type_id":"4","last_reported":1758276725,"current_range_meters":24000,"station_id":"ce4bgs92rcd13ifvqcc0","pricing_plan_id":"cebpf4jnsgd1na2vs0mg"},{"bike_id":"4c7f1a96-956a-470c-bcce-0c036534cba0","system_id":"levelo_inurba_marseille","lat":43.29792,"lon":5.38087,"is_reserved":false,"is_disabled":false,"rental_uris":{"android":"levelo://app?vid=4c7f1a96-956a-470c-bcce-0c036534cba0","ios":"levelo://app?vid=4c7f1a96-956a-470c-bcce-0c036534cba0"},"vehicle_type_id":"4","last_reported":1758276725,"current_range_meters":24000,"station_id":"ce4bgip2rcd13ifvqbb0","pricing_plan_id":"cebpf4jnsgd1na2vs0mg"},{"bike_id":"dc9ca000-93d6-4301-93eb-1a1d63a2b777","system_id":"levelo_inurba_marseille","lat":43.29856,"lon":5.3767,"is_reserved":false,"is_disabled":false,"rental_uris":{"android":"levelo://app?vid=dc9ca000-93d6-4301-93eb-1a1d63a2b777","ios":"levelo://app?vid=dc9ca000-93d6-4301-93eb-1a1d63a2b777"},"vehicle_type_id":"4","last_reported":1758276725,"current_range_meters":24000,"station_id":"","pricing_plan_id":"cebpf4jnsgd1na2vs0mg"},{"bike_id":"3dd9860a-65d7-4144-aa91-065e5ee72883","system_id":"levelo_inurba_marseille","lat":43.23136,"lon":5.43719,"is_reserved":false,"is_disabled":false,"rental_uris":{"android":"levelo://app?vid=3dd9860a-65d7-4144-aa91-065e5ee72883","ios":"levelo://app?vid=3dd9860a-65d7-4144-aa91-065e5ee72883"},"vehicle_type_id":"4","last_reported":1758276725,"current_range_meters":24000,"station_id":"ce4bhmp2rcd13ifvqgog","pricing_plan_id":"cebpf4jnsgd1na2vs0mg"},{"bike_id":"d28c137f-2eb7-4dbf-a17b-d5db2524aa6a","system_id":"levelo_inurba_marseille","lat":43.28264,"lon":5.3506,"is_reserved":false,"is_disabled":false,"rental_uris":{"android":"levelo://app?vid=d28c137f-2eb7-4dbf-a17b-d5db2524aa6a","ios":"levelo://app?vid=d28c137f-2eb7-4dbf-a17b-d5db2524aa6a"},