{"last_updated":1685736420,"ttl":30,"version":"2.2","data":{"bikes":[{"bike_id":"db50a2c9-d127-4b1a-a8c6-1bb3cfcd227c","system_id":"levelo_inurba_marseille","lat":43.31146,"lon":5.37089,"is_reserved":false,"is_disabled":false,"rental_uris":{"android":"levelo://app?vid=db50a2c9-d127-4b1a-a8c6-1bb3cfcd227c","ios":"levelo://app?vid=db50a2c9-d127-4b1a-a8c6-1bb3cfcd227c"},"vehicle_type_id":"4","last_reported":1685736420,"current_range_meters":3600,"station_id":"","pricing_plan_id":"free"},{"bike_id":"1ba9ec5c-cdef-453d-b4b6-d7d08eaaccc7","system_id":"levelo_inurba_marseille","lat":43.308614,"lon":5.372098,"is_reserved":false,"is_disabled":false,"rental_uris":{"android":"levelo://app?vid=1ba9ec5c-cdef-453d-b4b6-d7d08eaaccc7","ios":"levelo://app?vid=1ba9ec5c-cdef-453d-b4b6-d7d08eaaccc7"},"vehicle_type_id":"4","last_reported":1685736420,"current_range_meters":8400,"station_id":"ce4bguh2rcd13ifvqckg","pricing_plan_id":"free"},{"bike_id":"25a8dcab-ece4-42b7-a12a-a0dd7d71635f","system_id":"levelo_inurba_marseille","lat":43.30901,"lon":5.37266,"is_reserved":false,"is_disabled":false,"rental_uris":{"android":"levelo://app?vid=25a8dcab-ece4-42b7-a12a-a0dd7d71635f","ios":"levelo://app?vid=25a8dcab-ece4-42b7-a12a-a0dd7d71635f"},"vehicle_type_id":"4","last_reported":1685736420,"current_range_meters":12800,"station_id":"","pricing_plan_id":"free"},{"bike_id":"4d43e892-ec90-4fce-8475-f727fed3851f","system_id":"levelo_inurba_marseille","lat":43.31977,"lon":5.36594,"is_reserved":false,"is_disabled":false,"rental_uris":{"android":"levelo://app?vid=4d43e892-ec90-4fce-8475-f727fed3851f","ios":"levelo://app?vid=4d43e892-ec90-4fce-8475-f727fed3851f"},"vehicle_type_id":"4","last_reported":1685736420,"current_range_meters":8000,"station_id":"","pricing_plan_id":"free"},{"bike_id":"890e93ac-4bac-484a-baff-b468d73fa7c8","system_id":"levelo_inurba_marseille","lat":43.31362,"lon":5.37681,"is_reserved":false,"is_disabled":false,"rental_uris":{"android":"levelo://app?vid=890e93ac-4bac-484a-baff-b468d73fa7c8","ios":"levelo://app?vid=890e93ac-4bac-484a-baff-b468d73fa7c8"},"vehicle_type_id":"4","last_reported":1685736420,"current_range_meters":12400,"station_id":"","pricing_plan_id":"free"},{"bike_id":"0c4c88d9-204f-4b4c-9519-4fd692006f67","system_id":"levelo_inurba_marseille","lat":43.30599,"lon":5.37217,"is_reserved":false,"is_disabled":false,"rental_uris":{"android":"levelo://app?vid=0c4c88d9-204f-4b4c-9519-4fd692006f67","ios":"levelo://app?vid=0c4c88d9-204f-4b4c-9519-4fd692006f67"},"vehicle_type_id":"4","last_reported":1685736420,"current_range_meters":0,"station_id":"ce4bgqh2rcd13ifvqc4g","pricing_plan_id":"free"},{"bike_id":"4f0ac690-a12e-4b88-9abd-a29f0ba92a6e","system_id":"levelo_inurba_marseille","lat":43.317075,"lon":5.377367,"is_reserved":false,"is_disabled":false,"rental_uris":{"android":"levelo://app?vid=4f0ac690-a12e-4b88-9abd-a29f0ba92a6e","ios":"levelo://app?vid=4f0ac690-a12e-4b88-9abd-a29f0ba92a6e"},"vehicle_type_id":"4","last_reported":1685736420,"current_range_meters":24800,"station_id":"ce4bgth2rcd13ifvqch0","pricing_plan_id":"free"},{"bike_id":"f5db6686-8328-44e7-a9da-9d2774a5ea39","system_id":"levelo_inurba_marseille","lat":43.317075,"lon":5.377367,"is_reserved":false,"is_disabled":false,"rental_uris":{"android":"levelo://app?vid=f5db6686-8328-44e7-a9da-9d2774a5ea39","ios":"levelo://app?vid=f5db6686-8328-44e7-a9da-9d2774a5ea39"},"vehicle_type_id":"4","last_reported":1685736420,"current_range_meters":28800,"station_id":"ce4bgth2rcd13ifvqch0","pricing_plan_id":"free"},{"bike_id":"64668d62-2c56-40da-9e4a-cb84a2c2ea4d","system_id":"levelo_inurba_marseille","lat":43.31002,"lon":5.38021,"is_reserved":false,"is_disabled":false,"rental_uris":{"android":"levelo://app?vid=64668d62-2c56-40da-9e4a-cb84a2c2ea4d","ios":"levelo://app?vid=64668d62-2c56-40da-9e4a-cb84a2c2ea4d"},"vehicle_type_id":"4","last_reported":1685736420,"current_range_meters":0,"station_id":"","pricing_plan_id":"free"},{"bike_id":"f1988c5c-31a5-4c4c-8f6a-f8687e567f97","system_id":"levelo_inurba_marseille","lat":43.308012,"lon":5.381511,"is_reserved":false,"is_disabled":false,"rental_uris":{"android":"levelo://app?vid=f1988c5c-31a5-4c4c-8f6a-f8687e567f97","ios":"levelo://app?vid=f1988c5c-31a5-4c4c-8f6a-f8687e567f97"},"vehicle_type_id":"4","last_reported":1685736420,"current_range_meters":24800,"station_id":"ce4bgt12rcd13ifvqce0","pricing_plan_id":"free"},{"bike_id":"b282206e-9310-415d-966d-1ffd3c7d5fe4","system_id":"levelo_inurba_marseille","lat":43.304606,"lon":5.379026,"is_reserved":false,"is_disabled":false,"rental_uris":{"android":"levelo://app?vid=b282206e-9310-415d-966d-1ffd3c7d5fe4","ios":"levelo://app?vid=b282206e-9310-415d-966d-1ffd3c7d5fe4"},"vehicle_type_id":"4","last_reported":1685736420,"current_range_meters":2000,"station_id":"ce4bgup2rcd13ifvqcn0","pricing_plan_id":"free"},{"bike_id":"cae54548-b1c5-43c5-854c-9258b28b419d","system_id":"levelo_inurba_marseille","lat":43.32535,"lon":5.36848,"is_reserved":false,"is_disabled":false,"rental_uris":{"android":"levelo://app?vid=cae54548-b1c5-43c5-854c-9258b28b419d","ios":"levelo://app?vid=cae54548-b1c5-43c5-854c-9258b28b419d"},"vehicle_type_id":"4","last_reported":1685736420,"current_range_meters":22800,"station_id":"","pricing_plan_id":"free"},{"bike_id":"b6af2cee-22c0-4696-a3cc-c5ab5878f58f","system_id":"levelo_inurba_marseille","lat":43.319935,"lon":5.381699,"is_reserved":false,"is_disabled":false,"rental_uris":{"android":"levelo://app?vid=b6af2cee-22c0-4696-a3cc-c5ab5878f58f","ios":"levelo://app?vid=b6af2cee-22c0-4696-a3cc-c5ab5878f58f"},"vehicle_type_id":"4","last_reported":1685736420,"current_range_meters":30400,"station_id":"ce4bhr12rcd13ifvqhpg","pricing_plan_id":"free"},{"bike_id":"8c3cbb59-cd72-4768-8a58-eb62ab11aad1","system_id":"levelo_inurba_marseille","lat":43.319935,"lon":5.381699,"is_reserved":false,"is_disabled":false,"rental_uris":{"android":"levelo://app?vid=8c3cbb59-cd72-4768-8a58-eb62ab11aad1","ios":"levelo://app?vid=8c3cbb59-cd72-4768-8a58-eb62ab11aad1"},"vehicle_type_id":"4","last_reported":1685736420,"current_range_meters":31200,"station_id":"ce4bhr12rcd13ifvqhpg","pricing_plan_id":"free"},{"bike_id":"ad129339-b339-4ccc-9ee0-2774c8b55114","system_id":"levelo_inurba_marseille","lat":43.319935,"lon":5.381699,"is_reserved":false,"is_disabled":false,"rental_uris":{"android":"levelo://app?vid=ad129339-b339-4ccc-9ee0-2774c8b55114","ios":"levelo://app?vid=ad129339-b339-4ccc-9ee0-2774c8b55114"},"vehicle_type_id":"4","last_reported":1685736420,"current_range_meters":27200,"station_id":"ce4bhr12rcd13ifvqhpg","pricing_plan_id":"free"},{"bike_id":"8378b03b-6ed0-41b1-8fb0-aadd3fc16f96","system_id":"levelo_inurba_marseille","lat":43.313571,"lon":5.384829,"is_reserved":false,"is_disabled":false,"rental_uris":{"android":"levelo://app?vid=8378b03b-6ed0-41b1-8fb0-aadd3fc16f96","ios":"levelo://app?vid=8378b03b-6ed0-41b1-8fb0-aadd3fc16f96"},"vehicle_type_id":"4","last_reported":1685736420,"current_range_meters":9200,"station_id":"ce4bgt92rcd13ifvqcf0","pricing_plan_id":"free"},{"bike_id":"f00ef6d6-b8c9-4ca8-9822-2b485c8f30cc","system_id":"levelo_inurba_marseille","lat":43.29925,"lon":5.36554,"is_reserved":false,"is_disabled":false,"rental_uris":{"android":"levelo://app?vid=f00ef6d6-b8c9-4ca8-9822-2b485c8f30cc","ios":"levelo://app?vid=f00ef6d6-b8c9-4ca8-9822-2b485c8f30cc"},"vehicle_type_id":"4","last_reported":1685736420,"current_range_meters":24800,"station_id":"","pricing_plan_id":"free"},{"bike_id":"97fbac25-5e06-4122-a674-88dd5abfb33a","system_id":"levelo_inurba_marseille","lat":43.298433,"lon":5.362774,"is_reserved":false,"is_disabled":false,"rental_uris":{"android":"levelo://app?vid=97fbac25-5e06-4122-a674-88dd5abfb33a","ios":"levelo://app?vid=97fbac25-5e06-4122-a674-88dd5abfb33a"},"vehicle_type_id":"4","last_reported":1685736420,"current_range_meters":6000,"station_id":"ce4bgpp2rcd13ifvqc3g","pricing_plan_id":"free"},{"bike_id":"7d4f3d9d-8e86-4f33-a15c-291b82b1d92b","system_id":"levelo_inurba_marseille","lat":43.30537,"lon":5.38426,"is_reserved":false,"is_disabled":false,"rental_uris":{"android":"levelo://app?vid=7d4f3d9d-8e86-4f33-a15c-291b82b1d92b","ios":"levelo://app?vid=7d4f3d9d-8e86-4f33-a15c-291b82b1d92b"},"vehicle_type_id":"4","last_reported":1685736420,"current_range_meters":0,"station_id":"ce4bgg92rcd13ifvqb30","pricing_plan_id":"free"},{"bike_id":"055b7752-e1d1-47aa-8994-f066ec6366d5","system_id":"levelo_inurba_marseille","lat":43.30538,"lon":5.38427,"is_reserved":false,"is_disabled":false,"rental_uris":{"android":"levelo://app?vid=055b7752-e1d1-47aa-8994-f066ec6366d5","ios":"levelo://app?vid=055b7752-e1d1-47aa-8994-f066ec6366d5"},"vehicle_type_id":"4","last_reported":1685736420,"current_range_meters":6400,"station_id":"ce4bgg92rcd13ifvqb30","pricing_plan_id":"free"},{"bike_id":"a5ef33e6-a221-4312-a02b-7cc1d4ac2f6e","system_id":"levelo_inurba_marseille","lat":43.311722,"lon":5.387247,"is_reserved":false,"is_disabled":false,"rental_uris":{"android":"levelo://app?vid=a5ef33e6-a221-4312-a02b-7cc1d4ac2f6e","ios":"levelo://app?vid=a5ef33e6-a221-4312-a02b-7cc1d4ac2f6e"},"vehicle_type_id":"4","last_reported":1685736420,"current_range_meters":14400,"station_id":"ce4bgv12rcd13ifvqcp0","pricing_plan_id":"free"},{"bike_id":"61760e84-2475-4da6-af65-748dc9714bf8","system_id":"levelo_inurba_marseille","lat":43.30528,"lon":5.3843,"is_reserved":false,"is_disabled":false,"rental_uris":{"android":"levelo://app?vid=61760e84-2475-4da6-af65-748dc9714bf8","ios":"levelo://app?vid=61760e84-2475-4da6-af65-748dc9714bf8"},"vehicle_type_id":"4","last_reported":1685736420,"current_range_meters":1600,"station_id":"ce4bgg92rcd13ifvqb30","pricing_plan_id":"free"},{"bike_id":"dc2e91cb-f81a-4256-83e9-aef630ce2a7d","system_id":"levelo_inurba_marseille","lat":43.297794,"lon":5.370888,"is_reserved":false,"is_disabled":false,"rental_uris":{"android":"levelo://app?vid=dc2e91cb-f81a-4256-83e9-aef630ce2a7d","ios":"levelo://app?vid=dc2e91cb-f81a-4256-83e9-aef630ce2a7d"},"vehicle_type_id":"4","last_reported":1685736420,"current_range_meters":18400,"station_id":"ce4bgop2rcd13ifvqc1g","pricing_plan_id":"free"},{"bike_id":"0daf4039-752f-496b-80e9-a618f55d4936","system_id":"levelo_inurba_marseille","lat":43.328371,"lon":5.366909,"is_reserved":false,"is_disabled":false,"rental_uris":{"android":"levelo://app?vid=0daf4039-752f-496b-80e9-a618f55d4936","ios":"levelo://app?vid=0daf4039-752f-496b-80e9-a618f55d4936"},"vehicle_type_id":"4","last_reported":1685736420,"current_range_meters":0,"station_id":"ce4bhs92rcd13ifvqi0g","pricing_plan_id":"free"},{"bike_id":"7652560c-7deb-42f7-934b-ad6212fb0a0d","system_id":"levelo_inurba_marseille","lat":43.328371,"lon":5.366909,"is_reserved":false,"is_disabled":false,"rental_uris":{"android":"levelo://app?vid=7652560c-7deb-42f7-934b-ad6212fb0a0d","ios":"levelo://app?vid=7652560c-7deb-42f7-934b-ad6212fb0a0d"},"vehicle_type_id":"4","last_reported":1685736420,"current_range_meters":18800,"station_id":"ce4bhs92rcd13ifvqi0g","pricing_plan_id":"free"},{"bike_id":"048d6a5e-97c9-4f67-bf89-16ecba2081b0","system_id":"levelo_inurba_marseille","lat":43.328371,"lon":5.366909,"is_reserved":false,"is_disabled":false,"rental_uris":{"android":"levelo://app?vid=048d6a5e-97c9-4f67-bf89-16ecba2081b0","ios":"levelo://app?vid=048d6a5e-97c9-4f67-bf89-16ecba2081b0"},"vehicle_type_id":"4","last_reported":1685736420,"current_range_meters":2400,"station_id":"ce4bhs92rcd13ifvqi0g","pricing_plan_id":"free"},{"bike_id":"44461937-e383-441a-8ed9-77517a1c8c2f","system_id":"levelo_inurba_marseille","lat":43.328371,"lon":5.366909,"is_reserved":false,"is_disabled":false,"rental_uris":{"android":"levelo://app?vid=44461937-e383-441a-8ed9-77517a1c8c2f","ios":"levelo://app?vid=44461937-e383-441a-8ed9-77517a1c8c2f"},"vehicle_type_id":"4","last_reported":1685736420,"current_range_meters":20400,"station_id":"ce4bhs92rcd13ifvqi0g","pricing_plan_id":"free"},{"bike_id":"6dab6eca-b352-49ea-add2-026ea7782376","system_id":"levelo_inurba_marseille","lat":43.328371,"lon":5.366909,"is_reserved":false,"is_disabled":false,"rental_uris":{"android":"levelo://app?vid=6dab6eca-b352-49ea-add2-026ea7782376","ios":"levelo://app?vid=6dab6eca-b352-49ea-add2-026ea7782376"},"vehicle_type_id":"4","last_reported":1685736420,"current_range_meters":11600,"station_id":"ce4bhs92rcd13ifvqi0g","pricing_plan_id":"free"},{"bike_id":"0bba8e8a-f48b-4061-8d9c-e09d8e2912a6","system_id":"levelo_inurba_marseille","lat":43.29836,"lon":5.37666,"is_reserved":false,"is_disabled":false,"rental_uris":{"android":"levelo://app?vid=0bba8e8a-f48b-4061-8d9c-e09d8e2912a6","ios":"levelo://app?vid=0bba8e8a-f48b-4061-8d9c-e09d8e2912a6"},"vehicle_type_id":"4","last_reported":1685736420,"current_range_meters":0,"station_id":"","pricing_plan_id":"free"},{"bike_id":"b1b32e7c-92f1-43d5-8ad8-5d44e2914b9d","system_id":"levelo_inurba_marseille","lat":43.29573,"lon":5.367355,"is_reserved":false,"is_disabled":false,"rental_uris":{"android":"levelo://app?vid=b1b32e7c-92f1-43d5-8ad8-5d44e2914b9d","ios":"levelo://app?vid=b1b32e7c-92f1-43d5-8ad8-5d44e2914b9d"},"vehicle_type_id":"4","last_reported":1685736420,"current_range_meters":1200,"station_id":"ce4bgph2rcd13ifvqc2g","pricing_plan_id":"free"},{"bike_id":"ed2ae788-c5db-4683-ba36-f73e68c76be3","system_id":"levelo_inurba_marseille","lat":43.30946,"lon":5.39028,"is_reserved":false,"is_disabled":false,"rental_uris":{"android":"levelo://app?vid=ed2ae788-c5db-4683-ba36-f73e68c76be3","ios":"levelo://app?vid=ed2ae788-c5db-4683-ba36-f73e68c76be3"},"vehicle_type_id":"4","last_reported":1685736420,"current_range_meters":16400,"station_id":"ce4bgup2rcd13ifvqco0","pricing_plan_id":"free"},{"bike_id":"3514978f-6f8d-42c1-aaa4-9f6436f4b2d0","system_id":"levelo_inurba_marseille","lat":43.309589,"lon":5.390258,"is_reserved":false,"is_disabled":false,"rental_uris":{"android":"levelo://app?vid=3514978f-6f8d-42c1-aaa4-9f6436f4b2d0","ios":"levelo://app?vid=3514978f-6f8d-42c1-aaa4-9f6436f4b2d0"},"vehicle_type_id":"4","last_reported":1685736420,"current_range_meters":0,"station_id":"ce4bgup2rcd13ifvqco0","pricing_plan_id":"free"},{"bike_id":"99a6573b-d996-4c33-983e-97fe582ab924","system_id":"levelo_inurba_marseille","lat":43.309589,"lon":5.390258,"is_reserved":false,"is_disabled":false,"rental_uris":{"android":"levelo://app?vid=99a6573b-d996-4c33-983e-97fe582ab924","ios":"levelo://app?vid=99a6573b-d996-4c33-983e-97fe582ab924"},"vehicle_type_id":"4","last_reported":1685736420,"current_range_meters":11600,"station_id":"ce4bgup2rcd13ifvqco0","pricing_plan_id":"free"},{"bike_id":"3e61ee82-87aa-4827-a45a-0f5796d0c902","system_id":"levelo_inurba_marseille","lat":43.309589,"lon":5.390258,"is_reserved":false,"is_disabled":false,"rental_uris":{"android":"levelo://app?vid=3e61ee82-87aa-4827-a45a-0f5796d0c902","ios":"levelo://app?vid=3e61ee82-87aa-4827-a45a-0f5796d0c902"},"vehicle_type_id":"4","last_reported":1685736420,"current_range_meters":17600,"station_id":"ce4bgup2rcd13ifvqco0","pricing_plan_id":"free"},{"bike_id":"7066edc4-1b63-4228-b65f-2471afbc3daa","system_id":"levelo_inurba_marseille","lat":43.309589,"lon":5.390258,"is_reserved":false,"is_disabled":false,"rental_uris":{"android":"levelo://app?vid=7066edc4-1b63-4228-b65f-2471afbc3daa","ios":"levelo://app?vid=7066edc4-1b63-4228-b65f-2471afbc3daa"},"vehicle_type_id":"4","last_reported":1685736420,"current_range_meters":8400,"station_id":"ce4bgup2rcd13ifvqco0","pricing_plan_id":"free"},{"bike_id":"5676e87f-ef4b-4a7f-bcad-313722765296","system_id":"levelo_inurba_marseille","lat":43.309589,"lon":5.390258,"is_reserved":false,"is_disabled":false,"rental_uris":{"android":"levelo://app?vid=5676e87f-ef4b-4a7f-bcad-313722765296","ios":"levelo://app?vid=5676e87f-ef4b-4a7f-bcad-313722765296"},"vehicle_type_id":"4","last_reported":1685736420,"current_range_meters":20400,"station_id":"ce4bgup2rcd13ifvqco0","pricing_plan_id":"free"},{"bike_id":"c3399b97-086e-466d-85ea-9ee510d3a5ab","system_id":"levelo_inurba_marseille","lat":43.309589,"lon":5.390258,"is_reserved":false,"is_disabled":false,"rental_uris":{"android":"levelo://app?vid=c3399b97-086e-466d-85ea-9ee510d3a5ab","ios":"levelo://app?vid=c3399b97-086e-466d-85ea-9ee510d3a5ab"},"vehicle_type_id":"4","last_reported":1685736420,"current_range_meters":7200,"station_id":"ce4bgup2rcd13ifvqco0","pricing_plan_id":"free"},{"bike_id":"e524b04f-e7ab-4385-a510-dde838fdca44","system_id":"levelo_inurba_marseille","lat":43.309589,"lon":5.390258,"is_reserved":false,"is_disabled":false,"rental_uris":{"android":"levelo://app?vid=e524b04f-e7ab-4385-a510-dde838fdca44","ios":"levelo://app?vid=e524b04f-e7ab-4385-a510-dde838fdca44"},"vehicle_type_id":"4","last_reported":1685736420,"current_range_meters":16800,"station_id":"ce4bgup2rcd13ifvqco0","pricing_plan_id":"free"},{"bike_id":"11bb5bbc-864c-47e1-9f03-c9c194bd04b3","system_id":"levelo_inurba_marseille","lat":43.31778,"lon":5.38984,"is_reserved":false,"is_disabled":false,"rental_uris":{"android":"levelo://app?vid=11bb5bbc-864c-47e1-9f03-c9c194bd04b3","ios":"levelo://app?vid=11bb5bbc-864c-47e1-9f03-c9c194bd04b3"},"vehicle_type_id":"4","last_reported":1685736420,"current_range_meters":24400,"station_id":"ce4bhqp2rcd13ifvqhng","pricing_plan_id":"free"},{"bike_id":"3fb9c402-21ca-4140-b619-268702860bff","system_id":"levelo_inurba_marseille","lat":43.31752,"lon":5.39017,"is_reserved":false,"is_disabled":false,"rental_uris":{"android":"levelo://app?vid=3fb9c402-21ca-4140-b619-268702860bff","ios":"levelo://app?vid=3fb9c402-21ca-4140-b619-268702860bff"},"vehicle_type_id":"4","last_reported":1685736420,"current_range_meters":6400,"station_id":"ce4bhqp2rcd13ifvqhng","pricing_plan_id":"free"},{"bike_id":"65983bbd-b8af-4bca-a968-a5f6fe02f3ec","system_id":"levelo_inurba_marseille","lat":43.31756,"lon":5.39016,"is_reserved":false,"is_disabled":false,"rental_uris":{"android":"levelo://app?vid=65983bbd-b8af-4bca-a968-a5f6fe02f3ec","ios":"levelo://app?vid=65983bbd-b8af-4bca-a968-a5f6fe02f3ec"},"vehicle_type_id":"4","last_reported":1685736420,"current_range_meters":21200,"station_id":"ce4bhqp2rcd13ifvqhng","pricing_plan_id":"free"},{"bike_id":"115f35ef-36e1-454f-a5fd-d1a88fcc631a","system_id":"levelo_inurba_marseille","lat":43.296277,"lon":5.377108,"is_reserved":false,"is_disabled":false,"rental_uris":{"android":"levelo://app?vid=115f35ef-36e1-454f-a5fd-d1a88fcc631a","ios":"levelo://app?vid=115f35ef-36e1-454f-a5fd-d1a88fcc631a"},"vehicle_type_id":"4","last_reported":1685736420,"current_range_meters":18800,"station_id":"ce4bgi92rcd13ifvqb90","pricing_plan_id":"free"},{"bike_id":"2dfc65fe-b7c4-4eef-902a-88bf569c5707","system_id":"levelo_inurba_marseille","lat":43.295748,"lon":5.37522,"is_reserved":false,"is_disabled":false,"rental_uris":{"android":"levelo://app?vid=2dfc65fe-b7c4-4eef-902a-88bf569c5707","ios":"levelo://app?vid=2dfc65fe-b7c4-4eef-902a-88bf569c5707"},"vehicle_type_id":"4","last_reported":1685736420,"current_range_meters":12800,"station_id":"ce4bgh92rcd13ifvqb50","pricing_plan_id":"free"},{"bike_id":"a0de5c2d-ba9b-46d9-9473-9be0bbd96dfb","system_id":"levelo_inurba_marseille","lat":43.295748,"lon":5.37522,"is_reserved":false,"is_disabled":false,"rental_uris":{"android":"levelo://app?vid=a0de5c2d-ba9b-46d9-9473-9be0bbd96dfb","ios":"levelo://app?vid=a0de5c2d-ba9b-46d9-9473-9be0bbd96dfb"},"vehicle_type_id":"4","last_reported":1685736420,"current_range_meters":5200,"station_id":"ce4bgh92rcd13ifvqb50","pricing_plan_id":"free"},{"bike_id":"fd937f6a-2c21-41fa-8045-f949a67f17fa","system_id":"levelo_inurba_marseille","lat":43.295748,"lon":5.37522,"is_reserved":false,"is_disabled":false,"rental_uris":{"android":"levelo://app?vid=fd937f6a-2c21-41fa-8045-f949a67f17fa","ios":"levelo://app?vid=fd937f6a-2c21-41fa-8045-f949a67f17fa"},"vehicle_type_id":"4","last_reported":1685736420,"current_range_meters":0,"station_id":"ce4bgh92rcd13ifvqb50","pricing_plan_id":"free"},{"bike_id":"b4f31d33-6f69-4f56-96eb-0f5a94e7d9f2","system_id":"levelo_inurba_marseille","lat":43.295279,"lon":5.375048,"is_reserved":false,"is_disabled":false,"rental_uris":{"android":"levelo://app?vid=b4f31d33-6f69-4f56-96eb-0f5a94e7d9f2","ios":"levelo://app?vid=b4f31d33-6f69-4f56-96eb-0f5a94e7d9f2"},"vehicle_type_id":"4","last_reported":1685736420,"current_range_meters":1600,"station_id":"ce4bgkp2rcd13ifvqbmg","pricing_plan_id":"free"},{"bike_id":"d9b3487e-4661-4b3b-a198-2212de300ca1","system_id":"levelo_inurba_marseille","lat":43.32364,"lon":5.38889,"is_reserved":false,"is_disabled":false,"rental_uris":{"android":"levelo://app?vid=d9b3487e-4661-4b3b-a198-2212de300ca1","ios":"levelo://app?vid=d9b3487e-4661-4b3b-a198-2212de300ca1"},"vehicle_type_id":"4","last_reported":1685736420,"current_range_meters":4400,"station_id":"ce4bhqp2rcd13ifvqhog","pricing_plan_id":"free"},{"bike_id":"472a907e-2842-462f-b842-98dd2687e9e0","system_id":"levelo_inurba_marseille","lat":43.292749,"lon":5.368402,"is_reserved":false,"is_disabled":false,"rental_uris":{"android":"levelo://app?vid=472a907e-2842-462f-b842-98dd2687e9e0","ios":"levelo://app?vid=472a907e-2842-462f-b842-98dd2687e9e0"},"vehicle_type_id":"4","last_reported":1685736420,"current_range_meters":5200,"station_id":"ce4bhbp2rcd13ifvqesg","pricing_plan_id":"free"},{"bike_id":"5532e262-e33b-4bfe-aa44-94adfa214823","system_id":"levelo_inurba_marseille","lat":43.29302,"lon":5.37167,"is_reserved":false,"is_disabled":false,"rental_uris":{"android":"levelo://app?vid=5532e262-e33b-4bfe-aa44-94adfa214823","ios":"levelo://app?vid=5532e262-e33b-4bfe-aa44-94adfa214823"},"vehicle_type_id":"4","last_reported":1685736420,"current_range_meters":29200,"station_id":"ce4bgh92rcd13ifvqb40","pricing_plan_id":"free"},{"bike_id":"f5e421f5-76f0-4532-8587-189712d76687","system_id":"levelo_inurba_marseille","lat":43.292311,"lon":5.360731,"is_reserved":false,"is_disabled":false,"rental_uris":{"android":"levelo://app?vid=f5e421f5-76f0-4532-8587-189712d76687","ios":"levelo://app?vid=f5e421f5-76f0-4532-8587-189712d76687"},"vehicle_type_id":"4","last_reported":1685736420,"current_range_meters":9600,"station_id":"ce4bhbh2rcd13ifvqeqg","pricing_plan_id":"free"},{"bike_id":"5a660338-3281-43aa-affc-986af7b1f5e7","system_id":"levelo_inurba_marseille","lat":43.31919,"lon":5.39544,"is_reserved":false,"is_disabled":false,"rental_uris":{"android":"levelo://app?vid=5a660338-3281-43aa-affc-986af7b1f5e7","ios":"levelo://app?vid=5a660338-3281-43aa-affc-986af7b1f5e7"},"vehicle_type_id":"4","last_reported":1685736420,"current_range_meters":1600,"station_id":"","pricing_plan_id":"free"},{"bike_id":"d1a6650d-935a-419a-a873-62e13d60b6c2","system_id":"levelo_inurba_marseille","lat":43.309038,"lon":5.396546,"is_reserved":false,"is_disabled":false,"rental_uris":{"android":"levelo://app?vid=d1a6650d-935a-419a-a873-62e13d60b6c2","ios":"levelo://app?vid=d1a6650d-935a-419a-a873-62e13d60b6c2"},"vehicle_type_id":"4","last_reported":1685736420,"current_range_meters":14000,"station_id":"ce4bh012rcd13ifvqcv0","pricing_plan_id":"free"},{"bike_id":"94a0100b-6a8c-4bb7-87df-360a51af980a","system_id":"levelo_inurba_marseille","lat":43.309038,"lon":5.396546,"is_reserved":false,"is_disabled":false,"rental_uris":{"android":"levelo://app?vid=94a0100b-6a8c-4bb7-87df-360a51af980a","ios":"levelo://app?vid=94a0100b-6a8c-4bb7-87df-360a51af980a"},"vehicle_type_id":"4","last_reported":1685736420,"current_range_meters":15200,"station_id":"ce4bh012rcd13ifvqcv0","pricing_plan_id":"free"},{"bike_id":"e79598f5-7a3d-4734-8fa1-aa447d4c1019","system_id":"levelo_inurba_marseille","lat":43.313291,"lon":5.396838,"is_reserved":false,"is_disabled":false,"rental_uris":{"android":"levelo://app?vid=e79598f5-7a3d-4734-8fa1-aa447d4c1019","ios":"levelo://app?vid=e79598f5-7a3d-4734-8fa1-aa447d4c1019"},"vehicle_type_id":"4","last_reported":1685736420,"current_range_meters":4000,"station_id":"ce4bgvp2rcd13ifvqcu0","pricing_plan_id":"free"},{"bike_id":"96f50266-9ac9-4f90-a5c3-24814eefa4da","system_id":"levelo_inurba_marseille","lat":43.31323,"lon":5.39696,"is_reserved":false,"is_disabled":false,"rental_uris":{"android":"levelo://app?vid=96f50266-9ac9-4f90-a5c3-24814eefa4da","ios":"levelo://app?vid=96f50266-9ac9-4f90-a5c3-24814eefa4da"},"vehicle_type_id":"4","last_reported":1685736420,"current_range_meters":12800,"station_id":"ce4bgvp2rcd13ifvqcu0","pricing_plan_id":"free"},{"bike_id":"abae94e5-b10b-4018-8f9a-f2e7577aaac4","system_id":"levelo_inurba_marseille","lat":43.309038,"lon":5.396546,"is_reserved":false,"is_disabled":false,"rental_uris":{"android":"levelo://app?vid=abae94e5-b10b-4018-8f9a-f2e7577aaac4","ios":"levelo://app?vid=abae94e5-b10b-4018-8f9a-f2e7577aaac4"},"vehicle_type_id":"4","last_reported":1685736420,"current_range_meters":16400,"station_id":"ce4bh012rcd13ifvqcv0","pricing_plan_id":"free"},{"bike_id":"5f75299f-2d04-415f-95ea-e9cb859f8f7d","system_id":"levelo_inurba_marseille","lat":43.29529,"lon":5.385581,"is_reserved":false,"is_disabled":false,"rental_uris":{"android":"levelo://app?vid=5f75299f-2d04-415f-95ea-e9cb859f8f7d","ios":"levelo://app?vid=5f75299f-2d04-415f-95ea-e9cb859f8f7d"},"vehicle_type_id":"4","last_reported":1685736420,"current_range_meters":26400,"station_id":"ce4bgih2rcd13ifvqba0","pricing_plan_id":"free"},{"bike_id":"a22762c2-871b-4e0d-af58-acdddbfad40d","system_id":"levelo_inurba_marseille","lat":43.295274,"lon":5.385449,"is_reserved":false,"is_disabled":false,"rental_uris":{"android":"levelo://app?vid=a22762c2-871b-4e0d-af58-acdddbfad40d","ios":"levelo://app?vid=a22762c2-871b-4e0d-af58-acdddbfad40d"},"vehicle_type_id":"4","last_reported":1685736420,"current_range_meters":5200,"station_id":"","pricing_plan_id":"free"},{"bike_id":"1aa972f2-4e9d-4a3c-b23c-a309e5383ac1","system_id":"levelo_inurba_marseille","lat":43.29529,"lon":5.385581,"is_reserved":false,"is_disabled":false,"rental_uris":{"android":"levelo://app?vid=1aa972f2-4e9d-4a3c-b23c-a309e5383ac1","ios":"levelo://app?vid=1aa972f2-4e9d-4a3c-b23c-a309e5383ac1"},"vehicle_type_id":"4","last_reported":1685736420,"current_range_meters":4000,"station_id":"ce4bgih2rcd13ifvqba0","pricing_plan_id":"free"},{"bike_id":"a1d588f9-8125-4a8f-9f59-c1cf1bdc5430","system_id":"levelo_inurba_marseille","lat":43.32817,"lon":5.38906,"is_reserved":false,"is_disabled":false,"rental_uris":{"android":"levelo://app?vid=a1d588f9-8125-4a8f-9f59-c1cf1bdc5430","ios":"levelo://app?vid=a1d588f9-8125-4a8f-9f59-c1cf1bdc5430"},"vehicle_type_id":"4","last_reported":1685736420,"current_range_meters":20000,"station_id":"","pricing_plan_id":"free"},{"bike_id":"cfc7460b-b8e2-4fdf-b66b-60b277ba9945","system_id":"levelo_inurba_marseille","lat":43.302008,"lon":5.394694,"is_reserved":false,"is_disabled":false,"rental_uris":{"android":"levelo://app?vid=cfc7460b-b8e2-4fdf-b66b-60b277ba9945","ios":"levelo://app?vid=cfc7460b-b8e2-4fdf-b66b-60b277ba9945"},"vehicle_type_id":"4","last_reported":1685736420,"current_range_meters":15200,"station_id":"ce4bh0p2rcd13ifvqd70","pricing_plan_id":"free"},{"bike_id":"58f60dfb-34b9-43a9-b037-7f7575fddaa8","system_id":"levelo_inurba_marseille","lat":43.30594,"lon":5.39694,"is_reserved":false,"is_disabled":false,"rental_uris":{"android":"levelo://app?vid=58f60dfb-34b9-43a9-b037-7f7575fddaa8","ios":"levelo://app?vid=58f60dfb-34b9-43a9-b037-7f7575fddaa8"},"vehicle_type_id":"4","last_reported":1685736420,"current_range_meters":3200,"station_id":"","pricing_plan_id":"free"},{"bike_id":"e178e4db-6050-43d5-97d6-0557af9cc188","system_id":"levelo_inurba_marseille","lat":43.302008,"lon":5.394694,"is_reserved":false,"is_disabled":false,"rental_uris":{"android":"levelo://app?vid=e178e4db-6050-43d5-97d6-0557af9cc188","ios":"levelo://app?vid=e178e4db-6050-43d5-97d6-0557af9cc188"},"vehicle_type_id":"4","last_reported":1685736420,"current_range_meters":7200,"station_id":"ce4bh0p2rcd13ifvqd70","pricing_plan_id":"free"},{"bike_id":"1da3b259-aac0-4a10-9fec-43a436c78fa0","system_id":"levelo_inurba_marseille","lat":43.294162,"lon":5.386292,"is_reserved":false,"is_disabled":false,"rental_uris":{"android":"levelo://app?vid=1da3b259-aac0-4a10-9fec-43a436c78fa0","ios":"levelo://app?vid=1da3b259-aac0-4a10-9fec-43a436c78fa0"},"vehicle_type_id":"4","last_reported":1685736420,"current_range_meters":1600,"station_id":"ce4bh2h2rcd13ifvqdh0","pricing_plan_id":"free"},{"bike_id":"e8a8b1ea-51b1-462f-b93b-4653034fe1f1","system_id":"levelo_inurba_marseille","lat":43.294162,"lon":5.386292,"is_reserved":false,"is_disabled":false,"rental_uris":{"android":"levelo://app?vid=e8a8b1ea-51b1-462f-b93b-4653034fe1f1","ios":"levelo://app?vid=e8a8b1ea-51b1-462f-b93b-4653034fe1f1"},"vehicle_type_id":"4","last_reported":1685736420,"current_range_meters":1600,"station_id":"ce4bh2h2rcd13ifvqdh0","pricing_plan_id":"free"},{"bike_id":"5b143b78-52ac-4685-956c-f06c0c9b2f4f","system_id":"levelo_inurba_marseille","lat":43.292644,"lon":5.384257,"is_reserved":false,"is_disabled":false,"rental_uris":{"android":"levelo://app?vid=5b143b78-52ac-4685-956c-f06c0c9b2f4f","ios":"levelo://app?vid=5b143b78-52ac-4685-956c-f06c0c9b2f4f"},"vehicle_type_id":"4","last_reported":1685736420,"current_range_meters":0,"station_id":"ce4bh692rcd13ifvqea0","pricing_plan_id":"free"},{"bike_id":"2364282a-cb9d-46e5-8a93-f3855a133753","system_id":"levelo_inurba_marseille","lat":43.330384,"lon":5.389044,"is_reserved":false,"is_disabled":false,"rental_uris":{"android":"levelo://app?vid=2364282a-cb9d-46e5-8a93-f3855a133753","ios":"levelo://app?vid=2364282a-cb9d-46e5-8a93-f3855a133753"},"vehicle_type_id":"4","last_reported":1685736420,"current_range_meters":23200,"station_id":"ce4bhr92rcd13ifvqhrg","pricing_plan_id":"free"},{"bike_id":"a05aa7b2-65ae-4c00-9ac7-36200056da53","system_id":"levelo_inurba_marseille","lat":43.330442,"lon":5.389148,"is_reserved":false,"is_disabled":false,"rental_uris":{"android":"levelo://app?vid=a05aa7b2-65ae-4c00-9ac7-36200056da53","ios":"levelo://app?vid=a05aa7b2-65ae-4c00-9ac7-36200056da53"},"vehicle_type_id":"4","last_reported":1685736420,"current_range_meters":13600,"station_id":"ce4bhr92rcd13ifvqhrg","pricing_plan_id":"free"},{"bike_id":"0133fa60-0dc4-4f39-9401-fc8129e0ae83","system_id":"levelo_inurba_marseille","lat":43.295169,"lon":5.390426,"is_reserved":false,"is_disabled":false,"rental_uris":{"android":"levelo://app?vid=0133fa60-0dc4-4f39-9401-fc8129e0ae83","ios":"levelo://app?vid=0133fa60-0dc4-4f39-9401-fc8129e0ae83"},"vehicle_type_id":"4","last_reported":1685736420,"current_range_meters":1600,"station_id":"ce4bh3p2rcd13ifvqdp0","pricing_plan_id":"free"},{"bike_id":"cf0caa37-cec8-408b-98f7-37211a80813c","system_id":"levelo_inurba_marseille","lat":43.33768,"lon":5.37423,"is_reserved":false,"is_disabled":false,"rental_uris":{"android":"levelo://app?vid=cf0caa37-cec8-408b-98f7-37211a80813c","ios":"levelo://app?vid=cf0caa37-cec8-408b-98f7-37211a80813c"},"vehicle_type_id":"4","last_reported":1685736420,"current_range_meters":26000,"station_id":"","pricing_plan_id":"free"},{"bike_id":"50b1b457-64ff-454b-ba1d-356e92ae89a8","system_id":"levelo_inurba_marseille","lat":43.3377,"lon":5.37442,"is_reserved":false,"is_disabled":false,"rental_uris":{"android":"levelo://app?vid=50b1b457-64ff-454b-ba1d-356e92ae89a8","ios":"levelo://app?vid=50b1b457-64ff-454b-ba1d-356e92ae89a8"},"vehicle_type_id":"4","last_reported":1685736420,"current_range_meters":27600,"station_id":"","pricing_plan_id":"free"},{"bike_id":"e697d05c-c264-48c5-95db-72423da36e91","system_id":"levelo_inurba_marseille","lat":43.301117,"lon":5.398795,"is_reserved":false,"is_disabled":false,"rental_uris":{"android":"levelo://app?vid=e697d05c-c264-48c5-95db-72423da36e91","ios":"levelo://app?vid=e697d05c-c264-48c5-95db-72423da36e91"},"vehicle_type_id":"4","last_reported":1685736420,"current_range_meters":7600,"station_id":"ce4bh0h2rcd13ifvqd40","pricing_plan_id":"free"},{"bike_id":"80ccb694-5f53-4fcc-8925-8c9af7f330e5","system_id":"levelo_inurba_marseille","lat":43.301117,"lon":5.398795,"is_reserved":false,"is_disabled":false,"rental_uris":{"android":"levelo://app?vid=80ccb694-5f53-4fcc-8925-8c9af7f330e5","ios":"levelo://app?vid=80ccb694-5f53-4fcc-8925-8c9af7f330e5"},"vehicle_type_id":"4","last_reported":1685736420,"current_range_meters":9600,"station_id":"ce4bh0h2rcd13ifvqd40","pricing_plan_id":"free"},{"bike_id":"1291281c-7acf-4ec3-84ef-209abb2795a3","system_id":"levelo_inurba_marseille","lat":43.30411,"lon":5.40101,"is_reserved":false,"is_disabled":false,"rental_uris":{"android":"levelo://app?vid=1291281c-7acf-4ec3-84ef-209abb2795a3","ios":"levelo://app?vid=1291281c-7acf-4ec3-84ef-209abb2795a3"},"vehicle_type_id":"4","last_reported":1685736420,"current_range_meters":3600,"station_id":"","pricing_plan_id":"free"},{"bike_id":"789f1bfc-a062-43ff-b409-c09b697a8635","system_id":"levelo_inurba_marseille","lat":43.28698,"lon":5.37394,"is_reserved":false,"is_disabled":false,"rental_uris":{"android":"levelo://app?vid=789f1bfc-a062-43ff-b409-c09b697a8635","ios":"levelo://app?vid=789f1bfc-a062-43ff-b409-c09b697a8635"},"vehicle_type_id":"4","last_reported":1685736420,"current_range_meters":11200,"station_id":"","pricing_plan_id":"free"},{"bike_id":"989bc882-f145-4bad-82be-ef8f0e6e02f0","system_id":"levelo_inurba_marseille","lat":43.295194,"lon":5.39397,"is_reserved":false,"is_disabled":false,"rental_uris":{"android":"levelo://app?vid=989bc882-f145-4bad-82be-ef8f0e6e02f0","ios":"levelo://app?vid=989bc882-f145-4bad-82be-ef8f0e6e02f0"},"vehicle_type_id":"4","last_reported":1685736420,"current_range_meters":0,"station_id":"ce4bh292rcd13ifvqdf0","pricing_plan_id":"free"},{"bike_id":"eb147574-c0e9-4627-86ee-583f7d56740e","system_id":"levelo_inurba_marseille","lat":43.295194,"lon":5.39397,"is_reserved":false,"is_disabled":false,"rental_uris":{"android":"levelo://app?vid=eb147574-c0e9-4627-86ee-583f7d56740e","ios":"levelo://app?vid=eb147574-c0e9-4627-86ee-583f7d56740e"},"vehicle_type_id":"4","last_reported":1685736420,"current_range_meters":0,"station_id":"ce4bh292rcd13ifvqdf0","pricing_plan_id":"free"},{"bike_id":"0ab2bb99-5423-4870-b6db-949f0e3d1789","system_id":"levelo_inurba_marseille","lat":43.28463,"lon":5.35892,"is_reserved":false,"is_disabled":false,"rental_uris":{"android":"levelo://app?vid=0ab2bb99-5423-4870-b6db-949f0e3d1789","ios":"levelo://app?vid=0ab2bb99-5423-4870-b6db-949f0e3d1789"},"vehicle_type_id":"4","last_reported":1685736420,"current_range_meters":0,"station_id":"ce4bhah2rcd13ifvqei0","pricing_plan_id":"free"},{"bike_id":"b205e703-9cc6-479d-b47b-dcec15459f4d","system_id":"levelo_inurba_marseille","lat":43.32664,"lon":5.40387,"is_reserved":false,"is_disabled":false,"rental_uris":{"android":"levelo://app?vid=b205e703-9cc6-479d-b47b-dcec15459f4d","ios":"levelo://app?vid=b205e703-9cc6-479d-b47b-dcec15459f4d"},"vehicle_type_id":"4","last_reported":1685736420,"current_range_meters":20000,"station_id":"","pricing_plan_id":"free"},{"bike_id":"cf55b40d-05c9-4f38-9d13-86ccd2c7a2dd","system_id":"levelo_inurba_marseille","lat":43.288501,"lon":5.393087,"is_reserved":false,"is_disabled":false,"rental_uris":{"android":"levelo://app?vid=cf55b40d-05c9-4f38-9d13-86ccd2c7a2dd","ios":"levelo://app?vid=cf55b40d-05c9-4f38-9d13-86ccd2c7a2dd"},"vehicle_type_id":"4","last_reported":1685736420,"current_range_meters":0,"station_id":"ce4bh2p2rcd13ifvqdi0","pricing_plan_id":"free"},{"bike_id":"2dbc22e7-6d56-4c16-9ca3-ece6e41c4849","system_id":"levelo_inurba_marseille","lat":43.288497,"lon":5.393089,"is_reserved":false,"is_disabled":false,"rental_uris":{"android":"levelo://app?vid=2dbc22e7-6d56-4c16-9ca3-ece6e41c4849","ios":"levelo://app?vid=2dbc22e7-6d56-4c16-9ca3-ece6e41c4849"},"vehicle_type_id":"4","last_reported":1685736420,"current_range_meters":3600,"station_id":"ce4bh2p2rcd13ifvqdi0","pricing_plan_id":"free"},{"bike_id":"9f1f1679-97a1-485b-ab42-581c74bffffe","system_id":"levelo_inurba_marseille","lat":43.283494,"lon":5.380945,"is_reserved":false,"is_disabled":false,"rental_uris":{"android":"levelo://app?vid=9f1f1679-97a1-485b-ab42-581c74bffffe","ios":"levelo://app?vid=9f1f1679-97a1-485b-ab42-581c74bffffe"},"vehicle_type_id":"4","last_reported":1685736420,"current_range_meters":24800,"station_id":"ce4bh412rcd13ifvqdr0","pricing_plan_id":"free"},{"bike_id":"4cb9f7d2-a62b-40c8-b05c-519f5c42f642","system_id":"levelo_inurba_marseille","lat":43.284192,"lon":5.349725,"is_reserved":false,"is_disabled":false,"rental_uris":{"android":"levelo://app?vid=4cb9f7d2-a62b-40c8-b05c-519f5c42f642","ios":"levelo://app?vid=4cb9f7d2-a62b-40c8-b05c-519f5c42f642"},"vehicle_type_id":"4","last_reported":1685736420,"current_range_meters":20000,"station_id":"ce4bhbh2rcd13ifvqepg","pricing_plan_id":"free"},{"bike_id":"a4060b65-8a91-49c9-b277-265bd0c62af7","system_id":"levelo_inurba_marseille","lat":43.289363,"lon":5.396322,"is_reserved":false,"is_disabled":false,"rental_uris":{"android":"levelo://app?vid=a4060b65-8a91-49c9-b277-265bd0c62af7","ios":"levelo://app?vid=a4060b65-8a91-49c9-b277-265bd0c62af7"},"vehicle_type_id":"4","last_reported":1685736420,"current_range_meters":13600,"station_id":"ce4bh3h2rcd13ifvqdn0","pricing_plan_id":"free"},{"bike_id":"b1cead66-de73-4966-abae-34448900e4dc","system_id":"levelo_inurba_marseille","lat":43.292724,"lon":5.401131,"is_reserved":false,"is_disabled":false,"rental_uris":{"android":"levelo://app?vid=b1cead66-de73-4966-abae-34448900e4dc","ios":"levelo://app?vid=b1cead66-de73-4966-abae-34448900e4dc"},"vehicle_type_id":"4","last_reported":1685736420,"current_range_meters":3200,"station_id":"ce4bh312rcd13ifvqdk0","pricing_plan_id":"free"},{"bike_id":"e29c65f6-b807-430a-8555-f985de18daaa","system_id":"levelo_inurba_marseille","lat":43.292724,"lon":5.401131,"is_reserved":false,"is_disabled":false,"rental_uris":{"android":"levelo://app?vid=e29c65f6-b807-430a-8555-f985de18daaa","ios":"levelo://app?vid=e29c65f6-b807-430a-8555-f985de18daaa"},"vehicle_type_id":"4","last_reported":1685736420,"current_range_meters":0,"station_id":"ce4bh312rcd13ifvqdk0","pricing_plan_id":"free"},{"bike_id":"3ff98499-7131-4fce-9e32-3616da92de0c","system_id":"levelo_inurba_marseille","lat":43.280382,"lon":5.369291,"is_reserved":false,"is_disabled":false,"rental_uris":{"android":"levelo://app?vid=3ff98499-7131-4fce-9e32-3616da92de0c","ios":"levelo://app?vid=3ff98499-7131-4fce-9e32-3616da92de0c"},"vehicle_type_id":"4","last_reported":1685736420,"current_range_meters":2400,"station_id":"ce4bha12rcd13ifvqef0","pricing_plan_id":"free"},{"bike_id":"72d05558-4ba1-4e31-96b0-90a07e74741b","system_id":"levelo_inurba_marseille","lat":43.296263,"lon":5.40601,"is_reserved":false,"is_disabled":false,"rental_uris":{"android":"levelo://app?vid=72d05558-4ba1-4e31-96b0-90a07e74741b","ios":"levelo://app?vid=72d05558-4ba1-4e31-96b0-90a07e74741b"},"vehicle_type_id":"4","last_reported":1685736420,"current_range_meters":1200,"station_id":"ce4bh0h2rcd13ifvqd60","pricing_plan_id":"free"},{"bike_id":"38937141-658c-46c5-8d7f-46d86900887d","system_id":"levelo_inurba_marseille","lat":43.28442,"lon":5.39188,"is_reserved":false,"is_disabled":false,"rental_uris":{"android":"levelo://app?vid=38937141-658c-46c5-8d7f-46d86900887d","ios":"levelo://app?vid=38937141-658c-46c5-8d7f-46d86900887d"},"vehicle_type_id":"4","last_reported":1685736420,"current_range_meters":0,"station_id":"ce4bhoh2rcd13ifvqh5g","pricing_plan_id":"free"},{"bike_id":"ee6298e1-e242-46ab-963c-7d46d6d3c1ab","system_id":"levelo_inurba_marseille","lat":43.304188,"lon":5.412904,"is_reserved":false,"is_disabled":false,"rental_uris":{"android":"levelo://app?vid=ee6298e1-e242-46ab-963c-7d46d6d3c1ab","ios":"levelo://app?vid=ee6298e1-e242-46ab-963c-7d46d6d3c1ab"},"vehicle_type_id":"4","last_reported":1685736420,"current_range_meters":1200,"station_id":"ce4bhop2rcd13ifvqh8g","pricing_plan_id":"free"},{"bike_id":"6b1d9324-23ec-412a-a616-e5fdca02deac","system_id":"levelo_inurba_marseille","lat":43.281044,"lon":5.378308,"is_reserved":false,"is_disabled":false,"rental_uris":{"android":"levelo://app?vid=6b1d9324-23ec-412a-a616-e5fdca02deac","ios":"levelo://app?vid=6b1d9324-23ec-412a-a616-e5fdca02deac"},"vehicle_type_id":"4","last_reported":1685736420,"current_range_meters":5200,"station_id":"ce4bha12rcd13ifvqee0","pricing_plan_id":"free"},{"bike_id":"7551c7a6-0207-4eb7-9e25-9cc888743aca","system_id":"levelo_inurba_marseille","lat":43.287154,"lon":5.399979,"is_reserved":false,"is_disabled":false,"rental_uris":{"android":"levelo://app?vid=7551c7a6-0207-4eb7-9e25-9cc888743aca","ios":"levelo://app?vid=7551c7a6-0207-4eb7-9e25-9cc888743aca"},"vehicle_type_id":"4","last_reported":1685736420,"current_range_meters":6800,"station_id":"ce4bho92rcd13ifvqh3g","pricing_plan_id":"free"},{"bike_id":"e99e5485-da43-465c-af53-55317957034a","system_id":"levelo_inurba_marseille","lat":43.287154,"lon":5.399979,"is_reserved":false,"is_disabled":false,"rental_uris":{"android":"levelo://app?vid=e99e5485-da43-465c-af53-55317957034a","ios":"levelo://app?vid=e99e5485-da43-465c-af53-55317957034a"},"vehicle_type_id":"4","last_reported":1685736420,"current_range_meters":20400,"station_id":"ce4bho92rcd13ifvqh3g","pricing_plan_id":"free"},{"bike_id":"68cf256b-8445-4651-86f0-0f2a9fe965ee","system_id":"levelo_inurba_marseille","lat":43.287154,"lon":5.399979,"is_reserved":false,"is_disabled":false,"rental_uris":{"android":"levelo://app?vid=68cf256b-8445-4651-86f0-0f2a9fe965ee","ios":"levelo://app?vid=68cf256b-8445-4651-86f0-0f2a9fe965ee"},"vehicle_type_id":"4","last_reported":1685736420,"current_range_meters":0,"station_id":"ce4bho92rcd13ifvqh3g","pricing_plan_id":"free"},{"bike_id":"6f4f9c03-57f6-45d5-a7d9-abfdf81b7982","system_id":"levelo_inurba_marseille","lat":43.287154,"lon":5.399979,"is_reserved":false,"is_disabled":false,"rental_uris":{"android":"levelo://app?vid=6f4f9c03-57f6-45d5-a7d9-abfdf81b7982","ios":"levelo://app?vid=6f4f9c03-57f6-45d5-a7d9-abfdf81b7982"},"vehicle_type_id":"4","last_reported":1685736420,"current_range_meters":15600,"station_id":"ce4bho92rcd13ifvqh3g","pricing_plan_id":"free"},{"bike_id":"2952dfa4-75a8-43e1-b9a5-c6b40d96ab6e","system_id":"levelo_inurba_marseille","lat":43.320045,"lon":5.415048,"is_reserved":false,"is_disabled":false,"rental_uris":{"android":"levelo://app?vid=2952dfa4-75a8-43e1-b9a5-c6b40d96ab6e","ios":"levelo://app?vid=2952dfa4-75a8-43e1-b9a5-c6b40d96ab6e"},"vehicle_type_id":"4","last_reported":1685736420,"current_range_meters":2400,"station_id":"ce4bhq92rcd13ifvqhkg","pricing_plan_id":"free"},{"bike_id":"81b1ff50-7fef-404d-bac9-8f733511f31e","system_id":"levelo_inurba_marseille","lat":43.325233,"lon":5.414318,"is_reserved":false,"is_disabled":false,"rental_uris":{"android":"levelo://app?vid=81b1ff50-7fef-404d-bac9-8f733511f31e","ios":"levelo://app?vid=81b1ff50-7fef-404d-bac9-8f733511f31e"},"vehicle_type_id":"4","last_reported":1685736420,"current_range_meters":18000,"station_id":"ce4bhq12rcd13ifvqhhg","pricing_plan_id":"free"},{"bike_id":"d9cad4df-24a6-4d57-8f3e-c5ae757185d6","system_id":"levelo_inurba_marseille","lat":43.292571,"lon":5.409107,"is_reserved":false,"is_disabled":false,"rental_uris":{"android":"levelo://app?vid=d9cad4df-24a6-4d57-8f3e-c5ae757185d6","ios":"levelo://app?vid=d9cad4df-24a6-4d57-8f3e-c5ae757185d6"},"vehicle_type_id":"4","last_reported":1685736420,"current_range_meters":23200,"station_id":"ce4bh192rcd13ifvqdc0","pricing_plan_id":"free"},{"bike_id":"0868fe83-cce3-4e6a-b51e-0e0cb2b430dd","system_id":"levelo_inurba_marseille","lat":43.27604,"lon":5.36115,"is_reserved":false,"is_disabled":false,"rental_uris":{"android":"levelo://app?vid=0868fe83-cce3-4e6a-b51e-0e0cb2b430dd","ios":"levelo://app?vid=0868fe83-cce3-4e6a-b51e-0e0cb2b430dd"},"vehicle_type_id":"4","last_reported":1685736420,"current_range_meters":15600,"station_id":"ce4bgj92rcd13ifvqbe0","pricing_plan_id":"free"},{"bike_id":"5642252f-3b0a-4888-9f1a-6acfca07baef","system_id":"levelo_inurba_marseille","lat":43.310785,"lon":5.424305,"is_reserved":false,"is_disabled":false,"rental_uris":{"android":"levelo://app?vid=5642252f-3b0a-4888-9f1a-6acfca07baef","ios":"levelo://app?vid=5642252f-3b0a-4888-9f1a-6acfca07baef"},"vehicle_type_id":"4","last_reported":1685736420,"current_range_meters":12800,"station_id":"ce4bhp92rcd13ifvqhag","pricing_plan_id":"free"},{"bike_id":"4a22e9da-a3cb-4381-a651-abb1de711d58","system_id":"levelo_inurba_marseille","lat":43.27422,"lon":5.39411,"is_reserved":false,"is_disabled":false,"rental_uris":{"android":"levelo://app?vid=4a22e9da-a3cb-4381-a651-abb1de711d58","ios":"levelo://app?vid=4a22e9da-a3cb-4381-a651-abb1de711d58"},"vehicle_type_id":"4","last_reported":1685736420,"current_range_meters":15200,"station_id":"","pricing_plan_id":"free"},{"bike_id":"546f562b-1fb1-4615-9421-5148ace048fb","system_id":"levelo_inurba_marseille","lat":43.304096,"lon":5.425385,"is_reserved":false,"is_disabled":false,"rental_uris":{"android":"levelo://app?vid=546f562b-1fb1-4615-9421-5148ace048fb","ios":"levelo://app?vid=546f562b-1fb1-4615-9421-5148ace048fb"},"vehicle_type_id":"4","last_reported":1685736420,"current_range_meters":7200,"station_id":"ce4bhoh2rcd13ifvqh6g","pricing_plan_id":"free"},{"bike_id":"384c9589-d37e-4896-9bb4-2814b66fc0ac","system_id":"levelo_inurba_marseille","lat":43.278128,"lon":5.407195,"is_reserved":false,"is_disabled":false,"rental_uris":{"android":"levelo://app?vid=384c9589-d37e-4896-9bb4-2814b66fc0ac","ios":"levelo://app?vid=384c9589-d37e-4896-9bb4-2814b66fc0ac"},"vehicle_type_id":"4","last_reported":1685736420,"current_range_meters":4400,"station_id":"ce4bhnh2rcd13ifvqgtg","pricing_plan_id":"free"},{"bike_id":"477c9b24-a1bd-4af2-9e3a-7a10b9af13d1","system_id":"levelo_inurba_marseille","lat":43.31719,"lon":5.43306,"is_reserved":false,"is_disabled":false,"rental_uris":{"android":"levelo://app?vid=477c9b24-a1bd-4af2-9e3a-7a10b9af13d1","ios":"levelo://app?vid=477c9b24-a1bd-4af2-9e3a-7a10b9af13d1"},"vehicle_type_id":"4","last_reported":1685736420,"current_range_meters":0,"station_id":"","pricing_plan_id":"free"},{"bike_id":"c07ea83f-7532-43ef-be11-dacce415b388","system_id":"levelo_inurba_marseille","lat":43.27996,"lon":5.416624,"is_reserved":false,"is_disabled":false,"rental_uris":{"android":"levelo://app?vid=c07ea83f-7532-43ef-be11-dacce415b388","ios":"levelo://app?vid=c07ea83f-7532-43ef-be11-dacce415b388"},"vehicle_type_id":"4","last_reported":1685736420,"current_range_meters":3600,"station_id":"ce4bho12rcd13ifvqh1g","pricing_plan_id":"free"},{"bike_id":"3ce4032e-f2df-49a7-8028-b05f46792b8b","system_id":"levelo_inurba_marseille","lat":43.27996,"lon":5.416624,"is_reserved":false,"is_disabled":false,"rental_uris":{"android":"levelo://app?vid=3ce4032e-f2df-49a7-8028-b05f46792b8b","ios":"levelo://app?vid=3ce4032e-f2df-49a7-8028-b05f46792b8b"},"vehicle_type_id":"4","last_reported":1685736420,"current_range_meters":8400,"station_id":"ce4bho12rcd13ifvqh1g","pricing_plan_id":"free"},{"bike_id":"e5ca0980-0991-4cc2-9aa5-03d655b2a546","system_id":"levelo_inurba_marseille","lat":43.27996,"lon":5.41661,"is_reserved":false,"is_disabled":false,"rental_uris":{"android":"levelo://app?vid=e5ca0980-0991-4cc2-9aa5-03d655b2a546","ios":"levelo://app?vid=e5ca0980-0991-4cc2-9aa5-03d655b2a546"},"vehicle_type_id":"4","last_reported":1685736420,"current_range_meters":0,"station_id":"ce4bho12rcd13ifvqh1g","pricing_plan_id":"free"},{"bike_id":"c9331cbe-677b-465e-8bfc-8d436cd1f947","system_id":"levelo_inurba_marseille","lat":43.261782,"lon":5.374515,"is_reserved":false,"is_disabled":false,"rental_uris":{"android":"levelo://app?vid=c9331cbe-677b-465e-8bfc-8d436cd1f947","ios":"levelo://app?vid=c9331cbe-677b-465e-8bfc-8d436cd1f947"},"vehicle_type_id":"4","last_reported":1685736420,"current_range_meters":10000,"station_id":"ce4bhgp2rcd13ifvqfc0","pricing_plan_id":"free"},{"bike_id":"450651b5-5e98-4a29-acd8-67acccbd55ad","system_id":"levelo_inurba_marseille","lat":43.26202,"lon":5.379299,"is_reserved":false,"is_disabled":false,"rental_uris":{"android":"levelo://app?vid=450651b5-5e98-4a29-acd8-67acccbd55ad","ios":"levelo://app?vid=450651b5-5e98-4a29-acd8-67acccbd55ad"},"vehicle_type_id":"4","last_reported":1685736420,"current_range_meters":0,"station_id":"ce4bhjp2rcd13ifvqg90","pricing_plan_id":"free"},{"bike_id":"90e5336b-ed61-4342-91f1-88dce211301d","system_id":"levelo_inurba_marseille","lat":43.26201,"lon":5.37932,"is_reserved":false,"is_disabled":false,"rental_uris":{"android":"levelo://app?vid=90e5336b-ed61-4342-91f1-88dce211301d","ios":"levelo://app?vid=90e5336b-ed61-4342-91f1-88dce211301d"},"vehicle_type_id":"4","last_reported":1685736420,"current_range_meters":27200,"station_id":"","pricing_plan_id":"free"},{"bike_id":"17c46147-9991-4b94-801e-664a03a22e73","system_id":"levelo_inurba_marseille","lat":43.29891,"lon":5.43667,"is_reserved":false,"is_disabled":false,"rental_uris":{"android":"levelo://app?vid=17c46147-9991-4b94-801e-664a03a22e73","ios":"levelo://app?vid=17c46147-9991-4b94-801e-664a03a22e73"},"vehicle_type_id":"4","last_reported":1685736420,"current_range_meters":6800,"station_id":"ce4bhpp2rcd13ifvqhfg","pricing_plan_id":"free"},{"bike_id":"dae00b83-9c18-4062-87f0-b0f67512bc58","system_id":"levelo_inurba_marseille","lat":43.2607,"lon":5.393983,"is_reserved":false,"is_disabled":false,"rental_uris":{"android":"levelo://app?vid=dae00b83-9c18-4062-87f0-b0f67512bc58","ios":"levelo://app?vid=dae00b83-9c18-4062-87f0-b0f67512bc58"},"vehicle_type_id":"4","last_reported":1685736420,"current_range_meters":2400,"station_id":"ce4bhh92rcd13ifvqfj0","pricing_plan_id":"free"},{"bike_id":"0259072d-f714-421e-bc33-bbbc5904e767","system_id":"levelo_inurba_marseille","lat":43.2607,"lon":5.393983,"is_reserved":false,"is_disabled":false,"rental_uris":{"android":"levelo://app?vid=0259072d-f714-421e-bc33-bbbc5904e767","ios":"levelo://app?vid=0259072d-f714-421e-bc33-bbbc5904e767"},"vehicle_type_id":"4","last_reported":1685736420,"current_range_meters":24800,"station_id":"ce4bhh92rcd13ifvqfj0","pricing_plan_id":"free"},{"bike_id":"95ec8c4a-b372-497c-83b1-4a2df15efb8a","system_id":"levelo_inurba_marseille","lat":43.2607,"lon":5.393983,"is_reserved":false,"is_disabled":false,"rental_uris":{"android":"levelo://app?vid=95ec8c4a-b372-497c-83b1-4a2df15efb8a","ios":"levelo://app?vid=95ec8c4a-b372-497c-83b1-4a2df15efb8a"},"vehicle_type_id":"4","last_reported":1685736420,"current_range_meters":2800,"station_id":"ce4bhh92rcd13ifvqfj0","pricing_plan_id":"free"},{"bike_id":"05110afd-999b-4aef-9723-5937f3565465","system_id":"levelo_inurba_marseille","lat":43.254947,"lon":5.376454,"is_reserved":false,"is_disabled":false,"rental_uris":{"android":"levelo://app?vid=05110afd-999b-4aef-9723-5937f3565465","ios":"levelo://app?vid=05110afd-999b-4aef-9723-5937f3565465"},"vehicle_type_id":"4","last_reported":1685736420,"current_range_meters":29600,"station_id":"ce4bhh12rcd13ifvqff0","pricing_plan_id":"free"},{"bike_id":"85b58ea3-b749-4053-beec-739e1693f509","system_id":"levelo_inurba_marseille","lat":43.25497,"lon":5.37652,"is_reserved":false,"is_disabled":false,"rental_uris":{"android":"levelo://app?vid=85b58ea3-b749-4053-beec-739e1693f509","ios":"levelo://app?vid=85b58ea3-b749-4053-beec-739e1693f509"},"vehicle_type_id":"4","last_reported":1685736420,"current_range_meters":800,"station_id":"ce4bhh12rcd13ifvqff0","pricing_plan_id":"free"},{"bike_id":"b9bc1a83-205e-4783-b09f-ef1d7309664c","system_id":"levelo_inurba_marseille","lat":43.254945,"lon":5.376454,"is_reserved":false,"is_disabled":false,"rental_uris":{"android":"levelo://app?vid=b9bc1a83-205e-4783-b09f-ef1d7309664c","ios":"levelo://app?vid=b9bc1a83-205e-4783-b09f-ef1d7309664c"},"vehicle_type_id":"4","last_reported":1685736420,"current_range_meters":23200,"station_id":"ce4bhh12rcd13ifvqff0","pricing_plan_id":"free"},{"bike_id":"0a3adffc-5c28-4831-9fb5-b37fc9aefbf3","system_id":"levelo_inurba_marseille","lat":43.270721,"lon":5.422764,"is_reserved":false,"is_disabled":false,"rental_uris":{"android":"levelo://app?vid=0a3adffc-5c28-4831-9fb5-b37fc9aefbf3","ios":"levelo://app?vid=0a3adffc-5c28-4831-9fb5-b37fc9aefbf3"},"vehicle_type_id":"4","last_reported":1685736420,"current_range_meters":28800,"station_id":"ce4bhk92rcd13ifvqgb0","pricing_plan_id":"free"},{"bike_id":"7aff89b6-9ec0-4820-8869-4974bc5dfee3","system_id":"levelo_inurba_marseille","lat":43.254945,"lon":5.376454,"is_reserved":false,"is_disabled":false,"rental_uris":{"android":"levelo://app?vid=7aff89b6-9ec0-4820-8869-4974bc5dfee3","ios":"levelo://app?vid=7aff89b6-9ec0-4820-8869-4974bc5dfee3"},"vehicle_type_id":"4","last_reported":1685736420,"current_range_meters":8000,"station_id":"ce4bhh12rcd13ifvqff0","pricing_plan_id":"free"},{"bike_id":"41c2590e-164d-41e9-b96b-588d43dd2f8b","system_id":"levelo_inurba_marseille","lat":43.28588,"lon":5.44154,"is_reserved":false,"is_disabled":false,"rental_uris":{"android":"levelo://app?vid=41c2590e-164d-41e9-b96b-588d43dd2f8b","ios":"levelo://app?vid=41c2590e-164d-41e9-b96b-588d43dd2f8b"},"vehicle_type_id":"4","last_reported":1685736420,"current_range_meters":11200,"station_id":"","pricing_plan_id":"free"},{"bike_id":"d1ee41e5-606e-4a2e-bc77-7ba40ac75fd1","system_id":"levelo_inurba_marseille","lat":43.259013,"lon":5.409301,"is_reserved":false,"is_disabled":false,"rental_uris":{"android":"levelo://app?vid=d1ee41e5-606e-4a2e-bc77-7ba40ac75fd1","ios":"levelo://app?vid=d1ee41e5-606e-4a2e-bc77-7ba40ac75fd1"},"vehicle_type_id":"4","last_reported":1685736420,"current_range_meters":5600,"station_id":"ce4bhm92rcd13ifvqglg","pricing_plan_id":"free"},{"bike_id":"3304eb17-432b-4485-82a0-2a0deee18c9d","system_id":"levelo_inurba_marseille","lat":43.259013,"lon":5.409301,"is_reserved":false,"is_disabled":false,"rental_uris":{"android":"levelo://app?vid=3304eb17-432b-4485-82a0-2a0deee18c9d","ios":"levelo://app?vid=3304eb17-432b-4485-82a0-2a0deee18c9d"},"vehicle_type_id":"4","last_reported":1685736420,"current_range_meters":16400,"station_id":"ce4bhm92rcd13ifvqglg","pricing_plan_id":"free"},{"bike_id":"0c21d008-24f9-4e66-9eb9-8a45cb498efd","system_id":"levelo_inurba_marseille","lat":43.250966,"lon":5.395186,"is_reserved":false,"is_disabled":false,"rental_uris":{"android":"levelo://app?vid=0c21d008-24f9-4e66-9eb9-8a45cb498efd","ios":"levelo://app?vid=0c21d008-24f9-4e66-9eb9-8a45cb498efd"},"vehicle_type_id":"4","last_reported":1685736420,"current_range_meters":11200,"station_id":"ce4bhm12rcd13ifvqgkg","pricing_plan_id":"free"},{"bike_id":"3a727f03-eff6-4aa9-a739-12df74f17b1c","system_id":"levelo_inurba_marseille","lat":43.24693,"lon":5.382096,"is_reserved":false,"is_disabled":false,"rental_uris":{"android":"levelo://app?vid=3a727f03-eff6-4aa9-a739-12df74f17b1c","ios":"levelo://app?vid=3a727f03-eff6-4aa9-a739-12df74f17b1c"},"vehicle_type_id":"4","last_reported":1685736420,"current_range_meters":12800,"station_id":"ce4bhih2rcd13ifvqfr0","pricing_plan_id":"free"},{"bike_id":"f9554e05-40bd-4078-b322-0237fa6671c2","system_id":"levelo_inurba_marseille","lat":43.24693,"lon":5.382096,"is_reserved":false,"is_disabled":false,"rental_uris":{"android":"levelo://app?vid=f9554e05-40bd-4078-b322-0237fa6671c2","ios":"levelo://app?vid=f9554e05-40bd-4078-b322-0237fa6671c2"},"vehicle_type_id":"4","last_reported":1685736420,"current_range_meters":24800,"station_id":"ce4bhih2rcd13ifvqfr0","pricing_plan_id":"free"},{"bike_id":"53702d69-b6d7-4a9e-a7d2-0f9bef37703b","system_id":"levelo_inurba_marseille","lat":43.25102,"lon":5.403214,"is_reserved":false,"is_disabled":false,"rental_uris":{"android":"levelo://app?vid=53702d69-b6d7-4a9e-a7d2-0f9bef37703b","ios":"levelo://app?vid=53702d69-b6d7-4a9e-a7d2-0f9bef37703b"},"vehicle_type_id":"4","last_reported":1685736420,"current_range_meters":400,"station_id":"ce4bhlh2rcd13ifvqgig","pricing_plan_id":"free"},{"bike_id":"90ec6158-08ad-4670-8a96-0a5e300cb0d7","system_id":"levelo_inurba_marseille","lat":43.246467,"lon":5.388984,"is_reserved":false,"is_disabled":false,"rental_uris":{"android":"levelo://app?vid=90ec6158-08ad-4670-8a96-0a5e300cb0d7","ios":"levelo://app?vid=90ec6158-08ad-4670-8a96-0a5e300cb0d7"},"vehicle_type_id":"4","last_reported":1685736420,"current_range_meters":14400,"station_id":"ce4bhg12rcd13ifvqf60","pricing_plan_id":"free"},{"bike_id":"bf443b40-d18b-424a-8fde-3cb92af8115a","system_id":"levelo_inurba_marseille","lat":43.246467,"lon":5.388984,"is_reserved":false,"is_disabled":false,"rental_uris":{"android":"levelo://app?vid=bf443b40-d18b-424a-8fde-3cb92af8115a","ios":"levelo://app?vid=bf443b40-d18b-424a-8fde-3cb92af8115a"},"vehicle_type_id":"4","last_reported":1685736420,"current_range_meters":11600,"station_id":"ce4bhg12rcd13ifvqf60","pricing_plan_id":"free"},{"bike_id":"ac42859d-78a6-42e7-8fc2-69b154946a53","system_id":"levelo_inurba_marseille","lat":43.24693,"lon":5.382096,"is_reserved":false,"is_disabled":false,"rental_uris":{"android":"levelo://app?vid=ac42859d-78a6-42e7-8fc2-69b154946a53","ios":"levelo://app?vid=ac42859d-78a6-42e7-8fc2-69b154946a53"},"vehicle_type_id":"4","last_reported":1685736420,"current_range_meters":16800,"station_id":"ce4bhih2rcd13ifvqfr0","pricing_plan_id":"free"},{"bike_id":"fe99c974-8a59-4185-82e3-fe3937c01989","system_id":"levelo_inurba_marseille","lat":43.24631,"lon":5.39319,"is_reserved":false,"is_disabled":false,"rental_uris":{"android":"levelo://app?vid=fe99c974-8a59-4185-82e3-fe3937c01989","ios":"levelo://app?vid=fe99c974-8a59-4185-82e3-fe3937c01989"},"vehicle_type_id":"4","last_reported":1685736420,"current_range_meters":2800,"station_id":"","pricing_plan_id":"free"},{"bike_id":"2c8cb84b-1112-4638-840b-42a6227cf279","system_id":"levelo_inurba_marseille","lat":43.28915,"lon":5.45714,"is_reserved":false,"is_disabled":false,"rental_uris":{"android":"levelo://app?vid=2c8cb84b-1112-4638-840b-42a6227cf279","ios":"levelo://app?vid=2c8cb84b-1112-4638-840b-42a6227cf279"},"vehicle_type_id":"4","last_reported":1685736420,"current_range_meters":14800,"station_id":"","pricing_plan_id":"free"},{"bike_id":"0626f14e-29cf-4da0-878d-72a6547afbcc","system_id":"levelo_inurba_marseille","lat":43.245581,"lon":5.395069,"is_reserved":false,"is_disabled":false,"rental_uris":{"android":"levelo://app?vid=0626f14e-29cf-4da0-878d-72a6547afbcc","ios":"levelo://app?vid=0626f14e-29cf-4da0-878d-72a6547afbcc"},"vehicle_type_id":"4","last_reported":1685736420,"current_range_meters":0,"station_id":"ce4bhlp2rcd13ifvqgjg","pricing_plan_id":"free"},{"bike_id":"97911575-0740-4ace-9259-7ac6b2b09d9e","system_id":"levelo_inurba_marseille","lat":43.28544,"lon":5.45834,"is_reserved":false,"is_disabled":false,"rental_uris":{"android":"levelo://app?vid=97911575-0740-4ace-9259-7ac6b2b09d9e","ios":"levelo://app?vid=97911575-0740-4ace-9259-7ac6b2b09d9e"},"vehicle_type_id":"4","last_reported":1685736420,"current_range_meters":6000,"station_id":"","pricing_plan_id":"free"},{"bike_id":"8578c116-8b5e-45f6-bb2d-aed645160b90","system_id":"levelo_inurba_marseille","lat":43.23967,"lon":5.36638,"is_reserved":false,"is_disabled":false,"rental_uris":{"android":"levelo://app?vid=8578c116-8b5e-45f6-bb2d-aed645160b90","ios":"levelo://app?vid=8578c116-8b5e-45f6-bb2d-aed645160b90"},"vehicle_type_id":"4","last_reported":1685736420,"current_range_meters":25600,"station_id":"ce4bhi12rcd13ifvqfp0","pricing_plan_id":"free"},{"bike_id":"71205e01-1677-4731-b621-730f3aea689a","system_id":"levelo_inurba_marseille","lat":43.23967,"lon":5.36633,"is_reserved":false,"is_disabled":false,"rental_uris":{"android":"levelo://app?vid=71205e01-1677-4731-b621-730f3aea689a","ios":"levelo://app?vid=71205e01-1677-4731-b621-730f3aea689a"},"vehicle_type_id":"4","last_reported":1685736420,"current_range_meters":19600,"station_id":"ce4bhi12rcd13ifvqfp0","pricing_plan_id":"free"},{"bike_id":"34e808b4-d511-4d39-9e91-b7f8adafcc41","system_id":"levelo_inurba_marseille","lat":43.23966,"lon":5.36638,"is_reserved":false,"is_disabled":false,"rental_uris":{"android":"levelo://app?vid=34e808b4-d511-4d39-9e91-b7f8adafcc41","ios":"levelo://app?vid=34e808b4-d511-4d39-9e91-b7f8adafcc41"},"vehicle_type_id":"4","last_reported":1685736420,"current_range_meters":31200,"station_id":"ce4bhi12rcd13ifvqfp0","pricing_plan_id":"free"},{"bike_id":"3d54e830-364c-4b45-8adb-293a0fe4f129","system_id":"levelo_inurba_marseille","lat":43.239588,"lon":5.366238,"is_reserved":false,"is_disabled":false,"rental_uris":{"android":"levelo://app?vid=3d54e830-364c-4b45-8adb-293a0fe4f129","ios":"levelo://app?vid=3d54e830-364c-4b45-8adb-293a0fe4f129"},"vehicle_type_id":"4","last_reported":1685736420,"current_range_meters":28800,"station_id":"ce4bhi12rcd13ifvqfp0","pricing_plan_id":"free"},{"bike_id":"f3050c6c-b3b7-4cd4-8d5f-2a4e0bed16bd","system_id":"levelo_inurba_marseille","lat":43.23962,"lon":5.36631,"is_reserved":false,"is_disabled":false,"rental_uris":{"android":"levelo://app?vid=f3050c6c-b3b7-4cd4-8d5f-2a4e0bed16bd","ios":"levelo://app?vid=f3050c6c-b3b7-4cd4-8d5f-2a4e0bed16bd"},"vehicle_type_id":"4","last_reported":1685736420,"current_range_meters":16000,"station_id":"ce4bhi12rcd13ifvqfp0","pricing_plan_id":"free"},{"bike_id":"e6da453c-4933-43de-9871-6f873e7471dd","system_id":"levelo_inurba_marseille","lat":43.239588,"lon":5.366238,"is_reserved":false,"is_disabled":false,"rental_uris":{"android":"levelo://app?vid=e6da453c-4933-43de-9871-6f873e7471dd","ios":"levelo://app?vid=e6da453c-4933-43de-9871-6f873e7471dd"},"vehicle_type_id":"4","last_reported":1685736420,"current_range_meters":16000,"station_id":"ce4bhi12rcd13ifvqfp0","pricing_plan_id":"free"},{"bike_id":"53f08f08-69f5-4767-bd69-93f505062dcf","system_id":"levelo_inurba_marseille","lat":43.2396,"lon":5.36634,"is_reserved":false,"is_disabled":false,"rental_uris":{"android":"levelo://app?vid=53f08f08-69f5-4767-bd69-93f505062dcf","ios":"levelo://app?vid=53f08f08-69f5-4767-bd69-93f505062dcf"},"vehicle_type_id":"4","last_reported":1685736420,"current_range_meters":3200,"station_id":"ce4bhi12rcd13ifvqfp0","pricing_plan_id":"free"},{"bike_id":"4f75d099-967d-4701-ac5f-49783fcd6b5f","system_id":"levelo_inurba_marseille","lat":43.239588,"lon":5.366238,"is_reserved":false,"is_disabled":false,"rental_uris":{"android":"levelo://app?vid=4f75d099-967d-4701-ac5f-49783fcd6b5f","ios":"levelo://app?vid=4f75d099-967d-4701-ac5f-49783fcd6b5f"},"vehicle_type_id":"4","last_reported":1685736420,"current_range_meters":28400,"station_id":"ce4bhi12rcd13ifvqfp0","pricing_plan_id":"free"},{"bike_id":"a697fe3e-88b8-4cbf-8fee-b70f20033c13","system_id":"levelo_inurba_marseille","lat":43.23893,"lon":5.38458,"is_reserved":false,"is_disabled":false,"rental_uris":{"android":"levelo://app?vid=a697fe3e-88b8-4cbf-8fee-b70f20033c13","ios":"levelo://app?vid=a697fe3e-88b8-4cbf-8fee-b70f20033c13"},"vehicle_type_id":"4","last_reported":1685736420,"current_range_meters":24800,"station_id":"","pricing_plan_id":"free"},{"bike_id":"36be0654-a594-495b-a31c-6463ea32f1be","system_id":"levelo_inurba_marseille","lat":43.30387,"lon":5.47463,"is_reserved":false,"is_disabled":false,"rental_uris":{"android":"levelo://app?vid=36be0654-a594-495b-a31c-6463ea32f1be","ios":"levelo://app?vid=36be0654-a594-495b-a31c-6463ea32f1be"},"vehicle_type_id":"4","last_reported":1685736420,"current_range_meters":6400,"station_id":"","pricing_plan_id":"free"},{"bike_id":"8a16b42b-59d0-4b4d-bf27-134027b1c282","system_id":"levelo_inurba_marseille","lat":43.23201,"lon":5.35556,"is_reserved":false,"is_disabled":false,"rental_uris":{"android":"levelo://app?vid=8a16b42b-59d0-4b4d-bf27-134027b1c282","ios":"levelo://app?vid=8a16b42b-59d0-4b4d-bf27-134027b1c282"},"vehicle_type_id":"4","last_reported":1685736420,"current_range_meters":13200,"station_id":"ce4bhu92rcd13ifvqi70","pricing_plan_id":"free"},{"bike_id":"fe6b2939-a513-4dd9-b556-3dfc5f2115f2","system_id":"levelo_inurba_marseille","lat":43.232,"lon":5.35549,"is_reserved":false,"is_disabled":false,"rental_uris":{"android":"levelo://app?vid=fe6b2939-a513-4dd9-b556-3dfc5f2115f2","ios":"levelo://app?vid=fe6b2939-a513-4dd9-b556-3dfc5f2115f2"},"vehicle_type_id":"4","last_reported":1685736420,"current_range_meters":23200,"station_id":"ce4bhu92rcd13ifvqi70","pricing_plan_id":"free"},{"bike_id":"632820bc-e4a0-4878-877f-cea161bce7a0","system_id":"levelo_inurba_marseille","lat":43.232,"lon":5.35549,"is_reserved":false,"is_disabled":false,"rental_uris":{"android":"levelo://app?vid=632820bc-e4a0-4878-877f-cea161bce7a0","ios":"levelo://app?vid=632820bc-e4a0-4878-877f-cea161bce7a0"},"vehicle_type_id":"4","last_reported":1685736420,"current_range_meters":10400,"station_id":"ce4bhu92rcd13ifvqi70","pricing_plan_id":"free"},{"bike_id":"d591bc7e-b1c1-41fb-9408-36bb5ec2af01","system_id":"levelo_inurba_marseille","lat":43.23199,"lon":5.3555,"is_reserved":false,"is_disabled":false,"rental_uris":{"android":"levelo://app?vid=d591bc7e-b1c1-41fb-9408-36bb5ec2af01","ios":"levelo://app?vid=d591bc7e-b1c1-41fb-9408-36bb5ec2af01"},"vehicle_type_id":"4","last_reported":1685736420,"current_range_meters":28000,"station_id":"ce4bhu92rcd13ifvqi70","pricing_plan_id":"free"},{"bike_id":"f1bea723-3b9c-4b54-8892-1f065b738df5","system_id":"levelo_inurba_marseille","lat":43.23198,"lon":5.35552,"is_reserved":false,"is_disabled":false,"rental_uris":{"android":"levelo://app?vid=f1bea723-3b9c-4b54-8892-1f065b738df5","ios":"levelo://app?vid=f1bea723-3b9c-4b54-8892-1f065b738df5"},"vehicle_type_id":"4","last_reported":1685736420,"current_range_meters":24800,"station_id":"ce4bhu92rcd13ifvqi70","pricing_plan_id":"free"},{"bike_id":"cbb7bd5f-a90a-4bac-a3db-75103487be10","system_id":"levelo_inurba_marseille","lat":43.231923,"lon":5.355545,"is_reserved":false,"is_disabled":false,"rental_uris":{"android":"levelo://app?vid=cbb7bd5f-a90a-4bac-a3db-75103487be10","ios":"levelo://app?vid=cbb7bd5f-a90a-4bac-a3db-75103487be10"},"vehicle_type_id":"4","last_reported":1685736420,"current_range_meters":25600,"station_id":"ce4bhu92rcd13ifvqi70","pricing_plan_id":"free"},{"bike_id":"2a2e6820-ea61-463e-8945-882c6a5f8bef","system_id":"levelo_inurba_marseille","lat":43.23196,"lon":5.35561,"is_reserved":false,"is_disabled":false,"rental_uris":{"android":"levelo://app?vid=2a2e6820-ea61-463e-8945-882c6a5f8bef","ios":"levelo://app?vid=2a2e6820-ea61-463e-8945-882c6a5f8bef"},"vehicle_type_id":"4","last_reported":1685736420,"current_range_meters":17200,"station_id":"ce4bhu92rcd13ifvqi70","pricing_plan_id":"free"},{"bike_id":"836ef873-5387-4690-8868-8360617ae71f","system_id":"levelo_inurba_marseille","lat":43.23196,"lon":5.3556,"is_reserved":false,"is_disabled":false,"rental_uris":{"android":"levelo://app?vid=836ef873-5387-4690-8868-8360617ae71f","ios":"levelo://app?vid=836ef873-5387-4690-8868-8360617ae71f"},"vehicle_type_id":"4","last_reported":1685736420,"current_range_meters":25200,"station_id":"ce4bhu92rcd13ifvqi70","pricing_plan_id":"free"},{"bike_id":"327922dd-97e5-4dce-a6af-917065566420","system_id":"levelo_inurba_marseille","lat":43.231923,"lon":5.355545,"is_reserved":false,"is_disabled":false,"rental_uris":{"android":"levelo://app?vid=327922dd-97e5-4dce-a6af-917065566420","ios":"levelo://app?vid=327922dd-97e5-4dce-a6af-917065566420"},"vehicle_type_id":"4","last_reported":1685736420,"current_range_meters":8800,"station_id":"ce4bhu92rcd13ifvqi70","pricing_plan_id":"free"},{"bike_id":"1bf4f659-3dfb-4cd9-a96d-61138ce0752b","system_id":"levelo_inurba_marseille","lat":43.231923,"lon":5.355545,"is_reserved":false,"is_disabled":false,"rental_uris":{"android":"levelo://app?vid=1bf4f659-3dfb-4cd9-a96d-61138ce0752b","ios":"levelo://app?vid=1bf4f659-3dfb-4cd9-a96d-61138ce0752b"},"vehicle_type_id":"4","last_reported":1685736420,"current_range_meters":17200,"station_id":"ce4bhu92rcd13ifvqi70","pricing_plan_id":"free"},{"bike_id":"4c97787f-370a-4d14-8cc5-bad3a38574f4","system_id":"levelo_inurba_marseille","lat":43.23194,"lon":5.35554,"is_reserved":false,"is_disabled":false,"rental_uris":{"android":"levelo://app?vid=4c97787f-370a-4d14-8cc5-bad3a38574f4","ios":"levelo://app?vid=4c97787f-370a-4d14-8cc5-bad3a38574f4"},"vehicle_type_id":"4","last_reported":1685736420,"current_range_meters":9600,"station_id":"ce4bhu92rcd13ifvqi70","pricing_plan_id":"free"},{"bike_id":"8e00e7d7-6d57-4467-bd86-2dce8784d558","system_id":"levelo_inurba_marseille","lat":43.231923,"lon":5.355545,"is_reserved":false,"is_disabled":false,"rental_uris":{"android":"levelo://app?vid=8e00e7d7-6d57-4467-bd86-2dce8784d558","ios":"levelo://app?vid=8e00e7d7-6d57-4467-bd86-2dce8784d558"},"vehicle_type_id":"4","last_reported":1685736420,"current_range_meters":31200,"station_id":"ce4bhu92rcd13ifvqi70","pricing_plan_id":"free"},{"bike_id":"a04dc097-9951-4a9d-9c8c-aa30a8e2ff65","system_id":"levelo_inurba_marseille","lat":43.2319,"lon":5.35558,"is_reserved":false,"is_disabled":false,"rental_uris":{"android":"levelo://app?vid=a04dc097-9951-4a9d-9c8c-aa30a8e2ff65","ios":"levelo://app?vid=a04dc097-9951-4a9d-9c8c-aa30a8e2ff65"},"vehicle_type_id":"4","last_reported":1685736420,"current_range_meters":8800,"station_id":"ce4bhu92rcd13ifvqi70","pricing_plan_id":"free"},{"bike_id":"28482e00-7034-4413-b356-d983b48fb55f","system_id":"levelo_inurba_marseille","lat":43.23189,"lon":5.35556,"is_reserved":false,"is_disabled":false,"rental_uris":{"android":"levelo://app?vid=28482e00-7034-4413-b356-d983b48fb55f","ios":"levelo://app?vid=28482e00-7034-4413-b356-d983b48fb55f"},"vehicle_type_id":"4","last_reported":1685736420,"current_range_meters":12800,"station_id":"ce4bhu92rcd13ifvqi70","pricing_plan_id":"free"},{"bike_id":"ccdd659d-d1f3-423b-8596-d04101dbe64d","system_id":"levelo_inurba_marseille","lat":43.231923,"lon":5.355545,"is_reserved":false,"is_disabled":false,"rental_uris":{"android":"levelo://app?vid=ccdd659d-d1f3-423b-8596-d04101dbe64d","ios":"levelo://app?vid=ccdd659d-d1f3-423b-8596-d04101dbe64d"},"vehicle_type_id":"4","last_reported":1685736420,"current_range_meters":31200,"station_id":"ce4bhu92rcd13ifvqi70","pricing_plan_id":"free"},{"bike_id":"517b5adf-f053-423a-bf94-3157b15923dc","system_id":"levelo_inurba_marseille","lat":43.23182,"lon":5.35558,"is_reserved":false,"is_disabled":false,"rental_uris":{"android":"levelo://app?vid=517b5adf-f053-423a-bf94-3157b15923dc","ios":"levelo://app?vid=517b5adf-f053-423a-bf94-3157b15923dc"},"vehicle_type_id":"4","last_reported":1685736420,"current_range_meters":7600,"station_id":"ce4bhu92rcd13ifvqi70","pricing_plan_id":"free"},{"bike_id":"17d4dd21-727a-4cca-a171-6ee88694f458","system_id":"levelo_inurba_marseille","lat":43.231793,"lon":5.400044,"is_reserved":false,"is_disabled":false,"rental_uris":{"android":"levelo://app?vid=17d4dd21-727a-4cca-a171-6ee88694f458","ios":"levelo://app?vid=17d4dd21-727a-4cca-a171-6ee88694f458"},"vehicle_type_id":"4","last_reported":1685736420,"current_range_meters":31200,"station_id":"ce4bhn12rcd13ifvqgqg","pricing_plan_id":"free"},{"bike_id":"1ad3f919-8ac3-47d7-b9ec-69b41ef47389","system_id":"levelo_inurba_marseille","lat":43.231794,"lon":5.400052,"is_reserved":false,"is_disabled":false,"rental_uris":{"android":"levelo://app?vid=1ad3f919-8ac3-47d7-b9ec-69b41ef47389","ios":"levelo://app?vid=1ad3f919-8ac3-47d7-b9ec-69b41ef47389"},"vehicle_type_id":"4","last_reported":1685736420,"current_range_meters":29200,"station_id":"ce4bhn12rcd13ifvqgqg","pricing_plan_id":"free"},{"bike_id":"f2d87a61-c207-4729-aa4c-3a34c4776e59","system_id":"levelo_inurba_marseille","lat":43.231794,"lon":5.400052,"is_reserved":false,"is_disabled":false,"rental_uris":{"android":"levelo://app?vid=f2d87a61-c207-4729-aa4c-3a34c4776e59","ios":"levelo://app?vid=f2d87a61-c207-4729-aa4c-3a34c4776e59"},"vehicle_type_id":"4","last_reported":1685736420,"current_range_meters":23600,"station_id":"ce4bhn12rcd13ifvqgqg","pricing_plan_id":"free"},{"bike_id":"b1fb5ae5-82c0-4c4b-8cdb-25c35b8c07da","system_id":"levelo_inurba_marseille","lat":43.231794,"lon":5.400052,"is_reserved":false,"is_disabled":false,"rental_uris":{"android":"levelo://app?vid=b1fb5ae5-82c0-4c4b-8cdb-25c35b8c07da","ios":"levelo://app?vid=b1fb5ae5-82c0-4c4b-8cdb-25c35b8c07da"},"vehicle_type_id":"4","last_reported":1685736420,"current_range_meters":14000,"station_id":"ce4bhn12rcd13ifvqgqg","pricing_plan_id":"free"},{"bike_id":"0a3ede2b-0f81-4088-9354-f7d9cdad5383","system_id":"levelo_inurba_marseille","lat":43.231794,"lon":5.400052,"is_reserved":false,"is_disabled":false,"rental_uris":{"android":"levelo://app?vid=0a3ede2b-0f81-4088-9354-f7d9cdad5383","ios":"levelo://app?vid=0a3ede2b-0f81-4088-9354-f7d9cdad5383"},"vehicle_type_id":"4","last_reported":1685736420,"current_range_meters":9200,"station_id":"ce4bhn12rcd13ifvqgqg","pricing_plan_id":"free"},{"bike_id":"4c757bea-cafc-44ff-b8a0-4af7d65f6992","system_id":"levelo_inurba_marseille","lat":43.231793,"lon":5.400044,"is_reserved":false,"is_disabled":false,"rental_uris":{"android":"levelo://app?vid=4c757bea-cafc-44ff-b8a0-4af7d65f6992","ios":"levelo://app?vid=4c757bea-cafc-44ff-b8a0-4af7d65f6992"},"vehicle_type_id":"4","last_reported":1685736420,"current_range_meters":24800,"station_id":"ce4bhn12rcd13ifvqgqg","pricing_plan_id":"free"}]}}