{"last_updated":1730427627,"ttl":60,"version":"2.2","data":{"bikes":[{"bike_id":"4619a927-69f6-4e40-aea7-50e83b0fe185","system_id":"levelo_inurba_marseille","lat":43.32488,"lon":5.36564,"is_reserved":false,"is_disabled":false,"rental_uris":{"android":"levelo://app?vid=4619a927-69f6-4e40-aea7-50e83b0fe185","ios":"levelo://app?vid=4619a927-69f6-4e40-aea7-50e83b0fe185"},"vehicle_type_id":"4","last_reported":1730427627,"current_range_meters":11200,"station_id":"ce4bhs12rcd13ifvqhvg","pricing_plan_id":"cebpf4jnsgd1na2vs0mg"},{"bike_id":"d752eb80-2ee6-4b2c-8494-d648b303158c","system_id":"levelo_inurba_marseille","lat":43.24669,"lon":5.38158,"is_reserved":false,"is_disabled":false,"rental_uris":{"android":"levelo://app?vid=d752eb80-2ee6-4b2c-8494-d648b303158c","ios":"levelo://app?vid=d752eb80-2ee6-4b2c-8494-d648b303158c"},"vehicle_type_id":"4","last_reported":1730427627,"current_range_meters":36400,"station_id":"ce4bhih2rcd13ifvqfr0","pricing_plan_id":"cebpf4jnsgd1na2vs0mg"},{"bike_id":"e3924428-a085-40f6-a0c3-a6a5f32fffb8","system_id":"levelo_inurba_marseille","lat":43.28678,"lon":5.39964,"is_reserved":false,"is_disabled":false,"rental_uris":{"android":"levelo://app?vid=e3924428-a085-40f6-a0c3-a6a5f32fffb8","ios":"levelo://app?vid=e3924428-a085-40f6-a0c3-a6a5f32fffb8"},"vehicle_type_id":"4","last_reported":1730427627,"current_range_meters":8800,"station_id":"ce4bho92rcd13ifvqh3g","pricing_plan_id":"cebpf4jnsgd1na2vs0mg"},{"bike_id":"5c908290-3b11-4f6a-9aaa-f0e4672a623e","system_id":"levelo_inurba_marseille","lat":43.29899,"lon":5.39741,"is_reserved":false,"is_disabled":false,"rental_uris":{"android":"levelo://app?vid=5c908290-3b11-4f6a-9aaa-f0e4672a623e","ios":"levelo://app?vid=5c908290-3b11-4f6a-9aaa-f0e4672a623e"},"vehicle_type_id":"4","last_reported":1730427627,"current_range_meters":27200,"station_id":"ce4bh0h2rcd13ifvqd50","pricing_plan_id":"cebpf4jnsgd1na2vs0mg"},{"bike_id":"4063cbdc-707f-49fa-b814-794f65f94376","system_id":"levelo_inurba_marseille","lat":43.26936,"lon":5.40243,"is_reserved":false,"is_disabled":false,"rental_uris":{"android":"levelo://app?vid=4063cbdc-707f-49fa-b814-794f65f94376","ios":"levelo://app?vid=4063cbdc-707f-49fa-b814-794f65f94376"},"vehicle_type_id":"4","last_reported":1730427627,"current_range_meters":36800,"station_id":"cjm6bp8fraef2m0cb0m0","pricing_plan_id":"cebpf4jnsgd1na2vs0mg"},{"bike_id":"afbbd5f3-a0fb-4e0d-8f7a-d7749a18884c","system_id":"levelo_inurba_marseille","lat":43.27829,"lon":5.3919,"is_reserved":false,"is_disabled":false,"rental_uris":{"android":"levelo://app?vid=afbbd5f3-a0fb-4e0d-8f7a-d7749a18884c","ios":"levelo://app?vid=afbbd5f3-a0fb-4e0d-8f7a-d7749a18884c"},"vehicle_type_id":"4","last_reported":1730427627,"current_range_meters":30800,"station_id":"ce4bhjp2rcd13ifvqga0","pricing_plan_id":"cebpf4jnsgd1na2vs0mg"},{"bike_id":"d3f6b13d-06ef-4ca1-a422-11d462dadeb8","system_id":"levelo_inurba_marseille","lat":43.27994,"lon":5.41661,"is_reserved":false,"is_disabled":false,"rental_uris":{"android":"levelo://app?vid=d3f6b13d-06ef-4ca1-a422-11d462dadeb8","ios":"levelo://app?vid=d3f6b13d-06ef-4ca1-a422-11d462dadeb8"},"vehicle_type_id":"4","last_reported":1730427627,"current_range_meters":38000,"station_id":"ce4bho12rcd13ifvqh1g","pricing_plan_id":"cebpf4jnsgd1na2vs0mg"},{"bike_id":"b564d8bc-2b59-43dd-ad25-39bd7cd1e42e","system_id":"levelo_inurba_marseille","lat":43.31674,"lon":5.37772,"is_reserved":false,"is_disabled":false,"rental_uris":{"android":"levelo://app?vid=b564d8bc-2b59-43dd-ad25-39bd7cd1e42e","ios":"levelo://app?vid=b564d8bc-2b59-43dd-ad25-39bd7cd1e42e"},"vehicle_type_id":"4","last_reported":1730427627,"current_range_meters":9600,"station_id":"ce4bgth2rcd13ifvqch0","pricing_plan_id":"cebpf4jnsgd1na2vs0mg"},{"bike_id":"3a3d7e91-ce7d-466c-bbff-cb76635370fe","system_id":"levelo_inurba_marseille","lat":43.29027,"lon":5.38131,"is_reserved":false,"is_disabled":false,"rental_uris":{"android":"levelo://app?vid=3a3d7e91-ce7d-466c-bbff-cb76635370fe","ios":"levelo://app?vid=3a3d7e91-ce7d-466c-bbff-cb76635370fe"},"vehicle_type_id":"4","last_reported":1730427627,"current_range_meters":38800,"station_id":"ce4bh4p2rcd13ifvqe1g","pricing_plan_id":"cebpf4jnsgd1na2vs0mg"},{"bike_id":"c03d7b4c-9aa4-4f04-ab3e-8b1ac302fb3a","system_id":"levelo_inurba_marseille","lat":43.30186,"lon":5.36624,"is_reserved":false,"is_disabled":false,"rental_uris":{"android":"levelo://app?vid=c03d7b4c-9aa4-4f04-ab3e-8b1ac302fb3a","ios":"levelo://app?vid=c03d7b4c-9aa4-4f04-ab3e-8b1ac302fb3a"},"vehicle_type_id":"4","last_reported":1730427627,"current_range_meters":30000,"station_id":"ce4bgrh2rcd13ifvqc8g","pricing_plan_id":"cebpf4jnsgd1na2vs0mg"},{"bike_id":"ccdf8f45-f2e1-46e2-b932-c9192ef53d45","system_id":"levelo_inurba_marseille","lat":43.28441,"lon":5.39188,"is_reserved":false,"is_disabled":false,"rental_uris":{"android":"levelo://app?vid=ccdf8f45-f2e1-46e2-b932-c9192ef53d45","ios":"levelo://app?vid=ccdf8f45-f2e1-46e2-b932-c9192ef53d45"},"vehicle_type_id":"4","last_reported":1730427627,"current_range_meters":39200,"station_id":"ce4bhoh2rcd13ifvqh5g","pricing_plan_id":"cebpf4jnsgd1na2vs0mg"},{"bike_id":"5afa0068-76a2-456a-bbe0-b3dc1b6b60f8","system_id":"levelo_inurba_marseille","lat":43.30938,"lon":5.4013,"is_reserved":false,"is_disabled":false,"rental_uris":{"android":"levelo://app?vid=5afa0068-76a2-456a-bbe0-b3dc1b6b60f8","ios":"levelo://app?vid=5afa0068-76a2-456a-bbe0-b3dc1b6b60f8"},"vehicle_type_id":"4","last_reported":1730427627,"current_range_meters":40000,"station_id":"ce4bgvp2rcd13ifvqct0","pricing_plan_id":"cebpf4jnsgd1na2vs0mg"},{"bike_id":"4424acf5-4fee-49ab-bce1-1a1e11ee7af5","system_id":"levelo_inurba_marseille","lat":43.25115,"lon":5.40325,"is_reserved":false,"is_disabled":false,"rental_uris":{"android":"levelo://app?vid=4424acf5-4fee-49ab-bce1-1a1e11ee7af5","ios":"levelo://app?vid=4424acf5-4fee-49ab-bce1-1a1e11ee7af5"},"vehicle_type_id":"4","last_reported":1730427627,"current_range_meters":17200,"station_id":"ce4bhlh2rcd13ifvqgig","pricing_plan_id":"cebpf4jnsgd1na2vs0mg"},{"bike_id":"a4627486-a087-47d1-bdea-e9476cd49986","system_id":"levelo_inurba_marseille","lat":43.23205,"lon":5.3556,"is_reserved":false,"is_disabled":false,"rental_uris":{"android":"levelo://app?vid=a4627486-a087-47d1-bdea-e9476cd49986","ios":"levelo://app?vid=a4627486-a087-47d1-bdea-e9476cd49986"},"vehicle_type_id":"4","last_reported":1730427627,"current_range_meters":34800,"station_id":"ce4bhu92rcd13ifvqi70","pricing_plan_id":"cebpf4jnsgd1na2vs0mg"},{"bike_id":"55dab1c5-8299-4ba5-b0e5-ab02ab9376bc","system_id":"levelo_inurba_marseille","lat":43.24178,"lon":5.39732,"is_reserved":false,"is_disabled":false,"rental_uris":{"android":"levelo://app?vid=55dab1c5-8299-4ba5-b0e5-ab02ab9376bc","ios":"levelo://app?vid=55dab1c5-8299-4ba5-b0e5-ab02ab9376bc"},"vehicle_type_id":"4","last_reported":1730427627,"current_range_meters":39200,"station_id":"ce4bhn12rcd13ifvqgpg","pricing_plan_id":"cebpf4jnsgd1na2vs0mg"},{"bike_id":"509a9bdc-ca48-4855-8040-748bb9b3087b","system_id":"levelo_inurba_marseille","lat":43.25935,"lon":5.40895,"is_reserved":false,"is_disabled":false,"rental_uris":{"android":"levelo://app?vid=509a9bdc-ca48-4855-8040-748bb9b3087b","ios":"levelo://app?vid=509a9bdc-ca48-4855-8040-748bb9b3087b"},"vehicle_type_id":"4","last_reported":1730427627,"current_range_meters":29600,"station_id":"ce4bhm92rcd13ifvqglg","pricing_plan_id":"cebpf4jnsgd1na2vs0mg"},{"bike_id":"7bb95899-f3bd-4435-b6e9-2db37eca5429","system_id":"levelo_inurba_marseille","lat":43.25107,"lon":5.40315,"is_reserved":false,"is_disabled":false,"rental_uris":{"android":"levelo://app?vid=7bb95899-f3bd-4435-b6e9-2db37eca5429","ios":"levelo://app?vid=7bb95899-f3bd-4435-b6e9-2db37eca5429"},"vehicle_type_id":"4","last_reported":1730427627,"current_range_meters":16400,"station_id":"ce4bhlh2rcd13ifvqgig","pricing_plan_id":"cebpf4jnsgd1na2vs0mg"},{"bike_id":"08135b09-c43b-4c18-ba7b-88e54888ac51","system_id":"levelo_inurba_marseille","lat":43.24067,"lon":5.37747,"is_reserved":false,"is_disabled":false,"rental_uris":{"android":"levelo://app?vid=08135b09-c43b-4c18-ba7b-88e54888ac51","ios":"levelo://app?vid=08135b09-c43b-4c18-ba7b-88e54888ac51"},"vehicle_type_id":"4","last_reported":1730427627,"current_range_meters":6000,"station_id":"ce4bhnp2rcd13ifvqgvg","pricing_plan_id":"cebpf4jnsgd1na2vs0mg"},{"bike_id":"8b582943-1aa4-4eb2-a676-fc10bba85d51","system_id":"levelo_inurba_marseille","lat":43.29439,"lon":5.39753,"is_reserved":false,"is_disabled":false,"rental_uris":{"android":"levelo://app?vid=8b582943-1aa4-4eb2-a676-fc10bba85d51","ios":"levelo://app?vid=8b582943-1aa4-4eb2-a676-fc10bba85d51"},"vehicle_type_id":"4","last_reported":1730427627,"current_range_meters":38800,"station_id":"ce4bh3h2rcd13ifvqdo0","pricing_plan_id":"cebpf4jnsgd1na2vs0mg"},{"bike_id":"a9057597-6b6f-4141-99a4-e986f9303eb5","system_id":"levelo_inurba_marseille","lat":43.24169,"lon":5.39721,"is_reserved":false,"is_disabled":false,"rental_uris":{"android":"levelo://app?vid=a9057597-6b6f-4141-99a4-e986f9303eb5","ios":"levelo://app?vid=a9057597-6b6f-4141-99a4-e986f9303eb5"},"vehicle_type_id":"4","last_reported":1730427627,"current_range_meters":15200,"station_id":"ce4bhn12rcd13ifvqgpg","pricing_plan_id":"cebpf4jnsgd1na2vs0mg"},{"bike_id":"605b658e-4b51-4a13-8430-eba121ea5f89","system_id":"levelo_inurba_marseille","lat":43.29874,"lon":5.39744,"is_reserved":false,"is_disabled":false,"rental_uris":{"android":"levelo://app?vid=605b658e-4b51-4a13-8430-eba121ea5f89","ios":"levelo://app?vid=605b658e-4b51-4a13-8430-eba121ea5f89"},"vehicle_type_id":"4","last_reported":1730427627,"current_range_meters":33600,"station_id":"ce4bh0h2rcd13ifvqd50","pricing_plan_id":"cebpf4jnsgd1na2vs0mg"},{"bike_id":"efbe383f-83c6-4df5-ac1f-ffa8f2e0197b","system_id":"levelo_inurba_marseille","lat":43.31326,"lon":5.39696,"is_reserved":false,"is_disabled":false,"rental_uris":{"android":"levelo://app?vid=efbe383f-83c6-4df5-ac1f-ffa8f2e0197b","ios":"levelo://app?vid=efbe383f-83c6-4df5-ac1f-ffa8f2e0197b"},"vehicle_type_id":"4","last_reported":1730427627,"current_range_meters":12000,"station_id":"ce4bgvp2rcd13ifvqcu0","pricing_plan_id":"cebpf4jnsgd1na2vs0mg"},{"bike_id":"d85899e0-7960-4d22-88e1-92b3c3f646b0","system_id":"levelo_inurba_marseille","lat":43.29793,"lon":5.39352,"is_reserved":false,"is_disabled":false,"rental_uris":{"android":"levelo://app?vid=d85899e0-7960-4d22-88e1-92b3c3f646b0","ios":"levelo://app?vid=d85899e0-7960-4d22-88e1-92b3c3f646b0"},"vehicle_type_id":"4","last_reported":1730427627,"current_range_meters":24000,"station_id":"chh1huq6cuj3fo74tm60","pricing_plan_id":"cebpf4jnsgd1na2vs0mg"},{"bike_id":"8d08700d-ebe7-42f1-bf4b-675012e21591","system_id":"levelo_inurba_marseille","lat":43.30323,"lon":5.40433,"is_reserved":false,"is_disabled":false,"rental_uris":{"android":"levelo://app?vid=8d08700d-ebe7-42f1-bf4b-675012e21591","ios":"levelo://app?vid=8d08700d-ebe7-42f1-bf4b-675012e21591"},"vehicle_type_id":"4","last_reported":1730427627,"current_range_meters":8800,"station_id":"ce4bh012rcd13ifvqd10","pricing_plan_id":"cebpf4jnsgd1na2vs0mg"},{"bike_id":"9f97d214-e97e-4089-9432-ff3b0289936c","system_id":"levelo_inurba_marseille","lat":43.28462,"lon":5.35903,"is_reserved":false,"is_disabled":false,"rental_uris":{"android":"levelo://app?vid=9f97d214-e97e-4089-9432-ff3b0289936c","ios":"levelo://app?vid=9f97d214-e97e-4089-9432-ff3b0289936c"},"vehicle_type_id":"4","last_reported":1730427627,"current_range_meters":36000,"station_id":"ce4bhah2rcd13ifvqei0","pricing_plan_id":"cebpf4jnsgd1na2vs0mg"},{"bike_id":"90ca8d0a-6768-48be-b64d-0ae3dd3c8e17","system_id":"levelo_inurba_marseille","lat":43.30365,"lon":5.41873,"is_reserved":false,"is_disabled":false,"rental_uris":{"android":"levelo://app?vid=90ca8d0a-6768-48be-b64d-0ae3dd3c8e17","ios":"levelo://app?vid=90ca8d0a-6768-48be-b64d-0ae3dd3c8e17"},"vehicle_type_id":"4","last_reported":1730427627,"current_range_meters":25200,"station_id":"ce4bhop2rcd13ifvqh7g","pricing_plan_id":"cebpf4jnsgd1na2vs0mg"},{"bike_id":"cbe4a0a6-ecb2-4885-accd-0ebdc6514d1c","system_id":"levelo_inurba_marseille","lat":43.24185,"lon":5.39736,"is_reserved":false,"is_disabled":false,"rental_uris":{"android":"levelo://app?vid=cbe4a0a6-ecb2-4885-accd-0ebdc6514d1c","ios":"levelo://app?vid=cbe4a0a6-ecb2-4885-accd-0ebdc6514d1c"},"vehicle_type_id":"4","last_reported":1730427627,"current_range_meters":24400,"station_id":"ce4bhn12rcd13ifvqgpg","pricing_plan_id":"cebpf4jnsgd1na2vs0mg"},{"bike_id":"de916830-e4e6-4f2f-b283-a6c557f01939","system_id":"levelo_inurba_marseille","lat":43.29796,"lon":5.39335,"is_reserved":false,"is_disabled":false,"rental_uris":{"android":"levelo://app?vid=de916830-e4e6-4f2f-b283-a6c557f01939","ios":"levelo://app?vid=de916830-e4e6-4f2f-b283-a6c557f01939"},"vehicle_type_id":"4","last_reported":1730427627,"current_range_meters":33200,"station_id":"chh1huq6cuj3fo74tm60","pricing_plan_id":"cebpf4jnsgd1na2vs0mg"},{"bike_id":"7022c03f-786d-431a-ac1b-2e29cbc5d392","system_id":"levelo_inurba_marseille","lat":43.3047,"lon":5.3889,"is_reserved":false,"is_disabled":false,"rental_uris":{"android":"levelo://app?vid=7022c03f-786d-431a-ac1b-2e29cbc5d392","ios":"levelo://app?vid=7022c03f-786d-431a-ac1b-2e29cbc5d392"},"vehicle_type_id":"4","last_reported":1730427627,"current_range_meters":28400,"station_id":"ce4bgk12rcd13ifvqbi0","pricing_plan_id":"cebpf4jnsgd1na2vs0mg"},{"bike_id":"4f4f6a92-50f7-467e-94a5-1a51af6af577","system_id":"levelo_inurba_marseille","lat":43.28936,"lon":5.36392,"is_reserved":false,"is_disabled":false,"rental_uris":{"android":"levelo://app?vid=4f4f6a92-50f7-467e-94a5-1a51af6af577","ios":"levelo://app?vid=4f4f6a92-50f7-467e-94a5-1a51af6af577"},"vehicle_type_id":"4","last_reported":1730427627,"current_range_meters":11200,"station_id":"ce4bhc92rcd13ifvqetg","pricing_plan_id":"cebpf4jnsgd1na2vs0mg"},{"bike_id":"902a84d5-56ca-468a-a9e6-146ab5c6eab3","system_id":"levelo_inurba_marseille","lat":43.2507,"lon":5.39502,"is_reserved":false,"is_disabled":false,"rental_uris":{"android":"levelo://app?vid=902a84d5-56ca-468a-a9e6-146ab5c6eab3","ios":"levelo://app?vid=902a84d5-56ca-468a-a9e6-146ab5c6eab3"},"vehicle_type_id":"4","last_reported":1730427627,"current_range_meters":22400,"station_id":"ce4bhm12rcd13ifvqgkg","pricing_plan_id":"cebpf4jnsgd1na2vs0mg"},{"bike_id":"2de3eacd-18b9-4204-a927-7663a95a363f","system_id":"levelo_inurba_marseille","lat":43.23193,"lon":5.39977,"is_reserved":false,"is_disabled":false,"rental_uris":{"android":"levelo://app?vid=2de3eacd-18b9-4204-a927-7663a95a363f","ios":"levelo://app?vid=2de3eacd-18b9-4204-a927-7663a95a363f"},"vehicle_type_id":"4","last_reported":1730427627,"current_range_meters":17200,"station_id":"ce4bhn12rcd13ifvqgqg","pricing_plan_id":"cebpf4jnsgd1na2vs0mg"},{"bike_id":"98e591af-1b37-4791-81f8-0a1125c50536","system_id":"levelo_inurba_marseille","lat":43.26213,"lon":5.37932,"is_reserved":false,"is_disabled":false,"rental_uris":{"android":"levelo://app?vid=98e591af-1b37-4791-81f8-0a1125c50536","ios":"levelo://app?vid=98e591af-1b37-4791-81f8-0a1125c50536"},"vehicle_type_id":"4","last_reported":1730427627,"current_range_meters":40000,"station_id":"ce4bhjp2rcd13ifvqg90","pricing_plan_id":"cebpf4jnsgd1na2vs0mg"},{"bike_id":"b33fa01c-73bb-449d-ad57-6879516f495e","system_id":"levelo_inurba_marseille","lat":43.303162,"lon":5.368972,"is_reserved":false,"is_disabled":false,"rental_uris":{"android":"levelo://app?vid=b33fa01c-73bb-449d-ad57-6879516f495e","ios":"levelo://app?vid=b33fa01c-73bb-449d-ad57-6879516f495e"},"vehicle_type_id":"4","last_reported":1730427627,"current_range_meters":39200,"station_id":"ce4bgjh2rcd13ifvqbg0","pricing_plan_id":"cebpf4jnsgd1na2vs0mg"},{"bike_id":"3ab642d6-f0e7-4176-9513-7ca2a30a1c90","system_id":"levelo_inurba_marseille","lat":43.33029,"lon":5.39048,"is_reserved":false,"is_disabled":false,"rental_uris":{"android":"levelo://app?vid=3ab642d6-f0e7-4176-9513-7ca2a30a1c90","ios":"levelo://app?vid=3ab642d6-f0e7-4176-9513-7ca2a30a1c90"},"vehicle_type_id":"4","last_reported":1730427627,"current_range_meters":38800,"station_id":"ce4bhr92rcd13ifvqhrg","pricing_plan_id":"cebpf4jnsgd1na2vs0mg"},{"bike_id":"32a91cdb-cfbd-4a52-b7d7-47115fddeaea","system_id":"levelo_inurba_marseille","lat":43.29794,"lon":5.39332,"is_reserved":false,"is_disabled":false,"rental_uris":{"android":"levelo://app?vid=32a91cdb-cfbd-4a52-b7d7-47115fddeaea","ios":"levelo://app?vid=32a91cdb-cfbd-4a52-b7d7-47115fddeaea"},"vehicle_type_id":"4","last_reported":1730427627,"current_range_meters":33600,"station_id":"chh1huq6cuj3fo74tm60","pricing_plan_id":"cebpf4jnsgd1na2vs0mg"},{"bike_id":"1466061d-f699-4017-bc8e-c40666ba05df","system_id":"levelo_inurba_marseille","lat":43.23967,"lon":5.36626,"is_reserved":false,"is_disabled":false,"rental_uris":{"android":"levelo://app?vid=1466061d-f699-4017-bc8e-c40666ba05df","ios":"levelo://app?vid=1466061d-f699-4017-bc8e-c40666ba05df"},"vehicle_type_id":"4","last_reported":1730427627,"current_range_meters":4400,"station_id":"ce4bhi12rcd13ifvqfp0","pricing_plan_id":"cebpf4jnsgd1na2vs0mg"},{"bike_id":"7b305f29-d680-4b81-ab86-c3c2de5fb7e5","system_id":"levelo_inurba_marseille","lat":43.30543,"lon":5.38436,"is_reserved":false,"is_disabled":false,"rental_uris":{"android":"levelo://app?vid=7b305f29-d680-4b81-ab86-c3c2de5fb7e5","ios":"levelo://app?vid=7b305f29-d680-4b81-ab86-c3c2de5fb7e5"},"vehicle_type_id":"4","last_reported":1730427627,"current_range_meters":39200,"station_id":"ce4bgg92rcd13ifvqb30","pricing_plan_id":"cebpf4jnsgd1na2vs0mg"},{"bike_id":"60d9d657-3ec8-40ef-b87b-c6f9930662bd","system_id":"levelo_inurba_marseille","lat":43.31482,"lon":5.37316,"is_reserved":false,"is_disabled":false,"rental_uris":{"android":"levelo://app?vid=60d9d657-3ec8-40ef-b87b-c6f9930662bd","ios":"levelo://app?vid=60d9d657-3ec8-40ef-b87b-c6f9930662bd"},"vehicle_type_id":"4","last_reported":1730427627,"current_range_meters":35600,"station_id":"ce4bgt12rcd13ifvqcd0","pricing_plan_id":"cebpf4jnsgd1na2vs0mg"},{"bike_id":"f8b0c64a-c98d-4010-bbd9-0d1d276b4bd4","system_id":"levelo_inurba_marseille","lat":43.29805,"lon":5.39327,"is_reserved":false,"is_disabled":false,"rental_uris":{"android":"levelo://app?vid=f8b0c64a-c98d-4010-bbd9-0d1d276b4bd4","ios":"levelo://app?vid=f8b0c64a-c98d-4010-bbd9-0d1d276b4bd4"},"vehicle_type_id":"4","last_reported":1730427627,"current_range_meters":38800,"station_id":"chh1huq6cuj3fo74tm60","pricing_plan_id":"cebpf4jnsgd1na2vs0mg"},{"bike_id":"fbd58830-60eb-4716-8ded-0e4783dbbf7e","system_id":"levelo_inurba_marseille","lat":43.24061,"lon":5.37758,"is_reserved":false,"is_disabled":false,"rental_uris":{"android":"levelo://app?vid=fbd58830-60eb-4716-8ded-0e4783dbbf7e","ios":"levelo://app?vid=fbd58830-60eb-4716-8ded-0e4783dbbf7e"},"vehicle_type_id":"4","last_reported":1730427627,"current_range_meters":4000,"station_id":"ce4bhnp2rcd13ifvqgvg","pricing_plan_id":"cebpf4jnsgd1na2vs0mg"},{"bike_id":"4326d167-08ff-4bbe-b22d-8af37149490d","system_id":"levelo_inurba_marseille","lat":43.28105,"lon":5.37849,"is_reserved":false,"is_disabled":false,"rental_uris":{"android":"levelo://app?vid=4326d167-08ff-4bbe-b22d-8af37149490d","ios":"levelo://app?vid=4326d167-08ff-4bbe-b22d-8af37149490d"},"vehicle_type_id":"4","last_reported":1730427627,"current_range_meters":38400,"station_id":"ce4bha12rcd13ifvqee0","pricing_plan_id":"cebpf4jnsgd1na2vs0mg"},{"bike_id":"c24b2c05-36c8-48ae-bd44-bb482149ffec","system_id":"levelo_inurba_marseille","lat":43.32482,"lon":5.36584,"is_reserved":false,"is_disabled":false,"rental_uris":{"android":"levelo://app?vid=c24b2c05-36c8-48ae-bd44-bb482149ffec","ios":"levelo://app?vid=c24b2c05-36c8-48ae-bd44-bb482149ffec"},"vehicle_type_id":"4","last_reported":1730427627,"current_range_meters":26800,"station_id":"ce4bhs12rcd13ifvqhvg","pricing_plan_id":"cebpf4jnsgd1na2vs0mg"},{"bike_id":"ee30699b-cd46-479d-82bf-f7ee7df9a7b1","system_id":"levelo_inurba_marseille","lat":43.28159,"lon":5.42638,"is_reserved":false,"is_disabled":false,"rental_uris":{"android":"levelo://app?vid=ee30699b-cd46-479d-82bf-f7ee7df9a7b1","ios":"levelo://app?vid=ee30699b-cd46-479d-82bf-f7ee7df9a7b1"},"vehicle_type_id":"4","last_reported":1730427627,"current_range_meters":34000,"station_id":"ce4bhnh2rcd13ifvqgug","pricing_plan_id":"cebpf4jnsgd1na2vs0mg"},{"bike_id":"6145c9dc-5b52-4909-8b3e-d43a8dd315dc","system_id":"levelo_inurba_marseille","lat":43.27188,"lon":5.40986,"is_reserved":false,"is_disabled":false,"rental_uris":{"android":"levelo://app?vid=6145c9dc-5b52-4909-8b3e-d43a8dd315dc","ios":"levelo://app?vid=6145c9dc-5b52-4909-8b3e-d43a8dd315dc"},"vehicle_type_id":"4","last_reported":1730427627,"current_range_meters":8000,"station_id":"ce4bhl12rcd13ifvqgf0","pricing_plan_id":"cebpf4jnsgd1na2vs0mg"},{"bike_id":"aeea1237-3887-42d7-be21-0e7463630790","system_id":"levelo_inurba_marseille","lat":43.23727,"lon":5.40187,"is_reserved":false,"is_disabled":false,"rental_uris":{"android":"levelo://app?vid=aeea1237-3887-42d7-be21-0e7463630790","ios":"levelo://app?vid=aeea1237-3887-42d7-be21-0e7463630790"},"vehicle_type_id":"4","last_reported":1730427627,"current_range_meters":16400,"station_id":"","pricing_plan_id":"cebpf4jnsgd1na2vs0mg"},{"bike_id":"66b5e339-d925-491c-ba42-89ebe2b6d2eb","system_id":"levelo_inurba_marseille","lat":43.31767,"lon":5.3901,"is_reserved":false,"is_disabled":false,"rental_uris":{"android":"levelo://app?vid=66b5e339-d925-491c-ba42-89ebe2b6d2eb","ios":"levelo://app?vid=66b5e339-d925-491c-ba42-89ebe2b6d2eb"},"vehicle_type_id":"4","last_reported":1730427627,"current_range_meters":39200,"station_id":"ce4bhqp2rcd13ifvqhng","pricing_plan_id":"cebpf4jnsgd1na2vs0mg"},{"bike_id":"a97bcfdc-e0fa-460b-9e3b-a0201fd8a134","system_id":"levelo_inurba_marseille","lat":43.27992,"lon":5.38782,"is_reserved":false,"is_disabled":false,"rental_uris":{"android":"levelo://app?vid=a97bcfdc-e0fa-460b-9e3b-a0201fd8a134","ios":"levelo://app?vid=a97bcfdc-e0fa-460b-9e3b-a0201fd8a134"},"vehicle_type_id":"4","last_reported":1730427627,"current_range_meters":19600,"station_id":"ce4bhg12rcd13ifvqf80","pricing_plan_id":"cebpf4jnsgd1na2vs0mg"},{"bike_id":"15279d15-7fec-4497-99b5-ea531da5ea5a","system_id":"levelo_inurba_marseille","lat":43.2926,"lon":5.40905,"is_reserved":false,"is_disabled":false,"rental_uris":{"android":"levelo://app?vid=15279d15-7fec-4497-99b5-ea531da5ea5a","ios":"levelo://app?vid=15279d15-7fec-4497-99b5-ea531da5ea5a"},"vehicle_type_id":"4","last_reported":1730427627,"current_range_meters":39200,"station_id":"ce4bh192rcd13ifvqdc0","pricing_plan_id":"cebpf4jnsgd1na2vs0mg"},{"bike_id":"44e27d21-4c64-416a-95eb-3e3c655974f1","system_id":"levelo_inurba_marseille","lat":43.31172,"lon":5.38712,"is_reserved":false,"is_disabled":false,"rental_uris":{"android":"levelo://app?vid=44e27d21-4c64-416a-95eb-3e3c655974f1","ios":"levelo://app?vid=44e27d21-4c64-416a-95eb-3e3c655974f1"},"vehicle_type_id":"4","last_reported":1730427627,"current_range_meters":39200,"station_id":"ce4bgv12rcd13ifvqcp0","pricing_plan_id":"cebpf4jnsgd1na2vs0mg"},{"bike_id":"458ea252-557b-4a8e-a07e-5ee5dcbac059","system_id":"levelo_inurba_marseille","lat":43.29059,"lon":5.35905,"is_reserved":false,"is_disabled":false,"rental_uris":{"android":"levelo://app?vid=458ea252-557b-4a8e-a07e-5ee5dcbac059","ios":"levelo://app?vid=458ea252-557b-4a8e-a07e-5ee5dcbac059"},"vehicle_type_id":"4","last_reported":1730427627,"current_range_meters":40000,"station_id":"ce4bha92rcd13ifvqeg0","pricing_plan_id":"cebpf4jnsgd1na2vs0mg"},{"bike_id":"6a76874c-c55f-4beb-9f66-f8dd5f3b8f79","system_id":"levelo_inurba_marseille","lat":43.24669,"lon":5.38161,"is_reserved":false,"is_disabled":false,"rental_uris":{"android":"levelo://app?vid=6a76874c-c55f-4beb-9f66-f8dd5f3b8f79","ios":"levelo://app?vid=6a76874c-c55f-4beb-9f66-f8dd5f3b8f79"},"vehicle_type_id":"4","last_reported":1730427627,"current_range_meters":19600,"station_id":"ce4bhih2rcd13ifvqfr0","pricing_plan_id":"cebpf4jnsgd1na2vs0mg"},{"bike_id":"b0377714-7a30-49ee-b6c1-7ca6811d5925","system_id":"levelo_inurba_marseille","lat":43.32483,"lon":5.36576,"is_reserved":false,"is_disabled":false,"rental_uris":{"android":"levelo://app?vid=b0377714-7a30-49ee-b6c1-7ca6811d5925","ios":"levelo://app?vid=b0377714-7a30-49ee-b6c1-7ca6811d5925"},"vehicle_type_id":"4","last_reported":1730427627,"current_range_meters":30400,"station_id":"ce4bhs12rcd13ifvqhvg","pricing_plan_id":"cebpf4jnsgd1na2vs0mg"},{"bike_id":"85c50df7-8369-479c-ae3b-0f785f5c3640","system_id":"levelo_inurba_marseille","lat":43.29032,"lon":5.35934,"is_reserved":false,"is_disabled":false,"rental_uris":{"android":"levelo://app?vid=85c50df7-8369-479c-ae3b-0f785f5c3640","ios":"levelo://app?vid=85c50df7-8369-479c-ae3b-0f785f5c3640"},"vehicle_type_id":"4","last_reported":1730427627,"current_range_meters":36000,"station_id":"ce4bha92rcd13ifvqeg0","pricing_plan_id":"cebpf4jnsgd1na2vs0mg"},{"bike_id":"69355a51-41a5-4455-b14c-61dd7df03e2c","system_id":"levelo_inurba_marseille","lat":43.3377,"lon":5.39195,"is_reserved":false,"is_disabled":false,"rental_uris":{"android":"levelo://app?vid=69355a51-41a5-4455-b14c-61dd7df03e2c","ios":"levelo://app?vid=69355a51-41a5-4455-b14c-61dd7df03e2c"},"vehicle_type_id":"4","last_reported":1730427627,"current_range_meters":40000,"station_id":"ce4bhr92rcd13ifvqhsg","pricing_plan_id":"cebpf4jnsgd1na2vs0mg"},{"bike_id":"b8812829-13c4-4cd9-8648-e8f45673a8cb","system_id":"levelo_inurba_marseille","lat":43.3041,"lon":5.41281,"is_reserved":false,"is_disabled":false,"rental_uris":{"android":"levelo://app?vid=b8812829-13c4-4cd9-8648-e8f45673a8cb","ios":"levelo://app?vid=b8812829-13c4-4cd9-8648-e8f45673a8cb"},"vehicle_type_id":"4","last_reported":1730427627,"current_range_meters":8000,"station_id":"ce4bhop2rcd13ifvqh8g","pricing_plan_id":"cebpf4jnsgd1na2vs0mg"},{"bike_id":"5940a52e-340c-4ac5-bfa3-4f03ece7e337","system_id":"levelo_inurba_marseille","lat":43.31184,"lon":5.38711,"is_reserved":false,"is_disabled":false,"rental_uris":{"android":"levelo://app?vid=5940a52e-340c-4ac5-bfa3-4f03ece7e337","ios":"levelo://app?vid=5940a52e-340c-4ac5-bfa3-4f03ece7e337"},"vehicle_type_id":"4","last_reported":1730427627,"current_range_meters":27600,"station_id":"ce4bgv12rcd13ifvqcp0","pricing_plan_id":"cebpf4jnsgd1na2vs0mg"},{"bike_id":"4c21efbf-d433-43db-8285-51d3e794632a","system_id":"levelo_inurba_marseille","lat":43.25105,"lon":5.40312,"is_reserved":false,"is_disabled":false,"rental_uris":{"android":"levelo://app?vid=4c21efbf-d433-43db-8285-51d3e794632a","ios":"levelo://app?vid=4c21efbf-d433-43db-8285-51d3e794632a"},"vehicle_type_id":"4","last_reported":1730427627,"current_range_meters":3600,"station_id":"ce4bhlh2rcd13ifvqgig","pricing_plan_id":"cebpf4jnsgd1na2vs0mg"},{"bike_id":"1587f7a6-248e-4644-9b6a-c6b778675df6","system_id":"levelo_inurba_marseille","lat":43.28452,"lon":5.35876,"is_reserved":false,"is_disabled":false,"rental_uris":{"android":"levelo://app?vid=1587f7a6-248e-4644-9b6a-c6b778675df6","ios":"levelo://app?vid=1587f7a6-248e-4644-9b6a-c6b778675df6"},"vehicle_type_id":"4","last_reported":1730427627,"current_range_meters":38400,"station_id":"ce4bhah2rcd13ifvqei0","pricing_plan_id":"cebpf4jnsgd1na2vs0mg"},{"bike_id":"55a77051-fc1a-41d2-a655-7bb9401c585a","system_id":"levelo_inurba_marseille","lat":43.2844,"lon":5.39169,"is_reserved":false,"is_disabled":false,"rental_uris":{"android":"levelo://app?vid=55a77051-fc1a-41d2-a655-7bb9401c585a","ios":"levelo://app?vid=55a77051-fc1a-41d2-a655-7bb9401c585a"},"vehicle_type_id":"4","last_reported":1730427627,"current_range_meters":16400,"station_id":"ce4bhoh2rcd13ifvqh5g","pricing_plan_id":"cebpf4jnsgd1na2vs0mg"},{"bike_id":"a3532ce9-83c4-4e4f-80b1-34680b043682","system_id":"levelo_inurba_marseille","lat":43.31296,"lon":5.40161,"is_reserved":false,"is_disabled":false,"rental_uris":{"android":"levelo://app?vid=a3532ce9-83c4-4e4f-80b1-34680b043682","ios":"levelo://app?vid=a3532ce9-83c4-4e4f-80b1-34680b043682"},"vehicle_type_id":"4","last_reported":1730427627,"current_range_meters":38400,"station_id":"ce4bh092rcd13ifvqd30","pricing_plan_id":"cebpf4jnsgd1na2vs0mg"},{"bike_id":"7dd7942c-1544-4f31-a983-9b5654e0cbc6","system_id":"levelo_inurba_marseille","lat":43.25721,"lon":5.4111,"is_reserved":false,"is_disabled":false,"rental_uris":{"android":"levelo://app?vid=7dd7942c-1544-4f31-a983-9b5654e0cbc6","ios":"levelo://app?vid=7dd7942c-1544-4f31-a983-9b5654e0cbc6"},"vehicle_type_id":"4","last_reported":1730427627,"current_range_meters":18000,"station_id":"ce4bhkp2rcd13ifvqgd0","pricing_plan_id":"cebpf4jnsgd1na2vs0mg"},{"bike_id":"b8296e76-0447-46c0-be06-c578170cf1bc","system_id":"levelo_inurba_marseille","lat":43.31372,"lon":5.38499,"is_reserved":false,"is_disabled":false,"rental_uris":{"android":"levelo://app?vid=b8296e76-0447-46c0-be06-c578170cf1bc","ios":"levelo://app?vid=b8296e76-0447-46c0-be06-c578170cf1bc"},"vehicle_type_id":"4","last_reported":1730427627,"current_range_meters":36800,"station_id":"ce4bgt92rcd13ifvqcf0","pricing_plan_id":"cebpf4jnsgd1na2vs0mg"},{"bike_id":"89ecfe10-093a-4a31-b0b6-28942a35bc5e","system_id":"levelo_inurba_marseille","lat":43.29583,"lon":5.36737,"is_reserved":false,"is_disabled":false,"rental_uris":{"android":"levelo://app?vid=89ecfe10-093a-4a31-b0b6-28942a35bc5e","ios":"levelo://app?vid=89ecfe10-093a-4a31-b0b6-28942a35bc5e"},"vehicle_type_id":"4","last_reported":1730427627,"current_range_meters":35200,"station_id":"","pricing_plan_id":"cebpf4jnsgd1na2vs0mg"},{"bike_id":"5c8a5bb5-a198-4a3b-92e7-8543db03156f","system_id":"levelo_inurba_marseille","lat":43.3171,"lon":5.37736,"is_reserved":false,"is_disabled":false,"rental_uris":{"android":"levelo://app?vid=5c8a5bb5-a198-4a3b-92e7-8543db03156f","ios":"levelo://app?vid=5c8a5bb5-a198-4a3b-92e7-8543db03156f"},"vehicle_type_id":"4","last_reported":1730427627,"current_range_meters":40000,"station_id":"ce4bgth2rcd13ifvqch0","pricing_plan_id":"cebpf4jnsgd1na2vs0mg"},{"bike_id":"a916599f-804e-4508-947b-869589ac73c6","system_id":"levelo_inurba_marseille","lat":43.29048,"lon":5.3591,"is_reserved":false,"is_disabled":false,"rental_uris":{"android":"levelo://app?vid=a916599f-804e-4508-947b-869589ac73c6","ios":"levelo://app?vid=a916599f-804e-4508-947b-869589ac73c6"},"vehicle_type_id":"4","last_reported":1730427627,"current_range_meters":33200,"station_id":"ce4bha92rcd13ifvqeg0","pricing_plan_id":"cebpf4jnsgd1na2vs0mg"},{"bike_id":"67d1c938-b706-4528-b0f6-c407a9169a29","system_id":"levelo_inurba_marseille","lat":43.29787,"lon":5.39347,"is_reserved":false,"is_disabled":false,"rental_uris":{"android":"levelo://app?vid=67d1c938-b706-4528-b0f6-c407a9169a29","ios":"levelo://app?vid=67d1c938-b706-4528-b0f6-c407a9169a29"},"vehicle_type_id":"4","last_reported":1730427627,"current_range_meters":37600,"station_id":"chh1huq6cuj3fo74tm60","pricing_plan_id":"cebpf4jnsgd1na2vs0mg"},{"bike_id":"05b66808-27ba-48de-8c25-fa6353c85930","system_id":"levelo_inurba_marseille","lat":43.27109,"lon":5.40412,"is_reserved":false,"is_disabled":false,"rental_uris":{"android":"levelo://app?vid=05b66808-27ba-48de-8c25-fa6353c85930","ios":"levelo://app?vid=05b66808-27ba-48de-8c25-fa6353c85930"},"vehicle_type_id":"4","last_reported":1730427627,"current_range_meters":13600,"station_id":"ce4bhjp2rcd13ifvqga0","pricing_plan_id":"cebpf4jnsgd1na2vs0mg"},{"bike_id":"9daca46e-b450-4f6e-8fa7-dc74aa35a5dd","system_id":"levelo_inurba_marseille","lat":43.23103,"lon":5.40065,"is_reserved":false,"is_disabled":false,"rental_uris":{"android":"levelo://app?vid=9daca46e-b450-4f6e-8fa7-dc74aa35a5dd","ios":"levelo://app?vid=9daca46e-b450-4f6e-8fa7-dc74aa35a5dd"},"vehicle_type_id":"4","last_reported":1730427627,"current_range_meters":22800,"station_id":"ce4bhn12rcd13ifvqgqg","pricing_plan_id":"cebpf4jnsgd1na2vs0mg"},{"bike_id":"c0e18836-85b5-48ed-8053-a8afbd5fc2c3","system_id":"levelo_inurba_marseille","lat":43.309,"lon":5.37181,"is_reserved":false,"is_disabled":false,"rental_uris":{"android":"levelo://app?vid=c0e18836-85b5-48ed-8053-a8afbd5fc2c3","ios":"levelo://app?vid=c0e18836-85b5-48ed-8053-a8afbd5fc2c3"},"vehicle_type_id":"4","last_reported":1730427627,"current_range_meters":33600,"station_id":"ce4bguh2rcd13ifvqckg","pricing_plan_id":"cebpf4jnsgd1na2vs0mg"},{"bike_id":"ed9aa993-8003-4cbf-9aaf-8a3f2e010645","system_id":"levelo_inurba_marseille","lat":43.24172,"lon":5.36399,"is_reserved":false,"is_disabled":false,"rental_uris":{"android":"levelo://app?vid=ed9aa993-8003-4cbf-9aaf-8a3f2e010645","ios":"levelo://app?vid=ed9aa993-8003-4cbf-9aaf-8a3f2e010645"},"vehicle_type_id":"4","last_reported":1730427627,"current_range_meters":7200,"station_id":"cpo36qri1sfpv3e86is0","pricing_plan_id":"cebpf4jnsgd1na2vs0mg"},{"bike_id":"33a098b5-2f3f-4957-af96-675614306bdc","system_id":"levelo_inurba_marseille","lat":43.28295,"lon":5.3901,"is_reserved":false,"is_disabled":false,"rental_uris":{"android":"levelo://app?vid=33a098b5-2f3f-4957-af96-675614306bdc","ios":"levelo://app?vid=33a098b5-2f3f-4957-af96-675614306bdc"},"vehicle_type_id":"4","last_reported":1730427627,"current_range_meters":17600,"station_id":"","pricing_plan_id":"cebpf4jnsgd1na2vs0mg"},{"bike_id":"1dbe4eeb-ba44-496f-b143-5ace694d82ca","system_id":"levelo_inurba_marseille","lat":43.32344,"lon":5.40612,"is_reserved":false,"is_disabled":false,"rental_uris":{"android":"levelo://app?vid=1dbe4eeb-ba44-496f-b143-5ace694d82ca","ios":"levelo://app?vid=1dbe4eeb-ba44-496f-b143-5ace694d82ca"},"vehicle_type_id":"4","last_reported":1730427627,"current_range_meters":6800,"station_id":"ce4bhq92rcd13ifvqhjg","pricing_plan_id":"cebpf4jnsgd1na2vs0mg"},{"bike_id":"a8594471-923b-4371-82a5-d750e1a3d991","system_id":"levelo_inurba_marseille","lat":43.31537,"lon":5.38032,"is_reserved":false,"is_disabled":false,"rental_uris":{"android":"levelo://app?vid=a8594471-923b-4371-82a5-d750e1a3d991","ios":"levelo://app?vid=a8594471-923b-4371-82a5-d750e1a3d991"},"vehicle_type_id":"4","last_reported":1730427627,"current_range_meters":11200,"station_id":"ce4bhsp2rcd13ifvqi50","pricing_plan_id":"cebpf4jnsgd1na2vs0mg"},{"bike_id":"18523ad7-955d-42dc-abaf-2865bf277e38","system_id":"levelo_inurba_marseille","lat":43.30559,"lon":5.38434,"is_reserved":false,"is_disabled":false,"rental_uris":{"android":"levelo://app?vid=18523ad7-955d-42dc-abaf-2865bf277e38","ios":"levelo://app?vid=18523ad7-955d-42dc-abaf-2865bf277e38"},"vehicle_type_id":"4","last_reported":1730427627,"current_range_meters":39200,"station_id":"ce4bgg92rcd13ifvqb30","pricing_plan_id":"cebpf4jnsgd1na2vs0mg"},{"bike_id":"413fd6fa-c9ee-4c88-b239-56ebf5d8bd5f","system_id":"levelo_inurba_marseille","lat":43.32665,"lon":5.40981,"is_reserved":false,"is_disabled":false,"rental_uris":{"android":"levelo://app?vid=413fd6fa-c9ee-4c88-b239-56ebf5d8bd5f","ios":"levelo://app?vid=413fd6fa-c9ee-4c88-b239-56ebf5d8bd5f"},"vehicle_type_id":"4","last_reported":1730427627,"current_range_meters":39200,"station_id":"ce4bhpp2rcd13ifvqhgg","pricing_plan_id":"cebpf4jnsgd1na2vs0mg"},{"bike_id":"a0e3f3da-7c15-4cc6-b660-e90d2af5bffc","system_id":"levelo_inurba_marseille","lat":43.30428,"lon":5.39754,"is_reserved":false,"is_disabled":false,"rental_uris":{"android":"levelo://app?vid=a0e3f3da-7c15-4cc6-b660-e90d2af5bffc","ios":"levelo://app?vid=a0e3f3da-7c15-4cc6-b660-e90d2af5bffc"},"vehicle_type_id":"4","last_reported":1730427627,"current_range_meters":39200,"station_id":"ce4bh092rcd13ifvqd20","pricing_plan_id":"cebpf4jnsgd1na2vs0mg"},{"bike_id":"4ef0c546-de38-4474-a19c-2be9568ff1b0","system_id":"levelo_inurba_marseille","lat":43.30166,"lon":5.38075,"is_reserved":false,"is_disabled":false,"rental_uris":{"android":"levelo://app?vid=4ef0c546-de38-4474-a19c-2be9568ff1b0","ios":"levelo://app?vid=4ef0c546-de38-4474-a19c-2be9568ff1b0"},"vehicle_type_id":"4","last_reported":1730427627,"current_range_meters":15200,"station_id":"ce4bgjp2rcd13ifvqbh0","pricing_plan_id":"cebpf4jnsgd1na2vs0mg"},{"bike_id":"ed24b092-1aee-46ef-9a05-6f2fb390575a","system_id":"levelo_inurba_marseille","lat":43.28081,"lon":5.39641,"is_reserved":false,"is_disabled":false,"rental_uris":{"android":"levelo://app?vid=ed24b092-1aee-46ef-9a05-6f2fb390575a","ios":"levelo://app?vid=ed24b092-1aee-46ef-9a05-6f2fb390575a"},"vehicle_type_id":"4","last_reported":1730427627,"current_range_meters":39200,"station_id":"ce4bho12rcd13ifvqh2g","pricing_plan_id":"cebpf4jnsgd1na2vs0mg"},{"bike_id":"740fc89b-8aeb-4711-8e98-c31ebac4a78e","system_id":"levelo_inurba_marseille","lat":43.30928,"lon":5.40137,"is_reserved":false,"is_disabled":false,"rental_uris":{"android":"levelo://app?vid=740fc89b-8aeb-4711-8e98-c31ebac4a78e","ios":"levelo://app?vid=740fc89b-8aeb-4711-8e98-c31ebac4a78e"},"vehicle_type_id":"4","last_reported":1730427627,"current_range_meters":24800,"station_id":"ce4bgvp2rcd13ifvqct0","pricing_plan_id":"cebpf4jnsgd1na2vs0mg"},{"bike_id":"aaa5eb14-b14e-4964-b705-8d97d2152722","system_id":"levelo_inurba_marseille","lat":43.23151,"lon":5.43717,"is_reserved":false,"is_disabled":false,"rental_uris":{"android":"levelo://app?vid=aaa5eb14-b14e-4964-b705-8d97d2152722","ios":"levelo://app?vid=aaa5eb14-b14e-4964-b705-8d97d2152722"},"vehicle_type_id":"4","last_reported":1730427627,"current_range_meters":4800,"station_id":"ce4bhmp2rcd13ifvqgog","pricing_plan_id":"cebpf4jnsgd1na2vs0mg"},{"bike_id":"fb72fea9-33ec-4f4a-ae3a-56041a292f4a","system_id":"levelo_inurba_marseille","lat":43.29899,"lon":5.37449,"is_reserved":false,"is_disabled":false,"rental_uris":{"android":"levelo://app?vid=fb72fea9-33ec-4f4a-ae3a-56041a292f4a","ios":"levelo://app?vid=fb72fea9-33ec-4f4a-ae3a-56041a292f4a"},"vehicle_type_id":"4","last_reported":1730427627,"current_range_meters":38800,"station_id":"ce4bgjh2rcd13ifvqbg0","pricing_plan_id":"cebpf4jnsgd1na2vs0mg"},{"bike_id":"be209aa2-1550-4a40-811c-16dcfd6f7543","system_id":"levelo_inurba_marseille","lat":43.32014,"lon":5.38169,"is_reserved":false,"is_disabled":false,"rental_uris":{"android":"levelo://app?vid=be209aa2-1550-4a40-811c-16dcfd6f7543","ios":"levelo://app?vid=be209aa2-1550-4a40-811c-16dcfd6f7543"},"vehicle_type_id":"4","last_reported":1730427627,"current_range_meters":29600,"station_id":"ce4bhr12rcd13ifvqhpg","pricing_plan_id":"cebpf4jnsgd1na2vs0mg"},{"bike_id":"11843ce0-10c1-4acf-a007-951430489c52","system_id":"levelo_inurba_marseille","lat":43.30148,"lon":5.38782,"is_reserved":false,"is_disabled":false,"rental_uris":{"android":"levelo://app?vid=11843ce0-10c1-4acf-a007-951430489c52","ios":"levelo://app?vid=11843ce0-10c1-4acf-a007-951430489c52"},"vehicle_type_id":"4","last_reported":1730427627,"current_range_meters":34800,"station_id":"ce4bghh2rcd13ifvqb60","pricing_plan_id":"cebpf4jnsgd1na2vs0mg"},{"bike_id":"0acdf120-81f9-486f-8ea5-e14a817d42af","system_id":"levelo_inurba_marseille","lat":43.28358,"lon":5.3811,"is_reserved":false,"is_disabled":false,"rental_uris":{"android":"levelo://app?vid=0acdf120-81f9-486f-8ea5-e14a817d42af","ios":"levelo://app?vid=0acdf120-81f9-486f-8ea5-e14a817d42af"},"vehicle_type_id":"4","last_reported":1730427627,"current_range_meters":39200,"station_id":"ce4bh412rcd13ifvqdr0","pricing_plan_id":"cebpf4jnsgd1na2vs0mg"},{"bike_id":"c117cce3-60ae-4c3b-9a80-37b47d8adc50","system_id":"levelo_inurba_marseille","lat":43.23206,"lon":5.35549,"is_reserved":false,"is_disabled":false,"rental_uris":{"android":"levelo://app?vid=c117cce3-60ae-4c3b-9a80-37b47d8adc50","ios":"levelo://app?vid=c117cce3-60ae-4c3b-9a80-37b47d8adc50"},"vehicle_type_id":"4","last_reported":1730427627,"current_range_meters":24800,"station_id":"ce4bhu92rcd13ifvqi70","pricing_plan_id":"cebpf4jnsgd1na2vs0mg"},{"bike_id":"84b3858e-724d-4a51-abdd-a1c7708d404b","system_id":"levelo_inurba_marseille","lat":43.29497,"lon":5.38098,"is_reserved":false,"is_disabled":false,"rental_uris":{"android":"levelo://app?vid=84b3858e-724d-4a51-abdd-a1c7708d404b","ios":"levelo://app?vid=84b3858e-724d-4a51-abdd-a1c7708d404b"},"vehicle_type_id":"4","last_reported":1730427627,"current_range_meters":19200,"station_id":"","pricing_plan_id":"cebpf4jnsgd1na2vs0mg"},{"bike_id":"0eac5a1d-d684-45e0-be5d-a22f3e11c4ca","system_id":"levelo_inurba_marseille","lat":43.23964,"lon":5.36638,"is_reserved":false,"is_disabled":false,"rental_uris":{"android":"levelo://app?vid=0eac5a1d-d684-45e0-be5d-a22f3e11c4ca","ios":"levelo://app?vid=0eac5a1d-d684-45e0-be5d-a22f3e11c4ca"},"vehicle_type_id":"4","last_reported":1730427627,"current_range_meters":8800,"station_id":"ce4bhi12rcd13ifvqfp0","pricing_plan_id":"cebpf4jnsgd1na2vs0mg"},{"bike_id":"ee343481-2f8a-4358-bb0a-ffd40b9c29e3","system_id":"levelo_inurba_marseille","lat":43.30802,"lon":5.37656,"is_reserved":false,"is_disabled":false,"rental_uris":{"android":"levelo://app?vid=ee343481-2f8a-4358-bb0a-ffd40b9c29e3","ios":"levelo://app?vid=ee343481-2f8a-4358-bb0a-ffd40b9c29e3"},"vehicle_type_id":"4","last_reported":1730427627,"current_range_meters":20800,"station_id":"ce4bgv92rcd13ifvqcq0","pricing_plan_id":"cebpf4jnsgd1na2vs0mg"},{"bike_id":"28a03429-c247-4feb-ace3-a820048521c3","system_id":"levelo_inurba_marseille","lat":43.29906,"lon":5.37464,"is_reserved":false,"is_disabled":false,"rental_uris":{"android":"levelo://app?vid=28a03429-c247-4feb-ace3-a820048521c3","ios":"levelo://app?vid=28a03429-c247-4feb-ace3-a820048521c3"},"vehicle_type_id":"4","last_reported":1730427627,"current_range_meters":36000,"station_id":"ce4bgjh2rcd13ifvqbg0","pricing_plan_id":"cebpf4jnsgd1na2vs0mg"},{"bike_id":"90cafe65-6466-4a80-9431-9f5a961fc8a7","system_id":"levelo_inurba_marseille","lat":43.27673,"lon":5.3888,"is_reserved":false,"is_disabled":false,"rental_uris":{"android":"levelo://app?vid=90cafe65-6466-4a80-9431-9f5a961fc8a7","ios":"levelo://app?vid=90cafe65-6466-4a80-9431-9f5a961fc8a7"},"vehicle_type_id":"4","last_reported":1730427627,"current_range_meters":38800,"station_id":"ce4bhi12rcd13ifvqfo0","pricing_plan_id":"cebpf4jnsgd1na2vs0mg"},{"bike_id":"e7b2be94-21fc-42ac-bdf7-d486710a5d9a","system_id":"levelo_inurba_marseille","lat":43.23193,"lon":5.35558,"is_reserved":false,"is_disabled":false,"rental_uris":{"android":"levelo://app?vid=e7b2be94-21fc-42ac-bdf7-d486710a5d9a","ios":"levelo://app?vid=e7b2be94-21fc-42ac-bdf7-d486710a5d9a"},"vehicle_type_id":"4","last_reported":1730427627,"current_range_meters":39200,"station_id":"ce4bhu92rcd13ifvqi70","pricing_plan_id":"cebpf4jnsgd1na2vs0mg"},{"bike_id":"7a68e29e-3416-4398-9a4c-bf8a8824d098","system_id":"levelo_inurba_marseille","lat":43.29771,"lon":5.39337,"is_reserved":false,"is_disabled":false,"rental_uris":{"android":"levelo://app?vid=7a68e29e-3416-4398-9a4c-bf8a8824d098","ios":"levelo://app?vid=7a68e29e-3416-4398-9a4c-bf8a8824d098"},"vehicle_type_id":"4","last_reported":1730427627,"current_range_meters":18000,"station_id":"chh1huq6cuj3fo74tm60","pricing_plan_id":"cebpf4jnsgd1na2vs0mg"},{"bike_id":"3bae9340-aae2-47c4-82c5-5c0d7349f14b","system_id":"levelo_inurba_marseille","lat":43.30809,"lon":5.43517,"is_reserved":false,"is_disabled":false,"rental_uris":{"android":"levelo://app?vid=3bae9340-aae2-47c4-82c5-5c0d7349f14b","ios":"levelo://app?vid=3bae9340-aae2-47c4-82c5-5c0d7349f14b"},"vehicle_type_id":"4","last_reported":1730427627,"current_range_meters":26000,"station_id":"ce4bhph2rcd13ifvqheg","pricing_plan_id":"cebpf4jnsgd1na2vs0mg"},{"bike_id":"5e952f6b-9aee-4257-81cc-27b4ae171e24","system_id":"levelo_inurba_marseille","lat":43.22937,"lon":5.35373,"is_reserved":false,"is_disabled":false,"rental_uris":{"android":"levelo://app?vid=5e952f6b-9aee-4257-81cc-27b4ae171e24","ios":"levelo://app?vid=5e952f6b-9aee-4257-81cc-27b4ae171e24"},"vehicle_type_id":"4","last_reported":1730427627,"current_range_meters":38400,"station_id":"cpo3532slgdg3j2ikp40","pricing_plan_id":"cebpf4jnsgd1na2vs0mg"},{"bike_id":"e69437e8-c288-4740-9d62-accddcb6bd20","system_id":"levelo_inurba_marseille","lat":43.2784,"lon":5.39199,"is_reserved":false,"is_disabled":false,"rental_uris":{"android":"levelo://app?vid=e69437e8-c288-4740-9d62-accddcb6bd20","ios":"levelo://app?vid=e69437e8-c288-4740-9d62-accddcb6bd20"},"vehicle_type_id":"4","last_reported":1730427627,"current_range_meters":39200,"station_id":"ce4bhjp2rcd13ifvqga0","pricing_plan_id":"cebpf4jnsgd1na2vs0mg"},{"bike_id":"abae4146-cfc2-4e6e-a35f-23905a17fe6f","system_id":"levelo_inurba_marseille","lat":43.27836,"lon":5.39201,"is_reserved":false,"is_disabled":false,"rental_uris":{"android":"levelo://app?vid=abae4146-cfc2-4e6e-a35f-23905a17fe6f","ios":"levelo://app?vid=abae4146-cfc2-4e6e-a35f-23905a17fe6f"},"vehicle_type_id":"4","last_reported":1730427627,"current_range_meters":39200,"station_id":"ce4bhjp2rcd13ifvqga0","pricing_plan_id":"cebpf4jnsgd1na2vs0mg"},{"bike_id":"32a26fa8-b1b7-4037-bcc6-6f0d9c2bf23c","system_id":"levelo_inurba_marseille","lat":43.298348,"lon":5.401288,"is_reserved":false,"is_disabled":false,"rental_uris":{"android":"levelo://app?vid=32a26fa8-b1b7-4037-bcc6-6f0d9c2bf23c","ios":"levelo://app?vid=32a26fa8-b1b7-4037-bcc6-6f0d9c2bf23c"},"vehicle_type_id":"4","last_reported":1730427627,"current_range_meters":36400,"station_id":"ce4bh0h2rcd13ifvqd40","pricing_plan_id":"cebpf4jnsgd1na2vs0mg"},{"bike_id":"09876b4e-96cc-44b2-95cf-9e2124098dc6","system_id":"levelo_inurba_marseille","lat":43.27453,"lon":5.39422,"is_reserved":false,"is_disabled":false,"rental_uris":{"android":"levelo://app?vid=09876b4e-96cc-44b2-95cf-9e2124098dc6","ios":"levelo://app?vid=09876b4e-96cc-44b2-95cf-9e2124098dc6"},"vehicle_type_id":"4","last_reported":1730427627,"current_range_meters":38000,"station_id":"ce4bhdp2rcd13ifvqf20","pricing_plan_id":"cebpf4jnsgd1na2vs0mg"},{"bike_id":"33a06482-b928-4cd4-a453-8795f3c663d3","system_id":"levelo_inurba_marseille","lat":43.26948,"lon":5.40235,"is_reserved":false,"is_disabled":false,"rental_uris":{"android":"levelo://app?vid=33a06482-b928-4cd4-a453-8795f3c663d3","ios":"levelo://app?vid=33a06482-b928-4cd4-a453-8795f3c663d3"},"vehicle_type_id":"4","last_reported":1730427627,"current_range_meters":39200,"station_id":"cjm6bp8fraef2m0cb0m0","pricing_plan_id":"cebpf4jnsgd1na2vs0mg"},{"bike_id":"524ef799-6210-4f34-8c06-b727a29dc81f","system_id":"levelo_inurba_marseille","lat":43.27978,"lon":5.36062,"is_reserved":false,"is_disabled":false,"rental_uris":{"android":"levelo://app?vid=524ef799-6210-4f34-8c06-b727a29dc81f","ios":"levelo://app?vid=524ef799-6210-4f34-8c06-b727a29dc81f"},"vehicle_type_id":"4","last_reported":1730427627,"current_range_meters":28800,"station_id":"","pricing_plan_id":"cebpf4jnsgd1na2vs0mg"},{"bike_id":"042265b5-955f-4ca3-a171-54f279bd1ea2","system_id":"levelo_inurba_marseille","lat":43.28979,"lon":5.36636,"is_reserved":false,"is_disabled":false,"rental_uris":{"android":"levelo://app?vid=042265b5-955f-4ca3-a171-54f279bd1ea2","ios":"levelo://app?vid=042265b5-955f-4ca3-a171-54f279bd1ea2"},"vehicle_type_id":"4","last_reported":1730427627,"current_range_meters":38400,"station_id":"ce4bhap2rcd13ifvqek0","pricing_plan_id":"cebpf4jnsgd1na2vs0mg"},{"bike_id":"67510012-1cba-484e-acef-2ad6017acb8f","system_id":"levelo_inurba_marseille","lat":43.27934,"lon":5.41037,"is_reserved":false,"is_disabled":false,"rental_uris":{"android":"levelo://app?vid=67510012-1cba-484e-acef-2ad6017acb8f","ios":"levelo://app?vid=67510012-1cba-484e-acef-2ad6017acb8f"},"vehicle_type_id":"4","last_reported":1730427627,"current_range_meters":29600,"station_id":"ce4bhnp2rcd13ifvqh0g","pricing_plan_id":"cebpf4jnsgd1na2vs0mg"},{"bike_id":"432245c8-aae7-4413-a01a-f97683516aa8","system_id":"levelo_inurba_marseille","lat":43.3127,"lon":5.40159,"is_reserved":false,"is_disabled":false,"rental_uris":{"android":"levelo://app?vid=432245c8-aae7-4413-a01a-f97683516aa8","ios":"levelo://app?vid=432245c8-aae7-4413-a01a-f97683516aa8"},"vehicle_type_id":"4","last_reported":1730427627,"current_range_meters":40000,"station_id":"ce4bh092rcd13ifvqd30","pricing_plan_id":"cebpf4jnsgd1na2vs0mg"},{"bike_id":"b647ad8c-5239-4792-a303-51c2978d56fb","system_id":"levelo_inurba_marseille","lat":43.33621,"lon":5.41024,"is_reserved":false,"is_disabled":false,"rental_uris":{"android":"levelo://app?vid=b647ad8c-5239-4792-a303-51c2978d56fb","ios":"levelo://app?vid=b647ad8c-5239-4792-a303-51c2978d56fb"},"vehicle_type_id":"4","last_reported":1730427627,"current_range_meters":38800,"station_id":"ce4bhqh2rcd13ifvqhmg","pricing_plan_id":"cebpf4jnsgd1na2vs0mg"},{"bike_id":"cd506133-45e2-421c-adbd-9501e6e43795","system_id":"levelo_inurba_marseille","lat":43.28034,"lon":5.369415,"is_reserved":false,"is_disabled":false,"rental_uris":{"android":"levelo://app?vid=cd506133-45e2-421c-adbd-9501e6e43795","ios":"levelo://app?vid=cd506133-45e2-421c-adbd-9501e6e43795"},"vehicle_type_id":"4","last_reported":1730427627,"current_range_meters":35600,"station_id":"ce4bha12rcd13ifvqef0","pricing_plan_id":"cebpf4jnsgd1na2vs0mg"},{"bike_id":"84eb234f-5cef-4e43-995c-c2a6c7272b1a","system_id":"levelo_inurba_marseille","lat":43.27941,"lon":5.4103,"is_reserved":false,"is_disabled":false,"rental_uris":{"android":"levelo://app?vid=84eb234f-5cef-4e43-995c-c2a6c7272b1a","ios":"levelo://app?vid=84eb234f-5cef-4e43-995c-c2a6c7272b1a"},"vehicle_type_id":"4","last_reported":1730427627,"current_range_meters":27200,"station_id":"ce4bhnp2rcd13ifvqh0g","pricing_plan_id":"cebpf4jnsgd1na2vs0mg"},{"bike_id":"d7ffa81d-2529-46b6-a8eb-e37e63999233","system_id":"levelo_inurba_marseille","lat":43.27422,"lon":5.39422,"is_reserved":false,"is_disabled":false,"rental_uris":{"android":"levelo://app?vid=d7ffa81d-2529-46b6-a8eb-e37e63999233","ios":"levelo://app?vid=d7ffa81d-2529-46b6-a8eb-e37e63999233"},"vehicle_type_id":"4","last_reported":1730427627,"current_range_meters":30400,"station_id":"ce4bhdp2rcd13ifvqf20","pricing_plan_id":"cebpf4jnsgd1na2vs0mg"},{"bike_id":"994a3104-8c9f-4bba-911d-69cf23f07195","system_id":"levelo_inurba_marseille","lat":43.28692,"lon":5.39975,"is_reserved":false,"is_disabled":false,"rental_uris":{"android":"levelo://app?vid=994a3104-8c9f-4bba-911d-69cf23f07195","ios":"levelo://app?vid=994a3104-8c9f-4bba-911d-69cf23f07195"},"vehicle_type_id":"4","last_reported":1730427627,"current_range_meters":31200,"station_id":"ce4bho92rcd13ifvqh3g","pricing_plan_id":"cebpf4jnsgd1na2vs0mg"},{"bike_id":"6cae95cd-6921-4859-837a-5db8f42ec1d3","system_id":"levelo_inurba_marseille","lat":43.29574,"lon":5.39972,"is_reserved":false,"is_disabled":false,"rental_uris":{"android":"levelo://app?vid=6cae95cd-6921-4859-837a-5db8f42ec1d3","ios":"levelo://app?vid=6cae95cd-6921-4859-837a-5db8f42ec1d3"},"vehicle_type_id":"4","last_reported":1730427627,"current_range_meters":38800,"station_id":"ce4bh312rcd13ifvqdj0","pricing_plan_id":"cebpf4jnsgd1na2vs0mg"},{"bike_id":"45ec955f-9396-45b9-aaaa-a47c5dee2e6f","system_id":"levelo_inurba_marseille","lat":43.28837,"lon":5.35847,"is_reserved":false,"is_disabled":false,"rental_uris":{"android":"levelo://app?vid=45ec955f-9396-45b9-aaaa-a47c5dee2e6f","ios":"levelo://app?vid=45ec955f-9396-45b9-aaaa-a47c5dee2e6f"},"vehicle_type_id":"4","last_reported":1730427627,"current_range_meters":39200,"station_id":"ce4bhb12rcd13ifvqem0","pricing_plan_id":"cebpf4jnsgd1na2vs0mg"},{"bike_id":"78772112-3f50-47a3-9270-8d3a4540970a","system_id":"levelo_inurba_marseille","lat":43.29681,"lon":5.37282,"is_reserved":false,"is_disabled":false,"rental_uris":{"android":"levelo://app?vid=78772112-3f50-47a3-9270-8d3a4540970a","ios":"levelo://app?vid=78772112-3f50-47a3-9270-8d3a4540970a"},"vehicle_type_id":"4","last_reported":1730427627,"current_range_meters":38000,"station_id":"ce4bgk12rcd13ifvqbj0","pricing_plan_id":"cebpf4jnsgd1na2vs0mg"},{"bike_id":"34091808-bf35-4316-8726-23f709e5cb3e","system_id":"levelo_inurba_marseille","lat":43.31177,"lon":5.38709,"is_reserved":false,"is_disabled":false,"rental_uris":{"android":"levelo://app?vid=34091808-bf35-4316-8726-23f709e5cb3e","ios":"levelo://app?vid=34091808-bf35-4316-8726-23f709e5cb3e"},"vehicle_type_id":"4","last_reported":1730427627,"current_range_meters":34800,"station_id":"ce4bgv12rcd13ifvqcp0","pricing_plan_id":"cebpf4jnsgd1na2vs0mg"},{"bike_id":"34635664-ba0e-4465-a788-ee29cf34760b","system_id":"levelo_inurba_marseille","lat":43.27182,"lon":5.40999,"is_reserved":false,"is_disabled":false,"rental_uris":{"android":"levelo://app?vid=34635664-ba0e-4465-a788-ee29cf34760b","ios":"levelo://app?vid=34635664-ba0e-4465-a788-ee29cf34760b"},"vehicle_type_id":"4","last_reported":1730427627,"current_range_meters":19600,"station_id":"ce4bhl12rcd13ifvqgf0","pricing_plan_id":"cebpf4jnsgd1na2vs0mg"},{"bike_id":"655e5c84-6957-4a22-898b-b606bb7480d4","system_id":"levelo_inurba_marseille","lat":43.22932,"lon":5.35382,"is_reserved":false,"is_disabled":false,"rental_uris":{"android":"levelo://app?vid=655e5c84-6957-4a22-898b-b606bb7480d4","ios":"levelo://app?vid=655e5c84-6957-4a22-898b-b606bb7480d4"},"vehicle_type_id":"4","last_reported":1730427627,"current_range_meters":28000,"station_id":"cpo3532slgdg3j2ikp40","pricing_plan_id":"cebpf4jnsgd1na2vs0mg"},{"bike_id":"53b531d0-be4c-4ea6-95d2-af16cd8cd980","system_id":"levelo_inurba_marseille","lat":43.28158,"lon":5.42647,"is_reserved":false,"is_disabled":false,"rental_uris":{"android":"levelo://app?vid=53b531d0-be4c-4ea6-95d2-af16cd8cd980","ios":"levelo://app?vid=53b531d0-be4c-4ea6-95d2-af16cd8cd980"},"vehicle_type_id":"4","last_reported":1730427627,"current_range_meters":6000,"station_id":"ce4bhnh2rcd13ifvqgug","pricing_plan_id":"cebpf4jnsgd1na2vs0mg"},{"bike_id":"557e4e8f-e78e-4147-aabf-fd9c31e78e63","system_id":"levelo_inurba_marseille","lat":43.29566,"lon":5.4228,"is_reserved":false,"is_disabled":false,"rental_uris":{"android":"levelo://app?vid=557e4e8f-e78e-4147-aabf-fd9c31e78e63","ios":"levelo://app?vid=557e4e8f-e78e-4147-aabf-fd9c31e78e63"},"vehicle_type_id":"4","last_reported":1730427627,"current_range_meters":27200,"station_id":"ce4bhph2rcd13ifvqhdg","pricing_plan_id":"cebpf4jnsgd1na2vs0mg"},{"bike_id":"aa8f45a6-6905-4373-b54b-fee15f48cba5","system_id":"levelo_inurba_marseille","lat":43.27619,"lon":5.36108,"is_reserved":false,"is_disabled":false,"rental_uris":{"android":"levelo://app?vid=aa8f45a6-6905-4373-b54b-fee15f48cba5","ios":"levelo://app?vid=aa8f45a6-6905-4373-b54b-fee15f48cba5"},"vehicle_type_id":"4","last_reported":1730427627,"current_range_meters":14000,"station_id":"ce4bgj92rcd13ifvqbe0","pricing_plan_id":"cebpf4jnsgd1na2vs0mg"},{"bike_id":"baf04ec9-dc96-4f6a-a5eb-6435e1f063ea","system_id":"levelo_inurba_marseille","lat":43.29622,"lon":5.4061,"is_reserved":false,"is_disabled":false,"rental_uris":{"android":"levelo://app?vid=baf04ec9-dc96-4f6a-a5eb-6435e1f063ea","ios":"levelo://app?vid=baf04ec9-dc96-4f6a-a5eb-6435e1f063ea"},"vehicle_type_id":"4","last_reported":1730427627,"current_range_meters":25200,"station_id":"ce4bh0h2rcd13ifvqd60","pricing_plan_id":"cebpf4jnsgd1na2vs0mg"},{"bike_id":"aaba3d43-eb81-4033-90d6-d4f77595aa51","system_id":"levelo_inurba_marseille","lat":43.3107,"lon":5.38359,"is_reserved":false,"is_disabled":false,"rental_uris":{"android":"levelo://app?vid=aaba3d43-eb81-4033-90d6-d4f77595aa51","ios":"levelo://app?vid=aaba3d43-eb81-4033-90d6-d4f77595aa51"},"vehicle_type_id":"4","last_reported":1730427627,"current_range_meters":24000,"station_id":"ce4bgv92rcd13ifvqcr0","pricing_plan_id":"cebpf4jnsgd1na2vs0mg"},{"bike_id":"f59d2b6c-416a-4366-a550-e13b80f20d82","system_id":"levelo_inurba_marseille","lat":43.31755,"lon":5.39018,"is_reserved":false,"is_disabled":false,"rental_uris":{"android":"levelo://app?vid=f59d2b6c-416a-4366-a550-e13b80f20d82","ios":"levelo://app?vid=f59d2b6c-416a-4366-a550-e13b80f20d82"},"vehicle_type_id":"4","last_reported":1730427627,"current_range_meters":39200,"station_id":"ce4bhqp2rcd13ifvqhng","pricing_plan_id":"cebpf4jnsgd1na2vs0mg"},{"bike_id":"13dd447d-a43f-4bf5-bbfb-10286ab2cf91","system_id":"levelo_inurba_marseille","lat":43.27972,"lon":5.41037,"is_reserved":false,"is_disabled":false,"rental_uris":{"android":"levelo://app?vid=13dd447d-a43f-4bf5-bbfb-10286ab2cf91","ios":"levelo://app?vid=13dd447d-a43f-4bf5-bbfb-10286ab2cf91"},"vehicle_type_id":"4","last_reported":1730427627,"current_range_meters":24400,"station_id":"ce4bhnp2rcd13ifvqh0g","pricing_plan_id":"cebpf4jnsgd1na2vs0mg"},{"bike_id":"c88a035e-705f-42fc-924e-415c7ebf209c","system_id":"levelo_inurba_marseille","lat":43.30646,"lon":5.40094,"is_reserved":false,"is_disabled":false,"rental_uris":{"android":"levelo://app?vid=c88a035e-705f-42fc-924e-415c7ebf209c","ios":"levelo://app?vid=c88a035e-705f-42fc-924e-415c7ebf209c"},"vehicle_type_id":"4","last_reported":1730427627,"current_range_meters":10800,"station_id":"ce4bh112rcd13ifvqda0","pricing_plan_id":"cebpf4jnsgd1na2vs0mg"},{"bike_id":"675ef837-3778-4396-a626-7eaa12a01d82","system_id":"levelo_inurba_marseille","lat":43.31271,"lon":5.4016,"is_reserved":false,"is_disabled":false,"rental_uris":{"android":"levelo://app?vid=675ef837-3778-4396-a626-7eaa12a01d82","ios":"levelo://app?vid=675ef837-3778-4396-a626-7eaa12a01d82"},"vehicle_type_id":"4","last_reported":1730427627,"current_range_meters":33600,"station_id":"ce4bh092rcd13ifvqd30","pricing_plan_id":"cebpf4jnsgd1na2vs0mg"},{"bike_id":"610d24fb-67f6-4d10-94ec-55de69e83776","system_id":"levelo_inurba_marseille","lat":43.30436,"lon":5.38893,"is_reserved":false,"is_disabled":false,"rental_uris":{"android":"levelo://app?vid=610d24fb-67f6-4d10-94ec-55de69e83776","ios":"levelo://app?vid=610d24fb-67f6-4d10-94ec-55de69e83776"},"vehicle_type_id":"4","last_reported":1730427627,"current_range_meters":23200,"station_id":"ce4bgk12rcd13ifvqbi0","pricing_plan_id":"cebpf4jnsgd1na2vs0mg"},{"bike_id":"29eaf183-5650-4491-a91d-f1a2f4bd3601","system_id":"levelo_inurba_marseille","lat":43.2942,"lon":5.38623,"is_reserved":false,"is_disabled":false,"rental_uris":{"android":"levelo://app?vid=29eaf183-5650-4491-a91d-f1a2f4bd3601","ios":"levelo://app?vid=29eaf183-5650-4491-a91d-f1a2f4bd3601"},"vehicle_type_id":"4","last_reported":1730427627,"current_range_meters":21600,"station_id":"ce4bh2h2rcd13ifvqdh0","pricing_plan_id":"cebpf4jnsgd1na2vs0mg"},{"bike_id":"8f55f6cc-0b54-4d5f-9029-aa15dfd6d9b0","system_id":"levelo_inurba_marseille","lat":43.31614,"lon":5.39058,"is_reserved":false,"is_disabled":false,"rental_uris":{"android":"levelo://app?vid=8f55f6cc-0b54-4d5f-9029-aa15dfd6d9b0","ios":"levelo://app?vid=8f55f6cc-0b54-4d5f-9029-aa15dfd6d9b0"},"vehicle_type_id":"4","last_reported":1730427627,"current_range_meters":12000,"station_id":"","pricing_plan_id":"cebpf4jnsgd1na2vs0mg"},{"bike_id":"82fc33c9-8df5-4ecc-84d7-15cbf03ea71f","system_id":"levelo_inurba_marseille","lat":43.2511,"lon":5.40325,"is_reserved":false,"is_disabled":false,"rental_uris":{"android":"levelo://app?vid=82fc33c9-8df5-4ecc-84d7-15cbf03ea71f","ios":"levelo://app?vid=82fc33c9-8df5-4ecc-84d7-15cbf03ea71f"},"vehicle_type_id":"4","last_reported":1730427627,"current_range_meters":29600,"station_id":"ce4bhlh2rcd13ifvqgig","pricing_plan_id":"cebpf4jnsgd1na2vs0mg"},{"bike_id":"490eb450-a984-41db-965f-6f3e6018ee4c","system_id":"levelo_inurba_marseille","lat":43.28706,"lon":5.39973,"is_reserved":false,"is_disabled":false,"rental_uris":{"android":"levelo://app?vid=490eb450-a984-41db-965f-6f3e6018ee4c","ios":"levelo://app?vid=490eb450-a984-41db-965f-6f3e6018ee4c"},"vehicle_type_id":"4","last_reported":1730427627,"current_range_meters":36800,"station_id":"ce4bho92rcd13ifvqh3g","pricing_plan_id":"cebpf4jnsgd1na2vs0mg"},{"bike_id":"bc9c21c5-87be-461e-9e64-d06c887fdf65","system_id":"levelo_inurba_marseille","lat":43.29872,"lon":5.39739,"is_reserved":false,"is_disabled":false,"rental_uris":{"android":"levelo://app?vid=bc9c21c5-87be-461e-9e64-d06c887fdf65","ios":"levelo://app?vid=bc9c21c5-87be-461e-9e64-d06c887fdf65"},"vehicle_type_id":"4","last_reported":1730427627,"current_range_meters":8800,"station_id":"ce4bh0h2rcd13ifvqd50","pricing_plan_id":"cebpf4jnsgd1na2vs0mg"},{"bike_id":"875c0389-7ece-4ce2-a2de-5b4921801634","system_id":"levelo_inurba_marseille","lat":43.27451,"lon":5.39395,"is_reserved":false,"is_disabled":false,"rental_uris":{"android":"levelo://app?vid=875c0389-7ece-4ce2-a2de-5b4921801634","ios":"levelo://app?vid=875c0389-7ece-4ce2-a2de-5b4921801634"},"vehicle_type_id":"4","last_reported":1730427627,"current_range_meters":30000,"station_id":"ce4bhdp2rcd13ifvqf20","pricing_plan_id":"cebpf4jnsgd1na2vs0mg"},{"bike_id":"5ff74640-5d39-40f8-808a-e5695df59fd4","system_id":"levelo_inurba_marseille","lat":43.27216,"lon":5.41027,"is_reserved":false,"is_disabled":false,"rental_uris":{"android":"levelo://app?vid=5ff74640-5d39-40f8-808a-e5695df59fd4","ios":"levelo://app?vid=5ff74640-5d39-40f8-808a-e5695df59fd4"},"vehicle_type_id":"4","last_reported":1730427627,"current_range_meters":3600,"station_id":"","pricing_plan_id":"cebpf4jnsgd1na2vs0mg"},{"bike_id":"8cb9f7c4-5be9-4a25-8d4a-485de9647b9d","system_id":"levelo_inurba_marseille","lat":43.31095,"lon":5.42433,"is_reserved":false,"is_disabled":false,"rental_uris":{"android":"levelo://app?vid=8cb9f7c4-5be9-4a25-8d4a-485de9647b9d","ios":"levelo://app?vid=8cb9f7c4-5be9-4a25-8d4a-485de9647b9d"},"vehicle_type_id":"4","last_reported":1730427627,"current_range_meters":21600,"station_id":"ce4bhp92rcd13ifvqhag","pricing_plan_id":"cebpf4jnsgd1na2vs0mg"},{"bike_id":"bd83eb18-96ea-43b1-b4e8-3ff2663a3999","system_id":"levelo_inurba_marseille","lat":43.30955,"lon":5.39037,"is_reserved":false,"is_disabled":false,"rental_uris":{"android":"levelo://app?vid=bd83eb18-96ea-43b1-b4e8-3ff2663a3999","ios":"levelo://app?vid=bd83eb18-96ea-43b1-b4e8-3ff2663a3999"},"vehicle_type_id":"4","last_reported":1730427627,"current_range_meters":19600,"station_id":"ce4bgup2rcd13ifvqco0","pricing_plan_id":"cebpf4jnsgd1na2vs0mg"},{"bike_id":"2a7661d5-4a25-43f3-a7c7-9f21283a8ee2","system_id":"levelo_inurba_marseille","lat":43.27586,"lon":5.38433,"is_reserved":false,"is_disabled":false,"rental_uris":{"android":"levelo://app?vid=2a7661d5-4a25-43f3-a7c7-9f21283a8ee2","ios":"levelo://app?vid=2a7661d5-4a25-43f3-a7c7-9f21283a8ee2"},"vehicle_type_id":"4","last_reported":1730427627,"current_range_meters":39200,"station_id":"ce4bhh92rcd13ifvqfi0","pricing_plan_id":"cebpf4jnsgd1na2vs0mg"},{"bike_id":"ca211adf-b79e-4c48-88b9-6f08fbad3c50","system_id":"levelo_inurba_marseille","lat":43.31374,"lon":5.38491,"is_reserved":false,"is_disabled":false,"rental_uris":{"android":"levelo://app?vid=ca211adf-b79e-4c48-88b9-6f08fbad3c50","ios":"levelo://app?vid=ca211adf-b79e-4c48-88b9-6f08fbad3c50"},"vehicle_type_id":"4","last_reported":1730427627,"current_range_meters":20000,"station_id":"ce4bgt92rcd13ifvqcf0","pricing_plan_id":"cebpf4jnsgd1na2vs0mg"},{"bike_id":"db9b80b1-c6d8-4ef2-9727-ca0f0b9498a1","system_id":"levelo_inurba_marseille","lat":43.33725,"lon":5.39184,"is_reserved":false,"is_disabled":false,"rental_uris":{"android":"levelo://app?vid=db9b80b1-c6d8-4ef2-9727-ca0f0b9498a1","ios":"levelo://app?vid=db9b80b1-c6d8-4ef2-9727-ca0f0b9498a1"},"vehicle_type_id":"4","last_reported":1730427627,"current_range_meters":30000,"station_id":"ce4bhr92rcd13ifvqhsg","pricing_plan_id":"cebpf4jnsgd1na2vs0mg"},{"bike_id":"2e875e0f-bc43-4631-ba8b-be93cdfa892d","system_id":"levelo_inurba_marseille","lat":43.31283,"lon":5.40167,"is_reserved":false,"is_disabled":false,"rental_uris":{"android":"levelo://app?vid=2e875e0f-bc43-4631-ba8b-be93cdfa892d","ios":"levelo://app?vid=2e875e0f-bc43-4631-ba8b-be93cdfa892d"},"vehicle_type_id":"4","last_reported":1730427627,"current_range_meters":6800,"station_id":"ce4bh092rcd13ifvqd30","pricing_plan_id":"cebpf4jnsgd1na2vs0mg"},{"bike_id":"5e5714f5-9a0c-4fb7-8337-508e938e2d5b","system_id":"levelo_inurba_marseille","lat":43.27181,"lon":5.40983,"is_reserved":false,"is_disabled":false,"rental_uris":{"android":"levelo://app?vid=5e5714f5-9a0c-4fb7-8337-508e938e2d5b","ios":"levelo://app?vid=5e5714f5-9a0c-4fb7-8337-508e938e2d5b"},"vehicle_type_id":"4","last_reported":1730427627,"current_range_meters":33600,"station_id":"ce4bhl12rcd13ifvqgf0","pricing_plan_id":"cebpf4jnsgd1na2vs0mg"},{"bike_id":"b4c274ad-1995-4bce-ba3e-0e7834939abd","system_id":"levelo_inurba_marseille","lat":43.29007,"lon":5.35603,"is_reserved":false,"is_disabled":false,"rental_uris":{"android":"levelo://app?vid=b4c274ad-1995-4bce-ba3e-0e7834939abd","ios":"levelo://app?vid=b4c274ad-1995-4bce-ba3e-0e7834939abd"},"vehicle_type_id":"4","last_reported":1730427627,"current_range_meters":38000,"station_id":"ce4bhb92rcd13ifvqen0","pricing_plan_id":"cebpf4jnsgd1na2vs0mg"},{"bike_id":"2811fdca-6d1d-42d4-8a38-11114e1fed91","system_id":"levelo_inurba_marseille","lat":43.29002,"lon":5.35611,"is_reserved":false,"is_disabled":false,"rental_uris":{"android":"levelo://app?vid=2811fdca-6d1d-42d4-8a38-11114e1fed91","ios":"levelo://app?vid=2811fdca-6d1d-42d4-8a38-11114e1fed91"},"vehicle_type_id":"4","last_reported":1730427627,"current_range_meters":38400,"station_id":"ce4bhb92rcd13ifvqen0","pricing_plan_id":"cebpf4jnsgd1na2vs0mg"},{"bike_id":"c52a23bd-b8fa-4e87-8fba-eaba32edd6b9","system_id":"levelo_inurba_marseille","lat":43.28699,"lon":5.39978,"is_reserved":false,"is_disabled":false,"rental_uris":{"android":"levelo://app?vid=c52a23bd-b8fa-4e87-8fba-eaba32edd6b9","ios":"levelo://app?vid=c52a23bd-b8fa-4e87-8fba-eaba32edd6b9"},"vehicle_type_id":"4","last_reported":1730427627,"current_range_meters":24000,"station_id":"ce4bho92rcd13ifvqh3g","pricing_plan_id":"cebpf4jnsgd1na2vs0mg"},{"bike_id":"1944f67e-4d7a-48bd-ad29-5500c8d190d8","system_id":"levelo_inurba_marseille","lat":43.29278,"lon":5.40128,"is_reserved":false,"is_disabled":false,"rental_uris":{"android":"levelo://app?vid=1944f67e-4d7a-48bd-ad29-5500c8d190d8","ios":"levelo://app?vid=1944f67e-4d7a-48bd-ad29-5500c8d190d8"},"vehicle_type_id":"4","last_reported":1730427627,"current_range_meters":38800,"station_id":"ce4bh312rcd13ifvqdk0","pricing_plan_id":"cebpf4jnsgd1na2vs0mg"},{"bike_id":"3958b000-eb5e-4965-a1f2-66f242ca8473","system_id":"levelo_inurba_marseille","lat":43.30439,"lon":5.38877,"is_reserved":false,"is_disabled":false,"rental_uris":{"android":"levelo://app?vid=3958b000-eb5e-4965-a1f2-66f242ca8473","ios":"levelo://app?vid=3958b000-eb5e-4965-a1f2-66f242ca8473"},"vehicle_type_id":"4","last_reported":1730427627,"current_range_meters":33600,"station_id":"ce4bgk12rcd13ifvqbi0","pricing_plan_id":"cebpf4jnsgd1na2vs0mg"},{"bike_id":"9bd158b7-4214-45b9-994c-ce2650e013b1","system_id":"levelo_inurba_marseille","lat":43.284454,"lon":5.392048,"is_reserved":false,"is_disabled":false,"rental_uris":{"android":"levelo://app?vid=9bd158b7-4214-45b9-994c-ce2650e013b1","ios":"levelo://app?vid=9bd158b7-4214-45b9-994c-ce2650e013b1"},"vehicle_type_id":"4","last_reported":1730427627,"current_range_meters":23200,"station_id":"ce4bhoh2rcd13ifvqh5g","pricing_plan_id":"cebpf4jnsgd1na2vs0mg"},{"bike_id":"99c1fd84-1a74-488d-9899-c5c1aaac4027","system_id":"levelo_inurba_marseille","lat":43.24659,"lon":5.38897,"is_reserved":false,"is_disabled":false,"rental_uris":{"android":"levelo://app?vid=99c1fd84-1a74-488d-9899-c5c1aaac4027","ios":"levelo://app?vid=99c1fd84-1a74-488d-9899-c5c1aaac4027"},"vehicle_type_id":"4","last_reported":1730427627,"current_range_meters":11200,"station_id":"ce4bhg12rcd13ifvqf60","pricing_plan_id":"cebpf4jnsgd1na2vs0mg"},{"bike_id":"f515e7cf-e299-432c-884e-ae11c7050d66","system_id":"levelo_inurba_marseille","lat":43.26214,"lon":5.37929,"is_reserved":false,"is_disabled":false,"rental_uris":{"android":"levelo://app?vid=f515e7cf-e299-432c-884e-ae11c7050d66","ios":"levelo://app?vid=f515e7cf-e299-432c-884e-ae11c7050d66"},"vehicle_type_id":"4","last_reported":1730427627,"current_range_meters":38400,"station_id":"ce4bhjp2rcd13ifvqg90","pricing_plan_id":"cebpf4jnsgd1na2vs0mg"},{"bike_id":"3a09ceaf-2e70-40df-b9b5-539e96d81463","system_id":"levelo_inurba_marseille","lat":43.26952,"lon":5.38633,"is_reserved":false,"is_disabled":false,"rental_uris":{"android":"levelo://app?vid=3a09ceaf-2e70-40df-b9b5-539e96d81463","ios":"levelo://app?vid=3a09ceaf-2e70-40df-b9b5-539e96d81463"},"vehicle_type_id":"4","last_reported":1730427627,"current_range_meters":33600,"station_id":"ce4bhh92rcd13ifvqfh0","pricing_plan_id":"cebpf4jnsgd1na2vs0mg"},{"bike_id":"5b1beb29-08c3-4517-96e1-89c4b727e0c3","system_id":"levelo_inurba_marseille","lat":43.23204,"lon":5.35548,"is_reserved":false,"is_disabled":false,"rental_uris":{"android":"levelo://app?vid=5b1beb29-08c3-4517-96e1-89c4b727e0c3","ios":"levelo://app?vid=5b1beb29-08c3-4517-96e1-89c4b727e0c3"},"vehicle_type_id":"4","last_reported":1730427627,"current_range_meters":32000,"station_id":"ce4bhu92rcd13ifvqi70","pricing_plan_id":"cebpf4jnsgd1na2vs0mg"},{"bike_id":"5490c8fa-94fb-4bb6-ba1c-a35def655112","system_id":"levelo_inurba_marseille","lat":43.31288,"lon":5.40164,"is_reserved":false,"is_disabled":false,"rental_uris":{"android":"levelo://app?vid=5490c8fa-94fb-4bb6-ba1c-a35def655112","ios":"levelo://app?vid=5490c8fa-94fb-4bb6-ba1c-a35def655112"},"vehicle_type_id":"4","last_reported":1730427627,"current_range_meters":32400,"station_id":"ce4bh092rcd13ifvqd30","pricing_plan_id":"cebpf4jnsgd1na2vs0mg"},{"bike_id":"d8de5714-58af-4d06-95fa-16cf8ce84d6a","system_id":"levelo_inurba_marseille","lat":43.30775,"lon":5.37647,"is_reserved":false,"is_disabled":false,"rental_uris":{"android":"levelo://app?vid=d8de5714-58af-4d06-95fa-16cf8ce84d6a","ios":"levelo://app?vid=d8de5714-58af-4d06-95fa-16cf8ce84d6a"},"vehicle_type_id":"4","last_reported":1730427627,"current_range_meters":36800,"station_id":"ce4bgv92rcd13ifvqcq0","pricing_plan_id":"cebpf4jnsgd1na2vs0mg"},{"bike_id":"c98470d7-5247-4c9b-9990-4c8a4dc7b4eb","system_id":"levelo_inurba_marseille","lat":43.28607,"lon":5.35099,"is_reserved":false,"is_disabled":false,"rental_uris":{"android":"levelo://app?vid=c98470d7-5247-4c9b-9990-4c8a4dc7b4eb","ios":"levelo://app?vid=c98470d7-5247-4c9b-9990-4c8a4dc7b4eb"},"vehicle_type_id":"4","last_reported":1730427627,"current_range_meters":35600,"station_id":"ce4bhch2rcd13ifvqeug","pricing_plan_id":"cebpf4jnsgd1na2vs0mg"},{"bike_id":"3e327412-b97e-4df4-824e-ea37ac5a7548","system_id":"levelo_inurba_marseille","lat":43.28722,"lon":5.36073,"is_reserved":false,"is_disabled":false,"rental_uris":{"android":"levelo://app?vid=3e327412-b97e-4df4-824e-ea37ac5a7548","ios":"levelo://app?vid=3e327412-b97e-4df4-824e-ea37ac5a7548"},"vehicle_type_id":"4","last_reported":1730427627,"current_range_meters":39200,"station_id":"cki0cbj6b192h4jlfktg","pricing_plan_id":"cebpf4jnsgd1na2vs0mg"},{"bike_id":"f99547b6-e0b7-4a86-b4bb-f600f8ca5cb2","system_id":"levelo_inurba_marseille","lat":43.24168,"lon":5.36399,"is_reserved":false,"is_disabled":false,"rental_uris":{"android":"levelo://app?vid=f99547b6-e0b7-4a86-b4bb-f600f8ca5cb2","ios":"levelo://app?vid=f99547b6-e0b7-4a86-b4bb-f600f8ca5cb2"},"vehicle_type_id":"4","last_reported":1730427627,"current_range_meters":8000,"station_id":"cpo36qri1sfpv3e86is0","pricing_plan_id":"cebpf4jnsgd1na2vs0mg"},{"bike_id":"592f4fc4-36f6-4068-ad0e-e5415fc9cbe7","system_id":"levelo_inurba_marseille","lat":43.24208,"lon":5.37943,"is_reserved":false,"is_disabled":false,"rental_uris":{"android":"levelo://app?vid=592f4fc4-36f6-4068-ad0e-e5415fc9cbe7","ios":"levelo://app?vid=592f4fc4-36f6-4068-ad0e-e5415fc9cbe7"},"vehicle_type_id":"4","last_reported":1730427627,"current_range_meters":6800,"station_id":"ce4bhnp2rcd13ifvqgvg","pricing_plan_id":"cebpf4jnsgd1na2vs0mg"},{"bike_id":"7f2c9760-527c-4cd4-a04e-40d5f81e7b52","system_id":"levelo_inurba_marseille","lat":43.30539,"lon":5.38431,"is_reserved":false,"is_disabled":false,"rental_uris":{"android":"levelo://app?vid=7f2c9760-527c-4cd4-a04e-40d5f81e7b52","ios":"levelo://app?vid=7f2c9760-527c-4cd4-a04e-40d5f81e7b52"},"vehicle_type_id":"4","last_reported":1730427627,"current_range_meters":37600,"station_id":"ce4bgg92rcd13ifvqb30","pricing_plan_id":"cebpf4jnsgd1na2vs0mg"},{"bike_id":"e049d7a1-ee43-4f25-a027-4174f13b1365","system_id":"levelo_inurba_marseille","lat":43.28107,"lon":5.3784,"is_reserved":false,"is_disabled":false,"rental_uris":{"android":"levelo://app?vid=e049d7a1-ee43-4f25-a027-4174f13b1365","ios":"levelo://app?vid=e049d7a1-ee43-4f25-a027-4174f13b1365"},"vehicle_type_id":"4","last_reported":1730427627,"current_range_meters":10800,"station_id":"ce4bha12rcd13ifvqee0","pricing_plan_id":"cebpf4jnsgd1na2vs0mg"},{"bike_id":"794d23c0-def7-4557-a69a-112ea268f585","system_id":"levelo_inurba_marseille","lat":43.23201,"lon":5.35566,"is_reserved":false,"is_disabled":false,"rental_uris":{"android":"levelo://app?vid=794d23c0-def7-4557-a69a-112ea268f585","ios":"levelo://app?vid=794d23c0-def7-4557-a69a-112ea268f585"},"vehicle_type_id":"4","last_reported":1730427627,"current_range_meters":40000,"station_id":"ce4bhu92rcd13ifvqi70","pricing_plan_id":"cebpf4jnsgd1na2vs0mg"},{"bike_id":"1bf1efd8-1700-4378-a557-ecc734268ab4","system_id":"levelo_inurba_marseille","lat":43.29785,"lon":5.38097,"is_reserved":false,"is_disabled":false,"rental_uris":{"android":"levelo://app?vid=1bf1efd8-1700-4378-a557-ecc734268ab4","ios":"levelo://app?vid=1bf1efd8-1700-4378-a557-ecc734268ab4"},"vehicle_type_id":"4","last_reported":1730427627,"current_range_meters":4400,"station_id":"ce4bgip2rcd13ifvqbb0","pricing_plan_id":"cebpf4jnsgd1na2vs0mg"},{"bike_id":"d66059ff-f033-40f3-b26d-de5e031226fa","system_id":"levelo_inurba_marseille","lat":43.28467,"lon":5.3588,"is_reserved":false,"is_disabled":false,"rental_uris":{"android":"levelo://app?vid=d66059ff-f033-40f3-b26d-de5e031226fa","ios":"levelo://app?vid=d66059ff-f033-40f3-b26d-de5e031226fa"},"vehicle_type_id":"4","last_reported":1730427627,"current_range_meters":26000,"station_id":"ce4bhah2rcd13ifvqei0","pricing_plan_id":"cebpf4jnsgd1na2vs0mg"},{"bike_id":"6aa8d0f9-e1e2-48ae-a8e9-616086cad650","system_id":"levelo_inurba_marseille","lat":43.27503,"lon":5.42438,"is_reserved":false,"is_disabled":false,"rental_uris":{"android":"levelo://app?vid=6aa8d0f9-e1e2-48ae-a8e9-616086cad650","ios":"levelo://app?vid=6aa8d0f9-e1e2-48ae-a8e9-616086cad650"},"vehicle_type_id":"4","last_reported":1730427627,"current_range_meters":21600,"station_id":"ce4bhn92rcd13ifvqgrg","pricing_plan_id":"cebpf4jnsgd1na2vs0mg"},{"bike_id":"c9fe9305-e5b5-403a-8ac6-ee784523647c","system_id":"levelo_inurba_marseille","lat":43.23433,"lon":5.35941,"is_reserved":false,"is_disabled":false,"rental_uris":{"android":"levelo://app?vid=c9fe9305-e5b5-403a-8ac6-ee784523647c","ios":"levelo://app?vid=c9fe9305-e5b5-403a-8ac6-ee784523647c"},"vehicle_type_id":"4","last_reported":1730427627,"current_range_meters":24400,"station_id":"","pricing_plan_id":"cebpf4jnsgd1na2vs0mg"},{"bike_id":"3762b5b7-778d-4d2e-9b34-ac4ef4125c24","system_id":"levelo_inurba_marseille","lat":43.27622,"lon":5.36109,"is_reserved":false,"is_disabled":false,"rental_uris":{"android":"levelo://app?vid=3762b5b7-778d-4d2e-9b34-ac4ef4125c24","ios":"levelo://app?vid=3762b5b7-778d-4d2e-9b34-ac4ef4125c24"},"vehicle_type_id":"4","last_reported":1730427627,"current_range_meters":36000,"station_id":"ce4bgj92rcd13ifvqbe0","pricing_plan_id":"cebpf4jnsgd1na2vs0mg"},{"bike_id":"a6c79ad0-6eac-42d1-9ed7-69d080828ec6","system_id":"levelo_inurba_marseille","lat":43.27903,"lon":5.38007,"is_reserved":false,"is_disabled":false,"rental_uris":{"android":"levelo://app?vid=a6c79ad0-6eac-42d1-9ed7-69d080828ec6","ios":"levelo://app?vid=a6c79ad0-6eac-42d1-9ed7-69d080828ec6"},"vehicle_type_id":"4","last_reported":1730427627,"current_range_meters":36800,"station_id":"ce4bhf92rcd13ifvqf50","pricing_plan_id":"cebpf4jnsgd1na2vs0mg"},{"bike_id":"2e5ff9f5-48d0-487f-9fe8-43ddfbfb83b6","system_id":"levelo_inurba_marseille","lat":43.29889,"lon":5.39738,"is_reserved":false,"is_disabled":false,"rental_uris":{"android":"levelo://app?vid=2e5ff9f5-48d0-487f-9fe8-43ddfbfb83b6","ios":"levelo://app?vid=2e5ff9f5-48d0-487f-9fe8-43ddfbfb83b6"},"vehicle_type_id":"4","last_reported":1730427627,"current_range_meters":8000,"station_id":"ce4bh0h2rcd13ifvqd50","pricing_plan_id":"cebpf4jnsgd1na2vs0mg"},{"bike_id":"07bb50dd-2fa1-40f9-904d-a3b53470f43d","system_id":"levelo_inurba_marseille","lat":43.28438,"lon":5.39189,"is_reserved":false,"is_disabled":false,"rental_uris":{"android":"levelo://app?vid=07bb50dd-2fa1-40f9-904d-a3b53470f43d","ios":"levelo://app?vid=07bb50dd-2fa1-40f9-904d-a3b53470f43d"},"vehicle_type_id":"4","last_reported":1730427627,"current_range_meters":12800,"station_id":"ce4bhoh2rcd13ifvqh5g","pricing_plan_id":"cebpf4jnsgd1na2vs0mg"},{"bike_id":"26101dbd-3eca-428e-82e5-68477268608e","system_id":"levelo_inurba_marseille","lat":43.29869,"lon":5.39733,"is_reserved":false,"is_disabled":false,"rental_uris":{"android":"levelo://app?vid=26101dbd-3eca-428e-82e5-68477268608e","ios":"levelo://app?vid=26101dbd-3eca-428e-82e5-68477268608e"},"vehicle_type_id":"4","last_reported":1730427627,"current_range_meters":30400,"station_id":"ce4bh0h2rcd13ifvqd50","pricing_plan_id":"cebpf4jnsgd1na2vs0mg"},{"bike_id":"60223806-a44d-4bd3-a685-de2b36919390","system_id":"levelo_inurba_marseille","lat":43.27605,"lon":5.38436,"is_reserved":false,"is_disabled":false,"rental_uris":{"android":"levelo://app?vid=60223806-a44d-4bd3-a685-de2b36919390","ios":"levelo://app?vid=60223806-a44d-4bd3-a685-de2b36919390"},"vehicle_type_id":"4","last_reported":1730427627,"current_range_meters":14800,"station_id":"ce4bhh92rcd13ifvqfi0","pricing_plan_id":"cebpf4jnsgd1na2vs0mg"},{"bike_id":"3d8c54e0-b8b0-4f3c-8415-8e80f18df626","system_id":"levelo_inurba_marseille","lat":43.29013,"lon":5.35604,"is_reserved":false,"is_disabled":false,"rental_uris":{"android":"levelo://app?vid=3d8c54e0-b8b0-4f3c-8415-8e80f18df626","ios":"levelo://app?vid=3d8c54e0-b8b0-4f3c-8415-8e80f18df626"},"vehicle_type_id":"4","last_reported":1730427627,"current_range_meters":40000,"station_id":"ce4bhb92rcd13ifvqen0","pricing_plan_id":"cebpf4jnsgd1na2vs0mg"},{"bike_id":"7e57f650-9611-43e9-8e9d-0037a90a6037","system_id":"levelo_inurba_marseille","lat":43.30933,"lon":5.40135,"is_reserved":false,"is_disabled":false,"rental_uris":{"android":"levelo://app?vid=7e57f650-9611-43e9-8e9d-0037a90a6037","ios":"levelo://app?vid=7e57f650-9611-43e9-8e9d-0037a90a6037"},"vehicle_type_id":"4","last_reported":1730427627,"current_range_meters":14400,"station_id":"ce4bgvp2rcd13ifvqct0","pricing_plan_id":"cebpf4jnsgd1na2vs0mg"},{"bike_id":"26de7c19-4534-4738-9b0d-5022f29b8b7a","system_id":"levelo_inurba_marseille","lat":43.30557,"lon":5.38425,"is_reserved":false,"is_disabled":false,"rental_uris":{"android":"levelo://app?vid=26de7c19-4534-4738-9b0d-5022f29b8b7a","ios":"levelo://app?vid=26de7c19-4534-4738-9b0d-5022f29b8b7a"},"vehicle_type_id":"4","last_reported":1730427627,"current_range_meters":38000,"station_id":"ce4bgg92rcd13ifvqb30","pricing_plan_id":"cebpf4jnsgd1na2vs0mg"},{"bike_id":"86974205-f656-457f-8477-0714ccf9136f","system_id":"levelo_inurba_marseille","lat":43.31334,"lon":5.397,"is_reserved":false,"is_disabled":false,"rental_uris":{"android":"levelo://app?vid=86974205-f656-457f-8477-0714ccf9136f","ios":"levelo://app?vid=86974205-f656-457f-8477-0714ccf9136f"},"vehicle_type_id":"4","last_reported":1730427627,"current_range_meters":38800,"station_id":"ce4bgvp2rcd13ifvqcu0","pricing_plan_id":"cebpf4jnsgd1na2vs0mg"},{"bike_id":"29c539ff-09c2-47df-8157-a6be4e1fc22d","system_id":"levelo_inurba_marseille","lat":43.32077,"lon":5.41548,"is_reserved":false,"is_disabled":false,"rental_uris":{"android":"levelo://app?vid=29c539ff-09c2-47df-8157-a6be4e1fc22d","ios":"levelo://app?vid=29c539ff-09c2-47df-8157-a6be4e1fc22d"},"vehicle_type_id":"4","last_reported":1730427627,"current_range_meters":32000,"station_id":"ce4bhq92rcd13ifvqhkg","pricing_plan_id":"cebpf4jnsgd1na2vs0mg"},{"bike_id":"ab226aa8-03f1-4a65-bdd9-846428a9c4e9","system_id":"levelo_inurba_marseille","lat":43.28078,"lon":5.39641,"is_reserved":false,"is_disabled":false,"rental_uris":{"android":"levelo://app?vid=ab226aa8-03f1-4a65-bdd9-846428a9c4e9","ios":"levelo://app?vid=ab226aa8-03f1-4a65-bdd9-846428a9c4e9"},"vehicle_type_id":"4","last_reported":1730427627,"current_range_meters":38000,"station_id":"ce4bho12rcd13ifvqh2g","pricing_plan_id":"cebpf4jnsgd1na2vs0mg"},{"bike_id":"30514b68-f146-4b5d-b222-45696243c2e4","system_id":"levelo_inurba_marseille","lat":43.25033,"lon":5.3947,"is_reserved":false,"is_disabled":false,"rental_uris":{"android":"levelo://app?vid=30514b68-f146-4b5d-b222-45696243c2e4","ios":"levelo://app?vid=30514b68-f146-4b5d-b222-45696243c2e4"},"vehicle_type_id":"4","last_reported":1730427627,"current_range_meters":25200,"station_id":"","pricing_plan_id":"cebpf4jnsgd1na2vs0mg"},{"bike_id":"91135560-0827-4820-8db7-18690afe81ab","system_id":"levelo_inurba_marseille","lat":43.30573,"lon":5.37194,"is_reserved":false,"is_disabled":false,"rental_uris":{"android":"levelo://app?vid=91135560-0827-4820-8db7-18690afe81ab","ios":"levelo://app?vid=91135560-0827-4820-8db7-18690afe81ab"},"vehicle_type_id":"4","last_reported":1730427627,"current_range_meters":38800,"station_id":"ce4bgqh2rcd13ifvqc4g","pricing_plan_id":"cebpf4jnsgd1na2vs0mg"},{"bike_id":"3e9a7492-84d6-4e6e-8365-3a6037a235a1","system_id":"levelo_inurba_marseille","lat":43.30546,"lon":5.38435,"is_reserved":false,"is_disabled":false,"rental_uris":{"android":"levelo://app?vid=3e9a7492-84d6-4e6e-8365-3a6037a235a1","ios":"levelo://app?vid=3e9a7492-84d6-4e6e-8365-3a6037a235a1"},"vehicle_type_id":"4","last_reported":1730427627,"current_range_meters":36400,"station_id":"ce4bgg92rcd13ifvqb30","pricing_plan_id":"cebpf4jnsgd1na2vs0mg"},{"bike_id":"30cd3637-5231-4451-8b17-3902824e2d98","system_id":"levelo_inurba_marseille","lat":43.31439,"lon":5.39291,"is_reserved":false,"is_disabled":false,"rental_uris":{"android":"levelo://app?vid=30cd3637-5231-4451-8b17-3902824e2d98","ios":"levelo://app?vid=30cd3637-5231-4451-8b17-3902824e2d98"},"vehicle_type_id":"4","last_reported":1730427627,"current_range_meters":18800,"station_id":"","pricing_plan_id":"cebpf4jnsgd1na2vs0mg"},{"bike_id":"6602d5b8-b601-428c-8806-9f0154c1a0c1","system_id":"levelo_inurba_marseille","lat":43.31214,"lon":5.36846,"is_reserved":false,"is_disabled":false,"rental_uris":{"android":"levelo://app?vid=6602d5b8-b601-428c-8806-9f0154c1a0c1","ios":"levelo://app?vid=6602d5b8-b601-428c-8806-9f0154c1a0c1"},"vehicle_type_id":"4","last_reported":1730427627,"current_range_meters":39200,"station_id":"ce4bgl92rcd13ifvqbq0","pricing_plan_id":"cebpf4jnsgd1na2vs0mg"},{"bike_id":"28108bb5-9f51-48c2-a1df-2cbfeb7a1737","system_id":"levelo_inurba_marseille","lat":43.27429,"lon":5.39382,"is_reserved":false,"is_disabled":false,"rental_uris":{"android":"levelo://app?vid=28108bb5-9f51-48c2-a1df-2cbfeb7a1737","ios":"levelo://app?vid=28108bb5-9f51-48c2-a1df-2cbfeb7a1737"},"vehicle_type_id":"4","last_reported":1730427627,"current_range_meters":19600,"station_id":"ce4bhdp2rcd13ifvqf20","pricing_plan_id":"cebpf4jnsgd1na2vs0mg"},{"bike_id":"1a42306b-60a4-428c-be70-5356ee634902","system_id":"levelo_inurba_marseille","lat":43.2926,"lon":5.40912,"is_reserved":false,"is_disabled":false,"rental_uris":{"android":"levelo://app?vid=1a42306b-60a4-428c-be70-5356ee634902","ios":"levelo://app?vid=1a42306b-60a4-428c-be70-5356ee634902"},"vehicle_type_id":"4","last_reported":1730427627,"current_range_meters":39200,"station_id":"ce4bh192rcd13ifvqdc0","pricing_plan_id":"cebpf4jnsgd1na2vs0mg"},{"bike_id":"e8c4e24f-476f-443e-b5f0-ef78d7e0d75f","system_id":"levelo_inurba_marseille","lat":43.31264,"lon":5.40167,"is_reserved":false,"is_disabled":false,"rental_uris":{"android":"levelo://app?vid=e8c4e24f-476f-443e-b5f0-ef78d7e0d75f","ios":"levelo://app?vid=e8c4e24f-476f-443e-b5f0-ef78d7e0d75f"},"vehicle_type_id":"4","last_reported":1730427627,"current_range_meters":8400,"station_id":"ce4bh092rcd13ifvqd30","pricing_plan_id":"cebpf4jnsgd1na2vs0mg"},{"bike_id":"c7f7dd00-73cf-47e2-9932-4d729fb183f4","system_id":"levelo_inurba_marseille","lat":43.28735,"lon":5.36076,"is_reserved":false,"is_disabled":false,"rental_uris":{"android":"levelo://app?vid=c7f7dd00-73cf-47e2-9932-4d729fb183f4","ios":"levelo://app?vid=c7f7dd00-73cf-47e2-9932-4d729fb183f4"},"vehicle_type_id":"4","last_reported":1730427627,"current_range_meters":24000,"station_id":"cki0cbj6b192h4jlfktg","pricing_plan_id":"cebpf4jnsgd1na2vs0mg"},{"bike_id":"3b72359c-0b98-4a8e-b99f-2321fec7f417","system_id":"levelo_inurba_marseille","lat":43.27839,"lon":5.392,"is_reserved":false,"is_disabled":false,"rental_uris":{"android":"levelo://app?vid=3b72359c-0b98-4a8e-b99f-2321fec7f417","ios":"levelo://app?vid=3b72359c-0b98-4a8e-b99f-2321fec7f417"},"vehicle_type_id":"4","last_reported":1730427627,"current_range_meters":39200,"station_id":"ce4bhjp2rcd13ifvqga0","pricing_plan_id":"cebpf4jnsgd1na2vs0mg"},{"bike_id":"f0e5ace2-4248-45d8-85fa-7c72eda5b42c","system_id":"levelo_inurba_marseille","lat":43.30612,"lon":5.37216,"is_reserved":false,"is_disabled":false,"rental_uris":{"android":"levelo://app?vid=f0e5ace2-4248-45d8-85fa-7c72eda5b42c","ios":"levelo://app?vid=f0e5ace2-4248-45d8-85fa-7c72eda5b42c"},"vehicle_type_id":"4","last_reported":1730427627,"current_range_meters":18000,"station_id":"ce4bgqh2rcd13ifvqc4g","pricing_plan_id":"cebpf4jnsgd1na2vs0mg"},{"bike_id":"f221aab7-1d6f-4b38-9b62-97b3a1fc5f0e","system_id":"levelo_inurba_marseille","lat":43.31488,"lon":5.37296,"is_reserved":false,"is_disabled":false,"rental_uris":{"android":"levelo://app?vid=f221aab7-1d6f-4b38-9b62-97b3a1fc5f0e","ios":"levelo://app?vid=f221aab7-1d6f-4b38-9b62-97b3a1fc5f0e"},"vehicle_type_id":"4","last_reported":1730427627,"current_range_meters":33200,"station_id":"ce4bgt12rcd13ifvqcd0","pricing_plan_id":"cebpf4jnsgd1na2vs0mg"},{"bike_id":"ff1ad15d-7921-4bb6-a0d7-4f4c743bb162","system_id":"levelo_inurba_marseille","lat":43.2989,"lon":5.36296,"is_reserved":false,"is_disabled":false,"rental_uris":{"android":"levelo://app?vid=ff1ad15d-7921-4bb6-a0d7-4f4c743bb162","ios":"levelo://app?vid=ff1ad15d-7921-4bb6-a0d7-4f4c743bb162"},"vehicle_type_id":"4","last_reported":1730427627,"current_range_meters":38400,"station_id":"ce4bgpp2rcd13ifvqc3g","pricing_plan_id":"cebpf4jnsgd1na2vs0mg"},{"bike_id":"afca572c-a2ee-44c1-a0ce-f6603bb69101","system_id":"levelo_inurba_marseille","lat":43.27837,"lon":5.39194,"is_reserved":false,"is_disabled":false,"rental_uris":{"android":"levelo://app?vid=afca572c-a2ee-44c1-a0ce-f6603bb69101","ios":"levelo://app?vid=afca572c-a2ee-44c1-a0ce-f6603bb69101"},"vehicle_type_id":"4","last_reported":1730427627,"current_range_meters":17600,"station_id":"ce4bhjp2rcd13ifvqga0","pricing_plan_id":"cebpf4jnsgd1na2vs0mg"},{"bike_id":"908aa492-23b5-4316-9077-9e957fdf5b2c","system_id":"levelo_inurba_marseille","lat":43.27976,"lon":5.41656,"is_reserved":false,"is_disabled":false,"rental_uris":{"android":"levelo://app?vid=908aa492-23b5-4316-9077-9e957fdf5b2c","ios":"levelo://app?vid=908aa492-23b5-4316-9077-9e957fdf5b2c"},"vehicle_type_id":"4","last_reported":1730427627,"current_range_meters":35600,"station_id":"ce4bho12rcd13ifvqh1g","pricing_plan_id":"cebpf4jnsgd1na2vs0mg"},{"bike_id":"58748d2a-dff2-4bfe-ba69-a9beed25e62c","system_id":"levelo_inurba_marseille","lat":43.27114,"lon":5.39453,"is_reserved":false,"is_disabled":false,"rental_uris":{"android":"levelo://app?vid=58748d2a-dff2-4bfe-ba69-a9beed25e62c","ios":"levelo://app?vid=58748d2a-dff2-4bfe-ba69-a9beed25e62c"},"vehicle_type_id":"4","last_reported":1730427627,"current_range_meters":26000,"station_id":"","pricing_plan_id":"cebpf4jnsgd1na2vs0mg"},{"bike_id":"08ed22d7-663d-413b-8e4a-a32596a7792f","system_id":"levelo_inurba_marseille","lat":43.32473,"lon":5.41563,"is_reserved":false,"is_disabled":false,"rental_uris":{"android":"levelo://app?vid=08ed22d7-663d-413b-8e4a-a32596a7792f","ios":"levelo://app?vid=08ed22d7-663d-413b-8e4a-a32596a7792f"},"vehicle_type_id":"4","last_reported":1730427627,"current_range_meters":38000,"station_id":"","pricing_plan_id":"cebpf4jnsgd1na2vs0mg"},{"bike_id":"04854eef-7766-458c-9757-24ae146e0c9d","system_id":"levelo_inurba_marseille","lat":43.27849,"lon":5.40709,"is_reserved":false,"is_disabled":false,"rental_uris":{"android":"levelo://app?vid=04854eef-7766-458c-9757-24ae146e0c9d","ios":"levelo://app?vid=04854eef-7766-458c-9757-24ae146e0c9d"},"vehicle_type_id":"4","last_reported":1730427627,"current_range_meters":38000,"station_id":"ce4bhnh2rcd13ifvqgtg","pricing_plan_id":"cebpf4jnsgd1na2vs0mg"},{"bike_id":"df7d8286-be6c-47f0-8973-2c9835f4f391","system_id":"levelo_inurba_marseille","lat":43.25085,"lon":5.39512,"is_reserved":false,"is_disabled":false,"rental_uris":{"android":"levelo://app?vid=df7d8286-be6c-47f0-8973-2c9835f4f391","ios":"levelo://app?vid=df7d8286-be6c-47f0-8973-2c9835f4f391"},"vehicle_type_id":"4","last_reported":1730427627,"current_range_meters":31200,"station_id":"ce4bhm12rcd13ifvqgkg","pricing_plan_id":"cebpf4jnsgd1na2vs0mg"},{"bike_id":"0c1fa554-cb95-4dfa-8261-ea86d45f5c7d","system_id":"levelo_inurba_marseille","lat":43.2845,"lon":5.392,"is_reserved":false,"is_disabled":false,"rental_uris":{"android":"levelo://app?vid=0c1fa554-cb95-4dfa-8261-ea86d45f5c7d","ios":"levelo://app?vid=0c1fa554-cb95-4dfa-8261-ea86d45f5c7d"},"vehicle_type_id":"4","last_reported":1730427627,"current_range_meters":37600,"station_id":"ce4bhoh2rcd13ifvqh5g","pricing_plan_id":"cebpf4jnsgd1na2vs0mg"},{"bike_id":"c557ff30-64af-48d0-84c0-028a6bb21719","system_id":"levelo_inurba_marseille","lat":43.28717,"lon":5.39973,"is_reserved":false,"is_disabled":false,"rental_uris":{"android":"levelo://app?vid=c557ff30-64af-48d0-84c0-028a6bb21719","ios":"levelo://app?vid=c557ff30-64af-48d0-84c0-028a6bb21719"},"vehicle_type_id":"4","last_reported":1730427627,"current_range_meters":7200,"station_id":"ce4bho92rcd13ifvqh3g","pricing_plan_id":"cebpf4jnsgd1na2vs0mg"},{"bike_id":"f55ea32c-004b-4f63-a8de-77397bb6e230","system_id":"levelo_inurba_marseille","lat":43.24388,"lon":5.37057,"is_reserved":false,"is_disabled":false,"rental_uris":{"android":"levelo://app?vid=f55ea32c-004b-4f63-a8de-77397bb6e230","ios":"levelo://app?vid=f55ea32c-004b-4f63-a8de-77397bb6e230"},"vehicle_type_id":"4","last_reported":1730427627,"current_range_meters":16000,"station_id":"ce4bhhh2rcd13ifvqfk0","pricing_plan_id":"cebpf4jnsgd1na2vs0mg"},{"bike_id":"a8bf15a2-3da0-456e-bd97-081c5a518dd1","system_id":"levelo_inurba_marseille","lat":43.27381,"lon":5.36262,"is_reserved":false,"is_disabled":false,"rental_uris":{"android":"levelo://app?vid=a8bf15a2-3da0-456e-bd97-081c5a518dd1","ios":"levelo://app?vid=a8bf15a2-3da0-456e-bd97-081c5a518dd1"},"vehicle_type_id":"4","last_reported":1730427627,"current_range_meters":38000,"station_id":"ce4bhbh2rcd13ifvqeo0","pricing_plan_id":"cebpf4jnsgd1na2vs0mg"},{"bike_id":"7659df96-0366-4c70-94f2-70e7459f8f8b","system_id":"levelo_inurba_marseille","lat":43.31252,"lon":5.36896,"is_reserved":false,"is_disabled":false,"rental_uris":{"android":"levelo://app?vid=7659df96-0366-4c70-94f2-70e7459f8f8b","ios":"levelo://app?vid=7659df96-0366-4c70-94f2-70e7459f8f8b"},"vehicle_type_id":"4","last_reported":1730427627,"current_range_meters":30800,"station_id":"ce4bgl92rcd13ifvqbq0","pricing_plan_id":"cebpf4jnsgd1na2vs0mg"},{"bike_id":"34f57b7a-fa97-4081-9883-6e4ee38af5fb","system_id":"levelo_inurba_marseille","lat":43.27903,"lon":5.38013,"is_reserved":false,"is_disabled":false,"rental_uris":{"android":"levelo://app?vid=34f57b7a-fa97-4081-9883-6e4ee38af5fb","ios":"levelo://app?vid=34f57b7a-fa97-4081-9883-6e4ee38af5fb"},"vehicle_type_id":"4","last_reported":1730427627,"current_range_meters":22000,"station_id":"ce4bhf92rcd13ifvqf50","pricing_plan_id":"cebpf4jnsgd1na2vs0mg"},{"bike_id":"94279a57-03c0-47b7-abe3-7226e86fd3b0","system_id":"levelo_inurba_marseille","lat":43.27618,"lon":5.36111,"is_reserved":false,"is_disabled":false,"rental_uris":{"android":"levelo://app?vid=94279a57-03c0-47b7-abe3-7226e86fd3b0","ios":"levelo://app?vid=94279a57-03c0-47b7-abe3-7226e86fd3b0"},"vehicle_type_id":"4","last_reported":1730427627,"current_range_meters":27200,"station_id":"ce4bgj92rcd13ifvqbe0","pricing_plan_id":"cebpf4jnsgd1na2vs0mg"},{"bike_id":"864a552f-87dd-464a-977f-d7ea2d5d0d29","system_id":"levelo_inurba_marseille","lat":43.27622,"lon":5.36104,"is_reserved":false,"is_disabled":false,"rental_uris":{"android":"levelo://app?vid=864a552f-87dd-464a-977f-d7ea2d5d0d29","ios":"levelo://app?vid=864a552f-87dd-464a-977f-d7ea2d5d0d29"},"vehicle_type_id":"4","last_reported":1730427627,"current_range_meters":24000,"station_id":"ce4bgj92rcd13ifvqbe0","pricing_plan_id":"cebpf4jnsgd1na2vs0mg"},{"bike_id":"c46c6b2d-5ec5-47f8-ada1-36d04dc0bf50","system_id":"levelo_inurba_marseille","lat":43.27548,"lon":5.36011,"is_reserved":false,"is_disabled":false,"rental_uris":{"android":"levelo://app?vid=c46c6b2d-5ec5-47f8-ada1-36d04dc0bf50","ios":"levelo://app?vid=c46c6b2d-5ec5-47f8-ada1-36d04dc0bf50"},"vehicle_type_id":"4","last_reported":1730427627,"current_range_meters":33200,"station_id":"","pricing_plan_id":"cebpf4jnsgd1na2vs0mg"},{"bike_id":"5bb5449c-bc62-4885-99ae-e3a4f4e14241","system_id":"levelo_inurba_marseille","lat":43.31326,"lon":5.39693,"is_reserved":false,"is_disabled":false,"rental_uris":{"android":"levelo://app?vid=5bb5449c-bc62-4885-99ae-e3a4f4e14241","ios":"levelo://app?vid=5bb5449c-bc62-4885-99ae-e3a4f4e14241"},"vehicle_type_id":"4","last_reported":1730427627,"current_range_meters":30400,"station_id":"ce4bgvp2rcd13ifvqcu0","pricing_plan_id":"cebpf4jnsgd1na2vs0mg"},{"bike_id":"a59de3a1-b5ee-4992-95d5-92d91d1b8221","system_id":"levelo_inurba_marseille","lat":43.25868,"lon":5.39903,"is_reserved":false,"is_disabled":false,"rental_uris":{"android":"levelo://app?vid=a59de3a1-b5ee-4992-95d5-92d91d1b8221","ios":"levelo://app?vid=a59de3a1-b5ee-4992-95d5-92d91d1b8221"},"vehicle_type_id":"4","last_reported":1730427627,"current_range_meters":34800,"station_id":"ce4bhl92rcd13ifvqghg","pricing_plan_id":"cebpf4jnsgd1na2vs0mg"},{"bike_id":"8a0bd193-24fa-4c05-a2cd-1d9d504a375a","system_id":"levelo_inurba_marseille","lat":43.32365,"lon":5.38864,"is_reserved":false,"is_disabled":false,"rental_uris":{"android":"levelo://app?vid=8a0bd193-24fa-4c05-a2cd-1d9d504a375a","ios":"levelo://app?vid=8a0bd193-24fa-4c05-a2cd-1d9d504a375a"},"vehicle_type_id":"4","last_reported":1730427627,"current_range_meters":35600,"station_id":"ce4bhqp2rcd13ifvqhog","pricing_plan_id":"cebpf4jnsgd1na2vs0mg"},{"bike_id":"ce7a9679-1309-4337-a277-05901a838b7d","system_id":"levelo_inurba_marseille","lat":43.29447,"lon":5.43393,"is_reserved":false,"is_disabled":false,"rental_uris":{"android":"levelo://app?vid=ce7a9679-1309-4337-a277-05901a838b7d","ios":"levelo://app?vid=ce7a9679-1309-4337-a277-05901a838b7d"},"vehicle_type_id":"4","last_reported":1730427627,"current_range_meters":18800,"station_id":"","pricing_plan_id":"cebpf4jnsgd1na2vs0mg"},{"bike_id":"cbc20dda-e445-42c5-8060-4766cad23f95","system_id":"levelo_inurba_marseille","lat":43.24062,"lon":5.37734,"is_reserved":false,"is_disabled":false,"rental_uris":{"android":"levelo://app?vid=cbc20dda-e445-42c5-8060-4766cad23f95","ios":"levelo://app?vid=cbc20dda-e445-42c5-8060-4766cad23f95"},"vehicle_type_id":"4","last_reported":1730427627,"current_range_meters":13600,"station_id":"ce4bhnp2rcd13ifvqgvg","pricing_plan_id":"cebpf4jnsgd1na2vs0mg"},{"bike_id":"742e3b39-99d0-477f-8dff-13676bdb1f4a","system_id":"levelo_inurba_marseille","lat":43.27068,"lon":5.42271,"is_reserved":false,"is_disabled":false,"rental_uris":{"android":"levelo://app?vid=742e3b39-99d0-477f-8dff-13676bdb1f4a","ios":"levelo://app?vid=742e3b39-99d0-477f-8dff-13676bdb1f4a"},"vehicle_type_id":"4","last_reported":1730427627,"current_range_meters":38000,"station_id":"ce4bhk92rcd13ifvqgb0","pricing_plan_id":"cebpf4jnsgd1na2vs0mg"},{"bike_id":"dcb8f151-5f72-4ce7-a41b-c8f44dd67b21","system_id":"levelo_inurba_marseille","lat":43.31364,"lon":5.38509,"is_reserved":false,"is_disabled":false,"rental_uris":{"android":"levelo://app?vid=dcb8f151-5f72-4ce7-a41b-c8f44dd67b21","ios":"levelo://app?vid=dcb8f151-5f72-4ce7-a41b-c8f44dd67b21"},"vehicle_type_id":"4","last_reported":1730427627,"current_range_meters":38800,"station_id":"ce4bgt92rcd13ifvqcf0","pricing_plan_id":"cebpf4jnsgd1na2vs0mg"},{"bike_id":"0327b2c3-a953-4a00-af49-25eb8099bcbf","system_id":"levelo_inurba_marseille","lat":43.31334,"lon":5.39707,"is_reserved":false,"is_disabled":false,"rental_uris":{"android":"levelo://app?vid=0327b2c3-a953-4a00-af49-25eb8099bcbf","ios":"levelo://app?vid=0327b2c3-a953-4a00-af49-25eb8099bcbf"},"vehicle_type_id":"4","last_reported":1730427627,"current_range_meters":40000,"station_id":"ce4bgvp2rcd13ifvqcu0","pricing_plan_id":"cebpf4jnsgd1na2vs0mg"},{"bike_id":"c4a6f998-92c9-40ef-844d-2b4720ad1720","system_id":"levelo_inurba_marseille","lat":43.24816,"lon":5.37448,"is_reserved":false,"is_disabled":false,"rental_uris":{"android":"levelo://app?vid=c4a6f998-92c9-40ef-844d-2b4720ad1720","ios":"levelo://app?vid=c4a6f998-92c9-40ef-844d-2b4720ad1720"},"vehicle_type_id":"4","last_reported":1730427627,"current_range_meters":11200,"station_id":"ce4bhgh2rcd13ifvqfb0","pricing_plan_id":"cebpf4jnsgd1na2vs0mg"},{"bike_id":"df891776-33ae-452f-bd82-592d9c59dac9","system_id":"levelo_inurba_marseille","lat":43.28001,"lon":5.40024,"is_reserved":false,"is_disabled":false,"rental_uris":{"android":"levelo://app?vid=df891776-33ae-452f-bd82-592d9c59dac9","ios":"levelo://app?vid=df891776-33ae-452f-bd82-592d9c59dac9"},"vehicle_type_id":"4","last_reported":1730427627,"current_range_meters":27200,"station_id":"ce4bho92rcd13ifvqh4g","pricing_plan_id":"cebpf4jnsgd1na2vs0mg"},{"bike_id":"6beb40b3-a83c-4877-9031-300bb62dfde5","system_id":"levelo_inurba_marseille","lat":43.31487,"lon":5.37308,"is_reserved":false,"is_disabled":false,"rental_uris":{"android":"levelo://app?vid=6beb40b3-a83c-4877-9031-300bb62dfde5","ios":"levelo://app?vid=6beb40b3-a83c-4877-9031-300bb62dfde5"},"vehicle_type_id":"4","last_reported":1730427627,"current_range_meters":38800,"station_id":"ce4bgt12rcd13ifvqcd0","pricing_plan_id":"cebpf4jnsgd1na2vs0mg"},{"bike_id":"a2c1f31f-0538-4f8b-824b-97e89e6738be","system_id":"levelo_inurba_marseille","lat":43.25727,"lon":5.41105,"is_reserved":false,"is_disabled":false,"rental_uris":{"android":"levelo://app?vid=a2c1f31f-0538-4f8b-824b-97e89e6738be","ios":"levelo://app?vid=a2c1f31f-0538-4f8b-824b-97e89e6738be"},"vehicle_type_id":"4","last_reported":1730427627,"current_range_meters":6800,"station_id":"ce4bhkp2rcd13ifvqgd0","pricing_plan_id":"cebpf4jnsgd1na2vs0mg"},{"bike_id":"402be0f5-93ce-4800-b27d-9d36e1ac2b42","system_id":"levelo_inurba_marseille","lat":43.25823,"lon":5.39438,"is_reserved":false,"is_disabled":false,"rental_uris":{"android":"levelo://app?vid=402be0f5-93ce-4800-b27d-9d36e1ac2b42","ios":"levelo://app?vid=402be0f5-93ce-4800-b27d-9d36e1ac2b42"},"vehicle_type_id":"4","last_reported":1730427627,"current_range_meters":30400,"station_id":"ce4bhip2rcd13ifvqft0","pricing_plan_id":"cebpf4jnsgd1na2vs0mg"},{"bike_id":"02ab60dd-f0a9-4f4d-bede-c1ec3ee07738","system_id":"levelo_inurba_marseille","lat":43.24164,"lon":5.36394,"is_reserved":false,"is_disabled":false,"rental_uris":{"android":"levelo://app?vid=02ab60dd-f0a9-4f4d-bede-c1ec3ee07738","ios":"levelo://app?vid=02ab60dd-f0a9-4f4d-bede-c1ec3ee07738"},"vehicle_type_id":"4","last_reported":1730427627,"current_range_meters":4800,"station_id":"cpo36qri1sfpv3e86is0","pricing_plan_id":"cebpf4jnsgd1na2vs0mg"},{"bike_id":"62d64370-de99-4731-a255-892887cfdcb6","system_id":"levelo_inurba_marseille","lat":43.3089,"lon":5.39651,"is_reserved":false,"is_disabled":false,"rental_uris":{"android":"levelo://app?vid=62d64370-de99-4731-a255-892887cfdcb6","ios":"levelo://app?vid=62d64370-de99-4731-a255-892887cfdcb6"},"vehicle_type_id":"4","last_reported":1730427627,"current_range_meters":35600,"station_id":"ce4bh012rcd13ifvqcv0","pricing_plan_id":"cebpf4jnsgd1na2vs0mg"},{"bike_id":"fc980a8b-57a0-4178-a4f7-51cea77885db","system_id":"levelo_inurba_marseille","lat":43.24072,"lon":5.37751,"is_reserved":false,"is_disabled":false,"rental_uris":{"android":"levelo://app?vid=fc980a8b-57a0-4178-a4f7-51cea77885db","ios":"levelo://app?vid=fc980a8b-57a0-4178-a4f7-51cea77885db"},"vehicle_type_id":"4","last_reported":1730427627,"current_range_meters":34800,"station_id":"ce4bhnp2rcd13ifvqgvg","pricing_plan_id":"cebpf4jnsgd1na2vs0mg"},{"bike_id":"fd0ae1a9-4d1e-4f1c-a2b4-548f0e463019","system_id":"levelo_inurba_marseille","lat":43.33604,"lon":5.41032,"is_reserved":false,"is_disabled":false,"rental_uris":{"android":"levelo://app?vid=fd0ae1a9-4d1e-4f1c-a2b4-548f0e463019","ios":"levelo://app?vid=fd0ae1a9-4d1e-4f1c-a2b4-548f0e463019"},"vehicle_type_id":"4","last_reported":1730427627,"current_range_meters":38000,"station_id":"ce4bhqh2rcd13ifvqhmg","pricing_plan_id":"cebpf4jnsgd1na2vs0mg"},