{"last_updated":1741010962,"ttl":60,"version":"2.2","data":{"bikes":[{"bike_id":"d7e36fa9-39df-4cf3-87bd-3007b93d992e","system_id":"levelo_inurba_marseille","lat":43.22935,"lon":5.35379,"is_reserved":false,"is_disabled":false,"rental_uris":{"android":"levelo://app?vid=d7e36fa9-39df-4cf3-87bd-3007b93d992e","ios":"levelo://app?vid=d7e36fa9-39df-4cf3-87bd-3007b93d992e"},"vehicle_type_id":"4","last_reported":1741010962,"current_range_meters":2800,"station_id":"cpo3532slgdg3j2ikp40","pricing_plan_id":"cebpf4jnsgd1na2vs0mg"},{"bike_id":"2b543f3a-7e69-4eba-86b2-cbc751ed269f","system_id":"levelo_inurba_marseille","lat":43.29049,"lon":5.35914,"is_reserved":false,"is_disabled":false,"rental_uris":{"android":"levelo://app?vid=2b543f3a-7e69-4eba-86b2-cbc751ed269f","ios":"levelo://app?vid=2b543f3a-7e69-4eba-86b2-cbc751ed269f"},"vehicle_type_id":"4","last_reported":1741010962,"current_range_meters":3200,"station_id":"ce4bha92rcd13ifvqeg0","pricing_plan_id":"cebpf4jnsgd1na2vs0mg"},{"bike_id":"fe2a57d1-8f14-4d92-90fc-50e4ac16c0d8","system_id":"levelo_inurba_marseille","lat":43.31274,"lon":5.40138,"is_reserved":false,"is_disabled":true,"rental_uris":{"android":"levelo://app?vid=fe2a57d1-8f14-4d92-90fc-50e4ac16c0d8","ios":"levelo://app?vid=fe2a57d1-8f14-4d92-90fc-50e4ac16c0d8"},"vehicle_type_id":"4","last_reported":1741010962,"current_range_meters":3200,"station_id":"ce4bh092rcd13ifvqd30","pricing_plan_id":"cebpf4jnsgd1na2vs0mg"},{"bike_id":"6a5d21c6-93cb-4da5-b24c-d83bb29431ad","system_id":"levelo_inurba_marseille","lat":43.31685,"lon":5.40476,"is_reserved":false,"is_disabled":false,"rental_uris":{"android":"levelo://app?vid=6a5d21c6-93cb-4da5-b24c-d83bb29431ad","ios":"levelo://app?vid=6a5d21c6-93cb-4da5-b24c-d83bb29431ad"},"vehicle_type_id":"4","last_reported":1741010962,"current_range_meters":3200,"station_id":"ce4bh012rcd13ifvqd00","pricing_plan_id":"cebpf4jnsgd1na2vs0mg"},{"bike_id":"db676ace-9aac-4f52-8910-74d5774cdf72","system_id":"levelo_inurba_marseille","lat":43.26947,"lon":5.38626,"is_reserved":false,"is_disabled":false,"rental_uris":{"android":"levelo://app?vid=db676ace-9aac-4f52-8910-74d5774cdf72","ios":"levelo://app?vid=db676ace-9aac-4f52-8910-74d5774cdf72"},"vehicle_type_id":"4","last_reported":1741010962,"current_range_meters":3600,"station_id":"ce4bhh92rcd13ifvqfh0","pricing_plan_id":"cebpf4jnsgd1na2vs0mg"},{"bike_id":"d100ddaf-7fdd-4b1a-aaf9-dfed2ce5123a","system_id":"levelo_inurba_marseille","lat":43.25815,"lon":5.39429,"is_reserved":false,"is_disabled":false,"rental_uris":{"android":"levelo://app?vid=d100ddaf-7fdd-4b1a-aaf9-dfed2ce5123a","ios":"levelo://app?vid=d100ddaf-7fdd-4b1a-aaf9-dfed2ce5123a"},"vehicle_type_id":"4","last_reported":1741010962,"current_range_meters":3600,"station_id":"ce4bhip2rcd13ifvqft0","pricing_plan_id":"cebpf4jnsgd1na2vs0mg"},{"bike_id":"c6e62e6b-67e3-40e8-a829-49745201f9e7","system_id":"levelo_inurba_marseille","lat":43.2782,"lon":5.40738,"is_reserved":false,"is_disabled":false,"rental_uris":{"android":"levelo://app?vid=c6e62e6b-67e3-40e8-a829-49745201f9e7","ios":"levelo://app?vid=c6e62e6b-67e3-40e8-a829-49745201f9e7"},"vehicle_type_id":"4","last_reported":1741010962,"current_range_meters":3600,"station_id":"ce4bhnh2rcd13ifvqgtg","pricing_plan_id":"cebpf4jnsgd1na2vs0mg"},{"bike_id":"f51a08a9-d0ec-4fa7-973e-acb3900430aa","system_id":"levelo_inurba_marseille","lat":43.27971,"lon":5.38741,"is_reserved":false,"is_disabled":false,"rental_uris":{"android":"levelo://app?vid=f51a08a9-d0ec-4fa7-973e-acb3900430aa","ios":"levelo://app?vid=f51a08a9-d0ec-4fa7-973e-acb3900430aa"},"vehicle_type_id":"4","last_reported":1741010962,"current_range_meters":4000,"station_id":"ce4bhg12rcd13ifvqf80","pricing_plan_id":"cebpf4jnsgd1na2vs0mg"},{"bike_id":"cc7338dd-2cbb-44ce-b92a-eff9112c1763","system_id":"levelo_inurba_marseille","lat":43.29575,"lon":5.37516,"is_reserved":false,"is_disabled":false,"rental_uris":{"android":"levelo://app?vid=cc7338dd-2cbb-44ce-b92a-eff9112c1763","ios":"levelo://app?vid=cc7338dd-2cbb-44ce-b92a-eff9112c1763"},"vehicle_type_id":"4","last_reported":1741010962,"current_range_meters":4000,"station_id":"ce4bgh92rcd13ifvqb50","pricing_plan_id":"cebpf4jnsgd1na2vs0mg"},{"bike_id":"d406c2eb-fa52-4dda-adff-40026b38c295","system_id":"levelo_inurba_marseille","lat":43.27562,"lon":5.3842,"is_reserved":false,"is_disabled":false,"rental_uris":{"android":"levelo://app?vid=d406c2eb-fa52-4dda-adff-40026b38c295","ios":"levelo://app?vid=d406c2eb-fa52-4dda-adff-40026b38c295"},"vehicle_type_id":"4","last_reported":1741010962,"current_range_meters":4000,"station_id":"ce4bhh92rcd13ifvqfi0","pricing_plan_id":"cebpf4jnsgd1na2vs0mg"},{"bike_id":"c8fdc079-d48e-4721-b3b1-5e7a4aedabf5","system_id":"levelo_inurba_marseille","lat":43.27816,"lon":5.40714,"is_reserved":false,"is_disabled":false,"rental_uris":{"android":"levelo://app?vid=c8fdc079-d48e-4721-b3b1-5e7a4aedabf5","ios":"levelo://app?vid=c8fdc079-d48e-4721-b3b1-5e7a4aedabf5"},"vehicle_type_id":"4","last_reported":1741010962,"current_range_meters":4000,"station_id":"ce4bhnh2rcd13ifvqgtg","pricing_plan_id":"cebpf4jnsgd1na2vs0mg"},{"bike_id":"8397e75c-a8e1-43c8-bb13-321b4d46e635","system_id":"levelo_inurba_marseille","lat":43.28828,"lon":5.35844,"is_reserved":false,"is_disabled":false,"rental_uris":{"android":"levelo://app?vid=8397e75c-a8e1-43c8-bb13-321b4d46e635","ios":"levelo://app?vid=8397e75c-a8e1-43c8-bb13-321b4d46e635"},"vehicle_type_id":"4","last_reported":1741010962,"current_range_meters":4000,"station_id":"ce4bhb12rcd13ifvqem0","pricing_plan_id":"cebpf4jnsgd1na2vs0mg"},{"bike_id":"69ef2291-d86d-44cd-b71d-de8a343dc35b","system_id":"levelo_inurba_marseille","lat":43.291975,"lon":5.358031,"is_reserved":false,"is_disabled":false,"rental_uris":{"android":"levelo://app?vid=69ef2291-d86d-44cd-b71d-de8a343dc35b","ios":"levelo://app?vid=69ef2291-d86d-44cd-b71d-de8a343dc35b"},"vehicle_type_id":"4","last_reported":1741010962,"current_range_meters":4400,"station_id":"ce4bh692rcd13ifvqea0","pricing_plan_id":"cebpf4jnsgd1na2vs0mg"},{"bike_id":"79dc2886-9457-4956-a315-0a4ca48ce21a","system_id":"levelo_inurba_marseille","lat":43.2982,"lon":5.36385,"is_reserved":false,"is_disabled":false,"rental_uris":{"android":"levelo://app?vid=79dc2886-9457-4956-a315-0a4ca48ce21a","ios":"levelo://app?vid=79dc2886-9457-4956-a315-0a4ca48ce21a"},"vehicle_type_id":"4","last_reported":1741010962,"current_range_meters":4800,"station_id":"","pricing_plan_id":"cebpf4jnsgd1na2vs0mg"},{"bike_id":"acc0a1d6-cbbf-4dac-86eb-21479649051a","system_id":"levelo_inurba_marseille","lat":43.29574,"lon":5.37507,"is_reserved":false,"is_disabled":false,"rental_uris":{"android":"levelo://app?vid=acc0a1d6-cbbf-4dac-86eb-21479649051a","ios":"levelo://app?vid=acc0a1d6-cbbf-4dac-86eb-21479649051a"},"vehicle_type_id":"4","last_reported":1741010962,"current_range_meters":4800,"station_id":"ce4bgh92rcd13ifvqb50","pricing_plan_id":"cebpf4jnsgd1na2vs0mg"},{"bike_id":"3dc7f799-bc46-44e7-bbb5-ad1a0666e85d","system_id":"levelo_inurba_marseille","lat":43.29197,"lon":5.40913,"is_reserved":false,"is_disabled":false,"rental_uris":{"android":"levelo://app?vid=3dc7f799-bc46-44e7-bbb5-ad1a0666e85d","ios":"levelo://app?vid=3dc7f799-bc46-44e7-bbb5-ad1a0666e85d"},"vehicle_type_id":"4","last_reported":1741010962,"current_range_meters":4800,"station_id":"","pricing_plan_id":"cebpf4jnsgd1na2vs0mg"},{"bike_id":"9a2cfcbc-052d-4c34-9fff-369b72072d59","system_id":"levelo_inurba_marseille","lat":43.28451,"lon":5.35896,"is_reserved":false,"is_disabled":false,"rental_uris":{"android":"levelo://app?vid=9a2cfcbc-052d-4c34-9fff-369b72072d59","ios":"levelo://app?vid=9a2cfcbc-052d-4c34-9fff-369b72072d59"},"vehicle_type_id":"4","last_reported":1741010962,"current_range_meters":4800,"station_id":"ce4bhah2rcd13ifvqei0","pricing_plan_id":"cebpf4jnsgd1na2vs0mg"},{"bike_id":"51da148d-156f-4c37-a526-22dad9efe32a","system_id":"levelo_inurba_marseille","lat":43.24057,"lon":5.37706,"is_reserved":false,"is_disabled":false,"rental_uris":{"android":"levelo://app?vid=51da148d-156f-4c37-a526-22dad9efe32a","ios":"levelo://app?vid=51da148d-156f-4c37-a526-22dad9efe32a"},"vehicle_type_id":"4","last_reported":1741010962,"current_range_meters":4800,"station_id":"ce4bhnp2rcd13ifvqgvg","pricing_plan_id":"cebpf4jnsgd1na2vs0mg"},{"bike_id":"fd2f59bc-1b83-4bc3-bc08-188bcdaca23a","system_id":"levelo_inurba_marseille","lat":43.26193,"lon":5.37454,"is_reserved":false,"is_disabled":false,"rental_uris":{"android":"levelo://app?vid=fd2f59bc-1b83-4bc3-bc08-188bcdaca23a","ios":"levelo://app?vid=fd2f59bc-1b83-4bc3-bc08-188bcdaca23a"},"vehicle_type_id":"4","last_reported":1741010962,"current_range_meters":4800,"station_id":"ce4bhgp2rcd13ifvqfc0","pricing_plan_id":"cebpf4jnsgd1na2vs0mg"},{"bike_id":"e8dcdfcf-4b4e-432e-9d2f-475e8cd4b0ac","system_id":"levelo_inurba_marseille","lat":43.241668,"lon":5.364054,"is_reserved":false,"is_disabled":false,"rental_uris":{"android":"levelo://app?vid=e8dcdfcf-4b4e-432e-9d2f-475e8cd4b0ac","ios":"levelo://app?vid=e8dcdfcf-4b4e-432e-9d2f-475e8cd4b0ac"},"vehicle_type_id":"4","last_reported":1741010962,"current_range_meters":5600,"station_id":"cpo36qri1sfpv3e86is0","pricing_plan_id":"cebpf4jnsgd1na2vs0mg"},{"bike_id":"313b4f01-186c-4874-b33c-678714ee6e4d","system_id":"levelo_inurba_marseille","lat":43.29609,"lon":5.38114,"is_reserved":false,"is_disabled":false,"rental_uris":{"android":"levelo://app?vid=313b4f01-186c-4874-b33c-678714ee6e4d","ios":"levelo://app?vid=313b4f01-186c-4874-b33c-678714ee6e4d"},"vehicle_type_id":"4","last_reported":1741010962,"current_range_meters":5600,"station_id":"ce4bgl12rcd13ifvqbo0","pricing_plan_id":"cebpf4jnsgd1na2vs0mg"},{"bike_id":"044c6927-2cce-4f72-874b-0ec861249b91","system_id":"levelo_inurba_marseille","lat":43.27207,"lon":5.39197,"is_reserved":false,"is_disabled":false,"rental_uris":{"android":"levelo://app?vid=044c6927-2cce-4f72-874b-0ec861249b91","ios":"levelo://app?vid=044c6927-2cce-4f72-874b-0ec861249b91"},"vehicle_type_id":"4","last_reported":1741010962,"current_range_meters":5600,"station_id":"ce4bhhp2rcd13ifvqfm0","pricing_plan_id":"cebpf4jnsgd1na2vs0mg"},{"bike_id":"0d5cf90d-aae1-4b99-9013-176b52001955","system_id":"levelo_inurba_marseille","lat":43.260518,"lon":5.38714,"is_reserved":false,"is_disabled":false,"rental_uris":{"android":"levelo://app?vid=0d5cf90d-aae1-4b99-9013-176b52001955","ios":"levelo://app?vid=0d5cf90d-aae1-4b99-9013-176b52001955"},"vehicle_type_id":"4","last_reported":1741010962,"current_range_meters":5600,"station_id":"ce4bhlh2rcd13ifvqgig","pricing_plan_id":"cebpf4jnsgd1na2vs0mg"},{"bike_id":"7294fa1b-6789-4d34-92da-72d6801cf1aa","system_id":"levelo_inurba_marseille","lat":43.32731,"lon":5.36281,"is_reserved":false,"is_disabled":false,"rental_uris":{"android":"levelo://app?vid=7294fa1b-6789-4d34-92da-72d6801cf1aa","ios":"levelo://app?vid=7294fa1b-6789-4d34-92da-72d6801cf1aa"},"vehicle_type_id":"4","last_reported":1741010962,"current_range_meters":5600,"station_id":"","pricing_plan_id":"cebpf4jnsgd1na2vs0mg"},{"bike_id":"bf216286-fc10-4d65-8516-fc2a1a05bbbd","system_id":"levelo_inurba_marseille","lat":43.27173,"lon":5.40994,"is_reserved":false,"is_disabled":false,"rental_uris":{"android":"levelo://app?vid=bf216286-fc10-4d65-8516-fc2a1a05bbbd","ios":"levelo://app?vid=bf216286-fc10-4d65-8516-fc2a1a05bbbd"},"vehicle_type_id":"4","last_reported":1741010962,"current_range_meters":6000,"station_id":"ce4bhl12rcd13ifvqgf0","pricing_plan_id":"cebpf4jnsgd1na2vs0mg"},{"bike_id":"c6e82cc7-0afe-46f8-b67b-9ca63f394cee","system_id":"levelo_inurba_marseille","lat":43.26554,"lon":5.37288,"is_reserved":false,"is_disabled":false,"rental_uris":{"android":"levelo://app?vid=c6e82cc7-0afe-46f8-b67b-9ca63f394cee","ios":"levelo://app?vid=c6e82cc7-0afe-46f8-b67b-9ca63f394cee"},"vehicle_type_id":"4","last_reported":1741010962,"current_range_meters":6400,"station_id":"ce4bhg12rcd13ifvqf70","pricing_plan_id":"cebpf4jnsgd1na2vs0mg"},{"bike_id":"8a3d5b40-eb12-47f6-995f-1d20a56234be","system_id":"levelo_inurba_marseille","lat":43.30545,"lon":5.3653,"is_reserved":false,"is_disabled":false,"rental_uris":{"android":"levelo://app?vid=8a3d5b40-eb12-47f6-995f-1d20a56234be","ios":"levelo://app?vid=8a3d5b40-eb12-47f6-995f-1d20a56234be"},"vehicle_type_id":"4","last_reported":1741010962,"current_range_meters":6400,"station_id":"ce4bgs12rcd13ifvqcag","pricing_plan_id":"cebpf4jnsgd1na2vs0mg"},{"bike_id":"cf1aa9f1-c558-49bb-a8d7-2ba6d1596585","system_id":"levelo_inurba_marseille","lat":43.28722,"lon":5.37934,"is_reserved":false,"is_disabled":false,"rental_uris":{"android":"levelo://app?vid=cf1aa9f1-c558-49bb-a8d7-2ba6d1596585","ios":"levelo://app?vid=cf1aa9f1-c558-49bb-a8d7-2ba6d1596585"},"vehicle_type_id":"4","last_reported":1741010962,"current_range_meters":6400,"station_id":"ce4bh9p2rcd13ifvqec0","pricing_plan_id":"cebpf4jnsgd1na2vs0mg"},{"bike_id":"b79e9a12-491e-4c25-a97c-2e5befd48ff8","system_id":"levelo_inurba_marseille","lat":43.27919,"lon":5.3958,"is_reserved":false,"is_disabled":false,"rental_uris":{"android":"levelo://app?vid=b79e9a12-491e-4c25-a97c-2e5befd48ff8","ios":"levelo://app?vid=b79e9a12-491e-4c25-a97c-2e5befd48ff8"},"vehicle_type_id":"4","last_reported":1741010962,"current_range_meters":6400,"station_id":"ce4bhf92rcd13ifvqf40","pricing_plan_id":"cebpf4jnsgd1na2vs0mg"},{"bike_id":"4c15e064-1f86-49ee-a1bc-bef8ef9f0f99","system_id":"levelo_inurba_marseille","lat":43.2923,"lon":5.38552,"is_reserved":false,"is_disabled":false,"rental_uris":{"android":"levelo://app?vid=4c15e064-1f86-49ee-a1bc-bef8ef9f0f99","ios":"levelo://app?vid=4c15e064-1f86-49ee-a1bc-bef8ef9f0f99"},"vehicle_type_id":"4","last_reported":1741010962,"current_range_meters":6800,"station_id":"ce4bh692rcd13ifvqea0","pricing_plan_id":"cebpf4jnsgd1na2vs0mg"},{"bike_id":"8daa01ca-6ffc-478e-a215-1b46b7198c15","system_id":"levelo_inurba_marseille","lat":43.24035,"lon":5.37742,"is_reserved":false,"is_disabled":false,"rental_uris":{"android":"levelo://app?vid=8daa01ca-6ffc-478e-a215-1b46b7198c15","ios":"levelo://app?vid=8daa01ca-6ffc-478e-a215-1b46b7198c15"},"vehicle_type_id":"4","last_reported":1741010962,"current_range_meters":6800,"station_id":"ce4bhnp2rcd13ifvqgvg","pricing_plan_id":"cebpf4jnsgd1na2vs0mg"},{"bike_id":"f4c7dd89-b40a-4625-a20e-daa4d466227e","system_id":"levelo_inurba_marseille","lat":43.24099,"lon":5.37769,"is_reserved":false,"is_disabled":false,"rental_uris":{"android":"levelo://app?vid=f4c7dd89-b40a-4625-a20e-daa4d466227e","ios":"levelo://app?vid=f4c7dd89-b40a-4625-a20e-daa4d466227e"},"vehicle_type_id":"4","last_reported":1741010962,"current_range_meters":6800,"station_id":"ce4bhnp2rcd13ifvqgvg","pricing_plan_id":"cebpf4jnsgd1na2vs0mg"},{"bike_id":"45dc174f-ac2d-4a15-b08b-9824a8e53747","system_id":"levelo_inurba_marseille","lat":43.33023,"lon":5.39043,"is_reserved":false,"is_disabled":false,"rental_uris":{"android":"levelo://app?vid=45dc174f-ac2d-4a15-b08b-9824a8e53747","ios":"levelo://app?vid=45dc174f-ac2d-4a15-b08b-9824a8e53747"},"vehicle_type_id":"4","last_reported":1741010962,"current_range_meters":6800,"station_id":"ce4bhr92rcd13ifvqhrg","pricing_plan_id":"cebpf4jnsgd1na2vs0mg"},{"bike_id":"5c8b5a6c-0c8f-4be7-9cdc-0fd649eedd34","system_id":"levelo_inurba_marseille","lat":43.23139,"lon":5.43721,"is_reserved":false,"is_disabled":false,"rental_uris":{"android":"levelo://app?vid=5c8b5a6c-0c8f-4be7-9cdc-0fd649eedd34","ios":"levelo://app?vid=5c8b5a6c-0c8f-4be7-9cdc-0fd649eedd34"},"vehicle_type_id":"4","last_reported":1741010962,"current_range_meters":7200,"station_id":"ce4bhmp2rcd13ifvqgog","pricing_plan_id":"cebpf4jnsgd1na2vs0mg"},{"bike_id":"4adb6282-5525-4265-b332-f0effff22887","system_id":"levelo_inurba_marseille","lat":43.25925,"lon":5.4087,"is_reserved":false,"is_disabled":false,"rental_uris":{"android":"levelo://app?vid=4adb6282-5525-4265-b332-f0effff22887","ios":"levelo://app?vid=4adb6282-5525-4265-b332-f0effff22887"},"vehicle_type_id":"4","last_reported":1741010962,"current_range_meters":7200,"station_id":"ce4bhm92rcd13ifvqglg","pricing_plan_id":"cebpf4jnsgd1na2vs0mg"},{"bike_id":"40d27bee-2f0d-42b8-aa88-058177592e6c","system_id":"levelo_inurba_marseille","lat":43.29524,"lon":5.39037,"is_reserved":false,"is_disabled":false,"rental_uris":{"android":"levelo://app?vid=40d27bee-2f0d-42b8-aa88-058177592e6c","ios":"levelo://app?vid=40d27bee-2f0d-42b8-aa88-058177592e6c"},"vehicle_type_id":"4","last_reported":1741010962,"current_range_meters":7200,"station_id":"ce4bh3p2rcd13ifvqdp0","pricing_plan_id":"cebpf4jnsgd1na2vs0mg"},{"bike_id":"25eb343a-fbd9-441a-8834-980069854a8b","system_id":"levelo_inurba_marseille","lat":43.24391,"lon":5.37069,"is_reserved":false,"is_disabled":false,"rental_uris":{"android":"levelo://app?vid=25eb343a-fbd9-441a-8834-980069854a8b","ios":"levelo://app?vid=25eb343a-fbd9-441a-8834-980069854a8b"},"vehicle_type_id":"4","last_reported":1741010962,"current_range_meters":7200,"station_id":"ce4bhhh2rcd13ifvqfk0","pricing_plan_id":"cebpf4jnsgd1na2vs0mg"},{"bike_id":"9522ef6b-12d5-4fb7-ad55-ff710da190cb","system_id":"levelo_inurba_marseille","lat":43.28952,"lon":5.36635,"is_reserved":false,"is_disabled":false,"rental_uris":{"android":"levelo://app?vid=9522ef6b-12d5-4fb7-ad55-ff710da190cb","ios":"levelo://app?vid=9522ef6b-12d5-4fb7-ad55-ff710da190cb"},"vehicle_type_id":"4","last_reported":1741010962,"current_range_meters":7200,"station_id":"ce4bhap2rcd13ifvqek0","pricing_plan_id":"cebpf4jnsgd1na2vs0mg"},{"bike_id":"20ba6c12-66d0-4204-8dea-16fe37cf2043","system_id":"levelo_inurba_marseille","lat":43.29188,"lon":5.35798,"is_reserved":false,"is_disabled":false,"rental_uris":{"android":"levelo://app?vid=20ba6c12-66d0-4204-8dea-16fe37cf2043","ios":"levelo://app?vid=20ba6c12-66d0-4204-8dea-16fe37cf2043"},"vehicle_type_id":"4","last_reported":1741010962,"current_range_meters":8000,"station_id":"ce4bhb12rcd13ifvqel0","pricing_plan_id":"cebpf4jnsgd1na2vs0mg"},{"bike_id":"81e75a7d-0d2c-4e50-af53-c3213910a14f","system_id":"levelo_inurba_marseille","lat":43.27685,"lon":5.38915,"is_reserved":false,"is_disabled":false,"rental_uris":{"android":"levelo://app?vid=81e75a7d-0d2c-4e50-af53-c3213910a14f","ios":"levelo://app?vid=81e75a7d-0d2c-4e50-af53-c3213910a14f"},"vehicle_type_id":"4","last_reported":1741010962,"current_range_meters":8000,"station_id":"ce4bhi12rcd13ifvqfo0","pricing_plan_id":"cebpf4jnsgd1na2vs0mg"},{"bike_id":"07f2e212-3905-4d9d-b8e8-75cfe1837b05","system_id":"levelo_inurba_marseille","lat":43.27985,"lon":5.38735,"is_reserved":false,"is_disabled":false,"rental_uris":{"android":"levelo://app?vid=07f2e212-3905-4d9d-b8e8-75cfe1837b05","ios":"levelo://app?vid=07f2e212-3905-4d9d-b8e8-75cfe1837b05"},"vehicle_type_id":"4","last_reported":1741010962,"current_range_meters":8000,"station_id":"ce4bhg12rcd13ifvqf80","pricing_plan_id":"cebpf4jnsgd1na2vs0mg"},{"bike_id":"6496907b-d4d5-4880-9aa3-fc3a9bc77e8a","system_id":"levelo_inurba_marseille","lat":43.281,"lon":5.37836,"is_reserved":false,"is_disabled":false,"rental_uris":{"android":"levelo://app?vid=6496907b-d4d5-4880-9aa3-fc3a9bc77e8a","ios":"levelo://app?vid=6496907b-d4d5-4880-9aa3-fc3a9bc77e8a"},"vehicle_type_id":"4","last_reported":1741010962,"current_range_meters":8000,"station_id":"ce4bha12rcd13ifvqee0","pricing_plan_id":"cebpf4jnsgd1na2vs0mg"},{"bike_id":"e2f8993b-c738-4706-9ce6-5800bd6ffa22","system_id":"levelo_inurba_marseille","lat":43.24545,"lon":5.39539,"is_reserved":false,"is_disabled":false,"rental_uris":{"android":"levelo://app?vid=e2f8993b-c738-4706-9ce6-5800bd6ffa22","ios":"levelo://app?vid=e2f8993b-c738-4706-9ce6-5800bd6ffa22"},"vehicle_type_id":"4","last_reported":1741010962,"current_range_meters":8000,"station_id":"ce4bhlp2rcd13ifvqgjg","pricing_plan_id":"cebpf4jnsgd1na2vs0mg"},{"bike_id":"96825478-5d07-4d4d-87d9-2b762c7d51be","system_id":"levelo_inurba_marseille","lat":43.27942,"lon":5.38706,"is_reserved":false,"is_disabled":false,"rental_uris":{"android":"levelo://app?vid=96825478-5d07-4d4d-87d9-2b762c7d51be","ios":"levelo://app?vid=96825478-5d07-4d4d-87d9-2b762c7d51be"},"vehicle_type_id":"4","last_reported":1741010962,"current_range_meters":8000,"station_id":"ce4bhg12rcd13ifvqf80","pricing_plan_id":"cebpf4jnsgd1na2vs0mg"},{"bike_id":"a00d07f9-31d2-4a8d-b4d8-0444819c818f","system_id":"levelo_inurba_marseille","lat":43.24056,"lon":5.37727,"is_reserved":false,"is_disabled":false,"rental_uris":{"android":"levelo://app?vid=a00d07f9-31d2-4a8d-b4d8-0444819c818f","ios":"levelo://app?vid=a00d07f9-31d2-4a8d-b4d8-0444819c818f"},"vehicle_type_id":"4","last_reported":1741010962,"current_range_meters":8000,"station_id":"ce4bhnp2rcd13ifvqgvg","pricing_plan_id":"cebpf4jnsgd1na2vs0mg"},{"bike_id":"5cd0c11b-f9d6-428f-9f34-0abc9c264bfe","system_id":"levelo_inurba_marseille","lat":43.28001,"lon":5.41675,"is_reserved":false,"is_disabled":false,"rental_uris":{"android":"levelo://app?vid=5cd0c11b-f9d6-428f-9f34-0abc9c264bfe","ios":"levelo://app?vid=5cd0c11b-f9d6-428f-9f34-0abc9c264bfe"},"vehicle_type_id":"4","last_reported":1741010962,"current_range_meters":8000,"station_id":"ce4bho12rcd13ifvqh1g","pricing_plan_id":"cebpf4jnsgd1na2vs0mg"},{"bike_id":"930c6040-432d-45cd-843d-a0fafcbf7eca","system_id":"levelo_inurba_marseille","lat":43.33603,"lon":5.4102,"is_reserved":false,"is_disabled":false,"rental_uris":{"android":"levelo://app?vid=930c6040-432d-45cd-843d-a0fafcbf7eca","ios":"levelo://app?vid=930c6040-432d-45cd-843d-a0fafcbf7eca"},"vehicle_type_id":"4","last_reported":1741010962,"current_range_meters":8000,"station_id":"ce4bhqh2rcd13ifvqhmg","pricing_plan_id":"cebpf4jnsgd1na2vs0mg"},{"bike_id":"78e857c7-5d49-4349-88b4-37d0b9c30915","system_id":"levelo_inurba_marseille","lat":43.27066,"lon":5.40282,"is_reserved":false,"is_disabled":false,"rental_uris":{"android":"levelo://app?vid=78e857c7-5d49-4349-88b4-37d0b9c30915","ios":"levelo://app?vid=78e857c7-5d49-4349-88b4-37d0b9c30915"},"vehicle_type_id":"4","last_reported":1741010962,"current_range_meters":8000,"station_id":"ce4bhk92rcd13ifvqgc0","pricing_plan_id":"cebpf4jnsgd1na2vs0mg"},{"bike_id":"fb1bc0a7-7fea-41b9-b0d2-e3e08723bbb9","system_id":"levelo_inurba_marseille","lat":43.28602,"lon":5.35115,"is_reserved":false,"is_disabled":false,"rental_uris":{"android":"levelo://app?vid=fb1bc0a7-7fea-41b9-b0d2-e3e08723bbb9","ios":"levelo://app?vid=fb1bc0a7-7fea-41b9-b0d2-e3e08723bbb9"},"vehicle_type_id":"4","last_reported":1741010962,"current_range_meters":8000,"station_id":"ce4bhch2rcd13ifvqeug","pricing_plan_id":"cebpf4jnsgd1na2vs0mg"},{"bike_id":"3893e12c-30db-4b44-a046-c2e386e252e1","system_id":"levelo_inurba_marseille","lat":43.25086,"lon":5.39518,"is_reserved":false,"is_disabled":false,"rental_uris":{"android":"levelo://app?vid=3893e12c-30db-4b44-a046-c2e386e252e1","ios":"levelo://app?vid=3893e12c-30db-4b44-a046-c2e386e252e1"},"vehicle_type_id":"4","last_reported":1741010962,"current_range_meters":8400,"station_id":"ce4bhm12rcd13ifvqgkg","pricing_plan_id":"cebpf4jnsgd1na2vs0mg"},{"bike_id":"15de8c86-6bba-4ae0-9b82-ccdae83b175b","system_id":"levelo_inurba_marseille","lat":43.311707,"lon":5.38722,"is_reserved":false,"is_disabled":false,"rental_uris":{"android":"levelo://app?vid=15de8c86-6bba-4ae0-9b82-ccdae83b175b","ios":"levelo://app?vid=15de8c86-6bba-4ae0-9b82-ccdae83b175b"},"vehicle_type_id":"4","last_reported":1741010962,"current_range_meters":8400,"station_id":"ce4bgjp2rcd13ifvqbh0","pricing_plan_id":"cebpf4jnsgd1na2vs0mg"},{"bike_id":"5da70b26-5045-4fcf-85cf-7f68a925e135","system_id":"levelo_inurba_marseille","lat":43.2799,"lon":5.41677,"is_reserved":false,"is_disabled":false,"rental_uris":{"android":"levelo://app?vid=5da70b26-5045-4fcf-85cf-7f68a925e135","ios":"levelo://app?vid=5da70b26-5045-4fcf-85cf-7f68a925e135"},"vehicle_type_id":"4","last_reported":1741010962,"current_range_meters":8400,"station_id":"ce4bho12rcd13ifvqh1g","pricing_plan_id":"cebpf4jnsgd1na2vs0mg"},{"bike_id":"deab7ae2-98a7-4de6-ad7b-c188cfbb091e","system_id":"levelo_inurba_marseille","lat":43.24072,"lon":5.37756,"is_reserved":false,"is_disabled":false,"rental_uris":{"android":"levelo://app?vid=deab7ae2-98a7-4de6-ad7b-c188cfbb091e","ios":"levelo://app?vid=deab7ae2-98a7-4de6-ad7b-c188cfbb091e"},"vehicle_type_id":"4","last_reported":1741010962,"current_range_meters":8400,"station_id":"ce4bhnp2rcd13ifvqgvg","pricing_plan_id":"cebpf4jnsgd1na2vs0mg"},{"bike_id":"7cf1fd01-db90-4679-a6bb-9832c62fcefa","system_id":"levelo_inurba_marseille","lat":43.26052,"lon":5.39391,"is_reserved":false,"is_disabled":false,"rental_uris":{"android":"levelo://app?vid=7cf1fd01-db90-4679-a6bb-9832c62fcefa","ios":"levelo://app?vid=7cf1fd01-db90-4679-a6bb-9832c62fcefa"},"vehicle_type_id":"4","last_reported":1741010962,"current_range_meters":8800,"station_id":"ce4bhh92rcd13ifvqfj0","pricing_plan_id":"cebpf4jnsgd1na2vs0mg"},{"bike_id":"1e53b293-feb6-4144-b9a0-481076146924","system_id":"levelo_inurba_marseille","lat":43.28451,"lon":5.35885,"is_reserved":false,"is_disabled":false,"rental_uris":{"android":"levelo://app?vid=1e53b293-feb6-4144-b9a0-481076146924","ios":"levelo://app?vid=1e53b293-feb6-4144-b9a0-481076146924"},"vehicle_type_id":"4","last_reported":1741010962,"current_range_meters":8800,"station_id":"ce4bhah2rcd13ifvqei0","pricing_plan_id":"cebpf4jnsgd1na2vs0mg"},{"bike_id":"fd32c1c7-6ec8-489e-8d74-a0f7dd65b30c","system_id":"levelo_inurba_marseille","lat":43.23172,"lon":5.43711,"is_reserved":false,"is_disabled":false,"rental_uris":{"android":"levelo://app?vid=fd32c1c7-6ec8-489e-8d74-a0f7dd65b30c","ios":"levelo://app?vid=fd32c1c7-6ec8-489e-8d74-a0f7dd65b30c"},"vehicle_type_id":"4","last_reported":1741010962,"current_range_meters":8800,"station_id":"ce4bhmp2rcd13ifvqgog","pricing_plan_id":"cebpf4jnsgd1na2vs0mg"},{"bike_id":"1808ccc6-d295-4f5e-beb6-1400f13c98a2","system_id":"levelo_inurba_marseille","lat":43.28158,"lon":5.42637,"is_reserved":false,"is_disabled":false,"rental_uris":{"android":"levelo://app?vid=1808ccc6-d295-4f5e-beb6-1400f13c98a2","ios":"levelo://app?vid=1808ccc6-d295-4f5e-beb6-1400f13c98a2"},"vehicle_type_id":"4","last_reported":1741010962,"current_range_meters":9200,"station_id":"ce4bhnh2rcd13ifvqgug","pricing_plan_id":"cebpf4jnsgd1na2vs0mg"},{"bike_id":"c4927cfc-d0f6-4b84-af26-fece366ceca5","system_id":"levelo_inurba_marseille","lat":43.29199,"lon":5.358,"is_reserved":false,"is_disabled":false,"rental_uris":{"android":"levelo://app?vid=c4927cfc-d0f6-4b84-af26-fece366ceca5","ios":"levelo://app?vid=c4927cfc-d0f6-4b84-af26-fece366ceca5"},"vehicle_type_id":"4","last_reported":1741010962,"current_range_meters":9200,"station_id":"ce4bhb12rcd13ifvqel0","pricing_plan_id":"cebpf4jnsgd1na2vs0mg"},{"bike_id":"0fca0d86-539a-4bbc-822f-78228a99a620","system_id":"levelo_inurba_marseille","lat":43.33012,"lon":5.39042,"is_reserved":false,"is_disabled":true,"rental_uris":{"android":"levelo://app?vid=0fca0d86-539a-4bbc-822f-78228a99a620","ios":"levelo://app?vid=0fca0d86-539a-4bbc-822f-78228a99a620"},"vehicle_type_id":"4","last_reported":1741010962,"current_range_meters":9200,"station_id":"ce4bhr92rcd13ifvqhrg","pricing_plan_id":"cebpf4jnsgd1na2vs0mg"},{"bike_id":"6500699d-c4d0-43e8-8973-0f682c36684d","system_id":"levelo_inurba_marseille","lat":43.23152,"lon":5.43714,"is_reserved":false,"is_disabled":false,"rental_uris":{"android":"levelo://app?vid=6500699d-c4d0-43e8-8973-0f682c36684d","ios":"levelo://app?vid=6500699d-c4d0-43e8-8973-0f682c36684d"},"vehicle_type_id":"4","last_reported":1741010962,"current_range_meters":9600,"station_id":"ce4bhmp2rcd13ifvqgog","pricing_plan_id":"cebpf4jnsgd1na2vs0mg"},{"bike_id":"618df4b6-8fd4-4ef1-b13a-45a74fe4b862","system_id":"levelo_inurba_marseille","lat":43.24072,"lon":5.3775,"is_reserved":false,"is_disabled":false,"rental_uris":{"android":"levelo://app?vid=618df4b6-8fd4-4ef1-b13a-45a74fe4b862","ios":"levelo://app?vid=618df4b6-8fd4-4ef1-b13a-45a74fe4b862"},"vehicle_type_id":"4","last_reported":1741010962,"current_range_meters":9600,"station_id":"ce4bhnp2rcd13ifvqgvg","pricing_plan_id":"cebpf4jnsgd1na2vs0mg"},{"bike_id":"c42bcc4f-becd-4679-8a4c-ef3f653cddd5","system_id":"levelo_inurba_marseille","lat":43.25492,"lon":5.3765,"is_reserved":false,"is_disabled":false,"rental_uris":{"android":"levelo://app?vid=c42bcc4f-becd-4679-8a4c-ef3f653cddd5","ios":"levelo://app?vid=c42bcc4f-becd-4679-8a4c-ef3f653cddd5"},"vehicle_type_id":"4","last_reported":1741010962,"current_range_meters":9600,"station_id":"ce4bhh12rcd13ifvqff0","pricing_plan_id":"cebpf4jnsgd1na2vs0mg"},{"bike_id":"f9b7954c-cbb9-4a60-8c73-add0575714b1","system_id":"levelo_inurba_marseille","lat":43.2969,"lon":5.37301,"is_reserved":false,"is_disabled":false,"rental_uris":{"android":"levelo://app?vid=f9b7954c-cbb9-4a60-8c73-add0575714b1","ios":"levelo://app?vid=f9b7954c-cbb9-4a60-8c73-add0575714b1"},"vehicle_type_id":"4","last_reported":1741010962,"current_range_meters":9600,"station_id":"ce4bgk12rcd13ifvqbj0","pricing_plan_id":"cebpf4jnsgd1na2vs0mg"},{"bike_id":"eb0244f3-e4bf-4408-a10a-3d9b0bd124b7","system_id":"levelo_inurba_marseille","lat":43.24678,"lon":5.38133,"is_reserved":false,"is_disabled":false,"rental_uris":{"android":"levelo://app?vid=eb0244f3-e4bf-4408-a10a-3d9b0bd124b7","ios":"levelo://app?vid=eb0244f3-e4bf-4408-a10a-3d9b0bd124b7"},"vehicle_type_id":"4","last_reported":1741010962,"current_range_meters":9600,"station_id":"ce4bhih2rcd13ifvqfr0","pricing_plan_id":"cebpf4jnsgd1na2vs0mg"},{"bike_id":"4ca9b020-4e00-4cc7-96f2-8562e62dcc86","system_id":"levelo_inurba_marseille","lat":43.31167,"lon":5.38728,"is_reserved":false,"is_disabled":false,"rental_uris":{"android":"levelo://app?vid=4ca9b020-4e00-4cc7-96f2-8562e62dcc86","ios":"levelo://app?vid=4ca9b020-4e00-4cc7-96f2-8562e62dcc86"},"vehicle_type_id":"4","last_reported":1741010962,"current_range_meters":9600,"station_id":"ce4bgv12rcd13ifvqcp0","pricing_plan_id":"cebpf4jnsgd1na2vs0mg"},{"bike_id":"e41e0bb8-6c1c-4ce2-b18d-069e130ca183","system_id":"levelo_inurba_marseille","lat":43.2306,"lon":5.3549,"is_reserved":false,"is_disabled":false,"rental_uris":{"android":"levelo://app?vid=e41e0bb8-6c1c-4ce2-b18d-069e130ca183","ios":"levelo://app?vid=e41e0bb8-6c1c-4ce2-b18d-069e130ca183"},"vehicle_type_id":"4","last_reported":1741010962,"current_range_meters":9600,"station_id":"cpo3342slgdg3j2ifvpg","pricing_plan_id":"cebpf4jnsgd1na2vs0mg"},{"bike_id":"6b899bea-78cf-4c6a-ac3d-4e2040b0fef6","system_id":"levelo_inurba_marseille","lat":43.30135,"lon":5.37427,"is_reserved":false,"is_disabled":false,"rental_uris":{"android":"levelo://app?vid=6b899bea-78cf-4c6a-ac3d-4e2040b0fef6","ios":"levelo://app?vid=6b899bea-78cf-4c6a-ac3d-4e2040b0fef6"},"vehicle_type_id":"4","last_reported":1741010962,"current_range_meters":9600,"station_id":"ce4bgs92rcd13ifvqcc0","pricing_plan_id":"cebpf4jnsgd1na2vs0mg"},{"bike_id":"ce8ef3d2-07e3-4512-8813-bcde53a01429","system_id":"levelo_inurba_marseille","lat":43.24166,"lon":5.36391,"is_reserved":false,"is_disabled":false,"rental_uris":{"android":"levelo://app?vid=ce8ef3d2-07e3-4512-8813-bcde53a01429","ios":"levelo://app?vid=ce8ef3d2-07e3-4512-8813-bcde53a01429"},"vehicle_type_id":"4","last_reported":1741010962,"current_range_meters":10000,"station_id":"cpo36qri1sfpv3e86is0","pricing_plan_id":"cebpf4jnsgd1na2vs0mg"},{"bike_id":"a9b562fc-6d96-4c06-a149-e6b9630324d5","system_id":"levelo_inurba_marseille","lat":43.23059,"lon":5.35497,"is_reserved":false,"is_disabled":false,"rental_uris":{"android":"levelo://app?vid=a9b562fc-6d96-4c06-a149-e6b9630324d5","ios":"levelo://app?vid=a9b562fc-6d96-4c06-a149-e6b9630324d5"},"vehicle_type_id":"4","last_reported":1741010962,"current_range_meters":10000,"station_id":"cpo3342slgdg3j2ifvpg","pricing_plan_id":"cebpf4jnsgd1na2vs0mg"},{"bike_id":"860b9798-e64c-4209-b740-61192aa16f5e","system_id":"levelo_inurba_marseille","lat":43.2894,"lon":5.36646,"is_reserved":false,"is_disabled":false,"rental_uris":{"android":"levelo://app?vid=860b9798-e64c-4209-b740-61192aa16f5e","ios":"levelo://app?vid=860b9798-e64c-4209-b740-61192aa16f5e"},"vehicle_type_id":"4","last_reported":1741010962,"current_range_meters":10000,"station_id":"ce4bhap2rcd13ifvqek0","pricing_plan_id":"cebpf4jnsgd1na2vs0mg"},{"bike_id":"69c64ec9-e24d-4807-ad49-cbbbaf87179a","system_id":"levelo_inurba_marseille","lat":43.26951,"lon":5.40246,"is_reserved":false,"is_disabled":false,"rental_uris":{"android":"levelo://app?vid=69c64ec9-e24d-4807-ad49-cbbbaf87179a","ios":"levelo://app?vid=69c64ec9-e24d-4807-ad49-cbbbaf87179a"},"vehicle_type_id":"4","last_reported":1741010962,"current_range_meters":10000,"station_id":"cjm6bp8fraef2m0cb0m0","pricing_plan_id":"cebpf4jnsgd1na2vs0mg"},{"bike_id":"8ade5181-cd88-4ece-8534-46a6372826ef","system_id":"levelo_inurba_marseille","lat":43.27694,"lon":5.41541,"is_reserved":false,"is_disabled":false,"rental_uris":{"android":"levelo://app?vid=8ade5181-cd88-4ece-8534-46a6372826ef","ios":"levelo://app?vid=8ade5181-cd88-4ece-8534-46a6372826ef"},"vehicle_type_id":"4","last_reported":1741010962,"current_range_meters":10000,"station_id":"","pricing_plan_id":"cebpf4jnsgd1na2vs0mg"},{"bike_id":"d932bbea-358e-459b-9177-1fe9ce632c3a","system_id":"levelo_inurba_marseille","lat":43.29266,"lon":5.40903,"is_reserved":false,"is_disabled":false,"rental_uris":{"android":"levelo://app?vid=d932bbea-358e-459b-9177-1fe9ce632c3a","ios":"levelo://app?vid=d932bbea-358e-459b-9177-1fe9ce632c3a"},"vehicle_type_id":"4","last_reported":1741010962,"current_range_meters":10000,"station_id":"ce4bh192rcd13ifvqdc0","pricing_plan_id":"cebpf4jnsgd1na2vs0mg"},{"bike_id":"97877b57-7853-4a58-b0b1-6aa4af1e67fa","system_id":"levelo_inurba_marseille","lat":43.30547,"lon":5.3654,"is_reserved":false,"is_disabled":false,"rental_uris":{"android":"levelo://app?vid=97877b57-7853-4a58-b0b1-6aa4af1e67fa","ios":"levelo://app?vid=97877b57-7853-4a58-b0b1-6aa4af1e67fa"},"vehicle_type_id":"4","last_reported":1741010962,"current_range_meters":10000,"station_id":"ce4bgs12rcd13ifvqcag","pricing_plan_id":"cebpf4jnsgd1na2vs0mg"},{"bike_id":"1f443740-8946-4d48-9b52-4b4a108aa5f0","system_id":"levelo_inurba_marseille","lat":43.25933,"lon":5.40873,"is_reserved":false,"is_disabled":false,"rental_uris":{"android":"levelo://app?vid=1f443740-8946-4d48-9b52-4b4a108aa5f0","ios":"levelo://app?vid=1f443740-8946-4d48-9b52-4b4a108aa5f0"},"vehicle_type_id":"4","last_reported":1741010962,"current_range_meters":10000,"station_id":"ce4bhm92rcd13ifvqglg","pricing_plan_id":"cebpf4jnsgd1na2vs0mg"},{"bike_id":"c11fdd45-99e0-4676-8c8e-e8f9d1bb40b5","system_id":"levelo_inurba_marseille","lat":43.27964,"lon":5.41025,"is_reserved":false,"is_disabled":false,"rental_uris":{"android":"levelo://app?vid=c11fdd45-99e0-4676-8c8e-e8f9d1bb40b5","ios":"levelo://app?vid=c11fdd45-99e0-4676-8c8e-e8f9d1bb40b5"},"vehicle_type_id":"4","last_reported":1741010962,"current_range_meters":10800,"station_id":"ce4bhnp2rcd13ifvqh0g","pricing_plan_id":"cebpf4jnsgd1na2vs0mg"},{"bike_id":"c8c30254-af6a-4a88-b0b6-9a3a52022bea","system_id":"levelo_inurba_marseille","lat":43.32441,"lon":5.42674,"is_reserved":false,"is_disabled":false,"rental_uris":{"android":"levelo://app?vid=c8c30254-af6a-4a88-b0b6-9a3a52022bea","ios":"levelo://app?vid=c8c30254-af6a-4a88-b0b6-9a3a52022bea"},"vehicle_type_id":"4","last_reported":1741010962,"current_range_meters":10800,"station_id":"","pricing_plan_id":"cebpf4jnsgd1na2vs0mg"},{"bike_id":"8223b746-587e-4861-b0af-1323fd0537ef","system_id":"levelo_inurba_marseille","lat":43.23143,"lon":5.43721,"is_reserved":false,"is_disabled":false,"rental_uris":{"android":"levelo://app?vid=8223b746-587e-4861-b0af-1323fd0537ef","ios":"levelo://app?vid=8223b746-587e-4861-b0af-1323fd0537ef"},"vehicle_type_id":"4","last_reported":1741010962,"current_range_meters":10800,"station_id":"ce4bhmp2rcd13ifvqgog","pricing_plan_id":"cebpf4jnsgd1na2vs0mg"},{"bike_id":"d876e8c7-8b2f-4bc5-bf4c-c20fe1ce0968","system_id":"levelo_inurba_marseille","lat":43.2993,"lon":5.38149,"is_reserved":false,"is_disabled":false,"rental_uris":{"android":"levelo://app?vid=d876e8c7-8b2f-4bc5-bf4c-c20fe1ce0968","ios":"levelo://app?vid=d876e8c7-8b2f-4bc5-bf4c-c20fe1ce0968"},"vehicle_type_id":"4","last_reported":1741010962,"current_range_meters":10800,"station_id":"ce4bgj12rcd13ifvqbc0","pricing_plan_id":"cebpf4jnsgd1na2vs0mg"},{"bike_id":"d6dcf2df-22f4-4acc-bb5a-fc34fb6762ee","system_id":"levelo_inurba_marseille","lat":43.24813,"lon":5.37474,"is_reserved":false,"is_disabled":false,"rental_uris":{"android":"levelo://app?vid=d6dcf2df-22f4-4acc-bb5a-fc34fb6762ee","ios":"levelo://app?vid=d6dcf2df-22f4-4acc-bb5a-fc34fb6762ee"},"vehicle_type_id":"4","last_reported":1741010962,"current_range_meters":10800,"station_id":"ce4bhgh2rcd13ifvqfb0","pricing_plan_id":"cebpf4jnsgd1na2vs0mg"},{"bike_id":"d5b718b7-b44f-4156-8f74-bc5cbde0a086","system_id":"levelo_inurba_marseille","lat":43.26208,"lon":5.37434,"is_reserved":false,"is_disabled":false,"rental_uris":{"android":"levelo://app?vid=d5b718b7-b44f-4156-8f74-bc5cbde0a086","ios":"levelo://app?vid=d5b718b7-b44f-4156-8f74-bc5cbde0a086"},"vehicle_type_id":"4","last_reported":1741010962,"current_range_meters":10800,"station_id":"ce4bhgp2rcd13ifvqfc0","pricing_plan_id":"cebpf4jnsgd1na2vs0mg"},{"bike_id":"1284e863-2e3a-4573-8f05-4b16f74c12d2","system_id":"levelo_inurba_marseille","lat":43.25493,"lon":5.37657,"is_reserved":false,"is_disabled":false,"rental_uris":{"android":"levelo://app?vid=1284e863-2e3a-4573-8f05-4b16f74c12d2","ios":"levelo://app?vid=1284e863-2e3a-4573-8f05-4b16f74c12d2"},"vehicle_type_id":"4","last_reported":1741010962,"current_range_meters":10800,"station_id":"ce4bhh12rcd13ifvqff0","pricing_plan_id":"cebpf4jnsgd1na2vs0mg"},{"bike_id":"e28ac462-9bca-47b2-ae29-8081e0f2b279","system_id":"levelo_inurba_marseille","lat":43.26555,"lon":5.37288,"is_reserved":false,"is_disabled":false,"rental_uris":{"android":"levelo://app?vid=e28ac462-9bca-47b2-ae29-8081e0f2b279","ios":"levelo://app?vid=e28ac462-9bca-47b2-ae29-8081e0f2b279"},"vehicle_type_id":"4","last_reported":1741010962,"current_range_meters":10800,"station_id":"ce4bhg12rcd13ifvqf70","pricing_plan_id":"cebpf4jnsgd1na2vs0mg"},{"bike_id":"100fcaf6-edb5-4701-9431-b8defb642405","system_id":"levelo_inurba_marseille","lat":43.24397,"lon":5.37053,"is_reserved":false,"is_disabled":false,"rental_uris":{"android":"levelo://app?vid=100fcaf6-edb5-4701-9431-b8defb642405","ios":"levelo://app?vid=100fcaf6-edb5-4701-9431-b8defb642405"},"vehicle_type_id":"4","last_reported":1741010962,"current_range_meters":10800,"station_id":"ce4bhhh2rcd13ifvqfk0","pricing_plan_id":"cebpf4jnsgd1na2vs0mg"},{"bike_id":"22f4ae67-a547-46cc-9e2f-ac043e2026af","system_id":"levelo_inurba_marseille","lat":43.27066,"lon":5.42277,"is_reserved":false,"is_disabled":false,"rental_uris":{"android":"levelo://app?vid=22f4ae67-a547-46cc-9e2f-ac043e2026af","ios":"levelo://app?vid=22f4ae67-a547-46cc-9e2f-ac043e2026af"},"vehicle_type_id":"4","last_reported":1741010962,"current_range_meters":10800,"station_id":"ce4bhk92rcd13ifvqgb0","pricing_plan_id":"cebpf4jnsgd1na2vs0mg"},{"bike_id":"c2416d03-1aa5-48d3-932a-8b61e363a163","system_id":"levelo_inurba_marseille","lat":43.24058,"lon":5.37797,"is_reserved":false,"is_disabled":false,"rental_uris":{"android":"levelo://app?vid=c2416d03-1aa5-48d3-932a-8b61e363a163","ios":"levelo://app?vid=c2416d03-1aa5-48d3-932a-8b61e363a163"},"vehicle_type_id":"4","last_reported":1741010962,"current_range_meters":10800,"station_id":"ce4bhnp2rcd13ifvqgvg","pricing_plan_id":"cebpf4jnsgd1na2vs0mg"},{"bike_id":"71cd5d9d-c4a9-4d7f-b25c-bd7ceef0b27e","system_id":"levelo_inurba_marseille","lat":43.31276,"lon":5.37752,"is_reserved":false,"is_disabled":false,"rental_uris":{"android":"levelo://app?vid=71cd5d9d-c4a9-4d7f-b25c-bd7ceef0b27e","ios":"levelo://app?vid=71cd5d9d-c4a9-4d7f-b25c-bd7ceef0b27e"},"vehicle_type_id":"4","last_reported":1741010962,"current_range_meters":11200,"station_id":"","pricing_plan_id":"cebpf4jnsgd1na2vs0mg"},{"bike_id":"caedf473-9313-4874-87c8-230b4a1efdb8","system_id":"levelo_inurba_marseille","lat":43.32513,"lon":5.36543,"is_reserved":false,"is_disabled":false,"rental_uris":{"android":"levelo://app?vid=caedf473-9313-4874-87c8-230b4a1efdb8","ios":"levelo://app?vid=caedf473-9313-4874-87c8-230b4a1efdb8"},"vehicle_type_id":"4","last_reported":1741010962,"current_range_meters":11200,"station_id":"ce4bhs12rcd13ifvqhvg","pricing_plan_id":"cebpf4jnsgd1na2vs0mg"},{"bike_id":"264fffda-2658-4b06-8d90-86d1e40ae88b","system_id":"levelo_inurba_marseille","lat":43.29549,"lon":5.42295,"is_reserved":false,"is_disabled":false,"rental_uris":{"android":"levelo://app?vid=264fffda-2658-4b06-8d90-86d1e40ae88b","ios":"levelo://app?vid=264fffda-2658-4b06-8d90-86d1e40ae88b"},"vehicle_type_id":"4","last_reported":1741010962,"current_range_meters":11200,"station_id":"ce4bhph2rcd13ifvqhdg","pricing_plan_id":"cebpf4jnsgd1na2vs0mg"},{"bike_id":"dcdda1b9-4944-460c-abdb-49d199ac18e1","system_id":"levelo_inurba_marseille","lat":43.28463,"lon":5.35882,"is_reserved":false,"is_disabled":false,"rental_uris":{"android":"levelo://app?vid=dcdda1b9-4944-460c-abdb-49d199ac18e1","ios":"levelo://app?vid=dcdda1b9-4944-460c-abdb-49d199ac18e1"},"vehicle_type_id":"4","last_reported":1741010962,"current_range_meters":11200,"station_id":"ce4bhah2rcd13ifvqei0","pricing_plan_id":"cebpf4jnsgd1na2vs0mg"},{"bike_id":"218ed5ac-6703-4318-89bd-789d1d2d1841","system_id":"levelo_inurba_marseille","lat":43.27993,"lon":5.40014,"is_reserved":false,"is_disabled":false,"rental_uris":{"android":"levelo://app?vid=218ed5ac-6703-4318-89bd-789d1d2d1841","ios":"levelo://app?vid=218ed5ac-6703-4318-89bd-789d1d2d1841"},"vehicle_type_id":"4","last_reported":1741010962,"current_range_meters":11600,"station_id":"ce4bho92rcd13ifvqh4g","pricing_plan_id":"cebpf4jnsgd1na2vs0mg"},{"bike_id":"eba754a0-2641-4f75-8880-ea27667b20b5","system_id":"levelo_inurba_marseille","lat":43.30126,"lon":5.37435,"is_reserved":false,"is_disabled":false,"rental_uris":{"android":"levelo://app?vid=eba754a0-2641-4f75-8880-ea27667b20b5","ios":"levelo://app?vid=eba754a0-2641-4f75-8880-ea27667b20b5"},"vehicle_type_id":"4","last_reported":1741010962,"current_range_meters":11200,"station_id":"ce4bgs92rcd13ifvqcc0","pricing_plan_id":"cebpf4jnsgd1na2vs0mg"},{"bike_id":"20f28f92-adf9-48e3-a33b-83ded65127c5","system_id":"levelo_inurba_marseille","lat":43.2306,"lon":5.35494,"is_reserved":false,"is_disabled":false,"rental_uris":{"android":"levelo://app?vid=20f28f92-adf9-48e3-a33b-83ded65127c5","ios":"levelo://app?vid=20f28f92-adf9-48e3-a33b-83ded65127c5"},"vehicle_type_id":"4","last_reported":1741010962,"current_range_meters":11200,"station_id":"cpo3342slgdg3j2ifvpg","pricing_plan_id":"cebpf4jnsgd1na2vs0mg"},{"bike_id":"cf14d8f9-4ebe-4df6-9a79-4848e458b42c","system_id":"levelo_inurba_marseille","lat":43.24083,"lon":5.37756,"is_reserved":false,"is_disabled":false,"rental_uris":{"android":"levelo://app?vid=cf14d8f9-4ebe-4df6-9a79-4848e458b42c","ios":"levelo://app?vid=cf14d8f9-4ebe-4df6-9a79-4848e458b42c"},"vehicle_type_id":"4","last_reported":1741010962,"current_range_meters":11600,"station_id":"ce4bhnp2rcd13ifvqgvg","pricing_plan_id":"cebpf4jnsgd1na2vs0mg"},{"bike_id":"0979324e-92a3-444a-bff9-27d2fa1b8150","system_id":"levelo_inurba_marseille","lat":43.30143,"lon":5.37419,"is_reserved":false,"is_disabled":false,"rental_uris":{"android":"levelo://app?vid=0979324e-92a3-444a-bff9-27d2fa1b8150","ios":"levelo://app?vid=0979324e-92a3-444a-bff9-27d2fa1b8150"},"vehicle_type_id":"4","last_reported":1741010962,"current_range_meters":11600,"station_id":"ce4bgs92rcd13ifvqcc0","pricing_plan_id":"cebpf4jnsgd1na2vs0mg"},{"bike_id":"1b7644cf-fdc7-45bf-908d-0e39d22d2bd4","system_id":"levelo_inurba_marseille","lat":43.29557,"lon":5.37508,"is_reserved":false,"is_disabled":false,"rental_uris":{"android":"levelo://app?vid=1b7644cf-fdc7-45bf-908d-0e39d22d2bd4","ios":"levelo://app?vid=1b7644cf-fdc7-45bf-908d-0e39d22d2bd4"},"vehicle_type_id":"4","last_reported":1741010962,"current_range_meters":11600,"station_id":"ce4bgkp2rcd13ifvqbmg","pricing_plan_id":"cebpf4jnsgd1na2vs0mg"},{"bike_id":"b014fbaa-3a70-4bd8-84eb-43d5c894c0ea","system_id":"levelo_inurba_marseille","lat":43.3366,"lon":5.38573,"is_reserved":false,"is_disabled":false,"rental_uris":{"android":"levelo://app?vid=b014fbaa-3a70-4bd8-84eb-43d5c894c0ea","ios":"levelo://app?vid=b014fbaa-3a70-4bd8-84eb-43d5c894c0ea"},"vehicle_type_id":"4","last_reported":1741010962,"current_range_meters":11600,"station_id":"","pricing_plan_id":"cebpf4jnsgd1na2vs0mg"},{"bike_id":"a7ef7da6-d1fc-4a80-b025-6a7c01c46fda","system_id":"levelo_inurba_marseille","lat":43.30462,"lon":5.37906,"is_reserved":false,"is_disabled":false,"rental_uris":{"android":"levelo://app?vid=a7ef7da6-d1fc-4a80-b025-6a7c01c46fda","ios":"levelo://app?vid=a7ef7da6-d1fc-4a80-b025-6a7c01c46fda"},"vehicle_type_id":"4","last_reported":1741010962,"current_range_meters":11600,"station_id":"ce4bgup2rcd13ifvqcn0","pricing_plan_id":"cebpf4jnsgd1na2vs0mg"},{"bike_id":"4c938809-e067-4149-90d9-948cba972e61","system_id":"levelo_inurba_marseille","lat":43.29628,"lon":5.37175,"is_reserved":false,"is_disabled":false,"rental_uris":{"android":"levelo://app?vid=4c938809-e067-4149-90d9-948cba972e61","ios":"levelo://app?vid=4c938809-e067-4149-90d9-948cba972e61"},"vehicle_type_id":"4","last_reported":1741010962,"current_range_meters":11600,"station_id":"ce4bgnh2rcd13ifvqc0g","pricing_plan_id":"cebpf4jnsgd1na2vs0mg"},{"bike_id":"c8ce68ea-f67a-46a6-a9c9-c7c4878bad16","system_id":"levelo_inurba_marseille","lat":43.27514,"lon":5.42439,"is_reserved":false,"is_disabled":false,"rental_uris":{"android":"levelo://app?vid=c8ce68ea-f67a-46a6-a9c9-c7c4878bad16","ios":"levelo://app?vid=c8ce68ea-f67a-46a6-a9c9-c7c4878bad16"},"vehicle_type_id":"4","last_reported":1741010962,"current_range_meters":12000,"station_id":"ce4bhn92rcd13ifvqgrg","pricing_plan_id":"cebpf4jnsgd1na2vs0mg"},{"bike_id":"61d6efa7-4506-4922-814b-a518ef959c2b","system_id":"levelo_inurba_marseille","lat":43.266847,"lon":5.382681,"is_reserved":false,"is_disabled":false,"rental_uris":{"android":"levelo://app?vid=61d6efa7-4506-4922-814b-a518ef959c2b","ios":"levelo://app?vid=61d6efa7-4506-4922-814b-a518ef959c2b"},"vehicle_type_id":"4","last_reported":1741010962,"current_range_meters":12000,"station_id":"ce4bhg92rcd13ifvqf90","pricing_plan_id":"cebpf4jnsgd1na2vs0mg"},{"bike_id":"82fc0ed7-e2ce-4836-aed3-b38de60a97b8","system_id":"levelo_inurba_marseille","lat":43.24172,"lon":5.39724,"is_reserved":false,"is_disabled":false,"rental_uris":{"android":"levelo://app?vid=82fc0ed7-e2ce-4836-aed3-b38de60a97b8","ios":"levelo://app?vid=82fc0ed7-e2ce-4836-aed3-b38de60a97b8"},"vehicle_type_id":"4","last_reported":1741010962,"current_range_meters":12000,"station_id":"ce4bhn12rcd13ifvqgpg","pricing_plan_id":"cebpf4jnsgd1na2vs0mg"},{"bike_id":"c5922090-7878-48b6-9a92-2bb58fd4e5e3","system_id":"levelo_inurba_marseille","lat":43.27938,"lon":5.3873,"is_reserved":false,"is_disabled":false,"rental_uris":{"android":"levelo://app?vid=c5922090-7878-48b6-9a92-2bb58fd4e5e3","ios":"levelo://app?vid=c5922090-7878-48b6-9a92-2bb58fd4e5e3"},"vehicle_type_id":"4","last_reported":1741010962,"current_range_meters":12000,"station_id":"ce4bhg12rcd13ifvqf80","pricing_plan_id":"cebpf4jnsgd1na2vs0mg"},{"bike_id":"26dbc20e-0d4f-408e-97a7-913a403a3a92","system_id":"levelo_inurba_marseille","lat":43.25691,"lon":5.41036,"is_reserved":false,"is_disabled":false,"rental_uris":{"android":"levelo://app?vid=26dbc20e-0d4f-408e-97a7-913a403a3a92","ios":"levelo://app?vid=26dbc20e-0d4f-408e-97a7-913a403a3a92"},"vehicle_type_id":"4","last_reported":1741010962,"current_range_meters":12000,"station_id":"ce4bhkp2rcd13ifvqgd0","pricing_plan_id":"cebpf4jnsgd1na2vs0mg"},{"bike_id":"1c9de4ee-1854-4430-aa49-a14443550b14","system_id":"levelo_inurba_marseille","lat":43.30553,"lon":5.36522,"is_reserved":false,"is_disabled":false,"rental_uris":{"android":"levelo://app?vid=1c9de4ee-1854-4430-aa49-a14443550b14","ios":"levelo://app?vid=1c9de4ee-1854-4430-aa49-a14443550b14"},"vehicle_type_id":"4","last_reported":1741010962,"current_range_meters":12000,"station_id":"ce4bgs12rcd13ifvqcag","pricing_plan_id":"cebpf4jnsgd1na2vs0mg"},{"bike_id":"f71f9016-cd7a-4d2f-a244-6b67297b159e","system_id":"levelo_inurba_marseille","lat":43.27908,"lon":5.41673,"is_reserved":false,"is_disabled":false,"rental_uris":{"android":"levelo://app?vid=f71f9016-cd7a-4d2f-a244-6b67297b159e","ios":"levelo://app?vid=f71f9016-cd7a-4d2f-a244-6b67297b159e"},"vehicle_type_id":"4","last_reported":1741010962,"current_range_meters":12400,"station_id":"","pricing_plan_id":"cebpf4jnsgd1na2vs0mg"},{"bike_id":"442e17cf-9700-477c-a555-09fc8cf0081c","system_id":"levelo_inurba_marseille","lat":43.28454,"lon":5.35887,"is_reserved":false,"is_disabled":false,"rental_uris":{"android":"levelo://app?vid=442e17cf-9700-477c-a555-09fc8cf0081c","ios":"levelo://app?vid=442e17cf-9700-477c-a555-09fc8cf0081c"},"vehicle_type_id":"4","last_reported":1741010962,"current_range_meters":12400,"station_id":"ce4bhah2rcd13ifvqei0","pricing_plan_id":"cebpf4jnsgd1na2vs0mg"},{"bike_id":"38658c88-48f1-44d7-92bd-94dfc27e434c","system_id":"levelo_inurba_marseille","lat":43.23158,"lon":5.43697,"is_reserved":false,"is_disabled":false,"rental_uris":{"android":"levelo://app?vid=38658c88-48f1-44d7-92bd-94dfc27e434c","ios":"levelo://app?vid=38658c88-48f1-44d7-92bd-94dfc27e434c"},"vehicle_type_id":"4","last_reported":1741010962,"current_range_meters":12400,"station_id":"ce4bhmp2rcd13ifvqgog","pricing_plan_id":"cebpf4jnsgd1na2vs0mg"},{"bike_id":"41ed89d3-77cd-4311-8513-748a0ca63c4f","system_id":"levelo_inurba_marseille","lat":43.212591,"lon":5.353303,"is_reserved":false,"is_disabled":false,"rental_uris":{"android":"levelo://app?vid=41ed89d3-77cd-4311-8513-748a0ca63c4f","ios":"levelo://app?vid=41ed89d3-77cd-4311-8513-748a0ca63c4f"},"vehicle_type_id":"4","last_reported":1741010962,"current_range_meters":12400,"station_id":"","pricing_plan_id":"cebpf4jnsgd1na2vs0mg"},{"bike_id":"66e9cb08-4b60-466e-b192-efbce12fa18d","system_id":"levelo_inurba_marseille","lat":43.27803,"lon":5.40722,"is_reserved":false,"is_disabled":false,"rental_uris":{"android":"levelo://app?vid=66e9cb08-4b60-466e-b192-efbce12fa18d","ios":"levelo://app?vid=66e9cb08-4b60-466e-b192-efbce12fa18d"},"vehicle_type_id":"4","last_reported":1741010962,"current_range_meters":12400,"station_id":"ce4bhnh2rcd13ifvqgtg","pricing_plan_id":"cebpf4jnsgd1na2vs0mg"},{"bike_id":"362b2e41-0f7d-42ca-85b4-447baad17196","system_id":"levelo_inurba_marseille","lat":43.27197,"lon":5.41867,"is_reserved":false,"is_disabled":false,"rental_uris":{"android":"levelo://app?vid=362b2e41-0f7d-42ca-85b4-447baad17196","ios":"levelo://app?vid=362b2e41-0f7d-42ca-85b4-447baad17196"},"vehicle_type_id":"4","last_reported":1741010962,"current_range_meters":12400,"station_id":"","pricing_plan_id":"cebpf4jnsgd1na2vs0mg"},{"bike_id":"3c82f993-4ee7-4ae3-a2fe-1ecc321d6a9b","system_id":"levelo_inurba_marseille","lat":43.30132,"lon":5.37429,"is_reserved":false,"is_disabled":false,"rental_uris":{"android":"levelo://app?vid=3c82f993-4ee7-4ae3-a2fe-1ecc321d6a9b","ios":"levelo://app?vid=3c82f993-4ee7-4ae3-a2fe-1ecc321d6a9b"},"vehicle_type_id":"4","last_reported":1741010962,"current_range_meters":12800,"station_id":"ce4bgs92rcd13ifvqcc0","pricing_plan_id":"cebpf4jnsgd1na2vs0mg"},{"bike_id":"4d75d566-c7c3-4750-bebd-e5f9d41a230c","system_id":"levelo_inurba_marseille","lat":43.28341,"lon":5.38202,"is_reserved":false,"is_disabled":false,"rental_uris":{"android":"levelo://app?vid=4d75d566-c7c3-4750-bebd-e5f9d41a230c","ios":"levelo://app?vid=4d75d566-c7c3-4750-bebd-e5f9d41a230c"},"vehicle_type_id":"4","last_reported":1741010962,"current_range_meters":12800,"station_id":"ce4bho12rcd13ifvqh1g","pricing_plan_id":"cebpf4jnsgd1na2vs0mg"},{"bike_id":"4b0c1e6f-7d01-4cc1-be9f-f902e288ebfa","system_id":"levelo_inurba_marseille","lat":43.23164,"lon":5.4371,"is_reserved":false,"is_disabled":false,"rental_uris":{"android":"levelo://app?vid=4b0c1e6f-7d01-4cc1-be9f-f902e288ebfa","ios":"levelo://app?vid=4b0c1e6f-7d01-4cc1-be9f-f902e288ebfa"},"vehicle_type_id":"4","last_reported":1741010962,"current_range_meters":12800,"station_id":"ce4bhmp2rcd13ifvqgog","pricing_plan_id":"cebpf4jnsgd1na2vs0mg"},{"bike_id":"c218db43-20f4-472c-b736-67d10ec1deaf","system_id":"levelo_inurba_marseille","lat":43.27204,"lon":5.39183,"is_reserved":false,"is_disabled":false,"rental_uris":{"android":"levelo://app?vid=c218db43-20f4-472c-b736-67d10ec1deaf","ios":"levelo://app?vid=c218db43-20f4-472c-b736-67d10ec1deaf"},"vehicle_type_id":"4","last_reported":1741010962,"current_range_meters":12800,"station_id":"ce4bhhp2rcd13ifvqfm0","pricing_plan_id":"cebpf4jnsgd1na2vs0mg"},{"bike_id":"f412bafe-32ca-49bc-b144-43373775534e","system_id":"levelo_inurba_marseille","lat":43.24825,"lon":5.37462,"is_reserved":false,"is_disabled":false,"rental_uris":{"android":"levelo://app?vid=f412bafe-32ca-49bc-b144-43373775534e","ios":"levelo://app?vid=f412bafe-32ca-49bc-b144-43373775534e"},"vehicle_type_id":"4","last_reported":1741010962,"current_range_meters":13600,"station_id":"ce4bhgh2rcd13ifvqfb0","pricing_plan_id":"cebpf4jnsgd1na2vs0mg"},{"bike_id":"c0d39611-15fb-4861-9d41-fd2dc0edf2d1","system_id":"levelo_inurba_marseille","lat":43.29631,"lon":5.40603,"is_reserved":false,"is_disabled":false,"rental_uris":{"android":"levelo://app?vid=c0d39611-15fb-4861-9d41-fd2dc0edf2d1","ios":"levelo://app?vid=c0d39611-15fb-4861-9d41-fd2dc0edf2d1"},"vehicle_type_id":"4","last_reported":1741010962,"current_range_meters":13600,"station_id":"ce4bh0h2rcd13ifvqd60","pricing_plan_id":"cebpf4jnsgd1na2vs0mg"},{"bike_id":"08772f65-f36a-4e56-940b-6037617cce4f","system_id":"levelo_inurba_marseille","lat":43.30543,"lon":5.36699,"is_reserved":false,"is_disabled":false,"rental_uris":{"android":"levelo://app?vid=08772f65-f36a-4e56-940b-6037617cce4f","ios":"levelo://app?vid=08772f65-f36a-4e56-940b-6037617cce4f"},"vehicle_type_id":"4","last_reported":1741010962,"current_range_meters":13600,"station_id":"ce4bgrp2rcd13ifvqc9g","pricing_plan_id":"cebpf4jnsgd1na2vs0mg"},{"bike_id":"1344971c-581b-4f93-af89-a4946f4afb29","system_id":"levelo_inurba_marseille","lat":43.30466,"lon":5.37901,"is_reserved":false,"is_disabled":false,"rental_uris":{"android":"levelo://app?vid=1344971c-581b-4f93-af89-a4946f4afb29","ios":"levelo://app?vid=1344971c-581b-4f93-af89-a4946f4afb29"},"vehicle_type_id":"4","last_reported":1741010962,"current_range_meters":13600,"station_id":"ce4bgup2rcd13ifvqcn0","pricing_plan_id":"cebpf4jnsgd1na2vs0mg"},{"bike_id":"04ba87e1-88e5-4157-8be1-849c3f281a5f","system_id":"levelo_inurba_marseille","lat":43.31244,"lon":5.36864,"is_reserved":false,"is_disabled":false,"rental_uris":{"android":"levelo://app?vid=04ba87e1-88e5-4157-8be1-849c3f281a5f","ios":"levelo://app?vid=04ba87e1-88e5-4157-8be1-849c3f281a5f"},"vehicle_type_id":"4","last_reported":1741010962,"current_range_meters":13600,"station_id":"ce4bgl92rcd13ifvqbq0","pricing_plan_id":"cebpf4jnsgd1na2vs0mg"},{"bike_id":"a9eb9414-2a65-4d88-b570-c89f28729dd2","system_id":"levelo_inurba_marseille","lat":43.23066,"lon":5.3549,"is_reserved":false,"is_disabled":false,"rental_uris":{"android":"levelo://app?vid=a9eb9414-2a65-4d88-b570-c89f28729dd2","ios":"levelo://app?vid=a9eb9414-2a65-4d88-b570-c89f28729dd2"},"vehicle_type_id":"4","last_reported":1741010962,"current_range_meters":14000,"station_id":"cpo3342slgdg3j2ifvpg","pricing_plan_id":"cebpf4jnsgd1na2vs0mg"},{"bike_id":"94d72b97-d139-4313-b531-a3a93887a2c0","system_id":"levelo_inurba_marseille","lat":43.2871,"lon":5.39993,"is_reserved":false,"is_disabled":false,"rental_uris":{"android":"levelo://app?vid=94d72b97-d139-4313-b531-a3a93887a2c0","ios":"levelo://app?vid=94d72b97-d139-4313-b531-a3a93887a2c0"},"vehicle_type_id":"4","last_reported":1741010962,"current_range_meters":14000,"station_id":"ce4bho92rcd13ifvqh3g","pricing_plan_id":"cebpf4jnsgd1na2vs0mg"},{"bike_id":"0b818497-4d97-451b-b637-cef3d02b5c9d","system_id":"levelo_inurba_marseille","lat":43.317,"lon":5.43678,"is_reserved":false,"is_disabled":true,"rental_uris":{"android":"levelo://app?vid=0b818497-4d97-451b-b637-cef3d02b5c9d","ios":"levelo://app?vid=0b818497-4d97-451b-b637-cef3d02b5c9d"},"vehicle_type_id":"4","last_reported":1741010962,"current_range_meters":14000,"station_id":"ce4bhp92rcd13ifvqhcg","pricing_plan_id":"cebpf4jnsgd1na2vs0mg"},{"bike_id":"4037a609-e9b4-4ca8-ae03-7c337eb23280","system_id":"levelo_inurba_marseille","lat":43.27893,"lon":5.38,"is_reserved":false,"is_disabled":false,"rental_uris":{"android":"levelo://app?vid=4037a609-e9b4-4ca8-ae03-7c337eb23280","ios":"levelo://app?vid=4037a609-e9b4-4ca8-ae03-7c337eb23280"},"vehicle_type_id":"4","last_reported":1741010962,"current_range_meters":14000,"station_id":"ce4bhf92rcd13ifvqf50","pricing_plan_id":"cebpf4jnsgd1na2vs0mg"},{"bike_id":"5a565ef9-a99b-4821-9856-c17f8a27a2dd","system_id":"levelo_inurba_marseille","lat":43.29307,"lon":5.37184,"is_reserved":false,"is_disabled":false,"rental_uris":{"android":"levelo://app?vid=5a565ef9-a99b-4821-9856-c17f8a27a2dd","ios":"levelo://app?vid=5a565ef9-a99b-4821-9856-c17f8a27a2dd"},"vehicle_type_id":"4","last_reported":1741010962,"current_range_meters":14000,"station_id":"ce4bgh92rcd13ifvqb40","pricing_plan_id":"cebpf4jnsgd1na2vs0mg"},{"bike_id":"a023c162-80e1-4dad-9872-dba3d54130db","system_id":"levelo_inurba_marseille","lat":43.28404,"lon":5.38466,"is_reserved":false,"is_disabled":false,"rental_uris":{"android":"levelo://app?vid=a023c162-80e1-4dad-9872-dba3d54130db","ios":"levelo://app?vid=a023c162-80e1-4dad-9872-dba3d54130db"},"vehicle_type_id":"4","last_reported":1741010962,"current_range_meters":14000,"station_id":"ce4bh512rcd13ifvqe3g","pricing_plan_id":"cebpf4jnsgd1na2vs0mg"},{"bike_id":"7377503b-0960-4c1a-a8a1-658150c25466","system_id":"levelo_inurba_marseille","lat":43.31164,"lon":5.36842,"is_reserved":false,"is_disabled":false,"rental_uris":{"android":"levelo://app?vid=7377503b-0960-4c1a-a8a1-658150c25466","ios":"levelo://app?vid=7377503b-0960-4c1a-a8a1-658150c25466"},"vehicle_type_id":"4","last_reported":1741010962,"current_range_meters":14400,"station_id":"","pricing_plan_id":"cebpf4jnsgd1na2vs0mg"},{"bike_id":"91f72666-1eb7-485f-b638-03ee1f35dd7d","system_id":"levelo_inurba_marseille","lat":43.2985,"lon":5.3628,"is_reserved":false,"is_disabled":false,"rental_uris":{"android":"levelo://app?vid=91f72666-1eb7-485f-b638-03ee1f35dd7d","ios":"levelo://app?vid=91f72666-1eb7-485f-b638-03ee1f35dd7d"},"vehicle_type_id":"4","last_reported":1741010962,"current_range_meters":14400,"station_id":"ce4bgpp2rcd13ifvqc3g","pricing_plan_id":"cebpf4jnsgd1na2vs0mg"},{"bike_id":"bce611a7-5044-470a-9dc2-ccdbc1151c5c","system_id":"levelo_inurba_marseille","lat":43.32466,"lon":5.36594,"is_reserved":false,"is_disabled":false,"rental_uris":{"android":"levelo://app?vid=bce611a7-5044-470a-9dc2-ccdbc1151c5c","ios":"levelo://app?vid=bce611a7-5044-470a-9dc2-ccdbc1151c5c"},"vehicle_type_id":"4","last_reported":1741010962,"current_range_meters":14400,"station_id":"ce4bhs12rcd13ifvqhvg","pricing_plan_id":"cebpf4jnsgd1na2vs0mg"},{"bike_id":"8f1c8ad1-bd2f-43d7-a4be-3120b97105d7","system_id":"levelo_inurba_marseille","lat":43.28704,"lon":5.39989,"is_reserved":false,"is_disabled":false,"rental_uris":{"android":"levelo://app?vid=8f1c8ad1-bd2f-43d7-a4be-3120b97105d7","ios":"levelo://app?vid=8f1c8ad1-bd2f-43d7-a4be-3120b97105d7"},"vehicle_type_id":"4","last_reported":1741010962,"current_range_meters":14800,"station_id":"ce4bho92rcd13ifvqh3g","pricing_plan_id":"cebpf4jnsgd1na2vs0mg"},{"bike_id":"2fe8f916-4590-4cd4-978d-98051b849535","system_id":"levelo_inurba_marseille","lat":43.28012,"lon":5.41672,"is_reserved":false,"is_disabled":false,"rental_uris":{"android":"levelo://app?vid=2fe8f916-4590-4cd4-978d-98051b849535","ios":"levelo://app?vid=2fe8f916-4590-4cd4-978d-98051b849535"},"vehicle_type_id":"4","last_reported":1741010962,"current_range_meters":14800,"station_id":"ce4bho12rcd13ifvqh1g","pricing_plan_id":"cebpf4jnsgd1na2vs0mg"},{"bike_id":"cb813df4-3836-4634-974a-d02d99a32d8a","system_id":"levelo_inurba_marseille","lat":43.32705,"lon":5.39232,"is_reserved":false,"is_disabled":false,"rental_uris":{"android":"levelo://app?vid=cb813df4-3836-4634-974a-d02d99a32d8a","ios":"levelo://app?vid=cb813df4-3836-4634-974a-d02d99a32d8a"},"vehicle_type_id":"4","last_reported":1741010962,"current_range_meters":14800,"station_id":"","pricing_plan_id":"cebpf4jnsgd1na2vs0mg"},{"bike_id":"9de42f25-f760-4086-9a08-2934eee1b520","system_id":"levelo_inurba_marseille","lat":43.21277,"lon":5.35328,"is_reserved":false,"is_disabled":false,"rental_uris":{"android":"levelo://app?vid=9de42f25-f760-4086-9a08-2934eee1b520","ios":"levelo://app?vid=9de42f25-f760-4086-9a08-2934eee1b520"},"vehicle_type_id":"4","last_reported":1741010962,"current_range_meters":14800,"station_id":"","pricing_plan_id":"cebpf4jnsgd1na2vs0mg"},{"bike_id":"e7ec1ac1-2323-47bd-a2b5-7cd3afb282cf","system_id":"levelo_inurba_marseille","lat":43.26565,"lon":5.37273,"is_reserved":false,"is_disabled":false,"rental_uris":{"android":"levelo://app?vid=e7ec1ac1-2323-47bd-a2b5-7cd3afb282cf","ios":"levelo://app?vid=e7ec1ac1-2323-47bd-a2b5-7cd3afb282cf"},"vehicle_type_id":"4","last_reported":1741010962,"current_range_meters":14800,"station_id":"ce4bhg12rcd13ifvqf70","pricing_plan_id":"cebpf4jnsgd1na2vs0mg"},{"bike_id":"4a889b84-b11f-4811-9285-06ab95b76212","system_id":"levelo_inurba_marseille","lat":43.2499,"lon":5.38939,"is_reserved":false,"is_disabled":false,"rental_uris":{"android":"levelo://app?vid=4a889b84-b11f-4811-9285-06ab95b76212","ios":"levelo://app?vid=4a889b84-b11f-4811-9285-06ab95b76212"},"vehicle_type_id":"4","last_reported":1741010962,"current_range_meters":14800,"station_id":"ce4bhgp2rcd13ifvqfd0","pricing_plan_id":"cebpf4jnsgd1na2vs0mg"},{"bike_id":"ed2965a1-cbfe-4e23-9666-dce524a34587","system_id":"levelo_inurba_marseille","lat":43.27813,"lon":5.40696,"is_reserved":false,"is_disabled":false,"rental_uris":{"android":"levelo://app?vid=ed2965a1-cbfe-4e23-9666-dce524a34587","ios":"levelo://app?vid=ed2965a1-cbfe-4e23-9666-dce524a34587"},"vehicle_type_id":"4","last_reported":1741010962,"current_range_meters":14800,"station_id":"ce4bhnh2rcd13ifvqgtg","pricing_plan_id":"cebpf4jnsgd1na2vs0mg"},{"bike_id":"fb5844ac-7393-4934-8398-62fbca71335f","system_id":"levelo_inurba_marseille","lat":43.28851,"lon":5.39306,"is_reserved":false,"is_disabled":false,"rental_uris":{"android":"levelo://app?vid=fb5844ac-7393-4934-8398-62fbca71335f","ios":"levelo://app?vid=fb5844ac-7393-4934-8398-62fbca71335f"},"vehicle_type_id":"4","last_reported":1741010962,"current_range_meters":14800,"station_id":"ce4bh2p2rcd13ifvqdi0","pricing_plan_id":"cebpf4jnsgd1na2vs0mg"},{"bike_id":"5ab979f0-89f3-47ff-9697-fce9ac78e919","system_id":"levelo_inurba_marseille","lat":43.28456,"lon":5.35898,"is_reserved":false,"is_disabled":false,"rental_uris":{"android":"levelo://app?vid=5ab979f0-89f3-47ff-9697-fce9ac78e919","ios":"levelo://app?vid=5ab979f0-89f3-47ff-9697-fce9ac78e919"},"vehicle_type_id":"4","last_reported":1741010962,"current_range_meters":14800,"station_id":"ce4bhah2rcd13ifvqei0","pricing_plan_id":"cebpf4jnsgd1na2vs0mg"},{"bike_id":"3f225035-74e7-4780-8ba0-fbcd89403a21","system_id":"levelo_inurba_marseille","lat":43.29712,"lon":5.37697,"is_reserved":false,"is_disabled":false,"rental_uris":{"android":"levelo://app?vid=3f225035-74e7-4780-8ba0-fbcd89403a21","ios":"levelo://app?vid=3f225035-74e7-4780-8ba0-fbcd89403a21"},"vehicle_type_id":"4","last_reported":1741010962,"current_range_meters":14800,"station_id":"ce4bgkh2rcd13ifvqbl0","pricing_plan_id":"cebpf4jnsgd1na2vs0mg"},{"bike_id":"09e6899f-b6a8-46b7-9fa7-de1eb28da5b7","system_id":"levelo_inurba_marseille","lat":43.29001,"lon":5.35615,"is_reserved":false,"is_disabled":false,"rental_uris":{"android":"levelo://app?vid=09e6899f-b6a8-46b7-9fa7-de1eb28da5b7","ios":"levelo://app?vid=09e6899f-b6a8-46b7-9fa7-de1eb28da5b7"},"vehicle_type_id":"4","last_reported":1741010962,"current_range_meters":14800,"station_id":"ce4bhb92rcd13ifvqen0","pricing_plan_id":"cebpf4jnsgd1na2vs0mg"},{"bike_id":"61812780-0486-4dd1-be9a-94b4d42319ea","system_id":"levelo_inurba_marseille","lat":43.31119,"lon":5.37778,"is_reserved":false,"is_disabled":false,"rental_uris":{"android":"levelo://app?vid=61812780-0486-4dd1-be9a-94b4d42319ea","ios":"levelo://app?vid=61812780-0486-4dd1-be9a-94b4d42319ea"},"vehicle_type_id":"4","last_reported":1741010962,"current_range_meters":14800,"station_id":"ce4bgt92rcd13ifvqcg0","pricing_plan_id":"cebpf4jnsgd1na2vs0mg"},{"bike_id":"af20a61f-bfb7-4cf0-ac42-5b98f41e7491","system_id":"levelo_inurba_marseille","lat":43.30307,"lon":5.39205,"is_reserved":false,"is_disabled":false,"rental_uris":{"android":"levelo://app?vid=af20a61f-bfb7-4cf0-ac42-5b98f41e7491","ios":"levelo://app?vid=af20a61f-bfb7-4cf0-ac42-5b98f41e7491"},"vehicle_type_id":"4","last_reported":1741010962,"current_range_meters":14800,"station_id":"ce4bgkh2rcd13ifvqbk0","pricing_plan_id":"cebpf4jnsgd1na2vs0mg"},{"bike_id":"923a7320-a0a7-468e-97eb-20f12ca141af","system_id":"levelo_inurba_marseille","lat":43.25006,"lon":5.38912,"is_reserved":false,"is_disabled":false,"rental_uris":{"android":"levelo://app?vid=923a7320-a0a7-468e-97eb-20f12ca141af","ios":"levelo://app?vid=923a7320-a0a7-468e-97eb-20f12ca141af"},"vehicle_type_id":"4","last_reported":1741010962,"current_range_meters":14800,"station_id":"ce4bhgp2rcd13ifvqfd0","pricing_plan_id":"cebpf4jnsgd1na2vs0mg"},{"bike_id":"e9ee3f82-ad9f-4d15-ba2e-147d42e96090","system_id":"levelo_inurba_marseille","lat":43.33743,"lon":5.39192,"is_reserved":false,"is_disabled":false,"rental_uris":{"android":"levelo://app?vid=e9ee3f82-ad9f-4d15-ba2e-147d42e96090","ios":"levelo://app?vid=e9ee3f82-ad9f-4d15-ba2e-147d42e96090"},"vehicle_type_id":"4","last_reported":1741010962,"current_range_meters":15200,"station_id":"ce4bhr92rcd13ifvqhsg","pricing_plan_id":"cebpf4jnsgd1na2vs0mg"},{"bike_id":"580f3a39-842a-4fdd-a589-5309eed9d153","system_id":"levelo_inurba_marseille","lat":43.25105,"lon":5.39476,"is_reserved":false,"is_disabled":false,"rental_uris":{"android":"levelo://app?vid=580f3a39-842a-4fdd-a589-5309eed9d153","ios":"levelo://app?vid=580f3a39-842a-4fdd-a589-5309eed9d153"},"vehicle_type_id":"4","last_reported":1741010962,"current_range_meters":15200,"station_id":"ce4bhm12rcd13ifvqgkg","pricing_plan_id":"cebpf4jnsgd1na2vs0mg"},{"bike_id":"c97761dd-6076-40b3-8eb8-a1cca581d281","system_id":"levelo_inurba_marseille","lat":43.25912,"lon":5.40887,"is_reserved":false,"is_disabled":false,"rental_uris":{"android":"levelo://app?vid=c97761dd-6076-40b3-8eb8-a1cca581d281","ios":"levelo://app?vid=c97761dd-6076-40b3-8eb8-a1cca581d281"},"vehicle_type_id":"4","last_reported":1741010962,"current_range_meters":15200,"station_id":"ce4bhm92rcd13ifvqglg","pricing_plan_id":"cebpf4jnsgd1na2vs0mg"},{"bike_id":"cb014a6b-6553-43cb-90ee-c6d22cf5883f","system_id":"levelo_inurba_marseille","lat":43.26075,"lon":5.39397,"is_reserved":false,"is_disabled":false,"rental_uris":{"android":"levelo://app?vid=cb014a6b-6553-43cb-90ee-c6d22cf5883f","ios":"levelo://app?vid=cb014a6b-6553-43cb-90ee-c6d22cf5883f"},"vehicle_type_id":"4","last_reported":1741010962,"current_range_meters":15200,"station_id":"ce4bhh92rcd13ifvqfj0","pricing_plan_id":"cebpf4jnsgd1na2vs0mg"},{"bike_id":"44a7153b-0fd7-4509-836b-676bbf84fb06","system_id":"levelo_inurba_marseille","lat":43.23199,"lon":5.35553,"is_reserved":false,"is_disabled":false,"rental_uris":{"android":"levelo://app?vid=44a7153b-0fd7-4509-836b-676bbf84fb06","ios":"levelo://app?vid=44a7153b-0fd7-4509-836b-676bbf84fb06"},"vehicle_type_id":"4","last_reported":1741010962,"current_range_meters":15200,"station_id":"ce4bhu92rcd13ifvqi70","pricing_plan_id":"cebpf4jnsgd1na2vs0mg"},{"bike_id":"c4fd89de-a543-4ad0-a86a-3933fb1348bc","system_id":"levelo_inurba_marseille","lat":43.29049,"lon":5.35896,"is_reserved":false,"is_disabled":false,"rental_uris":{"android":"levelo://app?vid=c4fd89de-a543-4ad0-a86a-3933fb1348bc","ios":"levelo://app?vid=c4fd89de-a543-4ad0-a86a-3933fb1348bc"},"vehicle_type_id":"4","last_reported":1741010962,"current_range_meters":16000,"station_id":"ce4bha92rcd13ifvqeg0","pricing_plan_id":"cebpf4jnsgd1na2vs0mg"},{"bike_id":"33d78023-4d5b-48ce-9665-2809bebb67ae","system_id":"levelo_inurba_marseille","lat":43.28459,"lon":5.35882,"is_reserved":false,"is_disabled":false,"rental_uris":{"android":"levelo://app?vid=33d78023-4d5b-48ce-9665-2809bebb67ae","ios":"levelo://app?vid=33d78023-4d5b-48ce-9665-2809bebb67ae"},"vehicle_type_id":"4","last_reported":1741010962,"current_range_meters":16000,"station_id":"ce4bhah2rcd13ifvqei0","pricing_plan_id":"cebpf4jnsgd1na2vs0mg"},{"bike_id":"6523d424-bfbd-4de8-a70a-e7fd16cabcd7","system_id":"levelo_inurba_marseille","lat":43.27571,"lon":5.384311,"is_reserved":false,"is_disabled":false,"rental_uris":{"android":"levelo://app?vid=6523d424-bfbd-4de8-a70a-e7fd16cabcd7","ios":"levelo://app?vid=6523d424-bfbd-4de8-a70a-e7fd16cabcd7"},"vehicle_type_id":"4","last_reported":1741010962,"current_range_meters":16000,"station_id":"ce4bhh92rcd13ifvqfi0","pricing_plan_id":"cebpf4jnsgd1na2vs0mg"},{"bike_id":"b263ed0b-0f29-4478-914e-04705d0a4931","system_id":"levelo_inurba_marseille","lat":43.30465,"lon":5.37906,"is_reserved":false,"is_disabled":false,"rental_uris":{"android":"levelo://app?vid=b263ed0b-0f29-4478-914e-04705d0a4931","ios":"levelo://app?vid=b263ed0b-0f29-4478-914e-04705d0a4931"},"vehicle_type_id":"4","last_reported":1741010962,"current_range_meters":16000,"station_id":"ce4bgup2rcd13ifvqcn0","pricing_plan_id":"cebpf4jnsgd1na2vs0mg"},{"bike_id":"3622890c-8228-4e63-ae6a-0f5dccff9388","system_id":"levelo_inurba_marseille","lat":43.30959,"lon":5.39069,"is_reserved":false,"is_disabled":false,"rental_uris":{"android":"levelo://app?vid=3622890c-8228-4e63-ae6a-0f5dccff9388","ios":"levelo://app?vid=3622890c-8228-4e63-ae6a-0f5dccff9388"},"vehicle_type_id":"4","last_reported":1741010962,"current_range_meters":16000,"station_id":"ce4bgup2rcd13ifvqco0","pricing_plan_id":"cebpf4jnsgd1na2vs0mg"},{"bike_id":"18da2f6f-6f99-450d-ba40-f8f1649c1e40","system_id":"levelo_inurba_marseille","lat":43.31237,"lon":5.36861,"is_reserved":false,"is_disabled":false,"rental_uris":{"android":"levelo://app?vid=18da2f6f-6f99-450d-ba40-f8f1649c1e40","ios":"levelo://app?vid=18da2f6f-6f99-450d-ba40-f8f1649c1e40"},"vehicle_type_id":"4","last_reported":1741010962,"current_range_meters":16000,"station_id":"ce4bgl92rcd13ifvqbq0","pricing_plan_id":"cebpf4jnsgd1na2vs0mg"},{"bike_id":"b06a57f7-690f-408f-8dd5-adbc59abf289","system_id":"levelo_inurba_marseille","lat":43.24831,"lon":5.37443,"is_reserved":false,"is_disabled":false,"rental_uris":{"android":"levelo://app?vid=b06a57f7-690f-408f-8dd5-adbc59abf289","ios":"levelo://app?vid=b06a57f7-690f-408f-8dd5-adbc59abf289"},"vehicle_type_id":"4","last_reported":1741010962,"current_range_meters":16000,"station_id":"ce4bhgh2rcd13ifvqfb0","pricing_plan_id":"cebpf4jnsgd1na2vs0mg"},{"bike_id":"ee1d2ad1-36ca-49dd-a328-f2a9a9994ecb","system_id":"levelo_inurba_marseille","lat":43.31085,"lon":5.38138,"is_reserved":false,"is_disabled":false,"rental_uris":{"android":"levelo://app?vid=ee1d2ad1-36ca-49dd-a328-f2a9a9994ecb","ios":"levelo://app?vid=ee1d2ad1-36ca-49dd-a328-f2a9a9994ecb"},"vehicle_type_id":"4","last_reported":1741010962,"current_range_meters":16400,"station_id":"","pricing_plan_id":"cebpf4jnsgd1na2vs0mg"},{"bike_id":"67fdb080-1cf7-4f60-a1ec-ce86ba0897f0","system_id":"levelo_inurba_marseille","lat":43.30958,"lon":5.39058,"is_reserved":false,"is_disabled":false,"rental_uris":{"android":"levelo://app?vid=67fdb080-1cf7-4f60-a1ec-ce86ba0897f0","ios":"levelo://app?vid=67fdb080-1cf7-4f60-a1ec-ce86ba0897f0"},"vehicle_type_id":"4","last_reported":1741010962,"current_range_meters":16400,"station_id":"ce4bgup2rcd13ifvqco0","pricing_plan_id":"cebpf4jnsgd1na2vs0mg"},{"bike_id":"caf58b05-cd4a-413c-8689-17ee665f08bd","system_id":"levelo_inurba_marseille","lat":43.2797,"lon":5.38747,"is_reserved":false,"is_disabled":false,"rental_uris":{"android":"levelo://app?vid=caf58b05-cd4a-413c-8689-17ee665f08bd","ios":"levelo://app?vid=caf58b05-cd4a-413c-8689-17ee665f08bd"},"vehicle_type_id":"4","last_reported":1741010962,"current_range_meters":16400,"station_id":"ce4bhg12rcd13ifvqf80","pricing_plan_id":"cebpf4jnsgd1na2vs0mg"},{"bike_id":"f9ea3f30-d6c1-4273-88ff-d95cb494ba30","system_id":"levelo_inurba_marseille","lat":43.30552,"lon":5.36569,"is_reserved":false,"is_disabled":false,"rental_uris":{"android":"levelo://app?vid=f9ea3f30-d6c1-4273-88ff-d95cb494ba30","ios":"levelo://app?vid=f9ea3f30-d6c1-4273-88ff-d95cb494ba30"},"vehicle_type_id":"4","last_reported":1741010962,"current_range_meters":16400,"station_id":"ce4bgs12rcd13ifvqcag","pricing_plan_id":"cebpf4jnsgd1na2vs0mg"},{"bike_id":"1fc1950f-5c68-4ba8-90a8-b8173654385b","system_id":"levelo_inurba_marseille","lat":43.24992,"lon":5.38937,"is_reserved":false,"is_disabled":false,"rental_uris":{"android":"levelo://app?vid=1fc1950f-5c68-4ba8-90a8-b8173654385b","ios":"levelo://app?vid=1fc1950f-5c68-4ba8-90a8-b8173654385b"},"vehicle_type_id":"4","last_reported":1741010962,"current_range_meters":16800,"station_id":"ce4bhgp2rcd13ifvqfd0","pricing_plan_id":"cebpf4jnsgd1na2vs0mg"},{"bike_id":"4c18281c-c229-4899-9431-f1c69444bc69","system_id":"levelo_inurba_marseille","lat":43.30303,"lon":5.36901,"is_reserved":false,"is_disabled":false,"rental_uris":{"android":"levelo://app?vid=4c18281c-c229-4899-9431-f1c69444bc69","ios":"levelo://app?vid=4c18281c-c229-4899-9431-f1c69444bc69"},"vehicle_type_id":"4","last_reported":1741010962,"current_range_meters":16800,"station_id":"ce4bgqh2rcd13ifvqc5g","pricing_plan_id":"cebpf4jnsgd1na2vs0mg"},{"bike_id":"d70f2244-0a55-45cf-ada8-5e84407e052a","system_id":"levelo_inurba_marseille","lat":43.24574,"lon":5.39535,"is_reserved":false,"is_disabled":false,"rental_uris":{"android":"levelo://app?vid=d70f2244-0a55-45cf-ada8-5e84407e052a","ios":"levelo://app?vid=d70f2244-0a55-45cf-ada8-5e84407e052a"},"vehicle_type_id":"4","last_reported":1741010962,"current_range_meters":16800,"station_id":"ce4bhlp2rcd13ifvqgjg","pricing_plan_id":"cebpf4jnsgd1na2vs0mg"},{"bike_id":"2088d297-ac0e-4674-b1cb-86b29bb33a9f","system_id":"levelo_inurba_marseille","lat":43.2501,"lon":5.38913,"is_reserved":false,"is_disabled":false,"rental_uris":{"android":"levelo://app?vid=2088d297-ac0e-4674-b1cb-86b29bb33a9f","ios":"levelo://app?vid=2088d297-ac0e-4674-b1cb-86b29bb33a9f"},"vehicle_type_id":"4","last_reported":1741010962,"current_range_meters":16800,"station_id":"ce4bhgp2rcd13ifvqfd0","pricing_plan_id":"cebpf4jnsgd1na2vs0mg"},{"bike_id":"ce5b185b-58ec-41d8-b88a-0503160db8c6","system_id":"levelo_inurba_marseille","lat":43.24663,"lon":5.38167,"is_reserved":false,"is_disabled":false,"rental_uris":{"android":"levelo://app?vid=ce5b185b-58ec-41d8-b88a-0503160db8c6","ios":"levelo://app?vid=ce5b185b-58ec-41d8-b88a-0503160db8c6"},"vehicle_type_id":"4","last_reported":1741010962,"current_range_meters":16800,"station_id":"ce4bhih2rcd13ifvqfr0","pricing_plan_id":"cebpf4jnsgd1na2vs0mg"},{"bike_id":"4e40f849-23d1-4615-a2ce-186b2c1ad0e1","system_id":"levelo_inurba_marseille","lat":43.28068,"lon":5.39626,"is_reserved":false,"is_disabled":false,"rental_uris":{"android":"levelo://app?vid=4e40f849-23d1-4615-a2ce-186b2c1ad0e1","ios":"levelo://app?vid=4e40f849-23d1-4615-a2ce-186b2c1ad0e1"},"vehicle_type_id":"4","last_reported":1741010962,"current_range_meters":16800,"station_id":"ce4bho12rcd13ifvqh2g","pricing_plan_id":"cebpf4jnsgd1na2vs0mg"},{"bike_id":"fdfa3bc9-c2d6-44fc-85b3-78e3051752a6","system_id":"levelo_inurba_marseille","lat":43.29808,"lon":5.38107,"is_reserved":false,"is_disabled":false,"rental_uris":{"android":"levelo://app?vid=fdfa3bc9-c2d6-44fc-85b3-78e3051752a6","ios":"levelo://app?vid=fdfa3bc9-c2d6-44fc-85b3-78e3051752a6"},"vehicle_type_id":"4","last_reported":1741010962,"current_range_meters":16800,"station_id":"ce4bgip2rcd13ifvqbb0","pricing_plan_id":"cebpf4jnsgd1na2vs0mg"},{"bike_id":"0594f139-e507-4242-b4d2-1eccd19079ba","system_id":"levelo_inurba_marseille","lat":43.29653,"lon":5.3711,"is_reserved":false,"is_disabled":false,"rental_uris":{"android":"levelo://app?vid=0594f139-e507-4242-b4d2-1eccd19079ba","ios":"levelo://app?vid=0594f139-e507-4242-b4d2-1eccd19079ba"},"vehicle_type_id":"4","last_reported":1741010962,"current_range_meters":16800,"station_id":"ce4bgnh2rcd13ifvqc0g","pricing_plan_id":"cebpf4jnsgd1na2vs0mg"},{"bike_id":"65aa662c-e453-4d8b-b06f-b63cd98dac3d","system_id":"levelo_inurba_marseille","lat":43.2985,"lon":5.36264,"is_reserved":false,"is_disabled":false,"rental_uris":{"android":"levelo://app?vid=65aa662c-e453-4d8b-b06f-b63cd98dac3d","ios":"levelo://app?vid=65aa662c-e453-4d8b-b06f-b63cd98dac3d"},"vehicle_type_id":"4","last_reported":1741010962,"current_range_meters":16800,"station_id":"ce4bgpp2rcd13ifvqc3g","pricing_plan_id":"cebpf4jnsgd1na2vs0mg"},{"bike_id":"c75b1c7e-4398-4900-9ce2-dcdb6577faf9","system_id":"levelo_inurba_marseille","lat":43.27192,"lon":5.39159,"is_reserved":false,"is_disabled":false,"rental_uris":{"android":"levelo://app?vid=c75b1c7e-4398-4900-9ce2-dcdb6577faf9","ios":"levelo://app?vid=c75b1c7e-4398-4900-9ce2-dcdb6577faf9"},"vehicle_type_id":"4","last_reported":1741010962,"current_range_meters":17200,"station_id":"ce4bhhp2rcd13ifvqfm0","pricing_plan_id":"cebpf4jnsgd1na2vs0mg"},{"bike_id":"cd562a91-613e-4ef9-b930-1c3f24da6da6","system_id":"levelo_inurba_marseille","lat":43.28489,"lon":5.38562,"is_reserved":false,"is_disabled":false,"rental_uris":{"android":"levelo://app?vid=cd562a91-613e-4ef9-b930-1c3f24da6da6","ios":"levelo://app?vid=cd562a91-613e-4ef9-b930-1c3f24da6da6"},"vehicle_type_id":"4","last_reported":1741010962,"current_range_meters":17200,"station_id":"ce4bh8p2rcd13ifvqeb0","pricing_plan_id":"cebpf4jnsgd1na2vs0mg"},{"bike_id":"31e8bd49-9d82-4485-bd12-3b4ff1304b2e","system_id":"levelo_inurba_marseille","lat":43.30539,"lon":5.36535,"is_reserved":false,"is_disabled":false,"rental_uris":{"android":"levelo://app?vid=31e8bd49-9d82-4485-bd12-3b4ff1304b2e","ios":"levelo://app?vid=31e8bd49-9d82-4485-bd12-3b4ff1304b2e"},"vehicle_type_id":"4","last_reported":1741010962,"current_range_meters":17200,"station_id":"ce4bgs12rcd13ifvqcag","pricing_plan_id":"cebpf4jnsgd1na2vs0mg"},{"bike_id":"eec8ce3b-4ab8-44f5-aa82-40785d778ad1","system_id":"levelo_inurba_marseille","lat":43.27569,"lon":5.38422,"is_reserved":false,"is_disabled":false,"rental_uris":{"android":"levelo://app?vid=eec8ce3b-4ab8-44f5-aa82-40785d778ad1","ios":"levelo://app?vid=eec8ce3b-4ab8-44f5-aa82-40785d778ad1"},"vehicle_type_id":"4","last_reported":1741010962,"current_range_meters":17200,"station_id":"ce4bhh92rcd13ifvqfi0","pricing_plan_id":"cebpf4jnsgd1na2vs0mg"},{"bike_id":"e0bbd19f-dbed-424f-998c-e43cb85c9ec3","system_id":"levelo_inurba_marseille","lat":43.24171,"lon":5.36394,"is_reserved":false,"is_disabled":false,"rental_uris":{"android":"levelo://app?vid=e0bbd19f-dbed-424f-998c-e43cb85c9ec3","ios":"levelo://app?vid=e0bbd19f-dbed-424f-998c-e43cb85c9ec3"},"vehicle_type_id":"4","last_reported":1741010962,"current_range_meters":17200,"station_id":"cpo36qri1sfpv3e86is0","pricing_plan_id":"cebpf4jnsgd1na2vs0mg"},{"bike_id":"bceefa18-3210-470b-a055-75e2385cf62f","system_id":"levelo_inurba_marseille","lat":43.23155,"lon":5.43703,"is_reserved":false,"is_disabled":false,"rental_uris":{"android":"levelo://app?vid=bceefa18-3210-470b-a055-75e2385cf62f","ios":"levelo://app?vid=bceefa18-3210-470b-a055-75e2385cf62f"},"vehicle_type_id":"4","last_reported":1741010962,"current_range_meters":17200,"station_id":"ce4bhmp2rcd13ifvqgog","pricing_plan_id":"cebpf4jnsgd1na2vs0mg"},{"bike_id":"2cd28331-dfa4-4dbf-a9a4-00438003c212","system_id":"levelo_inurba_marseille","lat":43.28841,"lon":5.35847,"is_reserved":false,"is_disabled":false,"rental_uris":{"android":"levelo://app?vid=2cd28331-dfa4-4dbf-a9a4-00438003c212","ios":"levelo://app?vid=2cd28331-dfa4-4dbf-a9a4-00438003c212"},"vehicle_type_id":"4","last_reported":1741010962,"current_range_meters":17200,"station_id":"ce4bhb12rcd13ifvqem0","pricing_plan_id":"cebpf4jnsgd1na2vs0mg"},{"bike_id":"f3bac1c2-f07e-4311-ba20-9ccc53becb56","system_id":"levelo_inurba_marseille","lat":43.30492,"lon":5.37892,"is_reserved":false,"is_disabled":false,"rental_uris":{"android":"levelo://app?vid=f3bac1c2-f07e-4311-ba20-9ccc53becb56","ios":"levelo://app?vid=f3bac1c2-f07e-4311-ba20-9ccc53becb56"},"vehicle_type_id":"4","last_reported":1741010962,"current_range_meters":17200,"station_id":"ce4bgup2rcd13ifvqcn0","pricing_plan_id":"cebpf4jnsgd1na2vs0mg"},{"bike_id":"8e7049e0-f12b-48c8-ae6d-9473edd241c8","system_id":"levelo_inurba_marseille","lat":43.275,"lon":5.42451,"is_reserved":false,"is_disabled":false,"rental_uris":{"android":"levelo://app?vid=8e7049e0-f12b-48c8-ae6d-9473edd241c8","ios":"levelo://app?vid=8e7049e0-f12b-48c8-ae6d-9473edd241c8"},"vehicle_type_id":"4","last_reported":1741010962,"current_range_meters":17600,"station_id":"ce4bhn92rcd13ifvqgrg","pricing_plan_id":"cebpf4jnsgd1na2vs0mg"},{"bike_id":"3f9eb42c-6bd7-4563-a567-6b83d4a83b3e","system_id":"levelo_inurba_marseille","lat":43.245462,"lon":5.395173,"is_reserved":false,"is_disabled":false,"rental_uris":{"android":"levelo://app?vid=3f9eb42c-6bd7-4563-a567-6b83d4a83b3e","ios":"levelo://app?vid=3f9eb42c-6bd7-4563-a567-6b83d4a83b3e"},"vehicle_type_id":"4","last_reported":1741010962,"current_range_meters":17600,"station_id":"ce4bhlp2rcd13ifvqgjg","pricing_plan_id":"cebpf4jnsgd1na2vs0mg"},{"bike_id":"98c2200b-0fcb-42ec-9fcf-1f341be09ea3","system_id":"levelo_inurba_marseille","lat":43.31176,"lon":5.36933,"is_reserved":false,"is_disabled":false,"rental_uris":{"android":"levelo://app?vid=98c2200b-0fcb-42ec-9fcf-1f341be09ea3","ios":"levelo://app?vid=98c2200b-0fcb-42ec-9fcf-1f341be09ea3"},"vehicle_type_id":"4","last_reported":1741010962,"current_range_meters":17600,"station_id":"","pricing_plan_id":"cebpf4jnsgd1na2vs0mg"},{"bike_id":"02c85aee-6faf-45a0-bb1f-6c1b5eedd680","system_id":"levelo_inurba_marseille","lat":43.23157,"lon":5.43727,"is_reserved":false,"is_disabled":false,"rental_uris":{"android":"levelo://app?vid=02c85aee-6faf-45a0-bb1f-6c1b5eedd680","ios":"levelo://app?vid=02c85aee-6faf-45a0-bb1f-6c1b5eedd680"},"vehicle_type_id":"4","last_reported":1741010962,"current_range_meters":17600,"station_id":"ce4bhmp2rcd13ifvqgog","pricing_plan_id":"cebpf4jnsgd1na2vs0mg"},{"bike_id":"a435c1ea-05bb-44c6-ada3-d5c7ca379f47","system_id":"levelo_inurba_marseille","lat":43.26493,"lon":5.3954,"is_reserved":false,"is_disabled":false,"rental_uris":{"android":"levelo://app?vid=a435c1ea-05bb-44c6-ada3-d5c7ca379f47","ios":"levelo://app?vid=a435c1ea-05bb-44c6-ada3-d5c7ca379f47"},"vehicle_type_id":"4","last_reported":1741010962,"current_range_meters":17600,"station_id":"ce4bhi12rcd13ifvqfq0","pricing_plan_id":"cebpf4jnsgd1na2vs0mg"},{"bike_id":"fe9e67f2-0e1e-43af-b101-2796b0bfa3bc","system_id":"levelo_inurba_marseille","lat":43.31352,"lon":5.36714,"is_reserved":false,"is_disabled":false,"rental_uris":{"android":"levelo://app?vid=fe9e67f2-0e1e-43af-b101-2796b0bfa3bc","ios":"levelo://app?vid=fe9e67f2-0e1e-43af-b101-2796b0bfa3bc"},"vehicle_type_id":"4","last_reported":1741010962,"current_range_meters":17600,"station_id":"ce4bgr92rcd13ifvqc6g","pricing_plan_id":"cebpf4jnsgd1na2vs0mg"},{"bike_id":"cfd37df0-b1c6-4f94-a627-4f20422c897a","system_id":"levelo_inurba_marseille","lat":43.27693,"lon":5.41544,"is_reserved":false,"is_disabled":false,"rental_uris":{"android":"levelo://app?vid=cfd37df0-b1c6-4f94-a627-4f20422c897a","ios":"levelo://app?vid=cfd37df0-b1c6-4f94-a627-4f20422c897a"},"vehicle_type_id":"4","last_reported":1741010962,"current_range_meters":17600,"station_id":"","pricing_plan_id":"cebpf4jnsgd1na2vs0mg"},{"bike_id":"7f32c354-9e10-4b6c-8f91-9cedece6ac9f","system_id":"levelo_inurba_marseille","lat":43.3031,"lon":5.36894,"is_reserved":false,"is_disabled":false,"rental_uris":{"android":"levelo://app?vid=7f32c354-9e10-4b6c-8f91-9cedece6ac9f","ios":"levelo://app?vid=7f32c354-9e10-4b6c-8f91-9cedece6ac9f"},"vehicle_type_id":"4","last_reported":1741010962,"current_range_meters":18000,"station_id":"ce4bgqh2rcd13ifvqc5g","pricing_plan_id":"cebpf4jnsgd1na2vs0mg"},{"bike_id":"21d576ee-ad99-4344-99a6-48a7647dc728","system_id":"levelo_inurba_marseille","lat":43.32932,"lon":5.42996,"is_reserved":false,"is_disabled":false,"rental_uris":{"android":"levelo://app?vid=21d576ee-ad99-4344-99a6-48a7647dc728","ios":"levelo://app?vid=21d576ee-ad99-4344-99a6-48a7647dc728"},"vehicle_type_id":"4","last_reported":1741010962,"current_range_meters":18000,"station_id":"","pricing_plan_id":"cebpf4jnsgd1na2vs0mg"},{"bike_id":"6f562af7-09c3-4a66-acf9-1fd7bea71cfe","system_id":"levelo_inurba_marseille","lat":43.23193,"lon":5.35563,"is_reserved":false,"is_disabled":false,"rental_uris":{"android":"levelo://app?vid=6f562af7-09c3-4a66-acf9-1fd7bea71cfe","ios":"levelo://app?vid=6f562af7-09c3-4a66-acf9-1fd7bea71cfe"},"vehicle_type_id":"4","last_reported":1741010962,"current_range_meters":18000,"station_id":"ce4bhu92rcd13ifvqi70","pricing_plan_id":"cebpf4jnsgd1na2vs0mg"},{"bike_id":"8d5a005e-adec-405b-9611-e1004fd78c4c","system_id":"levelo_inurba_marseille","lat":43.30442,"lon":5.38893,"is_reserved":false,"is_disabled":false,"rental_uris":{"android":"levelo://app?vid=8d5a005e-adec-405b-9611-e1004fd78c4c","ios":"levelo://app?vid=8d5a005e-adec-405b-9611-e1004fd78c4c"},"vehicle_type_id":"4","last_reported":1741010962,"current_range_meters":18000,"station_id":"ce4bgk12rcd13ifvqbi0","pricing_plan_id":"cebpf4jnsgd1na2vs0mg"},{"bike_id":"5515b2ed-d24a-4958-9699-245f169e22b6","system_id":"levelo_inurba_marseille","lat":43.29552,"lon":5.42277,"is_reserved":false,"is_disabled":false,"rental_uris":{"android":"levelo://app?vid=5515b2ed-d24a-4958-9699-245f169e22b6","ios":"levelo://app?vid=5515b2ed-d24a-4958-9699-245f169e22b6"},"vehicle_type_id":"4","last_reported":1741010962,"current_range_meters":18000,"station_id":"ce4bhph2rcd13ifvqhdg","pricing_plan_id":"cebpf4jnsgd1na2vs0mg"},{"bike_id":"e451f38b-6d63-43e8-bfe1-352bccfab938","system_id":"levelo_inurba_marseille","lat":43.28028,"lon":5.3695,"is_reserved":false,"is_disabled":false,"rental_uris":{"android":"levelo://app?vid=e451f38b-6d63-43e8-bfe1-352bccfab938","ios":"levelo://app?vid=e451f38b-6d63-43e8-bfe1-352bccfab938"},"vehicle_type_id":"4","last_reported":1741010962,"current_range_meters":18800,"station_id":"ce4bha12rcd13ifvqef0","pricing_plan_id":"cebpf4jnsgd1na2vs0mg"},{"bike_id":"ad7f03a8-b253-4da6-871b-2dafec0c2279","system_id":"levelo_inurba_marseille","lat":43.25864,"lon":5.39915,"is_reserved":false,"is_disabled":false,"rental_uris":{"android":"levelo://app?vid=ad7f03a8-b253-4da6-871b-2dafec0c2279","ios":"levelo://app?vid=ad7f03a8-b253-4da6-871b-2dafec0c2279"},"vehicle_type_id":"4","last_reported":1741010962,"current_range_meters":18800,"station_id":"ce4bhl92rcd13ifvqghg","pricing_plan_id":"cebpf4jnsgd1na2vs0mg"},{"bike_id":"c00e1c80-53d7-4c09-b5f2-be132939e171","system_id":"levelo_inurba_marseille","lat":43.28464,"lon":5.35891,"is_reserved":false,"is_disabled":false,"rental_uris":{"android":"levelo://app?vid=c00e1c80-53d7-4c09-b5f2-be132939e171","ios":"levelo://app?vid=c00e1c80-53d7-4c09-b5f2-be132939e171"},"vehicle_type_id":"4","last_reported":1741010962,"current_range_meters":18800,"station_id":"ce4bhah2rcd13ifvqei0","pricing_plan_id":"cebpf4jnsgd1na2vs0mg"},{"bike_id":"f86137a3-965a-49d7-b6fa-ddb1b6f1937b","system_id":"levelo_inurba_marseille","lat":43.29702,"lon":5.37711,"is_reserved":false,"is_disabled":false,"rental_uris":{"android":"levelo://app?vid=f86137a3-965a-49d7-b6fa-ddb1b6f1937b","ios":"levelo://app?vid=f86137a3-965a-49d7-b6fa-ddb1b6f1937b"},"vehicle_type_id":"4","last_reported":1741010962,"current_range_meters":18000,"station_id":"ce4bgkh2rcd13ifvqbl0","pricing_plan_id":"cebpf4jnsgd1na2vs0mg"},{"bike_id":"5c829e28-32f0-4b3c-b5c5-881e9950e3f2","system_id":"levelo_inurba_marseille","lat":43.28459,"lon":5.35891,"is_reserved":false,"is_disabled":false,"rental_uris":{"android":"levelo://app?vid=5c829e28-32f0-4b3c-b5c5-881e9950e3f2","ios":"levelo://app?vid=5c829e28-32f0-4b3c-b5c5-881e9950e3f2"},"vehicle_type_id":"4","last_reported":1741010962,"current_range_meters":18800,"station_id":"ce4bhah2rcd13ifvqei0","pricing_plan_id":"cebpf4jnsgd1na2vs0mg"},{"bike_id":"ce4026f1-4ad4-4bd2-b171-8829b57aa4f1","system_id":"levelo_inurba_marseille","lat":43.29624,"lon":5.37165,"is_reserved":false,"is_disabled":false,"rental_uris":{"android":"levelo://app?vid=ce4026f1-4ad4-4bd2-b171-8829b57aa4f1","ios":"levelo://app?vid=ce4026f1-4ad4-4bd2-b171-8829b57aa4f1"},"vehicle_type_id":"4","last_reported":1741010962,"current_range_meters":18800,"station_id":"ce4bgnh2rcd13ifvqc0g","pricing_plan_id":"cebpf4jnsgd1na2vs0mg"},{"bike_id":"53ad4496-9844-4a4a-8820-0ec7f7b7323a","system_id":"levelo_inurba_marseille","lat":43.31252,"lon":5.36841,"is_reserved":false,"is_disabled":false,"rental_uris":{"android":"levelo://app?vid=53ad4496-9844-4a4a-8820-0ec7f7b7323a","ios":"levelo://app?vid=53ad4496-9844-4a4a-8820-0ec7f7b7323a"},"vehicle_type_id":"4","last_reported":1741010962,"current_range_meters":18800,"station_id":"ce4bgl92rcd13ifvqbq0","pricing_plan_id":"cebpf4jnsgd1na2vs0mg"},{"bike_id":"c8134fc0-79d4-470e-98a2-74375b91daf0","system_id":"levelo_inurba_marseille","lat":43.26065,"lon":5.39388,"is_reserved":false,"is_disabled":false,"rental_uris":{"android":"levelo://app?vid=c8134fc0-79d4-470e-98a2-74375b91daf0","ios":"levelo://app?vid=c8134fc0-79d4-470e-98a2-74375b91daf0"},"vehicle_type_id":"4","last_reported":1741010962,"current_range_meters":19200,"station_id":"ce4bhh92rcd13ifvqfj0","pricing_plan_id":"cebpf4jnsgd1na2vs0mg"},{"bike_id":"e6ce3260-6e42-4334-a434-b7f25aa0a5bb","system_id":"levelo_inurba_marseille","lat":43.31339,"lon":5.39673,"is_reserved":false,"is_disabled":true,"rental_uris":{"android":"levelo://app?vid=e6ce3260-6e42-4334-a434-b7f25aa0a5bb","ios":"levelo://app?vid=e6ce3260-6e42-4334-a434-b7f25aa0a5bb"},"vehicle_type_id":"4","last_reported":1741010962,"current_range_meters":19200,"station_id":"ce4bgvp2rcd13ifvqcu0","pricing_plan_id":"cebpf4jnsgd1na2vs0mg"},{"bike_id":"75a6b6a8-8cc6-4434-952f-1a367a05e9d7","system_id":"levelo_inurba_marseille","lat":43.27315,"lon":5.39135,"is_reserved":false,"is_disabled":false,"rental_uris":{"android":"levelo://app?vid=75a6b6a8-8cc6-4434-952f-1a367a05e9d7","ios":"levelo://app?vid=75a6b6a8-8cc6-4434-952f-1a367a05e9d7"},"vehicle_type_id":"4","last_reported":1741010962,"current_range_meters":19200,"station_id":"ce4bhgp2rcd13ifvqfe0","pricing_plan_id":"cebpf4jnsgd1na2vs0mg"},{"bike_id":"ec829cb0-1abc-41cc-bdf2-03325252e782","system_id":"levelo_inurba_marseille","lat":43.24653,"lon":5.3888,"is_reserved":false,"is_disabled":false,"rental_uris":{"android":"levelo://app?vid=ec829cb0-1abc-41cc-bdf2-03325252e782","ios":"levelo://app?vid=ec829cb0-1abc-41cc-bdf2-03325252e782"},"vehicle_type_id":"4","last_reported":1741010962,"current_range_meters":19200,"station_id":"ce4bhg12rcd13ifvqf60","pricing_plan_id":"cebpf4jnsgd1na2vs0mg"},{"bike_id":"c0f22c0d-d67e-48c7-a424-3fc239778478","system_id":"levelo_inurba_marseille","lat":43.25501,"lon":5.3765,"is_reserved":false,"is_disabled":false,"rental_uris":{"android":"levelo://app?vid=c0f22c0d-d67e-48c7-a424-3fc239778478","ios":"levelo://app?vid=c0f22c0d-d67e-48c7-a424-3fc239778478"},"vehicle_type_id":"4","last_reported":1741010962,"current_range_meters":19200,"station_id":"ce4bhh12rcd13ifvqff0","pricing_plan_id":"cebpf4jnsgd1na2vs0mg"},{"bike_id":"73044ac8-aa4f-4e43-9050-be90f82c89a0","system_id":"levelo_inurba_marseille","lat":43.27979,"lon":5.40034,"is_reserved":false,"is_disabled":false,"rental_uris":{"android":"levelo://app?vid=73044ac8-aa4f-4e43-9050-be90f82c89a0","ios":"levelo://app?vid=73044ac8-aa4f-4e43-9050-be90f82c89a0"},"vehicle_type_id":"4","last_reported":1741010962,"current_range_meters":19600,"station_id":"ce4bho92rcd13ifvqh4g","pricing_plan_id":"cebpf4jnsgd1na2vs0mg"},{"bike_id":"172b283a-f30f-46db-b1bb-42f003cdd762","system_id":"levelo_inurba_marseille","lat":43.29588,"lon":5.37369,"is_reserved":false,"is_disabled":false,"rental_uris":{"android":"levelo://app?vid=172b283a-f30f-46db-b1bb-42f003cdd762","ios":"levelo://app?vid=172b283a-f30f-46db-b1bb-42f003cdd762"},"vehicle_type_id":"4","last_reported":1741010962,"current_range_meters":19600,"station_id":"","pricing_plan_id":"cebpf4jnsgd1na2vs0mg"},{"bike_id":"d1ee12b9-92c2-4a0b-b2a8-8fc4862b773c","system_id":"levelo_inurba_marseille","lat":43.27054,"lon":5.4027,"is_reserved":false,"is_disabled":false,"rental_uris":{"android":"levelo://app?vid=d1ee12b9-92c2-4a0b-b2a8-8fc4862b773c","ios":"levelo://app?vid=d1ee12b9-92c2-4a0b-b2a8-8fc4862b773c"},"vehicle_type_id":"4","last_reported":1741010962,"current_range_meters":19600,"station_id":"ce4bhk92rcd13ifvqgc0","pricing_plan_id":"cebpf4jnsgd1na2vs0mg"},{"bike_id":"47ca7176-dcba-4b9e-8dbb-e2bb239319ab","system_id":"levelo_inurba_marseille","lat":43.31435,"lon":5.38528,"is_reserved":false,"is_disabled":false,"rental_uris":{"android":"levelo://app?vid=47ca7176-dcba-4b9e-8dbb-e2bb239319ab","ios":"levelo://app?vid=47ca7176-dcba-4b9e-8dbb-e2bb239319ab"},"vehicle_type_id":"4","last_reported":1741010962,"current_range_meters":19600,"station_id":"","pricing_plan_id":"cebpf4jnsgd1na2vs0mg"},{"bike_id":"26c9f8b3-55ef-4365-ab7d-6a48d1b2a066","system_id":"levelo_inurba_marseille","lat":43.29004,"lon":5.35616,"is_reserved":false,"is_disabled":false,"rental_uris":{"android":"levelo://app?vid=26c9f8b3-55ef-4365-ab7d-6a48d1b2a066","ios":"levelo://app?vid=26c9f8b3-55ef-4365-ab7d-6a48d1b2a066"},"vehicle_type_id":"4","last_reported":1741010962,"current_range_meters":19600,"station_id":"ce4bhb92rcd13ifvqen0","pricing_plan_id":"cebpf4jnsgd1na2vs0mg"},{"bike_id":"3ae9eed0-db5b-46d4-9d06-efcd66438e08","system_id":"levelo_inurba_marseille","lat":43.28944,"lon":5.36643,"is_reserved":false,"is_disabled":false,"rental_uris":{"android":"levelo://app?vid=3ae9eed0-db5b-46d4-9d06-efcd66438e08","ios":"levelo://app?vid=3ae9eed0-db5b-46d4-9d06-efcd66438e08"},"vehicle_type_id":"4","last_reported":1741010962,"current_range_meters":19600,"station_id":"ce4bhap2rcd13ifvqek0","pricing_plan_id":"cebpf4jnsgd1na2vs0mg"},{"bike_id":"e14ef293-eb82-44d0-8012-6fe5ab3c92d9","system_id":"levelo_inurba_marseille","lat":43.26021,"lon":5.3756,"is_reserved":false,"is_disabled":false,"rental_uris":{"android":"levelo://app?vid=e14ef293-eb82-44d0-8012-6fe5ab3c92d9","ios":"levelo://app?vid=e14ef293-eb82-44d0-8012-6fe5ab3c92d9"},"vehicle_type_id":"4","last_reported":1741010962,"current_range_meters":19600,"station_id":"ce4bhgh2rcd13ifvqfa0","pricing_plan_id":"cebpf4jnsgd1na2vs0mg"},{"bike_id":"aca4adff-04e9-4ad9-a6d9-31161238d89d","system_id":"levelo_inurba_marseille","lat":43.2845,"lon":5.3921,"is_reserved":false,"is_disabled":false,"rental_uris":{"android":"levelo://app?vid=aca4adff-04e9-4ad9-a6d9-31161238d89d","ios":"levelo://app?vid=aca4adff-04e9-4ad9-a6d9-31161238d89d"},"vehicle_type_id":"4","last_reported":1741010962,"current_range_meters":19600,"station_id":"ce4bhoh2rcd13ifvqh5g","pricing_plan_id":"cebpf4jnsgd1na2vs0mg"},{"bike_id":"2e70cc00-93d2-40fd-a88c-b83f98d83cdd","system_id":"levelo_inurba_marseille","lat":43.25957,"lon":5.40892,"is_reserved":false,"is_disabled":false,"rental_uris":{"android":"levelo://app?vid=2e70cc00-93d2-40fd-a88c-b83f98d83cdd","ios":"levelo://app?vid=2e70cc00-93d2-40fd-a88c-b83f98d83cdd"},"vehicle_type_id":"4","last_reported":1741010962,"current_range_meters":19600,"station_id":"ce4bhm92rcd13ifvqglg","pricing_plan_id":"cebpf4jnsgd1na2vs0mg"},{"bike_id":"b56e38d9-6464-43db-aba0-576f488f7563","system_id":"levelo_inurba_marseille","lat":43.27499,"lon":5.42457,"is_reserved":false,"is_disabled":false,"rental_uris":{"android":"levelo://app?vid=b56e38d9-6464-43db-aba0-576f488f7563","ios":"levelo://app?vid=b56e38d9-6464-43db-aba0-576f488f7563"},"vehicle_type_id":"4","last_reported":1741010962,"current_range_meters":19600,"station_id":"ce4bhn92rcd13ifvqgrg","pricing_plan_id":"cebpf4jnsgd1na2vs0mg"},{"bike_id":"4c829075-9c8e-4529-933b-ca0c248618e7","system_id":"levelo_inurba_marseille","lat":43.24077,"lon":5.37745,"is_reserved":false,"is_disabled":false,"rental_uris":{"android":"levelo://app?vid=4c829075-9c8e-4529-933b-ca0c248618e7","ios":"levelo://app?vid=4c829075-9c8e-4529-933b-ca0c248618e7"},"vehicle_type_id":"4","last_reported":1741010962,"current_range_meters":19600,"station_id":"ce4bhnp2rcd13ifvqgvg","pricing_plan_id":"cebpf4jnsgd1na2vs0mg"},{"bike_id":"481897a1-ed26-4efc-a253-65fd4a6376ed","system_id":"levelo_inurba_marseille","lat":43.280596,"lon":5.387184,"is_reserved":false,"is_disabled":false,"rental_uris":{"android":"levelo://app?vid=481897a1-ed26-4efc-a253-65fd4a6376ed","ios":"levelo://app?vid=481897a1-ed26-4efc-a253-65fd4a6376ed"},"vehicle_type_id":"4","last_reported":1741010962,"current_range_meters":19600,"station_id":"ce4bh512rcd13ifvqe3g","pricing_plan_id":"cebpf4jnsgd1na2vs0mg"},{"bike_id":"0398969e-2ea9-4de4-bb47-6b28e777afb2","system_id":"levelo_inurba_marseille","lat":43.26567,"lon":5.39007,"is_reserved":false,"is_disabled":false,"rental_uris":{"android":"levelo://app?vid=0398969e-2ea9-4de4-bb47-6b28e777afb2","ios":"levelo://app?vid=0398969e-2ea9-4de4-bb47-6b28e777afb2"},"vehicle_type_id":"4","last_reported":1741010962,"current_range_meters":19600,"station_id":"ce4bhe12rcd13ifvqf30","pricing_plan_id":"cebpf4jnsgd1na2vs0mg"},{"bike_id":"4f22ed03-3f01-49f0-87ec-77cf8c324e7e","system_id":"levelo_inurba_marseille","lat":43.31007,"lon":5.38448,"is_reserved":false,"is_disabled":false,"rental_uris":{"android":"levelo://app?vid=4f22ed03-3f01-49f0-87ec-77cf8c324e7e","ios":"levelo://app?vid=4f22ed03-3f01-49f0-87ec-77cf8c324e7e"},"vehicle_type_id":"4","last_reported":1741010962,"current_range_meters":20000,"station_id":"","pricing_plan_id":"cebpf4jnsgd1na2vs0mg"},{"bike_id":"327e5a71-126f-45d1-aa6a-67a1eb0cfd82","system_id":"levelo_inurba_marseille","lat":43.31357,"lon":5.36705,"is_reserved":false,"is_disabled":false,"rental_uris":{"android":"levelo://app?vid=327e5a71-126f-45d1-aa6a-67a1eb0cfd82","ios":"levelo://app?vid=327e5a71-126f-45d1-aa6a-67a1eb0cfd82"},"vehicle_type_id":"4","last_reported":1741010962,"current_range_meters":20000,"station_id":"ce4bgr92rcd13ifvqc6g","pricing_plan_id":"cebpf4jnsgd1na2vs0mg"},{"bike_id":"7cd5e07c-ad2a-4af8-99d9-77c41335ce79","system_id":"levelo_inurba_marseille","lat":43.241676,"lon":5.363874,"is_reserved":false,"is_disabled":false,"rental_uris":{"android":"levelo://app?vid=7cd5e07c-ad2a-4af8-99d9-77c41335ce79","ios":"levelo://app?vid=7cd5e07c-ad2a-4af8-99d9-77c41335ce79"},"vehicle_type_id":"4","last_reported":1741010962,"current_range_meters":20000,"station_id":"cpo36qri1sfpv3e86is0","pricing_plan_id":"cebpf4jnsgd1na2vs0mg"},{"bike_id":"1b961fca-ba90-4c6d-b36e-722773178719","system_id":"levelo_inurba_marseille","lat":43.26704,"lon":5.38289,"is_reserved":false,"is_disabled":false,"rental_uris":{"android":"levelo://app?vid=1b961fca-ba90-4c6d-b36e-722773178719","ios":"levelo://app?vid=1b961fca-ba90-4c6d-b36e-722773178719"},"vehicle_type_id":"4","last_reported":1741010962,"current_range_meters":20000,"station_id":"ce4bhg92rcd13ifvqf90","pricing_plan_id":"cebpf4jnsgd1na2vs0mg"},{"bike_id":"de7f512c-d0a7-4131-a82a-840c839be431","system_id":"levelo_inurba_marseille","lat":43.25497,"lon":5.37645,"is_reserved":false,"is_disabled":false,"rental_uris":{"android":"levelo://app?vid=de7f512c-d0a7-4131-a82a-840c839be431","ios":"levelo://app?vid=de7f512c-d0a7-4131-a82a-840c839be431"},"vehicle_type_id":"4","last_reported":1741010962,"current_range_meters":20000,"station_id":"ce4bhh12rcd13ifvqff0","pricing_plan_id":"cebpf4jnsgd1na2vs0mg"},{"bike_id":"d5da3c7c-cc78-458a-9db8-f1f17968b976","system_id":"levelo_inurba_marseille","lat":43.27495,"lon":5.42462,"is_reserved":false,"is_disabled":false,"rental_uris":{"android":"levelo://app?vid=d5da3c7c-cc78-458a-9db8-f1f17968b976","ios":"levelo://app?vid=d5da3c7c-cc78-458a-9db8-f1f17968b976"},"vehicle_type_id":"4","last_reported":1741010962,"current_range_meters":20000,"station_id":"ce4bhn92rcd13ifvqgrg","pricing_plan_id":"cebpf4jnsgd1na2vs0mg"},{"bike_id":"a2b9d686-216a-4f50-ae4b-e7710a444cd6","system_id":"levelo_inurba_marseille","lat":43.25006,"lon":5.38909,"is_reserved":false,"is_disabled":false,"rental_uris":{"android":"levelo://app?vid=a2b9d686-216a-4f50-ae4b-e7710a444cd6","ios":"levelo://app?vid=a2b9d686-216a-4f50-ae4b-e7710a444cd6"},