{"last_updated":1728036565,"ttl":60,"version":"2.2","data":{"bikes":[{"bike_id":"e717e001-82de-4983-a9dd-f7a8d7b79df0","system_id":"levelo_inurba_marseille","lat":43.29527,"lon":5.37499,"is_reserved":false,"is_disabled":false,"rental_uris":{"android":"levelo://app?vid=e717e001-82de-4983-a9dd-f7a8d7b79df0","ios":"levelo://app?vid=e717e001-82de-4983-a9dd-f7a8d7b79df0"},"vehicle_type_id":"4","last_reported":1728036565,"current_range_meters":29600,"station_id":"ce4bgkp2rcd13ifvqbmg","pricing_plan_id":"cebpf4jnsgd1na2vs0mg"},{"bike_id":"086b36b2-8fa9-4a21-a966-d0afeb3875cc","system_id":"levelo_inurba_marseille","lat":43.3015,"lon":5.38089,"is_reserved":false,"is_disabled":false,"rental_uris":{"android":"levelo://app?vid=086b36b2-8fa9-4a21-a966-d0afeb3875cc","ios":"levelo://app?vid=086b36b2-8fa9-4a21-a966-d0afeb3875cc"},"vehicle_type_id":"4","last_reported":1728036565,"current_range_meters":36400,"station_id":"ce4bgjp2rcd13ifvqbh0","pricing_plan_id":"cebpf4jnsgd1na2vs0mg"},{"bike_id":"87e72337-0a22-4919-b212-31797bf8a0ee","system_id":"levelo_inurba_marseille","lat":43.33109,"lon":5.41065,"is_reserved":false,"is_disabled":false,"rental_uris":{"android":"levelo://app?vid=87e72337-0a22-4919-b212-31797bf8a0ee","ios":"levelo://app?vid=87e72337-0a22-4919-b212-31797bf8a0ee"},"vehicle_type_id":"4","last_reported":1728036565,"current_range_meters":28400,"station_id":"ce4bhpp2rcd13ifvqhgg","pricing_plan_id":"cebpf4jnsgd1na2vs0mg"},{"bike_id":"ea1c4b47-df71-47c6-91fa-b3b8c49b241b","system_id":"levelo_inurba_marseille","lat":43.30142,"lon":5.38086,"is_reserved":false,"is_disabled":false,"rental_uris":{"android":"levelo://app?vid=ea1c4b47-df71-47c6-91fa-b3b8c49b241b","ios":"levelo://app?vid=ea1c4b47-df71-47c6-91fa-b3b8c49b241b"},"vehicle_type_id":"4","last_reported":1728036565,"current_range_meters":12800,"station_id":"ce4bgjp2rcd13ifvqbh0","pricing_plan_id":"cebpf4jnsgd1na2vs0mg"},{"bike_id":"67eb985b-34da-4022-9284-e58c2297b25a","system_id":"levelo_inurba_marseille","lat":43.29,"lon":5.35609,"is_reserved":false,"is_disabled":false,"rental_uris":{"android":"levelo://app?vid=67eb985b-34da-4022-9284-e58c2297b25a","ios":"levelo://app?vid=67eb985b-34da-4022-9284-e58c2297b25a"},"vehicle_type_id":"4","last_reported":1728036565,"current_range_meters":36400,"station_id":"ce4bhb92rcd13ifvqen0","pricing_plan_id":"cebpf4jnsgd1na2vs0mg"},{"bike_id":"756088e4-bd38-4606-aa6f-cbbf1461af00","system_id":"levelo_inurba_marseille","lat":43.22937,"lon":5.3538,"is_reserved":false,"is_disabled":false,"rental_uris":{"android":"levelo://app?vid=756088e4-bd38-4606-aa6f-cbbf1461af00","ios":"levelo://app?vid=756088e4-bd38-4606-aa6f-cbbf1461af00"},"vehicle_type_id":"4","last_reported":1728036565,"current_range_meters":12800,"station_id":"cpo3532slgdg3j2ikp40","pricing_plan_id":"cebpf4jnsgd1na2vs0mg"},{"bike_id":"4aad6d46-0a20-4202-abe4-87a116bc5e33","system_id":"levelo_inurba_marseille","lat":43.30773,"lon":5.37655,"is_reserved":false,"is_disabled":false,"rental_uris":{"android":"levelo://app?vid=4aad6d46-0a20-4202-abe4-87a116bc5e33","ios":"levelo://app?vid=4aad6d46-0a20-4202-abe4-87a116bc5e33"},"vehicle_type_id":"4","last_reported":1728036565,"current_range_meters":14000,"station_id":"ce4bgv92rcd13ifvqcq0","pricing_plan_id":"cebpf4jnsgd1na2vs0mg"},{"bike_id":"1693ff41-8c99-41ae-8a32-22d707069ab7","system_id":"levelo_inurba_marseille","lat":43.30525,"lon":5.36543,"is_reserved":false,"is_disabled":false,"rental_uris":{"android":"levelo://app?vid=1693ff41-8c99-41ae-8a32-22d707069ab7","ios":"levelo://app?vid=1693ff41-8c99-41ae-8a32-22d707069ab7"},"vehicle_type_id":"4","last_reported":1728036565,"current_range_meters":39200,"station_id":"ce4bgs12rcd13ifvqcag","pricing_plan_id":"cebpf4jnsgd1na2vs0mg"},{"bike_id":"35354151-e385-4bc3-a7b0-44af0f0ab019","system_id":"levelo_inurba_marseille","lat":43.27891,"lon":5.38025,"is_reserved":false,"is_disabled":false,"rental_uris":{"android":"levelo://app?vid=35354151-e385-4bc3-a7b0-44af0f0ab019","ios":"levelo://app?vid=35354151-e385-4bc3-a7b0-44af0f0ab019"},"vehicle_type_id":"4","last_reported":1728036565,"current_range_meters":25200,"station_id":"ce4bhf92rcd13ifvqf50","pricing_plan_id":"cebpf4jnsgd1na2vs0mg"},{"bike_id":"4bd76817-ccb5-49e3-b292-b597fc400de9","system_id":"levelo_inurba_marseille","lat":43.30307,"lon":5.36902,"is_reserved":false,"is_disabled":false,"rental_uris":{"android":"levelo://app?vid=4bd76817-ccb5-49e3-b292-b597fc400de9","ios":"levelo://app?vid=4bd76817-ccb5-49e3-b292-b597fc400de9"},"vehicle_type_id":"4","last_reported":1728036565,"current_range_meters":18000,"station_id":"ce4bgqh2rcd13ifvqc5g","pricing_plan_id":"cebpf4jnsgd1na2vs0mg"},{"bike_id":"5c68a0ab-2eb8-4e35-b1d0-fe83f6c92a47","system_id":"levelo_inurba_marseille","lat":43.23178,"lon":5.39984,"is_reserved":false,"is_disabled":false,"rental_uris":{"android":"levelo://app?vid=5c68a0ab-2eb8-4e35-b1d0-fe83f6c92a47","ios":"levelo://app?vid=5c68a0ab-2eb8-4e35-b1d0-fe83f6c92a47"},"vehicle_type_id":"4","last_reported":1728036565,"current_range_meters":7200,"station_id":"ce4bhn12rcd13ifvqgqg","pricing_plan_id":"cebpf4jnsgd1na2vs0mg"},{"bike_id":"770a8285-9a6c-4c9a-a1aa-f67aa58702fc","system_id":"levelo_inurba_marseille","lat":43.30948,"lon":5.39032,"is_reserved":false,"is_disabled":false,"rental_uris":{"android":"levelo://app?vid=770a8285-9a6c-4c9a-a1aa-f67aa58702fc","ios":"levelo://app?vid=770a8285-9a6c-4c9a-a1aa-f67aa58702fc"},"vehicle_type_id":"4","last_reported":1728036565,"current_range_meters":28400,"station_id":"ce4bgup2rcd13ifvqco0","pricing_plan_id":"cebpf4jnsgd1na2vs0mg"},{"bike_id":"a68ebc9b-7238-4dcc-8c41-996ae79aa691","system_id":"levelo_inurba_marseille","lat":43.275516,"lon":5.384443,"is_reserved":false,"is_disabled":false,"rental_uris":{"android":"levelo://app?vid=a68ebc9b-7238-4dcc-8c41-996ae79aa691","ios":"levelo://app?vid=a68ebc9b-7238-4dcc-8c41-996ae79aa691"},"vehicle_type_id":"4","last_reported":1728036565,"current_range_meters":27200,"station_id":"ce4bhh92rcd13ifvqfi0","pricing_plan_id":"cebpf4jnsgd1na2vs0mg"},{"bike_id":"7ebaa7e2-3219-41da-8a6c-cab66335f05b","system_id":"levelo_inurba_marseille","lat":43.28151,"lon":5.42639,"is_reserved":false,"is_disabled":false,"rental_uris":{"android":"levelo://app?vid=7ebaa7e2-3219-41da-8a6c-cab66335f05b","ios":"levelo://app?vid=7ebaa7e2-3219-41da-8a6c-cab66335f05b"},"vehicle_type_id":"4","last_reported":1728036565,"current_range_meters":28000,"station_id":"ce4bhnh2rcd13ifvqgug","pricing_plan_id":"cebpf4jnsgd1na2vs0mg"},{"bike_id":"ea7648e6-a16f-4f91-89d0-6b1e7f51963f","system_id":"levelo_inurba_marseille","lat":43.32479,"lon":5.36566,"is_reserved":false,"is_disabled":false,"rental_uris":{"android":"levelo://app?vid=ea7648e6-a16f-4f91-89d0-6b1e7f51963f","ios":"levelo://app?vid=ea7648e6-a16f-4f91-89d0-6b1e7f51963f"},"vehicle_type_id":"4","last_reported":1728036565,"current_range_meters":8800,"station_id":"ce4bhs12rcd13ifvqhvg","pricing_plan_id":"cebpf4jnsgd1na2vs0mg"},{"bike_id":"a99e0887-fb66-4880-8761-33fdb36b8615","system_id":"levelo_inurba_marseille","lat":43.23187,"lon":5.39992,"is_reserved":false,"is_disabled":false,"rental_uris":{"android":"levelo://app?vid=a99e0887-fb66-4880-8761-33fdb36b8615","ios":"levelo://app?vid=a99e0887-fb66-4880-8761-33fdb36b8615"},"vehicle_type_id":"4","last_reported":1728036565,"current_range_meters":10800,"station_id":"ce4bhn12rcd13ifvqgqg","pricing_plan_id":"cebpf4jnsgd1na2vs0mg"},{"bike_id":"c78b24d7-868c-4d48-93f5-d21cffda9467","system_id":"levelo_inurba_marseille","lat":43.26051,"lon":5.39392,"is_reserved":false,"is_disabled":false,"rental_uris":{"android":"levelo://app?vid=c78b24d7-868c-4d48-93f5-d21cffda9467","ios":"levelo://app?vid=c78b24d7-868c-4d48-93f5-d21cffda9467"},"vehicle_type_id":"4","last_reported":1728036565,"current_range_meters":39200,"station_id":"ce4bhh92rcd13ifvqfj0","pricing_plan_id":"cebpf4jnsgd1na2vs0mg"},{"bike_id":"088f4c7d-efac-4048-957c-d65eb00ae2f5","system_id":"levelo_inurba_marseille","lat":43.29605,"lon":5.37715,"is_reserved":false,"is_disabled":false,"rental_uris":{"android":"levelo://app?vid=088f4c7d-efac-4048-957c-d65eb00ae2f5","ios":"levelo://app?vid=088f4c7d-efac-4048-957c-d65eb00ae2f5"},"vehicle_type_id":"4","last_reported":1728036565,"current_range_meters":36800,"station_id":"ce4bgi92rcd13ifvqb90","pricing_plan_id":"cebpf4jnsgd1na2vs0mg"},{"bike_id":"5e8d61de-e758-4b4d-be19-b77594d3ba35","system_id":"levelo_inurba_marseille","lat":43.29705,"lon":5.36621,"is_reserved":false,"is_disabled":false,"rental_uris":{"android":"levelo://app?vid=5e8d61de-e758-4b4d-be19-b77594d3ba35","ios":"levelo://app?vid=5e8d61de-e758-4b4d-be19-b77594d3ba35"},"vehicle_type_id":"4","last_reported":1728036565,"current_range_meters":25600,"station_id":"ce4bgn12rcd13ifvqbt0","pricing_plan_id":"cebpf4jnsgd1na2vs0mg"},{"bike_id":"edebb467-c767-46ea-839d-03912075323c","system_id":"levelo_inurba_marseille","lat":43.31685,"lon":5.40472,"is_reserved":false,"is_disabled":false,"rental_uris":{"android":"levelo://app?vid=edebb467-c767-46ea-839d-03912075323c","ios":"levelo://app?vid=edebb467-c767-46ea-839d-03912075323c"},"vehicle_type_id":"4","last_reported":1728036565,"current_range_meters":37600,"station_id":"ce4bgt92rcd13ifvqcf0","pricing_plan_id":"cebpf4jnsgd1na2vs0mg"},{"bike_id":"5569abf3-3187-4ea0-be65-991712bc5580","system_id":"levelo_inurba_marseille","lat":43.29584,"lon":5.37511,"is_reserved":false,"is_disabled":false,"rental_uris":{"android":"levelo://app?vid=5569abf3-3187-4ea0-be65-991712bc5580","ios":"levelo://app?vid=5569abf3-3187-4ea0-be65-991712bc5580"},"vehicle_type_id":"4","last_reported":1728036565,"current_range_meters":6800,"station_id":"ce4bgh92rcd13ifvqb50","pricing_plan_id":"cebpf4jnsgd1na2vs0mg"},{"bike_id":"998dc9a1-9dc6-4c75-b72e-8b00bb514c1a","system_id":"levelo_inurba_marseille","lat":43.28271,"lon":5.35066,"is_reserved":false,"is_disabled":false,"rental_uris":{"android":"levelo://app?vid=998dc9a1-9dc6-4c75-b72e-8b00bb514c1a","ios":"levelo://app?vid=998dc9a1-9dc6-4c75-b72e-8b00bb514c1a"},"vehicle_type_id":"4","last_reported":1728036565,"current_range_meters":32000,"station_id":"ce4bhbp2rcd13ifvqerg","pricing_plan_id":"cebpf4jnsgd1na2vs0mg"},{"bike_id":"cb92aba5-4872-4e7f-a488-965e8c3995a3","system_id":"levelo_inurba_marseille","lat":43.29892,"lon":5.43672,"is_reserved":false,"is_disabled":false,"rental_uris":{"android":"levelo://app?vid=cb92aba5-4872-4e7f-a488-965e8c3995a3","ios":"levelo://app?vid=cb92aba5-4872-4e7f-a488-965e8c3995a3"},"vehicle_type_id":"4","last_reported":1728036565,"current_range_meters":31200,"station_id":"ce4bhpp2rcd13ifvqhfg","pricing_plan_id":"cebpf4jnsgd1na2vs0mg"},{"bike_id":"ce4000ac-f84e-4948-910e-2dcb7ae35804","system_id":"levelo_inurba_marseille","lat":43.28707,"lon":5.39979,"is_reserved":false,"is_disabled":false,"rental_uris":{"android":"levelo://app?vid=ce4000ac-f84e-4948-910e-2dcb7ae35804","ios":"levelo://app?vid=ce4000ac-f84e-4948-910e-2dcb7ae35804"},"vehicle_type_id":"4","last_reported":1728036565,"current_range_meters":38400,"station_id":"ce4bho92rcd13ifvqh3g","pricing_plan_id":"cebpf4jnsgd1na2vs0mg"},{"bike_id":"376595a6-e9c3-49fb-8749-2d3ac56acd7a","system_id":"levelo_inurba_marseille","lat":43.29306,"lon":5.37191,"is_reserved":false,"is_disabled":false,"rental_uris":{"android":"levelo://app?vid=376595a6-e9c3-49fb-8749-2d3ac56acd7a","ios":"levelo://app?vid=376595a6-e9c3-49fb-8749-2d3ac56acd7a"},"vehicle_type_id":"4","last_reported":1728036565,"current_range_meters":38800,"station_id":"ce4bgh92rcd13ifvqb40","pricing_plan_id":"cebpf4jnsgd1na2vs0mg"},{"bike_id":"bbe16d9f-1398-4ae8-9389-fdd330196eb0","system_id":"levelo_inurba_marseille","lat":43.28415,"lon":5.34997,"is_reserved":false,"is_disabled":false,"rental_uris":{"android":"levelo://app?vid=bbe16d9f-1398-4ae8-9389-fdd330196eb0","ios":"levelo://app?vid=bbe16d9f-1398-4ae8-9389-fdd330196eb0"},"vehicle_type_id":"4","last_reported":1728036565,"current_range_meters":38800,"station_id":"ce4bhbh2rcd13ifvqepg","pricing_plan_id":"cebpf4jnsgd1na2vs0mg"},{"bike_id":"e6b2df58-b4a0-4aec-933d-a62e42f34d34","system_id":"levelo_inurba_marseille","lat":43.33718,"lon":5.39205,"is_reserved":false,"is_disabled":false,"rental_uris":{"android":"levelo://app?vid=e6b2df58-b4a0-4aec-933d-a62e42f34d34","ios":"levelo://app?vid=e6b2df58-b4a0-4aec-933d-a62e42f34d34"},"vehicle_type_id":"4","last_reported":1728036565,"current_range_meters":20800,"station_id":"ce4bhr92rcd13ifvqhsg","pricing_plan_id":"cebpf4jnsgd1na2vs0mg"},{"bike_id":"403b9a65-80d1-462a-86d2-ae897d65bc96","system_id":"levelo_inurba_marseille","lat":43.3015,"lon":5.38094,"is_reserved":false,"is_disabled":false,"rental_uris":{"android":"levelo://app?vid=403b9a65-80d1-462a-86d2-ae897d65bc96","ios":"levelo://app?vid=403b9a65-80d1-462a-86d2-ae897d65bc96"},"vehicle_type_id":"4","last_reported":1728036565,"current_range_meters":38400,"station_id":"ce4bgjp2rcd13ifvqbh0","pricing_plan_id":"cebpf4jnsgd1na2vs0mg"},{"bike_id":"d77938b7-ff1e-465c-a8b9-4b07085a5cc9","system_id":"levelo_inurba_marseille","lat":43.230652,"lon":5.3549,"is_reserved":false,"is_disabled":false,"rental_uris":{"android":"levelo://app?vid=d77938b7-ff1e-465c-a8b9-4b07085a5cc9","ios":"levelo://app?vid=d77938b7-ff1e-465c-a8b9-4b07085a5cc9"},"vehicle_type_id":"4","last_reported":1728036565,"current_range_meters":30400,"station_id":"cpo3342slgdg3j2ifvpg","pricing_plan_id":"cebpf4jnsgd1na2vs0mg"},{"bike_id":"4e53f353-2443-4140-81f6-56d4a6c2e656","system_id":"levelo_inurba_marseille","lat":43.337444,"lon":5.374475,"is_reserved":false,"is_disabled":false,"rental_uris":{"android":"levelo://app?vid=4e53f353-2443-4140-81f6-56d4a6c2e656","ios":"levelo://app?vid=4e53f353-2443-4140-81f6-56d4a6c2e656"},"vehicle_type_id":"4","last_reported":1728036565,"current_range_meters":17200,"station_id":"","pricing_plan_id":"cebpf4jnsgd1na2vs0mg"},{"bike_id":"5fbd6efa-acb1-48c0-888b-7fdfe32f37ee","system_id":"levelo_inurba_marseille","lat":43.24181,"lon":5.39725,"is_reserved":false,"is_disabled":false,"rental_uris":{"android":"levelo://app?vid=5fbd6efa-acb1-48c0-888b-7fdfe32f37ee","ios":"levelo://app?vid=5fbd6efa-acb1-48c0-888b-7fdfe32f37ee"},"vehicle_type_id":"4","last_reported":1728036565,"current_range_meters":27200,"station_id":"ce4bhn12rcd13ifvqgpg","pricing_plan_id":"cebpf4jnsgd1na2vs0mg"},{"bike_id":"bc639882-9ac3-47bd-bbdc-be4672d05ccd","system_id":"levelo_inurba_marseille","lat":43.30197,"lon":5.36643,"is_reserved":false,"is_disabled":false,"rental_uris":{"android":"levelo://app?vid=bc639882-9ac3-47bd-bbdc-be4672d05ccd","ios":"levelo://app?vid=bc639882-9ac3-47bd-bbdc-be4672d05ccd"},"vehicle_type_id":"4","last_reported":1728036565,"current_range_meters":38800,"station_id":"ce4bgrh2rcd13ifvqc8g","pricing_plan_id":"cebpf4jnsgd1na2vs0mg"},{"bike_id":"566a9cf0-f209-4c9f-9e1e-a43a024de395","system_id":"levelo_inurba_marseille","lat":43.27383,"lon":5.36259,"is_reserved":false,"is_disabled":false,"rental_uris":{"android":"levelo://app?vid=566a9cf0-f209-4c9f-9e1e-a43a024de395","ios":"levelo://app?vid=566a9cf0-f209-4c9f-9e1e-a43a024de395"},"vehicle_type_id":"4","last_reported":1728036565,"current_range_meters":26800,"station_id":"ce4bhbh2rcd13ifvqeo0","pricing_plan_id":"cebpf4jnsgd1na2vs0mg"},{"bike_id":"b73551f1-4737-42f3-8efd-5f2fca843848","system_id":"levelo_inurba_marseille","lat":43.2989,"lon":5.43674,"is_reserved":false,"is_disabled":false,"rental_uris":{"android":"levelo://app?vid=b73551f1-4737-42f3-8efd-5f2fca843848","ios":"levelo://app?vid=b73551f1-4737-42f3-8efd-5f2fca843848"},"vehicle_type_id":"4","last_reported":1728036565,"current_range_meters":18000,"station_id":"ce4bhpp2rcd13ifvqhfg","pricing_plan_id":"cebpf4jnsgd1na2vs0mg"},{"bike_id":"67f16f7a-eb36-498b-a7e4-beb8c110670d","system_id":"levelo_inurba_marseille","lat":43.26941,"lon":5.40258,"is_reserved":false,"is_disabled":false,"rental_uris":{"android":"levelo://app?vid=67f16f7a-eb36-498b-a7e4-beb8c110670d","ios":"levelo://app?vid=67f16f7a-eb36-498b-a7e4-beb8c110670d"},"vehicle_type_id":"4","last_reported":1728036565,"current_range_meters":16400,"station_id":"cjm6bp8fraef2m0cb0m0","pricing_plan_id":"cebpf4jnsgd1na2vs0mg"},{"bike_id":"09a12e82-5593-4e1b-bbe4-b615412cf4d2","system_id":"levelo_inurba_marseille","lat":43.27811,"lon":5.40712,"is_reserved":false,"is_disabled":false,"rental_uris":{"android":"levelo://app?vid=09a12e82-5593-4e1b-bbe4-b615412cf4d2","ios":"levelo://app?vid=09a12e82-5593-4e1b-bbe4-b615412cf4d2"},"vehicle_type_id":"4","last_reported":1728036565,"current_range_meters":14000,"station_id":"ce4bhnh2rcd13ifvqgtg","pricing_plan_id":"cebpf4jnsgd1na2vs0mg"},{"bike_id":"1d2f50f0-a92b-4cc3-8df7-4e1465139892","system_id":"levelo_inurba_marseille","lat":43.25571,"lon":5.38245,"is_reserved":false,"is_disabled":false,"rental_uris":{"android":"levelo://app?vid=1d2f50f0-a92b-4cc3-8df7-4e1465139892","ios":"levelo://app?vid=1d2f50f0-a92b-4cc3-8df7-4e1465139892"},"vehicle_type_id":"4","last_reported":1728036565,"current_range_meters":40000,"station_id":"ce4bhih2rcd13ifvqfs0","pricing_plan_id":"cebpf4jnsgd1na2vs0mg"},{"bike_id":"8c668f8e-addf-4131-be74-aa1bece4b887","system_id":"levelo_inurba_marseille","lat":43.25496,"lon":5.37649,"is_reserved":false,"is_disabled":false,"rental_uris":{"android":"levelo://app?vid=8c668f8e-addf-4131-be74-aa1bece4b887","ios":"levelo://app?vid=8c668f8e-addf-4131-be74-aa1bece4b887"},"vehicle_type_id":"4","last_reported":1728036565,"current_range_meters":27600,"station_id":"ce4bhh12rcd13ifvqff0","pricing_plan_id":"cebpf4jnsgd1na2vs0mg"},{"bike_id":"a57efe4b-d7c8-4cbf-84e2-c6e710e84377","system_id":"levelo_inurba_marseille","lat":43.28154,"lon":5.4264,"is_reserved":false,"is_disabled":false,"rental_uris":{"android":"levelo://app?vid=a57efe4b-d7c8-4cbf-84e2-c6e710e84377","ios":"levelo://app?vid=a57efe4b-d7c8-4cbf-84e2-c6e710e84377"},"vehicle_type_id":"4","last_reported":1728036565,"current_range_meters":4400,"station_id":"ce4bhnh2rcd13ifvqgug","pricing_plan_id":"cebpf4jnsgd1na2vs0mg"},{"bike_id":"d36048b6-7607-4324-beaa-cb70dd9649b8","system_id":"levelo_inurba_marseille","lat":43.27494,"lon":5.42452,"is_reserved":false,"is_disabled":false,"rental_uris":{"android":"levelo://app?vid=d36048b6-7607-4324-beaa-cb70dd9649b8","ios":"levelo://app?vid=d36048b6-7607-4324-beaa-cb70dd9649b8"},"vehicle_type_id":"4","last_reported":1728036565,"current_range_meters":5600,"station_id":"ce4bhn92rcd13ifvqgrg","pricing_plan_id":"cebpf4jnsgd1na2vs0mg"},{"bike_id":"6323c3ea-75d7-47ca-8873-1f720d264584","system_id":"levelo_inurba_marseille","lat":43.25499,"lon":5.37653,"is_reserved":false,"is_disabled":false,"rental_uris":{"android":"levelo://app?vid=6323c3ea-75d7-47ca-8873-1f720d264584","ios":"levelo://app?vid=6323c3ea-75d7-47ca-8873-1f720d264584"},"vehicle_type_id":"4","last_reported":1728036565,"current_range_meters":40000,"station_id":"ce4bhh12rcd13ifvqff0","pricing_plan_id":"cebpf4jnsgd1na2vs0mg"},{"bike_id":"8dc0b98d-2559-4a43-b222-e21e2b6b4664","system_id":"levelo_inurba_marseille","lat":43.24668,"lon":5.38152,"is_reserved":false,"is_disabled":false,"rental_uris":{"android":"levelo://app?vid=8dc0b98d-2559-4a43-b222-e21e2b6b4664","ios":"levelo://app?vid=8dc0b98d-2559-4a43-b222-e21e2b6b4664"},"vehicle_type_id":"4","last_reported":1728036565,"current_range_meters":28800,"station_id":"ce4bhih2rcd13ifvqfr0","pricing_plan_id":"cebpf4jnsgd1na2vs0mg"},{"bike_id":"2a8b886a-0746-47ac-8391-ad9900922c71","system_id":"levelo_inurba_marseille","lat":43.24545,"lon":5.39534,"is_reserved":false,"is_disabled":false,"rental_uris":{"android":"levelo://app?vid=2a8b886a-0746-47ac-8391-ad9900922c71","ios":"levelo://app?vid=2a8b886a-0746-47ac-8391-ad9900922c71"},"vehicle_type_id":"4","last_reported":1728036565,"current_range_meters":4000,"station_id":"ce4bhlp2rcd13ifvqgjg","pricing_plan_id":"cebpf4jnsgd1na2vs0mg"},{"bike_id":"230d91f6-9a02-4f9f-9111-060d6132b71c","system_id":"levelo_inurba_marseille","lat":43.24543,"lon":5.39526,"is_reserved":false,"is_disabled":false,"rental_uris":{"android":"levelo://app?vid=230d91f6-9a02-4f9f-9111-060d6132b71c","ios":"levelo://app?vid=230d91f6-9a02-4f9f-9111-060d6132b71c"},"vehicle_type_id":"4","last_reported":1728036565,"current_range_meters":8400,"station_id":"ce4bhlp2rcd13ifvqgjg","pricing_plan_id":"cebpf4jnsgd1na2vs0mg"},{"bike_id":"86a59fdf-5419-4bd8-a9ed-c91c60731103","system_id":"levelo_inurba_marseille","lat":43.30306,"lon":5.37907,"is_reserved":false,"is_disabled":false,"rental_uris":{"android":"levelo://app?vid=86a59fdf-5419-4bd8-a9ed-c91c60731103","ios":"levelo://app?vid=86a59fdf-5419-4bd8-a9ed-c91c60731103"},"vehicle_type_id":"4","last_reported":1728036565,"current_range_meters":18000,"station_id":"","pricing_plan_id":"cebpf4jnsgd1na2vs0mg"},{"bike_id":"a15df9d2-ff4d-4100-911c-f1e3b67e4ecd","system_id":"levelo_inurba_marseille","lat":43.30901,"lon":5.36855,"is_reserved":false,"is_disabled":false,"rental_uris":{"android":"levelo://app?vid=a15df9d2-ff4d-4100-911c-f1e3b67e4ecd","ios":"levelo://app?vid=a15df9d2-ff4d-4100-911c-f1e3b67e4ecd"},"vehicle_type_id":"4","last_reported":1728036565,"current_range_meters":34800,"station_id":"ce4bgn92rcd13ifvqbvg","pricing_plan_id":"cebpf4jnsgd1na2vs0mg"},{"bike_id":"8415ea03-c99e-45ae-a548-d6dca9836e16","system_id":"levelo_inurba_marseille","lat":43.25105,"lon":5.40325,"is_reserved":false,"is_disabled":false,"rental_uris":{"android":"levelo://app?vid=8415ea03-c99e-45ae-a548-d6dca9836e16","ios":"levelo://app?vid=8415ea03-c99e-45ae-a548-d6dca9836e16"},"vehicle_type_id":"4","last_reported":1728036565,"current_range_meters":34000,"station_id":"ce4bhlh2rcd13ifvqgig","pricing_plan_id":"cebpf4jnsgd1na2vs0mg"},{"bike_id":"926f428e-af02-4551-8f71-4b54e90e6d7f","system_id":"levelo_inurba_marseille","lat":43.29513,"lon":5.37512,"is_reserved":false,"is_disabled":false,"rental_uris":{"android":"levelo://app?vid=926f428e-af02-4551-8f71-4b54e90e6d7f","ios":"levelo://app?vid=926f428e-af02-4551-8f71-4b54e90e6d7f"},"vehicle_type_id":"4","last_reported":1728036565,"current_range_meters":38800,"station_id":"ce4bgkp2rcd13ifvqbmg","pricing_plan_id":"cebpf4jnsgd1na2vs0mg"},{"bike_id":"f1232cd4-f6cb-4c33-acac-2b4b893e4b7d","system_id":"levelo_inurba_marseille","lat":43.28299,"lon":5.350486,"is_reserved":false,"is_disabled":false,"rental_uris":{"android":"levelo://app?vid=f1232cd4-f6cb-4c33-acac-2b4b893e4b7d","ios":"levelo://app?vid=f1232cd4-f6cb-4c33-acac-2b4b893e4b7d"},"vehicle_type_id":"4","last_reported":1728036565,"current_range_meters":38400,"station_id":"ce4bhbh2rcd13ifvqepg","pricing_plan_id":"cebpf4jnsgd1na2vs0mg"},{"bike_id":"e0565007-e099-4360-85ee-352bc1a52261","system_id":"levelo_inurba_marseille","lat":43.27488,"lon":5.42454,"is_reserved":false,"is_disabled":false,"rental_uris":{"android":"levelo://app?vid=e0565007-e099-4360-85ee-352bc1a52261","ios":"levelo://app?vid=e0565007-e099-4360-85ee-352bc1a52261"},"vehicle_type_id":"4","last_reported":1728036565,"current_range_meters":19600,"station_id":"ce4bhn92rcd13ifvqgrg","pricing_plan_id":"cebpf4jnsgd1na2vs0mg"},{"bike_id":"d9eda32c-e1a6-4f22-ac22-785054db8b0c","system_id":"levelo_inurba_marseille","lat":43.30943,"lon":5.39052,"is_reserved":false,"is_disabled":false,"rental_uris":{"android":"levelo://app?vid=d9eda32c-e1a6-4f22-ac22-785054db8b0c","ios":"levelo://app?vid=d9eda32c-e1a6-4f22-ac22-785054db8b0c"},"vehicle_type_id":"4","last_reported":1728036565,"current_range_meters":24400,"station_id":"ce4bgup2rcd13ifvqco0","pricing_plan_id":"cebpf4jnsgd1na2vs0mg"},{"bike_id":"d07ee1a2-8049-46fd-9baa-b462a77e6391","system_id":"levelo_inurba_marseille","lat":43.30126,"lon":5.37427,"is_reserved":false,"is_disabled":false,"rental_uris":{"android":"levelo://app?vid=d07ee1a2-8049-46fd-9baa-b462a77e6391","ios":"levelo://app?vid=d07ee1a2-8049-46fd-9baa-b462a77e6391"},"vehicle_type_id":"4","last_reported":1728036565,"current_range_meters":36800,"station_id":"ce4bgs92rcd13ifvqcc0","pricing_plan_id":"cebpf4jnsgd1na2vs0mg"},{"bike_id":"beea6eb6-d89b-42e1-a56f-94268078a8a1","system_id":"levelo_inurba_marseille","lat":43.28997,"lon":5.35611,"is_reserved":false,"is_disabled":false,"rental_uris":{"android":"levelo://app?vid=beea6eb6-d89b-42e1-a56f-94268078a8a1","ios":"levelo://app?vid=beea6eb6-d89b-42e1-a56f-94268078a8a1"},"vehicle_type_id":"4","last_reported":1728036565,"current_range_meters":23200,"station_id":"ce4bhb92rcd13ifvqen0","pricing_plan_id":"cebpf4jnsgd1na2vs0mg"},{"bike_id":"9f77ae99-753d-4fcc-bd92-0a8326ce237e","system_id":"levelo_inurba_marseille","lat":43.29271,"lon":5.36842,"is_reserved":false,"is_disabled":false,"rental_uris":{"android":"levelo://app?vid=9f77ae99-753d-4fcc-bd92-0a8326ce237e","ios":"levelo://app?vid=9f77ae99-753d-4fcc-bd92-0a8326ce237e"},"vehicle_type_id":"4","last_reported":1728036565,"current_range_meters":25200,"station_id":"ce4bhbp2rcd13ifvqesg","pricing_plan_id":"cebpf4jnsgd1na2vs0mg"},{"bike_id":"0fc7ae8d-9102-4d20-8337-a47ebec4b5f1","system_id":"levelo_inurba_marseille","lat":43.3254,"lon":5.41438,"is_reserved":false,"is_disabled":false,"rental_uris":{"android":"levelo://app?vid=0fc7ae8d-9102-4d20-8337-a47ebec4b5f1","ios":"levelo://app?vid=0fc7ae8d-9102-4d20-8337-a47ebec4b5f1"},"vehicle_type_id":"4","last_reported":1728036565,"current_range_meters":39200,"station_id":"ce4bhq12rcd13ifvqhhg","pricing_plan_id":"cebpf4jnsgd1na2vs0mg"},{"bike_id":"a90218ea-121b-4559-b0c1-4fcee00a32d1","system_id":"levelo_inurba_marseille","lat":43.28925,"lon":5.38406,"is_reserved":false,"is_disabled":false,"rental_uris":{"android":"levelo://app?vid=a90218ea-121b-4559-b0c1-4fcee00a32d1","ios":"levelo://app?vid=a90218ea-121b-4559-b0c1-4fcee00a32d1"},"vehicle_type_id":"4","last_reported":1728036565,"current_range_meters":37600,"station_id":"ce4bh612rcd13ifvqe6g","pricing_plan_id":"cebpf4jnsgd1na2vs0mg"},{"bike_id":"db35aaeb-5a12-460b-a088-edd7c5fe03f8","system_id":"levelo_inurba_marseille","lat":43.29185,"lon":5.35804,"is_reserved":false,"is_disabled":false,"rental_uris":{"android":"levelo://app?vid=db35aaeb-5a12-460b-a088-edd7c5fe03f8","ios":"levelo://app?vid=db35aaeb-5a12-460b-a088-edd7c5fe03f8"},"vehicle_type_id":"4","last_reported":1728036565,"current_range_meters":38000,"station_id":"ce4bhb12rcd13ifvqel0","pricing_plan_id":"cebpf4jnsgd1na2vs0mg"},{"bike_id":"4f288d84-69f0-4eef-88a3-f0fca6f6d815","system_id":"levelo_inurba_marseille","lat":43.27995,"lon":5.40017,"is_reserved":false,"is_disabled":false,"rental_uris":{"android":"levelo://app?vid=4f288d84-69f0-4eef-88a3-f0fca6f6d815","ios":"levelo://app?vid=4f288d84-69f0-4eef-88a3-f0fca6f6d815"},"vehicle_type_id":"4","last_reported":1728036565,"current_range_meters":24800,"station_id":"ce4bho92rcd13ifvqh4g","pricing_plan_id":"cebpf4jnsgd1na2vs0mg"},{"bike_id":"eeb96273-081a-4d9d-9b7b-3d86312985be","system_id":"levelo_inurba_marseille","lat":43.29942,"lon":5.36532,"is_reserved":false,"is_disabled":false,"rental_uris":{"android":"levelo://app?vid=eeb96273-081a-4d9d-9b7b-3d86312985be","ios":"levelo://app?vid=eeb96273-081a-4d9d-9b7b-3d86312985be"},"vehicle_type_id":"4","last_reported":1728036565,"current_range_meters":6000,"station_id":"ce4bgm92rcd13ifvqbr0","pricing_plan_id":"cebpf4jnsgd1na2vs0mg"},{"bike_id":"4116a42b-3a07-4938-b83d-07bec4a2d803","system_id":"levelo_inurba_marseille","lat":43.30602,"lon":5.37241,"is_reserved":false,"is_disabled":false,"rental_uris":{"android":"levelo://app?vid=4116a42b-3a07-4938-b83d-07bec4a2d803","ios":"levelo://app?vid=4116a42b-3a07-4938-b83d-07bec4a2d803"},"vehicle_type_id":"4","last_reported":1728036565,"current_range_meters":22800,"station_id":"ce4bgqh2rcd13ifvqc4g","pricing_plan_id":"cebpf4jnsgd1na2vs0mg"},{"bike_id":"9ae1ee60-dc31-4641-b81c-ed7d70d2769a","system_id":"levelo_inurba_marseille","lat":43.30145,"lon":5.38088,"is_reserved":false,"is_disabled":false,"rental_uris":{"android":"levelo://app?vid=9ae1ee60-dc31-4641-b81c-ed7d70d2769a","ios":"levelo://app?vid=9ae1ee60-dc31-4641-b81c-ed7d70d2769a"},"vehicle_type_id":"4","last_reported":1728036565,"current_range_meters":19200,"station_id":"ce4bgjp2rcd13ifvqbh0","pricing_plan_id":"cebpf4jnsgd1na2vs0mg"},{"bike_id":"1c10b30c-0ab7-4106-a6f3-908a099292be","system_id":"levelo_inurba_marseille","lat":43.32361,"lon":5.38889,"is_reserved":false,"is_disabled":false,"rental_uris":{"android":"levelo://app?vid=1c10b30c-0ab7-4106-a6f3-908a099292be","ios":"levelo://app?vid=1c10b30c-0ab7-4106-a6f3-908a099292be"},"vehicle_type_id":"4","last_reported":1728036565,"current_range_meters":16400,"station_id":"ce4bhqp2rcd13ifvqhog","pricing_plan_id":"cebpf4jnsgd1na2vs0mg"},{"bike_id":"85a60867-0292-479f-99a9-23810b153b98","system_id":"levelo_inurba_marseille","lat":43.2707,"lon":5.42275,"is_reserved":false,"is_disabled":false,"rental_uris":{"android":"levelo://app?vid=85a60867-0292-479f-99a9-23810b153b98","ios":"levelo://app?vid=85a60867-0292-479f-99a9-23810b153b98"},"vehicle_type_id":"4","last_reported":1728036565,"current_range_meters":9200,"station_id":"ce4bhk92rcd13ifvqgb0","pricing_plan_id":"cebpf4jnsgd1na2vs0mg"},{"bike_id":"e08c062f-61a2-493a-875d-6e296e2965d6","system_id":"levelo_inurba_marseille","lat":43.33752,"lon":5.3746,"is_reserved":false,"is_disabled":false,"rental_uris":{"android":"levelo://app?vid=e08c062f-61a2-493a-875d-6e296e2965d6","ios":"levelo://app?vid=e08c062f-61a2-493a-875d-6e296e2965d6"},"vehicle_type_id":"4","last_reported":1728036565,"current_range_meters":36400,"station_id":"","pricing_plan_id":"cebpf4jnsgd1na2vs0mg"},{"bike_id":"fa3d6ca4-2f87-4548-92ec-46dd58791c3a","system_id":"levelo_inurba_marseille","lat":43.23142,"lon":5.43712,"is_reserved":false,"is_disabled":false,"rental_uris":{"android":"levelo://app?vid=fa3d6ca4-2f87-4548-92ec-46dd58791c3a","ios":"levelo://app?vid=fa3d6ca4-2f87-4548-92ec-46dd58791c3a"},"vehicle_type_id":"4","last_reported":1728036565,"current_range_meters":8800,"station_id":"ce4bhmp2rcd13ifvqgog","pricing_plan_id":"cebpf4jnsgd1na2vs0mg"},{"bike_id":"5c8970c0-3ceb-465a-9f61-48e90dd5c290","system_id":"levelo_inurba_marseille","lat":43.25,"lon":5.38931,"is_reserved":false,"is_disabled":false,"rental_uris":{"android":"levelo://app?vid=5c8970c0-3ceb-465a-9f61-48e90dd5c290","ios":"levelo://app?vid=5c8970c0-3ceb-465a-9f61-48e90dd5c290"},"vehicle_type_id":"4","last_reported":1728036565,"current_range_meters":27600,"station_id":"ce4bhgp2rcd13ifvqfd0","pricing_plan_id":"cebpf4jnsgd1na2vs0mg"},{"bike_id":"4c81f33e-1ced-4cd3-9243-352462c111d0","system_id":"levelo_inurba_marseille","lat":43.28272,"lon":5.35078,"is_reserved":false,"is_disabled":false,"rental_uris":{"android":"levelo://app?vid=4c81f33e-1ced-4cd3-9243-352462c111d0","ios":"levelo://app?vid=4c81f33e-1ced-4cd3-9243-352462c111d0"},"vehicle_type_id":"4","last_reported":1728036565,"current_range_meters":40000,"station_id":"ce4bhbp2rcd13ifvqerg","pricing_plan_id":"cebpf4jnsgd1na2vs0mg"},{"bike_id":"4284e166-a0da-4209-96f4-46cebd808682","system_id":"levelo_inurba_marseille","lat":43.22929,"lon":5.35375,"is_reserved":false,"is_disabled":false,"rental_uris":{"android":"levelo://app?vid=4284e166-a0da-4209-96f4-46cebd808682","ios":"levelo://app?vid=4284e166-a0da-4209-96f4-46cebd808682"},"vehicle_type_id":"4","last_reported":1728036565,"current_range_meters":25600,"station_id":"cpo3532slgdg3j2ikp40","pricing_plan_id":"cebpf4jnsgd1na2vs0mg"},{"bike_id":"721b3704-deeb-4183-93f9-aafe82cb71e4","system_id":"levelo_inurba_marseille","lat":43.26195,"lon":5.37928,"is_reserved":false,"is_disabled":false,"rental_uris":{"android":"levelo://app?vid=721b3704-deeb-4183-93f9-aafe82cb71e4","ios":"levelo://app?vid=721b3704-deeb-4183-93f9-aafe82cb71e4"},"vehicle_type_id":"4","last_reported":1728036565,"current_range_meters":38800,"station_id":"ce4bhjp2rcd13ifvqg90","pricing_plan_id":"cebpf4jnsgd1na2vs0mg"},{"bike_id":"54a03b56-f303-4c2a-a0e3-0c53d6d61297","system_id":"levelo_inurba_marseille","lat":43.29509,"lon":5.37509,"is_reserved":false,"is_disabled":false,"rental_uris":{"android":"levelo://app?vid=54a03b56-f303-4c2a-a0e3-0c53d6d61297","ios":"levelo://app?vid=54a03b56-f303-4c2a-a0e3-0c53d6d61297"},"vehicle_type_id":"4","last_reported":1728036565,"current_range_meters":28400,"station_id":"ce4bgkp2rcd13ifvqbmg","pricing_plan_id":"cebpf4jnsgd1na2vs0mg"},{"bike_id":"5743b791-d68c-4ebf-b8db-d4ba8053a404","system_id":"levelo_inurba_marseille","lat":43.27412,"lon":5.39407,"is_reserved":false,"is_disabled":false,"rental_uris":{"android":"levelo://app?vid=5743b791-d68c-4ebf-b8db-d4ba8053a404","ios":"levelo://app?vid=5743b791-d68c-4ebf-b8db-d4ba8053a404"},"vehicle_type_id":"4","last_reported":1728036565,"current_range_meters":39200,"station_id":"ce4bhdp2rcd13ifvqf20","pricing_plan_id":"cebpf4jnsgd1na2vs0mg"},{"bike_id":"161640e1-ab1a-4afe-9f0c-8c935ec6d165","system_id":"levelo_inurba_marseille","lat":43.300542,"lon":5.386876,"is_reserved":false,"is_disabled":false,"rental_uris":{"android":"levelo://app?vid=161640e1-ab1a-4afe-9f0c-8c935ec6d165","ios":"levelo://app?vid=161640e1-ab1a-4afe-9f0c-8c935ec6d165"},"vehicle_type_id":"4","last_reported":1728036565,"current_range_meters":33600,"station_id":"ce4bhl12rcd13ifvqgf0","pricing_plan_id":"cebpf4jnsgd1na2vs0mg"},{"bike_id":"6b5a81a6-6293-49e1-8f7c-574b67dee1f5","system_id":"levelo_inurba_marseille","lat":43.24176,"lon":5.39717,"is_reserved":false,"is_disabled":false,"rental_uris":{"android":"levelo://app?vid=6b5a81a6-6293-49e1-8f7c-574b67dee1f5","ios":"levelo://app?vid=6b5a81a6-6293-49e1-8f7c-574b67dee1f5"},"vehicle_type_id":"4","last_reported":1728036565,"current_range_meters":33200,"station_id":"ce4bhn12rcd13ifvqgpg","pricing_plan_id":"cebpf4jnsgd1na2vs0mg"},{"bike_id":"3320a0c3-f756-4a1a-83c4-a091c4d89b13","system_id":"levelo_inurba_marseille","lat":43.2582,"lon":5.39426,"is_reserved":false,"is_disabled":false,"rental_uris":{"android":"levelo://app?vid=3320a0c3-f756-4a1a-83c4-a091c4d89b13","ios":"levelo://app?vid=3320a0c3-f756-4a1a-83c4-a091c4d89b13"},"vehicle_type_id":"4","last_reported":1728036565,"current_range_meters":39200,"station_id":"ce4bhip2rcd13ifvqft0","pricing_plan_id":"cebpf4jnsgd1na2vs0mg"},{"bike_id":"71a6012d-cbe4-457d-b564-5f3031d94857","system_id":"levelo_inurba_marseille","lat":43.29548,"lon":5.42284,"is_reserved":false,"is_disabled":false,"rental_uris":{"android":"levelo://app?vid=71a6012d-cbe4-457d-b564-5f3031d94857","ios":"levelo://app?vid=71a6012d-cbe4-457d-b564-5f3031d94857"},"vehicle_type_id":"4","last_reported":1728036565,"current_range_meters":39200,"station_id":"ce4bhph2rcd13ifvqhdg","pricing_plan_id":"cebpf4jnsgd1na2vs0mg"},{"bike_id":"12014e5f-9061-4078-ba17-f5b4421eab0c","system_id":"levelo_inurba_marseille","lat":43.23148,"lon":5.43724,"is_reserved":false,"is_disabled":false,"rental_uris":{"android":"levelo://app?vid=12014e5f-9061-4078-ba17-f5b4421eab0c","ios":"levelo://app?vid=12014e5f-9061-4078-ba17-f5b4421eab0c"},"vehicle_type_id":"4","last_reported":1728036565,"current_range_meters":20800,"station_id":"ce4bhmp2rcd13ifvqgog","pricing_plan_id":"cebpf4jnsgd1na2vs0mg"},{"bike_id":"24b79a63-5009-4328-aa18-18739825e7d3","system_id":"levelo_inurba_marseille","lat":43.29524,"lon":5.37504,"is_reserved":false,"is_disabled":false,"rental_uris":{"android":"levelo://app?vid=24b79a63-5009-4328-aa18-18739825e7d3","ios":"levelo://app?vid=24b79a63-5009-4328-aa18-18739825e7d3"},"vehicle_type_id":"4","last_reported":1728036565,"current_range_meters":28400,"station_id":"ce4bgkp2rcd13ifvqbmg","pricing_plan_id":"cebpf4jnsgd1na2vs0mg"},{"bike_id":"d7d33d49-7ed6-40ea-af99-cc9848a370f4","system_id":"levelo_inurba_marseille","lat":43.30894,"lon":5.37174,"is_reserved":false,"is_disabled":false,"rental_uris":{"android":"levelo://app?vid=d7d33d49-7ed6-40ea-af99-cc9848a370f4","ios":"levelo://app?vid=d7d33d49-7ed6-40ea-af99-cc9848a370f4"},"vehicle_type_id":"4","last_reported":1728036565,"current_range_meters":36400,"station_id":"ce4bguh2rcd13ifvqckg","pricing_plan_id":"cebpf4jnsgd1na2vs0mg"},{"bike_id":"728f8bc8-e07c-4e04-88d9-dfa0d506b0cd","system_id":"levelo_inurba_marseille","lat":43.23147,"lon":5.43716,"is_reserved":false,"is_disabled":false,"rental_uris":{"android":"levelo://app?vid=728f8bc8-e07c-4e04-88d9-dfa0d506b0cd","ios":"levelo://app?vid=728f8bc8-e07c-4e04-88d9-dfa0d506b0cd"},"vehicle_type_id":"4","last_reported":1728036565,"current_range_meters":28000,"station_id":"ce4bhmp2rcd13ifvqgog","pricing_plan_id":"cebpf4jnsgd1na2vs0mg"},{"bike_id":"2c53be00-ab06-452c-bf9d-26bdef220adf","system_id":"levelo_inurba_marseille","lat":43.29006,"lon":5.35613,"is_reserved":false,"is_disabled":false,"rental_uris":{"android":"levelo://app?vid=2c53be00-ab06-452c-bf9d-26bdef220adf","ios":"levelo://app?vid=2c53be00-ab06-452c-bf9d-26bdef220adf"},"vehicle_type_id":"4","last_reported":1728036565,"current_range_meters":37600,"station_id":"ce4bhb92rcd13ifvqen0","pricing_plan_id":"cebpf4jnsgd1na2vs0mg"},{"bike_id":"781757d6-91df-4aa1-afd2-cfd41967db46","system_id":"levelo_inurba_marseille","lat":43.25003,"lon":5.38932,"is_reserved":false,"is_disabled":false,"rental_uris":{"android":"levelo://app?vid=781757d6-91df-4aa1-afd2-cfd41967db46","ios":"levelo://app?vid=781757d6-91df-4aa1-afd2-cfd41967db46"},"vehicle_type_id":"4","last_reported":1728036565,"current_range_meters":40000,"station_id":"ce4bhgp2rcd13ifvqfd0","pricing_plan_id":"cebpf4jnsgd1na2vs0mg"},{"bike_id":"fd872ba7-9877-4e67-9269-d8995abba644","system_id":"levelo_inurba_marseille","lat":43.22936,"lon":5.35379,"is_reserved":false,"is_disabled":false,"rental_uris":{"android":"levelo://app?vid=fd872ba7-9877-4e67-9269-d8995abba644","ios":"levelo://app?vid=fd872ba7-9877-4e67-9269-d8995abba644"},"vehicle_type_id":"4","last_reported":1728036565,"current_range_meters":20800,"station_id":"cpo3532slgdg3j2ikp40","pricing_plan_id":"cebpf4jnsgd1na2vs0mg"},{"bike_id":"2aff882f-70c6-4c20-a164-263eea28f973","system_id":"levelo_inurba_marseille","lat":43.30849,"lon":5.37804,"is_reserved":false,"is_disabled":false,"rental_uris":{"android":"levelo://app?vid=2aff882f-70c6-4c20-a164-263eea28f973","ios":"levelo://app?vid=2aff882f-70c6-4c20-a164-263eea28f973"},"vehicle_type_id":"4","last_reported":1728036565,"current_range_meters":36400,"station_id":"ce4bgv92rcd13ifvqcq0","pricing_plan_id":"cebpf4jnsgd1na2vs0mg"},{"bike_id":"73f59efa-4d79-4465-9026-c2a53503fa2b","system_id":"levelo_inurba_marseille","lat":43.28443,"lon":5.39196,"is_reserved":false,"is_disabled":false,"rental_uris":{"android":"levelo://app?vid=73f59efa-4d79-4465-9026-c2a53503fa2b","ios":"levelo://app?vid=73f59efa-4d79-4465-9026-c2a53503fa2b"},"vehicle_type_id":"4","last_reported":1728036565,"current_range_meters":33200,"station_id":"ce4bhoh2rcd13ifvqh5g","pricing_plan_id":"cebpf4jnsgd1na2vs0mg"},{"bike_id":"804eff15-1ba5-4fc3-9d62-4e1a37230de2","system_id":"levelo_inurba_marseille","lat":43.29181,"lon":5.35811,"is_reserved":false,"is_disabled":false,"rental_uris":{"android":"levelo://app?vid=804eff15-1ba5-4fc3-9d62-4e1a37230de2","ios":"levelo://app?vid=804eff15-1ba5-4fc3-9d62-4e1a37230de2"},"vehicle_type_id":"4","last_reported":1728036565,"current_range_meters":38000,"station_id":"ce4bhb12rcd13ifvqel0","pricing_plan_id":"cebpf4jnsgd1na2vs0mg"},{"bike_id":"f019aa9b-05ec-4d79-be01-4e72e62270a6","system_id":"levelo_inurba_marseille","lat":43.29304,"lon":5.37173,"is_reserved":false,"is_disabled":false,"rental_uris":{"android":"levelo://app?vid=f019aa9b-05ec-4d79-be01-4e72e62270a6","ios":"levelo://app?vid=f019aa9b-05ec-4d79-be01-4e72e62270a6"},"vehicle_type_id":"4","last_reported":1728036565,"current_range_meters":24400,"station_id":"ce4bgh92rcd13ifvqb40","pricing_plan_id":"cebpf4jnsgd1na2vs0mg"},{"bike_id":"c6eea159-569c-4959-9edc-c88e816399db","system_id":"levelo_inurba_marseille","lat":43.25822,"lon":5.39442,"is_reserved":false,"is_disabled":false,"rental_uris":{"android":"levelo://app?vid=c6eea159-569c-4959-9edc-c88e816399db","ios":"levelo://app?vid=c6eea159-569c-4959-9edc-c88e816399db"},"vehicle_type_id":"4","last_reported":1728036565,"current_range_meters":38800,"station_id":"ce4bhip2rcd13ifvqft0","pricing_plan_id":"cebpf4jnsgd1na2vs0mg"},{"bike_id":"36f9422c-2770-42e4-8bdc-8a55171e917b","system_id":"levelo_inurba_marseille","lat":43.31324,"lon":5.39697,"is_reserved":false,"is_disabled":false,"rental_uris":{"android":"levelo://app?vid=36f9422c-2770-42e4-8bdc-8a55171e917b","ios":"levelo://app?vid=36f9422c-2770-42e4-8bdc-8a55171e917b"},"vehicle_type_id":"4","last_reported":1728036565,"current_range_meters":38800,"station_id":"ce4bgvp2rcd13ifvqcu0","pricing_plan_id":"cebpf4jnsgd1na2vs0mg"},{"bike_id":"7365845f-b0a8-43ae-8b8a-4830f08fcd2f","system_id":"levelo_inurba_marseille","lat":43.26933,"lon":5.38919,"is_reserved":false,"is_disabled":false,"rental_uris":{"android":"levelo://app?vid=7365845f-b0a8-43ae-8b8a-4830f08fcd2f","ios":"levelo://app?vid=7365845f-b0a8-43ae-8b8a-4830f08fcd2f"},"vehicle_type_id":"4","last_reported":1728036565,"current_range_meters":38000,"station_id":"ce4bhhh2rcd13ifvqfl0","pricing_plan_id":"cebpf4jnsgd1na2vs0mg"},{"bike_id":"294c9d5c-e674-4ee2-aa5d-646145ca34dd","system_id":"levelo_inurba_marseille","lat":43.29227,"lon":5.36073,"is_reserved":false,"is_disabled":false,"rental_uris":{"android":"levelo://app?vid=294c9d5c-e674-4ee2-aa5d-646145ca34dd","ios":"levelo://app?vid=294c9d5c-e674-4ee2-aa5d-646145ca34dd"},"vehicle_type_id":"4","last_reported":1728036565,"current_range_meters":33200,"station_id":"ce4bhbh2rcd13ifvqeqg","pricing_plan_id":"cebpf4jnsgd1na2vs0mg"},{"bike_id":"3c12f06e-bd86-43ae-a5d0-3f6a16b16b13","system_id":"levelo_inurba_marseille","lat":43.29838,"lon":5.36276,"is_reserved":false,"is_disabled":false,"rental_uris":{"android":"levelo://app?vid=3c12f06e-bd86-43ae-a5d0-3f6a16b16b13","ios":"levelo://app?vid=3c12f06e-bd86-43ae-a5d0-3f6a16b16b13"},"vehicle_type_id":"4","last_reported":1728036565,"current_range_meters":30800,"station_id":"ce4bgpp2rcd13ifvqc3g","pricing_plan_id":"cebpf4jnsgd1na2vs0mg"},{"bike_id":"0e8f7356-ec38-44c2-a9d8-8d7a2cabfbad","system_id":"levelo_inurba_marseille","lat":43.29301,"lon":5.37428,"is_reserved":false,"is_disabled":false,"rental_uris":{"android":"levelo://app?vid=0e8f7356-ec38-44c2-a9d8-8d7a2cabfbad","ios":"levelo://app?vid=0e8f7356-ec38-44c2-a9d8-8d7a2cabfbad"},"vehicle_type_id":"4","last_reported":1728036565,"current_range_meters":32000,"station_id":"ce4bgi12rcd13ifvqb70","pricing_plan_id":"cebpf4jnsgd1na2vs0mg"},{"bike_id":"3c6eb401-e10a-4a66-a26b-11a2322a66c7","system_id":"levelo_inurba_marseille","lat":43.28439,"lon":5.39209,"is_reserved":false,"is_disabled":false,"rental_uris":{"android":"levelo://app?vid=3c6eb401-e10a-4a66-a26b-11a2322a66c7","ios":"levelo://app?vid=3c6eb401-e10a-4a66-a26b-11a2322a66c7"},"vehicle_type_id":"4","last_reported":1728036565,"current_range_meters":13600,"station_id":"ce4bhoh2rcd13ifvqh5g","pricing_plan_id":"cebpf4jnsgd1na2vs0mg"},{"bike_id":"d2826c66-de88-44b9-a80e-8ce24e8503f8","system_id":"levelo_inurba_marseille","lat":43.31235,"lon":5.36847,"is_reserved":false,"is_disabled":false,"rental_uris":{"android":"levelo://app?vid=d2826c66-de88-44b9-a80e-8ce24e8503f8","ios":"levelo://app?vid=d2826c66-de88-44b9-a80e-8ce24e8503f8"},"vehicle_type_id":"4","last_reported":1728036565,"current_range_meters":39200,"station_id":"ce4bgl92rcd13ifvqbq0","pricing_plan_id":"cebpf4jnsgd1na2vs0mg"},{"bike_id":"b93a5ef2-b4fa-4e37-ba87-79c0a81aba55","system_id":"levelo_inurba_marseille","lat":43.28103,"lon":5.37836,"is_reserved":false,"is_disabled":false,"rental_uris":{"android":"levelo://app?vid=b93a5ef2-b4fa-4e37-ba87-79c0a81aba55","ios":"levelo://app?vid=b93a5ef2-b4fa-4e37-ba87-79c0a81aba55"},"vehicle_type_id":"4","last_reported":1728036565,"current_range_meters":38400,"station_id":"ce4bha12rcd13ifvqee0","pricing_plan_id":"cebpf4jnsgd1na2vs0mg"},{"bike_id":"15aff416-4864-4788-b2c8-d94d311a983c","system_id":"levelo_inurba_marseille","lat":43.29074,"lon":5.381,"is_reserved":false,"is_disabled":false,"rental_uris":{"android":"levelo://app?vid=15aff416-4864-4788-b2c8-d94d311a983c","ios":"levelo://app?vid=15aff416-4864-4788-b2c8-d94d311a983c"},"vehicle_type_id":"4","last_reported":1728036565,"current_range_meters":17200,"station_id":"ce4bhnh2rcd13ifvqgtg","pricing_plan_id":"cebpf4jnsgd1na2vs0mg"},{"bike_id":"47a3293c-1ddd-4454-a41a-80712a0e08c8","system_id":"levelo_inurba_marseille","lat":43.31341,"lon":5.3671,"is_reserved":false,"is_disabled":false,"rental_uris":{"android":"levelo://app?vid=47a3293c-1ddd-4454-a41a-80712a0e08c8","ios":"levelo://app?vid=47a3293c-1ddd-4454-a41a-80712a0e08c8"},"vehicle_type_id":"4","last_reported":1728036565,"current_range_meters":38800,"station_id":"ce4bgr92rcd13ifvqc6g","pricing_plan_id":"cebpf4jnsgd1na2vs0mg"},{"bike_id":"50e6aeb8-7e25-4c09-9781-24c9f5d23dff","system_id":"levelo_inurba_marseille","lat":43.33759,"lon":5.37445,"is_reserved":false,"is_disabled":false,"rental_uris":{"android":"levelo://app?vid=50e6aeb8-7e25-4c09-9781-24c9f5d23dff","ios":"levelo://app?vid=50e6aeb8-7e25-4c09-9781-24c9f5d23dff"},"vehicle_type_id":"4","last_reported":1728036565,"current_range_meters":33200,"station_id":"","pricing_plan_id":"cebpf4jnsgd1na2vs0mg"},{"bike_id":"d388ea53-b68b-46d1-8097-c8043378c09e","system_id":"levelo_inurba_marseille","lat":43.30313,"lon":5.36897,"is_reserved":false,"is_disabled":false,"rental_uris":{"android":"levelo://app?vid=d388ea53-b68b-46d1-8097-c8043378c09e","ios":"levelo://app?vid=d388ea53-b68b-46d1-8097-c8043378c09e"},"vehicle_type_id":"4","last_reported":1728036565,"current_range_meters":39200,"station_id":"ce4bgqh2rcd13ifvqc5g","pricing_plan_id":"cebpf4jnsgd1na2vs0mg"},{"bike_id":"4061a425-0fa8-4b85-ba2e-dd23d5b416e9","system_id":"levelo_inurba_marseille","lat":43.28868,"lon":5.35826,"is_reserved":false,"is_disabled":false,"rental_uris":{"android":"levelo://app?vid=4061a425-0fa8-4b85-ba2e-dd23d5b416e9","ios":"levelo://app?vid=4061a425-0fa8-4b85-ba2e-dd23d5b416e9"},"vehicle_type_id":"4","last_reported":1728036565,"current_range_meters":32800,"station_id":"ce4bhb12rcd13ifvqem0","pricing_plan_id":"cebpf4jnsgd1na2vs0mg"},{"bike_id":"2fa80a2d-1591-492e-b225-696fcb5c87fd","system_id":"levelo_inurba_marseille","lat":43.26552,"lon":5.37283,"is_reserved":false,"is_disabled":false,"rental_uris":{"android":"levelo://app?vid=2fa80a2d-1591-492e-b225-696fcb5c87fd","ios":"levelo://app?vid=2fa80a2d-1591-492e-b225-696fcb5c87fd"},"vehicle_type_id":"4","last_reported":1728036565,"current_range_meters":30800,"station_id":"ce4bhg12rcd13ifvqf70","pricing_plan_id":"cebpf4jnsgd1na2vs0mg"},{"bike_id":"43f2900c-6697-4097-baa3-ea663f36dd68","system_id":"levelo_inurba_marseille","lat":43.2984,"lon":5.36265,"is_reserved":false,"is_disabled":false,"rental_uris":{"android":"levelo://app?vid=43f2900c-6697-4097-baa3-ea663f36dd68","ios":"levelo://app?vid=43f2900c-6697-4097-baa3-ea663f36dd68"},"vehicle_type_id":"4","last_reported":1728036565,"current_range_meters":32800,"station_id":"ce4bgpp2rcd13ifvqc3g","pricing_plan_id":"cebpf4jnsgd1na2vs0mg"},{"bike_id":"0745fcf5-f7b5-4ac2-a297-9f4707ff9580","system_id":"levelo_inurba_marseille","lat":43.301392,"lon":5.374231,"is_reserved":false,"is_disabled":false,"rental_uris":{"android":"levelo://app?vid=0745fcf5-f7b5-4ac2-a297-9f4707ff9580","ios":"levelo://app?vid=0745fcf5-f7b5-4ac2-a297-9f4707ff9580"},"vehicle_type_id":"4","last_reported":1728036565,"current_range_meters":26800,"station_id":"ce4bgs92rcd13ifvqcc0","pricing_plan_id":"cebpf4jnsgd1na2vs0mg"},{"bike_id":"15e74c75-5ed8-45e2-b396-5cc35b86fac5","system_id":"levelo_inurba_marseille","lat":43.30273,"lon":5.37728,"is_reserved":false,"is_disabled":false,"rental_uris":{"android":"levelo://app?vid=15e74c75-5ed8-45e2-b396-5cc35b86fac5","ios":"levelo://app?vid=15e74c75-5ed8-45e2-b396-5cc35b86fac5"},"vehicle_type_id":"4","last_reported":1728036565,"current_range_meters":38400,"station_id":"ce4bguh2rcd13ifvqcj0","pricing_plan_id":"cebpf4jnsgd1na2vs0mg"},{"bike_id":"402359a7-2f5c-4206-a755-0e3a7f75cf2e","system_id":"levelo_inurba_marseille","lat":43.29197,"lon":5.35799,"is_reserved":false,"is_disabled":false,"rental_uris":{"android":"levelo://app?vid=402359a7-2f5c-4206-a755-0e3a7f75cf2e","ios":"levelo://app?vid=402359a7-2f5c-4206-a755-0e3a7f75cf2e"},"vehicle_type_id":"4","last_reported":1728036565,"current_range_meters":24400,"station_id":"ce4bhb12rcd13ifvqel0","pricing_plan_id":"cebpf4jnsgd1na2vs0mg"},{"bike_id":"c1a7544b-c3e5-4725-8145-800b9975c533","system_id":"levelo_inurba_marseille","lat":43.27826,"lon":5.39205,"is_reserved":false,"is_disabled":false,"rental_uris":{"android":"levelo://app?vid=c1a7544b-c3e5-4725-8145-800b9975c533","ios":"levelo://app?vid=c1a7544b-c3e5-4725-8145-800b9975c533"},"vehicle_type_id":"4","last_reported":1728036565,"current_range_meters":38800,"station_id":"ce4bhjp2rcd13ifvqga0","pricing_plan_id":"cebpf4jnsgd1na2vs0mg"},{"bike_id":"f8ed13ba-0f92-4c24-a66c-ce1d50a499a4","system_id":"levelo_inurba_marseille","lat":43.30904,"lon":5.36841,"is_reserved":false,"is_disabled":false,"rental_uris":{"android":"levelo://app?vid=f8ed13ba-0f92-4c24-a66c-ce1d50a499a4","ios":"levelo://app?vid=f8ed13ba-0f92-4c24-a66c-ce1d50a499a4"},"vehicle_type_id":"4","last_reported":1728036565,"current_range_meters":16400,"station_id":"ce4bgn92rcd13ifvqbvg","pricing_plan_id":"cebpf4jnsgd1na2vs0mg"},{"bike_id":"53c6fe7a-c5f0-4c29-bdb6-08c6c7db5c71","system_id":"levelo_inurba_marseille","lat":43.32094,"lon":5.36776,"is_reserved":false,"is_disabled":false,"rental_uris":{"android":"levelo://app?vid=53c6fe7a-c5f0-4c29-bdb6-08c6c7db5c71","ios":"levelo://app?vid=53c6fe7a-c5f0-4c29-bdb6-08c6c7db5c71"},"vehicle_type_id":"4","last_reported":1728036565,"current_range_meters":6400,"station_id":"ce4bhrh2rcd13ifvqhug","pricing_plan_id":"cebpf4jnsgd1na2vs0mg"},{"bike_id":"b7cd3224-74ff-426f-8638-1fd36adc9f26","system_id":"levelo_inurba_marseille","lat":43.24994,"lon":5.38939,"is_reserved":false,"is_disabled":false,"rental_uris":{"android":"levelo://app?vid=b7cd3224-74ff-426f-8638-1fd36adc9f26","ios":"levelo://app?vid=b7cd3224-74ff-426f-8638-1fd36adc9f26"},"vehicle_type_id":"4","last_reported":1728036565,"current_range_meters":9200,"station_id":"ce4bhgp2rcd13ifvqfd0","pricing_plan_id":"cebpf4jnsgd1na2vs0mg"},{"bike_id":"0d1f71a9-c33d-44dd-a305-c32b50aeff33","system_id":"levelo_inurba_marseille","lat":43.31322,"lon":5.3971,"is_reserved":false,"is_disabled":false,"rental_uris":{"android":"levelo://app?vid=0d1f71a9-c33d-44dd-a305-c32b50aeff33","ios":"levelo://app?vid=0d1f71a9-c33d-44dd-a305-c32b50aeff33"},"vehicle_type_id":"4","last_reported":1728036565,"current_range_meters":25200,"station_id":"ce4bgvp2rcd13ifvqcu0","pricing_plan_id":"cebpf4jnsgd1na2vs0mg"},{"bike_id":"244c64a6-af1b-4ed7-9498-8457bd683b86","system_id":"levelo_inurba_marseille","lat":43.28454,"lon":5.35889,"is_reserved":false,"is_disabled":false,"rental_uris":{"android":"levelo://app?vid=244c64a6-af1b-4ed7-9498-8457bd683b86","ios":"levelo://app?vid=244c64a6-af1b-4ed7-9498-8457bd683b86"},"vehicle_type_id":"4","last_reported":1728036565,"current_range_meters":26800,"station_id":"ce4bhah2rcd13ifvqei0","pricing_plan_id":"cebpf4jnsgd1na2vs0mg"},{"bike_id":"b3743ce8-3734-4802-b45e-f8876d8f0b58","system_id":"levelo_inurba_marseille","lat":43.24176,"lon":5.39724,"is_reserved":false,"is_disabled":false,"rental_uris":{"android":"levelo://app?vid=b3743ce8-3734-4802-b45e-f8876d8f0b58","ios":"levelo://app?vid=b3743ce8-3734-4802-b45e-f8876d8f0b58"},"vehicle_type_id":"4","last_reported":1728036565,"current_range_meters":4000,"station_id":"ce4bhn12rcd13ifvqgpg","pricing_plan_id":"cebpf4jnsgd1na2vs0mg"},{"bike_id":"6ce60676-3f86-4aaa-a5df-572436c32ad4","system_id":"levelo_inurba_marseille","lat":43.23203,"lon":5.35547,"is_reserved":false,"is_disabled":false,"rental_uris":{"android":"levelo://app?vid=6ce60676-3f86-4aaa-a5df-572436c32ad4","ios":"levelo://app?vid=6ce60676-3f86-4aaa-a5df-572436c32ad4"},"vehicle_type_id":"4","last_reported":1728036565,"current_range_meters":16000,"station_id":"ce4bhu92rcd13ifvqi70","pricing_plan_id":"cebpf4jnsgd1na2vs0mg"},{"bike_id":"00d133f4-9bbe-4431-9407-a54f88ff7f96","system_id":"levelo_inurba_marseille","lat":43.29001,"lon":5.35608,"is_reserved":false,"is_disabled":false,"rental_uris":{"android":"levelo://app?vid=00d133f4-9bbe-4431-9407-a54f88ff7f96","ios":"levelo://app?vid=00d133f4-9bbe-4431-9407-a54f88ff7f96"},"vehicle_type_id":"4","last_reported":1728036565,"current_range_meters":36800,"station_id":"ce4bhb92rcd13ifvqen0","pricing_plan_id":"cebpf4jnsgd1na2vs0mg"},{"bike_id":"bb1d45c3-f50a-4ba0-9942-1edc9ffd3ed6","system_id":"levelo_inurba_marseille","lat":43.24997,"lon":5.38932,"is_reserved":false,"is_disabled":false,"rental_uris":{"android":"levelo://app?vid=bb1d45c3-f50a-4ba0-9942-1edc9ffd3ed6","ios":"levelo://app?vid=bb1d45c3-f50a-4ba0-9942-1edc9ffd3ed6"},"vehicle_type_id":"4","last_reported":1728036565,"current_range_meters":36000,"station_id":"ce4bhgp2rcd13ifvqfd0","pricing_plan_id":"cebpf4jnsgd1na2vs0mg"},{"bike_id":"8e2ca146-72fc-4019-b2de-b846dc5f4376","system_id":"levelo_inurba_marseille","lat":43.31371,"lon":5.38485,"is_reserved":false,"is_disabled":false,"rental_uris":{"android":"levelo://app?vid=8e2ca146-72fc-4019-b2de-b846dc5f4376","ios":"levelo://app?vid=8e2ca146-72fc-4019-b2de-b846dc5f4376"},"vehicle_type_id":"4","last_reported":1728036565,"current_range_meters":11200,"station_id":"ce4bgt92rcd13ifvqcf0","pricing_plan_id":"cebpf4jnsgd1na2vs0mg"},{"bike_id":"b8f765be-925d-49e4-a45d-715c168ea3c9","system_id":"levelo_inurba_marseille","lat":43.283535,"lon":5.386657,"is_reserved":false,"is_disabled":false,"rental_uris":{"android":"levelo://app?vid=b8f765be-925d-49e4-a45d-715c168ea3c9","ios":"levelo://app?vid=b8f765be-925d-49e4-a45d-715c168ea3c9"},"vehicle_type_id":"4","last_reported":1728036565,"current_range_meters":11200,"station_id":"ce4bh492rcd13ifvqdvg","pricing_plan_id":"cebpf4jnsgd1na2vs0mg"},{"bike_id":"5013c09a-3b43-40a8-800f-933c0132f8b8","system_id":"levelo_inurba_marseille","lat":43.29035,"lon":5.37571,"is_reserved":false,"is_disabled":false,"rental_uris":{"android":"levelo://app?vid=5013c09a-3b43-40a8-800f-933c0132f8b8","ios":"levelo://app?vid=5013c09a-3b43-40a8-800f-933c0132f8b8"},"vehicle_type_id":"4","last_reported":1728036565,"current_range_meters":39200,"station_id":"ce4bh692rcd13ifvqe90","pricing_plan_id":"cebpf4jnsgd1na2vs0mg"},{"bike_id":"3150810f-4cd9-4681-907a-e1baaf64d5f3","system_id":"levelo_inurba_marseille","lat":43.3014,"lon":5.38089,"is_reserved":false,"is_disabled":false,"rental_uris":{"android":"levelo://app?vid=3150810f-4cd9-4681-907a-e1baaf64d5f3","ios":"levelo://app?vid=3150810f-4cd9-4681-907a-e1baaf64d5f3"},"vehicle_type_id":"4","last_reported":1728036565,"current_range_meters":30400,"station_id":"ce4bgjp2rcd13ifvqbh0","pricing_plan_id":"cebpf4jnsgd1na2vs0mg"},{"bike_id":"e9e6adc9-952c-4121-8a93-8754a5f7d4b4","system_id":"levelo_inurba_marseille","lat":43.29804,"lon":5.38149,"is_reserved":false,"is_disabled":false,"rental_uris":{"android":"levelo://app?vid=e9e6adc9-952c-4121-8a93-8754a5f7d4b4","ios":"levelo://app?vid=e9e6adc9-952c-4121-8a93-8754a5f7d4b4"},"vehicle_type_id":"4","last_reported":1728036565,"current_range_meters":39200,"station_id":"ce4bgip2rcd13ifvqbb0","pricing_plan_id":"cebpf4jnsgd1na2vs0mg"},{"bike_id":"d81a9039-3890-46cf-b84c-e7c3bc778211","system_id":"levelo_inurba_marseille","lat":43.29838,"lon":5.36265,"is_reserved":false,"is_disabled":false,"rental_uris":{"android":"levelo://app?vid=d81a9039-3890-46cf-b84c-e7c3bc778211","ios":"levelo://app?vid=d81a9039-3890-46cf-b84c-e7c3bc778211"},"vehicle_type_id":"4","last_reported":1728036565,"current_range_meters":12800,"station_id":"ce4bgpp2rcd13ifvqc3g","pricing_plan_id":"cebpf4jnsgd1na2vs0mg"},{"bike_id":"cc06d840-57c3-4fb9-842f-7fb76dcaefc3","system_id":"levelo_inurba_marseille","lat":43.27489,"lon":5.42455,"is_reserved":false,"is_disabled":false,"rental_uris":{"android":"levelo://app?vid=cc06d840-57c3-4fb9-842f-7fb76dcaefc3","ios":"levelo://app?vid=cc06d840-57c3-4fb9-842f-7fb76dcaefc3"},"vehicle_type_id":"4","last_reported":1728036565,"current_range_meters":17200,"station_id":"ce4bhn92rcd13ifvqgrg","pricing_plan_id":"cebpf4jnsgd1na2vs0mg"},{"bike_id":"34128619-9cad-4a39-bb0a-c94de94d9705","system_id":"levelo_inurba_marseille","lat":43.31062,"lon":5.38356,"is_reserved":false,"is_disabled":false,"rental_uris":{"android":"levelo://app?vid=34128619-9cad-4a39-bb0a-c94de94d9705","ios":"levelo://app?vid=34128619-9cad-4a39-bb0a-c94de94d9705"},"vehicle_type_id":"4","last_reported":1728036565,"current_range_meters":8000,"station_id":"ce4bgv92rcd13ifvqcr0","pricing_plan_id":"cebpf4jnsgd1na2vs0mg"},{"bike_id":"ac491eed-1fef-4832-b4ca-d42b5b54f337","system_id":"levelo_inurba_marseille","lat":43.284,"lon":5.34998,"is_reserved":false,"is_disabled":false,"rental_uris":{"android":"levelo://app?vid=ac491eed-1fef-4832-b4ca-d42b5b54f337","ios":"levelo://app?vid=ac491eed-1fef-4832-b4ca-d42b5b54f337"},"vehicle_type_id":"4","last_reported":1728036565,"current_range_meters":36800,"station_id":"ce4bhbh2rcd13ifvqepg","pricing_plan_id":"cebpf4jnsgd1na2vs0mg"},{"bike_id":"9dc451a1-01fd-4fc8-a312-db0c69b4fa4f","system_id":"levelo_inurba_marseille","lat":43.2655,"lon":5.3728,"is_reserved":false,"is_disabled":false,"rental_uris":{"android":"levelo://app?vid=9dc451a1-01fd-4fc8-a312-db0c69b4fa4f","ios":"levelo://app?vid=9dc451a1-01fd-4fc8-a312-db0c69b4fa4f"},"vehicle_type_id":"4","last_reported":1728036565,"current_range_meters":2000,"station_id":"ce4bhg12rcd13ifvqf70","pricing_plan_id":"cebpf4jnsgd1na2vs0mg"},{"bike_id":"a6692f1f-5525-4523-bd49-a7c219bc26c1","system_id":"levelo_inurba_marseille","lat":43.26555,"lon":5.3729,"is_reserved":false,"is_disabled":false,"rental_uris":{"android":"levelo://app?vid=a6692f1f-5525-4523-bd49-a7c219bc26c1","ios":"levelo://app?vid=a6692f1f-5525-4523-bd49-a7c219bc26c1"},"vehicle_type_id":"4","last_reported":1728036565,"current_range_meters":33600,"station_id":"ce4bhg12rcd13ifvqf70","pricing_plan_id":"cebpf4jnsgd1na2vs0mg"},{"bike_id":"85c14bf3-d16c-4446-8adf-7da33df9b5f8","system_id":"levelo_inurba_marseille","lat":43.23964,"lon":5.36635,"is_reserved":false,"is_disabled":false,"rental_uris":{"android":"levelo://app?vid=85c14bf3-d16c-4446-8adf-7da33df9b5f8","ios":"levelo://app?vid=85c14bf3-d16c-4446-8adf-7da33df9b5f8"},"vehicle_type_id":"4","last_reported":1728036565,"current_range_meters":27200,"station_id":"ce4bhi12rcd13ifvqfp0","pricing_plan_id":"cebpf4jnsgd1na2vs0mg"},{"bike_id":"f28532ab-2844-4c68-acee-baaa073b03fa","system_id":"levelo_inurba_marseille","lat":43.32489,"lon":5.36566,"is_reserved":false,"is_disabled":false,"rental_uris":{"android":"levelo://app?vid=f28532ab-2844-4c68-acee-baaa073b03fa","ios":"levelo://app?vid=f28532ab-2844-4c68-acee-baaa073b03fa"},"vehicle_type_id":"4","last_reported":1728036565,"current_range_meters":37600,"station_id":"ce4bhs12rcd13ifvqhvg","pricing_plan_id":"cebpf4jnsgd1na2vs0mg"},{"bike_id":"b38ce15d-e9a4-48da-b36c-4ed0377da321","system_id":"levelo_inurba_marseille","lat":43.27674,"lon":5.38873,"is_reserved":false,"is_disabled":false,"rental_uris":{"android":"levelo://app?vid=b38ce15d-e9a4-48da-b36c-4ed0377da321","ios":"levelo://app?vid=b38ce15d-e9a4-48da-b36c-4ed0377da321"},"vehicle_type_id":"4","last_reported":1728036565,"current_range_meters":3600,"station_id":"ce4bhi12rcd13ifvqfo0","pricing_plan_id":"cebpf4jnsgd1na2vs0mg"},{"bike_id":"08bfd11d-d6aa-4d3b-8ae4-e5b238683b7e","system_id":"levelo_inurba_marseille","lat":43.25571,"lon":5.38236,"is_reserved":false,"is_disabled":false,"rental_uris":{"android":"levelo://app?vid=08bfd11d-d6aa-4d3b-8ae4-e5b238683b7e","ios":"levelo://app?vid=08bfd11d-d6aa-4d3b-8ae4-e5b238683b7e"},"vehicle_type_id":"4","last_reported":1728036565,"current_range_meters":36800,"station_id":"ce4bhih2rcd13ifvqfs0","pricing_plan_id":"cebpf4jnsgd1na2vs0mg"},{"bike_id":"d602bb9e-b75e-4df7-8d65-c5a2586c9b89","system_id":"levelo_inurba_marseille","lat":43.29847,"lon":5.36284,"is_reserved":false,"is_disabled":false,"rental_uris":{"android":"levelo://app?vid=d602bb9e-b75e-4df7-8d65-c5a2586c9b89","ios":"levelo://app?vid=d602bb9e-b75e-4df7-8d65-c5a2586c9b89"},"vehicle_type_id":"4","last_reported":1728036565,"current_range_meters":28800,"station_id":"ce4bgpp2rcd13ifvqc3g","pricing_plan_id":"cebpf4jnsgd1na2vs0mg"},{"bike_id":"0df22634-8a99-4927-af03-09431c9e9149","system_id":"levelo_inurba_marseille","lat":43.25485,"lon":5.37648,"is_reserved":false,"is_disabled":false,"rental_uris":{"android":"levelo://app?vid=0df22634-8a99-4927-af03-09431c9e9149","ios":"levelo://app?vid=0df22634-8a99-4927-af03-09431c9e9149"},"vehicle_type_id":"4","last_reported":1728036565,"current_range_meters":24000,"station_id":"ce4bhh12rcd13ifvqff0","pricing_plan_id":"cebpf4jnsgd1na2vs0mg"},{"bike_id":"33a8504a-6195-4b59-93ab-7c67bf7f9206","system_id":"levelo_inurba_marseille","lat":43.29303,"lon":5.37178,"is_reserved":false,"is_disabled":false,"rental_uris":{"android":"levelo://app?vid=33a8504a-6195-4b59-93ab-7c67bf7f9206","ios":"levelo://app?vid=33a8504a-6195-4b59-93ab-7c67bf7f9206"},"vehicle_type_id":"4","last_reported":1728036565,"current_range_meters":38800,"station_id":"ce4bgh92rcd13ifvqb40","pricing_plan_id":"cebpf4jnsgd1na2vs0mg"},{"bike_id":"4aa2d78a-2df8-40f1-b44e-a41cc0b2e120","system_id":"levelo_inurba_marseille","lat":43.30536,"lon":5.36701,"is_reserved":false,"is_disabled":false,"rental_uris":{"android":"levelo://app?vid=4aa2d78a-2df8-40f1-b44e-a41cc0b2e120","ios":"levelo://app?vid=4aa2d78a-2df8-40f1-b44e-a41cc0b2e120"},"vehicle_type_id":"4","last_reported":1728036565,"current_range_meters":4000,"station_id":"ce4bgrp2rcd13ifvqc9g","pricing_plan_id":"cebpf4jnsgd1na2vs0mg"},{"bike_id":"2d44c9ee-7d57-4d79-87df-456ca1e6d475","system_id":"levelo_inurba_marseille","lat":43.25496,"lon":5.37653,"is_reserved":false,"is_disabled":false,"rental_uris":{"android":"levelo://app?vid=2d44c9ee-7d57-4d79-87df-456ca1e6d475","ios":"levelo://app?vid=2d44c9ee-7d57-4d79-87df-456ca1e6d475"},"vehicle_type_id":"4","last_reported":1728036565,"current_range_meters":38400,"station_id":"ce4bhh12rcd13ifvqff0","pricing_plan_id":"cebpf4jnsgd1na2vs0mg"},{"bike_id":"de342f46-89a2-4db4-af45-4f39a1a359f2","system_id":"levelo_inurba_marseille","lat":43.33602,"lon":5.4104,"is_reserved":false,"is_disabled":false,"rental_uris":{"android":"levelo://app?vid=de342f46-89a2-4db4-af45-4f39a1a359f2","ios":"levelo://app?vid=de342f46-89a2-4db4-af45-4f39a1a359f2"},"vehicle_type_id":"4","last_reported":1728036565,"current_range_meters":24400,"station_id":"ce4bhqh2rcd13ifvqhmg","pricing_plan_id":"cebpf4jnsgd1na2vs0mg"},{"bike_id":"0643c783-f49a-44a8-8a96-a9f0497bbce8","system_id":"levelo_inurba_marseille","lat":43.29723,"lon":5.3769,"is_reserved":false,"is_disabled":false,"rental_uris":{"android":"levelo://app?vid=0643c783-f49a-44a8-8a96-a9f0497bbce8","ios":"levelo://app?vid=0643c783-f49a-44a8-8a96-a9f0497bbce8"},"vehicle_type_id":"4","last_reported":1728036565,"current_range_meters":19200,"station_id":"ce4bgkh2rcd13ifvqbl0","pricing_plan_id":"cebpf4jnsgd1na2vs0mg"},{"bike_id":"c8e4ff73-620c-4248-92f7-758d5098242c","system_id":"levelo_inurba_marseille","lat":43.22931,"lon":5.35376,"is_reserved":false,"is_disabled":false,"rental_uris":{"android":"levelo://app?vid=c8e4ff73-620c-4248-92f7-758d5098242c","ios":"levelo://app?vid=c8e4ff73-620c-4248-92f7-758d5098242c"},"vehicle_type_id":"4","last_reported":1728036565,"current_range_meters":22400,"station_id":"cpo3532slgdg3j2ikp40","pricing_plan_id":"cebpf4jnsgd1na2vs0mg"},{"bike_id":"3c230d9c-8a51-4831-b7c4-3b2bfa6441ac","system_id":"levelo_inurba_marseille","lat":43.29293,"lon":5.37169,"is_reserved":false,"is_disabled":false,"rental_uris":{"android":"levelo://app?vid=3c230d9c-8a51-4831-b7c4-3b2bfa6441ac","ios":"levelo://app?vid=3c230d9c-8a51-4831-b7c4-3b2bfa6441ac"},"vehicle_type_id":"4","last_reported":1728036565,"current_range_meters":22400,"station_id":"ce4bgh92rcd13ifvqb40","pricing_plan_id":"cebpf4jnsgd1na2vs0mg"},{"bike_id":"4d7535bc-782d-4ed9-8b11-2c24552484f2","system_id":"levelo_inurba_marseille","lat":43.295648,"lon":5.375251,"is_reserved":false,"is_disabled":false,"rental_uris":{"android":"levelo://app?vid=4d7535bc-782d-4ed9-8b11-2c24552484f2","ios":"levelo://app?vid=4d7535bc-782d-4ed9-8b11-2c24552484f2"},"vehicle_type_id":"4","last_reported":1728036565,"current_range_meters":12400,"station_id":"ce4bgh92rcd13ifvqb50","pricing_plan_id":"cebpf4jnsgd1na2vs0mg"},{"bike_id":"583eb2a3-c703-4842-8648-2706b2b88008","system_id":"levelo_inurba_marseille","lat":43.28153,"lon":5.4263,"is_reserved":false,"is_disabled":false,"rental_uris":{"android":"levelo://app?vid=583eb2a3-c703-4842-8648-2706b2b88008","ios":"levelo://app?vid=583eb2a3-c703-4842-8648-2706b2b88008"},"vehicle_type_id":"4","last_reported":1728036565,"current_range_meters":5600,"station_id":"ce4bhnh2rcd13ifvqgug","pricing_plan_id":"cebpf4jnsgd1na2vs0mg"},{"bike_id":"92f82b86-2102-4a11-8c2e-fa2091a42082","system_id":"levelo_inurba_marseille","lat":43.31365,"lon":5.38498,"is_reserved":false,"is_disabled":false,"rental_uris":{"android":"levelo://app?vid=92f82b86-2102-4a11-8c2e-fa2091a42082","ios":"levelo://app?vid=92f82b86-2102-4a11-8c2e-fa2091a42082"},"vehicle_type_id":"4","last_reported":1728036565,"current_range_meters":6800,"station_id":"ce4bgt92rcd13ifvqcf0","pricing_plan_id":"cebpf4jnsgd1na2vs0mg"},{"bike_id":"0946268e-451b-4eae-9c53-f76e2b977f3f","system_id":"levelo_inurba_marseille","lat":43.3247,"lon":5.36563,"is_reserved":false,"is_disabled":false,"rental_uris":{"android":"levelo://app?vid=0946268e-451b-4eae-9c53-f76e2b977f3f","ios":"levelo://app?vid=0946268e-451b-4eae-9c53-f76e2b977f3f"},"vehicle_type_id":"4","last_reported":1728036565,"current_range_meters":24400,"station_id":"ce4bhs12rcd13ifvqhvg","pricing_plan_id":"cebpf4jnsgd1na2vs0mg"},{"bike_id":"5ed52529-1ff6-4f3b-9de3-faa1ac8310d9","system_id":"levelo_inurba_marseille","lat":43.28468,"lon":5.35882,"is_reserved":false,"is_disabled":false,"rental_uris":{"android":"levelo://app?vid=5ed52529-1ff6-4f3b-9de3-faa1ac8310d9","ios":"levelo://app?vid=5ed52529-1ff6-4f3b-9de3-faa1ac8310d9"},"vehicle_type_id":"4","last_reported":1728036565,"current_range_meters":39200,"station_id":"ce4bhah2rcd13ifvqei0","pricing_plan_id":"cebpf4jnsgd1na2vs0mg"},{"bike_id":"d1038e68-2366-4bc6-a30f-2029cfd50ea5","system_id":"levelo_inurba_marseille","lat":43.30192,"lon":5.36611,"is_reserved":false,"is_disabled":false,"rental_uris":{"android":"levelo://app?vid=d1038e68-2366-4bc6-a30f-2029cfd50ea5","ios":"levelo://app?vid=d1038e68-2366-4bc6-a30f-2029cfd50ea5"},"vehicle_type_id":"4","last_reported":1728036565,"current_range_meters":16000,"station_id":"ce4bgrh2rcd13ifvqc8g","pricing_plan_id":"cebpf4jnsgd1na2vs0mg"},{"bike_id":"77c59eab-5250-44c4-be86-099c0defe9c4","system_id":"levelo_inurba_marseille","lat":43.33753,"lon":5.37446,"is_reserved":false,"is_disabled":false,"rental_uris":{"android":"levelo://app?vid=77c59eab-5250-44c4-be86-099c0defe9c4","ios":"levelo://app?vid=77c59eab-5250-44c4-be86-099c0defe9c4"},"vehicle_type_id":"4","last_reported":1728036565,"current_range_meters":32400,"station_id":"","pricing_plan_id":"cebpf4jnsgd1na2vs0mg"},{"bike_id":"d39fe60d-adbe-4ff4-9a70-44533f0060ba","system_id":"levelo_inurba_marseille","lat":43.26939,"lon":5.40252,"is_reserved":false,"is_disabled":false,"rental_uris":{"android":"levelo://app?vid=d39fe60d-adbe-4ff4-9a70-44533f0060ba","ios":"levelo://app?vid=d39fe60d-adbe-4ff4-9a70-44533f0060ba"},"vehicle_type_id":"4","last_reported":1728036565,"current_range_meters":38800,"station_id":"cjm6bp8fraef2m0cb0m0","pricing_plan_id":"cebpf4jnsgd1na2vs0mg"},{"bike_id":"415a18a2-1c03-47e6-954d-ae3ff654b9f9","system_id":"levelo_inurba_marseille","lat":43.31343,"lon":5.36713,"is_reserved":false,"is_disabled":false,"rental_uris":{"android":"levelo://app?vid=415a18a2-1c03-47e6-954d-ae3ff654b9f9","ios":"levelo://app?vid=415a18a2-1c03-47e6-954d-ae3ff654b9f9"},"vehicle_type_id":"4","last_reported":1728036565,"current_range_meters":20400,"station_id":"ce4bgr92rcd13ifvqc6g","pricing_plan_id":"cebpf4jnsgd1na2vs0mg"},{"bike_id":"9ea91f6a-6916-466f-a2e3-ae74f9e950f6","system_id":"levelo_inurba_marseille","lat":43.23148,"lon":5.43718,"is_reserved":false,"is_disabled":false,"rental_uris":{"android":"levelo://app?vid=9ea91f6a-6916-466f-a2e3-ae74f9e950f6","ios":"levelo://app?vid=9ea91f6a-6916-466f-a2e3-ae74f9e950f6"},"vehicle_type_id":"4","last_reported":1728036565,"current_range_meters":25600,"station_id":"ce4bhmp2rcd13ifvqgog","pricing_plan_id":"cebpf4jnsgd1na2vs0mg"},{"bike_id":"998ba955-b15f-4101-9349-b3f05d472942","system_id":"levelo_inurba_marseille","lat":43.317128,"lon":5.377426,"is_reserved":false,"is_disabled":false,"rental_uris":{"android":"levelo://app?vid=998ba955-b15f-4101-9349-b3f05d472942","ios":"levelo://app?vid=998ba955-b15f-4101-9349-b3f05d472942"},"vehicle_type_id":"4","last_reported":1728036565,"current_range_meters":32000,"station_id":"ce4bgt92rcd13ifvqcg0","pricing_plan_id":"cebpf4jnsgd1na2vs0mg"},{"bike_id":"09648bcd-aff3-4e5d-a358-b65c5d88ce54","system_id":"levelo_inurba_marseille","lat":43.25002,"lon":5.38941,"is_reserved":false,"is_disabled":false,"rental_uris":{"android":"levelo://app?vid=09648bcd-aff3-4e5d-a358-b65c5d88ce54","ios":"levelo://app?vid=09648bcd-aff3-4e5d-a358-b65c5d88ce54"},"vehicle_type_id":"4","last_reported":1728036565,"current_range_meters":35600,"station_id":"ce4bhgp2rcd13ifvqfd0","pricing_plan_id":"cebpf4jnsgd1na2vs0mg"},{"bike_id":"2ca6bc31-e56d-48cf-8e18-9a24c2d99cb1","system_id":"levelo_inurba_marseille","lat":43.27615,"lon":5.36115,"is_reserved":false,"is_disabled":false,"rental_uris":{"android":"levelo://app?vid=2ca6bc31-e56d-48cf-8e18-9a24c2d99cb1","ios":"levelo://app?vid=2ca6bc31-e56d-48cf-8e18-9a24c2d99cb1"},"vehicle_type_id":"4","last_reported":1728036565,"current_range_meters":39200,"station_id":"ce4bgj92rcd13ifvqbe0","pricing_plan_id":"cebpf4jnsgd1na2vs0mg"},{"bike_id":"0a9cc8d0-0c91-4156-9d7f-cfe0e1bb54e7","system_id":"levelo_inurba_marseille","lat":43.29692,"lon":5.3661,"is_reserved":false,"is_disabled":false,"rental_uris":{"android":"levelo://app?vid=0a9cc8d0-0c91-4156-9d7f-cfe0e1bb54e7","ios":"levelo://app?vid=0a9cc8d0-0c91-4156-9d7f-cfe0e1bb54e7"},"vehicle_type_id":"4","last_reported":1728036565,"current_range_meters":7200,"station_id":"ce4bgn12rcd13ifvqbt0","pricing_plan_id":"cebpf4jnsgd1na2vs0mg"},{"bike_id":"693c0048-a11f-442c-9e42-6d47471d445e","system_id":"levelo_inurba_marseille","lat":43.30157,"lon":5.38099,"is_reserved":false,"is_disabled":false,"rental_uris":{"android":"levelo://app?vid=693c0048-a11f-442c-9e42-6d47471d445e","ios":"levelo://app?vid=693c0048-a11f-442c-9e42-6d47471d445e"},"vehicle_type_id":"4","last_reported":1728036565,"current_range_meters":38400,"station_id":"ce4bgjp2rcd13ifvqbh0","pricing_plan_id":"cebpf4jnsgd1na2vs0mg"},{"bike_id":"71a85321-cdd0-4b0c-9a38-c490afade47c","system_id":"levelo_inurba_marseille","lat":43.29221,"lon":5.36062,"is_reserved":false,"is_disabled":false,"rental_uris":{"android":"levelo://app?vid=71a85321-cdd0-4b0c-9a38-c490afade47c","ios":"levelo://app?vid=71a85321-cdd0-4b0c-9a38-c490afade47c"},"vehicle_type_id":"4","last_reported":1728036565,"current_range_meters":38000,"station_id":"ce4bhbh2rcd13ifvqeqg","pricing_plan_id":"cebpf4jnsgd1na2vs0mg"},{"bike_id":"d1328887-fdac-4eed-aeda-292f5d2d6b63","system_id":"levelo_inurba_marseille","lat":43.30226,"lon":5.3948,"is_reserved":false,"is_disabled":false,"rental_uris":{"android":"levelo://app?vid=d1328887-fdac-4eed-aeda-292f5d2d6b63","ios":"levelo://app?vid=d1328887-fdac-4eed-aeda-292f5d2d6b63"},"vehicle_type_id":"4","last_reported":1728036565,"current_range_meters":37600,"station_id":"ce4bh0p2rcd13ifvqd70","pricing_plan_id":"cebpf4jnsgd1na2vs0mg"},{"bike_id":"690c1146-a8cd-495f-94f6-c94b70c09ae9","system_id":"levelo_inurba_marseille","lat":43.26683,"lon":5.38276,"is_reserved":false,"is_disabled":false,"rental_uris":{"android":"levelo://app?vid=690c1146-a8cd-495f-94f6-c94b70c09ae9","ios":"levelo://app?vid=690c1146-a8cd-495f-94f6-c94b70c09ae9"},"vehicle_type_id":"4","last_reported":1728036565,"current_range_meters":38000,"station_id":"ce4bhg92rcd13ifvqf90","pricing_plan_id":"cebpf4jnsgd1na2vs0mg"},{"bike_id":"fdb68aa5-0a31-4ff3-9837-ee5d5fa5bae6","system_id":"levelo_inurba_marseille","lat":43.23152,"lon":5.43702,"is_reserved":false,"is_disabled":false,"rental_uris":{"android":"levelo://app?vid=fdb68aa5-0a31-4ff3-9837-ee5d5fa5bae6","ios":"levelo://app?vid=fdb68aa5-0a31-4ff3-9837-ee5d5fa5bae6"},"vehicle_type_id":"4","last_reported":1728036565,"current_range_meters":40000,"station_id":"ce4bhmp2rcd13ifvqgog","pricing_plan_id":"cebpf4jnsgd1na2vs0mg"},{"bike_id":"01933f8e-ab3d-4a50-87e1-a540b46ae5f1","system_id":"levelo_inurba_marseille","lat":43.3361,"lon":5.41038,"is_reserved":false,"is_disabled":false,"rental_uris":{"android":"levelo://app?vid=01933f8e-ab3d-4a50-87e1-a540b46ae5f1","ios":"levelo://app?vid=01933f8e-ab3d-4a50-87e1-a540b46ae5f1"},"vehicle_type_id":"4","last_reported":1728036565,"current_range_meters":26000,"station_id":"ce4bhqh2rcd13ifvqhmg","pricing_plan_id":"cebpf4jnsgd1na2vs0mg"},{"bike_id":"897742eb-dae7-4404-bc2b-287c341b8005","system_id":"levelo_inurba_marseille","lat":43.26024,"lon":5.37548,"is_reserved":false,"is_disabled":false,"rental_uris":{"android":"levelo://app?vid=897742eb-dae7-4404-bc2b-287c341b8005","ios":"levelo://app?vid=897742eb-dae7-4404-bc2b-287c341b8005"},"vehicle_type_id":"4","last_reported":1728036565,"current_range_meters":24400,"station_id":"ce4bhgh2rcd13ifvqfa0","pricing_plan_id":"cebpf4jnsgd1na2vs0mg"},{"bike_id":"5adde98e-347f-40b1-aa87-49f40f193764","system_id":"levelo_inurba_marseille","lat":43.23149,"lon":5.43719,"is_reserved":false,"is_disabled":false,"rental_uris":{"android":"levelo://app?vid=5adde98e-347f-40b1-aa87-49f40f193764","ios":"levelo://app?vid=5adde98e-347f-40b1-aa87-49f40f193764"},"vehicle_type_id":"4","last_reported":1728036565,"current_range_meters":21600,"station_id":"ce4bhmp2rcd13ifvqgog","pricing_plan_id":"cebpf4jnsgd1na2vs0mg"},{"bike_id":"81135a2f-3484-4943-8cb1-e9f527d2c044","system_id":"levelo_inurba_marseille","lat":43.23179,"lon":5.39976,"is_reserved":false,"is_disabled":false,"rental_uris":{"android":"levelo://app?vid=81135a2f-3484-4943-8cb1-e9f527d2c044","ios":"levelo://app?vid=81135a2f-3484-4943-8cb1-e9f527d2c044"},"vehicle_type_id":"4","last_reported":1728036565,"current_range_meters":20400,"station_id":"ce4bhn12rcd13ifvqgqg","pricing_plan_id":"cebpf4jnsgd1na2vs0mg"},{"bike_id":"4317c8e5-984f-4071-9b79-4453eb3b1c72","system_id":"levelo_inurba_marseille","lat":43.31234,"lon":5.36845,"is_reserved":false,"is_disabled":false,"rental_uris":{"android":"levelo://app?vid=4317c8e5-984f-4071-9b79-4453eb3b1c72","ios":"levelo://app?vid=4317c8e5-984f-4071-9b79-4453eb3b1c72"},"vehicle_type_id":"4","last_reported":1728036565,"current_range_meters":40000,"station_id":"ce4bgl92rcd13ifvqbq0","pricing_plan_id":"cebpf4jnsgd1na2vs0mg"},{"bike_id":"e3c1538d-9c38-4a8a-986a-b23d34fd8ab5","system_id":"levelo_inurba_marseille","lat":43.28292,"lon":5.35091,"is_reserved":false,"is_disabled":false,"rental_uris":{"android":"levelo://app?vid=e3c1538d-9c38-4a8a-986a-b23d34fd8ab5","ios":"levelo://app?vid=e3c1538d-9c38-4a8a-986a-b23d34fd8ab5"},"vehicle_type_id":"4","last_reported":1728036565,"current_range_meters":38800,"station_id":"ce4bhbp2rcd13ifvqerg","pricing_plan_id":"cebpf4jnsgd1na2vs0mg"},{"bike_id":"cce03b88-5482-4e13-8ad1-d2b255858149","system_id":"levelo_inurba_marseille","lat":43.27067,"lon":5.42285,"is_reserved":false,"is_disabled":false,"rental_uris":{"android":"levelo://app?vid=cce03b88-5482-4e13-8ad1-d2b255858149","ios":"levelo://app?vid=cce03b88-5482-4e13-8ad1-d2b255858149"},"vehicle_type_id":"4","last_reported":1728036565,"current_range_meters":32800,"station_id":"ce4bhk92rcd13ifvqgb0","pricing_plan_id":"cebpf4jnsgd1na2vs0mg"},{"bike_id":"3ece9deb-d376-400c-997a-ff5945157fa0","system_id":"levelo_inurba_marseille","lat":43.28993,"lon":5.35617,"is_reserved":false,"is_disabled":false,"rental_uris":{"android":"levelo://app?vid=3ece9deb-d376-400c-997a-ff5945157fa0","ios":"levelo://app?vid=3ece9deb-d376-400c-997a-ff5945157fa0"},"vehicle_type_id":"4","last_reported":1728036565,"current_range_meters":38800,"station_id":"ce4bhb92rcd13ifvqen0","pricing_plan_id":"cebpf4jnsgd1na2vs0mg"},{"bike_id":"2f724fda-82c1-4575-b840-ad0f468dc43d","system_id":"levelo_inurba_marseille","lat":43.30144,"lon":5.38082,"is_reserved":false,"is_disabled":false,"rental_uris":{"android":"levelo://app?vid=2f724fda-82c1-4575-b840-ad0f468dc43d","ios":"levelo://app?vid=2f724fda-82c1-4575-b840-ad0f468dc43d"},"vehicle_type_id":"4","last_reported":1728036565,"current_range_meters":13600,"station_id":"ce4bgjp2rcd13ifvqbh0","pricing_plan_id":"cebpf4jnsgd1na2vs0mg"},{"bike_id":"3d743f14-6bda-4d52-ac79-3261a0662f90","system_id":"levelo_inurba_marseille","lat":43.25084,"lon":5.39525,"is_reserved":false,"is_disabled":false,"rental_uris":{"android":"levelo://app?vid=3d743f14-6bda-4d52-ac79-3261a0662f90","ios":"levelo://app?vid=3d743f14-6bda-4d52-ac79-3261a0662f90"},"vehicle_type_id":"4","last_reported":1728036565,"current_range_meters":38800,"station_id":"ce4bhm12rcd13ifvqgkg","pricing_plan_id":"cebpf4jnsgd1na2vs0mg"},{"bike_id":"1e4b9dd3-b33a-4d2a-8266-ed32618ab5b8","system_id":"levelo_inurba_marseille","lat":43.23151,"lon":5.4372,"is_reserved":false,"is_disabled":false,"rental_uris":{"android":"levelo://app?vid=1e4b9dd3-b33a-4d2a-8266-ed32618ab5b8","ios":"levelo://app?vid=1e4b9dd3-b33a-4d2a-8266-ed32618ab5b8"},"vehicle_type_id":"4","last_reported":1728036565,"current_range_meters":21600,"station_id":"ce4bhmp2rcd13ifvqgog","pricing_plan_id":"cebpf4jnsgd1na2vs0mg"},{"bike_id":"e0dcf5ff-52ee-4f0e-8908-3a5becffa24d","system_id":"levelo_inurba_marseille","lat":43.306549,"lon":5.385454,"is_reserved":false,"is_disabled":false,"rental_uris":{"android":"levelo://app?vid=e0dcf5ff-52ee-4f0e-8908-3a5becffa24d","ios":"levelo://app?vid=e0dcf5ff-52ee-4f0e-8908-3a5becffa24d"},"vehicle_type_id":"4","last_reported":1728036565,"current_range_meters":25600,"station_id":"ce4bgi92rcd13ifvqb90","pricing_plan_id":"cebpf4jnsgd1na2vs0mg"},{"bike_id":"ce0b829a-2254-4204-985d-c93b50c29d74","system_id":"levelo_inurba_marseille","lat":43.31353,"lon":5.36712,"is_reserved":false,"is_disabled":false,"rental_uris":{"android":"levelo://app?vid=ce0b829a-2254-4204-985d-c93b50c29d74","ios":"levelo://app?vid=ce0b829a-2254-4204-985d-c93b50c29d74"},"vehicle_type_id":"4","last_reported":1728036565,"current_range_meters":20800,"station_id":"ce4bgr92rcd13ifvqc6g","pricing_plan_id":"cebpf4jnsgd1na2vs0mg"},{"bike_id":"d7877609-6b5f-4f1b-b1e9-67841d44573b","system_id":"levelo_inurba_marseille","lat":43.29553,"lon":5.42293,"is_reserved":false,"is_disabled":false,"rental_uris":{"android":"levelo://app?vid=d7877609-6b5f-4f1b-b1e9-67841d44573b","ios":"levelo://app?vid=d7877609-6b5f-4f1b-b1e9-67841d44573b"},"vehicle_type_id":"4","last_reported":1728036565,"current_range_meters":22000,"station_id":"ce4bhph2rcd13ifvqhdg","pricing_plan_id":"cebpf4jnsgd1na2vs0mg"},{"bike_id":"411a622e-0c64-4ae7-ab3a-3b4f2603408c","system_id":"levelo_inurba_marseille","lat":43.2989,"lon":5.43661,"is_reserved":false,"is_disabled":false,"rental_uris":{"android":"levelo://app?vid=411a622e-0c64-4ae7-ab3a-3b4f2603408c","ios":"levelo://app?vid=411a622e-0c64-4ae7-ab3a-3b4f2603408c"},"vehicle_type_id":"4","last_reported":1728036565,"current_range_meters":25200,"station_id":"ce4bhpp2rcd13ifvqhfg","pricing_plan_id":"cebpf4jnsgd1na2vs0mg"},{"bike_id":"d9513a24-3235-43a7-b9a5-1c5cfe37603f","system_id":"levelo_inurba_marseille","lat":43.23056,"lon":5.35493,"is_reserved":false,"is_disabled":false,"rental_uris":{"android":"levelo://app?vid=d9513a24-3235-43a7-b9a5-1c5cfe37603f","ios":"levelo://app?vid=d9513a24-3235-43a7-b9a5-1c5cfe37603f"},"vehicle_type_id":"4","last_reported":1728036565,"current_range_meters":25600,"station_id":"cpo3342slgdg3j2ifvpg","pricing_plan_id":"cebpf4jnsgd1na2vs0mg"},{"bike_id":"7bdcdbb9-b52f-4b42-9e65-be051a80cf8b","system_id":"levelo_inurba_marseille","lat":43.32475,"lon":5.36571,"is_reserved":false,"is_disabled":false,"rental_uris":{"android":"levelo://app?vid=7bdcdbb9-b52f-4b42-9e65-be051a80cf8b","ios":"levelo://app?vid=7bdcdbb9-b52f-4b42-9e65-be051a80cf8b"},"vehicle_type_id":"4","last_reported":1728036565,"current_range_meters":8800,"station_id":"ce4bhs12rcd13ifvqhvg","pricing_plan_id":"cebpf4jnsgd1na2vs0mg"},{"bike_id":"7bb216a2-0cc7-4914-b8b9-48431646fd9e","system_id":"levelo_inurba_marseille","lat":43.29986,"lon":5.3719,"is_reserved":false,"is_disabled":false,"rental_uris":{"android":"levelo://app?vid=7bb216a2-0cc7-4914-b8b9-48431646fd9e","ios":"levelo://app?vid=7bb216a2-0cc7-4914-b8b9-48431646fd9e"},"vehicle_type_id":"4","last_reported":1728036565,"current_range_meters":31200,"station_id":"ce4bgr92rcd13ifvqc7g","pricing_plan_id":"cebpf4jnsgd1na2vs0mg"},{"bike_id":"3b32cb54-9697-48e8-b55b-704112c7f9d8","system_id":"levelo_inurba_marseille","lat":43.29739,"lon":5.37684,"is_reserved":false,"is_disabled":false,"rental_uris":{"android":"levelo://app?vid=3b32cb54-9697-48e8-b55b-704112c7f9d8","ios":"levelo://app?vid=3b32cb54-9697-48e8-b55b-704112c7f9d8"},"vehicle_type_id":"4","last_reported":1728036565,"current_range_meters":25600,"station_id":"ce4bgkh2rcd13ifvqbl0","pricing_plan_id":"cebpf4jnsgd1na2vs0mg"},{"bike_id":"4bd008e2-ced4-419f-9986-7bdf08969ddd","system_id":"levelo_inurba_marseille","lat":43.30907,"lon":5.36856,"is_reserved":false,"is_disabled":false,"rental_uris":{"android":"levelo://app?vid=4bd008e2-ced4-419f-9986-7bdf08969ddd","ios":"levelo://app?vid=4bd008e2-ced4-419f-9986-7bdf08969ddd"},"vehicle_type_id":"4","last_reported":1728036565,"current_range_meters":36800,"station_id":"ce4bgn92rcd13ifvqbvg","pricing_plan_id":"cebpf4jnsgd1na2vs0mg"},{"bike_id":"addc0d70-81b6-4664-a9cc-92e90d0d83f8","system_id":"levelo_inurba_marseille","lat":43.30644,"lon":5.40105,"is_reserved":false,"is_disabled":false,"rental_uris":{"android":"levelo://app?vid=addc0d70-81b6-4664-a9cc-92e90d0d83f8","ios":"levelo://app?vid=addc0d70-81b6-4664-a9cc-92e90d0d83f8"},"vehicle_type_id":"4","last_reported":1728036565,"current_range_meters":6800,"station_id":"ce4bh112rcd13ifvqda0","pricing_plan_id":"cebpf4jnsgd1na2vs0mg"},{"bike_id":"4e0c83a2-b0c3-4894-8559-e509681998d3","system_id":"levelo_inurba_marseille","lat":43.31117,"lon":5.38335,"is_reserved":false,"is_disabled":false,"rental_uris":{"android":"levelo://app?vid=4e0c83a2-b0c3-4894-8559-e509681998d3","ios":"levelo://app?vid=4e0c83a2-b0c3-4894-8559-e509681998d3"},"vehicle_type_id":"4","last_reported":1728036565,"current_range_meters":22800,"station_id":"ce4bgv92rcd13ifvqcr0","pricing_plan_id":"cebpf4jnsgd1na2vs0mg"},{"bike_id":"7faff167-2a88-4b81-842c-80e3f85782cb","system_id":"levelo_inurba_marseille","lat":43.24382,"lon":5.37054,"is_reserved":false,"is_disabled":false,"rental_uris":{"android":"levelo://app?vid=7faff167-2a88-4b81-842c-80e3f85782cb","ios":"levelo://app?vid=7faff167-2a88-4b81-842c-80e3f85782cb"},"vehicle_type_id":"4","last_reported":1728036565,"current_range_meters":39200,"station_id":"ce4bhhh2rcd13ifvqfk0","pricing_plan_id":"cebpf4jnsgd1na2vs0mg"},{"bike_id":"dc852ba8-32f2-497f-a66a-6178eae58d48","system_id":"levelo_inurba_marseille","lat":43.32477,"lon":5.36559,"is_reserved":false,"is_disabled":false,"rental_uris":{"android":"levelo://app?vid=dc852ba8-32f2-497f-a66a-6178eae58d48","ios":"levelo://app?vid=dc852ba8-32f2-497f-a66a-6178eae58d48"},"vehicle_type_id":"4","last_reported":1728036565,"current_range_meters":20800,"station_id":"ce4bhs12rcd13ifvqhvg","pricing_plan_id":"cebpf4jnsgd1na2vs0mg"},{"bike_id":"fdd233ba-59c6-4931-bd5b-b54d6cc3f058","system_id":"levelo_inurba_marseille","lat":43.24539,"lon":5.39529,"is_reserved":false,"is_disabled":false,"rental_uris":{"android":"levelo://app?vid=fdd233ba-59c6-4931-bd5b-b54d6cc3f058","ios":"levelo://app?vid=fdd233ba-59c6-4931-bd5b-b54d6cc3f058"},"vehicle_type_id":"4","last_reported":1728036565,"current_range_meters":36800,"station_id":"ce4bhlp2rcd13ifvqgjg","pricing_plan_id":"cebpf4jnsgd1na2vs0mg"},{"bike_id":"8853b16c-0a6a-451b-8f3d-b276dca63080","system_id":"levelo_inurba_marseille","lat":43.30905,"lon":5.36857,"is_reserved":false,"is_disabled":false,"rental_uris":{"android":"levelo://app?vid=8853b16c-0a6a-451b-8f3d-b276dca63080","ios":"levelo://app?vid=8853b16c-0a6a-451b-8f3d-b276dca63080"},"vehicle_type_id":"4","last_reported":1728036565,"current_range_meters":38400,"station_id":"ce4bgn92rcd13ifvqbvg","pricing_plan_id":"cebpf4jnsgd1na2vs0mg"},{"bike_id":"368553d6-157d-460a-a1e8-4ad94291a17a","system_id":"levelo_inurba_marseille","lat":43.28103,"lon":5.37856,"is_reserved":false,"is_disabled":false,"rental_uris":{"android":"levelo://app?vid=368553d6-157d-460a-a1e8-4ad94291a17a","ios":"levelo://app?vid=368553d6-157d-460a-a1e8-4ad94291a17a"},"vehicle_type_id":"4","last_reported":1728036565,"current_range_meters":4800,"station_id":"ce4bha12rcd13ifvqee0","pricing_plan_id":"cebpf4jnsgd1na2vs0mg"},{"bike_id":"717955be-8fbf-44da-95f9-80488bb613d1","system_id":"levelo_inurba_marseille","lat":43.2926,"lon":5.36848,"is_reserved":false,"is_disabled":false,"rental_uris":{"android":"levelo://app?vid=717955be-8fbf-44da-95f9-80488bb613d1","ios":"levelo://app?vid=717955be-8fbf-44da-95f9-80488bb613d1"},"vehicle_type_id":"4","last_reported":1728036565,"current_range_meters":38800,"station_id":"ce4bhbp2rcd13ifvqesg","pricing_plan_id":"cebpf4jnsgd1na2vs0mg"},{"bike_id":"b378dfd1-c1cc-4a36-864e-c1a62b564295","system_id":"levelo_inurba_marseille","lat":43.23144,"lon":5.43719,"is_reserved":false,"is_disabled":false,"rental_uris":{"android":"levelo://app?vid=b378dfd1-c1cc-4a36-864e-c1a62b564295","ios":"levelo://app?vid=b378dfd1-c1cc-4a36-864e-c1a62b564295"},"vehicle_type_id":"4","last_reported":1728036565,"current_range_meters":24000,"station_id":"ce4bhmp2rcd13ifvqgog","pricing_plan_id":"cebpf4jnsgd1na2vs0mg"},{"bike_id":"dba33e20-e8cc-43a0-8335-b4bb190816d9","system_id":"levelo_inurba_marseille","lat":43.28154,"lon":5.42634,"is_reserved":false,"is_disabled":false,"rental_uris":{"android":"levelo://app?vid=dba33e20-e8cc-43a0-8335-b4bb190816d9","ios":"levelo://app?vid=dba33e20-e8cc-43a0-8335-b4bb190816d9"},"vehicle_type_id":"4","last_reported":1728036565,"current_range_meters":22000,"station_id":"ce4bhnh2rcd13ifvqgug","pricing_plan_id":"cebpf4jnsgd1na2vs0mg"},{"bike_id":"c8083634-8e91-48e6-a872-a4d4b7e8b3a7","system_id":"levelo_inurba_marseille","lat":43.29277,"lon":5.40125,"is_reserved":false,"is_disabled":false,"rental_uris":{"android":"levelo://app?vid=c8083634-8e91-48e6-a872-a4d4b7e8b3a7","ios":"levelo://app?vid=c8083634-8e91-48e6-a872-a4d4b7e8b3a7"},"vehicle_type_id":"4","last_reported":1728036565,"current_range_meters":21600,"station_id":"ce4bh312rcd13ifvqdk0","pricing_plan_id":"cebpf4jnsgd1na2vs0mg"},{"bike_id":"2596df12-f512-4ec8-a994-35cffe7b5ed9","system_id":"levelo_inurba_marseille","lat":43.30537,"lon":5.36552,"is_reserved":false,"is_disabled":false,"rental_uris":{"android":"levelo://app?vid=2596df12-f512-4ec8-a994-35cffe7b5ed9","ios":"levelo://app?vid=2596df12-f512-4ec8-a994-35cffe7b5ed9"},"vehicle_type_id":"4","last_reported":1728036565,"current_range_meters":38000,"station_id":"ce4bgs12rcd13ifvqcag","pricing_plan_id":"cebpf4jnsgd1na2vs0mg"},{"bike_id":"eb387d80-1a2b-4338-9dfc-d920fff731e3","system_id":"levelo_inurba_marseille","lat":43.23143,"lon":5.43721,"is_reserved":false,"is_disabled":false,"rental_uris":{"android":"levelo://app?vid=eb387d80-1a2b-4338-9dfc-d920fff731e3","ios":"levelo://app?vid=eb387d80-1a2b-4338-9dfc-d920fff731e3"},"vehicle_type_id":"4","last_reported":1728036565,"current_range_meters":39200,"station_id":"ce4bhmp2rcd13ifvqgog","pricing_plan_id":"cebpf4jnsgd1na2vs0mg"},{"bike_id":"36c4123b-82ca-4ed0-928e-ff1d6f049d0c","system_id":"levelo_inurba_marseille","lat":43.28839,"lon":5.3584,"is_reserved":false,"is_disabled":false,"rental_uris":{"android":"levelo://app?vid=36c4123b-82ca-4ed0-928e-ff1d6f049d0c","ios":"levelo://app?vid=36c4123b-82ca-4ed0-928e-ff1d6f049d0c"},"vehicle_type_id":"4","last_reported":1728036565,"current_range_meters":37600,"station_id":"ce4bhb12rcd13ifvqem0","pricing_plan_id":"cebpf4jnsgd1na2vs0mg"},{"bike_id":"7ef96fb3-acb5-4e7f-be0d-525ea0d57434","system_id":"levelo_inurba_marseille","lat":43.26929,"lon":5.38918,"is_reserved":false,"is_disabled":false,"rental_uris":{"android":"levelo://app?vid=7ef96fb3-acb5-4e7f-be0d-525ea0d57434","ios":"levelo://app?vid=7ef96fb3-acb5-4e7f-be0d-525ea0d57434"},"vehicle_type_id":"4","last_reported":1728036565,"current_range_meters":38800,"station_id":"ce4bhhh2rcd13ifvqfl0","pricing_plan_id":"cebpf4jnsgd1na2vs0mg"},{"bike_id":"613dddd7-b6d5-4ce7-b0cc-11c99bc21e50","system_id":"levelo_inurba_marseille","lat":43.30554,"lon":5.36703,"is_reserved":false,"is_disabled":false,"rental_uris":{"android":"levelo://app?vid=613dddd7-b6d5-4ce7-b0cc-11c99bc21e50","ios":"levelo://app?vid=613dddd7-b6d5-4ce7-b0cc-11c99bc21e50"},"vehicle_type_id":"4","last_reported":1728036565,"current_range_meters":32800,"station_id":"ce4bgrp2rcd13ifvqc9g","pricing_plan_id":"cebpf4jnsgd1na2vs0mg"},{"bike_id":"abedcaca-ce9a-464c-8437-8a94d42dcb16","system_id":"levelo_inurba_marseille","lat":43.29841,"lon":5.36277,"is_reserved":false,"is_disabled":false,"rental_uris":{"android":"levelo://app?vid=abedcaca-ce9a-464c-8437-8a94d42dcb16","ios":"levelo://app?vid=abedcaca-ce9a-464c-8437-8a94d42dcb16"},"vehicle_type_id":"4","last_reported":1728036565,"current_range_meters":30800,"station_id":"ce4bgpp2rcd13ifvqc3g","pricing_plan_id":"cebpf4jnsgd1na2vs0mg"},{"bike_id":"485acce7-77e5-48a3-854b-4e59b6ca1def","system_id":"levelo_inurba_marseille","lat":43.30536,"lon":5.36556,"is_reserved":false,"is_disabled":false,"rental_uris":{"android":"levelo://app?vid=485acce7-77e5-48a3-854b-4e59b6ca1def","ios":"levelo://app?vid=485acce7-77e5-48a3-854b-4e59b6ca1def"},"vehicle_type_id":"4","last_reported":1728036565,"current_range_meters":18800,"station_id":"ce4bgs12rcd13ifvqcag","pricing_plan_id":"cebpf4jnsgd1na2vs0mg"},{"bike_id":"7ea2e2c7-8908-465e-82a1-a9814acade1c","system_id":"levelo_inurba_marseille","lat":43.30282,"lon":5.37702,"is_reserved":false,"is_disabled":false,"rental_uris":{"android":"levelo://app?vid=7ea2e2c7-8908-465e-82a1-a9814acade1c","ios":"levelo://app?vid=7ea2e2c7-8908-465e-82a1-a9814acade1c"},"vehicle_type_id":"4","last_reported":1728036565,"current_range_meters":28400,"station_id":"ce4bguh2rcd13ifvqcj0","pricing_plan_id":"cebpf4jnsgd1na2vs0mg"},{"bike_id":"f0ee3299-6f34-4291-885b-91b308e7806a","system_id":"levelo_inurba_marseille","lat":43.24994,"lon":5.38947,"is_reserved":false,"is_disabled":false,"rental_uris":{"android":"levelo://app?vid=f0ee3299-6f34-4291-885b-91b308e7806a","ios":"levelo://app?vid=f0ee3299-6f34-4291-885b-91b308e7806a"},"vehicle_type_id":"4","last_reported":1728036565,"current_range_meters":32800,"station_id":"ce4bhgp2rcd13ifvqfd0","pricing_plan_id":"cebpf4jnsgd1na2vs0mg"},{"bike_id":"5a60641b-f082-4e1e-8a63-38e819acd24d","system_id":"levelo_inurba_marseille","lat":43.27086,"lon":5.42291,"is_reserved":false,"is_disabled":false,"rental_uris":{"android":"levelo://app?vid=5a60641b-f082-4e1e-8a63-38e819acd24d","ios":"levelo://app?vid=5a60641b-f082-4e1e-8a63-38e819acd24d"},"vehicle_type_id":"4","last_reported":1728036565,"current_range_meters":28800,"station_id":"ce4bhk92rcd13ifvqgb0","pricing_plan_id":"cebpf4jnsgd1na2vs0mg"},{"bike_id":"9101586e-c6cd-4b59-8351-7ef51ef33a84","system_id":"levelo_inurba_marseille","lat":43.29845,"lon":5.36284,"is_reserved":false,"is_disabled":false,"rental_uris":{"android":"levelo://app?vid=9101586e-c6cd-4b59-8351-7ef51ef33a84","ios":"levelo://app?vid=9101586e-c6cd-4b59-8351-7ef51ef33a84"},"vehicle_type_id":"4","last_reported":1728036565,"current_range_meters":29600,"station_id":"ce4bgpp2rcd13ifvqc3g","pricing_plan_id":"cebpf4jnsgd1na2vs0mg"},{"bike_id":"34929eca-affd-4397-b347-6194ca02f356","system_id":"levelo_inurba_marseille","lat":43.29175,"lon":5.37145,"is_reserved":false,"is_disabled":false,"rental_uris":{"android":"levelo://app?vid=34929eca-affd-4397-b347-6194ca02f356","ios":"levelo://app?vid=34929eca-affd-4397-b347-6194ca02f356"},"vehicle_type_id":"4","last_reported":1728036565,"current_range_meters":38800,"station_id":"ce4bha92rcd13ifvqeh0","pricing_plan_id":"cebpf4jnsgd1na2vs0mg"},{"bike_id":"eb16dba8-6a80-4958-9b17-db09e21abbb3","system_id":"levelo_inurba_marseille","lat":43.28032,"lon":5.3696,"is_reserved":false,"is_disabled":false,"rental_uris":{"android":"levelo://app?vid=eb16dba8-6a80-4958-9b17-db09e21abbb3","ios":"levelo://app?vid=eb16dba8-6a80-4958-9b17-db09e21abbb3"},"vehicle_type_id":"4","last_reported":1728036565,"current_range_meters":11200,"station_id":"ce4bha12rcd13ifvqef0","pricing_plan_id":"cebpf4jnsgd1na2vs0mg"},{"bike_id":"da159afb-d6ad-4bc8-a3de-e348ce2b41eb","system_id":"levelo_inurba_marseille","lat":43.324809,"lon":5.365698,"is_reserved":false,"is_disabled":false,"rental_uris":{"android":"levelo://app?vid=da159afb-d6ad-4bc8-a3de-e348ce2b41eb","ios":"levelo://app?vid=da159afb-d6ad-4bc8-a3de-e348ce2b41eb"},"vehicle_type_id":"4","last_reported":1728036565,"current_range_meters":38000,"station_id":"ce4bhs12rcd13ifvqhvg","pricing_plan_id":"cebpf4jnsgd1na2vs0mg"},{"bike_id":"26f290bb-1447-4f43-ab6d-1590e2a06a4b","system_id":"levelo_inurba_marseille","lat":43.30142,"lon":5.38097,"is_reserved":false,"is_disabled":false,"rental_uris":{"android":"levelo://app?vid=26f290bb-1447-4f43-ab6d-1590e2a06a4b","ios":"levelo://app?vid=26f290bb-1447-4f43-ab6d-1590e2a06a4b"},"vehicle_type_id":"4","last_reported":1728036565,"current_range_meters":34000,"station_id":"ce4bgjp2rcd13ifvqbh0","pricing_plan_id":"cebpf4jnsgd1na2vs0mg"},{"bike_id":"9aa0b957-48a6-4f81-9469-506a82efd189","system_id":"levelo_inurba_marseille","lat":43.2731,"lon":5.39103,"is_reserved":false,"is_disabled":false,"rental_uris":{"android":"levelo://app?vid=9aa0b957-48a6-4f81-9469-506a82efd189","ios":"levelo://app?vid=9aa0b957-48a6-4f81-9469-506a82efd189"},"vehicle_type_id":"4","last_reported":1728036565,"current_range_meters":11200,"station_id":"ce4bhih2rcd13ifvqfs0","pricing_plan_id":"cebpf4jnsgd1na2vs0mg"},{"bike_id":"45c5a772-daed-42a7-bca5-b16a7bfbbf98","system_id":"levelo_inurba_marseille","lat":43.30147,"lon":5.38087,"is_reserved":false,"is_disabled":false,"rental_uris":{"android":"levelo://app?vid=45c5a772-daed-42a7-bca5-b16a7bfbbf98","ios":"levelo://app?vid=45c5a772-daed-42a7-bca5-b16a7bfbbf98"},"vehicle_type_id":"4","last_reported":1728036565,"current_range_meters":34000,"station_id":"ce4bgjp2rcd13ifvqbh0","pricing_plan_id":"cebpf4jnsgd1na2vs0mg"},{"bike_id":"f7f0e5ba-4b00-4c2a-af09-5fb133ebf862","system_id":"levelo_inurba_marseille","lat":43.290466,"lon":5.359211,"is_reserved":false,"is_disabled":false,"rental_uris":{"android":"levelo://app?vid=f7f0e5ba-4b00-4c2a-af09-5fb133ebf862","ios":"levelo://app?vid=f7f0e5ba-4b00-4c2a-af09-5fb133ebf862"},"vehicle_type_id":"4","last_reported":1728036565,"current_range_meters":18000,"station_id":"ce4bha92rcd13ifvqeg0","pricing_plan_id":"cebpf4jnsgd1na2vs0mg"},{"bike_id":"945db574-611e-44bd-b7af-2308ff04fc92","system_id":"levelo_inurba_marseille","lat":43.30143,"lon":5.38091,"is_reserved":false,"is_disabled":false,"rental_uris":{"android":"levelo://app?vid=945db574-611e-44bd-b7af-2308ff04fc92","ios":"levelo://app?vid=945db574-611e-44bd-b7af-2308ff04fc92"},"vehicle_type_id":"4","last_reported":1728036565,"current_range_meters":20400,"station_id":"ce4bgjp2rcd13ifvqbh0","pricing_plan_id":"cebpf4jnsgd1na2vs0mg"},{"bike_id":"267535cb-bd39-4078-8735-d7aa9b04e723","system_id":"levelo_inurba_marseille","lat":43.29511,"lon":5.3905,"is_reserved":false,"is_disabled":false,"rental_uris":{"android":"levelo://app?vid=267535cb-bd39-4078-8735-d7aa9b04e723","ios":"levelo://app?vid=267535cb-bd39-4078-8735-d7aa9b04e723"},"vehicle_type_id":"4","last_reported":1728036565,"current_range_meters":32400,"station_id":"ce4bh3p2rcd13ifvqdp0","pricing_plan_id":"cebpf4jnsgd1na2vs0mg"},{"bike_id":"efc190be-afde-4784-a061-c8a52d3a4055","system_id":"levelo_inurba_marseille","lat":43.27845,"lon":5.406781,"is_reserved":false,"is_disabled":false,"rental_uris":{"android":"levelo://app?vid=efc190be-afde-4784-a061-c8a52d3a4055","ios":"levelo://app?vid=efc190be-afde-4784-a061-c8a52d3a4055"},"vehicle_type_id":"4","last_reported":1728036565,"current_range_meters":34800,"station_id":"ce4bhnh2rcd13ifvqgtg","pricing_plan_id":"cebpf4jnsgd1na2vs0mg"},{"bike_id":"778492d6-ae44-4ffb-bac7-b78b77c9c82b","system_id":"levelo_inurba_marseille","lat":43.30308,"lon":5.36902,"is_reserved":false,"is_disabled":false,"rental_uris":{"android":"levelo://app?vid=778492d6-ae44-4ffb-bac7-b78b77c9c82b","ios":"levelo://app?vid=778492d6-ae44-4ffb-bac7-b78b77c9c82b"},"vehicle_type_id":"4","last_reported":1728036565,"current_range_meters":40000,"station_id":"ce4bgqh2rcd13ifvqc5g","pricing_plan_id":"cebpf4jnsgd1na2vs0mg"},{"bike_id":"c27bd2ec-b1b8-4f9c-839d-c8e88bc7ec66","system_id":"levelo_inurba_marseille","lat":43.29843,"lon":5.36269,"is_reserved":false,"is_disabled":false,"rental_uris":{"android":"levelo://app?vid=c27bd2ec-b1b8-4f9c-839d-c8e88bc7ec66","ios":"levelo://app?vid=c27bd2ec-b1b8-4f9c-839d-c8e88bc7ec66"},"vehicle_type_id":"4","last_reported":1728036565,"current_range_meters":40000,"station_id":"ce4bgpp2rcd13ifvqc3g","pricing_plan_id":"cebpf4jnsgd1na2vs0mg"},{"bike_id":"cfd799c5-7a77-48af-a92f-ac3363e7a66b","system_id":"levelo_inurba_marseille","lat":43.33019,"lon":5.39045,"is_reserved":false,"is_disabled":false,"rental_uris":{"android":"levelo://app?vid=cfd799c5-7a77-48af-a92f-ac3363e7a66b","ios":"levelo://app?vid=cfd799c5-7a77-48af-a92f-ac3363e7a66b"},"vehicle_type_id":"4","last_reported":1728036565,"current_range_meters":16000,"station_id":"ce4bhr92rcd13ifvqhrg","pricing_plan_id":"cebpf4jnsgd1na2vs0mg"},{"bike_id":"0cb9acb2-15eb-485b-842c-a3f570e8e7c5","system_id":"levelo_inurba_marseille","lat":43.22935,"lon":5.35375,"is_reserved":false,"is_disabled":false,"rental_uris":{"android":"levelo://app?vid=0cb9acb2-15eb-485b-842c-a3f570e8e7c5","ios":"levelo://app?vid=0cb9acb2-15eb-485b-842c-a3f570e8e7c5"},"vehicle_type_id":"4","last_reported":1728036565,"current_range_meters":22800,"station_id":"cpo3532slgdg3j2ikp40","pricing_plan_id":"cebpf4jnsgd1na2vs0mg"},{"bike_id":"4422e1a6-be40-4a5e-877d-63ea7ba9b011","system_id":"levelo_inurba_marseille","lat":43.29835,"lon":5.36263,"is_reserved":false,"is_disabled":false,"rental_uris":{"android":"levelo://app?vid=4422e1a6-be40-4a5e-877d-63ea7ba9b011","ios":"levelo://app?vid=4422e1a6-be40-4a5e-877d-63ea7ba9b011"},"vehicle_type_id":"4","last_reported":1728036565,"current_range_meters":23200,"station_id":"ce4bgpp2rcd13ifvqc3g","pricing_plan_id":"cebpf4jnsgd1na2vs0mg"},{"bike_id":"eabea0cc-ed7c-4925-9ee3-ea7a749fd05f","system_id":"levelo_inurba_marseille","lat":43.28256,"lon":5.35072,"is_reserved":false,"is_disabled":false,"rental_uris":{"android":"levelo://app?vid=eabea0cc-ed7c-4925-9ee3-ea7a749fd05f","ios":"levelo://app?vid=eabea0cc-ed7c-4925-9ee3-ea7a749fd05f"},"vehicle_type_id":"4","last_reported":1728036565,"current_range_meters":24400,"station_id":"ce4bhbp2rcd13ifvqerg","pricing_plan_id":"cebpf4jnsgd1na2vs0mg"},{"bike_id":"4c40b7da-31a6-4737-8575-c221517273bf","system_id":"levelo_inurba_marseille","lat":43.30525,"lon":5.36723,"is_reserved":false,"is_disabled":false,"rental_uris":{"android":"levelo://app?vid=4c40b7da-31a6-4737-8575-c221517273bf","ios":"levelo://app?vid=4c40b7da-31a6-4737-8575-c221517273bf"},"vehicle_type_id":"4","last_reported":1728036565,"current_range_meters":38000,"station_id":"ce4bgrp2rcd13ifvqc9g","pricing_plan_id":"cebpf4jnsgd1na2vs0mg"},{"bike_id":"f87c3119-9f6a-4c7f-b488-74411a561f26","system_id":"levelo_inurba_marseille","lat":43.3077,"lon":5.39592,"is_reserved":false,"is_disabled":false,"rental_uris":{"android":"levelo://app?vid=f87c3119-9f6a-4c7f-b488-74411a561f26","ios":"levelo://app?vid=f87c3119-9f6a-4c7f-b488-74411a561f26"},"vehicle_type_id":"4","last_reported":1728036565,"current_range_meters":36000,"station_id":"","pricing_plan_id":"cebpf4jnsgd1na2vs0mg"},{"bike_id":"3cdb6cbb-6130-4e1e-95ef-18a248d16a91","system_id":"levelo_inurba_marseille","lat":43.28363,"lon":5.38628,"is_reserved":false,"is_disabled":false,"rental_uris":{"android":"levelo://app?vid=3cdb6cbb-6130-4e1e-95ef-18a248d16a91","ios":"levelo://app?vid=3cdb6cbb-6130-4e1e-95ef-18a248d16a91"},"vehicle_type_id":"4","last_reported":1728036565,"current_range_meters":34800,"station_id":"ce4bh492rcd13ifvqdvg","pricing_plan_id":"cebpf4jnsgd1na2vs0mg"},