{"last_updated":1727802486,"ttl":60,"version":"2.2","data":{"bikes":[{"bike_id":"217a0d9e-af06-4afa-90d2-ae088fdc4081","system_id":"levelo_inurba_marseille","lat":43.33017,"lon":5.39046,"is_reserved":false,"is_disabled":false,"rental_uris":{"android":"levelo://app?vid=217a0d9e-af06-4afa-90d2-ae088fdc4081","ios":"levelo://app?vid=217a0d9e-af06-4afa-90d2-ae088fdc4081"},"vehicle_type_id":"4","last_reported":1727802486,"current_range_meters":8800,"station_id":"ce4bhr92rcd13ifvqhrg","pricing_plan_id":"cebpf4jnsgd1na2vs0mg"},{"bike_id":"29e7621a-9400-40b6-ae1b-a2b0109ffc94","system_id":"levelo_inurba_marseille","lat":43.3281,"lon":5.38768,"is_reserved":false,"is_disabled":false,"rental_uris":{"android":"levelo://app?vid=29e7621a-9400-40b6-ae1b-a2b0109ffc94","ios":"levelo://app?vid=29e7621a-9400-40b6-ae1b-a2b0109ffc94"},"vehicle_type_id":"4","last_reported":1727802486,"current_range_meters":38800,"station_id":"","pricing_plan_id":"cebpf4jnsgd1na2vs0mg"},{"bike_id":"2b921514-1848-4c9e-bfe5-b2ae8d515268","system_id":"levelo_inurba_marseille","lat":43.2699,"lon":5.39885,"is_reserved":false,"is_disabled":false,"rental_uris":{"android":"levelo://app?vid=2b921514-1848-4c9e-bfe5-b2ae8d515268","ios":"levelo://app?vid=2b921514-1848-4c9e-bfe5-b2ae8d515268"},"vehicle_type_id":"4","last_reported":1727802486,"current_range_meters":31200,"station_id":"","pricing_plan_id":"cebpf4jnsgd1na2vs0mg"},{"bike_id":"25c65e49-63a7-4aed-95e8-b533b383d217","system_id":"levelo_inurba_marseille","lat":43.27069,"lon":5.42283,"is_reserved":false,"is_disabled":false,"rental_uris":{"android":"levelo://app?vid=25c65e49-63a7-4aed-95e8-b533b383d217","ios":"levelo://app?vid=25c65e49-63a7-4aed-95e8-b533b383d217"},"vehicle_type_id":"4","last_reported":1727802486,"current_range_meters":20400,"station_id":"ce4bhk92rcd13ifvqgb0","pricing_plan_id":"cebpf4jnsgd1na2vs0mg"},{"bike_id":"100a6eb3-d864-4715-8031-7729c74975fb","system_id":"levelo_inurba_marseille","lat":43.28012,"lon":5.40045,"is_reserved":false,"is_disabled":false,"rental_uris":{"android":"levelo://app?vid=100a6eb3-d864-4715-8031-7729c74975fb","ios":"levelo://app?vid=100a6eb3-d864-4715-8031-7729c74975fb"},"vehicle_type_id":"4","last_reported":1727802486,"current_range_meters":38800,"station_id":"ce4bho92rcd13ifvqh4g","pricing_plan_id":"cebpf4jnsgd1na2vs0mg"},{"bike_id":"242931e4-5027-41cd-8f5e-f5e2edb07146","system_id":"levelo_inurba_marseille","lat":43.256437,"lon":5.382387,"is_reserved":false,"is_disabled":false,"rental_uris":{"android":"levelo://app?vid=242931e4-5027-41cd-8f5e-f5e2edb07146","ios":"levelo://app?vid=242931e4-5027-41cd-8f5e-f5e2edb07146"},"vehicle_type_id":"4","last_reported":1727802486,"current_range_meters":38000,"station_id":"","pricing_plan_id":"cebpf4jnsgd1na2vs0mg"},{"bike_id":"bc4cac38-4ffc-4bcb-93fd-55b3c79bc4f8","system_id":"levelo_inurba_marseille","lat":43.25582,"lon":5.38231,"is_reserved":false,"is_disabled":false,"rental_uris":{"android":"levelo://app?vid=bc4cac38-4ffc-4bcb-93fd-55b3c79bc4f8","ios":"levelo://app?vid=bc4cac38-4ffc-4bcb-93fd-55b3c79bc4f8"},"vehicle_type_id":"4","last_reported":1727802486,"current_range_meters":3200,"station_id":"ce4bhih2rcd13ifvqfs0","pricing_plan_id":"cebpf4jnsgd1na2vs0mg"},{"bike_id":"a5c1f0b5-5a76-4c75-bb02-15ba5b55cad6","system_id":"levelo_inurba_marseille","lat":43.31355,"lon":5.38495,"is_reserved":false,"is_disabled":false,"rental_uris":{"android":"levelo://app?vid=a5c1f0b5-5a76-4c75-bb02-15ba5b55cad6","ios":"levelo://app?vid=a5c1f0b5-5a76-4c75-bb02-15ba5b55cad6"},"vehicle_type_id":"4","last_reported":1727802486,"current_range_meters":2000,"station_id":"ce4bgt92rcd13ifvqcf0","pricing_plan_id":"cebpf4jnsgd1na2vs0mg"},{"bike_id":"0e116264-a3eb-4d6a-918a-5a8f78705f43","system_id":"levelo_inurba_marseille","lat":43.29556,"lon":5.42298,"is_reserved":false,"is_disabled":false,"rental_uris":{"android":"levelo://app?vid=0e116264-a3eb-4d6a-918a-5a8f78705f43","ios":"levelo://app?vid=0e116264-a3eb-4d6a-918a-5a8f78705f43"},"vehicle_type_id":"4","last_reported":1727802486,"current_range_meters":20400,"station_id":"ce4bhph2rcd13ifvqhdg","pricing_plan_id":"cebpf4jnsgd1na2vs0mg"},{"bike_id":"ffdc8da4-58b2-4bc4-b804-a74304a9bc59","system_id":"levelo_inurba_marseille","lat":43.29251,"lon":5.40904,"is_reserved":false,"is_disabled":false,"rental_uris":{"android":"levelo://app?vid=ffdc8da4-58b2-4bc4-b804-a74304a9bc59","ios":"levelo://app?vid=ffdc8da4-58b2-4bc4-b804-a74304a9bc59"},"vehicle_type_id":"4","last_reported":1727802486,"current_range_meters":4400,"station_id":"ce4bh192rcd13ifvqdc0","pricing_plan_id":"cebpf4jnsgd1na2vs0mg"},{"bike_id":"d687f24e-23fe-4c03-9415-84ac105ad04e","system_id":"levelo_inurba_marseille","lat":43.27911,"lon":5.39579,"is_reserved":false,"is_disabled":false,"rental_uris":{"android":"levelo://app?vid=d687f24e-23fe-4c03-9415-84ac105ad04e","ios":"levelo://app?vid=d687f24e-23fe-4c03-9415-84ac105ad04e"},"vehicle_type_id":"4","last_reported":1727802486,"current_range_meters":18800,"station_id":"ce4bhf92rcd13ifvqf40","pricing_plan_id":"cebpf4jnsgd1na2vs0mg"},{"bike_id":"31be92d0-726c-4d62-a274-3a171aa6861e","system_id":"levelo_inurba_marseille","lat":43.25086,"lon":5.39524,"is_reserved":false,"is_disabled":false,"rental_uris":{"android":"levelo://app?vid=31be92d0-726c-4d62-a274-3a171aa6861e","ios":"levelo://app?vid=31be92d0-726c-4d62-a274-3a171aa6861e"},"vehicle_type_id":"4","last_reported":1727802486,"current_range_meters":30800,"station_id":"ce4bhm12rcd13ifvqgkg","pricing_plan_id":"cebpf4jnsgd1na2vs0mg"},{"bike_id":"0d315b74-fec9-42f6-920f-1125653582c1","system_id":"levelo_inurba_marseille","lat":43.30806,"lon":5.43527,"is_reserved":false,"is_disabled":false,"rental_uris":{"android":"levelo://app?vid=0d315b74-fec9-42f6-920f-1125653582c1","ios":"levelo://app?vid=0d315b74-fec9-42f6-920f-1125653582c1"},"vehicle_type_id":"4","last_reported":1727802486,"current_range_meters":23200,"station_id":"ce4bhph2rcd13ifvqheg","pricing_plan_id":"cebpf4jnsgd1na2vs0mg"},{"bike_id":"a58af8c6-2a81-4b77-9dd1-80822e174168","system_id":"levelo_inurba_marseille","lat":43.27816,"lon":5.40715,"is_reserved":false,"is_disabled":false,"rental_uris":{"android":"levelo://app?vid=a58af8c6-2a81-4b77-9dd1-80822e174168","ios":"levelo://app?vid=a58af8c6-2a81-4b77-9dd1-80822e174168"},"vehicle_type_id":"4","last_reported":1727802486,"current_range_meters":40000,"station_id":"ce4bhnh2rcd13ifvqgtg","pricing_plan_id":"cebpf4jnsgd1na2vs0mg"},{"bike_id":"55a597ca-5718-4236-af0e-0572c55098d0","system_id":"levelo_inurba_marseille","lat":43.26213,"lon":5.37443,"is_reserved":false,"is_disabled":false,"rental_uris":{"android":"levelo://app?vid=55a597ca-5718-4236-af0e-0572c55098d0","ios":"levelo://app?vid=55a597ca-5718-4236-af0e-0572c55098d0"},"vehicle_type_id":"4","last_reported":1727802486,"current_range_meters":16400,"station_id":"ce4bhgp2rcd13ifvqfc0","pricing_plan_id":"cebpf4jnsgd1na2vs0mg"},{"bike_id":"b73b046c-e62d-4282-821d-ea3370b6d39f","system_id":"levelo_inurba_marseille","lat":43.311691,"lon":5.387226,"is_reserved":false,"is_disabled":false,"rental_uris":{"android":"levelo://app?vid=b73b046c-e62d-4282-821d-ea3370b6d39f","ios":"levelo://app?vid=b73b046c-e62d-4282-821d-ea3370b6d39f"},"vehicle_type_id":"4","last_reported":1727802486,"current_range_meters":3600,"station_id":"ce4bgv12rcd13ifvqcp0","pricing_plan_id":"cebpf4jnsgd1na2vs0mg"},{"bike_id":"3ec7fe47-edb6-4ae4-bbd7-956a18dd748d","system_id":"levelo_inurba_marseille","lat":43.28407,"lon":5.37516,"is_reserved":false,"is_disabled":false,"rental_uris":{"android":"levelo://app?vid=3ec7fe47-edb6-4ae4-bbd7-956a18dd748d","ios":"levelo://app?vid=3ec7fe47-edb6-4ae4-bbd7-956a18dd748d"},"vehicle_type_id":"4","last_reported":1727802486,"current_range_meters":36400,"station_id":"ce4bh412rcd13ifvqds0","pricing_plan_id":"cebpf4jnsgd1na2vs0mg"},{"bike_id":"562467a5-7115-47e2-acdc-593a384781df","system_id":"levelo_inurba_marseille","lat":43.29534,"lon":5.38548,"is_reserved":false,"is_disabled":false,"rental_uris":{"android":"levelo://app?vid=562467a5-7115-47e2-acdc-593a384781df","ios":"levelo://app?vid=562467a5-7115-47e2-acdc-593a384781df"},"vehicle_type_id":"4","last_reported":1727802486,"current_range_meters":38800,"station_id":"ce4bgih2rcd13ifvqba0","pricing_plan_id":"cebpf4jnsgd1na2vs0mg"},{"bike_id":"e30c7e07-a3f6-4b7b-b137-3eeec92f97bf","system_id":"levelo_inurba_marseille","lat":43.33022,"lon":5.39043,"is_reserved":false,"is_disabled":false,"rental_uris":{"android":"levelo://app?vid=e30c7e07-a3f6-4b7b-b137-3eeec92f97bf","ios":"levelo://app?vid=e30c7e07-a3f6-4b7b-b137-3eeec92f97bf"},"vehicle_type_id":"4","last_reported":1727802486,"current_range_meters":24800,"station_id":"ce4bhr92rcd13ifvqhrg","pricing_plan_id":"cebpf4jnsgd1na2vs0mg"},{"bike_id":"411825e8-1684-49c9-974f-87602de86671","system_id":"levelo_inurba_marseille","lat":43.27826,"lon":5.39205,"is_reserved":false,"is_disabled":false,"rental_uris":{"android":"levelo://app?vid=411825e8-1684-49c9-974f-87602de86671","ios":"levelo://app?vid=411825e8-1684-49c9-974f-87602de86671"},"vehicle_type_id":"4","last_reported":1727802486,"current_range_meters":38800,"station_id":"ce4bhjp2rcd13ifvqga0","pricing_plan_id":"cebpf4jnsgd1na2vs0mg"},{"bike_id":"a7c90877-3508-4212-b86c-872e92037404","system_id":"levelo_inurba_marseille","lat":43.28611,"lon":5.35105,"is_reserved":false,"is_disabled":false,"rental_uris":{"android":"levelo://app?vid=a7c90877-3508-4212-b86c-872e92037404","ios":"levelo://app?vid=a7c90877-3508-4212-b86c-872e92037404"},"vehicle_type_id":"4","last_reported":1727802486,"current_range_meters":23200,"station_id":"ce4bhch2rcd13ifvqeug","pricing_plan_id":"cebpf4jnsgd1na2vs0mg"},{"bike_id":"7949a87b-8df3-4280-8252-c67c35fdceb5","system_id":"levelo_inurba_marseille","lat":43.28704,"lon":5.39983,"is_reserved":false,"is_disabled":false,"rental_uris":{"android":"levelo://app?vid=7949a87b-8df3-4280-8252-c67c35fdceb5","ios":"levelo://app?vid=7949a87b-8df3-4280-8252-c67c35fdceb5"},"vehicle_type_id":"4","last_reported":1727802486,"current_range_meters":32400,"station_id":"ce4bho92rcd13ifvqh3g","pricing_plan_id":"cebpf4jnsgd1na2vs0mg"},{"bike_id":"87e89887-27a6-45ee-9bac-ef0650223956","system_id":"levelo_inurba_marseille","lat":43.29907,"lon":5.38136,"is_reserved":false,"is_disabled":false,"rental_uris":{"android":"levelo://app?vid=87e89887-27a6-45ee-9bac-ef0650223956","ios":"levelo://app?vid=87e89887-27a6-45ee-9bac-ef0650223956"},"vehicle_type_id":"4","last_reported":1727802486,"current_range_meters":38800,"station_id":"ce4bgj12rcd13ifvqbc0","pricing_plan_id":"cebpf4jnsgd1na2vs0mg"},{"bike_id":"cc07bd96-c001-4cad-b8d8-6c83fdb27706","system_id":"levelo_inurba_marseille","lat":43.27994,"lon":5.40014,"is_reserved":false,"is_disabled":false,"rental_uris":{"android":"levelo://app?vid=cc07bd96-c001-4cad-b8d8-6c83fdb27706","ios":"levelo://app?vid=cc07bd96-c001-4cad-b8d8-6c83fdb27706"},"vehicle_type_id":"4","last_reported":1727802486,"current_range_meters":25200,"station_id":"ce4bho92rcd13ifvqh4g","pricing_plan_id":"cebpf4jnsgd1na2vs0mg"},{"bike_id":"cdf1d5f9-f205-48ee-b275-ef7c8181edd1","system_id":"levelo_inurba_marseille","lat":43.26565,"lon":5.39008,"is_reserved":false,"is_disabled":false,"rental_uris":{"android":"levelo://app?vid=cdf1d5f9-f205-48ee-b275-ef7c8181edd1","ios":"levelo://app?vid=cdf1d5f9-f205-48ee-b275-ef7c8181edd1"},"vehicle_type_id":"4","last_reported":1727802486,"current_range_meters":8800,"station_id":"ce4bhe12rcd13ifvqf30","pricing_plan_id":"cebpf4jnsgd1na2vs0mg"},{"bike_id":"2fd1d23f-29bc-420c-bfe1-178e2b3c8138","system_id":"levelo_inurba_marseille","lat":43.29534,"lon":5.3854,"is_reserved":false,"is_disabled":false,"rental_uris":{"android":"levelo://app?vid=2fd1d23f-29bc-420c-bfe1-178e2b3c8138","ios":"levelo://app?vid=2fd1d23f-29bc-420c-bfe1-178e2b3c8138"},"vehicle_type_id":"4","last_reported":1727802486,"current_range_meters":38000,"station_id":"ce4bgih2rcd13ifvqba0","pricing_plan_id":"cebpf4jnsgd1na2vs0mg"},{"bike_id":"f905f634-b7ec-4773-b05e-1c31b91a9759","system_id":"levelo_inurba_marseille","lat":43.29031,"lon":5.37558,"is_reserved":false,"is_disabled":false,"rental_uris":{"android":"levelo://app?vid=f905f634-b7ec-4773-b05e-1c31b91a9759","ios":"levelo://app?vid=f905f634-b7ec-4773-b05e-1c31b91a9759"},"vehicle_type_id":"4","last_reported":1727802486,"current_range_meters":36400,"station_id":"ce4bh692rcd13ifvqe90","pricing_plan_id":"cebpf4jnsgd1na2vs0mg"},{"bike_id":"d616de3c-fdcc-449b-aaab-950f4c46fdd3","system_id":"levelo_inurba_marseille","lat":43.32116,"lon":5.36779,"is_reserved":false,"is_disabled":false,"rental_uris":{"android":"levelo://app?vid=d616de3c-fdcc-449b-aaab-950f4c46fdd3","ios":"levelo://app?vid=d616de3c-fdcc-449b-aaab-950f4c46fdd3"},"vehicle_type_id":"4","last_reported":1727802486,"current_range_meters":12000,"station_id":"ce4bhrh2rcd13ifvqhug","pricing_plan_id":"cebpf4jnsgd1na2vs0mg"},{"bike_id":"57ce1f67-5421-4a7a-9fe7-c0ce29d69433","system_id":"levelo_inurba_marseille","lat":43.28472,"lon":5.38417,"is_reserved":false,"is_disabled":false,"rental_uris":{"android":"levelo://app?vid=57ce1f67-5421-4a7a-9fe7-c0ce29d69433","ios":"levelo://app?vid=57ce1f67-5421-4a7a-9fe7-c0ce29d69433"},"vehicle_type_id":"4","last_reported":1727802486,"current_range_meters":32800,"station_id":"ce4bh512rcd13ifvqe3g","pricing_plan_id":"cebpf4jnsgd1na2vs0mg"},{"bike_id":"70a9ddc4-731d-42c8-acce-7f111e767e55","system_id":"levelo_inurba_marseille","lat":43.25503,"lon":5.37654,"is_reserved":false,"is_disabled":false,"rental_uris":{"android":"levelo://app?vid=70a9ddc4-731d-42c8-acce-7f111e767e55","ios":"levelo://app?vid=70a9ddc4-731d-42c8-acce-7f111e767e55"},"vehicle_type_id":"4","last_reported":1727802486,"current_range_meters":29600,"station_id":"ce4bhh12rcd13ifvqff0","pricing_plan_id":"cebpf4jnsgd1na2vs0mg"},{"bike_id":"d93203db-766b-4de9-ad9b-52efbfed7b1f","system_id":"levelo_inurba_marseille","lat":43.29789,"lon":5.39355,"is_reserved":false,"is_disabled":false,"rental_uris":{"android":"levelo://app?vid=d93203db-766b-4de9-ad9b-52efbfed7b1f","ios":"levelo://app?vid=d93203db-766b-4de9-ad9b-52efbfed7b1f"},"vehicle_type_id":"4","last_reported":1727802486,"current_range_meters":3600,"station_id":"chh1huq6cuj3fo74tm60","pricing_plan_id":"cebpf4jnsgd1na2vs0mg"},{"bike_id":"31f488ab-4285-4968-a454-fb5a68608229","system_id":"levelo_inurba_marseille","lat":43.28099,"lon":5.37844,"is_reserved":false,"is_disabled":false,"rental_uris":{"android":"levelo://app?vid=31f488ab-4285-4968-a454-fb5a68608229","ios":"levelo://app?vid=31f488ab-4285-4968-a454-fb5a68608229"},"vehicle_type_id":"4","last_reported":1727802486,"current_range_meters":10000,"station_id":"ce4bha12rcd13ifvqee0","pricing_plan_id":"cebpf4jnsgd1na2vs0mg"},{"bike_id":"901f8154-1e6b-47de-b7a1-928bc308b0c9","system_id":"levelo_inurba_marseille","lat":43.295726,"lon":5.400454,"is_reserved":false,"is_disabled":false,"rental_uris":{"android":"levelo://app?vid=901f8154-1e6b-47de-b7a1-928bc308b0c9","ios":"levelo://app?vid=901f8154-1e6b-47de-b7a1-928bc308b0c9"},"vehicle_type_id":"4","last_reported":1727802486,"current_range_meters":18000,"station_id":"","pricing_plan_id":"cebpf4jnsgd1na2vs0mg"},{"bike_id":"cf3941bd-5177-4ab0-9d5c-5634a0289a1b","system_id":"levelo_inurba_marseille","lat":43.29094,"lon":5.38142,"is_reserved":false,"is_disabled":false,"rental_uris":{"android":"levelo://app?vid=cf3941bd-5177-4ab0-9d5c-5634a0289a1b","ios":"levelo://app?vid=cf3941bd-5177-4ab0-9d5c-5634a0289a1b"},"vehicle_type_id":"4","last_reported":1727802486,"current_range_meters":5600,"station_id":"ce4bh512rcd13ifvqe2g","pricing_plan_id":"cebpf4jnsgd1na2vs0mg"},{"bike_id":"c87cbcf6-5323-4613-b4d0-9266fc83505c","system_id":"levelo_inurba_marseille","lat":43.27815,"lon":5.40715,"is_reserved":false,"is_disabled":false,"rental_uris":{"android":"levelo://app?vid=c87cbcf6-5323-4613-b4d0-9266fc83505c","ios":"levelo://app?vid=c87cbcf6-5323-4613-b4d0-9266fc83505c"},"vehicle_type_id":"4","last_reported":1727802486,"current_range_meters":18000,"station_id":"ce4bhnh2rcd13ifvqgtg","pricing_plan_id":"cebpf4jnsgd1na2vs0mg"},{"bike_id":"e415fbce-45f5-4fff-8f6a-8331703589ae","system_id":"levelo_inurba_marseille","lat":43.2846,"lon":5.35892,"is_reserved":false,"is_disabled":false,"rental_uris":{"android":"levelo://app?vid=e415fbce-45f5-4fff-8f6a-8331703589ae","ios":"levelo://app?vid=e415fbce-45f5-4fff-8f6a-8331703589ae"},"vehicle_type_id":"4","last_reported":1727802486,"current_range_meters":4000,"station_id":"ce4bhah2rcd13ifvqei0","pricing_plan_id":"cebpf4jnsgd1na2vs0mg"},{"bike_id":"77ca5d42-3683-42a4-b573-fb87dffdc93a","system_id":"levelo_inurba_marseille","lat":43.31887,"lon":5.40746,"is_reserved":false,"is_disabled":false,"rental_uris":{"android":"levelo://app?vid=77ca5d42-3683-42a4-b573-fb87dffdc93a","ios":"levelo://app?vid=77ca5d42-3683-42a4-b573-fb87dffdc93a"},"vehicle_type_id":"4","last_reported":1727802486,"current_range_meters":37600,"station_id":"ce4bhq12rcd13ifvqhig","pricing_plan_id":"cebpf4jnsgd1na2vs0mg"},{"bike_id":"e00b657e-f9ab-4075-b013-9b75153f91e7","system_id":"levelo_inurba_marseille","lat":43.3254,"lon":5.41451,"is_reserved":false,"is_disabled":false,"rental_uris":{"android":"levelo://app?vid=e00b657e-f9ab-4075-b013-9b75153f91e7","ios":"levelo://app?vid=e00b657e-f9ab-4075-b013-9b75153f91e7"},"vehicle_type_id":"4","last_reported":1727802486,"current_range_meters":38000,"station_id":"ce4bhq12rcd13ifvqhhg","pricing_plan_id":"cebpf4jnsgd1na2vs0mg"},{"bike_id":"4f25ac2d-0308-439f-aeed-3522acdf667e","system_id":"levelo_inurba_marseille","lat":43.299,"lon":5.43664,"is_reserved":false,"is_disabled":false,"rental_uris":{"android":"levelo://app?vid=4f25ac2d-0308-439f-aeed-3522acdf667e","ios":"levelo://app?vid=4f25ac2d-0308-439f-aeed-3522acdf667e"},"vehicle_type_id":"4","last_reported":1727802486,"current_range_meters":18000,"station_id":"ce4bhpp2rcd13ifvqhfg","pricing_plan_id":"cebpf4jnsgd1na2vs0mg"},{"bike_id":"1312c5f2-6032-4c4b-bb6a-5bcedb2967af","system_id":"levelo_inurba_marseille","lat":43.2873,"lon":5.37945,"is_reserved":false,"is_disabled":false,"rental_uris":{"android":"levelo://app?vid=1312c5f2-6032-4c4b-bb6a-5bcedb2967af","ios":"levelo://app?vid=1312c5f2-6032-4c4b-bb6a-5bcedb2967af"},"vehicle_type_id":"4","last_reported":1727802486,"current_range_meters":4400,"station_id":"ce4bh9p2rcd13ifvqec0","pricing_plan_id":"cebpf4jnsgd1na2vs0mg"},{"bike_id":"2efe889c-d7f9-441d-afae-d38011cb4d35","system_id":"levelo_inurba_marseille","lat":43.28456,"lon":5.35889,"is_reserved":false,"is_disabled":false,"rental_uris":{"android":"levelo://app?vid=2efe889c-d7f9-441d-afae-d38011cb4d35","ios":"levelo://app?vid=2efe889c-d7f9-441d-afae-d38011cb4d35"},"vehicle_type_id":"4","last_reported":1727802486,"current_range_meters":38000,"station_id":"ce4bhah2rcd13ifvqei0","pricing_plan_id":"cebpf4jnsgd1na2vs0mg"},{"bike_id":"5480597b-4a20-45ab-8d7b-e759f04bc45a","system_id":"levelo_inurba_marseille","lat":43.25574,"lon":5.38233,"is_reserved":false,"is_disabled":false,"rental_uris":{"android":"levelo://app?vid=5480597b-4a20-45ab-8d7b-e759f04bc45a","ios":"levelo://app?vid=5480597b-4a20-45ab-8d7b-e759f04bc45a"},"vehicle_type_id":"4","last_reported":1727802486,"current_range_meters":2800,"station_id":"ce4bhih2rcd13ifvqfs0","pricing_plan_id":"cebpf4jnsgd1na2vs0mg"},{"bike_id":"eeb711cd-24d9-4c42-af91-b136d3203c29","system_id":"levelo_inurba_marseille","lat":43.27566,"lon":5.38427,"is_reserved":false,"is_disabled":false,"rental_uris":{"android":"levelo://app?vid=eeb711cd-24d9-4c42-af91-b136d3203c29","ios":"levelo://app?vid=eeb711cd-24d9-4c42-af91-b136d3203c29"},"vehicle_type_id":"4","last_reported":1727802486,"current_range_meters":30000,"station_id":"ce4bhh92rcd13ifvqfi0","pricing_plan_id":"cebpf4jnsgd1na2vs0mg"},{"bike_id":"69e967b9-6f0f-4a49-8d02-6bbcef8b6000","system_id":"levelo_inurba_marseille","lat":43.27814,"lon":5.40712,"is_reserved":false,"is_disabled":false,"rental_uris":{"android":"levelo://app?vid=69e967b9-6f0f-4a49-8d02-6bbcef8b6000","ios":"levelo://app?vid=69e967b9-6f0f-4a49-8d02-6bbcef8b6000"},"vehicle_type_id":"4","last_reported":1727802486,"current_range_meters":2000,"station_id":"ce4bhnh2rcd13ifvqgtg","pricing_plan_id":"cebpf4jnsgd1na2vs0mg"},{"bike_id":"6e81d303-a2d5-48a6-9114-7f54040d41e6","system_id":"levelo_inurba_marseille","lat":43.31319,"lon":5.39717,"is_reserved":false,"is_disabled":false,"rental_uris":{"android":"levelo://app?vid=6e81d303-a2d5-48a6-9114-7f54040d41e6","ios":"levelo://app?vid=6e81d303-a2d5-48a6-9114-7f54040d41e6"},"vehicle_type_id":"4","last_reported":1727802486,"current_range_meters":29600,"station_id":"ce4bgvp2rcd13ifvqcu0","pricing_plan_id":"cebpf4jnsgd1na2vs0mg"},{"bike_id":"4c558abb-656b-47cf-88ab-821731025a99","system_id":"levelo_inurba_marseille","lat":43.31085,"lon":5.42431,"is_reserved":false,"is_disabled":false,"rental_uris":{"android":"levelo://app?vid=4c558abb-656b-47cf-88ab-821731025a99","ios":"levelo://app?vid=4c558abb-656b-47cf-88ab-821731025a99"},"vehicle_type_id":"4","last_reported":1727802486,"current_range_meters":19600,"station_id":"ce4bhp92rcd13ifvqhag","pricing_plan_id":"cebpf4jnsgd1na2vs0mg"},{"bike_id":"1b654835-62e7-4aa5-a123-9c87c03153bb","system_id":"levelo_inurba_marseille","lat":43.2963,"lon":5.40606,"is_reserved":false,"is_disabled":false,"rental_uris":{"android":"levelo://app?vid=1b654835-62e7-4aa5-a123-9c87c03153bb","ios":"levelo://app?vid=1b654835-62e7-4aa5-a123-9c87c03153bb"},"vehicle_type_id":"4","last_reported":1727802486,"current_range_meters":19200,"station_id":"ce4bh0h2rcd13ifvqd60","pricing_plan_id":"cebpf4jnsgd1na2vs0mg"},{"bike_id":"6ea0916c-9f4f-4532-8791-7b6cc72c64c7","system_id":"levelo_inurba_marseille","lat":43.29798,"lon":5.38081,"is_reserved":false,"is_disabled":false,"rental_uris":{"android":"levelo://app?vid=6ea0916c-9f4f-4532-8791-7b6cc72c64c7","ios":"levelo://app?vid=6ea0916c-9f4f-4532-8791-7b6cc72c64c7"},"vehicle_type_id":"4","last_reported":1727802486,"current_range_meters":38800,"station_id":"ce4bgip2rcd13ifvqbb0","pricing_plan_id":"cebpf4jnsgd1na2vs0mg"},{"bike_id":"914e6cdb-ea3c-4f89-9435-a14cad86fb6a","system_id":"levelo_inurba_marseille","lat":43.2655,"lon":5.37288,"is_reserved":false,"is_disabled":false,"rental_uris":{"android":"levelo://app?vid=914e6cdb-ea3c-4f89-9435-a14cad86fb6a","ios":"levelo://app?vid=914e6cdb-ea3c-4f89-9435-a14cad86fb6a"},"vehicle_type_id":"4","last_reported":1727802486,"current_range_meters":16400,"station_id":"ce4bhg12rcd13ifvqf70","pricing_plan_id":"cebpf4jnsgd1na2vs0mg"},{"bike_id":"00304d60-08e0-4fba-aaf1-44f13b012b3f","system_id":"levelo_inurba_marseille","lat":43.291199,"lon":5.380772,"is_reserved":false,"is_disabled":false,"rental_uris":{"android":"levelo://app?vid=00304d60-08e0-4fba-aaf1-44f13b012b3f","ios":"levelo://app?vid=00304d60-08e0-4fba-aaf1-44f13b012b3f"},"vehicle_type_id":"4","last_reported":1727802486,"current_range_meters":9600,"station_id":"ce4bh512rcd13ifvqe2g","pricing_plan_id":"cebpf4jnsgd1na2vs0mg"},{"bike_id":"6b6cc887-7056-4647-9a0b-43dacc68e449","system_id":"levelo_inurba_marseille","lat":43.30882,"lon":5.37204,"is_reserved":false,"is_disabled":false,"rental_uris":{"android":"levelo://app?vid=6b6cc887-7056-4647-9a0b-43dacc68e449","ios":"levelo://app?vid=6b6cc887-7056-4647-9a0b-43dacc68e449"},"vehicle_type_id":"4","last_reported":1727802486,"current_range_meters":6800,"station_id":"ce4bguh2rcd13ifvqckg","pricing_plan_id":"cebpf4jnsgd1na2vs0mg"},{"bike_id":"a7382c38-586b-4b5c-8530-e1282870af04","system_id":"levelo_inurba_marseille","lat":43.23189,"lon":5.39977,"is_reserved":false,"is_disabled":false,"rental_uris":{"android":"levelo://app?vid=a7382c38-586b-4b5c-8530-e1282870af04","ios":"levelo://app?vid=a7382c38-586b-4b5c-8530-e1282870af04"},"vehicle_type_id":"4","last_reported":1727802486,"current_range_meters":29600,"station_id":"ce4bhn12rcd13ifvqgqg","pricing_plan_id":"cebpf4jnsgd1na2vs0mg"},{"bike_id":"809ddb5e-4350-42d6-ba4e-095d0f98b006","system_id":"levelo_inurba_marseille","lat":43.28724,"lon":5.37935,"is_reserved":false,"is_disabled":false,"rental_uris":{"android":"levelo://app?vid=809ddb5e-4350-42d6-ba4e-095d0f98b006","ios":"levelo://app?vid=809ddb5e-4350-42d6-ba4e-095d0f98b006"},"vehicle_type_id":"4","last_reported":1727802486,"current_range_meters":10000,"station_id":"ce4bh9p2rcd13ifvqec0","pricing_plan_id":"cebpf4jnsgd1na2vs0mg"},{"bike_id":"f8f518e3-bd48-40f5-801a-4ead88758ee2","system_id":"levelo_inurba_marseille","lat":43.32115,"lon":5.36782,"is_reserved":false,"is_disabled":false,"rental_uris":{"android":"levelo://app?vid=f8f518e3-bd48-40f5-801a-4ead88758ee2","ios":"levelo://app?vid=f8f518e3-bd48-40f5-801a-4ead88758ee2"},"vehicle_type_id":"4","last_reported":1727802486,"current_range_meters":14400,"station_id":"ce4bhrh2rcd13ifvqhug","pricing_plan_id":"cebpf4jnsgd1na2vs0mg"},{"bike_id":"d997a8a4-a9b5-42f3-9ebe-b0d80c616193","system_id":"levelo_inurba_marseille","lat":43.28451,"lon":5.35886,"is_reserved":false,"is_disabled":false,"rental_uris":{"android":"levelo://app?vid=d997a8a4-a9b5-42f3-9ebe-b0d80c616193","ios":"levelo://app?vid=d997a8a4-a9b5-42f3-9ebe-b0d80c616193"},"vehicle_type_id":"4","last_reported":1727802486,"current_range_meters":38800,"station_id":"ce4bhah2rcd13ifvqei0","pricing_plan_id":"cebpf4jnsgd1na2vs0mg"},{"bike_id":"010dfd5d-f19a-48bd-b6e6-b4b3b948136a","system_id":"levelo_inurba_marseille","lat":43.29256,"lon":5.40901,"is_reserved":false,"is_disabled":false,"rental_uris":{"android":"levelo://app?vid=010dfd5d-f19a-48bd-b6e6-b4b3b948136a","ios":"levelo://app?vid=010dfd5d-f19a-48bd-b6e6-b4b3b948136a"},"vehicle_type_id":"4","last_reported":1727802486,"current_range_meters":4400,"station_id":"ce4bh192rcd13ifvqdc0","pricing_plan_id":"cebpf4jnsgd1na2vs0mg"},{"bike_id":"fbdef381-4fcf-4567-9552-3acdbb7214d8","system_id":"levelo_inurba_marseille","lat":43.231024,"lon":5.354753,"is_reserved":false,"is_disabled":false,"rental_uris":{"android":"levelo://app?vid=fbdef381-4fcf-4567-9552-3acdbb7214d8","ios":"levelo://app?vid=fbdef381-4fcf-4567-9552-3acdbb7214d8"},"vehicle_type_id":"4","last_reported":1727802486,"current_range_meters":14800,"station_id":"ce4bhu92rcd13ifvqi70","pricing_plan_id":"cebpf4jnsgd1na2vs0mg"},{"bike_id":"266d5d4f-43b9-4a29-b430-0206ef2f6b17","system_id":"levelo_inurba_marseille","lat":43.30636,"lon":5.40098,"is_reserved":false,"is_disabled":false,"rental_uris":{"android":"levelo://app?vid=266d5d4f-43b9-4a29-b430-0206ef2f6b17","ios":"levelo://app?vid=266d5d4f-43b9-4a29-b430-0206ef2f6b17"},"vehicle_type_id":"4","last_reported":1727802486,"current_range_meters":20000,"station_id":"ce4bh112rcd13ifvqda0","pricing_plan_id":"cebpf4jnsgd1na2vs0mg"},{"bike_id":"5c730e4c-bb56-4d58-93ba-10bf784634c7","system_id":"levelo_inurba_marseille","lat":43.296272,"lon":5.37719,"is_reserved":false,"is_disabled":false,"rental_uris":{"android":"levelo://app?vid=5c730e4c-bb56-4d58-93ba-10bf784634c7","ios":"levelo://app?vid=5c730e4c-bb56-4d58-93ba-10bf784634c7"},"vehicle_type_id":"4","last_reported":1727802486,"current_range_meters":32000,"station_id":"ce4bh0p2rcd13ifvqd70","pricing_plan_id":"cebpf4jnsgd1na2vs0mg"},{"bike_id":"e3edc6b9-89d9-4b03-8a49-421bde9c7553","system_id":"levelo_inurba_marseille","lat":43.28613,"lon":5.35102,"is_reserved":false,"is_disabled":false,"rental_uris":{"android":"levelo://app?vid=e3edc6b9-89d9-4b03-8a49-421bde9c7553","ios":"levelo://app?vid=e3edc6b9-89d9-4b03-8a49-421bde9c7553"},"vehicle_type_id":"4","last_reported":1727802486,"current_range_meters":24000,"station_id":"ce4bhch2rcd13ifvqeug","pricing_plan_id":"cebpf4jnsgd1na2vs0mg"},{"bike_id":"dc03e946-be64-435d-a6e2-304d0c9f3ef5","system_id":"levelo_inurba_marseille","lat":43.31524,"lon":5.38037,"is_reserved":false,"is_disabled":false,"rental_uris":{"android":"levelo://app?vid=dc03e946-be64-435d-a6e2-304d0c9f3ef5","ios":"levelo://app?vid=dc03e946-be64-435d-a6e2-304d0c9f3ef5"},"vehicle_type_id":"4","last_reported":1727802486,"current_range_meters":24000,"station_id":"ce4bhsp2rcd13ifvqi50","pricing_plan_id":"cebpf4jnsgd1na2vs0mg"},{"bike_id":"d995d233-d2fe-4db9-b69b-baa1337469bf","system_id":"levelo_inurba_marseille","lat":43.2672,"lon":5.40142,"is_reserved":false,"is_disabled":false,"rental_uris":{"android":"levelo://app?vid=d995d233-d2fe-4db9-b69b-baa1337469bf","ios":"levelo://app?vid=d995d233-d2fe-4db9-b69b-baa1337469bf"},"vehicle_type_id":"4","last_reported":1727802486,"current_range_meters":12800,"station_id":"ce4bhm92rcd13ifvqglg","pricing_plan_id":"cebpf4jnsgd1na2vs0mg"},{"bike_id":"4af51c5c-fea8-4616-9acd-862a3e941835","system_id":"levelo_inurba_marseille","lat":43.26686,"lon":5.38273,"is_reserved":false,"is_disabled":false,"rental_uris":{"android":"levelo://app?vid=4af51c5c-fea8-4616-9acd-862a3e941835","ios":"levelo://app?vid=4af51c5c-fea8-4616-9acd-862a3e941835"},"vehicle_type_id":"4","last_reported":1727802486,"current_range_meters":36000,"station_id":"ce4bhg92rcd13ifvqf90","pricing_plan_id":"cebpf4jnsgd1na2vs0mg"},{"bike_id":"264a4ff6-e2fb-4f9b-8119-b6b4933c3d8f","system_id":"levelo_inurba_marseille","lat":43.29603,"lon":5.38104,"is_reserved":false,"is_disabled":false,"rental_uris":{"android":"levelo://app?vid=264a4ff6-e2fb-4f9b-8119-b6b4933c3d8f","ios":"levelo://app?vid=264a4ff6-e2fb-4f9b-8119-b6b4933c3d8f"},"vehicle_type_id":"4","last_reported":1727802486,"current_range_meters":6800,"station_id":"ce4bgl12rcd13ifvqbo0","pricing_plan_id":"cebpf4jnsgd1na2vs0mg"},{"bike_id":"9998cd7b-e08c-4583-b9ab-883732dd6237","system_id":"levelo_inurba_marseille","lat":43.32658,"lon":5.40993,"is_reserved":false,"is_disabled":false,"rental_uris":{"android":"levelo://app?vid=9998cd7b-e08c-4583-b9ab-883732dd6237","ios":"levelo://app?vid=9998cd7b-e08c-4583-b9ab-883732dd6237"},"vehicle_type_id":"4","last_reported":1727802486,"current_range_meters":20400,"station_id":"ce4bhpp2rcd13ifvqhgg","pricing_plan_id":"cebpf4jnsgd1na2vs0mg"},{"bike_id":"f4f2bee5-a614-4eba-902f-4461c57a166a","system_id":"levelo_inurba_marseille","lat":43.28463,"lon":5.35891,"is_reserved":false,"is_disabled":false,"rental_uris":{"android":"levelo://app?vid=f4f2bee5-a614-4eba-902f-4461c57a166a","ios":"levelo://app?vid=f4f2bee5-a614-4eba-902f-4461c57a166a"},"vehicle_type_id":"4","last_reported":1727802486,"current_range_meters":35200,"station_id":"ce4bhah2rcd13ifvqei0","pricing_plan_id":"cebpf4jnsgd1na2vs0mg"},{"bike_id":"b652f429-09b8-4697-9c1b-3b9adc3c55d8","system_id":"levelo_inurba_marseille","lat":43.26871,"lon":5.39135,"is_reserved":false,"is_disabled":false,"rental_uris":{"android":"levelo://app?vid=b652f429-09b8-4697-9c1b-3b9adc3c55d8","ios":"levelo://app?vid=b652f429-09b8-4697-9c1b-3b9adc3c55d8"},"vehicle_type_id":"4","last_reported":1727802486,"current_range_meters":6800,"station_id":"","pricing_plan_id":"cebpf4jnsgd1na2vs0mg"},{"bike_id":"61a947e1-a421-40aa-a820-d6e19a6f0fe4","system_id":"levelo_inurba_marseille","lat":43.31721,"lon":5.42404,"is_reserved":false,"is_disabled":false,"rental_uris":{"android":"levelo://app?vid=61a947e1-a421-40aa-a820-d6e19a6f0fe4","ios":"levelo://app?vid=61a947e1-a421-40aa-a820-d6e19a6f0fe4"},"vehicle_type_id":"4","last_reported":1727802486,"current_range_meters":26000,"station_id":"ce4bhp92rcd13ifvqhbg","pricing_plan_id":"cebpf4jnsgd1na2vs0mg"},{"bike_id":"e6018ef0-ccfe-4718-8ebf-78ffc85b5a74","system_id":"levelo_inurba_marseille","lat":43.24168,"lon":5.36398,"is_reserved":false,"is_disabled":false,"rental_uris":{"android":"levelo://app?vid=e6018ef0-ccfe-4718-8ebf-78ffc85b5a74","ios":"levelo://app?vid=e6018ef0-ccfe-4718-8ebf-78ffc85b5a74"},"vehicle_type_id":"4","last_reported":1727802486,"current_range_meters":22000,"station_id":"cpo36qri1sfpv3e86is0","pricing_plan_id":"cebpf4jnsgd1na2vs0mg"},{"bike_id":"9929179e-80d5-48aa-b9d5-45098e84f772","system_id":"levelo_inurba_marseille","lat":43.31411,"lon":5.39401,"is_reserved":false,"is_disabled":false,"rental_uris":{"android":"levelo://app?vid=9929179e-80d5-48aa-b9d5-45098e84f772","ios":"levelo://app?vid=9929179e-80d5-48aa-b9d5-45098e84f772"},"vehicle_type_id":"4","last_reported":1727802486,"current_range_meters":39200,"station_id":"","pricing_plan_id":"cebpf4jnsgd1na2vs0mg"},{"bike_id":"17b6a34e-42b5-47a9-a97f-cb2de4c77823","system_id":"levelo_inurba_marseille","lat":43.26803,"lon":5.4027,"is_reserved":false,"is_disabled":false,"rental_uris":{"android":"levelo://app?vid=17b6a34e-42b5-47a9-a97f-cb2de4c77823","ios":"levelo://app?vid=17b6a34e-42b5-47a9-a97f-cb2de4c77823"},"vehicle_type_id":"4","last_reported":1727802486,"current_range_meters":35200,"station_id":"ce501612rcd8frsf0b60","pricing_plan_id":"cebpf4jnsgd1na2vs0mg"},{"bike_id":"f2cd5a1e-d4df-4a68-8ab4-939d43585316","system_id":"levelo_inurba_marseille","lat":43.295105,"lon":5.374193,"is_reserved":false,"is_disabled":false,"rental_uris":{"android":"levelo://app?vid=f2cd5a1e-d4df-4a68-8ab4-939d43585316","ios":"levelo://app?vid=f2cd5a1e-d4df-4a68-8ab4-939d43585316"},"vehicle_type_id":"4","last_reported":1727802486,"current_range_meters":8800,"station_id":"ce4bgkp2rcd13ifvqbmg","pricing_plan_id":"cebpf4jnsgd1na2vs0mg"},{"bike_id":"1b3d86c2-4033-4e48-b45d-e006cc28f6df","system_id":"levelo_inurba_marseille","lat":43.2815,"lon":5.42645,"is_reserved":false,"is_disabled":false,"rental_uris":{"android":"levelo://app?vid=1b3d86c2-4033-4e48-b45d-e006cc28f6df","ios":"levelo://app?vid=1b3d86c2-4033-4e48-b45d-e006cc28f6df"},"vehicle_type_id":"4","last_reported":1727802486,"current_range_meters":17200,"station_id":"ce4bhnh2rcd13ifvqgug","pricing_plan_id":"cebpf4jnsgd1na2vs0mg"},{"bike_id":"fbe9e31c-01c8-49ef-8b0a-1609e2105492","system_id":"levelo_inurba_marseille","lat":43.31072,"lon":5.38349,"is_reserved":false,"is_disabled":false,"rental_uris":{"android":"levelo://app?vid=fbe9e31c-01c8-49ef-8b0a-1609e2105492","ios":"levelo://app?vid=fbe9e31c-01c8-49ef-8b0a-1609e2105492"},"vehicle_type_id":"4","last_reported":1727802486,"current_range_meters":5600,"station_id":"ce4bgv92rcd13ifvqcr0","pricing_plan_id":"cebpf4jnsgd1na2vs0mg"},{"bike_id":"512326e2-95ff-49c1-acd5-6ca84f878909","system_id":"levelo_inurba_marseille","lat":43.27365,"lon":5.36264,"is_reserved":false,"is_disabled":false,"rental_uris":{"android":"levelo://app?vid=512326e2-95ff-49c1-acd5-6ca84f878909","ios":"levelo://app?vid=512326e2-95ff-49c1-acd5-6ca84f878909"},"vehicle_type_id":"4","last_reported":1727802486,"current_range_meters":18800,"station_id":"ce4bhbh2rcd13ifvqeo0","pricing_plan_id":"cebpf4jnsgd1na2vs0mg"},{"bike_id":"2a289f96-5117-462c-af43-17c64d0bb5db","system_id":"levelo_inurba_marseille","lat":43.26554,"lon":5.37293,"is_reserved":false,"is_disabled":false,"rental_uris":{"android":"levelo://app?vid=2a289f96-5117-462c-af43-17c64d0bb5db","ios":"levelo://app?vid=2a289f96-5117-462c-af43-17c64d0bb5db"},"vehicle_type_id":"4","last_reported":1727802486,"current_range_meters":19600,"station_id":"ce4bhg12rcd13ifvqf70","pricing_plan_id":"cebpf4jnsgd1na2vs0mg"},{"bike_id":"d197e292-c6d7-485c-bc28-af0abc3f6497","system_id":"levelo_inurba_marseille","lat":43.28711,"lon":5.3795,"is_reserved":false,"is_disabled":false,"rental_uris":{"android":"levelo://app?vid=d197e292-c6d7-485c-bc28-af0abc3f6497","ios":"levelo://app?vid=d197e292-c6d7-485c-bc28-af0abc3f6497"},"vehicle_type_id":"4","last_reported":1727802486,"current_range_meters":20000,"station_id":"ce4bh9p2rcd13ifvqec0","pricing_plan_id":"cebpf4jnsgd1na2vs0mg"},{"bike_id":"70da26fe-d933-4270-8d5e-784a0575a0f8","system_id":"levelo_inurba_marseille","lat":43.255,"lon":5.3765,"is_reserved":false,"is_disabled":false,"rental_uris":{"android":"levelo://app?vid=70da26fe-d933-4270-8d5e-784a0575a0f8","ios":"levelo://app?vid=70da26fe-d933-4270-8d5e-784a0575a0f8"},"vehicle_type_id":"4","last_reported":1727802486,"current_range_meters":20800,"station_id":"ce4bhh12rcd13ifvqff0","pricing_plan_id":"cebpf4jnsgd1na2vs0mg"},{"bike_id":"0292ff83-8582-4b56-b47c-952d87d53fc4","system_id":"levelo_inurba_marseille","lat":43.246645,"lon":5.389297,"is_reserved":false,"is_disabled":false,"rental_uris":{"android":"levelo://app?vid=0292ff83-8582-4b56-b47c-952d87d53fc4","ios":"levelo://app?vid=0292ff83-8582-4b56-b47c-952d87d53fc4"},"vehicle_type_id":"4","last_reported":1727802486,"current_range_meters":19200,"station_id":"ce4bhg12rcd13ifvqf60","pricing_plan_id":"cebpf4jnsgd1na2vs0mg"},{"bike_id":"89b9dfd5-0dc9-4197-bb8d-be7f07ee51ff","system_id":"levelo_inurba_marseille","lat":43.3153,"lon":5.38035,"is_reserved":false,"is_disabled":false,"rental_uris":{"android":"levelo://app?vid=89b9dfd5-0dc9-4197-bb8d-be7f07ee51ff","ios":"levelo://app?vid=89b9dfd5-0dc9-4197-bb8d-be7f07ee51ff"},"vehicle_type_id":"4","last_reported":1727802486,"current_range_meters":14400,"station_id":"ce4bhsp2rcd13ifvqi50","pricing_plan_id":"cebpf4jnsgd1na2vs0mg"},{"bike_id":"4158dfa0-734d-4050-bbb4-c1d838b33c7b","system_id":"levelo_inurba_marseille","lat":43.25581,"lon":5.38243,"is_reserved":false,"is_disabled":false,"rental_uris":{"android":"levelo://app?vid=4158dfa0-734d-4050-bbb4-c1d838b33c7b","ios":"levelo://app?vid=4158dfa0-734d-4050-bbb4-c1d838b33c7b"},"vehicle_type_id":"4","last_reported":1727802486,"current_range_meters":7200,"station_id":"ce4bhih2rcd13ifvqfs0","pricing_plan_id":"cebpf4jnsgd1na2vs0mg"},{"bike_id":"e47d8b5f-6f7d-401a-8617-51b7d9b65561","system_id":"levelo_inurba_marseille","lat":43.32192,"lon":5.38741,"is_reserved":false,"is_disabled":false,"rental_uris":{"android":"levelo://app?vid=e47d8b5f-6f7d-401a-8617-51b7d9b65561","ios":"levelo://app?vid=e47d8b5f-6f7d-401a-8617-51b7d9b65561"},"vehicle_type_id":"4","last_reported":1727802486,"current_range_meters":15200,"station_id":"","pricing_plan_id":"cebpf4jnsgd1na2vs0mg"},{"bike_id":"bd37b5a0-122f-4038-9cd1-083cfe979dad","system_id":"levelo_inurba_marseille","lat":43.29224,"lon":5.36065,"is_reserved":false,"is_disabled":false,"rental_uris":{"android":"levelo://app?vid=bd37b5a0-122f-4038-9cd1-083cfe979dad","ios":"levelo://app?vid=bd37b5a0-122f-4038-9cd1-083cfe979dad"},"vehicle_type_id":"4","last_reported":1727802486,"current_range_meters":14000,"station_id":"ce4bhbh2rcd13ifvqeqg","pricing_plan_id":"cebpf4jnsgd1na2vs0mg"},{"bike_id":"dfac7054-5998-411b-a533-dc58eeac92ab","system_id":"levelo_inurba_marseille","lat":43.28717,"lon":5.37938,"is_reserved":false,"is_disabled":false,"rental_uris":{"android":"levelo://app?vid=dfac7054-5998-411b-a533-dc58eeac92ab","ios":"levelo://app?vid=dfac7054-5998-411b-a533-dc58eeac92ab"},"vehicle_type_id":"4","last_reported":1727802486,"current_range_meters":30400,"station_id":"ce4bh9p2rcd13ifvqec0","pricing_plan_id":"cebpf4jnsgd1na2vs0mg"},{"bike_id":"b6fd1259-aae3-4e66-a757-37af1d523b7b","system_id":"levelo_inurba_marseille","lat":43.23177,"lon":5.3999,"is_reserved":false,"is_disabled":false,"rental_uris":{"android":"levelo://app?vid=b6fd1259-aae3-4e66-a757-37af1d523b7b","ios":"levelo://app?vid=b6fd1259-aae3-4e66-a757-37af1d523b7b"},"vehicle_type_id":"4","last_reported":1727802486,"current_range_meters":9600,"station_id":"ce4bhn12rcd13ifvqgqg","pricing_plan_id":"cebpf4jnsgd1na2vs0mg"},{"bike_id":"d05a51da-fc60-40fc-9ab8-30887d7c59d4","system_id":"levelo_inurba_marseille","lat":43.27809,"lon":5.40712,"is_reserved":false,"is_disabled":false,"rental_uris":{"android":"levelo://app?vid=d05a51da-fc60-40fc-9ab8-30887d7c59d4","ios":"levelo://app?vid=d05a51da-fc60-40fc-9ab8-30887d7c59d4"},"vehicle_type_id":"4","last_reported":1727802486,"current_range_meters":31200,"station_id":"ce4bhnh2rcd13ifvqgtg","pricing_plan_id":"cebpf4jnsgd1na2vs0mg"},{"bike_id":"f482b811-60c5-4cb4-be69-55c1c230887b","system_id":"levelo_inurba_marseille","lat":43.28458,"lon":5.35898,"is_reserved":false,"is_disabled":false,"rental_uris":{"android":"levelo://app?vid=f482b811-60c5-4cb4-be69-55c1c230887b","ios":"levelo://app?vid=f482b811-60c5-4cb4-be69-55c1c230887b"},"vehicle_type_id":"4","last_reported":1727802486,"current_range_meters":32400,"station_id":"ce4bhah2rcd13ifvqei0","pricing_plan_id":"cebpf4jnsgd1na2vs0mg"},{"bike_id":"20767919-0f16-4897-afeb-88df7068f68c","system_id":"levelo_inurba_marseille","lat":43.31726,"lon":5.42403,"is_reserved":false,"is_disabled":false,"rental_uris":{"android":"levelo://app?vid=20767919-0f16-4897-afeb-88df7068f68c","ios":"levelo://app?vid=20767919-0f16-4897-afeb-88df7068f68c"},"vehicle_type_id":"4","last_reported":1727802486,"current_range_meters":38800,"station_id":"ce4bhp92rcd13ifvqhbg","pricing_plan_id":"cebpf4jnsgd1na2vs0mg"},{"bike_id":"3a5dc3fd-5531-4af9-ae8b-0ede616a22b3","system_id":"levelo_inurba_marseille","lat":43.23184,"lon":5.39986,"is_reserved":false,"is_disabled":false,"rental_uris":{"android":"levelo://app?vid=3a5dc3fd-5531-4af9-ae8b-0ede616a22b3","ios":"levelo://app?vid=3a5dc3fd-5531-4af9-ae8b-0ede616a22b3"},"vehicle_type_id":"4","last_reported":1727802486,"current_range_meters":38400,"station_id":"ce4bhn12rcd13ifvqgqg","pricing_plan_id":"cebpf4jnsgd1na2vs0mg"},{"bike_id":"0b0b2a76-da15-4499-b7ff-06c754649c44","system_id":"levelo_inurba_marseille","lat":43.32363,"lon":5.38893,"is_reserved":false,"is_disabled":false,"rental_uris":{"android":"levelo://app?vid=0b0b2a76-da15-4499-b7ff-06c754649c44","ios":"levelo://app?vid=0b0b2a76-da15-4499-b7ff-06c754649c44"},"vehicle_type_id":"4","last_reported":1727802486,"current_range_meters":28000,"station_id":"ce4bhqp2rcd13ifvqhog","pricing_plan_id":"cebpf4jnsgd1na2vs0mg"},{"bike_id":"78b6a163-a7b6-4ea2-a1ee-89640b0781a1","system_id":"levelo_inurba_marseille","lat":43.27564,"lon":5.38414,"is_reserved":false,"is_disabled":false,"rental_uris":{"android":"levelo://app?vid=78b6a163-a7b6-4ea2-a1ee-89640b0781a1","ios":"levelo://app?vid=78b6a163-a7b6-4ea2-a1ee-89640b0781a1"},"vehicle_type_id":"4","last_reported":1727802486,"current_range_meters":27200,"station_id":"ce4bhh92rcd13ifvqfi0","pricing_plan_id":"cebpf4jnsgd1na2vs0mg"},{"bike_id":"946f0037-4f02-4e5c-acb2-800667fab619","system_id":"levelo_inurba_marseille","lat":43.31081,"lon":5.42434,"is_reserved":false,"is_disabled":false,"rental_uris":{"android":"levelo://app?vid=946f0037-4f02-4e5c-acb2-800667fab619","ios":"levelo://app?vid=946f0037-4f02-4e5c-acb2-800667fab619"},"vehicle_type_id":"4","last_reported":1727802486,"current_range_meters":12400,"station_id":"ce4bhp92rcd13ifvqhag","pricing_plan_id":"cebpf4jnsgd1na2vs0mg"},{"bike_id":"3c37aedb-e74e-42ab-859f-0ddbed6f8814","system_id":"levelo_inurba_marseille","lat":43.29681,"lon":5.37302,"is_reserved":false,"is_disabled":false,"rental_uris":{"android":"levelo://app?vid=3c37aedb-e74e-42ab-859f-0ddbed6f8814","ios":"levelo://app?vid=3c37aedb-e74e-42ab-859f-0ddbed6f8814"},"vehicle_type_id":"4","last_reported":1727802486,"current_range_meters":8400,"station_id":"ce4bgk12rcd13ifvqbj0","pricing_plan_id":"cebpf4jnsgd1na2vs0mg"},{"bike_id":"8f64f2d6-2fb9-4030-8e61-47c767c8f9e0","system_id":"levelo_inurba_marseille","lat":43.25578,"lon":5.38238,"is_reserved":false,"is_disabled":false,"rental_uris":{"android":"levelo://app?vid=8f64f2d6-2fb9-4030-8e61-47c767c8f9e0","ios":"levelo://app?vid=8f64f2d6-2fb9-4030-8e61-47c767c8f9e0"},"vehicle_type_id":"4","last_reported":1727802486,"current_range_meters":24400,"station_id":"ce4bhih2rcd13ifvqfs0","pricing_plan_id":"cebpf4jnsgd1na2vs0mg"},{"bike_id":"203b1701-bef9-476b-82c6-7d52720eb53d","system_id":"levelo_inurba_marseille","lat":43.28437,"lon":5.39197,"is_reserved":false,"is_disabled":false,"rental_uris":{"android":"levelo://app?vid=203b1701-bef9-476b-82c6-7d52720eb53d","ios":"levelo://app?vid=203b1701-bef9-476b-82c6-7d52720eb53d"},"vehicle_type_id":"4","last_reported":1727802486,"current_range_meters":27200,"station_id":"ce4bhoh2rcd13ifvqh5g","pricing_plan_id":"cebpf4jnsgd1na2vs0mg"},{"bike_id":"b337bd20-f5ab-4d71-a842-ea60a4480d01","system_id":"levelo_inurba_marseille","lat":43.33752,"lon":5.37462,"is_reserved":false,"is_disabled":false,"rental_uris":{"android":"levelo://app?vid=b337bd20-f5ab-4d71-a842-ea60a4480d01","ios":"levelo://app?vid=b337bd20-f5ab-4d71-a842-ea60a4480d01"},"vehicle_type_id":"4","last_reported":1727802486,"current_range_meters":36800,"station_id":"","pricing_plan_id":"cebpf4jnsgd1na2vs0mg"},{"bike_id":"2d1e394b-c65c-48dd-8f6c-7fbd688f784e","system_id":"levelo_inurba_marseille","lat":43.31634,"lon":5.38808,"is_reserved":false,"is_disabled":false,"rental_uris":{"android":"levelo://app?vid=2d1e394b-c65c-48dd-8f6c-7fbd688f784e","ios":"levelo://app?vid=2d1e394b-c65c-48dd-8f6c-7fbd688f784e"},"vehicle_type_id":"4","last_reported":1727802486,"current_range_meters":12000,"station_id":"ce4bhqp2rcd13ifvqhng","pricing_plan_id":"cebpf4jnsgd1na2vs0mg"},{"bike_id":"a839f8c2-1f19-41c9-b661-130324e30c0f","system_id":"levelo_inurba_marseille","lat":43.322914,"lon":5.3828,"is_reserved":false,"is_disabled":false,"rental_uris":{"android":"levelo://app?vid=a839f8c2-1f19-41c9-b661-130324e30c0f","ios":"levelo://app?vid=a839f8c2-1f19-41c9-b661-130324e30c0f"},"vehicle_type_id":"4","last_reported":1727802486,"current_range_meters":40000,"station_id":"ce4bhr12rcd13ifvqhqg","pricing_plan_id":"cebpf4jnsgd1na2vs0mg"},{"bike_id":"6d91a7d7-8b70-4304-9351-6734c7076ea3","system_id":"levelo_inurba_marseille","lat":43.240692,"lon":5.377669,"is_reserved":false,"is_disabled":false,"rental_uris":{"android":"levelo://app?vid=6d91a7d7-8b70-4304-9351-6734c7076ea3","ios":"levelo://app?vid=6d91a7d7-8b70-4304-9351-6734c7076ea3"},"vehicle_type_id":"4","last_reported":1727802486,"current_range_meters":30400,"station_id":"ce4bhnp2rcd13ifvqgvg","pricing_plan_id":"cebpf4jnsgd1na2vs0mg"},{"bike_id":"863326eb-c40a-4c9a-bd31-954aa5cec617","system_id":"levelo_inurba_marseille","lat":43.25584,"lon":5.38231,"is_reserved":false,"is_disabled":false,"rental_uris":{"android":"levelo://app?vid=863326eb-c40a-4c9a-bd31-954aa5cec617","ios":"levelo://app?vid=863326eb-c40a-4c9a-bd31-954aa5cec617"},"vehicle_type_id":"4","last_reported":1727802486,"current_range_meters":5600,"station_id":"ce4bhih2rcd13ifvqfs0","pricing_plan_id":"cebpf4jnsgd1na2vs0mg"},{"bike_id":"f493192b-13c6-47a1-9573-739dd32e633f","system_id":"levelo_inurba_marseille","lat":43.337444,"lon":5.374475,"is_reserved":false,"is_disabled":false,"rental_uris":{"android":"levelo://app?vid=f493192b-13c6-47a1-9573-739dd32e633f","ios":"levelo://app?vid=f493192b-13c6-47a1-9573-739dd32e633f"},"vehicle_type_id":"4","last_reported":1727802486,"current_range_meters":16400,"station_id":"","pricing_plan_id":"cebpf4jnsgd1na2vs0mg"},{"bike_id":"2b8ec75f-ad34-4da4-a82c-244bcb492912","system_id":"levelo_inurba_marseille","lat":43.290076,"lon":5.35619,"is_reserved":false,"is_disabled":false,"rental_uris":{"android":"levelo://app?vid=2b8ec75f-ad34-4da4-a82c-244bcb492912","ios":"levelo://app?vid=2b8ec75f-ad34-4da4-a82c-244bcb492912"},"vehicle_type_id":"4","last_reported":1727802486,"current_range_meters":9600,"station_id":"ce4bgj92rcd13ifvqbe0","pricing_plan_id":"cebpf4jnsgd1na2vs0mg"},{"bike_id":"30f12f8b-296b-4c5c-8175-62c795837ccd","system_id":"levelo_inurba_marseille","lat":43.31337,"lon":5.39701,"is_reserved":false,"is_disabled":false,"rental_uris":{"android":"levelo://app?vid=30f12f8b-296b-4c5c-8175-62c795837ccd","ios":"levelo://app?vid=30f12f8b-296b-4c5c-8175-62c795837ccd"},"vehicle_type_id":"4","last_reported":1727802486,"current_range_meters":38800,"station_id":"ce4bgvp2rcd13ifvqcu0","pricing_plan_id":"cebpf4jnsgd1na2vs0mg"},{"bike_id":"d0f3ba74-2db6-4276-a970-d6d9e934005a","system_id":"levelo_inurba_marseille","lat":43.33719,"lon":5.39186,"is_reserved":false,"is_disabled":false,"rental_uris":{"android":"levelo://app?vid=d0f3ba74-2db6-4276-a970-d6d9e934005a","ios":"levelo://app?vid=d0f3ba74-2db6-4276-a970-d6d9e934005a"},"vehicle_type_id":"4","last_reported":1727802486,"current_range_meters":37600,"station_id":"ce4bhr92rcd13ifvqhsg","pricing_plan_id":"cebpf4jnsgd1na2vs0mg"},{"bike_id":"d3e7d987-54ee-4b2d-9583-c6176f1b70e6","system_id":"levelo_inurba_marseille","lat":43.27563,"lon":5.38425,"is_reserved":false,"is_disabled":false,"rental_uris":{"android":"levelo://app?vid=d3e7d987-54ee-4b2d-9583-c6176f1b70e6","ios":"levelo://app?vid=d3e7d987-54ee-4b2d-9583-c6176f1b70e6"},"vehicle_type_id":"4","last_reported":1727802486,"current_range_meters":34800,"station_id":"ce4bhh92rcd13ifvqfi0","pricing_plan_id":"cebpf4jnsgd1na2vs0mg"},{"bike_id":"f31b9fda-f031-4a35-b036-cecb6c229424","system_id":"levelo_inurba_marseille","lat":43.28346,"lon":5.38107,"is_reserved":false,"is_disabled":false,"rental_uris":{"android":"levelo://app?vid=f31b9fda-f031-4a35-b036-cecb6c229424","ios":"levelo://app?vid=f31b9fda-f031-4a35-b036-cecb6c229424"},"vehicle_type_id":"4","last_reported":1727802486,"current_range_meters":24400,"station_id":"ce4bh412rcd13ifvqdr0","pricing_plan_id":"cebpf4jnsgd1na2vs0mg"},{"bike_id":"dc78acf6-e4a8-49a7-a7d7-7340635c7e61","system_id":"levelo_inurba_marseille","lat":43.31483,"lon":5.37302,"is_reserved":false,"is_disabled":false,"rental_uris":{"android":"levelo://app?vid=dc78acf6-e4a8-49a7-a7d7-7340635c7e61","ios":"levelo://app?vid=dc78acf6-e4a8-49a7-a7d7-7340635c7e61"},"vehicle_type_id":"4","last_reported":1727802486,"current_range_meters":38400,"station_id":"ce4bgt12rcd13ifvqcd0","pricing_plan_id":"cebpf4jnsgd1na2vs0mg"},{"bike_id":"f1dd1acd-6ae2-46a7-8d62-c777e527ff0c","system_id":"levelo_inurba_marseille","lat":43.28454,"lon":5.35879,"is_reserved":false,"is_disabled":false,"rental_uris":{"android":"levelo://app?vid=f1dd1acd-6ae2-46a7-8d62-c777e527ff0c","ios":"levelo://app?vid=f1dd1acd-6ae2-46a7-8d62-c777e527ff0c"},"vehicle_type_id":"4","last_reported":1727802486,"current_range_meters":4800,"station_id":"ce4bhah2rcd13ifvqei0","pricing_plan_id":"cebpf4jnsgd1na2vs0mg"},{"bike_id":"02429212-8f38-4426-b0ac-c3be31ec1090","system_id":"levelo_inurba_marseille","lat":43.312808,"lon":5.401753,"is_reserved":false,"is_disabled":false,"rental_uris":{"android":"levelo://app?vid=02429212-8f38-4426-b0ac-c3be31ec1090","ios":"levelo://app?vid=02429212-8f38-4426-b0ac-c3be31ec1090"},"vehicle_type_id":"4","last_reported":1727802486,"current_range_meters":38800,"station_id":"ce4bh092rcd13ifvqd30","pricing_plan_id":"cebpf4jnsgd1na2vs0mg"},{"bike_id":"e8f4421a-cd24-4eda-9cd6-12ea962b918c","system_id":"levelo_inurba_marseille","lat":43.28466,"lon":5.35884,"is_reserved":false,"is_disabled":false,"rental_uris":{"android":"levelo://app?vid=e8f4421a-cd24-4eda-9cd6-12ea962b918c","ios":"levelo://app?vid=e8f4421a-cd24-4eda-9cd6-12ea962b918c"},"vehicle_type_id":"4","last_reported":1727802486,"current_range_meters":3600,"station_id":"ce4bhah2rcd13ifvqei0","pricing_plan_id":"cebpf4jnsgd1na2vs0mg"},{"bike_id":"1a0cc524-c495-4247-a1ed-7cae3ef3a35b","system_id":"levelo_inurba_marseille","lat":43.28415,"lon":5.34988,"is_reserved":false,"is_disabled":false,"rental_uris":{"android":"levelo://app?vid=1a0cc524-c495-4247-a1ed-7cae3ef3a35b","ios":"levelo://app?vid=1a0cc524-c495-4247-a1ed-7cae3ef3a35b"},"vehicle_type_id":"4","last_reported":1727802486,"current_range_meters":28800,"station_id":"ce4bhbh2rcd13ifvqepg","pricing_plan_id":"cebpf4jnsgd1na2vs0mg"},{"bike_id":"b820a864-a70b-45dd-9a6a-a404aa68bcee","system_id":"levelo_inurba_marseille","lat":43.30776,"lon":5.37661,"is_reserved":false,"is_disabled":false,"rental_uris":{"android":"levelo://app?vid=b820a864-a70b-45dd-9a6a-a404aa68bcee","ios":"levelo://app?vid=b820a864-a70b-45dd-9a6a-a404aa68bcee"},"vehicle_type_id":"4","last_reported":1727802486,"current_range_meters":38800,"station_id":"ce4bgv92rcd13ifvqcq0","pricing_plan_id":"cebpf4jnsgd1na2vs0mg"},{"bike_id":"c8560e4a-0453-4758-a8a9-55aceef8ed47","system_id":"levelo_inurba_marseille","lat":43.29531,"lon":5.38541,"is_reserved":false,"is_disabled":false,"rental_uris":{"android":"levelo://app?vid=c8560e4a-0453-4758-a8a9-55aceef8ed47","ios":"levelo://app?vid=c8560e4a-0453-4758-a8a9-55aceef8ed47"},"vehicle_type_id":"4","last_reported":1727802486,"current_range_meters":11600,"station_id":"ce4bgih2rcd13ifvqba0","pricing_plan_id":"cebpf4jnsgd1na2vs0mg"},{"bike_id":"4adb06aa-f4a9-444c-97b8-de2a85c9a91e","system_id":"levelo_inurba_marseille","lat":43.28156,"lon":5.42646,"is_reserved":false,"is_disabled":false,"rental_uris":{"android":"levelo://app?vid=4adb06aa-f4a9-444c-97b8-de2a85c9a91e","ios":"levelo://app?vid=4adb06aa-f4a9-444c-97b8-de2a85c9a91e"},"vehicle_type_id":"4","last_reported":1727802486,"current_range_meters":10800,"station_id":"ce4bhnh2rcd13ifvqgug","pricing_plan_id":"cebpf4jnsgd1na2vs0mg"},{"bike_id":"a2ae8adb-cbe8-4c0b-89c0-a433c1504522","system_id":"levelo_inurba_marseille","lat":43.31265,"lon":5.40167,"is_reserved":false,"is_disabled":false,"rental_uris":{"android":"levelo://app?vid=a2ae8adb-cbe8-4c0b-89c0-a433c1504522","ios":"levelo://app?vid=a2ae8adb-cbe8-4c0b-89c0-a433c1504522"},"vehicle_type_id":"4","last_reported":1727802486,"current_range_meters":28400,"station_id":"ce4bh092rcd13ifvqd30","pricing_plan_id":"cebpf4jnsgd1na2vs0mg"},{"bike_id":"d0e80e0b-3c0f-4bd6-b1d4-e87b35319dfa","system_id":"levelo_inurba_marseille","lat":43.27176,"lon":5.40991,"is_reserved":false,"is_disabled":false,"rental_uris":{"android":"levelo://app?vid=d0e80e0b-3c0f-4bd6-b1d4-e87b35319dfa","ios":"levelo://app?vid=d0e80e0b-3c0f-4bd6-b1d4-e87b35319dfa"},"vehicle_type_id":"4","last_reported":1727802486,"current_range_meters":38800,"station_id":"ce4bhl12rcd13ifvqgf0","pricing_plan_id":"cebpf4jnsgd1na2vs0mg"},{"bike_id":"bfa74fa7-283f-44e2-8871-3d2036b80806","system_id":"levelo_inurba_marseille","lat":43.26027,"lon":5.37547,"is_reserved":false,"is_disabled":false,"rental_uris":{"android":"levelo://app?vid=bfa74fa7-283f-44e2-8871-3d2036b80806","ios":"levelo://app?vid=bfa74fa7-283f-44e2-8871-3d2036b80806"},"vehicle_type_id":"4","last_reported":1727802486,"current_range_meters":38800,"station_id":"ce4bhgh2rcd13ifvqfa0","pricing_plan_id":"cebpf4jnsgd1na2vs0mg"},{"bike_id":"5537fa54-a3eb-4172-b51e-4a54efa572cb","system_id":"levelo_inurba_marseille","lat":43.301268,"lon":5.387942,"is_reserved":false,"is_disabled":false,"rental_uris":{"android":"levelo://app?vid=5537fa54-a3eb-4172-b51e-4a54efa572cb","ios":"levelo://app?vid=5537fa54-a3eb-4172-b51e-4a54efa572cb"},"vehicle_type_id":"4","last_reported":1727802486,"current_range_meters":38400,"station_id":"ce4bghh2rcd13ifvqb60","pricing_plan_id":"cebpf4jnsgd1na2vs0mg"},{"bike_id":"13ff341c-e576-4831-ad64-e73ec920b559","system_id":"levelo_inurba_marseille","lat":43.33021,"lon":5.39037,"is_reserved":false,"is_disabled":false,"rental_uris":{"android":"levelo://app?vid=13ff341c-e576-4831-ad64-e73ec920b559","ios":"levelo://app?vid=13ff341c-e576-4831-ad64-e73ec920b559"},"vehicle_type_id":"4","last_reported":1727802486,"current_range_meters":6000,"station_id":"ce4bhr92rcd13ifvqhrg","pricing_plan_id":"cebpf4jnsgd1na2vs0mg"},{"bike_id":"ef29ff35-fd09-4474-b929-41254ea52f61","system_id":"levelo_inurba_marseille","lat":43.27994,"lon":5.400068,"is_reserved":false,"is_disabled":false,"rental_uris":{"android":"levelo://app?vid=ef29ff35-fd09-4474-b929-41254ea52f61","ios":"levelo://app?vid=ef29ff35-fd09-4474-b929-41254ea52f61"},"vehicle_type_id":"4","last_reported":1727802486,"current_range_meters":6400,"station_id":"ce4bho92rcd13ifvqh4g","pricing_plan_id":"cebpf4jnsgd1na2vs0mg"},{"bike_id":"e717617c-89fa-4204-aeff-5c938d76adeb","system_id":"levelo_inurba_marseille","lat":43.30325,"lon":5.40444,"is_reserved":false,"is_disabled":false,"rental_uris":{"android":"levelo://app?vid=e717617c-89fa-4204-aeff-5c938d76adeb","ios":"levelo://app?vid=e717617c-89fa-4204-aeff-5c938d76adeb"},"vehicle_type_id":"4","last_reported":1727802486,"current_range_meters":19200,"station_id":"ce4bh012rcd13ifvqd10","pricing_plan_id":"cebpf4jnsgd1na2vs0mg"},{"bike_id":"ad6bea6e-f273-4ccd-9df4-289634e6fb6b","system_id":"levelo_inurba_marseille","lat":43.299,"lon":5.43663,"is_reserved":false,"is_disabled":false,"rental_uris":{"android":"levelo://app?vid=ad6bea6e-f273-4ccd-9df4-289634e6fb6b","ios":"levelo://app?vid=ad6bea6e-f273-4ccd-9df4-289634e6fb6b"},"vehicle_type_id":"4","last_reported":1727802486,"current_range_meters":7200,"station_id":"ce4bhpp2rcd13ifvqhfg","pricing_plan_id":"cebpf4jnsgd1na2vs0mg"},{"bike_id":"da6280f8-94b3-48ab-abcc-ffd92358936b","system_id":"levelo_inurba_marseille","lat":43.29523,"lon":5.39405,"is_reserved":false,"is_disabled":false,"rental_uris":{"android":"levelo://app?vid=da6280f8-94b3-48ab-abcc-ffd92358936b","ios":"levelo://app?vid=da6280f8-94b3-48ab-abcc-ffd92358936b"},"vehicle_type_id":"4","last_reported":1727802486,"current_range_meters":13600,"station_id":"ce4bh292rcd13ifvqdf0","pricing_plan_id":"cebpf4jnsgd1na2vs0mg"},{"bike_id":"97b1facb-dbe9-4ba3-bec1-2edd3bb8bd0d","system_id":"levelo_inurba_marseille","lat":43.26802,"lon":5.4027,"is_reserved":false,"is_disabled":false,"rental_uris":{"android":"levelo://app?vid=97b1facb-dbe9-4ba3-bec1-2edd3bb8bd0d","ios":"levelo://app?vid=97b1facb-dbe9-4ba3-bec1-2edd3bb8bd0d"},"vehicle_type_id":"4","last_reported":1727802486,"current_range_meters":28400,"station_id":"ce501612rcd8frsf0b60","pricing_plan_id":"cebpf4jnsgd1na2vs0mg"},{"bike_id":"b3672e33-6b77-4411-9955-eb46704118d7","system_id":"levelo_inurba_marseille","lat":43.25728,"lon":5.41106,"is_reserved":false,"is_disabled":false,"rental_uris":{"android":"levelo://app?vid=b3672e33-6b77-4411-9955-eb46704118d7","ios":"levelo://app?vid=b3672e33-6b77-4411-9955-eb46704118d7"},"vehicle_type_id":"4","last_reported":1727802486,"current_range_meters":27600,"station_id":"ce4bhkp2rcd13ifvqgd0","pricing_plan_id":"cebpf4jnsgd1na2vs0mg"},{"bike_id":"b46a91f9-0b26-498d-b8ac-ec249396e291","system_id":"levelo_inurba_marseille","lat":43.2988,"lon":5.43657,"is_reserved":false,"is_disabled":false,"rental_uris":{"android":"levelo://app?vid=b46a91f9-0b26-498d-b8ac-ec249396e291","ios":"levelo://app?vid=b46a91f9-0b26-498d-b8ac-ec249396e291"},"vehicle_type_id":"4","last_reported":1727802486,"current_range_meters":22000,"station_id":"ce4bhpp2rcd13ifvqhfg","pricing_plan_id":"cebpf4jnsgd1na2vs0mg"},{"bike_id":"9f7d0e40-9cae-4f9e-95af-24332251f063","system_id":"levelo_inurba_marseille","lat":43.2961,"lon":5.37676,"is_reserved":false,"is_disabled":false,"rental_uris":{"android":"levelo://app?vid=9f7d0e40-9cae-4f9e-95af-24332251f063","ios":"levelo://app?vid=9f7d0e40-9cae-4f9e-95af-24332251f063"},"vehicle_type_id":"4","last_reported":1727802486,"current_range_meters":32400,"station_id":"ce4bgj92rcd13ifvqbd0","pricing_plan_id":"cebpf4jnsgd1na2vs0mg"},{"bike_id":"b78b2617-523a-4ee7-82d8-998c36f08372","system_id":"levelo_inurba_marseille","lat":43.28357,"lon":5.38656,"is_reserved":false,"is_disabled":false,"rental_uris":{"android":"levelo://app?vid=b78b2617-523a-4ee7-82d8-998c36f08372","ios":"levelo://app?vid=b78b2617-523a-4ee7-82d8-998c36f08372"},"vehicle_type_id":"4","last_reported":1727802486,"current_range_meters":2800,"station_id":"ce4bh492rcd13ifvqdvg","pricing_plan_id":"cebpf4jnsgd1na2vs0mg"},{"bike_id":"a8208b54-fa50-4f9d-a94d-176a32065444","system_id":"levelo_inurba_marseille","lat":43.2693,"lon":5.38921,"is_reserved":false,"is_disabled":false,"rental_uris":{"android":"levelo://app?vid=a8208b54-fa50-4f9d-a94d-176a32065444","ios":"levelo://app?vid=a8208b54-fa50-4f9d-a94d-176a32065444"},"vehicle_type_id":"4","last_reported":1727802486,"current_range_meters":27200,"station_id":"ce4bhhh2rcd13ifvqfl0","pricing_plan_id":"cebpf4jnsgd1na2vs0mg"},{"bike_id":"436f7a19-c489-4892-b54a-7a19edcf6cc0","system_id":"levelo_inurba_marseille","lat":43.28454,"lon":5.35888,"is_reserved":false,"is_disabled":false,"rental_uris":{"android":"levelo://app?vid=436f7a19-c489-4892-b54a-7a19edcf6cc0","ios":"levelo://app?vid=436f7a19-c489-4892-b54a-7a19edcf6cc0"},"vehicle_type_id":"4","last_reported":1727802486,"current_range_meters":30000,"station_id":"ce4bhah2rcd13ifvqei0","pricing_plan_id":"cebpf4jnsgd1na2vs0mg"},{"bike_id":"f669ee89-833e-4649-b0cf-34de969bc2a8","system_id":"levelo_inurba_marseille","lat":43.24882,"lon":5.374891,"is_reserved":false,"is_disabled":false,"rental_uris":{"android":"levelo://app?vid=f669ee89-833e-4649-b0cf-34de969bc2a8","ios":"levelo://app?vid=f669ee89-833e-4649-b0cf-34de969bc2a8"},"vehicle_type_id":"4","last_reported":1727802486,"current_range_meters":3200,"station_id":"","pricing_plan_id":"cebpf4jnsgd1na2vs0mg"},{"bike_id":"d46e927b-8bee-4a6b-b9b9-c13742e6a5cd","system_id":"levelo_inurba_marseille","lat":43.2866,"lon":5.36353,"is_reserved":false,"is_disabled":false,"rental_uris":{"android":"levelo://app?vid=d46e927b-8bee-4a6b-b9b9-c13742e6a5cd","ios":"levelo://app?vid=d46e927b-8bee-4a6b-b9b9-c13742e6a5cd"},"vehicle_type_id":"4","last_reported":1727802486,"current_range_meters":28000,"station_id":"ce4bhah2rcd13ifvqej0","pricing_plan_id":"cebpf4jnsgd1na2vs0mg"},{"bike_id":"944a3463-9d21-4343-b92b-00279786d6aa","system_id":"levelo_inurba_marseille","lat":43.311764,"lon":5.387058,"is_reserved":false,"is_disabled":false,"rental_uris":{"android":"levelo://app?vid=944a3463-9d21-4343-b92b-00279786d6aa","ios":"levelo://app?vid=944a3463-9d21-4343-b92b-00279786d6aa"},"vehicle_type_id":"4","last_reported":1727802486,"current_range_meters":3600,"station_id":"ce4bgv12rcd13ifvqcp0","pricing_plan_id":"cebpf4jnsgd1na2vs0mg"},{"bike_id":"9ec9c6f4-7594-4f24-b075-0b78691507e4","system_id":"levelo_inurba_marseille","lat":43.28004,"lon":5.4001,"is_reserved":false,"is_disabled":false,"rental_uris":{"android":"levelo://app?vid=9ec9c6f4-7594-4f24-b075-0b78691507e4","ios":"levelo://app?vid=9ec9c6f4-7594-4f24-b075-0b78691507e4"},"vehicle_type_id":"4","last_reported":1727802486,"current_range_meters":32000,"station_id":"ce4bho92rcd13ifvqh4g","pricing_plan_id":"cebpf4jnsgd1na2vs0mg"},{"bike_id":"3b27b3c7-db26-4b58-a171-f528b380465b","system_id":"levelo_inurba_marseille","lat":43.29255,"lon":5.40904,"is_reserved":false,"is_disabled":false,"rental_uris":{"android":"levelo://app?vid=3b27b3c7-db26-4b58-a171-f528b380465b","ios":"levelo://app?vid=3b27b3c7-db26-4b58-a171-f528b380465b"},"vehicle_type_id":"4","last_reported":1727802486,"current_range_meters":6800,"station_id":"ce4bh192rcd13ifvqdc0","pricing_plan_id":"cebpf4jnsgd1na2vs0mg"},{"bike_id":"5ef3456f-e7dd-4650-baa1-633d2e3d330f","system_id":"levelo_inurba_marseille","lat":43.31076,"lon":5.38352,"is_reserved":false,"is_disabled":false,"rental_uris":{"android":"levelo://app?vid=5ef3456f-e7dd-4650-baa1-633d2e3d330f","ios":"levelo://app?vid=5ef3456f-e7dd-4650-baa1-633d2e3d330f"},"vehicle_type_id":"4","last_reported":1727802486,"current_range_meters":38800,"station_id":"ce4bgv92rcd13ifvqcr0","pricing_plan_id":"cebpf4jnsgd1na2vs0mg"},{"bike_id":"c4432127-0b97-48c8-b745-bef6023d020a","system_id":"levelo_inurba_marseille","lat":43.33727,"lon":5.39185,"is_reserved":false,"is_disabled":false,"rental_uris":{"android":"levelo://app?vid=c4432127-0b97-48c8-b745-bef6023d020a","ios":"levelo://app?vid=c4432127-0b97-48c8-b745-bef6023d020a"},"vehicle_type_id":"4","last_reported":1727802486,"current_range_meters":31200,"station_id":"ce4bhr92rcd13ifvqhsg","pricing_plan_id":"cebpf4jnsgd1na2vs0mg"},{"bike_id":"ed76874b-9286-4c82-a50b-b0e0cb1886e9","system_id":"levelo_inurba_marseille","lat":43.24388,"lon":5.37062,"is_reserved":false,"is_disabled":false,"rental_uris":{"android":"levelo://app?vid=ed76874b-9286-4c82-a50b-b0e0cb1886e9","ios":"levelo://app?vid=ed76874b-9286-4c82-a50b-b0e0cb1886e9"},"vehicle_type_id":"4","last_reported":1727802486,"current_range_meters":26800,"station_id":"ce4bhhh2rcd13ifvqfk0","pricing_plan_id":"cebpf4jnsgd1na2vs0mg"},{"bike_id":"c6a31190-fa98-4820-a6bd-e821f182128c","system_id":"levelo_inurba_marseille","lat":43.29593,"lon":5.38096,"is_reserved":false,"is_disabled":false,"rental_uris":{"android":"levelo://app?vid=c6a31190-fa98-4820-a6bd-e821f182128c","ios":"levelo://app?vid=c6a31190-fa98-4820-a6bd-e821f182128c"},"vehicle_type_id":"4","last_reported":1727802486,"current_range_meters":8400,"station_id":"ce4bgl12rcd13ifvqbo0","pricing_plan_id":"cebpf4jnsgd1na2vs0mg"},{"bike_id":"d29dc684-5977-4857-9fdb-728775ead93e","system_id":"levelo_inurba_marseille","lat":43.33721,"lon":5.39184,"is_reserved":false,"is_disabled":false,"rental_uris":{"android":"levelo://app?vid=d29dc684-5977-4857-9fdb-728775ead93e","ios":"levelo://app?vid=d29dc684-5977-4857-9fdb-728775ead93e"},"vehicle_type_id":"4","last_reported":1727802486,"current_range_meters":37600,"station_id":"ce4bhr92rcd13ifvqhsg","pricing_plan_id":"cebpf4jnsgd1na2vs0mg"},{"bike_id":"a1adea3f-d82b-4e51-a2a8-7d11b4b339f8","system_id":"levelo_inurba_marseille","lat":43.24539,"lon":5.3953,"is_reserved":false,"is_disabled":false,"rental_uris":{"android":"levelo://app?vid=a1adea3f-d82b-4e51-a2a8-7d11b4b339f8","ios":"levelo://app?vid=a1adea3f-d82b-4e51-a2a8-7d11b4b339f8"},"vehicle_type_id":"4","last_reported":1727802486,"current_range_meters":8400,"station_id":"ce4bhlp2rcd13ifvqgjg","pricing_plan_id":"cebpf4jnsgd1na2vs0mg"},{"bike_id":"d9a87434-6dc2-481e-9a8f-20feb11edd37","system_id":"levelo_inurba_marseille","lat":43.25503,"lon":5.37642,"is_reserved":false,"is_disabled":false,"rental_uris":{"android":"levelo://app?vid=d9a87434-6dc2-481e-9a8f-20feb11edd37","ios":"levelo://app?vid=d9a87434-6dc2-481e-9a8f-20feb11edd37"},"vehicle_type_id":"4","last_reported":1727802486,"current_range_meters":12400,"station_id":"ce4bhh12rcd13ifvqff0","pricing_plan_id":"cebpf4jnsgd1na2vs0mg"},{"bike_id":"408d588c-d6e0-4b7f-805a-63e3f004b896","system_id":"levelo_inurba_marseille","lat":43.31084,"lon":5.42429,"is_reserved":false,"is_disabled":false,"rental_uris":{"android":"levelo://app?vid=408d588c-d6e0-4b7f-805a-63e3f004b896","ios":"levelo://app?vid=408d588c-d6e0-4b7f-805a-63e3f004b896"},"vehicle_type_id":"4","last_reported":1727802486,"current_range_meters":19600,"station_id":"ce4bhp92rcd13ifvqhag","pricing_plan_id":"cebpf4jnsgd1na2vs0mg"},{"bike_id":"7b8c59ec-f9f7-4746-8d09-e16327b31ce5","system_id":"levelo_inurba_marseille","lat":43.28946,"lon":5.36396,"is_reserved":false,"is_disabled":false,"rental_uris":{"android":"levelo://app?vid=7b8c59ec-f9f7-4746-8d09-e16327b31ce5","ios":"levelo://app?vid=7b8c59ec-f9f7-4746-8d09-e16327b31ce5"},"vehicle_type_id":"4","last_reported":1727802486,"current_range_meters":8400,"station_id":"ce4bhc92rcd13ifvqetg","pricing_plan_id":"cebpf4jnsgd1na2vs0mg"},{"bike_id":"22a5bbf8-57d1-4beb-b037-0ba05314f639","system_id":"levelo_inurba_marseille","lat":43.28455,"lon":5.35899,"is_reserved":false,"is_disabled":false,"rental_uris":{"android":"levelo://app?vid=22a5bbf8-57d1-4beb-b037-0ba05314f639","ios":"levelo://app?vid=22a5bbf8-57d1-4beb-b037-0ba05314f639"},"vehicle_type_id":"4","last_reported":1727802486,"current_range_meters":30400,"station_id":"ce4bhah2rcd13ifvqei0","pricing_plan_id":"cebpf4jnsgd1na2vs0mg"},{"bike_id":"d02732f0-a413-4720-a3bc-e52746670bfb","system_id":"levelo_inurba_marseille","lat":43.32291,"lon":5.38278,"is_reserved":false,"is_disabled":false,"rental_uris":{"android":"levelo://app?vid=d02732f0-a413-4720-a3bc-e52746670bfb","ios":"levelo://app?vid=d02732f0-a413-4720-a3bc-e52746670bfb"},"vehicle_type_id":"4","last_reported":1727802486,"current_range_meters":27200,"station_id":"ce4bhr12rcd13ifvqhqg","pricing_plan_id":"cebpf4jnsgd1na2vs0mg"},{"bike_id":"18260b14-fd3b-463e-80b4-6f3ea470fd90","system_id":"levelo_inurba_marseille","lat":43.28323,"lon":5.38584,"is_reserved":false,"is_disabled":false,"rental_uris":{"android":"levelo://app?vid=18260b14-fd3b-463e-80b4-6f3ea470fd90","ios":"levelo://app?vid=18260b14-fd3b-463e-80b4-6f3ea470fd90"},"vehicle_type_id":"4","last_reported":1727802486,"current_range_meters":18800,"station_id":"ce4bh412rcd13ifvqdr0","pricing_plan_id":"cebpf4jnsgd1na2vs0mg"},{"bike_id":"f6362f49-2eba-44c5-ba92-0109907fe6ea","system_id":"levelo_inurba_marseille","lat":43.29525,"lon":5.39398,"is_reserved":false,"is_disabled":false,"rental_uris":{"android":"levelo://app?vid=f6362f49-2eba-44c5-ba92-0109907fe6ea","ios":"levelo://app?vid=f6362f49-2eba-44c5-ba92-0109907fe6ea"},"vehicle_type_id":"4","last_reported":1727802486,"current_range_meters":6800,"station_id":"ce4bh292rcd13ifvqdf0","pricing_plan_id":"cebpf4jnsgd1na2vs0mg"},{"bike_id":"ab932a5f-6aba-4bb1-ade3-2d0ba12729b9","system_id":"levelo_inurba_marseille","lat":43.32293,"lon":5.38268,"is_reserved":false,"is_disabled":false,"rental_uris":{"android":"levelo://app?vid=ab932a5f-6aba-4bb1-ade3-2d0ba12729b9","ios":"levelo://app?vid=ab932a5f-6aba-4bb1-ade3-2d0ba12729b9"},"vehicle_type_id":"4","last_reported":1727802486,"current_range_meters":7200,"station_id":"ce4bhr12rcd13ifvqhqg","pricing_plan_id":"cebpf4jnsgd1na2vs0mg"},{"bike_id":"7a58c2c8-50c0-4818-855c-4b86297baff1","system_id":"levelo_inurba_marseille","lat":43.337444,"lon":5.374475,"is_reserved":false,"is_disabled":false,"rental_uris":{"android":"levelo://app?vid=7a58c2c8-50c0-4818-855c-4b86297baff1","ios":"levelo://app?vid=7a58c2c8-50c0-4818-855c-4b86297baff1"},"vehicle_type_id":"4","last_reported":1727802486,"current_range_meters":31200,"station_id":"","pricing_plan_id":"cebpf4jnsgd1na2vs0mg"},{"bike_id":"09503a80-b4b4-4de0-b9fe-d73d29df6f83","system_id":"levelo_inurba_marseille","lat":43.31685,"lon":5.40478,"is_reserved":false,"is_disabled":false,"rental_uris":{"android":"levelo://app?vid=09503a80-b4b4-4de0-b9fe-d73d29df6f83","ios":"levelo://app?vid=09503a80-b4b4-4de0-b9fe-d73d29df6f83"},"vehicle_type_id":"4","last_reported":1727802486,"current_range_meters":17200,"station_id":"ce4bh012rcd13ifvqd00","pricing_plan_id":"cebpf4jnsgd1na2vs0mg"},{"bike_id":"489bad3a-e085-456a-9c5d-0769e6a88ec0","system_id":"levelo_inurba_marseille","lat":43.26782,"lon":5.39422,"is_reserved":false,"is_disabled":false,"rental_uris":{"android":"levelo://app?vid=489bad3a-e085-456a-9c5d-0769e6a88ec0","ios":"levelo://app?vid=489bad3a-e085-456a-9c5d-0769e6a88ec0"},"vehicle_type_id":"4","last_reported":1727802486,"current_range_meters":38000,"station_id":"ce4bhh12rcd13ifvqfg0","pricing_plan_id":"cebpf4jnsgd1na2vs0mg"},{"bike_id":"d280d4b9-312f-44ae-b9b4-15d1b49e584b","system_id":"levelo_inurba_marseille","lat":43.26029,"lon":5.37552,"is_reserved":false,"is_disabled":false,"rental_uris":{"android":"levelo://app?vid=d280d4b9-312f-44ae-b9b4-15d1b49e584b","ios":"levelo://app?vid=d280d4b9-312f-44ae-b9b4-15d1b49e584b"},"vehicle_type_id":"4","last_reported":1727802486,"current_range_meters":23200,"station_id":"ce4bhgh2rcd13ifvqfa0","pricing_plan_id":"cebpf4jnsgd1na2vs0mg"},{"bike_id":"52667159-c249-4396-90d7-932febf50eb8","system_id":"levelo_inurba_marseille","lat":43.319427,"lon":5.367262,"is_reserved":false,"is_disabled":false,"rental_uris":{"android":"levelo://app?vid=52667159-c249-4396-90d7-932febf50eb8","ios":"levelo://app?vid=52667159-c249-4396-90d7-932febf50eb8"},"vehicle_type_id":"4","last_reported":1727802486,"current_range_meters":18000,"station_id":"ce4bhq92rcd13ifvqhjg","pricing_plan_id":"cebpf4jnsgd1na2vs0mg"},{"bike_id":"ead9e092-c2b2-467c-82e1-ce35e8e07880","system_id":"levelo_inurba_marseille","lat":43.27811,"lon":5.40711,"is_reserved":false,"is_disabled":false,"rental_uris":{"android":"levelo://app?vid=ead9e092-c2b2-467c-82e1-ce35e8e07880","ios":"levelo://app?vid=ead9e092-c2b2-467c-82e1-ce35e8e07880"},"vehicle_type_id":"4","last_reported":1727802486,"current_range_meters":27200,"station_id":"ce4bhnh2rcd13ifvqgtg","pricing_plan_id":"cebpf4jnsgd1na2vs0mg"},{"bike_id":"b0c9bed0-5ad2-4173-a477-4f89242256aa","system_id":"levelo_inurba_marseille","lat":43.27809,"lon":5.40707,"is_reserved":false,"is_disabled":false,"rental_uris":{"android":"levelo://app?vid=b0c9bed0-5ad2-4173-a477-4f89242256aa","ios":"levelo://app?vid=b0c9bed0-5ad2-4173-a477-4f89242256aa"},"vehicle_type_id":"4","last_reported":1727802486,"current_range_meters":20400,"station_id":"ce4bhnh2rcd13ifvqgtg","pricing_plan_id":"cebpf4jnsgd1na2vs0mg"},{"bike_id":"087a7af4-c74b-45dd-9eff-99bf238b2c31","system_id":"levelo_inurba_marseille","lat":43.29531,"lon":5.38548,"is_reserved":false,"is_disabled":false,"rental_uris":{"android":"levelo://app?vid=087a7af4-c74b-45dd-9eff-99bf238b2c31","ios":"levelo://app?vid=087a7af4-c74b-45dd-9eff-99bf238b2c31"},"vehicle_type_id":"4","last_reported":1727802486,"current_range_meters":38800,"station_id":"ce4bgih2rcd13ifvqba0","pricing_plan_id":"cebpf4jnsgd1na2vs0mg"},{"bike_id":"9729e408-d6de-40b6-a877-085a8d1da339","system_id":"levelo_inurba_marseille","lat":43.24518,"lon":5.3955,"is_reserved":false,"is_disabled":false,"rental_uris":{"android":"levelo://app?vid=9729e408-d6de-40b6-a877-085a8d1da339","ios":"levelo://app?vid=9729e408-d6de-40b6-a877-085a8d1da339"},"vehicle_type_id":"4","last_reported":1727802486,"current_range_meters":22400,"station_id":"ce4bhlp2rcd13ifvqgjg","pricing_plan_id":"cebpf4jnsgd1na2vs0mg"},{"bike_id":"a1de05c1-82b2-4d55-a73a-aff75d468430","system_id":"levelo_inurba_marseille","lat":43.2978,"lon":5.39352,"is_reserved":false,"is_disabled":false,"rental_uris":{"android":"levelo://app?vid=a1de05c1-82b2-4d55-a73a-aff75d468430","ios":"levelo://app?vid=a1de05c1-82b2-4d55-a73a-aff75d468430"},"vehicle_type_id":"4","last_reported":1727802486,"current_range_meters":3600,"station_id":"chh1huq6cuj3fo74tm60","pricing_plan_id":"cebpf4jnsgd1na2vs0mg"},{"bike_id":"b7a75d39-7de2-45b7-9a7f-76b26f7a01b8","system_id":"levelo_inurba_marseille","lat":43.32479,"lon":5.37436,"is_reserved":false,"is_disabled":false,"rental_uris":{"android":"levelo://app?vid=b7a75d39-7de2-45b7-9a7f-76b26f7a01b8","ios":"levelo://app?vid=b7a75d39-7de2-45b7-9a7f-76b26f7a01b8"},"vehicle_type_id":"4","last_reported":1727802486,"current_range_meters":36000,"station_id":"ce4bguh2rcd13ifvqckg","pricing_plan_id":"cebpf4jnsgd1na2vs0mg"},{"bike_id":"3b275119-1233-498d-b37b-667f06153313","system_id":"levelo_inurba_marseille","lat":43.29036,"lon":5.3997,"is_reserved":false,"is_disabled":false,"rental_uris":{"android":"levelo://app?vid=3b275119-1233-498d-b37b-667f06153313","ios":"levelo://app?vid=3b275119-1233-498d-b37b-667f06153313"},"vehicle_type_id":"4","last_reported":1727802486,"current_range_meters":8000,"station_id":"ce4bh392rcd13ifvqdm0","pricing_plan_id":"cebpf4jnsgd1na2vs0mg"},{"bike_id":"429769ac-91e2-4479-abab-4631184fe220","system_id":"levelo_inurba_marseille","lat":43.25579,"lon":5.38236,"is_reserved":false,"is_disabled":false,"rental_uris":{"android":"levelo://app?vid=429769ac-91e2-4479-abab-4631184fe220","ios":"levelo://app?vid=429769ac-91e2-4479-abab-4631184fe220"},"vehicle_type_id":"4","last_reported":1727802486,"current_range_meters":3600,"station_id":"ce4bhih2rcd13ifvqfs0","pricing_plan_id":"cebpf4jnsgd1na2vs0mg"},{"bike_id":"8384b0a5-14c9-4b06-a8d3-03a72ab5bfe9","system_id":"levelo_inurba_marseille","lat":43.28939,"lon":5.36634,"is_reserved":false,"is_disabled":false,"rental_uris":{"android":"levelo://app?vid=8384b0a5-14c9-4b06-a8d3-03a72ab5bfe9","ios":"levelo://app?vid=8384b0a5-14c9-4b06-a8d3-03a72ab5bfe9"},"vehicle_type_id":"4","last_reported":1727802486,"current_range_meters":35200,"station_id":"ce4bhap2rcd13ifvqek0","pricing_plan_id":"cebpf4jnsgd1na2vs0mg"},{"bike_id":"437b8d29-8ec2-410d-9e63-c5b7cc126a00","system_id":"levelo_inurba_marseille","lat":43.32293,"lon":5.38283,"is_reserved":false,"is_disabled":false,"rental_uris":{"android":"levelo://app?vid=437b8d29-8ec2-410d-9e63-c5b7cc126a00","ios":"levelo://app?vid=437b8d29-8ec2-410d-9e63-c5b7cc126a00"},"vehicle_type_id":"4","last_reported":1727802486,"current_range_meters":30400,"station_id":"ce4bhr12rcd13ifvqhqg","pricing_plan_id":"cebpf4jnsgd1na2vs0mg"},{"bike_id":"508058b4-8bd9-4912-939e-09a5fad199ae","system_id":"levelo_inurba_marseille","lat":43.27812,"lon":5.40708,"is_reserved":false,"is_disabled":false,"rental_uris":{"android":"levelo://app?vid=508058b4-8bd9-4912-939e-09a5fad199ae","ios":"levelo://app?vid=508058b4-8bd9-4912-939e-09a5fad199ae"},"vehicle_type_id":"4","last_reported":1727802486,"current_range_meters":36800,"station_id":"ce4bhnh2rcd13ifvqgtg","pricing_plan_id":"cebpf4jnsgd1na2vs0mg"},{"bike_id":"a2fca736-437a-4571-ae29-64d704992fa6","system_id":"levelo_inurba_marseille","lat":43.26785,"lon":5.39415,"is_reserved":false,"is_disabled":false,"rental_uris":{"android":"levelo://app?vid=a2fca736-437a-4571-ae29-64d704992fa6","ios":"levelo://app?vid=a2fca736-437a-4571-ae29-64d704992fa6"},"vehicle_type_id":"4","last_reported":1727802486,"current_range_meters":16000,"station_id":"ce4bhh12rcd13ifvqfg0","pricing_plan_id":"cebpf4jnsgd1na2vs0mg"},{"bike_id":"a9dabb44-518d-4f2a-abed-38998320c0c8","system_id":"levelo_inurba_marseille","lat":43.26935,"lon":5.40248,"is_reserved":false,"is_disabled":false,"rental_uris":{"android":"levelo://app?vid=a9dabb44-518d-4f2a-abed-38998320c0c8","ios":"levelo://app?vid=a9dabb44-518d-4f2a-abed-38998320c0c8"},"vehicle_type_id":"4","last_reported":1727802486,"current_range_meters":7200,"station_id":"cjm6bp8fraef2m0cb0m0","pricing_plan_id":"cebpf4jnsgd1na2vs0mg"},{"bike_id":"e35aa45b-6d44-4f18-86d8-2a42ba83ff54","system_id":"levelo_inurba_marseille","lat":43.29901,"lon":5.43674,"is_reserved":false,"is_disabled":false,"rental_uris":{"android":"levelo://app?vid=e35aa45b-6d44-4f18-86d8-2a42ba83ff54","ios":"levelo://app?vid=e35aa45b-6d44-4f18-86d8-2a42ba83ff54"},"vehicle_type_id":"4","last_reported":1727802486,"current_range_meters":18000,"station_id":"ce4bhpp2rcd13ifvqhfg","pricing_plan_id":"cebpf4jnsgd1na2vs0mg"},{"bike_id":"9e67305a-b22a-44f7-b0ef-fa9c282b9dac","system_id":"levelo_inurba_marseille","lat":43.29029,"lon":5.37561,"is_reserved":false,"is_disabled":false,"rental_uris":{"android":"levelo://app?vid=9e67305a-b22a-44f7-b0ef-fa9c282b9dac","ios":"levelo://app?vid=9e67305a-b22a-44f7-b0ef-fa9c282b9dac"},"vehicle_type_id":"4","last_reported":1727802486,"current_range_meters":32400,"station_id":"ce4bh692rcd13ifvqe90","pricing_plan_id":"cebpf4jnsgd1na2vs0mg"},{"bike_id":"1e326b26-fbdb-4819-9659-f6a8f0679b47","system_id":"levelo_inurba_marseille","lat":43.28856,"lon":5.35863,"is_reserved":false,"is_disabled":false,"rental_uris":{"android":"levelo://app?vid=1e326b26-fbdb-4819-9659-f6a8f0679b47","ios":"levelo://app?vid=1e326b26-fbdb-4819-9659-f6a8f0679b47"},"vehicle_type_id":"4","last_reported":1727802486,"current_range_meters":38800,"station_id":"ce4bhb12rcd13ifvqem0","pricing_plan_id":"cebpf4jnsgd1na2vs0mg"},{"bike_id":"aded419b-9ef1-42c3-aff6-7067df1ca545","system_id":"levelo_inurba_marseille","lat":43.24789,"lon":5.39225,"is_reserved":false,"is_disabled":false,"rental_uris":{"android":"levelo://app?vid=aded419b-9ef1-42c3-aff6-7067df1ca545","ios":"levelo://app?vid=aded419b-9ef1-42c3-aff6-7067df1ca545"},"vehicle_type_id":"4","last_reported":1727802486,"current_range_meters":18000,"station_id":"","pricing_plan_id":"cebpf4jnsgd1na2vs0mg"},{"bike_id":"0306418a-ecd7-471e-be8c-81f7ec244baf","system_id":"levelo_inurba_marseille","lat":43.31085,"lon":5.42426,"is_reserved":false,"is_disabled":false,"rental_uris":{"android":"levelo://app?vid=0306418a-ecd7-471e-be8c-81f7ec244baf","ios":"levelo://app?vid=0306418a-ecd7-471e-be8c-81f7ec244baf"},"vehicle_type_id":"4","last_reported":1727802486,"current_range_meters":39200,"station_id":"ce4bhp92rcd13ifvqhag","pricing_plan_id":"cebpf4jnsgd1na2vs0mg"},{"bike_id":"3a1842bf-b52d-4835-97b1-9c30914f4aed","system_id":"levelo_inurba_marseille","lat":43.31082,"lon":5.42429,"is_reserved":false,"is_disabled":false,"rental_uris":{"android":"levelo://app?vid=3a1842bf-b52d-4835-97b1-9c30914f4aed","ios":"levelo://app?vid=3a1842bf-b52d-4835-97b1-9c30914f4aed"},"vehicle_type_id":"4","last_reported":1727802486,"current_range_meters":30800,"station_id":"ce4bhp92rcd13ifvqhag","pricing_plan_id":"cebpf4jnsgd1na2vs0mg"},{"bike_id":"2f72d8b5-87e5-41ce-8bf5-2a01555553a2","system_id":"levelo_inurba_marseille","lat":43.27818,"lon":5.40707,"is_reserved":false,"is_disabled":false,"rental_uris":{"android":"levelo://app?vid=2f72d8b5-87e5-41ce-8bf5-2a01555553a2","ios":"levelo://app?vid=2f72d8b5-87e5-41ce-8bf5-2a01555553a2"},"vehicle_type_id":"4","last_reported":1727802486,"current_range_meters":31200,"station_id":"ce4bhnh2rcd13ifvqgtg","pricing_plan_id":"cebpf4jnsgd1na2vs0mg"},{"bike_id":"3e7ab740-8049-4de8-9631-45fc610928cd","system_id":"levelo_inurba_marseille","lat":43.30428,"lon":5.38895,"is_reserved":false,"is_disabled":false,"rental_uris":{"android":"levelo://app?vid=3e7ab740-8049-4de8-9631-45fc610928cd","ios":"levelo://app?vid=3e7ab740-8049-4de8-9631-45fc610928cd"},"vehicle_type_id":"4","last_reported":1727802486,"current_range_meters":18800,"station_id":"ce4bgk12rcd13ifvqbi0","pricing_plan_id":"cebpf4jnsgd1na2vs0mg"},{"bike_id":"a3bb5cfe-0a37-4de6-ab68-cdfeaabac780","system_id":"levelo_inurba_marseille","lat":43.32481,"lon":5.36581,"is_reserved":false,"is_disabled":false,"rental_uris":{"android":"levelo://app?vid=a3bb5cfe-0a37-4de6-ab68-cdfeaabac780","ios":"levelo://app?vid=a3bb5cfe-0a37-4de6-ab68-cdfeaabac780"},"vehicle_type_id":"4","last_reported":1727802486,"current_range_meters":37600,"station_id":"ce4bhs12rcd13ifvqhvg","pricing_plan_id":"cebpf4jnsgd1na2vs0mg"},{"bike_id":"75bf0e18-cf20-471e-b998-1fb597905afc","system_id":"levelo_inurba_marseille","lat":43.30175,"lon":5.36609,"is_reserved":false,"is_disabled":false,"rental_uris":{"android":"levelo://app?vid=75bf0e18-cf20-471e-b998-1fb597905afc","ios":"levelo://app?vid=75bf0e18-cf20-471e-b998-1fb597905afc"},"vehicle_type_id":"4","last_reported":1727802486,"current_range_meters":25600,"station_id":"ce4bgrh2rcd13ifvqc8g","pricing_plan_id":"cebpf4jnsgd1na2vs0mg"},{"bike_id":"4c52ae61-4d55-4879-9a90-246e25fed59e","system_id":"levelo_inurba_marseille","lat":43.26028,"lon":5.37545,"is_reserved":false,"is_disabled":false,"rental_uris":{"android":"levelo://app?vid=4c52ae61-4d55-4879-9a90-246e25fed59e","ios":"levelo://app?vid=4c52ae61-4d55-4879-9a90-246e25fed59e"},"vehicle_type_id":"4","last_reported":1727802486,"current_range_meters":38400,"station_id":"ce4bhgh2rcd13ifvqfa0","pricing_plan_id":"cebpf4jnsgd1na2vs0mg"},{"bike_id":"b16d5709-0efb-4dd0-b7da-5198fd5fd356","system_id":"levelo_inurba_marseille","lat":43.24999,"lon":5.38929,"is_reserved":false,"is_disabled":false,"rental_uris":{"android":"levelo://app?vid=b16d5709-0efb-4dd0-b7da-5198fd5fd356","ios":"levelo://app?vid=b16d5709-0efb-4dd0-b7da-5198fd5fd356"},"vehicle_type_id":"4","last_reported":1727802486,"current_range_meters":27200,"station_id":"ce4bhgp2rcd13ifvqfd0","pricing_plan_id":"cebpf4jnsgd1na2vs0mg"},{"bike_id":"384f32f0-63bb-4621-bfe4-8e5a6da5a3e8","system_id":"levelo_inurba_marseille","lat":43.30537,"lon":5.36557,"is_reserved":false,"is_disabled":false,"rental_uris":{"android":"levelo://app?vid=384f32f0-63bb-4621-bfe4-8e5a6da5a3e8","ios":"levelo://app?vid=384f32f0-63bb-4621-bfe4-8e5a6da5a3e8"},"vehicle_type_id":"4","last_reported":1727802486,"current_range_meters":8800,"station_id":"ce4bgs12rcd13ifvqcag","pricing_plan_id":"cebpf4jnsgd1na2vs0mg"},{"bike_id":"136870c6-5424-4f78-98ef-9f9f9937d45d","system_id":"levelo_inurba_marseille","lat":43.29846,"lon":5.36286,"is_reserved":false,"is_disabled":false,"rental_uris":{"android":"levelo://app?vid=136870c6-5424-4f78-98ef-9f9f9937d45d","ios":"levelo://app?vid=136870c6-5424-4f78-98ef-9f9f9937d45d"},"vehicle_type_id":"4","last_reported":1727802486,"current_range_meters":38800,"station_id":"ce4bgpp2rcd13ifvqc3g","pricing_plan_id":"cebpf4jnsgd1na2vs0mg"},{"bike_id":"6fc3d36a-257c-4966-980a-2f36aed3b746","system_id":"levelo_inurba_marseille","lat":43.28619,"lon":5.35104,"is_reserved":false,"is_disabled":false,"rental_uris":{"android":"levelo://app?vid=6fc3d36a-257c-4966-980a-2f36aed3b746","ios":"levelo://app?vid=6fc3d36a-257c-4966-980a-2f36aed3b746"},"vehicle_type_id":"4","last_reported":1727802486,"current_range_meters":2000,"station_id":"ce4bhch2rcd13ifvqeug","pricing_plan_id":"cebpf4jnsgd1na2vs0mg"},{"bike_id":"5ff486d1-1183-4a73-a16d-ad02edf26e62","system_id":"levelo_inurba_marseille","lat":43.28721,"lon":5.37931,"is_reserved":false,"is_disabled":false,"rental_uris":{"android":"levelo://app?vid=5ff486d1-1183-4a73-a16d-ad02edf26e62","ios":"levelo://app?vid=5ff486d1-1183-4a73-a16d-ad02edf26e62"},"vehicle_type_id":"4","last_reported":1727802486,"current_range_meters":10000,"station_id":"ce4bh9p2rcd13ifvqec0","pricing_plan_id":"cebpf4jnsgd1na2vs0mg"},{"bike_id":"85f95580-b29a-4aca-be1f-7c4d44c8fb53","system_id":"levelo_inurba_marseille","lat":43.29226,"lon":5.36079,"is_reserved":false,"is_disabled":false,"rental_uris":{"android":"levelo://app?vid=85f95580-b29a-4aca-be1f-7c4d44c8fb53","ios":"levelo://app?vid=85f95580-b29a-4aca-be1f-7c4d44c8fb53"},"vehicle_type_id":"4","last_reported":1727802486,"current_range_meters":32800,"station_id":"ce4bhbh2rcd13ifvqeqg","pricing_plan_id":"cebpf4jnsgd1na2vs0mg"},{"bike_id":"182f0c96-cd2b-478a-8f27-6536083f01e6","system_id":"levelo_inurba_marseille","lat":43.31073,"lon":5.38365,"is_reserved":false,"is_disabled":false,"rental_uris":{"android":"levelo://app?vid=182f0c96-cd2b-478a-8f27-6536083f01e6","ios":"levelo://app?vid=182f0c96-cd2b-478a-8f27-6536083f01e6"},"vehicle_type_id":"4","last_reported":1727802486,"current_range_meters":14400,"station_id":"ce4bgv92rcd13ifvqcr0","pricing_plan_id":"cebpf4jnsgd1na2vs0mg"},{"bike_id":"0da8fe58-6296-4f1b-b8b8-14716687e0b4","system_id":"levelo_inurba_marseille","lat":43.31329,"lon":5.39688,"is_reserved":false,"is_disabled":false,"rental_uris":{"android":"levelo://app?vid=0da8fe58-6296-4f1b-b8b8-14716687e0b4","ios":"levelo://app?vid=0da8fe58-6296-4f1b-b8b8-14716687e0b4"},"vehicle_type_id":"4","last_reported":1727802486,"current_range_meters":39200,"station_id":"ce4bgvp2rcd13ifvqcu0","pricing_plan_id":"cebpf4jnsgd1na2vs0mg"},{"bike_id":"58c754a4-a1cc-4cba-a4d2-730480114c99","system_id":"levelo_inurba_marseille","lat":43.28456,"lon":5.35889,"is_reserved":false,"is_disabled":false,"rental_uris":{"android":"levelo://app?vid=58c754a4-a1cc-4cba-a4d2-730480114c99","ios":"levelo://app?vid=58c754a4-a1cc-4cba-a4d2-730480114c99"},"vehicle_type_id":"4","last_reported":1727802486,"current_range_meters":25200,"station_id":"ce4bhah2rcd13ifvqei0","pricing_plan_id":"cebpf4jnsgd1na2vs0mg"},{"bike_id":"1054441e-0e28-4de0-9107-4fe8034a46ac","system_id":"levelo_inurba_marseille","lat":43.293835,"lon":5.375802,"is_reserved":false,"is_disabled":false,"rental_uris":{"android":"levelo://app?vid=1054441e-0e28-4de0-9107-4fe8034a46ac","ios":"levelo://app?vid=1054441e-0e28-4de0-9107-4fe8034a46ac"},"vehicle_type_id":"4","last_reported":1727802486,"current_range_meters":4400,"station_id":"ce4bgi92rcd13ifvqb90","pricing_plan_id":"cebpf4jnsgd1na2vs0mg"},{"bike_id":"28aaa4b4-f546-4e98-baad-78912b7fa8e7","system_id":"levelo_inurba_marseille","lat":43.29199,"lon":5.35806,"is_reserved":false,"is_disabled":false,"rental_uris":{"android":"levelo://app?vid=28aaa4b4-f546-4e98-baad-78912b7fa8e7","ios":"levelo://app?vid=28aaa4b4-f546-4e98-baad-78912b7fa8e7"},"vehicle_type_id":"4","last_reported":1727802486,"current_range_meters":38400,"station_id":"ce4bhb12rcd13ifvqel0","pricing_plan_id":"cebpf4jnsgd1na2vs0mg"},{"bike_id":"e45cfc9d-1868-4ccb-b27f-ade89bfb39de","system_id":"levelo_inurba_marseille","lat":43.33017,"lon":5.39044,"is_reserved":false,"is_disabled":false,"rental_uris":{"android":"levelo://app?vid=e45cfc9d-1868-4ccb-b27f-ade89bfb39de","ios":"levelo://app?vid=e45cfc9d-1868-4ccb-b27f-ade89bfb39de"},"vehicle_type_id":"4","last_reported":1727802486,"current_range_meters":8400,"station_id":"ce4bhr92rcd13ifvqhrg","pricing_plan_id":"cebpf4jnsgd1na2vs0mg"},{"bike_id":"129484e5-0853-4901-b7e5-c9663eb46e2f","system_id":"levelo_inurba_marseille","lat":43.30547,"lon":5.36702,"is_reserved":false,"is_disabled":false,"rental_uris":{"android":"levelo://app?vid=129484e5-0853-4901-b7e5-c9663eb46e2f","ios":"levelo://app?vid=129484e5-0853-4901-b7e5-c9663eb46e2f"},"vehicle_type_id":"4","last_reported":1727802486,"current_range_meters":30800,"station_id":"ce4bgrp2rcd13ifvqc9g","pricing_plan_id":"cebpf4jnsgd1na2vs0mg"},{"bike_id":"e1caf8d1-18b6-4aba-8da7-4454cdb42dc7","system_id":"levelo_inurba_marseille","lat":43.25503,"lon":5.37651,"is_reserved":false,"is_disabled":false,"rental_uris":{"android":"levelo://app?vid=e1caf8d1-18b6-4aba-8da7-4454cdb42dc7","ios":"levelo://app?vid=e1caf8d1-18b6-4aba-8da7-4454cdb42dc7"},"vehicle_type_id":"4","last_reported":1727802486,"current_range_meters":3600,"station_id":"ce4bhh12rcd13ifvqff0","pricing_plan_id":"cebpf4jnsgd1na2vs0mg"},{"bike_id":"e686463a-e293-4038-b17c-9ccadabf5984","system_id":"levelo_inurba_marseille","lat":43.29897,"lon":5.43659,"is_reserved":false,"is_disabled":false,"rental_uris":{"android":"levelo://app?vid=e686463a-e293-4038-b17c-9ccadabf5984","ios":"levelo://app?vid=e686463a-e293-4038-b17c-9ccadabf5984"},"vehicle_type_id":"4","last_reported":1727802486,"current_range_meters":38800,"station_id":"ce4bhpp2rcd13ifvqhfg","pricing_plan_id":"cebpf4jnsgd1na2vs0mg"},{"bike_id":"690523c8-37e2-44bd-9f26-ef278e8f67bc","system_id":"levelo_inurba_marseille","lat":43.29299,"lon":5.37171,"is_reserved":false,"is_disabled":false,"rental_uris":{"android":"levelo://app?vid=690523c8-37e2-44bd-9f26-ef278e8f67bc","ios":"levelo://app?vid=690523c8-37e2-44bd-9f26-ef278e8f67bc"},"vehicle_type_id":"4","last_reported":1727802486,"current_range_meters":38800,"station_id":"ce4bgh92rcd13ifvqb40","pricing_plan_id":"cebpf4jnsgd1na2vs0mg"},{"bike_id":"905c5081-4d85-4c19-9178-8de7bf3a159a","system_id":"levelo_inurba_marseille","lat":43.280032,"lon":5.400158,"is_reserved":false,"is_disabled":false,"rental_uris":{"android":"levelo://app?vid=905c5081-4d85-4c19-9178-8de7bf3a159a","ios":"levelo://app?vid=905c5081-4d85-4c19-9178-8de7bf3a159a"},"vehicle_type_id":"4","last_reported":1727802486,"current_range_meters":7200,"station_id":"ce4bho92rcd13ifvqh4g","pricing_plan_id":"cebpf4jnsgd1na2vs0mg"},{"bike_id":"4c649865-a3b2-42f5-8977-1db16b1a2d14","system_id":"levelo_inurba_marseille","lat":43.239685,"lon":5.366242,"is_reserved":false,"is_disabled":false,"rental_uris":{"android":"levelo://app?vid=4c649865-a3b2-42f5-8977-1db16b1a2d14","ios":"levelo://app?vid=4c649865-a3b2-42f5-8977-1db16b1a2d14"},"vehicle_type_id":"4","last_reported":1727802486,"current_range_meters":10000,"station_id":"ce4bgup2rcd13ifvqco0","pricing_plan_id":"cebpf4jnsgd1na2vs0mg"},{"bike_id":"a6866f1e-2be6-4aeb-be02-c3a209d1c92c","system_id":"levelo_inurba_marseille","lat":43.28406,"lon":5.37507,"is_reserved":false,"is_disabled":false,"rental_uris":{"android":"levelo://app?vid=a6866f1e-2be6-4aeb-be02-c3a209d1c92c","ios":"levelo://app?vid=a6866f1e-2be6-4aeb-be02-c3a209d1c92c"},"vehicle_type_id":"4","last_reported":1727802486,"current_range_meters":21600,"station_id":"ce4bh412rcd13ifvqds0","pricing_plan_id":"cebpf4jnsgd1na2vs0mg"},{"bike_id":"1d0014bd-414d-49f3-abd6-8d86855ee22e","system_id":"levelo_inurba_marseille","lat":43.26556,"lon":5.37293,"is_reserved":false,"is_disabled":false,"rental_uris":{"android":"levelo://app?vid=1d0014bd-414d-49f3-abd6-8d86855ee22e","ios":"levelo://app?vid=1d0014bd-414d-49f3-abd6-8d86855ee22e"},"vehicle_type_id":"4","last_reported":1727802486,"current_range_meters":38400,"station_id":"ce4bhg12rcd13ifvqf70","pricing_plan_id":"cebpf4jnsgd1na2vs0mg"},{"bike_id":"69e7c2fa-014a-4eb7-b85f-473ac44845a0","system_id":"levelo_inurba_marseille","lat":43.28352,"lon":5.38102,"is_reserved":false,"is_disabled":false,"rental_uris":{"android":"levelo://app?vid=69e7c2fa-014a-4eb7-b85f-473ac44845a0","ios":"levelo://app?vid=69e7c2fa-014a-4eb7-b85f-473ac44845a0"},"vehicle_type_id":"4","last_reported":1727802486,"current_range_meters":2000,"station_id":"ce4bh412rcd13ifvqdr0","pricing_plan_id":"cebpf4jnsgd1na2vs0mg"},{"bike_id":"b61a696b-ec15-4123-9032-a5302df55e25","system_id":"levelo_inurba_marseille","lat":43.329527,"lon":5.383823,"is_reserved":false,"is_disabled":false,"rental_uris":{"android":"levelo://app?vid=b61a696b-ec15-4123-9032-a5302df55e25","ios":"levelo://app?vid=b61a696b-ec15-4123-9032-a5302df55e25"},"vehicle_type_id":"4","last_reported":1727802486,"current_range_meters":20000,"station_id":"","pricing_plan_id":"cebpf4jnsgd1na2vs0mg"},{"bike_id":"49b50569-9686-489c-a0f6-60a72192e386","system_id":"levelo_inurba_marseille","lat":43.287,"lon":5.37395,"is_reserved":false,"is_disabled":false,"rental_uris":{"android":"levelo://app?vid=49b50569-9686-489c-a0f6-60a72192e386","ios":"levelo://app?vid=49b50569-9686-489c-a0f6-60a72192e386"},"vehicle_type_id":"4","last_reported":1727802486,"current_range_meters":39200,"station_id":"ce4bh3p2rcd13ifvqdq0","pricing_plan_id":"cebpf4jnsgd1na2vs0mg"},{"bike_id":"83fe0f52-47d3-4c2f-bb3b-c3adcad3b57d","system_id":"levelo_inurba_marseille","lat":43.29517,"lon":5.3905,"is_reserved":false,"is_disabled":false,"rental_uris":{"android":"levelo://app?vid=83fe0f52-47d3-4c2f-bb3b-c3adcad3b57d","ios":"levelo://app?vid=83fe0f52-47d3-4c2f-bb3b-c3adcad3b57d"},"vehicle_type_id":"4","last_reported":1727802486,"current_range_meters":6800,"station_id":"ce4bh3p2rcd13ifvqdp0","pricing_plan_id":"cebpf4jnsgd1na2vs0mg"},{"bike_id":"4f12ffde-0baa-4dba-9fb4-55935c5822b5","system_id":"levelo_inurba_marseille","lat":43.2841,"lon":5.3751,"is_reserved":false,"is_disabled":false,"rental_uris":{"android":"levelo://app?vid=4f12ffde-0baa-4dba-9fb4-55935c5822b5","ios":"levelo://app?vid=4f12ffde-0baa-4dba-9fb4-55935c5822b5"},"vehicle_type_id":"4","last_reported":1727802486,"current_range_meters":7200,"station_id":"ce4bh412rcd13ifvqds0","pricing_plan_id":"cebpf4jnsgd1na2vs0mg"},{"bike_id":"82819c5d-69be-4be5-b580-190ac46a0a9b","system_id":"levelo_inurba_marseille","lat":43.28463,"lon":5.35902,"is_reserved":false,"is_disabled":false,"rental_uris":{"android":"levelo://app?vid=82819c5d-69be-4be5-b580-190ac46a0a9b","ios":"levelo://app?vid=82819c5d-69be-4be5-b580-190ac46a0a9b"},"vehicle_type_id":"4","last_reported":1727802486,"current_range_meters":22800,"station_id":"ce4bhah2rcd13ifvqei0","pricing_plan_id":"cebpf4jnsgd1na2vs0mg"},{"bike_id":"a16a29b5-9304-412c-b347-a302501cad9e","system_id":"levelo_inurba_marseille","lat":43.31444,"lon":5.37376,"is_reserved":false,"is_disabled":false,"rental_uris":{"android":"levelo://app?vid=a16a29b5-9304-412c-b347-a302501cad9e","ios":"levelo://app?vid=a16a29b5-9304-412c-b347-a302501cad9e"},"vehicle_type_id":"4","last_reported":1727802486,"current_range_meters":34000,"station_id":"","pricing_plan_id":"cebpf4jnsgd1na2vs0mg"},{"bike_id":"b2d8b3d1-5ce6-4760-8597-b588ccad8c37","system_id":"levelo_inurba_marseille","lat":43.298,"lon":5.38102,"is_reserved":false,"is_disabled":false,"rental_uris":{"android":"levelo://app?vid=b2d8b3d1-5ce6-4760-8597-b588ccad8c37","ios":"levelo://app?vid=b2d8b3d1-5ce6-4760-8597-b588ccad8c37"},"vehicle_type_id":"4","last_reported":1727802486,"current_range_meters":38800,"station_id":"ce4bgip2rcd13ifvqbb0","pricing_plan_id":"cebpf4jnsgd1na2vs0mg"},{"bike_id":"528263ab-2814-4a72-ab99-44da30eeb71c","system_id":"levelo_inurba_marseille","lat":43.28466,"lon":5.35892,"is_reserved":false,"is_disabled":false,"rental_uris":{"android":"levelo://app?vid=528263ab-2814-4a72-ab99-44da30eeb71c","ios":"levelo://app?vid=528263ab-2814-4a72-ab99-44da30eeb71c"},"vehicle_type_id":"4","last_reported":1727802486,"current_range_meters":17200,"station_id":"ce4bhah2rcd13ifvqei0","pricing_plan_id":"cebpf4jnsgd1na2vs0mg"},{"bike_id":"a49a32ee-0d70-4ec5-8042-b1a32aeaa2fe","system_id":"levelo_inurba_marseille","lat":43.24804,"lon":5.37473,"is_reserved":false,"is_disabled":false,"rental_uris":{"android":"levelo://app?vid=a49a32ee-0d70-4ec5-8042-b1a32aeaa2fe","ios":"levelo://app?vid=a49a32ee-0d70-4ec5-8042-b1a32aeaa2fe"},"vehicle_type_id":"4","last_reported":1727802486,"current_range_meters":8000,"station_id":"ce4bhgh2rcd13ifvqfb0","pricing_plan_id":"cebpf4jnsgd1na2vs0mg"},{"bike_id":"a16f9a09-6148-4662-a78f-f57c7915e19d","system_id":"levelo_inurba_marseille","lat":43.28878,"lon":5.36002,"is_reserved":false,"is_disabled":false,"rental_uris":{"android":"levelo://app?vid=a16f9a09-6148-4662-a78f-f57c7915e19d","ios":"levelo://app?vid=a16f9a09-6148-4662-a78f-f57c7915e19d"},"vehicle_type_id":"4","last_reported":1727802486,"current_range_meters":2000,"station_id":"ce4bhb12rcd13ifvqem0","pricing_plan_id":"cebpf4jnsgd1na2vs0mg"},{"bike_id":"00834e0f-53c2-4ce4-a137-0d0e21a5f192","system_id":"levelo_inurba_marseille","lat":43.29258,"lon":5.40903,"is_reserved":false,"is_disabled":false,"rental_uris":{"android":"levelo://app?vid=00834e0f-53c2-4ce4-a137-0d0e21a5f192","ios":"levelo://app?vid=00834e0f-53c2-4ce4-a137-0d0e21a5f192"},"vehicle_type_id":"4","last_reported":1727802486,"current_range_meters":11200,"station_id":"ce4bh192rcd13ifvqdc0","pricing_plan_id":"cebpf4jnsgd1na2vs0mg"},{"bike_id":"ff40bebe-aacb-4851-82c5-44a9f99c3be6","system_id":"levelo_inurba_marseille","lat":43.33019,"lon":5.39042,"is_reserved":false,"is_disabled":false,"rental_uris":{"android":"levelo://app?vid=ff40bebe-aacb-4851-82c5-44a9f99c3be6","ios":"levelo://app?vid=ff40bebe-aacb-4851-82c5-44a9f99c3be6"},"vehicle_type_id":"4","last_reported":1727802486,"current_range_meters":6400,"station_id":"ce4bhr92rcd13ifvqhrg","pricing_plan_id":"cebpf4jnsgd1na2vs0mg"},{"bike_id":"fffe934c-2b9e-4cbf-aac8-411db68ce95f","system_id":"levelo_inurba_marseille","lat":43.300354,"lon":5.386514,"is_reserved":false,"is_disabled":false,"rental_uris":{"android":"levelo://app?vid=fffe934c-2b9e-4cbf-aac8-411db68ce95f","ios":"levelo://app?vid=fffe934c-2b9e-4cbf-aac8-411db68ce95f"},"vehicle_type_id":"4","last_reported":1727802486,"current_range_meters":17600,"station_id":"ce4bgj92rcd13ifvqbd0","pricing_plan_id":"cebpf4jnsgd1na2vs0mg"},{"bike_id":"66740ee2-2e55-420a-8110-30de6d8d3f39","system_id":"levelo_inurba_marseille","lat":43.32365,"lon":5.38881,"is_reserved":false,"is_disabled":false,"rental_uris":{"android":"levelo://app?vid=66740ee2-2e55-420a-8110-30de6d8d3f39","ios":"levelo://app?vid=66740ee2-2e55-420a-8110-30de6d8d3f39"},"vehicle_type_id":"4","last_reported":1727802486,"current_range_meters":12000,"station_id":"ce4bhqp2rcd13ifvqhog","pricing_plan_id":"cebpf4jnsgd1na2vs0mg"},{"bike_id":"6a1c0fb6-83f7-41c1-8f51-638093240112","system_id":"levelo_inurba_marseille","lat":43.29792,"lon":5.40398,"is_reserved":false,"is_disabled":false,"rental_uris":{"android":"levelo://app?vid=6a1c0fb6-83f7-41c1-8f51-638093240112","ios":"levelo://app?vid=6a1c0fb6-83f7-41c1-8f51-638093240112"},"vehicle_type_id":"4","last_reported":1727802486,"current_range_meters":24400,"station_id":"ce4bh112rcd13ifvqd90","pricing_plan_id":"cebpf4jnsgd1na2vs0mg"},{"bike_id":"f69da1ae-b901-48ef-93c4-7fdb3759883a","system_id":"levelo_inurba_marseille","lat":43.25091,"lon":5.39513,"is_reserved":false,"is_disabled":false,"rental_uris":{"android":"levelo://app?vid=f69da1ae-b901-48ef-93c4-7fdb3759883a","ios":"levelo://app?vid=f69da1ae-b901-48ef-93c4-7fdb3759883a"},"vehicle_type_id":"4","last_reported":1727802486,"current_range_meters":12400,"station_id":"ce4bhm12rcd13ifvqgkg","pricing_plan_id":"cebpf4jnsgd1na2vs0mg"},{"bike_id":"fd70c6f0-c78e-4680-b6a1-d9e489af59f2","system_id":"levelo_inurba_marseille","lat":43.28461,"lon":5.35889,"is_reserved":false,"is_disabled":false,"rental_uris":{"android":"levelo://app?vid=fd70c6f0-c78e-4680-b6a1-d9e489af59f2","ios":"levelo://app?vid=fd70c6f0-c78e-4680-b6a1-d9e489af59f2"},"vehicle_type_id":"4","last_reported":1727802486,"current_range_meters":23200,"station_id":"ce4bhah2rcd13ifvqei0","pricing_plan_id":"cebpf4jnsgd1na2vs0mg"},{"bike_id":"a0c0c261-5dab-4ed9-b99a-8878d4e94607","system_id":"levelo_inurba_marseille","lat":43.29267,"lon":5.38435,"is_reserved":false,"is_disabled":false,"rental_uris":{"android":"levelo://app?vid=a0c0c261-5dab-4ed9-b99a-8878d4e94607","ios":"levelo://app?vid=a0c0c261-5dab-4ed9-b99a-8878d4e94607"},"vehicle_type_id":"4","last_reported":1727802486,"current_range_meters":39200,"station_id":"ce4bh692rcd13ifvqea0","pricing_plan_id":"cebpf4jnsgd1na2vs0mg"},{"bike_id":"6f5907b5-bf8c-4f20-9eaf-7867ef5bef07","system_id":"levelo_inurba_marseille","lat":43.29053,"lon":5.35917,"is_reserved":false,"is_disabled":false,"rental_uris":{"android":"levelo://app?vid=6f5907b5-bf8c-4f20-9eaf-7867ef5bef07","ios":"levelo://app?vid=6f5907b5-bf8c-4f20-9eaf-7867ef5bef07"},"vehicle_type_id":"4","last_reported":1727802486,"current_range_meters":19200,"station_id":"ce4bha92rcd13ifvqeg0","pricing_plan_id":"cebpf4jnsgd1na2vs0mg"},{"bike_id":"cd84fa79-6767-4ba2-b4e0-f209c8381e89","system_id":"levelo_inurba_marseille","lat":43.28459,"lon":5.35894,"is_reserved":false,"is_disabled":false,"rental_uris":{"android":"levelo://app?vid=cd84fa79-6767-4ba2-b4e0-f209c8381e89","ios":"levelo://app?vid=cd84fa79-6767-4ba2-b4e0-f209c8381e89"},"vehicle_type_id":"4","last_reported":1727802486,"current_range_meters":12400,"station_id":"ce4bhah2rcd13ifvqei0","pricing_plan_id":"cebpf4jnsgd1na2vs0mg"},