{"last_updated":1722107190,"ttl":30,"version":"2.2","data":{"bikes":[{"bike_id":"175f8532-8063-44e9-8bbf-c2b727ed1a5b","system_id":"levelo_inurba_marseille","lat":43.312239,"lon":5.368562,"is_reserved":false,"is_disabled":false,"rental_uris":{"android":"levelo://app?vid=175f8532-8063-44e9-8bbf-c2b727ed1a5b","ios":"levelo://app?vid=175f8532-8063-44e9-8bbf-c2b727ed1a5b"},"vehicle_type_id":"4","last_reported":1722107190,"current_range_meters":0,"station_id":"ce4bgl92rcd13ifvqbq0","pricing_plan_id":"cebpf4jnsgd1na2vs0mg"},{"bike_id":"e96d014a-2249-49ac-b0cf-08009b5db9a8","system_id":"levelo_inurba_marseille","lat":43.309039,"lon":5.371797,"is_reserved":false,"is_disabled":false,"rental_uris":{"android":"levelo://app?vid=e96d014a-2249-49ac-b0cf-08009b5db9a8","ios":"levelo://app?vid=e96d014a-2249-49ac-b0cf-08009b5db9a8"},"vehicle_type_id":"4","last_reported":1722107190,"current_range_meters":800,"station_id":"ce4bguh2rcd13ifvqckg","pricing_plan_id":"cebpf4jnsgd1na2vs0mg"},{"bike_id":"52d0a3a6-13cf-4721-97c2-b818644c4fcc","system_id":"levelo_inurba_marseille","lat":43.309039,"lon":5.371797,"is_reserved":false,"is_disabled":false,"rental_uris":{"android":"levelo://app?vid=52d0a3a6-13cf-4721-97c2-b818644c4fcc","ios":"levelo://app?vid=52d0a3a6-13cf-4721-97c2-b818644c4fcc"},"vehicle_type_id":"4","last_reported":1722107190,"current_range_meters":16000,"station_id":"ce4bguh2rcd13ifvqckg","pricing_plan_id":"cebpf4jnsgd1na2vs0mg"},{"bike_id":"95e180c0-2a16-49b0-a4db-81f32be434d0","system_id":"levelo_inurba_marseille","lat":43.305712,"lon":5.365641,"is_reserved":false,"is_disabled":false,"rental_uris":{"android":"levelo://app?vid=95e180c0-2a16-49b0-a4db-81f32be434d0","ios":"levelo://app?vid=95e180c0-2a16-49b0-a4db-81f32be434d0"},"vehicle_type_id":"4","last_reported":1722107190,"current_range_meters":4800,"station_id":"ce4bgs12rcd13ifvqcag","pricing_plan_id":"cebpf4jnsgd1na2vs0mg"},{"bike_id":"36034a34-99c3-4fe2-828d-6d9ff23acf3a","system_id":"levelo_inurba_marseille","lat":43.305714,"lon":5.365633,"is_reserved":false,"is_disabled":false,"rental_uris":{"android":"levelo://app?vid=36034a34-99c3-4fe2-828d-6d9ff23acf3a","ios":"levelo://app?vid=36034a34-99c3-4fe2-828d-6d9ff23acf3a"},"vehicle_type_id":"4","last_reported":1722107190,"current_range_meters":11600,"station_id":"ce4bgs12rcd13ifvqcag","pricing_plan_id":"cebpf4jnsgd1na2vs0mg"},{"bike_id":"615afa91-f8d0-48ef-9c14-b360a673dc75","system_id":"levelo_inurba_marseille","lat":43.305368,"lon":5.367343,"is_reserved":false,"is_disabled":false,"rental_uris":{"android":"levelo://app?vid=615afa91-f8d0-48ef-9c14-b360a673dc75","ios":"levelo://app?vid=615afa91-f8d0-48ef-9c14-b360a673dc75"},"vehicle_type_id":"4","last_reported":1722107190,"current_range_meters":15200,"station_id":"ce4bgrp2rcd13ifvqc9g","pricing_plan_id":"cebpf4jnsgd1na2vs0mg"},{"bike_id":"dcc655ee-2805-4a14-93de-89bc34d4af6c","system_id":"levelo_inurba_marseille","lat":43.30537,"lon":5.367345,"is_reserved":false,"is_disabled":false,"rental_uris":{"android":"levelo://app?vid=dcc655ee-2805-4a14-93de-89bc34d4af6c","ios":"levelo://app?vid=dcc655ee-2805-4a14-93de-89bc34d4af6c"},"vehicle_type_id":"4","last_reported":1722107190,"current_range_meters":0,"station_id":"ce4bgrp2rcd13ifvqc9g","pricing_plan_id":"cebpf4jnsgd1na2vs0mg"},{"bike_id":"d5115a36-75ef-4626-b3f4-e557424b3767","system_id":"levelo_inurba_marseille","lat":43.305989,"lon":5.37225,"is_reserved":false,"is_disabled":false,"rental_uris":{"android":"levelo://app?vid=d5115a36-75ef-4626-b3f4-e557424b3767","ios":"levelo://app?vid=d5115a36-75ef-4626-b3f4-e557424b3767"},"vehicle_type_id":"4","last_reported":1722107190,"current_range_meters":0,"station_id":"ce4bgqh2rcd13ifvqc4g","pricing_plan_id":"cebpf4jnsgd1na2vs0mg"},{"bike_id":"ccc20806-246c-4c20-a901-dbd8f9c60ba4","system_id":"levelo_inurba_marseille","lat":43.311131,"lon":5.377651,"is_reserved":false,"is_disabled":false,"rental_uris":{"android":"levelo://app?vid=ccc20806-246c-4c20-a901-dbd8f9c60ba4","ios":"levelo://app?vid=ccc20806-246c-4c20-a901-dbd8f9c60ba4"},"vehicle_type_id":"4","last_reported":1722107190,"current_range_meters":7200,"station_id":"ce4bgt92rcd13ifvqcg0","pricing_plan_id":"cebpf4jnsgd1na2vs0mg"},{"bike_id":"e46d1b58-cecb-44d0-9745-2aa103c290a3","system_id":"levelo_inurba_marseille","lat":43.310804,"lon":5.38359,"is_reserved":false,"is_disabled":false,"rental_uris":{"android":"levelo://app?vid=e46d1b58-cecb-44d0-9745-2aa103c290a3","ios":"levelo://app?vid=e46d1b58-cecb-44d0-9745-2aa103c290a3"},"vehicle_type_id":"4","last_reported":1722107190,"current_range_meters":8800,"station_id":"ce4bgv92rcd13ifvqcr0","pricing_plan_id":"cebpf4jnsgd1na2vs0mg"},{"bike_id":"2f23911f-bbc0-41c3-ad1f-5a9701a2e149","system_id":"levelo_inurba_marseille","lat":43.317075,"lon":5.377367,"is_reserved":false,"is_disabled":false,"rental_uris":{"android":"levelo://app?vid=2f23911f-bbc0-41c3-ad1f-5a9701a2e149","ios":"levelo://app?vid=2f23911f-bbc0-41c3-ad1f-5a9701a2e149"},"vehicle_type_id":"4","last_reported":1722107190,"current_range_meters":11600,"station_id":"ce4bgth2rcd13ifvqch0","pricing_plan_id":"cebpf4jnsgd1na2vs0mg"},{"bike_id":"e9eb63b3-c68c-4cc2-84d1-9dc546d94f38","system_id":"levelo_inurba_marseille","lat":43.317075,"lon":5.377367,"is_reserved":false,"is_disabled":false,"rental_uris":{"android":"levelo://app?vid=e9eb63b3-c68c-4cc2-84d1-9dc546d94f38","ios":"levelo://app?vid=e9eb63b3-c68c-4cc2-84d1-9dc546d94f38"},"vehicle_type_id":"4","last_reported":1722107190,"current_range_meters":24800,"station_id":"ce4bgth2rcd13ifvqch0","pricing_plan_id":"cebpf4jnsgd1na2vs0mg"},{"bike_id":"c8aea2a7-5d2c-4894-8f5f-47a1b8f9b5f0","system_id":"levelo_inurba_marseille","lat":43.30961,"lon":5.37958,"is_reserved":false,"is_disabled":false,"rental_uris":{"android":"levelo://app?vid=c8aea2a7-5d2c-4894-8f5f-47a1b8f9b5f0","ios":"levelo://app?vid=c8aea2a7-5d2c-4894-8f5f-47a1b8f9b5f0"},"vehicle_type_id":"4","last_reported":1722107190,"current_range_meters":15200,"station_id":"","pricing_plan_id":"cebpf4jnsgd1na2vs0mg"},{"bike_id":"b00f24e9-622d-4e11-a4d8-825e2cc0af18","system_id":"levelo_inurba_marseille","lat":43.30304,"lon":5.368987,"is_reserved":false,"is_disabled":false,"rental_uris":{"android":"levelo://app?vid=b00f24e9-622d-4e11-a4d8-825e2cc0af18","ios":"levelo://app?vid=b00f24e9-622d-4e11-a4d8-825e2cc0af18"},"vehicle_type_id":"4","last_reported":1722107190,"current_range_meters":800,"station_id":"ce4bgqh2rcd13ifvqc5g","pricing_plan_id":"cebpf4jnsgd1na2vs0mg"},{"bike_id":"976c7f94-1def-4d3e-88a5-fb33a16ffe96","system_id":"levelo_inurba_marseille","lat":43.303046,"lon":5.368981,"is_reserved":false,"is_disabled":false,"rental_uris":{"android":"levelo://app?vid=976c7f94-1def-4d3e-88a5-fb33a16ffe96","ios":"levelo://app?vid=976c7f94-1def-4d3e-88a5-fb33a16ffe96"},"vehicle_type_id":"4","last_reported":1722107190,"current_range_meters":25600,"station_id":"ce4bgqh2rcd13ifvqc5g","pricing_plan_id":"cebpf4jnsgd1na2vs0mg"},{"bike_id":"596ecefb-2866-408f-b3f7-5cc9bb4f3130","system_id":"levelo_inurba_marseille","lat":43.315289,"lon":5.380349,"is_reserved":false,"is_disabled":false,"rental_uris":{"android":"levelo://app?vid=596ecefb-2866-408f-b3f7-5cc9bb4f3130","ios":"levelo://app?vid=596ecefb-2866-408f-b3f7-5cc9bb4f3130"},"vehicle_type_id":"4","last_reported":1722107190,"current_range_meters":28400,"station_id":"ce4bhsp2rcd13ifvqi50","pricing_plan_id":"cebpf4jnsgd1na2vs0mg"},{"bike_id":"cf6d9d36-a9ce-4c51-a442-965e86d42c84","system_id":"levelo_inurba_marseille","lat":43.31555,"lon":5.38034,"is_reserved":false,"is_disabled":false,"rental_uris":{"android":"levelo://app?vid=cf6d9d36-a9ce-4c51-a442-965e86d42c84","ios":"levelo://app?vid=cf6d9d36-a9ce-4c51-a442-965e86d42c84"},"vehicle_type_id":"4","last_reported":1722107190,"current_range_meters":12000,"station_id":"ce4bhsp2rcd13ifvqi50","pricing_plan_id":"cebpf4jnsgd1na2vs0mg"},{"bike_id":"580b919d-ede9-440a-a29b-e1e8d3bbc1ec","system_id":"levelo_inurba_marseille","lat":43.301939,"lon":5.366286,"is_reserved":false,"is_disabled":false,"rental_uris":{"android":"levelo://app?vid=580b919d-ede9-440a-a29b-e1e8d3bbc1ec","ios":"levelo://app?vid=580b919d-ede9-440a-a29b-e1e8d3bbc1ec"},"vehicle_type_id":"4","last_reported":1722107190,"current_range_meters":4000,"station_id":"ce4bgrh2rcd13ifvqc8g","pricing_plan_id":"cebpf4jnsgd1na2vs0mg"},{"bike_id":"344fd01f-dcc8-4830-bf77-b77db61022fe","system_id":"levelo_inurba_marseille","lat":43.308007,"lon":5.3814,"is_reserved":false,"is_disabled":false,"rental_uris":{"android":"levelo://app?vid=344fd01f-dcc8-4830-bf77-b77db61022fe","ios":"levelo://app?vid=344fd01f-dcc8-4830-bf77-b77db61022fe"},"vehicle_type_id":"4","last_reported":1722107190,"current_range_meters":0,"station_id":"ce4bgt12rcd13ifvqce0","pricing_plan_id":"cebpf4jnsgd1na2vs0mg"},{"bike_id":"71dc7b89-1c82-4c0e-b23b-8e51da8f9a24","system_id":"levelo_inurba_marseille","lat":43.308012,"lon":5.381511,"is_reserved":false,"is_disabled":false,"rental_uris":{"android":"levelo://app?vid=71dc7b89-1c82-4c0e-b23b-8e51da8f9a24","ios":"levelo://app?vid=71dc7b89-1c82-4c0e-b23b-8e51da8f9a24"},"vehicle_type_id":"4","last_reported":1722107190,"current_range_meters":800,"station_id":"ce4bgt12rcd13ifvqce0","pricing_plan_id":"cebpf4jnsgd1na2vs0mg"},{"bike_id":"7fc59e34-6f40-4e8f-8e9c-e8bea02bf36c","system_id":"levelo_inurba_marseille","lat":43.324771,"lon":5.36557,"is_reserved":false,"is_disabled":false,"rental_uris":{"android":"levelo://app?vid=7fc59e34-6f40-4e8f-8e9c-e8bea02bf36c","ios":"levelo://app?vid=7fc59e34-6f40-4e8f-8e9c-e8bea02bf36c"},"vehicle_type_id":"4","last_reported":1722107190,"current_range_meters":28800,"station_id":"ce4bhs12rcd13ifvqhvg","pricing_plan_id":"cebpf4jnsgd1na2vs0mg"},{"bike_id":"3b1973cc-3e92-4fc1-b567-dab2cb5a2d48","system_id":"levelo_inurba_marseille","lat":43.324771,"lon":5.36557,"is_reserved":false,"is_disabled":false,"rental_uris":{"android":"levelo://app?vid=3b1973cc-3e92-4fc1-b567-dab2cb5a2d48","ios":"levelo://app?vid=3b1973cc-3e92-4fc1-b567-dab2cb5a2d48"},"vehicle_type_id":"4","last_reported":1722107190,"current_range_meters":0,"station_id":"ce4bhs12rcd13ifvqhvg","pricing_plan_id":"cebpf4jnsgd1na2vs0mg"},{"bike_id":"a9bb2acc-40ee-4783-9004-e4537b5713af","system_id":"levelo_inurba_marseille","lat":43.324771,"lon":5.36557,"is_reserved":false,"is_disabled":false,"rental_uris":{"android":"levelo://app?vid=a9bb2acc-40ee-4783-9004-e4537b5713af","ios":"levelo://app?vid=a9bb2acc-40ee-4783-9004-e4537b5713af"},"vehicle_type_id":"4","last_reported":1722107190,"current_range_meters":31200,"station_id":"ce4bhs12rcd13ifvqhvg","pricing_plan_id":"cebpf4jnsgd1na2vs0mg"},{"bike_id":"c9da0850-f533-4067-9fc0-85d026a47bcd","system_id":"levelo_inurba_marseille","lat":43.30143,"lon":5.37413,"is_reserved":false,"is_disabled":false,"rental_uris":{"android":"levelo://app?vid=c9da0850-f533-4067-9fc0-85d026a47bcd","ios":"levelo://app?vid=c9da0850-f533-4067-9fc0-85d026a47bcd"},"vehicle_type_id":"4","last_reported":1722107190,"current_range_meters":22000,"station_id":"ce4bgs92rcd13ifvqcc0","pricing_plan_id":"cebpf4jnsgd1na2vs0mg"},{"bike_id":"87e0b6bf-dd89-42d7-b930-decf786c8aa1","system_id":"levelo_inurba_marseille","lat":43.301429,"lon":5.37413,"is_reserved":false,"is_disabled":false,"rental_uris":{"android":"levelo://app?vid=87e0b6bf-dd89-42d7-b930-decf786c8aa1","ios":"levelo://app?vid=87e0b6bf-dd89-42d7-b930-decf786c8aa1"},"vehicle_type_id":"4","last_reported":1722107190,"current_range_meters":17600,"station_id":"ce4bgs92rcd13ifvqcc0","pricing_plan_id":"cebpf4jnsgd1na2vs0mg"},{"bike_id":"de501cfe-f812-467f-a9d2-57e4263c4ed1","system_id":"levelo_inurba_marseille","lat":43.313571,"lon":5.384829,"is_reserved":false,"is_disabled":false,"rental_uris":{"android":"levelo://app?vid=de501cfe-f812-467f-a9d2-57e4263c4ed1","ios":"levelo://app?vid=de501cfe-f812-467f-a9d2-57e4263c4ed1"},"vehicle_type_id":"4","last_reported":1722107190,"current_range_meters":1600,"station_id":"ce4bgt92rcd13ifvqcf0","pricing_plan_id":"cebpf4jnsgd1na2vs0mg"},{"bike_id":"aac16ff0-e093-49b0-b1f1-57bb6bd9ea79","system_id":"levelo_inurba_marseille","lat":43.313571,"lon":5.384829,"is_reserved":false,"is_disabled":false,"rental_uris":{"android":"levelo://app?vid=aac16ff0-e093-49b0-b1f1-57bb6bd9ea79","ios":"levelo://app?vid=aac16ff0-e093-49b0-b1f1-57bb6bd9ea79"},"vehicle_type_id":"4","last_reported":1722107190,"current_range_meters":12400,"station_id":"ce4bgt92rcd13ifvqcf0","pricing_plan_id":"cebpf4jnsgd1na2vs0mg"},{"bike_id":"92c92d7f-6c84-415d-8c43-d3cb879ac960","system_id":"levelo_inurba_marseille","lat":43.3,"lon":5.371787,"is_reserved":false,"is_disabled":false,"rental_uris":{"android":"levelo://app?vid=92c92d7f-6c84-415d-8c43-d3cb879ac960","ios":"levelo://app?vid=92c92d7f-6c84-415d-8c43-d3cb879ac960"},"vehicle_type_id":"4","last_reported":1722107190,"current_range_meters":21600,"station_id":"ce4bgr92rcd13ifvqc7g","pricing_plan_id":"cebpf4jnsgd1na2vs0mg"},{"bike_id":"495804c8-1f8c-40a3-b6c0-447d974fdb2f","system_id":"levelo_inurba_marseille","lat":43.299222,"lon":5.365554,"is_reserved":false,"is_disabled":false,"rental_uris":{"android":"levelo://app?vid=495804c8-1f8c-40a3-b6c0-447d974fdb2f","ios":"levelo://app?vid=495804c8-1f8c-40a3-b6c0-447d974fdb2f"},"vehicle_type_id":"4","last_reported":1722107190,"current_range_meters":25200,"station_id":"ce4bgm92rcd13ifvqbr0","pricing_plan_id":"cebpf4jnsgd1na2vs0mg"},{"bike_id":"97226555-55ce-4fbd-896b-a0caa9c73bc5","system_id":"levelo_inurba_marseille","lat":43.29936,"lon":5.3655,"is_reserved":false,"is_disabled":false,"rental_uris":{"android":"levelo://app?vid=97226555-55ce-4fbd-896b-a0caa9c73bc5","ios":"levelo://app?vid=97226555-55ce-4fbd-896b-a0caa9c73bc5"},"vehicle_type_id":"4","last_reported":1722107190,"current_range_meters":0,"station_id":"ce4bgm92rcd13ifvqbr0","pricing_plan_id":"cebpf4jnsgd1na2vs0mg"},{"bike_id":"5d03a274-5d88-42fb-a8e5-9b46a8961776","system_id":"levelo_inurba_marseille","lat":43.299222,"lon":5.365554,"is_reserved":false,"is_disabled":false,"rental_uris":{"android":"levelo://app?vid=5d03a274-5d88-42fb-a8e5-9b46a8961776","ios":"levelo://app?vid=5d03a274-5d88-42fb-a8e5-9b46a8961776"},"vehicle_type_id":"4","last_reported":1722107190,"current_range_meters":20800,"station_id":"ce4bgm92rcd13ifvqbr0","pricing_plan_id":"cebpf4jnsgd1na2vs0mg"},{"bike_id":"451111f3-f52d-4c10-bfe4-c198fc10406e","system_id":"levelo_inurba_marseille","lat":43.29929,"lon":5.36549,"is_reserved":false,"is_disabled":false,"rental_uris":{"android":"levelo://app?vid=451111f3-f52d-4c10-bfe4-c198fc10406e","ios":"levelo://app?vid=451111f3-f52d-4c10-bfe4-c198fc10406e"},"vehicle_type_id":"4","last_reported":1722107190,"current_range_meters":26800,"station_id":"ce4bgm92rcd13ifvqbr0","pricing_plan_id":"cebpf4jnsgd1na2vs0mg"},{"bike_id":"e65fa7e2-7e0e-403e-b7b5-5c3f8100e3ee","system_id":"levelo_inurba_marseille","lat":43.299724,"lon":5.371829,"is_reserved":false,"is_disabled":false,"rental_uris":{"android":"levelo://app?vid=e65fa7e2-7e0e-403e-b7b5-5c3f8100e3ee","ios":"levelo://app?vid=e65fa7e2-7e0e-403e-b7b5-5c3f8100e3ee"},"vehicle_type_id":"4","last_reported":1722107190,"current_range_meters":18800,"station_id":"ce4bgr92rcd13ifvqc7g","pricing_plan_id":"cebpf4jnsgd1na2vs0mg"},{"bike_id":"7b0d5a24-1fd7-45c6-89c6-5c233c3b1c3e","system_id":"levelo_inurba_marseille","lat":43.29956,"lon":5.37394,"is_reserved":false,"is_disabled":false,"rental_uris":{"android":"levelo://app?vid=7b0d5a24-1fd7-45c6-89c6-5c233c3b1c3e","ios":"levelo://app?vid=7b0d5a24-1fd7-45c6-89c6-5c233c3b1c3e"},"vehicle_type_id":"4","last_reported":1722107190,"current_range_meters":8800,"station_id":"","pricing_plan_id":"cebpf4jnsgd1na2vs0mg"},{"bike_id":"745d62c4-cb32-426d-9642-40c7992c320d","system_id":"levelo_inurba_marseille","lat":43.298433,"lon":5.362774,"is_reserved":false,"is_disabled":false,"rental_uris":{"android":"levelo://app?vid=745d62c4-cb32-426d-9642-40c7992c320d","ios":"levelo://app?vid=745d62c4-cb32-426d-9642-40c7992c320d"},"vehicle_type_id":"4","last_reported":1722107190,"current_range_meters":5600,"station_id":"ce4bgpp2rcd13ifvqc3g","pricing_plan_id":"cebpf4jnsgd1na2vs0mg"},{"bike_id":"894ab76b-cc5d-4638-8aca-1746bdadcd76","system_id":"levelo_inurba_marseille","lat":43.305364,"lon":5.384119,"is_reserved":false,"is_disabled":false,"rental_uris":{"android":"levelo://app?vid=894ab76b-cc5d-4638-8aca-1746bdadcd76","ios":"levelo://app?vid=894ab76b-cc5d-4638-8aca-1746bdadcd76"},"vehicle_type_id":"4","last_reported":1722107190,"current_range_meters":28800,"station_id":"ce4bgg92rcd13ifvqb30","pricing_plan_id":"cebpf4jnsgd1na2vs0mg"},{"bike_id":"7d9de8cd-ec47-4d89-a9cf-72a91f5b2db3","system_id":"levelo_inurba_marseille","lat":43.298433,"lon":5.362774,"is_reserved":false,"is_disabled":false,"rental_uris":{"android":"levelo://app?vid=7d9de8cd-ec47-4d89-a9cf-72a91f5b2db3","ios":"levelo://app?vid=7d9de8cd-ec47-4d89-a9cf-72a91f5b2db3"},"vehicle_type_id":"4","last_reported":1722107190,"current_range_meters":10800,"station_id":"ce4bgpp2rcd13ifvqc3g","pricing_plan_id":"cebpf4jnsgd1na2vs0mg"},{"bike_id":"69c16251-9c63-4a14-8790-984c23a7e0b1","system_id":"levelo_inurba_marseille","lat":43.31179,"lon":5.38712,"is_reserved":false,"is_disabled":false,"rental_uris":{"android":"levelo://app?vid=69c16251-9c63-4a14-8790-984c23a7e0b1","ios":"levelo://app?vid=69c16251-9c63-4a14-8790-984c23a7e0b1"},"vehicle_type_id":"4","last_reported":1722107190,"current_range_meters":0,"station_id":"ce4bgv12rcd13ifvqcp0","pricing_plan_id":"cebpf4jnsgd1na2vs0mg"},{"bike_id":"7b57a55d-b650-44b3-8ec0-b3b43670bf77","system_id":"levelo_inurba_marseille","lat":43.299243,"lon":5.374807,"is_reserved":false,"is_disabled":false,"rental_uris":{"android":"levelo://app?vid=7b57a55d-b650-44b3-8ec0-b3b43670bf77","ios":"levelo://app?vid=7b57a55d-b650-44b3-8ec0-b3b43670bf77"},"vehicle_type_id":"4","last_reported":1722107190,"current_range_meters":25600,"station_id":"ce4bgjh2rcd13ifvqbg0","pricing_plan_id":"cebpf4jnsgd1na2vs0mg"},{"bike_id":"16efffc8-f875-4e55-8075-13dcdca400e3","system_id":"levelo_inurba_marseille","lat":43.29776,"lon":5.37097,"is_reserved":false,"is_disabled":false,"rental_uris":{"android":"levelo://app?vid=16efffc8-f875-4e55-8075-13dcdca400e3","ios":"levelo://app?vid=16efffc8-f875-4e55-8075-13dcdca400e3"},"vehicle_type_id":"4","last_reported":1722107190,"current_range_meters":0,"station_id":"ce4bgop2rcd13ifvqc1g","pricing_plan_id":"cebpf4jnsgd1na2vs0mg"},{"bike_id":"8ad7d1f0-36ba-4891-8a86-274947aa917f","system_id":"levelo_inurba_marseille","lat":43.322872,"lon":5.382756,"is_reserved":false,"is_disabled":false,"rental_uris":{"android":"levelo://app?vid=8ad7d1f0-36ba-4891-8a86-274947aa917f","ios":"levelo://app?vid=8ad7d1f0-36ba-4891-8a86-274947aa917f"},"vehicle_type_id":"4","last_reported":1722107190,"current_range_meters":23600,"station_id":"ce4bhr12rcd13ifvqhqg","pricing_plan_id":"cebpf4jnsgd1na2vs0mg"},{"bike_id":"75fa0209-25b6-4616-a91e-0452dfb73892","system_id":"levelo_inurba_marseille","lat":43.314572,"lon":5.388284,"is_reserved":false,"is_disabled":false,"rental_uris":{"android":"levelo://app?vid=75fa0209-25b6-4616-a91e-0452dfb73892","ios":"levelo://app?vid=75fa0209-25b6-4616-a91e-0452dfb73892"},"vehicle_type_id":"4","last_reported":1722107190,"current_range_meters":9600,"station_id":"","pricing_plan_id":"cebpf4jnsgd1na2vs0mg"},{"bike_id":"a8b16c71-340c-4626-b737-cc8d4e230374","system_id":"levelo_inurba_marseille","lat":43.297163,"lon":5.365866,"is_reserved":false,"is_disabled":false,"rental_uris":{"android":"levelo://app?vid=a8b16c71-340c-4626-b737-cc8d4e230374","ios":"levelo://app?vid=a8b16c71-340c-4626-b737-cc8d4e230374"},"vehicle_type_id":"4","last_reported":1722107190,"current_range_meters":400,"station_id":"ce4bgn12rcd13ifvqbt0","pricing_plan_id":"cebpf4jnsgd1na2vs0mg"},{"bike_id":"57dfd695-6157-4e77-832a-9b38fad1b231","system_id":"levelo_inurba_marseille","lat":43.297163,"lon":5.365866,"is_reserved":false,"is_disabled":false,"rental_uris":{"android":"levelo://app?vid=57dfd695-6157-4e77-832a-9b38fad1b231","ios":"levelo://app?vid=57dfd695-6157-4e77-832a-9b38fad1b231"},"vehicle_type_id":"4","last_reported":1722107190,"current_range_meters":27600,"station_id":"ce4bgn12rcd13ifvqbt0","pricing_plan_id":"cebpf4jnsgd1na2vs0mg"},{"bike_id":"bb1d7735-0716-47be-bc6e-b3785c682dbe","system_id":"levelo_inurba_marseille","lat":43.297163,"lon":5.365866,"is_reserved":false,"is_disabled":false,"rental_uris":{"android":"levelo://app?vid=bb1d7735-0716-47be-bc6e-b3785c682dbe","ios":"levelo://app?vid=bb1d7735-0716-47be-bc6e-b3785c682dbe"},"vehicle_type_id":"4","last_reported":1722107190,"current_range_meters":11600,"station_id":"ce4bgn12rcd13ifvqbt0","pricing_plan_id":"cebpf4jnsgd1na2vs0mg"},{"bike_id":"caa4d158-6046-4836-b60f-41254c6196dc","system_id":"levelo_inurba_marseille","lat":43.3236,"lon":5.38335,"is_reserved":false,"is_disabled":false,"rental_uris":{"android":"levelo://app?vid=caa4d158-6046-4836-b60f-41254c6196dc","ios":"levelo://app?vid=caa4d158-6046-4836-b60f-41254c6196dc"},"vehicle_type_id":"4","last_reported":1722107190,"current_range_meters":22800,"station_id":"","pricing_plan_id":"cebpf4jnsgd1na2vs0mg"},{"bike_id":"1775defe-ac4c-416f-8104-89dc515abed6","system_id":"levelo_inurba_marseille","lat":43.32359,"lon":5.38341,"is_reserved":false,"is_disabled":false,"rental_uris":{"android":"levelo://app?vid=1775defe-ac4c-416f-8104-89dc515abed6","ios":"levelo://app?vid=1775defe-ac4c-416f-8104-89dc515abed6"},"vehicle_type_id":"4","last_reported":1722107190,"current_range_meters":3200,"station_id":"","pricing_plan_id":"cebpf4jnsgd1na2vs0mg"},{"bike_id":"77ebd6f7-0e15-4246-8feb-b1d720ac899a","system_id":"levelo_inurba_marseille","lat":43.300434,"lon":5.382081,"is_reserved":false,"is_disabled":false,"rental_uris":{"android":"levelo://app?vid=77ebd6f7-0e15-4246-8feb-b1d720ac899a","ios":"levelo://app?vid=77ebd6f7-0e15-4246-8feb-b1d720ac899a"},"vehicle_type_id":"4","last_reported":1722107190,"current_range_meters":18400,"station_id":"","pricing_plan_id":"cebpf4jnsgd1na2vs0mg"},{"bike_id":"dd518862-10a2-4ed3-92a4-d320fa37d05e","system_id":"levelo_inurba_marseille","lat":43.296131,"lon":5.370791,"is_reserved":false,"is_disabled":false,"rental_uris":{"android":"levelo://app?vid=dd518862-10a2-4ed3-92a4-d320fa37d05e","ios":"levelo://app?vid=dd518862-10a2-4ed3-92a4-d320fa37d05e"},"vehicle_type_id":"4","last_reported":1722107190,"current_range_meters":800,"station_id":"ce4bgnh2rcd13ifvqc0g","pricing_plan_id":"cebpf4jnsgd1na2vs0mg"},{"bike_id":"d86ed249-ad17-460a-83df-7c8d544414af","system_id":"levelo_inurba_marseille","lat":43.29585,"lon":5.36748,"is_reserved":false,"is_disabled":false,"rental_uris":{"android":"levelo://app?vid=d86ed249-ad17-460a-83df-7c8d544414af","ios":"levelo://app?vid=d86ed249-ad17-460a-83df-7c8d544414af"},"vehicle_type_id":"4","last_reported":1722107190,"current_range_meters":0,"station_id":"ce4bgph2rcd13ifvqc2g","pricing_plan_id":"cebpf4jnsgd1na2vs0mg"},{"bike_id":"4f3576b2-1e42-4b7b-ac8c-553682c7f69b","system_id":"levelo_inurba_marseille","lat":43.296129,"lon":5.370777,"is_reserved":false,"is_disabled":false,"rental_uris":{"android":"levelo://app?vid=4f3576b2-1e42-4b7b-ac8c-553682c7f69b","ios":"levelo://app?vid=4f3576b2-1e42-4b7b-ac8c-553682c7f69b"},"vehicle_type_id":"4","last_reported":1722107190,"current_range_meters":23600,"station_id":"ce4bgnh2rcd13ifvqc0g","pricing_plan_id":"cebpf4jnsgd1na2vs0mg"},{"bike_id":"b1d7b27e-fef1-405c-8a54-bbf2d235d3c8","system_id":"levelo_inurba_marseille","lat":43.29911,"lon":5.38089,"is_reserved":false,"is_disabled":false,"rental_uris":{"android":"levelo://app?vid=b1d7b27e-fef1-405c-8a54-bbf2d235d3c8","ios":"levelo://app?vid=b1d7b27e-fef1-405c-8a54-bbf2d235d3c8"},"vehicle_type_id":"4","last_reported":1722107190,"current_range_meters":28400,"station_id":"","pricing_plan_id":"cebpf4jnsgd1na2vs0mg"},{"bike_id":"70d86b59-cb95-4f27-b863-2cf79d0ca8d0","system_id":"levelo_inurba_marseille","lat":43.296935,"lon":5.376544,"is_reserved":false,"is_disabled":false,"rental_uris":{"android":"levelo://app?vid=70d86b59-cb95-4f27-b863-2cf79d0ca8d0","ios":"levelo://app?vid=70d86b59-cb95-4f27-b863-2cf79d0ca8d0"},"vehicle_type_id":"4","last_reported":1722107190,"current_range_meters":31200,"station_id":"ce4bgkh2rcd13ifvqbl0","pricing_plan_id":"cebpf4jnsgd1na2vs0mg"},{"bike_id":"1ba82349-45a2-49c7-9d44-aa5804c74be9","system_id":"levelo_inurba_marseille","lat":43.29933,"lon":5.38142,"is_reserved":false,"is_disabled":false,"rental_uris":{"android":"levelo://app?vid=1ba82349-45a2-49c7-9d44-aa5804c74be9","ios":"levelo://app?vid=1ba82349-45a2-49c7-9d44-aa5804c74be9"},"vehicle_type_id":"4","last_reported":1722107190,"current_range_meters":28800,"station_id":"ce4bgj12rcd13ifvqbc0","pricing_plan_id":"cebpf4jnsgd1na2vs0mg"},{"bike_id":"55cd20ce-331b-4da1-8551-716fc56d9d60","system_id":"levelo_inurba_marseille","lat":43.296921,"lon":5.376579,"is_reserved":false,"is_disabled":false,"rental_uris":{"android":"levelo://app?vid=55cd20ce-331b-4da1-8551-716fc56d9d60","ios":"levelo://app?vid=55cd20ce-331b-4da1-8551-716fc56d9d60"},"vehicle_type_id":"4","last_reported":1722107190,"current_range_meters":20800,"station_id":"ce4bgkh2rcd13ifvqbl0","pricing_plan_id":"cebpf4jnsgd1na2vs0mg"},{"bike_id":"2ed87118-a743-4905-a191-f63c0de22ba3","system_id":"levelo_inurba_marseille","lat":43.296935,"lon":5.376544,"is_reserved":false,"is_disabled":false,"rental_uris":{"android":"levelo://app?vid=2ed87118-a743-4905-a191-f63c0de22ba3","ios":"levelo://app?vid=2ed87118-a743-4905-a191-f63c0de22ba3"},"vehicle_type_id":"4","last_reported":1722107190,"current_range_meters":22400,"station_id":"ce4bgkh2rcd13ifvqbl0","pricing_plan_id":"cebpf4jnsgd1na2vs0mg"},{"bike_id":"b6ba23d5-07f8-4822-8e07-46ea96c97308","system_id":"levelo_inurba_marseille","lat":43.296921,"lon":5.376579,"is_reserved":false,"is_disabled":false,"rental_uris":{"android":"levelo://app?vid=b6ba23d5-07f8-4822-8e07-46ea96c97308","ios":"levelo://app?vid=b6ba23d5-07f8-4822-8e07-46ea96c97308"},"vehicle_type_id":"4","last_reported":1722107190,"current_range_meters":28400,"station_id":"ce4bgkh2rcd13ifvqbl0","pricing_plan_id":"cebpf4jnsgd1na2vs0mg"},{"bike_id":"12db9ed1-c86f-4864-bf51-d5690107a31e","system_id":"levelo_inurba_marseille","lat":43.29718,"lon":5.37695,"is_reserved":false,"is_disabled":false,"rental_uris":{"android":"levelo://app?vid=12db9ed1-c86f-4864-bf51-d5690107a31e","ios":"levelo://app?vid=12db9ed1-c86f-4864-bf51-d5690107a31e"},"vehicle_type_id":"4","last_reported":1722107190,"current_range_meters":24800,"station_id":"ce4bgkh2rcd13ifvqbl0","pricing_plan_id":"cebpf4jnsgd1na2vs0mg"},{"bike_id":"84d84f6e-33a1-4064-957d-961cea40ca2b","system_id":"levelo_inurba_marseille","lat":43.29711,"lon":5.37693,"is_reserved":false,"is_disabled":false,"rental_uris":{"android":"levelo://app?vid=84d84f6e-33a1-4064-957d-961cea40ca2b","ios":"levelo://app?vid=84d84f6e-33a1-4064-957d-961cea40ca2b"},"vehicle_type_id":"4","last_reported":1722107190,"current_range_meters":0,"station_id":"ce4bgkh2rcd13ifvqbl0","pricing_plan_id":"cebpf4jnsgd1na2vs0mg"},{"bike_id":"3d779d8e-a9fe-498d-9b4f-9ba59aa542ef","system_id":"levelo_inurba_marseille","lat":43.30951,"lon":5.39022,"is_reserved":false,"is_disabled":false,"rental_uris":{"android":"levelo://app?vid=3d779d8e-a9fe-498d-9b4f-9ba59aa542ef","ios":"levelo://app?vid=3d779d8e-a9fe-498d-9b4f-9ba59aa542ef"},"vehicle_type_id":"4","last_reported":1722107190,"current_range_meters":6000,"station_id":"ce4bgup2rcd13ifvqco0","pricing_plan_id":"cebpf4jnsgd1na2vs0mg"},{"bike_id":"e37759d2-2067-4c05-84ab-10b0452b624c","system_id":"levelo_inurba_marseille","lat":43.30951,"lon":5.39023,"is_reserved":false,"is_disabled":false,"rental_uris":{"android":"levelo://app?vid=e37759d2-2067-4c05-84ab-10b0452b624c","ios":"levelo://app?vid=e37759d2-2067-4c05-84ab-10b0452b624c"},"vehicle_type_id":"4","last_reported":1722107190,"current_range_meters":6400,"station_id":"ce4bgup2rcd13ifvqco0","pricing_plan_id":"cebpf4jnsgd1na2vs0mg"},{"bike_id":"1f9d7aa7-9370-493a-a66b-abe1f5dde882","system_id":"levelo_inurba_marseille","lat":43.309589,"lon":5.390258,"is_reserved":false,"is_disabled":false,"rental_uris":{"android":"levelo://app?vid=1f9d7aa7-9370-493a-a66b-abe1f5dde882","ios":"levelo://app?vid=1f9d7aa7-9370-493a-a66b-abe1f5dde882"},"vehicle_type_id":"4","last_reported":1722107190,"current_range_meters":4800,"station_id":"ce4bgup2rcd13ifvqco0","pricing_plan_id":"cebpf4jnsgd1na2vs0mg"},{"bike_id":"089fbf63-f655-4fc7-9c85-a5752b77f3dc","system_id":"levelo_inurba_marseille","lat":43.309589,"lon":5.390258,"is_reserved":false,"is_disabled":false,"rental_uris":{"android":"levelo://app?vid=089fbf63-f655-4fc7-9c85-a5752b77f3dc","ios":"levelo://app?vid=089fbf63-f655-4fc7-9c85-a5752b77f3dc"},"vehicle_type_id":"4","last_reported":1722107190,"current_range_meters":18800,"station_id":"ce4bgup2rcd13ifvqco0","pricing_plan_id":"cebpf4jnsgd1na2vs0mg"},{"bike_id":"5577df36-1040-450d-b99e-131190e9662d","system_id":"levelo_inurba_marseille","lat":43.309589,"lon":5.390258,"is_reserved":false,"is_disabled":false,"rental_uris":{"android":"levelo://app?vid=5577df36-1040-450d-b99e-131190e9662d","ios":"levelo://app?vid=5577df36-1040-450d-b99e-131190e9662d"},"vehicle_type_id":"4","last_reported":1722107190,"current_range_meters":2800,"station_id":"ce4bgup2rcd13ifvqco0","pricing_plan_id":"cebpf4jnsgd1na2vs0mg"},{"bike_id":"03007310-5532-4fa6-a69f-457a1ca1e9b6","system_id":"levelo_inurba_marseille","lat":43.309589,"lon":5.390258,"is_reserved":false,"is_disabled":false,"rental_uris":{"android":"levelo://app?vid=03007310-5532-4fa6-a69f-457a1ca1e9b6","ios":"levelo://app?vid=03007310-5532-4fa6-a69f-457a1ca1e9b6"},"vehicle_type_id":"4","last_reported":1722107190,"current_range_meters":4400,"station_id":"ce4bgup2rcd13ifvqco0","pricing_plan_id":"cebpf4jnsgd1na2vs0mg"},{"bike_id":"1d116abb-a54b-4471-ae1f-b49c221dadd8","system_id":"levelo_inurba_marseille","lat":43.309589,"lon":5.390258,"is_reserved":false,"is_disabled":false,"rental_uris":{"android":"levelo://app?vid=1d116abb-a54b-4471-ae1f-b49c221dadd8","ios":"levelo://app?vid=1d116abb-a54b-4471-ae1f-b49c221dadd8"},"vehicle_type_id":"4","last_reported":1722107190,"current_range_meters":24800,"station_id":"ce4bgup2rcd13ifvqco0","pricing_plan_id":"cebpf4jnsgd1na2vs0mg"},{"bike_id":"8d31f38f-2e7a-4f91-802f-34b5dfc50216","system_id":"levelo_inurba_marseille","lat":43.309589,"lon":5.390258,"is_reserved":false,"is_disabled":false,"rental_uris":{"android":"levelo://app?vid=8d31f38f-2e7a-4f91-802f-34b5dfc50216","ios":"levelo://app?vid=8d31f38f-2e7a-4f91-802f-34b5dfc50216"},"vehicle_type_id":"4","last_reported":1722107190,"current_range_meters":26800,"station_id":"ce4bgup2rcd13ifvqco0","pricing_plan_id":"cebpf4jnsgd1na2vs0mg"},{"bike_id":"b21d10be-110f-4c9a-95ca-7a4e77addf77","system_id":"levelo_inurba_marseille","lat":43.309589,"lon":5.390258,"is_reserved":false,"is_disabled":false,"rental_uris":{"android":"levelo://app?vid=b21d10be-110f-4c9a-95ca-7a4e77addf77","ios":"levelo://app?vid=b21d10be-110f-4c9a-95ca-7a4e77addf77"},"vehicle_type_id":"4","last_reported":1722107190,"current_range_meters":29200,"station_id":"ce4bgup2rcd13ifvqco0","pricing_plan_id":"cebpf4jnsgd1na2vs0mg"},{"bike_id":"35d50fef-0381-4d19-92b5-cc541e915993","system_id":"levelo_inurba_marseille","lat":43.29707,"lon":5.37705,"is_reserved":false,"is_disabled":false,"rental_uris":{"android":"levelo://app?vid=35d50fef-0381-4d19-92b5-cc541e915993","ios":"levelo://app?vid=35d50fef-0381-4d19-92b5-cc541e915993"},"vehicle_type_id":"4","last_reported":1722107190,"current_range_meters":19600,"station_id":"ce4bgkh2rcd13ifvqbl0","pricing_plan_id":"cebpf4jnsgd1na2vs0mg"},{"bike_id":"5ee9b251-8104-4be0-b9b7-80f9b5f03f84","system_id":"levelo_inurba_marseille","lat":43.309589,"lon":5.390258,"is_reserved":false,"is_disabled":false,"rental_uris":{"android":"levelo://app?vid=5ee9b251-8104-4be0-b9b7-80f9b5f03f84","ios":"levelo://app?vid=5ee9b251-8104-4be0-b9b7-80f9b5f03f84"},"vehicle_type_id":"4","last_reported":1722107190,"current_range_meters":0,"station_id":"ce4bgup2rcd13ifvqco0","pricing_plan_id":"cebpf4jnsgd1na2vs0mg"},{"bike_id":"6960db49-4680-4921-817b-17deea707a3e","system_id":"levelo_inurba_marseille","lat":43.309589,"lon":5.390258,"is_reserved":false,"is_disabled":false,"rental_uris":{"android":"levelo://app?vid=6960db49-4680-4921-817b-17deea707a3e","ios":"levelo://app?vid=6960db49-4680-4921-817b-17deea707a3e"},"vehicle_type_id":"4","last_reported":1722107190,"current_range_meters":2400,"station_id":"ce4bgup2rcd13ifvqco0","pricing_plan_id":"cebpf4jnsgd1na2vs0mg"},{"bike_id":"076eb8e2-60c5-4ff1-8fac-006fe07fe0a9","system_id":"levelo_inurba_marseille","lat":43.309589,"lon":5.390258,"is_reserved":false,"is_disabled":false,"rental_uris":{"android":"levelo://app?vid=076eb8e2-60c5-4ff1-8fac-006fe07fe0a9","ios":"levelo://app?vid=076eb8e2-60c5-4ff1-8fac-006fe07fe0a9"},"vehicle_type_id":"4","last_reported":1722107190,"current_range_meters":10800,"station_id":"ce4bgup2rcd13ifvqco0","pricing_plan_id":"cebpf4jnsgd1na2vs0mg"},{"bike_id":"5a5020b1-64ec-48e9-b5c0-69f252145b76","system_id":"levelo_inurba_marseille","lat":43.30951,"lon":5.39037,"is_reserved":false,"is_disabled":false,"rental_uris":{"android":"levelo://app?vid=5a5020b1-64ec-48e9-b5c0-69f252145b76","ios":"levelo://app?vid=5a5020b1-64ec-48e9-b5c0-69f252145b76"},"vehicle_type_id":"4","last_reported":1722107190,"current_range_meters":4000,"station_id":"ce4bgup2rcd13ifvqco0","pricing_plan_id":"cebpf4jnsgd1na2vs0mg"},{"bike_id":"757689bf-b6f6-47e6-8c74-6b693ff0a42e","system_id":"levelo_inurba_marseille","lat":43.299028,"lon":5.381509,"is_reserved":false,"is_disabled":false,"rental_uris":{"android":"levelo://app?vid=757689bf-b6f6-47e6-8c74-6b693ff0a42e","ios":"levelo://app?vid=757689bf-b6f6-47e6-8c74-6b693ff0a42e"},"vehicle_type_id":"4","last_reported":1722107190,"current_range_meters":10000,"station_id":"ce4bgj12rcd13ifvqbc0","pricing_plan_id":"cebpf4jnsgd1na2vs0mg"},{"bike_id":"99593d25-14e7-4b8f-b003-0aca5c866ea6","system_id":"levelo_inurba_marseille","lat":43.30952,"lon":5.39038,"is_reserved":false,"is_disabled":false,"rental_uris":{"android":"levelo://app?vid=99593d25-14e7-4b8f-b003-0aca5c866ea6","ios":"levelo://app?vid=99593d25-14e7-4b8f-b003-0aca5c866ea6"},"vehicle_type_id":"4","last_reported":1722107190,"current_range_meters":8000,"station_id":"","pricing_plan_id":"cebpf4jnsgd1na2vs0mg"},{"bike_id":"ac8e302d-ad82-47f4-8584-013baf39815e","system_id":"levelo_inurba_marseille","lat":43.309589,"lon":5.390258,"is_reserved":false,"is_disabled":false,"rental_uris":{"android":"levelo://app?vid=ac8e302d-ad82-47f4-8584-013baf39815e","ios":"levelo://app?vid=ac8e302d-ad82-47f4-8584-013baf39815e"},"vehicle_type_id":"4","last_reported":1722107190,"current_range_meters":15600,"station_id":"ce4bgup2rcd13ifvqco0","pricing_plan_id":"cebpf4jnsgd1na2vs0mg"},{"bike_id":"70beee0a-9453-463b-86d2-73fdfe0d01ba","system_id":"levelo_inurba_marseille","lat":43.30952,"lon":5.3904,"is_reserved":false,"is_disabled":false,"rental_uris":{"android":"levelo://app?vid=70beee0a-9453-463b-86d2-73fdfe0d01ba","ios":"levelo://app?vid=70beee0a-9453-463b-86d2-73fdfe0d01ba"},"vehicle_type_id":"4","last_reported":1722107190,"current_range_meters":19200,"station_id":"ce4bgup2rcd13ifvqco0","pricing_plan_id":"cebpf4jnsgd1na2vs0mg"},{"bike_id":"b5b97180-4a54-4f79-a6e2-f9a94552384e","system_id":"levelo_inurba_marseille","lat":43.309589,"lon":5.390258,"is_reserved":false,"is_disabled":false,"rental_uris":{"android":"levelo://app?vid=b5b97180-4a54-4f79-a6e2-f9a94552384e","ios":"levelo://app?vid=b5b97180-4a54-4f79-a6e2-f9a94552384e"},"vehicle_type_id":"4","last_reported":1722107190,"current_range_meters":7600,"station_id":"ce4bgup2rcd13ifvqco0","pricing_plan_id":"cebpf4jnsgd1na2vs0mg"},{"bike_id":"2be1ce18-28ee-463f-b587-99fed9ef975f","system_id":"levelo_inurba_marseille","lat":43.309589,"lon":5.390258,"is_reserved":false,"is_disabled":false,"rental_uris":{"android":"levelo://app?vid=2be1ce18-28ee-463f-b587-99fed9ef975f","ios":"levelo://app?vid=2be1ce18-28ee-463f-b587-99fed9ef975f"},"vehicle_type_id":"4","last_reported":1722107190,"current_range_meters":17600,"station_id":"ce4bgup2rcd13ifvqco0","pricing_plan_id":"cebpf4jnsgd1na2vs0mg"},{"bike_id":"f587f3f6-ad33-4a35-a96f-164d3bf54fd9","system_id":"levelo_inurba_marseille","lat":43.309589,"lon":5.390258,"is_reserved":false,"is_disabled":false,"rental_uris":{"android":"levelo://app?vid=f587f3f6-ad33-4a35-a96f-164d3bf54fd9","ios":"levelo://app?vid=f587f3f6-ad33-4a35-a96f-164d3bf54fd9"},"vehicle_type_id":"4","last_reported":1722107190,"current_range_meters":10400,"station_id":"ce4bgup2rcd13ifvqco0","pricing_plan_id":"cebpf4jnsgd1na2vs0mg"},{"bike_id":"375acbf1-71a8-4b24-a8d5-0cfa9344939d","system_id":"levelo_inurba_marseille","lat":43.309589,"lon":5.390258,"is_reserved":false,"is_disabled":false,"rental_uris":{"android":"levelo://app?vid=375acbf1-71a8-4b24-a8d5-0cfa9344939d","ios":"levelo://app?vid=375acbf1-71a8-4b24-a8d5-0cfa9344939d"},"vehicle_type_id":"4","last_reported":1722107190,"current_range_meters":17200,"station_id":"ce4bgup2rcd13ifvqco0","pricing_plan_id":"cebpf4jnsgd1na2vs0mg"},{"bike_id":"4b12d2c3-39d4-4295-af36-eaf5162db54b","system_id":"levelo_inurba_marseille","lat":43.309589,"lon":5.390258,"is_reserved":false,"is_disabled":false,"rental_uris":{"android":"levelo://app?vid=4b12d2c3-39d4-4295-af36-eaf5162db54b","ios":"levelo://app?vid=4b12d2c3-39d4-4295-af36-eaf5162db54b"},"vehicle_type_id":"4","last_reported":1722107190,"current_range_meters":31600,"station_id":"ce4bgup2rcd13ifvqco0","pricing_plan_id":"cebpf4jnsgd1na2vs0mg"},{"bike_id":"56d08423-cf45-4b0a-9c41-ef9a39ba760f","system_id":"levelo_inurba_marseille","lat":43.309589,"lon":5.390258,"is_reserved":false,"is_disabled":false,"rental_uris":{"android":"levelo://app?vid=56d08423-cf45-4b0a-9c41-ef9a39ba760f","ios":"levelo://app?vid=56d08423-cf45-4b0a-9c41-ef9a39ba760f"},"vehicle_type_id":"4","last_reported":1722107190,"current_range_meters":0,"station_id":"ce4bgup2rcd13ifvqco0","pricing_plan_id":"cebpf4jnsgd1na2vs0mg"},{"bike_id":"5f6217bd-ccb4-40fa-b5c0-06da5117c45f","system_id":"levelo_inurba_marseille","lat":43.309589,"lon":5.390258,"is_reserved":false,"is_disabled":false,"rental_uris":{"android":"levelo://app?vid=5f6217bd-ccb4-40fa-b5c0-06da5117c45f","ios":"levelo://app?vid=5f6217bd-ccb4-40fa-b5c0-06da5117c45f"},"vehicle_type_id":"4","last_reported":1722107190,"current_range_meters":24000,"station_id":"ce4bgup2rcd13ifvqco0","pricing_plan_id":"cebpf4jnsgd1na2vs0mg"},{"bike_id":"b4737434-81ce-4e48-9595-8959667baf91","system_id":"levelo_inurba_marseille","lat":43.309589,"lon":5.390258,"is_reserved":false,"is_disabled":false,"rental_uris":{"android":"levelo://app?vid=b4737434-81ce-4e48-9595-8959667baf91","ios":"levelo://app?vid=b4737434-81ce-4e48-9595-8959667baf91"},"vehicle_type_id":"4","last_reported":1722107190,"current_range_meters":26800,"station_id":"ce4bgup2rcd13ifvqco0","pricing_plan_id":"cebpf4jnsgd1na2vs0mg"},{"bike_id":"fc6d773b-de3b-4ac2-a83b-c124cb296bed","system_id":"levelo_inurba_marseille","lat":43.317557,"lon":5.390173,"is_reserved":false,"is_disabled":false,"rental_uris":{"android":"levelo://app?vid=fc6d773b-de3b-4ac2-a83b-c124cb296bed","ios":"levelo://app?vid=fc6d773b-de3b-4ac2-a83b-c124cb296bed"},"vehicle_type_id":"4","last_reported":1722107190,"current_range_meters":10400,"station_id":"ce4bhqp2rcd13ifvqhng","pricing_plan_id":"cebpf4jnsgd1na2vs0mg"},{"bike_id":"4496c404-3c32-4a6a-a8d4-fe28ae420eb9","system_id":"levelo_inurba_marseille","lat":43.317557,"lon":5.390173,"is_reserved":false,"is_disabled":false,"rental_uris":{"android":"levelo://app?vid=4496c404-3c32-4a6a-a8d4-fe28ae420eb9","ios":"levelo://app?vid=4496c404-3c32-4a6a-a8d4-fe28ae420eb9"},"vehicle_type_id":"4","last_reported":1722107190,"current_range_meters":8800,"station_id":"ce4bhqp2rcd13ifvqhng","pricing_plan_id":"cebpf4jnsgd1na2vs0mg"},{"bike_id":"e6d35184-2f5c-4f40-8d65-b0af84f83fd4","system_id":"levelo_inurba_marseille","lat":43.309589,"lon":5.390258,"is_reserved":false,"is_disabled":false,"rental_uris":{"android":"levelo://app?vid=e6d35184-2f5c-4f40-8d65-b0af84f83fd4","ios":"levelo://app?vid=e6d35184-2f5c-4f40-8d65-b0af84f83fd4"},"vehicle_type_id":"4","last_reported":1722107190,"current_range_meters":400,"station_id":"ce4bgup2rcd13ifvqco0","pricing_plan_id":"cebpf4jnsgd1na2vs0mg"},{"bike_id":"691e6f2b-1697-4fd7-a355-c55eb7faf4da","system_id":"levelo_inurba_marseille","lat":43.298037,"lon":5.381066,"is_reserved":false,"is_disabled":false,"rental_uris":{"android":"levelo://app?vid=691e6f2b-1697-4fd7-a355-c55eb7faf4da","ios":"levelo://app?vid=691e6f2b-1697-4fd7-a355-c55eb7faf4da"},"vehicle_type_id":"4","last_reported":1722107190,"current_range_meters":10400,"station_id":"ce4bgip2rcd13ifvqbb0","pricing_plan_id":"cebpf4jnsgd1na2vs0mg"},{"bike_id":"d69c9fcc-1180-49d6-9326-5948358237d1","system_id":"levelo_inurba_marseille","lat":43.295748,"lon":5.37522,"is_reserved":false,"is_disabled":false,"rental_uris":{"android":"levelo://app?vid=d69c9fcc-1180-49d6-9326-5948358237d1","ios":"levelo://app?vid=d69c9fcc-1180-49d6-9326-5948358237d1"},"vehicle_type_id":"4","last_reported":1722107190,"current_range_meters":28400,"station_id":"ce4bgh92rcd13ifvqb50","pricing_plan_id":"cebpf4jnsgd1na2vs0mg"},{"bike_id":"5e9b10d6-d8f6-4244-a6ec-a3043ddf6bdf","system_id":"levelo_inurba_marseille","lat":43.29802,"lon":5.38114,"is_reserved":false,"is_disabled":false,"rental_uris":{"android":"levelo://app?vid=5e9b10d6-d8f6-4244-a6ec-a3043ddf6bdf","ios":"levelo://app?vid=5e9b10d6-d8f6-4244-a6ec-a3043ddf6bdf"},"vehicle_type_id":"4","last_reported":1722107190,"current_range_meters":16800,"station_id":"ce4bgip2rcd13ifvqbb0","pricing_plan_id":"cebpf4jnsgd1na2vs0mg"},{"bike_id":"cd63826c-6e0e-4e36-8491-9e58cdb82b1e","system_id":"levelo_inurba_marseille","lat":43.29575,"lon":5.37516,"is_reserved":false,"is_disabled":false,"rental_uris":{"android":"levelo://app?vid=cd63826c-6e0e-4e36-8491-9e58cdb82b1e","ios":"levelo://app?vid=cd63826c-6e0e-4e36-8491-9e58cdb82b1e"},"vehicle_type_id":"4","last_reported":1722107190,"current_range_meters":0,"station_id":"ce4bgh92rcd13ifvqb50","pricing_plan_id":"cebpf4jnsgd1na2vs0mg"},{"bike_id":"341a2703-2ec7-4253-bee2-fc0f475d9a17","system_id":"levelo_inurba_marseille","lat":43.304373,"lon":5.38894,"is_reserved":false,"is_disabled":false,"rental_uris":{"android":"levelo://app?vid=341a2703-2ec7-4253-bee2-fc0f475d9a17","ios":"levelo://app?vid=341a2703-2ec7-4253-bee2-fc0f475d9a17"},"vehicle_type_id":"4","last_reported":1722107190,"current_range_meters":5600,"station_id":"ce4bgk12rcd13ifvqbi0","pricing_plan_id":"cebpf4jnsgd1na2vs0mg"},{"bike_id":"d98e0cb1-aef2-4fae-a8ed-9d24701b5570","system_id":"levelo_inurba_marseille","lat":43.296263,"lon":5.377094,"is_reserved":false,"is_disabled":false,"rental_uris":{"android":"levelo://app?vid=d98e0cb1-aef2-4fae-a8ed-9d24701b5570","ios":"levelo://app?vid=d98e0cb1-aef2-4fae-a8ed-9d24701b5570"},"vehicle_type_id":"4","last_reported":1722107190,"current_range_meters":26800,"station_id":"ce4bgi92rcd13ifvqb90","pricing_plan_id":"cebpf4jnsgd1na2vs0mg"},{"bike_id":"b82b2df0-dd94-44f9-93b6-22fcfa0913ae","system_id":"levelo_inurba_marseille","lat":43.296263,"lon":5.377094,"is_reserved":false,"is_disabled":false,"rental_uris":{"android":"levelo://app?vid=b82b2df0-dd94-44f9-93b6-22fcfa0913ae","ios":"levelo://app?vid=b82b2df0-dd94-44f9-93b6-22fcfa0913ae"},"vehicle_type_id":"4","last_reported":1722107190,"current_range_meters":18000,"station_id":"ce4bgi92rcd13ifvqb90","pricing_plan_id":"cebpf4jnsgd1na2vs0mg"},{"bike_id":"510dd3ad-853a-47dc-8aae-f0f9345a5772","system_id":"levelo_inurba_marseille","lat":43.299707,"lon":5.384859,"is_reserved":false,"is_disabled":false,"rental_uris":{"android":"levelo://app?vid=510dd3ad-853a-47dc-8aae-f0f9345a5772","ios":"levelo://app?vid=510dd3ad-853a-47dc-8aae-f0f9345a5772"},"vehicle_type_id":"4","last_reported":1722107190,"current_range_meters":1600,"station_id":"ce4bgj92rcd13ifvqbd0","pricing_plan_id":"cebpf4jnsgd1na2vs0mg"},{"bike_id":"62754f3c-6ed8-49e3-8fb4-794a2c1cc1e2","system_id":"levelo_inurba_marseille","lat":43.29971,"lon":5.38486,"is_reserved":false,"is_disabled":false,"rental_uris":{"android":"levelo://app?vid=62754f3c-6ed8-49e3-8fb4-794a2c1cc1e2","ios":"levelo://app?vid=62754f3c-6ed8-49e3-8fb4-794a2c1cc1e2"},"vehicle_type_id":"4","last_reported":1722107190,"current_range_meters":29200,"station_id":"ce4bgj92rcd13ifvqbd0","pricing_plan_id":"cebpf4jnsgd1na2vs0mg"},{"bike_id":"cc2f88da-d0b0-44ea-8662-bf27d47207db","system_id":"levelo_inurba_marseille","lat":43.299717,"lon":5.384845,"is_reserved":false,"is_disabled":false,"rental_uris":{"android":"levelo://app?vid=cc2f88da-d0b0-44ea-8662-bf27d47207db","ios":"levelo://app?vid=cc2f88da-d0b0-44ea-8662-bf27d47207db"},"vehicle_type_id":"4","last_reported":1722107190,"current_range_meters":11200,"station_id":"ce4bgj92rcd13ifvqbd0","pricing_plan_id":"cebpf4jnsgd1na2vs0mg"},{"bike_id":"a9cec7af-1c15-486d-879e-99ec44b11093","system_id":"levelo_inurba_marseille","lat":43.295279,"lon":5.375048,"is_reserved":false,"is_disabled":false,"rental_uris":{"android":"levelo://app?vid=a9cec7af-1c15-486d-879e-99ec44b11093","ios":"levelo://app?vid=a9cec7af-1c15-486d-879e-99ec44b11093"},"vehicle_type_id":"4","last_reported":1722107190,"current_range_meters":3600,"station_id":"ce4bgkp2rcd13ifvqbmg","pricing_plan_id":"cebpf4jnsgd1na2vs0mg"},{"bike_id":"1b294820-7ace-41fe-85da-f16a0d8c72c2","system_id":"levelo_inurba_marseille","lat":43.309589,"lon":5.390258,"is_reserved":false,"is_disabled":false,"rental_uris":{"android":"levelo://app?vid=1b294820-7ace-41fe-85da-f16a0d8c72c2","ios":"levelo://app?vid=1b294820-7ace-41fe-85da-f16a0d8c72c2"},"vehicle_type_id":"4","last_reported":1722107190,"current_range_meters":14000,"station_id":"ce4bgup2rcd13ifvqco0","pricing_plan_id":"cebpf4jnsgd1na2vs0mg"},{"bike_id":"b46d3261-4607-4de5-9a07-49fc2f6f54d5","system_id":"levelo_inurba_marseille","lat":43.301396,"lon":5.387812,"is_reserved":false,"is_disabled":false,"rental_uris":{"android":"levelo://app?vid=b46d3261-4607-4de5-9a07-49fc2f6f54d5","ios":"levelo://app?vid=b46d3261-4607-4de5-9a07-49fc2f6f54d5"},"vehicle_type_id":"4","last_reported":1722107190,"current_range_meters":2000,"station_id":"ce4bghh2rcd13ifvqb60","pricing_plan_id":"cebpf4jnsgd1na2vs0mg"},{"bike_id":"504eb43e-4a47-4788-a28d-8036d3fe9190","system_id":"levelo_inurba_marseille","lat":43.301396,"lon":5.387812,"is_reserved":false,"is_disabled":false,"rental_uris":{"android":"levelo://app?vid=504eb43e-4a47-4788-a28d-8036d3fe9190","ios":"levelo://app?vid=504eb43e-4a47-4788-a28d-8036d3fe9190"},"vehicle_type_id":"4","last_reported":1722107190,"current_range_meters":27200,"station_id":"ce4bghh2rcd13ifvqb60","pricing_plan_id":"cebpf4jnsgd1na2vs0mg"},{"bike_id":"e925e06d-73b7-427f-b779-d0fe2230501a","system_id":"levelo_inurba_marseille","lat":43.301396,"lon":5.387812,"is_reserved":false,"is_disabled":false,"rental_uris":{"android":"levelo://app?vid=e925e06d-73b7-427f-b779-d0fe2230501a","ios":"levelo://app?vid=e925e06d-73b7-427f-b779-d0fe2230501a"},"vehicle_type_id":"4","last_reported":1722107190,"current_range_meters":6400,"station_id":"ce4bghh2rcd13ifvqb60","pricing_plan_id":"cebpf4jnsgd1na2vs0mg"},{"bike_id":"448ad478-2c2b-49d8-ad43-44720cb9db0e","system_id":"levelo_inurba_marseille","lat":43.273613,"lon":5.362705,"is_reserved":false,"is_disabled":false,"rental_uris":{"android":"levelo://app?vid=448ad478-2c2b-49d8-ad43-44720cb9db0e","ios":"levelo://app?vid=448ad478-2c2b-49d8-ad43-44720cb9db0e"},"vehicle_type_id":"4","last_reported":1722107190,"current_range_meters":400,"station_id":"ce4bhbh2rcd13ifvqeo0","pricing_plan_id":"cebpf4jnsgd1na2vs0mg"},{"bike_id":"2766c5cb-f33a-42f5-90f0-9a7c483e8620","system_id":"levelo_inurba_marseille","lat":43.32367,"lon":5.388836,"is_reserved":false,"is_disabled":false,"rental_uris":{"android":"levelo://app?vid=2766c5cb-f33a-42f5-90f0-9a7c483e8620","ios":"levelo://app?vid=2766c5cb-f33a-42f5-90f0-9a7c483e8620"},"vehicle_type_id":"4","last_reported":1722107190,"current_range_meters":26400,"station_id":"ce4bhqp2rcd13ifvqhog","pricing_plan_id":"cebpf4jnsgd1na2vs0mg"},{"bike_id":"705478de-29e1-4f89-8627-eda9a7dd1a6c","system_id":"levelo_inurba_marseille","lat":43.32367,"lon":5.388836,"is_reserved":false,"is_disabled":false,"rental_uris":{"android":"levelo://app?vid=705478de-29e1-4f89-8627-eda9a7dd1a6c","ios":"levelo://app?vid=705478de-29e1-4f89-8627-eda9a7dd1a6c"},"vehicle_type_id":"4","last_reported":1722107190,"current_range_meters":400,"station_id":"ce4bhqp2rcd13ifvqhog","pricing_plan_id":"cebpf4jnsgd1na2vs0mg"},{"bike_id":"de88622a-2e52-449a-a888-055a68ee567c","system_id":"levelo_inurba_marseille","lat":43.32367,"lon":5.388836,"is_reserved":false,"is_disabled":false,"rental_uris":{"android":"levelo://app?vid=de88622a-2e52-449a-a888-055a68ee567c","ios":"levelo://app?vid=de88622a-2e52-449a-a888-055a68ee567c"},"vehicle_type_id":"4","last_reported":1722107190,"current_range_meters":12400,"station_id":"ce4bhqp2rcd13ifvqhog","pricing_plan_id":"cebpf4jnsgd1na2vs0mg"},{"bike_id":"2d1560a3-0772-4bbe-b0a8-85e3c3c0a22e","system_id":"levelo_inurba_marseille","lat":43.29351,"lon":5.37132,"is_reserved":false,"is_disabled":false,"rental_uris":{"android":"levelo://app?vid=2d1560a3-0772-4bbe-b0a8-85e3c3c0a22e","ios":"levelo://app?vid=2d1560a3-0772-4bbe-b0a8-85e3c3c0a22e"},"vehicle_type_id":"4","last_reported":1722107190,"current_range_meters":13600,"station_id":"","pricing_plan_id":"cebpf4jnsgd1na2vs0mg"},{"bike_id":"4cf0bd19-d40b-45a9-8001-a853173d4aad","system_id":"levelo_inurba_marseille","lat":43.29603,"lon":5.38104,"is_reserved":false,"is_disabled":false,"rental_uris":{"android":"levelo://app?vid=4cf0bd19-d40b-45a9-8001-a853173d4aad","ios":"levelo://app?vid=4cf0bd19-d40b-45a9-8001-a853173d4aad"},"vehicle_type_id":"4","last_reported":1722107190,"current_range_meters":6800,"station_id":"ce4bgl12rcd13ifvqbo0","pricing_plan_id":"cebpf4jnsgd1na2vs0mg"},{"bike_id":"66cb6ac3-641d-4d5c-b0e5-83060c22da55","system_id":"levelo_inurba_marseille","lat":43.29603,"lon":5.38104,"is_reserved":false,"is_disabled":false,"rental_uris":{"android":"levelo://app?vid=66cb6ac3-641d-4d5c-b0e5-83060c22da55","ios":"levelo://app?vid=66cb6ac3-641d-4d5c-b0e5-83060c22da55"},"vehicle_type_id":"4","last_reported":1722107190,"current_range_meters":0,"station_id":"ce4bgl12rcd13ifvqbo0","pricing_plan_id":"cebpf4jnsgd1na2vs0mg"},{"bike_id":"1cda9266-5d24-47dd-a675-994e79e09124","system_id":"levelo_inurba_marseille","lat":43.29602,"lon":5.381084,"is_reserved":false,"is_disabled":false,"rental_uris":{"android":"levelo://app?vid=1cda9266-5d24-47dd-a675-994e79e09124","ios":"levelo://app?vid=1cda9266-5d24-47dd-a675-994e79e09124"},"vehicle_type_id":"4","last_reported":1722107190,"current_range_meters":0,"station_id":"ce4bgl12rcd13ifvqbo0","pricing_plan_id":"cebpf4jnsgd1na2vs0mg"},{"bike_id":"73771f6c-a341-4a58-b2f2-ada35f9901cc","system_id":"levelo_inurba_marseille","lat":43.29595,"lon":5.38094,"is_reserved":false,"is_disabled":false,"rental_uris":{"android":"levelo://app?vid=73771f6c-a341-4a58-b2f2-ada35f9901cc","ios":"levelo://app?vid=73771f6c-a341-4a58-b2f2-ada35f9901cc"},"vehicle_type_id":"4","last_reported":1722107190,"current_range_meters":31200,"station_id":"ce4bgl12rcd13ifvqbo0","pricing_plan_id":"cebpf4jnsgd1na2vs0mg"},{"bike_id":"4e8deb91-47fe-40e7-b6bf-0a87a609cd40","system_id":"levelo_inurba_marseille","lat":43.296,"lon":5.38107,"is_reserved":false,"is_disabled":false,"rental_uris":{"android":"levelo://app?vid=4e8deb91-47fe-40e7-b6bf-0a87a609cd40","ios":"levelo://app?vid=4e8deb91-47fe-40e7-b6bf-0a87a609cd40"},"vehicle_type_id":"4","last_reported":1722107190,"current_range_meters":31200,"station_id":"ce4bgl12rcd13ifvqbo0","pricing_plan_id":"cebpf4jnsgd1na2vs0mg"},{"bike_id":"fb4649f6-5774-4a6b-ab6d-18c7e48797ac","system_id":"levelo_inurba_marseille","lat":43.292749,"lon":5.368402,"is_reserved":false,"is_disabled":false,"rental_uris":{"android":"levelo://app?vid=fb4649f6-5774-4a6b-ab6d-18c7e48797ac","ios":"levelo://app?vid=fb4649f6-5774-4a6b-ab6d-18c7e48797ac"},"vehicle_type_id":"4","last_reported":1722107190,"current_range_meters":0,"station_id":"ce4bhbp2rcd13ifvqesg","pricing_plan_id":"cebpf4jnsgd1na2vs0mg"},{"bike_id":"e1b8ac5e-0a78-442e-b15c-6fabedd34ccd","system_id":"levelo_inurba_marseille","lat":43.293009,"lon":5.374584,"is_reserved":false,"is_disabled":false,"rental_uris":{"android":"levelo://app?vid=e1b8ac5e-0a78-442e-b15c-6fabedd34ccd","ios":"levelo://app?vid=e1b8ac5e-0a78-442e-b15c-6fabedd34ccd"},"vehicle_type_id":"4","last_reported":1722107190,"current_range_meters":23600,"station_id":"ce4bgi12rcd13ifvqb70","pricing_plan_id":"cebpf4jnsgd1na2vs0mg"},{"bike_id":"70693cf4-1803-4739-bff4-13739abd2864","system_id":"levelo_inurba_marseille","lat":43.293009,"lon":5.374584,"is_reserved":false,"is_disabled":false,"rental_uris":{"android":"levelo://app?vid=70693cf4-1803-4739-bff4-13739abd2864","ios":"levelo://app?vid=70693cf4-1803-4739-bff4-13739abd2864"},"vehicle_type_id":"4","last_reported":1722107190,"current_range_meters":25600,"station_id":"ce4bgi12rcd13ifvqb70","pricing_plan_id":"cebpf4jnsgd1na2vs0mg"},{"bike_id":"54ce0539-00d3-4e0e-a853-55acfba1c3aa","system_id":"levelo_inurba_marseille","lat":43.293009,"lon":5.374584,"is_reserved":false,"is_disabled":false,"rental_uris":{"android":"levelo://app?vid=54ce0539-00d3-4e0e-a853-55acfba1c3aa","ios":"levelo://app?vid=54ce0539-00d3-4e0e-a853-55acfba1c3aa"},"vehicle_type_id":"4","last_reported":1722107190,"current_range_meters":15200,"station_id":"ce4bgi12rcd13ifvqb70","pricing_plan_id":"cebpf4jnsgd1na2vs0mg"},{"bike_id":"4d7bab14-a432-47a7-a615-5c4626a3ef45","system_id":"levelo_inurba_marseille","lat":43.293009,"lon":5.374584,"is_reserved":false,"is_disabled":false,"rental_uris":{"android":"levelo://app?vid=4d7bab14-a432-47a7-a615-5c4626a3ef45","ios":"levelo://app?vid=4d7bab14-a432-47a7-a615-5c4626a3ef45"},"vehicle_type_id":"4","last_reported":1722107190,"current_range_meters":19200,"station_id":"ce4bgi12rcd13ifvqb70","pricing_plan_id":"cebpf4jnsgd1na2vs0mg"},{"bike_id":"53b60629-2bf6-4b67-b76c-8da27b1e253d","system_id":"levelo_inurba_marseille","lat":43.30601,"lon":5.39355,"is_reserved":false,"is_disabled":false,"rental_uris":{"android":"levelo://app?vid=53b60629-2bf6-4b67-b76c-8da27b1e253d","ios":"levelo://app?vid=53b60629-2bf6-4b67-b76c-8da27b1e253d"},"vehicle_type_id":"4","last_reported":1722107190,"current_range_meters":18000,"station_id":"ce4bh0p2rcd13ifvqd80","pricing_plan_id":"cebpf4jnsgd1na2vs0mg"},{"bike_id":"e0c2e598-f3b5-41aa-b131-ea296512c757","system_id":"levelo_inurba_marseille","lat":43.29228,"lon":5.36473,"is_reserved":false,"is_disabled":false,"rental_uris":{"android":"levelo://app?vid=e0c2e598-f3b5-41aa-b131-ea296512c757","ios":"levelo://app?vid=e0c2e598-f3b5-41aa-b131-ea296512c757"},"vehicle_type_id":"4","last_reported":1722107190,"current_range_meters":400,"station_id":"","pricing_plan_id":"cebpf4jnsgd1na2vs0mg"},{"bike_id":"7dcba533-da58-4d12-bc53-ea0081489d56","system_id":"levelo_inurba_marseille","lat":43.293009,"lon":5.374584,"is_reserved":false,"is_disabled":false,"rental_uris":{"android":"levelo://app?vid=7dcba533-da58-4d12-bc53-ea0081489d56","ios":"levelo://app?vid=7dcba533-da58-4d12-bc53-ea0081489d56"},"vehicle_type_id":"4","last_reported":1722107190,"current_range_meters":21600,"station_id":"ce4bgi12rcd13ifvqb70","pricing_plan_id":"cebpf4jnsgd1na2vs0mg"},{"bike_id":"368b188b-3339-4682-842b-7d5d967f0216","system_id":"levelo_inurba_marseille","lat":43.293,"lon":5.37466,"is_reserved":false,"is_disabled":false,"rental_uris":{"android":"levelo://app?vid=368b188b-3339-4682-842b-7d5d967f0216","ios":"levelo://app?vid=368b188b-3339-4682-842b-7d5d967f0216"},"vehicle_type_id":"4","last_reported":1722107190,"current_range_meters":0,"station_id":"ce4bgi12rcd13ifvqb70","pricing_plan_id":"cebpf4jnsgd1na2vs0mg"},{"bike_id":"998ca9d0-7f01-456b-a67f-ffb9ba43bfd0","system_id":"levelo_inurba_marseille","lat":43.305994,"lon":5.393687,"is_reserved":false,"is_disabled":false,"rental_uris":{"android":"levelo://app?vid=998ca9d0-7f01-456b-a67f-ffb9ba43bfd0","ios":"levelo://app?vid=998ca9d0-7f01-456b-a67f-ffb9ba43bfd0"},"vehicle_type_id":"4","last_reported":1722107190,"current_range_meters":10000,"station_id":"ce4bh0p2rcd13ifvqd80","pricing_plan_id":"cebpf4jnsgd1na2vs0mg"},{"bike_id":"d326d555-ba6a-4d91-80b0-d9f46060bd43","system_id":"levelo_inurba_marseille","lat":43.305994,"lon":5.393687,"is_reserved":false,"is_disabled":false,"rental_uris":{"android":"levelo://app?vid=d326d555-ba6a-4d91-80b0-d9f46060bd43","ios":"levelo://app?vid=d326d555-ba6a-4d91-80b0-d9f46060bd43"},"vehicle_type_id":"4","last_reported":1722107190,"current_range_meters":6400,"station_id":"ce4bh0p2rcd13ifvqd80","pricing_plan_id":"cebpf4jnsgd1na2vs0mg"},{"bike_id":"68bbeb71-6fa6-486b-8b3a-eedafff1a98d","system_id":"levelo_inurba_marseille","lat":43.29289,"lon":5.37456,"is_reserved":false,"is_disabled":false,"rental_uris":{"android":"levelo://app?vid=68bbeb71-6fa6-486b-8b3a-eedafff1a98d","ios":"levelo://app?vid=68bbeb71-6fa6-486b-8b3a-eedafff1a98d"},"vehicle_type_id":"4","last_reported":1722107190,"current_range_meters":6800,"station_id":"ce4bgi12rcd13ifvqb70","pricing_plan_id":"cebpf4jnsgd1na2vs0mg"},{"bike_id":"5bace3e1-ca88-4b21-b7e6-48f6b80e7cdb","system_id":"levelo_inurba_marseille","lat":43.2936,"lon":5.37835,"is_reserved":false,"is_disabled":false,"rental_uris":{"android":"levelo://app?vid=5bace3e1-ca88-4b21-b7e6-48f6b80e7cdb","ios":"levelo://app?vid=5bace3e1-ca88-4b21-b7e6-48f6b80e7cdb"},"vehicle_type_id":"4","last_reported":1722107190,"current_range_meters":2400,"station_id":"ce4bgjh2rcd13ifvqbf0","pricing_plan_id":"cebpf4jnsgd1na2vs0mg"},{"bike_id":"ced6ad28-cffe-48f3-83d3-44b05f399f3a","system_id":"levelo_inurba_marseille","lat":43.29363,"lon":5.37832,"is_reserved":false,"is_disabled":false,"rental_uris":{"android":"levelo://app?vid=ced6ad28-cffe-48f3-83d3-44b05f399f3a","ios":"levelo://app?vid=ced6ad28-cffe-48f3-83d3-44b05f399f3a"},"vehicle_type_id":"4","last_reported":1722107190,"current_range_meters":0,"station_id":"ce4bgjh2rcd13ifvqbf0","pricing_plan_id":"cebpf4jnsgd1na2vs0mg"},{"bike_id":"3f91cde1-09e0-4fab-afa9-766b5ca6ec30","system_id":"levelo_inurba_marseille","lat":43.29374,"lon":5.37873,"is_reserved":false,"is_disabled":false,"rental_uris":{"android":"levelo://app?vid=3f91cde1-09e0-4fab-afa9-766b5ca6ec30","ios":"levelo://app?vid=3f91cde1-09e0-4fab-afa9-766b5ca6ec30"},"vehicle_type_id":"4","last_reported":1722107190,"current_range_meters":0,"station_id":"ce4bgjh2rcd13ifvqbf0","pricing_plan_id":"cebpf4jnsgd1na2vs0mg"},{"bike_id":"0eccc07f-8011-4979-93eb-7f4e620bf5b5","system_id":"levelo_inurba_marseille","lat":43.30095,"lon":5.39065,"is_reserved":false,"is_disabled":false,"rental_uris":{"android":"levelo://app?vid=0eccc07f-8011-4979-93eb-7f4e620bf5b5","ios":"levelo://app?vid=0eccc07f-8011-4979-93eb-7f4e620bf5b5"},"vehicle_type_id":"4","last_reported":1722107190,"current_range_meters":29200,"station_id":"ce4bh192rcd13ifvqdb0","pricing_plan_id":"cebpf4jnsgd1na2vs0mg"},{"bike_id":"8a6b6304-361f-40f5-a373-fcadb1a186db","system_id":"levelo_inurba_marseille","lat":43.292311,"lon":5.360731,"is_reserved":false,"is_disabled":false,"rental_uris":{"android":"levelo://app?vid=8a6b6304-361f-40f5-a373-fcadb1a186db","ios":"levelo://app?vid=8a6b6304-361f-40f5-a373-fcadb1a186db"},"vehicle_type_id":"4","last_reported":1722107190,"current_range_meters":0,"station_id":"ce4bhbh2rcd13ifvqeqg","pricing_plan_id":"cebpf4jnsgd1na2vs0mg"},{"bike_id":"2e630dcb-f957-4f6b-be04-7e80e275e51f","system_id":"levelo_inurba_marseille","lat":43.292311,"lon":5.360731,"is_reserved":false,"is_disabled":false,"rental_uris":{"android":"levelo://app?vid=2e630dcb-f957-4f6b-be04-7e80e275e51f","ios":"levelo://app?vid=2e630dcb-f957-4f6b-be04-7e80e275e51f"},"vehicle_type_id":"4","last_reported":1722107190,"current_range_meters":0,"station_id":"ce4bhbh2rcd13ifvqeqg","pricing_plan_id":"cebpf4jnsgd1na2vs0mg"},{"bike_id":"aa81a01e-99f7-496c-8570-6e49be619ffe","system_id":"levelo_inurba_marseille","lat":43.30085,"lon":5.390856,"is_reserved":false,"is_disabled":false,"rental_uris":{"android":"levelo://app?vid=aa81a01e-99f7-496c-8570-6e49be619ffe","ios":"levelo://app?vid=aa81a01e-99f7-496c-8570-6e49be619ffe"},"vehicle_type_id":"4","last_reported":1722107190,"current_range_meters":5600,"station_id":"ce4bh192rcd13ifvqdb0","pricing_plan_id":"cebpf4jnsgd1na2vs0mg"},{"bike_id":"1ae4fca8-1745-430e-98e1-180ade752b1f","system_id":"levelo_inurba_marseille","lat":43.30085,"lon":5.390856,"is_reserved":false,"is_disabled":false,"rental_uris":{"android":"levelo://app?vid=1ae4fca8-1745-430e-98e1-180ade752b1f","ios":"levelo://app?vid=1ae4fca8-1745-430e-98e1-180ade752b1f"},"vehicle_type_id":"4","last_reported":1722107190,"current_range_meters":7600,"station_id":"ce4bh192rcd13ifvqdb0","pricing_plan_id":"cebpf4jnsgd1na2vs0mg"},{"bike_id":"bd39c63b-46ba-4daa-80a9-5ff2b916b392","system_id":"levelo_inurba_marseille","lat":43.298764,"lon":5.388973,"is_reserved":false,"is_disabled":false,"rental_uris":{"android":"levelo://app?vid=bd39c63b-46ba-4daa-80a9-5ff2b916b392","ios":"levelo://app?vid=bd39c63b-46ba-4daa-80a9-5ff2b916b392"},"vehicle_type_id":"4","last_reported":1722107190,"current_range_meters":0,"station_id":"ce4bh392rcd13ifvqdl0","pricing_plan_id":"cebpf4jnsgd1na2vs0mg"},{"bike_id":"724ba437-3043-491e-8d26-35d37862e516","system_id":"levelo_inurba_marseille","lat":43.292587,"lon":5.376187,"is_reserved":false,"is_disabled":false,"rental_uris":{"android":"levelo://app?vid=724ba437-3043-491e-8d26-35d37862e516","ios":"levelo://app?vid=724ba437-3043-491e-8d26-35d37862e516"},"vehicle_type_id":"4","last_reported":1722107190,"current_range_meters":20000,"station_id":"ce4bgi12rcd13ifvqb80","pricing_plan_id":"cebpf4jnsgd1na2vs0mg"},{"bike_id":"0aab24aa-9cac-419b-ad00-2c249d4c446c","system_id":"levelo_inurba_marseille","lat":43.291675,"lon":5.371583,"is_reserved":false,"is_disabled":false,"rental_uris":{"android":"levelo://app?vid=0aab24aa-9cac-419b-ad00-2c249d4c446c","ios":"levelo://app?vid=0aab24aa-9cac-419b-ad00-2c249d4c446c"},"vehicle_type_id":"4","last_reported":1722107190,"current_range_meters":1600,"station_id":"ce4bha92rcd13ifvqeh0","pricing_plan_id":"cebpf4jnsgd1na2vs0mg"},{"bike_id":"2d8d2e79-25ac-4496-a3b9-cb2c3a4de8f9","system_id":"levelo_inurba_marseille","lat":43.291675,"lon":5.371583,"is_reserved":false,"is_disabled":false,"rental_uris":{"android":"levelo://app?vid=2d8d2e79-25ac-4496-a3b9-cb2c3a4de8f9","ios":"levelo://app?vid=2d8d2e79-25ac-4496-a3b9-cb2c3a4de8f9"},"vehicle_type_id":"4","last_reported":1722107190,"current_range_meters":11600,"station_id":"ce4bha92rcd13ifvqeh0","pricing_plan_id":"cebpf4jnsgd1na2vs0mg"},{"bike_id":"bd823fdb-e29f-4642-8fa3-08bea4243b51","system_id":"levelo_inurba_marseille","lat":43.298764,"lon":5.388973,"is_reserved":false,"is_disabled":false,"rental_uris":{"android":"levelo://app?vid=bd823fdb-e29f-4642-8fa3-08bea4243b51","ios":"levelo://app?vid=bd823fdb-e29f-4642-8fa3-08bea4243b51"},"vehicle_type_id":"4","last_reported":1722107190,"current_range_meters":29600,"station_id":"ce4bh392rcd13ifvqdl0","pricing_plan_id":"cebpf4jnsgd1na2vs0mg"},{"bike_id":"b27a82ad-a505-4b11-a89a-ee05cc727eaa","system_id":"levelo_inurba_marseille","lat":43.31325,"lon":5.39674,"is_reserved":false,"is_disabled":false,"rental_uris":{"android":"levelo://app?vid=b27a82ad-a505-4b11-a89a-ee05cc727eaa","ios":"levelo://app?vid=b27a82ad-a505-4b11-a89a-ee05cc727eaa"},"vehicle_type_id":"4","last_reported":1722107190,"current_range_meters":4800,"station_id":"ce4bgvp2rcd13ifvqcu0","pricing_plan_id":"cebpf4jnsgd1na2vs0mg"},{"bike_id":"b643fd1e-0c49-4e13-9d84-30791f484a94","system_id":"levelo_inurba_marseille","lat":43.29197,"lon":5.35802,"is_reserved":false,"is_disabled":false,"rental_uris":{"android":"levelo://app?vid=b643fd1e-0c49-4e13-9d84-30791f484a94","ios":"levelo://app?vid=b643fd1e-0c49-4e13-9d84-30791f484a94"},"vehicle_type_id":"4","last_reported":1722107190,"current_range_meters":0,"station_id":"ce4bhb12rcd13ifvqel0","pricing_plan_id":"cebpf4jnsgd1na2vs0mg"},{"bike_id":"fa5d3d60-f7d5-47e3-9ac3-07776f9cea96","system_id":"levelo_inurba_marseille","lat":43.309038,"lon":5.396546,"is_reserved":false,"is_disabled":false,"rental_uris":{"android":"levelo://app?vid=fa5d3d60-f7d5-47e3-9ac3-07776f9cea96","ios":"levelo://app?vid=fa5d3d60-f7d5-47e3-9ac3-07776f9cea96"},"vehicle_type_id":"4","last_reported":1722107190,"current_range_meters":7600,"station_id":"ce4bh012rcd13ifvqcv0","pricing_plan_id":"cebpf4jnsgd1na2vs0mg"},{"bike_id":"16627cc1-3410-4633-9ff9-bb2bd3bbb00d","system_id":"levelo_inurba_marseille","lat":43.313291,"lon":5.396838,"is_reserved":false,"is_disabled":false,"rental_uris":{"android":"levelo://app?vid=16627cc1-3410-4633-9ff9-bb2bd3bbb00d","ios":"levelo://app?vid=16627cc1-3410-4633-9ff9-bb2bd3bbb00d"},"vehicle_type_id":"4","last_reported":1722107190,"current_range_meters":3200,"station_id":"ce4bgvp2rcd13ifvqcu0","pricing_plan_id":"cebpf4jnsgd1na2vs0mg"},{"bike_id":"eb14e649-8840-462b-959e-91206cb13c39","system_id":"levelo_inurba_marseille","lat":43.313291,"lon":5.396838,"is_reserved":false,"is_disabled":false,"rental_uris":{"android":"levelo://app?vid=eb14e649-8840-462b-959e-91206cb13c39","ios":"levelo://app?vid=eb14e649-8840-462b-959e-91206cb13c39"},"vehicle_type_id":"4","last_reported":1722107190,"current_range_meters":11200,"station_id":"ce4bgvp2rcd13ifvqcu0","pricing_plan_id":"cebpf4jnsgd1na2vs0mg"},{"bike_id":"db6ee55e-caa5-4805-bbdb-27e932bb0920","system_id":"levelo_inurba_marseille","lat":43.292005,"lon":5.357875,"is_reserved":false,"is_disabled":false,"rental_uris":{"android":"levelo://app?vid=db6ee55e-caa5-4805-bbdb-27e932bb0920","ios":"levelo://app?vid=db6ee55e-caa5-4805-bbdb-27e932bb0920"},"vehicle_type_id":"4","last_reported":1722107190,"current_range_meters":27600,"station_id":"ce4bhb12rcd13ifvqel0","pricing_plan_id":"cebpf4jnsgd1na2vs0mg"},{"bike_id":"7e9d7b78-89db-4c1a-90dc-83ef74bf1e6d","system_id":"levelo_inurba_marseille","lat":43.313291,"lon":5.396838,"is_reserved":false,"is_disabled":false,"rental_uris":{"android":"levelo://app?vid=7e9d7b78-89db-4c1a-90dc-83ef74bf1e6d","ios":"levelo://app?vid=7e9d7b78-89db-4c1a-90dc-83ef74bf1e6d"},"vehicle_type_id":"4","last_reported":1722107190,"current_range_meters":18400,"station_id":"ce4bgvp2rcd13ifvqcu0","pricing_plan_id":"cebpf4jnsgd1na2vs0mg"},{"bike_id":"bc5e1697-fd9d-458e-8597-d51c8babc3c0","system_id":"levelo_inurba_marseille","lat":43.30085,"lon":5.390856,"is_reserved":false,"is_disabled":false,"rental_uris":{"android":"levelo://app?vid=bc5e1697-fd9d-458e-8597-d51c8babc3c0","ios":"levelo://app?vid=bc5e1697-fd9d-458e-8597-d51c8babc3c0"},"vehicle_type_id":"4","last_reported":1722107190,"current_range_meters":1200,"station_id":"ce4bh192rcd13ifvqdb0","pricing_plan_id":"cebpf4jnsgd1na2vs0mg"},{"bike_id":"fad581f5-a4c1-4e2f-b347-135a30940d52","system_id":"levelo_inurba_marseille","lat":43.313291,"lon":5.396838,"is_reserved":false,"is_disabled":false,"rental_uris":{"android":"levelo://app?vid=fad581f5-a4c1-4e2f-b347-135a30940d52","ios":"levelo://app?vid=fad581f5-a4c1-4e2f-b347-135a30940d52"},"vehicle_type_id":"4","last_reported":1722107190,"current_range_meters":14400,"station_id":"ce4bgvp2rcd13ifvqcu0","pricing_plan_id":"cebpf4jnsgd1na2vs0mg"},{"bike_id":"66fb3f23-169d-4b36-9475-aff0c1469df1","system_id":"levelo_inurba_marseille","lat":43.309047,"lon":5.396551,"is_reserved":false,"is_disabled":false,"rental_uris":{"android":"levelo://app?vid=66fb3f23-169d-4b36-9475-aff0c1469df1","ios":"levelo://app?vid=66fb3f23-169d-4b36-9475-aff0c1469df1"},"vehicle_type_id":"4","last_reported":1722107190,"current_range_meters":24000,"station_id":"ce4bh012rcd13ifvqcv0","pricing_plan_id":"cebpf4jnsgd1na2vs0mg"},{"bike_id":"6382618b-ffc5-4f39-a11a-1c6c8edadbab","system_id":"levelo_inurba_marseille","lat":43.291837,"lon":5.35792,"is_reserved":false,"is_disabled":false,"rental_uris":{"android":"levelo://app?vid=6382618b-ffc5-4f39-a11a-1c6c8edadbab","ios":"levelo://app?vid=6382618b-ffc5-4f39-a11a-1c6c8edadbab"},"vehicle_type_id":"4","last_reported":1722107190,"current_range_meters":0,"station_id":"ce4bhb12rcd13ifvqel0","pricing_plan_id":"cebpf4jnsgd1na2vs0mg"},{"bike_id":"23319a55-5d9b-4643-8472-e553773cb074","system_id":"levelo_inurba_marseille","lat":43.309038,"lon":5.396546,"is_reserved":false,"is_disabled":false,"rental_uris":{"android":"levelo://app?vid=23319a55-5d9b-4643-8472-e553773cb074","ios":"levelo://app?vid=23319a55-5d9b-4643-8472-e553773cb074"},"vehicle_type_id":"4","last_reported":1722107190,"current_range_meters":5200,"station_id":"ce4bh012rcd13ifvqcv0","pricing_plan_id":"cebpf4jnsgd1na2vs0mg"},{"bike_id":"aaf5ba26-3c95-4413-a89a-6f20da4be755","system_id":"levelo_inurba_marseille","lat":43.309038,"lon":5.396546,"is_reserved":false,"is_disabled":false,"rental_uris":{"android":"levelo://app?vid=aaf5ba26-3c95-4413-a89a-6f20da4be755","ios":"levelo://app?vid=aaf5ba26-3c95-4413-a89a-6f20da4be755"},"vehicle_type_id":"4","last_reported":1722107190,"current_range_meters":30800,"station_id":"ce4bh012rcd13ifvqcv0","pricing_plan_id":"cebpf4jnsgd1na2vs0mg"},{"bike_id":"0136c68c-81a4-40f1-8a2b-8545da608ab8","system_id":"levelo_inurba_marseille","lat":43.309038,"lon":5.396546,"is_reserved":false,"is_disabled":false,"rental_uris":{"android":"levelo://app?vid=0136c68c-81a4-40f1-8a2b-8545da608ab8","ios":"levelo://app?vid=0136c68c-81a4-40f1-8a2b-8545da608ab8"},"vehicle_type_id":"4","last_reported":1722107190,"current_range_meters":15600,"station_id":"ce4bh012rcd13ifvqcv0","pricing_plan_id":"cebpf4jnsgd1na2vs0mg"},{"bike_id":"a57180c9-14f0-4db9-9de4-21239834614f","system_id":"levelo_inurba_marseille","lat":43.29529,"lon":5.385581,"is_reserved":false,"is_disabled":false,"rental_uris":{"android":"levelo://app?vid=a57180c9-14f0-4db9-9de4-21239834614f","ios":"levelo://app?vid=a57180c9-14f0-4db9-9de4-21239834614f"},"vehicle_type_id":"4","last_reported":1722107190,"current_range_meters":2800,"station_id":"ce4bgih2rcd13ifvqba0","pricing_plan_id":"cebpf4jnsgd1na2vs0mg"},{"bike_id":"10425e07-eff4-4bd5-a8cd-763be2257d5d","system_id":"levelo_inurba_marseille","lat":43.29529,"lon":5.385581,"is_reserved":false,"is_disabled":false,"rental_uris":{"android":"levelo://app?vid=10425e07-eff4-4bd5-a8cd-763be2257d5d","ios":"levelo://app?vid=10425e07-eff4-4bd5-a8cd-763be2257d5d"},"vehicle_type_id":"4","last_reported":1722107190,"current_range_meters":6400,"station_id":"ce4bgih2rcd13ifvqba0","pricing_plan_id":"cebpf4jnsgd1na2vs0mg"},{"bike_id":"3853c678-b446-41e4-9c5a-44b01e8a2e05","system_id":"levelo_inurba_marseille","lat":43.309589,"lon":5.390258,"is_reserved":false,"is_disabled":false,"rental_uris":{"android":"levelo://app?vid=3853c678-b446-41e4-9c5a-44b01e8a2e05","ios":"levelo://app?vid=3853c678-b446-41e4-9c5a-44b01e8a2e05"},"vehicle_type_id":"4","last_reported":1722107190,"current_range_meters":8000,"station_id":"ce4bgup2rcd13ifvqco0","pricing_plan_id":"cebpf4jnsgd1na2vs0mg"},{"bike_id":"ecb04351-db67-4376-a764-578767b309ec","system_id":"levelo_inurba_marseille","lat":43.302008,"lon":5.394694,"is_reserved":false,"is_disabled":false,"rental_uris":{"android":"levelo://app?vid=ecb04351-db67-4376-a764-578767b309ec","ios":"levelo://app?vid=ecb04351-db67-4376-a764-578767b309ec"},"vehicle_type_id":"4","last_reported":1722107190,"current_range_meters":20800,"station_id":"ce4bh0p2rcd13ifvqd70","pricing_plan_id":"cebpf4jnsgd1na2vs0mg"},{"bike_id":"522102a3-b31c-42a7-b4c5-119a535af562","system_id":"levelo_inurba_marseille","lat":43.302008,"lon":5.394694,"is_reserved":false,"is_disabled":false,"rental_uris":{"android":"levelo://app?vid=522102a3-b31c-42a7-b4c5-119a535af562","ios":"levelo://app?vid=522102a3-b31c-42a7-b4c5-119a535af562"},"vehicle_type_id":"4","last_reported":1722107190,"current_range_meters":2800,"station_id":"ce4bh0p2rcd13ifvqd70","pricing_plan_id":"cebpf4jnsgd1na2vs0mg"},{"bike_id":"ac3702d6-279f-4db1-ab79-8bdc9909d861","system_id":"levelo_inurba_marseille","lat":43.302008,"lon":5.394694,"is_reserved":false,"is_disabled":false,"rental_uris":{"android":"levelo://app?vid=ac3702d6-279f-4db1-ab79-8bdc9909d861","ios":"levelo://app?vid=ac3702d6-279f-4db1-ab79-8bdc9909d861"},"vehicle_type_id":"4","last_reported":1722107190,"current_range_meters":1600,"station_id":"ce4bh0p2rcd13ifvqd70","pricing_plan_id":"cebpf4jnsgd1na2vs0mg"},{"bike_id":"d81fd98a-14eb-4992-a27b-47fc73ab6395","system_id":"levelo_inurba_marseille","lat":43.302008,"lon":5.394694,"is_reserved":false,"is_disabled":false,"rental_uris":{"android":"levelo://app?vid=d81fd98a-14eb-4992-a27b-47fc73ab6395","ios":"levelo://app?vid=d81fd98a-14eb-4992-a27b-47fc73ab6395"},"vehicle_type_id":"4","last_reported":1722107190,"current_range_meters":400,"station_id":"ce4bh0p2rcd13ifvqd70","pricing_plan_id":"cebpf4jnsgd1na2vs0mg"},{"bike_id":"9a440cef-7607-4644-8713-d0ef198f0a94","system_id":"levelo_inurba_marseille","lat":43.290631,"lon":5.359244,"is_reserved":false,"is_disabled":false,"rental_uris":{"android":"levelo://app?vid=9a440cef-7607-4644-8713-d0ef198f0a94","ios":"levelo://app?vid=9a440cef-7607-4644-8713-d0ef198f0a94"},"vehicle_type_id":"4","last_reported":1722107190,"current_range_meters":400,"station_id":"ce4bha92rcd13ifvqeg0","pricing_plan_id":"cebpf4jnsgd1na2vs0mg"},{"bike_id":"e78c9b95-4557-4710-a49a-a8e632d447ad","system_id":"levelo_inurba_marseille","lat":43.294153,"lon":5.386305,"is_reserved":false,"is_disabled":false,"rental_uris":{"android":"levelo://app?vid=e78c9b95-4557-4710-a49a-a8e632d447ad","ios":"levelo://app?vid=e78c9b95-4557-4710-a49a-a8e632d447ad"},"vehicle_type_id":"4","last_reported":1722107190,"current_range_meters":9600,"station_id":"ce4bh2h2rcd13ifvqdh0","pricing_plan_id":"cebpf4jnsgd1na2vs0mg"},{"bike_id":"1ea15035-d553-4ddc-b783-284dba5ab182","system_id":"levelo_inurba_marseille","lat":43.294153,"lon":5.386305,"is_reserved":false,"is_disabled":false,"rental_uris":{"android":"levelo://app?vid=1ea15035-d553-4ddc-b783-284dba5ab182","ios":"levelo://app?vid=1ea15035-d553-4ddc-b783-284dba5ab182"},"vehicle_type_id":"4","last_reported":1722107190,"current_range_meters":14400,"station_id":"ce4bh2h2rcd13ifvqdh0","pricing_plan_id":"cebpf4jnsgd1na2vs0mg"},{"bike_id":"6e9db403-7925-431c-beb2-ba040700a97d","system_id":"levelo_inurba_marseille","lat":43.294153,"lon":5.386305,"is_reserved":false,"is_disabled":false,"rental_uris":{"android":"levelo://app?vid=6e9db403-7925-431c-beb2-ba040700a97d","ios":"levelo://app?vid=6e9db403-7925-431c-beb2-ba040700a97d"},"vehicle_type_id":"4","last_reported":1722107190,"current_range_meters":9600,"station_id":"ce4bh2h2rcd13ifvqdh0","pricing_plan_id":"cebpf4jnsgd1na2vs0mg"},{"bike_id":"94c1cafe-752c-4a8d-b45b-d1dc86111d73","system_id":"levelo_inurba_marseille","lat":43.29421,"lon":5.38626,"is_reserved":false,"is_disabled":false,"rental_uris":{"android":"levelo://app?vid=94c1cafe-752c-4a8d-b45b-d1dc86111d73","ios":"levelo://app?vid=94c1cafe-752c-4a8d-b45b-d1dc86111d73"},"vehicle_type_id":"4","last_reported":1722107190,"current_range_meters":4400,"station_id":"ce4bh2h2rcd13ifvqdh0","pricing_plan_id":"cebpf4jnsgd1na2vs0mg"},{"bike_id":"b097b44d-3333-4a2a-aee6-c49fdb03cbd4","system_id":"levelo_inurba_marseille","lat":43.2942,"lon":5.38627,"is_reserved":false,"is_disabled":false,"rental_uris":{"android":"levelo://app?vid=b097b44d-3333-4a2a-aee6-c49fdb03cbd4","ios":"levelo://app?vid=b097b44d-3333-4a2a-aee6-c49fdb03cbd4"},"vehicle_type_id":"4","last_reported":1722107190,"current_range_meters":4400,"station_id":"ce4bh2h2rcd13ifvqdh0","pricing_plan_id":"cebpf4jnsgd1na2vs0mg"},{"bike_id":"c8182f57-e6ce-4b53-90d1-ac879853299c","system_id":"levelo_inurba_marseille","lat":43.294153,"lon":5.386305,"is_reserved":false,"is_disabled":false,"rental_uris":{"android":"levelo://app?vid=c8182f57-e6ce-4b53-90d1-ac879853299c","ios":"levelo://app?vid=c8182f57-e6ce-4b53-90d1-ac879853299c"},"vehicle_type_id":"4","last_reported":1722107190,"current_range_meters":21600,"station_id":"ce4bh2h2rcd13ifvqdh0","pricing_plan_id":"cebpf4jnsgd1na2vs0mg"},{"bike_id":"a8f09e27-4840-4163-b0e1-6e1b1a997f89","system_id":"levelo_inurba_marseille","lat":43.290327,"lon":5.375711,"is_reserved":false,"is_disabled":false,"rental_uris":{"android":"levelo://app?vid=a8f09e27-4840-4163-b0e1-6e1b1a997f89","ios":"levelo://app?vid=a8f09e27-4840-4163-b0e1-6e1b1a997f89"},"vehicle_type_id":"4","last_reported":1722107190,"current_range_meters":17200,"station_id":"ce4bh692rcd13ifvqe90","pricing_plan_id":"cebpf4jnsgd1na2vs0mg"},{"bike_id":"69c70233-24ef-406a-8c9b-47f5d490ac67","system_id":"levelo_inurba_marseille","lat":43.294153,"lon":5.386305,"is_reserved":false,"is_disabled":false,"rental_uris":{"android":"levelo://app?vid=69c70233-24ef-406a-8c9b-47f5d490ac67","ios":"levelo://app?vid=69c70233-24ef-406a-8c9b-47f5d490ac67"},"vehicle_type_id":"4","last_reported":1722107190,"current_range_meters":0,"station_id":"ce4bh2h2rcd13ifvqdh0","pricing_plan_id":"cebpf4jnsgd1na2vs0mg"},{"bike_id":"b42580bd-b2bf-4c9d-b38c-122a174b227c","system_id":"levelo_inurba_marseille","lat":43.294162,"lon":5.386292,"is_reserved":false,"is_disabled":false,"rental_uris":{"android":"levelo://app?vid=b42580bd-b2bf-4c9d-b38c-122a174b227c","ios":"levelo://app?vid=b42580bd-b2bf-4c9d-b38c-122a174b227c"},"vehicle_type_id":"4","last_reported":1722107190,"current_range_meters":18000,"station_id":"ce4bh2h2rcd13ifvqdh0","pricing_plan_id":"cebpf4jnsgd1na2vs0mg"},{"bike_id":"6ac4d97d-5257-433d-946d-76a5aaa54a79","system_id":"levelo_inurba_marseille","lat":43.28945,"lon":5.36627,"is_reserved":false,"is_disabled":false,"rental_uris":{"android":"levelo://app?vid=6ac4d97d-5257-433d-946d-76a5aaa54a79","ios":"levelo://app?vid=6ac4d97d-5257-433d-946d-76a5aaa54a79"},"vehicle_type_id":"4","last_reported":1722107190,"current_range_meters":0,"station_id":"ce4bhap2rcd13ifvqek0","pricing_plan_id":"cebpf4jnsgd1na2vs0mg"},{"bike_id":"037d1413-bab3-4fa8-b4ce-8970ed0b509b","system_id":"levelo_inurba_marseille","lat":43.29418,"lon":5.38628,"is_reserved":false,"is_disabled":false,"rental_uris":{"android":"levelo://app?vid=037d1413-bab3-4fa8-b4ce-8970ed0b509b","ios":"levelo://app?vid=037d1413-bab3-4fa8-b4ce-8970ed0b509b"},"vehicle_type_id":"4","last_reported":1722107190,"current_range_meters":0,"station_id":"ce4bh2h2rcd13ifvqdh0","pricing_plan_id":"cebpf4jnsgd1na2vs0mg"},{"bike_id":"0a0f8bcf-b91f-431f-9fb6-3cfedcb35816","system_id":"levelo_inurba_marseille","lat":43.294153,"lon":5.386305,"is_reserved":false,"is_disabled":false,"rental_uris":{"android":"levelo://app?vid=0a0f8bcf-b91f-431f-9fb6-3cfedcb35816","ios":"levelo://app?vid=0a0f8bcf-b91f-431f-9fb6-3cfedcb35816"},"vehicle_type_id":"4","last_reported":1722107190,"current_range_meters":18800,"station_id":"ce4bh2h2rcd13ifvqdh0","pricing_plan_id":"cebpf4jnsgd1na2vs0mg"},{"bike_id":"ed4962e5-71ea-4f16-ae63-f262ec9682bb","system_id":"levelo_inurba_marseille","lat":43.294162,"lon":5.386292,"is_reserved":false,"is_disabled":false,"rental_uris":{"android":"levelo://app?vid=ed4962e5-71ea-4f16-ae63-f262ec9682bb","ios":"levelo://app?vid=ed4962e5-71ea-4f16-ae63-f262ec9682bb"},"vehicle_type_id":"4","last_reported":1722107190,"current_range_meters":12400,"station_id":"ce4bh2h2rcd13ifvqdh0","pricing_plan_id":"cebpf4jnsgd1na2vs0mg"},{"bike_id":"5ba943ff-c20e-4eb3-96e1-93167168d6a1","system_id":"levelo_inurba_marseille","lat":43.28942,"lon":5.36633,"is_reserved":false,"is_disabled":false,"rental_uris":{"android":"levelo://app?vid=5ba943ff-c20e-4eb3-96e1-93167168d6a1","ios":"levelo://app?vid=5ba943ff-c20e-4eb3-96e1-93167168d6a1"},"vehicle_type_id":"4","last_reported":1722107190,"current_range_meters":0,"station_id":"ce4bhap2rcd13ifvqek0","pricing_plan_id":"cebpf4jnsgd1na2vs0mg"},{"bike_id":"da8ae355-fc0d-4800-97d8-cf3db4e38360","system_id":"levelo_inurba_marseille","lat":43.294162,"lon":5.386292,"is_reserved":false,"is_disabled":false,"rental_uris":{"android":"levelo://app?vid=da8ae355-fc0d-4800-97d8-cf3db4e38360","ios":"levelo://app?vid=da8ae355-fc0d-4800-97d8-cf3db4e38360"},"vehicle_type_id":"4","last_reported":1722107190,"current_range_meters":0,"station_id":"ce4bh2h2rcd13ifvqdh0","pricing_plan_id":"cebpf4jnsgd1na2vs0mg"},{"bike_id":"fdacc0b3-2b85-4d5b-b041-f4dda19dae9b","system_id":"levelo_inurba_marseille","lat":43.294153,"lon":5.386305,"is_reserved":false,"is_disabled":false,"rental_uris":{"android":"levelo://app?vid=fdacc0b3-2b85-4d5b-b041-f4dda19dae9b","ios":"levelo://app?vid=fdacc0b3-2b85-4d5b-b041-f4dda19dae9b"},"vehicle_type_id":"4","last_reported":1722107190,"current_range_meters":0,"station_id":"ce4bh2h2rcd13ifvqdh0","pricing_plan_id":"cebpf4jnsgd1na2vs0mg"},{"bike_id":"7c211655-6d33-461a-bf72-e5200589268b","system_id":"levelo_inurba_marseille","lat":43.29412,"lon":5.38629,"is_reserved":false,"is_disabled":false,"rental_uris":{"android":"levelo://app?vid=7c211655-6d33-461a-bf72-e5200589268b","ios":"levelo://app?vid=7c211655-6d33-461a-bf72-e5200589268b"},"vehicle_type_id":"4","last_reported":1722107190,"current_range_meters":2000,"station_id":"","pricing_plan_id":"cebpf4jnsgd1na2vs0mg"},{"bike_id":"c0d77806-3d11-46e9-a260-0f613a52918e","system_id":"levelo_inurba_marseille","lat":43.289385,"lon":5.36644,"is_reserved":false,"is_disabled":false,"rental_uris":{"android":"levelo://app?vid=c0d77806-3d11-46e9-a260-0f613a52918e","ios":"levelo://app?vid=c0d77806-3d11-46e9-a260-0f613a52918e"},"vehicle_type_id":"4","last_reported":1722107190,"current_range_meters":0,"station_id":"ce4bhap2rcd13ifvqek0","pricing_plan_id":"cebpf4jnsgd1na2vs0mg"},{"bike_id":"bf199076-8d52-4f2b-b8aa-d2e5ec20603a","system_id":"levelo_inurba_marseille","lat":43.289184,"lon":5.366408,"is_reserved":false,"is_disabled":false,"rental_uris":{"android":"levelo://app?vid=bf199076-8d52-4f2b-b8aa-d2e5ec20603a","ios":"levelo://app?vid=bf199076-8d52-4f2b-b8aa-d2e5ec20603a"},"vehicle_type_id":"4","last_reported":1722107190,"current_range_meters":0,"station_id":"ce4bhap2rcd13ifvqek0","pricing_plan_id":"cebpf4jnsgd1na2vs0mg"},{"bike_id":"716a2195-27e7-4100-b4b7-28d267e88207","system_id":"levelo_inurba_marseille","lat":43.28937,"lon":5.36636,"is_reserved":false,"is_disabled":false,"rental_uris":{"android":"levelo://app?vid=716a2195-27e7-4100-b4b7-28d267e88207","ios":"levelo://app?vid=716a2195-27e7-4100-b4b7-28d267e88207"},"vehicle_type_id":"4","last_reported":1722107190,"current_range_meters":0,"station_id":"ce4bhap2rcd13ifvqek0","pricing_plan_id":"cebpf4jnsgd1na2vs0mg"},{"bike_id":"8e843daf-b907-421a-8a54-c52f12c7796b","system_id":"levelo_inurba_marseille","lat":43.28931,"lon":5.36634,"is_reserved":false,"is_disabled":false,"rental_uris":{"android":"levelo://app?vid=8e843daf-b907-421a-8a54-c52f12c7796b","ios":"levelo://app?vid=8e843daf-b907-421a-8a54-c52f12c7796b"},"vehicle_type_id":"4","last_reported":1722107190,"current_range_meters":0,"station_id":"ce4bhap2rcd13ifvqek0","pricing_plan_id":"cebpf4jnsgd1na2vs0mg"},{"bike_id":"cc10878a-d175-40c4-8859-661b1daf3230","system_id":"levelo_inurba_marseille","lat":43.28931,"lon":5.36626,"is_reserved":false,"is_disabled":false,"rental_uris":{"android":"levelo://app?vid=cc10878a-d175-40c4-8859-661b1daf3230","ios":"levelo://app?vid=cc10878a-d175-40c4-8859-661b1daf3230"},"vehicle_type_id":"4","last_reported":1722107190,"current_range_meters":0,"station_id":"ce4bhap2rcd13ifvqek0","pricing_plan_id":"cebpf4jnsgd1na2vs0mg"},{"bike_id":"51ba4f18-fa12-4a02-96de-0caa2a9f4c12","system_id":"levelo_inurba_marseille","lat":43.289184,"lon":5.366408,"is_reserved":false,"is_disabled":false,"rental_uris":{"android":"levelo://app?vid=51ba4f18-fa12-4a02-96de-0caa2a9f4c12","ios":"levelo://app?vid=51ba4f18-fa12-4a02-96de-0caa2a9f4c12"},"vehicle_type_id":"4","last_reported":1722107190,"current_range_meters":0,"station_id":"ce4bhap2rcd13ifvqek0","pricing_plan_id":"cebpf4jnsgd1na2vs0mg"},{"bike_id":"1b7e0798-82d1-40a6-9821-27096f15b916","system_id":"levelo_inurba_marseille","lat":43.28936,"lon":5.36387,"is_reserved":false,"is_disabled":false,"rental_uris":{"android":"levelo://app?vid=1b7e0798-82d1-40a6-9821-27096f15b916","ios":"levelo://app?vid=1b7e0798-82d1-40a6-9821-27096f15b916"},"vehicle_type_id":"4","last_reported":1722107190,"current_range_meters":0,"station_id":"ce4bhc92rcd13ifvqetg","pricing_plan_id":"cebpf4jnsgd1na2vs0mg"},{"bike_id":"c3e925f0-cf49-4b9c-9a88-1f130d29e9c1","system_id":"levelo_inurba_marseille","lat":43.29271,"lon":5.38426,"is_reserved":false,"is_disabled":false,"rental_uris":{"android":"levelo://app?vid=c3e925f0-cf49-4b9c-9a88-1f130d29e9c1","ios":"levelo://app?vid=c3e925f0-cf49-4b9c-9a88-1f130d29e9c1"},"vehicle_type_id":"4","last_reported":1722107190,"current_range_meters":8000,"station_id":"ce4bh692rcd13ifvqea0","pricing_plan_id":"cebpf4jnsgd1na2vs0mg"},{"bike_id":"6b9d155f-1ddd-4565-ac52-2b19d5b88391","system_id":"levelo_inurba_marseille","lat":43.292642,"lon":5.384254,"is_reserved":false,"is_disabled":false,"rental_uris":{"android":"levelo://app?vid=6b9d155f-1ddd-4565-ac52-2b19d5b88391","ios":"levelo://app?vid=6b9d155f-1ddd-4565-ac52-2b19d5b88391"},"vehicle_type_id":"4","last_reported":1722107190,"current_range_meters":0,"station_id":"ce4bh692rcd13ifvqea0","pricing_plan_id":"cebpf4jnsgd1na2vs0mg"},{"bike_id":"7600e5d7-6f97-4453-9dac-257ffb1f6fa7","system_id":"levelo_inurba_marseille","lat":43.292644,"lon":5.384257,"is_reserved":false,"is_disabled":false,"rental_uris":{"android":"levelo://app?vid=7600e5d7-6f97-4453-9dac-257ffb1f6fa7","ios":"levelo://app?vid=7600e5d7-6f97-4453-9dac-257ffb1f6fa7"},"vehicle_type_id":"4","last_reported":1722107190,"current_range_meters":0,"station_id":"ce4bh692rcd13ifvqea0","pricing_plan_id":"cebpf4jnsgd1na2vs0mg"},{"bike_id":"136187df-1caf-4a65-8759-daf4906d68b3","system_id":"levelo_inurba_marseille","lat":43.29267,"lon":5.38435,"is_reserved":false,"is_disabled":false,"rental_uris":{"android":"levelo://app?vid=136187df-1caf-4a65-8759-daf4906d68b3","ios":"levelo://app?vid=136187df-1caf-4a65-8759-daf4906d68b3"},"vehicle_type_id":"4","last_reported":1722107190,"current_range_meters":20400,"station_id":"ce4bh692rcd13ifvqea0","pricing_plan_id":"cebpf4jnsgd1na2vs0mg"},{"bike_id":"5282e870-c760-4c36-ac8d-227b74a125d5","system_id":"levelo_inurba_marseille","lat":43.29269,"lon":5.3844,"is_reserved":false,"is_disabled":false,"rental_uris":{"android":"levelo://app?vid=5282e870-c760-4c36-ac8d-227b74a125d5","ios":"levelo://app?vid=5282e870-c760-4c36-ac8d-227b74a125d5"},"vehicle_type_id":"4","last_reported":1722107190,"current_range_meters":0,"station_id":"ce4bh692rcd13ifvqea0","pricing_plan_id":"cebpf4jnsgd1na2vs0mg"},{"bike_id":"554825b7-ae81-4695-8000-a12c7f0d86cd","system_id":"levelo_inurba_marseille","lat":43.292644,"lon":5.384257,"is_reserved":false,"is_disabled":false,"rental_uris":{"android":"levelo://app?vid=554825b7-ae81-4695-8000-a12c7f0d86cd","ios":"levelo://app?vid=554825b7-ae81-4695-8000-a12c7f0d86cd"},"vehicle_type_id":"4","last_reported":1722107190,"current_range_meters":29200,"station_id":"ce4bh692rcd13ifvqea0","pricing_plan_id":"cebpf4jnsgd1na2vs0mg"},{"bike_id":"01fa03e8-6200-423b-983a-932a08d59e6a","system_id":"levelo_inurba_marseille","lat":43.29266,"lon":5.38436,"is_reserved":false,"is_disabled":false,"rental_uris":{"android":"levelo://app?vid=01fa03e8-6200-423b-983a-932a08d59e6a","ios":"levelo://app?vid=01fa03e8-6200-423b-983a-932a08d59e6a"},"vehicle_type_id":"4","last_reported":1722107190,"current_range_meters":16800,"station_id":"ce4bh692rcd13ifvqea0","pricing_plan_id":"cebpf4jnsgd1na2vs0mg"},{"bike_id":"5dc4e6c3-a82f-4c73-91bc-b14a568627d6","system_id":"levelo_inurba_marseille","lat":43.29265,"lon":5.38435,"is_reserved":false,"is_disabled":false,"rental_uris":{"android":"levelo://app?vid=5dc4e6c3-a82f-4c73-91bc-b14a568627d6","ios":"levelo://app?vid=5dc4e6c3-a82f-4c73-91bc-b14a568627d6"},"vehicle_type_id":"4","last_reported":1722107190,"current_range_meters":0,"station_id":"ce4bh692rcd13ifvqea0","pricing_plan_id":"cebpf4jnsgd1na2vs0mg"},{"bike_id":"f64f201f-636e-4abf-8d44-9be83ac96bde","system_id":"levelo_inurba_marseille","lat":43.29264,"lon":5.38433,"is_reserved":false,"is_disabled":false,"rental_uris":{"android":"levelo://app?vid=f64f201f-636e-4abf-8d44-9be83ac96bde","ios":"levelo://app?vid=f64f201f-636e-4abf-8d44-9be83ac96bde"},"vehicle_type_id":"4","last_reported":1722107190,"current_range_meters":11600,"station_id":"ce4bh692rcd13ifvqea0","pricing_plan_id":"cebpf4jnsgd1na2vs0mg"},{"bike_id":"7292d0a5-dd89-406b-8165-00e5df955e7a","system_id":"levelo_inurba_marseille","lat":43.29264,"lon":5.38434,"is_reserved":false,"is_disabled":false,"rental_uris":{"android":"levelo://app?vid=7292d0a5-dd89-406b-8165-00e5df955e7a","ios":"levelo://app?vid=7292d0a5-dd89-406b-8165-00e5df955e7a"},"vehicle_type_id":"4","last_reported":1722107190,"current_range_meters":18800,"station_id":"ce4bh692rcd13ifvqea0","pricing_plan_id":"cebpf4jnsgd1na2vs0mg"},{"bike_id":"4ba83142-8479-4899-a9fc-438c097d9328","system_id":"levelo_inurba_marseille","lat":43.2927,"lon":5.38448,"is_reserved":false,"is_disabled":false,"rental_uris":{"android":"levelo://app?vid=4ba83142-8479-4899-a9fc-438c097d9328","ios":"levelo://app?vid=4ba83142-8479-4899-a9fc-438c097d9328"},"vehicle_type_id":"4","last_reported":1722107190,"current_range_meters":25200,"station_id":"ce4bh692rcd13ifvqea0","pricing_plan_id":"cebpf4jnsgd1na2vs0mg"},{"bike_id":"9be3e6e5-bfb2-4f8f-9725-c9c8c6bf3151","system_id":"levelo_inurba_marseille","lat":43.292644,"lon":5.384257,"is_reserved":false,"is_disabled":false,"rental_uris":{"android":"levelo://app?vid=9be3e6e5-bfb2-4f8f-9725-c9c8c6bf3151","ios":"levelo://app?vid=9be3e6e5-bfb2-4f8f-9725-c9c8c6bf3151"},"vehicle_type_id":"4","last_reported":1722107190,"current_range_meters":18400,"station_id":"ce4bh692rcd13ifvqea0","pricing_plan_id":"cebpf4jnsgd1na2vs0mg"},{"bike_id":"adc8a6d9-a4d2-4293-bc01-166292f0632a","system_id":"levelo_inurba_marseille","lat":43.29262,"lon":5.38432,"is_reserved":false,"is_disabled":false,"rental_uris":{"android":"levelo://app?vid=adc8a6d9-a4d2-4293-bc01-166292f0632a","ios":"levelo://app?vid=adc8a6d9-a4d2-4293-bc01-166292f0632a"},"vehicle_type_id":"4","last_reported":1722107190,"current_range_meters":18400,"station_id":"ce4bh692rcd13ifvqea0","pricing_plan_id":"cebpf4jnsgd1na2vs0mg"},{"bike_id":"4965003f-c94a-47db-a01d-8b48e134529e","system_id":"levelo_inurba_marseille","lat":43.292644,"lon":5.384257,"is_reserved":false,"is_disabled":false,"rental_uris":{"android":"levelo://app?vid=4965003f-c94a-47db-a01d-8b48e134529e","ios":"levelo://app?vid=4965003f-c94a-47db-a01d-8b48e134529e"},"vehicle_type_id":"4","last_reported":1722107190,"current_range_meters":4400,"station_id":"ce4bh692rcd13ifvqea0","pricing_plan_id":"cebpf4jnsgd1na2vs0mg"},{"bike_id":"f75d2e57-c0bb-48af-9d12-cdf4f2b11a78","system_id":"levelo_inurba_marseille","lat":43.292656,"lon":5.384442,"is_reserved":false,"is_disabled":false,"rental_uris":{"android":"levelo://app?vid=f75d2e57-c0bb-48af-9d12-cdf4f2b11a78","ios":"levelo://app?vid=f75d2e57-c0bb-48af-9d12-cdf4f2b11a78"},"vehicle_type_id":"4","last_reported":1722107190,"current_range_meters":21200,"station_id":"","pricing_plan_id":"cebpf4jnsgd1na2vs0mg"},{"bike_id":"8c89f19d-45f5-4e05-ab31-ca90b7e0cf7e","system_id":"levelo_inurba_marseille","lat":43.29262,"lon":5.38437,"is_reserved":false,"is_disabled":false,"rental_uris":{"android":"levelo://app?vid=8c89f19d-45f5-4e05-ab31-ca90b7e0cf7e","ios":"levelo://app?vid=8c89f19d-45f5-4e05-ab31-ca90b7e0cf7e"},"vehicle_type_id":"4","last_reported":1722107190,"current_range_meters":6000,"station_id":"ce4bh692rcd13ifvqea0","pricing_plan_id":"cebpf4jnsgd1na2vs0mg"},{"bike_id":"516ed62e-b419-43f3-acfd-b63ddae5c2e4","system_id":"levelo_inurba_marseille","lat":43.292642,"lon":5.384254,"is_reserved":false,"is_disabled":false,"rental_uris":{"android":"levelo://app?vid=516ed62e-b419-43f3-acfd-b63ddae5c2e4","ios":"levelo://app?vid=516ed62e-b419-43f3-acfd-b63ddae5c2e4"},"vehicle_type_id":"4","last_reported":1722107190,"current_range_meters":0,"station_id":"ce4bh692rcd13ifvqea0","pricing_plan_id":"cebpf4jnsgd1na2vs0mg"},{"bike_id":"342cfe9d-d3a7-4eff-830a-625b75b1c1b9","system_id":"levelo_inurba_marseille","lat":43.292644,"lon":5.384257,"is_reserved":false,"is_disabled":false,"rental_uris":{"android":"levelo://app?vid=342cfe9d-d3a7-4eff-830a-625b75b1c1b9","ios":"levelo://app?vid=342cfe9d-d3a7-4eff-830a-625b75b1c1b9"},"vehicle_type_id":"4","last_reported":1722107190,"current_range_meters":4000,"station_id":"ce4bh692rcd13ifvqea0","pricing_plan_id":"cebpf4jnsgd1na2vs0mg"},{"bike_id":"28350b3c-eeb6-4a0b-b521-c994b3b34100","system_id":"levelo_inurba_marseille","lat":43.292644,"lon":5.384257,"is_reserved":false,"is_disabled":false,"rental_uris":{"android":"levelo://app?vid=28350b3c-eeb6-4a0b-b521-c994b3b34100","ios":"levelo://app?vid=28350b3c-eeb6-4a0b-b521-c994b3b34100"},"vehicle_type_id":"4","last_reported":1722107190,"current_range_meters":0,"station_id":"ce4bh692rcd13ifvqea0","pricing_plan_id":"cebpf4jnsgd1na2vs0mg"},{"bike_id":"2d8a3ace-6c94-46f5-91b7-59b8ef926bb7","system_id":"levelo_inurba_marseille","lat":43.29261,"lon":5.38438,"is_reserved":false,"is_disabled":false,"rental_uris":{"android":"levelo://app?vid=2d8a3ace-6c94-46f5-91b7-59b8ef926bb7","ios":"levelo://app?vid=2d8a3ace-6c94-46f5-91b7-59b8ef926bb7"},"vehicle_type_id":"4","last_reported":1722107190,"current_range_meters":20800,"station_id":"ce4bh692rcd13ifvqea0","pricing_plan_id":"cebpf4jnsgd1na2vs0mg"},{"bike_id":"3d6e629e-756f-4442-ba85-828eee97cbfd","system_id":"levelo_inurba_marseille","lat":43.292639,"lon":5.384449,"is_reserved":false,"is_disabled":false,"rental_uris":{"android":"levelo://app?vid=3d6e629e-756f-4442-ba85-828eee97cbfd","ios":"levelo://app?vid=3d6e629e-756f-4442-ba85-828eee97cbfd"},"vehicle_type_id":"4","last_reported":1722107190,"current_range_meters":20000,"station_id":"ce4bh692rcd13ifvqea0","pricing_plan_id":"cebpf4jnsgd1na2vs0mg"},{"bike_id":"950b4301-fe5f-46d1-9087-63776a92d5eb","system_id":"levelo_inurba_marseille","lat":43.292597,"lon":5.38437,"is_reserved":false,"is_disabled":false,"rental_uris":{"android":"levelo://app?vid=950b4301-fe5f-46d1-9087-63776a92d5eb","ios":"levelo://app?vid=950b4301-fe5f-46d1-9087-63776a92d5eb"},"vehicle_type_id":"4","last_reported":1722107190,"current_range_meters":0,"station_id":"ce4bh692rcd13ifvqea0","pricing_plan_id":"cebpf4jnsgd1na2vs0mg"},{"bike_id":"9c257649-ba63-4ad9-8053-d4fd91c116f5","system_id":"levelo_inurba_marseille","lat":43.292644,"lon":5.384257,"is_reserved":false,"is_disabled":false,"rental_uris":{"android":"levelo://app?vid=9c257649-ba63-4ad9-8053-d4fd91c116f5","ios":"levelo://app?vid=9c257649-ba63-4ad9-8053-d4fd91c116f5"},"vehicle_type_id":"4","last_reported":1722107190,"current_range_meters":0,"station_id":"ce4bh692rcd13ifvqea0","pricing_plan_id":"cebpf4jnsgd1na2vs0mg"},{"bike_id":"2f03a0e4-65ae-49e7-9201-7c453e913bad","system_id":"levelo_inurba_marseille","lat":43.29257,"lon":5.38434,"is_reserved":false,"is_disabled":false,"rental_uris":{"android":"levelo://app?vid=2f03a0e4-65ae-49e7-9201-7c453e913bad","ios":"levelo://app?vid=2f03a0e4-65ae-49e7-9201-7c453e913bad"},"vehicle_type_id":"4","last_reported":1722107190,"current_range_meters":1600,"station_id":"ce4bh692rcd13ifvqea0","pricing_plan_id":"cebpf4jnsgd1na2vs0mg"},{"bike_id":"62a609d0-cde9-463f-9ddf-f2e22016283c","system_id":"levelo_inurba_marseille","lat":43.29261,"lon":5.38443,"is_reserved":false,"is_disabled":false,"rental_uris":{"android":"levelo://app?vid=62a609d0-cde9-463f-9ddf-f2e22016283c","ios":"levelo://app?vid=62a609d0-cde9-463f-9ddf-f2e22016283c"},"vehicle_type_id":"4","last_reported":1722107190,"current_range_meters":0,"station_id":"ce4bh692rcd13ifvqea0","pricing_plan_id":"cebpf4jnsgd1na2vs0mg"},{"bike_id":"7b686110-442f-4ab2-8662-ee6259e3b165","system_id":"levelo_inurba_marseille","lat":43.292644,"lon":5.384257,"is_reserved":false,"is_disabled":false,"rental_uris":{"android":"levelo://app?vid=7b686110-442f-4ab2-8662-ee6259e3b165","ios":"levelo://app?vid=7b686110-442f-4ab2-8662-ee6259e3b165"},"vehicle_type_id":"4","last_reported":1722107190,"current_range_meters":1600,"station_id":"ce4bh692rcd13ifvqea0","pricing_plan_id":"cebpf4jnsgd1na2vs0mg"},{"bike_id":"3231312a-0fc7-4a13-ab10-4659e80e5eeb","system_id":"levelo_inurba_marseille","lat":43.29257,"lon":5.38435,"is_reserved":false,"is_disabled":false,"rental_uris":{"android":"levelo://app?vid=3231312a-0fc7-4a13-ab10-4659e80e5eeb","ios":"levelo://app?vid=3231312a-0fc7-4a13-ab10-4659e80e5eeb"},"vehicle_type_id":"4","last_reported":1722107190,"current_range_meters":28000,"station_id":"ce4bh692rcd13ifvqea0","pricing_plan_id":"cebpf4jnsgd1na2vs0mg"},{"bike_id":"f78527af-4295-47e2-8252-a14527ad1c34","system_id":"levelo_inurba_marseille","lat":43.292644,"lon":5.384257,"is_reserved":false,"is_disabled":false,"rental_uris":{"android":"levelo://app?vid=f78527af-4295-47e2-8252-a14527ad1c34","ios":"levelo://app?vid=f78527af-4295-47e2-8252-a14527ad1c34"},"vehicle_type_id":"4","last_reported":1722107190,"current_range_meters":2000,"station_id":"ce4bh692rcd13ifvqea0","pricing_plan_id":"cebpf4jnsgd1na2vs0mg"},{"bike_id":"431ed7a4-43cc-401b-940e-28423af700e7","system_id":"levelo_inurba_marseille","lat":43.292642,"lon":5.384254,"is_reserved":false,"is_disabled":false,"rental_uris":{"android":"levelo://app?vid=431ed7a4-43cc-401b-940e-28423af700e7","ios":"levelo://app?vid=431ed7a4-43cc-401b-940e-28423af700e7"},"vehicle_type_id":"4","last_reported":1722107190,"current_range_meters":0,"station_id":"ce4bh692rcd13ifvqea0","pricing_plan_id":"cebpf4jnsgd1na2vs0mg"},{"bike_id":"be2a1c0c-14e3-4d74-80e1-f85a92155050","system_id":"levelo_inurba_marseille","lat":43.29259,"lon":5.38444,"is_reserved":false,"is_disabled":false,"rental_uris":{"android":"levelo://app?vid=be2a1c0c-14e3-4d74-80e1-f85a92155050","ios":"levelo://app?vid=be2a1c0c-14e3-4d74-80e1-f85a92155050"},"vehicle_type_id":"4","last_reported":1722107190,"current_range_meters":8000,"station_id":"ce4bh692rcd13ifvqea0","pricing_plan_id":"cebpf4jnsgd1na2vs0mg"},{"bike_id":"93dc9ee0-e588-4af0-914f-4521b957b63b","system_id":"levelo_inurba_marseille","lat":43.2901,"lon":5.35611,"is_reserved":false,"is_disabled":false,"rental_uris":{"android":"levelo://app?vid=93dc9ee0-e588-4af0-914f-4521b957b63b","ios":"levelo://app?vid=93dc9ee0-e588-4af0-914f-4521b957b63b"},"vehicle_type_id":"4","last_reported":1722107190,"current_range_meters":0,"station_id":"","pricing_plan_id":"cebpf4jnsgd1na2vs0mg"},{"bike_id":"f8f09001-6c2a-4cc5-a2e5-62c5f41f78f5","system_id":"levelo_inurba_marseille","lat":43.29005,"lon":5.35606,"is_reserved":false,"is_disabled":false,"rental_uris":{"android":"levelo://app?vid=f8f09001-6c2a-4cc5-a2e5-62c5f41f78f5","ios":"levelo://app?vid=f8f09001-6c2a-4cc5-a2e5-62c5f41f78f5"},"vehicle_type_id":"4","last_reported":1722107190,"current_range_meters":0,"station_id":"ce4bhb92rcd13ifvqen0","pricing_plan_id":"cebpf4jnsgd1na2vs0mg"},{"bike_id":"5022070f-39d1-43fc-b2e1-47f2eb727a5e","system_id":"levelo_inurba_marseille","lat":43.290104,"lon":5.356111,"is_reserved":false,"is_disabled":false,"rental_uris":{"android":"levelo://app?vid=5022070f-39d1-43fc-b2e1-47f2eb727a5e","ios":"levelo://app?vid=5022070f-39d1-43fc-b2e1-47f2eb727a5e"},"vehicle_type_id":"4","last_reported":1722107190,"current_range_meters":0,"station_id":"ce4bhb92rcd13ifvqen0","pricing_plan_id":"cebpf4jnsgd1na2vs0mg"},{"bike_id":"9525c9eb-a231-4a67-bb63-e580a880126b","system_id":"levelo_inurba_marseille","lat":43.29002,"lon":5.35616,"is_reserved":false,"is_disabled":false,"rental_uris":{"android":"levelo://app?vid=9525c9eb-a231-4a67-bb63-e580a880126b","ios":"levelo://app?vid=9525c9eb-a231-4a67-bb63-e580a880126b"},"vehicle_type_id":"4","last_reported":1722107190,"current_range_meters":1600,"station_id":"ce4bhb92rcd13ifvqen0","pricing_plan_id":"cebpf4jnsgd1na2vs0mg"},{"bike_id":"fbf02784-30aa-40ac-b75d-ad18abfc5af8","system_id":"levelo_inurba_marseille","lat":43.29003,"lon":5.35605,"is_reserved":false,"is_disabled":false,"rental_uris":{"android":"levelo://app?vid=fbf02784-30aa-40ac-b75d-ad18abfc5af8","ios":"levelo://app?vid=fbf02784-30aa-40ac-b75d-ad18abfc5af8"},"vehicle_type_id":"4","last_reported":1722107190,"current_range_meters":0,"station_id":"ce4bhb92rcd13ifvqen0","pricing_plan_id":"cebpf4jnsgd1na2vs0mg"},