{"last_updated":1777113246,"ttl":60,"version":"2.2","data":{"bikes":[{"bike_id":"d5eae89b-43ac-44a2-84bb-67d96bea1d1c","system_id":"levelo_inurba_marseille","lat":43.26496,"lon":5.39555,"is_reserved":false,"is_disabled":true,"rental_uris":{"android":"levelo://app?vid=d5eae89b-43ac-44a2-84bb-67d96bea1d1c","ios":"levelo://app?vid=d5eae89b-43ac-44a2-84bb-67d96bea1d1c"},"vehicle_type_id":"4","last_reported":1777113247,"current_range_meters":2800,"station_id":"ce4bhi12rcd13ifvqfq0","pricing_plan_id":"cebpf4jnsgd1na2vs0mg"},{"bike_id":"146def8f-c25a-4a36-bb78-c0e04f65294e","system_id":"levelo_inurba_marseille","lat":43.28878,"lon":5.43038,"is_reserved":false,"is_disabled":false,"rental_uris":{"android":"levelo://app?vid=146def8f-c25a-4a36-bb78-c0e04f65294e","ios":"levelo://app?vid=146def8f-c25a-4a36-bb78-c0e04f65294e"},"vehicle_type_id":"4","last_reported":1777113247,"current_range_meters":2800,"station_id":"","pricing_plan_id":"cebpf4jnsgd1na2vs0mg"},{"bike_id":"9ea122b7-b1b3-42ec-9596-127012f59471","system_id":"levelo_inurba_marseille","lat":43.24416,"lon":5.37068,"is_reserved":false,"is_disabled":false,"rental_uris":{"android":"levelo://app?vid=9ea122b7-b1b3-42ec-9596-127012f59471","ios":"levelo://app?vid=9ea122b7-b1b3-42ec-9596-127012f59471"},"vehicle_type_id":"4","last_reported":1777113247,"current_range_meters":2800,"station_id":"ce4bhhh2rcd13ifvqfk0","pricing_plan_id":"cebpf4jnsgd1na2vs0mg"},{"bike_id":"f5ee126f-0b51-45e7-adad-9d08f0c5d2ba","system_id":"levelo_inurba_marseille","lat":43.24388,"lon":5.37066,"is_reserved":false,"is_disabled":false,"rental_uris":{"android":"levelo://app?vid=f5ee126f-0b51-45e7-adad-9d08f0c5d2ba","ios":"levelo://app?vid=f5ee126f-0b51-45e7-adad-9d08f0c5d2ba"},"vehicle_type_id":"4","last_reported":1777113247,"current_range_meters":2800,"station_id":"ce4bhhh2rcd13ifvqfk0","pricing_plan_id":"cebpf4jnsgd1na2vs0mg"},{"bike_id":"2f5837b5-417d-4465-9514-c2e400d5dd41","system_id":"levelo_inurba_marseille","lat":43.25339,"lon":5.42168,"is_reserved":false,"is_disabled":false,"rental_uris":{"android":"levelo://app?vid=2f5837b5-417d-4465-9514-c2e400d5dd41","ios":"levelo://app?vid=2f5837b5-417d-4465-9514-c2e400d5dd41"},"vehicle_type_id":"4","last_reported":1777113247,"current_range_meters":2800,"station_id":"st_d2m65c5bi1j21697t3ng","pricing_plan_id":"cebpf4jnsgd1na2vs0mg"},{"bike_id":"b7046b62-0629-40f6-8256-d8eee275bb56","system_id":"levelo_inurba_marseille","lat":43.283469,"lon":5.381057,"is_reserved":false,"is_disabled":false,"rental_uris":{"android":"levelo://app?vid=b7046b62-0629-40f6-8256-d8eee275bb56","ios":"levelo://app?vid=b7046b62-0629-40f6-8256-d8eee275bb56"},"vehicle_type_id":"4","last_reported":1777113247,"current_range_meters":3200,"station_id":"ce4bh412rcd13ifvqdr0","pricing_plan_id":"cebpf4jnsgd1na2vs0mg"},{"bike_id":"22b6b18a-0dff-4fcb-9dca-8537d06b0bba","system_id":"levelo_inurba_marseille","lat":43.28485,"lon":5.484,"is_reserved":false,"is_disabled":false,"rental_uris":{"android":"levelo://app?vid=22b6b18a-0dff-4fcb-9dca-8537d06b0bba","ios":"levelo://app?vid=22b6b18a-0dff-4fcb-9dca-8537d06b0bba"},"vehicle_type_id":"4","last_reported":1777113247,"current_range_meters":3200,"station_id":"","pricing_plan_id":"cebpf4jnsgd1na2vs0mg"},{"bike_id":"89cb976b-df3a-46fc-a9ef-0025de561630","system_id":"levelo_inurba_marseille","lat":43.29425,"lon":5.43377,"is_reserved":false,"is_disabled":false,"rental_uris":{"android":"levelo://app?vid=89cb976b-df3a-46fc-a9ef-0025de561630","ios":"levelo://app?vid=89cb976b-df3a-46fc-a9ef-0025de561630"},"vehicle_type_id":"4","last_reported":1777113247,"current_range_meters":3200,"station_id":"","pricing_plan_id":"cebpf4jnsgd1na2vs0mg"},{"bike_id":"051bb7a6-8b28-4a80-a902-10ee9ea856ed","system_id":"levelo_inurba_marseille","lat":43.24389,"lon":5.37055,"is_reserved":false,"is_disabled":false,"rental_uris":{"android":"levelo://app?vid=051bb7a6-8b28-4a80-a902-10ee9ea856ed","ios":"levelo://app?vid=051bb7a6-8b28-4a80-a902-10ee9ea856ed"},"vehicle_type_id":"4","last_reported":1777113247,"current_range_meters":3200,"station_id":"ce4bhhh2rcd13ifvqfk0","pricing_plan_id":"cebpf4jnsgd1na2vs0mg"},{"bike_id":"51b21ac8-7147-4a45-959e-a2ddf65ddda4","system_id":"levelo_inurba_marseille","lat":43.29569,"lon":5.37519,"is_reserved":false,"is_disabled":false,"rental_uris":{"android":"levelo://app?vid=51b21ac8-7147-4a45-959e-a2ddf65ddda4","ios":"levelo://app?vid=51b21ac8-7147-4a45-959e-a2ddf65ddda4"},"vehicle_type_id":"4","last_reported":1777113247,"current_range_meters":3200,"station_id":"ce4bgh92rcd13ifvqb50","pricing_plan_id":"cebpf4jnsgd1na2vs0mg"},{"bike_id":"3762a15a-49a2-4fc6-b2e6-a79b5f91a12f","system_id":"levelo_inurba_marseille","lat":43.28471,"lon":5.484,"is_reserved":false,"is_disabled":false,"rental_uris":{"android":"levelo://app?vid=3762a15a-49a2-4fc6-b2e6-a79b5f91a12f","ios":"levelo://app?vid=3762a15a-49a2-4fc6-b2e6-a79b5f91a12f"},"vehicle_type_id":"4","last_reported":1777113247,"current_range_meters":3600,"station_id":"","pricing_plan_id":"cebpf4jnsgd1na2vs0mg"},{"bike_id":"cd21f6c1-a1f8-4978-8025-1d254a6bf514","system_id":"levelo_inurba_marseille","lat":43.28473,"lon":5.48417,"is_reserved":false,"is_disabled":false,"rental_uris":{"android":"levelo://app?vid=cd21f6c1-a1f8-4978-8025-1d254a6bf514","ios":"levelo://app?vid=cd21f6c1-a1f8-4978-8025-1d254a6bf514"},"vehicle_type_id":"4","last_reported":1777113247,"current_range_meters":3600,"station_id":"st_d3svhcjqgbts73a3dn0g","pricing_plan_id":"cebpf4jnsgd1na2vs0mg"},{"bike_id":"26e311ec-734f-477f-9bdc-cee009d68abe","system_id":"levelo_inurba_marseille","lat":43.33534,"lon":5.37455,"is_reserved":false,"is_disabled":false,"rental_uris":{"android":"levelo://app?vid=26e311ec-734f-477f-9bdc-cee009d68abe","ios":"levelo://app?vid=26e311ec-734f-477f-9bdc-cee009d68abe"},"vehicle_type_id":"4","last_reported":1777113247,"current_range_meters":3600,"station_id":"st_d46tts09ee8s73dlu43g","pricing_plan_id":"cebpf4jnsgd1na2vs0mg"},{"bike_id":"e8d6ce3d-1aa9-47ef-9b48-93862ee5f7fd","system_id":"levelo_inurba_marseille","lat":43.21252,"lon":5.35377,"is_reserved":false,"is_disabled":false,"rental_uris":{"android":"levelo://app?vid=e8d6ce3d-1aa9-47ef-9b48-93862ee5f7fd","ios":"levelo://app?vid=e8d6ce3d-1aa9-47ef-9b48-93862ee5f7fd"},"vehicle_type_id":"4","last_reported":1777113247,"current_range_meters":3600,"station_id":"","pricing_plan_id":"cebpf4jnsgd1na2vs0mg"},{"bike_id":"289e5bb7-2972-49ee-9261-66855137ce31","system_id":"levelo_inurba_marseille","lat":43.27676,"lon":5.38883,"is_reserved":false,"is_disabled":false,"rental_uris":{"android":"levelo://app?vid=289e5bb7-2972-49ee-9261-66855137ce31","ios":"levelo://app?vid=289e5bb7-2972-49ee-9261-66855137ce31"},"vehicle_type_id":"4","last_reported":1777113247,"current_range_meters":3600,"station_id":"ce4bhi12rcd13ifvqfo0","pricing_plan_id":"cebpf4jnsgd1na2vs0mg"},{"bike_id":"8036c6e0-0c02-459d-a373-f03351a347d0","system_id":"levelo_inurba_marseille","lat":43.2979,"lon":5.38087,"is_reserved":false,"is_disabled":false,"rental_uris":{"android":"levelo://app?vid=8036c6e0-0c02-459d-a373-f03351a347d0","ios":"levelo://app?vid=8036c6e0-0c02-459d-a373-f03351a347d0"},"vehicle_type_id":"4","last_reported":1777113247,"current_range_meters":3600,"station_id":"ce4bgip2rcd13ifvqbb0","pricing_plan_id":"cebpf4jnsgd1na2vs0mg"},{"bike_id":"4e0d0d98-1dda-494b-a6ce-04f5a876f744","system_id":"levelo_inurba_marseille","lat":43.27772,"lon":5.388,"is_reserved":false,"is_disabled":false,"rental_uris":{"android":"levelo://app?vid=4e0d0d98-1dda-494b-a6ce-04f5a876f744","ios":"levelo://app?vid=4e0d0d98-1dda-494b-a6ce-04f5a876f744"},"vehicle_type_id":"4","last_reported":1777113247,"current_range_meters":3600,"station_id":"","pricing_plan_id":"cebpf4jnsgd1na2vs0mg"},{"bike_id":"b38d89b8-c3c9-4fae-b6f2-09980d89f2e9","system_id":"levelo_inurba_marseille","lat":43.28468,"lon":5.48407,"is_reserved":false,"is_disabled":false,"rental_uris":{"android":"levelo://app?vid=b38d89b8-c3c9-4fae-b6f2-09980d89f2e9","ios":"levelo://app?vid=b38d89b8-c3c9-4fae-b6f2-09980d89f2e9"},"vehicle_type_id":"4","last_reported":1777113247,"current_range_meters":4000,"station_id":"","pricing_plan_id":"cebpf4jnsgd1na2vs0mg"},{"bike_id":"4d040ed4-2f2f-4aeb-b484-49b4d95858e3","system_id":"levelo_inurba_marseille","lat":43.21192,"lon":5.35077,"is_reserved":false,"is_disabled":false,"rental_uris":{"android":"levelo://app?vid=4d040ed4-2f2f-4aeb-b484-49b4d95858e3","ios":"levelo://app?vid=4d040ed4-2f2f-4aeb-b484-49b4d95858e3"},"vehicle_type_id":"4","last_reported":1777113247,"current_range_meters":4000,"station_id":"st_cvj6sg6p6f1abm77japg","pricing_plan_id":"cebpf4jnsgd1na2vs0mg"},{"bike_id":"2813910b-bfe0-425f-a483-9778de4facfb","system_id":"levelo_inurba_marseille","lat":43.3024,"lon":5.44935,"is_reserved":false,"is_disabled":false,"rental_uris":{"android":"levelo://app?vid=2813910b-bfe0-425f-a483-9778de4facfb","ios":"levelo://app?vid=2813910b-bfe0-425f-a483-9778de4facfb"},"vehicle_type_id":"4","last_reported":1777113247,"current_range_meters":4000,"station_id":"","pricing_plan_id":"cebpf4jnsgd1na2vs0mg"},{"bike_id":"bd9c3448-ae68-4278-a859-e07cb1357f24","system_id":"levelo_inurba_marseille","lat":43.31061,"lon":5.37163,"is_reserved":false,"is_disabled":false,"rental_uris":{"android":"levelo://app?vid=bd9c3448-ae68-4278-a859-e07cb1357f24","ios":"levelo://app?vid=bd9c3448-ae68-4278-a859-e07cb1357f24"},"vehicle_type_id":"4","last_reported":1777113247,"current_range_meters":4400,"station_id":"st_d4kl2rp97mjs73e7tdfg","pricing_plan_id":"cebpf4jnsgd1na2vs0mg"},{"bike_id":"65ace3ae-4d0c-4a35-a0d8-17d50bb6a955","system_id":"levelo_inurba_marseille","lat":43.23063,"lon":5.35491,"is_reserved":false,"is_disabled":false,"rental_uris":{"android":"levelo://app?vid=65ace3ae-4d0c-4a35-a0d8-17d50bb6a955","ios":"levelo://app?vid=65ace3ae-4d0c-4a35-a0d8-17d50bb6a955"},"vehicle_type_id":"4","last_reported":1777113247,"current_range_meters":4400,"station_id":"cpo3342slgdg3j2ifvpg","pricing_plan_id":"cebpf4jnsgd1na2vs0mg"},{"bike_id":"96bcface-2350-4510-9d4b-27afe430678c","system_id":"levelo_inurba_marseille","lat":43.23208,"lon":5.40003,"is_reserved":false,"is_disabled":false,"rental_uris":{"android":"levelo://app?vid=96bcface-2350-4510-9d4b-27afe430678c","ios":"levelo://app?vid=96bcface-2350-4510-9d4b-27afe430678c"},"vehicle_type_id":"4","last_reported":1777113247,"current_range_meters":4400,"station_id":"ce4bhn12rcd13ifvqgqg","pricing_plan_id":"cebpf4jnsgd1na2vs0mg"},{"bike_id":"7ab9e9d2-55c6-492f-8e60-126c7a6965ab","system_id":"levelo_inurba_marseille","lat":43.27967,"lon":5.37037,"is_reserved":false,"is_disabled":false,"rental_uris":{"android":"levelo://app?vid=7ab9e9d2-55c6-492f-8e60-126c7a6965ab","ios":"levelo://app?vid=7ab9e9d2-55c6-492f-8e60-126c7a6965ab"},"vehicle_type_id":"4","last_reported":1777113247,"current_range_meters":4400,"station_id":"","pricing_plan_id":"cebpf4jnsgd1na2vs0mg"},{"bike_id":"8ee0a40d-124f-4413-9074-6911095dcd65","system_id":"levelo_inurba_marseille","lat":43.26553,"lon":5.37283,"is_reserved":false,"is_disabled":false,"rental_uris":{"android":"levelo://app?vid=8ee0a40d-124f-4413-9074-6911095dcd65","ios":"levelo://app?vid=8ee0a40d-124f-4413-9074-6911095dcd65"},"vehicle_type_id":"4","last_reported":1777113247,"current_range_meters":4800,"station_id":"ce4bhg12rcd13ifvqf70","pricing_plan_id":"cebpf4jnsgd1na2vs0mg"},{"bike_id":"bac19fb0-416e-41d7-8211-75d1ba2e1895","system_id":"levelo_inurba_marseille","lat":43.31992,"lon":5.38155,"is_reserved":false,"is_disabled":false,"rental_uris":{"android":"levelo://app?vid=bac19fb0-416e-41d7-8211-75d1ba2e1895","ios":"levelo://app?vid=bac19fb0-416e-41d7-8211-75d1ba2e1895"},"vehicle_type_id":"4","last_reported":1777113247,"current_range_meters":4800,"station_id":"ce4bhr12rcd13ifvqhpg","pricing_plan_id":"cebpf4jnsgd1na2vs0mg"},{"bike_id":"e1950aa5-825e-4d28-9f56-ccf504050de3","system_id":"levelo_inurba_marseille","lat":43.25083,"lon":5.3951,"is_reserved":false,"is_disabled":false,"rental_uris":{"android":"levelo://app?vid=e1950aa5-825e-4d28-9f56-ccf504050de3","ios":"levelo://app?vid=e1950aa5-825e-4d28-9f56-ccf504050de3"},"vehicle_type_id":"4","last_reported":1777113247,"current_range_meters":4800,"station_id":"ce4bhm12rcd13ifvqgkg","pricing_plan_id":"cebpf4jnsgd1na2vs0mg"},{"bike_id":"1a033523-513d-4cfd-be92-3476d847df54","system_id":"levelo_inurba_marseille","lat":43.29848,"lon":5.36256,"is_reserved":false,"is_disabled":false,"rental_uris":{"android":"levelo://app?vid=1a033523-513d-4cfd-be92-3476d847df54","ios":"levelo://app?vid=1a033523-513d-4cfd-be92-3476d847df54"},"vehicle_type_id":"4","last_reported":1777113247,"current_range_meters":4800,"station_id":"ce4bgpp2rcd13ifvqc3g","pricing_plan_id":"cebpf4jnsgd1na2vs0mg"},{"bike_id":"a7b87245-c28d-4f8d-becb-31bbaad379e8","system_id":"levelo_inurba_marseille","lat":43.28356,"lon":5.38633,"is_reserved":false,"is_disabled":false,"rental_uris":{"android":"levelo://app?vid=a7b87245-c28d-4f8d-becb-31bbaad379e8","ios":"levelo://app?vid=a7b87245-c28d-4f8d-becb-31bbaad379e8"},"vehicle_type_id":"4","last_reported":1777113247,"current_range_meters":4800,"station_id":"ce4bh492rcd13ifvqdvg","pricing_plan_id":"cebpf4jnsgd1na2vs0mg"},{"bike_id":"6533574e-7540-46ca-bc5e-62e7823dcedd","system_id":"levelo_inurba_marseille","lat":43.21762,"lon":5.34595,"is_reserved":false,"is_disabled":false,"rental_uris":{"android":"levelo://app?vid=6533574e-7540-46ca-bc5e-62e7823dcedd","ios":"levelo://app?vid=6533574e-7540-46ca-bc5e-62e7823dcedd"},"vehicle_type_id":"4","last_reported":1777113247,"current_range_meters":4800,"station_id":"st_cvj6r9ubvosntc0bgbag","pricing_plan_id":"cebpf4jnsgd1na2vs0mg"},{"bike_id":"aa897415-67a0-4b07-b64e-cbc8da7d4792","system_id":"levelo_inurba_marseille","lat":43.24182,"lon":5.36364,"is_reserved":false,"is_disabled":false,"rental_uris":{"android":"levelo://app?vid=aa897415-67a0-4b07-b64e-cbc8da7d4792","ios":"levelo://app?vid=aa897415-67a0-4b07-b64e-cbc8da7d4792"},"vehicle_type_id":"4","last_reported":1777113247,"current_range_meters":5600,"station_id":"cpo36qri1sfpv3e86is0","pricing_plan_id":"cebpf4jnsgd1na2vs0mg"},{"bike_id":"71e9d7db-0750-4ccc-9b9f-61f5ea13dcb5","system_id":"levelo_inurba_marseille","lat":43.28624,"lon":5.35106,"is_reserved":false,"is_disabled":false,"rental_uris":{"android":"levelo://app?vid=71e9d7db-0750-4ccc-9b9f-61f5ea13dcb5","ios":"levelo://app?vid=71e9d7db-0750-4ccc-9b9f-61f5ea13dcb5"},"vehicle_type_id":"4","last_reported":1777113247,"current_range_meters":5600,"station_id":"ce4bhch2rcd13ifvqeug","pricing_plan_id":"cebpf4jnsgd1na2vs0mg"},{"bike_id":"1370c3f0-6074-43de-a93b-f7f87c829b3b","system_id":"levelo_inurba_marseille","lat":43.2912,"lon":5.39985,"is_reserved":false,"is_disabled":false,"rental_uris":{"android":"levelo://app?vid=1370c3f0-6074-43de-a93b-f7f87c829b3b","ios":"levelo://app?vid=1370c3f0-6074-43de-a93b-f7f87c829b3b"},"vehicle_type_id":"4","last_reported":1777113247,"current_range_meters":5600,"station_id":"","pricing_plan_id":"cebpf4jnsgd1na2vs0mg"},{"bike_id":"60be4b0d-4c83-4300-8220-7b23e159ba6b","system_id":"levelo_inurba_marseille","lat":43.24823,"lon":5.37418,"is_reserved":false,"is_disabled":false,"rental_uris":{"android":"levelo://app?vid=60be4b0d-4c83-4300-8220-7b23e159ba6b","ios":"levelo://app?vid=60be4b0d-4c83-4300-8220-7b23e159ba6b"},"vehicle_type_id":"4","last_reported":1777113247,"current_range_meters":5600,"station_id":"ce4bhgh2rcd13ifvqfb0","pricing_plan_id":"cebpf4jnsgd1na2vs0mg"},{"bike_id":"95419b71-8c86-4bde-8255-fe74b8ab1ef9","system_id":"levelo_inurba_marseille","lat":43.21187,"lon":5.35073,"is_reserved":false,"is_disabled":false,"rental_uris":{"android":"levelo://app?vid=95419b71-8c86-4bde-8255-fe74b8ab1ef9","ios":"levelo://app?vid=95419b71-8c86-4bde-8255-fe74b8ab1ef9"},"vehicle_type_id":"4","last_reported":1777113247,"current_range_meters":5600,"station_id":"st_cvj6sg6p6f1abm77japg","pricing_plan_id":"cebpf4jnsgd1na2vs0mg"},{"bike_id":"6a1cfa44-424c-4486-9c1d-4dd666a8eeca","system_id":"levelo_inurba_marseille","lat":43.21194,"lon":5.35075,"is_reserved":false,"is_disabled":false,"rental_uris":{"android":"levelo://app?vid=6a1cfa44-424c-4486-9c1d-4dd666a8eeca","ios":"levelo://app?vid=6a1cfa44-424c-4486-9c1d-4dd666a8eeca"},"vehicle_type_id":"4","last_reported":1777113247,"current_range_meters":5600,"station_id":"st_cvj6sg6p6f1abm77japg","pricing_plan_id":"cebpf4jnsgd1na2vs0mg"},{"bike_id":"d6efe21b-6d9f-4e0a-90ea-fa0f11d5f86b","system_id":"levelo_inurba_marseille","lat":43.21191,"lon":5.35078,"is_reserved":false,"is_disabled":false,"rental_uris":{"android":"levelo://app?vid=d6efe21b-6d9f-4e0a-90ea-fa0f11d5f86b","ios":"levelo://app?vid=d6efe21b-6d9f-4e0a-90ea-fa0f11d5f86b"},"vehicle_type_id":"4","last_reported":1777113247,"current_range_meters":5600,"station_id":"st_cvj6sg6p6f1abm77japg","pricing_plan_id":"cebpf4jnsgd1na2vs0mg"},{"bike_id":"c4b76091-1ea1-49d8-9085-f6814cbc4787","system_id":"levelo_inurba_marseille","lat":43.22926,"lon":5.35387,"is_reserved":false,"is_disabled":false,"rental_uris":{"android":"levelo://app?vid=c4b76091-1ea1-49d8-9085-f6814cbc4787","ios":"levelo://app?vid=c4b76091-1ea1-49d8-9085-f6814cbc4787"},"vehicle_type_id":"4","last_reported":1777113247,"current_range_meters":5600,"station_id":"cpo3532slgdg3j2ikp40","pricing_plan_id":"cebpf4jnsgd1na2vs0mg"},{"bike_id":"ea4e001a-09d6-4f9d-8d3d-9f93e3b94c6f","system_id":"levelo_inurba_marseille","lat":43.28498,"lon":5.38475,"is_reserved":false,"is_disabled":false,"rental_uris":{"android":"levelo://app?vid=ea4e001a-09d6-4f9d-8d3d-9f93e3b94c6f","ios":"levelo://app?vid=ea4e001a-09d6-4f9d-8d3d-9f93e3b94c6f"},"vehicle_type_id":"4","last_reported":1777113247,"current_range_meters":5600,"station_id":"","pricing_plan_id":"cebpf4jnsgd1na2vs0mg"},{"bike_id":"122ff56b-3b55-4c93-9a01-0eba7de87958","system_id":"levelo_inurba_marseille","lat":43.31333,"lon":5.39694,"is_reserved":false,"is_disabled":false,"rental_uris":{"android":"levelo://app?vid=122ff56b-3b55-4c93-9a01-0eba7de87958","ios":"levelo://app?vid=122ff56b-3b55-4c93-9a01-0eba7de87958"},"vehicle_type_id":"4","last_reported":1777113247,"current_range_meters":5600,"station_id":"ce4bgvp2rcd13ifvqcu0","pricing_plan_id":"cebpf4jnsgd1na2vs0mg"},{"bike_id":"68385ad1-5a71-4622-9ac2-dcc837084f17","system_id":"levelo_inurba_marseille","lat":43.24077,"lon":5.37764,"is_reserved":false,"is_disabled":false,"rental_uris":{"android":"levelo://app?vid=68385ad1-5a71-4622-9ac2-dcc837084f17","ios":"levelo://app?vid=68385ad1-5a71-4622-9ac2-dcc837084f17"},"vehicle_type_id":"4","last_reported":1777113247,"current_range_meters":5600,"station_id":"ce4bhnp2rcd13ifvqgvg","pricing_plan_id":"cebpf4jnsgd1na2vs0mg"},{"bike_id":"45d54d87-c245-4a83-906f-1f407dd2dd4b","system_id":"levelo_inurba_marseille","lat":43.26777,"lon":5.3942,"is_reserved":false,"is_disabled":false,"rental_uris":{"android":"levelo://app?vid=45d54d87-c245-4a83-906f-1f407dd2dd4b","ios":"levelo://app?vid=45d54d87-c245-4a83-906f-1f407dd2dd4b"},"vehicle_type_id":"4","last_reported":1777113247,"current_range_meters":5600,"station_id":"ce4bhh12rcd13ifvqfg0","pricing_plan_id":"cebpf4jnsgd1na2vs0mg"},{"bike_id":"c7ac0306-6afc-4781-8692-f962ddfe1a23","system_id":"levelo_inurba_marseille","lat":43.32357,"lon":5.36759,"is_reserved":false,"is_disabled":false,"rental_uris":{"android":"levelo://app?vid=c7ac0306-6afc-4781-8692-f962ddfe1a23","ios":"levelo://app?vid=c7ac0306-6afc-4781-8692-f962ddfe1a23"},"vehicle_type_id":"4","last_reported":1777113247,"current_range_meters":5600,"station_id":"ce4bhsh2rcd13ifvqi2g","pricing_plan_id":"cebpf4jnsgd1na2vs0mg"},{"bike_id":"117967e7-04db-481c-b048-5a2483423d13","system_id":"levelo_inurba_marseille","lat":43.28859,"lon":5.35849,"is_reserved":false,"is_disabled":false,"rental_uris":{"android":"levelo://app?vid=117967e7-04db-481c-b048-5a2483423d13","ios":"levelo://app?vid=117967e7-04db-481c-b048-5a2483423d13"},"vehicle_type_id":"4","last_reported":1777113247,"current_range_meters":5600,"station_id":"ce4bhb12rcd13ifvqem0","pricing_plan_id":"cebpf4jnsgd1na2vs0mg"},{"bike_id":"9bcd0ed3-069b-4513-9cb9-0fff1e1838d7","system_id":"levelo_inurba_marseille","lat":43.272115,"lon":5.391797,"is_reserved":false,"is_disabled":false,"rental_uris":{"android":"levelo://app?vid=9bcd0ed3-069b-4513-9cb9-0fff1e1838d7","ios":"levelo://app?vid=9bcd0ed3-069b-4513-9cb9-0fff1e1838d7"},"vehicle_type_id":"4","last_reported":1777113247,"current_range_meters":6000,"station_id":"ce4bhhp2rcd13ifvqfm0","pricing_plan_id":"cebpf4jnsgd1na2vs0mg"},{"bike_id":"4af5f932-71ad-4954-ac3b-fecb2a352994","system_id":"levelo_inurba_marseille","lat":43.32355,"lon":5.36704,"is_reserved":false,"is_disabled":false,"rental_uris":{"android":"levelo://app?vid=4af5f932-71ad-4954-ac3b-fecb2a352994","ios":"levelo://app?vid=4af5f932-71ad-4954-ac3b-fecb2a352994"},"vehicle_type_id":"4","last_reported":1777113247,"current_range_meters":6000,"station_id":"","pricing_plan_id":"cebpf4jnsgd1na2vs0mg"},{"bike_id":"668b7868-0b32-428c-8d37-9db96b111dfd","system_id":"levelo_inurba_marseille","lat":43.27659,"lon":5.38917,"is_reserved":false,"is_disabled":false,"rental_uris":{"android":"levelo://app?vid=668b7868-0b32-428c-8d37-9db96b111dfd","ios":"levelo://app?vid=668b7868-0b32-428c-8d37-9db96b111dfd"},"vehicle_type_id":"4","last_reported":1777113247,"current_range_meters":6000,"station_id":"ce4bhi12rcd13ifvqfo0","pricing_plan_id":"cebpf4jnsgd1na2vs0mg"},{"bike_id":"082e9381-5478-4fa8-bed1-a0ff7502c6ad","system_id":"levelo_inurba_marseille","lat":43.26246,"lon":5.37434,"is_reserved":false,"is_disabled":false,"rental_uris":{"android":"levelo://app?vid=082e9381-5478-4fa8-bed1-a0ff7502c6ad","ios":"levelo://app?vid=082e9381-5478-4fa8-bed1-a0ff7502c6ad"},"vehicle_type_id":"4","last_reported":1777113247,"current_range_meters":6000,"station_id":"ce4bhgp2rcd13ifvqfc0","pricing_plan_id":"cebpf4jnsgd1na2vs0mg"},{"bike_id":"fa59940e-25b5-4edb-bbab-54ede1307bda","system_id":"levelo_inurba_marseille","lat":43.29971,"lon":5.3851,"is_reserved":false,"is_disabled":false,"rental_uris":{"android":"levelo://app?vid=fa59940e-25b5-4edb-bbab-54ede1307bda","ios":"levelo://app?vid=fa59940e-25b5-4edb-bbab-54ede1307bda"},"vehicle_type_id":"4","last_reported":1777113247,"current_range_meters":6000,"station_id":"ce4bgj92rcd13ifvqbd0","pricing_plan_id":"cebpf4jnsgd1na2vs0mg"},{"bike_id":"eb2e4ff8-b616-4d1f-ac33-59451b8d9a41","system_id":"levelo_inurba_marseille","lat":43.25093,"lon":5.39498,"is_reserved":false,"is_disabled":false,"rental_uris":{"android":"levelo://app?vid=eb2e4ff8-b616-4d1f-ac33-59451b8d9a41","ios":"levelo://app?vid=eb2e4ff8-b616-4d1f-ac33-59451b8d9a41"},"vehicle_type_id":"4","last_reported":1777113247,"current_range_meters":6000,"station_id":"ce4bhm12rcd13ifvqgkg","pricing_plan_id":"cebpf4jnsgd1na2vs0mg"},{"bike_id":"4d5b4915-5fc0-4782-a3a4-e445cc2cf470","system_id":"levelo_inurba_marseille","lat":43.29871,"lon":5.42101,"is_reserved":false,"is_disabled":false,"rental_uris":{"android":"levelo://app?vid=4d5b4915-5fc0-4782-a3a4-e445cc2cf470","ios":"levelo://app?vid=4d5b4915-5fc0-4782-a3a4-e445cc2cf470"},"vehicle_type_id":"4","last_reported":1777113247,"current_range_meters":6000,"station_id":"st_d6tc004otcvc738tfe70","pricing_plan_id":"cebpf4jnsgd1na2vs0mg"},{"bike_id":"0b699cb5-c7d3-46f8-b93f-0f4e6d620e9a","system_id":"levelo_inurba_marseille","lat":43.2982,"lon":5.44059,"is_reserved":false,"is_disabled":false,"rental_uris":{"android":"levelo://app?vid=0b699cb5-c7d3-46f8-b93f-0f4e6d620e9a","ios":"levelo://app?vid=0b699cb5-c7d3-46f8-b93f-0f4e6d620e9a"},"vehicle_type_id":"4","last_reported":1777113247,"current_range_meters":6000,"station_id":"st_d3jp68qikq2c7381ktn0","pricing_plan_id":"cebpf4jnsgd1na2vs0mg"},{"bike_id":"261b4d20-3fce-4a9a-b1df-f7d9447249df","system_id":"levelo_inurba_marseille","lat":43.28492,"lon":5.48386,"is_reserved":false,"is_disabled":false,"rental_uris":{"android":"levelo://app?vid=261b4d20-3fce-4a9a-b1df-f7d9447249df","ios":"levelo://app?vid=261b4d20-3fce-4a9a-b1df-f7d9447249df"},"vehicle_type_id":"4","last_reported":1777113247,"current_range_meters":6000,"station_id":"st_d3svhcjqgbts73a3dn0g","pricing_plan_id":"cebpf4jnsgd1na2vs0mg"},{"bike_id":"f8b71621-9ee0-4284-b9b2-be8fa047ba8a","system_id":"levelo_inurba_marseille","lat":43.30122,"lon":5.43086,"is_reserved":false,"is_disabled":false,"rental_uris":{"android":"levelo://app?vid=f8b71621-9ee0-4284-b9b2-be8fa047ba8a","ios":"levelo://app?vid=f8b71621-9ee0-4284-b9b2-be8fa047ba8a"},"vehicle_type_id":"4","last_reported":1777113247,"current_range_meters":6000,"station_id":"st_d3js3co5814s73ftftug","pricing_plan_id":"cebpf4jnsgd1na2vs0mg"},{"bike_id":"27cd71a7-0940-4415-a67f-21597fbf1cd9","system_id":"levelo_inurba_marseille","lat":43.33071,"lon":5.39073,"is_reserved":false,"is_disabled":false,"rental_uris":{"android":"levelo://app?vid=27cd71a7-0940-4415-a67f-21597fbf1cd9","ios":"levelo://app?vid=27cd71a7-0940-4415-a67f-21597fbf1cd9"},"vehicle_type_id":"4","last_reported":1777113247,"current_range_meters":6400,"station_id":"","pricing_plan_id":"cebpf4jnsgd1na2vs0mg"},{"bike_id":"a4f29091-c169-44d5-86ae-0fae6e6376be","system_id":"levelo_inurba_marseille","lat":43.30156,"lon":5.38077,"is_reserved":false,"is_disabled":false,"rental_uris":{"android":"levelo://app?vid=a4f29091-c169-44d5-86ae-0fae6e6376be","ios":"levelo://app?vid=a4f29091-c169-44d5-86ae-0fae6e6376be"},"vehicle_type_id":"4","last_reported":1777113247,"current_range_meters":6400,"station_id":"ce4bgjp2rcd13ifvqbh0","pricing_plan_id":"cebpf4jnsgd1na2vs0mg"},{"bike_id":"a3dee876-3af2-46d4-9131-1dd0997e500a","system_id":"levelo_inurba_marseille","lat":43.244,"lon":5.37046,"is_reserved":false,"is_disabled":true,"rental_uris":{"android":"levelo://app?vid=a3dee876-3af2-46d4-9131-1dd0997e500a","ios":"levelo://app?vid=a3dee876-3af2-46d4-9131-1dd0997e500a"},"vehicle_type_id":"4","last_reported":1777113247,"current_range_meters":6400,"station_id":"ce4bhhh2rcd13ifvqfk0","pricing_plan_id":"cebpf4jnsgd1na2vs0mg"},{"bike_id":"deb29a3c-5716-4c5b-88fd-6ed665a84dee","system_id":"levelo_inurba_marseille","lat":43.29713,"lon":5.366,"is_reserved":false,"is_disabled":false,"rental_uris":{"android":"levelo://app?vid=deb29a3c-5716-4c5b-88fd-6ed665a84dee","ios":"levelo://app?vid=deb29a3c-5716-4c5b-88fd-6ed665a84dee"},"vehicle_type_id":"4","last_reported":1777113247,"current_range_meters":6400,"station_id":"ce4bgn12rcd13ifvqbt0","pricing_plan_id":"cebpf4jnsgd1na2vs0mg"},{"bike_id":"a7398d3c-309c-40e4-8059-f2e4acd33fe1","system_id":"levelo_inurba_marseille","lat":43.32007,"lon":5.38145,"is_reserved":false,"is_disabled":false,"rental_uris":{"android":"levelo://app?vid=a7398d3c-309c-40e4-8059-f2e4acd33fe1","ios":"levelo://app?vid=a7398d3c-309c-40e4-8059-f2e4acd33fe1"},"vehicle_type_id":"4","last_reported":1777113247,"current_range_meters":6400,"station_id":"ce4bhr12rcd13ifvqhpg","pricing_plan_id":"cebpf4jnsgd1na2vs0mg"},{"bike_id":"21101f4a-cbd0-4f4c-bc29-be519f298a52","system_id":"levelo_inurba_marseille","lat":43.28952,"lon":5.3638,"is_reserved":false,"is_disabled":false,"rental_uris":{"android":"levelo://app?vid=21101f4a-cbd0-4f4c-bc29-be519f298a52","ios":"levelo://app?vid=21101f4a-cbd0-4f4c-bc29-be519f298a52"},"vehicle_type_id":"4","last_reported":1777113247,"current_range_meters":6400,"station_id":"ce4bhc92rcd13ifvqetg","pricing_plan_id":"cebpf4jnsgd1na2vs0mg"},{"bike_id":"5eddcf62-d28d-47a6-9895-da2f94ffd6fd","system_id":"levelo_inurba_marseille","lat":43.28589,"lon":5.38339,"is_reserved":false,"is_disabled":false,"rental_uris":{"android":"levelo://app?vid=5eddcf62-d28d-47a6-9895-da2f94ffd6fd","ios":"levelo://app?vid=5eddcf62-d28d-47a6-9895-da2f94ffd6fd"},"vehicle_type_id":"4","last_reported":1777113247,"current_range_meters":6800,"station_id":"","pricing_plan_id":"cebpf4jnsgd1na2vs0mg"},{"bike_id":"8c8d3a1e-3e2c-407c-b8ad-af868cc54226","system_id":"levelo_inurba_marseille","lat":43.294882,"lon":5.393907,"is_reserved":false,"is_disabled":false,"rental_uris":{"android":"levelo://app?vid=8c8d3a1e-3e2c-407c-b8ad-af868cc54226","ios":"levelo://app?vid=8c8d3a1e-3e2c-407c-b8ad-af868cc54226"},"vehicle_type_id":"4","last_reported":1777113247,"current_range_meters":6800,"station_id":"","pricing_plan_id":"cebpf4jnsgd1na2vs0mg"},{"bike_id":"1d368fe1-0c8f-4a40-864c-b54082c58fa1","system_id":"levelo_inurba_marseille","lat":43.33543,"lon":5.37459,"is_reserved":false,"is_disabled":false,"rental_uris":{"android":"levelo://app?vid=1d368fe1-0c8f-4a40-864c-b54082c58fa1","ios":"levelo://app?vid=1d368fe1-0c8f-4a40-864c-b54082c58fa1"},"vehicle_type_id":"4","last_reported":1777113247,"current_range_meters":6800,"station_id":"st_d46tts09ee8s73dlu43g","pricing_plan_id":"cebpf4jnsgd1na2vs0mg"},{"bike_id":"50c76cdb-61ce-440d-a92e-2ab434610c7f","system_id":"levelo_inurba_marseille","lat":43.27373,"lon":5.3626,"is_reserved":false,"is_disabled":false,"rental_uris":{"android":"levelo://app?vid=50c76cdb-61ce-440d-a92e-2ab434610c7f","ios":"levelo://app?vid=50c76cdb-61ce-440d-a92e-2ab434610c7f"},"vehicle_type_id":"4","last_reported":1777113247,"current_range_meters":6800,"station_id":"ce4bhbh2rcd13ifvqeo0","pricing_plan_id":"cebpf4jnsgd1na2vs0mg"},{"bike_id":"f645e30b-5616-45b3-a17d-faf4a49d971d","system_id":"levelo_inurba_marseille","lat":43.31,"lon":5.37533,"is_reserved":false,"is_disabled":false,"rental_uris":{"android":"levelo://app?vid=f645e30b-5616-45b3-a17d-faf4a49d971d","ios":"levelo://app?vid=f645e30b-5616-45b3-a17d-faf4a49d971d"},"vehicle_type_id":"4","last_reported":1777113247,"current_range_meters":6800,"station_id":"","pricing_plan_id":"cebpf4jnsgd1na2vs0mg"},{"bike_id":"baf5e93f-baa0-4776-9800-afea43e9329e","system_id":"levelo_inurba_marseille","lat":43.23203,"lon":5.35538,"is_reserved":false,"is_disabled":false,"rental_uris":{"android":"levelo://app?vid=baf5e93f-baa0-4776-9800-afea43e9329e","ios":"levelo://app?vid=baf5e93f-baa0-4776-9800-afea43e9329e"},"vehicle_type_id":"4","last_reported":1777113247,"current_range_meters":6800,"station_id":"ce4bhu92rcd13ifvqi70","pricing_plan_id":"cebpf4jnsgd1na2vs0mg"},{"bike_id":"45ad0d0e-efdd-4c05-bbcd-19b309dc3892","system_id":"levelo_inurba_marseille","lat":43.28026,"lon":5.41671,"is_reserved":false,"is_disabled":false,"rental_uris":{"android":"levelo://app?vid=45ad0d0e-efdd-4c05-bbcd-19b309dc3892","ios":"levelo://app?vid=45ad0d0e-efdd-4c05-bbcd-19b309dc3892"},"vehicle_type_id":"4","last_reported":1777113247,"current_range_meters":6800,"station_id":"ce4bho12rcd13ifvqh1g","pricing_plan_id":"cebpf4jnsgd1na2vs0mg"},{"bike_id":"540479f5-dca3-463c-a28b-8ad051b4a029","system_id":"levelo_inurba_marseille","lat":43.30138,"lon":5.3984,"is_reserved":false,"is_disabled":false,"rental_uris":{"android":"levelo://app?vid=540479f5-dca3-463c-a28b-8ad051b4a029","ios":"levelo://app?vid=540479f5-dca3-463c-a28b-8ad051b4a029"},"vehicle_type_id":"4","last_reported":1777113247,"current_range_meters":6800,"station_id":"ce4bh0h2rcd13ifvqd40","pricing_plan_id":"cebpf4jnsgd1na2vs0mg"},{"bike_id":"219d0e76-da72-4224-ab57-f5a16ce71cd2","system_id":"levelo_inurba_marseille","lat":43.21741,"lon":5.346,"is_reserved":false,"is_disabled":false,"rental_uris":{"android":"levelo://app?vid=219d0e76-da72-4224-ab57-f5a16ce71cd2","ios":"levelo://app?vid=219d0e76-da72-4224-ab57-f5a16ce71cd2"},"vehicle_type_id":"4","last_reported":1777113247,"current_range_meters":6800,"station_id":"st_cvj6r9ubvosntc0bgbag","pricing_plan_id":"cebpf4jnsgd1na2vs0mg"},{"bike_id":"e28f45e5-aaaa-4b0a-9749-75a2dbe4f25f","system_id":"levelo_inurba_marseille","lat":43.29293,"lon":5.37463,"is_reserved":false,"is_disabled":false,"rental_uris":{"android":"levelo://app?vid=e28f45e5-aaaa-4b0a-9749-75a2dbe4f25f","ios":"levelo://app?vid=e28f45e5-aaaa-4b0a-9749-75a2dbe4f25f"},"vehicle_type_id":"4","last_reported":1777113247,"current_range_meters":6800,"station_id":"ce4bgi12rcd13ifvqb70","pricing_plan_id":"cebpf4jnsgd1na2vs0mg"},{"bike_id":"7d974dcb-5a83-4659-9841-19fb9384f5e7","system_id":"levelo_inurba_marseille","lat":43.26683,"lon":5.3827,"is_reserved":false,"is_disabled":false,"rental_uris":{"android":"levelo://app?vid=7d974dcb-5a83-4659-9841-19fb9384f5e7","ios":"levelo://app?vid=7d974dcb-5a83-4659-9841-19fb9384f5e7"},"vehicle_type_id":"4","last_reported":1777113247,"current_range_meters":6800,"station_id":"ce4bhg92rcd13ifvqf90","pricing_plan_id":"cebpf4jnsgd1na2vs0mg"},{"bike_id":"512b289f-7064-43b9-81df-445ba5c8bc75","system_id":"levelo_inurba_marseille","lat":43.23964,"lon":5.36619,"is_reserved":false,"is_disabled":false,"rental_uris":{"android":"levelo://app?vid=512b289f-7064-43b9-81df-445ba5c8bc75","ios":"levelo://app?vid=512b289f-7064-43b9-81df-445ba5c8bc75"},"vehicle_type_id":"4","last_reported":1777113247,"current_range_meters":6800,"station_id":"ce4bhi12rcd13ifvqfp0","pricing_plan_id":"cebpf4jnsgd1na2vs0mg"},{"bike_id":"72a90628-72fd-41df-94dd-cc26c7141eab","system_id":"levelo_inurba_marseille","lat":43.27219,"lon":5.39163,"is_reserved":false,"is_disabled":false,"rental_uris":{"android":"levelo://app?vid=72a90628-72fd-41df-94dd-cc26c7141eab","ios":"levelo://app?vid=72a90628-72fd-41df-94dd-cc26c7141eab"},"vehicle_type_id":"4","last_reported":1777113247,"current_range_meters":6800,"station_id":"ce4bhhp2rcd13ifvqfm0","pricing_plan_id":"cebpf4jnsgd1na2vs0mg"},{"bike_id":"9e736a24-151b-4861-9d3c-68515cd11e0f","system_id":"levelo_inurba_marseille","lat":43.32087,"lon":5.36776,"is_reserved":false,"is_disabled":false,"rental_uris":{"android":"levelo://app?vid=9e736a24-151b-4861-9d3c-68515cd11e0f","ios":"levelo://app?vid=9e736a24-151b-4861-9d3c-68515cd11e0f"},"vehicle_type_id":"4","last_reported":1777113247,"current_range_meters":6800,"station_id":"ce4bhrh2rcd13ifvqhug","pricing_plan_id":"cebpf4jnsgd1na2vs0mg"},{"bike_id":"115d672a-13d4-4305-8044-ca28f0c37ff6","system_id":"levelo_inurba_marseille","lat":43.25098,"lon":5.39513,"is_reserved":false,"is_disabled":false,"rental_uris":{"android":"levelo://app?vid=115d672a-13d4-4305-8044-ca28f0c37ff6","ios":"levelo://app?vid=115d672a-13d4-4305-8044-ca28f0c37ff6"},"vehicle_type_id":"4","last_reported":1777113247,"current_range_meters":6800,"station_id":"ce4bhm12rcd13ifvqgkg","pricing_plan_id":"cebpf4jnsgd1na2vs0mg"},{"bike_id":"1c8dc390-2cf6-4d49-b93f-1d053a1432c9","system_id":"levelo_inurba_marseille","lat":43.2964,"lon":5.37684,"is_reserved":false,"is_disabled":false,"rental_uris":{"android":"levelo://app?vid=1c8dc390-2cf6-4d49-b93f-1d053a1432c9","ios":"levelo://app?vid=1c8dc390-2cf6-4d49-b93f-1d053a1432c9"},"vehicle_type_id":"4","last_reported":1777113247,"current_range_meters":6800,"station_id":"ce4bgi92rcd13ifvqb90","pricing_plan_id":"cebpf4jnsgd1na2vs0mg"},{"bike_id":"f899884a-365d-4af6-943a-f70f2db9f759","system_id":"levelo_inurba_marseille","lat":43.24378,"lon":5.37058,"is_reserved":false,"is_disabled":false,"rental_uris":{"android":"levelo://app?vid=f899884a-365d-4af6-943a-f70f2db9f759","ios":"levelo://app?vid=f899884a-365d-4af6-943a-f70f2db9f759"},"vehicle_type_id":"4","last_reported":1777113247,"current_range_meters":6800,"station_id":"ce4bhhh2rcd13ifvqfk0","pricing_plan_id":"cebpf4jnsgd1na2vs0mg"},{"bike_id":"42381d22-910b-4370-9360-262463f384ac","system_id":"levelo_inurba_marseille","lat":43.27322,"lon":5.39087,"is_reserved":false,"is_disabled":false,"rental_uris":{"android":"levelo://app?vid=42381d22-910b-4370-9360-262463f384ac","ios":"levelo://app?vid=42381d22-910b-4370-9360-262463f384ac"},"vehicle_type_id":"4","last_reported":1777113247,"current_range_meters":6800,"station_id":"ce4bhgp2rcd13ifvqfe0","pricing_plan_id":"cebpf4jnsgd1na2vs0mg"},{"bike_id":"0ce641a1-ca62-4f05-b894-4a72f77b98f2","system_id":"levelo_inurba_marseille","lat":43.32343,"lon":5.36725,"is_reserved":false,"is_disabled":false,"rental_uris":{"android":"levelo://app?vid=0ce641a1-ca62-4f05-b894-4a72f77b98f2","ios":"levelo://app?vid=0ce641a1-ca62-4f05-b894-4a72f77b98f2"},"vehicle_type_id":"4","last_reported":1777113247,"current_range_meters":7200,"station_id":"ce4bhsh2rcd13ifvqi2g","pricing_plan_id":"cebpf4jnsgd1na2vs0mg"},{"bike_id":"8182275d-3e1a-47da-86ac-4d6dadb24e2c","system_id":"levelo_inurba_marseille","lat":43.24386,"lon":5.37058,"is_reserved":false,"is_disabled":false,"rental_uris":{"android":"levelo://app?vid=8182275d-3e1a-47da-86ac-4d6dadb24e2c","ios":"levelo://app?vid=8182275d-3e1a-47da-86ac-4d6dadb24e2c"},"vehicle_type_id":"4","last_reported":1777113247,"current_range_meters":7200,"station_id":"ce4bhhh2rcd13ifvqfk0","pricing_plan_id":"cebpf4jnsgd1na2vs0mg"},{"bike_id":"4e7f60dc-2079-4f51-9d09-01d31cdd2f9b","system_id":"levelo_inurba_marseille","lat":43.24654,"lon":5.43151,"is_reserved":false,"is_disabled":false,"rental_uris":{"android":"levelo://app?vid=4e7f60dc-2079-4f51-9d09-01d31cdd2f9b","ios":"levelo://app?vid=4e7f60dc-2079-4f51-9d09-01d31cdd2f9b"},"vehicle_type_id":"4","last_reported":1777113247,"current_range_meters":7200,"station_id":"st_d2m6c4gdas8pm72e190g","pricing_plan_id":"cebpf4jnsgd1na2vs0mg"},{"bike_id":"733f0be0-6bf3-400d-b40e-3632180d3fe9","system_id":"levelo_inurba_marseille","lat":43.2944,"lon":5.39757,"is_reserved":false,"is_disabled":false,"rental_uris":{"android":"levelo://app?vid=733f0be0-6bf3-400d-b40e-3632180d3fe9","ios":"levelo://app?vid=733f0be0-6bf3-400d-b40e-3632180d3fe9"},"vehicle_type_id":"4","last_reported":1777113247,"current_range_meters":7200,"station_id":"ce4bh3h2rcd13ifvqdo0","pricing_plan_id":"cebpf4jnsgd1na2vs0mg"},{"bike_id":"7c7a6e62-e130-431f-b3ec-a07feec308d8","system_id":"levelo_inurba_marseille","lat":43.22703,"lon":5.34817,"is_reserved":false,"is_disabled":false,"rental_uris":{"android":"levelo://app?vid=7c7a6e62-e130-431f-b3ec-a07feec308d8","ios":"levelo://app?vid=7c7a6e62-e130-431f-b3ec-a07feec308d8"},"vehicle_type_id":"4","last_reported":1777113247,"current_range_meters":7200,"station_id":"","pricing_plan_id":"cebpf4jnsgd1na2vs0mg"},{"bike_id":"021c3599-d960-4255-bf18-8b3b47549997","system_id":"levelo_inurba_marseille","lat":43.30195,"lon":5.43076,"is_reserved":false,"is_disabled":false,"rental_uris":{"android":"levelo://app?vid=021c3599-d960-4255-bf18-8b3b47549997","ios":"levelo://app?vid=021c3599-d960-4255-bf18-8b3b47549997"},"vehicle_type_id":"4","last_reported":1777113247,"current_range_meters":7200,"station_id":"st_d3js3co5814s73ftftug","pricing_plan_id":"cebpf4jnsgd1na2vs0mg"},{"bike_id":"32896887-9d74-49f7-8e67-3ffcd46dedd6","system_id":"levelo_inurba_marseille","lat":43.262151,"lon":5.374409,"is_reserved":false,"is_disabled":false,"rental_uris":{"android":"levelo://app?vid=32896887-9d74-49f7-8e67-3ffcd46dedd6","ios":"levelo://app?vid=32896887-9d74-49f7-8e67-3ffcd46dedd6"},"vehicle_type_id":"4","last_reported":1777113247,"current_range_meters":7200,"station_id":"ce4bhgp2rcd13ifvqfc0","pricing_plan_id":"cebpf4jnsgd1na2vs0mg"},{"bike_id":"95430d5b-44ff-449b-9e09-8a6c48d6930c","system_id":"levelo_inurba_marseille","lat":43.29728,"lon":5.37762,"is_reserved":false,"is_disabled":false,"rental_uris":{"android":"levelo://app?vid=95430d5b-44ff-449b-9e09-8a6c48d6930c","ios":"levelo://app?vid=95430d5b-44ff-449b-9e09-8a6c48d6930c"},"vehicle_type_id":"4","last_reported":1777113247,"current_range_meters":7200,"station_id":"","pricing_plan_id":"cebpf4jnsgd1na2vs0mg"},{"bike_id":"3f953cbe-f6a1-48c4-bd8c-e53b1e605a28","system_id":"levelo_inurba_marseille","lat":43.21194,"lon":5.35069,"is_reserved":false,"is_disabled":false,"rental_uris":{"android":"levelo://app?vid=3f953cbe-f6a1-48c4-bd8c-e53b1e605a28","ios":"levelo://app?vid=3f953cbe-f6a1-48c4-bd8c-e53b1e605a28"},"vehicle_type_id":"4","last_reported":1777113247,"current_range_meters":7200,"station_id":"st_cvj6sg6p6f1abm77japg","pricing_plan_id":"cebpf4jnsgd1na2vs0mg"},{"bike_id":"624ad92d-de25-4b22-a09d-02c1f4de90a4","system_id":"levelo_inurba_marseille","lat":43.30538,"lon":5.36711,"is_reserved":false,"is_disabled":false,"rental_uris":{"android":"levelo://app?vid=624ad92d-de25-4b22-a09d-02c1f4de90a4","ios":"levelo://app?vid=624ad92d-de25-4b22-a09d-02c1f4de90a4"},"vehicle_type_id":"4","last_reported":1777113247,"current_range_meters":7200,"station_id":"ce4bgrp2rcd13ifvqc9g","pricing_plan_id":"cebpf4jnsgd1na2vs0mg"},{"bike_id":"5091d3df-140a-4a96-ba1e-f44ab742c57b","system_id":"levelo_inurba_marseille","lat":43.23212,"lon":5.39983,"is_reserved":false,"is_disabled":true,"rental_uris":{"android":"levelo://app?vid=5091d3df-140a-4a96-ba1e-f44ab742c57b","ios":"levelo://app?vid=5091d3df-140a-4a96-ba1e-f44ab742c57b"},"vehicle_type_id":"4","last_reported":1777113247,"current_range_meters":7200,"station_id":"ce4bhn12rcd13ifvqgqg","pricing_plan_id":"cebpf4jnsgd1na2vs0mg"},{"bike_id":"bdcf6bdb-fa72-49fe-ac71-11216efbd644","system_id":"levelo_inurba_marseille","lat":43.29688,"lon":5.373,"is_reserved":false,"is_disabled":false,"rental_uris":{"android":"levelo://app?vid=bdcf6bdb-fa72-49fe-ac71-11216efbd644","ios":"levelo://app?vid=bdcf6bdb-fa72-49fe-ac71-11216efbd644"},"vehicle_type_id":"4","last_reported":1777113247,"current_range_meters":7200,"station_id":"ce4bgk12rcd13ifvqbj0","pricing_plan_id":"cebpf4jnsgd1na2vs0mg"},{"bike_id":"2f7910b0-22ef-44e8-8c0d-6369656f32a4","system_id":"levelo_inurba_marseille","lat":43.29574,"lon":5.37516,"is_reserved":false,"is_disabled":false,"rental_uris":{"android":"levelo://app?vid=2f7910b0-22ef-44e8-8c0d-6369656f32a4","ios":"levelo://app?vid=2f7910b0-22ef-44e8-8c0d-6369656f32a4"},"vehicle_type_id":"4","last_reported":1777113247,"current_range_meters":8000,"station_id":"ce4bgh92rcd13ifvqb50","pricing_plan_id":"cebpf4jnsgd1na2vs0mg"},{"bike_id":"90610949-5042-40f1-8252-076aeddd7d81","system_id":"levelo_inurba_marseille","lat":43.31909,"lon":5.36818,"is_reserved":false,"is_disabled":false,"rental_uris":{"android":"levelo://app?vid=90610949-5042-40f1-8252-076aeddd7d81","ios":"levelo://app?vid=90610949-5042-40f1-8252-076aeddd7d81"},"vehicle_type_id":"4","last_reported":1777113247,"current_range_meters":8000,"station_id":"st_d6o2h0d0559c73evc1b0","pricing_plan_id":"cebpf4jnsgd1na2vs0mg"},{"bike_id":"47cdfd85-c850-4193-aaa5-b5a23a2b2f3d","system_id":"levelo_inurba_marseille","lat":43.31096,"lon":5.37235,"is_reserved":false,"is_disabled":false,"rental_uris":{"android":"levelo://app?vid=47cdfd85-c850-4193-aaa5-b5a23a2b2f3d","ios":"levelo://app?vid=47cdfd85-c850-4193-aaa5-b5a23a2b2f3d"},"vehicle_type_id":"4","last_reported":1777113247,"current_range_meters":8000,"station_id":"st_d4kl2rp97mjs73e7tdfg","pricing_plan_id":"cebpf4jnsgd1na2vs0mg"},{"bike_id":"20bc5234-0759-49c0-8835-ac191c8a95c8","system_id":"levelo_inurba_marseille","lat":43.28628,"lon":5.35101,"is_reserved":false,"is_disabled":true,"rental_uris":{"android":"levelo://app?vid=20bc5234-0759-49c0-8835-ac191c8a95c8","ios":"levelo://app?vid=20bc5234-0759-49c0-8835-ac191c8a95c8"},"vehicle_type_id":"4","last_reported":1777113247,"current_range_meters":8000,"station_id":"ce4bhch2rcd13ifvqeug","pricing_plan_id":"cebpf4jnsgd1na2vs0mg"},{"bike_id":"079d348b-32b8-4d0a-b7df-4d4bb7d889e3","system_id":"levelo_inurba_marseille","lat":43.24387,"lon":5.37057,"is_reserved":false,"is_disabled":false,"rental_uris":{"android":"levelo://app?vid=079d348b-32b8-4d0a-b7df-4d4bb7d889e3","ios":"levelo://app?vid=079d348b-32b8-4d0a-b7df-4d4bb7d889e3"},"vehicle_type_id":"4","last_reported":1777113247,"current_range_meters":8000,"station_id":"ce4bhhh2rcd13ifvqfk0","pricing_plan_id":"cebpf4jnsgd1na2vs0mg"},{"bike_id":"e1b910ef-9f7a-4013-aed7-3f70e1a157ff","system_id":"levelo_inurba_marseille","lat":43.31708,"lon":5.43689,"is_reserved":false,"is_disabled":false,"rental_uris":{"android":"levelo://app?vid=e1b910ef-9f7a-4013-aed7-3f70e1a157ff","ios":"levelo://app?vid=e1b910ef-9f7a-4013-aed7-3f70e1a157ff"},"vehicle_type_id":"4","last_reported":1777113247,"current_range_meters":8000,"station_id":"ce4bhp92rcd13ifvqhcg","pricing_plan_id":"cebpf4jnsgd1na2vs0mg"},{"bike_id":"fb7f5d63-993c-4c7f-b55a-10dfc776bff8","system_id":"levelo_inurba_marseille","lat":43.29579,"lon":5.37469,"is_reserved":false,"is_disabled":false,"rental_uris":{"android":"levelo://app?vid=fb7f5d63-993c-4c7f-b55a-10dfc776bff8","ios":"levelo://app?vid=fb7f5d63-993c-4c7f-b55a-10dfc776bff8"},"vehicle_type_id":"4","last_reported":1777113247,"current_range_meters":8000,"station_id":"ce4bgh92rcd13ifvqb50","pricing_plan_id":"cebpf4jnsgd1na2vs0mg"},{"bike_id":"e9c27d45-b818-4251-95ae-1ae8d1bb0fc1","system_id":"levelo_inurba_marseille","lat":43.30146,"lon":5.38078,"is_reserved":false,"is_disabled":false,"rental_uris":{"android":"levelo://app?vid=e9c27d45-b818-4251-95ae-1ae8d1bb0fc1","ios":"levelo://app?vid=e9c27d45-b818-4251-95ae-1ae8d1bb0fc1"},"vehicle_type_id":"4","last_reported":1777113247,"current_range_meters":8000,"station_id":"ce4bgjp2rcd13ifvqbh0","pricing_plan_id":"cebpf4jnsgd1na2vs0mg"},{"bike_id":"541dbded-315f-4ca8-ac49-47fcb4294bb7","system_id":"levelo_inurba_marseille","lat":43.33543,"lon":5.37469,"is_reserved":false,"is_disabled":false,"rental_uris":{"android":"levelo://app?vid=541dbded-315f-4ca8-ac49-47fcb4294bb7","ios":"levelo://app?vid=541dbded-315f-4ca8-ac49-47fcb4294bb7"},"vehicle_type_id":"4","last_reported":1777113247,"current_range_meters":8000,"station_id":"st_d46tts09ee8s73dlu43g","pricing_plan_id":"cebpf4jnsgd1na2vs0mg"},{"bike_id":"0baedc22-9419-4f2d-8fde-9c2b951a8caf","system_id":"levelo_inurba_marseille","lat":43.29038,"lon":5.39968,"is_reserved":false,"is_disabled":false,"rental_uris":{"android":"levelo://app?vid=0baedc22-9419-4f2d-8fde-9c2b951a8caf","ios":"levelo://app?vid=0baedc22-9419-4f2d-8fde-9c2b951a8caf"},"vehicle_type_id":"4","last_reported":1777113247,"current_range_meters":8000,"station_id":"ce4bh392rcd13ifvqdm0","pricing_plan_id":"cebpf4jnsgd1na2vs0mg"},{"bike_id":"80d34ee4-9695-41ba-bcd8-fb44ac5753a6","system_id":"levelo_inurba_marseille","lat":43.28545,"lon":5.44094,"is_reserved":false,"is_disabled":false,"rental_uris":{"android":"levelo://app?vid=80d34ee4-9695-41ba-bcd8-fb44ac5753a6","ios":"levelo://app?vid=80d34ee4-9695-41ba-bcd8-fb44ac5753a6"},"vehicle_type_id":"4","last_reported":1777113247,"current_range_meters":8000,"station_id":"st_d3j3df2ikq2c7380ej80","pricing_plan_id":"cebpf4jnsgd1na2vs0mg"},{"bike_id":"413e4623-e4a6-44c0-8fe0-f06c3e224af8","system_id":"levelo_inurba_marseille","lat":43.31893,"lon":5.36812,"is_reserved":false,"is_disabled":false,"rental_uris":{"android":"levelo://app?vid=413e4623-e4a6-44c0-8fe0-f06c3e224af8","ios":"levelo://app?vid=413e4623-e4a6-44c0-8fe0-f06c3e224af8"},"vehicle_type_id":"4","last_reported":1777113247,"current_range_meters":8400,"station_id":"st_d6o2h0d0559c73evc1b0","pricing_plan_id":"cebpf4jnsgd1na2vs0mg"},{"bike_id":"3fe60b2d-65d1-4d59-bf1e-422b9e7a469f","system_id":"levelo_inurba_marseille","lat":43.25014,"lon":5.38923,"is_reserved":false,"is_disabled":false,"rental_uris":{"android":"levelo://app?vid=3fe60b2d-65d1-4d59-bf1e-422b9e7a469f","ios":"levelo://app?vid=3fe60b2d-65d1-4d59-bf1e-422b9e7a469f"},"vehicle_type_id":"4","last_reported":1777113247,"current_range_meters":8400,"station_id":"ce4bhgp2rcd13ifvqfd0","pricing_plan_id":"cebpf4jnsgd1na2vs0mg"},{"bike_id":"14dd2a08-5501-429c-b133-7814faf409ff","system_id":"levelo_inurba_marseille","lat":43.29567,"lon":5.37493,"is_reserved":false,"is_disabled":false,"rental_uris":{"android":"levelo://app?vid=14dd2a08-5501-429c-b133-7814faf409ff","ios":"levelo://app?vid=14dd2a08-5501-429c-b133-7814faf409ff"},"vehicle_type_id":"4","last_reported":1777113247,"current_range_meters":8400,"station_id":"ce4bgh92rcd13ifvqb50","pricing_plan_id":"cebpf4jnsgd1na2vs0mg"},{"bike_id":"bcfbc128-d285-4d78-bf51-560ef0a60c72","system_id":"levelo_inurba_marseille","lat":43.28502,"lon":5.4838,"is_reserved":false,"is_disabled":false,"rental_uris":{"android":"levelo://app?vid=bcfbc128-d285-4d78-bf51-560ef0a60c72","ios":"levelo://app?vid=bcfbc128-d285-4d78-bf51-560ef0a60c72"},"vehicle_type_id":"4","last_reported":1777113247,"current_range_meters":8400,"station_id":"","pricing_plan_id":"cebpf4jnsgd1na2vs0mg"},{"bike_id":"bfa38f53-527b-465f-89fc-521ae0fb1efa","system_id":"levelo_inurba_marseille","lat":43.2894,"lon":5.3665,"is_reserved":false,"is_disabled":false,"rental_uris":{"android":"levelo://app?vid=bfa38f53-527b-465f-89fc-521ae0fb1efa","ios":"levelo://app?vid=bfa38f53-527b-465f-89fc-521ae0fb1efa"},"vehicle_type_id":"4","last_reported":1777113247,"current_range_meters":8400,"station_id":"ce4bhap2rcd13ifvqek0","pricing_plan_id":"cebpf4jnsgd1na2vs0mg"},{"bike_id":"7b548114-61f6-4f44-8ad1-8c83ed4c23dc","system_id":"levelo_inurba_marseille","lat":43.24628,"lon":5.41763,"is_reserved":false,"is_disabled":false,"rental_uris":{"android":"levelo://app?vid=7b548114-61f6-4f44-8ad1-8c83ed4c23dc","ios":"levelo://app?vid=7b548114-61f6-4f44-8ad1-8c83ed4c23dc"},"vehicle_type_id":"4","last_reported":1777113247,"current_range_meters":8400,"station_id":"","pricing_plan_id":"cebpf4jnsgd1na2vs0mg"},{"bike_id":"d1d5c7cf-8e64-4123-ad8a-ccd792fc4d10","system_id":"levelo_inurba_marseille","lat":43.2935,"lon":5.39858,"is_reserved":false,"is_disabled":false,"rental_uris":{"android":"levelo://app?vid=d1d5c7cf-8e64-4123-ad8a-ccd792fc4d10","ios":"levelo://app?vid=d1d5c7cf-8e64-4123-ad8a-ccd792fc4d10"},"vehicle_type_id":"4","last_reported":1777113247,"current_range_meters":8400,"station_id":"","pricing_plan_id":"cebpf4jnsgd1na2vs0mg"},{"bike_id":"85e28e2a-2421-4551-a813-382122811cec","system_id":"levelo_inurba_marseille","lat":43.31912,"lon":5.36778,"is_reserved":false,"is_disabled":false,"rental_uris":{"android":"levelo://app?vid=85e28e2a-2421-4551-a813-382122811cec","ios":"levelo://app?vid=85e28e2a-2421-4551-a813-382122811cec"},"vehicle_type_id":"4","last_reported":1777113247,"current_range_meters":8400,"station_id":"st_d6o2h0d0559c73evc1b0","pricing_plan_id":"cebpf4jnsgd1na2vs0mg"},{"bike_id":"8ab510e8-ee1e-49ec-84e2-6d892205c04e","system_id":"levelo_inurba_marseille","lat":43.30928,"lon":5.4015,"is_reserved":false,"is_disabled":false,"rental_uris":{"android":"levelo://app?vid=8ab510e8-ee1e-49ec-84e2-6d892205c04e","ios":"levelo://app?vid=8ab510e8-ee1e-49ec-84e2-6d892205c04e"},"vehicle_type_id":"4","last_reported":1777113247,"current_range_meters":8400,"station_id":"ce4bgvp2rcd13ifvqct0","pricing_plan_id":"cebpf4jnsgd1na2vs0mg"},{"bike_id":"90fac789-06e9-4c33-94b9-e82543e03c21","system_id":"levelo_inurba_marseille","lat":43.22562,"lon":5.41609,"is_reserved":false,"is_disabled":true,"rental_uris":{"android":"levelo://app?vid=90fac789-06e9-4c33-94b9-e82543e03c21","ios":"levelo://app?vid=90fac789-06e9-4c33-94b9-e82543e03c21"},"vehicle_type_id":"4","last_reported":1777113247,"current_range_meters":8400,"station_id":"st_d2o4gvlbi1j2169b742g","pricing_plan_id":"cebpf4jnsgd1na2vs0mg"},{"bike_id":"d2cef1f6-d289-41aa-a6d4-b3fa8492ebfa","system_id":"levelo_inurba_marseille","lat":43.32541,"lon":5.41435,"is_reserved":false,"is_disabled":false,"rental_uris":{"android":"levelo://app?vid=d2cef1f6-d289-41aa-a6d4-b3fa8492ebfa","ios":"levelo://app?vid=d2cef1f6-d289-41aa-a6d4-b3fa8492ebfa"},"vehicle_type_id":"4","last_reported":1777113247,"current_range_meters":8800,"station_id":"ce4bhq12rcd13ifvqhhg","pricing_plan_id":"cebpf4jnsgd1na2vs0mg"},{"bike_id":"308f68c0-c326-4383-b2d4-3d5ce68f7df6","system_id":"levelo_inurba_marseille","lat":43.27991,"lon":5.36368,"is_reserved":false,"is_disabled":false,"rental_uris":{"android":"levelo://app?vid=308f68c0-c326-4383-b2d4-3d5ce68f7df6","ios":"levelo://app?vid=308f68c0-c326-4383-b2d4-3d5ce68f7df6"},"vehicle_type_id":"4","last_reported":1777113247,"current_range_meters":8800,"station_id":"","pricing_plan_id":"cebpf4jnsgd1na2vs0mg"},{"bike_id":"8d715502-1f4d-495a-aba7-e255ad4122f8","system_id":"levelo_inurba_marseille","lat":43.23959,"lon":5.36624,"is_reserved":false,"is_disabled":false,"rental_uris":{"android":"levelo://app?vid=8d715502-1f4d-495a-aba7-e255ad4122f8","ios":"levelo://app?vid=8d715502-1f4d-495a-aba7-e255ad4122f8"},"vehicle_type_id":"4","last_reported":1777113247,"current_range_meters":8800,"station_id":"ce4bhi12rcd13ifvqfp0","pricing_plan_id":"cebpf4jnsgd1na2vs0mg"},{"bike_id":"b1ebae01-d0d5-4c49-869c-0e77b40a16eb","system_id":"levelo_inurba_marseille","lat":43.21192,"lon":5.35068,"is_reserved":false,"is_disabled":false,"rental_uris":{"android":"levelo://app?vid=b1ebae01-d0d5-4c49-869c-0e77b40a16eb","ios":"levelo://app?vid=b1ebae01-d0d5-4c49-869c-0e77b40a16eb"},"vehicle_type_id":"4","last_reported":1777113247,"current_range_meters":8800,"station_id":"st_cvj6sg6p6f1abm77japg","pricing_plan_id":"cebpf4jnsgd1na2vs0mg"},{"bike_id":"7ac59c81-01df-4b8e-9807-86f926b0041a","system_id":"levelo_inurba_marseille","lat":43.28088,"lon":5.39115,"is_reserved":false,"is_disabled":false,"rental_uris":{"android":"levelo://app?vid=7ac59c81-01df-4b8e-9807-86f926b0041a","ios":"levelo://app?vid=7ac59c81-01df-4b8e-9807-86f926b0041a"},"vehicle_type_id":"4","last_reported":1777113247,"current_range_meters":8800,"station_id":"","pricing_plan_id":"cebpf4jnsgd1na2vs0mg"},{"bike_id":"335d7250-451d-4620-bf87-cc5a457d5216","system_id":"levelo_inurba_marseille","lat":43.28621,"lon":5.38354,"is_reserved":false,"is_disabled":false,"rental_uris":{"android":"levelo://app?vid=335d7250-451d-4620-bf87-cc5a457d5216","ios":"levelo://app?vid=335d7250-451d-4620-bf87-cc5a457d5216"},"vehicle_type_id":"4","last_reported":1777113247,"current_range_meters":8800,"station_id":"","pricing_plan_id":"cebpf4jnsgd1na2vs0mg"},{"bike_id":"7d7edd84-0fa3-48c7-8728-ef8dd9d19770","system_id":"levelo_inurba_marseille","lat":43.24383,"lon":5.37041,"is_reserved":false,"is_disabled":false,"rental_uris":{"android":"levelo://app?vid=7d7edd84-0fa3-48c7-8728-ef8dd9d19770","ios":"levelo://app?vid=7d7edd84-0fa3-48c7-8728-ef8dd9d19770"},"vehicle_type_id":"4","last_reported":1777113247,"current_range_meters":8800,"station_id":"ce4bhhh2rcd13ifvqfk0","pricing_plan_id":"cebpf4jnsgd1na2vs0mg"},{"bike_id":"071d1e71-48c5-45bd-bc37-ce81033af5ba","system_id":"levelo_inurba_marseille","lat":43.31531,"lon":5.38043,"is_reserved":false,"is_disabled":false,"rental_uris":{"android":"levelo://app?vid=071d1e71-48c5-45bd-bc37-ce81033af5ba","ios":"levelo://app?vid=071d1e71-48c5-45bd-bc37-ce81033af5ba"},"vehicle_type_id":"4","last_reported":1777113247,"current_range_meters":8800,"station_id":"ce4bhsp2rcd13ifvqi50","pricing_plan_id":"cebpf4jnsgd1na2vs0mg"},{"bike_id":"609bb931-baf4-4a6f-8ec1-6df69344d3e6","system_id":"levelo_inurba_marseille","lat":43.28475,"lon":5.3842,"is_reserved":false,"is_disabled":false,"rental_uris":{"android":"levelo://app?vid=609bb931-baf4-4a6f-8ec1-6df69344d3e6","ios":"levelo://app?vid=609bb931-baf4-4a6f-8ec1-6df69344d3e6"},"vehicle_type_id":"4","last_reported":1777113247,"current_range_meters":8800,"station_id":"ce4bh512rcd13ifvqe3g","pricing_plan_id":"cebpf4jnsgd1na2vs0mg"},{"bike_id":"548e4a82-32b2-49d2-a8d0-a6b1676f8a48","system_id":"levelo_inurba_marseille","lat":43.32488,"lon":5.3659,"is_reserved":false,"is_disabled":false,"rental_uris":{"android":"levelo://app?vid=548e4a82-32b2-49d2-a8d0-a6b1676f8a48","ios":"levelo://app?vid=548e4a82-32b2-49d2-a8d0-a6b1676f8a48"},"vehicle_type_id":"4","last_reported":1777113247,"current_range_meters":8800,"station_id":"ce4bhs12rcd13ifvqhvg","pricing_plan_id":"cebpf4jnsgd1na2vs0mg"},{"bike_id":"f9b98806-d74c-46ef-8642-07dd46c19f4b","system_id":"levelo_inurba_marseille","lat":43.2872,"lon":5.46669,"is_reserved":false,"is_disabled":false,"rental_uris":{"android":"levelo://app?vid=f9b98806-d74c-46ef-8642-07dd46c19f4b","ios":"levelo://app?vid=f9b98806-d74c-46ef-8642-07dd46c19f4b"},"vehicle_type_id":"4","last_reported":1777113247,"current_range_meters":8800,"station_id":"st_d6tc3vkotcvc738tfjhg","pricing_plan_id":"cebpf4jnsgd1na2vs0mg"},{"bike_id":"633ce3f2-1d64-4039-9c69-e753512721a8","system_id":"levelo_inurba_marseille","lat":43.27177,"lon":5.40987,"is_reserved":false,"is_disabled":false,"rental_uris":{"android":"levelo://app?vid=633ce3f2-1d64-4039-9c69-e753512721a8","ios":"levelo://app?vid=633ce3f2-1d64-4039-9c69-e753512721a8"},"vehicle_type_id":"4","last_reported":1777113247,"current_range_meters":8800,"station_id":"ce4bhl12rcd13ifvqgf0","pricing_plan_id":"cebpf4jnsgd1na2vs0mg"},{"bike_id":"fea5a28c-0167-4a62-9062-e629ed9b3e8f","system_id":"levelo_inurba_marseille","lat":43.28479,"lon":5.48407,"is_reserved":false,"is_disabled":false,"rental_uris":{"android":"levelo://app?vid=fea5a28c-0167-4a62-9062-e629ed9b3e8f","ios":"levelo://app?vid=fea5a28c-0167-4a62-9062-e629ed9b3e8f"},"vehicle_type_id":"4","last_reported":1777113247,"current_range_meters":8800,"station_id":"st_d3svhcjqgbts73a3dn0g","pricing_plan_id":"cebpf4jnsgd1na2vs0mg"},{"bike_id":"a2a58a5f-d8c3-4a63-8082-2f578456d494","system_id":"levelo_inurba_marseille","lat":43.24798,"lon":5.37456,"is_reserved":false,"is_disabled":false,"rental_uris":{"android":"levelo://app?vid=a2a58a5f-d8c3-4a63-8082-2f578456d494","ios":"levelo://app?vid=a2a58a5f-d8c3-4a63-8082-2f578456d494"},"vehicle_type_id":"4","last_reported":1777113247,"current_range_meters":8800,"station_id":"ce4bhgh2rcd13ifvqfb0","pricing_plan_id":"cebpf4jnsgd1na2vs0mg"},{"bike_id":"73b29586-6035-4b17-8f89-10c778399a16","system_id":"levelo_inurba_marseille","lat":43.31991,"lon":5.3814,"is_reserved":false,"is_disabled":false,"rental_uris":{"android":"levelo://app?vid=73b29586-6035-4b17-8f89-10c778399a16","ios":"levelo://app?vid=73b29586-6035-4b17-8f89-10c778399a16"},"vehicle_type_id":"4","last_reported":1777113247,"current_range_meters":8800,"station_id":"ce4bhr12rcd13ifvqhpg","pricing_plan_id":"cebpf4jnsgd1na2vs0mg"},{"bike_id":"fd49c6c8-309b-4094-a542-f795fb68b18f","system_id":"levelo_inurba_marseille","lat":43.31358,"lon":5.36704,"is_reserved":false,"is_disabled":false,"rental_uris":{"android":"levelo://app?vid=fd49c6c8-309b-4094-a542-f795fb68b18f","ios":"levelo://app?vid=fd49c6c8-309b-4094-a542-f795fb68b18f"},"vehicle_type_id":"4","last_reported":1777113247,"current_range_meters":8800,"station_id":"ce4bgr92rcd13ifvqc6g","pricing_plan_id":"cebpf4jnsgd1na2vs0mg"},{"bike_id":"1ae8dd8a-cc25-4a91-a9e6-3ba8bd50f33a","system_id":"levelo_inurba_marseille","lat":43.24662,"lon":5.3817,"is_reserved":false,"is_disabled":false,"rental_uris":{"android":"levelo://app?vid=1ae8dd8a-cc25-4a91-a9e6-3ba8bd50f33a","ios":"levelo://app?vid=1ae8dd8a-cc25-4a91-a9e6-3ba8bd50f33a"},"vehicle_type_id":"4","last_reported":1777113247,"current_range_meters":8800,"station_id":"ce4bhih2rcd13ifvqfr0","pricing_plan_id":"cebpf4jnsgd1na2vs0mg"},{"bike_id":"c049792a-7e4f-4794-9cb8-3f58d2fa8f52","system_id":"levelo_inurba_marseille","lat":43.21747,"lon":5.34606,"is_reserved":false,"is_disabled":false,"rental_uris":{"android":"levelo://app?vid=c049792a-7e4f-4794-9cb8-3f58d2fa8f52","ios":"levelo://app?vid=c049792a-7e4f-4794-9cb8-3f58d2fa8f52"},"vehicle_type_id":"4","last_reported":1777113247,"current_range_meters":8800,"station_id":"st_cvj6r9ubvosntc0bgbag","pricing_plan_id":"cebpf4jnsgd1na2vs0mg"},{"bike_id":"915f3511-b21b-4a84-8018-3a43f6b1a303","system_id":"levelo_inurba_marseille","lat":43.2707,"lon":5.42277,"is_reserved":false,"is_disabled":false,"rental_uris":{"android":"levelo://app?vid=915f3511-b21b-4a84-8018-3a43f6b1a303","ios":"levelo://app?vid=915f3511-b21b-4a84-8018-3a43f6b1a303"},"vehicle_type_id":"4","last_reported":1777113247,"current_range_meters":8800,"station_id":"ce4bhk92rcd13ifvqgb0","pricing_plan_id":"cebpf4jnsgd1na2vs0mg"},{"bike_id":"26882210-997c-4922-b3e5-8a44e2a594af","system_id":"levelo_inurba_marseille","lat":43.25507,"lon":5.37646,"is_reserved":false,"is_disabled":false,"rental_uris":{"android":"levelo://app?vid=26882210-997c-4922-b3e5-8a44e2a594af","ios":"levelo://app?vid=26882210-997c-4922-b3e5-8a44e2a594af"},"vehicle_type_id":"4","last_reported":1777113247,"current_range_meters":8800,"station_id":"ce4bhh12rcd13ifvqff0","pricing_plan_id":"cebpf4jnsgd1na2vs0mg"},{"bike_id":"6b404645-3784-4552-b362-ce2273282500","system_id":"levelo_inurba_marseille","lat":43.28507,"lon":5.3854,"is_reserved":false,"is_disabled":true,"rental_uris":{"android":"levelo://app?vid=6b404645-3784-4552-b362-ce2273282500","ios":"levelo://app?vid=6b404645-3784-4552-b362-ce2273282500"},"vehicle_type_id":"4","last_reported":1777113247,"current_range_meters":9200,"station_id":"ce4bh8p2rcd13ifvqeb0","pricing_plan_id":"cebpf4jnsgd1na2vs0mg"},{"bike_id":"97f0351e-0015-4f6a-a402-604cdb115786","system_id":"levelo_inurba_marseille","lat":43.21186,"lon":5.3507,"is_reserved":false,"is_disabled":false,"rental_uris":{"android":"levelo://app?vid=97f0351e-0015-4f6a-a402-604cdb115786","ios":"levelo://app?vid=97f0351e-0015-4f6a-a402-604cdb115786"},"vehicle_type_id":"4","last_reported":1777113247,"current_range_meters":9200,"station_id":"st_cvj6sg6p6f1abm77japg","pricing_plan_id":"cebpf4jnsgd1na2vs0mg"},{"bike_id":"9a7c39d8-ef30-4694-b180-b6fe0a089530","system_id":"levelo_inurba_marseille","lat":43.3013,"lon":5.43104,"is_reserved":false,"is_disabled":false,"rental_uris":{"android":"levelo://app?vid=9a7c39d8-ef30-4694-b180-b6fe0a089530","ios":"levelo://app?vid=9a7c39d8-ef30-4694-b180-b6fe0a089530"},"vehicle_type_id":"4","last_reported":1777113247,"current_range_meters":9200,"station_id":"st_d3js3co5814s73ftftug","pricing_plan_id":"cebpf4jnsgd1na2vs0mg"},{"bike_id":"ace34436-51fe-4536-a1f6-cfa009f56977","system_id":"levelo_inurba_marseille","lat":43.33548,"lon":5.37459,"is_reserved":false,"is_disabled":false,"rental_uris":{"android":"levelo://app?vid=ace34436-51fe-4536-a1f6-cfa009f56977","ios":"levelo://app?vid=ace34436-51fe-4536-a1f6-cfa009f56977"},"vehicle_type_id":"4","last_reported":1777113247,"current_range_meters":9200,"station_id":"st_d46tts09ee8s73dlu43g","pricing_plan_id":"cebpf4jnsgd1na2vs0mg"},{"bike_id":"5687bcf3-d7dc-457c-91e4-c37491638fcd","system_id":"levelo_inurba_marseille","lat":43.24166,"lon":5.36398,"is_reserved":false,"is_disabled":false,"rental_uris":{"android":"levelo://app?vid=5687bcf3-d7dc-457c-91e4-c37491638fcd","ios":"levelo://app?vid=5687bcf3-d7dc-457c-91e4-c37491638fcd"},"vehicle_type_id":"4","last_reported":1777113247,"current_range_meters":9200,"station_id":"cpo36qri1sfpv3e86is0","pricing_plan_id":"cebpf4jnsgd1na2vs0mg"},{"bike_id":"12351776-ce4e-4c65-be2a-084ee71a31ed","system_id":"levelo_inurba_marseille","lat":43.24036,"lon":5.3791,"is_reserved":false,"is_disabled":false,"rental_uris":{"android":"levelo://app?vid=12351776-ce4e-4c65-be2a-084ee71a31ed","ios":"levelo://app?vid=12351776-ce4e-4c65-be2a-084ee71a31ed"},"vehicle_type_id":"4","last_reported":1777113247,"current_range_meters":9200,"station_id":"ce4bhnp2rcd13ifvqgvg","pricing_plan_id":"cebpf4jnsgd1na2vs0mg"},{"bike_id":"ce5a273c-29fc-44dc-ac13-3cb4ee249b48","system_id":"levelo_inurba_marseille","lat":43.28941,"lon":5.36631,"is_reserved":false,"is_disabled":false,"rental_uris":{"android":"levelo://app?vid=ce5a273c-29fc-44dc-ac13-3cb4ee249b48","ios":"levelo://app?vid=ce5a273c-29fc-44dc-ac13-3cb4ee249b48"},"vehicle_type_id":"4","last_reported":1777113247,"current_range_meters":9200,"station_id":"ce4bhap2rcd13ifvqek0","pricing_plan_id":"cebpf4jnsgd1na2vs0mg"},{"bike_id":"270b3504-7efc-4ad9-a72b-907087bacf0e","system_id":"levelo_inurba_marseille","lat":43.23176,"lon":5.43685,"is_reserved":false,"is_disabled":false,"rental_uris":{"android":"levelo://app?vid=270b3504-7efc-4ad9-a72b-907087bacf0e","ios":"levelo://app?vid=270b3504-7efc-4ad9-a72b-907087bacf0e"},"vehicle_type_id":"4","last_reported":1777113247,"current_range_meters":9200,"station_id":"ce4bhmp2rcd13ifvqgog","pricing_plan_id":"cebpf4jnsgd1na2vs0mg"},{"bike_id":"6f0578ac-8aba-4766-9b17-9115240b1551","system_id":"levelo_inurba_marseille","lat":43.25129,"lon":5.40332,"is_reserved":false,"is_disabled":false,"rental_uris":{"android":"levelo://app?vid=6f0578ac-8aba-4766-9b17-9115240b1551","ios":"levelo://app?vid=6f0578ac-8aba-4766-9b17-9115240b1551"},"vehicle_type_id":"4","last_reported":1777113247,"current_range_meters":9200,"station_id":"ce4bhlh2rcd13ifvqgig","pricing_plan_id":"cebpf4jnsgd1na2vs0mg"},{"bike_id":"26669f21-c2bc-4bde-9041-60db37f3e93e","system_id":"levelo_inurba_marseille","lat":43.25587,"lon":5.38232,"is_reserved":false,"is_disabled":true,"rental_uris":{"android":"levelo://app?vid=26669f21-c2bc-4bde-9041-60db37f3e93e","ios":"levelo://app?vid=26669f21-c2bc-4bde-9041-60db37f3e93e"},"vehicle_type_id":"4","last_reported":1777113247,"current_range_meters":9200,"station_id":"ce4bhih2rcd13ifvqfs0","pricing_plan_id":"cebpf4jnsgd1na2vs0mg"},{"bike_id":"7d507d55-089b-4da6-9cba-e3bba178d923","system_id":"levelo_inurba_marseille","lat":43.23188,"lon":5.39992,"is_reserved":false,"is_disabled":false,"rental_uris":{"android":"levelo://app?vid=7d507d55-089b-4da6-9cba-e3bba178d923","ios":"levelo://app?vid=7d507d55-089b-4da6-9cba-e3bba178d923"},"vehicle_type_id":"4","last_reported":1777113247,"current_range_meters":9200,"station_id":"ce4bhn12rcd13ifvqgqg","pricing_plan_id":"cebpf4jnsgd1na2vs0mg"},{"bike_id":"17fe3f56-b486-40dd-ac6a-710ede14c97d","system_id":"levelo_inurba_marseille","lat":43.314869,"lon":5.373029,"is_reserved":false,"is_disabled":false,"rental_uris":{"android":"levelo://app?vid=17fe3f56-b486-40dd-ac6a-710ede14c97d","ios":"levelo://app?vid=17fe3f56-b486-40dd-ac6a-710ede14c97d"},"vehicle_type_id":"4","last_reported":1777113247,"current_range_meters":9200,"station_id":"","pricing_plan_id":"cebpf4jnsgd1na2vs0mg"},{"bike_id":"06558e5b-846f-4e20-b375-c8972d75dc5a","system_id":"levelo_inurba_marseille","lat":43.27352,"lon":5.43076,"is_reserved":false,"is_disabled":false,"rental_uris":{"android":"levelo://app?vid=06558e5b-846f-4e20-b375-c8972d75dc5a","ios":"levelo://app?vid=06558e5b-846f-4e20-b375-c8972d75dc5a"},"vehicle_type_id":"4","last_reported":1777113247,"current_range_meters":9200,"station_id":"","pricing_plan_id":"cebpf4jnsgd1na2vs0mg"},{"bike_id":"1c82b8ca-1d32-4faf-a8ee-7446bbf91b6c","system_id":"levelo_inurba_marseille","lat":43.29978,"lon":5.38493,"is_reserved":false,"is_disabled":false,"rental_uris":{"android":"levelo://app?vid=1c82b8ca-1d32-4faf-a8ee-7446bbf91b6c","ios":"levelo://app?vid=1c82b8ca-1d32-4faf-a8ee-7446bbf91b6c"},"vehicle_type_id":"4","last_reported":1777113247,"current_range_meters":9200,"station_id":"ce4bgj92rcd13ifvqbd0","pricing_plan_id":"cebpf4jnsgd1na2vs0mg"},{"bike_id":"e788ca34-60df-4b1c-a1a5-a422788eab30","system_id":"levelo_inurba_marseille","lat":43.3039,"lon":5.42472,"is_reserved":false,"is_disabled":false,"rental_uris":{"android":"levelo://app?vid=e788ca34-60df-4b1c-a1a5-a422788eab30","ios":"levelo://app?vid=e788ca34-60df-4b1c-a1a5-a422788eab30"},"vehicle_type_id":"4","last_reported":1777113247,"current_range_meters":9200,"station_id":"ce4bhoh2rcd13ifvqh6g","pricing_plan_id":"cebpf4jnsgd1na2vs0mg"},{"bike_id":"c990c5eb-8657-416e-b2a4-7c313b0d816d","system_id":"levelo_inurba_marseille","lat":43.27309,"lon":5.39095,"is_reserved":false,"is_disabled":false,"rental_uris":{"android":"levelo://app?vid=c990c5eb-8657-416e-b2a4-7c313b0d816d","ios":"levelo://app?vid=c990c5eb-8657-416e-b2a4-7c313b0d816d"},"vehicle_type_id":"4","last_reported":1777113247,"current_range_meters":9200,"station_id":"ce4bhgp2rcd13ifvqfe0","pricing_plan_id":"cebpf4jnsgd1na2vs0mg"},{"bike_id":"07408139-0e0b-42d2-ac2d-94af4e4d3d13","system_id":"levelo_inurba_marseille","lat":43.26492,"lon":5.39575,"is_reserved":false,"is_disabled":false,"rental_uris":{"android":"levelo://app?vid=07408139-0e0b-42d2-ac2d-94af4e4d3d13","ios":"levelo://app?vid=07408139-0e0b-42d2-ac2d-94af4e4d3d13"},"vehicle_type_id":"4","last_reported":1777113247,"current_range_meters":9600,"station_id":"ce4bhi12rcd13ifvqfq0","pricing_plan_id":"cebpf4jnsgd1na2vs0mg"},{"bike_id":"0cd2fd7c-6402-466e-aa1b-fa186d7a7ed3","system_id":"levelo_inurba_marseille","lat":43.33194,"lon":5.37792,"is_reserved":false,"is_disabled":false,"rental_uris":{"android":"levelo://app?vid=0cd2fd7c-6402-466e-aa1b-fa186d7a7ed3","ios":"levelo://app?vid=0cd2fd7c-6402-466e-aa1b-fa186d7a7ed3"},"vehicle_type_id":"4","last_reported":1777113247,"current_range_meters":9600,"station_id":"","pricing_plan_id":"cebpf4jnsgd1na2vs0mg"},{"bike_id":"a7abb83b-d8f7-4b04-81c9-42ce1f31f52a","system_id":"levelo_inurba_marseille","lat":43.27622,"lon":5.36114,"is_reserved":false,"is_disabled":true,"rental_uris":{"android":"levelo://app?vid=a7abb83b-d8f7-4b04-81c9-42ce1f31f52a","ios":"levelo://app?vid=a7abb83b-d8f7-4b04-81c9-42ce1f31f52a"},"vehicle_type_id":"4","last_reported":1777113247,"current_range_meters":9600,"station_id":"ce4bgj92rcd13ifvqbe0","pricing_plan_id":"cebpf4jnsgd1na2vs0mg"},{"bike_id":"5d3fd44c-b59d-41d4-a478-9d5eb2e2ef58","system_id":"levelo_inurba_marseille","lat":43.337444,"lon":5.374475,"is_reserved":false,"is_disabled":false,"rental_uris":{"android":"levelo://app?vid=5d3fd44c-b59d-41d4-a478-9d5eb2e2ef58","ios":"levelo://app?vid=5d3fd44c-b59d-41d4-a478-9d5eb2e2ef58"},"vehicle_type_id":"4","last_reported":1777113247,"current_range_meters":9600,"station_id":"","pricing_plan_id":"cebpf4jnsgd1na2vs0mg"},{"bike_id":"78f5b0da-7ef9-451f-b7a0-89eb969d26f6","system_id":"levelo_inurba_marseille","lat":43.29929,"lon":5.37488,"is_reserved":false,"is_disabled":false,"rental_uris":{"android":"levelo://app?vid=78f5b0da-7ef9-451f-b7a0-89eb969d26f6","ios":"levelo://app?vid=78f5b0da-7ef9-451f-b7a0-89eb969d26f6"},"vehicle_type_id":"4","last_reported":1777113247,"current_range_meters":9600,"station_id":"ce4bgjh2rcd13ifvqbg0","pricing_plan_id":"cebpf4jnsgd1na2vs0mg"},{"bike_id":"4cd72995-c6bd-4cb8-9c20-b6bd0f4debc1","system_id":"levelo_inurba_marseille","lat":43.28942,"lon":5.36435,"is_reserved":false,"is_disabled":true,"rental_uris":{"android":"levelo://app?vid=4cd72995-c6bd-4cb8-9c20-b6bd0f4debc1","ios":"levelo://app?vid=4cd72995-c6bd-4cb8-9c20-b6bd0f4debc1"},"vehicle_type_id":"4","last_reported":1777113247,"current_range_meters":9600,"station_id":"","pricing_plan_id":"cebpf4jnsgd1na2vs0mg"},{"bike_id":"13dece33-960e-4515-a289-dc639ac53ee8","system_id":"levelo_inurba_marseille","lat":43.29742,"lon":5.37708,"is_reserved":false,"is_disabled":false,"rental_uris":{"android":"levelo://app?vid=13dece33-960e-4515-a289-dc639ac53ee8","ios":"levelo://app?vid=13dece33-960e-4515-a289-dc639ac53ee8"},"vehicle_type_id":"4","last_reported":1777113247,"current_range_meters":9600,"station_id":"ce4bgkh2rcd13ifvqbl0","pricing_plan_id":"cebpf4jnsgd1na2vs0mg"},{"bike_id":"91ea6971-6562-4208-a9ad-5fadb2891c43","system_id":"levelo_inurba_marseille","lat":43.29745,"lon":5.37685,"is_reserved":false,"is_disabled":false,"rental_uris":{"android":"levelo://app?vid=91ea6971-6562-4208-a9ad-5fadb2891c43","ios":"levelo://app?vid=91ea6971-6562-4208-a9ad-5fadb2891c43"},"vehicle_type_id":"4","last_reported":1777113247,"current_range_meters":9600,"station_id":"ce4bgkh2rcd13ifvqbl0","pricing_plan_id":"cebpf4jnsgd1na2vs0mg"},{"bike_id":"01ab20ba-1010-4f3e-8686-567609147797","system_id":"levelo_inurba_marseille","lat":43.30188,"lon":5.38075,"is_reserved":false,"is_disabled":false,"rental_uris":{"android":"levelo://app?vid=01ab20ba-1010-4f3e-8686-567609147797","ios":"levelo://app?vid=01ab20ba-1010-4f3e-8686-567609147797"},"vehicle_type_id":"4","last_reported":1777113247,"current_range_meters":9600,"station_id":"","pricing_plan_id":"cebpf4jnsgd1na2vs0mg"},{"bike_id":"a04d60df-414e-4af4-864e-5afd610894db","system_id":"levelo_inurba_marseille","lat":43.30206,"lon":5.38089,"is_reserved":false,"is_disabled":false,"rental_uris":{"android":"levelo://app?vid=a04d60df-414e-4af4-864e-5afd610894db","ios":"levelo://app?vid=a04d60df-414e-4af4-864e-5afd610894db"},"vehicle_type_id":"4","last_reported":1777113247,"current_range_meters":9600,"station_id":"","pricing_plan_id":"cebpf4jnsgd1na2vs0mg"},{"bike_id":"331aed36-1bf5-4901-b2f4-ca1bfe5bd1c0","system_id":"levelo_inurba_marseille","lat":43.2119,"lon":5.35069,"is_reserved":false,"is_disabled":false,"rental_uris":{"android":"levelo://app?vid=331aed36-1bf5-4901-b2f4-ca1bfe5bd1c0","ios":"levelo://app?vid=331aed36-1bf5-4901-b2f4-ca1bfe5bd1c0"},"vehicle_type_id":"4","last_reported":1777113247,"current_range_meters":9600,"station_id":"st_cvj6sg6p6f1abm77japg","pricing_plan_id":"cebpf4jnsgd1na2vs0mg"},{"bike_id":"648bc781-8e68-4ccd-aedc-987a153e904f","system_id":"levelo_inurba_marseille","lat":43.29265,"lon":5.38457,"is_reserved":false,"is_disabled":false,"rental_uris":{"android":"levelo://app?vid=648bc781-8e68-4ccd-aedc-987a153e904f","ios":"levelo://app?vid=648bc781-8e68-4ccd-aedc-987a153e904f"},"vehicle_type_id":"4","last_reported":1777113247,"current_range_meters":9600,"station_id":"ce4bh692rcd13ifvqea0","pricing_plan_id":"cebpf4jnsgd1na2vs0mg"},{"bike_id":"e79bde01-2f2e-4687-9114-2908a926683e","system_id":"levelo_inurba_marseille","lat":43.33546,"lon":5.37458,"is_reserved":false,"is_disabled":false,"rental_uris":{"android":"levelo://app?vid=e79bde01-2f2e-4687-9114-2908a926683e","ios":"levelo://app?vid=e79bde01-2f2e-4687-9114-2908a926683e"},"vehicle_type_id":"4","last_reported":1777113247,"current_range_meters":9600,"station_id":"st_d46tts09ee8s73dlu43g","pricing_plan_id":"cebpf4jnsgd1na2vs0mg"},{"bike_id":"d3fc06ed-a4a6-4ebd-a012-f82f411a860e","system_id":"levelo_inurba_marseille","lat":43.21194,"lon":5.35078,"is_reserved":false,"is_disabled":false,"rental_uris":{"android":"levelo://app?vid=d3fc06ed-a4a6-4ebd-a012-f82f411a860e","ios":"levelo://app?vid=d3fc06ed-a4a6-4ebd-a012-f82f411a860e"},"vehicle_type_id":"4","last_reported":1777113247,"current_range_meters":9600,"station_id":"st_cvj6sg6p6f1abm77japg","pricing_plan_id":"cebpf4jnsgd1na2vs0mg"},{"bike_id":"fda983b3-301e-40f3-bb07-e5c67ab620e4","system_id":"levelo_inurba_marseille","lat":43.25073,"lon":5.40448,"is_reserved":false,"is_disabled":false,"rental_uris":{"android":"levelo://app?vid=fda983b3-301e-40f3-bb07-e5c67ab620e4","ios":"levelo://app?vid=fda983b3-301e-40f3-bb07-e5c67ab620e4"},"vehicle_type_id":"4","last_reported":1777113247,"current_range_meters":9600,"station_id":"","pricing_plan_id":"cebpf4jnsgd1na2vs0mg"},{"bike_id":"f1cffc7b-9140-4f3f-acd5-1357e8e47054","system_id":"levelo_inurba_marseille","lat":43.22549,"lon":5.34798,"is_reserved":false,"is_disabled":false,"rental_uris":{"android":"levelo://app?vid=f1cffc7b-9140-4f3f-acd5-1357e8e47054","ios":"levelo://app?vid=f1cffc7b-9140-4f3f-acd5-1357e8e47054"},"vehicle_type_id":"4","last_reported":1777113247,"current_range_meters":9600,"station_id":"st_cvj5dfep6f1abm77gieg","pricing_plan_id":"cebpf4jnsgd1na2vs0mg"},{"bike_id":"05a33fd5-e436-4ad0-a907-865e546c41d5","system_id":"levelo_inurba_marseille","lat":43.22554,"lon":5.41613,"is_reserved":false,"is_disabled":true,"rental_uris":{"android":"levelo://app?vid=05a33fd5-e436-4ad0-a907-865e546c41d5","ios":"levelo://app?vid=05a33fd5-e436-4ad0-a907-865e546c41d5"},"vehicle_type_id":"4","last_reported":1777113247,"current_range_meters":9600,"station_id":"","pricing_plan_id":"cebpf4jnsgd1na2vs0mg"},{"bike_id":"29a620e8-4b52-4d08-95f8-6717646b19cf","system_id":"levelo_inurba_marseille","lat":43.2962,"lon":5.37715,"is_reserved":false,"is_disabled":false,"rental_uris":{"android":"levelo://app?vid=29a620e8-4b52-4d08-95f8-6717646b19cf","ios":"levelo://app?vid=29a620e8-4b52-4d08-95f8-6717646b19cf"},"vehicle_type_id":"4","last_reported":1777113247,"current_range_meters":9600,"station_id":"ce4bgi92rcd13ifvqb90","pricing_plan_id":"cebpf4jnsgd1na2vs0mg"},{"bike_id":"338d8ead-ba67-489a-972d-87376cee8805","system_id":"levelo_inurba_marseille","lat":43.31881,"lon":5.39985,"is_reserved":false,"is_disabled":false,"rental_uris":{"android":"levelo://app?vid=338d8ead-ba67-489a-972d-87376cee8805","ios":"levelo://app?vid=338d8ead-ba67-489a-972d-87376cee8805"},"vehicle_type_id":"4","last_reported":1777113247,"current_range_meters":9600,"station_id":"","pricing_plan_id":"cebpf4jnsgd1na2vs0mg"},{"bike_id":"8eb44f3c-d836-42f9-9003-a0103f4cd9ee","system_id":"levelo_inurba_marseille","lat":43.29594,"lon":5.38444,"is_reserved":false,"is_disabled":false,"rental_uris":{"android":"levelo://app?vid=8eb44f3c-d836-42f9-9003-a0103f4cd9ee","ios":"levelo://app?vid=8eb44f3c-d836-42f9-9003-a0103f4cd9ee"},"vehicle_type_id":"4","last_reported":1777113247,"current_range_meters":9600,"station_id":"","pricing_plan_id":"cebpf4jnsgd1na2vs0mg"},{"bike_id":"0e1e4521-1dac-4c01-872a-f09f1790ab28","system_id":"levelo_inurba_marseille","lat":43.24653,"lon":5.3889,"is_reserved":false,"is_disabled":false,"rental_uris":{"android":"levelo://app?vid=0e1e4521-1dac-4c01-872a-f09f1790ab28","ios":"levelo://app?vid=0e1e4521-1dac-4c01-872a-f09f1790ab28"},"vehicle_type_id":"4","last_reported":1777113247,"current_range_meters":9600,"station_id":"ce4bhg12rcd13ifvqf60","pricing_plan_id":"cebpf4jnsgd1na2vs0mg"},{"bike_id":"5fdff1d7-b2d7-4e39-ad7f-00ed09411d1d","system_id":"levelo_inurba_marseille","lat":43.28504,"lon":5.48378,"is_reserved":false,"is_disabled":false,"rental_uris":{"android":"levelo://app?vid=5fdff1d7-b2d7-4e39-ad7f-00ed09411d1d","ios":"levelo://app?vid=5fdff1d7-b2d7-4e39-ad7f-00ed09411d1d"},"vehicle_type_id":"4","last_reported":1777113247,"current_range_meters":10000,"station_id":"st_d3svhcjqgbts73a3dn0g","pricing_plan_id":"cebpf4jnsgd1na2vs0mg"},{"bike_id":"d99c7834-1ff5-4852-9208-242fc0c01b4e","system_id":"levelo_inurba_marseille","lat":43.28465,"lon":5.35889,"is_reserved":false,"is_disabled":false,"rental_uris":{"android":"levelo://app?vid=d99c7834-1ff5-4852-9208-242fc0c01b4e","ios":"levelo://app?vid=d99c7834-1ff5-4852-9208-242fc0c01b4e"},"vehicle_type_id":"4","last_reported":1777113247,"current_range_meters":10000,"station_id":"ce4bhah2rcd13ifvqei0","pricing_plan_id":"cebpf4jnsgd1na2vs0mg"},{"bike_id":"f3cb38b8-58ba-44db-8e7c-7c614b255071","system_id":"levelo_inurba_marseille","lat":43.280813,"lon":5.396654,"is_reserved":false,"is_disabled":false,"rental_uris":{"android":"levelo://app?vid=f3cb38b8-58ba-44db-8e7c-7c614b255071","ios":"levelo://app?vid=f3cb38b8-58ba-44db-8e7c-7c614b255071"},"vehicle_type_id":"4","last_reported":1777113247,"current_range_meters":10000,"station_id":"ce4bho12rcd13ifvqh2g","pricing_plan_id":"cebpf4jnsgd1na2vs0mg"},{"bike_id":"2dfec06b-6889-4730-b649-699505e31ac2","system_id":"levelo_inurba_marseille","lat":43.28158,"lon":5.42604,"is_reserved":false,"is_disabled":false,"rental_uris":{"android":"levelo://app?vid=2dfec06b-6889-4730-b649-699505e31ac2","ios":"levelo://app?vid=2dfec06b-6889-4730-b649-699505e31ac2"},"vehicle_type_id":"4","last_reported":1777113247,"current_range_meters":10000,"station_id":"ce4bhnh2rcd13ifvqgug","pricing_plan_id":"cebpf4jnsgd1na2vs0mg"},{"bike_id":"70578acc-b935-4f77-be23-bcde1db99b26","system_id":"levelo_inurba_marseille","lat":43.29794,"lon":5.38155,"is_reserved":false,"is_disabled":false,"rental_uris":{"android":"levelo://app?vid=70578acc-b935-4f77-be23-bcde1db99b26","ios":"levelo://app?vid=70578acc-b935-4f77-be23-bcde1db99b26"},"vehicle_type_id":"4","last_reported":1777113247,"current_range_meters":10000,"station_id":"ce4bgip2rcd13ifvqbb0","pricing_plan_id":"cebpf4jnsgd1na2vs0mg"},{"bike_id":"6b60b3c8-da35-492c-9411-418199a97ad7","system_id":"levelo_inurba_marseille","lat":43.28484,"lon":5.48386,"is_reserved":false,"is_disabled":false,"rental_uris":{"android":"levelo://app?vid=6b60b3c8-da35-492c-9411-418199a97ad7","ios":"levelo://app?vid=6b60b3c8-da35-492c-9411-418199a97ad7"},"vehicle_type_id":"4","last_reported":1777113247,"current_range_meters":10000,"station_id":"","pricing_plan_id":"cebpf4jnsgd1na2vs0mg"},{"bike_id":"e2727c40-d1dd-4cda-a19c-9bad92fe848f","system_id":"levelo_inurba_marseille","lat":43.28478,"lon":5.38436,"is_reserved":false,"is_disabled":true,"rental_uris":{"android":"levelo://app?vid=e2727c40-d1dd-4cda-a19c-9bad92fe848f","ios":"levelo://app?vid=e2727c40-d1dd-4cda-a19c-9bad92fe848f"},"vehicle_type_id":"4","last_reported":1777113247,"current_range_meters":10000,"station_id":"ce4bh512rcd13ifvqe3g","pricing_plan_id":"cebpf4jnsgd1na2vs0mg"},{"bike_id":"e9caee44-b787-4c36-a632-4bd6c1ec7cfa","system_id":"levelo_inurba_marseille","lat":43.2849,"lon":5.48384,"is_reserved":false,"is_disabled":false,"rental_uris":{"android":"levelo://app?vid=e9caee44-b787-4c36-a632-4bd6c1ec7cfa","ios":"levelo://app?vid=e9caee44-b787-4c36-a632-4bd6c1ec7cfa"},"vehicle_type_id":"4","last_reported":1777113247,"current_range_meters":10000,"station_id":"st_d3svhcjqgbts73a3dn0g","pricing_plan_id":"cebpf4jnsgd1na2vs0mg"},{"bike_id":"d3e9b620-cd42-4df4-8fae-e98a466e75fe","system_id":"levelo_inurba_marseille","lat":43.25595,"lon":5.38234,"is_reserved":false,"is_disabled":false,"rental_uris":{"android":"levelo://app?vid=d3e9b620-cd42-4df4-8fae-e98a466e75fe","ios":"levelo://app?vid=d3e9b620-cd42-4df4-8fae-e98a466e75fe"},"vehicle_type_id":"4","last_reported":1777113247,"current_range_meters":10000,"station_id":"ce4bhih2rcd13ifvqfs0","pricing_plan_id":"cebpf4jnsgd1na2vs0mg"},{"bike_id":"26ae2695-6287-43dc-869d-d5718d6cc551","system_id":"levelo_inurba_marseille","lat":43.32055,"lon":5.41532,"is_reserved":false,"is_disabled":false,"rental_uris":{"android":"levelo://app?vid=26ae2695-6287-43dc-869d-d5718d6cc551","ios":"levelo://app?vid=26ae2695-6287-43dc-869d-d5718d6cc551"},"vehicle_type_id":"4","last_reported":1777113247,"current_range_meters":10000,"station_id":"ce4bhq92rcd13ifvqhkg","pricing_plan_id":"cebpf4jnsgd1na2vs0mg"},{"bike_id":"bdfc1b2f-cfac-44a5-affe-5570ae58a012","system_id":"levelo_inurba_marseille","lat":43.29277,"lon":5.36841,"is_reserved":false,"is_disabled":false,"rental_uris":{"android":"levelo://app?vid=bdfc1b2f-cfac-44a5-affe-5570ae58a012","ios":"levelo://app?vid=bdfc1b2f-cfac-44a5-affe-5570ae58a012"},"vehicle_type_id":"4","last_reported":1777113247,"current_range_meters":10000,"station_id":"","pricing_plan_id":"cebpf4jnsgd1na2vs0mg"},{"bike_id":"66422ae3-4d1d-4e8e-bde2-cb1c9dfcb65c","system_id":"levelo_inurba_marseille","lat":43.25494,"lon":5.37648,"is_reserved":false,"is_disabled":false,"rental_uris":{"android":"levelo://app?vid=66422ae3-4d1d-4e8e-bde2-cb1c9dfcb65c","ios":"levelo://app?vid=66422ae3-4d1d-4e8e-bde2-cb1c9dfcb65c"},"vehicle_type_id":"4","last_reported":1777113247,"current_range_meters":10000,"station_id":"ce4bhh12rcd13ifvqff0","pricing_plan_id":"cebpf4jnsgd1na2vs0mg"},{"bike_id":"3833eaec-fd7f-4fbe-8fe3-066d011f3340","system_id":"levelo_inurba_marseille","lat":43.24183,"lon":5.36387,"is_reserved":false,"is_disabled":false,"rental_uris":{"android":"levelo://app?vid=3833eaec-fd7f-4fbe-8fe3-066d011f3340","ios":"levelo://app?vid=3833eaec-fd7f-4fbe-8fe3-066d011f3340"},"vehicle_type_id":"4","last_reported":1777113247,"current_range_meters":10000,"station_id":"cpo36qri1sfpv3e86is0","pricing_plan_id":"cebpf4jnsgd1na2vs0mg"},{"bike_id":"7bfad3df-98d6-40bd-9e53-0ab108024463","system_id":"levelo_inurba_marseille","lat":43.24808,"lon":5.37455,"is_reserved":false,"is_disabled":false,"rental_uris":{"android":"levelo://app?vid=7bfad3df-98d6-40bd-9e53-0ab108024463","ios":"levelo://app?vid=7bfad3df-98d6-40bd-9e53-0ab108024463"},"vehicle_type_id":"4","last_reported":1777113247,"current_range_meters":10000,"station_id":"ce4bhgh2rcd13ifvqfb0","pricing_plan_id":"cebpf4jnsgd1na2vs0mg"},{"bike_id":"f7716b3d-5dc6-4c1f-94ea-dd8b69d23a22","system_id":"levelo_inurba_marseille","lat":43.27493,"lon":5.4352,"is_reserved":false,"is_disabled":false,"rental_uris":{"android":"levelo://app?vid=f7716b3d-5dc6-4c1f-94ea-dd8b69d23a22","ios":"levelo://app?vid=f7716b3d-5dc6-4c1f-94ea-dd8b69d23a22"},"vehicle_type_id":"4","last_reported":1777113247,"current_range_meters":10000,"station_id":"","pricing_plan_id":"cebpf4jnsgd1na2vs0mg"},{"bike_id":"f17951b1-f52d-4f5c-9dce-dd5bd0cff11e","system_id":"levelo_inurba_marseille","lat":43.25489,"lon":5.37646,"is_reserved":false,"is_disabled":false,"rental_uris":{"android":"levelo://app?vid=f17951b1-f52d-4f5c-9dce-dd5bd0cff11e","ios":"levelo://app?vid=f17951b1-f52d-4f5c-9dce-dd5bd0cff11e"},"vehicle_type_id":"4","last_reported":1777113247,"current_range_meters":10800,"station_id":"ce4bhh12rcd13ifvqff0","pricing_plan_id":"cebpf4jnsgd1na2vs0mg"},{"bike_id":"34dfd67b-2c48-4dc8-925d-67479ce73c68","system_id":"levelo_inurba_marseille","lat":43.31363,"lon":5.38499,"is_reserved":false,"is_disabled":false,"rental_uris":{"android":"levelo://app?vid=34dfd67b-2c48-4dc8-925d-67479ce73c68","ios":"levelo://app?vid=34dfd67b-2c48-4dc8-925d-67479ce73c68"},"vehicle_type_id":"4","last_reported":1777113247,"current_range_meters":10800,"station_id":"ce4bgt92rcd13ifvqcf0","pricing_plan_id":"cebpf4jnsgd1na2vs0mg"},{"bike_id":"aaf59152-8891-4f5b-9476-1108daf6bb91","system_id":"levelo_inurba_marseille","lat":43.273715,"lon":5.362591,"is_reserved":false,"is_disabled":true,"rental_uris":{"android":"levelo://app?vid=aaf59152-8891-4f5b-9476-1108daf6bb91","ios":"levelo://app?vid=aaf59152-8891-4f5b-9476-1108daf6bb91"},"vehicle_type_id":"4","last_reported":1777113247,"current_range_meters":10800,"station_id":"ce4bhbh2rcd13ifvqeo0","pricing_plan_id":"cebpf4jnsgd1na2vs0mg"},{"bike_id":"df75676a-7c3f-4d29-80c0-260795f2c62d","system_id":"levelo_inurba_marseille","lat":43.27953,"lon":5.40774,"is_reserved":false,"is_disabled":false,"rental_uris":{"android":"levelo://app?vid=df75676a-7c3f-4d29-80c0-260795f2c62d","ios":"levelo://app?vid=df75676a-7c3f-4d29-80c0-260795f2c62d"},"vehicle_type_id":"4","last_reported":1777113247,"current_range_meters":10800,"station_id":"","pricing_plan_id":"cebpf4jnsgd1na2vs0mg"},{"bike_id":"f3a003de-3d04-4f6d-bcf6-a00588e1d45a","system_id":"levelo_inurba_marseille","lat":43.28487,"lon":5.48385,"is_reserved":false,"is_disabled":false,"rental_uris":{"android":"levelo://app?vid=f3a003de-3d04-4f6d-bcf6-a00588e1d45a","ios":"levelo://app?vid=f3a003de-3d04-4f6d-bcf6-a00588e1d45a"},"vehicle_type_id":"4","last_reported":1777113247,"current_range_meters":10800,"station_id":"","pricing_plan_id":"cebpf4jnsgd1na2vs0mg"},{"bike_id":"6378d13c-9294-47cb-a201-edcadf79aa34","system_id":"levelo_inurba_marseille","lat":43.27804,"lon":5.40701,"is_reserved":false,"is_disabled":false,"rental_uris":{"android":"levelo://app?vid=6378d13c-9294-47cb-a201-edcadf79aa34","ios":"levelo://app?vid=6378d13c-9294-47cb-a201-edcadf79aa34"},"vehicle_type_id":"4","last_reported":1777113247,"current_range_meters":10800,"station_id":"ce4bhnh2rcd13ifvqgtg","pricing_plan_id":"cebpf4jnsgd1na2vs0mg"},{"bike_id":"e7dd8318-4271-41e7-b4b0-eda1360f384e","system_id":"levelo_inurba_marseille","lat":43.30177,"lon":5.38081,"is_reserved":false,"is_disabled":false,"rental_uris":{"android":"levelo://app?vid=e7dd8318-4271-41e7-b4b0-eda1360f384e","ios":"levelo://app?vid=e7dd8318-4271-41e7-b4b0-eda1360f384e"},"vehicle_type_id":"4","last_reported":1777113247,"current_range_meters":10800,"station_id":"ce4bgjp2rcd13ifvqbh0","pricing_plan_id":"cebpf4jnsgd1na2vs0mg"},{"bike_id":"9719a6a3-6560-4264-93fe-268110e75779","system_id":"levelo_inurba_marseille","lat":43.239411,"lon":5.362723,"is_reserved":false,"is_disabled":false,"rental_uris":{"android":"levelo://app?vid=9719a6a3-6560-4264-93fe-268110e75779","ios":"levelo://app?vid=9719a6a3-6560-4264-93fe-268110e75779"},"vehicle_type_id":"4","last_reported":1777113247,"current_range_meters":10800,"station_id":"cpo3342slgdg3j2ifvpg","pricing_plan_id":"cebpf4jnsgd1na2vs0mg"},{"bike_id":"1fa7c290-baf4-43ed-aa99-7181dabef99e","system_id":"levelo_inurba_marseille","lat":43.33549,"lon":5.37467,"is_reserved":false,"is_disabled":false,"rental_uris":{"android":"levelo://app?vid=1fa7c290-baf4-43ed-aa99-7181dabef99e","ios":"levelo://app?vid=1fa7c290-baf4-43ed-aa99-7181dabef99e"},"vehicle_type_id":"4","last_reported":1777113247,"current_range_meters":10800,"station_id":"st_d46tts09ee8s73dlu43g","pricing_plan_id":"cebpf4jnsgd1na2vs0mg"},{"bike_id":"81cfffe2-4477-4769-b5f1-cc928950e40f","system_id":"levelo_inurba_marseille","lat":43.24066,"lon":5.37759,"is_reserved":false,"is_disabled":false,"rental_uris":{"android":"levelo://app?vid=81cfffe2-4477-4769-b5f1-cc928950e40f","ios":"levelo://app?vid=81cfffe2-4477-4769-b5f1-cc928950e40f"},"vehicle_type_id":"4","last_reported":1777113247,"current_range_meters":10800,"station_id":"ce4bhnp2rcd13ifvqgvg","pricing_plan_id":"cebpf4jnsgd1na2vs0mg"},{"bike_id":"8382b8e2-42a0-4cae-8f3d-d1af83bab971","system_id":"levelo_inurba_marseille","lat":43.24643,"lon":5.38896,"is_reserved":false,"is_disabled":false,"rental_uris":{"android":"levelo://app?vid=8382b8e2-42a0-4cae-8f3d-d1af83bab971","ios":"levelo://app?vid=8382b8e2-42a0-4cae-8f3d-d1af83bab971"},"vehicle_type_id":"4","last_reported":1777113247,"current_range_meters":10800,"station_id":"ce4bhg12rcd13ifvqf60","pricing_plan_id":"cebpf4jnsgd1na2vs0mg"},{"bike_id":"fd08bed3-4bcd-4c7c-9299-bff5b6dac1a6","system_id":"levelo_inurba_marseille","lat":43.30178,"lon":5.3808,"is_reserved":false,"is_disabled":false,"rental_uris":{"android":"levelo://app?vid=fd08bed3-4bcd-4c7c-9299-bff5b6dac1a6","ios":"levelo://app?vid=fd08bed3-4bcd-4c7c-9299-bff5b6dac1a6"},"vehicle_type_id":"4","last_reported":1777113247,"current_range_meters":10800,"station_id":"ce4bgjp2rcd13ifvqbh0","pricing_plan_id":"cebpf4jnsgd1na2vs0mg"},{"bike_id":"2e4ae2ba-15b3-4556-b0a3-2e10bac651b8","system_id":"levelo_inurba_marseille","lat":43.33546,"lon":5.37472,"is_reserved":false,"is_disabled":false,"rental_uris":{"android":"levelo://app?vid=2e4ae2ba-15b3-4556-b0a3-2e10bac651b8","ios":"levelo://app?vid=2e4ae2ba-15b3-4556-b0a3-2e10bac651b8"},"vehicle_type_id":"4","last_reported":1777113247,"current_range_meters":10800,"station_id":"st_d46tts09ee8s73dlu43g","pricing_plan_id":"cebpf4jnsgd1na2vs0mg"},{"bike_id":"f8bc47b0-d414-485a-9f6f-d2f9a06185ec","system_id":"levelo_inurba_marseille","lat":43.2754,"lon":5.42505,"is_reserved":false,"is_disabled":false,"rental_uris":{"android":"levelo://app?vid=f8bc47b0-d414-485a-9f6f-d2f9a06185ec","ios":"levelo://app?vid=f8bc47b0-d414-485a-9f6f-d2f9a06185ec"},"vehicle_type_id":"4","last_reported":1777113247,"current_range_meters":10800,"station_id":"","pricing_plan_id":"cebpf4jnsgd1na2vs0mg"},{"bike_id":"ed9a1e88-1185-47f4-8489-85cf94012ee6","system_id":"levelo_inurba_marseille","lat":43.29571,"lon":5.39986,"is_reserved":false,"is_disabled":false,"rental_uris":{"android":"levelo://app?vid=ed9a1e88-1185-47f4-8489-85cf94012ee6","ios":"levelo://app?vid=ed9a1e88-1185-47f4-8489-85cf94012ee6"},"vehicle_type_id":"4","last_reported":1777113247,"current_range_meters":10800,"station_id":"ce4bh312rcd13ifvqdj0","pricing_plan_id":"cebpf4jnsgd1na2vs0mg"},{"bike_id":"da777b74-9725-4dce-a8da-8ea337840652","system_id":"levelo_inurba_marseille","lat":43.21751,"lon":5.34604,"is_reserved":false,"is_disabled":false,"rental_uris":{"android":"levelo://app?vid=da777b74-9725-4dce-a8da-8ea337840652","ios":"levelo://app?vid=da777b74-9725-4dce-a8da-8ea337840652"},"vehicle_type_id":"4","last_reported":1777113247,"current_range_meters":10800,"station_id":"st_cvj6r9ubvosntc0bgbag","pricing_plan_id":"cebpf4jnsgd1na2vs0mg"},{"bike_id":"af485194-e376-4626-9b11-ae884fb1ef0c","system_id":"levelo_inurba_marseille","lat":43.28919,"lon":5.4379,"is_reserved":false,"is_disabled":false,"rental_uris":{"android":"levelo://app?vid=af485194-e376-4626-9b11-ae884fb1ef0c","ios":"levelo://app?vid=af485194-e376-4626-9b11-ae884fb1ef0c"},"vehicle_type_id":"4","last_reported":1777113247,"current_range_meters":11200,"station_id":"","pricing_plan_id":"cebpf4jnsgd1na2vs0mg"},{"bike_id":"2f13e475-7dd9-404c-bb30-5f1d9fff70fa","system_id":"levelo_inurba_marseille","lat":43.21745,"lon":5.34603,"is_reserved":false,"is_disabled":false,"rental_uris":{"android":"levelo://app?vid=2f13e475-7dd9-404c-bb30-5f1d9fff70fa","ios":"levelo://app?vid=2f13e475-7dd9-404c-bb30-5f1d9fff70fa"},"vehicle_type_id":"4","last_reported":1777113247,"current_range_meters":11200,"station_id":"st_cvj6r9ubvosntc0bgbag","pricing_plan_id":"cebpf4jnsgd1na2vs0mg"},{"bike_id":"a2f341b5-27ef-4c68-bfb8-8bf57d59516a","system_id":"levelo_inurba_marseille","lat":43.3054,"lon":5.36526,"is_reserved":false,"is_disabled":false,"rental_uris":{"android":"levelo://app?vid=a2f341b5-27ef-4c68-bfb8-8bf57d59516a","ios":"levelo://app?vid=a2f341b5-27ef-4c68-bfb8-8bf57d59516a"},"vehicle_type_id":"4","last_reported":1777113247,"current_range_meters":11200,"station_id":"ce4bgs12rcd13ifvqcag","pricing_plan_id":"cebpf4jnsgd1na2vs0mg"},{"bike_id":"494fd0fc-3b39-4504-a26b-321afbf22977","system_id":"levelo_inurba_marseille","lat":43.23839,"lon":5.38541,"is_reserved":false,"is_disabled":false,"rental_uris":{"android":"levelo://app?vid=494fd0fc-3b39-4504-a26b-321afbf22977","ios":"levelo://app?vid=494fd0fc-3b39-4504-a26b-321afbf22977"},"vehicle_type_id":"4","last_reported":1777113247,"current_range_meters":11200,"station_id":"","pricing_plan_id":"cebpf4jnsgd1na2vs0mg"},{"bike_id":"26d26955-b302-4311-88a8-057f7b19117a","system_id":"levelo_inurba_marseille","lat":43.29652,"lon":5.36063,"is_reserved":false,"is_disabled":false,"rental_uris":{"android":"levelo://app?vid=26d26955-b302-4311-88a8-057f7b19117a","ios":"levelo://app?vid=26d26955-b302-4311-88a8-057f7b19117a"},"vehicle_type_id":"4","last_reported":1777113247,"current_range_meters":11200,"station_id":"","pricing_plan_id":"cebpf4jnsgd1na2vs0mg"},{"bike_id":"4ee37fcd-f303-49fc-b658-46f81c8b28db","system_id":"levelo_inurba_marseille","lat":43.30156,"lon":5.43056,"is_reserved":false,"is_disabled":false,"rental_uris":{"android":"levelo://app?vid=4ee37fcd-f303-49fc-b658-46f81c8b28db","ios":"levelo://app?vid=4ee37fcd-f303-49fc-b658-46f81c8b28db"},"vehicle_type_id":"4","last_reported":1777113247,"current_range_meters":11200,"station_id":"","pricing_plan_id":"cebpf4jnsgd1na2vs0mg"},{"bike_id":"77d21afc-038b-43fe-af72-fdc89a449f58","system_id":"levelo_inurba_marseille","lat":43.27379,"lon":5.3625,"is_reserved":false,"is_disabled":false,"rental_uris":{"android":"levelo://app?vid=77d21afc-038b-43fe-af72-fdc89a449f58","ios":"levelo://app?vid=77d21afc-038b-43fe-af72-fdc89a449f58"},"vehicle_type_id":"4","last_reported":1777113247,"current_range_meters":11200,"station_id":"ce4bhbh2rcd13ifvqeo0","pricing_plan_id":"cebpf4jnsgd1na2vs0mg"},{"bike_id":"b21748b2-fb24-4ee6-8e6a-c7c61264faec","system_id":"levelo_inurba_marseille","lat":43.2739,"lon":5.42186,"is_reserved":false,"is_disabled":false,"rental_uris":{"android":"levelo://app?vid=b21748b2-fb24-4ee6-8e6a-c7c61264faec","ios":"levelo://app?vid=b21748b2-fb24-4ee6-8e6a-c7c61264faec"},"vehicle_type_id":"4","last_reported":1777113247,"current_range_meters":11200,"station_id":"","pricing_plan_id":"cebpf4jnsgd1na2vs0mg"},{"bike_id":"8dc766a0-fb3c-42e7-bec1-7c1cdafa0312","system_id":"levelo_inurba_marseille","lat":43.28004,"lon":5.4168,"is_reserved":false,"is_disabled":false,"rental_uris":{"android":"levelo://app?vid=8dc766a0-fb3c-42e7-bec1-7c1cdafa0312","ios":"levelo://app?vid=8dc766a0-fb3c-42e7-bec1-7c1cdafa0312"},"vehicle_type_id":"4","last_reported":1777113247,"current_range_meters":11200,"station_id":"ce4bho12rcd13ifvqh1g","pricing_plan_id":"cebpf4jnsgd1na2vs0mg"},{"bike_id":"4951f924-201f-49d7-8951-8a5883720076","system_id":"levelo_inurba_marseille","lat":43.29028,"lon":5.38132,"is_reserved":false,"is_disabled":true,"rental_uris":{"android":"levelo://app?vid=4951f924-201f-49d7-8951-8a5883720076","ios":"levelo://app?vid=4951f924-201f-49d7-8951-8a5883720076"},"vehicle_type_id":"4","last_reported":1777113247,"current_range_meters":11200,"station_id":"ce4bh4p2rcd13ifvqe1g","pricing_plan_id":"cebpf4jnsgd1na2vs0mg"},{"bike_id":"32862978-7b0f-4577-bad0-d502f59488da","system_id":"levelo_inurba_marseille","lat":43.26368,"lon":5.41077,"is_reserved":false,"is_disabled":false,"rental_uris":{"android":"levelo://app?vid=32862978-7b0f-4577-bad0-d502f59488da","ios":"levelo://app?vid=32862978-7b0f-4577-bad0-d502f59488da"},"vehicle_type_id":"4","last_reported":1777113247,"current_range_meters":11200,"station_id":"st_d4e5ca6na9uc73bfl5fg","pricing_plan_id":"cebpf4jnsgd1na2vs0mg"},{"bike_id":"d3386b71-869b-4f32-967c-c92f680b5e43","system_id":"levelo_inurba_marseille","lat":43.28625,"lon":5.35106,"is_reserved":false,"is_disabled":false,"rental_uris":{"android":"levelo://app?vid=d3386b71-869b-4f32-967c-c92f680b5e43","ios":"levelo://app?vid=d3386b71-869b-4f32-967c-c92f680b5e43"},"vehicle_type_id":"4","last_reported":1777113247,"current_range_meters":11200,"station_id":"ce4bhch2rcd13ifvqeug","pricing_plan_id":"cebpf4jnsgd1na2vs0mg"},{"bike_id":"566d96b8-5e9f-424c-a211-21ad768be894","system_id":"levelo_inurba_marseille","lat":43.28547,"lon":5.44095,"is_reserved":false,"is_disabled":false,"rental_uris":{"android":"levelo://app?vid=566d96b8-5e9f-424c-a211-21ad768be894","ios":"levelo://app?vid=566d96b8-5e9f-424c-a211-21ad768be894"},"vehicle_type_id":"4","last_reported":1777113247,"current_range_meters":11600,"station_id":"st_d3j3df2ikq2c7380ej80","pricing_plan_id":"cebpf4jnsgd1na2vs0mg"},{"bike_id":"7a7864fd-5680-422e-b796-41504b8be864","system_id":"levelo_inurba_marseille","lat":43.27371,"lon":5.36254,"is_reserved":false,"is_disabled":false,"rental_uris":{"android":"levelo://app?vid=7a7864fd-5680-422e-b796-41504b8be864","ios":"levelo://app?vid=7a7864fd-5680-422e-b796-41504b8be864"},"vehicle_type_id":"4","last_reported":1777113247,"current_range_meters":11600,"station_id":"ce4bhbh2rcd13ifvqeo0","pricing_plan_id":"cebpf4jnsgd1na2vs0mg"},{"bike_id":"12d33aa3-f28b-4538-bb99-b430b618faf7","system_id":"levelo_inurba_marseille","lat":43.2551,"lon":5.37656,"is_reserved":false,"is_disabled":false,"rental_uris":{"android":"levelo://app?vid=12d33aa3-f28b-4538-bb99-b430b618faf7","ios":"levelo://app?vid=12d33aa3-f28b-4538-bb99-b430b618faf7"},"vehicle_type_id":"4","last_reported":1777113247,"current_range_meters":11600,"station_id":"ce4bhh12rcd13ifvqff0","pricing_plan_id":"cebpf4jnsgd1na2vs0mg"},{"bike_id":"1db00e34-5de7-4dcd-8e5e-0acb9338b4b7","system_id":"levelo_inurba_marseille","lat":43.32101,"lon":5.36785,"is_reserved":false,"is_disabled":false,"rental_uris":{"android":"levelo://app?vid=1db00e34-5de7-4dcd-8e5e-0acb9338b4b7","ios":"levelo://app?vid=1db00e34-5de7-4dcd-8e5e-0acb9338b4b7"},"vehicle_type_id":"4","last_reported":1777113247,"current_range_meters":11600,"station_id":"ce4bhrh2rcd13ifvqhug","pricing_plan_id":"cebpf4jnsgd1na2vs0mg"},{"bike_id":"edde7a68-84d8-4d52-822d-08dbf9522a68","system_id":"levelo_inurba_marseille","lat":43.21746,"lon":5.34605,"is_reserved":false,"is_disabled":false,"rental_uris":{"android":"levelo://app?vid=edde7a68-84d8-4d52-822d-08dbf9522a68","ios":"levelo://app?vid=edde7a68-84d8-4d52-822d-08dbf9522a68"},"vehicle_type_id":"4","last_reported":1777113247,"current_range_meters":11600,"station_id":"st_cvj6r9ubvosntc0bgbag","pricing_plan_id":"cebpf4jnsgd1na2vs0mg"},{"bike_id":"9abd8451-0e83-424f-9303-4b5447d8f129","system_id":"levelo_inurba_marseille","lat":43.27374,"lon":5.393,"is_reserved":false,"is_disabled":false,"rental_uris":{"android":"levelo://app?vid=9abd8451-0e83-424f-9303-4b5447d8f129","ios":"levelo://app?vid=9abd8451-0e83-424f-9303-4b5447d8f129"},"vehicle_type_id":"4","last_reported":1777113247,"current_range_meters":11600,"station_id":"","pricing_plan_id":"cebpf4jnsgd1na2vs0mg"},{"bike_id":"c939d582-e58f-42be-82c3-22462bdf58a6","system_id":"levelo_inurba_marseille","lat":43.25014,"lon":5.38925,"is_reserved":false,"is_disabled":false,"rental_uris":{"android":"levelo://app?vid=c939d582-e58f-42be-82c3-22462bdf58a6","ios":"levelo://app?vid=c939d582-e58f-42be-82c3-22462bdf58a6"},"vehicle_type_id":"4","last_reported":1777113247,"current_range_meters":11600,"station_id":"ce4bhgp2rcd13ifvqfd0","pricing_plan_id":"cebpf4jnsgd1na2vs0mg"},{"bike_id":"0ea77499-097c-4ef4-b856-6cf44164077e","system_id":"levelo_inurba_marseille","lat":43.2828,"lon":5.39839,"is_reserved":false,"is_disabled":false,"rental_uris":{"android":"levelo://app?vid=0ea77499-097c-4ef4-b856-6cf44164077e","ios":"levelo://app?vid=0ea77499-097c-4ef4-b856-6cf44164077e"},"vehicle_type_id":"4","last_reported":1777113247,"current_range_meters":12000,"station_id":"","pricing_plan_id":"cebpf4jnsgd1na2vs0mg"},{"bike_id":"9e2df2bb-624d-406a-9b98-71a881ae9b43","system_id":"levelo_inurba_marseille","lat":43.31261,"lon":5.36851,"is_reserved":false,"is_disabled":false,"rental_uris":{"android":"levelo://app?vid=9e2df2bb-624d-406a-9b98-71a881ae9b43","ios":"levelo://app?vid=9e2df2bb-624d-406a-9b98-71a881ae9b43"},"vehicle_type_id":"4","last_reported":1777113247,"current_range_meters":12000,"station_id":"ce4bgl92rcd13ifvqbq0","pricing_plan_id":"cebpf4jnsgd1na2vs0mg"},{"bike_id":"bee91535-8fd4-46d9-82b4-d1ffaa22017e","system_id":"levelo_inurba_marseille","lat":43.2837,"lon":5.38114,"is_reserved":false,"is_disabled":true,"rental_uris":{"android":"levelo://app?vid=bee91535-8fd4-46d9-82b4-d1ffaa22017e","ios":"levelo://app?vid=bee91535-8fd4-46d9-82b4-d1ffaa22017e"},