{"last_updated":1701331804,"ttl":30,"version":"2.2","data":{"bikes":[{"bike_id":"e1fb553a-47e9-4da4-8f5e-98de9dfadaee","system_id":"levelo_inurba_marseille","lat":43.31341,"lon":5.367098,"is_reserved":false,"is_disabled":false,"rental_uris":{"android":"levelo://app?vid=e1fb553a-47e9-4da4-8f5e-98de9dfadaee","ios":"levelo://app?vid=e1fb553a-47e9-4da4-8f5e-98de9dfadaee"},"vehicle_type_id":"4","last_reported":1701331805,"current_range_meters":16000,"station_id":"ce4bgr92rcd13ifvqc6g","pricing_plan_id":"free"},{"bike_id":"2f75f45d-9917-4a6c-8a85-1e9bdbfd5318","system_id":"levelo_inurba_marseille","lat":43.313391,"lon":5.36706,"is_reserved":false,"is_disabled":false,"rental_uris":{"android":"levelo://app?vid=2f75f45d-9917-4a6c-8a85-1e9bdbfd5318","ios":"levelo://app?vid=2f75f45d-9917-4a6c-8a85-1e9bdbfd5318"},"vehicle_type_id":"4","last_reported":1701331805,"current_range_meters":31200,"station_id":"ce4bgr92rcd13ifvqc6g","pricing_plan_id":"free"},{"bike_id":"6c32aa9d-4587-4bad-80bd-c8230d328413","system_id":"levelo_inurba_marseille","lat":43.31341,"lon":5.367098,"is_reserved":false,"is_disabled":false,"rental_uris":{"android":"levelo://app?vid=6c32aa9d-4587-4bad-80bd-c8230d328413","ios":"levelo://app?vid=6c32aa9d-4587-4bad-80bd-c8230d328413"},"vehicle_type_id":"4","last_reported":1701331805,"current_range_meters":4400,"station_id":"ce4bgr92rcd13ifvqc6g","pricing_plan_id":"free"},{"bike_id":"f682790a-a905-4ffe-9b83-28bf1c9d304a","system_id":"levelo_inurba_marseille","lat":43.313391,"lon":5.36706,"is_reserved":false,"is_disabled":false,"rental_uris":{"android":"levelo://app?vid=f682790a-a905-4ffe-9b83-28bf1c9d304a","ios":"levelo://app?vid=f682790a-a905-4ffe-9b83-28bf1c9d304a"},"vehicle_type_id":"4","last_reported":1701331805,"current_range_meters":23600,"station_id":"ce4bgr92rcd13ifvqc6g","pricing_plan_id":"free"},{"bike_id":"c42464be-8273-4350-a19f-570d58842f81","system_id":"levelo_inurba_marseille","lat":43.31341,"lon":5.367098,"is_reserved":false,"is_disabled":false,"rental_uris":{"android":"levelo://app?vid=c42464be-8273-4350-a19f-570d58842f81","ios":"levelo://app?vid=c42464be-8273-4350-a19f-570d58842f81"},"vehicle_type_id":"4","last_reported":1701331805,"current_range_meters":26800,"station_id":"ce4bgr92rcd13ifvqc6g","pricing_plan_id":"free"},{"bike_id":"dc8aebcf-5310-4a5e-a1cd-e498b2840c41","system_id":"levelo_inurba_marseille","lat":43.313391,"lon":5.36706,"is_reserved":false,"is_disabled":false,"rental_uris":{"android":"levelo://app?vid=dc8aebcf-5310-4a5e-a1cd-e498b2840c41","ios":"levelo://app?vid=dc8aebcf-5310-4a5e-a1cd-e498b2840c41"},"vehicle_type_id":"4","last_reported":1701331805,"current_range_meters":16800,"station_id":"ce4bgr92rcd13ifvqc6g","pricing_plan_id":"free"},{"bike_id":"7c052d57-e5ae-4cd3-a31f-2f400eadca73","system_id":"levelo_inurba_marseille","lat":43.313391,"lon":5.36706,"is_reserved":false,"is_disabled":false,"rental_uris":{"android":"levelo://app?vid=7c052d57-e5ae-4cd3-a31f-2f400eadca73","ios":"levelo://app?vid=7c052d57-e5ae-4cd3-a31f-2f400eadca73"},"vehicle_type_id":"4","last_reported":1701331805,"current_range_meters":17600,"station_id":"ce4bgr92rcd13ifvqc6g","pricing_plan_id":"free"},{"bike_id":"0f541c23-7577-4ad0-8e90-c9b79b156f9b","system_id":"levelo_inurba_marseille","lat":43.313391,"lon":5.36706,"is_reserved":false,"is_disabled":false,"rental_uris":{"android":"levelo://app?vid=0f541c23-7577-4ad0-8e90-c9b79b156f9b","ios":"levelo://app?vid=0f541c23-7577-4ad0-8e90-c9b79b156f9b"},"vehicle_type_id":"4","last_reported":1701331805,"current_range_meters":28800,"station_id":"ce4bgr92rcd13ifvqc6g","pricing_plan_id":"free"},{"bike_id":"84e775e2-3361-4165-96bb-a3dafd35a718","system_id":"levelo_inurba_marseille","lat":43.313391,"lon":5.36706,"is_reserved":false,"is_disabled":false,"rental_uris":{"android":"levelo://app?vid=84e775e2-3361-4165-96bb-a3dafd35a718","ios":"levelo://app?vid=84e775e2-3361-4165-96bb-a3dafd35a718"},"vehicle_type_id":"4","last_reported":1701331805,"current_range_meters":9600,"station_id":"ce4bgr92rcd13ifvqc6g","pricing_plan_id":"free"},{"bike_id":"de6fc00f-35ef-4ecc-ac8f-233d13501e24","system_id":"levelo_inurba_marseille","lat":43.313391,"lon":5.36706,"is_reserved":false,"is_disabled":false,"rental_uris":{"android":"levelo://app?vid=de6fc00f-35ef-4ecc-ac8f-233d13501e24","ios":"levelo://app?vid=de6fc00f-35ef-4ecc-ac8f-233d13501e24"},"vehicle_type_id":"4","last_reported":1701331805,"current_range_meters":31200,"station_id":"ce4bgr92rcd13ifvqc6g","pricing_plan_id":"free"},{"bike_id":"df5bbf72-8c20-4763-aa81-6f64c47d5905","system_id":"levelo_inurba_marseille","lat":43.313391,"lon":5.36706,"is_reserved":false,"is_disabled":false,"rental_uris":{"android":"levelo://app?vid=df5bbf72-8c20-4763-aa81-6f64c47d5905","ios":"levelo://app?vid=df5bbf72-8c20-4763-aa81-6f64c47d5905"},"vehicle_type_id":"4","last_reported":1701331805,"current_range_meters":21200,"station_id":"ce4bgr92rcd13ifvqc6g","pricing_plan_id":"free"},{"bike_id":"6069efed-4214-4ef4-89c2-abebeb832aca","system_id":"levelo_inurba_marseille","lat":43.312239,"lon":5.368562,"is_reserved":false,"is_disabled":false,"rental_uris":{"android":"levelo://app?vid=6069efed-4214-4ef4-89c2-abebeb832aca","ios":"levelo://app?vid=6069efed-4214-4ef4-89c2-abebeb832aca"},"vehicle_type_id":"4","last_reported":1701331805,"current_range_meters":10000,"station_id":"ce4bgl92rcd13ifvqbq0","pricing_plan_id":"free"},{"bike_id":"edb2f72a-b2ac-4ce2-96e4-d59032fe7034","system_id":"levelo_inurba_marseille","lat":43.312239,"lon":5.368562,"is_reserved":false,"is_disabled":false,"rental_uris":{"android":"levelo://app?vid=edb2f72a-b2ac-4ce2-96e4-d59032fe7034","ios":"levelo://app?vid=edb2f72a-b2ac-4ce2-96e4-d59032fe7034"},"vehicle_type_id":"4","last_reported":1701331805,"current_range_meters":21200,"station_id":"ce4bgl92rcd13ifvqbq0","pricing_plan_id":"free"},{"bike_id":"d647e152-1033-4d6c-a8b6-f0456676aa1a","system_id":"levelo_inurba_marseille","lat":43.309076,"lon":5.368465,"is_reserved":false,"is_disabled":false,"rental_uris":{"android":"levelo://app?vid=d647e152-1033-4d6c-a8b6-f0456676aa1a","ios":"levelo://app?vid=d647e152-1033-4d6c-a8b6-f0456676aa1a"},"vehicle_type_id":"4","last_reported":1701331805,"current_range_meters":21200,"station_id":"ce4bgn92rcd13ifvqbvg","pricing_plan_id":"free"},{"bike_id":"e0ed4152-83c6-48a0-8da6-adae3254e07e","system_id":"levelo_inurba_marseille","lat":43.309076,"lon":5.368465,"is_reserved":false,"is_disabled":false,"rental_uris":{"android":"levelo://app?vid=e0ed4152-83c6-48a0-8da6-adae3254e07e","ios":"levelo://app?vid=e0ed4152-83c6-48a0-8da6-adae3254e07e"},"vehicle_type_id":"4","last_reported":1701331805,"current_range_meters":31200,"station_id":"ce4bgn92rcd13ifvqbvg","pricing_plan_id":"free"},{"bike_id":"5ccc757b-55ba-497f-8a04-9995def58564","system_id":"levelo_inurba_marseille","lat":43.309076,"lon":5.368465,"is_reserved":false,"is_disabled":false,"rental_uris":{"android":"levelo://app?vid=5ccc757b-55ba-497f-8a04-9995def58564","ios":"levelo://app?vid=5ccc757b-55ba-497f-8a04-9995def58564"},"vehicle_type_id":"4","last_reported":1701331805,"current_range_meters":21600,"station_id":"ce4bgn92rcd13ifvqbvg","pricing_plan_id":"free"},{"bike_id":"9efd169f-aced-4080-86e0-ace3fbf88469","system_id":"levelo_inurba_marseille","lat":43.309076,"lon":5.368465,"is_reserved":false,"is_disabled":false,"rental_uris":{"android":"levelo://app?vid=9efd169f-aced-4080-86e0-ace3fbf88469","ios":"levelo://app?vid=9efd169f-aced-4080-86e0-ace3fbf88469"},"vehicle_type_id":"4","last_reported":1701331805,"current_range_meters":23600,"station_id":"ce4bgn92rcd13ifvqbvg","pricing_plan_id":"free"},{"bike_id":"63dfba46-3895-4148-ad09-fee572b7e20c","system_id":"levelo_inurba_marseille","lat":43.309076,"lon":5.368465,"is_reserved":false,"is_disabled":false,"rental_uris":{"android":"levelo://app?vid=63dfba46-3895-4148-ad09-fee572b7e20c","ios":"levelo://app?vid=63dfba46-3895-4148-ad09-fee572b7e20c"},"vehicle_type_id":"4","last_reported":1701331805,"current_range_meters":2800,"station_id":"ce4bgn92rcd13ifvqbvg","pricing_plan_id":"free"},{"bike_id":"69907837-c36c-4c49-b90d-f2943933288a","system_id":"levelo_inurba_marseille","lat":43.309076,"lon":5.368465,"is_reserved":false,"is_disabled":false,"rental_uris":{"android":"levelo://app?vid=69907837-c36c-4c49-b90d-f2943933288a","ios":"levelo://app?vid=69907837-c36c-4c49-b90d-f2943933288a"},"vehicle_type_id":"4","last_reported":1701331805,"current_range_meters":31200,"station_id":"ce4bgn92rcd13ifvqbvg","pricing_plan_id":"free"},{"bike_id":"a0ee0e2e-277e-4e70-9712-b8dd22373da8","system_id":"levelo_inurba_marseille","lat":43.309076,"lon":5.368465,"is_reserved":false,"is_disabled":false,"rental_uris":{"android":"levelo://app?vid=a0ee0e2e-277e-4e70-9712-b8dd22373da8","ios":"levelo://app?vid=a0ee0e2e-277e-4e70-9712-b8dd22373da8"},"vehicle_type_id":"4","last_reported":1701331805,"current_range_meters":16000,"station_id":"ce4bgn92rcd13ifvqbvg","pricing_plan_id":"free"},{"bike_id":"9c266762-abcd-4245-83f8-70d783044905","system_id":"levelo_inurba_marseille","lat":43.309076,"lon":5.368465,"is_reserved":false,"is_disabled":false,"rental_uris":{"android":"levelo://app?vid=9c266762-abcd-4245-83f8-70d783044905","ios":"levelo://app?vid=9c266762-abcd-4245-83f8-70d783044905"},"vehicle_type_id":"4","last_reported":1701331805,"current_range_meters":27600,"station_id":"ce4bgn92rcd13ifvqbvg","pricing_plan_id":"free"},{"bike_id":"1e969908-02cc-4239-a406-be8b96ae7498","system_id":"levelo_inurba_marseille","lat":43.309076,"lon":5.368465,"is_reserved":false,"is_disabled":false,"rental_uris":{"android":"levelo://app?vid=1e969908-02cc-4239-a406-be8b96ae7498","ios":"levelo://app?vid=1e969908-02cc-4239-a406-be8b96ae7498"},"vehicle_type_id":"4","last_reported":1701331805,"current_range_meters":21600,"station_id":"ce4bgn92rcd13ifvqbvg","pricing_plan_id":"free"},{"bike_id":"48fa2c79-848f-4381-baa3-72aa27832a3a","system_id":"levelo_inurba_marseille","lat":43.309076,"lon":5.368465,"is_reserved":false,"is_disabled":false,"rental_uris":{"android":"levelo://app?vid=48fa2c79-848f-4381-baa3-72aa27832a3a","ios":"levelo://app?vid=48fa2c79-848f-4381-baa3-72aa27832a3a"},"vehicle_type_id":"4","last_reported":1701331805,"current_range_meters":21200,"station_id":"ce4bgn92rcd13ifvqbvg","pricing_plan_id":"free"},{"bike_id":"5a173bb4-5390-4171-ab50-2033edbb3726","system_id":"levelo_inurba_marseille","lat":43.309076,"lon":5.368465,"is_reserved":false,"is_disabled":false,"rental_uris":{"android":"levelo://app?vid=5a173bb4-5390-4171-ab50-2033edbb3726","ios":"levelo://app?vid=5a173bb4-5390-4171-ab50-2033edbb3726"},"vehicle_type_id":"4","last_reported":1701331805,"current_range_meters":22000,"station_id":"ce4bgn92rcd13ifvqbvg","pricing_plan_id":"free"},{"bike_id":"6ea438f3-ba48-43d8-9a25-cc76664e70fe","system_id":"levelo_inurba_marseille","lat":43.309076,"lon":5.368465,"is_reserved":false,"is_disabled":false,"rental_uris":{"android":"levelo://app?vid=6ea438f3-ba48-43d8-9a25-cc76664e70fe","ios":"levelo://app?vid=6ea438f3-ba48-43d8-9a25-cc76664e70fe"},"vehicle_type_id":"4","last_reported":1701331805,"current_range_meters":23200,"station_id":"ce4bgn92rcd13ifvqbvg","pricing_plan_id":"free"},{"bike_id":"67da3b1b-73ab-4891-8c6d-be55db134bd7","system_id":"levelo_inurba_marseille","lat":43.309076,"lon":5.368465,"is_reserved":false,"is_disabled":false,"rental_uris":{"android":"levelo://app?vid=67da3b1b-73ab-4891-8c6d-be55db134bd7","ios":"levelo://app?vid=67da3b1b-73ab-4891-8c6d-be55db134bd7"},"vehicle_type_id":"4","last_reported":1701331805,"current_range_meters":24800,"station_id":"ce4bgn92rcd13ifvqbvg","pricing_plan_id":"free"},{"bike_id":"89469862-a742-44be-af70-36f775ead9ff","system_id":"levelo_inurba_marseille","lat":43.309076,"lon":5.368465,"is_reserved":false,"is_disabled":false,"rental_uris":{"android":"levelo://app?vid=89469862-a742-44be-af70-36f775ead9ff","ios":"levelo://app?vid=89469862-a742-44be-af70-36f775ead9ff"},"vehicle_type_id":"4","last_reported":1701331805,"current_range_meters":17600,"station_id":"ce4bgn92rcd13ifvqbvg","pricing_plan_id":"free"},{"bike_id":"86fc4a68-3c6d-4776-9198-75d1aa028d4d","system_id":"levelo_inurba_marseille","lat":43.309076,"lon":5.368465,"is_reserved":false,"is_disabled":false,"rental_uris":{"android":"levelo://app?vid=86fc4a68-3c6d-4776-9198-75d1aa028d4d","ios":"levelo://app?vid=86fc4a68-3c6d-4776-9198-75d1aa028d4d"},"vehicle_type_id":"4","last_reported":1701331805,"current_range_meters":21600,"station_id":"ce4bgn92rcd13ifvqbvg","pricing_plan_id":"free"},{"bike_id":"f54eedfd-603c-42cf-b084-d047335ff135","system_id":"levelo_inurba_marseille","lat":43.309076,"lon":5.368465,"is_reserved":false,"is_disabled":false,"rental_uris":{"android":"levelo://app?vid=f54eedfd-603c-42cf-b084-d047335ff135","ios":"levelo://app?vid=f54eedfd-603c-42cf-b084-d047335ff135"},"vehicle_type_id":"4","last_reported":1701331805,"current_range_meters":31600,"station_id":"ce4bgn92rcd13ifvqbvg","pricing_plan_id":"free"},{"bike_id":"33d78ae9-0181-413f-b418-7335ea6fb86a","system_id":"levelo_inurba_marseille","lat":43.309039,"lon":5.371797,"is_reserved":false,"is_disabled":false,"rental_uris":{"android":"levelo://app?vid=33d78ae9-0181-413f-b418-7335ea6fb86a","ios":"levelo://app?vid=33d78ae9-0181-413f-b418-7335ea6fb86a"},"vehicle_type_id":"4","last_reported":1701331805,"current_range_meters":12000,"station_id":"ce4bguh2rcd13ifvqckg","pricing_plan_id":"free"},{"bike_id":"c26c883e-256f-4721-a6ed-b6b2646ceba3","system_id":"levelo_inurba_marseille","lat":43.305494,"lon":5.367017,"is_reserved":false,"is_disabled":false,"rental_uris":{"android":"levelo://app?vid=c26c883e-256f-4721-a6ed-b6b2646ceba3","ios":"levelo://app?vid=c26c883e-256f-4721-a6ed-b6b2646ceba3"},"vehicle_type_id":"4","last_reported":1701331805,"current_range_meters":26000,"station_id":"ce4bgrp2rcd13ifvqc9g","pricing_plan_id":"free"},{"bike_id":"4018703d-6392-4991-a38b-9aa527259db0","system_id":"levelo_inurba_marseille","lat":43.305468,"lon":5.367023,"is_reserved":false,"is_disabled":false,"rental_uris":{"android":"levelo://app?vid=4018703d-6392-4991-a38b-9aa527259db0","ios":"levelo://app?vid=4018703d-6392-4991-a38b-9aa527259db0"},"vehicle_type_id":"4","last_reported":1701331805,"current_range_meters":28400,"station_id":"ce4bgrp2rcd13ifvqc9g","pricing_plan_id":"free"},{"bike_id":"aa64a112-f1a6-4767-a891-aa26d5502fea","system_id":"levelo_inurba_marseille","lat":43.305712,"lon":5.365641,"is_reserved":false,"is_disabled":false,"rental_uris":{"android":"levelo://app?vid=aa64a112-f1a6-4767-a891-aa26d5502fea","ios":"levelo://app?vid=aa64a112-f1a6-4767-a891-aa26d5502fea"},"vehicle_type_id":"4","last_reported":1701331805,"current_range_meters":8800,"station_id":"ce4bgs12rcd13ifvqcag","pricing_plan_id":"free"},{"bike_id":"c7c48787-3d7e-43b9-b81f-84fb064e67f4","system_id":"levelo_inurba_marseille","lat":43.3054,"lon":5.36705,"is_reserved":false,"is_disabled":false,"rental_uris":{"android":"levelo://app?vid=c7c48787-3d7e-43b9-b81f-84fb064e67f4","ios":"levelo://app?vid=c7c48787-3d7e-43b9-b81f-84fb064e67f4"},"vehicle_type_id":"4","last_reported":1701331805,"current_range_meters":26800,"station_id":"ce4bgrp2rcd13ifvqc9g","pricing_plan_id":"free"},{"bike_id":"25a7966d-18b8-4331-a19c-926a59620a84","system_id":"levelo_inurba_marseille","lat":43.305368,"lon":5.367343,"is_reserved":false,"is_disabled":false,"rental_uris":{"android":"levelo://app?vid=25a7966d-18b8-4331-a19c-926a59620a84","ios":"levelo://app?vid=25a7966d-18b8-4331-a19c-926a59620a84"},"vehicle_type_id":"4","last_reported":1701331805,"current_range_meters":24000,"station_id":"ce4bgrp2rcd13ifvqc9g","pricing_plan_id":"free"},{"bike_id":"7c717cb9-8e1f-4a18-943f-4c986ac92719","system_id":"levelo_inurba_marseille","lat":43.30538,"lon":5.3673,"is_reserved":false,"is_disabled":false,"rental_uris":{"android":"levelo://app?vid=7c717cb9-8e1f-4a18-943f-4c986ac92719","ios":"levelo://app?vid=7c717cb9-8e1f-4a18-943f-4c986ac92719"},"vehicle_type_id":"4","last_reported":1701331805,"current_range_meters":6000,"station_id":"ce4bgrp2rcd13ifvqc9g","pricing_plan_id":"free"},{"bike_id":"26b59c2e-5b06-4966-abe5-0c4de09fd476","system_id":"levelo_inurba_marseille","lat":43.30537,"lon":5.36723,"is_reserved":false,"is_disabled":false,"rental_uris":{"android":"levelo://app?vid=26b59c2e-5b06-4966-abe5-0c4de09fd476","ios":"levelo://app?vid=26b59c2e-5b06-4966-abe5-0c4de09fd476"},"vehicle_type_id":"4","last_reported":1701331805,"current_range_meters":0,"station_id":"ce4bgrp2rcd13ifvqc9g","pricing_plan_id":"free"},{"bike_id":"e1a52f5c-225e-4d0d-90e3-a322a6c9812d","system_id":"levelo_inurba_marseille","lat":43.305706,"lon":5.365654,"is_reserved":false,"is_disabled":false,"rental_uris":{"android":"levelo://app?vid=e1a52f5c-225e-4d0d-90e3-a322a6c9812d","ios":"levelo://app?vid=e1a52f5c-225e-4d0d-90e3-a322a6c9812d"},"vehicle_type_id":"4","last_reported":1701331805,"current_range_meters":28000,"station_id":"ce4bgs12rcd13ifvqcag","pricing_plan_id":"free"},{"bike_id":"f8fabd24-8415-412c-bbf8-869ed52a9e9d","system_id":"levelo_inurba_marseille","lat":43.305706,"lon":5.365654,"is_reserved":false,"is_disabled":false,"rental_uris":{"android":"levelo://app?vid=f8fabd24-8415-412c-bbf8-869ed52a9e9d","ios":"levelo://app?vid=f8fabd24-8415-412c-bbf8-869ed52a9e9d"},"vehicle_type_id":"4","last_reported":1701331805,"current_range_meters":26800,"station_id":"ce4bgs12rcd13ifvqcag","pricing_plan_id":"free"},{"bike_id":"df66779a-7a98-43a0-a906-040d9076a654","system_id":"levelo_inurba_marseille","lat":43.305368,"lon":5.367343,"is_reserved":false,"is_disabled":false,"rental_uris":{"android":"levelo://app?vid=df66779a-7a98-43a0-a906-040d9076a654","ios":"levelo://app?vid=df66779a-7a98-43a0-a906-040d9076a654"},"vehicle_type_id":"4","last_reported":1701331805,"current_range_meters":22000,"station_id":"ce4bgrp2rcd13ifvqc9g","pricing_plan_id":"free"},{"bike_id":"9d38be6c-8282-4884-a865-46df9c6bccb0","system_id":"levelo_inurba_marseille","lat":43.30529,"lon":5.36527,"is_reserved":false,"is_disabled":false,"rental_uris":{"android":"levelo://app?vid=9d38be6c-8282-4884-a865-46df9c6bccb0","ios":"levelo://app?vid=9d38be6c-8282-4884-a865-46df9c6bccb0"},"vehicle_type_id":"4","last_reported":1701331805,"current_range_meters":16400,"station_id":"ce4bgs12rcd13ifvqcag","pricing_plan_id":"free"},{"bike_id":"8ddbe663-31ab-400f-a2b2-be13cebcedc4","system_id":"levelo_inurba_marseille","lat":43.305706,"lon":5.365654,"is_reserved":false,"is_disabled":false,"rental_uris":{"android":"levelo://app?vid=8ddbe663-31ab-400f-a2b2-be13cebcedc4","ios":"levelo://app?vid=8ddbe663-31ab-400f-a2b2-be13cebcedc4"},"vehicle_type_id":"4","last_reported":1701331805,"current_range_meters":31200,"station_id":"ce4bgs12rcd13ifvqcag","pricing_plan_id":"free"},{"bike_id":"727d231a-d425-4d8f-ad3f-99b5a47572e8","system_id":"levelo_inurba_marseille","lat":43.30439,"lon":5.36753,"is_reserved":false,"is_disabled":false,"rental_uris":{"android":"levelo://app?vid=727d231a-d425-4d8f-ad3f-99b5a47572e8","ios":"levelo://app?vid=727d231a-d425-4d8f-ad3f-99b5a47572e8"},"vehicle_type_id":"4","last_reported":1701331805,"current_range_meters":31200,"station_id":"","pricing_plan_id":"free"},{"bike_id":"fbfa0a84-6755-4847-bdec-1bc4bb78901d","system_id":"levelo_inurba_marseille","lat":43.307945,"lon":5.376487,"is_reserved":false,"is_disabled":false,"rental_uris":{"android":"levelo://app?vid=fbfa0a84-6755-4847-bdec-1bc4bb78901d","ios":"levelo://app?vid=fbfa0a84-6755-4847-bdec-1bc4bb78901d"},"vehicle_type_id":"4","last_reported":1701331805,"current_range_meters":26800,"station_id":"ce4bgv92rcd13ifvqcq0","pricing_plan_id":"free"},{"bike_id":"f427a2c3-6e4a-446b-ae2f-9be8aa7f4122","system_id":"levelo_inurba_marseille","lat":43.31719,"lon":5.376813,"is_reserved":false,"is_disabled":false,"rental_uris":{"android":"levelo://app?vid=f427a2c3-6e4a-446b-ae2f-9be8aa7f4122","ios":"levelo://app?vid=f427a2c3-6e4a-446b-ae2f-9be8aa7f4122"},"vehicle_type_id":"4","last_reported":1701331805,"current_range_meters":6400,"station_id":"ce4bgth2rcd13ifvqch0","pricing_plan_id":"free"},{"bike_id":"e913f328-1e31-4c22-bd87-f809ea246de4","system_id":"levelo_inurba_marseille","lat":43.317168,"lon":5.376883,"is_reserved":false,"is_disabled":false,"rental_uris":{"android":"levelo://app?vid=e913f328-1e31-4c22-bd87-f809ea246de4","ios":"levelo://app?vid=e913f328-1e31-4c22-bd87-f809ea246de4"},"vehicle_type_id":"4","last_reported":1701331805,"current_range_meters":8800,"station_id":"ce4bgth2rcd13ifvqch0","pricing_plan_id":"free"},{"bike_id":"c3097485-b375-46c3-96c7-b2506d7403f3","system_id":"levelo_inurba_marseille","lat":43.303046,"lon":5.368981,"is_reserved":false,"is_disabled":false,"rental_uris":{"android":"levelo://app?vid=c3097485-b375-46c3-96c7-b2506d7403f3","ios":"levelo://app?vid=c3097485-b375-46c3-96c7-b2506d7403f3"},"vehicle_type_id":"4","last_reported":1701331805,"current_range_meters":14800,"station_id":"ce4bgqh2rcd13ifvqc5g","pricing_plan_id":"free"},{"bike_id":"a7ee12f9-52ca-4164-8575-4464f85cc7d3","system_id":"levelo_inurba_marseille","lat":43.30304,"lon":5.368987,"is_reserved":false,"is_disabled":false,"rental_uris":{"android":"levelo://app?vid=a7ee12f9-52ca-4164-8575-4464f85cc7d3","ios":"levelo://app?vid=a7ee12f9-52ca-4164-8575-4464f85cc7d3"},"vehicle_type_id":"4","last_reported":1701331805,"current_range_meters":31200,"station_id":"ce4bgqh2rcd13ifvqc5g","pricing_plan_id":"free"},{"bike_id":"bef3c888-e26e-4daf-a279-528d05d9f20b","system_id":"levelo_inurba_marseille","lat":43.30143,"lon":5.37413,"is_reserved":false,"is_disabled":false,"rental_uris":{"android":"levelo://app?vid=bef3c888-e26e-4daf-a279-528d05d9f20b","ios":"levelo://app?vid=bef3c888-e26e-4daf-a279-528d05d9f20b"},"vehicle_type_id":"4","last_reported":1701331805,"current_range_meters":22800,"station_id":"ce4bgs92rcd13ifvqcc0","pricing_plan_id":"free"},{"bike_id":"78109ab5-4dff-4353-803f-a35afa26f06d","system_id":"levelo_inurba_marseille","lat":43.30304,"lon":5.368987,"is_reserved":false,"is_disabled":false,"rental_uris":{"android":"levelo://app?vid=78109ab5-4dff-4353-803f-a35afa26f06d","ios":"levelo://app?vid=78109ab5-4dff-4353-803f-a35afa26f06d"},"vehicle_type_id":"4","last_reported":1701331805,"current_range_meters":25200,"station_id":"ce4bgqh2rcd13ifvqc5g","pricing_plan_id":"free"},{"bike_id":"ffb16729-1a61-4316-9ad9-d4a8a1eaa44e","system_id":"levelo_inurba_marseille","lat":43.301939,"lon":5.366286,"is_reserved":false,"is_disabled":false,"rental_uris":{"android":"levelo://app?vid=ffb16729-1a61-4316-9ad9-d4a8a1eaa44e","ios":"levelo://app?vid=ffb16729-1a61-4316-9ad9-d4a8a1eaa44e"},"vehicle_type_id":"4","last_reported":1701331805,"current_range_meters":21600,"station_id":"ce4bgrh2rcd13ifvqc8g","pricing_plan_id":"free"},{"bike_id":"5cc2d30b-c976-43d3-9e17-33777c4aebc5","system_id":"levelo_inurba_marseille","lat":43.301939,"lon":5.366286,"is_reserved":false,"is_disabled":false,"rental_uris":{"android":"levelo://app?vid=5cc2d30b-c976-43d3-9e17-33777c4aebc5","ios":"levelo://app?vid=5cc2d30b-c976-43d3-9e17-33777c4aebc5"},"vehicle_type_id":"4","last_reported":1701331805,"current_range_meters":18000,"station_id":"ce4bgrh2rcd13ifvqc8g","pricing_plan_id":"free"},{"bike_id":"7df890da-44ba-449b-b5db-d7eff0c0aa56","system_id":"levelo_inurba_marseille","lat":43.304606,"lon":5.379026,"is_reserved":false,"is_disabled":false,"rental_uris":{"android":"levelo://app?vid=7df890da-44ba-449b-b5db-d7eff0c0aa56","ios":"levelo://app?vid=7df890da-44ba-449b-b5db-d7eff0c0aa56"},"vehicle_type_id":"4","last_reported":1701331805,"current_range_meters":24800,"station_id":"ce4bgup2rcd13ifvqcn0","pricing_plan_id":"free"},{"bike_id":"f1d2a180-309b-4232-acef-3a8c5e717f59","system_id":"levelo_inurba_marseille","lat":43.304606,"lon":5.379026,"is_reserved":false,"is_disabled":false,"rental_uris":{"android":"levelo://app?vid=f1d2a180-309b-4232-acef-3a8c5e717f59","ios":"levelo://app?vid=f1d2a180-309b-4232-acef-3a8c5e717f59"},"vehicle_type_id":"4","last_reported":1701331805,"current_range_meters":25600,"station_id":"ce4bgup2rcd13ifvqcn0","pricing_plan_id":"free"},{"bike_id":"7698e9c3-cba2-4208-95d6-52b07709b8a8","system_id":"levelo_inurba_marseille","lat":43.324771,"lon":5.36557,"is_reserved":false,"is_disabled":false,"rental_uris":{"android":"levelo://app?vid=7698e9c3-cba2-4208-95d6-52b07709b8a8","ios":"levelo://app?vid=7698e9c3-cba2-4208-95d6-52b07709b8a8"},"vehicle_type_id":"4","last_reported":1701331805,"current_range_meters":17200,"station_id":"ce4bhs12rcd13ifvqhvg","pricing_plan_id":"free"},{"bike_id":"5f0dcc7e-fe2f-41ae-b9b7-07b5430b86ee","system_id":"levelo_inurba_marseille","lat":43.324771,"lon":5.36557,"is_reserved":false,"is_disabled":false,"rental_uris":{"android":"levelo://app?vid=5f0dcc7e-fe2f-41ae-b9b7-07b5430b86ee","ios":"levelo://app?vid=5f0dcc7e-fe2f-41ae-b9b7-07b5430b86ee"},"vehicle_type_id":"4","last_reported":1701331805,"current_range_meters":15200,"station_id":"ce4bhs12rcd13ifvqhvg","pricing_plan_id":"free"},{"bike_id":"899172e1-7437-4db9-90af-a826a7df6fd6","system_id":"levelo_inurba_marseille","lat":43.301429,"lon":5.37413,"is_reserved":false,"is_disabled":false,"rental_uris":{"android":"levelo://app?vid=899172e1-7437-4db9-90af-a826a7df6fd6","ios":"levelo://app?vid=899172e1-7437-4db9-90af-a826a7df6fd6"},"vehicle_type_id":"4","last_reported":1701331805,"current_range_meters":22000,"station_id":"ce4bgs92rcd13ifvqcc0","pricing_plan_id":"free"},{"bike_id":"88a2c1f5-55a1-488a-bb61-8c790ac0a207","system_id":"levelo_inurba_marseille","lat":43.301429,"lon":5.37413,"is_reserved":false,"is_disabled":false,"rental_uris":{"android":"levelo://app?vid=88a2c1f5-55a1-488a-bb61-8c790ac0a207","ios":"levelo://app?vid=88a2c1f5-55a1-488a-bb61-8c790ac0a207"},"vehicle_type_id":"4","last_reported":1701331805,"current_range_meters":26800,"station_id":"ce4bgs92rcd13ifvqcc0","pricing_plan_id":"free"},{"bike_id":"e7af5399-f461-42bc-8a04-e3b4cecbd04d","system_id":"levelo_inurba_marseille","lat":43.302784,"lon":5.377158,"is_reserved":false,"is_disabled":false,"rental_uris":{"android":"levelo://app?vid=e7af5399-f461-42bc-8a04-e3b4cecbd04d","ios":"levelo://app?vid=e7af5399-f461-42bc-8a04-e3b4cecbd04d"},"vehicle_type_id":"4","last_reported":1701331805,"current_range_meters":25600,"station_id":"ce4bguh2rcd13ifvqcj0","pricing_plan_id":"free"},{"bike_id":"3e01df68-27f0-42b4-ac09-2ec4a13acda6","system_id":"levelo_inurba_marseille","lat":43.31997,"lon":5.38152,"is_reserved":false,"is_disabled":false,"rental_uris":{"android":"levelo://app?vid=3e01df68-27f0-42b4-ac09-2ec4a13acda6","ios":"levelo://app?vid=3e01df68-27f0-42b4-ac09-2ec4a13acda6"},"vehicle_type_id":"4","last_reported":1701331805,"current_range_meters":8800,"station_id":"ce4bhr12rcd13ifvqhpg","pricing_plan_id":"free"},{"bike_id":"2275aca5-3158-4c2c-8022-ca5d2714bc86","system_id":"levelo_inurba_marseille","lat":43.319997,"lon":5.381594,"is_reserved":false,"is_disabled":false,"rental_uris":{"android":"levelo://app?vid=2275aca5-3158-4c2c-8022-ca5d2714bc86","ios":"levelo://app?vid=2275aca5-3158-4c2c-8022-ca5d2714bc86"},"vehicle_type_id":"4","last_reported":1701331805,"current_range_meters":23600,"station_id":"ce4bhr12rcd13ifvqhpg","pricing_plan_id":"free"},{"bike_id":"22d79885-769f-4da0-8d87-40d4210c8ca5","system_id":"levelo_inurba_marseille","lat":43.313571,"lon":5.384829,"is_reserved":false,"is_disabled":false,"rental_uris":{"android":"levelo://app?vid=22d79885-769f-4da0-8d87-40d4210c8ca5","ios":"levelo://app?vid=22d79885-769f-4da0-8d87-40d4210c8ca5"},"vehicle_type_id":"4","last_reported":1701331805,"current_range_meters":28400,"station_id":"ce4bgt92rcd13ifvqcf0","pricing_plan_id":"free"},{"bike_id":"6d8c01b8-16dd-4c81-ae20-44904314d898","system_id":"levelo_inurba_marseille","lat":43.313571,"lon":5.384829,"is_reserved":false,"is_disabled":false,"rental_uris":{"android":"levelo://app?vid=6d8c01b8-16dd-4c81-ae20-44904314d898","ios":"levelo://app?vid=6d8c01b8-16dd-4c81-ae20-44904314d898"},"vehicle_type_id":"4","last_reported":1701331805,"current_range_meters":9600,"station_id":"ce4bgt92rcd13ifvqcf0","pricing_plan_id":"free"},{"bike_id":"c9ad9057-a3ab-4e27-9111-f26c0b929673","system_id":"levelo_inurba_marseille","lat":43.299724,"lon":5.371829,"is_reserved":false,"is_disabled":false,"rental_uris":{"android":"levelo://app?vid=c9ad9057-a3ab-4e27-9111-f26c0b929673","ios":"levelo://app?vid=c9ad9057-a3ab-4e27-9111-f26c0b929673"},"vehicle_type_id":"4","last_reported":1701331805,"current_range_meters":14800,"station_id":"ce4bgr92rcd13ifvqc7g","pricing_plan_id":"free"},{"bike_id":"0cd465d0-2b47-44d1-8857-5d8caeccd2ee","system_id":"levelo_inurba_marseille","lat":43.311722,"lon":5.387247,"is_reserved":false,"is_disabled":false,"rental_uris":{"android":"levelo://app?vid=0cd465d0-2b47-44d1-8857-5d8caeccd2ee","ios":"levelo://app?vid=0cd465d0-2b47-44d1-8857-5d8caeccd2ee"},"vehicle_type_id":"4","last_reported":1701331805,"current_range_meters":30400,"station_id":"ce4bgv12rcd13ifvqcp0","pricing_plan_id":"free"},{"bike_id":"3322b07b-7507-4fce-9296-278b179e3959","system_id":"levelo_inurba_marseille","lat":43.298433,"lon":5.362774,"is_reserved":false,"is_disabled":false,"rental_uris":{"android":"levelo://app?vid=3322b07b-7507-4fce-9296-278b179e3959","ios":"levelo://app?vid=3322b07b-7507-4fce-9296-278b179e3959"},"vehicle_type_id":"4","last_reported":1701331805,"current_range_meters":27600,"station_id":"ce4bgpp2rcd13ifvqc3g","pricing_plan_id":"free"},{"bike_id":"30f6a048-c63e-4f6c-a255-bf871e89d364","system_id":"levelo_inurba_marseille","lat":43.311722,"lon":5.387247,"is_reserved":false,"is_disabled":false,"rental_uris":{"android":"levelo://app?vid=30f6a048-c63e-4f6c-a255-bf871e89d364","ios":"levelo://app?vid=30f6a048-c63e-4f6c-a255-bf871e89d364"},"vehicle_type_id":"4","last_reported":1701331805,"current_range_meters":23600,"station_id":"ce4bgv12rcd13ifvqcp0","pricing_plan_id":"free"},{"bike_id":"ca86311b-a03a-4c80-9d78-b2f4af2563ce","system_id":"levelo_inurba_marseille","lat":43.311722,"lon":5.387247,"is_reserved":false,"is_disabled":false,"rental_uris":{"android":"levelo://app?vid=ca86311b-a03a-4c80-9d78-b2f4af2563ce","ios":"levelo://app?vid=ca86311b-a03a-4c80-9d78-b2f4af2563ce"},"vehicle_type_id":"4","last_reported":1701331805,"current_range_meters":27600,"station_id":"ce4bgv12rcd13ifvqcp0","pricing_plan_id":"free"},{"bike_id":"7a0142f0-7426-4db5-a3e3-918300016cac","system_id":"levelo_inurba_marseille","lat":43.311722,"lon":5.387247,"is_reserved":false,"is_disabled":false,"rental_uris":{"android":"levelo://app?vid=7a0142f0-7426-4db5-a3e3-918300016cac","ios":"levelo://app?vid=7a0142f0-7426-4db5-a3e3-918300016cac"},"vehicle_type_id":"4","last_reported":1701331805,"current_range_meters":19600,"station_id":"ce4bgv12rcd13ifvqcp0","pricing_plan_id":"free"},{"bike_id":"aebb5f1f-3a1e-4323-a4f0-ae83e0b78d14","system_id":"levelo_inurba_marseille","lat":43.327603,"lon":5.36705,"is_reserved":false,"is_disabled":false,"rental_uris":{"android":"levelo://app?vid=aebb5f1f-3a1e-4323-a4f0-ae83e0b78d14","ios":"levelo://app?vid=aebb5f1f-3a1e-4323-a4f0-ae83e0b78d14"},"vehicle_type_id":"4","last_reported":1701331805,"current_range_meters":25200,"station_id":"","pricing_plan_id":"free"},{"bike_id":"b1f1c99b-ffc0-4368-813e-ae4d547f1040","system_id":"levelo_inurba_marseille","lat":43.32805,"lon":5.36693,"is_reserved":false,"is_disabled":false,"rental_uris":{"android":"levelo://app?vid=b1f1c99b-ffc0-4368-813e-ae4d547f1040","ios":"levelo://app?vid=b1f1c99b-ffc0-4368-813e-ae4d547f1040"},"vehicle_type_id":"4","last_reported":1701331805,"current_range_meters":24400,"station_id":"ce4bhs92rcd13ifvqi0g","pricing_plan_id":"free"},{"bike_id":"bbc9b495-9527-4d97-bc95-dcc27d583042","system_id":"levelo_inurba_marseille","lat":43.296935,"lon":5.376544,"is_reserved":false,"is_disabled":false,"rental_uris":{"android":"levelo://app?vid=bbc9b495-9527-4d97-bc95-dcc27d583042","ios":"levelo://app?vid=bbc9b495-9527-4d97-bc95-dcc27d583042"},"vehicle_type_id":"4","last_reported":1701331805,"current_range_meters":20800,"station_id":"ce4bgkh2rcd13ifvqbl0","pricing_plan_id":"free"},{"bike_id":"8215e1f0-141d-4f0a-bd66-9cc8b5561807","system_id":"levelo_inurba_marseille","lat":43.309589,"lon":5.390258,"is_reserved":false,"is_disabled":false,"rental_uris":{"android":"levelo://app?vid=8215e1f0-141d-4f0a-bd66-9cc8b5561807","ios":"levelo://app?vid=8215e1f0-141d-4f0a-bd66-9cc8b5561807"},"vehicle_type_id":"4","last_reported":1701331805,"current_range_meters":15200,"station_id":"ce4bgup2rcd13ifvqco0","pricing_plan_id":"free"},{"bike_id":"364e3ac6-3d01-4eb4-94d0-c415322b816f","system_id":"levelo_inurba_marseille","lat":43.309589,"lon":5.390258,"is_reserved":false,"is_disabled":false,"rental_uris":{"android":"levelo://app?vid=364e3ac6-3d01-4eb4-94d0-c415322b816f","ios":"levelo://app?vid=364e3ac6-3d01-4eb4-94d0-c415322b816f"},"vehicle_type_id":"4","last_reported":1701331805,"current_range_meters":24400,"station_id":"ce4bgup2rcd13ifvqco0","pricing_plan_id":"free"},{"bike_id":"5d2cbb98-52f8-4c71-989e-e6b9d5fcffd0","system_id":"levelo_inurba_marseille","lat":43.298037,"lon":5.381066,"is_reserved":false,"is_disabled":false,"rental_uris":{"android":"levelo://app?vid=5d2cbb98-52f8-4c71-989e-e6b9d5fcffd0","ios":"levelo://app?vid=5d2cbb98-52f8-4c71-989e-e6b9d5fcffd0"},"vehicle_type_id":"4","last_reported":1701331805,"current_range_meters":5200,"station_id":"ce4bgip2rcd13ifvqbb0","pricing_plan_id":"free"},{"bike_id":"d8f233c3-d491-4f08-b36e-633e5c3ce8d2","system_id":"levelo_inurba_marseille","lat":43.29532,"lon":5.37507,"is_reserved":false,"is_disabled":false,"rental_uris":{"android":"levelo://app?vid=d8f233c3-d491-4f08-b36e-633e5c3ce8d2","ios":"levelo://app?vid=d8f233c3-d491-4f08-b36e-633e5c3ce8d2"},"vehicle_type_id":"4","last_reported":1701331805,"current_range_meters":25600,"station_id":"ce4bgkp2rcd13ifvqbmg","pricing_plan_id":"free"},{"bike_id":"a2f12fcc-77db-4a5e-9d0a-3e37ef1844fc","system_id":"levelo_inurba_marseille","lat":43.32367,"lon":5.388836,"is_reserved":false,"is_disabled":false,"rental_uris":{"android":"levelo://app?vid=a2f12fcc-77db-4a5e-9d0a-3e37ef1844fc","ios":"levelo://app?vid=a2f12fcc-77db-4a5e-9d0a-3e37ef1844fc"},"vehicle_type_id":"4","last_reported":1701331805,"current_range_meters":25600,"station_id":"ce4bhqp2rcd13ifvqhog","pricing_plan_id":"free"},{"bike_id":"0a8d8317-4c2f-46c5-af8d-11379d07876b","system_id":"levelo_inurba_marseille","lat":43.293259,"lon":5.371586,"is_reserved":false,"is_disabled":false,"rental_uris":{"android":"levelo://app?vid=0a8d8317-4c2f-46c5-af8d-11379d07876b","ios":"levelo://app?vid=0a8d8317-4c2f-46c5-af8d-11379d07876b"},"vehicle_type_id":"4","last_reported":1701331805,"current_range_meters":30000,"station_id":"ce4bgh92rcd13ifvqb40","pricing_plan_id":"free"},{"bike_id":"e2377ea3-b9e4-4d9f-9caf-e73c6ae1ec8d","system_id":"levelo_inurba_marseille","lat":43.293,"lon":5.37186,"is_reserved":false,"is_disabled":false,"rental_uris":{"android":"levelo://app?vid=e2377ea3-b9e4-4d9f-9caf-e73c6ae1ec8d","ios":"levelo://app?vid=e2377ea3-b9e4-4d9f-9caf-e73c6ae1ec8d"},"vehicle_type_id":"4","last_reported":1701331805,"current_range_meters":12000,"station_id":"ce4bgh92rcd13ifvqb40","pricing_plan_id":"free"},{"bike_id":"58a9144b-704c-4745-a26a-f351442d5b3d","system_id":"levelo_inurba_marseille","lat":43.292311,"lon":5.360731,"is_reserved":false,"is_disabled":false,"rental_uris":{"android":"levelo://app?vid=58a9144b-704c-4745-a26a-f351442d5b3d","ios":"levelo://app?vid=58a9144b-704c-4745-a26a-f351442d5b3d"},"vehicle_type_id":"4","last_reported":1701331805,"current_range_meters":0,"station_id":"ce4bhbh2rcd13ifvqeqg","pricing_plan_id":"free"},{"bike_id":"a9ea1773-0c28-4200-b79e-c2f779d5ff4a","system_id":"levelo_inurba_marseille","lat":43.292663,"lon":5.376394,"is_reserved":false,"is_disabled":false,"rental_uris":{"android":"levelo://app?vid=a9ea1773-0c28-4200-b79e-c2f779d5ff4a","ios":"levelo://app?vid=a9ea1773-0c28-4200-b79e-c2f779d5ff4a"},"vehicle_type_id":"4","last_reported":1701331805,"current_range_meters":20400,"station_id":"ce4bgi12rcd13ifvqb80","pricing_plan_id":"free"},{"bike_id":"6c53d4cd-41aa-49a0-8a6c-1c6add2604a4","system_id":"levelo_inurba_marseille","lat":43.30085,"lon":5.390856,"is_reserved":false,"is_disabled":false,"rental_uris":{"android":"levelo://app?vid=6c53d4cd-41aa-49a0-8a6c-1c6add2604a4","ios":"levelo://app?vid=6c53d4cd-41aa-49a0-8a6c-1c6add2604a4"},"vehicle_type_id":"4","last_reported":1701331805,"current_range_meters":25600,"station_id":"ce4bh192rcd13ifvqdb0","pricing_plan_id":"free"},{"bike_id":"0aba2530-5ee0-4918-a982-ade09f9d86d9","system_id":"levelo_inurba_marseille","lat":43.309047,"lon":5.396551,"is_reserved":false,"is_disabled":false,"rental_uris":{"android":"levelo://app?vid=0aba2530-5ee0-4918-a982-ade09f9d86d9","ios":"levelo://app?vid=0aba2530-5ee0-4918-a982-ade09f9d86d9"},"vehicle_type_id":"4","last_reported":1701331805,"current_range_meters":23200,"station_id":"ce4bh012rcd13ifvqcv0","pricing_plan_id":"free"},{"bike_id":"a66497e6-c1a9-479d-ad8d-17b6e7874c4d","system_id":"levelo_inurba_marseille","lat":43.290624,"lon":5.359245,"is_reserved":false,"is_disabled":false,"rental_uris":{"android":"levelo://app?vid=a66497e6-c1a9-479d-ad8d-17b6e7874c4d","ios":"levelo://app?vid=a66497e6-c1a9-479d-ad8d-17b6e7874c4d"},"vehicle_type_id":"4","last_reported":1701331805,"current_range_meters":16400,"station_id":"ce4bha92rcd13ifvqeg0","pricing_plan_id":"free"},{"bike_id":"5921cddc-85d9-4232-b54c-501bcf8edb91","system_id":"levelo_inurba_marseille","lat":43.2901,"lon":5.381269,"is_reserved":false,"is_disabled":false,"rental_uris":{"android":"levelo://app?vid=5921cddc-85d9-4232-b54c-501bcf8edb91","ios":"levelo://app?vid=5921cddc-85d9-4232-b54c-501bcf8edb91"},"vehicle_type_id":"4","last_reported":1701331805,"current_range_meters":28000,"station_id":"ce4bh4p2rcd13ifvqe1g","pricing_plan_id":"free"},{"bike_id":"003a737e-af85-4137-8dca-fb536cea4d64","system_id":"levelo_inurba_marseille","lat":43.28856,"lon":5.358371,"is_reserved":false,"is_disabled":false,"rental_uris":{"android":"levelo://app?vid=003a737e-af85-4137-8dca-fb536cea4d64","ios":"levelo://app?vid=003a737e-af85-4137-8dca-fb536cea4d64"},"vehicle_type_id":"4","last_reported":1701331805,"current_range_meters":15200,"station_id":"ce4bhb12rcd13ifvqem0","pricing_plan_id":"free"},{"bike_id":"ced5214c-2820-499c-ac66-da94e1a53642","system_id":"levelo_inurba_marseille","lat":43.286961,"lon":5.373785,"is_reserved":false,"is_disabled":false,"rental_uris":{"android":"levelo://app?vid=ced5214c-2820-499c-ac66-da94e1a53642","ios":"levelo://app?vid=ced5214c-2820-499c-ac66-da94e1a53642"},"vehicle_type_id":"4","last_reported":1701331805,"current_range_meters":24800,"station_id":"ce4bh3p2rcd13ifvqdq0","pricing_plan_id":"free"},{"bike_id":"c7b785df-a2ba-4a8f-829a-3f49f29f44d4","system_id":"levelo_inurba_marseille","lat":43.302759,"lon":5.400793,"is_reserved":false,"is_disabled":false,"rental_uris":{"android":"levelo://app?vid=c7b785df-a2ba-4a8f-829a-3f49f29f44d4","ios":"levelo://app?vid=c7b785df-a2ba-4a8f-829a-3f49f29f44d4"},"vehicle_type_id":"4","last_reported":1701331805,"current_range_meters":21600,"station_id":"ce4bgvh2rcd13ifvqcs0","pricing_plan_id":"free"},{"bike_id":"b5ec5d51-ef9b-4ecb-893e-3282cf34821b","system_id":"levelo_inurba_marseille","lat":43.294314,"lon":5.397498,"is_reserved":false,"is_disabled":false,"rental_uris":{"android":"levelo://app?vid=b5ec5d51-ef9b-4ecb-893e-3282cf34821b","ios":"levelo://app?vid=b5ec5d51-ef9b-4ecb-893e-3282cf34821b"},"vehicle_type_id":"4","last_reported":1701331805,"current_range_meters":15600,"station_id":"ce4bh3h2rcd13ifvqdo0","pricing_plan_id":"free"},{"bike_id":"1bd5c485-252f-47f4-9f60-639997c1762d","system_id":"levelo_inurba_marseille","lat":43.28611,"lon":5.35105,"is_reserved":false,"is_disabled":false,"rental_uris":{"android":"levelo://app?vid=1bd5c485-252f-47f4-9f60-639997c1762d","ios":"levelo://app?vid=1bd5c485-252f-47f4-9f60-639997c1762d"},"vehicle_type_id":"4","last_reported":1701331805,"current_range_meters":18000,"station_id":"ce4bhch2rcd13ifvqeug","pricing_plan_id":"free"},{"bike_id":"f22e4805-554d-44c2-b416-5f0a0c438d31","system_id":"levelo_inurba_marseille","lat":43.286595,"lon":5.386795,"is_reserved":false,"is_disabled":false,"rental_uris":{"android":"levelo://app?vid=f22e4805-554d-44c2-b416-5f0a0c438d31","ios":"levelo://app?vid=f22e4805-554d-44c2-b416-5f0a0c438d31"},"vehicle_type_id":"4","last_reported":1701331805,"current_range_meters":28400,"station_id":"ce4bh492rcd13ifvqdug","pricing_plan_id":"free"},{"bike_id":"2392c922-7f5f-4d5c-a8eb-574c0563c248","system_id":"levelo_inurba_marseille","lat":43.319179,"lon":5.407725,"is_reserved":false,"is_disabled":false,"rental_uris":{"android":"levelo://app?vid=2392c922-7f5f-4d5c-a8eb-574c0563c248","ios":"levelo://app?vid=2392c922-7f5f-4d5c-a8eb-574c0563c248"},"vehicle_type_id":"4","last_reported":1701331805,"current_range_meters":20000,"station_id":"ce4bhq12rcd13ifvqhig","pricing_plan_id":"free"},{"bike_id":"139d20b0-887e-4861-8fc7-21371d349bd4","system_id":"levelo_inurba_marseille","lat":43.319179,"lon":5.407725,"is_reserved":false,"is_disabled":false,"rental_uris":{"android":"levelo://app?vid=139d20b0-887e-4861-8fc7-21371d349bd4","ios":"levelo://app?vid=139d20b0-887e-4861-8fc7-21371d349bd4"},"vehicle_type_id":"4","last_reported":1701331805,"current_range_meters":10400,"station_id":"ce4bhq12rcd13ifvqhig","pricing_plan_id":"free"},{"bike_id":"67dc7119-d21d-4c47-a860-2922e51d5839","system_id":"levelo_inurba_marseille","lat":43.33717,"lon":5.391857,"is_reserved":false,"is_disabled":false,"rental_uris":{"android":"levelo://app?vid=67dc7119-d21d-4c47-a860-2922e51d5839","ios":"levelo://app?vid=67dc7119-d21d-4c47-a860-2922e51d5839"},"vehicle_type_id":"4","last_reported":1701331805,"current_range_meters":28000,"station_id":"ce4bhr92rcd13ifvqhsg","pricing_plan_id":"free"},{"bike_id":"048263f4-ed52-4fba-9cf4-e9dbfe060528","system_id":"levelo_inurba_marseille","lat":43.289363,"lon":5.396322,"is_reserved":false,"is_disabled":false,"rental_uris":{"android":"levelo://app?vid=048263f4-ed52-4fba-9cf4-e9dbfe060528","ios":"levelo://app?vid=048263f4-ed52-4fba-9cf4-e9dbfe060528"},"vehicle_type_id":"4","last_reported":1701331805,"current_range_meters":5600,"station_id":"ce4bh3h2rcd13ifvqdn0","pricing_plan_id":"free"},{"bike_id":"490a2a6e-3b15-41f4-8169-03f1c6ddb95d","system_id":"levelo_inurba_marseille","lat":43.289363,"lon":5.396322,"is_reserved":false,"is_disabled":false,"rental_uris":{"android":"levelo://app?vid=490a2a6e-3b15-41f4-8169-03f1c6ddb95d","ios":"levelo://app?vid=490a2a6e-3b15-41f4-8169-03f1c6ddb95d"},"vehicle_type_id":"4","last_reported":1701331805,"current_range_meters":15200,"station_id":"ce4bh3h2rcd13ifvqdn0","pricing_plan_id":"free"},{"bike_id":"bfc21f0b-4546-40b6-b0c9-2eafeee92351","system_id":"levelo_inurba_marseille","lat":43.292724,"lon":5.401131,"is_reserved":false,"is_disabled":false,"rental_uris":{"android":"levelo://app?vid=bfc21f0b-4546-40b6-b0c9-2eafeee92351","ios":"levelo://app?vid=bfc21f0b-4546-40b6-b0c9-2eafeee92351"},"vehicle_type_id":"4","last_reported":1701331805,"current_range_meters":15200,"station_id":"ce4bh312rcd13ifvqdk0","pricing_plan_id":"free"},{"bike_id":"a4cd6f56-358d-4e53-a89e-e19d3de4620f","system_id":"levelo_inurba_marseille","lat":43.28039,"lon":5.369297,"is_reserved":false,"is_disabled":false,"rental_uris":{"android":"levelo://app?vid=a4cd6f56-358d-4e53-a89e-e19d3de4620f","ios":"levelo://app?vid=a4cd6f56-358d-4e53-a89e-e19d3de4620f"},"vehicle_type_id":"4","last_reported":1701331805,"current_range_meters":25200,"station_id":"ce4bha12rcd13ifvqef0","pricing_plan_id":"free"},{"bike_id":"b39cf2b2-ecca-4141-a4e9-def827cec38f","system_id":"levelo_inurba_marseille","lat":43.28037,"lon":5.36943,"is_reserved":false,"is_disabled":false,"rental_uris":{"android":"levelo://app?vid=b39cf2b2-ecca-4141-a4e9-def827cec38f","ios":"levelo://app?vid=b39cf2b2-ecca-4141-a4e9-def827cec38f"},"vehicle_type_id":"4","last_reported":1701331805,"current_range_meters":3600,"station_id":"ce4bha12rcd13ifvqef0","pricing_plan_id":"free"},{"bike_id":"d0f89922-06ab-49db-b375-a17aad42f039","system_id":"levelo_inurba_marseille","lat":43.28039,"lon":5.369297,"is_reserved":false,"is_disabled":false,"rental_uris":{"android":"levelo://app?vid=d0f89922-06ab-49db-b375-a17aad42f039","ios":"levelo://app?vid=d0f89922-06ab-49db-b375-a17aad42f039"},"vehicle_type_id":"4","last_reported":1701331805,"current_range_meters":26800,"station_id":"ce4bha12rcd13ifvqef0","pricing_plan_id":"free"},{"bike_id":"0f875fa3-ddfb-427e-aec4-7099f7e27394","system_id":"levelo_inurba_marseille","lat":43.28039,"lon":5.369297,"is_reserved":false,"is_disabled":false,"rental_uris":{"android":"levelo://app?vid=0f875fa3-ddfb-427e-aec4-7099f7e27394","ios":"levelo://app?vid=0f875fa3-ddfb-427e-aec4-7099f7e27394"},"vehicle_type_id":"4","last_reported":1701331805,"current_range_meters":24800,"station_id":"ce4bha12rcd13ifvqef0","pricing_plan_id":"free"},{"bike_id":"881109bd-82cc-41ef-a143-5c1ffc66902b","system_id":"levelo_inurba_marseille","lat":43.290412,"lon":5.399633,"is_reserved":false,"is_disabled":false,"rental_uris":{"android":"levelo://app?vid=881109bd-82cc-41ef-a143-5c1ffc66902b","ios":"levelo://app?vid=881109bd-82cc-41ef-a143-5c1ffc66902b"},"vehicle_type_id":"4","last_reported":1701331805,"current_range_meters":6800,"station_id":"ce4bh392rcd13ifvqdm0","pricing_plan_id":"free"},{"bike_id":"a11c0066-2334-4348-af53-de49e7108fa3","system_id":"levelo_inurba_marseille","lat":43.29041,"lon":5.399634,"is_reserved":false,"is_disabled":false,"rental_uris":{"android":"levelo://app?vid=a11c0066-2334-4348-af53-de49e7108fa3","ios":"levelo://app?vid=a11c0066-2334-4348-af53-de49e7108fa3"},"vehicle_type_id":"4","last_reported":1701331805,"current_range_meters":17600,"station_id":"ce4bh392rcd13ifvqdm0","pricing_plan_id":"free"},{"bike_id":"0e8981d8-3950-4caf-8ccd-ccb8def7a077","system_id":"levelo_inurba_marseille","lat":43.281044,"lon":5.378308,"is_reserved":false,"is_disabled":false,"rental_uris":{"android":"levelo://app?vid=0e8981d8-3950-4caf-8ccd-ccb8def7a077","ios":"levelo://app?vid=0e8981d8-3950-4caf-8ccd-ccb8def7a077"},"vehicle_type_id":"4","last_reported":1701331805,"current_range_meters":24800,"station_id":"ce4bha12rcd13ifvqee0","pricing_plan_id":"free"},{"bike_id":"9fd7e834-9f36-4833-94ec-addd05674103","system_id":"levelo_inurba_marseille","lat":43.284317,"lon":5.391844,"is_reserved":false,"is_disabled":false,"rental_uris":{"android":"levelo://app?vid=9fd7e834-9f36-4833-94ec-addd05674103","ios":"levelo://app?vid=9fd7e834-9f36-4833-94ec-addd05674103"},"vehicle_type_id":"4","last_reported":1701331805,"current_range_meters":4400,"station_id":"ce4bhoh2rcd13ifvqh5g","pricing_plan_id":"free"},{"bike_id":"d4388fce-d97e-4b95-aef3-e279b2bc2928","system_id":"levelo_inurba_marseille","lat":43.287154,"lon":5.399979,"is_reserved":false,"is_disabled":false,"rental_uris":{"android":"levelo://app?vid=d4388fce-d97e-4b95-aef3-e279b2bc2928","ios":"levelo://app?vid=d4388fce-d97e-4b95-aef3-e279b2bc2928"},"vehicle_type_id":"4","last_reported":1701331805,"current_range_meters":27600,"station_id":"ce4bho92rcd13ifvqh3g","pricing_plan_id":"free"},{"bike_id":"c85218ec-fcc5-404b-b999-d3336f9cc8c9","system_id":"levelo_inurba_marseille","lat":43.287154,"lon":5.399979,"is_reserved":false,"is_disabled":false,"rental_uris":{"android":"levelo://app?vid=c85218ec-fcc5-404b-b999-d3336f9cc8c9","ios":"levelo://app?vid=c85218ec-fcc5-404b-b999-d3336f9cc8c9"},"vehicle_type_id":"4","last_reported":1701331805,"current_range_meters":12000,"station_id":"ce4bho92rcd13ifvqh3g","pricing_plan_id":"free"},{"bike_id":"dec95bca-6e2c-4768-a173-128059aecf98","system_id":"levelo_inurba_marseille","lat":43.299577,"lon":5.413277,"is_reserved":false,"is_disabled":false,"rental_uris":{"android":"levelo://app?vid=dec95bca-6e2c-4768-a173-128059aecf98","ios":"levelo://app?vid=dec95bca-6e2c-4768-a173-128059aecf98"},"vehicle_type_id":"4","last_reported":1701331805,"current_range_meters":30000,"station_id":"ce4bhp12rcd13ifvqh9g","pricing_plan_id":"free"},{"bike_id":"a7f753c3-eb5f-4d41-88e0-fad338f51a30","system_id":"levelo_inurba_marseille","lat":43.279742,"lon":5.38744,"is_reserved":false,"is_disabled":false,"rental_uris":{"android":"levelo://app?vid=a7f753c3-eb5f-4d41-88e0-fad338f51a30","ios":"levelo://app?vid=a7f753c3-eb5f-4d41-88e0-fad338f51a30"},"vehicle_type_id":"4","last_reported":1701331805,"current_range_meters":23200,"station_id":"ce4bhg12rcd13ifvqf80","pricing_plan_id":"free"},{"bike_id":"dc31c84d-2de7-4772-a1fd-e57a77bc20cd","system_id":"levelo_inurba_marseille","lat":43.273125,"lon":5.390731,"is_reserved":false,"is_disabled":false,"rental_uris":{"android":"levelo://app?vid=dc31c84d-2de7-4772-a1fd-e57a77bc20cd","ios":"levelo://app?vid=dc31c84d-2de7-4772-a1fd-e57a77bc20cd"},"vehicle_type_id":"4","last_reported":1701331805,"current_range_meters":14800,"station_id":"ce4bhgp2rcd13ifvqfe0","pricing_plan_id":"free"},{"bike_id":"f23c819e-4e63-48d3-bd73-e9c7554c54bc","system_id":"levelo_inurba_marseille","lat":43.292571,"lon":5.409107,"is_reserved":false,"is_disabled":false,"rental_uris":{"android":"levelo://app?vid=f23c819e-4e63-48d3-bd73-e9c7554c54bc","ios":"levelo://app?vid=f23c819e-4e63-48d3-bd73-e9c7554c54bc"},"vehicle_type_id":"4","last_reported":1701331805,"current_range_meters":18400,"station_id":"ce4bh192rcd13ifvqdc0","pricing_plan_id":"free"},{"bike_id":"057c8a3b-1a43-4293-ada9-3faf6b8b913e","system_id":"levelo_inurba_marseille","lat":43.292618,"lon":5.409096,"is_reserved":false,"is_disabled":false,"rental_uris":{"android":"levelo://app?vid=057c8a3b-1a43-4293-ada9-3faf6b8b913e","ios":"levelo://app?vid=057c8a3b-1a43-4293-ada9-3faf6b8b913e"},"vehicle_type_id":"4","last_reported":1701331805,"current_range_meters":14800,"station_id":"","pricing_plan_id":"free"},{"bike_id":"2003c703-7c7e-4554-9ac1-f1ae32cee25d","system_id":"levelo_inurba_marseille","lat":43.325233,"lon":5.414318,"is_reserved":false,"is_disabled":false,"rental_uris":{"android":"levelo://app?vid=2003c703-7c7e-4554-9ac1-f1ae32cee25d","ios":"levelo://app?vid=2003c703-7c7e-4554-9ac1-f1ae32cee25d"},"vehicle_type_id":"4","last_reported":1701331805,"current_range_meters":12000,"station_id":"ce4bhq12rcd13ifvqhhg","pricing_plan_id":"free"},{"bike_id":"9229b367-7d4c-4e40-90da-2e8c83a58aab","system_id":"levelo_inurba_marseille","lat":43.325233,"lon":5.414318,"is_reserved":false,"is_disabled":false,"rental_uris":{"android":"levelo://app?vid=9229b367-7d4c-4e40-90da-2e8c83a58aab","ios":"levelo://app?vid=9229b367-7d4c-4e40-90da-2e8c83a58aab"},"vehicle_type_id":"4","last_reported":1701331805,"current_range_meters":27600,"station_id":"ce4bhq12rcd13ifvqhhg","pricing_plan_id":"free"},{"bike_id":"467805e3-bedf-4a3f-a5ea-c8edce9c2b11","system_id":"levelo_inurba_marseille","lat":43.303837,"lon":5.418724,"is_reserved":false,"is_disabled":false,"rental_uris":{"android":"levelo://app?vid=467805e3-bedf-4a3f-a5ea-c8edce9c2b11","ios":"levelo://app?vid=467805e3-bedf-4a3f-a5ea-c8edce9c2b11"},"vehicle_type_id":"4","last_reported":1701331805,"current_range_meters":30000,"station_id":"ce4bhop2rcd13ifvqh7g","pricing_plan_id":"free"},{"bike_id":"ae944ce2-e7fe-407f-a11d-0561779717d0","system_id":"levelo_inurba_marseille","lat":43.273613,"lon":5.362705,"is_reserved":false,"is_disabled":false,"rental_uris":{"android":"levelo://app?vid=ae944ce2-e7fe-407f-a11d-0561779717d0","ios":"levelo://app?vid=ae944ce2-e7fe-407f-a11d-0561779717d0"},"vehicle_type_id":"4","last_reported":1701331805,"current_range_meters":0,"station_id":"ce4bhbh2rcd13ifvqeo0","pricing_plan_id":"free"},{"bike_id":"9a0a29ad-7574-42cb-a4fc-de7c094c3a31","system_id":"levelo_inurba_marseille","lat":43.273613,"lon":5.362705,"is_reserved":false,"is_disabled":false,"rental_uris":{"android":"levelo://app?vid=9a0a29ad-7574-42cb-a4fc-de7c094c3a31","ios":"levelo://app?vid=9a0a29ad-7574-42cb-a4fc-de7c094c3a31"},"vehicle_type_id":"4","last_reported":1701331805,"current_range_meters":31200,"station_id":"ce4bhbh2rcd13ifvqeo0","pricing_plan_id":"free"},{"bike_id":"b31b3a6b-bb9f-4671-ba5b-d6d4fae1a59e","system_id":"levelo_inurba_marseille","lat":43.273613,"lon":5.362705,"is_reserved":false,"is_disabled":false,"rental_uris":{"android":"levelo://app?vid=b31b3a6b-bb9f-4671-ba5b-d6d4fae1a59e","ios":"levelo://app?vid=b31b3a6b-bb9f-4671-ba5b-d6d4fae1a59e"},"vehicle_type_id":"4","last_reported":1701331805,"current_range_meters":18000,"station_id":"ce4bhbh2rcd13ifvqeo0","pricing_plan_id":"free"},{"bike_id":"b2dce51d-ce4e-40fb-9ef2-73d9b2b72d52","system_id":"levelo_inurba_marseille","lat":43.273609,"lon":5.362708,"is_reserved":false,"is_disabled":false,"rental_uris":{"android":"levelo://app?vid=b2dce51d-ce4e-40fb-9ef2-73d9b2b72d52","ios":"levelo://app?vid=b2dce51d-ce4e-40fb-9ef2-73d9b2b72d52"},"vehicle_type_id":"4","last_reported":1701331805,"current_range_meters":30400,"station_id":"ce4bhbh2rcd13ifvqeo0","pricing_plan_id":"free"},{"bike_id":"c5ac302c-4004-4995-a579-8988b4d6328c","system_id":"levelo_inurba_marseille","lat":43.33612,"lon":5.410321,"is_reserved":false,"is_disabled":false,"rental_uris":{"android":"levelo://app?vid=c5ac302c-4004-4995-a579-8988b4d6328c","ios":"levelo://app?vid=c5ac302c-4004-4995-a579-8988b4d6328c"},"vehicle_type_id":"4","last_reported":1701331805,"current_range_meters":28400,"station_id":"ce4bhqh2rcd13ifvqhmg","pricing_plan_id":"free"},{"bike_id":"399858a5-ec8e-4ab7-a79b-5c57e81d2f7d","system_id":"levelo_inurba_marseille","lat":43.275625,"lon":5.384392,"is_reserved":false,"is_disabled":false,"rental_uris":{"android":"levelo://app?vid=399858a5-ec8e-4ab7-a79b-5c57e81d2f7d","ios":"levelo://app?vid=399858a5-ec8e-4ab7-a79b-5c57e81d2f7d"},"vehicle_type_id":"4","last_reported":1701331805,"current_range_meters":16400,"station_id":"ce4bhh92rcd13ifvqfi0","pricing_plan_id":"free"},{"bike_id":"c1e44421-14e7-489a-ab6d-baed33d7b377","system_id":"levelo_inurba_marseille","lat":43.336148,"lon":5.410349,"is_reserved":false,"is_disabled":false,"rental_uris":{"android":"levelo://app?vid=c1e44421-14e7-489a-ab6d-baed33d7b377","ios":"levelo://app?vid=c1e44421-14e7-489a-ab6d-baed33d7b377"},"vehicle_type_id":"4","last_reported":1701331805,"current_range_meters":25200,"station_id":"ce4bhqh2rcd13ifvqhmg","pricing_plan_id":"free"},{"bike_id":"94191e28-7216-407d-8d99-d2da96c3f293","system_id":"levelo_inurba_marseille","lat":43.275625,"lon":5.384392,"is_reserved":false,"is_disabled":false,"rental_uris":{"android":"levelo://app?vid=94191e28-7216-407d-8d99-d2da96c3f293","ios":"levelo://app?vid=94191e28-7216-407d-8d99-d2da96c3f293"},"vehicle_type_id":"4","last_reported":1701331805,"current_range_meters":12800,"station_id":"ce4bhh92rcd13ifvqfi0","pricing_plan_id":"free"},{"bike_id":"526f5826-5f6d-4156-86ed-4b0fb9d3b94f","system_id":"levelo_inurba_marseille","lat":43.336148,"lon":5.410349,"is_reserved":false,"is_disabled":false,"rental_uris":{"android":"levelo://app?vid=526f5826-5f6d-4156-86ed-4b0fb9d3b94f","ios":"levelo://app?vid=526f5826-5f6d-4156-86ed-4b0fb9d3b94f"},"vehicle_type_id":"4","last_reported":1701331805,"current_range_meters":12800,"station_id":"ce4bhqh2rcd13ifvqhmg","pricing_plan_id":"free"},{"bike_id":"33449a5f-4b78-4140-9f71-bb6c5c9ecf3a","system_id":"levelo_inurba_marseille","lat":43.310785,"lon":5.424305,"is_reserved":false,"is_disabled":false,"rental_uris":{"android":"levelo://app?vid=33449a5f-4b78-4140-9f71-bb6c5c9ecf3a","ios":"levelo://app?vid=33449a5f-4b78-4140-9f71-bb6c5c9ecf3a"},"vehicle_type_id":"4","last_reported":1701331805,"current_range_meters":30400,"station_id":"ce4bhp92rcd13ifvqhag","pricing_plan_id":"free"},{"bike_id":"f90b9288-c97c-459e-9c77-8f5800ca3e46","system_id":"levelo_inurba_marseille","lat":43.340804,"lon":5.410219,"is_reserved":false,"is_disabled":false,"rental_uris":{"android":"levelo://app?vid=f90b9288-c97c-459e-9c77-8f5800ca3e46","ios":"levelo://app?vid=f90b9288-c97c-459e-9c77-8f5800ca3e46"},"vehicle_type_id":"4","last_reported":1701331805,"current_range_meters":20800,"station_id":"ce4bhqh2rcd13ifvqhlg","pricing_plan_id":"free"},{"bike_id":"12419e3a-75f7-4b4f-9d95-1fef7ee580db","system_id":"levelo_inurba_marseille","lat":43.273129,"lon":5.390725,"is_reserved":false,"is_disabled":false,"rental_uris":{"android":"levelo://app?vid=12419e3a-75f7-4b4f-9d95-1fef7ee580db","ios":"levelo://app?vid=12419e3a-75f7-4b4f-9d95-1fef7ee580db"},"vehicle_type_id":"4","last_reported":1701331805,"current_range_meters":29600,"station_id":"ce4bhgp2rcd13ifvqfe0","pricing_plan_id":"free"},{"bike_id":"7335a393-cc37-4e1d-b729-82d3cd0e69fb","system_id":"levelo_inurba_marseille","lat":43.29524,"lon":5.42268,"is_reserved":false,"is_disabled":false,"rental_uris":{"android":"levelo://app?vid=7335a393-cc37-4e1d-b729-82d3cd0e69fb","ios":"levelo://app?vid=7335a393-cc37-4e1d-b729-82d3cd0e69fb"},"vehicle_type_id":"4","last_reported":1701331805,"current_range_meters":21200,"station_id":"ce4bhph2rcd13ifvqhdg","pricing_plan_id":"free"},{"bike_id":"a8f44a95-a505-445d-b673-37ad37af1aae","system_id":"levelo_inurba_marseille","lat":43.295511,"lon":5.422926,"is_reserved":false,"is_disabled":false,"rental_uris":{"android":"levelo://app?vid=a8f44a95-a505-445d-b673-37ad37af1aae","ios":"levelo://app?vid=a8f44a95-a505-445d-b673-37ad37af1aae"},"vehicle_type_id":"4","last_reported":1701331805,"current_range_meters":25600,"station_id":"ce4bhph2rcd13ifvqhdg","pricing_plan_id":"free"},{"bike_id":"d007cd16-2143-47ed-883c-3c2dd130446d","system_id":"levelo_inurba_marseille","lat":43.295511,"lon":5.422926,"is_reserved":false,"is_disabled":false,"rental_uris":{"android":"levelo://app?vid=d007cd16-2143-47ed-883c-3c2dd130446d","ios":"levelo://app?vid=d007cd16-2143-47ed-883c-3c2dd130446d"},"vehicle_type_id":"4","last_reported":1701331805,"current_range_meters":31200,"station_id":"ce4bhph2rcd13ifvqhdg","pricing_plan_id":"free"},{"bike_id":"2bcf0ed3-1a83-41dd-a6dd-50832fb92a56","system_id":"levelo_inurba_marseille","lat":43.272118,"lon":5.391758,"is_reserved":false,"is_disabled":false,"rental_uris":{"android":"levelo://app?vid=2bcf0ed3-1a83-41dd-a6dd-50832fb92a56","ios":"levelo://app?vid=2bcf0ed3-1a83-41dd-a6dd-50832fb92a56"},"vehicle_type_id":"4","last_reported":1701331805,"current_range_meters":3200,"station_id":"ce4bhhp2rcd13ifvqfm0","pricing_plan_id":"free"},{"bike_id":"3eb5fb1e-6c8a-4627-872c-61d47285a47e","system_id":"levelo_inurba_marseille","lat":43.278071,"lon":5.407164,"is_reserved":false,"is_disabled":false,"rental_uris":{"android":"levelo://app?vid=3eb5fb1e-6c8a-4627-872c-61d47285a47e","ios":"levelo://app?vid=3eb5fb1e-6c8a-4627-872c-61d47285a47e"},"vehicle_type_id":"4","last_reported":1701331805,"current_range_meters":24800,"station_id":"","pricing_plan_id":"free"},{"bike_id":"be530746-b790-4556-a671-acffe61383af","system_id":"levelo_inurba_marseille","lat":43.26679,"lon":5.38268,"is_reserved":false,"is_disabled":false,"rental_uris":{"android":"levelo://app?vid=be530746-b790-4556-a671-acffe61383af","ios":"levelo://app?vid=be530746-b790-4556-a671-acffe61383af"},"vehicle_type_id":"4","last_reported":1701331805,"current_range_meters":27200,"station_id":"ce4bhg92rcd13ifvqf90","pricing_plan_id":"free"},{"bike_id":"55980f34-058e-416c-afae-4cdad54cf694","system_id":"levelo_inurba_marseille","lat":43.26679,"lon":5.3827,"is_reserved":false,"is_disabled":false,"rental_uris":{"android":"levelo://app?vid=55980f34-058e-416c-afae-4cdad54cf694","ios":"levelo://app?vid=55980f34-058e-416c-afae-4cdad54cf694"},"vehicle_type_id":"4","last_reported":1701331805,"current_range_meters":17600,"station_id":"ce4bhg92rcd13ifvqf90","pricing_plan_id":"free"},{"bike_id":"b9fbb9b1-26be-41b9-8359-49cb2c91826a","system_id":"levelo_inurba_marseille","lat":43.26554,"lon":5.37283,"is_reserved":false,"is_disabled":false,"rental_uris":{"android":"levelo://app?vid=b9fbb9b1-26be-41b9-8359-49cb2c91826a","ios":"levelo://app?vid=b9fbb9b1-26be-41b9-8359-49cb2c91826a"},"vehicle_type_id":"4","last_reported":1701331805,"current_range_meters":0,"station_id":"ce4bhg12rcd13ifvqf70","pricing_plan_id":"free"},{"bike_id":"897c7477-704f-4ada-86df-3c153fdea6b8","system_id":"levelo_inurba_marseille","lat":43.265519,"lon":5.372846,"is_reserved":false,"is_disabled":false,"rental_uris":{"android":"levelo://app?vid=897c7477-704f-4ada-86df-3c153fdea6b8","ios":"levelo://app?vid=897c7477-704f-4ada-86df-3c153fdea6b8"},"vehicle_type_id":"4","last_reported":1701331805,"current_range_meters":0,"station_id":"ce4bhg12rcd13ifvqf70","pricing_plan_id":"free"},{"bike_id":"dc015f59-d41c-46e2-a9c3-06d2045e12d1","system_id":"levelo_inurba_marseille","lat":43.26784,"lon":5.39413,"is_reserved":false,"is_disabled":false,"rental_uris":{"android":"levelo://app?vid=dc015f59-d41c-46e2-a9c3-06d2045e12d1","ios":"levelo://app?vid=dc015f59-d41c-46e2-a9c3-06d2045e12d1"},"vehicle_type_id":"4","last_reported":1701331805,"current_range_meters":4800,"station_id":"ce4bhh12rcd13ifvqfg0","pricing_plan_id":"free"},{"bike_id":"0793cedf-83a6-4731-8d33-9e22091f4f86","system_id":"levelo_inurba_marseille","lat":43.308051,"lon":5.43527,"is_reserved":false,"is_disabled":false,"rental_uris":{"android":"levelo://app?vid=0793cedf-83a6-4731-8d33-9e22091f4f86","ios":"levelo://app?vid=0793cedf-83a6-4731-8d33-9e22091f4f86"},"vehicle_type_id":"4","last_reported":1701331805,"current_range_meters":25600,"station_id":"ce4bhph2rcd13ifvqheg","pricing_plan_id":"free"},{"bike_id":"34b0ee6a-4267-48ef-ada9-3d104fb487f2","system_id":"levelo_inurba_marseille","lat":43.261782,"lon":5.374515,"is_reserved":false,"is_disabled":false,"rental_uris":{"android":"levelo://app?vid=34b0ee6a-4267-48ef-ada9-3d104fb487f2","ios":"levelo://app?vid=34b0ee6a-4267-48ef-ada9-3d104fb487f2"},"vehicle_type_id":"4","last_reported":1701331805,"current_range_meters":20800,"station_id":"ce4bhgp2rcd13ifvqfc0","pricing_plan_id":"free"},{"bike_id":"3b0c0bb4-5989-4886-a288-42d1a3878a2b","system_id":"levelo_inurba_marseille","lat":43.27178,"lon":5.40985,"is_reserved":false,"is_disabled":false,"rental_uris":{"android":"levelo://app?vid=3b0c0bb4-5989-4886-a288-42d1a3878a2b","ios":"levelo://app?vid=3b0c0bb4-5989-4886-a288-42d1a3878a2b"},"vehicle_type_id":"4","last_reported":1701331805,"current_range_meters":0,"station_id":"ce4bhl12rcd13ifvqgf0","pricing_plan_id":"free"},{"bike_id":"ab182b59-4b56-4323-8b3e-5f8dac538d13","system_id":"levelo_inurba_marseille","lat":43.271388,"lon":5.409269,"is_reserved":false,"is_disabled":false,"rental_uris":{"android":"levelo://app?vid=ab182b59-4b56-4323-8b3e-5f8dac538d13","ios":"levelo://app?vid=ab182b59-4b56-4323-8b3e-5f8dac538d13"},"vehicle_type_id":"4","last_reported":1701331805,"current_range_meters":9600,"station_id":"ce4bhl12rcd13ifvqgf0","pricing_plan_id":"free"},{"bike_id":"0052083c-f9d8-4c6a-9836-87079c68c57d","system_id":"levelo_inurba_marseille","lat":43.27174,"lon":5.41,"is_reserved":false,"is_disabled":false,"rental_uris":{"android":"levelo://app?vid=0052083c-f9d8-4c6a-9836-87079c68c57d","ios":"levelo://app?vid=0052083c-f9d8-4c6a-9836-87079c68c57d"},"vehicle_type_id":"4","last_reported":1701331805,"current_range_meters":19200,"station_id":"ce4bhl12rcd13ifvqgf0","pricing_plan_id":"free"},{"bike_id":"477bdec7-7f52-43de-a695-ec759f691f87","system_id":"levelo_inurba_marseille","lat":43.260225,"lon":5.375455,"is_reserved":false,"is_disabled":false,"rental_uris":{"android":"levelo://app?vid=477bdec7-7f52-43de-a695-ec759f691f87","ios":"levelo://app?vid=477bdec7-7f52-43de-a695-ec759f691f87"},"vehicle_type_id":"4","last_reported":1701331805,"current_range_meters":27200,"station_id":"ce4bhgh2rcd13ifvqfa0","pricing_plan_id":"free"},{"bike_id":"3e84e335-f49b-4e96-838e-92191173e0d3","system_id":"levelo_inurba_marseille","lat":43.275028,"lon":5.424534,"is_reserved":false,"is_disabled":false,"rental_uris":{"android":"levelo://app?vid=3e84e335-f49b-4e96-838e-92191173e0d3","ios":"levelo://app?vid=3e84e335-f49b-4e96-838e-92191173e0d3"},"vehicle_type_id":"4","last_reported":1701331805,"current_range_meters":24000,"station_id":"ce4bhn92rcd13ifvqgrg","pricing_plan_id":"free"},{"bike_id":"a13368f5-c039-45e6-b328-5b0525422ef3","system_id":"levelo_inurba_marseille","lat":43.275028,"lon":5.424534,"is_reserved":false,"is_disabled":false,"rental_uris":{"android":"levelo://app?vid=a13368f5-c039-45e6-b328-5b0525422ef3","ios":"levelo://app?vid=a13368f5-c039-45e6-b328-5b0525422ef3"},"vehicle_type_id":"4","last_reported":1701331805,"current_range_meters":31600,"station_id":"ce4bhn92rcd13ifvqgrg","pricing_plan_id":"free"},{"bike_id":"5a50ac88-b032-40f9-b513-d51cece3fc4f","system_id":"levelo_inurba_marseille","lat":43.275028,"lon":5.424534,"is_reserved":false,"is_disabled":false,"rental_uris":{"android":"levelo://app?vid=5a50ac88-b032-40f9-b513-d51cece3fc4f","ios":"levelo://app?vid=5a50ac88-b032-40f9-b513-d51cece3fc4f"},"vehicle_type_id":"4","last_reported":1701331805,"current_range_meters":17600,"station_id":"ce4bhn92rcd13ifvqgrg","pricing_plan_id":"free"},{"bike_id":"d48d94a6-b95a-4f55-b08b-d4ab5df729f0","system_id":"levelo_inurba_marseille","lat":43.275028,"lon":5.424534,"is_reserved":false,"is_disabled":false,"rental_uris":{"android":"levelo://app?vid=d48d94a6-b95a-4f55-b08b-d4ab5df729f0","ios":"levelo://app?vid=d48d94a6-b95a-4f55-b08b-d4ab5df729f0"},"vehicle_type_id":"4","last_reported":1701331805,"current_range_meters":29200,"station_id":"ce4bhn92rcd13ifvqgrg","pricing_plan_id":"free"},{"bike_id":"3e726b25-b1d7-4463-8496-a2bd49c6b10a","system_id":"levelo_inurba_marseille","lat":43.275028,"lon":5.424534,"is_reserved":false,"is_disabled":false,"rental_uris":{"android":"levelo://app?vid=3e726b25-b1d7-4463-8496-a2bd49c6b10a","ios":"levelo://app?vid=3e726b25-b1d7-4463-8496-a2bd49c6b10a"},"vehicle_type_id":"4","last_reported":1701331805,"current_range_meters":28400,"station_id":"ce4bhn92rcd13ifvqgrg","pricing_plan_id":"free"},{"bike_id":"20b80d22-44d9-4ebb-951b-30777f1c5188","system_id":"levelo_inurba_marseille","lat":43.275028,"lon":5.424534,"is_reserved":false,"is_disabled":false,"rental_uris":{"android":"levelo://app?vid=20b80d22-44d9-4ebb-951b-30777f1c5188","ios":"levelo://app?vid=20b80d22-44d9-4ebb-951b-30777f1c5188"},"vehicle_type_id":"4","last_reported":1701331805,"current_range_meters":20800,"station_id":"ce4bhn92rcd13ifvqgrg","pricing_plan_id":"free"},{"bike_id":"a0ad5954-4678-4ed0-a699-84d1b14aeda3","system_id":"levelo_inurba_marseille","lat":43.275028,"lon":5.424534,"is_reserved":false,"is_disabled":false,"rental_uris":{"android":"levelo://app?vid=a0ad5954-4678-4ed0-a699-84d1b14aeda3","ios":"levelo://app?vid=a0ad5954-4678-4ed0-a699-84d1b14aeda3"},"vehicle_type_id":"4","last_reported":1701331805,"current_range_meters":13600,"station_id":"ce4bhn92rcd13ifvqgrg","pricing_plan_id":"free"},{"bike_id":"8f3588f2-94a0-44a8-85c2-7e867afa0df0","system_id":"levelo_inurba_marseille","lat":43.275028,"lon":5.424534,"is_reserved":false,"is_disabled":false,"rental_uris":{"android":"levelo://app?vid=8f3588f2-94a0-44a8-85c2-7e867afa0df0","ios":"levelo://app?vid=8f3588f2-94a0-44a8-85c2-7e867afa0df0"},"vehicle_type_id":"4","last_reported":1701331805,"current_range_meters":20400,"station_id":"ce4bhn92rcd13ifvqgrg","pricing_plan_id":"free"},{"bike_id":"06649a1b-ff2e-4306-b52c-558b8a515e74","system_id":"levelo_inurba_marseille","lat":43.275028,"lon":5.424534,"is_reserved":false,"is_disabled":false,"rental_uris":{"android":"levelo://app?vid=06649a1b-ff2e-4306-b52c-558b8a515e74","ios":"levelo://app?vid=06649a1b-ff2e-4306-b52c-558b8a515e74"},"vehicle_type_id":"4","last_reported":1701331805,"current_range_meters":21200,"station_id":"ce4bhn92rcd13ifvqgrg","pricing_plan_id":"free"},{"bike_id":"54fac5fe-0c7e-4943-897d-31a01d6d8c11","system_id":"levelo_inurba_marseille","lat":43.26082,"lon":5.39764,"is_reserved":false,"is_disabled":false,"rental_uris":{"android":"levelo://app?vid=54fac5fe-0c7e-4943-897d-31a01d6d8c11","ios":"levelo://app?vid=54fac5fe-0c7e-4943-897d-31a01d6d8c11"},"vehicle_type_id":"4","last_reported":1701331805,"current_range_meters":0,"station_id":"ce4bhi12rcd13ifvqfq0","pricing_plan_id":"free"},{"bike_id":"9f5585ef-fc69-41fe-9a49-180c7382380e","system_id":"levelo_inurba_marseille","lat":43.25581,"lon":5.3823,"is_reserved":false,"is_disabled":false,"rental_uris":{"android":"levelo://app?vid=9f5585ef-fc69-41fe-9a49-180c7382380e","ios":"levelo://app?vid=9f5585ef-fc69-41fe-9a49-180c7382380e"},"vehicle_type_id":"4","last_reported":1701331805,"current_range_meters":26000,"station_id":"ce4bhih2rcd13ifvqfs0","pricing_plan_id":"free"},{"bike_id":"0e904d10-9ecb-4f79-883b-a75ae068ad82","system_id":"levelo_inurba_marseille","lat":43.2558,"lon":5.38236,"is_reserved":false,"is_disabled":false,"rental_uris":{"android":"levelo://app?vid=0e904d10-9ecb-4f79-883b-a75ae068ad82","ios":"levelo://app?vid=0e904d10-9ecb-4f79-883b-a75ae068ad82"},"vehicle_type_id":"4","last_reported":1701331805,"current_range_meters":16800,"station_id":"ce4bhih2rcd13ifvqfs0","pricing_plan_id":"free"},{"bike_id":"8c4fe141-b4a5-437f-8e59-f3691bb625ba","system_id":"levelo_inurba_marseille","lat":43.25581,"lon":5.38244,"is_reserved":false,"is_disabled":false,"rental_uris":{"android":"levelo://app?vid=8c4fe141-b4a5-437f-8e59-f3691bb625ba","ios":"levelo://app?vid=8c4fe141-b4a5-437f-8e59-f3691bb625ba"},"vehicle_type_id":"4","last_reported":1701331805,"current_range_meters":27200,"station_id":"ce4bhih2rcd13ifvqfs0","pricing_plan_id":"free"},{"bike_id":"385dd4c6-ae10-46f5-9544-067cd77e486c","system_id":"levelo_inurba_marseille","lat":43.25579,"lon":5.38243,"is_reserved":false,"is_disabled":false,"rental_uris":{"android":"levelo://app?vid=385dd4c6-ae10-46f5-9544-067cd77e486c","ios":"levelo://app?vid=385dd4c6-ae10-46f5-9544-067cd77e486c"},"vehicle_type_id":"4","last_reported":1701331805,"current_range_meters":21200,"station_id":"ce4bhih2rcd13ifvqfs0","pricing_plan_id":"free"},{"bike_id":"5e330dc8-4f5e-462a-81be-656850ec1d84","system_id":"levelo_inurba_marseille","lat":43.25578,"lon":5.38244,"is_reserved":false,"is_disabled":false,"rental_uris":{"android":"levelo://app?vid=5e330dc8-4f5e-462a-81be-656850ec1d84","ios":"levelo://app?vid=5e330dc8-4f5e-462a-81be-656850ec1d84"},"vehicle_type_id":"4","last_reported":1701331805,"current_range_meters":14400,"station_id":"ce4bhih2rcd13ifvqfs0","pricing_plan_id":"free"},{"bike_id":"072735fc-7166-45e4-ab1b-a3fa626d7d29","system_id":"levelo_inurba_marseille","lat":43.254947,"lon":5.376454,"is_reserved":false,"is_disabled":false,"rental_uris":{"android":"levelo://app?vid=072735fc-7166-45e4-ab1b-a3fa626d7d29","ios":"levelo://app?vid=072735fc-7166-45e4-ab1b-a3fa626d7d29"},"vehicle_type_id":"4","last_reported":1701331805,"current_range_meters":23600,"station_id":"ce4bhh12rcd13ifvqff0","pricing_plan_id":"free"},{"bike_id":"4e0bd320-2cd9-4caa-8a11-234b11e8d880","system_id":"levelo_inurba_marseille","lat":43.254947,"lon":5.376454,"is_reserved":false,"is_disabled":false,"rental_uris":{"android":"levelo://app?vid=4e0bd320-2cd9-4caa-8a11-234b11e8d880","ios":"levelo://app?vid=4e0bd320-2cd9-4caa-8a11-234b11e8d880"},"vehicle_type_id":"4","last_reported":1701331805,"current_range_meters":31200,"station_id":"ce4bhh12rcd13ifvqff0","pricing_plan_id":"free"},{"bike_id":"ce4a8b89-5467-4175-a7e0-4caeff86e402","system_id":"levelo_inurba_marseille","lat":43.270721,"lon":5.422764,"is_reserved":false,"is_disabled":false,"rental_uris":{"android":"levelo://app?vid=ce4a8b89-5467-4175-a7e0-4caeff86e402","ios":"levelo://app?vid=ce4a8b89-5467-4175-a7e0-4caeff86e402"},"vehicle_type_id":"4","last_reported":1701331805,"current_range_meters":12400,"station_id":"ce4bhk92rcd13ifvqgb0","pricing_plan_id":"free"},{"bike_id":"dcbcc1ca-a1e6-43d2-8cb8-a8787ad6232f","system_id":"levelo_inurba_marseille","lat":43.258658,"lon":5.398935,"is_reserved":false,"is_disabled":false,"rental_uris":{"android":"levelo://app?vid=dcbcc1ca-a1e6-43d2-8cb8-a8787ad6232f","ios":"levelo://app?vid=dcbcc1ca-a1e6-43d2-8cb8-a8787ad6232f"},"vehicle_type_id":"4","last_reported":1701331805,"current_range_meters":24400,"station_id":"ce4bhl92rcd13ifvqghg","pricing_plan_id":"free"},{"bike_id":"f9626908-7216-4e15-8b13-8f5bf2183ebe","system_id":"levelo_inurba_marseille","lat":43.25936,"lon":5.40906,"is_reserved":false,"is_disabled":false,"rental_uris":{"android":"levelo://app?vid=f9626908-7216-4e15-8b13-8f5bf2183ebe","ios":"levelo://app?vid=f9626908-7216-4e15-8b13-8f5bf2183ebe"},"vehicle_type_id":"4","last_reported":1701331805,"current_range_meters":22800,"station_id":"ce4bhm92rcd13ifvqglg","pricing_plan_id":"free"},{"bike_id":"4d8b7a38-17e8-45db-9951-381b750a2246","system_id":"levelo_inurba_marseille","lat":43.25936,"lon":5.40909,"is_reserved":false,"is_disabled":false,"rental_uris":{"android":"levelo://app?vid=4d8b7a38-17e8-45db-9951-381b750a2246","ios":"levelo://app?vid=4d8b7a38-17e8-45db-9951-381b750a2246"},"vehicle_type_id":"4","last_reported":1701331805,"current_range_meters":19200,"station_id":"ce4bhm92rcd13ifvqglg","pricing_plan_id":"free"},{"bike_id":"ba5fb467-ed36-498b-8393-3a4facb5fa64","system_id":"levelo_inurba_marseille","lat":43.25935,"lon":5.40911,"is_reserved":false,"is_disabled":false,"rental_uris":{"android":"levelo://app?vid=ba5fb467-ed36-498b-8393-3a4facb5fa64","ios":"levelo://app?vid=ba5fb467-ed36-498b-8393-3a4facb5fa64"},"vehicle_type_id":"4","last_reported":1701331805,"current_range_meters":12000,"station_id":"ce4bhm92rcd13ifvqglg","pricing_plan_id":"free"},{"bike_id":"34ada2d1-29dc-42f8-9f53-94d7367720cc","system_id":"levelo_inurba_marseille","lat":43.25931,"lon":5.40914,"is_reserved":false,"is_disabled":false,"rental_uris":{"android":"levelo://app?vid=34ada2d1-29dc-42f8-9f53-94d7367720cc","ios":"levelo://app?vid=34ada2d1-29dc-42f8-9f53-94d7367720cc"},"vehicle_type_id":"4","last_reported":1701331805,"current_range_meters":13200,"station_id":"ce4bhm92rcd13ifvqglg","pricing_plan_id":"free"},{"bike_id":"528e9404-447d-443d-91f8-36795cb971ba","system_id":"levelo_inurba_marseille","lat":43.259009,"lon":5.40929,"is_reserved":false,"is_disabled":false,"rental_uris":{"android":"levelo://app?vid=528e9404-447d-443d-91f8-36795cb971ba","ios":"levelo://app?vid=528e9404-447d-443d-91f8-36795cb971ba"},"vehicle_type_id":"4","last_reported":1701331805,"current_range_meters":22800,"station_id":"ce4bhm92rcd13ifvqglg","pricing_plan_id":"free"},{"bike_id":"e1967fe0-3f0e-4077-95d7-1fac561b3467","system_id":"levelo_inurba_marseille","lat":43.259013,"lon":5.409301,"is_reserved":false,"is_disabled":false,"rental_uris":{"android":"levelo://app?vid=e1967fe0-3f0e-4077-95d7-1fac561b3467","ios":"levelo://app?vid=e1967fe0-3f0e-4077-95d7-1fac561b3467"},"vehicle_type_id":"4","last_reported":1701331805,"current_range_meters":17600,"station_id":"ce4bhm92rcd13ifvqglg","pricing_plan_id":"free"},{"bike_id":"330184e3-56f2-4d39-bbfa-14f81e51fadc","system_id":"levelo_inurba_marseille","lat":43.250009,"lon":5.389195,"is_reserved":false,"is_disabled":false,"rental_uris":{"android":"levelo://app?vid=330184e3-56f2-4d39-bbfa-14f81e51fadc","ios":"levelo://app?vid=330184e3-56f2-4d39-bbfa-14f81e51fadc"},"vehicle_type_id":"4","last_reported":1701331805,"current_range_meters":21200,"station_id":"ce4bhgp2rcd13ifvqfd0","pricing_plan_id":"free"},{"bike_id":"856f2952-0d85-4a71-9497-5e57411e76d2","system_id":"levelo_inurba_marseille","lat":43.250009,"lon":5.389195,"is_reserved":false,"is_disabled":false,"rental_uris":{"android":"levelo://app?vid=856f2952-0d85-4a71-9497-5e57411e76d2","ios":"levelo://app?vid=856f2952-0d85-4a71-9497-5e57411e76d2"},"vehicle_type_id":"4","last_reported":1701331805,"current_range_meters":21600,"station_id":"ce4bhgp2rcd13ifvqfd0","pricing_plan_id":"free"},{"bike_id":"1f062ae3-a8f7-40ea-af7a-16b6629368ca","system_id":"levelo_inurba_marseille","lat":43.250023,"lon":5.38919,"is_reserved":false,"is_disabled":false,"rental_uris":{"android":"levelo://app?vid=1f062ae3-a8f7-40ea-af7a-16b6629368ca","ios":"levelo://app?vid=1f062ae3-a8f7-40ea-af7a-16b6629368ca"},"vehicle_type_id":"4","last_reported":1701331805,"current_range_meters":27600,"station_id":"ce4bhgp2rcd13ifvqfd0","pricing_plan_id":"free"},{"bike_id":"8ce156ad-a64b-42ef-a89a-1f7faa246c72","system_id":"levelo_inurba_marseille","lat":43.2479,"lon":5.374457,"is_reserved":false,"is_disabled":false,"rental_uris":{"android":"levelo://app?vid=8ce156ad-a64b-42ef-a89a-1f7faa246c72","ios":"levelo://app?vid=8ce156ad-a64b-42ef-a89a-1f7faa246c72"},"vehicle_type_id":"4","last_reported":1701331805,"current_range_meters":4400,"station_id":"ce4bhgh2rcd13ifvqfb0","pricing_plan_id":"free"},{"bike_id":"4967ab4e-a884-4957-bdb9-f89f823e0acd","system_id":"levelo_inurba_marseille","lat":43.25086,"lon":5.39511,"is_reserved":false,"is_disabled":false,"rental_uris":{"android":"levelo://app?vid=4967ab4e-a884-4957-bdb9-f89f823e0acd","ios":"levelo://app?vid=4967ab4e-a884-4957-bdb9-f89f823e0acd"},"vehicle_type_id":"4","last_reported":1701331805,"current_range_meters":28000,"station_id":"ce4bhm12rcd13ifvqgkg","pricing_plan_id":"free"},{"bike_id":"60df5921-f684-4ec3-b32a-4081d4debc06","system_id":"levelo_inurba_marseille","lat":43.24693,"lon":5.382096,"is_reserved":false,"is_disabled":false,"rental_uris":{"android":"levelo://app?vid=60df5921-f684-4ec3-b32a-4081d4debc06","ios":"levelo://app?vid=60df5921-f684-4ec3-b32a-4081d4debc06"},"vehicle_type_id":"4","last_reported":1701331805,"current_range_meters":26400,"station_id":"ce4bhih2rcd13ifvqfr0","pricing_plan_id":"free"},{"bike_id":"6649bda5-26a8-48a9-87bf-0ae23bbc096a","system_id":"levelo_inurba_marseille","lat":43.25102,"lon":5.403214,"is_reserved":false,"is_disabled":false,"rental_uris":{"android":"levelo://app?vid=6649bda5-26a8-48a9-87bf-0ae23bbc096a","ios":"levelo://app?vid=6649bda5-26a8-48a9-87bf-0ae23bbc096a"},"vehicle_type_id":"4","last_reported":1701331805,"current_range_meters":28400,"station_id":"ce4bhlh2rcd13ifvqgig","pricing_plan_id":"free"},{"bike_id":"0edeb122-91e7-459b-aad4-e2f74430d438","system_id":"levelo_inurba_marseille","lat":43.25102,"lon":5.403214,"is_reserved":false,"is_disabled":false,"rental_uris":{"android":"levelo://app?vid=0edeb122-91e7-459b-aad4-e2f74430d438","ios":"levelo://app?vid=0edeb122-91e7-459b-aad4-e2f74430d438"},"vehicle_type_id":"4","last_reported":1701331805,"current_range_meters":17200,"station_id":"ce4bhlh2rcd13ifvqgig","pricing_plan_id":"free"},{"bike_id":"f8354ba2-6c26-4dc7-a342-fcfbcfa0f7a3","system_id":"levelo_inurba_marseille","lat":43.246467,"lon":5.388984,"is_reserved":false,"is_disabled":false,"rental_uris":{"android":"levelo://app?vid=f8354ba2-6c26-4dc7-a342-fcfbcfa0f7a3","ios":"levelo://app?vid=f8354ba2-6c26-4dc7-a342-fcfbcfa0f7a3"},"vehicle_type_id":"4","last_reported":1701331805,"current_range_meters":24000,"station_id":"ce4bhg12rcd13ifvqf60","pricing_plan_id":"free"},{"bike_id":"e3d09a6b-46f8-4049-9245-e5b95a6446e7","system_id":"levelo_inurba_marseille","lat":43.246461,"lon":5.389014,"is_reserved":false,"is_disabled":false,"rental_uris":{"android":"levelo://app?vid=e3d09a6b-46f8-4049-9245-e5b95a6446e7","ios":"levelo://app?vid=e3d09a6b-46f8-4049-9245-e5b95a6446e7"},"vehicle_type_id":"4","last_reported":1701331805,"current_range_meters":30400,"station_id":"ce4bhg12rcd13ifvqf60","pricing_plan_id":"free"},{"bike_id":"8813d7ad-7245-4ad9-ae27-052093603bf9","system_id":"levelo_inurba_marseille","lat":43.246461,"lon":5.389014,"is_reserved":false,"is_disabled":false,"rental_uris":{"android":"levelo://app?vid=8813d7ad-7245-4ad9-ae27-052093603bf9","ios":"levelo://app?vid=8813d7ad-7245-4ad9-ae27-052093603bf9"},"vehicle_type_id":"4","last_reported":1701331805,"current_range_meters":28800,"station_id":"ce4bhg12rcd13ifvqf60","pricing_plan_id":"free"},{"bike_id":"b5f40950-b6c4-4f52-8e56-057f013be2cb","system_id":"levelo_inurba_marseille","lat":43.243884,"lon":5.370736,"is_reserved":false,"is_disabled":false,"rental_uris":{"android":"levelo://app?vid=b5f40950-b6c4-4f52-8e56-057f013be2cb","ios":"levelo://app?vid=b5f40950-b6c4-4f52-8e56-057f013be2cb"},"vehicle_type_id":"4","last_reported":1701331805,"current_range_meters":31200,"station_id":"ce4bhhh2rcd13ifvqfk0","pricing_plan_id":"free"},{"bike_id":"766ffb29-ebf9-4cf9-9252-18d9dbfe5565","system_id":"levelo_inurba_marseille","lat":43.245581,"lon":5.395069,"is_reserved":false,"is_disabled":false,"rental_uris":{"android":"levelo://app?vid=766ffb29-ebf9-4cf9-9252-18d9dbfe5565","ios":"levelo://app?vid=766ffb29-ebf9-4cf9-9252-18d9dbfe5565"},"vehicle_type_id":"4","last_reported":1701331805,"current_range_meters":18400,"station_id":"ce4bhlp2rcd13ifvqgjg","pricing_plan_id":"free"},{"bike_id":"d796596c-4c2b-4dbf-9797-4370fa8cf341","system_id":"levelo_inurba_marseille","lat":43.240749,"lon":5.377557,"is_reserved":false,"is_disabled":false,"rental_uris":{"android":"levelo://app?vid=d796596c-4c2b-4dbf-9797-4370fa8cf341","ios":"levelo://app?vid=d796596c-4c2b-4dbf-9797-4370fa8cf341"},"vehicle_type_id":"4","last_reported":1701331805,"current_range_meters":10400,"station_id":"ce4bhnp2rcd13ifvqgvg","pricing_plan_id":"free"},{"bike_id":"226c9a43-4a54-4ac9-a198-198c18713b5c","system_id":"levelo_inurba_marseille","lat":43.24075,"lon":5.37762,"is_reserved":false,"is_disabled":false,"rental_uris":{"android":"levelo://app?vid=226c9a43-4a54-4ac9-a198-198c18713b5c","ios":"levelo://app?vid=226c9a43-4a54-4ac9-a198-198c18713b5c"},"vehicle_type_id":"4","last_reported":1701331805,"current_range_meters":10800,"station_id":"ce4bhnp2rcd13ifvqgvg","pricing_plan_id":"free"},{"bike_id":"28857faa-ba18-4872-a4ea-bfc77cd54e50","system_id":"levelo_inurba_marseille","lat":43.24074,"lon":5.37761,"is_reserved":false,"is_disabled":false,"rental_uris":{"android":"levelo://app?vid=28857faa-ba18-4872-a4ea-bfc77cd54e50","ios":"levelo://app?vid=28857faa-ba18-4872-a4ea-bfc77cd54e50"},"vehicle_type_id":"4","last_reported":1701331805,"current_range_meters":26800,"station_id":"ce4bhnp2rcd13ifvqgvg","pricing_plan_id":"free"},{"bike_id":"346577f1-cf8b-49af-9f85-ef25a078a4c9","system_id":"levelo_inurba_marseille","lat":43.24073,"lon":5.37761,"is_reserved":false,"is_disabled":false,"rental_uris":{"android":"levelo://app?vid=346577f1-cf8b-49af-9f85-ef25a078a4c9","ios":"levelo://app?vid=346577f1-cf8b-49af-9f85-ef25a078a4c9"},"vehicle_type_id":"4","last_reported":1701331805,"current_range_meters":19600,"station_id":"ce4bhnp2rcd13ifvqgvg","pricing_plan_id":"free"},{"bike_id":"5e9da16a-1805-45da-bae2-e54b4625efac","system_id":"levelo_inurba_marseille","lat":43.24073,"lon":5.37761,"is_reserved":false,"is_disabled":false,"rental_uris":{"android":"levelo://app?vid=5e9da16a-1805-45da-bae2-e54b4625efac","ios":"levelo://app?vid=5e9da16a-1805-45da-bae2-e54b4625efac"},"vehicle_type_id":"4","last_reported":1701331805,"current_range_meters":17200,"station_id":"ce4bhnp2rcd13ifvqgvg","pricing_plan_id":"free"},{"bike_id":"c912dfb9-b9e1-4490-ba70-4926b3071cf6","system_id":"levelo_inurba_marseille","lat":43.24072,"lon":5.3776,"is_reserved":false,"is_disabled":false,"rental_uris":{"android":"levelo://app?vid=c912dfb9-b9e1-4490-ba70-4926b3071cf6","ios":"levelo://app?vid=c912dfb9-b9e1-4490-ba70-4926b3071cf6"},"vehicle_type_id":"4","last_reported":1701331805,"current_range_meters":27600,"station_id":"ce4bhnp2rcd13ifvqgvg","pricing_plan_id":"free"},{"bike_id":"6891fcde-2fef-433a-bf09-da9c3692e4cc","system_id":"levelo_inurba_marseille","lat":43.240623,"lon":5.377642,"is_reserved":false,"is_disabled":false,"rental_uris":{"android":"levelo://app?vid=6891fcde-2fef-433a-bf09-da9c3692e4cc","ios":"levelo://app?vid=6891fcde-2fef-433a-bf09-da9c3692e4cc"},"vehicle_type_id":"4","last_reported":1701331805,"current_range_meters":31200,"station_id":"ce4bhnp2rcd13ifvqgvg","pricing_plan_id":"free"},{"bike_id":"31477cac-dad9-40da-a8f0-2b06ddb732dc","system_id":"levelo_inurba_marseille","lat":43.24072,"lon":5.3776,"is_reserved":false,"is_disabled":false,"rental_uris":{"android":"levelo://app?vid=31477cac-dad9-40da-a8f0-2b06ddb732dc","ios":"levelo://app?vid=31477cac-dad9-40da-a8f0-2b06ddb732dc"},"vehicle_type_id":"4","last_reported":1701331805,"current_range_meters":22800,"station_id":"ce4bhnp2rcd13ifvqgvg","pricing_plan_id":"free"},{"bike_id":"6987b0ed-c98f-4734-95c6-9dc3e1739ca2","system_id":"levelo_inurba_marseille","lat":43.24072,"lon":5.37762,"is_reserved":false,"is_disabled":false,"rental_uris":{"android":"levelo://app?vid=6987b0ed-c98f-4734-95c6-9dc3e1739ca2","ios":"levelo://app?vid=6987b0ed-c98f-4734-95c6-9dc3e1739ca2"},"vehicle_type_id":"4","last_reported":1701331805,"current_range_meters":19600,"station_id":"ce4bhnp2rcd13ifvqgvg","pricing_plan_id":"free"},{"bike_id":"4f7011d1-c620-4f7b-ab64-aa16782fbc23","system_id":"levelo_inurba_marseille","lat":43.24072,"lon":5.37762,"is_reserved":false,"is_disabled":false,"rental_uris":{"android":"levelo://app?vid=4f7011d1-c620-4f7b-ab64-aa16782fbc23","ios":"levelo://app?vid=4f7011d1-c620-4f7b-ab64-aa16782fbc23"},"vehicle_type_id":"4","last_reported":1701331805,"current_range_meters":21600,"station_id":"ce4bhnp2rcd13ifvqgvg","pricing_plan_id":"free"},{"bike_id":"401cccea-6a6f-42fb-835c-329ca5d75241","system_id":"levelo_inurba_marseille","lat":43.24072,"lon":5.37763,"is_reserved":false,"is_disabled":false,"rental_uris":{"android":"levelo://app?vid=401cccea-6a6f-42fb-835c-329ca5d75241","ios":"levelo://app?vid=401cccea-6a6f-42fb-835c-329ca5d75241"},"vehicle_type_id":"4","last_reported":1701331805,"current_range_meters":5600,"station_id":"ce4bhnp2rcd13ifvqgvg","pricing_plan_id":"free"},{"bike_id":"92924a84-7917-4a0d-8142-c584d6c9e058","system_id":"levelo_inurba_marseille","lat":43.24072,"lon":5.37763,"is_reserved":false,"is_disabled":false,"rental_uris":{"android":"levelo://app?vid=92924a84-7917-4a0d-8142-c584d6c9e058","ios":"levelo://app?vid=92924a84-7917-4a0d-8142-c584d6c9e058"},"vehicle_type_id":"4","last_reported":1701331805,"current_range_meters":14800,"station_id":"ce4bhnp2rcd13ifvqgvg","pricing_plan_id":"free"},{"bike_id":"6b2e1e84-56f7-4156-bda5-48632a027605","system_id":"levelo_inurba_marseille","lat":43.24072,"lon":5.37765,"is_reserved":false,"is_disabled":false,"rental_uris":{"android":"levelo://app?vid=6b2e1e84-56f7-4156-bda5-48632a027605","ios":"levelo://app?vid=6b2e1e84-56f7-4156-bda5-48632a027605"},"vehicle_type_id":"4","last_reported":1701331805,"current_range_meters":17200,"station_id":"ce4bhnp2rcd13ifvqgvg","pricing_plan_id":"free"},{"bike_id":"43bdbb96-ecd2-49a2-84a3-578cdb3630c8","system_id":"levelo_inurba_marseille","lat":43.24071,"lon":5.37762,"is_reserved":false,"is_disabled":false,"rental_uris":{"android":"levelo://app?vid=43bdbb96-ecd2-49a2-84a3-578cdb3630c8","ios":"levelo://app?vid=43bdbb96-ecd2-49a2-84a3-578cdb3630c8"},"vehicle_type_id":"4","last_reported":1701331805,"current_range_meters":26800,"station_id":"ce4bhnp2rcd13ifvqgvg","pricing_plan_id":"free"},{"bike_id":"70128eba-c96e-406a-99d4-bd940b82da31","system_id":"levelo_inurba_marseille","lat":43.240623,"lon":5.377642,"is_reserved":false,"is_disabled":false,"rental_uris":{"android":"levelo://app?vid=70128eba-c96e-406a-99d4-bd940b82da31","ios":"levelo://app?vid=70128eba-c96e-406a-99d4-bd940b82da31"},"vehicle_type_id":"4","last_reported":1701331805,"current_range_meters":31200,"station_id":"ce4bhnp2rcd13ifvqgvg","pricing_plan_id":"free"},{"bike_id":"a9f9907b-0d2c-429d-8514-98f08adfb882","system_id":"levelo_inurba_marseille","lat":43.2407,"lon":5.3776,"is_reserved":false,"is_disabled":false,"rental_uris":{"android":"levelo://app?vid=a9f9907b-0d2c-429d-8514-98f08adfb882","ios":"levelo://app?vid=a9f9907b-0d2c-429d-8514-98f08adfb882"},"vehicle_type_id":"4","last_reported":1701331805,"current_range_meters":20400,"station_id":"ce4bhnp2rcd13ifvqgvg","pricing_plan_id":"free"},{"bike_id":"2ab6544b-cda1-42f2-a05e-5f1370e63f0a","system_id":"levelo_inurba_marseille","lat":43.2407,"lon":5.3776,"is_reserved":false,"is_disabled":false,"rental_uris":{"android":"levelo://app?vid=2ab6544b-cda1-42f2-a05e-5f1370e63f0a","ios":"levelo://app?vid=2ab6544b-cda1-42f2-a05e-5f1370e63f0a"},"vehicle_type_id":"4","last_reported":1701331805,"current_range_meters":26800,"station_id":"ce4bhnp2rcd13ifvqgvg","pricing_plan_id":"free"},{"bike_id":"400c98ab-27d5-4a71-9ad2-be2f7de72f64","system_id":"levelo_inurba_marseille","lat":43.2407,"lon":5.37766,"is_reserved":false,"is_disabled":false,"rental_uris":{"android":"levelo://app?vid=400c98ab-27d5-4a71-9ad2-be2f7de72f64","ios":"levelo://app?vid=400c98ab-27d5-4a71-9ad2-be2f7de72f64"},"vehicle_type_id":"4","last_reported":1701331805,"current_range_meters":28800,"station_id":"ce4bhnp2rcd13ifvqgvg","pricing_plan_id":"free"},{"bike_id":"b729d806-ea14-4f65-9f1f-16c379189b1d","system_id":"levelo_inurba_marseille","lat":43.240623,"lon":5.377642,"is_reserved":false,"is_disabled":false,"rental_uris":{"android":"levelo://app?vid=b729d806-ea14-4f65-9f1f-16c379189b1d","ios":"levelo://app?vid=b729d806-ea14-4f65-9f1f-16c379189b1d"},"vehicle_type_id":"4","last_reported":1701331805,"current_range_meters":20400,"station_id":"ce4bhnp2rcd13ifvqgvg","pricing_plan_id":"free"},{"bike_id":"bcc93469-dac7-4061-b03e-a1e648dc5717","system_id":"levelo_inurba_marseille","lat":43.24069,"lon":5.37762,"is_reserved":false,"is_disabled":false,"rental_uris":{"android":"levelo://app?vid=bcc93469-dac7-4061-b03e-a1e648dc5717","ios":"levelo://app?vid=bcc93469-dac7-4061-b03e-a1e648dc5717"},"vehicle_type_id":"4","last_reported":1701331805,"current_range_meters":800,"station_id":"ce4bhnp2rcd13ifvqgvg","pricing_plan_id":"free"},{"bike_id":"f35efb30-58d0-4e1b-8cc5-c0f015ab3cdf","system_id":"levelo_inurba_marseille","lat":43.24069,"lon":5.37764,"is_reserved":false,"is_disabled":false,"rental_uris":{"android":"levelo://app?vid=f35efb30-58d0-4e1b-8cc5-c0f015ab3cdf","ios":"levelo://app?vid=f35efb30-58d0-4e1b-8cc5-c0f015ab3cdf"},"vehicle_type_id":"4","last_reported":1701331805,"current_range_meters":28000,"station_id":"ce4bhnp2rcd13ifvqgvg","pricing_plan_id":"free"},{"bike_id":"73e8fbe7-8b2c-481e-bae0-ab946d77ed6e","system_id":"levelo_inurba_marseille","lat":43.24069,"lon":5.37765,"is_reserved":false,"is_disabled":false,"rental_uris":{"android":"levelo://app?vid=73e8fbe7-8b2c-481e-bae0-ab946d77ed6e","ios":"levelo://app?vid=73e8fbe7-8b2c-481e-bae0-ab946d77ed6e"},"vehicle_type_id":"4","last_reported":1701331805,"current_range_meters":6000,"station_id":"ce4bhnp2rcd13ifvqgvg","pricing_plan_id":"free"},{"bike_id":"c86c154b-164f-47cc-bcca-cd39bf48d6e4","system_id":"levelo_inurba_marseille","lat":43.240623,"lon":5.377642,"is_reserved":false,"is_disabled":false,"rental_uris":{"android":"levelo://app?vid=c86c154b-164f-47cc-bcca-cd39bf48d6e4","ios":"levelo://app?vid=c86c154b-164f-47cc-bcca-cd39bf48d6e4"},"vehicle_type_id":"4","last_reported":1701331805,"current_range_meters":21200,"station_id":"ce4bhnp2rcd13ifvqgvg","pricing_plan_id":"free"},{"bike_id":"a953beec-05a2-40e4-b7ec-976642166b80","system_id":"levelo_inurba_marseille","lat":43.24069,"lon":5.37766,"is_reserved":false,"is_disabled":false,"rental_uris":{"android":"levelo://app?vid=a953beec-05a2-40e4-b7ec-976642166b80","ios":"levelo://app?vid=a953beec-05a2-40e4-b7ec-976642166b80"},"vehicle_type_id":"4","last_reported":1701331805,"current_range_meters":18000,"station_id":"ce4bhnp2rcd13ifvqgvg","pricing_plan_id":"free"},{"bike_id":"6d6239be-9ca4-4e23-a40c-e8cb68671c03","system_id":"levelo_inurba_marseille","lat":43.24068,"lon":5.37763,"is_reserved":false,"is_disabled":false,"rental_uris":{"android":"levelo://app?vid=6d6239be-9ca4-4e23-a40c-e8cb68671c03","ios":"levelo://app?vid=6d6239be-9ca4-4e23-a40c-e8cb68671c03"},"vehicle_type_id":"4","last_reported":1701331805,"current_range_meters":11600,"station_id":"ce4bhnp2rcd13ifvqgvg","pricing_plan_id":"free"},{"bike_id":"3937f540-f8cb-4cf6-bb83-250d07d7789d","system_id":"levelo_inurba_marseille","lat":43.240623,"lon":5.377642,"is_reserved":false,"is_disabled":false,"rental_uris":{"android":"levelo://app?vid=3937f540-f8cb-4cf6-bb83-250d07d7789d","ios":"levelo://app?vid=3937f540-f8cb-4cf6-bb83-250d07d7789d"},"vehicle_type_id":"4","last_reported":1701331805,"current_range_meters":28800,"station_id":"ce4bhnp2rcd13ifvqgvg","pricing_plan_id":"free"},{"bike_id":"46274338-7531-44ee-8066-1fb7da05be34","system_id":"levelo_inurba_marseille","lat":43.24067,"lon":5.3777,"is_reserved":false,"is_disabled":false,"rental_uris":{"android":"levelo://app?vid=46274338-7531-44ee-8066-1fb7da05be34","ios":"levelo://app?vid=46274338-7531-44ee-8066-1fb7da05be34"},"vehicle_type_id":"4","last_reported":1701331805,"current_range_meters":31200,"station_id":"ce4bhnp2rcd13ifvqgvg","pricing_plan_id":"free"},{"bike_id":"580aa9b2-462f-4c7b-90f8-ce31fba87ebf","system_id":"levelo_inurba_marseille","lat":43.240623,"lon":5.377642,"is_reserved":false,"is_disabled":false,"rental_uris":{"android":"levelo://app?vid=580aa9b2-462f-4c7b-90f8-ce31fba87ebf","ios":"levelo://app?vid=580aa9b2-462f-4c7b-90f8-ce31fba87ebf"},"vehicle_type_id":"4","last_reported":1701331805,"current_range_meters":27200,"station_id":"ce4bhnp2rcd13ifvqgvg","pricing_plan_id":"free"},{"bike_id":"bfb50cdb-88b1-4cbf-8f3c-efb30527007e","system_id":"levelo_inurba_marseille","lat":43.241782,"lon":5.397264,"is_reserved":false,"is_disabled":false,"rental_uris":{"android":"levelo://app?vid=bfb50cdb-88b1-4cbf-8f3c-efb30527007e","ios":"levelo://app?vid=bfb50cdb-88b1-4cbf-8f3c-efb30527007e"},"vehicle_type_id":"4","last_reported":1701331805,"current_range_meters":20800,"station_id":"ce4bhn12rcd13ifvqgpg","pricing_plan_id":"free"},{"bike_id":"2306617b-895f-402b-891d-df19bcb66b19","system_id":"levelo_inurba_marseille","lat":43.241782,"lon":5.397261,"is_reserved":false,"is_disabled":false,"rental_uris":{"android":"levelo://app?vid=2306617b-895f-402b-891d-df19bcb66b19","ios":"levelo://app?vid=2306617b-895f-402b-891d-df19bcb66b19"},"vehicle_type_id":"4","last_reported":1701331805,"current_range_meters":12800,"station_id":"ce4bhn12rcd13ifvqgpg","pricing_plan_id":"free"},{"bike_id":"77f5df6c-c6de-4168-9645-65b438b00080","system_id":"levelo_inurba_marseille","lat":43.241782,"lon":5.397261,"is_reserved":false,"is_disabled":false,"rental_uris":{"android":"levelo://app?vid=77f5df6c-c6de-4168-9645-65b438b00080","ios":"levelo://app?vid=77f5df6c-c6de-4168-9645-65b438b00080"},"vehicle_type_id":"4","last_reported":1701331805,"current_range_meters":21200,"station_id":"ce4bhn12rcd13ifvqgpg","pricing_plan_id":"free"},{"bike_id":"559fcc9c-d1ce-4790-bfb0-2df67f13fc4b","system_id":"levelo_inurba_marseille","lat":43.241782,"lon":5.397264,"is_reserved":false,"is_disabled":false,"rental_uris":{"android":"levelo://app?vid=559fcc9c-d1ce-4790-bfb0-2df67f13fc4b","ios":"levelo://app?vid=559fcc9c-d1ce-4790-bfb0-2df67f13fc4b"},"vehicle_type_id":"4","last_reported":1701331805,"current_range_meters":4400,"station_id":"ce4bhn12rcd13ifvqgpg","pricing_plan_id":"free"},{"bike_id":"d1703505-b125-4a98-a807-11024241bc04","system_id":"levelo_inurba_marseille","lat":43.231923,"lon":5.355545,"is_reserved":false,"is_disabled":false,"rental_uris":{"android":"levelo://app?vid=d1703505-b125-4a98-a807-11024241bc04","ios":"levelo://app?vid=d1703505-b125-4a98-a807-11024241bc04"},"vehicle_type_id":"4","last_reported":1701331805,"current_range_meters":31200,"station_id":"ce4bhu92rcd13ifvqi70","pricing_plan_id":"free"},{"bike_id":"26cd3036-9e31-4635-8449-e01c086f6041","system_id":"levelo_inurba_marseille","lat":43.231923,"lon":5.355545,"is_reserved":false,"is_disabled":false,"rental_uris":{"android":"levelo://app?vid=26cd3036-9e31-4635-8449-e01c086f6041","ios":"levelo://app?vid=26cd3036-9e31-4635-8449-e01c086f6041"},"vehicle_type_id":"4","last_reported":1701331805,"current_range_meters":20000,"station_id":"ce4bhu92rcd13ifvqi70","pricing_plan_id":"free"},{"bike_id":"b37cf8bc-ef87-4960-b38c-3279b894369f","system_id":"levelo_inurba_marseille","lat":43.231923,"lon":5.355545,"is_reserved":false,"is_disabled":false,"rental_uris":{"android":"levelo://app?vid=b37cf8bc-ef87-4960-b38c-3279b894369f","ios":"levelo://app?vid=b37cf8bc-ef87-4960-b38c-3279b894369f"},"vehicle_type_id":"4","last_reported":1701331805,"current_range_meters":31200,"station_id":"ce4bhu92rcd13ifvqi70","pricing_plan_id":"free"},{"bike_id":"3bbe1fd5-b7d2-484c-969b-f57a381950c3","system_id":"levelo_inurba_marseille","lat":43.231923,"lon":5.355545,"is_reserved":false,"is_disabled":false,"rental_uris":{"android":"levelo://app?vid=3bbe1fd5-b7d2-484c-969b-f57a381950c3","ios":"levelo://app?vid=3bbe1fd5-b7d2-484c-969b-f57a381950c3"},"vehicle_type_id":"4","last_reported":1701331805,"current_range_meters":12000,"station_id":"ce4bhu92rcd13ifvqi70","pricing_plan_id":"free"},{"bike_id":"1cc950d9-b775-4678-93c4-e31b06221635","system_id":"levelo_inurba_marseille","lat":43.231787,"lon":5.399826,"is_reserved":false,"is_disabled":false,"rental_uris":{"android":"levelo://app?vid=1cc950d9-b775-4678-93c4-e31b06221635","ios":"levelo://app?vid=1cc950d9-b775-4678-93c4-e31b06221635"},"vehicle_type_id":"4","last_reported":1701331805,"current_range_meters":7200,"station_id":"ce4bhn12rcd13ifvqgqg","pricing_plan_id":"free"},{"bike_id":"5ff68776-d431-4895-866c-f190f6faec3c","system_id":"levelo_inurba_marseille","lat":43.231793,"lon":5.400044,"is_reserved":false,"is_disabled":false,"rental_uris":{"android":"levelo://app?vid=5ff68776-d431-4895-866c-f190f6faec3c","ios":"levelo://app?vid=5ff68776-d431-4895-866c-f190f6faec3c"},"vehicle_type_id":"4","last_reported":1701331805,"current_range_meters":31200,"station_id":"ce4bhn12rcd13ifvqgqg","pricing_plan_id":"free"},{"bike_id":"fd5c2fef-6d85-4784-9232-1d5d08898e03","system_id":"levelo_inurba_marseille","lat":43.231794,"lon":5.400052,"is_reserved":false,"is_disabled":false,"rental_uris":{"android":"levelo://app?vid=fd5c2fef-6d85-4784-9232-1d5d08898e03","ios":"levelo://app?vid=fd5c2fef-6d85-4784-9232-1d5d08898e03"},"vehicle_type_id":"4","last_reported":1701331805,"current_range_meters":19200,"station_id":"ce4bhn12rcd13ifvqgqg","pricing_plan_id":"free"},{"bike_id":"24e3ff79-46b3-41bd-89a3-16c527066233","system_id":"levelo_inurba_marseille","lat":43.231562,"lon":5.436933,"is_reserved":false,"is_disabled":false,"rental_uris":{"android":"levelo://app?vid=24e3ff79-46b3-41bd-89a3-16c527066233","ios":"levelo://app?vid=24e3ff79-46b3-41bd-89a3-16c527066233"},"vehicle_type_id":"4","last_reported":1701331805,"current_range_meters":25200,"station_id":"ce4bhmp2rcd13ifvqgog","pricing_plan_id":"free"},{"bike_id":"0e927ffd-e778-4a11-906b-584735d1e66f","system_id":"levelo_inurba_marseille","lat":43.231562,"lon":5.436933,"is_reserved":false,"is_disabled":false,"rental_uris":{"android":"levelo://app?vid=0e927ffd-e778-4a11-906b-584735d1e66f","ios":"levelo://app?vid=0e927ffd-e778-4a11-906b-584735d1e66f"},"vehicle_type_id":"4","last_reported":1701331805,"current_range_meters":4000,"station_id":"ce4bhmp2rcd13ifvqgog","pricing_plan_id":"free"},{"bike_id":"7ccd67b9-63b4-44c4-962f-e558f1b86670","system_id":"levelo_inurba_marseille","lat":43.231562,"lon":5.436933,"is_reserved":false,"is_disabled":false,"rental_uris":{"android":"levelo://app?vid=7ccd67b9-63b4-44c4-962f-e558f1b86670","ios":"levelo://app?vid=7ccd67b9-63b4-44c4-962f-e558f1b86670"},"vehicle_type_id":"4","last_reported":1701331805,"current_range_meters":18800,"station_id":"ce4bhmp2rcd13ifvqgog","pricing_plan_id":"free"},{"bike_id":"87e01173-8d69-4224-a2fd-c5021893a01d","system_id":"levelo_inurba_marseille","lat":43.23149,"lon":5.43723,"is_reserved":false,"is_disabled":false,"rental_uris":{"android":"levelo://app?vid=87e01173-8d69-4224-a2fd-c5021893a01d","ios":"levelo://app?vid=87e01173-8d69-4224-a2fd-c5021893a01d"},"vehicle_type_id":"4","last_reported":1701331805,"current_range_meters":800,"station_id":"ce4bhmp2rcd13ifvqgog","pricing_plan_id":"free"}]}}