{"last_updated":1752250418,"ttl":60,"version":"2.2","data":{"bikes":[{"bike_id":"14b29775-528a-4efc-b939-c487ab4d0bdb","system_id":"levelo_inurba_marseille","lat":43.29703,"lon":5.37703,"is_reserved":false,"is_disabled":false,"rental_uris":{"android":"levelo://app?vid=14b29775-528a-4efc-b939-c487ab4d0bdb","ios":"levelo://app?vid=14b29775-528a-4efc-b939-c487ab4d0bdb"},"vehicle_type_id":"4","last_reported":1752250419,"current_range_meters":2000,"station_id":"ce4bgkh2rcd13ifvqbl0","pricing_plan_id":"cebpf4jnsgd1na2vs0mg"},{"bike_id":"dae0aa5e-18ec-4e72-b3b9-4c572e5d5607","system_id":"levelo_inurba_marseille","lat":43.279144,"lon":5.395702,"is_reserved":false,"is_disabled":false,"rental_uris":{"android":"levelo://app?vid=dae0aa5e-18ec-4e72-b3b9-4c572e5d5607","ios":"levelo://app?vid=dae0aa5e-18ec-4e72-b3b9-4c572e5d5607"},"vehicle_type_id":"4","last_reported":1752250419,"current_range_meters":2800,"station_id":"ce4bhf92rcd13ifvqf40","pricing_plan_id":"cebpf4jnsgd1na2vs0mg"},{"bike_id":"633feae6-03e8-424c-866a-4cf1e788f0df","system_id":"levelo_inurba_marseille","lat":43.27836,"lon":5.39203,"is_reserved":false,"is_disabled":false,"rental_uris":{"android":"levelo://app?vid=633feae6-03e8-424c-866a-4cf1e788f0df","ios":"levelo://app?vid=633feae6-03e8-424c-866a-4cf1e788f0df"},"vehicle_type_id":"4","last_reported":1752250419,"current_range_meters":2800,"station_id":"ce4bhjp2rcd13ifvqga0","pricing_plan_id":"cebpf4jnsgd1na2vs0mg"},{"bike_id":"b8d6bf6b-ecbb-4c40-8ce7-0169ef070b49","system_id":"levelo_inurba_marseille","lat":43.29578,"lon":5.37404,"is_reserved":false,"is_disabled":false,"rental_uris":{"android":"levelo://app?vid=b8d6bf6b-ecbb-4c40-8ce7-0169ef070b49","ios":"levelo://app?vid=b8d6bf6b-ecbb-4c40-8ce7-0169ef070b49"},"vehicle_type_id":"4","last_reported":1752250419,"current_range_meters":3200,"station_id":"","pricing_plan_id":"cebpf4jnsgd1na2vs0mg"},{"bike_id":"cb5cb490-cf84-469d-98af-1e797028deba","system_id":"levelo_inurba_marseille","lat":43.28937,"lon":5.36639,"is_reserved":false,"is_disabled":false,"rental_uris":{"android":"levelo://app?vid=cb5cb490-cf84-469d-98af-1e797028deba","ios":"levelo://app?vid=cb5cb490-cf84-469d-98af-1e797028deba"},"vehicle_type_id":"4","last_reported":1752250419,"current_range_meters":3200,"station_id":"ce4bhap2rcd13ifvqek0","pricing_plan_id":"cebpf4jnsgd1na2vs0mg"},{"bike_id":"5a2af052-8edb-4cb5-ab8d-b6586378c9a5","system_id":"levelo_inurba_marseille","lat":43.272073,"lon":5.391819,"is_reserved":false,"is_disabled":false,"rental_uris":{"android":"levelo://app?vid=5a2af052-8edb-4cb5-ab8d-b6586378c9a5","ios":"levelo://app?vid=5a2af052-8edb-4cb5-ab8d-b6586378c9a5"},"vehicle_type_id":"4","last_reported":1752250419,"current_range_meters":3200,"station_id":"ce4bhhp2rcd13ifvqfm0","pricing_plan_id":"cebpf4jnsgd1na2vs0mg"},{"bike_id":"2b2f2206-7c4a-4b19-abac-bb6f0cceb940","system_id":"levelo_inurba_marseille","lat":43.21751,"lon":5.34608,"is_reserved":false,"is_disabled":false,"rental_uris":{"android":"levelo://app?vid=2b2f2206-7c4a-4b19-abac-bb6f0cceb940","ios":"levelo://app?vid=2b2f2206-7c4a-4b19-abac-bb6f0cceb940"},"vehicle_type_id":"4","last_reported":1752250419,"current_range_meters":3600,"station_id":"st_cvj6r9ubvosntc0bgbag","pricing_plan_id":"cebpf4jnsgd1na2vs0mg"},{"bike_id":"a4e71c09-d013-4906-bd5c-aaf1012438e0","system_id":"levelo_inurba_marseille","lat":43.30935,"lon":5.40144,"is_reserved":false,"is_disabled":true,"rental_uris":{"android":"levelo://app?vid=a4e71c09-d013-4906-bd5c-aaf1012438e0","ios":"levelo://app?vid=a4e71c09-d013-4906-bd5c-aaf1012438e0"},"vehicle_type_id":"4","last_reported":1752250419,"current_range_meters":3600,"station_id":"ce4bgvp2rcd13ifvqct0","pricing_plan_id":"cebpf4jnsgd1na2vs0mg"},{"bike_id":"565f8275-8916-4d4d-bde2-64a3da2702c2","system_id":"levelo_inurba_marseille","lat":43.3093,"lon":5.4014,"is_reserved":false,"is_disabled":false,"rental_uris":{"android":"levelo://app?vid=565f8275-8916-4d4d-bde2-64a3da2702c2","ios":"levelo://app?vid=565f8275-8916-4d4d-bde2-64a3da2702c2"},"vehicle_type_id":"4","last_reported":1752250419,"current_range_meters":3600,"station_id":"ce4bgvp2rcd13ifvqct0","pricing_plan_id":"cebpf4jnsgd1na2vs0mg"},{"bike_id":"1a6ba49a-514b-4427-a8f3-2dc73a043b16","system_id":"levelo_inurba_marseille","lat":43.28836,"lon":5.35841,"is_reserved":false,"is_disabled":false,"rental_uris":{"android":"levelo://app?vid=1a6ba49a-514b-4427-a8f3-2dc73a043b16","ios":"levelo://app?vid=1a6ba49a-514b-4427-a8f3-2dc73a043b16"},"vehicle_type_id":"4","last_reported":1752250419,"current_range_meters":3600,"station_id":"ce4bhb12rcd13ifvqem0","pricing_plan_id":"cebpf4jnsgd1na2vs0mg"},{"bike_id":"2bd646e7-abf8-4559-a9c4-52cbd2efecea","system_id":"levelo_inurba_marseille","lat":43.279274,"lon":5.395836,"is_reserved":false,"is_disabled":false,"rental_uris":{"android":"levelo://app?vid=2bd646e7-abf8-4559-a9c4-52cbd2efecea","ios":"levelo://app?vid=2bd646e7-abf8-4559-a9c4-52cbd2efecea"},"vehicle_type_id":"4","last_reported":1752250419,"current_range_meters":3600,"station_id":"ce4bhf92rcd13ifvqf40","pricing_plan_id":"cebpf4jnsgd1na2vs0mg"},{"bike_id":"7e9aad15-c492-4270-bf96-6649b54d9397","system_id":"levelo_inurba_marseille","lat":43.29704,"lon":5.37694,"is_reserved":false,"is_disabled":false,"rental_uris":{"android":"levelo://app?vid=7e9aad15-c492-4270-bf96-6649b54d9397","ios":"levelo://app?vid=7e9aad15-c492-4270-bf96-6649b54d9397"},"vehicle_type_id":"4","last_reported":1752250419,"current_range_meters":3600,"station_id":"ce4bgkh2rcd13ifvqbl0","pricing_plan_id":"cebpf4jnsgd1na2vs0mg"},{"bike_id":"17ae8a98-0362-44cb-b14b-1a538e18bdb0","system_id":"levelo_inurba_marseille","lat":43.29711,"lon":5.37702,"is_reserved":false,"is_disabled":false,"rental_uris":{"android":"levelo://app?vid=17ae8a98-0362-44cb-b14b-1a538e18bdb0","ios":"levelo://app?vid=17ae8a98-0362-44cb-b14b-1a538e18bdb0"},"vehicle_type_id":"4","last_reported":1752250419,"current_range_meters":4000,"station_id":"ce4bgkh2rcd13ifvqbl0","pricing_plan_id":"cebpf4jnsgd1na2vs0mg"},{"bike_id":"833789d2-719f-470f-8aa2-b69edbf07c3f","system_id":"levelo_inurba_marseille","lat":43.29647,"lon":5.39264,"is_reserved":false,"is_disabled":false,"rental_uris":{"android":"levelo://app?vid=833789d2-719f-470f-8aa2-b69edbf07c3f","ios":"levelo://app?vid=833789d2-719f-470f-8aa2-b69edbf07c3f"},"vehicle_type_id":"4","last_reported":1752250419,"current_range_meters":4000,"station_id":"","pricing_plan_id":"cebpf4jnsgd1na2vs0mg"},{"bike_id":"ff46f022-c836-4801-aa03-22a7035d0f03","system_id":"levelo_inurba_marseille","lat":43.31529,"lon":5.38027,"is_reserved":false,"is_disabled":false,"rental_uris":{"android":"levelo://app?vid=ff46f022-c836-4801-aa03-22a7035d0f03","ios":"levelo://app?vid=ff46f022-c836-4801-aa03-22a7035d0f03"},"vehicle_type_id":"4","last_reported":1752250419,"current_range_meters":4000,"station_id":"ce4bhsp2rcd13ifvqi50","pricing_plan_id":"cebpf4jnsgd1na2vs0mg"},{"bike_id":"c9ec8264-b1f7-41db-a127-5dfa02fc980f","system_id":"levelo_inurba_marseille","lat":43.3159,"lon":5.40181,"is_reserved":false,"is_disabled":false,"rental_uris":{"android":"levelo://app?vid=c9ec8264-b1f7-41db-a127-5dfa02fc980f","ios":"levelo://app?vid=c9ec8264-b1f7-41db-a127-5dfa02fc980f"},"vehicle_type_id":"4","last_reported":1752250419,"current_range_meters":4000,"station_id":"","pricing_plan_id":"cebpf4jnsgd1na2vs0mg"},{"bike_id":"0705ffba-f481-4335-99a8-3d8d1df47451","system_id":"levelo_inurba_marseille","lat":43.27214,"lon":5.39173,"is_reserved":false,"is_disabled":false,"rental_uris":{"android":"levelo://app?vid=0705ffba-f481-4335-99a8-3d8d1df47451","ios":"levelo://app?vid=0705ffba-f481-4335-99a8-3d8d1df47451"},"vehicle_type_id":"4","last_reported":1752250419,"current_range_meters":4000,"station_id":"ce4bhhp2rcd13ifvqfm0","pricing_plan_id":"cebpf4jnsgd1na2vs0mg"},{"bike_id":"d60d8de5-1826-4d69-99a6-c45bf18f1085","system_id":"levelo_inurba_marseille","lat":43.30308,"lon":5.36895,"is_reserved":false,"is_disabled":true,"rental_uris":{"android":"levelo://app?vid=d60d8de5-1826-4d69-99a6-c45bf18f1085","ios":"levelo://app?vid=d60d8de5-1826-4d69-99a6-c45bf18f1085"},"vehicle_type_id":"4","last_reported":1752250419,"current_range_meters":4800,"station_id":"ce4bgqh2rcd13ifvqc5g","pricing_plan_id":"cebpf4jnsgd1na2vs0mg"},{"bike_id":"3108e78c-759c-4d11-b361-5abb833e983c","system_id":"levelo_inurba_marseille","lat":43.288621,"lon":5.394027,"is_reserved":false,"is_disabled":false,"rental_uris":{"android":"levelo://app?vid=3108e78c-759c-4d11-b361-5abb833e983c","ios":"levelo://app?vid=3108e78c-759c-4d11-b361-5abb833e983c"},"vehicle_type_id":"4","last_reported":1752250419,"current_range_meters":4800,"station_id":"","pricing_plan_id":"cebpf4jnsgd1na2vs0mg"},{"bike_id":"159fe00e-1605-4a3a-a906-ef8dcd52b1db","system_id":"levelo_inurba_marseille","lat":43.30861,"lon":5.37333,"is_reserved":false,"is_disabled":false,"rental_uris":{"android":"levelo://app?vid=159fe00e-1605-4a3a-a906-ef8dcd52b1db","ios":"levelo://app?vid=159fe00e-1605-4a3a-a906-ef8dcd52b1db"},"vehicle_type_id":"4","last_reported":1752250419,"current_range_meters":4800,"station_id":"","pricing_plan_id":"cebpf4jnsgd1na2vs0mg"},{"bike_id":"4a76802b-b00d-4c40-9111-ed3514d71056","system_id":"levelo_inurba_marseille","lat":43.28661,"lon":5.36341,"is_reserved":false,"is_disabled":false,"rental_uris":{"android":"levelo://app?vid=4a76802b-b00d-4c40-9111-ed3514d71056","ios":"levelo://app?vid=4a76802b-b00d-4c40-9111-ed3514d71056"},"vehicle_type_id":"4","last_reported":1752250419,"current_range_meters":4800,"station_id":"ce4bhah2rcd13ifvqej0","pricing_plan_id":"cebpf4jnsgd1na2vs0mg"},{"bike_id":"a7638d86-ae46-4944-b5c6-f1ab5cfa3e94","system_id":"levelo_inurba_marseille","lat":43.337444,"lon":5.374475,"is_reserved":false,"is_disabled":false,"rental_uris":{"android":"levelo://app?vid=a7638d86-ae46-4944-b5c6-f1ab5cfa3e94","ios":"levelo://app?vid=a7638d86-ae46-4944-b5c6-f1ab5cfa3e94"},"vehicle_type_id":"4","last_reported":1752250419,"current_range_meters":5600,"station_id":"","pricing_plan_id":"cebpf4jnsgd1na2vs0mg"},{"bike_id":"afbf719f-4ad2-4ad9-bdd4-c61ccde365aa","system_id":"levelo_inurba_marseille","lat":43.29203,"lon":5.3933,"is_reserved":false,"is_disabled":false,"rental_uris":{"android":"levelo://app?vid=afbf719f-4ad2-4ad9-bdd4-c61ccde365aa","ios":"levelo://app?vid=afbf719f-4ad2-4ad9-bdd4-c61ccde365aa"},"vehicle_type_id":"4","last_reported":1752250419,"current_range_meters":5600,"station_id":"ce4bh192rcd13ifvqdd0","pricing_plan_id":"cebpf4jnsgd1na2vs0mg"},{"bike_id":"fd63eb5d-8212-40da-bdae-ca21bf066a89","system_id":"levelo_inurba_marseille","lat":43.27383,"lon":5.36266,"is_reserved":false,"is_disabled":false,"rental_uris":{"android":"levelo://app?vid=fd63eb5d-8212-40da-bdae-ca21bf066a89","ios":"levelo://app?vid=fd63eb5d-8212-40da-bdae-ca21bf066a89"},"vehicle_type_id":"4","last_reported":1752250419,"current_range_meters":5600,"station_id":"ce4bhbh2rcd13ifvqeo0","pricing_plan_id":"cebpf4jnsgd1na2vs0mg"},{"bike_id":"e645ab5a-cf27-4d3f-98e5-83efb659dffc","system_id":"levelo_inurba_marseille","lat":43.282745,"lon":5.350618,"is_reserved":false,"is_disabled":false,"rental_uris":{"android":"levelo://app?vid=e645ab5a-cf27-4d3f-98e5-83efb659dffc","ios":"levelo://app?vid=e645ab5a-cf27-4d3f-98e5-83efb659dffc"},"vehicle_type_id":"4","last_reported":1752250419,"current_range_meters":5600,"station_id":"ce4bhbp2rcd13ifvqerg","pricing_plan_id":"cebpf4jnsgd1na2vs0mg"},{"bike_id":"e329eb91-d7f5-47bb-b93c-bc1cf84bdbb0","system_id":"levelo_inurba_marseille","lat":43.29975,"lon":5.38516,"is_reserved":false,"is_disabled":true,"rental_uris":{"android":"levelo://app?vid=e329eb91-d7f5-47bb-b93c-bc1cf84bdbb0","ios":"levelo://app?vid=e329eb91-d7f5-47bb-b93c-bc1cf84bdbb0"},"vehicle_type_id":"4","last_reported":1752250419,"current_range_meters":5600,"station_id":"ce4bgj92rcd13ifvqbd0","pricing_plan_id":"cebpf4jnsgd1na2vs0mg"},{"bike_id":"668a7af5-b038-4319-827e-3349f2194e03","system_id":"levelo_inurba_marseille","lat":43.28268,"lon":5.35064,"is_reserved":false,"is_disabled":false,"rental_uris":{"android":"levelo://app?vid=668a7af5-b038-4319-827e-3349f2194e03","ios":"levelo://app?vid=668a7af5-b038-4319-827e-3349f2194e03"},"vehicle_type_id":"4","last_reported":1752250419,"current_range_meters":3600,"station_id":"ce4bhbp2rcd13ifvqerg","pricing_plan_id":"cebpf4jnsgd1na2vs0mg"},{"bike_id":"3ac5d7b2-1cac-4eb1-a674-8e9eabea0c5b","system_id":"levelo_inurba_marseille","lat":43.2842,"lon":5.34975,"is_reserved":false,"is_disabled":false,"rental_uris":{"android":"levelo://app?vid=3ac5d7b2-1cac-4eb1-a674-8e9eabea0c5b","ios":"levelo://app?vid=3ac5d7b2-1cac-4eb1-a674-8e9eabea0c5b"},"vehicle_type_id":"4","last_reported":1752250419,"current_range_meters":6000,"station_id":"ce4bhbh2rcd13ifvqepg","pricing_plan_id":"cebpf4jnsgd1na2vs0mg"},{"bike_id":"c37afcb0-70ce-4b62-8e33-0b2691398b37","system_id":"levelo_inurba_marseille","lat":43.27374,"lon":5.36255,"is_reserved":false,"is_disabled":false,"rental_uris":{"android":"levelo://app?vid=c37afcb0-70ce-4b62-8e33-0b2691398b37","ios":"levelo://app?vid=c37afcb0-70ce-4b62-8e33-0b2691398b37"},"vehicle_type_id":"4","last_reported":1752250419,"current_range_meters":6000,"station_id":"ce4bhbh2rcd13ifvqeo0","pricing_plan_id":"cebpf4jnsgd1na2vs0mg"},{"bike_id":"80311c1b-4560-425a-b601-bb3a4197c3ed","system_id":"levelo_inurba_marseille","lat":43.24169,"lon":5.36394,"is_reserved":false,"is_disabled":false,"rental_uris":{"android":"levelo://app?vid=80311c1b-4560-425a-b601-bb3a4197c3ed","ios":"levelo://app?vid=80311c1b-4560-425a-b601-bb3a4197c3ed"},"vehicle_type_id":"4","last_reported":1752250419,"current_range_meters":6000,"station_id":"cpo36qri1sfpv3e86is0","pricing_plan_id":"cebpf4jnsgd1na2vs0mg"},{"bike_id":"78d6e7c8-8477-436d-96d8-0d0ab485a2b5","system_id":"levelo_inurba_marseille","lat":43.21762,"lon":5.34591,"is_reserved":false,"is_disabled":false,"rental_uris":{"android":"levelo://app?vid=78d6e7c8-8477-436d-96d8-0d0ab485a2b5","ios":"levelo://app?vid=78d6e7c8-8477-436d-96d8-0d0ab485a2b5"},"vehicle_type_id":"4","last_reported":1752250419,"current_range_meters":6400,"station_id":"st_cvj6r9ubvosntc0bgbag","pricing_plan_id":"cebpf4jnsgd1na2vs0mg"},{"bike_id":"3f5e653a-995a-41bd-9576-02fc1700763b","system_id":"levelo_inurba_marseille","lat":43.28618,"lon":5.351,"is_reserved":false,"is_disabled":false,"rental_uris":{"android":"levelo://app?vid=3f5e653a-995a-41bd-9576-02fc1700763b","ios":"levelo://app?vid=3f5e653a-995a-41bd-9576-02fc1700763b"},"vehicle_type_id":"4","last_reported":1752250419,"current_range_meters":6400,"station_id":"ce4bhch2rcd13ifvqeug","pricing_plan_id":"cebpf4jnsgd1na2vs0mg"},{"bike_id":"a523c594-53e8-4609-8276-b2ea21701678","system_id":"levelo_inurba_marseille","lat":43.305245,"lon":5.384425,"is_reserved":false,"is_disabled":false,"rental_uris":{"android":"levelo://app?vid=a523c594-53e8-4609-8276-b2ea21701678","ios":"levelo://app?vid=a523c594-53e8-4609-8276-b2ea21701678"},"vehicle_type_id":"4","last_reported":1752250419,"current_range_meters":6400,"station_id":"ce4bgg92rcd13ifvqb30","pricing_plan_id":"cebpf4jnsgd1na2vs0mg"},{"bike_id":"21ae54b9-7375-4101-b8a7-bff9d6e1fa32","system_id":"levelo_inurba_marseille","lat":43.29988,"lon":5.37579,"is_reserved":false,"is_disabled":false,"rental_uris":{"android":"levelo://app?vid=21ae54b9-7375-4101-b8a7-bff9d6e1fa32","ios":"levelo://app?vid=21ae54b9-7375-4101-b8a7-bff9d6e1fa32"},"vehicle_type_id":"4","last_reported":1752250419,"current_range_meters":6800,"station_id":"","pricing_plan_id":"cebpf4jnsgd1na2vs0mg"},{"bike_id":"b757ffbb-2b71-4330-9f60-5f8a9d46d16e","system_id":"levelo_inurba_marseille","lat":43.29644,"lon":5.37119,"is_reserved":false,"is_disabled":false,"rental_uris":{"android":"levelo://app?vid=b757ffbb-2b71-4330-9f60-5f8a9d46d16e","ios":"levelo://app?vid=b757ffbb-2b71-4330-9f60-5f8a9d46d16e"},"vehicle_type_id":"4","last_reported":1752250419,"current_range_meters":6800,"station_id":"","pricing_plan_id":"cebpf4jnsgd1na2vs0mg"},{"bike_id":"833f97ec-e704-4051-ab3b-2e9eb58f71d0","system_id":"levelo_inurba_marseille","lat":43.3025,"lon":5.37502,"is_reserved":false,"is_disabled":false,"rental_uris":{"android":"levelo://app?vid=833f97ec-e704-4051-ab3b-2e9eb58f71d0","ios":"levelo://app?vid=833f97ec-e704-4051-ab3b-2e9eb58f71d0"},"vehicle_type_id":"4","last_reported":1752250419,"current_range_meters":8000,"station_id":"","pricing_plan_id":"cebpf4jnsgd1na2vs0mg"},{"bike_id":"34cc15ec-c848-42cd-b03f-1c8b94067543","system_id":"levelo_inurba_marseille","lat":43.30431,"lon":5.38893,"is_reserved":false,"is_disabled":true,"rental_uris":{"android":"levelo://app?vid=34cc15ec-c848-42cd-b03f-1c8b94067543","ios":"levelo://app?vid=34cc15ec-c848-42cd-b03f-1c8b94067543"},"vehicle_type_id":"4","last_reported":1752250419,"current_range_meters":8400,"station_id":"ce4bgk12rcd13ifvqbi0","pricing_plan_id":"cebpf4jnsgd1na2vs0mg"},{"bike_id":"80778b69-e378-4576-a615-711c510ff883","system_id":"levelo_inurba_marseille","lat":43.30598,"lon":5.37189,"is_reserved":false,"is_disabled":false,"rental_uris":{"android":"levelo://app?vid=80778b69-e378-4576-a615-711c510ff883","ios":"levelo://app?vid=80778b69-e378-4576-a615-711c510ff883"},"vehicle_type_id":"4","last_reported":1752250419,"current_range_meters":8400,"station_id":"ce4bgqh2rcd13ifvqc4g","pricing_plan_id":"cebpf4jnsgd1na2vs0mg"},{"bike_id":"b52206bc-c6e8-43d1-a71c-36d09a1a1c27","system_id":"levelo_inurba_marseille","lat":43.28725,"lon":5.36085,"is_reserved":false,"is_disabled":false,"rental_uris":{"android":"levelo://app?vid=b52206bc-c6e8-43d1-a71c-36d09a1a1c27","ios":"levelo://app?vid=b52206bc-c6e8-43d1-a71c-36d09a1a1c27"},"vehicle_type_id":"4","last_reported":1752250419,"current_range_meters":8400,"station_id":"cki0cbj6b192h4jlfktg","pricing_plan_id":"cebpf4jnsgd1na2vs0mg"},{"bike_id":"a4115d46-cc8a-4d81-b368-50b7b672baf6","system_id":"levelo_inurba_marseille","lat":43.284231,"lon":5.349917,"is_reserved":false,"is_disabled":false,"rental_uris":{"android":"levelo://app?vid=a4115d46-cc8a-4d81-b368-50b7b672baf6","ios":"levelo://app?vid=a4115d46-cc8a-4d81-b368-50b7b672baf6"},"vehicle_type_id":"4","last_reported":1752250419,"current_range_meters":8400,"station_id":"ce4bhbh2rcd13ifvqepg","pricing_plan_id":"cebpf4jnsgd1na2vs0mg"},{"bike_id":"b8002c5c-d636-429a-85b9-b5fb7f267226","system_id":"levelo_inurba_marseille","lat":43.31329,"lon":5.39694,"is_reserved":false,"is_disabled":false,"rental_uris":{"android":"levelo://app?vid=b8002c5c-d636-429a-85b9-b5fb7f267226","ios":"levelo://app?vid=b8002c5c-d636-429a-85b9-b5fb7f267226"},"vehicle_type_id":"4","last_reported":1752250419,"current_range_meters":8400,"station_id":"ce4bgvp2rcd13ifvqcu0","pricing_plan_id":"cebpf4jnsgd1na2vs0mg"},{"bike_id":"ec99a870-3b70-4d9c-bfa4-3652e234226e","system_id":"levelo_inurba_marseille","lat":43.30318,"lon":5.40435,"is_reserved":false,"is_disabled":false,"rental_uris":{"android":"levelo://app?vid=ec99a870-3b70-4d9c-bfa4-3652e234226e","ios":"levelo://app?vid=ec99a870-3b70-4d9c-bfa4-3652e234226e"},"vehicle_type_id":"4","last_reported":1752250419,"current_range_meters":8800,"station_id":"ce4bh012rcd13ifvqd10","pricing_plan_id":"cebpf4jnsgd1na2vs0mg"},{"bike_id":"fed9a889-4904-4b4f-b2f2-59ff2ffb6dd1","system_id":"levelo_inurba_marseille","lat":43.30807,"lon":5.43523,"is_reserved":false,"is_disabled":false,"rental_uris":{"android":"levelo://app?vid=fed9a889-4904-4b4f-b2f2-59ff2ffb6dd1","ios":"levelo://app?vid=fed9a889-4904-4b4f-b2f2-59ff2ffb6dd1"},"vehicle_type_id":"4","last_reported":1752250419,"current_range_meters":8800,"station_id":"ce4bhph2rcd13ifvqheg","pricing_plan_id":"cebpf4jnsgd1na2vs0mg"},{"bike_id":"5f4b1a1d-3473-46aa-ac6a-ec10709d1ed7","system_id":"levelo_inurba_marseille","lat":43.29527,"lon":5.37505,"is_reserved":false,"is_disabled":false,"rental_uris":{"android":"levelo://app?vid=5f4b1a1d-3473-46aa-ac6a-ec10709d1ed7","ios":"levelo://app?vid=5f4b1a1d-3473-46aa-ac6a-ec10709d1ed7"},"vehicle_type_id":"4","last_reported":1752250419,"current_range_meters":8800,"station_id":"ce4bgkp2rcd13ifvqbmg","pricing_plan_id":"cebpf4jnsgd1na2vs0mg"},{"bike_id":"c3cdcd89-5b7c-4511-b9d1-a8e30b665b73","system_id":"levelo_inurba_marseille","lat":43.29918,"lon":5.37478,"is_reserved":false,"is_disabled":false,"rental_uris":{"android":"levelo://app?vid=c3cdcd89-5b7c-4511-b9d1-a8e30b665b73","ios":"levelo://app?vid=c3cdcd89-5b7c-4511-b9d1-a8e30b665b73"},"vehicle_type_id":"4","last_reported":1752250419,"current_range_meters":8800,"station_id":"ce4bgjh2rcd13ifvqbg0","pricing_plan_id":"cebpf4jnsgd1na2vs0mg"},{"bike_id":"efd2206e-a1ee-42fb-98bf-07155893af7f","system_id":"levelo_inurba_marseille","lat":43.28418,"lon":5.34974,"is_reserved":false,"is_disabled":false,"rental_uris":{"android":"levelo://app?vid=efd2206e-a1ee-42fb-98bf-07155893af7f","ios":"levelo://app?vid=efd2206e-a1ee-42fb-98bf-07155893af7f"},"vehicle_type_id":"4","last_reported":1752250419,"current_range_meters":8800,"station_id":"ce4bhbh2rcd13ifvqepg","pricing_plan_id":"cebpf4jnsgd1na2vs0mg"},{"bike_id":"d53af9cd-400b-4a06-8e4f-0393caca967d","system_id":"levelo_inurba_marseille","lat":43.28617,"lon":5.35097,"is_reserved":false,"is_disabled":false,"rental_uris":{"android":"levelo://app?vid=d53af9cd-400b-4a06-8e4f-0393caca967d","ios":"levelo://app?vid=d53af9cd-400b-4a06-8e4f-0393caca967d"},"vehicle_type_id":"4","last_reported":1752250419,"current_range_meters":9200,"station_id":"ce4bhch2rcd13ifvqeug","pricing_plan_id":"cebpf4jnsgd1na2vs0mg"},{"bike_id":"bca7ab81-2b1a-454b-9ff9-16c3b83c7506","system_id":"levelo_inurba_marseille","lat":43.305359,"lon":5.372728,"is_reserved":false,"is_disabled":false,"rental_uris":{"android":"levelo://app?vid=bca7ab81-2b1a-454b-9ff9-16c3b83c7506","ios":"levelo://app?vid=bca7ab81-2b1a-454b-9ff9-16c3b83c7506"},"vehicle_type_id":"4","last_reported":1752250419,"current_range_meters":9200,"station_id":"","pricing_plan_id":"cebpf4jnsgd1na2vs0mg"},{"bike_id":"29e4ead4-8581-4351-a23c-7003e1d89e30","system_id":"levelo_inurba_marseille","lat":43.29198,"lon":5.35794,"is_reserved":false,"is_disabled":false,"rental_uris":{"android":"levelo://app?vid=29e4ead4-8581-4351-a23c-7003e1d89e30","ios":"levelo://app?vid=29e4ead4-8581-4351-a23c-7003e1d89e30"},"vehicle_type_id":"4","last_reported":1752250419,"current_range_meters":9200,"station_id":"ce4bhb12rcd13ifvqel0","pricing_plan_id":"cebpf4jnsgd1na2vs0mg"},{"bike_id":"ea7f713a-f8eb-4f16-8168-36d2161084e8","system_id":"levelo_inurba_marseille","lat":43.27855,"lon":5.39467,"is_reserved":false,"is_disabled":false,"rental_uris":{"android":"levelo://app?vid=ea7f713a-f8eb-4f16-8168-36d2161084e8","ios":"levelo://app?vid=ea7f713a-f8eb-4f16-8168-36d2161084e8"},"vehicle_type_id":"4","last_reported":1752250419,"current_range_meters":9200,"station_id":"","pricing_plan_id":"cebpf4jnsgd1na2vs0mg"},{"bike_id":"5c28e05b-c8c0-4c91-aba8-2346456d9673","system_id":"levelo_inurba_marseille","lat":43.33037,"lon":5.39041,"is_reserved":false,"is_disabled":false,"rental_uris":{"android":"levelo://app?vid=5c28e05b-c8c0-4c91-aba8-2346456d9673","ios":"levelo://app?vid=5c28e05b-c8c0-4c91-aba8-2346456d9673"},"vehicle_type_id":"4","last_reported":1752250419,"current_range_meters":9200,"station_id":"ce4bhr92rcd13ifvqhrg","pricing_plan_id":"cebpf4jnsgd1na2vs0mg"},{"bike_id":"666a5450-b8fc-4bd0-874e-05e6c45f5058","system_id":"levelo_inurba_marseille","lat":43.29884,"lon":5.38895,"is_reserved":false,"is_disabled":false,"rental_uris":{"android":"levelo://app?vid=666a5450-b8fc-4bd0-874e-05e6c45f5058","ios":"levelo://app?vid=666a5450-b8fc-4bd0-874e-05e6c45f5058"},"vehicle_type_id":"4","last_reported":1752250419,"current_range_meters":9200,"station_id":"ce4bh392rcd13ifvqdl0","pricing_plan_id":"cebpf4jnsgd1na2vs0mg"},{"bike_id":"e7d1e5d8-29f7-437c-a906-7df9a7ad8f55","system_id":"levelo_inurba_marseille","lat":43.2919,"lon":5.35807,"is_reserved":false,"is_disabled":false,"rental_uris":{"android":"levelo://app?vid=e7d1e5d8-29f7-437c-a906-7df9a7ad8f55","ios":"levelo://app?vid=e7d1e5d8-29f7-437c-a906-7df9a7ad8f55"},"vehicle_type_id":"4","last_reported":1752250419,"current_range_meters":9200,"station_id":"ce4bhb12rcd13ifvqel0","pricing_plan_id":"cebpf4jnsgd1na2vs0mg"},{"bike_id":"d1cc7920-4bc9-411f-8a97-0214f2815dc1","system_id":"levelo_inurba_marseille","lat":43.29187,"lon":5.35781,"is_reserved":false,"is_disabled":false,"rental_uris":{"android":"levelo://app?vid=d1cc7920-4bc9-411f-8a97-0214f2815dc1","ios":"levelo://app?vid=d1cc7920-4bc9-411f-8a97-0214f2815dc1"},"vehicle_type_id":"4","last_reported":1752250419,"current_range_meters":9600,"station_id":"ce4bhb12rcd13ifvqel0","pricing_plan_id":"cebpf4jnsgd1na2vs0mg"},{"bike_id":"e7c1bb07-8c99-4a17-b70a-6ac8ec8d70be","system_id":"levelo_inurba_marseille","lat":43.317943,"lon":5.43674,"is_reserved":false,"is_disabled":false,"rental_uris":{"android":"levelo://app?vid=e7c1bb07-8c99-4a17-b70a-6ac8ec8d70be","ios":"levelo://app?vid=e7c1bb07-8c99-4a17-b70a-6ac8ec8d70be"},"vehicle_type_id":"4","last_reported":1752250419,"current_range_meters":9600,"station_id":"","pricing_plan_id":"cebpf4jnsgd1na2vs0mg"},{"bike_id":"4e2581fa-2fb7-4e18-a997-b8ff7b6be5b4","system_id":"levelo_inurba_marseille","lat":43.29058,"lon":5.35934,"is_reserved":false,"is_disabled":false,"rental_uris":{"android":"levelo://app?vid=4e2581fa-2fb7-4e18-a997-b8ff7b6be5b4","ios":"levelo://app?vid=4e2581fa-2fb7-4e18-a997-b8ff7b6be5b4"},"vehicle_type_id":"4","last_reported":1752250419,"current_range_meters":9600,"station_id":"ce4bha92rcd13ifvqeg0","pricing_plan_id":"cebpf4jnsgd1na2vs0mg"},{"bike_id":"3fb3089d-0164-4050-a3e0-858d42f06d84","system_id":"levelo_inurba_marseille","lat":43.30207,"lon":5.39467,"is_reserved":false,"is_disabled":false,"rental_uris":{"android":"levelo://app?vid=3fb3089d-0164-4050-a3e0-858d42f06d84","ios":"levelo://app?vid=3fb3089d-0164-4050-a3e0-858d42f06d84"},"vehicle_type_id":"4","last_reported":1752250419,"current_range_meters":9600,"station_id":"ce4bh0p2rcd13ifvqd70","pricing_plan_id":"cebpf4jnsgd1na2vs0mg"},{"bike_id":"491ce908-8848-4fd2-8a53-0877f38d5428","system_id":"levelo_inurba_marseille","lat":43.3078,"lon":5.37655,"is_reserved":false,"is_disabled":false,"rental_uris":{"android":"levelo://app?vid=491ce908-8848-4fd2-8a53-0877f38d5428","ios":"levelo://app?vid=491ce908-8848-4fd2-8a53-0877f38d5428"},"vehicle_type_id":"4","last_reported":1752250419,"current_range_meters":9600,"station_id":"ce4bgv92rcd13ifvqcq0","pricing_plan_id":"cebpf4jnsgd1na2vs0mg"},{"bike_id":"9b71203b-d9db-4c40-8c66-21b55018789c","system_id":"levelo_inurba_marseille","lat":43.28412,"lon":5.34995,"is_reserved":false,"is_disabled":false,"rental_uris":{"android":"levelo://app?vid=9b71203b-d9db-4c40-8c66-21b55018789c","ios":"levelo://app?vid=9b71203b-d9db-4c40-8c66-21b55018789c"},"vehicle_type_id":"4","last_reported":1752250419,"current_range_meters":9600,"station_id":"ce4bhbh2rcd13ifvqepg","pricing_plan_id":"cebpf4jnsgd1na2vs0mg"},{"bike_id":"01214450-de41-4afc-888e-2ffe58aef0aa","system_id":"levelo_inurba_marseille","lat":43.28275,"lon":5.35067,"is_reserved":false,"is_disabled":false,"rental_uris":{"android":"levelo://app?vid=01214450-de41-4afc-888e-2ffe58aef0aa","ios":"levelo://app?vid=01214450-de41-4afc-888e-2ffe58aef0aa"},"vehicle_type_id":"4","last_reported":1752250419,"current_range_meters":10000,"station_id":"ce4bhbp2rcd13ifvqerg","pricing_plan_id":"cebpf4jnsgd1na2vs0mg"},{"bike_id":"637608b4-420c-4df0-85f3-23d3c26e2027","system_id":"levelo_inurba_marseille","lat":43.31493,"lon":5.37312,"is_reserved":false,"is_disabled":false,"rental_uris":{"android":"levelo://app?vid=637608b4-420c-4df0-85f3-23d3c26e2027","ios":"levelo://app?vid=637608b4-420c-4df0-85f3-23d3c26e2027"},"vehicle_type_id":"4","last_reported":1752250419,"current_range_meters":10000,"station_id":"ce4bgt12rcd13ifvqcd0","pricing_plan_id":"cebpf4jnsgd1na2vs0mg"},{"bike_id":"c09072bc-83f5-495b-b0f0-a2fbca9da647","system_id":"levelo_inurba_marseille","lat":43.32105,"lon":5.36772,"is_reserved":false,"is_disabled":false,"rental_uris":{"android":"levelo://app?vid=c09072bc-83f5-495b-b0f0-a2fbca9da647","ios":"levelo://app?vid=c09072bc-83f5-495b-b0f0-a2fbca9da647"},"vehicle_type_id":"4","last_reported":1752250419,"current_range_meters":10000,"station_id":"ce4bhrh2rcd13ifvqhug","pricing_plan_id":"cebpf4jnsgd1na2vs0mg"},{"bike_id":"4e209b0c-855f-4b51-8120-2faef8673853","system_id":"levelo_inurba_marseille","lat":43.30618,"lon":5.3687,"is_reserved":false,"is_disabled":false,"rental_uris":{"android":"levelo://app?vid=4e209b0c-855f-4b51-8120-2faef8673853","ios":"levelo://app?vid=4e209b0c-855f-4b51-8120-2faef8673853"},"vehicle_type_id":"4","last_reported":1752250419,"current_range_meters":10000,"station_id":"","pricing_plan_id":"cebpf4jnsgd1na2vs0mg"},{"bike_id":"73fe94e8-74f9-41f0-85e9-7d8c52adf2fc","system_id":"levelo_inurba_marseille","lat":43.21269,"lon":5.35278,"is_reserved":false,"is_disabled":false,"rental_uris":{"android":"levelo://app?vid=73fe94e8-74f9-41f0-85e9-7d8c52adf2fc","ios":"levelo://app?vid=73fe94e8-74f9-41f0-85e9-7d8c52adf2fc"},"vehicle_type_id":"4","last_reported":1752250419,"current_range_meters":10800,"station_id":"","pricing_plan_id":"cebpf4jnsgd1na2vs0mg"},{"bike_id":"57c8fcc7-e388-4ec7-94d6-e48d578d0123","system_id":"levelo_inurba_marseille","lat":43.29046,"lon":5.3756,"is_reserved":false,"is_disabled":false,"rental_uris":{"android":"levelo://app?vid=57c8fcc7-e388-4ec7-94d6-e48d578d0123","ios":"levelo://app?vid=57c8fcc7-e388-4ec7-94d6-e48d578d0123"},"vehicle_type_id":"4","last_reported":1752250419,"current_range_meters":10800,"station_id":"ce4bh692rcd13ifvqe90","pricing_plan_id":"cebpf4jnsgd1na2vs0mg"},{"bike_id":"8133864a-86b3-4144-912f-c6d85438ad4b","system_id":"levelo_inurba_marseille","lat":43.29976,"lon":5.37172,"is_reserved":false,"is_disabled":false,"rental_uris":{"android":"levelo://app?vid=8133864a-86b3-4144-912f-c6d85438ad4b","ios":"levelo://app?vid=8133864a-86b3-4144-912f-c6d85438ad4b"},"vehicle_type_id":"4","last_reported":1752250419,"current_range_meters":10800,"station_id":"ce4bgr92rcd13ifvqc7g","pricing_plan_id":"cebpf4jnsgd1na2vs0mg"},{"bike_id":"5a7b57ef-a00d-4d19-853c-d49c119db95f","system_id":"levelo_inurba_marseille","lat":43.24566,"lon":5.3734,"is_reserved":false,"is_disabled":false,"rental_uris":{"android":"levelo://app?vid=5a7b57ef-a00d-4d19-853c-d49c119db95f","ios":"levelo://app?vid=5a7b57ef-a00d-4d19-853c-d49c119db95f"},"vehicle_type_id":"4","last_reported":1752250419,"current_range_meters":11200,"station_id":"","pricing_plan_id":"cebpf4jnsgd1na2vs0mg"},{"bike_id":"8330a68f-2f6e-4337-9657-35d7d87c04ca","system_id":"levelo_inurba_marseille","lat":43.25451,"lon":5.37946,"is_reserved":false,"is_disabled":false,"rental_uris":{"android":"levelo://app?vid=8330a68f-2f6e-4337-9657-35d7d87c04ca","ios":"levelo://app?vid=8330a68f-2f6e-4337-9657-35d7d87c04ca"},"vehicle_type_id":"4","last_reported":1752250419,"current_range_meters":11200,"station_id":"","pricing_plan_id":"cebpf4jnsgd1na2vs0mg"},{"bike_id":"27ea7b1a-36da-4e95-9a8c-21db895d1824","system_id":"levelo_inurba_marseille","lat":43.305389,"lon":5.366836,"is_reserved":false,"is_disabled":false,"rental_uris":{"android":"levelo://app?vid=27ea7b1a-36da-4e95-9a8c-21db895d1824","ios":"levelo://app?vid=27ea7b1a-36da-4e95-9a8c-21db895d1824"},"vehicle_type_id":"4","last_reported":1752250419,"current_range_meters":11200,"station_id":"ce4bgrp2rcd13ifvqc9g","pricing_plan_id":"cebpf4jnsgd1na2vs0mg"},{"bike_id":"3f50b904-8311-4781-93ab-8107c415adad","system_id":"levelo_inurba_marseille","lat":43.276214,"lon":5.361022,"is_reserved":false,"is_disabled":false,"rental_uris":{"android":"levelo://app?vid=3f50b904-8311-4781-93ab-8107c415adad","ios":"levelo://app?vid=3f50b904-8311-4781-93ab-8107c415adad"},"vehicle_type_id":"4","last_reported":1752250419,"current_range_meters":11600,"station_id":"ce4bgj92rcd13ifvqbe0","pricing_plan_id":"cebpf4jnsgd1na2vs0mg"},{"bike_id":"cd476012-a55e-4789-b12d-1993e1bc4d04","system_id":"levelo_inurba_marseille","lat":43.28288,"lon":5.35054,"is_reserved":false,"is_disabled":false,"rental_uris":{"android":"levelo://app?vid=cd476012-a55e-4789-b12d-1993e1bc4d04","ios":"levelo://app?vid=cd476012-a55e-4789-b12d-1993e1bc4d04"},"vehicle_type_id":"4","last_reported":1752250419,"current_range_meters":11600,"station_id":"ce4bhbp2rcd13ifvqerg","pricing_plan_id":"cebpf4jnsgd1na2vs0mg"},{"bike_id":"1797e06b-d9e5-4fb7-be0f-8230d778970b","system_id":"levelo_inurba_marseille","lat":43.292739,"lon":5.368378,"is_reserved":false,"is_disabled":true,"rental_uris":{"android":"levelo://app?vid=1797e06b-d9e5-4fb7-be0f-8230d778970b","ios":"levelo://app?vid=1797e06b-d9e5-4fb7-be0f-8230d778970b"},"vehicle_type_id":"4","last_reported":1752250419,"current_range_meters":11600,"station_id":"ce4bhbp2rcd13ifvqesg","pricing_plan_id":"cebpf4jnsgd1na2vs0mg"},{"bike_id":"db53cbd3-7889-4521-9d3f-f9395456c37a","system_id":"levelo_inurba_marseille","lat":43.29008,"lon":5.35602,"is_reserved":false,"is_disabled":false,"rental_uris":{"android":"levelo://app?vid=db53cbd3-7889-4521-9d3f-f9395456c37a","ios":"levelo://app?vid=db53cbd3-7889-4521-9d3f-f9395456c37a"},"vehicle_type_id":"4","last_reported":1752250419,"current_range_meters":11600,"station_id":"ce4bhb92rcd13ifvqen0","pricing_plan_id":"cebpf4jnsgd1na2vs0mg"},{"bike_id":"11fc7459-2509-43ed-a2ee-38e805eaf6e9","system_id":"levelo_inurba_marseille","lat":43.28102,"lon":5.37834,"is_reserved":false,"is_disabled":false,"rental_uris":{"android":"levelo://app?vid=11fc7459-2509-43ed-a2ee-38e805eaf6e9","ios":"levelo://app?vid=11fc7459-2509-43ed-a2ee-38e805eaf6e9"},"vehicle_type_id":"4","last_reported":1752250419,"current_range_meters":12000,"station_id":"ce4bha12rcd13ifvqee0","pricing_plan_id":"cebpf4jnsgd1na2vs0mg"},{"bike_id":"0003a381-6e4a-426d-9420-28a6410303e0","system_id":"levelo_inurba_marseille","lat":43.2842,"lon":5.37501,"is_reserved":false,"is_disabled":false,"rental_uris":{"android":"levelo://app?vid=0003a381-6e4a-426d-9420-28a6410303e0","ios":"levelo://app?vid=0003a381-6e4a-426d-9420-28a6410303e0"},"vehicle_type_id":"4","last_reported":1752250419,"current_range_meters":11600,"station_id":"ce4bh412rcd13ifvqds0","pricing_plan_id":"cebpf4jnsgd1na2vs0mg"},{"bike_id":"534ed68d-5ceb-43a8-968b-be30f01dfa74","system_id":"levelo_inurba_marseille","lat":43.28226,"lon":5.39065,"is_reserved":false,"is_disabled":true,"rental_uris":{"android":"levelo://app?vid=534ed68d-5ceb-43a8-968b-be30f01dfa74","ios":"levelo://app?vid=534ed68d-5ceb-43a8-968b-be30f01dfa74"},"vehicle_type_id":"4","last_reported":1752250419,"current_range_meters":12000,"station_id":"","pricing_plan_id":"cebpf4jnsgd1na2vs0mg"},{"bike_id":"46072d16-2e00-4f2f-8553-d2634a85d245","system_id":"levelo_inurba_marseille","lat":43.304679,"lon":5.379122,"is_reserved":false,"is_disabled":false,"rental_uris":{"android":"levelo://app?vid=46072d16-2e00-4f2f-8553-d2634a85d245","ios":"levelo://app?vid=46072d16-2e00-4f2f-8553-d2634a85d245"},"vehicle_type_id":"4","last_reported":1752250419,"current_range_meters":12000,"station_id":"ce4bgup2rcd13ifvqcn0","pricing_plan_id":"cebpf4jnsgd1na2vs0mg"},{"bike_id":"04b447c6-2822-4b97-82fd-bd3a349414ea","system_id":"levelo_inurba_marseille","lat":43.309502,"lon":5.3903,"is_reserved":false,"is_disabled":false,"rental_uris":{"android":"levelo://app?vid=04b447c6-2822-4b97-82fd-bd3a349414ea","ios":"levelo://app?vid=04b447c6-2822-4b97-82fd-bd3a349414ea"},"vehicle_type_id":"4","last_reported":1752250419,"current_range_meters":12000,"station_id":"ce4bgup2rcd13ifvqco0","pricing_plan_id":"cebpf4jnsgd1na2vs0mg"},{"bike_id":"8f89e4f3-495a-4317-bd6d-37a19186d65b","system_id":"levelo_inurba_marseille","lat":43.33729,"lon":5.39197,"is_reserved":false,"is_disabled":false,"rental_uris":{"android":"levelo://app?vid=8f89e4f3-495a-4317-bd6d-37a19186d65b","ios":"levelo://app?vid=8f89e4f3-495a-4317-bd6d-37a19186d65b"},"vehicle_type_id":"4","last_reported":1752250419,"current_range_meters":12000,"station_id":"ce4bhr92rcd13ifvqhsg","pricing_plan_id":"cebpf4jnsgd1na2vs0mg"},{"bike_id":"a2f087e4-2174-4792-b543-bc2fc14fed30","system_id":"levelo_inurba_marseille","lat":43.28421,"lon":5.34984,"is_reserved":false,"is_disabled":false,"rental_uris":{"android":"levelo://app?vid=a2f087e4-2174-4792-b543-bc2fc14fed30","ios":"levelo://app?vid=a2f087e4-2174-4792-b543-bc2fc14fed30"},"vehicle_type_id":"4","last_reported":1752250419,"current_range_meters":12000,"station_id":"ce4bhbh2rcd13ifvqepg","pricing_plan_id":"cebpf4jnsgd1na2vs0mg"},{"bike_id":"21cc4a87-2424-44a2-8db3-1f99d6545494","system_id":"levelo_inurba_marseille","lat":43.217492,"lon":5.345976,"is_reserved":false,"is_disabled":false,"rental_uris":{"android":"levelo://app?vid=21cc4a87-2424-44a2-8db3-1f99d6545494","ios":"levelo://app?vid=21cc4a87-2424-44a2-8db3-1f99d6545494"},"vehicle_type_id":"4","last_reported":1752250419,"current_range_meters":12000,"station_id":"st_cvj6r9ubvosntc0bgbag","pricing_plan_id":"cebpf4jnsgd1na2vs0mg"},{"bike_id":"a394805a-aa55-4320-a56c-26c39ca79eef","system_id":"levelo_inurba_marseille","lat":43.28271,"lon":5.35075,"is_reserved":false,"is_disabled":false,"rental_uris":{"android":"levelo://app?vid=a394805a-aa55-4320-a56c-26c39ca79eef","ios":"levelo://app?vid=a394805a-aa55-4320-a56c-26c39ca79eef"},"vehicle_type_id":"4","last_reported":1752250419,"current_range_meters":12000,"station_id":"ce4bhbp2rcd13ifvqerg","pricing_plan_id":"cebpf4jnsgd1na2vs0mg"},{"bike_id":"e7e5071a-8e26-4a64-8b1f-39ccbe72806a","system_id":"levelo_inurba_marseille","lat":43.32338,"lon":5.40623,"is_reserved":false,"is_disabled":false,"rental_uris":{"android":"levelo://app?vid=e7e5071a-8e26-4a64-8b1f-39ccbe72806a","ios":"levelo://app?vid=e7e5071a-8e26-4a64-8b1f-39ccbe72806a"},"vehicle_type_id":"4","last_reported":1752250419,"current_range_meters":12400,"station_id":"ce4bhq92rcd13ifvqhjg","pricing_plan_id":"cebpf4jnsgd1na2vs0mg"},{"bike_id":"6cfc468d-aa94-4096-bdab-f9fb6b3eace0","system_id":"levelo_inurba_marseille","lat":43.28423,"lon":5.34979,"is_reserved":false,"is_disabled":false,"rental_uris":{"android":"levelo://app?vid=6cfc468d-aa94-4096-bdab-f9fb6b3eace0","ios":"levelo://app?vid=6cfc468d-aa94-4096-bdab-f9fb6b3eace0"},"vehicle_type_id":"4","last_reported":1752250419,"current_range_meters":12400,"station_id":"ce4bhbh2rcd13ifvqepg","pricing_plan_id":"cebpf4jnsgd1na2vs0mg"},{"bike_id":"823ef37f-20a8-4c39-8134-3e6a506b1235","system_id":"levelo_inurba_marseille","lat":43.23194,"lon":5.35538,"is_reserved":false,"is_disabled":false,"rental_uris":{"android":"levelo://app?vid=823ef37f-20a8-4c39-8134-3e6a506b1235","ios":"levelo://app?vid=823ef37f-20a8-4c39-8134-3e6a506b1235"},"vehicle_type_id":"4","last_reported":1752250419,"current_range_meters":12400,"station_id":"ce4bhu92rcd13ifvqi70","pricing_plan_id":"cebpf4jnsgd1na2vs0mg"},{"bike_id":"d849a247-c2c0-4619-bac8-f5a6994e0014","system_id":"levelo_inurba_marseille","lat":43.320349,"lon":5.415698,"is_reserved":false,"is_disabled":true,"rental_uris":{"android":"levelo://app?vid=d849a247-c2c0-4619-bac8-f5a6994e0014","ios":"levelo://app?vid=d849a247-c2c0-4619-bac8-f5a6994e0014"},"vehicle_type_id":"4","last_reported":1752250419,"current_range_meters":12400,"station_id":"ce4bhq92rcd13ifvqhkg","pricing_plan_id":"cebpf4jnsgd1na2vs0mg"},{"bike_id":"c74b27ee-3cfc-4e11-b4c4-f418cd2e9569","system_id":"levelo_inurba_marseille","lat":43.241733,"lon":5.364097,"is_reserved":false,"is_disabled":false,"rental_uris":{"android":"levelo://app?vid=c74b27ee-3cfc-4e11-b4c4-f418cd2e9569","ios":"levelo://app?vid=c74b27ee-3cfc-4e11-b4c4-f418cd2e9569"},"vehicle_type_id":"4","last_reported":1752250419,"current_range_meters":12400,"station_id":"cpo36qri1sfpv3e86is0","pricing_plan_id":"cebpf4jnsgd1na2vs0mg"},{"bike_id":"14ea0128-0a5a-4b9a-ae36-0e2a47f2cc86","system_id":"levelo_inurba_marseille","lat":43.23189,"lon":5.39989,"is_reserved":false,"is_disabled":false,"rental_uris":{"android":"levelo://app?vid=14ea0128-0a5a-4b9a-ae36-0e2a47f2cc86","ios":"levelo://app?vid=14ea0128-0a5a-4b9a-ae36-0e2a47f2cc86"},"vehicle_type_id":"4","last_reported":1752250419,"current_range_meters":12800,"station_id":"ce4bhn12rcd13ifvqgqg","pricing_plan_id":"cebpf4jnsgd1na2vs0mg"},{"bike_id":"12fb3d13-29cb-4a04-b7a1-29db5a7fc4e0","system_id":"levelo_inurba_marseille","lat":43.27082,"lon":5.40245,"is_reserved":false,"is_disabled":false,"rental_uris":{"android":"levelo://app?vid=12fb3d13-29cb-4a04-b7a1-29db5a7fc4e0","ios":"levelo://app?vid=12fb3d13-29cb-4a04-b7a1-29db5a7fc4e0"},"vehicle_type_id":"4","last_reported":1752250419,"current_range_meters":12800,"station_id":"ce4bhk92rcd13ifvqgc0","pricing_plan_id":"cebpf4jnsgd1na2vs0mg"},{"bike_id":"2c702aa4-2ac5-4550-b697-5b3cdcd314b3","system_id":"levelo_inurba_marseille","lat":43.32066,"lon":5.41513,"is_reserved":false,"is_disabled":false,"rental_uris":{"android":"levelo://app?vid=2c702aa4-2ac5-4550-b697-5b3cdcd314b3","ios":"levelo://app?vid=2c702aa4-2ac5-4550-b697-5b3cdcd314b3"},"vehicle_type_id":"4","last_reported":1752250419,"current_range_meters":12800,"station_id":"ce4bhq92rcd13ifvqhkg","pricing_plan_id":"cebpf4jnsgd1na2vs0mg"},{"bike_id":"4464c91a-b8cf-48b1-82b6-b9f3398a5c02","system_id":"levelo_inurba_marseille","lat":43.28418,"lon":5.3499,"is_reserved":false,"is_disabled":false,"rental_uris":{"android":"levelo://app?vid=4464c91a-b8cf-48b1-82b6-b9f3398a5c02","ios":"levelo://app?vid=4464c91a-b8cf-48b1-82b6-b9f3398a5c02"},"vehicle_type_id":"4","last_reported":1752250419,"current_range_meters":12800,"station_id":"ce4bhbh2rcd13ifvqepg","pricing_plan_id":"cebpf4jnsgd1na2vs0mg"},{"bike_id":"6e44525d-ed45-445a-a877-081b94eb5813","system_id":"levelo_inurba_marseille","lat":43.303643,"lon":5.418821,"is_reserved":false,"is_disabled":true,"rental_uris":{"android":"levelo://app?vid=6e44525d-ed45-445a-a877-081b94eb5813","ios":"levelo://app?vid=6e44525d-ed45-445a-a877-081b94eb5813"},"vehicle_type_id":"4","last_reported":1752250419,"current_range_meters":13600,"station_id":"ce4bhop2rcd13ifvqh7g","pricing_plan_id":"cebpf4jnsgd1na2vs0mg"},{"bike_id":"e1156ae6-e6c5-4b92-ba1d-99ce20a5f382","system_id":"levelo_inurba_marseille","lat":43.29198,"lon":5.35946,"is_reserved":false,"is_disabled":false,"rental_uris":{"android":"levelo://app?vid=e1156ae6-e6c5-4b92-ba1d-99ce20a5f382","ios":"levelo://app?vid=e1156ae6-e6c5-4b92-ba1d-99ce20a5f382"},"vehicle_type_id":"4","last_reported":1752250419,"current_range_meters":13600,"station_id":"ce4bghh2rcd13ifvqb60","pricing_plan_id":"cebpf4jnsgd1na2vs0mg"},{"bike_id":"d263de9c-115f-417f-977b-8d0ef8cd06ed","system_id":"levelo_inurba_marseille","lat":43.30539,"lon":5.36702,"is_reserved":false,"is_disabled":false,"rental_uris":{"android":"levelo://app?vid=d263de9c-115f-417f-977b-8d0ef8cd06ed","ios":"levelo://app?vid=d263de9c-115f-417f-977b-8d0ef8cd06ed"},"vehicle_type_id":"4","last_reported":1752250419,"current_range_meters":14000,"station_id":"ce4bh312rcd13ifvqdj0","pricing_plan_id":"cebpf4jnsgd1na2vs0mg"},{"bike_id":"4d4b9e28-a4f6-4d45-ac6b-64a63a768bd8","system_id":"levelo_inurba_marseille","lat":43.31503,"lon":5.37418,"is_reserved":false,"is_disabled":false,"rental_uris":{"android":"levelo://app?vid=4d4b9e28-a4f6-4d45-ac6b-64a63a768bd8","ios":"levelo://app?vid=4d4b9e28-a4f6-4d45-ac6b-64a63a768bd8"},"vehicle_type_id":"4","last_reported":1752250419,"current_range_meters":14000,"station_id":"","pricing_plan_id":"cebpf4jnsgd1na2vs0mg"},{"bike_id":"ca06d031-d103-455c-bd1f-0753ee1fb65f","system_id":"levelo_inurba_marseille","lat":43.30803,"lon":5.43518,"is_reserved":false,"is_disabled":false,"rental_uris":{"android":"levelo://app?vid=ca06d031-d103-455c-bd1f-0753ee1fb65f","ios":"levelo://app?vid=ca06d031-d103-455c-bd1f-0753ee1fb65f"},"vehicle_type_id":"4","last_reported":1752250419,"current_range_meters":14000,"station_id":"ce4bhph2rcd13ifvqheg","pricing_plan_id":"cebpf4jnsgd1na2vs0mg"},{"bike_id":"595e9351-a7ce-45de-8995-771f7d9fe86e","system_id":"levelo_inurba_marseille","lat":43.309243,"lon":5.378088,"is_reserved":false,"is_disabled":false,"rental_uris":{"android":"levelo://app?vid=595e9351-a7ce-45de-8995-771f7d9fe86e","ios":"levelo://app?vid=595e9351-a7ce-45de-8995-771f7d9fe86e"},"vehicle_type_id":"4","last_reported":1752250419,"current_range_meters":14000,"station_id":"","pricing_plan_id":"cebpf4jnsgd1na2vs0mg"},{"bike_id":"5423e7d5-07f9-4264-9d42-219884898d7f","system_id":"levelo_inurba_marseille","lat":43.24161,"lon":5.36403,"is_reserved":false,"is_disabled":false,"rental_uris":{"android":"levelo://app?vid=5423e7d5-07f9-4264-9d42-219884898d7f","ios":"levelo://app?vid=5423e7d5-07f9-4264-9d42-219884898d7f"},"vehicle_type_id":"4","last_reported":1752250419,"current_range_meters":14400,"station_id":"cpo36qri1sfpv3e86is0","pricing_plan_id":"cebpf4jnsgd1na2vs0mg"},{"bike_id":"78fe4b1f-f300-4588-9f57-6742f21ea959","system_id":"levelo_inurba_marseille","lat":43.29152,"lon":5.37158,"is_reserved":false,"is_disabled":false,"rental_uris":{"android":"levelo://app?vid=78fe4b1f-f300-4588-9f57-6742f21ea959","ios":"levelo://app?vid=78fe4b1f-f300-4588-9f57-6742f21ea959"},"vehicle_type_id":"4","last_reported":1752250419,"current_range_meters":14000,"station_id":"ce4bha92rcd13ifvqeh0","pricing_plan_id":"cebpf4jnsgd1na2vs0mg"},{"bike_id":"d15ce2f6-b83c-43cb-9c5b-4577368cb417","system_id":"levelo_inurba_marseille","lat":43.295516,"lon":5.446242,"is_reserved":false,"is_disabled":false,"rental_uris":{"android":"levelo://app?vid=d15ce2f6-b83c-43cb-9c5b-4577368cb417","ios":"levelo://app?vid=d15ce2f6-b83c-43cb-9c5b-4577368cb417"},"vehicle_type_id":"4","last_reported":1752250419,"current_range_meters":14000,"station_id":"ce4bh192rcd13ifvqdc0","pricing_plan_id":"cebpf4jnsgd1na2vs0mg"},{"bike_id":"e3a75ee9-c614-467b-8cc2-f813bcef2ab1","system_id":"levelo_inurba_marseille","lat":43.33743,"lon":5.3919,"is_reserved":false,"is_disabled":false,"rental_uris":{"android":"levelo://app?vid=e3a75ee9-c614-467b-8cc2-f813bcef2ab1","ios":"levelo://app?vid=e3a75ee9-c614-467b-8cc2-f813bcef2ab1"},"vehicle_type_id":"4","last_reported":1752250419,"current_range_meters":14000,"station_id":"ce4bhr92rcd13ifvqhsg","pricing_plan_id":"cebpf4jnsgd1na2vs0mg"},{"bike_id":"e8a5236f-2bd4-4bf2-a349-7201da56444b","system_id":"levelo_inurba_marseille","lat":43.30306,"lon":5.39211,"is_reserved":false,"is_disabled":false,"rental_uris":{"android":"levelo://app?vid=e8a5236f-2bd4-4bf2-a349-7201da56444b","ios":"levelo://app?vid=e8a5236f-2bd4-4bf2-a349-7201da56444b"},"vehicle_type_id":"4","last_reported":1752250419,"current_range_meters":14000,"station_id":"ce4bgkh2rcd13ifvqbk0","pricing_plan_id":"cebpf4jnsgd1na2vs0mg"},{"bike_id":"dc745791-e4b0-4e9a-bf26-a83de36e49d9","system_id":"levelo_inurba_marseille","lat":43.286213,"lon":5.350959,"is_reserved":false,"is_disabled":false,"rental_uris":{"android":"levelo://app?vid=dc745791-e4b0-4e9a-bf26-a83de36e49d9","ios":"levelo://app?vid=dc745791-e4b0-4e9a-bf26-a83de36e49d9"},"vehicle_type_id":"4","last_reported":1752250419,"current_range_meters":14000,"station_id":"ce4bhch2rcd13ifvqeug","pricing_plan_id":"cebpf4jnsgd1na2vs0mg"},{"bike_id":"7392143f-a48d-4d17-918a-2d49b0cf2786","system_id":"levelo_inurba_marseille","lat":43.31701,"lon":5.40469,"is_reserved":false,"is_disabled":true,"rental_uris":{"android":"levelo://app?vid=7392143f-a48d-4d17-918a-2d49b0cf2786","ios":"levelo://app?vid=7392143f-a48d-4d17-918a-2d49b0cf2786"},"vehicle_type_id":"4","last_reported":1752250419,"current_range_meters":14000,"station_id":"ce4bh012rcd13ifvqd00","pricing_plan_id":"cebpf4jnsgd1na2vs0mg"},{"bike_id":"532fcb3c-975e-4be3-ab68-3f3d54df12d6","system_id":"levelo_inurba_marseille","lat":43.24812,"lon":5.37453,"is_reserved":false,"is_disabled":false,"rental_uris":{"android":"levelo://app?vid=532fcb3c-975e-4be3-ab68-3f3d54df12d6","ios":"levelo://app?vid=532fcb3c-975e-4be3-ab68-3f3d54df12d6"},"vehicle_type_id":"4","last_reported":1752250419,"current_range_meters":14400,"station_id":"ce4bhgh2rcd13ifvqfb0","pricing_plan_id":"cebpf4jnsgd1na2vs0mg"},{"bike_id":"fd9f5c27-5d58-42e5-badc-a12a0344229e","system_id":"levelo_inurba_marseille","lat":43.28913,"lon":5.36061,"is_reserved":false,"is_disabled":false,"rental_uris":{"android":"levelo://app?vid=fd9f5c27-5d58-42e5-badc-a12a0344229e","ios":"levelo://app?vid=fd9f5c27-5d58-42e5-badc-a12a0344229e"},"vehicle_type_id":"4","last_reported":1752250419,"current_range_meters":14400,"station_id":"","pricing_plan_id":"cebpf4jnsgd1na2vs0mg"},{"bike_id":"ab631446-e57f-4da1-a90a-202241a8f2a7","system_id":"levelo_inurba_marseille","lat":43.292324,"lon":5.360752,"is_reserved":false,"is_disabled":false,"rental_uris":{"android":"levelo://app?vid=ab631446-e57f-4da1-a90a-202241a8f2a7","ios":"levelo://app?vid=ab631446-e57f-4da1-a90a-202241a8f2a7"},"vehicle_type_id":"4","last_reported":1752250419,"current_range_meters":14000,"station_id":"ce4bhbh2rcd13ifvqeqg","pricing_plan_id":"cebpf4jnsgd1na2vs0mg"},{"bike_id":"a2e24276-de15-47f6-8eb7-55a842cd9ee4","system_id":"levelo_inurba_marseille","lat":43.286194,"lon":5.351044,"is_reserved":false,"is_disabled":false,"rental_uris":{"android":"levelo://app?vid=a2e24276-de15-47f6-8eb7-55a842cd9ee4","ios":"levelo://app?vid=a2e24276-de15-47f6-8eb7-55a842cd9ee4"},"vehicle_type_id":"4","last_reported":1752250419,"current_range_meters":14400,"station_id":"ce4bh3p2rcd13ifvqdp0","pricing_plan_id":"cebpf4jnsgd1na2vs0mg"},{"bike_id":"c1d4fa30-fa11-4c1d-8b18-ad6d5767504c","system_id":"levelo_inurba_marseille","lat":43.28418,"lon":5.34985,"is_reserved":false,"is_disabled":false,"rental_uris":{"android":"levelo://app?vid=c1d4fa30-fa11-4c1d-8b18-ad6d5767504c","ios":"levelo://app?vid=c1d4fa30-fa11-4c1d-8b18-ad6d5767504c"},"vehicle_type_id":"4","last_reported":1752250419,"current_range_meters":14400,"station_id":"ce4bhbh2rcd13ifvqepg","pricing_plan_id":"cebpf4jnsgd1na2vs0mg"},{"bike_id":"e51430a7-bb7b-439b-b1a0-93b68b196a97","system_id":"levelo_inurba_marseille","lat":43.2962,"lon":5.37737,"is_reserved":false,"is_disabled":false,"rental_uris":{"android":"levelo://app?vid=e51430a7-bb7b-439b-b1a0-93b68b196a97","ios":"levelo://app?vid=e51430a7-bb7b-439b-b1a0-93b68b196a97"},"vehicle_type_id":"4","last_reported":1752250419,"current_range_meters":14400,"station_id":"ce4bgi92rcd13ifvqb90","pricing_plan_id":"cebpf4jnsgd1na2vs0mg"},{"bike_id":"530fdaa0-3dcf-48bd-ae6d-18f67ca1c283","system_id":"levelo_inurba_marseille","lat":43.297111,"lon":5.366155,"is_reserved":false,"is_disabled":false,"rental_uris":{"android":"levelo://app?vid=530fdaa0-3dcf-48bd-ae6d-18f67ca1c283","ios":"levelo://app?vid=530fdaa0-3dcf-48bd-ae6d-18f67ca1c283"},"vehicle_type_id":"4","last_reported":1752250419,"current_range_meters":14800,"station_id":"","pricing_plan_id":"cebpf4jnsgd1na2vs0mg"},{"bike_id":"6bc40032-b232-4ac9-8acf-49b7085e28e8","system_id":"levelo_inurba_marseille","lat":43.30908,"lon":5.3784,"is_reserved":false,"is_disabled":false,"rental_uris":{"android":"levelo://app?vid=6bc40032-b232-4ac9-8acf-49b7085e28e8","ios":"levelo://app?vid=6bc40032-b232-4ac9-8acf-49b7085e28e8"},"vehicle_type_id":"4","last_reported":1752250419,"current_range_meters":14800,"station_id":"","pricing_plan_id":"cebpf4jnsgd1na2vs0mg"},{"bike_id":"fb5b1ec3-07aa-446c-9f7c-dbabe8a6dfec","system_id":"levelo_inurba_marseille","lat":43.25575,"lon":5.382385,"is_reserved":false,"is_disabled":false,"rental_uris":{"android":"levelo://app?vid=fb5b1ec3-07aa-446c-9f7c-dbabe8a6dfec","ios":"levelo://app?vid=fb5b1ec3-07aa-446c-9f7c-dbabe8a6dfec"},"vehicle_type_id":"4","last_reported":1752250419,"current_range_meters":14800,"station_id":"ce4bhih2rcd13ifvqfs0","pricing_plan_id":"cebpf4jnsgd1na2vs0mg"},{"bike_id":"647a1903-1834-4730-b34e-6397917620f0","system_id":"levelo_inurba_marseille","lat":43.31718,"lon":5.37038,"is_reserved":false,"is_disabled":false,"rental_uris":{"android":"levelo://app?vid=647a1903-1834-4730-b34e-6397917620f0","ios":"levelo://app?vid=647a1903-1834-4730-b34e-6397917620f0"},"vehicle_type_id":"4","last_reported":1752250419,"current_range_meters":14800,"station_id":"","pricing_plan_id":"cebpf4jnsgd1na2vs0mg"},{"bike_id":"f55f43ba-6a58-425f-b3f7-137abf128be1","system_id":"levelo_inurba_marseille","lat":43.30302,"lon":5.3832,"is_reserved":false,"is_disabled":false,"rental_uris":{"android":"levelo://app?vid=f55f43ba-6a58-425f-b3f7-137abf128be1","ios":"levelo://app?vid=f55f43ba-6a58-425f-b3f7-137abf128be1"},"vehicle_type_id":"4","last_reported":1752250419,"current_range_meters":14800,"station_id":"","pricing_plan_id":"cebpf4jnsgd1na2vs0mg"},{"bike_id":"f993caa3-ade3-4fe5-9ef4-5c02d19b5b3b","system_id":"levelo_inurba_marseille","lat":43.28427,"lon":5.34994,"is_reserved":false,"is_disabled":false,"rental_uris":{"android":"levelo://app?vid=f993caa3-ade3-4fe5-9ef4-5c02d19b5b3b","ios":"levelo://app?vid=f993caa3-ade3-4fe5-9ef4-5c02d19b5b3b"},"vehicle_type_id":"4","last_reported":1752250419,"current_range_meters":14800,"station_id":"ce4bhbh2rcd13ifvqepg","pricing_plan_id":"cebpf4jnsgd1na2vs0mg"},{"bike_id":"eda0ea69-6404-43e6-9ede-2655d170d444","system_id":"levelo_inurba_marseille","lat":43.28861,"lon":5.35823,"is_reserved":false,"is_disabled":false,"rental_uris":{"android":"levelo://app?vid=eda0ea69-6404-43e6-9ede-2655d170d444","ios":"levelo://app?vid=eda0ea69-6404-43e6-9ede-2655d170d444"},"vehicle_type_id":"4","last_reported":1752250419,"current_range_meters":14800,"station_id":"ce4bhb12rcd13ifvqem0","pricing_plan_id":"cebpf4jnsgd1na2vs0mg"},{"bike_id":"25b059e8-91a5-40ef-86d6-a4fe4b1bf4ee","system_id":"levelo_inurba_marseille","lat":43.29796,"lon":5.40396,"is_reserved":false,"is_disabled":false,"rental_uris":{"android":"levelo://app?vid=25b059e8-91a5-40ef-86d6-a4fe4b1bf4ee","ios":"levelo://app?vid=25b059e8-91a5-40ef-86d6-a4fe4b1bf4ee"},"vehicle_type_id":"4","last_reported":1752250419,"current_range_meters":15200,"station_id":"ce4bh112rcd13ifvqd90","pricing_plan_id":"cebpf4jnsgd1na2vs0mg"},{"bike_id":"ae1eb4f4-9820-4a58-84cd-ac8ab6ae674d","system_id":"levelo_inurba_marseille","lat":43.24126,"lon":5.37755,"is_reserved":false,"is_disabled":false,"rental_uris":{"android":"levelo://app?vid=ae1eb4f4-9820-4a58-84cd-ac8ab6ae674d","ios":"levelo://app?vid=ae1eb4f4-9820-4a58-84cd-ac8ab6ae674d"},"vehicle_type_id":"4","last_reported":1752250419,"current_range_meters":15200,"station_id":"","pricing_plan_id":"cebpf4jnsgd1na2vs0mg"},{"bike_id":"544ec108-796d-413d-8a7c-7e4ffa805fe3","system_id":"levelo_inurba_marseille","lat":43.273329,"lon":5.392812,"is_reserved":false,"is_disabled":false,"rental_uris":{"android":"levelo://app?vid=544ec108-796d-413d-8a7c-7e4ffa805fe3","ios":"levelo://app?vid=544ec108-796d-413d-8a7c-7e4ffa805fe3"},"vehicle_type_id":"4","last_reported":1752250419,"current_range_meters":15200,"station_id":"","pricing_plan_id":"cebpf4jnsgd1na2vs0mg"},{"bike_id":"8b2e304f-bdfc-4c65-9cae-9c8089cc9da6","system_id":"levelo_inurba_marseille","lat":43.28424,"lon":5.34991,"is_reserved":false,"is_disabled":false,"rental_uris":{"android":"levelo://app?vid=8b2e304f-bdfc-4c65-9cae-9c8089cc9da6","ios":"levelo://app?vid=8b2e304f-bdfc-4c65-9cae-9c8089cc9da6"},"vehicle_type_id":"4","last_reported":1752250419,"current_range_meters":16000,"station_id":"ce4bhbh2rcd13ifvqepg","pricing_plan_id":"cebpf4jnsgd1na2vs0mg"},{"bike_id":"e8e03632-b9d1-480f-a4da-da482a543464","system_id":"levelo_inurba_marseille","lat":43.2904,"lon":5.37557,"is_reserved":false,"is_disabled":true,"rental_uris":{"android":"levelo://app?vid=e8e03632-b9d1-480f-a4da-da482a543464","ios":"levelo://app?vid=e8e03632-b9d1-480f-a4da-da482a543464"},"vehicle_type_id":"4","last_reported":1752250419,"current_range_meters":16000,"station_id":"ce4bh692rcd13ifvqe90","pricing_plan_id":"cebpf4jnsgd1na2vs0mg"},{"bike_id":"8929c1bf-fd4d-44e4-aa66-b3eb6538c998","system_id":"levelo_inurba_marseille","lat":43.2857,"lon":5.4296,"is_reserved":false,"is_disabled":false,"rental_uris":{"android":"levelo://app?vid=8929c1bf-fd4d-44e4-aa66-b3eb6538c998","ios":"levelo://app?vid=8929c1bf-fd4d-44e4-aa66-b3eb6538c998"},"vehicle_type_id":"4","last_reported":1752250419,"current_range_meters":16000,"station_id":"","pricing_plan_id":"cebpf4jnsgd1na2vs0mg"},{"bike_id":"0ba834eb-95a1-479c-8a7b-9dd98d54ea0e","system_id":"levelo_inurba_marseille","lat":43.26799,"lon":5.39403,"is_reserved":false,"is_disabled":false,"rental_uris":{"android":"levelo://app?vid=0ba834eb-95a1-479c-8a7b-9dd98d54ea0e","ios":"levelo://app?vid=0ba834eb-95a1-479c-8a7b-9dd98d54ea0e"},"vehicle_type_id":"4","last_reported":1752250419,"current_range_meters":16000,"station_id":"ce4bhh12rcd13ifvqfg0","pricing_plan_id":"cebpf4jnsgd1na2vs0mg"},{"bike_id":"45bf7bb2-07d1-4864-86fe-8e74a893ff6b","system_id":"levelo_inurba_marseille","lat":43.284158,"lon":5.349996,"is_reserved":false,"is_disabled":false,"rental_uris":{"android":"levelo://app?vid=45bf7bb2-07d1-4864-86fe-8e74a893ff6b","ios":"levelo://app?vid=45bf7bb2-07d1-4864-86fe-8e74a893ff6b"},"vehicle_type_id":"4","last_reported":1752250419,"current_range_meters":16000,"station_id":"ce4bhbh2rcd13ifvqepg","pricing_plan_id":"cebpf4jnsgd1na2vs0mg"},{"bike_id":"a9001741-1745-49c0-afeb-e7f128011c9f","system_id":"levelo_inurba_marseille","lat":43.28427,"lon":5.34975,"is_reserved":false,"is_disabled":false,"rental_uris":{"android":"levelo://app?vid=a9001741-1745-49c0-afeb-e7f128011c9f","ios":"levelo://app?vid=a9001741-1745-49c0-afeb-e7f128011c9f"},"vehicle_type_id":"4","last_reported":1752250419,"current_range_meters":16000,"station_id":"ce4bhbh2rcd13ifvqepg","pricing_plan_id":"cebpf4jnsgd1na2vs0mg"},{"bike_id":"85758837-e8e8-429b-9b62-411361adebf1","system_id":"levelo_inurba_marseille","lat":43.31758,"lon":5.39028,"is_reserved":false,"is_disabled":true,"rental_uris":{"android":"levelo://app?vid=85758837-e8e8-429b-9b62-411361adebf1","ios":"levelo://app?vid=85758837-e8e8-429b-9b62-411361adebf1"},"vehicle_type_id":"4","last_reported":1752250419,"current_range_meters":16000,"station_id":"ce4bhqp2rcd13ifvqhng","pricing_plan_id":"cebpf4jnsgd1na2vs0mg"},{"bike_id":"dafa5a87-b26d-4379-9a6b-1f02133b78a6","system_id":"levelo_inurba_marseille","lat":43.211862,"lon":5.350602,"is_reserved":false,"is_disabled":false,"rental_uris":{"android":"levelo://app?vid=dafa5a87-b26d-4379-9a6b-1f02133b78a6","ios":"levelo://app?vid=dafa5a87-b26d-4379-9a6b-1f02133b78a6"},"vehicle_type_id":"4","last_reported":1752250419,"current_range_meters":16000,"station_id":"st_cvj6sg6p6f1abm77japg","pricing_plan_id":"cebpf4jnsgd1na2vs0mg"},{"bike_id":"0ec8e1f1-51e7-4ed4-a50c-965de3303c1a","system_id":"levelo_inurba_marseille","lat":43.29938,"lon":5.36557,"is_reserved":false,"is_disabled":false,"rental_uris":{"android":"levelo://app?vid=0ec8e1f1-51e7-4ed4-a50c-965de3303c1a","ios":"levelo://app?vid=0ec8e1f1-51e7-4ed4-a50c-965de3303c1a"},"vehicle_type_id":"4","last_reported":1752250419,"current_range_meters":16000,"station_id":"ce4bgm92rcd13ifvqbr0","pricing_plan_id":"cebpf4jnsgd1na2vs0mg"},{"bike_id":"75fdea33-3bed-46d2-8df9-bc1de569a0c7","system_id":"levelo_inurba_marseille","lat":43.248097,"lon":5.37455,"is_reserved":false,"is_disabled":false,"rental_uris":{"android":"levelo://app?vid=75fdea33-3bed-46d2-8df9-bc1de569a0c7","ios":"levelo://app?vid=75fdea33-3bed-46d2-8df9-bc1de569a0c7"},"vehicle_type_id":"4","last_reported":1752250419,"current_range_meters":16000,"station_id":"ce4bhgh2rcd13ifvqfb0","pricing_plan_id":"cebpf4jnsgd1na2vs0mg"},{"bike_id":"7b5cd6ce-df57-4328-854d-cb2d1407ab18","system_id":"levelo_inurba_marseille","lat":43.33033,"lon":5.39036,"is_reserved":false,"is_disabled":false,"rental_uris":{"android":"levelo://app?vid=7b5cd6ce-df57-4328-854d-cb2d1407ab18","ios":"levelo://app?vid=7b5cd6ce-df57-4328-854d-cb2d1407ab18"},"vehicle_type_id":"4","last_reported":1752250419,"current_range_meters":16000,"station_id":"ce4bhr92rcd13ifvqhrg","pricing_plan_id":"cebpf4jnsgd1na2vs0mg"},{"bike_id":"794f069e-448c-40f3-909e-04bdbd44a5d4","system_id":"levelo_inurba_marseille","lat":43.30325,"lon":5.40431,"is_reserved":false,"is_disabled":false,"rental_uris":{"android":"levelo://app?vid=794f069e-448c-40f3-909e-04bdbd44a5d4","ios":"levelo://app?vid=794f069e-448c-40f3-909e-04bdbd44a5d4"},"vehicle_type_id":"4","last_reported":1752250419,"current_range_meters":16400,"station_id":"ce4bh012rcd13ifvqd10","pricing_plan_id":"cebpf4jnsgd1na2vs0mg"},{"bike_id":"e1a523a8-8356-41df-900c-e6bc998dadea","system_id":"levelo_inurba_marseille","lat":43.283508,"lon":5.381051,"is_reserved":false,"is_disabled":false,"rental_uris":{"android":"levelo://app?vid=e1a523a8-8356-41df-900c-e6bc998dadea","ios":"levelo://app?vid=e1a523a8-8356-41df-900c-e6bc998dadea"},"vehicle_type_id":"4","last_reported":1752250419,"current_range_meters":16000,"station_id":"ce4bh412rcd13ifvqdr0","pricing_plan_id":"cebpf4jnsgd1na2vs0mg"},{"bike_id":"d773fb61-c6d2-4e0a-bd21-b88631ef440f","system_id":"levelo_inurba_marseille","lat":43.2884,"lon":5.35847,"is_reserved":false,"is_disabled":false,"rental_uris":{"android":"levelo://app?vid=d773fb61-c6d2-4e0a-bd21-b88631ef440f","ios":"levelo://app?vid=d773fb61-c6d2-4e0a-bd21-b88631ef440f"},"vehicle_type_id":"4","last_reported":1752250419,"current_range_meters":16400,"station_id":"ce4bhb12rcd13ifvqem0","pricing_plan_id":"cebpf4jnsgd1na2vs0mg"},{"bike_id":"0e76e9f5-9471-4a6e-9d8b-75f715f909ed","system_id":"levelo_inurba_marseille","lat":43.30304,"lon":5.39207,"is_reserved":false,"is_disabled":false,"rental_uris":{"android":"levelo://app?vid=0e76e9f5-9471-4a6e-9d8b-75f715f909ed","ios":"levelo://app?vid=0e76e9f5-9471-4a6e-9d8b-75f715f909ed"},"vehicle_type_id":"4","last_reported":1752250419,"current_range_meters":16400,"station_id":"ce4bgkh2rcd13ifvqbk0","pricing_plan_id":"cebpf4jnsgd1na2vs0mg"},{"bike_id":"e9fd0cf8-573b-4177-88a6-f1faf33e8aca","system_id":"levelo_inurba_marseille","lat":43.28999,"lon":5.35664,"is_reserved":false,"is_disabled":true,"rental_uris":{"android":"levelo://app?vid=e9fd0cf8-573b-4177-88a6-f1faf33e8aca","ios":"levelo://app?vid=e9fd0cf8-573b-4177-88a6-f1faf33e8aca"},"vehicle_type_id":"4","last_reported":1752250419,"current_range_meters":16400,"station_id":"ce4bhb92rcd13ifvqen0","pricing_plan_id":"cebpf4jnsgd1na2vs0mg"},{"bike_id":"609d5cf9-eac7-44a9-a2d4-06f48827a0ac","system_id":"levelo_inurba_marseille","lat":43.23176,"lon":5.40039,"is_reserved":false,"is_disabled":false,"rental_uris":{"android":"levelo://app?vid=609d5cf9-eac7-44a9-a2d4-06f48827a0ac","ios":"levelo://app?vid=609d5cf9-eac7-44a9-a2d4-06f48827a0ac"},"vehicle_type_id":"4","last_reported":1752250419,"current_range_meters":16400,"station_id":"ce4bhlp2rcd13ifvqgjg","pricing_plan_id":"cebpf4jnsgd1na2vs0mg"},{"bike_id":"39063a0e-9d95-431f-8b03-fec76abb9026","system_id":"levelo_inurba_marseille","lat":43.26944,"lon":5.40251,"is_reserved":false,"is_disabled":false,"rental_uris":{"android":"levelo://app?vid=39063a0e-9d95-431f-8b03-fec76abb9026","ios":"levelo://app?vid=39063a0e-9d95-431f-8b03-fec76abb9026"},"vehicle_type_id":"4","last_reported":1752250419,"current_range_meters":16400,"station_id":"cjm6bp8fraef2m0cb0m0","pricing_plan_id":"cebpf4jnsgd1na2vs0mg"},{"bike_id":"43b90c82-97e0-4fa7-8b67-2448f07d529e","system_id":"levelo_inurba_marseille","lat":43.21194,"lon":5.3507,"is_reserved":false,"is_disabled":false,"rental_uris":{"android":"levelo://app?vid=43b90c82-97e0-4fa7-8b67-2448f07d529e","ios":"levelo://app?vid=43b90c82-97e0-4fa7-8b67-2448f07d529e"},"vehicle_type_id":"4","last_reported":1752250419,"current_range_meters":16400,"station_id":"","pricing_plan_id":"cebpf4jnsgd1na2vs0mg"},{"bike_id":"a8792cb5-8073-49d0-b551-e9732393f0b0","system_id":"levelo_inurba_marseille","lat":43.28424,"lon":5.34974,"is_reserved":false,"is_disabled":false,"rental_uris":{"android":"levelo://app?vid=a8792cb5-8073-49d0-b551-e9732393f0b0","ios":"levelo://app?vid=a8792cb5-8073-49d0-b551-e9732393f0b0"},"vehicle_type_id":"4","last_reported":1752250419,"current_range_meters":16400,"station_id":"ce4bhbh2rcd13ifvqepg","pricing_plan_id":"cebpf4jnsgd1na2vs0mg"},{"bike_id":"d05e987d-6766-4c70-b7d6-4c4ecf5a7258","system_id":"levelo_inurba_marseille","lat":43.28418,"lon":5.34993,"is_reserved":false,"is_disabled":false,"rental_uris":{"android":"levelo://app?vid=d05e987d-6766-4c70-b7d6-4c4ecf5a7258","ios":"levelo://app?vid=d05e987d-6766-4c70-b7d6-4c4ecf5a7258"},"vehicle_type_id":"4","last_reported":1752250419,"current_range_meters":16400,"station_id":"ce4bhbh2rcd13ifvqepg","pricing_plan_id":"cebpf4jnsgd1na2vs0mg"},{"bike_id":"f51f994c-3d8d-42f0-8137-295062a37402","system_id":"levelo_inurba_marseille","lat":43.24812,"lon":5.37456,"is_reserved":false,"is_disabled":false,"rental_uris":{"android":"levelo://app?vid=f51f994c-3d8d-42f0-8137-295062a37402","ios":"levelo://app?vid=f51f994c-3d8d-42f0-8137-295062a37402"},"vehicle_type_id":"4","last_reported":1752250419,"current_range_meters":16400,"station_id":"ce4bhgh2rcd13ifvqfb0","pricing_plan_id":"cebpf4jnsgd1na2vs0mg"},{"bike_id":"37b84a38-055a-4a6e-a56a-8ff3d0c1b2ec","system_id":"levelo_inurba_marseille","lat":43.21195,"lon":5.35074,"is_reserved":false,"is_disabled":false,"rental_uris":{"android":"levelo://app?vid=37b84a38-055a-4a6e-a56a-8ff3d0c1b2ec","ios":"levelo://app?vid=37b84a38-055a-4a6e-a56a-8ff3d0c1b2ec"},"vehicle_type_id":"4","last_reported":1752250419,"current_range_meters":16400,"station_id":"st_cvj6sg6p6f1abm77japg","pricing_plan_id":"cebpf4jnsgd1na2vs0mg"},{"bike_id":"a9a99f37-93a2-4f5a-8edf-11824feefc4d","system_id":"levelo_inurba_marseille","lat":43.32369,"lon":5.38876,"is_reserved":false,"is_disabled":false,"rental_uris":{"android":"levelo://app?vid=a9a99f37-93a2-4f5a-8edf-11824feefc4d","ios":"levelo://app?vid=a9a99f37-93a2-4f5a-8edf-11824feefc4d"},"vehicle_type_id":"4","last_reported":1752250419,"current_range_meters":16400,"station_id":"ce4bhqp2rcd13ifvqhog","pricing_plan_id":"cebpf4jnsgd1na2vs0mg"},{"bike_id":"dbba3321-20c7-4989-a7b5-ea9ab2c4b3e8","system_id":"levelo_inurba_marseille","lat":43.261935,"lon":5.374477,"is_reserved":false,"is_disabled":false,"rental_uris":{"android":"levelo://app?vid=dbba3321-20c7-4989-a7b5-ea9ab2c4b3e8","ios":"levelo://app?vid=dbba3321-20c7-4989-a7b5-ea9ab2c4b3e8"},"vehicle_type_id":"4","last_reported":1752250419,"current_range_meters":16400,"station_id":"ce4bhgp2rcd13ifvqfc0","pricing_plan_id":"cebpf4jnsgd1na2vs0mg"},{"bike_id":"9b97e59a-2e89-475e-941e-e5d08142cd3b","system_id":"levelo_inurba_marseille","lat":43.241679,"lon":5.363931,"is_reserved":false,"is_disabled":false,"rental_uris":{"android":"levelo://app?vid=9b97e59a-2e89-475e-941e-e5d08142cd3b","ios":"levelo://app?vid=9b97e59a-2e89-475e-941e-e5d08142cd3b"},"vehicle_type_id":"4","last_reported":1752250419,"current_range_meters":16400,"station_id":"cpo36qri1sfpv3e86is0","pricing_plan_id":"cebpf4jnsgd1na2vs0mg"},{"bike_id":"8fccf46e-4269-459a-bd9a-cdd93f6b32bc","system_id":"levelo_inurba_marseille","lat":43.303585,"lon":5.418814,"is_reserved":false,"is_disabled":true,"rental_uris":{"android":"levelo://app?vid=8fccf46e-4269-459a-bd9a-cdd93f6b32bc","ios":"levelo://app?vid=8fccf46e-4269-459a-bd9a-cdd93f6b32bc"},"vehicle_type_id":"4","last_reported":1752250419,"current_range_meters":16800,"station_id":"ce4bhop2rcd13ifvqh7g","pricing_plan_id":"cebpf4jnsgd1na2vs0mg"},{"bike_id":"4ff4766f-13dc-49b2-bced-7f909eef25ac","system_id":"levelo_inurba_marseille","lat":43.27383,"lon":5.36256,"is_reserved":false,"is_disabled":false,"rental_uris":{"android":"levelo://app?vid=4ff4766f-13dc-49b2-bced-7f909eef25ac","ios":"levelo://app?vid=4ff4766f-13dc-49b2-bced-7f909eef25ac"},"vehicle_type_id":"4","last_reported":1752250419,"current_range_meters":16800,"station_id":"ce4bhbh2rcd13ifvqeo0","pricing_plan_id":"cebpf4jnsgd1na2vs0mg"},{"bike_id":"eb6a2290-40e2-4780-bdeb-a149c699215d","system_id":"levelo_inurba_marseille","lat":43.27961,"lon":5.41045,"is_reserved":false,"is_disabled":false,"rental_uris":{"android":"levelo://app?vid=eb6a2290-40e2-4780-bdeb-a149c699215d","ios":"levelo://app?vid=eb6a2290-40e2-4780-bdeb-a149c699215d"},"vehicle_type_id":"4","last_reported":1752250419,"current_range_meters":16800,"station_id":"ce4bhnp2rcd13ifvqh0g","pricing_plan_id":"cebpf4jnsgd1na2vs0mg"},{"bike_id":"9c5d4390-793f-41aa-ba35-d1d82847520b","system_id":"levelo_inurba_marseille","lat":43.30141,"lon":5.38073,"is_reserved":false,"is_disabled":false,"rental_uris":{"android":"levelo://app?vid=9c5d4390-793f-41aa-ba35-d1d82847520b","ios":"levelo://app?vid=9c5d4390-793f-41aa-ba35-d1d82847520b"},"vehicle_type_id":"4","last_reported":1752250419,"current_range_meters":16800,"station_id":"ce4bgjp2rcd13ifvqbh0","pricing_plan_id":"cebpf4jnsgd1na2vs0mg"},{"bike_id":"424d3f00-f683-4ea7-98e9-5b58a7c5dd6f","system_id":"levelo_inurba_marseille","lat":43.28937,"lon":5.36631,"is_reserved":false,"is_disabled":false,"rental_uris":{"android":"levelo://app?vid=424d3f00-f683-4ea7-98e9-5b58a7c5dd6f","ios":"levelo://app?vid=424d3f00-f683-4ea7-98e9-5b58a7c5dd6f"},"vehicle_type_id":"4","last_reported":1752250419,"current_range_meters":17200,"station_id":"ce4bhap2rcd13ifvqek0","pricing_plan_id":"cebpf4jnsgd1na2vs0mg"},{"bike_id":"452e8211-4f44-45d0-814a-3e9e25b8c44e","system_id":"levelo_inurba_marseille","lat":43.211924,"lon":5.350731,"is_reserved":false,"is_disabled":false,"rental_uris":{"android":"levelo://app?vid=452e8211-4f44-45d0-814a-3e9e25b8c44e","ios":"levelo://app?vid=452e8211-4f44-45d0-814a-3e9e25b8c44e"},"vehicle_type_id":"4","last_reported":1752250419,"current_range_meters":17200,"station_id":"st_cvj6sg6p6f1abm77japg","pricing_plan_id":"cebpf4jnsgd1na2vs0mg"},{"bike_id":"e86ba8c9-208d-482c-a826-4c100938472a","system_id":"levelo_inurba_marseille","lat":43.212092,"lon":5.350608,"is_reserved":false,"is_disabled":false,"rental_uris":{"android":"levelo://app?vid=e86ba8c9-208d-482c-a826-4c100938472a","ios":"levelo://app?vid=e86ba8c9-208d-482c-a826-4c100938472a"},"vehicle_type_id":"4","last_reported":1752250419,"current_range_meters":17200,"station_id":"st_cvj6sg6p6f1abm77japg","pricing_plan_id":"cebpf4jnsgd1na2vs0mg"},{"bike_id":"f1872e4d-c216-45ab-a1c9-2657f0ed30ec","system_id":"levelo_inurba_marseille","lat":43.23967,"lon":5.36636,"is_reserved":false,"is_disabled":false,"rental_uris":{"android":"levelo://app?vid=f1872e4d-c216-45ab-a1c9-2657f0ed30ec","ios":"levelo://app?vid=f1872e4d-c216-45ab-a1c9-2657f0ed30ec"},"vehicle_type_id":"4","last_reported":1752250419,"current_range_meters":17600,"station_id":"ce4bhi12rcd13ifvqfp0","pricing_plan_id":"cebpf4jnsgd1na2vs0mg"},{"bike_id":"bd040d10-ff3b-48ef-afa4-f790f68b1336","system_id":"levelo_inurba_marseille","lat":43.29285,"lon":5.40111,"is_reserved":false,"is_disabled":false,"rental_uris":{"android":"levelo://app?vid=bd040d10-ff3b-48ef-afa4-f790f68b1336","ios":"levelo://app?vid=bd040d10-ff3b-48ef-afa4-f790f68b1336"},"vehicle_type_id":"4","last_reported":1752250419,"current_range_meters":17600,"station_id":"ce4bh312rcd13ifvqdk0","pricing_plan_id":"cebpf4jnsgd1na2vs0mg"},{"bike_id":"7096c7b9-242b-4434-b0b5-69a3f9c5a118","system_id":"levelo_inurba_marseille","lat":43.27215,"lon":5.39177,"is_reserved":false,"is_disabled":false,"rental_uris":{"android":"levelo://app?vid=7096c7b9-242b-4434-b0b5-69a3f9c5a118","ios":"levelo://app?vid=7096c7b9-242b-4434-b0b5-69a3f9c5a118"},"vehicle_type_id":"4","last_reported":1752250419,"current_range_meters":17600,"station_id":"ce4bhhp2rcd13ifvqfm0","pricing_plan_id":"cebpf4jnsgd1na2vs0mg"},{"bike_id":"5642d129-2ef7-4245-acb5-7739dedcd8ae","system_id":"levelo_inurba_marseille","lat":43.25121,"lon":5.40313,"is_reserved":false,"is_disabled":false,"rental_uris":{"android":"levelo://app?vid=5642d129-2ef7-4245-acb5-7739dedcd8ae","ios":"levelo://app?vid=5642d129-2ef7-4245-acb5-7739dedcd8ae"},"vehicle_type_id":"4","last_reported":1752250419,"current_range_meters":17600,"station_id":"ce4bhlh2rcd13ifvqgig","pricing_plan_id":"cebpf4jnsgd1na2vs0mg"},{"bike_id":"a581eef9-f0fb-4e5d-8be0-84b96bfd2d41","system_id":"levelo_inurba_marseille","lat":43.29388,"lon":5.37875,"is_reserved":false,"is_disabled":true,"rental_uris":{"android":"levelo://app?vid=a581eef9-f0fb-4e5d-8be0-84b96bfd2d41","ios":"levelo://app?vid=a581eef9-f0fb-4e5d-8be0-84b96bfd2d41"},"vehicle_type_id":"4","last_reported":1752250419,"current_range_meters":17600,"station_id":"ce4bgjh2rcd13ifvqbf0","pricing_plan_id":"cebpf4jnsgd1na2vs0mg"},{"bike_id":"1dcc1526-eb58-41f8-9768-c1682dfaf7ba","system_id":"levelo_inurba_marseille","lat":43.31084,"lon":5.42431,"is_reserved":false,"is_disabled":false,"rental_uris":{"android":"levelo://app?vid=1dcc1526-eb58-41f8-9768-c1682dfaf7ba","ios":"levelo://app?vid=1dcc1526-eb58-41f8-9768-c1682dfaf7ba"},"vehicle_type_id":"4","last_reported":1752250419,"current_range_meters":17600,"station_id":"ce4bhp92rcd13ifvqhag","pricing_plan_id":"cebpf4jnsgd1na2vs0mg"},{"bike_id":"598555b4-3749-44cc-8e11-87c397e89037","system_id":"levelo_inurba_marseille","lat":43.24812,"lon":5.37456,"is_reserved":false,"is_disabled":false,"rental_uris":{"android":"levelo://app?vid=598555b4-3749-44cc-8e11-87c397e89037","ios":"levelo://app?vid=598555b4-3749-44cc-8e11-87c397e89037"},"vehicle_type_id":"4","last_reported":1752250419,"current_range_meters":17600,"station_id":"ce4bhgh2rcd13ifvqfb0","pricing_plan_id":"cebpf4jnsgd1na2vs0mg"},{"bike_id":"d0ecab92-bde1-44e9-8efa-40eca2ab5619","system_id":"levelo_inurba_marseille","lat":43.30161,"lon":5.381,"is_reserved":false,"is_disabled":false,"rental_uris":{"android":"levelo://app?vid=d0ecab92-bde1-44e9-8efa-40eca2ab5619","ios":"levelo://app?vid=d0ecab92-bde1-44e9-8efa-40eca2ab5619"},"vehicle_type_id":"4","last_reported":1752250419,"current_range_meters":17600,"station_id":"ce4bgjp2rcd13ifvqbh0","pricing_plan_id":"cebpf4jnsgd1na2vs0mg"},{"bike_id":"99536e18-41ff-46c4-820a-071bf4d82d75","system_id":"levelo_inurba_marseille","lat":43.311763,"lon":5.38722,"is_reserved":false,"is_disabled":false,"rental_uris":{"android":"levelo://app?vid=99536e18-41ff-46c4-820a-071bf4d82d75","ios":"levelo://app?vid=99536e18-41ff-46c4-820a-071bf4d82d75"},"vehicle_type_id":"4","last_reported":1752250419,"current_range_meters":17600,"station_id":"ce4bgv12rcd13ifvqcp0","pricing_plan_id":"cebpf4jnsgd1na2vs0mg"},{"bike_id":"d86f98ac-c15a-4912-a2a6-519270a8e73c","system_id":"levelo_inurba_marseille","lat":43.30141,"lon":5.38087,"is_reserved":false,"is_disabled":false,"rental_uris":{"android":"levelo://app?vid=d86f98ac-c15a-4912-a2a6-519270a8e73c","ios":"levelo://app?vid=d86f98ac-c15a-4912-a2a6-519270a8e73c"},"vehicle_type_id":"4","last_reported":1752250419,"current_range_meters":17600,"station_id":"ce4bgjp2rcd13ifvqbh0","pricing_plan_id":"cebpf4jnsgd1na2vs0mg"},{"bike_id":"51d5fd51-4bbf-4731-a14f-4e0d7a64e126","system_id":"levelo_inurba_marseille","lat":43.24072,"lon":5.37766,"is_reserved":false,"is_disabled":false,"rental_uris":{"android":"levelo://app?vid=51d5fd51-4bbf-4731-a14f-4e0d7a64e126","ios":"levelo://app?vid=51d5fd51-4bbf-4731-a14f-4e0d7a64e126"},"vehicle_type_id":"4","last_reported":1752250419,"current_range_meters":17600,"station_id":"ce4bhnp2rcd13ifvqgvg","pricing_plan_id":"cebpf4jnsgd1na2vs0mg"},{"bike_id":"a81ede20-43a9-47cd-942d-8fb15c54f5f7","system_id":"levelo_inurba_marseille","lat":43.3006,"lon":5.45156,"is_reserved":false,"is_disabled":false,"rental_uris":{"android":"levelo://app?vid=a81ede20-43a9-47cd-942d-8fb15c54f5f7","ios":"levelo://app?vid=a81ede20-43a9-47cd-942d-8fb15c54f5f7"},"vehicle_type_id":"4","last_reported":1752250419,"current_range_meters":18000,"station_id":"","pricing_plan_id":"cebpf4jnsgd1na2vs0mg"},{"bike_id":"76e34813-ea82-4d01-9974-b05e6805c9d6","system_id":"levelo_inurba_marseille","lat":43.26196,"lon":5.37449,"is_reserved":false,"is_disabled":false,"rental_uris":{"android":"levelo://app?vid=76e34813-ea82-4d01-9974-b05e6805c9d6","ios":"levelo://app?vid=76e34813-ea82-4d01-9974-b05e6805c9d6"},"vehicle_type_id":"4","last_reported":1752250419,"current_range_meters":18000,"station_id":"ce4bhgp2rcd13ifvqfc0","pricing_plan_id":"cebpf4jnsgd1na2vs0mg"},{"bike_id":"ee9eed8a-e7a5-4611-b66a-c0b8e4164675","system_id":"levelo_inurba_marseille","lat":43.23962,"lon":5.36634,"is_reserved":false,"is_disabled":false,"rental_uris":{"android":"levelo://app?vid=ee9eed8a-e7a5-4611-b66a-c0b8e4164675","ios":"levelo://app?vid=ee9eed8a-e7a5-4611-b66a-c0b8e4164675"},"vehicle_type_id":"4","last_reported":1752250419,"current_range_meters":18000,"station_id":"ce4bhi12rcd13ifvqfp0","pricing_plan_id":"cebpf4jnsgd1na2vs0mg"},{"bike_id":"61198919-e72c-4fce-bc96-126627987dc0","system_id":"levelo_inurba_marseille","lat":43.29587,"lon":5.37871,"is_reserved":false,"is_disabled":false,"rental_uris":{"android":"levelo://app?vid=61198919-e72c-4fce-bc96-126627987dc0","ios":"levelo://app?vid=61198919-e72c-4fce-bc96-126627987dc0"},"vehicle_type_id":"4","last_reported":1752250419,"current_range_meters":18000,"station_id":"","pricing_plan_id":"cebpf4jnsgd1na2vs0mg"},{"bike_id":"43183e8d-1c4b-4b7b-855e-3ce569881282","system_id":"levelo_inurba_marseille","lat":43.24664,"lon":5.38163,"is_reserved":false,"is_disabled":false,"rental_uris":{"android":"levelo://app?vid=43183e8d-1c4b-4b7b-855e-3ce569881282","ios":"levelo://app?vid=43183e8d-1c4b-4b7b-855e-3ce569881282"},"vehicle_type_id":"4","last_reported":1752250419,"current_range_meters":18000,"station_id":"ce4bhih2rcd13ifvqfr0","pricing_plan_id":"cebpf4jnsgd1na2vs0mg"},{"bike_id":"f272420d-ba4a-4b11-a790-579b5df77b6a","system_id":"levelo_inurba_marseille","lat":43.28614,"lon":5.35094,"is_reserved":false,"is_disabled":false,"rental_uris":{"android":"levelo://app?vid=f272420d-ba4a-4b11-a790-579b5df77b6a","ios":"levelo://app?vid=f272420d-ba4a-4b11-a790-579b5df77b6a"},"vehicle_type_id":"4","last_reported":1752250419,"current_range_meters":18000,"station_id":"ce4bhch2rcd13ifvqeug","pricing_plan_id":"cebpf4jnsgd1na2vs0mg"},{"bike_id":"82e9e42c-3754-4331-9463-dca71047977e","system_id":"levelo_inurba_marseille","lat":43.27211,"lon":5.3918,"is_reserved":false,"is_disabled":false,"rental_uris":{"android":"levelo://app?vid=82e9e42c-3754-4331-9463-dca71047977e","ios":"levelo://app?vid=82e9e42c-3754-4331-9463-dca71047977e"},"vehicle_type_id":"4","last_reported":1752250419,"current_range_meters":18800,"station_id":"ce4bhhp2rcd13ifvqfm0","pricing_plan_id":"cebpf4jnsgd1na2vs0mg"},{"bike_id":"1ff75c56-fea6-4ef5-b335-3250d91bbb39","system_id":"levelo_inurba_marseille","lat":43.29097,"lon":5.38139,"is_reserved":false,"is_disabled":false,"rental_uris":{"android":"levelo://app?vid=1ff75c56-fea6-4ef5-b335-3250d91bbb39","ios":"levelo://app?vid=1ff75c56-fea6-4ef5-b335-3250d91bbb39"},"vehicle_type_id":"4","last_reported":1752250419,"current_range_meters":18800,"station_id":"ce4bh512rcd13ifvqe2g","pricing_plan_id":"cebpf4jnsgd1na2vs0mg"},{"bike_id":"709c9beb-13f1-45e2-bbd1-0f71d60cf8b2","system_id":"levelo_inurba_marseille","lat":43.30938,"lon":5.40149,"is_reserved":false,"is_disabled":true,"rental_uris":{"android":"levelo://app?vid=709c9beb-13f1-45e2-bbd1-0f71d60cf8b2","ios":"levelo://app?vid=709c9beb-13f1-45e2-bbd1-0f71d60cf8b2"},"vehicle_type_id":"4","last_reported":1752250419,"current_range_meters":18800,"station_id":"ce4bgvp2rcd13ifvqct0","pricing_plan_id":"cebpf4jnsgd1na2vs0mg"},{"bike_id":"83f5258f-0b3a-475c-8ad3-5a12a70c8b54","system_id":"levelo_inurba_marseille","lat":43.28431,"lon":5.34982,"is_reserved":false,"is_disabled":false,"rental_uris":{"android":"levelo://app?vid=83f5258f-0b3a-475c-8ad3-5a12a70c8b54","ios":"levelo://app?vid=83f5258f-0b3a-475c-8ad3-5a12a70c8b54"},"vehicle_type_id":"4","last_reported":1752250419,"current_range_meters":18800,"station_id":"ce4bhbh2rcd13ifvqepg","pricing_plan_id":"cebpf4jnsgd1na2vs0mg"},{"bike_id":"9a9993c4-4e2c-4e55-8740-88254a7f7457","system_id":"levelo_inurba_marseille","lat":43.27944,"lon":5.41052,"is_reserved":false,"is_disabled":false,"rental_uris":{"android":"levelo://app?vid=9a9993c4-4e2c-4e55-8740-88254a7f7457","ios":"levelo://app?vid=9a9993c4-4e2c-4e55-8740-88254a7f7457"},"vehicle_type_id":"4","last_reported":1752250419,"current_range_meters":18800,"station_id":"ce4bhnp2rcd13ifvqh0g","pricing_plan_id":"cebpf4jnsgd1na2vs0mg"},{"bike_id":"ad023729-3d33-44a6-99ca-a047715b7f88","system_id":"levelo_inurba_marseille","lat":43.21203,"lon":5.35072,"is_reserved":false,"is_disabled":false,"rental_uris":{"android":"levelo://app?vid=ad023729-3d33-44a6-99ca-a047715b7f88","ios":"levelo://app?vid=ad023729-3d33-44a6-99ca-a047715b7f88"},"vehicle_type_id":"4","last_reported":1752250419,"current_range_meters":18800,"station_id":"st_cvj6sg6p6f1abm77japg","pricing_plan_id":"cebpf4jnsgd1na2vs0mg"},{"bike_id":"d986ab92-05dd-4f8a-9fa1-a9294bba3783","system_id":"levelo_inurba_marseille","lat":43.28612,"lon":5.35095,"is_reserved":false,"is_disabled":false,"rental_uris":{"android":"levelo://app?vid=d986ab92-05dd-4f8a-9fa1-a9294bba3783","ios":"levelo://app?vid=d986ab92-05dd-4f8a-9fa1-a9294bba3783"},"vehicle_type_id":"4","last_reported":1752250419,"current_range_meters":18800,"station_id":"ce4bhch2rcd13ifvqeug","pricing_plan_id":"cebpf4jnsgd1na2vs0mg"},{"bike_id":"0362af2e-7b52-4112-9ff6-24ee2a15dc7b","system_id":"levelo_inurba_marseille","lat":43.30886,"lon":5.39645,"is_reserved":false,"is_disabled":false,"rental_uris":{"android":"levelo://app?vid=0362af2e-7b52-4112-9ff6-24ee2a15dc7b","ios":"levelo://app?vid=0362af2e-7b52-4112-9ff6-24ee2a15dc7b"},"vehicle_type_id":"4","last_reported":1752250419,"current_range_meters":19200,"station_id":"ce4bh012rcd13ifvqcv0","pricing_plan_id":"cebpf4jnsgd1na2vs0mg"},{"bike_id":"d912eff3-87db-4caa-93e1-57ec05077a56","system_id":"levelo_inurba_marseille","lat":43.28737,"lon":5.36087,"is_reserved":false,"is_disabled":false,"rental_uris":{"android":"levelo://app?vid=d912eff3-87db-4caa-93e1-57ec05077a56","ios":"levelo://app?vid=d912eff3-87db-4caa-93e1-57ec05077a56"},"vehicle_type_id":"4","last_reported":1752250419,"current_range_meters":19200,"station_id":"cki0cbj6b192h4jlfktg","pricing_plan_id":"cebpf4jnsgd1na2vs0mg"},{"bike_id":"00433137-46e6-4f59-a816-26a944e59086","system_id":"levelo_inurba_marseille","lat":43.2738,"lon":5.36252,"is_reserved":false,"is_disabled":false,"rental_uris":{"android":"levelo://app?vid=00433137-46e6-4f59-a816-26a944e59086","ios":"levelo://app?vid=00433137-46e6-4f59-a816-26a944e59086"},"vehicle_type_id":"4","last_reported":1752250419,"current_range_meters":19200,"station_id":"ce4bhbh2rcd13ifvqeo0","pricing_plan_id":"cebpf4jnsgd1na2vs0mg"},{"bike_id":"db2690f4-eb5c-4bb7-a073-68e2f29c4ad8","system_id":"levelo_inurba_marseille","lat":43.24837,"lon":5.37434,"is_reserved":false,"is_disabled":false,"rental_uris":{"android":"levelo://app?vid=db2690f4-eb5c-4bb7-a073-68e2f29c4ad8","ios":"levelo://app?vid=db2690f4-eb5c-4bb7-a073-68e2f29c4ad8"},"vehicle_type_id":"4","last_reported":1752250419,"current_range_meters":19200,"station_id":"","pricing_plan_id":"cebpf4jnsgd1na2vs0mg"},{"bike_id":"622137d1-2ee6-423d-8781-1a16c9ec8b4f","system_id":"levelo_inurba_marseille","lat":43.26182,"lon":5.37448,"is_reserved":false,"is_disabled":false,"rental_uris":{"android":"levelo://app?vid=622137d1-2ee6-423d-8781-1a16c9ec8b4f","ios":"levelo://app?vid=622137d1-2ee6-423d-8781-1a16c9ec8b4f"},"vehicle_type_id":"4","last_reported":1752250419,"current_range_meters":19200,"station_id":"ce4bhgp2rcd13ifvqfc0","pricing_plan_id":"cebpf4jnsgd1na2vs0mg"},{"bike_id":"7a28a27e-9bc6-476d-931c-45d56f400e0f","system_id":"levelo_inurba_marseille","lat":43.312697,"lon":5.401766,"is_reserved":false,"is_disabled":false,"rental_uris":{"android":"levelo://app?vid=7a28a27e-9bc6-476d-931c-45d56f400e0f","ios":"levelo://app?vid=7a28a27e-9bc6-476d-931c-45d56f400e0f"},"vehicle_type_id":"4","last_reported":1752250419,"current_range_meters":19200,"station_id":"ce4bh092rcd13ifvqd30","pricing_plan_id":"cebpf4jnsgd1na2vs0mg"},{"bike_id":"12003d71-dee2-47e2-bd21-621939ad35bb","system_id":"levelo_inurba_marseille","lat":43.28666,"lon":5.363577,"is_reserved":false,"is_disabled":false,"rental_uris":{"android":"levelo://app?vid=12003d71-dee2-47e2-bd21-621939ad35bb","ios":"levelo://app?vid=12003d71-dee2-47e2-bd21-621939ad35bb"},"vehicle_type_id":"4","last_reported":1752250419,"current_range_meters":19200,"station_id":"ce4bhah2rcd13ifvqej0","pricing_plan_id":"cebpf4jnsgd1na2vs0mg"},{"bike_id":"b61ebea1-adee-45b3-b357-d987af367b70","system_id":"levelo_inurba_marseille","lat":43.28271,"lon":5.35062,"is_reserved":false,"is_disabled":false,"rental_uris":{"android":"levelo://app?vid=b61ebea1-adee-45b3-b357-d987af367b70","ios":"levelo://app?vid=b61ebea1-adee-45b3-b357-d987af367b70"},"vehicle_type_id":"4","last_reported":1752250419,"current_range_meters":19200,"station_id":"ce4bhbp2rcd13ifvqerg","pricing_plan_id":"cebpf4jnsgd1na2vs0mg"},{"bike_id":"91dfbf81-ce01-41a5-a8f9-195cf9549507","system_id":"levelo_inurba_marseille","lat":43.2842,"lon":5.3498,"is_reserved":false,"is_disabled":false,"rental_uris":{"android":"levelo://app?vid=91dfbf81-ce01-41a5-a8f9-195cf9549507","ios":"levelo://app?vid=91dfbf81-ce01-41a5-a8f9-195cf9549507"},"vehicle_type_id":"4","last_reported":1752250419,"current_range_meters":19200,"station_id":"ce4bhbh2rcd13ifvqepg","pricing_plan_id":"cebpf4jnsgd1na2vs0mg"},{"bike_id":"c3ded7b4-e46d-466e-93e3-02cbc768a4e0","system_id":"levelo_inurba_marseille","lat":43.28424,"lon":5.34982,"is_reserved":false,"is_disabled":false,"rental_uris":{"android":"levelo://app?vid=c3ded7b4-e46d-466e-93e3-02cbc768a4e0","ios":"levelo://app?vid=c3ded7b4-e46d-466e-93e3-02cbc768a4e0"},"vehicle_type_id":"4","last_reported":1752250419,"current_range_meters":19200,"station_id":"ce4bhbh2rcd13ifvqepg","pricing_plan_id":"cebpf4jnsgd1na2vs0mg"},{"bike_id":"3e7ec850-b571-461c-9c3e-7c16ccce9d27","system_id":"levelo_inurba_marseille","lat":43.273791,"lon":5.362553,"is_reserved":false,"is_disabled":false,"rental_uris":{"android":"levelo://app?vid=3e7ec850-b571-461c-9c3e-7c16ccce9d27","ios":"levelo://app?vid=3e7ec850-b571-461c-9c3e-7c16ccce9d27"},"vehicle_type_id":"4","last_reported":1752250419,"current_range_meters":19200,"station_id":"ce4bhbh2rcd13ifvqeo0","pricing_plan_id":"cebpf4jnsgd1na2vs0mg"},{"bike_id":"a9995bfc-11b1-4453-8ebc-79b6f8b0436e","system_id":"levelo_inurba_marseille","lat":43.30325,"lon":5.40436,"is_reserved":false,"is_disabled":false,"rental_uris":{"android":"levelo://app?vid=a9995bfc-11b1-4453-8ebc-79b6f8b0436e","ios":"levelo://app?vid=a9995bfc-11b1-4453-8ebc-79b6f8b0436e"},"vehicle_type_id":"4","last_reported":1752250419,"current_range_meters":19200,"station_id":"ce4bh012rcd13ifvqd10","pricing_plan_id":"cebpf4jnsgd1na2vs0mg"},{"bike_id":"93b21af5-1aed-489e-af1f-c09607f01a64","system_id":"levelo_inurba_marseille","lat":43.29266,"lon":5.37627,"is_reserved":false,"is_disabled":false,"rental_uris":{"android":"levelo://app?vid=93b21af5-1aed-489e-af1f-c09607f01a64","ios":"levelo://app?vid=93b21af5-1aed-489e-af1f-c09607f01a64"},"vehicle_type_id":"4","last_reported":1752250419,"current_range_meters":19200,"station_id":"ce4bgi12rcd13ifvqb80","pricing_plan_id":"cebpf4jnsgd1na2vs0mg"},{"bike_id":"ed019ecd-f4ca-470f-953e-821f34892065","system_id":"levelo_inurba_marseille","lat":43.30571,"lon":5.36714,"is_reserved":false,"is_disabled":true,"rental_uris":{"android":"levelo://app?vid=ed019ecd-f4ca-470f-953e-821f34892065","ios":"levelo://app?vid=ed019ecd-f4ca-470f-953e-821f34892065"},"vehicle_type_id":"4","last_reported":1752250419,"current_range_meters":19600,"station_id":"ce4bgrp2rcd13ifvqc9g","pricing_plan_id":"cebpf4jnsgd1na2vs0mg"},{"bike_id":"40330dcb-29a5-4ad3-8d22-d51ce4593d26","system_id":"levelo_inurba_marseille","lat":43.27375,"lon":5.36259,"is_reserved":false,"is_disabled":false,"rental_uris":{"android":"levelo://app?vid=40330dcb-29a5-4ad3-8d22-d51ce4593d26","ios":"levelo://app?vid=40330dcb-29a5-4ad3-8d22-d51ce4593d26"},"vehicle_type_id":"4","last_reported":1752250419,"current_range_meters":19600,"station_id":"ce4bhbh2rcd13ifvqeo0","pricing_plan_id":"cebpf4jnsgd1na2vs0mg"},{"bike_id":"ba2c3a9c-d0e2-421a-aade-5237ad9151ca","system_id":"levelo_inurba_marseille","lat":43.28306,"lon":5.3506,"is_reserved":false,"is_disabled":false,"rental_uris":{"android":"levelo://app?vid=ba2c3a9c-d0e2-421a-aade-5237ad9151ca","ios":"levelo://app?vid=ba2c3a9c-d0e2-421a-aade-5237ad9151ca"},"vehicle_type_id":"4","last_reported":1752250419,"current_range_meters":19600,"station_id":"ce4bhbp2rcd13ifvqerg","pricing_plan_id":"cebpf4jnsgd1na2vs0mg"},{"bike_id":"c6f7dabd-b092-4554-a710-07eb4af96a4c","system_id":"levelo_inurba_marseille","lat":43.21191,"lon":5.35069,"is_reserved":false,"is_disabled":false,"rental_uris":{"android":"levelo://app?vid=c6f7dabd-b092-4554-a710-07eb4af96a4c","ios":"levelo://app?vid=c6f7dabd-b092-4554-a710-07eb4af96a4c"},"vehicle_type_id":"4","last_reported":1752250419,"current_range_meters":19600,"station_id":"st_cvj6sg6p6f1abm77japg","pricing_plan_id":"cebpf4jnsgd1na2vs0mg"},{"bike_id":"919e600e-ebda-4ca0-9126-38ed65a36143","system_id":"levelo_inurba_marseille","lat":43.2118,"lon":5.35074,"is_reserved":false,"is_disabled":false,"rental_uris":{"android":"levelo://app?vid=919e600e-ebda-4ca0-9126-38ed65a36143","ios":"levelo://app?vid=919e600e-ebda-4ca0-9126-38ed65a36143"},"vehicle_type_id":"4","last_reported":1752250419,"current_range_meters":19600,"station_id":"st_cvj6sg6p6f1abm77japg","pricing_plan_id":"cebpf4jnsgd1na2vs0mg"},{"bike_id":"2093d507-9815-48d8-8feb-cb32ba87d199","system_id":"levelo_inurba_marseille","lat":43.321234,"lon":5.367611,"is_reserved":false,"is_disabled":false,"rental_uris":{"android":"levelo://app?vid=2093d507-9815-48d8-8feb-cb32ba87d199","ios":"levelo://app?vid=2093d507-9815-48d8-8feb-cb32ba87d199"},"vehicle_type_id":"4","last_reported":1752250419,"current_range_meters":19600,"station_id":"ce4bhrh2rcd13ifvqhug","pricing_plan_id":"cebpf4jnsgd1na2vs0mg"},{"bike_id":"61311c34-8ad3-46f2-97a6-24b285751e2f","system_id":"levelo_inurba_marseille","lat":43.32354,"lon":5.40634,"is_reserved":false,"is_disabled":false,"rental_uris":{"android":"levelo://app?vid=61311c34-8ad3-46f2-97a6-24b285751e2f","ios":"levelo://app?vid=61311c34-8ad3-46f2-97a6-24b285751e2f"},"vehicle_type_id":"4","last_reported":1752250419,"current_range_meters":20000,"station_id":"ce4bhq92rcd13ifvqhjg","pricing_plan_id":"cebpf4jnsgd1na2vs0mg"},{"bike_id":"00bc0b3b-e317-4a17-a011-a3a9a29d816a","system_id":"levelo_inurba_marseille","lat":43.21199,"lon":5.35069,"is_reserved":false,"is_disabled":false,"rental_uris":{"android":"levelo://app?vid=00bc0b3b-e317-4a17-a011-a3a9a29d816a","ios":"levelo://app?vid=00bc0b3b-e317-4a17-a011-a3a9a29d816a"},"vehicle_type_id":"4","last_reported":1752250419,"current_range_meters":20000,"station_id":"st_cvj6sg6p6f1abm77japg","pricing_plan_id":"cebpf4jnsgd1na2vs0mg"},{"bike_id":"fbf9bf8a-a5e3-4662-9097-5ae1e95d4211","system_id":"levelo_inurba_marseille","lat":43.32056,"lon":5.41546,"is_reserved":false,"is_disabled":false,"rental_uris":{"android":"levelo://app?vid=fbf9bf8a-a5e3-4662-9097-5ae1e95d4211","ios":"levelo://app?vid=fbf9bf8a-a5e3-4662-9097-5ae1e95d4211"},"vehicle_type_id":"4","last_reported":1752250419,"current_range_meters":20000,"station_id":"ce4bhq92rcd13ifvqhkg","pricing_plan_id":"cebpf4jnsgd1na2vs0mg"},{"bike_id":"51890362-46b0-4ee7-9f02-afbf036d064e","system_id":"levelo_inurba_marseille","lat":43.21184,"lon":5.35073,"is_reserved":false,"is_disabled":false,"rental_uris":{"android":"levelo://app?vid=51890362-46b0-4ee7-9f02-afbf036d064e","ios":"levelo://app?vid=51890362-46b0-4ee7-9f02-afbf036d064e"},"vehicle_type_id":"4","last_reported":1752250419,"current_range_meters":20000,"station_id":"st_cvj6sg6p6f1abm77japg","pricing_plan_id":"cebpf4jnsgd1na2vs0mg"},{"bike_id":"f4731faf-5aeb-4475-9527-468aa96ff5d0","system_id":"levelo_inurba_marseille","lat":43.28419,"lon":5.34977,"is_reserved":false,"is_disabled":false,"rental_uris":{"android":"levelo://app?vid=f4731faf-5aeb-4475-9527-468aa96ff5d0","ios":"levelo://app?vid=f4731faf-5aeb-4475-9527-468aa96ff5d0"},"vehicle_type_id":"4","last_reported":1752250419,"current_range_meters":20000,"station_id":"ce4bhbh2rcd13ifvqepg","pricing_plan_id":"cebpf4jnsgd1na2vs0mg"},{"bike_id":"f7a10566-f342-47d7-92b2-edfa775288b8","system_id":"levelo_inurba_marseille","lat":43.2991,"lon":5.37468,"is_reserved":false,"is_disabled":false,"rental_uris":{"android":"levelo://app?vid=f7a10566-f342-47d7-92b2-edfa775288b8","ios":"levelo://app?vid=f7a10566-f342-47d7-92b2-edfa775288b8"},"vehicle_type_id":"4","last_reported":1752250419,"current_range_meters":20000,"station_id":"ce4bgjh2rcd13ifvqbg0","pricing_plan_id":"cebpf4jnsgd1na2vs0mg"},{"bike_id":"00f20644-4366-4d33-ac62-f7e3c2b908ae","system_id":"levelo_inurba_marseille","lat":43.28364,"lon":5.38631,"is_reserved":false,"is_disabled":false,"rental_uris":{"android":"levelo://app?vid=00f20644-4366-4d33-ac62-f7e3c2b908ae","ios":"levelo://app?vid=00f20644-4366-4d33-ac62-f7e3c2b908ae"},"vehicle_type_id":"4","last_reported":1752250419,"current_range_meters":20000,"station_id":"ce4bh492rcd13ifvqdvg","pricing_plan_id":"cebpf4jnsgd1na2vs0mg"},{"bike_id":"cb435b23-77ff-461e-8fdc-02bc965bcb7b","system_id":"levelo_inurba_marseille","lat":43.28435,"lon":5.3497,"is_reserved":false,"is_disabled":false,"rental_uris":{"android":"levelo://app?vid=cb435b23-77ff-461e-8fdc-02bc965bcb7b","ios":"levelo://app?vid=cb435b23-77ff-461e-8fdc-02bc965bcb7b"},"vehicle_type_id":"4","last_reported":1752250419,"current_range_meters":20400,"station_id":"ce4bhbh2rcd13ifvqepg","pricing_plan_id":"cebpf4jnsgd1na2vs0mg"},{"bike_id":"1550d62c-ac23-4182-a92a-927896c39981","system_id":"levelo_inurba_marseille","lat":43.33045,"lon":5.38054,"is_reserved":false,"is_disabled":false,"rental_uris":{"android":"levelo://app?vid=1550d62c-ac23-4182-a92a-927896c39981","ios":"levelo://app?vid=1550d62c-ac23-4182-a92a-927896c39981"},"vehicle_type_id":"4","last_reported":1752250419,"current_range_meters":20400,"station_id":"","pricing_plan_id":"cebpf4jnsgd1na2vs0mg"},{"bike_id":"27ec3007-9d73-4b76-85e6-615082133905","system_id":"levelo_inurba_marseille","lat":43.30077,"lon":5.39076,"is_reserved":false,"is_disabled":false,"rental_uris":{"android":"levelo://app?vid=27ec3007-9d73-4b76-85e6-615082133905","ios":"levelo://app?vid=27ec3007-9d73-4b76-85e6-615082133905"},"vehicle_type_id":"4","last_reported":1752250419,"current_range_meters":20400,"station_id":"ce4bh192rcd13ifvqdb0","pricing_plan_id":"cebpf4jnsgd1na2vs0mg"},{"bike_id":"d799b321-3a7d-4201-b46e-ffe2ad124f19","system_id":"levelo_inurba_marseille","lat":43.3288,"lon":5.38386,"is_reserved":false,"is_disabled":false,"rental_uris":{"android":"levelo://app?vid=d799b321-3a7d-4201-b46e-ffe2ad124f19","ios":"levelo://app?vid=d799b321-3a7d-4201-b46e-ffe2ad124f19"},"vehicle_type_id":"4","last_reported":1752250419,"current_range_meters":20400,"station_id":"","pricing_plan_id":"cebpf4jnsgd1na2vs0mg"},{"bike_id":"a0137104-c9f4-434a-a5e3-80725cd5a2b4","system_id":"levelo_inurba_marseille","lat":43.21193,"lon":5.3507,"is_reserved":false,"is_disabled":false,"rental_uris":{"android":"levelo://app?vid=a0137104-c9f4-434a-a5e3-80725cd5a2b4","ios":"levelo://app?vid=a0137104-c9f4-434a-a5e3-80725cd5a2b4"},"vehicle_type_id":"4","last_reported":1752250419,"current_range_meters":20400,"station_id":"st_cvj6sg6p6f1abm77japg","pricing_plan_id":"cebpf4jnsgd1na2vs0mg"},{"bike_id":"f04ca451-cc41-4fe9-ae4e-cf9d7039cfb4","system_id":"levelo_inurba_marseille","lat":43.273754,"lon":5.362535,"is_reserved":false,"is_disabled":false,"rental_uris":{"android":"levelo://app?vid=f04ca451-cc41-4fe9-ae4e-cf9d7039cfb4","ios":"levelo://app?vid=f04ca451-cc41-4fe9-ae4e-cf9d7039cfb4"},"vehicle_type_id":"4","last_reported":1752250419,"current_range_meters":20400,"station_id":"","pricing_plan_id":"cebpf4jnsgd1na2vs0mg"},{"bike_id":"00bb04d2-087b-4ba0-958b-5c83f2321f0a","system_id":"levelo_inurba_marseille","lat":43.2957,"lon":5.42271,"is_reserved":false,"is_disabled":false,"rental_uris":{"android":"levelo://app?vid=00bb04d2-087b-4ba0-958b-5c83f2321f0a","ios":"levelo://app?vid=00bb04d2-087b-4ba0-958b-5c83f2321f0a"},"vehicle_type_id":"4","last_reported":1752250419,"current_range_meters":20800,"station_id":"ce4bhph2rcd13ifvqhdg","pricing_plan_id":"cebpf4jnsgd1na2vs0mg"},{"bike_id":"028c8301-8e99-4f6b-983c-d8b1eaa0aa1d","system_id":"levelo_inurba_marseille","lat":43.30008,"lon":5.38602,"is_reserved":false,"is_disabled":false,"rental_uris":{"android":"levelo://app?vid=028c8301-8e99-4f6b-983c-d8b1eaa0aa1d","ios":"levelo://app?vid=028c8301-8e99-4f6b-983c-d8b1eaa0aa1d"},"vehicle_type_id":"4","last_reported":1752250419,"current_range_meters":20800,"station_id":"","pricing_plan_id":"cebpf4jnsgd1na2vs0mg"},{"bike_id":"ee5338dd-18a1-4b48-a5b0-f8c72f7b1319","system_id":"levelo_inurba_marseille","lat":43.31803,"lon":5.36839,"is_reserved":false,"is_disabled":false,"rental_uris":{"android":"levelo://app?vid=ee5338dd-18a1-4b48-a5b0-f8c72f7b1319","ios":"levelo://app?vid=ee5338dd-18a1-4b48-a5b0-f8c72f7b1319"},"vehicle_type_id":"4","last_reported":1752250419,"current_range_meters":20800,"station_id":"","pricing_plan_id":"cebpf4jnsgd1na2vs0mg"},{"bike_id":"674718c1-6c7c-404a-80f7-e49b04c10e3e","system_id":"levelo_inurba_marseille","lat":43.27073,"lon":5.42278,"is_reserved":false,"is_disabled":false,"rental_uris":{"android":"levelo://app?vid=674718c1-6c7c-404a-80f7-e49b04c10e3e","ios":"levelo://app?vid=674718c1-6c7c-404a-80f7-e49b04c10e3e"},"vehicle_type_id":"4","last_reported":1752250419,"current_range_meters":20800,"station_id":"ce4bhk92rcd13ifvqgb0","pricing_plan_id":"cebpf4jnsgd1na2vs0mg"},{"bike_id":"49c39ad1-fc33-4b9e-a9c6-7f72037b9f28","system_id":"levelo_inurba_marseille","lat":43.29531,"lon":5.38546,"is_reserved":false,"is_disabled":false,"rental_uris":{"android":"levelo://app?vid=49c39ad1-fc33-4b9e-a9c6-7f72037b9f28","ios":"levelo://app?vid=49c39ad1-fc33-4b9e-a9c6-7f72037b9f28"},"vehicle_type_id":"4","last_reported":1752250419,"current_range_meters":20400,"station_id":"ce4bgih2rcd13ifvqba0","pricing_plan_id":"cebpf4jnsgd1na2vs0mg"},{"bike_id":"8b37f03f-f226-4bbc-8648-b109da7ba145","system_id":"levelo_inurba_marseille","lat":43.30536,"lon":5.366999,"is_reserved":false,"is_disabled":false,"rental_uris":{"android":"levelo://app?vid=8b37f03f-f226-4bbc-8648-b109da7ba145","ios":"levelo://app?vid=8b37f03f-f226-4bbc-8648-b109da7ba145"},"vehicle_type_id":"4","last_reported":1752250419,"current_range_meters":20800,"station_id":"","pricing_plan_id":"cebpf4jnsgd1na2vs0mg"},{"bike_id":"11eb2f9b-5673-44b7-a29e-0c869db6c0cc","system_id":"levelo_inurba_marseille","lat":43.29193,"lon":5.35791,"is_reserved":false,"is_disabled":false,"rental_uris":{"android":"levelo://app?vid=11eb2f9b-5673-44b7-a29e-0c869db6c0cc","ios":"levelo://app?vid=11eb2f9b-5673-44b7-a29e-0c869db6c0cc"},"vehicle_type_id":"4","last_reported":1752250419,"current_range_meters":20800,"station_id":"ce4bhb12rcd13ifvqel0","pricing_plan_id":"cebpf4jnsgd1na2vs0mg"},{"bike_id":"9d0d85e3-ee19-452d-93c5-fbfc98a09acf","system_id":"levelo_inurba_marseille","lat":43.29506,"lon":5.43849,"is_reserved":false,"is_disabled":false,"rental_uris":{"android":"levelo://app?vid=9d0d85e3-ee19-452d-93c5-fbfc98a09acf","ios":"levelo://app?vid=9d0d85e3-ee19-452d-93c5-fbfc98a09acf"},"vehicle_type_id":"4","last_reported":1752250419,"current_range_meters":20800,"station_id":"","pricing_plan_id":"cebpf4jnsgd1na2vs0mg"},{"bike_id":"03eea793-0480-4a49-ab5e-35410fec1ade","system_id":"levelo_inurba_marseille","lat":43.24808,"lon":5.37453,"is_reserved":false,"is_disabled":false,"rental_uris":{"android":"levelo://app?vid=03eea793-0480-4a49-ab5e-35410fec1ade","ios":"levelo://app?vid=03eea793-0480-4a49-ab5e-35410fec1ade"},"vehicle_type_id":"4","last_reported":1752250419,"current_range_meters":20800,"station_id":"ce4bhgh2rcd13ifvqfb0","pricing_plan_id":"cebpf4jnsgd1na2vs0mg"},{"bike_id":"a46b9dfb-4db3-4551-a2f5-a8c981c35f1f","system_id":"levelo_inurba_marseille","lat":43.28851,"lon":5.39333,"is_reserved":false,"is_disabled":true,"rental_uris":{"android":"levelo://app?vid=a46b9dfb-4db3-4551-a2f5-a8c981c35f1f","ios":"levelo://app?vid=a46b9dfb-4db3-4551-a2f5-a8c981c35f1f"},"vehicle_type_id":"4","last_reported":1752250419,"current_range_meters":21600,"station_id":"ce4bh2p2rcd13ifvqdi0","pricing_plan_id":"cebpf4jnsgd1na2vs0mg"},{"bike_id":"72b39aad-c91e-4545-8fe5-aa395b7d62ba","system_id":"levelo_inurba_marseille","lat":43.319187,"lon":5.37635,"is_reserved":false,"is_disabled":false,"rental_uris":{"android":"levelo://app?vid=72b39aad-c91e-4545-8fe5-aa395b7d62ba","ios":"levelo://app?vid=72b39aad-c91e-4545-8fe5-aa395b7d62ba"},"vehicle_type_id":"4","last_reported":1752250419,"current_range_meters":21600,"station_id":"","pricing_plan_id":"cebpf4jnsgd1na2vs0mg"},