{"last_updated":1735661436,"ttl":60,"version":"2.2","data":{"bikes":[{"bike_id":"36496792-bdb8-4e92-b834-cf36353c100a","system_id":"levelo_inurba_marseille","lat":43.28259,"lon":5.35054,"is_reserved":false,"is_disabled":false,"rental_uris":{"android":"levelo://app?vid=36496792-bdb8-4e92-b834-cf36353c100a","ios":"levelo://app?vid=36496792-bdb8-4e92-b834-cf36353c100a"},"vehicle_type_id":"4","last_reported":1735661436,"current_range_meters":38800,"station_id":"ce4bhbp2rcd13ifvqerg","pricing_plan_id":"cebpf4jnsgd1na2vs0mg"},{"bike_id":"446d3da9-7829-402c-97cb-ca1dad65cd97","system_id":"levelo_inurba_marseille","lat":43.27193,"lon":5.40987,"is_reserved":false,"is_disabled":false,"rental_uris":{"android":"levelo://app?vid=446d3da9-7829-402c-97cb-ca1dad65cd97","ios":"levelo://app?vid=446d3da9-7829-402c-97cb-ca1dad65cd97"},"vehicle_type_id":"4","last_reported":1735661436,"current_range_meters":28800,"station_id":"ce4bhl12rcd13ifvqgf0","pricing_plan_id":"cebpf4jnsgd1na2vs0mg"},{"bike_id":"d6f6a0d7-0862-4dfa-8b56-3551a8327fe3","system_id":"levelo_inurba_marseille","lat":43.26194,"lon":5.37448,"is_reserved":false,"is_disabled":false,"rental_uris":{"android":"levelo://app?vid=d6f6a0d7-0862-4dfa-8b56-3551a8327fe3","ios":"levelo://app?vid=d6f6a0d7-0862-4dfa-8b56-3551a8327fe3"},"vehicle_type_id":"4","last_reported":1735661436,"current_range_meters":17200,"station_id":"ce4bhgp2rcd13ifvqfc0","pricing_plan_id":"cebpf4jnsgd1na2vs0mg"},{"bike_id":"30675ccc-9ef1-40b1-963e-228cee2b4741","system_id":"levelo_inurba_marseille","lat":43.27958,"lon":5.41053,"is_reserved":false,"is_disabled":true,"rental_uris":{"android":"levelo://app?vid=30675ccc-9ef1-40b1-963e-228cee2b4741","ios":"levelo://app?vid=30675ccc-9ef1-40b1-963e-228cee2b4741"},"vehicle_type_id":"4","last_reported":1735661436,"current_range_meters":24400,"station_id":"ce4bhnp2rcd13ifvqh0g","pricing_plan_id":"cebpf4jnsgd1na2vs0mg"},{"bike_id":"3991aac2-ec7f-43c8-801f-23e11845f2d6","system_id":"levelo_inurba_marseille","lat":43.28166,"lon":5.42638,"is_reserved":false,"is_disabled":false,"rental_uris":{"android":"levelo://app?vid=3991aac2-ec7f-43c8-801f-23e11845f2d6","ios":"levelo://app?vid=3991aac2-ec7f-43c8-801f-23e11845f2d6"},"vehicle_type_id":"4","last_reported":1735661436,"current_range_meters":39200,"station_id":"ce4bhnh2rcd13ifvqgug","pricing_plan_id":"cebpf4jnsgd1na2vs0mg"},{"bike_id":"a84c903a-16f0-44ed-becd-c6849674ff70","system_id":"levelo_inurba_marseille","lat":43.22922,"lon":5.35379,"is_reserved":false,"is_disabled":false,"rental_uris":{"android":"levelo://app?vid=a84c903a-16f0-44ed-becd-c6849674ff70","ios":"levelo://app?vid=a84c903a-16f0-44ed-becd-c6849674ff70"},"vehicle_type_id":"4","last_reported":1735661436,"current_range_meters":8400,"station_id":"cpo3532slgdg3j2ikp40","pricing_plan_id":"cebpf4jnsgd1na2vs0mg"},{"bike_id":"bbd28d1f-60dc-4e9e-bdc3-d37c2586f14e","system_id":"levelo_inurba_marseille","lat":43.29574,"lon":5.3752,"is_reserved":false,"is_disabled":false,"rental_uris":{"android":"levelo://app?vid=bbd28d1f-60dc-4e9e-bdc3-d37c2586f14e","ios":"levelo://app?vid=bbd28d1f-60dc-4e9e-bdc3-d37c2586f14e"},"vehicle_type_id":"4","last_reported":1735661436,"current_range_meters":18800,"station_id":"ce4bgh92rcd13ifvqb50","pricing_plan_id":"cebpf4jnsgd1na2vs0mg"},{"bike_id":"76baf647-c566-4bd1-9703-dca549b73f7a","system_id":"levelo_inurba_marseille","lat":43.28373,"lon":5.38592,"is_reserved":false,"is_disabled":false,"rental_uris":{"android":"levelo://app?vid=76baf647-c566-4bd1-9703-dca549b73f7a","ios":"levelo://app?vid=76baf647-c566-4bd1-9703-dca549b73f7a"},"vehicle_type_id":"4","last_reported":1735661436,"current_range_meters":7200,"station_id":"","pricing_plan_id":"cebpf4jnsgd1na2vs0mg"},{"bike_id":"4a606822-e9f0-4a05-b24d-aefbbf534d02","system_id":"levelo_inurba_marseille","lat":43.29021,"lon":5.35901,"is_reserved":false,"is_disabled":false,"rental_uris":{"android":"levelo://app?vid=4a606822-e9f0-4a05-b24d-aefbbf534d02","ios":"levelo://app?vid=4a606822-e9f0-4a05-b24d-aefbbf534d02"},"vehicle_type_id":"4","last_reported":1735661436,"current_range_meters":29600,"station_id":"","pricing_plan_id":"cebpf4jnsgd1na2vs0mg"},{"bike_id":"7b399b3d-aa57-4ef6-b42c-b48ccc46741f","system_id":"levelo_inurba_marseille","lat":43.29733,"lon":5.37683,"is_reserved":false,"is_disabled":false,"rental_uris":{"android":"levelo://app?vid=7b399b3d-aa57-4ef6-b42c-b48ccc46741f","ios":"levelo://app?vid=7b399b3d-aa57-4ef6-b42c-b48ccc46741f"},"vehicle_type_id":"4","last_reported":1735661436,"current_range_meters":38800,"station_id":"ce4bgkh2rcd13ifvqbl0","pricing_plan_id":"cebpf4jnsgd1na2vs0mg"},{"bike_id":"8ad09b60-3a79-4fc1-9f8d-63dc687108f3","system_id":"levelo_inurba_marseille","lat":43.337444,"lon":5.374475,"is_reserved":false,"is_disabled":false,"rental_uris":{"android":"levelo://app?vid=8ad09b60-3a79-4fc1-9f8d-63dc687108f3","ios":"levelo://app?vid=8ad09b60-3a79-4fc1-9f8d-63dc687108f3"},"vehicle_type_id":"4","last_reported":1735661436,"current_range_meters":38800,"station_id":"","pricing_plan_id":"cebpf4jnsgd1na2vs0mg"},{"bike_id":"34746fd6-7d22-4962-bfa1-605bd86ec832","system_id":"levelo_inurba_marseille","lat":43.25506,"lon":5.37657,"is_reserved":false,"is_disabled":false,"rental_uris":{"android":"levelo://app?vid=34746fd6-7d22-4962-bfa1-605bd86ec832","ios":"levelo://app?vid=34746fd6-7d22-4962-bfa1-605bd86ec832"},"vehicle_type_id":"4","last_reported":1735661436,"current_range_meters":38000,"station_id":"ce4bhh12rcd13ifvqff0","pricing_plan_id":"cebpf4jnsgd1na2vs0mg"},{"bike_id":"5430a545-a0f1-45ad-a500-b4193006fdcf","system_id":"levelo_inurba_marseille","lat":43.23194,"lon":5.35549,"is_reserved":false,"is_disabled":false,"rental_uris":{"android":"levelo://app?vid=5430a545-a0f1-45ad-a500-b4193006fdcf","ios":"levelo://app?vid=5430a545-a0f1-45ad-a500-b4193006fdcf"},"vehicle_type_id":"4","last_reported":1735661436,"current_range_meters":29600,"station_id":"ce4bhu92rcd13ifvqi70","pricing_plan_id":"cebpf4jnsgd1na2vs0mg"},{"bike_id":"7faabcd3-c37a-4dc1-a414-3857ecabac55","system_id":"levelo_inurba_marseille","lat":43.25106,"lon":5.40318,"is_reserved":false,"is_disabled":false,"rental_uris":{"android":"levelo://app?vid=7faabcd3-c37a-4dc1-a414-3857ecabac55","ios":"levelo://app?vid=7faabcd3-c37a-4dc1-a414-3857ecabac55"},"vehicle_type_id":"4","last_reported":1735661436,"current_range_meters":27600,"station_id":"ce4bhlh2rcd13ifvqgig","pricing_plan_id":"cebpf4jnsgd1na2vs0mg"},{"bike_id":"ac9edfbd-2c81-4be2-9272-e6762f5e5829","system_id":"levelo_inurba_marseille","lat":43.29636,"lon":5.37714,"is_reserved":false,"is_disabled":false,"rental_uris":{"android":"levelo://app?vid=ac9edfbd-2c81-4be2-9272-e6762f5e5829","ios":"levelo://app?vid=ac9edfbd-2c81-4be2-9272-e6762f5e5829"},"vehicle_type_id":"4","last_reported":1735661436,"current_range_meters":36000,"station_id":"ce4bgi92rcd13ifvqb90","pricing_plan_id":"cebpf4jnsgd1na2vs0mg"},{"bike_id":"68e39612-ffc4-4e9c-a28d-8d678cad2545","system_id":"levelo_inurba_marseille","lat":43.27996,"lon":5.41662,"is_reserved":false,"is_disabled":false,"rental_uris":{"android":"levelo://app?vid=68e39612-ffc4-4e9c-a28d-8d678cad2545","ios":"levelo://app?vid=68e39612-ffc4-4e9c-a28d-8d678cad2545"},"vehicle_type_id":"4","last_reported":1735661436,"current_range_meters":10800,"station_id":"ce4bho12rcd13ifvqh1g","pricing_plan_id":"cebpf4jnsgd1na2vs0mg"},{"bike_id":"a091a520-4695-4ac1-96c7-46ba4741609c","system_id":"levelo_inurba_marseille","lat":43.29258,"lon":5.40905,"is_reserved":false,"is_disabled":false,"rental_uris":{"android":"levelo://app?vid=a091a520-4695-4ac1-96c7-46ba4741609c","ios":"levelo://app?vid=a091a520-4695-4ac1-96c7-46ba4741609c"},"vehicle_type_id":"4","last_reported":1735661436,"current_range_meters":32000,"station_id":"ce4bh192rcd13ifvqdc0","pricing_plan_id":"cebpf4jnsgd1na2vs0mg"},{"bike_id":"3f103e5d-2070-4676-a941-5ba1a2fbf7b6","system_id":"levelo_inurba_marseille","lat":43.30423,"lon":5.39741,"is_reserved":false,"is_disabled":false,"rental_uris":{"android":"levelo://app?vid=3f103e5d-2070-4676-a941-5ba1a2fbf7b6","ios":"levelo://app?vid=3f103e5d-2070-4676-a941-5ba1a2fbf7b6"},"vehicle_type_id":"4","last_reported":1735661436,"current_range_meters":11200,"station_id":"ce4bh092rcd13ifvqd20","pricing_plan_id":"cebpf4jnsgd1na2vs0mg"},{"bike_id":"0e5a5f49-bc78-4b22-94c8-1c303a81b9cf","system_id":"levelo_inurba_marseille","lat":43.29549,"lon":5.37492,"is_reserved":false,"is_disabled":false,"rental_uris":{"android":"levelo://app?vid=0e5a5f49-bc78-4b22-94c8-1c303a81b9cf","ios":"levelo://app?vid=0e5a5f49-bc78-4b22-94c8-1c303a81b9cf"},"vehicle_type_id":"4","last_reported":1735661436,"current_range_meters":32800,"station_id":"ce4bgkp2rcd13ifvqbmg","pricing_plan_id":"cebpf4jnsgd1na2vs0mg"},{"bike_id":"b8a6ca28-4418-40df-b4c2-601df2554b3b","system_id":"levelo_inurba_marseille","lat":43.25488,"lon":5.37659,"is_reserved":false,"is_disabled":false,"rental_uris":{"android":"levelo://app?vid=b8a6ca28-4418-40df-b4c2-601df2554b3b","ios":"levelo://app?vid=b8a6ca28-4418-40df-b4c2-601df2554b3b"},"vehicle_type_id":"4","last_reported":1735661436,"current_range_meters":27600,"station_id":"ce4bhh12rcd13ifvqff0","pricing_plan_id":"cebpf4jnsgd1na2vs0mg"},{"bike_id":"5630e7bd-33dd-46a6-96b7-e6d4c34fd774","system_id":"levelo_inurba_marseille","lat":43.26785,"lon":5.39396,"is_reserved":false,"is_disabled":false,"rental_uris":{"android":"levelo://app?vid=5630e7bd-33dd-46a6-96b7-e6d4c34fd774","ios":"levelo://app?vid=5630e7bd-33dd-46a6-96b7-e6d4c34fd774"},"vehicle_type_id":"4","last_reported":1735661436,"current_range_meters":13600,"station_id":"ce4bhh12rcd13ifvqfg0","pricing_plan_id":"cebpf4jnsgd1na2vs0mg"},{"bike_id":"d08aed72-c4aa-4b14-9e94-1554d28646fc","system_id":"levelo_inurba_marseille","lat":43.2396,"lon":5.36642,"is_reserved":false,"is_disabled":false,"rental_uris":{"android":"levelo://app?vid=d08aed72-c4aa-4b14-9e94-1554d28646fc","ios":"levelo://app?vid=d08aed72-c4aa-4b14-9e94-1554d28646fc"},"vehicle_type_id":"4","last_reported":1735661436,"current_range_meters":39200,"station_id":"ce4bhi12rcd13ifvqfp0","pricing_plan_id":"cebpf4jnsgd1na2vs0mg"},{"bike_id":"1e9e3505-f98d-4ac7-b45c-e821968c5506","system_id":"levelo_inurba_marseille","lat":43.23196,"lon":5.35561,"is_reserved":false,"is_disabled":false,"rental_uris":{"android":"levelo://app?vid=1e9e3505-f98d-4ac7-b45c-e821968c5506","ios":"levelo://app?vid=1e9e3505-f98d-4ac7-b45c-e821968c5506"},"vehicle_type_id":"4","last_reported":1735661436,"current_range_meters":16000,"station_id":"ce4bhu92rcd13ifvqi70","pricing_plan_id":"cebpf4jnsgd1na2vs0mg"},{"bike_id":"2c5b222e-051f-4475-a0cc-e05ff025d149","system_id":"levelo_inurba_marseille","lat":43.30636,"lon":5.40096,"is_reserved":false,"is_disabled":false,"rental_uris":{"android":"levelo://app?vid=2c5b222e-051f-4475-a0cc-e05ff025d149","ios":"levelo://app?vid=2c5b222e-051f-4475-a0cc-e05ff025d149"},"vehicle_type_id":"4","last_reported":1735661436,"current_range_meters":8800,"station_id":"ce4bh112rcd13ifvqda0","pricing_plan_id":"cebpf4jnsgd1na2vs0mg"},{"bike_id":"3e9657d5-35fb-4b62-8cf0-daf55d9b82f1","system_id":"levelo_inurba_marseille","lat":43.25112,"lon":5.40312,"is_reserved":false,"is_disabled":false,"rental_uris":{"android":"levelo://app?vid=3e9657d5-35fb-4b62-8cf0-daf55d9b82f1","ios":"levelo://app?vid=3e9657d5-35fb-4b62-8cf0-daf55d9b82f1"},"vehicle_type_id":"4","last_reported":1735661436,"current_range_meters":8800,"station_id":"ce4bhlh2rcd13ifvqgig","pricing_plan_id":"cebpf4jnsgd1na2vs0mg"},{"bike_id":"37b5c94a-c717-42bf-b960-d5cd6c7e2be3","system_id":"levelo_inurba_marseille","lat":43.295493,"lon":5.422832,"is_reserved":false,"is_disabled":false,"rental_uris":{"android":"levelo://app?vid=37b5c94a-c717-42bf-b960-d5cd6c7e2be3","ios":"levelo://app?vid=37b5c94a-c717-42bf-b960-d5cd6c7e2be3"},"vehicle_type_id":"4","last_reported":1735661436,"current_range_meters":37600,"station_id":"ce4bhph2rcd13ifvqhdg","pricing_plan_id":"cebpf4jnsgd1na2vs0mg"},{"bike_id":"ff49d49a-53c3-499a-b296-89a67f332a8a","system_id":"levelo_inurba_marseille","lat":43.24174,"lon":5.364,"is_reserved":false,"is_disabled":false,"rental_uris":{"android":"levelo://app?vid=ff49d49a-53c3-499a-b296-89a67f332a8a","ios":"levelo://app?vid=ff49d49a-53c3-499a-b296-89a67f332a8a"},"vehicle_type_id":"4","last_reported":1735661436,"current_range_meters":36000,"station_id":"cpo36qri1sfpv3e86is0","pricing_plan_id":"cebpf4jnsgd1na2vs0mg"},{"bike_id":"10e4b9b4-8ec8-49cf-9335-5919fa302eb0","system_id":"levelo_inurba_marseille","lat":43.28671,"lon":5.36351,"is_reserved":false,"is_disabled":false,"rental_uris":{"android":"levelo://app?vid=10e4b9b4-8ec8-49cf-9335-5919fa302eb0","ios":"levelo://app?vid=10e4b9b4-8ec8-49cf-9335-5919fa302eb0"},"vehicle_type_id":"4","last_reported":1735661436,"current_range_meters":32400,"station_id":"ce4bhah2rcd13ifvqej0","pricing_plan_id":"cebpf4jnsgd1na2vs0mg"},{"bike_id":"d841d641-2f56-46e3-be38-87db9829533f","system_id":"levelo_inurba_marseille","lat":43.27811,"lon":5.40707,"is_reserved":false,"is_disabled":false,"rental_uris":{"android":"levelo://app?vid=d841d641-2f56-46e3-be38-87db9829533f","ios":"levelo://app?vid=d841d641-2f56-46e3-be38-87db9829533f"},"vehicle_type_id":"4","last_reported":1735661436,"current_range_meters":26800,"station_id":"ce4bhnh2rcd13ifvqgtg","pricing_plan_id":"cebpf4jnsgd1na2vs0mg"},{"bike_id":"68ce89d7-2c49-47a3-af51-4cee0b21d337","system_id":"levelo_inurba_marseille","lat":43.27949,"lon":5.387,"is_reserved":false,"is_disabled":false,"rental_uris":{"android":"levelo://app?vid=68ce89d7-2c49-47a3-af51-4cee0b21d337","ios":"levelo://app?vid=68ce89d7-2c49-47a3-af51-4cee0b21d337"},"vehicle_type_id":"4","last_reported":1735661436,"current_range_meters":35200,"station_id":"ce4bhg12rcd13ifvqf80","pricing_plan_id":"cebpf4jnsgd1na2vs0mg"},{"bike_id":"027085de-3c06-4c90-8099-b9537f78e863","system_id":"levelo_inurba_marseille","lat":43.23133,"lon":5.43702,"is_reserved":false,"is_disabled":false,"rental_uris":{"android":"levelo://app?vid=027085de-3c06-4c90-8099-b9537f78e863","ios":"levelo://app?vid=027085de-3c06-4c90-8099-b9537f78e863"},"vehicle_type_id":"4","last_reported":1735661436,"current_range_meters":38000,"station_id":"ce4bhmp2rcd13ifvqgog","pricing_plan_id":"cebpf4jnsgd1na2vs0mg"},{"bike_id":"649618bc-fe27-4a8c-b370-31b11abb3417","system_id":"levelo_inurba_marseille","lat":43.31495,"lon":5.37329,"is_reserved":false,"is_disabled":false,"rental_uris":{"android":"levelo://app?vid=649618bc-fe27-4a8c-b370-31b11abb3417","ios":"levelo://app?vid=649618bc-fe27-4a8c-b370-31b11abb3417"},"vehicle_type_id":"4","last_reported":1735661436,"current_range_meters":4800,"station_id":"ce4bgt12rcd13ifvqcd0","pricing_plan_id":"cebpf4jnsgd1na2vs0mg"},{"bike_id":"13f84696-4405-43e0-b0f5-1a61d67abe32","system_id":"levelo_inurba_marseille","lat":43.27841,"lon":5.39197,"is_reserved":false,"is_disabled":false,"rental_uris":{"android":"levelo://app?vid=13f84696-4405-43e0-b0f5-1a61d67abe32","ios":"levelo://app?vid=13f84696-4405-43e0-b0f5-1a61d67abe32"},"vehicle_type_id":"4","last_reported":1735661436,"current_range_meters":13600,"station_id":"ce4bhjp2rcd13ifvqga0","pricing_plan_id":"cebpf4jnsgd1na2vs0mg"},{"bike_id":"18f2cdc2-5f57-48a9-8931-9c07620a6321","system_id":"levelo_inurba_marseille","lat":43.3133,"lon":5.39688,"is_reserved":false,"is_disabled":false,"rental_uris":{"android":"levelo://app?vid=18f2cdc2-5f57-48a9-8931-9c07620a6321","ios":"levelo://app?vid=18f2cdc2-5f57-48a9-8931-9c07620a6321"},"vehicle_type_id":"4","last_reported":1735661436,"current_range_meters":38000,"station_id":"ce4bgvp2rcd13ifvqcu0","pricing_plan_id":"cebpf4jnsgd1na2vs0mg"},{"bike_id":"6275c667-9408-4738-96cb-6278121ca45a","system_id":"levelo_inurba_marseille","lat":43.27426,"lon":5.39412,"is_reserved":false,"is_disabled":false,"rental_uris":{"android":"levelo://app?vid=6275c667-9408-4738-96cb-6278121ca45a","ios":"levelo://app?vid=6275c667-9408-4738-96cb-6278121ca45a"},"vehicle_type_id":"4","last_reported":1735661436,"current_range_meters":8400,"station_id":"ce4bhdp2rcd13ifvqf20","pricing_plan_id":"cebpf4jnsgd1na2vs0mg"},{"bike_id":"317bbece-85f5-4709-8e50-643ba25a75ff","system_id":"levelo_inurba_marseille","lat":43.33812,"lon":5.37433,"is_reserved":false,"is_disabled":false,"rental_uris":{"android":"levelo://app?vid=317bbece-85f5-4709-8e50-643ba25a75ff","ios":"levelo://app?vid=317bbece-85f5-4709-8e50-643ba25a75ff"},"vehicle_type_id":"4","last_reported":1735661436,"current_range_meters":37600,"station_id":"","pricing_plan_id":"cebpf4jnsgd1na2vs0mg"},{"bike_id":"e7774da4-c308-4bfa-aba8-31efca07b3a0","system_id":"levelo_inurba_marseille","lat":43.33741,"lon":5.37467,"is_reserved":false,"is_disabled":false,"rental_uris":{"android":"levelo://app?vid=e7774da4-c308-4bfa-aba8-31efca07b3a0","ios":"levelo://app?vid=e7774da4-c308-4bfa-aba8-31efca07b3a0"},"vehicle_type_id":"4","last_reported":1735661436,"current_range_meters":12000,"station_id":"","pricing_plan_id":"cebpf4jnsgd1na2vs0mg"},{"bike_id":"cb97c7ba-1edf-46c0-b0a5-43188f79be9f","system_id":"levelo_inurba_marseille","lat":43.24555,"lon":5.39505,"is_reserved":false,"is_disabled":true,"rental_uris":{"android":"levelo://app?vid=cb97c7ba-1edf-46c0-b0a5-43188f79be9f","ios":"levelo://app?vid=cb97c7ba-1edf-46c0-b0a5-43188f79be9f"},"vehicle_type_id":"4","last_reported":1735661436,"current_range_meters":1200,"station_id":"ce4bhlp2rcd13ifvqgjg","pricing_plan_id":"cebpf4jnsgd1na2vs0mg"},{"bike_id":"ad09079b-2a66-443a-a13d-b1f84ab569d5","system_id":"levelo_inurba_marseille","lat":43.2501,"lon":5.38929,"is_reserved":false,"is_disabled":false,"rental_uris":{"android":"levelo://app?vid=ad09079b-2a66-443a-a13d-b1f84ab569d5","ios":"levelo://app?vid=ad09079b-2a66-443a-a13d-b1f84ab569d5"},"vehicle_type_id":"4","last_reported":1735661436,"current_range_meters":38800,"station_id":"ce4bhgp2rcd13ifvqfd0","pricing_plan_id":"cebpf4jnsgd1na2vs0mg"},{"bike_id":"55cdd24f-9e2e-41e5-9590-d69333b5dd4a","system_id":"levelo_inurba_marseille","lat":43.28858,"lon":5.35854,"is_reserved":false,"is_disabled":false,"rental_uris":{"android":"levelo://app?vid=55cdd24f-9e2e-41e5-9590-d69333b5dd4a","ios":"levelo://app?vid=55cdd24f-9e2e-41e5-9590-d69333b5dd4a"},"vehicle_type_id":"4","last_reported":1735661436,"current_range_meters":14000,"station_id":"ce4bhb12rcd13ifvqem0","pricing_plan_id":"cebpf4jnsgd1na2vs0mg"},{"bike_id":"958af95a-32c7-4376-96bd-d16b7ed762e8","system_id":"levelo_inurba_marseille","lat":43.3055,"lon":5.36691,"is_reserved":false,"is_disabled":false,"rental_uris":{"android":"levelo://app?vid=958af95a-32c7-4376-96bd-d16b7ed762e8","ios":"levelo://app?vid=958af95a-32c7-4376-96bd-d16b7ed762e8"},"vehicle_type_id":"4","last_reported":1735661436,"current_range_meters":24400,"station_id":"ce4bgrp2rcd13ifvqc9g","pricing_plan_id":"cebpf4jnsgd1na2vs0mg"},{"bike_id":"8aee6e51-ec03-4d1e-a7f9-0bc033449db3","system_id":"levelo_inurba_marseille","lat":43.28417,"lon":5.37507,"is_reserved":false,"is_disabled":false,"rental_uris":{"android":"levelo://app?vid=8aee6e51-ec03-4d1e-a7f9-0bc033449db3","ios":"levelo://app?vid=8aee6e51-ec03-4d1e-a7f9-0bc033449db3"},"vehicle_type_id":"4","last_reported":1735661436,"current_range_meters":36400,"station_id":"ce4bh412rcd13ifvqds0","pricing_plan_id":"cebpf4jnsgd1na2vs0mg"},{"bike_id":"da3075ee-8070-42f9-8350-58e475a60c82","system_id":"levelo_inurba_marseille","lat":43.27557,"lon":5.38407,"is_reserved":false,"is_disabled":false,"rental_uris":{"android":"levelo://app?vid=da3075ee-8070-42f9-8350-58e475a60c82","ios":"levelo://app?vid=da3075ee-8070-42f9-8350-58e475a60c82"},"vehicle_type_id":"4","last_reported":1735661436,"current_range_meters":38800,"station_id":"ce4bhh92rcd13ifvqfi0","pricing_plan_id":"cebpf4jnsgd1na2vs0mg"},{"bike_id":"23fe7039-f596-4f3b-a18b-340436da0536","system_id":"levelo_inurba_marseille","lat":43.29804,"lon":5.38099,"is_reserved":false,"is_disabled":false,"rental_uris":{"android":"levelo://app?vid=23fe7039-f596-4f3b-a18b-340436da0536","ios":"levelo://app?vid=23fe7039-f596-4f3b-a18b-340436da0536"},"vehicle_type_id":"4","last_reported":1735661436,"current_range_meters":39200,"station_id":"ce4bgip2rcd13ifvqbb0","pricing_plan_id":"cebpf4jnsgd1na2vs0mg"},{"bike_id":"d90fa962-5d9a-4060-9e48-4bb7027ee321","system_id":"levelo_inurba_marseille","lat":43.2799,"lon":5.416623,"is_reserved":false,"is_disabled":false,"rental_uris":{"android":"levelo://app?vid=d90fa962-5d9a-4060-9e48-4bb7027ee321","ios":"levelo://app?vid=d90fa962-5d9a-4060-9e48-4bb7027ee321"},"vehicle_type_id":"4","last_reported":1735661436,"current_range_meters":29600,"station_id":"ce4bho12rcd13ifvqh1g","pricing_plan_id":"cebpf4jnsgd1na2vs0mg"},{"bike_id":"07c99ec9-f027-47a4-9b93-3697bcc5f573","system_id":"levelo_inurba_marseille","lat":43.26958,"lon":5.40284,"is_reserved":false,"is_disabled":false,"rental_uris":{"android":"levelo://app?vid=07c99ec9-f027-47a4-9b93-3697bcc5f573","ios":"levelo://app?vid=07c99ec9-f027-47a4-9b93-3697bcc5f573"},"vehicle_type_id":"4","last_reported":1735661436,"current_range_meters":38800,"station_id":"cjm6bp8fraef2m0cb0m0","pricing_plan_id":"cebpf4jnsgd1na2vs0mg"},{"bike_id":"c754264e-2257-42b1-89f9-0bf9a740ba42","system_id":"levelo_inurba_marseille","lat":43.27562,"lon":5.38418,"is_reserved":false,"is_disabled":false,"rental_uris":{"android":"levelo://app?vid=c754264e-2257-42b1-89f9-0bf9a740ba42","ios":"levelo://app?vid=c754264e-2257-42b1-89f9-0bf9a740ba42"},"vehicle_type_id":"4","last_reported":1735661436,"current_range_meters":30000,"station_id":"ce4bhh92rcd13ifvqfi0","pricing_plan_id":"cebpf4jnsgd1na2vs0mg"},{"bike_id":"266df04c-d64d-413b-ae64-7d916c95d38e","system_id":"levelo_inurba_marseille","lat":43.30647,"lon":5.40108,"is_reserved":false,"is_disabled":false,"rental_uris":{"android":"levelo://app?vid=266df04c-d64d-413b-ae64-7d916c95d38e","ios":"levelo://app?vid=266df04c-d64d-413b-ae64-7d916c95d38e"},"vehicle_type_id":"4","last_reported":1735661436,"current_range_meters":18000,"station_id":"ce4bh112rcd13ifvqda0","pricing_plan_id":"cebpf4jnsgd1na2vs0mg"},{"bike_id":"34f3c0c0-03ba-45d4-97d6-6d42483a7eec","system_id":"levelo_inurba_marseille","lat":43.28629,"lon":5.35088,"is_reserved":false,"is_disabled":false,"rental_uris":{"android":"levelo://app?vid=34f3c0c0-03ba-45d4-97d6-6d42483a7eec","ios":"levelo://app?vid=34f3c0c0-03ba-45d4-97d6-6d42483a7eec"},"vehicle_type_id":"4","last_reported":1735661436,"current_range_meters":14000,"station_id":"ce4bhch2rcd13ifvqeug","pricing_plan_id":"cebpf4jnsgd1na2vs0mg"},{"bike_id":"63d3d27f-f4c2-4cfa-99f6-359012ea8eb1","system_id":"levelo_inurba_marseille","lat":43.2958,"lon":5.37517,"is_reserved":false,"is_disabled":false,"rental_uris":{"android":"levelo://app?vid=63d3d27f-f4c2-4cfa-99f6-359012ea8eb1","ios":"levelo://app?vid=63d3d27f-f4c2-4cfa-99f6-359012ea8eb1"},"vehicle_type_id":"4","last_reported":1735661436,"current_range_meters":22400,"station_id":"ce4bgh92rcd13ifvqb50","pricing_plan_id":"cebpf4jnsgd1na2vs0mg"},{"bike_id":"711375a4-5689-42ea-a27c-d36b9acf3b32","system_id":"levelo_inurba_marseille","lat":43.27182,"lon":5.41001,"is_reserved":false,"is_disabled":false,"rental_uris":{"android":"levelo://app?vid=711375a4-5689-42ea-a27c-d36b9acf3b32","ios":"levelo://app?vid=711375a4-5689-42ea-a27c-d36b9acf3b32"},"vehicle_type_id":"4","last_reported":1735661436,"current_range_meters":18000,"station_id":"ce4bhl12rcd13ifvqgf0","pricing_plan_id":"cebpf4jnsgd1na2vs0mg"},{"bike_id":"08103183-dbf3-4e28-ba92-ab4694840ae5","system_id":"levelo_inurba_marseille","lat":43.2927,"lon":5.38441,"is_reserved":false,"is_disabled":false,"rental_uris":{"android":"levelo://app?vid=08103183-dbf3-4e28-ba92-ab4694840ae5","ios":"levelo://app?vid=08103183-dbf3-4e28-ba92-ab4694840ae5"},"vehicle_type_id":"4","last_reported":1735661436,"current_range_meters":9200,"station_id":"ce4bh692rcd13ifvqea0","pricing_plan_id":"cebpf4jnsgd1na2vs0mg"},{"bike_id":"27855176-323e-4f61-b206-c9120b949976","system_id":"levelo_inurba_marseille","lat":43.2962,"lon":5.37149,"is_reserved":false,"is_disabled":false,"rental_uris":{"android":"levelo://app?vid=27855176-323e-4f61-b206-c9120b949976","ios":"levelo://app?vid=27855176-323e-4f61-b206-c9120b949976"},"vehicle_type_id":"4","last_reported":1735661436,"current_range_meters":38000,"station_id":"ce4bgnh2rcd13ifvqc0g","pricing_plan_id":"cebpf4jnsgd1na2vs0mg"},{"bike_id":"683ba874-bae1-49a7-b822-21a97dcafcd4","system_id":"levelo_inurba_marseille","lat":43.28937,"lon":5.36638,"is_reserved":false,"is_disabled":false,"rental_uris":{"android":"levelo://app?vid=683ba874-bae1-49a7-b822-21a97dcafcd4","ios":"levelo://app?vid=683ba874-bae1-49a7-b822-21a97dcafcd4"},"vehicle_type_id":"4","last_reported":1735661436,"current_range_meters":38000,"station_id":"ce4bhap2rcd13ifvqek0","pricing_plan_id":"cebpf4jnsgd1na2vs0mg"},{"bike_id":"a871e8bb-4f17-4f79-8bac-42efdc696fa0","system_id":"levelo_inurba_marseille","lat":43.29006,"lon":5.35608,"is_reserved":false,"is_disabled":false,"rental_uris":{"android":"levelo://app?vid=a871e8bb-4f17-4f79-8bac-42efdc696fa0","ios":"levelo://app?vid=a871e8bb-4f17-4f79-8bac-42efdc696fa0"},"vehicle_type_id":"4","last_reported":1735661436,"current_range_meters":39200,"station_id":"ce4bhb92rcd13ifvqen0","pricing_plan_id":"cebpf4jnsgd1na2vs0mg"},{"bike_id":"0e2f82cb-6b44-4d96-9b88-3e8aacbe754f","system_id":"levelo_inurba_marseille","lat":43.30161,"lon":5.38089,"is_reserved":false,"is_disabled":false,"rental_uris":{"android":"levelo://app?vid=0e2f82cb-6b44-4d96-9b88-3e8aacbe754f","ios":"levelo://app?vid=0e2f82cb-6b44-4d96-9b88-3e8aacbe754f"},"vehicle_type_id":"4","last_reported":1735661436,"current_range_meters":38800,"station_id":"ce4bgjp2rcd13ifvqbh0","pricing_plan_id":"cebpf4jnsgd1na2vs0mg"},{"bike_id":"e72c6d65-0b04-411e-bf0f-f72d15cad0d7","system_id":"levelo_inurba_marseille","lat":43.33718,"lon":5.39186,"is_reserved":false,"is_disabled":false,"rental_uris":{"android":"levelo://app?vid=e72c6d65-0b04-411e-bf0f-f72d15cad0d7","ios":"levelo://app?vid=e72c6d65-0b04-411e-bf0f-f72d15cad0d7"},"vehicle_type_id":"4","last_reported":1735661436,"current_range_meters":38800,"station_id":"ce4bhr92rcd13ifvqhsg","pricing_plan_id":"cebpf4jnsgd1na2vs0mg"},{"bike_id":"58da58a9-91e7-4fe2-bb82-29e824ef7092","system_id":"levelo_inurba_marseille","lat":43.26233,"lon":5.3751,"is_reserved":false,"is_disabled":false,"rental_uris":{"android":"levelo://app?vid=58da58a9-91e7-4fe2-bb82-29e824ef7092","ios":"levelo://app?vid=58da58a9-91e7-4fe2-bb82-29e824ef7092"},"vehicle_type_id":"4","last_reported":1735661436,"current_range_meters":10800,"station_id":"","pricing_plan_id":"cebpf4jnsgd1na2vs0mg"},{"bike_id":"f232324b-d77e-46de-9de7-a0d8abcbf52a","system_id":"levelo_inurba_marseille","lat":43.30882,"lon":5.37191,"is_reserved":false,"is_disabled":false,"rental_uris":{"android":"levelo://app?vid=f232324b-d77e-46de-9de7-a0d8abcbf52a","ios":"levelo://app?vid=f232324b-d77e-46de-9de7-a0d8abcbf52a"},"vehicle_type_id":"4","last_reported":1735661436,"current_range_meters":29600,"station_id":"ce4bguh2rcd13ifvqckg","pricing_plan_id":"cebpf4jnsgd1na2vs0mg"},{"bike_id":"56dbbcc3-1892-4773-8fd7-ae4c917e4bc5","system_id":"levelo_inurba_marseille","lat":43.24672,"lon":5.38159,"is_reserved":false,"is_disabled":false,"rental_uris":{"android":"levelo://app?vid=56dbbcc3-1892-4773-8fd7-ae4c917e4bc5","ios":"levelo://app?vid=56dbbcc3-1892-4773-8fd7-ae4c917e4bc5"},"vehicle_type_id":"4","last_reported":1735661436,"current_range_meters":29600,"station_id":"ce4bhih2rcd13ifvqfr0","pricing_plan_id":"cebpf4jnsgd1na2vs0mg"},{"bike_id":"62d48ba3-ce48-4ab0-af7e-dafa98ff70bc","system_id":"levelo_inurba_marseille","lat":43.28076,"lon":5.39663,"is_reserved":false,"is_disabled":false,"rental_uris":{"android":"levelo://app?vid=62d48ba3-ce48-4ab0-af7e-dafa98ff70bc","ios":"levelo://app?vid=62d48ba3-ce48-4ab0-af7e-dafa98ff70bc"},"vehicle_type_id":"4","last_reported":1735661436,"current_range_meters":20000,"station_id":"ce4bho12rcd13ifvqh2g","pricing_plan_id":"cebpf4jnsgd1na2vs0mg"},{"bike_id":"22ae8d87-0f6d-4158-bd4d-413447608fca","system_id":"levelo_inurba_marseille","lat":43.29262,"lon":5.3844,"is_reserved":false,"is_disabled":false,"rental_uris":{"android":"levelo://app?vid=22ae8d87-0f6d-4158-bd4d-413447608fca","ios":"levelo://app?vid=22ae8d87-0f6d-4158-bd4d-413447608fca"},"vehicle_type_id":"4","last_reported":1735661436,"current_range_meters":14400,"station_id":"ce4bh692rcd13ifvqea0","pricing_plan_id":"cebpf4jnsgd1na2vs0mg"},{"bike_id":"892733af-3cd1-46b0-8c64-c29a2eeba768","system_id":"levelo_inurba_marseille","lat":43.340605,"lon":5.376779,"is_reserved":false,"is_disabled":false,"rental_uris":{"android":"levelo://app?vid=892733af-3cd1-46b0-8c64-c29a2eeba768","ios":"levelo://app?vid=892733af-3cd1-46b0-8c64-c29a2eeba768"},"vehicle_type_id":"4","last_reported":1735661436,"current_range_meters":37600,"station_id":"","pricing_plan_id":"cebpf4jnsgd1na2vs0mg"},{"bike_id":"a87e4111-653d-4c79-b009-b173a2dd1186","system_id":"levelo_inurba_marseille","lat":43.29032,"lon":5.38639,"is_reserved":false,"is_disabled":false,"rental_uris":{"android":"levelo://app?vid=a87e4111-653d-4c79-b009-b173a2dd1186","ios":"levelo://app?vid=a87e4111-653d-4c79-b009-b173a2dd1186"},"vehicle_type_id":"4","last_reported":1735661436,"current_range_meters":14800,"station_id":"ce4bh4p2rcd13ifvqe0g","pricing_plan_id":"cebpf4jnsgd1na2vs0mg"},{"bike_id":"57103b12-06fc-494b-9a1a-1903f8f245d5","system_id":"levelo_inurba_marseille","lat":43.279896,"lon":5.416708,"is_reserved":false,"is_disabled":false,"rental_uris":{"android":"levelo://app?vid=57103b12-06fc-494b-9a1a-1903f8f245d5","ios":"levelo://app?vid=57103b12-06fc-494b-9a1a-1903f8f245d5"},"vehicle_type_id":"4","last_reported":1735661436,"current_range_meters":7200,"station_id":"ce4bho12rcd13ifvqh1g","pricing_plan_id":"cebpf4jnsgd1na2vs0mg"},{"bike_id":"5387f392-0216-4771-bad0-33053fc65e26","system_id":"levelo_inurba_marseille","lat":43.27809,"lon":5.40712,"is_reserved":false,"is_disabled":false,"rental_uris":{"android":"levelo://app?vid=5387f392-0216-4771-bad0-33053fc65e26","ios":"levelo://app?vid=5387f392-0216-4771-bad0-33053fc65e26"},"vehicle_type_id":"4","last_reported":1735661436,"current_range_meters":20800,"station_id":"ce4bhnh2rcd13ifvqgtg","pricing_plan_id":"cebpf4jnsgd1na2vs0mg"},{"bike_id":"602938e9-5a0d-48cd-9073-bca96485ca77","system_id":"levelo_inurba_marseille","lat":43.2621,"lon":5.37452,"is_reserved":false,"is_disabled":false,"rental_uris":{"android":"levelo://app?vid=602938e9-5a0d-48cd-9073-bca96485ca77","ios":"levelo://app?vid=602938e9-5a0d-48cd-9073-bca96485ca77"},"vehicle_type_id":"4","last_reported":1735661436,"current_range_meters":10800,"station_id":"ce4bhgp2rcd13ifvqfc0","pricing_plan_id":"cebpf4jnsgd1na2vs0mg"},{"bike_id":"834ba6be-ec40-48c5-ba67-8b8cbcedbbb4","system_id":"levelo_inurba_marseille","lat":43.2827,"lon":5.35057,"is_reserved":false,"is_disabled":false,"rental_uris":{"android":"levelo://app?vid=834ba6be-ec40-48c5-ba67-8b8cbcedbbb4","ios":"levelo://app?vid=834ba6be-ec40-48c5-ba67-8b8cbcedbbb4"},"vehicle_type_id":"4","last_reported":1735661436,"current_range_meters":32400,"station_id":"ce4bhbp2rcd13ifvqerg","pricing_plan_id":"cebpf4jnsgd1na2vs0mg"},{"bike_id":"82a2cadf-7112-4e48-86c2-ae583d1827b3","system_id":"levelo_inurba_marseille","lat":43.28425,"lon":5.34993,"is_reserved":false,"is_disabled":false,"rental_uris":{"android":"levelo://app?vid=82a2cadf-7112-4e48-86c2-ae583d1827b3","ios":"levelo://app?vid=82a2cadf-7112-4e48-86c2-ae583d1827b3"},"vehicle_type_id":"4","last_reported":1735661436,"current_range_meters":6400,"station_id":"ce4bhbh2rcd13ifvqepg","pricing_plan_id":"cebpf4jnsgd1na2vs0mg"},{"bike_id":"4717545b-2e42-4b84-80e3-06ca965dba5c","system_id":"levelo_inurba_marseille","lat":43.29787,"lon":5.38093,"is_reserved":false,"is_disabled":false,"rental_uris":{"android":"levelo://app?vid=4717545b-2e42-4b84-80e3-06ca965dba5c","ios":"levelo://app?vid=4717545b-2e42-4b84-80e3-06ca965dba5c"},"vehicle_type_id":"4","last_reported":1735661436,"current_range_meters":11200,"station_id":"ce4bgip2rcd13ifvqbb0","pricing_plan_id":"cebpf4jnsgd1na2vs0mg"},{"bike_id":"30a49652-d136-44e4-a4d9-d7c1b83f0627","system_id":"levelo_inurba_marseille","lat":43.337444,"lon":5.374475,"is_reserved":false,"is_disabled":false,"rental_uris":{"android":"levelo://app?vid=30a49652-d136-44e4-a4d9-d7c1b83f0627","ios":"levelo://app?vid=30a49652-d136-44e4-a4d9-d7c1b83f0627"},"vehicle_type_id":"4","last_reported":1735661436,"current_range_meters":18000,"station_id":"","pricing_plan_id":"cebpf4jnsgd1na2vs0mg"},{"bike_id":"4d09da81-c598-4276-bcd1-1d0971ab92b4","system_id":"levelo_inurba_marseille","lat":43.27624,"lon":5.36115,"is_reserved":false,"is_disabled":false,"rental_uris":{"android":"levelo://app?vid=4d09da81-c598-4276-bcd1-1d0971ab92b4","ios":"levelo://app?vid=4d09da81-c598-4276-bcd1-1d0971ab92b4"},"vehicle_type_id":"4","last_reported":1735661436,"current_range_meters":35600,"station_id":"ce4bgj92rcd13ifvqbe0","pricing_plan_id":"cebpf4jnsgd1na2vs0mg"},{"bike_id":"b8f199fc-2ec3-4cea-89a8-539f8a9d9d79","system_id":"levelo_inurba_marseille","lat":43.29041,"lon":5.38145,"is_reserved":false,"is_disabled":false,"rental_uris":{"android":"levelo://app?vid=b8f199fc-2ec3-4cea-89a8-539f8a9d9d79","ios":"levelo://app?vid=b8f199fc-2ec3-4cea-89a8-539f8a9d9d79"},"vehicle_type_id":"4","last_reported":1735661436,"current_range_meters":38800,"station_id":"ce4bh4p2rcd13ifvqe1g","pricing_plan_id":"cebpf4jnsgd1na2vs0mg"},{"bike_id":"2243fd3b-7b92-4cf9-84c9-33851e8481b0","system_id":"levelo_inurba_marseille","lat":43.30138,"lon":5.38793,"is_reserved":false,"is_disabled":false,"rental_uris":{"android":"levelo://app?vid=2243fd3b-7b92-4cf9-84c9-33851e8481b0","ios":"levelo://app?vid=2243fd3b-7b92-4cf9-84c9-33851e8481b0"},"vehicle_type_id":"4","last_reported":1735661436,"current_range_meters":25200,"station_id":"ce4bghh2rcd13ifvqb60","pricing_plan_id":"cebpf4jnsgd1na2vs0mg"},{"bike_id":"fa86ada9-ab65-40b1-961e-01868420b873","system_id":"levelo_inurba_marseille","lat":43.30604,"lon":5.39359,"is_reserved":false,"is_disabled":false,"rental_uris":{"android":"levelo://app?vid=fa86ada9-ab65-40b1-961e-01868420b873","ios":"levelo://app?vid=fa86ada9-ab65-40b1-961e-01868420b873"},"vehicle_type_id":"4","last_reported":1735661436,"current_range_meters":24400,"station_id":"ce4bh0p2rcd13ifvqd80","pricing_plan_id":"cebpf4jnsgd1na2vs0mg"},{"bike_id":"d5e6fa8e-d815-468d-9f90-63ce79d3d743","system_id":"levelo_inurba_marseille","lat":43.24394,"lon":5.37059,"is_reserved":false,"is_disabled":false,"rental_uris":{"android":"levelo://app?vid=d5e6fa8e-d815-468d-9f90-63ce79d3d743","ios":"levelo://app?vid=d5e6fa8e-d815-468d-9f90-63ce79d3d743"},"vehicle_type_id":"4","last_reported":1735661436,"current_range_meters":8400,"station_id":"ce4bhhh2rcd13ifvqfk0","pricing_plan_id":"cebpf4jnsgd1na2vs0mg"},{"bike_id":"8cc0ac48-15f2-4e2c-af72-974f66c03dcc","system_id":"levelo_inurba_marseille","lat":43.28859,"lon":5.35864,"is_reserved":false,"is_disabled":false,"rental_uris":{"android":"levelo://app?vid=8cc0ac48-15f2-4e2c-af72-974f66c03dcc","ios":"levelo://app?vid=8cc0ac48-15f2-4e2c-af72-974f66c03dcc"},"vehicle_type_id":"4","last_reported":1735661436,"current_range_meters":28800,"station_id":"ce4bhb12rcd13ifvqem0","pricing_plan_id":"cebpf4jnsgd1na2vs0mg"},{"bike_id":"1ce05690-65ba-4e15-b28c-5fd535e467f0","system_id":"levelo_inurba_marseille","lat":43.32096,"lon":5.41556,"is_reserved":false,"is_disabled":false,"rental_uris":{"android":"levelo://app?vid=1ce05690-65ba-4e15-b28c-5fd535e467f0","ios":"levelo://app?vid=1ce05690-65ba-4e15-b28c-5fd535e467f0"},"vehicle_type_id":"4","last_reported":1735661436,"current_range_meters":11600,"station_id":"","pricing_plan_id":"cebpf4jnsgd1na2vs0mg"},{"bike_id":"d996ebe6-a085-4671-8aef-57e91ba860dc","system_id":"levelo_inurba_marseille","lat":43.26805,"lon":5.40261,"is_reserved":false,"is_disabled":false,"rental_uris":{"android":"levelo://app?vid=d996ebe6-a085-4671-8aef-57e91ba860dc","ios":"levelo://app?vid=d996ebe6-a085-4671-8aef-57e91ba860dc"},"vehicle_type_id":"4","last_reported":1735661436,"current_range_meters":32400,"station_id":"ce501612rcd8frsf0b60","pricing_plan_id":"cebpf4jnsgd1na2vs0mg"},{"bike_id":"fdea9f88-e673-4d4f-b1f0-e47ce0f7ee30","system_id":"levelo_inurba_marseille","lat":43.28368,"lon":5.38639,"is_reserved":false,"is_disabled":false,"rental_uris":{"android":"levelo://app?vid=fdea9f88-e673-4d4f-b1f0-e47ce0f7ee30","ios":"levelo://app?vid=fdea9f88-e673-4d4f-b1f0-e47ce0f7ee30"},"vehicle_type_id":"4","last_reported":1735661436,"current_range_meters":30800,"station_id":"ce4bh492rcd13ifvqdvg","pricing_plan_id":"cebpf4jnsgd1na2vs0mg"},{"bike_id":"a68defd1-3a21-4047-b2f0-0fac92cdc2b8","system_id":"levelo_inurba_marseille","lat":43.26681,"lon":5.38262,"is_reserved":false,"is_disabled":false,"rental_uris":{"android":"levelo://app?vid=a68defd1-3a21-4047-b2f0-0fac92cdc2b8","ios":"levelo://app?vid=a68defd1-3a21-4047-b2f0-0fac92cdc2b8"},"vehicle_type_id":"4","last_reported":1735661436,"current_range_meters":28000,"station_id":"ce4bhg92rcd13ifvqf90","pricing_plan_id":"cebpf4jnsgd1na2vs0mg"},{"bike_id":"261f84eb-7209-4691-ba89-1395784a623f","system_id":"levelo_inurba_marseille","lat":43.27566,"lon":5.3843,"is_reserved":false,"is_disabled":false,"rental_uris":{"android":"levelo://app?vid=261f84eb-7209-4691-ba89-1395784a623f","ios":"levelo://app?vid=261f84eb-7209-4691-ba89-1395784a623f"},"vehicle_type_id":"4","last_reported":1735661436,"current_range_meters":32800,"station_id":"ce4bhh92rcd13ifvqfi0","pricing_plan_id":"cebpf4jnsgd1na2vs0mg"},{"bike_id":"ee970bd2-03e3-45d8-9920-35ca0e47ef20","system_id":"levelo_inurba_marseille","lat":43.24995,"lon":5.38905,"is_reserved":false,"is_disabled":false,"rental_uris":{"android":"levelo://app?vid=ee970bd2-03e3-45d8-9920-35ca0e47ef20","ios":"levelo://app?vid=ee970bd2-03e3-45d8-9920-35ca0e47ef20"},"vehicle_type_id":"4","last_reported":1735661436,"current_range_meters":19200,"station_id":"ce4bhgp2rcd13ifvqfd0","pricing_plan_id":"cebpf4jnsgd1na2vs0mg"},{"bike_id":"86f6bb05-a983-4bca-997c-86ef110da0e0","system_id":"levelo_inurba_marseille","lat":43.29254,"lon":5.40902,"is_reserved":false,"is_disabled":false,"rental_uris":{"android":"levelo://app?vid=86f6bb05-a983-4bca-997c-86ef110da0e0","ios":"levelo://app?vid=86f6bb05-a983-4bca-997c-86ef110da0e0"},"vehicle_type_id":"4","last_reported":1735661436,"current_range_meters":18800,"station_id":"ce4bh192rcd13ifvqdc0","pricing_plan_id":"cebpf4jnsgd1na2vs0mg"},{"bike_id":"e73ae31c-b561-4616-859f-f7e984104f63","system_id":"levelo_inurba_marseille","lat":43.30158,"lon":5.38083,"is_reserved":false,"is_disabled":false,"rental_uris":{"android":"levelo://app?vid=e73ae31c-b561-4616-859f-f7e984104f63","ios":"levelo://app?vid=e73ae31c-b561-4616-859f-f7e984104f63"},"vehicle_type_id":"4","last_reported":1735661436,"current_range_meters":29600,"station_id":"ce4bgjp2rcd13ifvqbh0","pricing_plan_id":"cebpf4jnsgd1na2vs0mg"},{"bike_id":"ea990fc9-5f95-4acd-a2be-29105099e24e","system_id":"levelo_inurba_marseille","lat":43.23063,"lon":5.35489,"is_reserved":false,"is_disabled":false,"rental_uris":{"android":"levelo://app?vid=ea990fc9-5f95-4acd-a2be-29105099e24e","ios":"levelo://app?vid=ea990fc9-5f95-4acd-a2be-29105099e24e"},"vehicle_type_id":"4","last_reported":1735661436,"current_range_meters":34800,"station_id":"cpo3342slgdg3j2ifvpg","pricing_plan_id":"cebpf4jnsgd1na2vs0mg"},{"bike_id":"fdf41b5b-26e9-4d22-9399-bd37df9aee7b","system_id":"levelo_inurba_marseille","lat":43.30087,"lon":5.39065,"is_reserved":false,"is_disabled":false,"rental_uris":{"android":"levelo://app?vid=fdf41b5b-26e9-4d22-9399-bd37df9aee7b","ios":"levelo://app?vid=fdf41b5b-26e9-4d22-9399-bd37df9aee7b"},"vehicle_type_id":"4","last_reported":1735661436,"current_range_meters":16000,"station_id":"ce4bh192rcd13ifvqdb0","pricing_plan_id":"cebpf4jnsgd1na2vs0mg"},{"bike_id":"9d803c86-bf5f-4e36-bd9d-5b770dc18b7e","system_id":"levelo_inurba_marseille","lat":43.3127,"lon":5.40174,"is_reserved":false,"is_disabled":false,"rental_uris":{"android":"levelo://app?vid=9d803c86-bf5f-4e36-bd9d-5b770dc18b7e","ios":"levelo://app?vid=9d803c86-bf5f-4e36-bd9d-5b770dc18b7e"},"vehicle_type_id":"4","last_reported":1735661436,"current_range_meters":19200,"station_id":"ce4bh092rcd13ifvqd30","pricing_plan_id":"cebpf4jnsgd1na2vs0mg"},{"bike_id":"72980645-c48e-494a-8437-a0b22bfd8087","system_id":"levelo_inurba_marseille","lat":43.28429,"lon":5.35001,"is_reserved":false,"is_disabled":false,"rental_uris":{"android":"levelo://app?vid=72980645-c48e-494a-8437-a0b22bfd8087","ios":"levelo://app?vid=72980645-c48e-494a-8437-a0b22bfd8087"},"vehicle_type_id":"4","last_reported":1735661436,"current_range_meters":22800,"station_id":"ce4bhbh2rcd13ifvqepg","pricing_plan_id":"cebpf4jnsgd1na2vs0mg"},{"bike_id":"d13b199e-e620-4f52-ae43-9a360f46ed32","system_id":"levelo_inurba_marseille","lat":43.28004,"lon":5.40003,"is_reserved":false,"is_disabled":false,"rental_uris":{"android":"levelo://app?vid=d13b199e-e620-4f52-ae43-9a360f46ed32","ios":"levelo://app?vid=d13b199e-e620-4f52-ae43-9a360f46ed32"},"vehicle_type_id":"4","last_reported":1735661436,"current_range_meters":9200,"station_id":"ce4bho92rcd13ifvqh4g","pricing_plan_id":"cebpf4jnsgd1na2vs0mg"},{"bike_id":"32afc6cc-1544-4f88-ab5c-34496cc35b04","system_id":"levelo_inurba_marseille","lat":43.23064,"lon":5.3549,"is_reserved":false,"is_disabled":false,"rental_uris":{"android":"levelo://app?vid=32afc6cc-1544-4f88-ab5c-34496cc35b04","ios":"levelo://app?vid=32afc6cc-1544-4f88-ab5c-34496cc35b04"},"vehicle_type_id":"4","last_reported":1735661436,"current_range_meters":16800,"station_id":"cpo3342slgdg3j2ifvpg","pricing_plan_id":"cebpf4jnsgd1na2vs0mg"},{"bike_id":"1fbbb53e-d679-4797-bfc5-ea8c228afe3b","system_id":"levelo_inurba_marseille","lat":43.27052,"lon":5.40245,"is_reserved":false,"is_disabled":false,"rental_uris":{"android":"levelo://app?vid=1fbbb53e-d679-4797-bfc5-ea8c228afe3b","ios":"levelo://app?vid=1fbbb53e-d679-4797-bfc5-ea8c228afe3b"},"vehicle_type_id":"4","last_reported":1735661436,"current_range_meters":26000,"station_id":"ce4bhk92rcd13ifvqgc0","pricing_plan_id":"cebpf4jnsgd1na2vs0mg"},{"bike_id":"5be1b31f-dfe5-4e9e-9157-5a3c3ea30403","system_id":"levelo_inurba_marseille","lat":43.28607,"lon":5.3705,"is_reserved":false,"is_disabled":true,"rental_uris":{"android":"levelo://app?vid=5be1b31f-dfe5-4e9e-9157-5a3c3ea30403","ios":"levelo://app?vid=5be1b31f-dfe5-4e9e-9157-5a3c3ea30403"},"vehicle_type_id":"4","last_reported":1735661436,"current_range_meters":2000,"station_id":"ce4bht12rcd13ifvqi60","pricing_plan_id":"cebpf4jnsgd1na2vs0mg"},{"bike_id":"a56287ab-847c-4262-85f3-004e763e6a0e","system_id":"levelo_inurba_marseille","lat":43.30153,"lon":5.37407,"is_reserved":false,"is_disabled":false,"rental_uris":{"android":"levelo://app?vid=a56287ab-847c-4262-85f3-004e763e6a0e","ios":"levelo://app?vid=a56287ab-847c-4262-85f3-004e763e6a0e"},"vehicle_type_id":"4","last_reported":1735661436,"current_range_meters":20400,"station_id":"ce4bgs92rcd13ifvqcc0","pricing_plan_id":"cebpf4jnsgd1na2vs0mg"},{"bike_id":"55e5bb48-d03c-42b0-885b-e5af4696496a","system_id":"levelo_inurba_marseille","lat":43.29554,"lon":5.37512,"is_reserved":false,"is_disabled":false,"rental_uris":{"android":"levelo://app?vid=55e5bb48-d03c-42b0-885b-e5af4696496a","ios":"levelo://app?vid=55e5bb48-d03c-42b0-885b-e5af4696496a"},"vehicle_type_id":"4","last_reported":1735661436,"current_range_meters":19600,"station_id":"ce4bgh92rcd13ifvqb50","pricing_plan_id":"cebpf4jnsgd1na2vs0mg"},{"bike_id":"d9039fb6-1526-43a5-ab47-bf6c74051347","system_id":"levelo_inurba_marseille","lat":43.28144,"lon":5.42594,"is_reserved":false,"is_disabled":false,"rental_uris":{"android":"levelo://app?vid=d9039fb6-1526-43a5-ab47-bf6c74051347","ios":"levelo://app?vid=d9039fb6-1526-43a5-ab47-bf6c74051347"},"vehicle_type_id":"4","last_reported":1735661436,"current_range_meters":10800,"station_id":"ce4bhnh2rcd13ifvqgug","pricing_plan_id":"cebpf4jnsgd1na2vs0mg"},{"bike_id":"ba515ce6-9cf9-48d4-a539-c044d7886612","system_id":"levelo_inurba_marseille","lat":43.29254,"lon":5.40909,"is_reserved":false,"is_disabled":false,"rental_uris":{"android":"levelo://app?vid=ba515ce6-9cf9-48d4-a539-c044d7886612","ios":"levelo://app?vid=ba515ce6-9cf9-48d4-a539-c044d7886612"},"vehicle_type_id":"4","last_reported":1735661436,"current_range_meters":38400,"station_id":"ce4bh192rcd13ifvqdc0","pricing_plan_id":"cebpf4jnsgd1na2vs0mg"},{"bike_id":"5016f44c-c8b8-4ca7-8151-4f5ed6d912b4","system_id":"levelo_inurba_marseille","lat":43.29922,"lon":5.36494,"is_reserved":false,"is_disabled":false,"rental_uris":{"android":"levelo://app?vid=5016f44c-c8b8-4ca7-8151-4f5ed6d912b4","ios":"levelo://app?vid=5016f44c-c8b8-4ca7-8151-4f5ed6d912b4"},"vehicle_type_id":"4","last_reported":1735661436,"current_range_meters":37600,"station_id":"ce4bgm92rcd13ifvqbr0","pricing_plan_id":"cebpf4jnsgd1na2vs0mg"},{"bike_id":"ce872ff4-1114-4dbb-a1cd-0587f9a75e23","system_id":"levelo_inurba_marseille","lat":43.24817,"lon":5.37483,"is_reserved":false,"is_disabled":false,"rental_uris":{"android":"levelo://app?vid=ce872ff4-1114-4dbb-a1cd-0587f9a75e23","ios":"levelo://app?vid=ce872ff4-1114-4dbb-a1cd-0587f9a75e23"},"vehicle_type_id":"4","last_reported":1735661436,"current_range_meters":38800,"station_id":"ce4bhgh2rcd13ifvqfb0","pricing_plan_id":"cebpf4jnsgd1na2vs0mg"},{"bike_id":"022d826a-d31d-48ef-b07e-f8dd0ceaa746","system_id":"levelo_inurba_marseille","lat":43.24996,"lon":5.38935,"is_reserved":false,"is_disabled":false,"rental_uris":{"android":"levelo://app?vid=022d826a-d31d-48ef-b07e-f8dd0ceaa746","ios":"levelo://app?vid=022d826a-d31d-48ef-b07e-f8dd0ceaa746"},"vehicle_type_id":"4","last_reported":1735661436,"current_range_meters":36400,"station_id":"ce4bhgp2rcd13ifvqfd0","pricing_plan_id":"cebpf4jnsgd1na2vs0mg"},{"bike_id":"04e7867a-1371-4222-a6db-9d80083cea73","system_id":"levelo_inurba_marseille","lat":43.28866,"lon":5.3586,"is_reserved":false,"is_disabled":true,"rental_uris":{"android":"levelo://app?vid=04e7867a-1371-4222-a6db-9d80083cea73","ios":"levelo://app?vid=04e7867a-1371-4222-a6db-9d80083cea73"},"vehicle_type_id":"4","last_reported":1735661436,"current_range_meters":34800,"station_id":"ce4bhb12rcd13ifvqem0","pricing_plan_id":"cebpf4jnsgd1na2vs0mg"},{"bike_id":"97a26378-897a-4cc3-94fc-ef7846cd6637","system_id":"levelo_inurba_marseille","lat":43.31377,"lon":5.36716,"is_reserved":false,"is_disabled":true,"rental_uris":{"android":"levelo://app?vid=97a26378-897a-4cc3-94fc-ef7846cd6637","ios":"levelo://app?vid=97a26378-897a-4cc3-94fc-ef7846cd6637"},"vehicle_type_id":"4","last_reported":1735661436,"current_range_meters":0,"station_id":"ce4bgr92rcd13ifvqc6g","pricing_plan_id":"cebpf4jnsgd1na2vs0mg"},{"bike_id":"c457cfc3-83ae-4746-8353-55497d85bdfe","system_id":"levelo_inurba_marseille","lat":43.31218,"lon":5.3687,"is_reserved":false,"is_disabled":false,"rental_uris":{"android":"levelo://app?vid=c457cfc3-83ae-4746-8353-55497d85bdfe","ios":"levelo://app?vid=c457cfc3-83ae-4746-8353-55497d85bdfe"},"vehicle_type_id":"4","last_reported":1735661436,"current_range_meters":38800,"station_id":"ce4bgl92rcd13ifvqbq0","pricing_plan_id":"cebpf4jnsgd1na2vs0mg"},{"bike_id":"3802de84-44fe-44de-b84b-f2c821e50257","system_id":"levelo_inurba_marseille","lat":43.284175,"lon":5.349738,"is_reserved":false,"is_disabled":false,"rental_uris":{"android":"levelo://app?vid=3802de84-44fe-44de-b84b-f2c821e50257","ios":"levelo://app?vid=3802de84-44fe-44de-b84b-f2c821e50257"},"vehicle_type_id":"4","last_reported":1735661436,"current_range_meters":17600,"station_id":"ce4bhbh2rcd13ifvqepg","pricing_plan_id":"cebpf4jnsgd1na2vs0mg"},{"bike_id":"8604068d-210e-43ff-af02-a4dde08c94de","system_id":"levelo_inurba_marseille","lat":43.30951,"lon":5.39027,"is_reserved":false,"is_disabled":false,"rental_uris":{"android":"levelo://app?vid=8604068d-210e-43ff-af02-a4dde08c94de","ios":"levelo://app?vid=8604068d-210e-43ff-af02-a4dde08c94de"},"vehicle_type_id":"4","last_reported":1735661436,"current_range_meters":38400,"station_id":"ce4bgup2rcd13ifvqco0","pricing_plan_id":"cebpf4jnsgd1na2vs0mg"},{"bike_id":"35c2c095-e215-44a0-bbc2-feea0af9e5d1","system_id":"levelo_inurba_marseille","lat":43.26685,"lon":5.382877,"is_reserved":false,"is_disabled":false,"rental_uris":{"android":"levelo://app?vid=35c2c095-e215-44a0-bbc2-feea0af9e5d1","ios":"levelo://app?vid=35c2c095-e215-44a0-bbc2-feea0af9e5d1"},"vehicle_type_id":"4","last_reported":1735661436,"current_range_meters":38800,"station_id":"ce4bhg92rcd13ifvqf90","pricing_plan_id":"cebpf4jnsgd1na2vs0mg"},{"bike_id":"016e9495-5958-43c7-8a33-5362090be415","system_id":"levelo_inurba_marseille","lat":43.29009,"lon":5.35611,"is_reserved":false,"is_disabled":false,"rental_uris":{"android":"levelo://app?vid=016e9495-5958-43c7-8a33-5362090be415","ios":"levelo://app?vid=016e9495-5958-43c7-8a33-5362090be415"},"vehicle_type_id":"4","last_reported":1735661436,"current_range_meters":38800,"station_id":"ce4bhb92rcd13ifvqen0","pricing_plan_id":"cebpf4jnsgd1na2vs0mg"},{"bike_id":"a005e1bf-2999-4035-942d-1957469d29ca","system_id":"levelo_inurba_marseille","lat":43.24674,"lon":5.38164,"is_reserved":false,"is_disabled":true,"rental_uris":{"android":"levelo://app?vid=a005e1bf-2999-4035-942d-1957469d29ca","ios":"levelo://app?vid=a005e1bf-2999-4035-942d-1957469d29ca"},"vehicle_type_id":"4","last_reported":1735661436,"current_range_meters":36800,"station_id":"ce4bhih2rcd13ifvqfr0","pricing_plan_id":"cebpf4jnsgd1na2vs0mg"},{"bike_id":"ba48c954-cfdc-4161-9476-771c321a4ac6","system_id":"levelo_inurba_marseille","lat":43.23967,"lon":5.36625,"is_reserved":false,"is_disabled":false,"rental_uris":{"android":"levelo://app?vid=ba48c954-cfdc-4161-9476-771c321a4ac6","ios":"levelo://app?vid=ba48c954-cfdc-4161-9476-771c321a4ac6"},"vehicle_type_id":"4","last_reported":1735661436,"current_range_meters":32800,"station_id":"ce4bhi12rcd13ifvqfp0","pricing_plan_id":"cebpf4jnsgd1na2vs0mg"},{"bike_id":"f6c3569e-efa4-4a1c-b75b-94ded8df3e64","system_id":"levelo_inurba_marseille","lat":43.27959,"lon":5.38719,"is_reserved":false,"is_disabled":false,"rental_uris":{"android":"levelo://app?vid=f6c3569e-efa4-4a1c-b75b-94ded8df3e64","ios":"levelo://app?vid=f6c3569e-efa4-4a1c-b75b-94ded8df3e64"},"vehicle_type_id":"4","last_reported":1735661436,"current_range_meters":32400,"station_id":"ce4bhg12rcd13ifvqf80","pricing_plan_id":"cebpf4jnsgd1na2vs0mg"},{"bike_id":"0237309b-0074-4d49-86a9-3821c8ef8244","system_id":"levelo_inurba_marseille","lat":43.32474,"lon":5.3658,"is_reserved":false,"is_disabled":false,"rental_uris":{"android":"levelo://app?vid=0237309b-0074-4d49-86a9-3821c8ef8244","ios":"levelo://app?vid=0237309b-0074-4d49-86a9-3821c8ef8244"},"vehicle_type_id":"4","last_reported":1735661436,"current_range_meters":37600,"station_id":"ce4bhs12rcd13ifvqhvg","pricing_plan_id":"cebpf4jnsgd1na2vs0mg"},{"bike_id":"4c39f437-a5ef-4ec6-98f1-e0f11722d3df","system_id":"levelo_inurba_marseille","lat":43.29613,"lon":5.377283,"is_reserved":false,"is_disabled":false,"rental_uris":{"android":"levelo://app?vid=4c39f437-a5ef-4ec6-98f1-e0f11722d3df","ios":"levelo://app?vid=4c39f437-a5ef-4ec6-98f1-e0f11722d3df"},"vehicle_type_id":"4","last_reported":1735661436,"current_range_meters":12000,"station_id":"ce4bgi92rcd13ifvqb90","pricing_plan_id":"cebpf4jnsgd1na2vs0mg"},{"bike_id":"00138e32-e492-49ec-8baf-715fb2b9afd1","system_id":"levelo_inurba_marseille","lat":43.28057,"lon":5.35292,"is_reserved":false,"is_disabled":false,"rental_uris":{"android":"levelo://app?vid=00138e32-e492-49ec-8baf-715fb2b9afd1","ios":"levelo://app?vid=00138e32-e492-49ec-8baf-715fb2b9afd1"},"vehicle_type_id":"4","last_reported":1735661436,"current_range_meters":25200,"station_id":"ce4bhbh2rcd13ifvqeo0","pricing_plan_id":"cebpf4jnsgd1na2vs0mg"},{"bike_id":"3f85ce8b-2fdd-4846-86c7-195e7b202f6b","system_id":"levelo_inurba_marseille","lat":43.26708,"lon":5.38281,"is_reserved":false,"is_disabled":false,"rental_uris":{"android":"levelo://app?vid=3f85ce8b-2fdd-4846-86c7-195e7b202f6b","ios":"levelo://app?vid=3f85ce8b-2fdd-4846-86c7-195e7b202f6b"},"vehicle_type_id":"4","last_reported":1735661436,"current_range_meters":30800,"station_id":"ce4bhg92rcd13ifvqf90","pricing_plan_id":"cebpf4jnsgd1na2vs0mg"},{"bike_id":"e7f232e6-9751-45f4-a24f-005b95d10947","system_id":"levelo_inurba_marseille","lat":43.2962,"lon":5.37718,"is_reserved":false,"is_disabled":true,"rental_uris":{"android":"levelo://app?vid=e7f232e6-9751-45f4-a24f-005b95d10947","ios":"levelo://app?vid=e7f232e6-9751-45f4-a24f-005b95d10947"},"vehicle_type_id":"4","last_reported":1735661436,"current_range_meters":30400,"station_id":"ce4bgi92rcd13ifvqb90","pricing_plan_id":"cebpf4jnsgd1na2vs0mg"},{"bike_id":"dfd0134d-73ec-4fd9-b561-a804c0959d48","system_id":"levelo_inurba_marseille","lat":43.27418,"lon":5.39425,"is_reserved":false,"is_disabled":false,"rental_uris":{"android":"levelo://app?vid=dfd0134d-73ec-4fd9-b561-a804c0959d48","ios":"levelo://app?vid=dfd0134d-73ec-4fd9-b561-a804c0959d48"},"vehicle_type_id":"4","last_reported":1735661436,"current_range_meters":38800,"station_id":"ce4bhdp2rcd13ifvqf20","pricing_plan_id":"cebpf4jnsgd1na2vs0mg"},{"bike_id":"898d8866-f8ae-4212-8ea1-c15612b63404","system_id":"levelo_inurba_marseille","lat":43.30536,"lon":5.36551,"is_reserved":false,"is_disabled":false,"rental_uris":{"android":"levelo://app?vid=898d8866-f8ae-4212-8ea1-c15612b63404","ios":"levelo://app?vid=898d8866-f8ae-4212-8ea1-c15612b63404"},"vehicle_type_id":"4","last_reported":1735661436,"current_range_meters":27600,"station_id":"ce4bgs12rcd13ifvqcag","pricing_plan_id":"cebpf4jnsgd1na2vs0mg"},{"bike_id":"f89646c9-5cc4-481b-a5b0-3805e17ee138","system_id":"levelo_inurba_marseille","lat":43.32467,"lon":5.36551,"is_reserved":false,"is_disabled":false,"rental_uris":{"android":"levelo://app?vid=f89646c9-5cc4-481b-a5b0-3805e17ee138","ios":"levelo://app?vid=f89646c9-5cc4-481b-a5b0-3805e17ee138"},"vehicle_type_id":"4","last_reported":1735661436,"current_range_meters":16400,"station_id":"ce4bhs12rcd13ifvqhvg","pricing_plan_id":"cebpf4jnsgd1na2vs0mg"},{"bike_id":"6b8fd8f3-0bc3-45eb-97a5-adab4ffeed71","system_id":"levelo_inurba_marseille","lat":43.30161,"lon":5.38072,"is_reserved":false,"is_disabled":false,"rental_uris":{"android":"levelo://app?vid=6b8fd8f3-0bc3-45eb-97a5-adab4ffeed71","ios":"levelo://app?vid=6b8fd8f3-0bc3-45eb-97a5-adab4ffeed71"},"vehicle_type_id":"4","last_reported":1735661436,"current_range_meters":27600,"station_id":"ce4bgjp2rcd13ifvqbh0","pricing_plan_id":"cebpf4jnsgd1na2vs0mg"},{"bike_id":"1a821a66-e0f6-4530-86b3-250338051818","system_id":"levelo_inurba_marseille","lat":43.27068,"lon":5.42279,"is_reserved":false,"is_disabled":false,"rental_uris":{"android":"levelo://app?vid=1a821a66-e0f6-4530-86b3-250338051818","ios":"levelo://app?vid=1a821a66-e0f6-4530-86b3-250338051818"},"vehicle_type_id":"4","last_reported":1735661436,"current_range_meters":38800,"station_id":"ce4bhk92rcd13ifvqgb0","pricing_plan_id":"cebpf4jnsgd1na2vs0mg"},{"bike_id":"bf964ff7-d6c4-4655-aa3c-b44a133b182b","system_id":"levelo_inurba_marseille","lat":43.29008,"lon":5.35596,"is_reserved":false,"is_disabled":false,"rental_uris":{"android":"levelo://app?vid=bf964ff7-d6c4-4655-aa3c-b44a133b182b","ios":"levelo://app?vid=bf964ff7-d6c4-4655-aa3c-b44a133b182b"},"vehicle_type_id":"4","last_reported":1735661436,"current_range_meters":38800,"station_id":"ce4bhb92rcd13ifvqen0","pricing_plan_id":"cebpf4jnsgd1na2vs0mg"},{"bike_id":"faae590e-0ff5-40df-8fed-0dfe83ba2bcf","system_id":"levelo_inurba_marseille","lat":43.28141,"lon":5.42638,"is_reserved":false,"is_disabled":false,"rental_uris":{"android":"levelo://app?vid=faae590e-0ff5-40df-8fed-0dfe83ba2bcf","ios":"levelo://app?vid=faae590e-0ff5-40df-8fed-0dfe83ba2bcf"},"vehicle_type_id":"4","last_reported":1735661436,"current_range_meters":27600,"station_id":"ce4bhnh2rcd13ifvqgug","pricing_plan_id":"cebpf4jnsgd1na2vs0mg"},{"bike_id":"f5997a88-606e-48c9-933e-041b10894cea","system_id":"levelo_inurba_marseille","lat":43.2707,"lon":5.42281,"is_reserved":false,"is_disabled":false,"rental_uris":{"android":"levelo://app?vid=f5997a88-606e-48c9-933e-041b10894cea","ios":"levelo://app?vid=f5997a88-606e-48c9-933e-041b10894cea"},"vehicle_type_id":"4","last_reported":1735661436,"current_range_meters":24000,"station_id":"ce4bhk92rcd13ifvqgb0","pricing_plan_id":"cebpf4jnsgd1na2vs0mg"},{"bike_id":"a50e94a1-8424-44c0-8660-6ded8293614a","system_id":"levelo_inurba_marseille","lat":43.33027,"lon":5.39042,"is_reserved":false,"is_disabled":false,"rental_uris":{"android":"levelo://app?vid=a50e94a1-8424-44c0-8660-6ded8293614a","ios":"levelo://app?vid=a50e94a1-8424-44c0-8660-6ded8293614a"},"vehicle_type_id":"4","last_reported":1735661436,"current_range_meters":26000,"station_id":"ce4bhr92rcd13ifvqhrg","pricing_plan_id":"cebpf4jnsgd1na2vs0mg"},{"bike_id":"232b9724-4a70-4c05-ada5-c7d53ae83000","system_id":"levelo_inurba_marseille","lat":43.30536,"lon":5.36706,"is_reserved":false,"is_disabled":false,"rental_uris":{"android":"levelo://app?vid=232b9724-4a70-4c05-ada5-c7d53ae83000","ios":"levelo://app?vid=232b9724-4a70-4c05-ada5-c7d53ae83000"},"vehicle_type_id":"4","last_reported":1735661436,"current_range_meters":38000,"station_id":"ce4bgrp2rcd13ifvqc9g","pricing_plan_id":"cebpf4jnsgd1na2vs0mg"},{"bike_id":"97ac4149-9f70-45de-9234-d34dbf67aef9","system_id":"levelo_inurba_marseille","lat":43.3088,"lon":5.39652,"is_reserved":false,"is_disabled":true,"rental_uris":{"android":"levelo://app?vid=97ac4149-9f70-45de-9234-d34dbf67aef9","ios":"levelo://app?vid=97ac4149-9f70-45de-9234-d34dbf67aef9"},"vehicle_type_id":"4","last_reported":1735661436,"current_range_meters":800,"station_id":"ce4bh012rcd13ifvqcv0","pricing_plan_id":"cebpf4jnsgd1na2vs0mg"},{"bike_id":"4ae90592-e920-400e-8a25-b327a1d3d78f","system_id":"levelo_inurba_marseille","lat":43.24672,"lon":5.38163,"is_reserved":false,"is_disabled":false,"rental_uris":{"android":"levelo://app?vid=4ae90592-e920-400e-8a25-b327a1d3d78f","ios":"levelo://app?vid=4ae90592-e920-400e-8a25-b327a1d3d78f"},"vehicle_type_id":"4","last_reported":1735661436,"current_range_meters":8400,"station_id":"ce4bhih2rcd13ifvqfr0","pricing_plan_id":"cebpf4jnsgd1na2vs0mg"},{"bike_id":"9a0eba0d-8d44-4279-a2fa-f338d6c0f174","system_id":"levelo_inurba_marseille","lat":43.28601,"lon":5.37046,"is_reserved":false,"is_disabled":false,"rental_uris":{"android":"levelo://app?vid=9a0eba0d-8d44-4279-a2fa-f338d6c0f174","ios":"levelo://app?vid=9a0eba0d-8d44-4279-a2fa-f338d6c0f174"},"vehicle_type_id":"4","last_reported":1735661436,"current_range_meters":12400,"station_id":"ce4bht12rcd13ifvqi60","pricing_plan_id":"cebpf4jnsgd1na2vs0mg"},{"bike_id":"37fe9085-3022-46a1-aafb-30ba883fe30c","system_id":"levelo_inurba_marseille","lat":43.2707,"lon":5.4228,"is_reserved":false,"is_disabled":false,"rental_uris":{"android":"levelo://app?vid=37fe9085-3022-46a1-aafb-30ba883fe30c","ios":"levelo://app?vid=37fe9085-3022-46a1-aafb-30ba883fe30c"},"vehicle_type_id":"4","last_reported":1735661436,"current_range_meters":18800,"station_id":"ce4bhk92rcd13ifvqgb0","pricing_plan_id":"cebpf4jnsgd1na2vs0mg"},{"bike_id":"9f6f2313-c1a8-4417-b604-2f0daee035fc","system_id":"levelo_inurba_marseille","lat":43.23955,"lon":5.36625,"is_reserved":false,"is_disabled":false,"rental_uris":{"android":"levelo://app?vid=9f6f2313-c1a8-4417-b604-2f0daee035fc","ios":"levelo://app?vid=9f6f2313-c1a8-4417-b604-2f0daee035fc"},"vehicle_type_id":"4","last_reported":1735661436,"current_range_meters":28800,"station_id":"ce4bhi12rcd13ifvqfp0","pricing_plan_id":"cebpf4jnsgd1na2vs0mg"},{"bike_id":"1e7e0009-7be7-499a-a4d2-a6c912d4dc6f","system_id":"levelo_inurba_marseille","lat":43.29574,"lon":5.37508,"is_reserved":false,"is_disabled":false,"rental_uris":{"android":"levelo://app?vid=1e7e0009-7be7-499a-a4d2-a6c912d4dc6f","ios":"levelo://app?vid=1e7e0009-7be7-499a-a4d2-a6c912d4dc6f"},"vehicle_type_id":"4","last_reported":1735661436,"current_range_meters":33200,"station_id":"ce4bgh92rcd13ifvqb50","pricing_plan_id":"cebpf4jnsgd1na2vs0mg"},{"bike_id":"f651234f-c1d4-49f5-98f0-1265864b46a2","system_id":"levelo_inurba_marseille","lat":43.29786,"lon":5.3808,"is_reserved":false,"is_disabled":false,"rental_uris":{"android":"levelo://app?vid=f651234f-c1d4-49f5-98f0-1265864b46a2","ios":"levelo://app?vid=f651234f-c1d4-49f5-98f0-1265864b46a2"},"vehicle_type_id":"4","last_reported":1735661436,"current_range_meters":28800,"station_id":"ce4bgip2rcd13ifvqbb0","pricing_plan_id":"cebpf4jnsgd1na2vs0mg"},{"bike_id":"e2e37fcf-bdca-4703-b57b-04e9ac7eb714","system_id":"levelo_inurba_marseille","lat":43.30893,"lon":5.37186,"is_reserved":false,"is_disabled":false,"rental_uris":{"android":"levelo://app?vid=e2e37fcf-bdca-4703-b57b-04e9ac7eb714","ios":"levelo://app?vid=e2e37fcf-bdca-4703-b57b-04e9ac7eb714"},"vehicle_type_id":"4","last_reported":1735661436,"current_range_meters":38800,"station_id":"ce4bguh2rcd13ifvqckg","pricing_plan_id":"cebpf4jnsgd1na2vs0mg"},{"bike_id":"3bab2653-c962-46e7-8d14-0cb64372ec3d","system_id":"levelo_inurba_marseille","lat":43.320492,"lon":5.415355,"is_reserved":false,"is_disabled":false,"rental_uris":{"android":"levelo://app?vid=3bab2653-c962-46e7-8d14-0cb64372ec3d","ios":"levelo://app?vid=3bab2653-c962-46e7-8d14-0cb64372ec3d"},"vehicle_type_id":"4","last_reported":1735661436,"current_range_meters":13600,"station_id":"ce4bhq92rcd13ifvqhkg","pricing_plan_id":"cebpf4jnsgd1na2vs0mg"},{"bike_id":"d00f47c3-23fd-4fe1-862f-d83193508f4c","system_id":"levelo_inurba_marseille","lat":43.29524,"lon":5.37502,"is_reserved":false,"is_disabled":false,"rental_uris":{"android":"levelo://app?vid=d00f47c3-23fd-4fe1-862f-d83193508f4c","ios":"levelo://app?vid=d00f47c3-23fd-4fe1-862f-d83193508f4c"},"vehicle_type_id":"4","last_reported":1735661436,"current_range_meters":30400,"station_id":"ce4bgkp2rcd13ifvqbmg","pricing_plan_id":"cebpf4jnsgd1na2vs0mg"},{"bike_id":"94e6dee2-3159-449e-9ee5-297188ebe26e","system_id":"levelo_inurba_marseille","lat":43.299124,"lon":5.374609,"is_reserved":false,"is_disabled":false,"rental_uris":{"android":"levelo://app?vid=94e6dee2-3159-449e-9ee5-297188ebe26e","ios":"levelo://app?vid=94e6dee2-3159-449e-9ee5-297188ebe26e"},"vehicle_type_id":"4","last_reported":1735661436,"current_range_meters":25600,"station_id":"ce4bgjh2rcd13ifvqbg0","pricing_plan_id":"cebpf4jnsgd1na2vs0mg"},{"bike_id":"abb384d4-50ff-4793-a8c5-8fc16babe629","system_id":"levelo_inurba_marseille","lat":43.30125,"lon":5.3745,"is_reserved":false,"is_disabled":false,"rental_uris":{"android":"levelo://app?vid=abb384d4-50ff-4793-a8c5-8fc16babe629","ios":"levelo://app?vid=abb384d4-50ff-4793-a8c5-8fc16babe629"},"vehicle_type_id":"4","last_reported":1735661436,"current_range_meters":38800,"station_id":"ce4bgs92rcd13ifvqcc0","pricing_plan_id":"cebpf4jnsgd1na2vs0mg"},{"bike_id":"8cbc8b99-428c-4040-b86c-4e2c4fffea65","system_id":"levelo_inurba_marseille","lat":43.33756,"lon":5.37454,"is_reserved":false,"is_disabled":true,"rental_uris":{"android":"levelo://app?vid=8cbc8b99-428c-4040-b86c-4e2c4fffea65","ios":"levelo://app?vid=8cbc8b99-428c-4040-b86c-4e2c4fffea65"},"vehicle_type_id":"4","last_reported":1735661436,"current_range_meters":37600,"station_id":"","pricing_plan_id":"cebpf4jnsgd1na2vs0mg"},{"bike_id":"65e47f8e-8281-4877-9957-4bbb63858c4d","system_id":"levelo_inurba_marseille","lat":43.25731,"lon":5.41109,"is_reserved":false,"is_disabled":false,"rental_uris":{"android":"levelo://app?vid=65e47f8e-8281-4877-9957-4bbb63858c4d","ios":"levelo://app?vid=65e47f8e-8281-4877-9957-4bbb63858c4d"},"vehicle_type_id":"4","last_reported":1735661436,"current_range_meters":28400,"station_id":"ce4bhkp2rcd13ifvqgd0","pricing_plan_id":"cebpf4jnsgd1na2vs0mg"},{"bike_id":"7a01f333-922c-47c7-b3d0-46f4a2674452","system_id":"levelo_inurba_marseille","lat":43.26681,"lon":5.38264,"is_reserved":false,"is_disabled":false,"rental_uris":{"android":"levelo://app?vid=7a01f333-922c-47c7-b3d0-46f4a2674452","ios":"levelo://app?vid=7a01f333-922c-47c7-b3d0-46f4a2674452"},"vehicle_type_id":"4","last_reported":1735661436,"current_range_meters":14800,"station_id":"ce4bhg92rcd13ifvqf90","pricing_plan_id":"cebpf4jnsgd1na2vs0mg"},{"bike_id":"749a2a84-3a9f-4103-a540-347a56e3c886","system_id":"levelo_inurba_marseille","lat":43.2756,"lon":5.38428,"is_reserved":false,"is_disabled":false,"rental_uris":{"android":"levelo://app?vid=749a2a84-3a9f-4103-a540-347a56e3c886","ios":"levelo://app?vid=749a2a84-3a9f-4103-a540-347a56e3c886"},"vehicle_type_id":"4","last_reported":1735661436,"current_range_meters":21600,"station_id":"ce4bhh92rcd13ifvqfi0","pricing_plan_id":"cebpf4jnsgd1na2vs0mg"},{"bike_id":"b1815487-383e-42be-8a0b-8b8db0c2ceef","system_id":"levelo_inurba_marseille","lat":43.32296,"lon":5.38263,"is_reserved":false,"is_disabled":false,"rental_uris":{"android":"levelo://app?vid=b1815487-383e-42be-8a0b-8b8db0c2ceef","ios":"levelo://app?vid=b1815487-383e-42be-8a0b-8b8db0c2ceef"},"vehicle_type_id":"4","last_reported":1735661436,"current_range_meters":38800,"station_id":"ce4bhr12rcd13ifvqhqg","pricing_plan_id":"cebpf4jnsgd1na2vs0mg"},{"bike_id":"08aad50c-cf0a-4112-9dc9-853b851b669c","system_id":"levelo_inurba_marseille","lat":43.29619,"lon":5.37715,"is_reserved":false,"is_disabled":false,"rental_uris":{"android":"levelo://app?vid=08aad50c-cf0a-4112-9dc9-853b851b669c","ios":"levelo://app?vid=08aad50c-cf0a-4112-9dc9-853b851b669c"},"vehicle_type_id":"4","last_reported":1735661436,"current_range_meters":37600,"station_id":"ce4bgi92rcd13ifvqb90","pricing_plan_id":"cebpf4jnsgd1na2vs0mg"},{"bike_id":"74bfd52b-7e46-465d-8766-e79667dc7763","system_id":"levelo_inurba_marseille","lat":43.32085,"lon":5.41549,"is_reserved":false,"is_disabled":false,"rental_uris":{"android":"levelo://app?vid=74bfd52b-7e46-465d-8766-e79667dc7763","ios":"levelo://app?vid=74bfd52b-7e46-465d-8766-e79667dc7763"},"vehicle_type_id":"4","last_reported":1735661436,"current_range_meters":38800,"station_id":"ce4bhq92rcd13ifvqhkg","pricing_plan_id":"cebpf4jnsgd1na2vs0mg"},{"bike_id":"a9ad46d6-1750-405f-8074-9378a5ffcb62","system_id":"levelo_inurba_marseille","lat":43.29567,"lon":5.37504,"is_reserved":false,"is_disabled":false,"rental_uris":{"android":"levelo://app?vid=a9ad46d6-1750-405f-8074-9378a5ffcb62","ios":"levelo://app?vid=a9ad46d6-1750-405f-8074-9378a5ffcb62"},"vehicle_type_id":"4","last_reported":1735661436,"current_range_meters":24800,"station_id":"ce4bgh92rcd13ifvqb50","pricing_plan_id":"cebpf4jnsgd1na2vs0mg"},{"bike_id":"df334d50-4421-42a5-a762-fb7f39807cc1","system_id":"levelo_inurba_marseille","lat":43.337444,"lon":5.374475,"is_reserved":false,"is_disabled":false,"rental_uris":{"android":"levelo://app?vid=df334d50-4421-42a5-a762-fb7f39807cc1","ios":"levelo://app?vid=df334d50-4421-42a5-a762-fb7f39807cc1"},"vehicle_type_id":"4","last_reported":1735661436,"current_range_meters":38800,"station_id":"","pricing_plan_id":"cebpf4jnsgd1na2vs0mg"},{"bike_id":"06a845ee-9c64-4db7-8cf7-04ee769e84b3","system_id":"levelo_inurba_marseille","lat":43.25107,"lon":5.40313,"is_reserved":false,"is_disabled":false,"rental_uris":{"android":"levelo://app?vid=06a845ee-9c64-4db7-8cf7-04ee769e84b3","ios":"levelo://app?vid=06a845ee-9c64-4db7-8cf7-04ee769e84b3"},"vehicle_type_id":"4","last_reported":1735661436,"current_range_meters":25200,"station_id":"ce4bhlh2rcd13ifvqgig","pricing_plan_id":"cebpf4jnsgd1na2vs0mg"},{"bike_id":"35d7b981-f2f8-4e1f-bf58-6f3547d4e1f6","system_id":"levelo_inurba_marseille","lat":43.30301,"lon":5.369,"is_reserved":false,"is_disabled":true,"rental_uris":{"android":"levelo://app?vid=35d7b981-f2f8-4e1f-bf58-6f3547d4e1f6","ios":"levelo://app?vid=35d7b981-f2f8-4e1f-bf58-6f3547d4e1f6"},"vehicle_type_id":"4","last_reported":1735661436,"current_range_meters":27200,"station_id":"ce4bgqh2rcd13ifvqc5g","pricing_plan_id":"cebpf4jnsgd1na2vs0mg"},{"bike_id":"9779391f-1699-4617-9cc7-3855c54dda9e","system_id":"levelo_inurba_marseille","lat":43.30934,"lon":5.40146,"is_reserved":false,"is_disabled":false,"rental_uris":{"android":"levelo://app?vid=9779391f-1699-4617-9cc7-3855c54dda9e","ios":"levelo://app?vid=9779391f-1699-4617-9cc7-3855c54dda9e"},"vehicle_type_id":"4","last_reported":1735661436,"current_range_meters":26800,"station_id":"ce4bgvp2rcd13ifvqct0","pricing_plan_id":"cebpf4jnsgd1na2vs0mg"},{"bike_id":"847e09aa-0198-46d1-b907-778eecf50dd1","system_id":"levelo_inurba_marseille","lat":43.31232,"lon":5.36873,"is_reserved":false,"is_disabled":true,"rental_uris":{"android":"levelo://app?vid=847e09aa-0198-46d1-b907-778eecf50dd1","ios":"levelo://app?vid=847e09aa-0198-46d1-b907-778eecf50dd1"},"vehicle_type_id":"4","last_reported":1735661436,"current_range_meters":38800,"station_id":"ce4bgl92rcd13ifvqbq0","pricing_plan_id":"cebpf4jnsgd1na2vs0mg"},{"bike_id":"923c8f4c-11ee-4d68-88a4-4f22af762798","system_id":"levelo_inurba_marseille","lat":43.32474,"lon":5.36563,"is_reserved":false,"is_disabled":false,"rental_uris":{"android":"levelo://app?vid=923c8f4c-11ee-4d68-88a4-4f22af762798","ios":"levelo://app?vid=923c8f4c-11ee-4d68-88a4-4f22af762798"},"vehicle_type_id":"4","last_reported":1735661436,"current_range_meters":31200,"station_id":"ce4bhs12rcd13ifvqhvg","pricing_plan_id":"cebpf4jnsgd1na2vs0mg"},{"bike_id":"5367a292-5564-4681-91cd-97babb89fc00","system_id":"levelo_inurba_marseille","lat":43.22935,"lon":5.35365,"is_reserved":false,"is_disabled":false,"rental_uris":{"android":"levelo://app?vid=5367a292-5564-4681-91cd-97babb89fc00","ios":"levelo://app?vid=5367a292-5564-4681-91cd-97babb89fc00"},"vehicle_type_id":"4","last_reported":1735661436,"current_range_meters":27200,"station_id":"cpo3532slgdg3j2ikp40","pricing_plan_id":"cebpf4jnsgd1na2vs0mg"},{"bike_id":"1d5543c4-1c87-4447-ad2e-0cc64903ea75","system_id":"levelo_inurba_marseille","lat":43.25869,"lon":5.39897,"is_reserved":false,"is_disabled":false,"rental_uris":{"android":"levelo://app?vid=1d5543c4-1c87-4447-ad2e-0cc64903ea75","ios":"levelo://app?vid=1d5543c4-1c87-4447-ad2e-0cc64903ea75"},"vehicle_type_id":"4","last_reported":1735661436,"current_range_meters":16400,"station_id":"ce4bhl92rcd13ifvqghg","pricing_plan_id":"cebpf4jnsgd1na2vs0mg"},{"bike_id":"0483d5a5-12c2-4b90-8e6c-47d6d5a4b82c","system_id":"levelo_inurba_marseille","lat":43.25826,"lon":5.39403,"is_reserved":false,"is_disabled":false,"rental_uris":{"android":"levelo://app?vid=0483d5a5-12c2-4b90-8e6c-47d6d5a4b82c","ios":"levelo://app?vid=0483d5a5-12c2-4b90-8e6c-47d6d5a4b82c"},"vehicle_type_id":"4","last_reported":1735661436,"current_range_meters":38800,"station_id":"ce4bhip2rcd13ifvqft0","pricing_plan_id":"cebpf4jnsgd1na2vs0mg"},{"bike_id":"523f53b8-d5fa-4c60-a25e-8902b398e89d","system_id":"levelo_inurba_marseille","lat":43.29558,"lon":5.42289,"is_reserved":false,"is_disabled":false,"rental_uris":{"android":"levelo://app?vid=523f53b8-d5fa-4c60-a25e-8902b398e89d","ios":"levelo://app?vid=523f53b8-d5fa-4c60-a25e-8902b398e89d"},"vehicle_type_id":"4","last_reported":1735661436,"current_range_meters":38800,"station_id":"ce4bhph2rcd13ifvqhdg","pricing_plan_id":"cebpf4jnsgd1na2vs0mg"},{"bike_id":"66ad4ea9-62a7-4256-b00c-daf29a922c03","system_id":"levelo_inurba_marseille","lat":43.29304,"lon":5.37192,"is_reserved":false,"is_disabled":false,"rental_uris":{"android":"levelo://app?vid=66ad4ea9-62a7-4256-b00c-daf29a922c03","ios":"levelo://app?vid=66ad4ea9-62a7-4256-b00c-daf29a922c03"},"vehicle_type_id":"4","last_reported":1735661436,"current_range_meters":28800,"station_id":"ce4bgh92rcd13ifvqb40","pricing_plan_id":"cebpf4jnsgd1na2vs0mg"},{"bike_id":"aa153525-78e0-4122-ab1b-7135fab777c7","system_id":"levelo_inurba_marseille","lat":43.308797,"lon":5.37187,"is_reserved":false,"is_disabled":false,"rental_uris":{"android":"levelo://app?vid=aa153525-78e0-4122-ab1b-7135fab777c7","ios":"levelo://app?vid=aa153525-78e0-4122-ab1b-7135fab777c7"},"vehicle_type_id":"4","last_reported":1735661436,"current_range_meters":38000,"station_id":"ce4bguh2rcd13ifvqckg","pricing_plan_id":"cebpf4jnsgd1na2vs0mg"},{"bike_id":"fcc98777-249b-46bb-a839-983a1113bbe0","system_id":"levelo_inurba_marseille","lat":43.30532,"lon":5.36552,"is_reserved":false,"is_disabled":false,"rental_uris":{"android":"levelo://app?vid=fcc98777-249b-46bb-a839-983a1113bbe0","ios":"levelo://app?vid=fcc98777-249b-46bb-a839-983a1113bbe0"},"vehicle_type_id":"4","last_reported":1735661436,"current_range_meters":14400,"station_id":"ce4bgs12rcd13ifvqcag","pricing_plan_id":"cebpf4jnsgd1na2vs0mg"},{"bike_id":"c6eedc9a-d2e0-4edf-a75c-a45a3178a9ec","system_id":"levelo_inurba_marseille","lat":43.26041,"lon":5.37547,"is_reserved":false,"is_disabled":false,"rental_uris":{"android":"levelo://app?vid=c6eedc9a-d2e0-4edf-a75c-a45a3178a9ec","ios":"levelo://app?vid=c6eedc9a-d2e0-4edf-a75c-a45a3178a9ec"},"vehicle_type_id":"4","last_reported":1735661436,"current_range_meters":38000,"station_id":"ce4bhgh2rcd13ifvqfa0","pricing_plan_id":"cebpf4jnsgd1na2vs0mg"},{"bike_id":"94d38955-21a2-4852-a963-0a3cc1374e49","system_id":"levelo_inurba_marseille","lat":43.23189,"lon":5.35542,"is_reserved":false,"is_disabled":false,"rental_uris":{"android":"levelo://app?vid=94d38955-21a2-4852-a963-0a3cc1374e49","ios":"levelo://app?vid=94d38955-21a2-4852-a963-0a3cc1374e49"},"vehicle_type_id":"4","last_reported":1735661436,"current_range_meters":38000,"station_id":"ce4bhu92rcd13ifvqi70","pricing_plan_id":"cebpf4jnsgd1na2vs0mg"},{"bike_id":"e53a814f-c190-4153-a68e-519bc61d22d3","system_id":"levelo_inurba_marseille","lat":43.24545,"lon":5.39529,"is_reserved":false,"is_disabled":false,"rental_uris":{"android":"levelo://app?vid=e53a814f-c190-4153-a68e-519bc61d22d3","ios":"levelo://app?vid=e53a814f-c190-4153-a68e-519bc61d22d3"},"vehicle_type_id":"4","last_reported":1735661436,"current_range_meters":38800,"station_id":"ce4bhlp2rcd13ifvqgjg","pricing_plan_id":"cebpf4jnsgd1na2vs0mg"},{"bike_id":"88369a77-7b87-45c1-9953-a4d4e1155364","system_id":"levelo_inurba_marseille","lat":43.28419,"lon":5.34989,"is_reserved":false,"is_disabled":false,"rental_uris":{"android":"levelo://app?vid=88369a77-7b87-45c1-9953-a4d4e1155364","ios":"levelo://app?vid=88369a77-7b87-45c1-9953-a4d4e1155364"},"vehicle_type_id":"4","last_reported":1735661436,"current_range_meters":38000,"station_id":"ce4bhbh2rcd13ifvqepg","pricing_plan_id":"cebpf4jnsgd1na2vs0mg"},{"bike_id":"e7f6b94b-592f-4376-ae27-ecfe3110b335","system_id":"levelo_inurba_marseille","lat":43.29567,"lon":5.37512,"is_reserved":false,"is_disabled":false,"rental_uris":{"android":"levelo://app?vid=e7f6b94b-592f-4376-ae27-ecfe3110b335","ios":"levelo://app?vid=e7f6b94b-592f-4376-ae27-ecfe3110b335"},"vehicle_type_id":"4","last_reported":1735661436,"current_range_meters":15200,"station_id":"ce4bgh92rcd13ifvqb50","pricing_plan_id":"cebpf4jnsgd1na2vs0mg"},{"bike_id":"ca497fc6-cd22-4171-8d71-508c45bf12cf","system_id":"levelo_inurba_marseille","lat":43.29621,"lon":5.37146,"is_reserved":false,"is_disabled":true,"rental_uris":{"android":"levelo://app?vid=ca497fc6-cd22-4171-8d71-508c45bf12cf","ios":"levelo://app?vid=ca497fc6-cd22-4171-8d71-508c45bf12cf"},"vehicle_type_id":"4","last_reported":1735661436,"current_range_meters":0,"station_id":"ce4bgnh2rcd13ifvqc0g","pricing_plan_id":"cebpf4jnsgd1na2vs0mg"},{"bike_id":"fdcb93a4-8a39-475e-8a0d-caf375d10c96","system_id":"levelo_inurba_marseille","lat":43.29573,"lon":5.37509,"is_reserved":false,"is_disabled":false,"rental_uris":{"android":"levelo://app?vid=fdcb93a4-8a39-475e-8a0d-caf375d10c96","ios":"levelo://app?vid=fdcb93a4-8a39-475e-8a0d-caf375d10c96"},"vehicle_type_id":"4","last_reported":1735661436,"current_range_meters":36400,"station_id":"ce4bgh92rcd13ifvqb50","pricing_plan_id":"cebpf4jnsgd1na2vs0mg"},{"bike_id":"f44072b8-8b0e-4d5a-a8ce-d7e3000467a6","system_id":"levelo_inurba_marseille","lat":43.23967,"lon":5.36637,"is_reserved":false,"is_disabled":false,"rental_uris":{"android":"levelo://app?vid=f44072b8-8b0e-4d5a-a8ce-d7e3000467a6","ios":"levelo://app?vid=f44072b8-8b0e-4d5a-a8ce-d7e3000467a6"},"vehicle_type_id":"4","last_reported":1735661436,"current_range_meters":36000,"station_id":"ce4bhi12rcd13ifvqfp0","pricing_plan_id":"cebpf4jnsgd1na2vs0mg"},{"bike_id":"917042ea-f2ca-4acb-86cb-da5cd8c88657","system_id":"levelo_inurba_marseille","lat":43.30296,"lon":5.39219,"is_reserved":false,"is_disabled":false,"rental_uris":{"android":"levelo://app?vid=917042ea-f2ca-4acb-86cb-da5cd8c88657","ios":"levelo://app?vid=917042ea-f2ca-4acb-86cb-da5cd8c88657"},"vehicle_type_id":"4","last_reported":1735661436,"current_range_meters":17200,"station_id":"ce4bgkh2rcd13ifvqbk0","pricing_plan_id":"cebpf4jnsgd1na2vs0mg"},{"bike_id":"91f48556-6be7-4726-856a-0ff67d45df38","system_id":"levelo_inurba_marseille","lat":43.31182,"lon":5.387,"is_reserved":false,"is_disabled":false,"rental_uris":{"android":"levelo://app?vid=91f48556-6be7-4726-856a-0ff67d45df38","ios":"levelo://app?vid=91f48556-6be7-4726-856a-0ff67d45df38"},"vehicle_type_id":"4","last_reported":1735661436,"current_range_meters":38800,"station_id":"ce4bgv12rcd13ifvqcp0","pricing_plan_id":"cebpf4jnsgd1na2vs0mg"},{"bike_id":"3fd7d4e7-5c4c-47cd-b188-81e7df9a6c57","system_id":"levelo_inurba_marseille","lat":43.25459,"lon":5.37607,"is_reserved":false,"is_disabled":false,"rental_uris":{"android":"levelo://app?vid=3fd7d4e7-5c4c-47cd-b188-81e7df9a6c57","ios":"levelo://app?vid=3fd7d4e7-5c4c-47cd-b188-81e7df9a6c57"},"vehicle_type_id":"4","last_reported":1735661436,"current_range_meters":23200,"station_id":"ce4bhh12rcd13ifvqff0","pricing_plan_id":"cebpf4jnsgd1na2vs0mg"},{"bike_id":"8c6775f0-8523-4aa2-9dea-60c50dd12624","system_id":"levelo_inurba_marseille","lat":43.24803,"lon":5.37454,"is_reserved":false,"is_disabled":false,"rental_uris":{"android":"levelo://app?vid=8c6775f0-8523-4aa2-9dea-60c50dd12624","ios":"levelo://app?vid=8c6775f0-8523-4aa2-9dea-60c50dd12624"},"vehicle_type_id":"4","last_reported":1735661436,"current_range_meters":32400,"station_id":"ce4bhgh2rcd13ifvqfb0","pricing_plan_id":"cebpf4jnsgd1na2vs0mg"},{"bike_id":"dac94ecf-3203-4c89-acc0-21c14e979588","system_id":"levelo_inurba_marseille","lat":43.26691,"lon":5.38277,"is_reserved":false,"is_disabled":false,"rental_uris":{"android":"levelo://app?vid=dac94ecf-3203-4c89-acc0-21c14e979588","ios":"levelo://app?vid=dac94ecf-3203-4c89-acc0-21c14e979588"},"vehicle_type_id":"4","last_reported":1735661436,"current_range_meters":15200,"station_id":"ce4bhg92rcd13ifvqf90","pricing_plan_id":"cebpf4jnsgd1na2vs0mg"},{"bike_id":"9c42c59a-a990-48ee-91ac-32ebebcaabf5","system_id":"levelo_inurba_marseille","lat":43.27554,"lon":5.38429,"is_reserved":false,"is_disabled":false,"rental_uris":{"android":"levelo://app?vid=9c42c59a-a990-48ee-91ac-32ebebcaabf5","ios":"levelo://app?vid=9c42c59a-a990-48ee-91ac-32ebebcaabf5"},"vehicle_type_id":"4","last_reported":1735661436,"current_range_meters":38800,"station_id":"ce4bhh92rcd13ifvqfi0","pricing_plan_id":"cebpf4jnsgd1na2vs0mg"},{"bike_id":"33627164-74dc-4db2-a6ec-b1f60092e8e5","system_id":"levelo_inurba_marseille","lat":43.30327,"lon":5.36917,"is_reserved":false,"is_disabled":false,"rental_uris":{"android":"levelo://app?vid=33627164-74dc-4db2-a6ec-b1f60092e8e5","ios":"levelo://app?vid=33627164-74dc-4db2-a6ec-b1f60092e8e5"},"vehicle_type_id":"4","last_reported":1735661436,"current_range_meters":32800,"station_id":"ce4bgqh2rcd13ifvqc5g","pricing_plan_id":"cebpf4jnsgd1na2vs0mg"},{"bike_id":"0ab29ede-7ec3-497d-83f6-42fce8449d36","system_id":"levelo_inurba_marseille","lat":43.30094,"lon":5.39117,"is_reserved":false,"is_disabled":true,"rental_uris":{"android":"levelo://app?vid=0ab29ede-7ec3-497d-83f6-42fce8449d36","ios":"levelo://app?vid=0ab29ede-7ec3-497d-83f6-42fce8449d36"},"vehicle_type_id":"4","last_reported":1735661436,"current_range_meters":2000,"station_id":"ce4bh192rcd13ifvqdb0","pricing_plan_id":"cebpf4jnsgd1na2vs0mg"},{"bike_id":"b08b44c9-4f43-459d-a0dd-d0fc0b2388a9","system_id":"levelo_inurba_marseille","lat":43.29167,"lon":5.37193,"is_reserved":false,"is_disabled":false,"rental_uris":{"android":"levelo://app?vid=b08b44c9-4f43-459d-a0dd-d0fc0b2388a9","ios":"levelo://app?vid=b08b44c9-4f43-459d-a0dd-d0fc0b2388a9"},"vehicle_type_id":"4","last_reported":1735661436,"current_range_meters":12000,"station_id":"","pricing_plan_id":"cebpf4jnsgd1na2vs0mg"},{"bike_id":"07132184-eadc-471a-8ef5-662bc72d454e","system_id":"levelo_inurba_marseille","lat":43.27419,"lon":5.39412,"is_reserved":false,"is_disabled":false,"rental_uris":{"android":"levelo://app?vid=07132184-eadc-471a-8ef5-662bc72d454e","ios":"levelo://app?vid=07132184-eadc-471a-8ef5-662bc72d454e"},"vehicle_type_id":"4","last_reported":1735661436,"current_range_meters":26000,"station_id":"ce4bhdp2rcd13ifvqf20","pricing_plan_id":"cebpf4jnsgd1na2vs0mg"},{"bike_id":"ddaa2fb9-dbb8-4086-8c94-de0ff251173c","system_id":"levelo_inurba_marseille","lat":43.278345,"lon":5.392074,"is_reserved":false,"is_disabled":false,"rental_uris":{"android":"levelo://app?vid=ddaa2fb9-dbb8-4086-8c94-de0ff251173c","ios":"levelo://app?vid=ddaa2fb9-dbb8-4086-8c94-de0ff251173c"},"vehicle_type_id":"4","last_reported":1735661436,"current_range_meters":38400,"station_id":"ce4bhjp2rcd13ifvqga0","pricing_plan_id":"cebpf4jnsgd1na2vs0mg"},{"bike_id":"dbbad830-1dc0-4938-862c-ccb772e53da1","system_id":"levelo_inurba_marseille","lat":43.2952,"lon":5.37487,"is_reserved":false,"is_disabled":false,"rental_uris":{"android":"levelo://app?vid=dbbad830-1dc0-4938-862c-ccb772e53da1","ios":"levelo://app?vid=dbbad830-1dc0-4938-862c-ccb772e53da1"},"vehicle_type_id":"4","last_reported":1735661436,"current_range_meters":29600,"station_id":"ce4bgkp2rcd13ifvqbmg","pricing_plan_id":"cebpf4jnsgd1na2vs0mg"},{"bike_id":"9c1ff583-8c67-46c7-9cc0-403d0e93a126","system_id":"levelo_inurba_marseille","lat":43.28741,"lon":5.36092,"is_reserved":false,"is_disabled":false,"rental_uris":{"android":"levelo://app?vid=9c1ff583-8c67-46c7-9cc0-403d0e93a126","ios":"levelo://app?vid=9c1ff583-8c67-46c7-9cc0-403d0e93a126"},"vehicle_type_id":"4","last_reported":1735661436,"current_range_meters":38800,"station_id":"cki0cbj6b192h4jlfktg","pricing_plan_id":"cebpf4jnsgd1na2vs0mg"},{"bike_id":"7d035496-c0e9-4bf1-8ae6-7c6c392d6174","system_id":"levelo_inurba_marseille","lat":43.29008,"lon":5.35618,"is_reserved":false,"is_disabled":false,"rental_uris":{"android":"levelo://app?vid=7d035496-c0e9-4bf1-8ae6-7c6c392d6174","ios":"levelo://app?vid=7d035496-c0e9-4bf1-8ae6-7c6c392d6174"},"vehicle_type_id":"4","last_reported":1735661436,"current_range_meters":30800,"station_id":"ce4bhb92rcd13ifvqen0","pricing_plan_id":"cebpf4jnsgd1na2vs0mg"},{"bike_id":"94c825d5-d06d-4fd4-aa27-10c8f0378f5c","system_id":"levelo_inurba_marseille","lat":43.28665,"lon":5.36351,"is_reserved":false,"is_disabled":false,"rental_uris":{"android":"levelo://app?vid=94c825d5-d06d-4fd4-aa27-10c8f0378f5c","ios":"levelo://app?vid=94c825d5-d06d-4fd4-aa27-10c8f0378f5c"},"vehicle_type_id":"4","last_reported":1735661436,"current_range_meters":36400,"station_id":"ce4bhah2rcd13ifvqej0","pricing_plan_id":"cebpf4jnsgd1na2vs0mg"},{"bike_id":"0d02c513-ca2e-4e40-9108-e87868ca0473","system_id":"levelo_inurba_marseille","lat":43.28121,"lon":5.42624,"is_reserved":false,"is_disabled":false,"rental_uris":{"android":"levelo://app?vid=0d02c513-ca2e-4e40-9108-e87868ca0473","ios":"levelo://app?vid=0d02c513-ca2e-4e40-9108-e87868ca0473"},"vehicle_type_id":"4","last_reported":1735661436,"current_range_meters":27600,"station_id":"ce4bhnh2rcd13ifvqgug","pricing_plan_id":"cebpf4jnsgd1na2vs0mg"},{"bike_id":"cd27ae46-f3c8-4d99-a4f3-476eab1ca365","system_id":"levelo_inurba_marseille","lat":43.23198,"lon":5.35542,"is_reserved":false,"is_disabled":false,"rental_uris":{"android":"levelo://app?vid=cd27ae46-f3c8-4d99-a4f3-476eab1ca365","ios":"levelo://app?vid=cd27ae46-f3c8-4d99-a4f3-476eab1ca365"},"vehicle_type_id":"4","last_reported":1735661436,"current_range_meters":24000,"station_id":"ce4bhu92rcd13ifvqi70","pricing_plan_id":"cebpf4jnsgd1na2vs0mg"},{"bike_id":"aba77de7-e5c5-4bb0-82c3-f89fc6727dc8","system_id":"levelo_inurba_marseille","lat":43.25725,"lon":5.41104,"is_reserved":false,"is_disabled":false,"rental_uris":{"android":"levelo://app?vid=aba77de7-e5c5-4bb0-82c3-f89fc6727dc8","ios":"levelo://app?vid=aba77de7-e5c5-4bb0-82c3-f89fc6727dc8"},"vehicle_type_id":"4","last_reported":1735661436,"current_range_meters":38800,"station_id":"ce4bhkp2rcd13ifvqgd0","pricing_plan_id":"cebpf4jnsgd1na2vs0mg"},{"bike_id":"a74c2d12-b57a-4ffa-b46f-df1bdb7d8918","system_id":"levelo_inurba_marseille","lat":43.23062,"lon":5.35503,"is_reserved":false,"is_disabled":true,"rental_uris":{"android":"levelo://app?vid=a74c2d12-b57a-4ffa-b46f-df1bdb7d8918","ios":"levelo://app?vid=a74c2d12-b57a-4ffa-b46f-df1bdb7d8918"},"vehicle_type_id":"4","last_reported":1735661436,"current_range_meters":0,"station_id":"cpo3342slgdg3j2ifvpg","pricing_plan_id":"cebpf4jnsgd1na2vs0mg"},{"bike_id":"9491c45b-577c-4aa6-a7cc-82502b6825b0","system_id":"levelo_inurba_marseille","lat":43.29686,"lon":5.37289,"is_reserved":false,"is_disabled":false,"rental_uris":{"android":"levelo://app?vid=9491c45b-577c-4aa6-a7cc-82502b6825b0","ios":"levelo://app?vid=9491c45b-577c-4aa6-a7cc-82502b6825b0"},"vehicle_type_id":"4","last_reported":1735661436,"current_range_meters":38800,"station_id":"ce4bgk12rcd13ifvqbj0","pricing_plan_id":"cebpf4jnsgd1na2vs0mg"},{"bike_id":"06e6f4bf-73d4-4c64-a08b-f60c3ad8da9c","system_id":"levelo_inurba_marseille","lat":43.30198,"lon":5.36613,"is_reserved":false,"is_disabled":false,"rental_uris":{"android":"levelo://app?vid=06e6f4bf-73d4-4c64-a08b-f60c3ad8da9c","ios":"levelo://app?vid=06e6f4bf-73d4-4c64-a08b-f60c3ad8da9c"},"vehicle_type_id":"4","last_reported":1735661436,"current_range_meters":38800,"station_id":"ce4bgrh2rcd13ifvqc8g","pricing_plan_id":"cebpf4jnsgd1na2vs0mg"},{"bike_id":"d50145c7-4181-4496-bf85-e963555055ca","system_id":"levelo_inurba_marseille","lat":43.29782,"lon":5.37106,"is_reserved":false,"is_disabled":false,"rental_uris":{"android":"levelo://app?vid=d50145c7-4181-4496-bf85-e963555055ca","ios":"levelo://app?vid=d50145c7-4181-4496-bf85-e963555055ca"},"vehicle_type_id":"4","last_reported":1735661436,"current_range_meters":26000,"station_id":"ce4bgop2rcd13ifvqc1g","pricing_plan_id":"cebpf4jnsgd1na2vs0mg"},{"bike_id":"949dc5d9-3d71-45e4-9908-cc47786976f8","system_id":"levelo_inurba_marseille","lat":43.25502,"lon":5.37653,"is_reserved":false,"is_disabled":false,"rental_uris":{"android":"levelo://app?vid=949dc5d9-3d71-45e4-9908-cc47786976f8","ios":"levelo://app?vid=949dc5d9-3d71-45e4-9908-cc47786976f8"},"vehicle_type_id":"4","last_reported":1735661436,"current_range_meters":19200,"station_id":"ce4bhh12rcd13ifvqff0","pricing_plan_id":"cebpf4jnsgd1na2vs0mg"},{"bike_id":"93f17e51-b898-41bb-ab85-e0450da0f60a","system_id":"levelo_inurba_marseille","lat":43.289247,"lon":5.384051,"is_reserved":false,"is_disabled":false,"rental_uris":{"android":"levelo://app?vid=93f17e51-b898-41bb-ab85-e0450da0f60a","ios":"levelo://app?vid=93f17e51-b898-41bb-ab85-e0450da0f60a"},"vehicle_type_id":"4","last_reported":1735661436,"current_range_meters":36800,"station_id":"ce4bh612rcd13ifvqe6g","pricing_plan_id":"cebpf4jnsgd1na2vs0mg"},{"bike_id":"a2c981a9-118a-4e0c-9c91-df48407f1dcd","system_id":"levelo_inurba_marseille","lat":43.23061,"lon":5.35505,"is_reserved":false,"is_disabled":false,"rental_uris":{"android":"levelo://app?vid=a2c981a9-118a-4e0c-9c91-df48407f1dcd","ios":"levelo://app?vid=a2c981a9-118a-4e0c-9c91-df48407f1dcd"},"vehicle_type_id":"4","last_reported":1735661436,"current_range_meters":36400,"station_id":"cpo3342slgdg3j2ifvpg","pricing_plan_id":"cebpf4jnsgd1na2vs0mg"},{"bike_id":"f3defa72-66ca-478e-b840-1fc6aacbb41c","system_id":"levelo_inurba_marseille","lat":43.29732,"lon":5.37668,"is_reserved":false,"is_disabled":false,"rental_uris":{"android":"levelo://app?vid=f3defa72-66ca-478e-b840-1fc6aacbb41c","ios":"levelo://app?vid=f3defa72-66ca-478e-b840-1fc6aacbb41c"},"vehicle_type_id":"4","last_reported":1735661436,"current_range_meters":24000,"station_id":"ce4bgkh2rcd13ifvqbl0","pricing_plan_id":"cebpf4jnsgd1na2vs0mg"},{"bike_id":"a4635675-d5e7-478c-aa5b-321f4903eac4","system_id":"levelo_inurba_marseille","lat":43.25825,"lon":5.39437,"is_reserved":false,"is_disabled":false,"rental_uris":{"android":"levelo://app?vid=a4635675-d5e7-478c-aa5b-321f4903eac4","ios":"levelo://app?vid=a4635675-d5e7-478c-aa5b-321f4903eac4"},"vehicle_type_id":"4","last_reported":1735661436,"current_range_meters":36000,"station_id":"ce4bhip2rcd13ifvqft0","pricing_plan_id":"cebpf4jnsgd1na2vs0mg"},{"bike_id":"0b70a3fd-cd64-4597-b1e3-c9c4cb5327b0","system_id":"levelo_inurba_marseille","lat":43.25872,"lon":5.39904,"is_reserved":false,"is_disabled":false,"rental_uris":{"android":"levelo://app?vid=0b70a3fd-cd64-4597-b1e3-c9c4cb5327b0","ios":"levelo://app?vid=0b70a3fd-cd64-4597-b1e3-c9c4cb5327b0"},"vehicle_type_id":"4","last_reported":1735661436,"current_range_meters":38800,"station_id":"ce4bhl92rcd13ifvqghg","pricing_plan_id":"cebpf4jnsgd1na2vs0mg"},{"bike_id":"e6b5eb0c-b0ca-4323-beaa-86130528ab40","system_id":"levelo_inurba_marseille","lat":43.29011,"lon":5.35601,"is_reserved":false,"is_disabled":false,"rental_uris":{"android":"levelo://app?vid=e6b5eb0c-b0ca-4323-beaa-86130528ab40","ios":"levelo://app?vid=e6b5eb0c-b0ca-4323-beaa-86130528ab40"},"vehicle_type_id":"4","last_reported":1735661436,"current_range_meters":34000,"station_id":"ce4bhb92rcd13ifvqen0","pricing_plan_id":"cebpf4jnsgd1na2vs0mg"},{"bike_id":"62a66a29-bae2-4f50-983e-6ffc57057bae","system_id":"levelo_inurba_marseille","lat":43.25873,"lon":5.39903,"is_reserved":false,"is_disabled":false,"rental_uris":{"android":"levelo://app?vid=62a66a29-bae2-4f50-983e-6ffc57057bae","ios":"levelo://app?vid=62a66a29-bae2-4f50-983e-6ffc57057bae"},"vehicle_type_id":"4","last_reported":1735661436,"current_range_meters":6400,"station_id":"ce4bhl92rcd13ifvqghg","pricing_plan_id":"cebpf4jnsgd1na2vs0mg"},{"bike_id":"3eb06b53-0495-461f-921b-d9f51438e376","system_id":"levelo_inurba_marseille","lat":43.274203,"lon":5.394164,"is_reserved":false,"is_disabled":false,"rental_uris":{"android":"levelo://app?vid=3eb06b53-0495-461f-921b-d9f51438e376","ios":"levelo://app?vid=3eb06b53-0495-461f-921b-d9f51438e376"},"vehicle_type_id":"4","last_reported":1735661436,"current_range_meters":38800,"station_id":"ce4bhdp2rcd13ifvqf20","pricing_plan_id":"cebpf4jnsgd1na2vs0mg"},{"bike_id":"a06e3c0a-750d-4c5c-b0ac-872018e7f41d","system_id":"levelo_inurba_marseille","lat":43.2783,"lon":5.39202,"is_reserved":false,"is_disabled":false,"rental_uris":{"android":"levelo://app?vid=a06e3c0a-750d-4c5c-b0ac-872018e7f41d","ios":"levelo://app?vid=a06e3c0a-750d-4c5c-b0ac-872018e7f41d"},"vehicle_type_id":"4","last_reported":1735661436,"current_range_meters":36000,"station_id":"ce4bhjp2rcd13ifvqga0","pricing_plan_id":"cebpf4jnsgd1na2vs0mg"},{"bike_id":"4f763647-ea12-4015-b80f-643e4288be4b","system_id":"levelo_inurba_marseille","lat":43.31335,"lon":5.39723,"is_reserved":false,"is_disabled":false,"rental_uris":{"android":"levelo://app?vid=4f763647-ea12-4015-b80f-643e4288be4b","ios":"levelo://app?vid=4f763647-ea12-4015-b80f-643e4288be4b"},"vehicle_type_id":"4","last_reported":1735661436,"current_range_meters":38800,"station_id":"ce4bgvp2rcd13ifvqcu0","pricing_plan_id":"cebpf4jnsgd1na2vs0mg"},{"bike_id":"dd62ee80-f22a-4f06-b3f5-402f11abb112","system_id":"levelo_inurba_marseille","lat":43.24666,"lon":5.38165,"is_reserved":false,"is_disabled":false,"rental_uris":{"android":"levelo://app?vid=dd62ee80-f22a-4f06-b3f5-402f11abb112","ios":"levelo://app?vid=dd62ee80-f22a-4f06-b3f5-402f11abb112"},"vehicle_type_id":"4","last_reported":1735661436,"current_range_meters":32400,"station_id":"ce4bhih2rcd13ifvqfr0","pricing_plan_id":"cebpf4jnsgd1na2vs0mg"},{"bike_id":"68012c00-8f6f-4261-8a09-ca735b753c7b","system_id":"levelo_inurba_marseille","lat":43.26779,"lon":5.39412,"is_reserved":false,"is_disabled":false,"rental_uris":{"android":"levelo://app?vid=68012c00-8f6f-4261-8a09-ca735b753c7b","ios":"levelo://app?vid=68012c00-8f6f-4261-8a09-ca735b753c7b"},"vehicle_type_id":"4","last_reported":1735661436,"current_range_meters":32000,"station_id":"ce4bhh12rcd13ifvqfg0","pricing_plan_id":"cebpf4jnsgd1na2vs0mg"},{"bike_id":"8a99e177-e3b0-4319-9fe0-3ee2ea0739dc","system_id":"levelo_inurba_marseille","lat":43.29009,"lon":5.35615,"is_reserved":false,"is_disabled":false,"rental_uris":{"android":"levelo://app?vid=8a99e177-e3b0-4319-9fe0-3ee2ea0739dc","ios":"levelo://app?vid=8a99e177-e3b0-4319-9fe0-3ee2ea0739dc"},"vehicle_type_id":"4","last_reported":1735661436,"current_range_meters":38000,"station_id":"ce4bhb92rcd13ifvqen0","pricing_plan_id":"cebpf4jnsgd1na2vs0mg"},{"bike_id":"78c586c7-6d21-482a-b8a1-f42a70ad2a53","system_id":"levelo_inurba_marseille","lat":43.26076,"lon":5.39364,"is_reserved":false,"is_disabled":false,"rental_uris":{"android":"levelo://app?vid=78c586c7-6d21-482a-b8a1-f42a70ad2a53","ios":"levelo://app?vid=78c586c7-6d21-482a-b8a1-f42a70ad2a53"},"vehicle_type_id":"4","last_reported":1735661436,"current_range_meters":34800,"station_id":"ce4bhh92rcd13ifvqfj0","pricing_plan_id":"cebpf4jnsgd1na2vs0mg"},{"bike_id":"22f09bf7-efd6-410f-9cfd-8c42c91ebefc","system_id":"levelo_inurba_marseille","lat":43.27947,"lon":5.41058,"is_reserved":false,"is_disabled":false,"rental_uris":{"android":"levelo://app?vid=22f09bf7-efd6-410f-9cfd-8c42c91ebefc","ios":"levelo://app?vid=22f09bf7-efd6-410f-9cfd-8c42c91ebefc"},"vehicle_type_id":"4","last_reported":1735661436,"current_range_meters":24800,"station_id":"ce4bhnp2rcd13ifvqh0g","pricing_plan_id":"cebpf4jnsgd1na2vs0mg"},{"bike_id":"4e1e1e3c-01da-446c-9499-f790335ca6fe","system_id":"levelo_inurba_marseille","lat":43.29571,"lon":5.37517,"is_reserved":false,"is_disabled":false,"rental_uris":{"android":"levelo://app?vid=4e1e1e3c-01da-446c-9499-f790335ca6fe","ios":"levelo://app?vid=4e1e1e3c-01da-446c-9499-f790335ca6fe"},"vehicle_type_id":"4","last_reported":1735661436,"current_range_meters":12400,"station_id":"ce4bgh92rcd13ifvqb50","pricing_plan_id":"cebpf4jnsgd1na2vs0mg"},{"bike_id":"98724769-58de-4a29-9cd7-cf114df1082f","system_id":"levelo_inurba_marseille","lat":43.28451,"lon":5.35899,"is_reserved":false,"is_disabled":false,"rental_uris":{"android":"levelo://app?vid=98724769-58de-4a29-9cd7-cf114df1082f","ios":"levelo://app?vid=98724769-58de-4a29-9cd7-cf114df1082f"},"vehicle_type_id":"4","last_reported":1735661436,"current_range_meters":38800,"station_id":"ce4bhah2rcd13ifvqei0","pricing_plan_id":"cebpf4jnsgd1na2vs0mg"},{"bike_id":"b0961265-1fde-4b0e-aed9-2fba0eb48dc9","system_id":"levelo_inurba_marseille","lat":43.29925,"lon":5.3748,"is_reserved":false,"is_disabled":false,"rental_uris":{"android":"levelo://app?vid=b0961265-1fde-4b0e-aed9-2fba0eb48dc9","ios":"levelo://app?vid=b0961265-1fde-4b0e-aed9-2fba0eb48dc9"},"vehicle_type_id":"4","last_reported":1735661436,"current_range_meters":38400,"station_id":"ce4bgjh2rcd13ifvqbg0","pricing_plan_id":"cebpf4jnsgd1na2vs0mg"},{"bike_id":"a3568aab-1d34-4bdf-8c0c-ec81886f6177","system_id":"levelo_inurba_marseille","lat":43.337444,"lon":5.374475,"is_reserved":false,"is_disabled":true,"rental_uris":{"android":"levelo://app?vid=a3568aab-1d34-4bdf-8c0c-ec81886f6177","ios":"levelo://app?vid=a3568aab-1d34-4bdf-8c0c-ec81886f6177"},"vehicle_type_id":"4","last_reported":1735661436,"current_range_meters":38000,"station_id":"","pricing_plan_id":"cebpf4jnsgd1na2vs0mg"},{"bike_id":"1318eaf1-2eb6-465a-8d01-f92a7ecd33a3","system_id":"levelo_inurba_marseille","lat":43.28105,"lon":5.3784,"is_reserved":false,"is_disabled":false,"rental_uris":{"android":"levelo://app?vid=1318eaf1-2eb6-465a-8d01-f92a7ecd33a3","ios":"levelo://app?vid=1318eaf1-2eb6-465a-8d01-f92a7ecd33a3"},"vehicle_type_id":"4","last_reported":1735661436,"current_range_meters":28800,"station_id":"ce4bha12rcd13ifvqee0","pricing_plan_id":"cebpf4jnsgd1na2vs0mg"},{"bike_id":"5e04599a-56d9-48fb-aec8-ec6b4b9061dc","system_id":"levelo_inurba_marseille","lat":43.28944,"lon":5.36633,"is_reserved":false,"is_disabled":false,"rental_uris":{"android":"levelo://app?vid=5e04599a-56d9-48fb-aec8-ec6b4b9061dc","ios":"levelo://app?vid=5e04599a-56d9-48fb-aec8-ec6b4b9061dc"},"vehicle_type_id":"4","last_reported":1735661436,"current_range_meters":37600,"station_id":"ce4bhap2rcd13ifvqek0","pricing_plan_id":"cebpf4jnsgd1na2vs0mg"},{"bike_id":"703104dc-008a-4737-a0ad-da6d89489916","system_id":"levelo_inurba_marseille","lat":43.28994,"lon":5.38143,"is_reserved":false,"is_disabled":false,"rental_uris":{"android":"levelo://app?vid=703104dc-008a-4737-a0ad-da6d89489916","ios":"levelo://app?vid=703104dc-008a-4737-a0ad-da6d89489916"},"vehicle_type_id":"4","last_reported":1735661436,"current_range_meters":38400,"station_id":"ce4bh4p2rcd13ifvqe1g","pricing_plan_id":"cebpf4jnsgd1na2vs0mg"},{"bike_id":"fe389d87-3a14-4f73-8a51-a027ae4034b2","system_id":"levelo_inurba_marseille","lat":43.28614,"lon":5.351,"is_reserved":false,"is_disabled":false,"rental_uris":{"android":"levelo://app?vid=fe389d87-3a14-4f73-8a51-a027ae4034b2","ios":"levelo://app?vid=fe389d87-3a14-4f73-8a51-a027ae4034b2"},"vehicle_type_id":"4","last_reported":1735661436,"current_range_meters":38800,"station_id":"ce4bhch2rcd13ifvqeug","pricing_plan_id":"cebpf4jnsgd1na2vs0mg"},{"bike_id":"976abf1b-2fd1-4294-ac06-3c1193b2d559","system_id":"levelo_inurba_marseille","lat":43.24664,"lon":5.38152,"is_reserved":false,"is_disabled":false,"rental_uris":{"android":"levelo://app?vid=976abf1b-2fd1-4294-ac06-3c1193b2d559","ios":"levelo://app?vid=976abf1b-2fd1-4294-ac06-3c1193b2d559"},"vehicle_type_id":"4","last_reported":1735661436,"current_range_meters":36800,"station_id":"ce4bhih2rcd13ifvqfr0","pricing_plan_id":"cebpf4jnsgd1na2vs0mg"},{"bike_id":"472f2bba-cea6-4789-999e-87702c6ddbd6","system_id":"levelo_inurba_marseille","lat":43.30559,"lon":5.38434,"is_reserved":false,"is_disabled":false,"rental_uris":{"android":"levelo://app?vid=472f2bba-cea6-4789-999e-87702c6ddbd6","ios":"levelo://app?vid=472f2bba-cea6-4789-999e-87702c6ddbd6"},"vehicle_type_id":"4","last_reported":1735661436,"current_range_meters":23200,"station_id":"ce4bgg92rcd13ifvqb30","pricing_plan_id":"cebpf4jnsgd1na2vs0mg"},{"bike_id":"5f0d830a-8c04-457f-b463-15c49a5d5c31","system_id":"levelo_inurba_marseille","lat":43.28079,"lon":5.39645,"is_reserved":false,"is_disabled":false,"rental_uris":{"android":"levelo://app?vid=5f0d830a-8c04-457f-b463-15c49a5d5c31","ios":"levelo://app?vid=5f0d830a-8c04-457f-b463-15c49a5d5c31"},"vehicle_type_id":"4","last_reported":1735661436,"current_range_meters":28000,"station_id":"ce4bho12rcd13ifvqh2g","pricing_plan_id":"cebpf4jnsgd1na2vs0mg"},{"bike_id":"53513765-fc1d-4d9f-9434-3d9e5b9059f0","system_id":"levelo_inurba_marseille","lat":43.29195,"lon":5.39315,"is_reserved":false,"is_disabled":false,"rental_uris":{"android":"levelo://app?vid=53513765-fc1d-4d9f-9434-3d9e5b9059f0","ios":"levelo://app?vid=53513765-fc1d-4d9f-9434-3d9e5b9059f0"},"vehicle_type_id":"4","last_reported":1735661436,"current_range_meters":31200,"station_id":"ce4bh192rcd13ifvqdd0","pricing_plan_id":"cebpf4jnsgd1na2vs0mg"},{"bike_id":"b324108a-02c1-404f-a1a5-e15844b2ce7e","system_id":"levelo_inurba_marseille","lat":43.299,"lon":5.37489,"is_reserved":false,"is_disabled":false,"rental_uris":{"android":"levelo://app?vid=b324108a-02c1-404f-a1a5-e15844b2ce7e","ios":"levelo://app?vid=b324108a-02c1-404f-a1a5-e15844b2ce7e"},"vehicle_type_id":"4","last_reported":1735661436,"current_range_meters":30000,"station_id":"ce4bgjh2rcd13ifvqbg0","pricing_plan_id":"cebpf4jnsgd1na2vs0mg"},{"bike_id":"dc6f9efc-a0ac-43ba-890a-546eef723d54","system_id":"levelo_inurba_marseille","lat":43.27558,"lon":5.38452,"is_reserved":false,"is_disabled":false,"rental_uris":{"android":"levelo://app?vid=dc6f9efc-a0ac-43ba-890a-546eef723d54","ios":"levelo://app?vid=dc6f9efc-a0ac-43ba-890a-546eef723d54"},"vehicle_type_id":"4","last_reported":1735661436,"current_range_meters":24800,"station_id":"ce4bhh92rcd13ifvqfi0","pricing_plan_id":"cebpf4jnsgd1na2vs0mg"},{"bike_id":"c4dbad8b-07d1-45d8-93de-9f9181f76205","system_id":"levelo_inurba_marseille","lat":43.25726,"lon":5.41111,"is_reserved":false,"is_disabled":false,"rental_uris":{"android":"levelo://app?vid=c4dbad8b-07d1-45d8-93de-9f9181f76205","ios":"levelo://app?vid=c4dbad8b-07d1-45d8-93de-9f9181f76205"},"vehicle_type_id":"4","last_reported":1735661436,"current_range_meters":36000,"station_id":"ce4bhkp2rcd13ifvqgd0","pricing_plan_id":"cebpf4jnsgd1na2vs0mg"},