{"last_updated":1679177192,"ttl":30,"version":"2.2","data":{"bikes":[{"bike_id":"54f1992b-9928-42c0-b702-fb88b72c12ab","system_id":"levelo_inurba_marseille","lat":43.312239,"lon":5.368562,"is_reserved":false,"is_disabled":false,"rental_uris":{"android":"levelo://app?vid=54f1992b-9928-42c0-b702-fb88b72c12ab","ios":"levelo://app?vid=54f1992b-9928-42c0-b702-fb88b72c12ab"},"vehicle_type_id":"4","last_reported":1679177193,"current_range_meters":11600,"station_id":"ce4bgl92rcd13ifvqbq0","pricing_plan_id":"free"},{"bike_id":"0da49689-e84d-4a6c-b3af-ff0f728ced2e","system_id":"levelo_inurba_marseille","lat":43.316266,"lon":5.381956,"is_reserved":false,"is_disabled":false,"rental_uris":{"android":"levelo://app?vid=0da49689-e84d-4a6c-b3af-ff0f728ced2e","ios":"levelo://app?vid=0da49689-e84d-4a6c-b3af-ff0f728ced2e"},"vehicle_type_id":"4","last_reported":1679177193,"current_range_meters":0,"station_id":"","pricing_plan_id":"free"},{"bike_id":"a3a26f8a-52f1-484d-b06c-552e0f98d28c","system_id":"levelo_inurba_marseille","lat":43.301425,"lon":5.37409,"is_reserved":false,"is_disabled":false,"rental_uris":{"android":"levelo://app?vid=a3a26f8a-52f1-484d-b06c-552e0f98d28c","ios":"levelo://app?vid=a3a26f8a-52f1-484d-b06c-552e0f98d28c"},"vehicle_type_id":"4","last_reported":1679177193,"current_range_meters":0,"station_id":"ce4bgs92rcd13ifvqcc0","pricing_plan_id":"free"},{"bike_id":"52dac2d3-f258-4c49-9d68-b46744136d95","system_id":"levelo_inurba_marseille","lat":43.313571,"lon":5.384829,"is_reserved":false,"is_disabled":false,"rental_uris":{"android":"levelo://app?vid=52dac2d3-f258-4c49-9d68-b46744136d95","ios":"levelo://app?vid=52dac2d3-f258-4c49-9d68-b46744136d95"},"vehicle_type_id":"4","last_reported":1679177193,"current_range_meters":800,"station_id":"ce4bgt92rcd13ifvqcf0","pricing_plan_id":"free"},{"bike_id":"2c08438d-9244-4741-81f5-3ef5683362f6","system_id":"levelo_inurba_marseille","lat":43.313571,"lon":5.384829,"is_reserved":false,"is_disabled":false,"rental_uris":{"android":"levelo://app?vid=2c08438d-9244-4741-81f5-3ef5683362f6","ios":"levelo://app?vid=2c08438d-9244-4741-81f5-3ef5683362f6"},"vehicle_type_id":"4","last_reported":1679177193,"current_range_meters":22400,"station_id":"ce4bgt92rcd13ifvqcf0","pricing_plan_id":"free"},{"bike_id":"508f989d-298c-441b-8181-17cf46ec411e","system_id":"levelo_inurba_marseille","lat":43.313571,"lon":5.384829,"is_reserved":false,"is_disabled":false,"rental_uris":{"android":"levelo://app?vid=508f989d-298c-441b-8181-17cf46ec411e","ios":"levelo://app?vid=508f989d-298c-441b-8181-17cf46ec411e"},"vehicle_type_id":"4","last_reported":1679177193,"current_range_meters":15600,"station_id":"ce4bgt92rcd13ifvqcf0","pricing_plan_id":"free"},{"bike_id":"8207ed28-47cf-4b80-b8de-ab2619816bb1","system_id":"levelo_inurba_marseille","lat":43.298433,"lon":5.362774,"is_reserved":false,"is_disabled":false,"rental_uris":{"android":"levelo://app?vid=8207ed28-47cf-4b80-b8de-ab2619816bb1","ios":"levelo://app?vid=8207ed28-47cf-4b80-b8de-ab2619816bb1"},"vehicle_type_id":"4","last_reported":1679177193,"current_range_meters":22000,"station_id":"ce4bgpp2rcd13ifvqc3g","pricing_plan_id":"free"},{"bike_id":"4b896d64-c057-49a3-a373-fe7c5725c26a","system_id":"levelo_inurba_marseille","lat":43.311722,"lon":5.387247,"is_reserved":false,"is_disabled":false,"rental_uris":{"android":"levelo://app?vid=4b896d64-c057-49a3-a373-fe7c5725c26a","ios":"levelo://app?vid=4b896d64-c057-49a3-a373-fe7c5725c26a"},"vehicle_type_id":"4","last_reported":1679177193,"current_range_meters":18400,"station_id":"ce4bgv12rcd13ifvqcp0","pricing_plan_id":"free"},{"bike_id":"65a75d29-90b0-4667-9673-0b8458668ad2","system_id":"levelo_inurba_marseille","lat":43.32823,"lon":5.366735,"is_reserved":false,"is_disabled":false,"rental_uris":{"android":"levelo://app?vid=65a75d29-90b0-4667-9673-0b8458668ad2","ios":"levelo://app?vid=65a75d29-90b0-4667-9673-0b8458668ad2"},"vehicle_type_id":"4","last_reported":1679177193,"current_range_meters":400,"station_id":"ce4bhs92rcd13ifvqi0g","pricing_plan_id":"free"},{"bike_id":"dc65b10f-01fb-44d4-a08a-2470322b7e58","system_id":"levelo_inurba_marseille","lat":43.29688,"lon":5.372995,"is_reserved":false,"is_disabled":false,"rental_uris":{"android":"levelo://app?vid=dc65b10f-01fb-44d4-a08a-2470322b7e58","ios":"levelo://app?vid=dc65b10f-01fb-44d4-a08a-2470322b7e58"},"vehicle_type_id":"4","last_reported":1679177193,"current_range_meters":0,"station_id":"","pricing_plan_id":"free"},{"bike_id":"ff2965ac-1764-4dd5-a769-9a5fb3660cbc","system_id":"levelo_inurba_marseille","lat":43.29679,"lon":5.372965,"is_reserved":false,"is_disabled":false,"rental_uris":{"android":"levelo://app?vid=ff2965ac-1764-4dd5-a769-9a5fb3660cbc","ios":"levelo://app?vid=ff2965ac-1764-4dd5-a769-9a5fb3660cbc"},"vehicle_type_id":"4","last_reported":1679177193,"current_range_meters":0,"station_id":"","pricing_plan_id":"free"},{"bike_id":"c7c8b9e7-ad69-4dd3-adeb-1d744e03935f","system_id":"levelo_inurba_marseille","lat":43.29573,"lon":5.367355,"is_reserved":false,"is_disabled":false,"rental_uris":{"android":"levelo://app?vid=c7c8b9e7-ad69-4dd3-adeb-1d744e03935f","ios":"levelo://app?vid=c7c8b9e7-ad69-4dd3-adeb-1d744e03935f"},"vehicle_type_id":"4","last_reported":1679177193,"current_range_meters":0,"station_id":"ce4bgph2rcd13ifvqc2g","pricing_plan_id":"free"},{"bike_id":"e7613120-d320-421c-927f-3525b004d760","system_id":"levelo_inurba_marseille","lat":43.29573,"lon":5.367355,"is_reserved":false,"is_disabled":false,"rental_uris":{"android":"levelo://app?vid=e7613120-d320-421c-927f-3525b004d760","ios":"levelo://app?vid=e7613120-d320-421c-927f-3525b004d760"},"vehicle_type_id":"4","last_reported":1679177193,"current_range_meters":28400,"station_id":"ce4bgph2rcd13ifvqc2g","pricing_plan_id":"free"},{"bike_id":"d636b18a-3550-42da-9b97-a1b1f8aa9c15","system_id":"levelo_inurba_marseille","lat":43.295777,"lon":5.367413,"is_reserved":false,"is_disabled":false,"rental_uris":{"android":"levelo://app?vid=d636b18a-3550-42da-9b97-a1b1f8aa9c15","ios":"levelo://app?vid=d636b18a-3550-42da-9b97-a1b1f8aa9c15"},"vehicle_type_id":"4","last_reported":1679177193,"current_range_meters":8000,"station_id":"","pricing_plan_id":"free"},{"bike_id":"7b08db34-90a0-4c5a-a1d8-5a671fb26d34","system_id":"levelo_inurba_marseille","lat":43.29573,"lon":5.367355,"is_reserved":false,"is_disabled":false,"rental_uris":{"android":"levelo://app?vid=7b08db34-90a0-4c5a-a1d8-5a671fb26d34","ios":"levelo://app?vid=7b08db34-90a0-4c5a-a1d8-5a671fb26d34"},"vehicle_type_id":"4","last_reported":1679177193,"current_range_meters":15200,"station_id":"ce4bgph2rcd13ifvqc2g","pricing_plan_id":"free"},{"bike_id":"51d5848e-824e-40da-b27f-af64ce8509ac","system_id":"levelo_inurba_marseille","lat":43.297409,"lon":5.376984,"is_reserved":false,"is_disabled":false,"rental_uris":{"android":"levelo://app?vid=51d5848e-824e-40da-b27f-af64ce8509ac","ios":"levelo://app?vid=51d5848e-824e-40da-b27f-af64ce8509ac"},"vehicle_type_id":"4","last_reported":1679177193,"current_range_meters":0,"station_id":"","pricing_plan_id":"free"},{"bike_id":"b2774864-01db-4d65-94e9-3e6e5ae35113","system_id":"levelo_inurba_marseille","lat":43.29738,"lon":5.37699,"is_reserved":false,"is_disabled":false,"rental_uris":{"android":"levelo://app?vid=b2774864-01db-4d65-94e9-3e6e5ae35113","ios":"levelo://app?vid=b2774864-01db-4d65-94e9-3e6e5ae35113"},"vehicle_type_id":"4","last_reported":1679177193,"current_range_meters":20000,"station_id":"","pricing_plan_id":"free"},{"bike_id":"964b2fb5-f7e6-49a8-b51c-7c89d1f35812","system_id":"levelo_inurba_marseille","lat":43.309589,"lon":5.390258,"is_reserved":false,"is_disabled":false,"rental_uris":{"android":"levelo://app?vid=964b2fb5-f7e6-49a8-b51c-7c89d1f35812","ios":"levelo://app?vid=964b2fb5-f7e6-49a8-b51c-7c89d1f35812"},"vehicle_type_id":"4","last_reported":1679177193,"current_range_meters":4000,"station_id":"ce4bgup2rcd13ifvqco0","pricing_plan_id":"free"},{"bike_id":"215828d8-8f47-48a3-a1e4-837d2b2af7aa","system_id":"levelo_inurba_marseille","lat":43.297928,"lon":5.380893,"is_reserved":false,"is_disabled":false,"rental_uris":{"android":"levelo://app?vid=215828d8-8f47-48a3-a1e4-837d2b2af7aa","ios":"levelo://app?vid=215828d8-8f47-48a3-a1e4-837d2b2af7aa"},"vehicle_type_id":"4","last_reported":1679177193,"current_range_meters":0,"station_id":"ce4bgip2rcd13ifvqbb0","pricing_plan_id":"free"},{"bike_id":"2e1d1032-c7cc-4597-b25e-d7f5e58534d5","system_id":"levelo_inurba_marseille","lat":43.296277,"lon":5.377108,"is_reserved":false,"is_disabled":false,"rental_uris":{"android":"levelo://app?vid=2e1d1032-c7cc-4597-b25e-d7f5e58534d5","ios":"levelo://app?vid=2e1d1032-c7cc-4597-b25e-d7f5e58534d5"},"vehicle_type_id":"4","last_reported":1679177193,"current_range_meters":0,"station_id":"ce4bgi92rcd13ifvqb90","pricing_plan_id":"free"},{"bike_id":"5971bedb-4e55-4cca-a827-15c1c85bce63","system_id":"levelo_inurba_marseille","lat":43.299732,"lon":5.38494,"is_reserved":false,"is_disabled":false,"rental_uris":{"android":"levelo://app?vid=5971bedb-4e55-4cca-a827-15c1c85bce63","ios":"levelo://app?vid=5971bedb-4e55-4cca-a827-15c1c85bce63"},"vehicle_type_id":"4","last_reported":1679177193,"current_range_meters":0,"station_id":"ce4bgj92rcd13ifvqbd0","pricing_plan_id":"free"},{"bike_id":"8ee722c3-cfd3-40d6-953f-42f233fdf582","system_id":"levelo_inurba_marseille","lat":43.32352,"lon":5.38882,"is_reserved":false,"is_disabled":false,"rental_uris":{"android":"levelo://app?vid=8ee722c3-cfd3-40d6-953f-42f233fdf582","ios":"levelo://app?vid=8ee722c3-cfd3-40d6-953f-42f233fdf582"},"vehicle_type_id":"4","last_reported":1679177193,"current_range_meters":20400,"station_id":"ce4bhqp2rcd13ifvqhog","pricing_plan_id":"free"},{"bike_id":"deb37c96-3348-4d98-a426-72a96f26f7ee","system_id":"levelo_inurba_marseille","lat":43.32368,"lon":5.38879,"is_reserved":false,"is_disabled":false,"rental_uris":{"android":"levelo://app?vid=deb37c96-3348-4d98-a426-72a96f26f7ee","ios":"levelo://app?vid=deb37c96-3348-4d98-a426-72a96f26f7ee"},"vehicle_type_id":"4","last_reported":1679177193,"current_range_meters":1200,"station_id":"","pricing_plan_id":"free"},{"bike_id":"90745e93-3e4e-4248-af91-77f98ca477a1","system_id":"levelo_inurba_marseille","lat":43.32367,"lon":5.388827,"is_reserved":false,"is_disabled":false,"rental_uris":{"android":"levelo://app?vid=90745e93-3e4e-4248-af91-77f98ca477a1","ios":"levelo://app?vid=90745e93-3e4e-4248-af91-77f98ca477a1"},"vehicle_type_id":"4","last_reported":1679177193,"current_range_meters":22000,"station_id":"ce4bhqp2rcd13ifvqhog","pricing_plan_id":"free"},{"bike_id":"4385a8c2-fe29-43d4-9bc6-b3c21db78f50","system_id":"levelo_inurba_marseille","lat":43.32367,"lon":5.388836,"is_reserved":false,"is_disabled":false,"rental_uris":{"android":"levelo://app?vid=4385a8c2-fe29-43d4-9bc6-b3c21db78f50","ios":"levelo://app?vid=4385a8c2-fe29-43d4-9bc6-b3c21db78f50"},"vehicle_type_id":"4","last_reported":1679177193,"current_range_meters":24000,"station_id":"ce4bhqp2rcd13ifvqhog","pricing_plan_id":"free"},{"bike_id":"4acf4a6e-610b-4acb-b648-9bcdf0839ce4","system_id":"levelo_inurba_marseille","lat":43.32367,"lon":5.388836,"is_reserved":false,"is_disabled":false,"rental_uris":{"android":"levelo://app?vid=4acf4a6e-610b-4acb-b648-9bcdf0839ce4","ios":"levelo://app?vid=4acf4a6e-610b-4acb-b648-9bcdf0839ce4"},"vehicle_type_id":"4","last_reported":1679177193,"current_range_meters":2800,"station_id":"ce4bhqp2rcd13ifvqhog","pricing_plan_id":"free"},{"bike_id":"37ca3e8f-0050-4cfc-b16c-187f216fe935","system_id":"levelo_inurba_marseille","lat":43.293013,"lon":5.374521,"is_reserved":false,"is_disabled":false,"rental_uris":{"android":"levelo://app?vid=37ca3e8f-0050-4cfc-b16c-187f216fe935","ios":"levelo://app?vid=37ca3e8f-0050-4cfc-b16c-187f216fe935"},"vehicle_type_id":"4","last_reported":1679177193,"current_range_meters":0,"station_id":"","pricing_plan_id":"free"},{"bike_id":"c6e5d4c6-708b-42e0-83c8-c004ee25775d","system_id":"levelo_inurba_marseille","lat":43.313291,"lon":5.396838,"is_reserved":false,"is_disabled":false,"rental_uris":{"android":"levelo://app?vid=c6e5d4c6-708b-42e0-83c8-c004ee25775d","ios":"levelo://app?vid=c6e5d4c6-708b-42e0-83c8-c004ee25775d"},"vehicle_type_id":"4","last_reported":1679177193,"current_range_meters":0,"station_id":"ce4bgvp2rcd13ifvqcu0","pricing_plan_id":"free"},{"bike_id":"26e885fa-1c85-44a6-8d12-43d10f9779f8","system_id":"levelo_inurba_marseille","lat":43.313291,"lon":5.396838,"is_reserved":false,"is_disabled":false,"rental_uris":{"android":"levelo://app?vid=26e885fa-1c85-44a6-8d12-43d10f9779f8","ios":"levelo://app?vid=26e885fa-1c85-44a6-8d12-43d10f9779f8"},"vehicle_type_id":"4","last_reported":1679177193,"current_range_meters":18000,"station_id":"ce4bgvp2rcd13ifvqcu0","pricing_plan_id":"free"},{"bike_id":"7e1344bb-99a5-487f-bc74-08570ddb93ad","system_id":"levelo_inurba_marseille","lat":43.313291,"lon":5.396838,"is_reserved":false,"is_disabled":false,"rental_uris":{"android":"levelo://app?vid=7e1344bb-99a5-487f-bc74-08570ddb93ad","ios":"levelo://app?vid=7e1344bb-99a5-487f-bc74-08570ddb93ad"},"vehicle_type_id":"4","last_reported":1679177193,"current_range_meters":6800,"station_id":"ce4bgvp2rcd13ifvqcu0","pricing_plan_id":"free"},{"bike_id":"c0a2a658-41d7-4335-9ab5-ee428580e2e7","system_id":"levelo_inurba_marseille","lat":43.316798,"lon":5.396543,"is_reserved":false,"is_disabled":false,"rental_uris":{"android":"levelo://app?vid=c0a2a658-41d7-4335-9ab5-ee428580e2e7","ios":"levelo://app?vid=c0a2a658-41d7-4335-9ab5-ee428580e2e7"},"vehicle_type_id":"4","last_reported":1679177193,"current_range_meters":23600,"station_id":"","pricing_plan_id":"free"},{"bike_id":"a2ea142d-6b25-4c4d-905b-a7ef4e1690ac","system_id":"levelo_inurba_marseille","lat":43.295853,"lon":5.386585,"is_reserved":false,"is_disabled":false,"rental_uris":{"android":"levelo://app?vid=a2ea142d-6b25-4c4d-905b-a7ef4e1690ac","ios":"levelo://app?vid=a2ea142d-6b25-4c4d-905b-a7ef4e1690ac"},"vehicle_type_id":"4","last_reported":1679177193,"current_range_meters":0,"station_id":"","pricing_plan_id":"free"},{"bike_id":"f5a35ec6-a699-4b39-9282-cd3501ccdd9b","system_id":"levelo_inurba_marseille","lat":43.290779,"lon":5.371482,"is_reserved":false,"is_disabled":false,"rental_uris":{"android":"levelo://app?vid=f5a35ec6-a699-4b39-9282-cd3501ccdd9b","ios":"levelo://app?vid=f5a35ec6-a699-4b39-9282-cd3501ccdd9b"},"vehicle_type_id":"4","last_reported":1679177193,"current_range_meters":0,"station_id":"ce4bh5p2rcd13ifvqe4g","pricing_plan_id":"free"},{"bike_id":"6ce1c0fc-67e3-4389-9e33-da58d0501437","system_id":"levelo_inurba_marseille","lat":43.290624,"lon":5.359245,"is_reserved":false,"is_disabled":false,"rental_uris":{"android":"levelo://app?vid=6ce1c0fc-67e3-4389-9e33-da58d0501437","ios":"levelo://app?vid=6ce1c0fc-67e3-4389-9e33-da58d0501437"},"vehicle_type_id":"4","last_reported":1679177193,"current_range_meters":6800,"station_id":"ce4bha92rcd13ifvqeg0","pricing_plan_id":"free"},{"bike_id":"ecac682f-40a2-47f2-ba2b-7d2cb43a2773","system_id":"levelo_inurba_marseille","lat":43.290378,"lon":5.359199,"is_reserved":false,"is_disabled":false,"rental_uris":{"android":"levelo://app?vid=ecac682f-40a2-47f2-ba2b-7d2cb43a2773","ios":"levelo://app?vid=ecac682f-40a2-47f2-ba2b-7d2cb43a2773"},"vehicle_type_id":"4","last_reported":1679177193,"current_range_meters":0,"station_id":"ce4bha92rcd13ifvqeg0","pricing_plan_id":"free"},{"bike_id":"5e8412bd-57cf-4828-8e18-5d61ef9ee04a","system_id":"levelo_inurba_marseille","lat":43.29266,"lon":5.3845,"is_reserved":false,"is_disabled":false,"rental_uris":{"android":"levelo://app?vid=5e8412bd-57cf-4828-8e18-5d61ef9ee04a","ios":"levelo://app?vid=5e8412bd-57cf-4828-8e18-5d61ef9ee04a"},"vehicle_type_id":"4","last_reported":1679177193,"current_range_meters":0,"station_id":"","pricing_plan_id":"free"},{"bike_id":"3ef5c721-c142-4987-b996-49b82317e027","system_id":"levelo_inurba_marseille","lat":43.330442,"lon":5.389148,"is_reserved":false,"is_disabled":false,"rental_uris":{"android":"levelo://app?vid=3ef5c721-c142-4987-b996-49b82317e027","ios":"levelo://app?vid=3ef5c721-c142-4987-b996-49b82317e027"},"vehicle_type_id":"4","last_reported":1679177193,"current_range_meters":7600,"station_id":"ce4bhr92rcd13ifvqhrg","pricing_plan_id":"free"},{"bike_id":"aee428d3-61ff-4805-8cd4-e13bbfc19869","system_id":"levelo_inurba_marseille","lat":43.33043,"lon":5.38917,"is_reserved":false,"is_disabled":false,"rental_uris":{"android":"levelo://app?vid=aee428d3-61ff-4805-8cd4-e13bbfc19869","ios":"levelo://app?vid=aee428d3-61ff-4805-8cd4-e13bbfc19869"},"vehicle_type_id":"4","last_reported":1679177193,"current_range_meters":2400,"station_id":"ce4bhr92rcd13ifvqhrg","pricing_plan_id":"free"},{"bike_id":"92290f0d-bca1-4cb3-bd24-6239c419d00b","system_id":"levelo_inurba_marseille","lat":43.330442,"lon":5.389148,"is_reserved":false,"is_disabled":false,"rental_uris":{"android":"levelo://app?vid=92290f0d-bca1-4cb3-bd24-6239c419d00b","ios":"levelo://app?vid=92290f0d-bca1-4cb3-bd24-6239c419d00b"},"vehicle_type_id":"4","last_reported":1679177193,"current_range_meters":6400,"station_id":"ce4bhr92rcd13ifvqhrg","pricing_plan_id":"free"},{"bike_id":"cb670050-a536-46ee-83f3-ab9e52b0b722","system_id":"levelo_inurba_marseille","lat":43.29042,"lon":5.37955,"is_reserved":false,"is_disabled":false,"rental_uris":{"android":"levelo://app?vid=cb670050-a536-46ee-83f3-ab9e52b0b722","ios":"levelo://app?vid=cb670050-a536-46ee-83f3-ab9e52b0b722"},"vehicle_type_id":"4","last_reported":1679177193,"current_range_meters":6800,"station_id":"","pricing_plan_id":"free"},{"bike_id":"37600cf5-2f78-4ba9-ae40-486df5a0d728","system_id":"levelo_inurba_marseille","lat":43.291,"lon":5.381512,"is_reserved":false,"is_disabled":false,"rental_uris":{"android":"levelo://app?vid=37600cf5-2f78-4ba9-ae40-486df5a0d728","ios":"levelo://app?vid=37600cf5-2f78-4ba9-ae40-486df5a0d728"},"vehicle_type_id":"4","last_reported":1679177193,"current_range_meters":0,"station_id":"","pricing_plan_id":"free"},{"bike_id":"e4152400-fe74-45da-82b8-a57eae74e632","system_id":"levelo_inurba_marseille","lat":43.295169,"lon":5.390426,"is_reserved":false,"is_disabled":false,"rental_uris":{"android":"levelo://app?vid=e4152400-fe74-45da-82b8-a57eae74e632","ios":"levelo://app?vid=e4152400-fe74-45da-82b8-a57eae74e632"},"vehicle_type_id":"4","last_reported":1679177193,"current_range_meters":5200,"station_id":"ce4bh3p2rcd13ifvqdp0","pricing_plan_id":"free"},{"bike_id":"97aae610-91d1-41d9-8675-306b8d880688","system_id":"levelo_inurba_marseille","lat":43.28856,"lon":5.358371,"is_reserved":false,"is_disabled":false,"rental_uris":{"android":"levelo://app?vid=97aae610-91d1-41d9-8675-306b8d880688","ios":"levelo://app?vid=97aae610-91d1-41d9-8675-306b8d880688"},"vehicle_type_id":"4","last_reported":1679177193,"current_range_meters":0,"station_id":"ce4bhb12rcd13ifvqem0","pricing_plan_id":"free"},{"bike_id":"f0888a5d-8469-4a4a-aa32-e51183159fbe","system_id":"levelo_inurba_marseille","lat":43.337455,"lon":5.374605,"is_reserved":false,"is_disabled":false,"rental_uris":{"android":"levelo://app?vid=f0888a5d-8469-4a4a-aa32-e51183159fbe","ios":"levelo://app?vid=f0888a5d-8469-4a4a-aa32-e51183159fbe"},"vehicle_type_id":"4","last_reported":1679177193,"current_range_meters":10800,"station_id":"","pricing_plan_id":"free"},{"bike_id":"3691d997-1cad-46ed-b7e6-586680d35f2f","system_id":"levelo_inurba_marseille","lat":43.337468,"lon":5.374639,"is_reserved":false,"is_disabled":false,"rental_uris":{"android":"levelo://app?vid=3691d997-1cad-46ed-b7e6-586680d35f2f","ios":"levelo://app?vid=3691d997-1cad-46ed-b7e6-586680d35f2f"},"vehicle_type_id":"4","last_reported":1679177193,"current_range_meters":20000,"station_id":"ce4rr2p2rcd13i802rgg","pricing_plan_id":"free"},{"bike_id":"97a70748-85a2-4139-aa8d-3426ee2a5b86","system_id":"levelo_inurba_marseille","lat":43.337501,"lon":5.374448,"is_reserved":false,"is_disabled":false,"rental_uris":{"android":"levelo://app?vid=97a70748-85a2-4139-aa8d-3426ee2a5b86","ios":"levelo://app?vid=97a70748-85a2-4139-aa8d-3426ee2a5b86"},"vehicle_type_id":"4","last_reported":1679177193,"current_range_meters":0,"station_id":"","pricing_plan_id":"free"},{"bike_id":"985817eb-458d-4b5f-86ab-4a859907229c","system_id":"levelo_inurba_marseille","lat":43.30642,"lon":5.401031,"is_reserved":false,"is_disabled":false,"rental_uris":{"android":"levelo://app?vid=985817eb-458d-4b5f-86ab-4a859907229c","ios":"levelo://app?vid=985817eb-458d-4b5f-86ab-4a859907229c"},"vehicle_type_id":"4","last_reported":1679177193,"current_range_meters":400,"station_id":"ce4bh112rcd13ifvqda0","pricing_plan_id":"free"},{"bike_id":"f3e60a9c-2b74-43cb-ac11-5dfafdbb73c0","system_id":"levelo_inurba_marseille","lat":43.337546,"lon":5.374658,"is_reserved":false,"is_disabled":false,"rental_uris":{"android":"levelo://app?vid=f3e60a9c-2b74-43cb-ac11-5dfafdbb73c0","ios":"levelo://app?vid=f3e60a9c-2b74-43cb-ac11-5dfafdbb73c0"},"vehicle_type_id":"4","last_reported":1679177193,"current_range_meters":24800,"station_id":"","pricing_plan_id":"free"},{"bike_id":"049dbff2-05c9-444c-b5ce-a1393f984933","system_id":"levelo_inurba_marseille","lat":43.30642,"lon":5.401031,"is_reserved":false,"is_disabled":false,"rental_uris":{"android":"levelo://app?vid=049dbff2-05c9-444c-b5ce-a1393f984933","ios":"levelo://app?vid=049dbff2-05c9-444c-b5ce-a1393f984933"},"vehicle_type_id":"4","last_reported":1679177193,"current_range_meters":5600,"station_id":"ce4bh112rcd13ifvqda0","pricing_plan_id":"free"},{"bike_id":"d9bd032c-4201-4c6f-a762-8a8d7f3d2343","system_id":"levelo_inurba_marseille","lat":43.2952,"lon":5.39396,"is_reserved":false,"is_disabled":false,"rental_uris":{"android":"levelo://app?vid=d9bd032c-4201-4c6f-a762-8a8d7f3d2343","ios":"levelo://app?vid=d9bd032c-4201-4c6f-a762-8a8d7f3d2343"},"vehicle_type_id":"4","last_reported":1679177193,"current_range_meters":16000,"station_id":"ce4bh212rcd13ifvqde0","pricing_plan_id":"free"},{"bike_id":"d5a977b9-51a8-4a18-8d88-c84e420b8d11","system_id":"levelo_inurba_marseille","lat":43.29515,"lon":5.3941,"is_reserved":false,"is_disabled":false,"rental_uris":{"android":"levelo://app?vid=d5a977b9-51a8-4a18-8d88-c84e420b8d11","ios":"levelo://app?vid=d5a977b9-51a8-4a18-8d88-c84e420b8d11"},"vehicle_type_id":"4","last_reported":1679177193,"current_range_meters":21200,"station_id":"ce4bh212rcd13ifvqde0","pricing_plan_id":"free"},{"bike_id":"b1118136-113e-473b-8cd1-b8f9e877cd13","system_id":"levelo_inurba_marseille","lat":43.290277,"lon":5.386373,"is_reserved":false,"is_disabled":false,"rental_uris":{"android":"levelo://app?vid=b1118136-113e-473b-8cd1-b8f9e877cd13","ios":"levelo://app?vid=b1118136-113e-473b-8cd1-b8f9e877cd13"},"vehicle_type_id":"4","last_reported":1679177193,"current_range_meters":3200,"station_id":"ce4bh4p2rcd13ifvqe0g","pricing_plan_id":"free"},{"bike_id":"1c7d729c-0c4d-48e9-bf8c-2dc26eb2807d","system_id":"levelo_inurba_marseille","lat":43.286039,"lon":5.370679,"is_reserved":false,"is_disabled":false,"rental_uris":{"android":"levelo://app?vid=1c7d729c-0c4d-48e9-bf8c-2dc26eb2807d","ios":"levelo://app?vid=1c7d729c-0c4d-48e9-bf8c-2dc26eb2807d"},"vehicle_type_id":"4","last_reported":1679177193,"current_range_meters":0,"station_id":"ce4bht12rcd13ifvqi60","pricing_plan_id":"free"},{"bike_id":"799c43c3-c8f8-4930-82cd-e5882bccb7f2","system_id":"levelo_inurba_marseille","lat":43.310964,"lon":5.403649,"is_reserved":false,"is_disabled":false,"rental_uris":{"android":"levelo://app?vid=799c43c3-c8f8-4930-82cd-e5882bccb7f2","ios":"levelo://app?vid=799c43c3-c8f8-4930-82cd-e5882bccb7f2"},"vehicle_type_id":"4","last_reported":1679177193,"current_range_meters":0,"station_id":"","pricing_plan_id":"free"},{"bike_id":"6d1185b5-d96c-4b6f-8711-7e85bb3914e1","system_id":"levelo_inurba_marseille","lat":43.287185,"lon":5.379373,"is_reserved":false,"is_disabled":false,"rental_uris":{"android":"levelo://app?vid=6d1185b5-d96c-4b6f-8711-7e85bb3914e1","ios":"levelo://app?vid=6d1185b5-d96c-4b6f-8711-7e85bb3914e1"},"vehicle_type_id":"4","last_reported":1679177193,"current_range_meters":26800,"station_id":"ce4bh9p2rcd13ifvqec0","pricing_plan_id":"free"},{"bike_id":"f8280d14-b024-4ff4-a6e5-b2b51fdf43fd","system_id":"levelo_inurba_marseille","lat":43.284589,"lon":5.358931,"is_reserved":false,"is_disabled":false,"rental_uris":{"android":"levelo://app?vid=f8280d14-b024-4ff4-a6e5-b2b51fdf43fd","ios":"levelo://app?vid=f8280d14-b024-4ff4-a6e5-b2b51fdf43fd"},"vehicle_type_id":"4","last_reported":1679177193,"current_range_meters":0,"station_id":"","pricing_plan_id":"free"},{"bike_id":"922c9d7f-132f-4c76-a454-01a53878338c","system_id":"levelo_inurba_marseille","lat":43.284575,"lon":5.35892,"is_reserved":false,"is_disabled":false,"rental_uris":{"android":"levelo://app?vid=922c9d7f-132f-4c76-a454-01a53878338c","ios":"levelo://app?vid=922c9d7f-132f-4c76-a454-01a53878338c"},"vehicle_type_id":"4","last_reported":1679177193,"current_range_meters":1200,"station_id":"","pricing_plan_id":"free"},{"bike_id":"9a5b6c2b-edf4-4a86-9878-4f70f3050e75","system_id":"levelo_inurba_marseille","lat":43.33717,"lon":5.391857,"is_reserved":false,"is_disabled":false,"rental_uris":{"android":"levelo://app?vid=9a5b6c2b-edf4-4a86-9878-4f70f3050e75","ios":"levelo://app?vid=9a5b6c2b-edf4-4a86-9878-4f70f3050e75"},"vehicle_type_id":"4","last_reported":1679177193,"current_range_meters":18000,"station_id":"ce4bhr92rcd13ifvqhsg","pricing_plan_id":"free"},{"bike_id":"91765fb7-6a0a-4953-a29f-0aa2e8417e56","system_id":"levelo_inurba_marseille","lat":43.32333,"lon":5.40619,"is_reserved":false,"is_disabled":false,"rental_uris":{"android":"levelo://app?vid=91765fb7-6a0a-4953-a29f-0aa2e8417e56","ios":"levelo://app?vid=91765fb7-6a0a-4953-a29f-0aa2e8417e56"},"vehicle_type_id":"4","last_reported":1679177193,"current_range_meters":6400,"station_id":"","pricing_plan_id":"free"},{"bike_id":"2d121133-831d-4a8e-b1de-6e8f8fbbc8b1","system_id":"levelo_inurba_marseille","lat":43.32333,"lon":5.40621,"is_reserved":false,"is_disabled":false,"rental_uris":{"android":"levelo://app?vid=2d121133-831d-4a8e-b1de-6e8f8fbbc8b1","ios":"levelo://app?vid=2d121133-831d-4a8e-b1de-6e8f8fbbc8b1"},"vehicle_type_id":"4","last_reported":1679177193,"current_range_meters":6400,"station_id":"","pricing_plan_id":"free"},{"bike_id":"246d4dce-743c-4128-87d6-37e1d50ce32b","system_id":"levelo_inurba_marseille","lat":43.323339,"lon":5.406225,"is_reserved":false,"is_disabled":false,"rental_uris":{"android":"levelo://app?vid=246d4dce-743c-4128-87d6-37e1d50ce32b","ios":"levelo://app?vid=246d4dce-743c-4128-87d6-37e1d50ce32b"},"vehicle_type_id":"4","last_reported":1679177193,"current_range_meters":6000,"station_id":"","pricing_plan_id":"free"},{"bike_id":"e6889254-43d4-4c90-a2a0-1fea6e8b2e44","system_id":"levelo_inurba_marseille","lat":43.323342,"lon":5.406254,"is_reserved":false,"is_disabled":false,"rental_uris":{"android":"levelo://app?vid=e6889254-43d4-4c90-a2a0-1fea6e8b2e44","ios":"levelo://app?vid=e6889254-43d4-4c90-a2a0-1fea6e8b2e44"},"vehicle_type_id":"4","last_reported":1679177193,"current_range_meters":9200,"station_id":"ce4bhq92rcd13ifvqhjg","pricing_plan_id":"free"},{"bike_id":"da825957-1bff-4af1-acab-4324bce81692","system_id":"levelo_inurba_marseille","lat":43.284793,"lon":5.384119,"is_reserved":false,"is_disabled":false,"rental_uris":{"android":"levelo://app?vid=da825957-1bff-4af1-acab-4324bce81692","ios":"levelo://app?vid=da825957-1bff-4af1-acab-4324bce81692"},"vehicle_type_id":"4","last_reported":1679177193,"current_range_meters":12800,"station_id":"ce4bh512rcd13ifvqe3g","pricing_plan_id":"free"},{"bike_id":"2b7f9522-4bf9-4e94-8492-f906abcb885a","system_id":"levelo_inurba_marseille","lat":43.2835,"lon":5.381075,"is_reserved":false,"is_disabled":false,"rental_uris":{"android":"levelo://app?vid=2b7f9522-4bf9-4e94-8492-f906abcb885a","ios":"levelo://app?vid=2b7f9522-4bf9-4e94-8492-f906abcb885a"},"vehicle_type_id":"4","last_reported":1679177193,"current_range_meters":23600,"station_id":"","pricing_plan_id":"free"},{"bike_id":"eba9f3eb-83b9-498f-b6b7-47d3beb61273","system_id":"levelo_inurba_marseille","lat":43.284219,"lon":5.3497,"is_reserved":false,"is_disabled":false,"rental_uris":{"android":"levelo://app?vid=eba9f3eb-83b9-498f-b6b7-47d3beb61273","ios":"levelo://app?vid=eba9f3eb-83b9-498f-b6b7-47d3beb61273"},"vehicle_type_id":"4","last_reported":1679177193,"current_range_meters":26400,"station_id":"ce4bhbh2rcd13ifvqepg","pricing_plan_id":"free"},{"bike_id":"9655a4b2-e20e-4c90-83b7-0fd76d2fb0a3","system_id":"levelo_inurba_marseille","lat":43.284133,"lon":5.3498,"is_reserved":false,"is_disabled":false,"rental_uris":{"android":"levelo://app?vid=9655a4b2-e20e-4c90-83b7-0fd76d2fb0a3","ios":"levelo://app?vid=9655a4b2-e20e-4c90-83b7-0fd76d2fb0a3"},"vehicle_type_id":"4","last_reported":1679177193,"current_range_meters":4400,"station_id":"","pricing_plan_id":"free"},{"bike_id":"96646b46-e98d-4060-8dc9-af5846f91233","system_id":"levelo_inurba_marseille","lat":43.292724,"lon":5.401131,"is_reserved":false,"is_disabled":false,"rental_uris":{"android":"levelo://app?vid=96646b46-e98d-4060-8dc9-af5846f91233","ios":"levelo://app?vid=96646b46-e98d-4060-8dc9-af5846f91233"},"vehicle_type_id":"4","last_reported":1679177193,"current_range_meters":11600,"station_id":"ce4bh312rcd13ifvqdk0","pricing_plan_id":"free"},{"bike_id":"dec8f7d2-8578-492e-973f-290f248f25b0","system_id":"levelo_inurba_marseille","lat":43.282687,"lon":5.350666,"is_reserved":false,"is_disabled":false,"rental_uris":{"android":"levelo://app?vid=dec8f7d2-8578-492e-973f-290f248f25b0","ios":"levelo://app?vid=dec8f7d2-8578-492e-973f-290f248f25b0"},"vehicle_type_id":"4","last_reported":1679177193,"current_range_meters":31600,"station_id":"","pricing_plan_id":"free"},{"bike_id":"3a47d550-38bb-4243-ac2b-cadbe62311c1","system_id":"levelo_inurba_marseille","lat":43.282754,"lon":5.350519,"is_reserved":false,"is_disabled":false,"rental_uris":{"android":"levelo://app?vid=3a47d550-38bb-4243-ac2b-cadbe62311c1","ios":"levelo://app?vid=3a47d550-38bb-4243-ac2b-cadbe62311c1"},"vehicle_type_id":"4","last_reported":1679177193,"current_range_meters":31600,"station_id":"ce4bhbp2rcd13ifvqerg","pricing_plan_id":"free"},{"bike_id":"b10b60a5-7b72-41ed-bd83-b94fda7dda6b","system_id":"levelo_inurba_marseille","lat":43.280382,"lon":5.369291,"is_reserved":false,"is_disabled":false,"rental_uris":{"android":"levelo://app?vid=b10b60a5-7b72-41ed-bd83-b94fda7dda6b","ios":"levelo://app?vid=b10b60a5-7b72-41ed-bd83-b94fda7dda6b"},"vehicle_type_id":"4","last_reported":1679177193,"current_range_meters":18800,"station_id":"ce4bha12rcd13ifvqef0","pricing_plan_id":"free"},{"bike_id":"b6b18feb-c934-4b37-948d-dbf79b822c79","system_id":"levelo_inurba_marseille","lat":43.29629,"lon":5.40596,"is_reserved":false,"is_disabled":false,"rental_uris":{"android":"levelo://app?vid=b6b18feb-c934-4b37-948d-dbf79b822c79","ios":"levelo://app?vid=b6b18feb-c934-4b37-948d-dbf79b822c79"},"vehicle_type_id":"4","last_reported":1679177193,"current_range_meters":9200,"station_id":"","pricing_plan_id":"free"},{"bike_id":"e7dcabbe-3756-4057-9dc9-a350a1437ae6","system_id":"levelo_inurba_marseille","lat":43.284462,"lon":5.392121,"is_reserved":false,"is_disabled":false,"rental_uris":{"android":"levelo://app?vid=e7dcabbe-3756-4057-9dc9-a350a1437ae6","ios":"levelo://app?vid=e7dcabbe-3756-4057-9dc9-a350a1437ae6"},"vehicle_type_id":"4","last_reported":1679177193,"current_range_meters":27600,"station_id":"ce4bhoh2rcd13ifvqh5g","pricing_plan_id":"free"},{"bike_id":"c6739dca-38a8-41d5-8a9f-7ec749fcd385","system_id":"levelo_inurba_marseille","lat":43.32058,"lon":5.41535,"is_reserved":false,"is_disabled":false,"rental_uris":{"android":"levelo://app?vid=c6739dca-38a8-41d5-8a9f-7ec749fcd385","ios":"levelo://app?vid=c6739dca-38a8-41d5-8a9f-7ec749fcd385"},"vehicle_type_id":"4","last_reported":1679177193,"current_range_meters":4400,"station_id":"","pricing_plan_id":"free"},{"bike_id":"f276a7a1-ac2a-4567-b8cf-9d38f3495f64","system_id":"levelo_inurba_marseille","lat":43.320045,"lon":5.415048,"is_reserved":false,"is_disabled":false,"rental_uris":{"android":"levelo://app?vid=f276a7a1-ac2a-4567-b8cf-9d38f3495f64","ios":"levelo://app?vid=f276a7a1-ac2a-4567-b8cf-9d38f3495f64"},"vehicle_type_id":"4","last_reported":1679177193,"current_range_meters":0,"station_id":"ce4bhq92rcd13ifvqhkg","pricing_plan_id":"free"},{"bike_id":"2f454740-0b4f-4abc-9d61-60c7eebac267","system_id":"levelo_inurba_marseille","lat":43.324794,"lon":5.414293,"is_reserved":false,"is_disabled":false,"rental_uris":{"android":"levelo://app?vid=2f454740-0b4f-4abc-9d61-60c7eebac267","ios":"levelo://app?vid=2f454740-0b4f-4abc-9d61-60c7eebac267"},"vehicle_type_id":"4","last_reported":1679177193,"current_range_meters":8800,"station_id":"","pricing_plan_id":"free"},{"bike_id":"cac05ac9-5f50-4447-b43d-cbd9ae3c67ce","system_id":"levelo_inurba_marseille","lat":43.292571,"lon":5.409107,"is_reserved":false,"is_disabled":false,"rental_uris":{"android":"levelo://app?vid=cac05ac9-5f50-4447-b43d-cbd9ae3c67ce","ios":"levelo://app?vid=cac05ac9-5f50-4447-b43d-cbd9ae3c67ce"},"vehicle_type_id":"4","last_reported":1679177193,"current_range_meters":27200,"station_id":"ce4bh192rcd13ifvqdc0","pricing_plan_id":"free"},{"bike_id":"ed38afd4-d724-4e08-ba37-6f0d0c8cafa0","system_id":"levelo_inurba_marseille","lat":43.325233,"lon":5.414318,"is_reserved":false,"is_disabled":false,"rental_uris":{"android":"levelo://app?vid=ed38afd4-d724-4e08-ba37-6f0d0c8cafa0","ios":"levelo://app?vid=ed38afd4-d724-4e08-ba37-6f0d0c8cafa0"},"vehicle_type_id":"4","last_reported":1679177193,"current_range_meters":28400,"station_id":"ce4bhq12rcd13ifvqhhg","pricing_plan_id":"free"},{"bike_id":"97b94eb1-6a49-448f-b909-f7cae9b8b27b","system_id":"levelo_inurba_marseille","lat":43.29258,"lon":5.40906,"is_reserved":false,"is_disabled":false,"rental_uris":{"android":"levelo://app?vid=97b94eb1-6a49-448f-b909-f7cae9b8b27b","ios":"levelo://app?vid=97b94eb1-6a49-448f-b909-f7cae9b8b27b"},"vehicle_type_id":"4","last_reported":1679177193,"current_range_meters":8800,"station_id":"ce4bh192rcd13ifvqdc0","pricing_plan_id":"free"},{"bike_id":"d5b853cc-8bf0-4a1e-a013-652267b292ea","system_id":"levelo_inurba_marseille","lat":43.325243,"lon":5.414326,"is_reserved":false,"is_disabled":false,"rental_uris":{"android":"levelo://app?vid=d5b853cc-8bf0-4a1e-a013-652267b292ea","ios":"levelo://app?vid=d5b853cc-8bf0-4a1e-a013-652267b292ea"},"vehicle_type_id":"4","last_reported":1679177193,"current_range_meters":19200,"station_id":"ce4bhq12rcd13ifvqhhg","pricing_plan_id":"free"},{"bike_id":"5f11de16-2911-4b4f-b726-c59123cc1e79","system_id":"levelo_inurba_marseille","lat":43.325233,"lon":5.414318,"is_reserved":false,"is_disabled":false,"rental_uris":{"android":"levelo://app?vid=5f11de16-2911-4b4f-b726-c59123cc1e79","ios":"levelo://app?vid=5f11de16-2911-4b4f-b726-c59123cc1e79"},"vehicle_type_id":"4","last_reported":1679177193,"current_range_meters":14400,"station_id":"ce4bhq12rcd13ifvqhhg","pricing_plan_id":"free"},{"bike_id":"723827fb-8bd7-429f-8250-b44b4c84fe20","system_id":"levelo_inurba_marseille","lat":43.276192,"lon":5.36113,"is_reserved":false,"is_disabled":false,"rental_uris":{"android":"levelo://app?vid=723827fb-8bd7-429f-8250-b44b4c84fe20","ios":"levelo://app?vid=723827fb-8bd7-429f-8250-b44b4c84fe20"},"vehicle_type_id":"4","last_reported":1679177193,"current_range_meters":0,"station_id":"","pricing_plan_id":"free"},{"bike_id":"82c0197b-5828-4710-a88c-34b63d75cfda","system_id":"levelo_inurba_marseille","lat":43.325233,"lon":5.414318,"is_reserved":false,"is_disabled":false,"rental_uris":{"android":"levelo://app?vid=82c0197b-5828-4710-a88c-34b63d75cfda","ios":"levelo://app?vid=82c0197b-5828-4710-a88c-34b63d75cfda"},"vehicle_type_id":"4","last_reported":1679177193,"current_range_meters":22000,"station_id":"ce4bhq12rcd13ifvqhhg","pricing_plan_id":"free"},{"bike_id":"51d76d32-5703-4de6-9544-9d06ddb31cbf","system_id":"levelo_inurba_marseille","lat":43.325243,"lon":5.414326,"is_reserved":false,"is_disabled":false,"rental_uris":{"android":"levelo://app?vid=51d76d32-5703-4de6-9544-9d06ddb31cbf","ios":"levelo://app?vid=51d76d32-5703-4de6-9544-9d06ddb31cbf"},"vehicle_type_id":"4","last_reported":1679177193,"current_range_meters":2800,"station_id":"ce4bhq12rcd13ifvqhhg","pricing_plan_id":"free"},{"bike_id":"4e924825-18da-48fb-b5bc-28bbbc060640","system_id":"levelo_inurba_marseille","lat":43.325243,"lon":5.414326,"is_reserved":false,"is_disabled":false,"rental_uris":{"android":"levelo://app?vid=4e924825-18da-48fb-b5bc-28bbbc060640","ios":"levelo://app?vid=4e924825-18da-48fb-b5bc-28bbbc060640"},"vehicle_type_id":"4","last_reported":1679177193,"current_range_meters":22400,"station_id":"ce4bhq12rcd13ifvqhhg","pricing_plan_id":"free"},{"bike_id":"69d4dd91-dfcd-4995-966b-ec2f27d43f39","system_id":"levelo_inurba_marseille","lat":43.280784,"lon":5.396622,"is_reserved":false,"is_disabled":false,"rental_uris":{"android":"levelo://app?vid=69d4dd91-dfcd-4995-966b-ec2f27d43f39","ios":"levelo://app?vid=69d4dd91-dfcd-4995-966b-ec2f27d43f39"},"vehicle_type_id":"4","last_reported":1679177193,"current_range_meters":0,"station_id":"ce4bho12rcd13ifvqh2g","pricing_plan_id":"free"},{"bike_id":"eb462c0b-2666-46c8-b365-bcbf64fc0073","system_id":"levelo_inurba_marseille","lat":43.2738,"lon":5.36251,"is_reserved":false,"is_disabled":false,"rental_uris":{"android":"levelo://app?vid=eb462c0b-2666-46c8-b365-bcbf64fc0073","ios":"levelo://app?vid=eb462c0b-2666-46c8-b365-bcbf64fc0073"},"vehicle_type_id":"4","last_reported":1679177193,"current_range_meters":7200,"station_id":"ce4bhbh2rcd13ifvqeo0","pricing_plan_id":"free"},{"bike_id":"5a5465a4-49c5-41e2-9d12-da9c3759cf26","system_id":"levelo_inurba_marseille","lat":43.273613,"lon":5.362705,"is_reserved":false,"is_disabled":false,"rental_uris":{"android":"levelo://app?vid=5a5465a4-49c5-41e2-9d12-da9c3759cf26","ios":"levelo://app?vid=5a5465a4-49c5-41e2-9d12-da9c3759cf26"},"vehicle_type_id":"4","last_reported":1679177193,"current_range_meters":0,"station_id":"ce4bhbh2rcd13ifvqeo0","pricing_plan_id":"free"},{"bike_id":"2abcf298-3819-478b-95ea-54cc72544c00","system_id":"levelo_inurba_marseille","lat":43.336148,"lon":5.410349,"is_reserved":false,"is_disabled":false,"rental_uris":{"android":"levelo://app?vid=2abcf298-3819-478b-95ea-54cc72544c00","ios":"levelo://app?vid=2abcf298-3819-478b-95ea-54cc72544c00"},"vehicle_type_id":"4","last_reported":1679177193,"current_range_meters":9600,"station_id":"ce4bhqh2rcd13ifvqhmg","pricing_plan_id":"free"},{"bike_id":"350d6b89-8c6e-4cbd-a303-a381f1965236","system_id":"levelo_inurba_marseille","lat":43.336134,"lon":5.410341,"is_reserved":false,"is_disabled":false,"rental_uris":{"android":"levelo://app?vid=350d6b89-8c6e-4cbd-a303-a381f1965236","ios":"levelo://app?vid=350d6b89-8c6e-4cbd-a303-a381f1965236"},"vehicle_type_id":"4","last_reported":1679177193,"current_range_meters":15200,"station_id":"ce4bhqh2rcd13ifvqhmg","pricing_plan_id":"free"},{"bike_id":"7fdcc3f8-7dc4-4f87-854d-ae11d4a14639","system_id":"levelo_inurba_marseille","lat":43.295511,"lon":5.422926,"is_reserved":false,"is_disabled":false,"rental_uris":{"android":"levelo://app?vid=7fdcc3f8-7dc4-4f87-854d-ae11d4a14639","ios":"levelo://app?vid=7fdcc3f8-7dc4-4f87-854d-ae11d4a14639"},"vehicle_type_id":"4","last_reported":1679177193,"current_range_meters":4800,"station_id":"ce4bhph2rcd13ifvqhdg","pricing_plan_id":"free"},{"bike_id":"a8843578-c01d-4af1-8848-3e7987c51a6a","system_id":"levelo_inurba_marseille","lat":43.295523,"lon":5.422926,"is_reserved":false,"is_disabled":false,"rental_uris":{"android":"levelo://app?vid=a8843578-c01d-4af1-8848-3e7987c51a6a","ios":"levelo://app?vid=a8843578-c01d-4af1-8848-3e7987c51a6a"},"vehicle_type_id":"4","last_reported":1679177193,"current_range_meters":0,"station_id":"ce4bhph2rcd13ifvqhdg","pricing_plan_id":"free"},{"bike_id":"b170044d-c7bc-4687-8c61-d20e1d905ffc","system_id":"levelo_inurba_marseille","lat":43.295511,"lon":5.422926,"is_reserved":false,"is_disabled":false,"rental_uris":{"android":"levelo://app?vid=b170044d-c7bc-4687-8c61-d20e1d905ffc","ios":"levelo://app?vid=b170044d-c7bc-4687-8c61-d20e1d905ffc"},"vehicle_type_id":"4","last_reported":1679177193,"current_range_meters":8000,"station_id":"ce4bhph2rcd13ifvqhdg","pricing_plan_id":"free"},{"bike_id":"500ba279-d765-4469-a69f-fc786362a5b0","system_id":"levelo_inurba_marseille","lat":43.29551,"lon":5.42285,"is_reserved":false,"is_disabled":false,"rental_uris":{"android":"levelo://app?vid=500ba279-d765-4469-a69f-fc786362a5b0","ios":"levelo://app?vid=500ba279-d765-4469-a69f-fc786362a5b0"},"vehicle_type_id":"4","last_reported":1679177193,"current_range_meters":17600,"station_id":"ce4bhph2rcd13ifvqhdg","pricing_plan_id":"free"},{"bike_id":"96e432f4-7ba4-4fdc-b1eb-9d93563d365f","system_id":"levelo_inurba_marseille","lat":43.272124,"lon":5.391768,"is_reserved":false,"is_disabled":false,"rental_uris":{"android":"levelo://app?vid=96e432f4-7ba4-4fdc-b1eb-9d93563d365f","ios":"levelo://app?vid=96e432f4-7ba4-4fdc-b1eb-9d93563d365f"},"vehicle_type_id":"4","last_reported":1679177193,"current_range_meters":4800,"station_id":"ce4bhhp2rcd13ifvqfm0","pricing_plan_id":"free"},{"bike_id":"324770e5-a6fa-4eb1-85e6-888ff29045ea","system_id":"levelo_inurba_marseille","lat":43.27811,"lon":5.40704,"is_reserved":false,"is_disabled":false,"rental_uris":{"android":"levelo://app?vid=324770e5-a6fa-4eb1-85e6-888ff29045ea","ios":"levelo://app?vid=324770e5-a6fa-4eb1-85e6-888ff29045ea"},"vehicle_type_id":"4","last_reported":1679177193,"current_range_meters":10000,"station_id":"ce4bhnh2rcd13ifvqgtg","pricing_plan_id":"free"},{"bike_id":"42bc8889-385f-4284-8b5c-e0646507f0b0","system_id":"levelo_inurba_marseille","lat":43.27806,"lon":5.40706,"is_reserved":false,"is_disabled":false,"rental_uris":{"android":"levelo://app?vid=42bc8889-385f-4284-8b5c-e0646507f0b0","ios":"levelo://app?vid=42bc8889-385f-4284-8b5c-e0646507f0b0"},"vehicle_type_id":"4","last_reported":1679177193,"current_range_meters":24400,"station_id":"","pricing_plan_id":"free"},{"bike_id":"54a15210-214e-44bb-9e1e-c467b9d15bcf","system_id":"levelo_inurba_marseille","lat":43.265714,"lon":5.372891,"is_reserved":false,"is_disabled":false,"rental_uris":{"android":"levelo://app?vid=54a15210-214e-44bb-9e1e-c467b9d15bcf","ios":"levelo://app?vid=54a15210-214e-44bb-9e1e-c467b9d15bcf"},"vehicle_type_id":"4","last_reported":1679177193,"current_range_meters":4800,"station_id":"ce4bhg12rcd13ifvqf70","pricing_plan_id":"free"},{"bike_id":"13b6f600-6bf7-44e2-9643-255e5169245c","system_id":"levelo_inurba_marseille","lat":43.26506,"lon":5.37349,"is_reserved":false,"is_disabled":false,"rental_uris":{"android":"levelo://app?vid=13b6f600-6bf7-44e2-9643-255e5169245c","ios":"levelo://app?vid=13b6f600-6bf7-44e2-9643-255e5169245c"},"vehicle_type_id":"4","last_reported":1679177193,"current_range_meters":20800,"station_id":"","pricing_plan_id":"free"},{"bike_id":"a8b9c6ee-276f-422b-8adf-8cf6eba64eda","system_id":"levelo_inurba_marseille","lat":43.26504,"lon":5.37346,"is_reserved":false,"is_disabled":false,"rental_uris":{"android":"levelo://app?vid=a8b9c6ee-276f-422b-8adf-8cf6eba64eda","ios":"levelo://app?vid=a8b9c6ee-276f-422b-8adf-8cf6eba64eda"},"vehicle_type_id":"4","last_reported":1679177193,"current_range_meters":31200,"station_id":"","pricing_plan_id":"free"},{"bike_id":"118d6d4a-269c-4671-b309-a6b4286555e0","system_id":"levelo_inurba_marseille","lat":43.26504,"lon":5.3735,"is_reserved":false,"is_disabled":false,"rental_uris":{"android":"levelo://app?vid=118d6d4a-269c-4671-b309-a6b4286555e0","ios":"levelo://app?vid=118d6d4a-269c-4671-b309-a6b4286555e0"},"vehicle_type_id":"4","last_reported":1679177193,"current_range_meters":0,"station_id":"","pricing_plan_id":"free"},{"bike_id":"09961915-a2f8-473e-90dd-3d7f152ab775","system_id":"levelo_inurba_marseille","lat":43.267966,"lon":5.393976,"is_reserved":false,"is_disabled":false,"rental_uris":{"android":"levelo://app?vid=09961915-a2f8-473e-90dd-3d7f152ab775","ios":"levelo://app?vid=09961915-a2f8-473e-90dd-3d7f152ab775"},"vehicle_type_id":"4","last_reported":1679177193,"current_range_meters":6000,"station_id":"ce4bhh12rcd13ifvqfg0","pricing_plan_id":"free"},{"bike_id":"f83f077f-afbf-43b8-97e9-e9a23bc33301","system_id":"levelo_inurba_marseille","lat":43.267966,"lon":5.393976,"is_reserved":false,"is_disabled":false,"rental_uris":{"android":"levelo://app?vid=f83f077f-afbf-43b8-97e9-e9a23bc33301","ios":"levelo://app?vid=f83f077f-afbf-43b8-97e9-e9a23bc33301"},"vehicle_type_id":"4","last_reported":1679177193,"current_range_meters":8800,"station_id":"ce4bhh12rcd13ifvqfg0","pricing_plan_id":"free"},{"bike_id":"ec6479b9-1f5d-4ea2-b0e7-c927488369ff","system_id":"levelo_inurba_marseille","lat":43.267966,"lon":5.393976,"is_reserved":false,"is_disabled":false,"rental_uris":{"android":"levelo://app?vid=ec6479b9-1f5d-4ea2-b0e7-c927488369ff","ios":"levelo://app?vid=ec6479b9-1f5d-4ea2-b0e7-c927488369ff"},"vehicle_type_id":"4","last_reported":1679177193,"current_range_meters":27200,"station_id":"ce4bhh12rcd13ifvqfg0","pricing_plan_id":"free"},{"bike_id":"e64489c4-592d-410b-ab06-d7f4db460c24","system_id":"levelo_inurba_marseille","lat":43.308051,"lon":5.43527,"is_reserved":false,"is_disabled":false,"rental_uris":{"android":"levelo://app?vid=e64489c4-592d-410b-ab06-d7f4db460c24","ios":"levelo://app?vid=e64489c4-592d-410b-ab06-d7f4db460c24"},"vehicle_type_id":"4","last_reported":1679177193,"current_range_meters":5600,"station_id":"ce4bhph2rcd13ifvqheg","pricing_plan_id":"free"},{"bike_id":"8bbbcc37-39f2-481d-9c0f-90371390543a","system_id":"levelo_inurba_marseille","lat":43.308051,"lon":5.43527,"is_reserved":false,"is_disabled":false,"rental_uris":{"android":"levelo://app?vid=8bbbcc37-39f2-481d-9c0f-90371390543a","ios":"levelo://app?vid=8bbbcc37-39f2-481d-9c0f-90371390543a"},"vehicle_type_id":"4","last_reported":1679177193,"current_range_meters":5600,"station_id":"ce4bhph2rcd13ifvqheg","pricing_plan_id":"free"},{"bike_id":"7c3e4dc0-a7e8-4178-b3c7-70ceb02652cc","system_id":"levelo_inurba_marseille","lat":43.308051,"lon":5.43527,"is_reserved":false,"is_disabled":false,"rental_uris":{"android":"levelo://app?vid=7c3e4dc0-a7e8-4178-b3c7-70ceb02652cc","ios":"levelo://app?vid=7c3e4dc0-a7e8-4178-b3c7-70ceb02652cc"},"vehicle_type_id":"4","last_reported":1679177193,"current_range_meters":9600,"station_id":"ce4bhph2rcd13ifvqheg","pricing_plan_id":"free"},{"bike_id":"4bb1f662-5ee7-42b3-b46f-0b6473ae2143","system_id":"levelo_inurba_marseille","lat":43.265569,"lon":5.390047,"is_reserved":false,"is_disabled":false,"rental_uris":{"android":"levelo://app?vid=4bb1f662-5ee7-42b3-b46f-0b6473ae2143","ios":"levelo://app?vid=4bb1f662-5ee7-42b3-b46f-0b6473ae2143"},"vehicle_type_id":"4","last_reported":1679177193,"current_range_meters":13200,"station_id":"ce4bhe12rcd13ifvqf30","pricing_plan_id":"free"},{"bike_id":"24b6a015-0c45-4136-83c1-b447c5d3208e","system_id":"levelo_inurba_marseille","lat":43.268,"lon":5.40262,"is_reserved":false,"is_disabled":false,"rental_uris":{"android":"levelo://app?vid=24b6a015-0c45-4136-83c1-b447c5d3208e","ios":"levelo://app?vid=24b6a015-0c45-4136-83c1-b447c5d3208e"},"vehicle_type_id":"4","last_reported":1679177193,"current_range_meters":17600,"station_id":"ce501612rcd8frsf0b60","pricing_plan_id":"free"},{"bike_id":"5f1ed12c-98a6-44da-878c-9efd2642ac8e","system_id":"levelo_inurba_marseille","lat":43.255756,"lon":5.382303,"is_reserved":false,"is_disabled":false,"rental_uris":{"android":"levelo://app?vid=5f1ed12c-98a6-44da-878c-9efd2642ac8e","ios":"levelo://app?vid=5f1ed12c-98a6-44da-878c-9efd2642ac8e"},"vehicle_type_id":"4","last_reported":1679177193,"current_range_meters":0,"station_id":"ce4bhih2rcd13ifvqfs0","pricing_plan_id":"free"},{"bike_id":"b86de4bb-82b3-4051-a9c4-e40f11314f3c","system_id":"levelo_inurba_marseille","lat":43.25006,"lon":5.3891,"is_reserved":false,"is_disabled":false,"rental_uris":{"android":"levelo://app?vid=b86de4bb-82b3-4051-a9c4-e40f11314f3c","ios":"levelo://app?vid=b86de4bb-82b3-4051-a9c4-e40f11314f3c"},"vehicle_type_id":"4","last_reported":1679177193,"current_range_meters":28000,"station_id":"ce4bhgp2rcd13ifvqfd0","pricing_plan_id":"free"},{"bike_id":"4198d439-6bcd-4695-a8dc-ae254dd71863","system_id":"levelo_inurba_marseille","lat":43.248117,"lon":5.374583,"is_reserved":false,"is_disabled":false,"rental_uris":{"android":"levelo://app?vid=4198d439-6bcd-4695-a8dc-ae254dd71863","ios":"levelo://app?vid=4198d439-6bcd-4695-a8dc-ae254dd71863"},"vehicle_type_id":"4","last_reported":1679177193,"current_range_meters":30400,"station_id":"","pricing_plan_id":"free"},{"bike_id":"22af5f68-1fad-4b6c-a857-f8f55f963a3b","system_id":"levelo_inurba_marseille","lat":43.2479,"lon":5.374457,"is_reserved":false,"is_disabled":false,"rental_uris":{"android":"levelo://app?vid=22af5f68-1fad-4b6c-a857-f8f55f963a3b","ios":"levelo://app?vid=22af5f68-1fad-4b6c-a857-f8f55f963a3b"},"vehicle_type_id":"4","last_reported":1679177193,"current_range_meters":8800,"station_id":"ce4bhgh2rcd13ifvqfb0","pricing_plan_id":"free"},{"bike_id":"96186fc4-e261-4c9c-b25c-ccd926aa07dd","system_id":"levelo_inurba_marseille","lat":43.2479,"lon":5.374457,"is_reserved":false,"is_disabled":false,"rental_uris":{"android":"levelo://app?vid=96186fc4-e261-4c9c-b25c-ccd926aa07dd","ios":"levelo://app?vid=96186fc4-e261-4c9c-b25c-ccd926aa07dd"},"vehicle_type_id":"4","last_reported":1679177193,"current_range_meters":12000,"station_id":"ce4bhgh2rcd13ifvqfb0","pricing_plan_id":"free"},{"bike_id":"5dc3ded0-6ff0-49ef-aed0-3f25793366a1","system_id":"levelo_inurba_marseille","lat":43.2479,"lon":5.374457,"is_reserved":false,"is_disabled":false,"rental_uris":{"android":"levelo://app?vid=5dc3ded0-6ff0-49ef-aed0-3f25793366a1","ios":"levelo://app?vid=5dc3ded0-6ff0-49ef-aed0-3f25793366a1"},"vehicle_type_id":"4","last_reported":1679177193,"current_range_meters":14400,"station_id":"ce4bhgh2rcd13ifvqfb0","pricing_plan_id":"free"},{"bike_id":"bbd94a6a-cb4a-4694-9147-c18d029fac4d","system_id":"levelo_inurba_marseille","lat":43.24669,"lon":5.38165,"is_reserved":false,"is_disabled":false,"rental_uris":{"android":"levelo://app?vid=bbd94a6a-cb4a-4694-9147-c18d029fac4d","ios":"levelo://app?vid=bbd94a6a-cb4a-4694-9147-c18d029fac4d"},"vehicle_type_id":"4","last_reported":1679177193,"current_range_meters":20800,"station_id":"","pricing_plan_id":"free"},{"bike_id":"9ac7963d-1829-4f91-8a1f-f6fb9b7a3411","system_id":"levelo_inurba_marseille","lat":43.25102,"lon":5.403214,"is_reserved":false,"is_disabled":false,"rental_uris":{"android":"levelo://app?vid=9ac7963d-1829-4f91-8a1f-f6fb9b7a3411","ios":"levelo://app?vid=9ac7963d-1829-4f91-8a1f-f6fb9b7a3411"},"vehicle_type_id":"4","last_reported":1679177193,"current_range_meters":0,"station_id":"ce4bhlh2rcd13ifvqgig","pricing_plan_id":"free"},{"bike_id":"cb880012-c3cb-4c51-a580-f7c1d13a54ff","system_id":"levelo_inurba_marseille","lat":43.24659,"lon":5.38159,"is_reserved":false,"is_disabled":false,"rental_uris":{"android":"levelo://app?vid=cb880012-c3cb-4c51-a580-f7c1d13a54ff","ios":"levelo://app?vid=cb880012-c3cb-4c51-a580-f7c1d13a54ff"},"vehicle_type_id":"4","last_reported":1679177193,"current_range_meters":0,"station_id":"","pricing_plan_id":"free"},{"bike_id":"33602cf2-083d-408f-8ce8-6fb7516f2926","system_id":"levelo_inurba_marseille","lat":43.24693,"lon":5.382096,"is_reserved":false,"is_disabled":false,"rental_uris":{"android":"levelo://app?vid=33602cf2-083d-408f-8ce8-6fb7516f2926","ios":"levelo://app?vid=33602cf2-083d-408f-8ce8-6fb7516f2926"},"vehicle_type_id":"4","last_reported":1679177193,"current_range_meters":20800,"station_id":"ce4bhih2rcd13ifvqfr0","pricing_plan_id":"free"},{"bike_id":"9d5bebb5-ecd5-4169-87ef-ca8ce9ef1422","system_id":"levelo_inurba_marseille","lat":43.243884,"lon":5.370736,"is_reserved":false,"is_disabled":false,"rental_uris":{"android":"levelo://app?vid=9d5bebb5-ecd5-4169-87ef-ca8ce9ef1422","ios":"levelo://app?vid=9d5bebb5-ecd5-4169-87ef-ca8ce9ef1422"},"vehicle_type_id":"4","last_reported":1679177193,"current_range_meters":4800,"station_id":"ce4bhhh2rcd13ifvqfk0","pricing_plan_id":"free"},{"bike_id":"a7aa3cfd-0818-478f-aaac-3109f9877811","system_id":"levelo_inurba_marseille","lat":43.243884,"lon":5.370736,"is_reserved":false,"is_disabled":false,"rental_uris":{"android":"levelo://app?vid=a7aa3cfd-0818-478f-aaac-3109f9877811","ios":"levelo://app?vid=a7aa3cfd-0818-478f-aaac-3109f9877811"},"vehicle_type_id":"4","last_reported":1679177193,"current_range_meters":10400,"station_id":"ce4bhhh2rcd13ifvqfk0","pricing_plan_id":"free"},{"bike_id":"088a25f1-4e71-4e12-b29e-c5b32ef46c65","system_id":"levelo_inurba_marseille","lat":43.245581,"lon":5.395069,"is_reserved":false,"is_disabled":false,"rental_uris":{"android":"levelo://app?vid=088a25f1-4e71-4e12-b29e-c5b32ef46c65","ios":"levelo://app?vid=088a25f1-4e71-4e12-b29e-c5b32ef46c65"},"vehicle_type_id":"4","last_reported":1679177193,"current_range_meters":3200,"station_id":"ce4bhlp2rcd13ifvqgjg","pricing_plan_id":"free"},{"bike_id":"91895e72-70c3-4fff-8de2-9c7d84433031","system_id":"levelo_inurba_marseille","lat":43.23967,"lon":5.36634,"is_reserved":false,"is_disabled":false,"rental_uris":{"android":"levelo://app?vid=91895e72-70c3-4fff-8de2-9c7d84433031","ios":"levelo://app?vid=91895e72-70c3-4fff-8de2-9c7d84433031"},"vehicle_type_id":"4","last_reported":1679177193,"current_range_meters":14000,"station_id":"ce4bhi12rcd13ifvqfp0","pricing_plan_id":"free"},{"bike_id":"b9eb7df5-4549-486d-acf3-adcd910c731d","system_id":"levelo_inurba_marseille","lat":43.23964,"lon":5.36638,"is_reserved":false,"is_disabled":false,"rental_uris":{"android":"levelo://app?vid=b9eb7df5-4549-486d-acf3-adcd910c731d","ios":"levelo://app?vid=b9eb7df5-4549-486d-acf3-adcd910c731d"},"vehicle_type_id":"4","last_reported":1679177193,"current_range_meters":6800,"station_id":"","pricing_plan_id":"free"},{"bike_id":"60ec317c-9c95-456f-90a7-3e1b12c23fe5","system_id":"levelo_inurba_marseille","lat":43.239638,"lon":5.366277,"is_reserved":false,"is_disabled":false,"rental_uris":{"android":"levelo://app?vid=60ec317c-9c95-456f-90a7-3e1b12c23fe5","ios":"levelo://app?vid=60ec317c-9c95-456f-90a7-3e1b12c23fe5"},"vehicle_type_id":"4","last_reported":1679177193,"current_range_meters":4400,"station_id":"ce4bhi12rcd13ifvqfp0","pricing_plan_id":"free"},{"bike_id":"dcfbe225-2601-4561-81df-92cf185c56f6","system_id":"levelo_inurba_marseille","lat":43.239588,"lon":5.366238,"is_reserved":false,"is_disabled":false,"rental_uris":{"android":"levelo://app?vid=dcfbe225-2601-4561-81df-92cf185c56f6","ios":"levelo://app?vid=dcfbe225-2601-4561-81df-92cf185c56f6"},"vehicle_type_id":"4","last_reported":1679177193,"current_range_meters":6000,"station_id":"ce4bhi12rcd13ifvqfp0","pricing_plan_id":"free"},{"bike_id":"e6de100f-ddf7-4ced-91e9-e2c1e1a231bc","system_id":"levelo_inurba_marseille","lat":43.241782,"lon":5.397264,"is_reserved":false,"is_disabled":false,"rental_uris":{"android":"levelo://app?vid=e6de100f-ddf7-4ced-91e9-e2c1e1a231bc","ios":"levelo://app?vid=e6de100f-ddf7-4ced-91e9-e2c1e1a231bc"},"vehicle_type_id":"4","last_reported":1679177193,"current_range_meters":16000,"station_id":"ce4bhn12rcd13ifvqgpg","pricing_plan_id":"free"},{"bike_id":"beb4cea3-745f-44b9-b80b-15d479bcf9d9","system_id":"levelo_inurba_marseille","lat":43.241782,"lon":5.397264,"is_reserved":false,"is_disabled":false,"rental_uris":{"android":"levelo://app?vid=beb4cea3-745f-44b9-b80b-15d479bcf9d9","ios":"levelo://app?vid=beb4cea3-745f-44b9-b80b-15d479bcf9d9"},"vehicle_type_id":"4","last_reported":1679177193,"current_range_meters":400,"station_id":"ce4bhn12rcd13ifvqgpg","pricing_plan_id":"free"},{"bike_id":"beaf722f-8cce-48cc-9f08-62b9af3ed634","system_id":"levelo_inurba_marseille","lat":43.23199,"lon":5.35554,"is_reserved":false,"is_disabled":false,"rental_uris":{"android":"levelo://app?vid=beaf722f-8cce-48cc-9f08-62b9af3ed634","ios":"levelo://app?vid=beaf722f-8cce-48cc-9f08-62b9af3ed634"},"vehicle_type_id":"4","last_reported":1679177193,"current_range_meters":24400,"station_id":"","pricing_plan_id":"free"},{"bike_id":"0510984e-f649-44d1-8242-9d987e2a499a","system_id":"levelo_inurba_marseille","lat":43.23198,"lon":5.35553,"is_reserved":false,"is_disabled":false,"rental_uris":{"android":"levelo://app?vid=0510984e-f649-44d1-8242-9d987e2a499a","ios":"levelo://app?vid=0510984e-f649-44d1-8242-9d987e2a499a"},"vehicle_type_id":"4","last_reported":1679177193,"current_range_meters":25200,"station_id":"ce4bhu92rcd13ifvqi70","pricing_plan_id":"free"},{"bike_id":"2f1e89bb-26de-4f28-9f9c-8145daa23f89","system_id":"levelo_inurba_marseille","lat":43.231946,"lon":5.355569,"is_reserved":false,"is_disabled":false,"rental_uris":{"android":"levelo://app?vid=2f1e89bb-26de-4f28-9f9c-8145daa23f89","ios":"levelo://app?vid=2f1e89bb-26de-4f28-9f9c-8145daa23f89"},"vehicle_type_id":"4","last_reported":1679177193,"current_range_meters":31600,"station_id":"","pricing_plan_id":"free"},{"bike_id":"b71d4bb3-9dd8-4f9d-8402-e3595c6b6b91","system_id":"levelo_inurba_marseille","lat":43.23194,"lon":5.35554,"is_reserved":false,"is_disabled":false,"rental_uris":{"android":"levelo://app?vid=b71d4bb3-9dd8-4f9d-8402-e3595c6b6b91","ios":"levelo://app?vid=b71d4bb3-9dd8-4f9d-8402-e3595c6b6b91"},"vehicle_type_id":"4","last_reported":1679177193,"current_range_meters":25200,"station_id":"","pricing_plan_id":"free"},{"bike_id":"e8fea5b7-48a9-48c9-b449-fe6211bd9de6","system_id":"levelo_inurba_marseille","lat":43.231923,"lon":5.355545,"is_reserved":false,"is_disabled":false,"rental_uris":{"android":"levelo://app?vid=e8fea5b7-48a9-48c9-b449-fe6211bd9de6","ios":"levelo://app?vid=e8fea5b7-48a9-48c9-b449-fe6211bd9de6"},"vehicle_type_id":"4","last_reported":1679177193,"current_range_meters":26800,"station_id":"ce4bhu92rcd13ifvqi70","pricing_plan_id":"free"},{"bike_id":"b9f6f4f0-f36b-4f70-8715-1fede5862196","system_id":"levelo_inurba_marseille","lat":43.23193,"lon":5.35553,"is_reserved":false,"is_disabled":false,"rental_uris":{"android":"levelo://app?vid=b9f6f4f0-f36b-4f70-8715-1fede5862196","ios":"levelo://app?vid=b9f6f4f0-f36b-4f70-8715-1fede5862196"},"vehicle_type_id":"4","last_reported":1679177193,"current_range_meters":29600,"station_id":"ce4bhu92rcd13ifvqi70","pricing_plan_id":"free"},{"bike_id":"956fe110-a343-4414-91a1-6e3d50bfa094","system_id":"levelo_inurba_marseille","lat":43.231923,"lon":5.355545,"is_reserved":false,"is_disabled":false,"rental_uris":{"android":"levelo://app?vid=956fe110-a343-4414-91a1-6e3d50bfa094","ios":"levelo://app?vid=956fe110-a343-4414-91a1-6e3d50bfa094"},"vehicle_type_id":"4","last_reported":1679177193,"current_range_meters":31200,"station_id":"ce4bhu92rcd13ifvqi70","pricing_plan_id":"free"},{"bike_id":"9396a642-8421-4ca9-b20d-a2492104caf9","system_id":"levelo_inurba_marseille","lat":43.23192,"lon":5.35556,"is_reserved":false,"is_disabled":false,"rental_uris":{"android":"levelo://app?vid=9396a642-8421-4ca9-b20d-a2492104caf9","ios":"levelo://app?vid=9396a642-8421-4ca9-b20d-a2492104caf9"},"vehicle_type_id":"4","last_reported":1679177193,"current_range_meters":30800,"station_id":"","pricing_plan_id":"free"},{"bike_id":"8057768e-761b-41d6-916d-02a9ceb83bc6","system_id":"levelo_inurba_marseille","lat":43.23192,"lon":5.355556,"is_reserved":false,"is_disabled":false,"rental_uris":{"android":"levelo://app?vid=8057768e-761b-41d6-916d-02a9ceb83bc6","ios":"levelo://app?vid=8057768e-761b-41d6-916d-02a9ceb83bc6"},"vehicle_type_id":"4","last_reported":1679177193,"current_range_meters":28000,"station_id":"ce4bhu92rcd13ifvqi70","pricing_plan_id":"free"},{"bike_id":"c4a765e8-1981-4501-b559-fd423b924ef4","system_id":"levelo_inurba_marseille","lat":43.231923,"lon":5.355545,"is_reserved":false,"is_disabled":false,"rental_uris":{"android":"levelo://app?vid=c4a765e8-1981-4501-b559-fd423b924ef4","ios":"levelo://app?vid=c4a765e8-1981-4501-b559-fd423b924ef4"},"vehicle_type_id":"4","last_reported":1679177193,"current_range_meters":27200,"station_id":"ce4bhu92rcd13ifvqi70","pricing_plan_id":"free"},{"bike_id":"ff98316f-748f-4069-a942-b27635abd352","system_id":"levelo_inurba_marseille","lat":43.231923,"lon":5.355545,"is_reserved":false,"is_disabled":false,"rental_uris":{"android":"levelo://app?vid=ff98316f-748f-4069-a942-b27635abd352","ios":"levelo://app?vid=ff98316f-748f-4069-a942-b27635abd352"},"vehicle_type_id":"4","last_reported":1679177193,"current_range_meters":31600,"station_id":"ce4bhu92rcd13ifvqi70","pricing_plan_id":"free"},{"bike_id":"aa784494-bcc8-4b38-921b-25d4252dc6ab","system_id":"levelo_inurba_marseille","lat":43.23191,"lon":5.35553,"is_reserved":false,"is_disabled":false,"rental_uris":{"android":"levelo://app?vid=aa784494-bcc8-4b38-921b-25d4252dc6ab","ios":"levelo://app?vid=aa784494-bcc8-4b38-921b-25d4252dc6ab"},"vehicle_type_id":"4","last_reported":1679177193,"current_range_meters":9600,"station_id":"ce4bhu92rcd13ifvqi70","pricing_plan_id":"free"},{"bike_id":"0010ebe6-0da4-49c8-96ff-1cfa6d1925a0","system_id":"levelo_inurba_marseille","lat":43.231907,"lon":5.355566,"is_reserved":false,"is_disabled":false,"rental_uris":{"android":"levelo://app?vid=0010ebe6-0da4-49c8-96ff-1cfa6d1925a0","ios":"levelo://app?vid=0010ebe6-0da4-49c8-96ff-1cfa6d1925a0"},"vehicle_type_id":"4","last_reported":1679177193,"current_range_meters":26400,"station_id":"ce4bhu92rcd13ifvqi70","pricing_plan_id":"free"}]}}