{"last_updated":1680016095,"ttl":30,"version":"2.2","data":{"bikes":[{"bike_id":"1e99f743-5329-46b5-8000-38ab223bcacb","system_id":"levelo_inurba_marseille","lat":43.31225,"lon":5.36856,"is_reserved":false,"is_disabled":false,"rental_uris":{"android":"levelo://app?vid=1e99f743-5329-46b5-8000-38ab223bcacb","ios":"levelo://app?vid=1e99f743-5329-46b5-8000-38ab223bcacb"},"vehicle_type_id":"4","last_reported":1680016096,"current_range_meters":20000,"station_id":"ce4bgl92rcd13ifvqbq0","pricing_plan_id":"free"},{"bike_id":"eba88da0-98bb-4dd5-be19-6c78574bdd55","system_id":"levelo_inurba_marseille","lat":43.30887,"lon":5.3719,"is_reserved":false,"is_disabled":false,"rental_uris":{"android":"levelo://app?vid=eba88da0-98bb-4dd5-be19-6c78574bdd55","ios":"levelo://app?vid=eba88da0-98bb-4dd5-be19-6c78574bdd55"},"vehicle_type_id":"4","last_reported":1680016096,"current_range_meters":0,"station_id":"","pricing_plan_id":"free"},{"bike_id":"ea228f90-31bc-4f2e-aabd-0add959ba810","system_id":"levelo_inurba_marseille","lat":43.30883,"lon":5.37196,"is_reserved":false,"is_disabled":false,"rental_uris":{"android":"levelo://app?vid=ea228f90-31bc-4f2e-aabd-0add959ba810","ios":"levelo://app?vid=ea228f90-31bc-4f2e-aabd-0add959ba810"},"vehicle_type_id":"4","last_reported":1680016096,"current_range_meters":0,"station_id":"","pricing_plan_id":"free"},{"bike_id":"3881e3e4-f2a3-43ff-9d25-ab65639fe792","system_id":"levelo_inurba_marseille","lat":43.301939,"lon":5.366286,"is_reserved":false,"is_disabled":false,"rental_uris":{"android":"levelo://app?vid=3881e3e4-f2a3-43ff-9d25-ab65639fe792","ios":"levelo://app?vid=3881e3e4-f2a3-43ff-9d25-ab65639fe792"},"vehicle_type_id":"4","last_reported":1680016096,"current_range_meters":26400,"station_id":"ce4bgrh2rcd13ifvqc8g","pricing_plan_id":"free"},{"bike_id":"fa1a5696-3eae-4e5a-9823-e0d0f4d8694d","system_id":"levelo_inurba_marseille","lat":43.320595,"lon":5.38066,"is_reserved":false,"is_disabled":false,"rental_uris":{"android":"levelo://app?vid=fa1a5696-3eae-4e5a-9823-e0d0f4d8694d","ios":"levelo://app?vid=fa1a5696-3eae-4e5a-9823-e0d0f4d8694d"},"vehicle_type_id":"4","last_reported":1680016096,"current_range_meters":0,"station_id":"","pricing_plan_id":"free"},{"bike_id":"c0fcb15d-b322-4005-bcd8-5aedce7cc5ac","system_id":"levelo_inurba_marseille","lat":43.313571,"lon":5.384829,"is_reserved":false,"is_disabled":false,"rental_uris":{"android":"levelo://app?vid=c0fcb15d-b322-4005-bcd8-5aedce7cc5ac","ios":"levelo://app?vid=c0fcb15d-b322-4005-bcd8-5aedce7cc5ac"},"vehicle_type_id":"4","last_reported":1680016096,"current_range_meters":0,"station_id":"ce4bgt92rcd13ifvqcf0","pricing_plan_id":"free"},{"bike_id":"641135a0-7c14-48b1-8601-a29943ad4de5","system_id":"levelo_inurba_marseille","lat":43.30162,"lon":5.3798,"is_reserved":false,"is_disabled":false,"rental_uris":{"android":"levelo://app?vid=641135a0-7c14-48b1-8601-a29943ad4de5","ios":"levelo://app?vid=641135a0-7c14-48b1-8601-a29943ad4de5"},"vehicle_type_id":"4","last_reported":1680016096,"current_range_meters":0,"station_id":"","pricing_plan_id":"free"},{"bike_id":"1397c3b0-6cb4-4f9c-89ea-832d9f8d8079","system_id":"levelo_inurba_marseille","lat":43.32746,"lon":5.36704,"is_reserved":false,"is_disabled":false,"rental_uris":{"android":"levelo://app?vid=1397c3b0-6cb4-4f9c-89ea-832d9f8d8079","ios":"levelo://app?vid=1397c3b0-6cb4-4f9c-89ea-832d9f8d8079"},"vehicle_type_id":"4","last_reported":1680016096,"current_range_meters":0,"station_id":"","pricing_plan_id":"free"},{"bike_id":"eca3b23e-efba-44fc-a842-5e7c766bb744","system_id":"levelo_inurba_marseille","lat":43.311722,"lon":5.387247,"is_reserved":false,"is_disabled":false,"rental_uris":{"android":"levelo://app?vid=eca3b23e-efba-44fc-a842-5e7c766bb744","ios":"levelo://app?vid=eca3b23e-efba-44fc-a842-5e7c766bb744"},"vehicle_type_id":"4","last_reported":1680016096,"current_range_meters":0,"station_id":"ce4bgv12rcd13ifvqcp0","pricing_plan_id":"free"},{"bike_id":"401143a3-fc63-4be5-b190-439728092d02","system_id":"levelo_inurba_marseille","lat":43.31164,"lon":5.38723,"is_reserved":false,"is_disabled":false,"rental_uris":{"android":"levelo://app?vid=401143a3-fc63-4be5-b190-439728092d02","ios":"levelo://app?vid=401143a3-fc63-4be5-b190-439728092d02"},"vehicle_type_id":"4","last_reported":1680016096,"current_range_meters":0,"station_id":"ce4bgv12rcd13ifvqcp0","pricing_plan_id":"free"},{"bike_id":"df22e8ea-87e7-411b-8d60-cf4f008750cc","system_id":"levelo_inurba_marseille","lat":43.32828,"lon":5.366925,"is_reserved":false,"is_disabled":false,"rental_uris":{"android":"levelo://app?vid=df22e8ea-87e7-411b-8d60-cf4f008750cc","ios":"levelo://app?vid=df22e8ea-87e7-411b-8d60-cf4f008750cc"},"vehicle_type_id":"4","last_reported":1680016096,"current_range_meters":0,"station_id":"ce4bhs92rcd13ifvqi0g","pricing_plan_id":"free"},{"bike_id":"aa467a61-4d8a-452e-9555-50bb680b5f82","system_id":"levelo_inurba_marseille","lat":43.296983,"lon":5.373003,"is_reserved":false,"is_disabled":false,"rental_uris":{"android":"levelo://app?vid=aa467a61-4d8a-452e-9555-50bb680b5f82","ios":"levelo://app?vid=aa467a61-4d8a-452e-9555-50bb680b5f82"},"vehicle_type_id":"4","last_reported":1680016096,"current_range_meters":4000,"station_id":"ce4bgk12rcd13ifvqbj0","pricing_plan_id":"free"},{"bike_id":"117e729b-7678-4cfd-9d5e-254ea91fff1e","system_id":"levelo_inurba_marseille","lat":43.296131,"lon":5.370791,"is_reserved":false,"is_disabled":false,"rental_uris":{"android":"levelo://app?vid=117e729b-7678-4cfd-9d5e-254ea91fff1e","ios":"levelo://app?vid=117e729b-7678-4cfd-9d5e-254ea91fff1e"},"vehicle_type_id":"4","last_reported":1680016096,"current_range_meters":20800,"station_id":"ce4bgnh2rcd13ifvqc0g","pricing_plan_id":"free"},{"bike_id":"936ada20-fde3-42e2-ba50-e5d7143f4df3","system_id":"levelo_inurba_marseille","lat":43.296131,"lon":5.370791,"is_reserved":false,"is_disabled":false,"rental_uris":{"android":"levelo://app?vid=936ada20-fde3-42e2-ba50-e5d7143f4df3","ios":"levelo://app?vid=936ada20-fde3-42e2-ba50-e5d7143f4df3"},"vehicle_type_id":"4","last_reported":1680016096,"current_range_meters":18800,"station_id":"ce4bgnh2rcd13ifvqc0g","pricing_plan_id":"free"},{"bike_id":"d2bcc5af-99e5-4bd3-819a-509a12b36859","system_id":"levelo_inurba_marseille","lat":43.296129,"lon":5.370777,"is_reserved":false,"is_disabled":false,"rental_uris":{"android":"levelo://app?vid=d2bcc5af-99e5-4bd3-819a-509a12b36859","ios":"levelo://app?vid=d2bcc5af-99e5-4bd3-819a-509a12b36859"},"vehicle_type_id":"4","last_reported":1680016096,"current_range_meters":24800,"station_id":"ce4bgnh2rcd13ifvqc0g","pricing_plan_id":"free"},{"bike_id":"9c94e073-d02a-42f7-91ba-8e141ab48e3c","system_id":"levelo_inurba_marseille","lat":43.296131,"lon":5.370773,"is_reserved":false,"is_disabled":false,"rental_uris":{"android":"levelo://app?vid=9c94e073-d02a-42f7-91ba-8e141ab48e3c","ios":"levelo://app?vid=9c94e073-d02a-42f7-91ba-8e141ab48e3c"},"vehicle_type_id":"4","last_reported":1680016096,"current_range_meters":16400,"station_id":"ce4bgnh2rcd13ifvqc0g","pricing_plan_id":"free"},{"bike_id":"faa520fc-2857-44d8-9557-e6bb0faf5c95","system_id":"levelo_inurba_marseille","lat":43.296131,"lon":5.370773,"is_reserved":false,"is_disabled":false,"rental_uris":{"android":"levelo://app?vid=faa520fc-2857-44d8-9557-e6bb0faf5c95","ios":"levelo://app?vid=faa520fc-2857-44d8-9557-e6bb0faf5c95"},"vehicle_type_id":"4","last_reported":1680016096,"current_range_meters":16800,"station_id":"ce4bgnh2rcd13ifvqc0g","pricing_plan_id":"free"},{"bike_id":"82b910d2-03e3-42a9-9706-b2f0c0330268","system_id":"levelo_inurba_marseille","lat":43.296129,"lon":5.370777,"is_reserved":false,"is_disabled":false,"rental_uris":{"android":"levelo://app?vid=82b910d2-03e3-42a9-9706-b2f0c0330268","ios":"levelo://app?vid=82b910d2-03e3-42a9-9706-b2f0c0330268"},"vehicle_type_id":"4","last_reported":1680016096,"current_range_meters":25200,"station_id":"ce4bgnh2rcd13ifvqc0g","pricing_plan_id":"free"},{"bike_id":"0f389979-17f2-4b7f-b5b3-028f1472eae5","system_id":"levelo_inurba_marseille","lat":43.296131,"lon":5.370773,"is_reserved":false,"is_disabled":false,"rental_uris":{"android":"levelo://app?vid=0f389979-17f2-4b7f-b5b3-028f1472eae5","ios":"levelo://app?vid=0f389979-17f2-4b7f-b5b3-028f1472eae5"},"vehicle_type_id":"4","last_reported":1680016096,"current_range_meters":18000,"station_id":"ce4bgnh2rcd13ifvqc0g","pricing_plan_id":"free"},{"bike_id":"0a6f9038-e349-42d5-aee4-2ba333388edc","system_id":"levelo_inurba_marseille","lat":43.29586,"lon":5.367517,"is_reserved":false,"is_disabled":false,"rental_uris":{"android":"levelo://app?vid=0a6f9038-e349-42d5-aee4-2ba333388edc","ios":"levelo://app?vid=0a6f9038-e349-42d5-aee4-2ba333388edc"},"vehicle_type_id":"4","last_reported":1680016096,"current_range_meters":0,"station_id":"ce4bgph2rcd13ifvqc2g","pricing_plan_id":"free"},{"bike_id":"141f95ae-71e7-425a-b33b-43c074dcce08","system_id":"levelo_inurba_marseille","lat":43.296129,"lon":5.370777,"is_reserved":false,"is_disabled":false,"rental_uris":{"android":"levelo://app?vid=141f95ae-71e7-425a-b33b-43c074dcce08","ios":"levelo://app?vid=141f95ae-71e7-425a-b33b-43c074dcce08"},"vehicle_type_id":"4","last_reported":1680016096,"current_range_meters":23600,"station_id":"ce4bgnh2rcd13ifvqc0g","pricing_plan_id":"free"},{"bike_id":"c6af1f28-8a65-4c53-bd1e-bd2ab416c1a4","system_id":"levelo_inurba_marseille","lat":43.296129,"lon":5.370777,"is_reserved":false,"is_disabled":false,"rental_uris":{"android":"levelo://app?vid=c6af1f28-8a65-4c53-bd1e-bd2ab416c1a4","ios":"levelo://app?vid=c6af1f28-8a65-4c53-bd1e-bd2ab416c1a4"},"vehicle_type_id":"4","last_reported":1680016096,"current_range_meters":19600,"station_id":"ce4bgnh2rcd13ifvqc0g","pricing_plan_id":"free"},{"bike_id":"4dfcdeff-1f20-4a22-81f5-984cba508f3e","system_id":"levelo_inurba_marseille","lat":43.297115,"lon":5.3767,"is_reserved":false,"is_disabled":false,"rental_uris":{"android":"levelo://app?vid=4dfcdeff-1f20-4a22-81f5-984cba508f3e","ios":"levelo://app?vid=4dfcdeff-1f20-4a22-81f5-984cba508f3e"},"vehicle_type_id":"4","last_reported":1680016096,"current_range_meters":4800,"station_id":"","pricing_plan_id":"free"},{"bike_id":"899efe37-1289-4eb0-beeb-e7a3ab55331d","system_id":"levelo_inurba_marseille","lat":43.317557,"lon":5.390072,"is_reserved":false,"is_disabled":false,"rental_uris":{"android":"levelo://app?vid=899efe37-1289-4eb0-beeb-e7a3ab55331d","ios":"levelo://app?vid=899efe37-1289-4eb0-beeb-e7a3ab55331d"},"vehicle_type_id":"4","last_reported":1680016096,"current_range_meters":15600,"station_id":"","pricing_plan_id":"free"},{"bike_id":"96a1d7aa-8a20-4617-8472-2db0964cf0d5","system_id":"levelo_inurba_marseille","lat":43.317557,"lon":5.390173,"is_reserved":false,"is_disabled":false,"rental_uris":{"android":"levelo://app?vid=96a1d7aa-8a20-4617-8472-2db0964cf0d5","ios":"levelo://app?vid=96a1d7aa-8a20-4617-8472-2db0964cf0d5"},"vehicle_type_id":"4","last_reported":1680016096,"current_range_meters":2400,"station_id":"ce4bhqp2rcd13ifvqhng","pricing_plan_id":"free"},{"bike_id":"0dc844f1-ebfd-4478-b594-d4c8d634b5cb","system_id":"levelo_inurba_marseille","lat":43.297998,"lon":5.380979,"is_reserved":false,"is_disabled":false,"rental_uris":{"android":"levelo://app?vid=0dc844f1-ebfd-4478-b594-d4c8d634b5cb","ios":"levelo://app?vid=0dc844f1-ebfd-4478-b594-d4c8d634b5cb"},"vehicle_type_id":"4","last_reported":1680016096,"current_range_meters":4000,"station_id":"ce4bgip2rcd13ifvqbb0","pricing_plan_id":"free"},{"bike_id":"e9d05356-9aec-4722-8d3c-9e8ff66f4b81","system_id":"levelo_inurba_marseille","lat":43.298053,"lon":5.381163,"is_reserved":false,"is_disabled":false,"rental_uris":{"android":"levelo://app?vid=e9d05356-9aec-4722-8d3c-9e8ff66f4b81","ios":"levelo://app?vid=e9d05356-9aec-4722-8d3c-9e8ff66f4b81"},"vehicle_type_id":"4","last_reported":1680016096,"current_range_meters":0,"station_id":"ce4bhq92rcd13ifvqhjg","pricing_plan_id":"free"},{"bike_id":"43da7b76-5b0c-4430-96d3-391d3121d89e","system_id":"levelo_inurba_marseille","lat":43.29577,"lon":5.37513,"is_reserved":false,"is_disabled":false,"rental_uris":{"android":"levelo://app?vid=43da7b76-5b0c-4430-96d3-391d3121d89e","ios":"levelo://app?vid=43da7b76-5b0c-4430-96d3-391d3121d89e"},"vehicle_type_id":"4","last_reported":1680016096,"current_range_meters":14000,"station_id":"ce4bgh92rcd13ifvqb50","pricing_plan_id":"free"},{"bike_id":"52345a9b-641d-481d-a28c-2646b360685a","system_id":"levelo_inurba_marseille","lat":43.295748,"lon":5.37522,"is_reserved":false,"is_disabled":false,"rental_uris":{"android":"levelo://app?vid=52345a9b-641d-481d-a28c-2646b360685a","ios":"levelo://app?vid=52345a9b-641d-481d-a28c-2646b360685a"},"vehicle_type_id":"4","last_reported":1680016096,"current_range_meters":0,"station_id":"ce4bgh92rcd13ifvqb50","pricing_plan_id":"free"},{"bike_id":"e3858e49-8687-4f93-b724-51ce78ebf7ba","system_id":"levelo_inurba_marseille","lat":43.29576,"lon":5.37516,"is_reserved":false,"is_disabled":false,"rental_uris":{"android":"levelo://app?vid=e3858e49-8687-4f93-b724-51ce78ebf7ba","ios":"levelo://app?vid=e3858e49-8687-4f93-b724-51ce78ebf7ba"},"vehicle_type_id":"4","last_reported":1680016096,"current_range_meters":13200,"station_id":"ce4bgh92rcd13ifvqb50","pricing_plan_id":"free"},{"bike_id":"62eb4e0d-6a73-4441-929b-7c37d75cdcb1","system_id":"levelo_inurba_marseille","lat":43.304278,"lon":5.388868,"is_reserved":false,"is_disabled":false,"rental_uris":{"android":"levelo://app?vid=62eb4e0d-6a73-4441-929b-7c37d75cdcb1","ios":"levelo://app?vid=62eb4e0d-6a73-4441-929b-7c37d75cdcb1"},"vehicle_type_id":"4","last_reported":1680016096,"current_range_meters":17200,"station_id":"ce4bgk12rcd13ifvqbi0","pricing_plan_id":"free"},{"bike_id":"2a4d37f4-0189-49f7-9a32-2590fa10605f","system_id":"levelo_inurba_marseille","lat":43.304278,"lon":5.388868,"is_reserved":false,"is_disabled":false,"rental_uris":{"android":"levelo://app?vid=2a4d37f4-0189-49f7-9a32-2590fa10605f","ios":"levelo://app?vid=2a4d37f4-0189-49f7-9a32-2590fa10605f"},"vehicle_type_id":"4","last_reported":1680016096,"current_range_meters":4000,"station_id":"ce4bgk12rcd13ifvqbi0","pricing_plan_id":"free"},{"bike_id":"ef8b451d-155f-4aec-be9d-a7604e8a58d4","system_id":"levelo_inurba_marseille","lat":43.29787,"lon":5.381065,"is_reserved":false,"is_disabled":false,"rental_uris":{"android":"levelo://app?vid=ef8b451d-155f-4aec-be9d-a7604e8a58d4","ios":"levelo://app?vid=ef8b451d-155f-4aec-be9d-a7604e8a58d4"},"vehicle_type_id":"4","last_reported":1680016096,"current_range_meters":0,"station_id":"","pricing_plan_id":"free"},{"bike_id":"f6098896-c0f3-4ca3-9d9e-8fa088d01382","system_id":"levelo_inurba_marseille","lat":43.29565,"lon":5.375105,"is_reserved":false,"is_disabled":false,"rental_uris":{"android":"levelo://app?vid=f6098896-c0f3-4ca3-9d9e-8fa088d01382","ios":"levelo://app?vid=f6098896-c0f3-4ca3-9d9e-8fa088d01382"},"vehicle_type_id":"4","last_reported":1680016096,"current_range_meters":0,"station_id":"ce4bgh92rcd13ifvqb50","pricing_plan_id":"free"},{"bike_id":"85408f1d-1c08-4fc9-bec2-9783fea1d5a5","system_id":"levelo_inurba_marseille","lat":43.296217,"lon":5.377334,"is_reserved":false,"is_disabled":false,"rental_uris":{"android":"levelo://app?vid=85408f1d-1c08-4fc9-bec2-9783fea1d5a5","ios":"levelo://app?vid=85408f1d-1c08-4fc9-bec2-9783fea1d5a5"},"vehicle_type_id":"4","last_reported":1680016096,"current_range_meters":0,"station_id":"ce4bgi92rcd13ifvqb90","pricing_plan_id":"free"},{"bike_id":"7ae05f50-7adb-446d-b631-f35bc97e1ab9","system_id":"levelo_inurba_marseille","lat":43.32383,"lon":5.38718,"is_reserved":false,"is_disabled":false,"rental_uris":{"android":"levelo://app?vid=7ae05f50-7adb-446d-b631-f35bc97e1ab9","ios":"levelo://app?vid=7ae05f50-7adb-446d-b631-f35bc97e1ab9"},"vehicle_type_id":"4","last_reported":1680016096,"current_range_meters":21200,"station_id":"ce4bhqp2rcd13ifvqhog","pricing_plan_id":"free"},{"bike_id":"40aefcf9-c10d-4fc3-bd85-c084f0bcb207","system_id":"levelo_inurba_marseille","lat":43.29518,"lon":5.37505,"is_reserved":false,"is_disabled":false,"rental_uris":{"android":"levelo://app?vid=40aefcf9-c10d-4fc3-bd85-c084f0bcb207","ios":"levelo://app?vid=40aefcf9-c10d-4fc3-bd85-c084f0bcb207"},"vehicle_type_id":"4","last_reported":1680016096,"current_range_meters":400,"station_id":"ce4bgkp2rcd13ifvqbmg","pricing_plan_id":"free"},{"bike_id":"fdcbb2f5-7c6e-462e-a943-a08ca81119c7","system_id":"levelo_inurba_marseille","lat":43.295077,"lon":5.375096,"is_reserved":false,"is_disabled":false,"rental_uris":{"android":"levelo://app?vid=fdcbb2f5-7c6e-462e-a943-a08ca81119c7","ios":"levelo://app?vid=fdcbb2f5-7c6e-462e-a943-a08ca81119c7"},"vehicle_type_id":"4","last_reported":1680016096,"current_range_meters":3600,"station_id":"","pricing_plan_id":"free"},{"bike_id":"4dcc4d55-b4d4-4f5e-a797-3cd847dce684","system_id":"levelo_inurba_marseille","lat":43.32367,"lon":5.388836,"is_reserved":false,"is_disabled":false,"rental_uris":{"android":"levelo://app?vid=4dcc4d55-b4d4-4f5e-a797-3cd847dce684","ios":"levelo://app?vid=4dcc4d55-b4d4-4f5e-a797-3cd847dce684"},"vehicle_type_id":"4","last_reported":1680016096,"current_range_meters":9600,"station_id":"ce4bhqp2rcd13ifvqhog","pricing_plan_id":"free"},{"bike_id":"b9d064fa-3126-4d06-b36c-bfe3f7e58c28","system_id":"levelo_inurba_marseille","lat":43.32367,"lon":5.388836,"is_reserved":false,"is_disabled":false,"rental_uris":{"android":"levelo://app?vid=b9d064fa-3126-4d06-b36c-bfe3f7e58c28","ios":"levelo://app?vid=b9d064fa-3126-4d06-b36c-bfe3f7e58c28"},"vehicle_type_id":"4","last_reported":1680016096,"current_range_meters":8400,"station_id":"ce4bhqp2rcd13ifvqhog","pricing_plan_id":"free"},{"bike_id":"e74d1f10-9f0c-4249-8074-2fb734981579","system_id":"levelo_inurba_marseille","lat":43.32371,"lon":5.38886,"is_reserved":false,"is_disabled":false,"rental_uris":{"android":"levelo://app?vid=e74d1f10-9f0c-4249-8074-2fb734981579","ios":"levelo://app?vid=e74d1f10-9f0c-4249-8074-2fb734981579"},"vehicle_type_id":"4","last_reported":1680016096,"current_range_meters":0,"station_id":"ce4bhqp2rcd13ifvqhog","pricing_plan_id":"free"},{"bike_id":"c9485321-2946-4bf9-a772-7026fd84df08","system_id":"levelo_inurba_marseille","lat":43.29384,"lon":5.37359,"is_reserved":false,"is_disabled":false,"rental_uris":{"android":"levelo://app?vid=c9485321-2946-4bf9-a772-7026fd84df08","ios":"levelo://app?vid=c9485321-2946-4bf9-a772-7026fd84df08"},"vehicle_type_id":"4","last_reported":1680016096,"current_range_meters":0,"station_id":"ce4bhdp2rcd13ifvqf20","pricing_plan_id":"free"},{"bike_id":"3c91cfa0-d72c-4126-9bde-99fe739b7062","system_id":"levelo_inurba_marseille","lat":43.2936,"lon":5.37835,"is_reserved":false,"is_disabled":false,"rental_uris":{"android":"levelo://app?vid=3c91cfa0-d72c-4126-9bde-99fe739b7062","ios":"levelo://app?vid=3c91cfa0-d72c-4126-9bde-99fe739b7062"},"vehicle_type_id":"4","last_reported":1680016096,"current_range_meters":400,"station_id":"ce4bgjh2rcd13ifvqbf0","pricing_plan_id":"free"},{"bike_id":"2f3b68f1-1e9d-4d96-92ee-67a010f896d3","system_id":"levelo_inurba_marseille","lat":43.2936,"lon":5.37835,"is_reserved":false,"is_disabled":false,"rental_uris":{"android":"levelo://app?vid=2f3b68f1-1e9d-4d96-92ee-67a010f896d3","ios":"levelo://app?vid=2f3b68f1-1e9d-4d96-92ee-67a010f896d3"},"vehicle_type_id":"4","last_reported":1680016096,"current_range_meters":15200,"station_id":"ce4bgjh2rcd13ifvqbf0","pricing_plan_id":"free"},{"bike_id":"84e498c9-cb93-4416-a74e-a230c043af8c","system_id":"levelo_inurba_marseille","lat":43.30085,"lon":5.390856,"is_reserved":false,"is_disabled":false,"rental_uris":{"android":"levelo://app?vid=84e498c9-cb93-4416-a74e-a230c043af8c","ios":"levelo://app?vid=84e498c9-cb93-4416-a74e-a230c043af8c"},"vehicle_type_id":"4","last_reported":1680016096,"current_range_meters":0,"station_id":"ce4bh192rcd13ifvqdb0","pricing_plan_id":"free"},{"bike_id":"9c05ef33-b4b5-4553-b032-69c2a1744776","system_id":"levelo_inurba_marseille","lat":43.292663,"lon":5.376394,"is_reserved":false,"is_disabled":false,"rental_uris":{"android":"levelo://app?vid=9c05ef33-b4b5-4553-b032-69c2a1744776","ios":"levelo://app?vid=9c05ef33-b4b5-4553-b032-69c2a1744776"},"vehicle_type_id":"4","last_reported":1680016096,"current_range_meters":21200,"station_id":"ce4bgi12rcd13ifvqb80","pricing_plan_id":"free"},{"bike_id":"cd3faf32-2a33-4da1-88f2-d8d547d9e57b","system_id":"levelo_inurba_marseille","lat":43.32698,"lon":5.388514,"is_reserved":false,"is_disabled":false,"rental_uris":{"android":"levelo://app?vid=cd3faf32-2a33-4da1-88f2-d8d547d9e57b","ios":"levelo://app?vid=cd3faf32-2a33-4da1-88f2-d8d547d9e57b"},"vehicle_type_id":"4","last_reported":1680016096,"current_range_meters":22400,"station_id":"ce4bhqp2rcd13ifvqhog","pricing_plan_id":"free"},{"bike_id":"0441c4d1-d3e9-4068-8a52-c5562117a96e","system_id":"levelo_inurba_marseille","lat":43.298755,"lon":5.388959,"is_reserved":false,"is_disabled":false,"rental_uris":{"android":"levelo://app?vid=0441c4d1-d3e9-4068-8a52-c5562117a96e","ios":"levelo://app?vid=0441c4d1-d3e9-4068-8a52-c5562117a96e"},"vehicle_type_id":"4","last_reported":1680016096,"current_range_meters":0,"station_id":"","pricing_plan_id":"free"},{"bike_id":"da299573-1b6c-4db3-bb48-3b78465f2ac8","system_id":"levelo_inurba_marseille","lat":43.309038,"lon":5.396546,"is_reserved":false,"is_disabled":false,"rental_uris":{"android":"levelo://app?vid=da299573-1b6c-4db3-bb48-3b78465f2ac8","ios":"levelo://app?vid=da299573-1b6c-4db3-bb48-3b78465f2ac8"},"vehicle_type_id":"4","last_reported":1680016096,"current_range_meters":30000,"station_id":"ce4bh012rcd13ifvqcv0","pricing_plan_id":"free"},{"bike_id":"d455486e-9b07-416d-8e97-1dc17a1fbafd","system_id":"levelo_inurba_marseille","lat":43.309038,"lon":5.396546,"is_reserved":false,"is_disabled":false,"rental_uris":{"android":"levelo://app?vid=d455486e-9b07-416d-8e97-1dc17a1fbafd","ios":"levelo://app?vid=d455486e-9b07-416d-8e97-1dc17a1fbafd"},"vehicle_type_id":"4","last_reported":1680016096,"current_range_meters":31600,"station_id":"ce4bh012rcd13ifvqcv0","pricing_plan_id":"free"},{"bike_id":"8b53e2a5-50fe-424a-a258-d6b91b4ef582","system_id":"levelo_inurba_marseille","lat":43.313291,"lon":5.396838,"is_reserved":false,"is_disabled":false,"rental_uris":{"android":"levelo://app?vid=8b53e2a5-50fe-424a-a258-d6b91b4ef582","ios":"levelo://app?vid=8b53e2a5-50fe-424a-a258-d6b91b4ef582"},"vehicle_type_id":"4","last_reported":1680016096,"current_range_meters":13600,"station_id":"ce4bgvp2rcd13ifvqcu0","pricing_plan_id":"free"},{"bike_id":"e73b1893-a4df-40d5-89a7-5ca7c18d0dc5","system_id":"levelo_inurba_marseille","lat":43.313291,"lon":5.396838,"is_reserved":false,"is_disabled":false,"rental_uris":{"android":"levelo://app?vid=e73b1893-a4df-40d5-89a7-5ca7c18d0dc5","ios":"levelo://app?vid=e73b1893-a4df-40d5-89a7-5ca7c18d0dc5"},"vehicle_type_id":"4","last_reported":1680016096,"current_range_meters":31600,"station_id":"ce4bgvp2rcd13ifvqcu0","pricing_plan_id":"free"},{"bike_id":"4b9cf70e-51f0-44a8-9d11-f00f87752b8e","system_id":"levelo_inurba_marseille","lat":43.31331,"lon":5.39702,"is_reserved":false,"is_disabled":false,"rental_uris":{"android":"levelo://app?vid=4b9cf70e-51f0-44a8-9d11-f00f87752b8e","ios":"levelo://app?vid=4b9cf70e-51f0-44a8-9d11-f00f87752b8e"},"vehicle_type_id":"4","last_reported":1680016096,"current_range_meters":18000,"station_id":"ce4bgvp2rcd13ifvqcu0","pricing_plan_id":"free"},{"bike_id":"9bac5ed6-cbca-452d-ad1f-d331105226e5","system_id":"levelo_inurba_marseille","lat":43.302008,"lon":5.394694,"is_reserved":false,"is_disabled":false,"rental_uris":{"android":"levelo://app?vid=9bac5ed6-cbca-452d-ad1f-d331105226e5","ios":"levelo://app?vid=9bac5ed6-cbca-452d-ad1f-d331105226e5"},"vehicle_type_id":"4","last_reported":1680016096,"current_range_meters":30400,"station_id":"ce4bh0p2rcd13ifvqd70","pricing_plan_id":"free"},{"bike_id":"4904f9d9-4ad4-437d-aab7-bf2ed79b9873","system_id":"levelo_inurba_marseille","lat":43.290327,"lon":5.375711,"is_reserved":false,"is_disabled":false,"rental_uris":{"android":"levelo://app?vid=4904f9d9-4ad4-437d-aab7-bf2ed79b9873","ios":"levelo://app?vid=4904f9d9-4ad4-437d-aab7-bf2ed79b9873"},"vehicle_type_id":"4","last_reported":1680016096,"current_range_meters":15600,"station_id":"ce4bh692rcd13ifvqe90","pricing_plan_id":"free"},{"bike_id":"71764cd7-dfb9-4450-ae73-f17730b2b0c2","system_id":"levelo_inurba_marseille","lat":43.28949,"lon":5.36406,"is_reserved":false,"is_disabled":false,"rental_uris":{"android":"levelo://app?vid=71764cd7-dfb9-4450-ae73-f17730b2b0c2","ios":"levelo://app?vid=71764cd7-dfb9-4450-ae73-f17730b2b0c2"},"vehicle_type_id":"4","last_reported":1680016096,"current_range_meters":29600,"station_id":"","pricing_plan_id":"free"},{"bike_id":"57757e8f-f1ed-4b23-8296-63e6cc30c042","system_id":"levelo_inurba_marseille","lat":43.289184,"lon":5.366408,"is_reserved":false,"is_disabled":false,"rental_uris":{"android":"levelo://app?vid=57757e8f-f1ed-4b23-8296-63e6cc30c042","ios":"levelo://app?vid=57757e8f-f1ed-4b23-8296-63e6cc30c042"},"vehicle_type_id":"4","last_reported":1680016096,"current_range_meters":0,"station_id":"ce4bhap2rcd13ifvqek0","pricing_plan_id":"free"},{"bike_id":"0047d938-4b9b-4068-9bc1-5de77b0af83c","system_id":"levelo_inurba_marseille","lat":43.292643,"lon":5.384457,"is_reserved":false,"is_disabled":false,"rental_uris":{"android":"levelo://app?vid=0047d938-4b9b-4068-9bc1-5de77b0af83c","ios":"levelo://app?vid=0047d938-4b9b-4068-9bc1-5de77b0af83c"},"vehicle_type_id":"4","last_reported":1680016096,"current_range_meters":0,"station_id":"ce4bh692rcd13ifvqea0","pricing_plan_id":"free"},{"bike_id":"c55c292d-12c8-4121-a22e-9b7921c30582","system_id":"levelo_inurba_marseille","lat":43.290104,"lon":5.356111,"is_reserved":false,"is_disabled":false,"rental_uris":{"android":"levelo://app?vid=c55c292d-12c8-4121-a22e-9b7921c30582","ios":"levelo://app?vid=c55c292d-12c8-4121-a22e-9b7921c30582"},"vehicle_type_id":"4","last_reported":1680016096,"current_range_meters":0,"station_id":"ce4bhb92rcd13ifvqen0","pricing_plan_id":"free"},{"bike_id":"109fa908-f970-4e35-b49e-8480a3843704","system_id":"levelo_inurba_marseille","lat":43.330452,"lon":5.389177,"is_reserved":false,"is_disabled":false,"rental_uris":{"android":"levelo://app?vid=109fa908-f970-4e35-b49e-8480a3843704","ios":"levelo://app?vid=109fa908-f970-4e35-b49e-8480a3843704"},"vehicle_type_id":"4","last_reported":1680016096,"current_range_meters":0,"station_id":"ce4bhq12rcd13ifvqhhg","pricing_plan_id":"free"},{"bike_id":"6cc52df0-bba0-435e-bc04-3592c26c52ce","system_id":"levelo_inurba_marseille","lat":43.33044,"lon":5.389217,"is_reserved":false,"is_disabled":false,"rental_uris":{"android":"levelo://app?vid=6cc52df0-bba0-435e-bc04-3592c26c52ce","ios":"levelo://app?vid=6cc52df0-bba0-435e-bc04-3592c26c52ce"},"vehicle_type_id":"4","last_reported":1680016096,"current_range_meters":18400,"station_id":"ce4bhr92rcd13ifvqhrg","pricing_plan_id":"free"},{"bike_id":"ae893699-e8ad-412d-bf98-dd7b131e9e32","system_id":"levelo_inurba_marseille","lat":43.330442,"lon":5.389148,"is_reserved":false,"is_disabled":false,"rental_uris":{"android":"levelo://app?vid=ae893699-e8ad-412d-bf98-dd7b131e9e32","ios":"levelo://app?vid=ae893699-e8ad-412d-bf98-dd7b131e9e32"},"vehicle_type_id":"4","last_reported":1680016096,"current_range_meters":0,"station_id":"ce4bhr92rcd13ifvqhrg","pricing_plan_id":"free"},{"bike_id":"18447acd-27ac-4aab-b7bb-3536e4fc5e2b","system_id":"levelo_inurba_marseille","lat":43.290995,"lon":5.381361,"is_reserved":false,"is_disabled":false,"rental_uris":{"android":"levelo://app?vid=18447acd-27ac-4aab-b7bb-3536e4fc5e2b","ios":"levelo://app?vid=18447acd-27ac-4aab-b7bb-3536e4fc5e2b"},"vehicle_type_id":"4","last_reported":1680016096,"current_range_meters":0,"station_id":"ce4bh512rcd13ifvqe2g","pricing_plan_id":"free"},{"bike_id":"059020e5-f196-4f54-98d4-932901c32840","system_id":"levelo_inurba_marseille","lat":43.309314,"lon":5.400459,"is_reserved":false,"is_disabled":false,"rental_uris":{"android":"levelo://app?vid=059020e5-f196-4f54-98d4-932901c32840","ios":"levelo://app?vid=059020e5-f196-4f54-98d4-932901c32840"},"vehicle_type_id":"4","last_reported":1680016096,"current_range_meters":6400,"station_id":"","pricing_plan_id":"free"},{"bike_id":"f453673c-b7e6-4a63-af20-872d2c7f39f9","system_id":"levelo_inurba_marseille","lat":43.311722,"lon":5.387247,"is_reserved":false,"is_disabled":false,"rental_uris":{"android":"levelo://app?vid=f453673c-b7e6-4a63-af20-872d2c7f39f9","ios":"levelo://app?vid=f453673c-b7e6-4a63-af20-872d2c7f39f9"},"vehicle_type_id":"4","last_reported":1680016096,"current_range_meters":0,"station_id":"ce4bgv12rcd13ifvqcp0","pricing_plan_id":"free"},{"bike_id":"76b33ffb-9d24-405c-bea5-128624c04267","system_id":"levelo_inurba_marseille","lat":43.2901,"lon":5.381269,"is_reserved":false,"is_disabled":false,"rental_uris":{"android":"levelo://app?vid=76b33ffb-9d24-405c-bea5-128624c04267","ios":"levelo://app?vid=76b33ffb-9d24-405c-bea5-128624c04267"},"vehicle_type_id":"4","last_reported":1680016096,"current_range_meters":0,"station_id":"ce4bh4p2rcd13ifvqe1g","pricing_plan_id":"free"},{"bike_id":"9fa6ec02-f0ca-41e6-8597-12f666b75cec","system_id":"levelo_inurba_marseille","lat":43.28856,"lon":5.358371,"is_reserved":false,"is_disabled":false,"rental_uris":{"android":"levelo://app?vid=9fa6ec02-f0ca-41e6-8597-12f666b75cec","ios":"levelo://app?vid=9fa6ec02-f0ca-41e6-8597-12f666b75cec"},"vehicle_type_id":"4","last_reported":1680016096,"current_range_meters":4000,"station_id":"ce4bhb12rcd13ifvqem0","pricing_plan_id":"free"},{"bike_id":"dff7981b-414f-4345-9921-1bc08b2d0b04","system_id":"levelo_inurba_marseille","lat":43.28856,"lon":5.358371,"is_reserved":false,"is_disabled":false,"rental_uris":{"android":"levelo://app?vid=dff7981b-414f-4345-9921-1bc08b2d0b04","ios":"levelo://app?vid=dff7981b-414f-4345-9921-1bc08b2d0b04"},"vehicle_type_id":"4","last_reported":1680016096,"current_range_meters":0,"station_id":"ce4bhb12rcd13ifvqem0","pricing_plan_id":"free"},{"bike_id":"cd8082d5-7b45-416b-b236-e9742a1eed48","system_id":"levelo_inurba_marseille","lat":43.33787,"lon":5.37457,"is_reserved":false,"is_disabled":false,"rental_uris":{"android":"levelo://app?vid=cd8082d5-7b45-416b-b236-e9742a1eed48","ios":"levelo://app?vid=cd8082d5-7b45-416b-b236-e9742a1eed48"},"vehicle_type_id":"4","last_reported":1680016096,"current_range_meters":21600,"station_id":"","pricing_plan_id":"free"},{"bike_id":"74d98875-b8a4-49f4-9a26-938e2d8104fd","system_id":"levelo_inurba_marseille","lat":43.301117,"lon":5.398795,"is_reserved":false,"is_disabled":false,"rental_uris":{"android":"levelo://app?vid=74d98875-b8a4-49f4-9a26-938e2d8104fd","ios":"levelo://app?vid=74d98875-b8a4-49f4-9a26-938e2d8104fd"},"vehicle_type_id":"4","last_reported":1680016096,"current_range_meters":0,"station_id":"ce4bh0h2rcd13ifvqd40","pricing_plan_id":"free"},{"bike_id":"eaa658a3-1bfb-4ad1-a4c0-077de4ce9461","system_id":"levelo_inurba_marseille","lat":43.301117,"lon":5.398795,"is_reserved":false,"is_disabled":false,"rental_uris":{"android":"levelo://app?vid=eaa658a3-1bfb-4ad1-a4c0-077de4ce9461","ios":"levelo://app?vid=eaa658a3-1bfb-4ad1-a4c0-077de4ce9461"},"vehicle_type_id":"4","last_reported":1680016096,"current_range_meters":18800,"station_id":"ce4bh0h2rcd13ifvqd40","pricing_plan_id":"free"},{"bike_id":"f742d739-41c3-4385-9f7a-635745699cf3","system_id":"levelo_inurba_marseille","lat":43.298683,"lon":5.397286,"is_reserved":false,"is_disabled":false,"rental_uris":{"android":"levelo://app?vid=f742d739-41c3-4385-9f7a-635745699cf3","ios":"levelo://app?vid=f742d739-41c3-4385-9f7a-635745699cf3"},"vehicle_type_id":"4","last_reported":1680016096,"current_range_meters":16800,"station_id":"","pricing_plan_id":"free"},{"bike_id":"f0a1a36a-6456-444a-ba0a-ac300556a9ec","system_id":"levelo_inurba_marseille","lat":43.286593,"lon":5.363346,"is_reserved":false,"is_disabled":false,"rental_uris":{"android":"levelo://app?vid=f0a1a36a-6456-444a-ba0a-ac300556a9ec","ios":"levelo://app?vid=f0a1a36a-6456-444a-ba0a-ac300556a9ec"},"vehicle_type_id":"4","last_reported":1680016096,"current_range_meters":19600,"station_id":"ce4bhah2rcd13ifvqej0","pricing_plan_id":"free"},{"bike_id":"5d3c56f0-ae85-4be9-bb28-31beddf5a395","system_id":"levelo_inurba_marseille","lat":43.284534,"lon":5.358662,"is_reserved":false,"is_disabled":false,"rental_uris":{"android":"levelo://app?vid=5d3c56f0-ae85-4be9-bb28-31beddf5a395","ios":"levelo://app?vid=5d3c56f0-ae85-4be9-bb28-31beddf5a395"},"vehicle_type_id":"4","last_reported":1680016096,"current_range_meters":31600,"station_id":"ce4bhah2rcd13ifvqei0","pricing_plan_id":"free"},{"bike_id":"f5987665-9ac8-44e6-b7f9-94fd154bfa8c","system_id":"levelo_inurba_marseille","lat":43.284534,"lon":5.358662,"is_reserved":false,"is_disabled":false,"rental_uris":{"android":"levelo://app?vid=f5987665-9ac8-44e6-b7f9-94fd154bfa8c","ios":"levelo://app?vid=f5987665-9ac8-44e6-b7f9-94fd154bfa8c"},"vehicle_type_id":"4","last_reported":1680016096,"current_range_meters":4000,"station_id":"ce4bhah2rcd13ifvqei0","pricing_plan_id":"free"},{"bike_id":"7ee4707e-c926-4e1a-93d6-20f6ecc70864","system_id":"levelo_inurba_marseille","lat":43.284667,"lon":5.35889,"is_reserved":false,"is_disabled":false,"rental_uris":{"android":"levelo://app?vid=7ee4707e-c926-4e1a-93d6-20f6ecc70864","ios":"levelo://app?vid=7ee4707e-c926-4e1a-93d6-20f6ecc70864"},"vehicle_type_id":"4","last_reported":1680016096,"current_range_meters":31600,"station_id":"ce4bhah2rcd13ifvqei0","pricing_plan_id":"free"},{"bike_id":"a14817f6-e168-4889-9dde-a5f9e146cadb","system_id":"levelo_inurba_marseille","lat":43.284534,"lon":5.358662,"is_reserved":false,"is_disabled":false,"rental_uris":{"android":"levelo://app?vid=a14817f6-e168-4889-9dde-a5f9e146cadb","ios":"levelo://app?vid=a14817f6-e168-4889-9dde-a5f9e146cadb"},"vehicle_type_id":"4","last_reported":1680016096,"current_range_meters":31600,"station_id":"ce4bhah2rcd13ifvqei0","pricing_plan_id":"free"},{"bike_id":"cd514ce1-759f-4c65-a49b-b77ec234af87","system_id":"levelo_inurba_marseille","lat":43.284534,"lon":5.358662,"is_reserved":false,"is_disabled":false,"rental_uris":{"android":"levelo://app?vid=cd514ce1-759f-4c65-a49b-b77ec234af87","ios":"levelo://app?vid=cd514ce1-759f-4c65-a49b-b77ec234af87"},"vehicle_type_id":"4","last_reported":1680016096,"current_range_meters":0,"station_id":"ce4bhah2rcd13ifvqei0","pricing_plan_id":"free"},{"bike_id":"7359fdc9-b9cd-4221-8636-9c0d542d4f5b","system_id":"levelo_inurba_marseille","lat":43.284534,"lon":5.358662,"is_reserved":false,"is_disabled":false,"rental_uris":{"android":"levelo://app?vid=7359fdc9-b9cd-4221-8636-9c0d542d4f5b","ios":"levelo://app?vid=7359fdc9-b9cd-4221-8636-9c0d542d4f5b"},"vehicle_type_id":"4","last_reported":1680016096,"current_range_meters":31600,"station_id":"ce4bhah2rcd13ifvqei0","pricing_plan_id":"free"},{"bike_id":"55caf718-a575-4cf9-8dc3-5baca5a984c5","system_id":"levelo_inurba_marseille","lat":43.284534,"lon":5.358662,"is_reserved":false,"is_disabled":false,"rental_uris":{"android":"levelo://app?vid=55caf718-a575-4cf9-8dc3-5baca5a984c5","ios":"levelo://app?vid=55caf718-a575-4cf9-8dc3-5baca5a984c5"},"vehicle_type_id":"4","last_reported":1680016096,"current_range_meters":31600,"station_id":"ce4bhah2rcd13ifvqei0","pricing_plan_id":"free"},{"bike_id":"c8fe3101-d189-4ac8-bec8-77e98f69f1c7","system_id":"levelo_inurba_marseille","lat":43.295582,"lon":5.399458,"is_reserved":false,"is_disabled":false,"rental_uris":{"android":"levelo://app?vid=c8fe3101-d189-4ac8-bec8-77e98f69f1c7","ios":"levelo://app?vid=c8fe3101-d189-4ac8-bec8-77e98f69f1c7"},"vehicle_type_id":"4","last_reported":1680016096,"current_range_meters":0,"station_id":"ce4bh312rcd13ifvqdj0","pricing_plan_id":"free"},{"bike_id":"5a26bfe5-783d-47c6-b399-b50217a89296","system_id":"levelo_inurba_marseille","lat":43.32337,"lon":5.40623,"is_reserved":false,"is_disabled":false,"rental_uris":{"android":"levelo://app?vid=5a26bfe5-783d-47c6-b399-b50217a89296","ios":"levelo://app?vid=5a26bfe5-783d-47c6-b399-b50217a89296"},"vehicle_type_id":"4","last_reported":1680016096,"current_range_meters":19600,"station_id":"ce4bhq92rcd13ifvqhjg","pricing_plan_id":"free"},{"bike_id":"bd36dc57-770a-4108-a231-996a415cd53e","system_id":"levelo_inurba_marseille","lat":43.284848,"lon":5.384108,"is_reserved":false,"is_disabled":false,"rental_uris":{"android":"levelo://app?vid=bd36dc57-770a-4108-a231-996a415cd53e","ios":"levelo://app?vid=bd36dc57-770a-4108-a231-996a415cd53e"},"vehicle_type_id":"4","last_reported":1680016096,"current_range_meters":0,"station_id":"ce4bh512rcd13ifvqe3g","pricing_plan_id":"free"},{"bike_id":"e163a36e-dcdc-4b99-accd-a15c9a445b1e","system_id":"levelo_inurba_marseille","lat":43.288501,"lon":5.393087,"is_reserved":false,"is_disabled":false,"rental_uris":{"android":"levelo://app?vid=e163a36e-dcdc-4b99-accd-a15c9a445b1e","ios":"levelo://app?vid=e163a36e-dcdc-4b99-accd-a15c9a445b1e"},"vehicle_type_id":"4","last_reported":1680016096,"current_range_meters":0,"station_id":"ce4bh2p2rcd13ifvqdi0","pricing_plan_id":"free"},{"bike_id":"9a6c19c5-0186-4aeb-8b98-91547d826017","system_id":"levelo_inurba_marseille","lat":43.288501,"lon":5.393087,"is_reserved":false,"is_disabled":false,"rental_uris":{"android":"levelo://app?vid=9a6c19c5-0186-4aeb-8b98-91547d826017","ios":"levelo://app?vid=9a6c19c5-0186-4aeb-8b98-91547d826017"},"vehicle_type_id":"4","last_reported":1680016096,"current_range_meters":1600,"station_id":"ce4bh2p2rcd13ifvqdi0","pricing_plan_id":"free"},{"bike_id":"a4a19398-f4db-4831-b017-7c04522eba84","system_id":"levelo_inurba_marseille","lat":43.288497,"lon":5.393089,"is_reserved":false,"is_disabled":false,"rental_uris":{"android":"levelo://app?vid=a4a19398-f4db-4831-b017-7c04522eba84","ios":"levelo://app?vid=a4a19398-f4db-4831-b017-7c04522eba84"},"vehicle_type_id":"4","last_reported":1680016096,"current_range_meters":23600,"station_id":"ce4bh2p2rcd13ifvqdi0","pricing_plan_id":"free"},{"bike_id":"9f1adf47-8bba-4278-abc4-d7653d8952ed","system_id":"levelo_inurba_marseille","lat":43.283543,"lon":5.381077,"is_reserved":false,"is_disabled":false,"rental_uris":{"android":"levelo://app?vid=9f1adf47-8bba-4278-abc4-d7653d8952ed","ios":"levelo://app?vid=9f1adf47-8bba-4278-abc4-d7653d8952ed"},"vehicle_type_id":"4","last_reported":1680016096,"current_range_meters":22000,"station_id":"","pricing_plan_id":"free"},{"bike_id":"4f2ee42d-2863-434a-944a-033782114bae","system_id":"levelo_inurba_marseille","lat":43.283486,"lon":5.381103,"is_reserved":false,"is_disabled":false,"rental_uris":{"android":"levelo://app?vid=4f2ee42d-2863-434a-944a-033782114bae","ios":"levelo://app?vid=4f2ee42d-2863-434a-944a-033782114bae"},"vehicle_type_id":"4","last_reported":1680016096,"current_range_meters":4400,"station_id":"","pricing_plan_id":"free"},{"bike_id":"ac4c89a6-8ddc-46b4-8050-e1922cc95c7c","system_id":"levelo_inurba_marseille","lat":43.284219,"lon":5.3497,"is_reserved":false,"is_disabled":false,"rental_uris":{"android":"levelo://app?vid=ac4c89a6-8ddc-46b4-8050-e1922cc95c7c","ios":"levelo://app?vid=ac4c89a6-8ddc-46b4-8050-e1922cc95c7c"},"vehicle_type_id":"4","last_reported":1680016096,"current_range_meters":5600,"station_id":"ce4bhbh2rcd13ifvqepg","pricing_plan_id":"free"},{"bike_id":"c58ce05a-be76-49de-ad3c-49749302cd4a","system_id":"levelo_inurba_marseille","lat":43.284167,"lon":5.349927,"is_reserved":false,"is_disabled":false,"rental_uris":{"android":"levelo://app?vid=c58ce05a-be76-49de-ad3c-49749302cd4a","ios":"levelo://app?vid=c58ce05a-be76-49de-ad3c-49749302cd4a"},"vehicle_type_id":"4","last_reported":1680016096,"current_range_meters":800,"station_id":"ce4bhbh2rcd13ifvqepg","pricing_plan_id":"free"},{"bike_id":"1a2b6e3c-618a-4a20-b10e-2b6b75b30a9f","system_id":"levelo_inurba_marseille","lat":43.284219,"lon":5.3497,"is_reserved":false,"is_disabled":false,"rental_uris":{"android":"levelo://app?vid=1a2b6e3c-618a-4a20-b10e-2b6b75b30a9f","ios":"levelo://app?vid=1a2b6e3c-618a-4a20-b10e-2b6b75b30a9f"},"vehicle_type_id":"4","last_reported":1680016096,"current_range_meters":4400,"station_id":"ce4bhbh2rcd13ifvqepg","pricing_plan_id":"free"},{"bike_id":"a053f65a-f3d8-4b06-8f46-f5b6721fd7bb","system_id":"levelo_inurba_marseille","lat":43.284217,"lon":5.349697,"is_reserved":false,"is_disabled":false,"rental_uris":{"android":"levelo://app?vid=a053f65a-f3d8-4b06-8f46-f5b6721fd7bb","ios":"levelo://app?vid=a053f65a-f3d8-4b06-8f46-f5b6721fd7bb"},"vehicle_type_id":"4","last_reported":1680016096,"current_range_meters":26000,"station_id":"ce4bhbh2rcd13ifvqepg","pricing_plan_id":"free"},{"bike_id":"44187b8d-5af2-4547-9ce9-75683bdc362f","system_id":"levelo_inurba_marseille","lat":43.284217,"lon":5.349697,"is_reserved":false,"is_disabled":false,"rental_uris":{"android":"levelo://app?vid=44187b8d-5af2-4547-9ce9-75683bdc362f","ios":"levelo://app?vid=44187b8d-5af2-4547-9ce9-75683bdc362f"},"vehicle_type_id":"4","last_reported":1680016096,"current_range_meters":1200,"station_id":"ce4bhbh2rcd13ifvqepg","pricing_plan_id":"free"},{"bike_id":"50206211-af82-43a8-8405-5fa6754f4d72","system_id":"levelo_inurba_marseille","lat":43.292724,"lon":5.401131,"is_reserved":false,"is_disabled":false,"rental_uris":{"android":"levelo://app?vid=50206211-af82-43a8-8405-5fa6754f4d72","ios":"levelo://app?vid=50206211-af82-43a8-8405-5fa6754f4d72"},"vehicle_type_id":"4","last_reported":1680016096,"current_range_meters":24800,"station_id":"ce4bh312rcd13ifvqdk0","pricing_plan_id":"free"},{"bike_id":"c3bd7406-eb3c-4202-a50d-d165ac825464","system_id":"levelo_inurba_marseille","lat":43.28274,"lon":5.3506,"is_reserved":false,"is_disabled":false,"rental_uris":{"android":"levelo://app?vid=c3bd7406-eb3c-4202-a50d-d165ac825464","ios":"levelo://app?vid=c3bd7406-eb3c-4202-a50d-d165ac825464"},"vehicle_type_id":"4","last_reported":1680016096,"current_range_meters":4000,"station_id":"ce4bhbp2rcd13ifvqerg","pricing_plan_id":"free"},{"bike_id":"6435f8d0-384d-4cb4-8d56-6dbc4daffcd3","system_id":"levelo_inurba_marseille","lat":43.28047,"lon":5.36943,"is_reserved":false,"is_disabled":false,"rental_uris":{"android":"levelo://app?vid=6435f8d0-384d-4cb4-8d56-6dbc4daffcd3","ios":"levelo://app?vid=6435f8d0-384d-4cb4-8d56-6dbc4daffcd3"},"vehicle_type_id":"4","last_reported":1680016096,"current_range_meters":25600,"station_id":"ce4bha12rcd13ifvqef0","pricing_plan_id":"free"},{"bike_id":"c8b9ef39-7752-4825-a6ac-b90dd077d823","system_id":"levelo_inurba_marseille","lat":43.2804,"lon":5.36938,"is_reserved":false,"is_disabled":false,"rental_uris":{"android":"levelo://app?vid=c8b9ef39-7752-4825-a6ac-b90dd077d823","ios":"levelo://app?vid=c8b9ef39-7752-4825-a6ac-b90dd077d823"},"vehicle_type_id":"4","last_reported":1680016096,"current_range_meters":9200,"station_id":"ce4bha12rcd13ifvqef0","pricing_plan_id":"free"},{"bike_id":"3c08ea01-205c-4267-aa7b-6418455a37f3","system_id":"levelo_inurba_marseille","lat":43.280382,"lon":5.369291,"is_reserved":false,"is_disabled":false,"rental_uris":{"android":"levelo://app?vid=3c08ea01-205c-4267-aa7b-6418455a37f3","ios":"levelo://app?vid=3c08ea01-205c-4267-aa7b-6418455a37f3"},"vehicle_type_id":"4","last_reported":1680016096,"current_range_meters":29200,"station_id":"ce4bha12rcd13ifvqef0","pricing_plan_id":"free"},{"bike_id":"b0dba751-f394-4ec9-97d6-1c52b77c6cf8","system_id":"levelo_inurba_marseille","lat":43.28111,"lon":5.37839,"is_reserved":false,"is_disabled":false,"rental_uris":{"android":"levelo://app?vid=b0dba751-f394-4ec9-97d6-1c52b77c6cf8","ios":"levelo://app?vid=b0dba751-f394-4ec9-97d6-1c52b77c6cf8"},"vehicle_type_id":"4","last_reported":1680016096,"current_range_meters":26400,"station_id":"ce4bha12rcd13ifvqee0","pricing_plan_id":"free"},{"bike_id":"665a7075-a3dd-4a33-b093-b3da46504993","system_id":"levelo_inurba_marseille","lat":43.28108,"lon":5.37832,"is_reserved":false,"is_disabled":false,"rental_uris":{"android":"levelo://app?vid=665a7075-a3dd-4a33-b093-b3da46504993","ios":"levelo://app?vid=665a7075-a3dd-4a33-b093-b3da46504993"},"vehicle_type_id":"4","last_reported":1680016096,"current_range_meters":12000,"station_id":"ce4bha12rcd13ifvqee0","pricing_plan_id":"free"},{"bike_id":"470e58fd-fde5-4e07-bf72-23f079157672","system_id":"levelo_inurba_marseille","lat":43.28108,"lon":5.37841,"is_reserved":false,"is_disabled":false,"rental_uris":{"android":"levelo://app?vid=470e58fd-fde5-4e07-bf72-23f079157672","ios":"levelo://app?vid=470e58fd-fde5-4e07-bf72-23f079157672"},"vehicle_type_id":"4","last_reported":1680016096,"current_range_meters":13200,"station_id":"ce4bha12rcd13ifvqee0","pricing_plan_id":"free"},{"bike_id":"ea2eb343-e84b-47fd-93ce-9943256fda2c","system_id":"levelo_inurba_marseille","lat":43.281044,"lon":5.378308,"is_reserved":false,"is_disabled":false,"rental_uris":{"android":"levelo://app?vid=ea2eb343-e84b-47fd-93ce-9943256fda2c","ios":"levelo://app?vid=ea2eb343-e84b-47fd-93ce-9943256fda2c"},"vehicle_type_id":"4","last_reported":1680016096,"current_range_meters":31600,"station_id":"ce4bha12rcd13ifvqee0","pricing_plan_id":"free"},{"bike_id":"7d7f8772-0f65-4e37-be24-158b88af5dd1","system_id":"levelo_inurba_marseille","lat":43.281042,"lon":5.378378,"is_reserved":false,"is_disabled":false,"rental_uris":{"android":"levelo://app?vid=7d7f8772-0f65-4e37-be24-158b88af5dd1","ios":"levelo://app?vid=7d7f8772-0f65-4e37-be24-158b88af5dd1"},"vehicle_type_id":"4","last_reported":1680016096,"current_range_meters":30000,"station_id":"ce4bha12rcd13ifvqee0","pricing_plan_id":"free"},{"bike_id":"1a1a430b-5759-44ec-83cc-4b15a09d0b6a","system_id":"levelo_inurba_marseille","lat":43.296263,"lon":5.40601,"is_reserved":false,"is_disabled":false,"rental_uris":{"android":"levelo://app?vid=1a1a430b-5759-44ec-83cc-4b15a09d0b6a","ios":"levelo://app?vid=1a1a430b-5759-44ec-83cc-4b15a09d0b6a"},"vehicle_type_id":"4","last_reported":1680016096,"current_range_meters":0,"station_id":"ce4bh0h2rcd13ifvqd60","pricing_plan_id":"free"},{"bike_id":"c2127b23-d078-4c7a-a0f0-aa0b81c7f8e6","system_id":"levelo_inurba_marseille","lat":43.28104,"lon":5.37845,"is_reserved":false,"is_disabled":false,"rental_uris":{"android":"levelo://app?vid=c2127b23-d078-4c7a-a0f0-aa0b81c7f8e6","ios":"levelo://app?vid=c2127b23-d078-4c7a-a0f0-aa0b81c7f8e6"},"vehicle_type_id":"4","last_reported":1680016096,"current_range_meters":14800,"station_id":"ce4bha12rcd13ifvqee0","pricing_plan_id":"free"},{"bike_id":"d930f5cf-4463-4d15-8363-3c46b1054b9a","system_id":"levelo_inurba_marseille","lat":43.280993,"lon":5.3784,"is_reserved":false,"is_disabled":false,"rental_uris":{"android":"levelo://app?vid=d930f5cf-4463-4d15-8363-3c46b1054b9a","ios":"levelo://app?vid=d930f5cf-4463-4d15-8363-3c46b1054b9a"},"vehicle_type_id":"4","last_reported":1680016096,"current_range_meters":31600,"station_id":"ce4bha12rcd13ifvqee0","pricing_plan_id":"free"},{"bike_id":"9a7dd555-52db-4d86-9179-b788738ce696","system_id":"levelo_inurba_marseille","lat":43.30415,"lon":5.41283,"is_reserved":false,"is_disabled":false,"rental_uris":{"android":"levelo://app?vid=9a7dd555-52db-4d86-9179-b788738ce696","ios":"levelo://app?vid=9a7dd555-52db-4d86-9179-b788738ce696"},"vehicle_type_id":"4","last_reported":1680016096,"current_range_meters":0,"station_id":"","pricing_plan_id":"free"},{"bike_id":"c25dd2f8-9f28-44da-9e31-678ef0925c20","system_id":"levelo_inurba_marseille","lat":43.27917,"lon":5.38013,"is_reserved":false,"is_disabled":false,"rental_uris":{"android":"levelo://app?vid=c25dd2f8-9f28-44da-9e31-678ef0925c20","ios":"levelo://app?vid=c25dd2f8-9f28-44da-9e31-678ef0925c20"},"vehicle_type_id":"4","last_reported":1680016096,"current_range_meters":5200,"station_id":"","pricing_plan_id":"free"},{"bike_id":"b9ef2b16-55f1-4940-a362-d61e0e00659f","system_id":"levelo_inurba_marseille","lat":43.287154,"lon":5.399979,"is_reserved":false,"is_disabled":false,"rental_uris":{"android":"levelo://app?vid=b9ef2b16-55f1-4940-a362-d61e0e00659f","ios":"levelo://app?vid=b9ef2b16-55f1-4940-a362-d61e0e00659f"},"vehicle_type_id":"4","last_reported":1680016096,"current_range_meters":20400,"station_id":"ce4bho92rcd13ifvqh3g","pricing_plan_id":"free"},{"bike_id":"c468bca3-ab59-4bae-9c0f-893d884f65b3","system_id":"levelo_inurba_marseille","lat":43.29255,"lon":5.40901,"is_reserved":false,"is_disabled":false,"rental_uris":{"android":"levelo://app?vid=c468bca3-ab59-4bae-9c0f-893d884f65b3","ios":"levelo://app?vid=c468bca3-ab59-4bae-9c0f-893d884f65b3"},"vehicle_type_id":"4","last_reported":1680016096,"current_range_meters":3600,"station_id":"ce4bh192rcd13ifvqdc0","pricing_plan_id":"free"},{"bike_id":"348d490c-ff64-4773-a8a6-624c0dcf59b0","system_id":"levelo_inurba_marseille","lat":43.27618,"lon":5.361009,"is_reserved":false,"is_disabled":false,"rental_uris":{"android":"levelo://app?vid=348d490c-ff64-4773-a8a6-624c0dcf59b0","ios":"levelo://app?vid=348d490c-ff64-4773-a8a6-624c0dcf59b0"},"vehicle_type_id":"4","last_reported":1680016096,"current_range_meters":10400,"station_id":"ce4bgj92rcd13ifvqbe0","pricing_plan_id":"free"},{"bike_id":"aba6ffc2-48f4-487a-a0ba-1d3fab60e47f","system_id":"levelo_inurba_marseille","lat":43.292571,"lon":5.409107,"is_reserved":false,"is_disabled":false,"rental_uris":{"android":"levelo://app?vid=aba6ffc2-48f4-487a-a0ba-1d3fab60e47f","ios":"levelo://app?vid=aba6ffc2-48f4-487a-a0ba-1d3fab60e47f"},"vehicle_type_id":"4","last_reported":1680016096,"current_range_meters":0,"station_id":"ce4bh192rcd13ifvqdc0","pricing_plan_id":"free"},{"bike_id":"1d42a13e-a7fa-4a2b-b5d0-ec2604f8645e","system_id":"levelo_inurba_marseille","lat":43.27618,"lon":5.361009,"is_reserved":false,"is_disabled":false,"rental_uris":{"android":"levelo://app?vid=1d42a13e-a7fa-4a2b-b5d0-ec2604f8645e","ios":"levelo://app?vid=1d42a13e-a7fa-4a2b-b5d0-ec2604f8645e"},"vehicle_type_id":"4","last_reported":1680016096,"current_range_meters":13200,"station_id":"ce4bgj92rcd13ifvqbe0","pricing_plan_id":"free"},{"bike_id":"3eb20842-b83d-46b7-a458-27f52d5129ab","system_id":"levelo_inurba_marseille","lat":43.280784,"lon":5.396622,"is_reserved":false,"is_disabled":false,"rental_uris":{"android":"levelo://app?vid=3eb20842-b83d-46b7-a458-27f52d5129ab","ios":"levelo://app?vid=3eb20842-b83d-46b7-a458-27f52d5129ab"},"vehicle_type_id":"4","last_reported":1680016096,"current_range_meters":6400,"station_id":"ce4bho12rcd13ifvqh2g","pricing_plan_id":"free"},{"bike_id":"7d9f4787-61fe-4a98-8ef9-bfc33aef43b3","system_id":"levelo_inurba_marseille","lat":43.280784,"lon":5.396622,"is_reserved":false,"is_disabled":false,"rental_uris":{"android":"levelo://app?vid=7d9f4787-61fe-4a98-8ef9-bfc33aef43b3","ios":"levelo://app?vid=7d9f4787-61fe-4a98-8ef9-bfc33aef43b3"},"vehicle_type_id":"4","last_reported":1680016096,"current_range_meters":0,"station_id":"ce4bho12rcd13ifvqh2g","pricing_plan_id":"free"},{"bike_id":"c68e2816-b1e2-41c4-a4f7-2e24840ccdae","system_id":"levelo_inurba_marseille","lat":43.2738,"lon":5.36258,"is_reserved":false,"is_disabled":false,"rental_uris":{"android":"levelo://app?vid=c68e2816-b1e2-41c4-a4f7-2e24840ccdae","ios":"levelo://app?vid=c68e2816-b1e2-41c4-a4f7-2e24840ccdae"},"vehicle_type_id":"4","last_reported":1680016096,"current_range_meters":25600,"station_id":"ce4bhbh2rcd13ifvqeo0","pricing_plan_id":"free"},{"bike_id":"4b78926b-127f-4050-b710-5004db80bc11","system_id":"levelo_inurba_marseille","lat":43.2738,"lon":5.36257,"is_reserved":false,"is_disabled":false,"rental_uris":{"android":"levelo://app?vid=4b78926b-127f-4050-b710-5004db80bc11","ios":"levelo://app?vid=4b78926b-127f-4050-b710-5004db80bc11"},"vehicle_type_id":"4","last_reported":1680016096,"current_range_meters":28400,"station_id":"ce4bhbh2rcd13ifvqeo0","pricing_plan_id":"free"},{"bike_id":"320ba24b-6fb8-4378-8de1-118732cc1432","system_id":"levelo_inurba_marseille","lat":43.27379,"lon":5.36256,"is_reserved":false,"is_disabled":false,"rental_uris":{"android":"levelo://app?vid=320ba24b-6fb8-4378-8de1-118732cc1432","ios":"levelo://app?vid=320ba24b-6fb8-4378-8de1-118732cc1432"},"vehicle_type_id":"4","last_reported":1680016096,"current_range_meters":26000,"station_id":"ce4bhbh2rcd13ifvqeo0","pricing_plan_id":"free"},{"bike_id":"f388cbfd-270e-4474-8b74-e9f577d302ca","system_id":"levelo_inurba_marseille","lat":43.27377,"lon":5.36265,"is_reserved":false,"is_disabled":false,"rental_uris":{"android":"levelo://app?vid=f388cbfd-270e-4474-8b74-e9f577d302ca","ios":"levelo://app?vid=f388cbfd-270e-4474-8b74-e9f577d302ca"},"vehicle_type_id":"4","last_reported":1680016096,"current_range_meters":5200,"station_id":"","pricing_plan_id":"free"},{"bike_id":"4359d2ac-ad1c-4158-bebc-2e8804e64e49","system_id":"levelo_inurba_marseille","lat":43.27376,"lon":5.36257,"is_reserved":false,"is_disabled":false,"rental_uris":{"android":"levelo://app?vid=4359d2ac-ad1c-4158-bebc-2e8804e64e49","ios":"levelo://app?vid=4359d2ac-ad1c-4158-bebc-2e8804e64e49"},"vehicle_type_id":"4","last_reported":1680016096,"current_range_meters":19600,"station_id":"ce4bhbh2rcd13ifvqeo0","pricing_plan_id":"free"},{"bike_id":"0916737b-ece8-4b1a-ba4a-d7e2f78350f2","system_id":"levelo_inurba_marseille","lat":43.27376,"lon":5.36256,"is_reserved":false,"is_disabled":false,"rental_uris":{"android":"levelo://app?vid=0916737b-ece8-4b1a-ba4a-d7e2f78350f2","ios":"levelo://app?vid=0916737b-ece8-4b1a-ba4a-d7e2f78350f2"},"vehicle_type_id":"4","last_reported":1680016096,"current_range_meters":2800,"station_id":"ce4bhbh2rcd13ifvqeo0","pricing_plan_id":"free"},{"bike_id":"38263a0b-b1fe-4f60-81c1-385d71b82a92","system_id":"levelo_inurba_marseille","lat":43.273613,"lon":5.362705,"is_reserved":false,"is_disabled":false,"rental_uris":{"android":"levelo://app?vid=38263a0b-b1fe-4f60-81c1-385d71b82a92","ios":"levelo://app?vid=38263a0b-b1fe-4f60-81c1-385d71b82a92"},"vehicle_type_id":"4","last_reported":1680016096,"current_range_meters":30800,"station_id":"ce4bhbh2rcd13ifvqeo0","pricing_plan_id":"free"},{"bike_id":"e135ae1d-34d1-4350-9796-e987eddc281f","system_id":"levelo_inurba_marseille","lat":43.27373,"lon":5.36255,"is_reserved":false,"is_disabled":false,"rental_uris":{"android":"levelo://app?vid=e135ae1d-34d1-4350-9796-e987eddc281f","ios":"levelo://app?vid=e135ae1d-34d1-4350-9796-e987eddc281f"},"vehicle_type_id":"4","last_reported":1680016096,"current_range_meters":16000,"station_id":"ce4bhbh2rcd13ifvqeo0","pricing_plan_id":"free"},{"bike_id":"60ed08b2-67d4-40c3-9589-2947a1603a84","system_id":"levelo_inurba_marseille","lat":43.2737,"lon":5.36263,"is_reserved":false,"is_disabled":false,"rental_uris":{"android":"levelo://app?vid=60ed08b2-67d4-40c3-9589-2947a1603a84","ios":"levelo://app?vid=60ed08b2-67d4-40c3-9589-2947a1603a84"},"vehicle_type_id":"4","last_reported":1680016096,"current_range_meters":31600,"station_id":"ce4bhbh2rcd13ifvqeo0","pricing_plan_id":"free"},{"bike_id":"928d8945-2e40-4dc2-a749-3b5240f99ce9","system_id":"levelo_inurba_marseille","lat":43.2737,"lon":5.36254,"is_reserved":false,"is_disabled":false,"rental_uris":{"android":"levelo://app?vid=928d8945-2e40-4dc2-a749-3b5240f99ce9","ios":"levelo://app?vid=928d8945-2e40-4dc2-a749-3b5240f99ce9"},"vehicle_type_id":"4","last_reported":1680016096,"current_range_meters":20400,"station_id":"ce4bhbh2rcd13ifvqeo0","pricing_plan_id":"free"},{"bike_id":"987d861f-40ea-4adc-a8d3-e6d5368c8e3d","system_id":"levelo_inurba_marseille","lat":43.273613,"lon":5.362705,"is_reserved":false,"is_disabled":false,"rental_uris":{"android":"levelo://app?vid=987d861f-40ea-4adc-a8d3-e6d5368c8e3d","ios":"levelo://app?vid=987d861f-40ea-4adc-a8d3-e6d5368c8e3d"},"vehicle_type_id":"4","last_reported":1680016096,"current_range_meters":31600,"station_id":"ce4bhbh2rcd13ifvqeo0","pricing_plan_id":"free"},{"bike_id":"d44513f3-0b18-40a1-852e-15f4652b1021","system_id":"levelo_inurba_marseille","lat":43.273613,"lon":5.362705,"is_reserved":false,"is_disabled":false,"rental_uris":{"android":"levelo://app?vid=d44513f3-0b18-40a1-852e-15f4652b1021","ios":"levelo://app?vid=d44513f3-0b18-40a1-852e-15f4652b1021"},"vehicle_type_id":"4","last_reported":1680016096,"current_range_meters":21600,"station_id":"ce4bhbh2rcd13ifvqeo0","pricing_plan_id":"free"},{"bike_id":"e178b963-8f3c-44f0-8b61-71940b6941d7","system_id":"levelo_inurba_marseille","lat":43.33607,"lon":5.41034,"is_reserved":false,"is_disabled":false,"rental_uris":{"android":"levelo://app?vid=e178b963-8f3c-44f0-8b61-71940b6941d7","ios":"levelo://app?vid=e178b963-8f3c-44f0-8b61-71940b6941d7"},"vehicle_type_id":"4","last_reported":1680016096,"current_range_meters":8000,"station_id":"","pricing_plan_id":"free"},{"bike_id":"56c4f639-f284-4645-ab5c-11108aeafd33","system_id":"levelo_inurba_marseille","lat":43.27679,"lon":5.38873,"is_reserved":false,"is_disabled":false,"rental_uris":{"android":"levelo://app?vid=56c4f639-f284-4645-ab5c-11108aeafd33","ios":"levelo://app?vid=56c4f639-f284-4645-ab5c-11108aeafd33"},"vehicle_type_id":"4","last_reported":1680016096,"current_range_meters":0,"station_id":"ce4bhi12rcd13ifvqfo0","pricing_plan_id":"free"},{"bike_id":"287fd367-d7b3-4a56-92de-e7bb57ddc6d3","system_id":"levelo_inurba_marseille","lat":43.276771,"lon":5.388799,"is_reserved":false,"is_disabled":false,"rental_uris":{"android":"levelo://app?vid=287fd367-d7b3-4a56-92de-e7bb57ddc6d3","ios":"levelo://app?vid=287fd367-d7b3-4a56-92de-e7bb57ddc6d3"},"vehicle_type_id":"4","last_reported":1680016096,"current_range_meters":26800,"station_id":"ce4bhi12rcd13ifvqfo0","pricing_plan_id":"free"},{"bike_id":"53cbd493-ab5d-4177-817a-b53f893bdfe8","system_id":"levelo_inurba_marseille","lat":43.27436,"lon":5.39399,"is_reserved":false,"is_disabled":false,"rental_uris":{"android":"levelo://app?vid=53cbd493-ab5d-4177-817a-b53f893bdfe8","ios":"levelo://app?vid=53cbd493-ab5d-4177-817a-b53f893bdfe8"},"vehicle_type_id":"4","last_reported":1680016096,"current_range_meters":0,"station_id":"","pricing_plan_id":"free"},{"bike_id":"6fa2b2ac-9754-477d-92ab-bcb4d5dc87a7","system_id":"levelo_inurba_marseille","lat":43.274103,"lon":5.394016,"is_reserved":false,"is_disabled":false,"rental_uris":{"android":"levelo://app?vid=6fa2b2ac-9754-477d-92ab-bcb4d5dc87a7","ios":"levelo://app?vid=6fa2b2ac-9754-477d-92ab-bcb4d5dc87a7"},"vehicle_type_id":"4","last_reported":1680016096,"current_range_meters":30800,"station_id":"ce4bhdp2rcd13ifvqf20","pricing_plan_id":"free"},{"bike_id":"cdcfda68-6f35-45d8-a3d3-1888ec51a142","system_id":"levelo_inurba_marseille","lat":43.274103,"lon":5.394016,"is_reserved":false,"is_disabled":false,"rental_uris":{"android":"levelo://app?vid=cdcfda68-6f35-45d8-a3d3-1888ec51a142","ios":"levelo://app?vid=cdcfda68-6f35-45d8-a3d3-1888ec51a142"},"vehicle_type_id":"4","last_reported":1680016096,"current_range_meters":31600,"station_id":"ce4bhdp2rcd13ifvqf20","pricing_plan_id":"free"},{"bike_id":"24264656-4d16-41f9-b007-07b95a93b407","system_id":"levelo_inurba_marseille","lat":43.274103,"lon":5.394016,"is_reserved":false,"is_disabled":false,"rental_uris":{"android":"levelo://app?vid=24264656-4d16-41f9-b007-07b95a93b407","ios":"levelo://app?vid=24264656-4d16-41f9-b007-07b95a93b407"},"vehicle_type_id":"4","last_reported":1680016096,"current_range_meters":400,"station_id":"ce4bhdp2rcd13ifvqf20","pricing_plan_id":"free"},{"bike_id":"41ece2df-5281-4f45-96ca-d4f70573fa3b","system_id":"levelo_inurba_marseille","lat":43.273129,"lon":5.390725,"is_reserved":false,"is_disabled":false,"rental_uris":{"android":"levelo://app?vid=41ece2df-5281-4f45-96ca-d4f70573fa3b","ios":"levelo://app?vid=41ece2df-5281-4f45-96ca-d4f70573fa3b"},"vehicle_type_id":"4","last_reported":1680016096,"current_range_meters":0,"station_id":"ce4bhgp2rcd13ifvqfe0","pricing_plan_id":"free"},{"bike_id":"eae69274-3b0f-4808-8878-1ed069c48a94","system_id":"levelo_inurba_marseille","lat":43.273125,"lon":5.390731,"is_reserved":false,"is_disabled":false,"rental_uris":{"android":"levelo://app?vid=eae69274-3b0f-4808-8878-1ed069c48a94","ios":"levelo://app?vid=eae69274-3b0f-4808-8878-1ed069c48a94"},"vehicle_type_id":"4","last_reported":1680016096,"current_range_meters":9600,"station_id":"ce4bhgp2rcd13ifvqfe0","pricing_plan_id":"free"},{"bike_id":"b57e09fc-79c1-4a95-b6c0-1f22d72831c2","system_id":"levelo_inurba_marseille","lat":43.274103,"lon":5.394016,"is_reserved":false,"is_disabled":false,"rental_uris":{"android":"levelo://app?vid=b57e09fc-79c1-4a95-b6c0-1f22d72831c2","ios":"levelo://app?vid=b57e09fc-79c1-4a95-b6c0-1f22d72831c2"},"vehicle_type_id":"4","last_reported":1680016096,"current_range_meters":31600,"station_id":"ce4bhdp2rcd13ifvqf20","pricing_plan_id":"free"},{"bike_id":"387b4dac-7349-414e-ad36-3ce59f81a103","system_id":"levelo_inurba_marseille","lat":43.2743,"lon":5.39418,"is_reserved":false,"is_disabled":false,"rental_uris":{"android":"levelo://app?vid=387b4dac-7349-414e-ad36-3ce59f81a103","ios":"levelo://app?vid=387b4dac-7349-414e-ad36-3ce59f81a103"},"vehicle_type_id":"4","last_reported":1680016096,"current_range_meters":31600,"station_id":"ce4bhdp2rcd13ifvqf20","pricing_plan_id":"free"},{"bike_id":"d350eda7-386f-4bc7-84e9-2b341a4783fc","system_id":"levelo_inurba_marseille","lat":43.26957,"lon":5.38636,"is_reserved":false,"is_disabled":false,"rental_uris":{"android":"levelo://app?vid=d350eda7-386f-4bc7-84e9-2b341a4783fc","ios":"levelo://app?vid=d350eda7-386f-4bc7-84e9-2b341a4783fc"},"vehicle_type_id":"4","last_reported":1680016096,"current_range_meters":30400,"station_id":"ce4bhh92rcd13ifvqfh0","pricing_plan_id":"free"},{"bike_id":"ffa899d1-4cbf-41c6-8e73-214d945c36cf","system_id":"levelo_inurba_marseille","lat":43.269319,"lon":5.389397,"is_reserved":false,"is_disabled":false,"rental_uris":{"android":"levelo://app?vid=ffa899d1-4cbf-41c6-8e73-214d945c36cf","ios":"levelo://app?vid=ffa899d1-4cbf-41c6-8e73-214d945c36cf"},"vehicle_type_id":"4","last_reported":1680016096,"current_range_meters":6800,"station_id":"ce4bhhh2rcd13ifvqfl0","pricing_plan_id":"free"},{"bike_id":"2f691305-4f1d-42ea-8831-4d5a07572eb3","system_id":"levelo_inurba_marseille","lat":43.26681,"lon":5.382694,"is_reserved":false,"is_disabled":false,"rental_uris":{"android":"levelo://app?vid=2f691305-4f1d-42ea-8831-4d5a07572eb3","ios":"levelo://app?vid=2f691305-4f1d-42ea-8831-4d5a07572eb3"},"vehicle_type_id":"4","last_reported":1680016096,"current_range_meters":0,"station_id":"ce4bhg92rcd13ifvqf90","pricing_plan_id":"free"},{"bike_id":"dd95b60e-d5eb-419b-9321-147fc5908b45","system_id":"levelo_inurba_marseille","lat":43.26681,"lon":5.382694,"is_reserved":false,"is_disabled":false,"rental_uris":{"android":"levelo://app?vid=dd95b60e-d5eb-419b-9321-147fc5908b45","ios":"levelo://app?vid=dd95b60e-d5eb-419b-9321-147fc5908b45"},"vehicle_type_id":"4","last_reported":1680016096,"current_range_meters":31600,"station_id":"ce4bhg92rcd13ifvqf90","pricing_plan_id":"free"},{"bike_id":"9cfc5a71-d3eb-4f10-bf4e-d832974c439a","system_id":"levelo_inurba_marseille","lat":43.26681,"lon":5.382694,"is_reserved":false,"is_disabled":false,"rental_uris":{"android":"levelo://app?vid=9cfc5a71-d3eb-4f10-bf4e-d832974c439a","ios":"levelo://app?vid=9cfc5a71-d3eb-4f10-bf4e-d832974c439a"},"vehicle_type_id":"4","last_reported":1680016096,"current_range_meters":31600,"station_id":"ce4bhg92rcd13ifvqf90","pricing_plan_id":"free"},{"bike_id":"31a11b88-eda9-4b2a-acc8-d0def49fe529","system_id":"levelo_inurba_marseille","lat":43.26681,"lon":5.382694,"is_reserved":false,"is_disabled":false,"rental_uris":{"android":"levelo://app?vid=31a11b88-eda9-4b2a-acc8-d0def49fe529","ios":"levelo://app?vid=31a11b88-eda9-4b2a-acc8-d0def49fe529"},"vehicle_type_id":"4","last_reported":1680016096,"current_range_meters":31600,"station_id":"ce4bhg92rcd13ifvqf90","pricing_plan_id":"free"},{"bike_id":"ff4926c6-acec-43c7-ae5c-6a60cbe38a47","system_id":"levelo_inurba_marseille","lat":43.26681,"lon":5.382694,"is_reserved":false,"is_disabled":false,"rental_uris":{"android":"levelo://app?vid=ff4926c6-acec-43c7-ae5c-6a60cbe38a47","ios":"levelo://app?vid=ff4926c6-acec-43c7-ae5c-6a60cbe38a47"},"vehicle_type_id":"4","last_reported":1680016096,"current_range_meters":29200,"station_id":"ce4bhg92rcd13ifvqf90","pricing_plan_id":"free"},{"bike_id":"292426c1-2660-40d9-8600-de779400a211","system_id":"levelo_inurba_marseille","lat":43.27996,"lon":5.416624,"is_reserved":false,"is_disabled":false,"rental_uris":{"android":"levelo://app?vid=292426c1-2660-40d9-8600-de779400a211","ios":"levelo://app?vid=292426c1-2660-40d9-8600-de779400a211"},"vehicle_type_id":"4","last_reported":1680016096,"current_range_meters":26400,"station_id":"ce4bho12rcd13ifvqh1g","pricing_plan_id":"free"},{"bike_id":"afca5ac1-f8f1-48e0-9281-93834d35b351","system_id":"levelo_inurba_marseille","lat":43.26384,"lon":5.37799,"is_reserved":false,"is_disabled":false,"rental_uris":{"android":"levelo://app?vid=afca5ac1-f8f1-48e0-9281-93834d35b351","ios":"levelo://app?vid=afca5ac1-f8f1-48e0-9281-93834d35b351"},"vehicle_type_id":"4","last_reported":1680016096,"current_range_meters":400,"station_id":"","pricing_plan_id":"free"},{"bike_id":"ffb19a58-36f5-4c52-8de7-b6abc5a09387","system_id":"levelo_inurba_marseille","lat":43.265569,"lon":5.390047,"is_reserved":false,"is_disabled":false,"rental_uris":{"android":"levelo://app?vid=ffb19a58-36f5-4c52-8de7-b6abc5a09387","ios":"levelo://app?vid=ffb19a58-36f5-4c52-8de7-b6abc5a09387"},"vehicle_type_id":"4","last_reported":1680016096,"current_range_meters":3600,"station_id":"ce4bhe12rcd13ifvqf30","pricing_plan_id":"free"},{"bike_id":"2b5a7634-974b-419b-9faa-d78ede0dad76","system_id":"levelo_inurba_marseille","lat":43.26939,"lon":5.40224,"is_reserved":false,"is_disabled":false,"rental_uris":{"android":"levelo://app?vid=2b5a7634-974b-419b-9faa-d78ede0dad76","ios":"levelo://app?vid=2b5a7634-974b-419b-9faa-d78ede0dad76"},"vehicle_type_id":"4","last_reported":1680016096,"current_range_meters":0,"station_id":"","pricing_plan_id":"free"},{"bike_id":"54d1d814-ded6-4d65-adc0-6ebd1325a2b4","system_id":"levelo_inurba_marseille","lat":43.331864,"lon":5.431794,"is_reserved":false,"is_disabled":false,"rental_uris":{"android":"levelo://app?vid=54d1d814-ded6-4d65-adc0-6ebd1325a2b4","ios":"levelo://app?vid=54d1d814-ded6-4d65-adc0-6ebd1325a2b4"},"vehicle_type_id":"4","last_reported":1680016096,"current_range_meters":800,"station_id":"","pricing_plan_id":"free"},{"bike_id":"d875187f-841c-4d75-8762-42aa2716229d","system_id":"levelo_inurba_marseille","lat":43.261782,"lon":5.374515,"is_reserved":false,"is_disabled":false,"rental_uris":{"android":"levelo://app?vid=d875187f-841c-4d75-8762-42aa2716229d","ios":"levelo://app?vid=d875187f-841c-4d75-8762-42aa2716229d"},"vehicle_type_id":"4","last_reported":1680016096,"current_range_meters":16800,"station_id":"ce4bhgp2rcd13ifvqfc0","pricing_plan_id":"free"},{"bike_id":"88c997ec-65f3-4306-817a-f1abf58b138d","system_id":"levelo_inurba_marseille","lat":43.261782,"lon":5.374515,"is_reserved":false,"is_disabled":false,"rental_uris":{"android":"levelo://app?vid=88c997ec-65f3-4306-817a-f1abf58b138d","ios":"levelo://app?vid=88c997ec-65f3-4306-817a-f1abf58b138d"},"vehicle_type_id":"4","last_reported":1680016096,"current_range_meters":18000,"station_id":"ce4bhgp2rcd13ifvqfc0","pricing_plan_id":"free"},{"bike_id":"c7afecfc-4eaf-4ca4-aa33-2990aa3eccbd","system_id":"levelo_inurba_marseille","lat":43.261782,"lon":5.374515,"is_reserved":false,"is_disabled":false,"rental_uris":{"android":"levelo://app?vid=c7afecfc-4eaf-4ca4-aa33-2990aa3eccbd","ios":"levelo://app?vid=c7afecfc-4eaf-4ca4-aa33-2990aa3eccbd"},"vehicle_type_id":"4","last_reported":1680016096,"current_range_meters":27200,"station_id":"ce4bhgp2rcd13ifvqfc0","pricing_plan_id":"free"},{"bike_id":"78b1473a-972b-4aa8-b45c-43dafdb0fd66","system_id":"levelo_inurba_marseille","lat":43.261782,"lon":5.374515,"is_reserved":false,"is_disabled":false,"rental_uris":{"android":"levelo://app?vid=78b1473a-972b-4aa8-b45c-43dafdb0fd66","ios":"levelo://app?vid=78b1473a-972b-4aa8-b45c-43dafdb0fd66"},"vehicle_type_id":"4","last_reported":1680016096,"current_range_meters":17600,"station_id":"ce4bhgp2rcd13ifvqfc0","pricing_plan_id":"free"},{"bike_id":"6f8149b8-df7e-40c4-925b-ab140d4bb667","system_id":"levelo_inurba_marseille","lat":43.261782,"lon":5.374515,"is_reserved":false,"is_disabled":false,"rental_uris":{"android":"levelo://app?vid=6f8149b8-df7e-40c4-925b-ab140d4bb667","ios":"levelo://app?vid=6f8149b8-df7e-40c4-925b-ab140d4bb667"},"vehicle_type_id":"4","last_reported":1680016096,"current_range_meters":800,"station_id":"ce4bhgp2rcd13ifvqfc0","pricing_plan_id":"free"},{"bike_id":"bead26f2-3d88-4273-ae5a-49cfb8759a2b","system_id":"levelo_inurba_marseille","lat":43.29901,"lon":5.43675,"is_reserved":false,"is_disabled":false,"rental_uris":{"android":"levelo://app?vid=bead26f2-3d88-4273-ae5a-49cfb8759a2b","ios":"levelo://app?vid=bead26f2-3d88-4273-ae5a-49cfb8759a2b"},"vehicle_type_id":"4","last_reported":1680016096,"current_range_meters":15200,"station_id":"","pricing_plan_id":"free"},{"bike_id":"97af77ff-4c70-4ccc-9cb2-d322d22c10b0","system_id":"levelo_inurba_marseille","lat":43.260225,"lon":5.375455,"is_reserved":false,"is_disabled":false,"rental_uris":{"android":"levelo://app?vid=97af77ff-4c70-4ccc-9cb2-d322d22c10b0","ios":"levelo://app?vid=97af77ff-4c70-4ccc-9cb2-d322d22c10b0"},"vehicle_type_id":"4","last_reported":1680016096,"current_range_meters":19200,"station_id":"ce4bhgh2rcd13ifvqfa0","pricing_plan_id":"free"},{"bike_id":"48ff0e71-2ffb-4ed8-8376-b5aac13ccece","system_id":"levelo_inurba_marseille","lat":43.260219,"lon":5.37546,"is_reserved":false,"is_disabled":false,"rental_uris":{"android":"levelo://app?vid=48ff0e71-2ffb-4ed8-8376-b5aac13ccece","ios":"levelo://app?vid=48ff0e71-2ffb-4ed8-8376-b5aac13ccece"},"vehicle_type_id":"4","last_reported":1680016096,"current_range_meters":17600,"station_id":"ce4bhgh2rcd13ifvqfa0","pricing_plan_id":"free"},{"bike_id":"f893f892-fb8d-40e7-8122-2697cffa37d6","system_id":"levelo_inurba_marseille","lat":43.26703,"lon":5.40746,"is_reserved":false,"is_disabled":false,"rental_uris":{"android":"levelo://app?vid=f893f892-fb8d-40e7-8122-2697cffa37d6","ios":"levelo://app?vid=f893f892-fb8d-40e7-8122-2697cffa37d6"},"vehicle_type_id":"4","last_reported":1680016096,"current_range_meters":6400,"station_id":"","pricing_plan_id":"free"},{"bike_id":"4b592025-2a16-4c74-8dc4-711e10850b3f","system_id":"levelo_inurba_marseille","lat":43.255756,"lon":5.382303,"is_reserved":false,"is_disabled":false,"rental_uris":{"android":"levelo://app?vid=4b592025-2a16-4c74-8dc4-711e10850b3f","ios":"levelo://app?vid=4b592025-2a16-4c74-8dc4-711e10850b3f"},"vehicle_type_id":"4","last_reported":1680016096,"current_range_meters":20800,"station_id":"ce4bhih2rcd13ifvqfs0","pricing_plan_id":"free"},{"bike_id":"816245e2-3ce5-43f7-8ae7-423a8fa86725","system_id":"levelo_inurba_marseille","lat":43.254945,"lon":5.376454,"is_reserved":false,"is_disabled":false,"rental_uris":{"android":"levelo://app?vid=816245e2-3ce5-43f7-8ae7-423a8fa86725","ios":"levelo://app?vid=816245e2-3ce5-43f7-8ae7-423a8fa86725"},"vehicle_type_id":"4","last_reported":1680016096,"current_range_meters":0,"station_id":"ce4bhh12rcd13ifvqff0","pricing_plan_id":"free"},{"bike_id":"2043f004-c08d-4dc9-ab10-145a9e240bb1","system_id":"levelo_inurba_marseille","lat":43.254947,"lon":5.376454,"is_reserved":false,"is_disabled":false,"rental_uris":{"android":"levelo://app?vid=2043f004-c08d-4dc9-ab10-145a9e240bb1","ios":"levelo://app?vid=2043f004-c08d-4dc9-ab10-145a9e240bb1"},"vehicle_type_id":"4","last_reported":1680016096,"current_range_meters":2800,"station_id":"ce4bhh12rcd13ifvqff0","pricing_plan_id":"free"},{"bike_id":"cb705956-bd92-42f1-a31a-cc470d61ed09","system_id":"levelo_inurba_marseille","lat":43.254947,"lon":5.376454,"is_reserved":false,"is_disabled":false,"rental_uris":{"android":"levelo://app?vid=cb705956-bd92-42f1-a31a-cc470d61ed09","ios":"levelo://app?vid=cb705956-bd92-42f1-a31a-cc470d61ed09"},"vehicle_type_id":"4","last_reported":1680016096,"current_range_meters":5200,"station_id":"ce4bhh12rcd13ifvqff0","pricing_plan_id":"free"},{"bike_id":"4c20a138-7189-4e5a-a391-d75db0947108","system_id":"levelo_inurba_marseille","lat":43.270721,"lon":5.422764,"is_reserved":false,"is_disabled":false,"rental_uris":{"android":"levelo://app?vid=4c20a138-7189-4e5a-a391-d75db0947108","ios":"levelo://app?vid=4c20a138-7189-4e5a-a391-d75db0947108"},"vehicle_type_id":"4","last_reported":1680016096,"current_range_meters":24400,"station_id":"ce4bhk92rcd13ifvqgb0","pricing_plan_id":"free"},{"bike_id":"c7387408-b8ca-4bc7-834e-5be5641a5a97","system_id":"levelo_inurba_marseille","lat":43.27077,"lon":5.42282,"is_reserved":false,"is_disabled":false,"rental_uris":{"android":"levelo://app?vid=c7387408-b8ca-4bc7-834e-5be5641a5a97","ios":"levelo://app?vid=c7387408-b8ca-4bc7-834e-5be5641a5a97"},"vehicle_type_id":"4","last_reported":1680016096,"current_range_meters":11600,"station_id":"","pricing_plan_id":"free"},{"bike_id":"36c202b2-58b9-4db8-a639-879943530ebb","system_id":"levelo_inurba_marseille","lat":43.270721,"lon":5.422764,"is_reserved":false,"is_disabled":false,"rental_uris":{"android":"levelo://app?vid=36c202b2-58b9-4db8-a639-879943530ebb","ios":"levelo://app?vid=36c202b2-58b9-4db8-a639-879943530ebb"},"vehicle_type_id":"4","last_reported":1680016096,"current_range_meters":19200,"station_id":"ce4bhk92rcd13ifvqgb0","pricing_plan_id":"free"},{"bike_id":"9d6bb421-160d-45b1-8b0a-94986dd40432","system_id":"levelo_inurba_marseille","lat":43.270721,"lon":5.422764,"is_reserved":false,"is_disabled":false,"rental_uris":{"android":"levelo://app?vid=9d6bb421-160d-45b1-8b0a-94986dd40432","ios":"levelo://app?vid=9d6bb421-160d-45b1-8b0a-94986dd40432"},"vehicle_type_id":"4","last_reported":1680016096,"current_range_meters":18400,"station_id":"ce4bhk92rcd13ifvqgb0","pricing_plan_id":"free"},{"bike_id":"68e2a2eb-7875-40f4-afe1-5011a2ff54c6","system_id":"levelo_inurba_marseille","lat":43.27072,"lon":5.42281,"is_reserved":false,"is_disabled":false,"rental_uris":{"android":"levelo://app?vid=68e2a2eb-7875-40f4-afe1-5011a2ff54c6","ios":"levelo://app?vid=68e2a2eb-7875-40f4-afe1-5011a2ff54c6"},"vehicle_type_id":"4","last_reported":1680016096,"current_range_meters":24400,"station_id":"","pricing_plan_id":"free"},{"bike_id":"7580a8d3-691f-4ed3-93f5-dfef24640515","system_id":"levelo_inurba_marseille","lat":43.25935,"lon":5.40911,"is_reserved":false,"is_disabled":false,"rental_uris":{"android":"levelo://app?vid=7580a8d3-691f-4ed3-93f5-dfef24640515","ios":"levelo://app?vid=7580a8d3-691f-4ed3-93f5-dfef24640515"},"vehicle_type_id":"4","last_reported":1680016096,"current_range_meters":8000,"station_id":"","pricing_plan_id":"free"},{"bike_id":"61b43528-b7c6-4120-b79b-c5d061a053bb","system_id":"levelo_inurba_marseille","lat":43.25004,"lon":5.38928,"is_reserved":false,"is_disabled":false,"rental_uris":{"android":"levelo://app?vid=61b43528-b7c6-4120-b79b-c5d061a053bb","ios":"levelo://app?vid=61b43528-b7c6-4120-b79b-c5d061a053bb"},"vehicle_type_id":"4","last_reported":1680016096,"current_range_meters":29600,"station_id":"","pricing_plan_id":"free"},{"bike_id":"d492f385-3ceb-4982-be0e-3533825a7556","system_id":"levelo_inurba_marseille","lat":43.248163,"lon":5.374612,"is_reserved":false,"is_disabled":false,"rental_uris":{"android":"levelo://app?vid=d492f385-3ceb-4982-be0e-3533825a7556","ios":"levelo://app?vid=d492f385-3ceb-4982-be0e-3533825a7556"},"vehicle_type_id":"4","last_reported":1680016096,"current_range_meters":25200,"station_id":"","pricing_plan_id":"free"},{"bike_id":"afc0a76c-ac23-4786-a1b1-7e2780e1e85e","system_id":"levelo_inurba_marseille","lat":43.250966,"lon":5.395186,"is_reserved":false,"is_disabled":false,"rental_uris":{"android":"levelo://app?vid=afc0a76c-ac23-4786-a1b1-7e2780e1e85e","ios":"levelo://app?vid=afc0a76c-ac23-4786-a1b1-7e2780e1e85e"},"vehicle_type_id":"4","last_reported":1680016096,"current_range_meters":31600,"station_id":"ce4bhm12rcd13ifvqgkg","pricing_plan_id":"free"},{"bike_id":"bb6f3105-110f-409e-aecd-466b3f6f0d34","system_id":"levelo_inurba_marseille","lat":43.250966,"lon":5.395186,"is_reserved":false,"is_disabled":false,"rental_uris":{"android":"levelo://app?vid=bb6f3105-110f-409e-aecd-466b3f6f0d34","ios":"levelo://app?vid=bb6f3105-110f-409e-aecd-466b3f6f0d34"},"vehicle_type_id":"4","last_reported":1680016096,"current_range_meters":31600,"station_id":"ce4bhm12rcd13ifvqgkg","pricing_plan_id":"free"},{"bike_id":"b195c036-1cd8-492e-a3be-38133a552243","system_id":"levelo_inurba_marseille","lat":43.24693,"lon":5.382096,"is_reserved":false,"is_disabled":false,"rental_uris":{"android":"levelo://app?vid=b195c036-1cd8-492e-a3be-38133a552243","ios":"levelo://app?vid=b195c036-1cd8-492e-a3be-38133a552243"},"vehicle_type_id":"4","last_reported":1680016096,"current_range_meters":25600,"station_id":"ce4bhih2rcd13ifvqfr0","pricing_plan_id":"free"},{"bike_id":"d2cdacae-57dd-4ef8-9a12-0d0f2d479569","system_id":"levelo_inurba_marseille","lat":43.25124,"lon":5.40323,"is_reserved":false,"is_disabled":false,"rental_uris":{"android":"levelo://app?vid=d2cdacae-57dd-4ef8-9a12-0d0f2d479569","ios":"levelo://app?vid=d2cdacae-57dd-4ef8-9a12-0d0f2d479569"},"vehicle_type_id":"4","last_reported":1680016096,"current_range_meters":31600,"station_id":"ce4bhlh2rcd13ifvqgig","pricing_plan_id":"free"},{"bike_id":"94658ef2-9cc5-4e98-968c-6eb7e0da3168","system_id":"levelo_inurba_marseille","lat":43.24693,"lon":5.382096,"is_reserved":false,"is_disabled":false,"rental_uris":{"android":"levelo://app?vid=94658ef2-9cc5-4e98-968c-6eb7e0da3168","ios":"levelo://app?vid=94658ef2-9cc5-4e98-968c-6eb7e0da3168"},"vehicle_type_id":"4","last_reported":1680016096,"current_range_meters":23600,"station_id":"ce4bhih2rcd13ifvqfr0","pricing_plan_id":"free"},{"bike_id":"0db52a65-1dfa-4fb8-a4d8-0a1e35868dd3","system_id":"levelo_inurba_marseille","lat":43.25102,"lon":5.403214,"is_reserved":false,"is_disabled":false,"rental_uris":{"android":"levelo://app?vid=0db52a65-1dfa-4fb8-a4d8-0a1e35868dd3","ios":"levelo://app?vid=0db52a65-1dfa-4fb8-a4d8-0a1e35868dd3"},"vehicle_type_id":"4","last_reported":1680016096,"current_range_meters":5200,"station_id":"ce4bhlh2rcd13ifvqgig","pricing_plan_id":"free"},{"bike_id":"3ae7d356-b324-4cd1-b2a7-4d59f1c71c88","system_id":"levelo_inurba_marseille","lat":43.24661,"lon":5.38901,"is_reserved":false,"is_disabled":false,"rental_uris":{"android":"levelo://app?vid=3ae7d356-b324-4cd1-b2a7-4d59f1c71c88","ios":"levelo://app?vid=3ae7d356-b324-4cd1-b2a7-4d59f1c71c88"},"vehicle_type_id":"4","last_reported":1680016096,"current_range_meters":0,"station_id":"ce4bhg12rcd13ifvqf60","pricing_plan_id":"free"},{"bike_id":"d41b3ff1-1275-4ec9-bdf7-48bac0ef7ed8","system_id":"levelo_inurba_marseille","lat":43.243884,"lon":5.370736,"is_reserved":false,"is_disabled":false,"rental_uris":{"android":"levelo://app?vid=d41b3ff1-1275-4ec9-bdf7-48bac0ef7ed8","ios":"levelo://app?vid=d41b3ff1-1275-4ec9-bdf7-48bac0ef7ed8"},"vehicle_type_id":"4","last_reported":1680016096,"current_range_meters":12000,"station_id":"ce4bhhh2rcd13ifvqfk0","pricing_plan_id":"free"},{"bike_id":"c2544007-a01d-4c42-aff4-4fe44095ed62","system_id":"levelo_inurba_marseille","lat":43.243884,"lon":5.370736,"is_reserved":false,"is_disabled":false,"rental_uris":{"android":"levelo://app?vid=c2544007-a01d-4c42-aff4-4fe44095ed62","ios":"levelo://app?vid=c2544007-a01d-4c42-aff4-4fe44095ed62"},"vehicle_type_id":"4","last_reported":1680016096,"current_range_meters":11600,"station_id":"ce4bhhh2rcd13ifvqfk0","pricing_plan_id":"free"},{"bike_id":"8d2f5acb-2659-4815-95c7-298dbf230bd7","system_id":"levelo_inurba_marseille","lat":43.243884,"lon":5.370736,"is_reserved":false,"is_disabled":false,"rental_uris":{"android":"levelo://app?vid=8d2f5acb-2659-4815-95c7-298dbf230bd7","ios":"levelo://app?vid=8d2f5acb-2659-4815-95c7-298dbf230bd7"},"vehicle_type_id":"4","last_reported":1680016096,"current_range_meters":19600,"station_id":"ce4bhhh2rcd13ifvqfk0","pricing_plan_id":"free"},{"bike_id":"fbec3828-cbd0-49fa-935c-81cf478cc93f","system_id":"levelo_inurba_marseille","lat":43.28626,"lon":5.45839,"is_reserved":false,"is_disabled":false,"rental_uris":{"android":"levelo://app?vid=fbec3828-cbd0-49fa-935c-81cf478cc93f","ios":"levelo://app?vid=fbec3828-cbd0-49fa-935c-81cf478cc93f"},"vehicle_type_id":"4","last_reported":1680016096,"current_range_meters":16400,"station_id":"","pricing_plan_id":"free"},{"bike_id":"b8cf267b-17ea-4ded-8b0b-e1257366bfc4","system_id":"levelo_inurba_marseille","lat":43.239588,"lon":5.366238,"is_reserved":false,"is_disabled":false,"rental_uris":{"android":"levelo://app?vid=b8cf267b-17ea-4ded-8b0b-e1257366bfc4","ios":"levelo://app?vid=b8cf267b-17ea-4ded-8b0b-e1257366bfc4"},"vehicle_type_id":"4","last_reported":1680016096,"current_range_meters":1600,"station_id":"ce4bhi12rcd13ifvqfp0","pricing_plan_id":"free"},{"bike_id":"bc126bff-078a-434d-b04b-b1ee3cef5a29","system_id":"levelo_inurba_marseille","lat":43.243793,"lon":5.403017,"is_reserved":false,"is_disabled":false,"rental_uris":{"android":"levelo://app?vid=bc126bff-078a-434d-b04b-b1ee3cef5a29","ios":"levelo://app?vid=bc126bff-078a-434d-b04b-b1ee3cef5a29"},"vehicle_type_id":"4","last_reported":1680016096,"current_range_meters":2800,"station_id":"","pricing_plan_id":"free"},{"bike_id":"afa32105-5409-41a9-b0fe-d2fac594821b","system_id":"levelo_inurba_marseille","lat":43.28811,"lon":5.46635,"is_reserved":false,"is_disabled":false,"rental_uris":{"android":"levelo://app?vid=afa32105-5409-41a9-b0fe-d2fac594821b","ios":"levelo://app?vid=afa32105-5409-41a9-b0fe-d2fac594821b"},"vehicle_type_id":"4","last_reported":1680016096,"current_range_meters":0,"station_id":"","pricing_plan_id":"free"},{"bike_id":"eba12d81-c0d7-4ae6-bbb9-fa221825e389","system_id":"levelo_inurba_marseille","lat":43.284621,"lon":5.486919,"is_reserved":false,"is_disabled":false,"rental_uris":{"android":"levelo://app?vid=eba12d81-c0d7-4ae6-bbb9-fa221825e389","ios":"levelo://app?vid=eba12d81-c0d7-4ae6-bbb9-fa221825e389"},"vehicle_type_id":"4","last_reported":1680016096,"current_range_meters":0,"station_id":"","pricing_plan_id":"free"}]}}