{"last_updated":1745071684,"ttl":60,"version":"2.2","data":{"bikes":[{"bike_id":"4b426ce4-ee08-4a5e-a0a4-85af852ad32e","system_id":"levelo_inurba_marseille","lat":43.29621,"lon":5.37158,"is_reserved":false,"is_disabled":false,"rental_uris":{"android":"levelo://app?vid=4b426ce4-ee08-4a5e-a0a4-85af852ad32e","ios":"levelo://app?vid=4b426ce4-ee08-4a5e-a0a4-85af852ad32e"},"vehicle_type_id":"4","last_reported":1745071684,"current_range_meters":2800,"station_id":"ce4bgnh2rcd13ifvqc0g","pricing_plan_id":"cebpf4jnsgd1na2vs0mg"},{"bike_id":"d9456a2b-5310-4b75-888b-2fb235cc7726","system_id":"levelo_inurba_marseille","lat":43.26577,"lon":5.39015,"is_reserved":false,"is_disabled":false,"rental_uris":{"android":"levelo://app?vid=d9456a2b-5310-4b75-888b-2fb235cc7726","ios":"levelo://app?vid=d9456a2b-5310-4b75-888b-2fb235cc7726"},"vehicle_type_id":"4","last_reported":1745071684,"current_range_meters":2800,"station_id":"ce4bhe12rcd13ifvqf30","pricing_plan_id":"cebpf4jnsgd1na2vs0mg"},{"bike_id":"8b81972b-515f-4d6a-9a28-3d609185166e","system_id":"levelo_inurba_marseille","lat":43.21191,"lon":5.35066,"is_reserved":false,"is_disabled":false,"rental_uris":{"android":"levelo://app?vid=8b81972b-515f-4d6a-9a28-3d609185166e","ios":"levelo://app?vid=8b81972b-515f-4d6a-9a28-3d609185166e"},"vehicle_type_id":"4","last_reported":1745071684,"current_range_meters":3200,"station_id":"st_cvj6sg6p6f1abm77japg","pricing_plan_id":"cebpf4jnsgd1na2vs0mg"},{"bike_id":"b64179b8-558c-4384-8ef3-74546d2b15c1","system_id":"levelo_inurba_marseille","lat":43.28261,"lon":5.35078,"is_reserved":false,"is_disabled":false,"rental_uris":{"android":"levelo://app?vid=b64179b8-558c-4384-8ef3-74546d2b15c1","ios":"levelo://app?vid=b64179b8-558c-4384-8ef3-74546d2b15c1"},"vehicle_type_id":"4","last_reported":1745071684,"current_range_meters":3200,"station_id":"ce4bhbp2rcd13ifvqerg","pricing_plan_id":"cebpf4jnsgd1na2vs0mg"},{"bike_id":"39783330-5b8c-4efa-a51f-b0c977415a28","system_id":"levelo_inurba_marseille","lat":43.29301,"lon":5.37453,"is_reserved":false,"is_disabled":true,"rental_uris":{"android":"levelo://app?vid=39783330-5b8c-4efa-a51f-b0c977415a28","ios":"levelo://app?vid=39783330-5b8c-4efa-a51f-b0c977415a28"},"vehicle_type_id":"4","last_reported":1745071684,"current_range_meters":3200,"station_id":"ce4bgi12rcd13ifvqb70","pricing_plan_id":"cebpf4jnsgd1na2vs0mg"},{"bike_id":"98677316-922b-48a1-b2b7-13fae5425b81","system_id":"levelo_inurba_marseille","lat":43.28266,"lon":5.35084,"is_reserved":false,"is_disabled":false,"rental_uris":{"android":"levelo://app?vid=98677316-922b-48a1-b2b7-13fae5425b81","ios":"levelo://app?vid=98677316-922b-48a1-b2b7-13fae5425b81"},"vehicle_type_id":"4","last_reported":1745071684,"current_range_meters":3600,"station_id":"ce4bhbp2rcd13ifvqerg","pricing_plan_id":"cebpf4jnsgd1na2vs0mg"},{"bike_id":"9da5d74e-a3c2-44b5-96f2-bb9195078f30","system_id":"levelo_inurba_marseille","lat":43.28259,"lon":5.35065,"is_reserved":false,"is_disabled":false,"rental_uris":{"android":"levelo://app?vid=9da5d74e-a3c2-44b5-96f2-bb9195078f30","ios":"levelo://app?vid=9da5d74e-a3c2-44b5-96f2-bb9195078f30"},"vehicle_type_id":"4","last_reported":1745071684,"current_range_meters":3600,"station_id":"ce4bhbp2rcd13ifvqerg","pricing_plan_id":"cebpf4jnsgd1na2vs0mg"},{"bike_id":"7c576512-f70a-4818-9016-0d99dc1a619f","system_id":"levelo_inurba_marseille","lat":43.30425,"lon":5.39743,"is_reserved":false,"is_disabled":false,"rental_uris":{"android":"levelo://app?vid=7c576512-f70a-4818-9016-0d99dc1a619f","ios":"levelo://app?vid=7c576512-f70a-4818-9016-0d99dc1a619f"},"vehicle_type_id":"4","last_reported":1745071684,"current_range_meters":3600,"station_id":"ce4bh092rcd13ifvqd20","pricing_plan_id":"cebpf4jnsgd1na2vs0mg"},{"bike_id":"5adfd0fb-f679-4bcc-aa22-8db4d94bb97f","system_id":"levelo_inurba_marseille","lat":43.270752,"lon":5.422734,"is_reserved":false,"is_disabled":false,"rental_uris":{"android":"levelo://app?vid=5adfd0fb-f679-4bcc-aa22-8db4d94bb97f","ios":"levelo://app?vid=5adfd0fb-f679-4bcc-aa22-8db4d94bb97f"},"vehicle_type_id":"4","last_reported":1745071684,"current_range_meters":3600,"station_id":"","pricing_plan_id":"cebpf4jnsgd1na2vs0mg"},{"bike_id":"eedb2d4e-0700-477f-af7a-b6924752e0d1","system_id":"levelo_inurba_marseille","lat":43.27925,"lon":5.39576,"is_reserved":false,"is_disabled":false,"rental_uris":{"android":"levelo://app?vid=eedb2d4e-0700-477f-af7a-b6924752e0d1","ios":"levelo://app?vid=eedb2d4e-0700-477f-af7a-b6924752e0d1"},"vehicle_type_id":"4","last_reported":1745071684,"current_range_meters":3600,"station_id":"ce4bhf92rcd13ifvqf40","pricing_plan_id":"cebpf4jnsgd1na2vs0mg"},{"bike_id":"c66bf4ad-07c5-4a49-9d03-35e1d25797da","system_id":"levelo_inurba_marseille","lat":43.23963,"lon":5.36629,"is_reserved":false,"is_disabled":false,"rental_uris":{"android":"levelo://app?vid=c66bf4ad-07c5-4a49-9d03-35e1d25797da","ios":"levelo://app?vid=c66bf4ad-07c5-4a49-9d03-35e1d25797da"},"vehicle_type_id":"4","last_reported":1745071684,"current_range_meters":4000,"station_id":"ce4bhi12rcd13ifvqfp0","pricing_plan_id":"cebpf4jnsgd1na2vs0mg"},{"bike_id":"328b1346-ce05-4a89-9f8e-f553d20832ed","system_id":"levelo_inurba_marseille","lat":43.28484,"lon":5.38552,"is_reserved":false,"is_disabled":false,"rental_uris":{"android":"levelo://app?vid=328b1346-ce05-4a89-9f8e-f553d20832ed","ios":"levelo://app?vid=328b1346-ce05-4a89-9f8e-f553d20832ed"},"vehicle_type_id":"4","last_reported":1745071684,"current_range_meters":4000,"station_id":"ce4bh8p2rcd13ifvqeb0","pricing_plan_id":"cebpf4jnsgd1na2vs0mg"},{"bike_id":"abd70e71-c44f-4ef5-962a-28e629079420","system_id":"levelo_inurba_marseille","lat":43.26676,"lon":5.3825,"is_reserved":false,"is_disabled":false,"rental_uris":{"android":"levelo://app?vid=abd70e71-c44f-4ef5-962a-28e629079420","ios":"levelo://app?vid=abd70e71-c44f-4ef5-962a-28e629079420"},"vehicle_type_id":"4","last_reported":1745071684,"current_range_meters":4000,"station_id":"ce4bhg92rcd13ifvqf90","pricing_plan_id":"cebpf4jnsgd1na2vs0mg"},{"bike_id":"27b66f86-dd9e-4f34-9c37-67afcfe8bcfb","system_id":"levelo_inurba_marseille","lat":43.26552,"lon":5.37291,"is_reserved":false,"is_disabled":false,"rental_uris":{"android":"levelo://app?vid=27b66f86-dd9e-4f34-9c37-67afcfe8bcfb","ios":"levelo://app?vid=27b66f86-dd9e-4f34-9c37-67afcfe8bcfb"},"vehicle_type_id":"4","last_reported":1745071684,"current_range_meters":0,"station_id":"ce4bhg12rcd13ifvqf70","pricing_plan_id":"cebpf4jnsgd1na2vs0mg"},{"bike_id":"4a1cd61f-ef5f-417e-a8a5-41a5f503cb2a","system_id":"levelo_inurba_marseille","lat":43.30949,"lon":5.39029,"is_reserved":false,"is_disabled":false,"rental_uris":{"android":"levelo://app?vid=4a1cd61f-ef5f-417e-a8a5-41a5f503cb2a","ios":"levelo://app?vid=4a1cd61f-ef5f-417e-a8a5-41a5f503cb2a"},"vehicle_type_id":"4","last_reported":1745071684,"current_range_meters":4000,"station_id":"ce4bgup2rcd13ifvqco0","pricing_plan_id":"cebpf4jnsgd1na2vs0mg"},{"bike_id":"26399b66-bcbb-4d91-855c-43a0f3953ed3","system_id":"levelo_inurba_marseille","lat":43.28263,"lon":5.35068,"is_reserved":false,"is_disabled":false,"rental_uris":{"android":"levelo://app?vid=26399b66-bcbb-4d91-855c-43a0f3953ed3","ios":"levelo://app?vid=26399b66-bcbb-4d91-855c-43a0f3953ed3"},"vehicle_type_id":"4","last_reported":1745071684,"current_range_meters":4800,"station_id":"ce4bhbp2rcd13ifvqerg","pricing_plan_id":"cebpf4jnsgd1na2vs0mg"},{"bike_id":"656dc2b4-1e19-4b7e-8baa-8cc400c6cc5c","system_id":"levelo_inurba_marseille","lat":43.30146,"lon":5.38063,"is_reserved":false,"is_disabled":false,"rental_uris":{"android":"levelo://app?vid=656dc2b4-1e19-4b7e-8baa-8cc400c6cc5c","ios":"levelo://app?vid=656dc2b4-1e19-4b7e-8baa-8cc400c6cc5c"},"vehicle_type_id":"4","last_reported":1745071684,"current_range_meters":4400,"station_id":"ce4bgjp2rcd13ifvqbh0","pricing_plan_id":"cebpf4jnsgd1na2vs0mg"},{"bike_id":"e3143ce4-23c0-4c19-810b-2ac86d8a3f10","system_id":"levelo_inurba_marseille","lat":43.29418,"lon":5.3862,"is_reserved":false,"is_disabled":false,"rental_uris":{"android":"levelo://app?vid=e3143ce4-23c0-4c19-810b-2ac86d8a3f10","ios":"levelo://app?vid=e3143ce4-23c0-4c19-810b-2ac86d8a3f10"},"vehicle_type_id":"4","last_reported":1745071684,"current_range_meters":4800,"station_id":"ce4bh2h2rcd13ifvqdh0","pricing_plan_id":"cebpf4jnsgd1na2vs0mg"},{"bike_id":"e9e28378-90cb-4518-9505-a24a8648dd2e","system_id":"levelo_inurba_marseille","lat":43.21751,"lon":5.34599,"is_reserved":false,"is_disabled":false,"rental_uris":{"android":"levelo://app?vid=e9e28378-90cb-4518-9505-a24a8648dd2e","ios":"levelo://app?vid=e9e28378-90cb-4518-9505-a24a8648dd2e"},"vehicle_type_id":"4","last_reported":1745071684,"current_range_meters":4800,"station_id":"st_cvj6r9ubvosntc0bgbag","pricing_plan_id":"cebpf4jnsgd1na2vs0mg"},{"bike_id":"40cf7771-7bb3-48d5-838e-856dd72c19fd","system_id":"levelo_inurba_marseille","lat":43.2175,"lon":5.34602,"is_reserved":false,"is_disabled":false,"rental_uris":{"android":"levelo://app?vid=40cf7771-7bb3-48d5-838e-856dd72c19fd","ios":"levelo://app?vid=40cf7771-7bb3-48d5-838e-856dd72c19fd"},"vehicle_type_id":"4","last_reported":1745071684,"current_range_meters":4800,"station_id":"","pricing_plan_id":"cebpf4jnsgd1na2vs0mg"},{"bike_id":"b40cc585-c4c8-42ac-9a26-08c3637f96f5","system_id":"levelo_inurba_marseille","lat":43.28275,"lon":5.35069,"is_reserved":false,"is_disabled":false,"rental_uris":{"android":"levelo://app?vid=b40cc585-c4c8-42ac-9a26-08c3637f96f5","ios":"levelo://app?vid=b40cc585-c4c8-42ac-9a26-08c3637f96f5"},"vehicle_type_id":"4","last_reported":1745071684,"current_range_meters":5600,"station_id":"ce4bhbp2rcd13ifvqerg","pricing_plan_id":"cebpf4jnsgd1na2vs0mg"},{"bike_id":"6d5f705e-1f55-4d6d-9c43-5712e390cb49","system_id":"levelo_inurba_marseille","lat":43.28635,"lon":5.37442,"is_reserved":false,"is_disabled":false,"rental_uris":{"android":"levelo://app?vid=6d5f705e-1f55-4d6d-9c43-5712e390cb49","ios":"levelo://app?vid=6d5f705e-1f55-4d6d-9c43-5712e390cb49"},"vehicle_type_id":"4","last_reported":1745071684,"current_range_meters":5600,"station_id":"ce4bgpp2rcd13ifvqc3g","pricing_plan_id":"cebpf4jnsgd1na2vs0mg"},{"bike_id":"6987c513-b50c-45b1-80e3-356055d982d5","system_id":"levelo_inurba_marseille","lat":43.29928,"lon":5.37737,"is_reserved":false,"is_disabled":true,"rental_uris":{"android":"levelo://app?vid=6987c513-b50c-45b1-80e3-356055d982d5","ios":"levelo://app?vid=6987c513-b50c-45b1-80e3-356055d982d5"},"vehicle_type_id":"4","last_reported":1745071684,"current_range_meters":5600,"station_id":"","pricing_plan_id":"cebpf4jnsgd1na2vs0mg"},{"bike_id":"11b7f384-13b1-4483-b9a8-b00250ee2cd8","system_id":"levelo_inurba_marseille","lat":43.29478,"lon":5.40745,"is_reserved":false,"is_disabled":false,"rental_uris":{"android":"levelo://app?vid=11b7f384-13b1-4483-b9a8-b00250ee2cd8","ios":"levelo://app?vid=11b7f384-13b1-4483-b9a8-b00250ee2cd8"},"vehicle_type_id":"4","last_reported":1745071684,"current_range_meters":5600,"station_id":"","pricing_plan_id":"cebpf4jnsgd1na2vs0mg"},{"bike_id":"f80edf55-75b7-48f1-8770-a2827fd79913","system_id":"levelo_inurba_marseille","lat":43.28084,"lon":5.39664,"is_reserved":false,"is_disabled":false,"rental_uris":{"android":"levelo://app?vid=f80edf55-75b7-48f1-8770-a2827fd79913","ios":"levelo://app?vid=f80edf55-75b7-48f1-8770-a2827fd79913"},"vehicle_type_id":"4","last_reported":1745071684,"current_range_meters":5600,"station_id":"ce4bho12rcd13ifvqh2g","pricing_plan_id":"cebpf4jnsgd1na2vs0mg"},{"bike_id":"6f971be4-2fc1-489a-bd80-cd54223c1082","system_id":"levelo_inurba_marseille","lat":43.28269,"lon":5.35052,"is_reserved":false,"is_disabled":false,"rental_uris":{"android":"levelo://app?vid=6f971be4-2fc1-489a-bd80-cd54223c1082","ios":"levelo://app?vid=6f971be4-2fc1-489a-bd80-cd54223c1082"},"vehicle_type_id":"4","last_reported":1745071684,"current_range_meters":6000,"station_id":"ce4bhbp2rcd13ifvqerg","pricing_plan_id":"cebpf4jnsgd1na2vs0mg"},{"bike_id":"a968bc14-c848-422a-b8e8-61f50cb7032f","system_id":"levelo_inurba_marseille","lat":43.30823,"lon":5.43519,"is_reserved":false,"is_disabled":false,"rental_uris":{"android":"levelo://app?vid=a968bc14-c848-422a-b8e8-61f50cb7032f","ios":"levelo://app?vid=a968bc14-c848-422a-b8e8-61f50cb7032f"},"vehicle_type_id":"4","last_reported":1745071684,"current_range_meters":6000,"station_id":"ce4bhph2rcd13ifvqheg","pricing_plan_id":"cebpf4jnsgd1na2vs0mg"},{"bike_id":"a4ee9808-c56f-429a-bd9e-2837e81985cb","system_id":"levelo_inurba_marseille","lat":43.279855,"lon":5.416532,"is_reserved":false,"is_disabled":true,"rental_uris":{"android":"levelo://app?vid=a4ee9808-c56f-429a-bd9e-2837e81985cb","ios":"levelo://app?vid=a4ee9808-c56f-429a-bd9e-2837e81985cb"},"vehicle_type_id":"4","last_reported":1745071684,"current_range_meters":6400,"station_id":"ce4bho12rcd13ifvqh1g","pricing_plan_id":"cebpf4jnsgd1na2vs0mg"},{"bike_id":"1210dc72-37b8-49f7-b249-6faa54daba28","system_id":"levelo_inurba_marseille","lat":43.32339,"lon":5.36731,"is_reserved":false,"is_disabled":false,"rental_uris":{"android":"levelo://app?vid=1210dc72-37b8-49f7-b249-6faa54daba28","ios":"levelo://app?vid=1210dc72-37b8-49f7-b249-6faa54daba28"},"vehicle_type_id":"4","last_reported":1745071684,"current_range_meters":6400,"station_id":"ce4bhsh2rcd13ifvqi2g","pricing_plan_id":"cebpf4jnsgd1na2vs0mg"},{"bike_id":"79fa7258-b7c6-4a56-a062-4fecb59b2c69","system_id":"levelo_inurba_marseille","lat":43.28446,"lon":5.39204,"is_reserved":false,"is_disabled":false,"rental_uris":{"android":"levelo://app?vid=79fa7258-b7c6-4a56-a062-4fecb59b2c69","ios":"levelo://app?vid=79fa7258-b7c6-4a56-a062-4fecb59b2c69"},"vehicle_type_id":"4","last_reported":1745071684,"current_range_meters":6400,"station_id":"ce4bhoh2rcd13ifvqh5g","pricing_plan_id":"cebpf4jnsgd1na2vs0mg"},{"bike_id":"cb705af3-7ebe-4273-8ac8-8e5e33274c4a","system_id":"levelo_inurba_marseille","lat":43.22507,"lon":5.34778,"is_reserved":false,"is_disabled":false,"rental_uris":{"android":"levelo://app?vid=cb705af3-7ebe-4273-8ac8-8e5e33274c4a","ios":"levelo://app?vid=cb705af3-7ebe-4273-8ac8-8e5e33274c4a"},"vehicle_type_id":"4","last_reported":1745071684,"current_range_meters":6400,"station_id":"st_cvj5dfep6f1abm77gieg","pricing_plan_id":"cebpf4jnsgd1na2vs0mg"},{"bike_id":"6ef3f207-1f79-4602-8ea2-36166d873bef","system_id":"levelo_inurba_marseille","lat":43.29308,"lon":5.371734,"is_reserved":false,"is_disabled":false,"rental_uris":{"android":"levelo://app?vid=6ef3f207-1f79-4602-8ea2-36166d873bef","ios":"levelo://app?vid=6ef3f207-1f79-4602-8ea2-36166d873bef"},"vehicle_type_id":"4","last_reported":1745071684,"current_range_meters":6400,"station_id":"ce4bgh92rcd13ifvqb40","pricing_plan_id":"cebpf4jnsgd1na2vs0mg"},{"bike_id":"709c5515-4e73-41f4-a094-b1cb2d9405da","system_id":"levelo_inurba_marseille","lat":43.24169,"lon":5.36395,"is_reserved":false,"is_disabled":false,"rental_uris":{"android":"levelo://app?vid=709c5515-4e73-41f4-a094-b1cb2d9405da","ios":"levelo://app?vid=709c5515-4e73-41f4-a094-b1cb2d9405da"},"vehicle_type_id":"4","last_reported":1745071684,"current_range_meters":7200,"station_id":"cpo36qri1sfpv3e86is0","pricing_plan_id":"cebpf4jnsgd1na2vs0mg"},{"bike_id":"089f420e-b196-41d0-8eff-734d4f54ce65","system_id":"levelo_inurba_marseille","lat":43.28263,"lon":5.3506,"is_reserved":false,"is_disabled":false,"rental_uris":{"android":"levelo://app?vid=089f420e-b196-41d0-8eff-734d4f54ce65","ios":"levelo://app?vid=089f420e-b196-41d0-8eff-734d4f54ce65"},"vehicle_type_id":"4","last_reported":1745071684,"current_range_meters":6400,"station_id":"ce4bhbp2rcd13ifvqerg","pricing_plan_id":"cebpf4jnsgd1na2vs0mg"},{"bike_id":"10869e37-a61f-44fc-baad-eee85b6dccb7","system_id":"levelo_inurba_marseille","lat":43.29188,"lon":5.35792,"is_reserved":false,"is_disabled":false,"rental_uris":{"android":"levelo://app?vid=10869e37-a61f-44fc-baad-eee85b6dccb7","ios":"levelo://app?vid=10869e37-a61f-44fc-baad-eee85b6dccb7"},"vehicle_type_id":"4","last_reported":1745071684,"current_range_meters":6800,"station_id":"ce4bhb12rcd13ifvqel0","pricing_plan_id":"cebpf4jnsgd1na2vs0mg"},{"bike_id":"171c12f6-8c6d-47b0-b962-51749c89f39d","system_id":"levelo_inurba_marseille","lat":43.28275,"lon":5.35068,"is_reserved":false,"is_disabled":false,"rental_uris":{"android":"levelo://app?vid=171c12f6-8c6d-47b0-b962-51749c89f39d","ios":"levelo://app?vid=171c12f6-8c6d-47b0-b962-51749c89f39d"},"vehicle_type_id":"4","last_reported":1745071684,"current_range_meters":6800,"station_id":"ce4bhbp2rcd13ifvqerg","pricing_plan_id":"cebpf4jnsgd1na2vs0mg"},{"bike_id":"efe797ce-be92-4426-9194-e647619ec713","system_id":"levelo_inurba_marseille","lat":43.23149,"lon":5.43716,"is_reserved":false,"is_disabled":false,"rental_uris":{"android":"levelo://app?vid=efe797ce-be92-4426-9194-e647619ec713","ios":"levelo://app?vid=efe797ce-be92-4426-9194-e647619ec713"},"vehicle_type_id":"4","last_reported":1745071684,"current_range_meters":6800,"station_id":"ce4bhmp2rcd13ifvqgog","pricing_plan_id":"cebpf4jnsgd1na2vs0mg"},{"bike_id":"829e7013-bc30-45b8-b0f2-d1a0cdae9171","system_id":"levelo_inurba_marseille","lat":43.29309,"lon":5.3718,"is_reserved":false,"is_disabled":false,"rental_uris":{"android":"levelo://app?vid=829e7013-bc30-45b8-b0f2-d1a0cdae9171","ios":"levelo://app?vid=829e7013-bc30-45b8-b0f2-d1a0cdae9171"},"vehicle_type_id":"4","last_reported":1745071684,"current_range_meters":6800,"station_id":"ce4bgh92rcd13ifvqb40","pricing_plan_id":"cebpf4jnsgd1na2vs0mg"},{"bike_id":"bf3a0596-bc70-4afa-ac6c-3c8e00df2eff","system_id":"levelo_inurba_marseille","lat":43.28082,"lon":5.39655,"is_reserved":false,"is_disabled":false,"rental_uris":{"android":"levelo://app?vid=bf3a0596-bc70-4afa-ac6c-3c8e00df2eff","ios":"levelo://app?vid=bf3a0596-bc70-4afa-ac6c-3c8e00df2eff"},"vehicle_type_id":"4","last_reported":1745071684,"current_range_meters":6800,"station_id":"ce4bho12rcd13ifvqh2g","pricing_plan_id":"cebpf4jnsgd1na2vs0mg"},{"bike_id":"38d71541-39fa-44bc-b9fa-dad7cbdc7434","system_id":"levelo_inurba_marseille","lat":43.287516,"lon":5.386626,"is_reserved":false,"is_disabled":false,"rental_uris":{"android":"levelo://app?vid=38d71541-39fa-44bc-b9fa-dad7cbdc7434","ios":"levelo://app?vid=38d71541-39fa-44bc-b9fa-dad7cbdc7434"},"vehicle_type_id":"4","last_reported":1745071684,"current_range_meters":6800,"station_id":"","pricing_plan_id":"cebpf4jnsgd1na2vs0mg"},{"bike_id":"bcb90687-9670-45a4-895c-0e3b1c7f2f91","system_id":"levelo_inurba_marseille","lat":43.24806,"lon":5.37458,"is_reserved":false,"is_disabled":false,"rental_uris":{"android":"levelo://app?vid=bcb90687-9670-45a4-895c-0e3b1c7f2f91","ios":"levelo://app?vid=bcb90687-9670-45a4-895c-0e3b1c7f2f91"},"vehicle_type_id":"4","last_reported":1745071684,"current_range_meters":6400,"station_id":"ce4bhgh2rcd13ifvqfb0","pricing_plan_id":"cebpf4jnsgd1na2vs0mg"},{"bike_id":"57a51799-9dad-49d2-9af0-e67cad0c7bce","system_id":"levelo_inurba_marseille","lat":43.297926,"lon":5.394737,"is_reserved":false,"is_disabled":false,"rental_uris":{"android":"levelo://app?vid=57a51799-9dad-49d2-9af0-e67cad0c7bce","ios":"levelo://app?vid=57a51799-9dad-49d2-9af0-e67cad0c7bce"},"vehicle_type_id":"4","last_reported":1745071684,"current_range_meters":7200,"station_id":"chh1huq6cuj3fo74tm60","pricing_plan_id":"cebpf4jnsgd1na2vs0mg"},{"bike_id":"4465d14a-9a6f-4dae-8f4a-dea49e4cd78d","system_id":"levelo_inurba_marseille","lat":43.255842,"lon":5.382329,"is_reserved":false,"is_disabled":false,"rental_uris":{"android":"levelo://app?vid=4465d14a-9a6f-4dae-8f4a-dea49e4cd78d","ios":"levelo://app?vid=4465d14a-9a6f-4dae-8f4a-dea49e4cd78d"},"vehicle_type_id":"4","last_reported":1745071684,"current_range_meters":6800,"station_id":"ce4bhih2rcd13ifvqfs0","pricing_plan_id":"cebpf4jnsgd1na2vs0mg"},{"bike_id":"5261a01f-5187-4db9-bd65-c7d3137e6819","system_id":"levelo_inurba_marseille","lat":43.31271,"lon":5.40171,"is_reserved":false,"is_disabled":false,"rental_uris":{"android":"levelo://app?vid=5261a01f-5187-4db9-bd65-c7d3137e6819","ios":"levelo://app?vid=5261a01f-5187-4db9-bd65-c7d3137e6819"},"vehicle_type_id":"4","last_reported":1745071684,"current_range_meters":7200,"station_id":"ce4bh092rcd13ifvqd30","pricing_plan_id":"cebpf4jnsgd1na2vs0mg"},{"bike_id":"d755de93-ece1-4920-93b6-fb47bf95621e","system_id":"levelo_inurba_marseille","lat":43.23962,"lon":5.36637,"is_reserved":false,"is_disabled":false,"rental_uris":{"android":"levelo://app?vid=d755de93-ece1-4920-93b6-fb47bf95621e","ios":"levelo://app?vid=d755de93-ece1-4920-93b6-fb47bf95621e"},"vehicle_type_id":"4","last_reported":1745071684,"current_range_meters":7200,"station_id":"ce4bhi12rcd13ifvqfp0","pricing_plan_id":"cebpf4jnsgd1na2vs0mg"},{"bike_id":"eb789697-8952-47b7-a2df-d37b78a3ee47","system_id":"levelo_inurba_marseille","lat":43.26551,"lon":5.37287,"is_reserved":false,"is_disabled":false,"rental_uris":{"android":"levelo://app?vid=eb789697-8952-47b7-a2df-d37b78a3ee47","ios":"levelo://app?vid=eb789697-8952-47b7-a2df-d37b78a3ee47"},"vehicle_type_id":"4","last_reported":1745071684,"current_range_meters":8000,"station_id":"ce4bhg12rcd13ifvqf70","pricing_plan_id":"cebpf4jnsgd1na2vs0mg"},{"bike_id":"276d94a9-b91a-47b5-b4e8-19ed1fdcca68","system_id":"levelo_inurba_marseille","lat":43.29531,"lon":5.42308,"is_reserved":false,"is_disabled":true,"rental_uris":{"android":"levelo://app?vid=276d94a9-b91a-47b5-b4e8-19ed1fdcca68","ios":"levelo://app?vid=276d94a9-b91a-47b5-b4e8-19ed1fdcca68"},"vehicle_type_id":"4","last_reported":1745071684,"current_range_meters":8000,"station_id":"ce4bhph2rcd13ifvqhdg","pricing_plan_id":"cebpf4jnsgd1na2vs0mg"},{"bike_id":"79724042-5b9b-43a6-be55-68565c2ed47f","system_id":"levelo_inurba_marseille","lat":43.28573,"lon":5.39496,"is_reserved":false,"is_disabled":false,"rental_uris":{"android":"levelo://app?vid=79724042-5b9b-43a6-be55-68565c2ed47f","ios":"levelo://app?vid=79724042-5b9b-43a6-be55-68565c2ed47f"},"vehicle_type_id":"4","last_reported":1745071684,"current_range_meters":8000,"station_id":"ce4bh292rcd13ifvqdg0","pricing_plan_id":"cebpf4jnsgd1na2vs0mg"},{"bike_id":"0c6b3879-4bc0-4e68-b741-17d0133938ba","system_id":"levelo_inurba_marseille","lat":43.28479,"lon":5.38406,"is_reserved":false,"is_disabled":false,"rental_uris":{"android":"levelo://app?vid=0c6b3879-4bc0-4e68-b741-17d0133938ba","ios":"levelo://app?vid=0c6b3879-4bc0-4e68-b741-17d0133938ba"},"vehicle_type_id":"4","last_reported":1745071684,"current_range_meters":8000,"station_id":"ce4bh512rcd13ifvqe3g","pricing_plan_id":"cebpf4jnsgd1na2vs0mg"},{"bike_id":"f2465f7a-0a18-4d57-8cc9-6fced5dc64d5","system_id":"levelo_inurba_marseille","lat":43.29895,"lon":5.38151,"is_reserved":false,"is_disabled":false,"rental_uris":{"android":"levelo://app?vid=f2465f7a-0a18-4d57-8cc9-6fced5dc64d5","ios":"levelo://app?vid=f2465f7a-0a18-4d57-8cc9-6fced5dc64d5"},"vehicle_type_id":"4","last_reported":1745071684,"current_range_meters":8000,"station_id":"ce4bgj12rcd13ifvqbc0","pricing_plan_id":"cebpf4jnsgd1na2vs0mg"},{"bike_id":"5205b702-961c-48d9-848c-eb16e809fe31","system_id":"levelo_inurba_marseille","lat":43.25499,"lon":5.37649,"is_reserved":false,"is_disabled":false,"rental_uris":{"android":"levelo://app?vid=5205b702-961c-48d9-848c-eb16e809fe31","ios":"levelo://app?vid=5205b702-961c-48d9-848c-eb16e809fe31"},"vehicle_type_id":"4","last_reported":1745071684,"current_range_meters":8000,"station_id":"ce4bhh12rcd13ifvqff0","pricing_plan_id":"cebpf4jnsgd1na2vs0mg"},{"bike_id":"ee2c42d9-062e-486d-94e5-a8bebc2f1c3b","system_id":"levelo_inurba_marseille","lat":43.25193,"lon":5.37581,"is_reserved":false,"is_disabled":true,"rental_uris":{"android":"levelo://app?vid=ee2c42d9-062e-486d-94e5-a8bebc2f1c3b","ios":"levelo://app?vid=ee2c42d9-062e-486d-94e5-a8bebc2f1c3b"},"vehicle_type_id":"4","last_reported":1745071684,"current_range_meters":8000,"station_id":"","pricing_plan_id":"cebpf4jnsgd1na2vs0mg"},{"bike_id":"c4505305-29ff-4bc9-84b8-0561d90ac34d","system_id":"levelo_inurba_marseille","lat":43.24388,"lon":5.37063,"is_reserved":false,"is_disabled":false,"rental_uris":{"android":"levelo://app?vid=c4505305-29ff-4bc9-84b8-0561d90ac34d","ios":"levelo://app?vid=c4505305-29ff-4bc9-84b8-0561d90ac34d"},"vehicle_type_id":"4","last_reported":1745071684,"current_range_meters":8000,"station_id":"ce4bhhh2rcd13ifvqfk0","pricing_plan_id":"cebpf4jnsgd1na2vs0mg"},{"bike_id":"3abcd8a1-bc4b-4780-96f7-c41259227a65","system_id":"levelo_inurba_marseille","lat":43.29917,"lon":5.38438,"is_reserved":false,"is_disabled":false,"rental_uris":{"android":"levelo://app?vid=3abcd8a1-bc4b-4780-96f7-c41259227a65","ios":"levelo://app?vid=3abcd8a1-bc4b-4780-96f7-c41259227a65"},"vehicle_type_id":"4","last_reported":1745071684,"current_range_meters":8400,"station_id":"","pricing_plan_id":"cebpf4jnsgd1na2vs0mg"},{"bike_id":"c42c97dc-851b-476d-ba23-67d0582febc0","system_id":"levelo_inurba_marseille","lat":43.30318,"lon":5.404375,"is_reserved":false,"is_disabled":true,"rental_uris":{"android":"levelo://app?vid=c42c97dc-851b-476d-ba23-67d0582febc0","ios":"levelo://app?vid=c42c97dc-851b-476d-ba23-67d0582febc0"},"vehicle_type_id":"4","last_reported":1745071684,"current_range_meters":8400,"station_id":"ce4bh012rcd13ifvqd10","pricing_plan_id":"cebpf4jnsgd1na2vs0mg"},{"bike_id":"4a86d0f8-ff65-4446-9521-1002867a3da0","system_id":"levelo_inurba_marseille","lat":43.24556,"lon":5.39515,"is_reserved":false,"is_disabled":true,"rental_uris":{"android":"levelo://app?vid=4a86d0f8-ff65-4446-9521-1002867a3da0","ios":"levelo://app?vid=4a86d0f8-ff65-4446-9521-1002867a3da0"},"vehicle_type_id":"4","last_reported":1745071684,"current_range_meters":8400,"station_id":"ce4bhlp2rcd13ifvqgjg","pricing_plan_id":"cebpf4jnsgd1na2vs0mg"},{"bike_id":"123f3ba5-4cc8-4f64-aa99-844ff6581e68","system_id":"levelo_inurba_marseille","lat":43.265607,"lon":5.372933,"is_reserved":false,"is_disabled":false,"rental_uris":{"android":"levelo://app?vid=123f3ba5-4cc8-4f64-aa99-844ff6581e68","ios":"levelo://app?vid=123f3ba5-4cc8-4f64-aa99-844ff6581e68"},"vehicle_type_id":"4","last_reported":1745071684,"current_range_meters":8400,"station_id":"ce4bhg12rcd13ifvqf70","pricing_plan_id":"cebpf4jnsgd1na2vs0mg"},{"bike_id":"934a8fc0-98f8-4aaf-a145-d485dee937c7","system_id":"levelo_inurba_marseille","lat":43.32361,"lon":5.36747,"is_reserved":false,"is_disabled":false,"rental_uris":{"android":"levelo://app?vid=934a8fc0-98f8-4aaf-a145-d485dee937c7","ios":"levelo://app?vid=934a8fc0-98f8-4aaf-a145-d485dee937c7"},"vehicle_type_id":"4","last_reported":1745071684,"current_range_meters":8400,"station_id":"ce4bhsh2rcd13ifvqi2g","pricing_plan_id":"cebpf4jnsgd1na2vs0mg"},{"bike_id":"a0ddb0a5-f7f0-4281-aa27-9e82747cc573","system_id":"levelo_inurba_marseille","lat":43.33754,"lon":5.37491,"is_reserved":false,"is_disabled":false,"rental_uris":{"android":"levelo://app?vid=a0ddb0a5-f7f0-4281-aa27-9e82747cc573","ios":"levelo://app?vid=a0ddb0a5-f7f0-4281-aa27-9e82747cc573"},"vehicle_type_id":"4","last_reported":1745071684,"current_range_meters":8400,"station_id":"","pricing_plan_id":"cebpf4jnsgd1na2vs0mg"},{"bike_id":"3db9b740-1927-4290-9244-5c92e45d7491","system_id":"levelo_inurba_marseille","lat":43.2587,"lon":5.39893,"is_reserved":false,"is_disabled":false,"rental_uris":{"android":"levelo://app?vid=3db9b740-1927-4290-9244-5c92e45d7491","ios":"levelo://app?vid=3db9b740-1927-4290-9244-5c92e45d7491"},"vehicle_type_id":"4","last_reported":1745071684,"current_range_meters":8400,"station_id":"ce4bhl92rcd13ifvqghg","pricing_plan_id":"cebpf4jnsgd1na2vs0mg"},{"bike_id":"d42c650f-a34c-43a5-beb8-ac44e3648a73","system_id":"levelo_inurba_marseille","lat":43.28262,"lon":5.35062,"is_reserved":false,"is_disabled":false,"rental_uris":{"android":"levelo://app?vid=d42c650f-a34c-43a5-beb8-ac44e3648a73","ios":"levelo://app?vid=d42c650f-a34c-43a5-beb8-ac44e3648a73"},"vehicle_type_id":"4","last_reported":1745071684,"current_range_meters":8800,"station_id":"ce4bhbp2rcd13ifvqerg","pricing_plan_id":"cebpf4jnsgd1na2vs0mg"},{"bike_id":"9d285230-b331-4e22-b82a-7a5eda448967","system_id":"levelo_inurba_marseille","lat":43.28262,"lon":5.35075,"is_reserved":false,"is_disabled":false,"rental_uris":{"android":"levelo://app?vid=9d285230-b331-4e22-b82a-7a5eda448967","ios":"levelo://app?vid=9d285230-b331-4e22-b82a-7a5eda448967"},"vehicle_type_id":"4","last_reported":1745071684,"current_range_meters":9200,"station_id":"ce4bhbp2rcd13ifvqerg","pricing_plan_id":"cebpf4jnsgd1na2vs0mg"},{"bike_id":"586adcbc-0a8d-463e-be56-fab8434f4d46","system_id":"levelo_inurba_marseille","lat":43.28274,"lon":5.35082,"is_reserved":false,"is_disabled":false,"rental_uris":{"android":"levelo://app?vid=586adcbc-0a8d-463e-be56-fab8434f4d46","ios":"levelo://app?vid=586adcbc-0a8d-463e-be56-fab8434f4d46"},"vehicle_type_id":"4","last_reported":1745071684,"current_range_meters":9200,"station_id":"ce4bhbp2rcd13ifvqerg","pricing_plan_id":"cebpf4jnsgd1na2vs0mg"},{"bike_id":"9090850f-57ac-408d-85a0-317ceea7fb3a","system_id":"levelo_inurba_marseille","lat":43.26934,"lon":5.40255,"is_reserved":false,"is_disabled":false,"rental_uris":{"android":"levelo://app?vid=9090850f-57ac-408d-85a0-317ceea7fb3a","ios":"levelo://app?vid=9090850f-57ac-408d-85a0-317ceea7fb3a"},"vehicle_type_id":"4","last_reported":1745071684,"current_range_meters":8800,"station_id":"cjm6bp8fraef2m0cb0m0","pricing_plan_id":"cebpf4jnsgd1na2vs0mg"},{"bike_id":"fc442d84-3d89-4c7d-bb42-734099f1ede1","system_id":"levelo_inurba_marseille","lat":43.292667,"lon":5.36845,"is_reserved":false,"is_disabled":false,"rental_uris":{"android":"levelo://app?vid=fc442d84-3d89-4c7d-bb42-734099f1ede1","ios":"levelo://app?vid=fc442d84-3d89-4c7d-bb42-734099f1ede1"},"vehicle_type_id":"4","last_reported":1745071684,"current_range_meters":9200,"station_id":"ce4bhbp2rcd13ifvqesg","pricing_plan_id":"cebpf4jnsgd1na2vs0mg"},{"bike_id":"89c4dc8b-e8ce-4086-987e-7dfcba04ca8e","system_id":"levelo_inurba_marseille","lat":43.29287,"lon":5.40121,"is_reserved":false,"is_disabled":false,"rental_uris":{"android":"levelo://app?vid=89c4dc8b-e8ce-4086-987e-7dfcba04ca8e","ios":"levelo://app?vid=89c4dc8b-e8ce-4086-987e-7dfcba04ca8e"},"vehicle_type_id":"4","last_reported":1745071684,"current_range_meters":9200,"station_id":"ce4bh312rcd13ifvqdk0","pricing_plan_id":"cebpf4jnsgd1na2vs0mg"},{"bike_id":"47f61380-525c-4579-bd6a-f53078658c39","system_id":"levelo_inurba_marseille","lat":43.26561,"lon":5.37287,"is_reserved":false,"is_disabled":false,"rental_uris":{"android":"levelo://app?vid=47f61380-525c-4579-bd6a-f53078658c39","ios":"levelo://app?vid=47f61380-525c-4579-bd6a-f53078658c39"},"vehicle_type_id":"4","last_reported":1745071684,"current_range_meters":9600,"station_id":"ce4bhg12rcd13ifvqf70","pricing_plan_id":"cebpf4jnsgd1na2vs0mg"},{"bike_id":"16a6b95c-30cc-441a-9df3-a5d2dbb9d03e","system_id":"levelo_inurba_marseille","lat":43.29003,"lon":5.35594,"is_reserved":false,"is_disabled":false,"rental_uris":{"android":"levelo://app?vid=16a6b95c-30cc-441a-9df3-a5d2dbb9d03e","ios":"levelo://app?vid=16a6b95c-30cc-441a-9df3-a5d2dbb9d03e"},"vehicle_type_id":"4","last_reported":1745071684,"current_range_meters":9600,"station_id":"ce4bhb92rcd13ifvqen0","pricing_plan_id":"cebpf4jnsgd1na2vs0mg"},{"bike_id":"f6ba2129-4c99-433a-9ce5-8a3893340f52","system_id":"levelo_inurba_marseille","lat":43.24166,"lon":5.36394,"is_reserved":false,"is_disabled":false,"rental_uris":{"android":"levelo://app?vid=f6ba2129-4c99-433a-9ce5-8a3893340f52","ios":"levelo://app?vid=f6ba2129-4c99-433a-9ce5-8a3893340f52"},"vehicle_type_id":"4","last_reported":1745071684,"current_range_meters":9600,"station_id":"cpo36qri1sfpv3e86is0","pricing_plan_id":"cebpf4jnsgd1na2vs0mg"},{"bike_id":"b1cc1d2f-0c0e-47ef-b716-1310e9b309e9","system_id":"levelo_inurba_marseille","lat":43.25578,"lon":5.38238,"is_reserved":false,"is_disabled":false,"rental_uris":{"android":"levelo://app?vid=b1cc1d2f-0c0e-47ef-b716-1310e9b309e9","ios":"levelo://app?vid=b1cc1d2f-0c0e-47ef-b716-1310e9b309e9"},"vehicle_type_id":"4","last_reported":1745071684,"current_range_meters":9600,"station_id":"ce4bhih2rcd13ifvqfs0","pricing_plan_id":"cebpf4jnsgd1na2vs0mg"},{"bike_id":"01ddb5f9-2b12-4368-888e-972885b3c9b4","system_id":"levelo_inurba_marseille","lat":43.29042,"lon":5.35902,"is_reserved":false,"is_disabled":false,"rental_uris":{"android":"levelo://app?vid=01ddb5f9-2b12-4368-888e-972885b3c9b4","ios":"levelo://app?vid=01ddb5f9-2b12-4368-888e-972885b3c9b4"},"vehicle_type_id":"4","last_reported":1745071684,"current_range_meters":9600,"station_id":"ce4bha92rcd13ifvqeg0","pricing_plan_id":"cebpf4jnsgd1na2vs0mg"},{"bike_id":"e58da878-5114-4119-8bbf-76cf0eee35d7","system_id":"levelo_inurba_marseille","lat":43.29283,"lon":5.40125,"is_reserved":false,"is_disabled":false,"rental_uris":{"android":"levelo://app?vid=e58da878-5114-4119-8bbf-76cf0eee35d7","ios":"levelo://app?vid=e58da878-5114-4119-8bbf-76cf0eee35d7"},"vehicle_type_id":"4","last_reported":1745071684,"current_range_meters":9200,"station_id":"ce4bh312rcd13ifvqdk0","pricing_plan_id":"cebpf4jnsgd1na2vs0mg"},{"bike_id":"637019d0-15e8-4b31-8f08-cd66dd8ac82b","system_id":"levelo_inurba_marseille","lat":43.31274,"lon":5.40158,"is_reserved":false,"is_disabled":false,"rental_uris":{"android":"levelo://app?vid=637019d0-15e8-4b31-8f08-cd66dd8ac82b","ios":"levelo://app?vid=637019d0-15e8-4b31-8f08-cd66dd8ac82b"},"vehicle_type_id":"4","last_reported":1745071684,"current_range_meters":9600,"station_id":"ce4bh092rcd13ifvqd30","pricing_plan_id":"cebpf4jnsgd1na2vs0mg"},{"bike_id":"d4c0c169-afc3-48a7-a1cc-e6e57b3f78a2","system_id":"levelo_inurba_marseille","lat":43.28694,"lon":5.38667,"is_reserved":false,"is_disabled":false,"rental_uris":{"android":"levelo://app?vid=d4c0c169-afc3-48a7-a1cc-e6e57b3f78a2","ios":"levelo://app?vid=d4c0c169-afc3-48a7-a1cc-e6e57b3f78a2"},"vehicle_type_id":"4","last_reported":1745071684,"current_range_meters":9600,"station_id":"ce4bh492rcd13ifvqdug","pricing_plan_id":"cebpf4jnsgd1na2vs0mg"},{"bike_id":"f6167cba-1c2f-4ded-ba79-b2d70fdda07f","system_id":"levelo_inurba_marseille","lat":43.2827,"lon":5.35064,"is_reserved":false,"is_disabled":false,"rental_uris":{"android":"levelo://app?vid=f6167cba-1c2f-4ded-ba79-b2d70fdda07f","ios":"levelo://app?vid=f6167cba-1c2f-4ded-ba79-b2d70fdda07f"},"vehicle_type_id":"4","last_reported":1745071684,"current_range_meters":10000,"station_id":"ce4bhbp2rcd13ifvqerg","pricing_plan_id":"cebpf4jnsgd1na2vs0mg"},{"bike_id":"37e774e2-ab0c-4955-867d-f3e8cc3b1e4e","system_id":"levelo_inurba_marseille","lat":43.28275,"lon":5.35069,"is_reserved":false,"is_disabled":false,"rental_uris":{"android":"levelo://app?vid=37e774e2-ab0c-4955-867d-f3e8cc3b1e4e","ios":"levelo://app?vid=37e774e2-ab0c-4955-867d-f3e8cc3b1e4e"},"vehicle_type_id":"4","last_reported":1745071684,"current_range_meters":10000,"station_id":"ce4bhbp2rcd13ifvqerg","pricing_plan_id":"cebpf4jnsgd1na2vs0mg"},{"bike_id":"1eaca8f5-0017-418a-9bfc-52185bf67513","system_id":"levelo_inurba_marseille","lat":43.33732,"lon":5.39183,"is_reserved":false,"is_disabled":false,"rental_uris":{"android":"levelo://app?vid=1eaca8f5-0017-418a-9bfc-52185bf67513","ios":"levelo://app?vid=1eaca8f5-0017-418a-9bfc-52185bf67513"},"vehicle_type_id":"4","last_reported":1745071684,"current_range_meters":10000,"station_id":"ce4bhr92rcd13ifvqhsg","pricing_plan_id":"cebpf4jnsgd1na2vs0mg"},{"bike_id":"4e4a61ac-e03c-47e8-b40a-334ea1322be5","system_id":"levelo_inurba_marseille","lat":43.232,"lon":5.35553,"is_reserved":false,"is_disabled":false,"rental_uris":{"android":"levelo://app?vid=4e4a61ac-e03c-47e8-b40a-334ea1322be5","ios":"levelo://app?vid=4e4a61ac-e03c-47e8-b40a-334ea1322be5"},"vehicle_type_id":"4","last_reported":1745071684,"current_range_meters":10000,"station_id":"ce4bhu92rcd13ifvqi70","pricing_plan_id":"cebpf4jnsgd1na2vs0mg"},{"bike_id":"186380b9-3dab-457b-b648-71d123fa0368","system_id":"levelo_inurba_marseille","lat":43.25108,"lon":5.4031,"is_reserved":false,"is_disabled":true,"rental_uris":{"android":"levelo://app?vid=186380b9-3dab-457b-b648-71d123fa0368","ios":"levelo://app?vid=186380b9-3dab-457b-b648-71d123fa0368"},"vehicle_type_id":"4","last_reported":1745071684,"current_range_meters":10000,"station_id":"ce4bhlh2rcd13ifvqgig","pricing_plan_id":"cebpf4jnsgd1na2vs0mg"},{"bike_id":"41f35bd2-4ec1-4a1a-95ad-9c39cdab0b4f","system_id":"levelo_inurba_marseille","lat":43.24389,"lon":5.37052,"is_reserved":false,"is_disabled":false,"rental_uris":{"android":"levelo://app?vid=41f35bd2-4ec1-4a1a-95ad-9c39cdab0b4f","ios":"levelo://app?vid=41f35bd2-4ec1-4a1a-95ad-9c39cdab0b4f"},"vehicle_type_id":"4","last_reported":1745071684,"current_range_meters":9600,"station_id":"ce4bhhh2rcd13ifvqfk0","pricing_plan_id":"cebpf4jnsgd1na2vs0mg"},{"bike_id":"48d5820c-150c-46ab-a52a-a354e81bdcb1","system_id":"levelo_inurba_marseille","lat":43.29839,"lon":5.36272,"is_reserved":false,"is_disabled":false,"rental_uris":{"android":"levelo://app?vid=48d5820c-150c-46ab-a52a-a354e81bdcb1","ios":"levelo://app?vid=48d5820c-150c-46ab-a52a-a354e81bdcb1"},"vehicle_type_id":"4","last_reported":1745071684,"current_range_meters":10800,"station_id":"ce4bgpp2rcd13ifvqc3g","pricing_plan_id":"cebpf4jnsgd1na2vs0mg"},{"bike_id":"9a87b055-8d68-4ecd-a03e-737b89ae853e","system_id":"levelo_inurba_marseille","lat":43.27948,"lon":5.41054,"is_reserved":false,"is_disabled":false,"rental_uris":{"android":"levelo://app?vid=9a87b055-8d68-4ecd-a03e-737b89ae853e","ios":"levelo://app?vid=9a87b055-8d68-4ecd-a03e-737b89ae853e"},"vehicle_type_id":"4","last_reported":1745071684,"current_range_meters":10800,"station_id":"ce4bhnp2rcd13ifvqh0g","pricing_plan_id":"cebpf4jnsgd1na2vs0mg"},{"bike_id":"bd252512-7aef-49a5-b319-c1c41d41e1eb","system_id":"levelo_inurba_marseille","lat":43.27502,"lon":5.42451,"is_reserved":false,"is_disabled":false,"rental_uris":{"android":"levelo://app?vid=bd252512-7aef-49a5-b319-c1c41d41e1eb","ios":"levelo://app?vid=bd252512-7aef-49a5-b319-c1c41d41e1eb"},"vehicle_type_id":"4","last_reported":1745071684,"current_range_meters":10800,"station_id":"ce4bhn92rcd13ifvqgrg","pricing_plan_id":"cebpf4jnsgd1na2vs0mg"},{"bike_id":"7eb8853e-3665-40f5-8308-1299f0674652","system_id":"levelo_inurba_marseille","lat":43.30375,"lon":5.42479,"is_reserved":false,"is_disabled":false,"rental_uris":{"android":"levelo://app?vid=7eb8853e-3665-40f5-8308-1299f0674652","ios":"levelo://app?vid=7eb8853e-3665-40f5-8308-1299f0674652"},"vehicle_type_id":"4","last_reported":1745071684,"current_range_meters":10800,"station_id":"ce4bhoh2rcd13ifvqh6g","pricing_plan_id":"cebpf4jnsgd1na2vs0mg"},{"bike_id":"22583896-a653-48d4-8b37-6cfca0e7be93","system_id":"levelo_inurba_marseille","lat":43.21188,"lon":5.35066,"is_reserved":false,"is_disabled":false,"rental_uris":{"android":"levelo://app?vid=22583896-a653-48d4-8b37-6cfca0e7be93","ios":"levelo://app?vid=22583896-a653-48d4-8b37-6cfca0e7be93"},"vehicle_type_id":"4","last_reported":1745071684,"current_range_meters":10800,"station_id":"st_cvj6sg6p6f1abm77japg","pricing_plan_id":"cebpf4jnsgd1na2vs0mg"},{"bike_id":"106c5265-7c1a-45be-9031-3c55f8880986","system_id":"levelo_inurba_marseille","lat":43.262,"lon":5.37932,"is_reserved":false,"is_disabled":false,"rental_uris":{"android":"levelo://app?vid=106c5265-7c1a-45be-9031-3c55f8880986","ios":"levelo://app?vid=106c5265-7c1a-45be-9031-3c55f8880986"},"vehicle_type_id":"4","last_reported":1745071684,"current_range_meters":11200,"station_id":"ce4bhjp2rcd13ifvqg90","pricing_plan_id":"cebpf4jnsgd1na2vs0mg"},{"bike_id":"f9472f75-64d6-43e4-9f8c-7d24b9f6fc0c","system_id":"levelo_inurba_marseille","lat":43.29294,"lon":5.37453,"is_reserved":false,"is_disabled":false,"rental_uris":{"android":"levelo://app?vid=f9472f75-64d6-43e4-9f8c-7d24b9f6fc0c","ios":"levelo://app?vid=f9472f75-64d6-43e4-9f8c-7d24b9f6fc0c"},"vehicle_type_id":"4","last_reported":1745071684,"current_range_meters":11200,"station_id":"ce4bgi12rcd13ifvqb70","pricing_plan_id":"cebpf4jnsgd1na2vs0mg"},{"bike_id":"b9068075-f68c-4ca0-a0e7-e526aaf4122f","system_id":"levelo_inurba_marseille","lat":43.28418,"lon":5.34996,"is_reserved":false,"is_disabled":false,"rental_uris":{"android":"levelo://app?vid=b9068075-f68c-4ca0-a0e7-e526aaf4122f","ios":"levelo://app?vid=b9068075-f68c-4ca0-a0e7-e526aaf4122f"},"vehicle_type_id":"4","last_reported":1745071684,"current_range_meters":11200,"station_id":"ce4bhbh2rcd13ifvqepg","pricing_plan_id":"cebpf4jnsgd1na2vs0mg"},{"bike_id":"80e834f4-68df-4cb0-ba0a-eefd56c7d2b7","system_id":"levelo_inurba_marseille","lat":43.29192,"lon":5.39319,"is_reserved":false,"is_disabled":false,"rental_uris":{"android":"levelo://app?vid=80e834f4-68df-4cb0-ba0a-eefd56c7d2b7","ios":"levelo://app?vid=80e834f4-68df-4cb0-ba0a-eefd56c7d2b7"},"vehicle_type_id":"4","last_reported":1745071684,"current_range_meters":11200,"station_id":"ce4bh192rcd13ifvqdd0","pricing_plan_id":"cebpf4jnsgd1na2vs0mg"},{"bike_id":"9d16d8c5-b457-495d-8f97-da1d0b3aae4a","system_id":"levelo_inurba_marseille","lat":43.28981,"lon":5.37836,"is_reserved":false,"is_disabled":false,"rental_uris":{"android":"levelo://app?vid=9d16d8c5-b457-495d-8f97-da1d0b3aae4a","ios":"levelo://app?vid=9d16d8c5-b457-495d-8f97-da1d0b3aae4a"},"vehicle_type_id":"4","last_reported":1745071684,"current_range_meters":11200,"station_id":"ce4bh9p2rcd13ifvqed0","pricing_plan_id":"cebpf4jnsgd1na2vs0mg"},{"bike_id":"5ad8dd6b-ee8a-4f3f-924e-6d10a631b0b3","system_id":"levelo_inurba_marseille","lat":43.26196,"lon":5.37915,"is_reserved":false,"is_disabled":true,"rental_uris":{"android":"levelo://app?vid=5ad8dd6b-ee8a-4f3f-924e-6d10a631b0b3","ios":"levelo://app?vid=5ad8dd6b-ee8a-4f3f-924e-6d10a631b0b3"},"vehicle_type_id":"4","last_reported":1745071684,"current_range_meters":11200,"station_id":"ce4bhjp2rcd13ifvqg90","pricing_plan_id":"cebpf4jnsgd1na2vs0mg"},{"bike_id":"5e98033f-4a3c-4504-9e7a-2b1841640bd9","system_id":"levelo_inurba_marseille","lat":43.24389,"lon":5.3706,"is_reserved":false,"is_disabled":false,"rental_uris":{"android":"levelo://app?vid=5e98033f-4a3c-4504-9e7a-2b1841640bd9","ios":"levelo://app?vid=5e98033f-4a3c-4504-9e7a-2b1841640bd9"},"vehicle_type_id":"4","last_reported":1745071684,"current_range_meters":11200,"station_id":"ce4bhhh2rcd13ifvqfk0","pricing_plan_id":"cebpf4jnsgd1na2vs0mg"},{"bike_id":"95fb28f7-54b0-436a-ab29-7fbbaaab14dc","system_id":"levelo_inurba_marseille","lat":43.2603,"lon":5.37545,"is_reserved":false,"is_disabled":false,"rental_uris":{"android":"levelo://app?vid=95fb28f7-54b0-436a-ab29-7fbbaaab14dc","ios":"levelo://app?vid=95fb28f7-54b0-436a-ab29-7fbbaaab14dc"},"vehicle_type_id":"4","last_reported":1745071684,"current_range_meters":11600,"station_id":"ce4bhgh2rcd13ifvqfa0","pricing_plan_id":"cebpf4jnsgd1na2vs0mg"},{"bike_id":"d499e37a-e281-4ece-a706-904555c6ec4f","system_id":"levelo_inurba_marseille","lat":43.28272,"lon":5.35065,"is_reserved":false,"is_disabled":false,"rental_uris":{"android":"levelo://app?vid=d499e37a-e281-4ece-a706-904555c6ec4f","ios":"levelo://app?vid=d499e37a-e281-4ece-a706-904555c6ec4f"},"vehicle_type_id":"4","last_reported":1745071684,"current_range_meters":11600,"station_id":"ce4bhbp2rcd13ifvqerg","pricing_plan_id":"cebpf4jnsgd1na2vs0mg"},{"bike_id":"6b2a2f68-fd74-4a24-a495-23dd8d3467f4","system_id":"levelo_inurba_marseille","lat":43.21191,"lon":5.35068,"is_reserved":false,"is_disabled":false,"rental_uris":{"android":"levelo://app?vid=6b2a2f68-fd74-4a24-a495-23dd8d3467f4","ios":"levelo://app?vid=6b2a2f68-fd74-4a24-a495-23dd8d3467f4"},"vehicle_type_id":"4","last_reported":1745071684,"current_range_meters":11600,"station_id":"st_cvj6sg6p6f1abm77japg","pricing_plan_id":"cebpf4jnsgd1na2vs0mg"},{"bike_id":"904fb01d-7241-46ce-a67c-332bfceba3ad","system_id":"levelo_inurba_marseille","lat":43.28418,"lon":5.34994,"is_reserved":false,"is_disabled":false,"rental_uris":{"android":"levelo://app?vid=904fb01d-7241-46ce-a67c-332bfceba3ad","ios":"levelo://app?vid=904fb01d-7241-46ce-a67c-332bfceba3ad"},"vehicle_type_id":"4","last_reported":1745071684,"current_range_meters":11600,"station_id":"ce4bhbh2rcd13ifvqepg","pricing_plan_id":"cebpf4jnsgd1na2vs0mg"},{"bike_id":"7b81aeba-69a6-40a5-ae93-02fa5b2b8384","system_id":"levelo_inurba_marseille","lat":43.22497,"lon":5.34805,"is_reserved":false,"is_disabled":false,"rental_uris":{"android":"levelo://app?vid=7b81aeba-69a6-40a5-ae93-02fa5b2b8384","ios":"levelo://app?vid=7b81aeba-69a6-40a5-ae93-02fa5b2b8384"},"vehicle_type_id":"4","last_reported":1745071684,"current_range_meters":11600,"station_id":"st_cvj5dfep6f1abm77gieg","pricing_plan_id":"cebpf4jnsgd1na2vs0mg"},{"bike_id":"331271c6-feb7-4894-bc91-9ba64e80bfc9","system_id":"levelo_inurba_marseille","lat":43.260596,"lon":5.393992,"is_reserved":false,"is_disabled":false,"rental_uris":{"android":"levelo://app?vid=331271c6-feb7-4894-bc91-9ba64e80bfc9","ios":"levelo://app?vid=331271c6-feb7-4894-bc91-9ba64e80bfc9"},"vehicle_type_id":"4","last_reported":1745071684,"current_range_meters":11600,"station_id":"ce4bhh92rcd13ifvqfj0","pricing_plan_id":"cebpf4jnsgd1na2vs0mg"},{"bike_id":"97e50bb0-9a70-481b-b370-e509345e710a","system_id":"levelo_inurba_marseille","lat":43.28025,"lon":5.36945,"is_reserved":false,"is_disabled":true,"rental_uris":{"android":"levelo://app?vid=97e50bb0-9a70-481b-b370-e509345e710a","ios":"levelo://app?vid=97e50bb0-9a70-481b-b370-e509345e710a"},"vehicle_type_id":"4","last_reported":1745071684,"current_range_meters":12000,"station_id":"ce4bha12rcd13ifvqef0","pricing_plan_id":"cebpf4jnsgd1na2vs0mg"},{"bike_id":"5c13ad76-fdc1-474c-9484-7eb38d196ad9","system_id":"levelo_inurba_marseille","lat":43.29365,"lon":5.37847,"is_reserved":false,"is_disabled":false,"rental_uris":{"android":"levelo://app?vid=5c13ad76-fdc1-474c-9484-7eb38d196ad9","ios":"levelo://app?vid=5c13ad76-fdc1-474c-9484-7eb38d196ad9"},"vehicle_type_id":"4","last_reported":1745071684,"current_range_meters":11600,"station_id":"ce4bgjh2rcd13ifvqbf0","pricing_plan_id":"cebpf4jnsgd1na2vs0mg"},{"bike_id":"2016a332-7060-4bbc-90e1-5b2d07ed3092","system_id":"levelo_inurba_marseille","lat":43.33605,"lon":5.41034,"is_reserved":false,"is_disabled":false,"rental_uris":{"android":"levelo://app?vid=2016a332-7060-4bbc-90e1-5b2d07ed3092","ios":"levelo://app?vid=2016a332-7060-4bbc-90e1-5b2d07ed3092"},"vehicle_type_id":"4","last_reported":1745071684,"current_range_meters":12000,"station_id":"ce4bhqh2rcd13ifvqhmg","pricing_plan_id":"cebpf4jnsgd1na2vs0mg"},{"bike_id":"6c90b47c-6cba-48f9-be86-a44fa8530bd2","system_id":"levelo_inurba_marseille","lat":43.28154,"lon":5.42644,"is_reserved":false,"is_disabled":false,"rental_uris":{"android":"levelo://app?vid=6c90b47c-6cba-48f9-be86-a44fa8530bd2","ios":"levelo://app?vid=6c90b47c-6cba-48f9-be86-a44fa8530bd2"},"vehicle_type_id":"4","last_reported":1745071684,"current_range_meters":12000,"station_id":"ce4bhnh2rcd13ifvqgug","pricing_plan_id":"cebpf4jnsgd1na2vs0mg"},{"bike_id":"17c191dc-578d-4747-91ec-37dadd6c9456","system_id":"levelo_inurba_marseille","lat":43.21749,"lon":5.34603,"is_reserved":false,"is_disabled":false,"rental_uris":{"android":"levelo://app?vid=17c191dc-578d-4747-91ec-37dadd6c9456","ios":"levelo://app?vid=17c191dc-578d-4747-91ec-37dadd6c9456"},"vehicle_type_id":"4","last_reported":1745071684,"current_range_meters":12000,"station_id":"st_cvj6r9ubvosntc0bgbag","pricing_plan_id":"cebpf4jnsgd1na2vs0mg"},{"bike_id":"f0b6af0d-1cbf-47a3-af07-dab09fabbbf0","system_id":"levelo_inurba_marseille","lat":43.23183,"lon":5.35581,"is_reserved":false,"is_disabled":false,"rental_uris":{"android":"levelo://app?vid=f0b6af0d-1cbf-47a3-af07-dab09fabbbf0","ios":"levelo://app?vid=f0b6af0d-1cbf-47a3-af07-dab09fabbbf0"},"vehicle_type_id":"4","last_reported":1745071684,"current_range_meters":12000,"station_id":"ce4bhu92rcd13ifvqi70","pricing_plan_id":"cebpf4jnsgd1na2vs0mg"},{"bike_id":"63b15208-4774-4a56-a7c9-3dc047bf2bcc","system_id":"levelo_inurba_marseille","lat":43.29002,"lon":5.35603,"is_reserved":false,"is_disabled":false,"rental_uris":{"android":"levelo://app?vid=63b15208-4774-4a56-a7c9-3dc047bf2bcc","ios":"levelo://app?vid=63b15208-4774-4a56-a7c9-3dc047bf2bcc"},"vehicle_type_id":"4","last_reported":1745071684,"current_range_meters":12000,"station_id":"ce4bhb92rcd13ifvqen0","pricing_plan_id":"cebpf4jnsgd1na2vs0mg"},{"bike_id":"dd7e9041-8b85-45ce-8edf-4b2d9bdf9e4c","system_id":"levelo_inurba_marseille","lat":43.29614,"lon":5.37723,"is_reserved":false,"is_disabled":false,"rental_uris":{"android":"levelo://app?vid=dd7e9041-8b85-45ce-8edf-4b2d9bdf9e4c","ios":"levelo://app?vid=dd7e9041-8b85-45ce-8edf-4b2d9bdf9e4c"},"vehicle_type_id":"4","last_reported":1745071684,"current_range_meters":12400,"station_id":"ce4bgi92rcd13ifvqb90","pricing_plan_id":"cebpf4jnsgd1na2vs0mg"},{"bike_id":"eb165a7e-19fb-45af-b5a2-9bbf4dd37e21","system_id":"levelo_inurba_marseille","lat":43.23961,"lon":5.36628,"is_reserved":false,"is_disabled":false,"rental_uris":{"android":"levelo://app?vid=eb165a7e-19fb-45af-b5a2-9bbf4dd37e21","ios":"levelo://app?vid=eb165a7e-19fb-45af-b5a2-9bbf4dd37e21"},"vehicle_type_id":"4","last_reported":1745071684,"current_range_meters":12400,"station_id":"ce4bhi12rcd13ifvqfp0","pricing_plan_id":"cebpf4jnsgd1na2vs0mg"},{"bike_id":"7c6d1591-4a0b-47b5-a6d0-55585d4d6e47","system_id":"levelo_inurba_marseille","lat":43.23961,"lon":5.36633,"is_reserved":false,"is_disabled":false,"rental_uris":{"android":"levelo://app?vid=7c6d1591-4a0b-47b5-a6d0-55585d4d6e47","ios":"levelo://app?vid=7c6d1591-4a0b-47b5-a6d0-55585d4d6e47"},"vehicle_type_id":"4","last_reported":1745071684,"current_range_meters":12400,"station_id":"ce4bhi12rcd13ifvqfp0","pricing_plan_id":"cebpf4jnsgd1na2vs0mg"},{"bike_id":"f72baed3-5b2c-445d-932a-606875dcbfa0","system_id":"levelo_inurba_marseille","lat":43.26544,"lon":5.37294,"is_reserved":false,"is_disabled":false,"rental_uris":{"android":"levelo://app?vid=f72baed3-5b2c-445d-932a-606875dcbfa0","ios":"levelo://app?vid=f72baed3-5b2c-445d-932a-606875dcbfa0"},"vehicle_type_id":"4","last_reported":1745071684,"current_range_meters":12800,"station_id":"ce4bhg12rcd13ifvqf70","pricing_plan_id":"cebpf4jnsgd1na2vs0mg"},{"bike_id":"363311db-5446-485f-8b8e-04ec43efe11a","system_id":"levelo_inurba_marseille","lat":43.29936,"lon":5.36552,"is_reserved":false,"is_disabled":false,"rental_uris":{"android":"levelo://app?vid=363311db-5446-485f-8b8e-04ec43efe11a","ios":"levelo://app?vid=363311db-5446-485f-8b8e-04ec43efe11a"},"vehicle_type_id":"4","last_reported":1745071684,"current_range_meters":12800,"station_id":"ce4bgm92rcd13ifvqbr0","pricing_plan_id":"cebpf4jnsgd1na2vs0mg"},{"bike_id":"a33c040b-734d-4d76-b50b-f22a25133f13","system_id":"levelo_inurba_marseille","lat":43.29322,"lon":5.38229,"is_reserved":false,"is_disabled":false,"rental_uris":{"android":"levelo://app?vid=a33c040b-734d-4d76-b50b-f22a25133f13","ios":"levelo://app?vid=a33c040b-734d-4d76-b50b-f22a25133f13"},"vehicle_type_id":"4","last_reported":1745071684,"current_range_meters":12800,"station_id":"ce4bgjp2rcd13ifvqbh0","pricing_plan_id":"cebpf4jnsgd1na2vs0mg"},{"bike_id":"0c473c2c-5596-45cd-b4ec-e661c02e4979","system_id":"levelo_inurba_marseille","lat":43.22931,"lon":5.35373,"is_reserved":false,"is_disabled":false,"rental_uris":{"android":"levelo://app?vid=0c473c2c-5596-45cd-b4ec-e661c02e4979","ios":"levelo://app?vid=0c473c2c-5596-45cd-b4ec-e661c02e4979"},"vehicle_type_id":"4","last_reported":1745071684,"current_range_meters":12800,"station_id":"cpo3532slgdg3j2ikp40","pricing_plan_id":"cebpf4jnsgd1na2vs0mg"},{"bike_id":"8d3c8abe-1086-4154-bcc9-327208946505","system_id":"levelo_inurba_marseille","lat":43.25866,"lon":5.398953,"is_reserved":false,"is_disabled":false,"rental_uris":{"android":"levelo://app?vid=8d3c8abe-1086-4154-bcc9-327208946505","ios":"levelo://app?vid=8d3c8abe-1086-4154-bcc9-327208946505"},"vehicle_type_id":"4","last_reported":1745071684,"current_range_meters":12800,"station_id":"ce4bhl92rcd13ifvqghg","pricing_plan_id":"cebpf4jnsgd1na2vs0mg"},{"bike_id":"a827af81-901c-418e-9cc3-237c30e51e4b","system_id":"levelo_inurba_marseille","lat":43.23961,"lon":5.36641,"is_reserved":false,"is_disabled":false,"rental_uris":{"android":"levelo://app?vid=a827af81-901c-418e-9cc3-237c30e51e4b","ios":"levelo://app?vid=a827af81-901c-418e-9cc3-237c30e51e4b"},"vehicle_type_id":"4","last_reported":1745071684,"current_range_meters":13600,"station_id":"ce4bhi12rcd13ifvqfp0","pricing_plan_id":"cebpf4jnsgd1na2vs0mg"},{"bike_id":"3353c2ea-f622-4c8b-9a28-a897e15d4a2d","system_id":"levelo_inurba_marseille","lat":43.29305,"lon":5.37461,"is_reserved":false,"is_disabled":false,"rental_uris":{"android":"levelo://app?vid=3353c2ea-f622-4c8b-9a28-a897e15d4a2d","ios":"levelo://app?vid=3353c2ea-f622-4c8b-9a28-a897e15d4a2d"},"vehicle_type_id":"4","last_reported":1745071684,"current_range_meters":13600,"station_id":"ce4bgi12rcd13ifvqb70","pricing_plan_id":"cebpf4jnsgd1na2vs0mg"},{"bike_id":"c267c0ed-aee4-454e-8a0b-659397693eec","system_id":"levelo_inurba_marseille","lat":43.29187,"lon":5.35804,"is_reserved":false,"is_disabled":false,"rental_uris":{"android":"levelo://app?vid=c267c0ed-aee4-454e-8a0b-659397693eec","ios":"levelo://app?vid=c267c0ed-aee4-454e-8a0b-659397693eec"},"vehicle_type_id":"4","last_reported":1745071684,"current_range_meters":13600,"station_id":"ce4bhb12rcd13ifvqel0","pricing_plan_id":"cebpf4jnsgd1na2vs0mg"},{"bike_id":"b942e461-5db8-4c0a-805e-0799944733b5","system_id":"levelo_inurba_marseille","lat":43.29582,"lon":5.37501,"is_reserved":false,"is_disabled":false,"rental_uris":{"android":"levelo://app?vid=b942e461-5db8-4c0a-805e-0799944733b5","ios":"levelo://app?vid=b942e461-5db8-4c0a-805e-0799944733b5"},"vehicle_type_id":"4","last_reported":1745071684,"current_range_meters":13600,"station_id":"ce4bgh92rcd13ifvqb50","pricing_plan_id":"cebpf4jnsgd1na2vs0mg"},{"bike_id":"cd7f355f-fc1f-4144-80d1-f8e95eafd676","system_id":"levelo_inurba_marseille","lat":43.29288,"lon":5.37181,"is_reserved":false,"is_disabled":false,"rental_uris":{"android":"levelo://app?vid=cd7f355f-fc1f-4144-80d1-f8e95eafd676","ios":"levelo://app?vid=cd7f355f-fc1f-4144-80d1-f8e95eafd676"},"vehicle_type_id":"4","last_reported":1745071684,"current_range_meters":14000,"station_id":"ce4bgh92rcd13ifvqb40","pricing_plan_id":"cebpf4jnsgd1na2vs0mg"},{"bike_id":"889aa1aa-5ada-4b6f-abdd-bdb92aaec771","system_id":"levelo_inurba_marseille","lat":43.30538,"lon":5.36549,"is_reserved":false,"is_disabled":false,"rental_uris":{"android":"levelo://app?vid=889aa1aa-5ada-4b6f-abdd-bdb92aaec771","ios":"levelo://app?vid=889aa1aa-5ada-4b6f-abdd-bdb92aaec771"},"vehicle_type_id":"4","last_reported":1745071684,"current_range_meters":14000,"station_id":"ce4bgs12rcd13ifvqcag","pricing_plan_id":"cebpf4jnsgd1na2vs0mg"},{"bike_id":"24213b37-b766-4d9c-a174-f6bf34920497","system_id":"levelo_inurba_marseille","lat":43.28469,"lon":5.384178,"is_reserved":false,"is_disabled":false,"rental_uris":{"android":"levelo://app?vid=24213b37-b766-4d9c-a174-f6bf34920497","ios":"levelo://app?vid=24213b37-b766-4d9c-a174-f6bf34920497"},"vehicle_type_id":"4","last_reported":1745071684,"current_range_meters":14000,"station_id":"ce4bh512rcd13ifvqe3g","pricing_plan_id":"cebpf4jnsgd1na2vs0mg"},{"bike_id":"e9528635-d4b4-43cd-8e85-05a9208b2f6a","system_id":"levelo_inurba_marseille","lat":43.29169,"lon":5.37142,"is_reserved":false,"is_disabled":false,"rental_uris":{"android":"levelo://app?vid=e9528635-d4b4-43cd-8e85-05a9208b2f6a","ios":"levelo://app?vid=e9528635-d4b4-43cd-8e85-05a9208b2f6a"},"vehicle_type_id":"4","last_reported":1745071684,"current_range_meters":14000,"station_id":"ce4bha92rcd13ifvqeh0","pricing_plan_id":"cebpf4jnsgd1na2vs0mg"},{"bike_id":"330a23e4-6da0-4838-ab9f-d20151b3ab7f","system_id":"levelo_inurba_marseille","lat":43.240595,"lon":5.377293,"is_reserved":false,"is_disabled":false,"rental_uris":{"android":"levelo://app?vid=330a23e4-6da0-4838-ab9f-d20151b3ab7f","ios":"levelo://app?vid=330a23e4-6da0-4838-ab9f-d20151b3ab7f"},"vehicle_type_id":"4","last_reported":1745071684,"current_range_meters":14400,"station_id":"ce4bhnp2rcd13ifvqgvg","pricing_plan_id":"cebpf4jnsgd1na2vs0mg"},{"bike_id":"4e6892ef-dbe3-43e4-bc69-b2da5d802c90","system_id":"levelo_inurba_marseille","lat":43.27382,"lon":5.36261,"is_reserved":false,"is_disabled":true,"rental_uris":{"android":"levelo://app?vid=4e6892ef-dbe3-43e4-bc69-b2da5d802c90","ios":"levelo://app?vid=4e6892ef-dbe3-43e4-bc69-b2da5d802c90"},"vehicle_type_id":"4","last_reported":1745071684,"current_range_meters":14400,"station_id":"ce4bhbh2rcd13ifvqeo0","pricing_plan_id":"cebpf4jnsgd1na2vs0mg"},{"bike_id":"6affe129-897f-4d56-81b1-155cca0b618c","system_id":"levelo_inurba_marseille","lat":43.24177,"lon":5.39719,"is_reserved":false,"is_disabled":false,"rental_uris":{"android":"levelo://app?vid=6affe129-897f-4d56-81b1-155cca0b618c","ios":"levelo://app?vid=6affe129-897f-4d56-81b1-155cca0b618c"},"vehicle_type_id":"4","last_reported":1745071684,"current_range_meters":14400,"station_id":"ce4bhn12rcd13ifvqgpg","pricing_plan_id":"cebpf4jnsgd1na2vs0mg"},{"bike_id":"46c901c6-484d-4144-9b45-591c5afda2bd","system_id":"levelo_inurba_marseille","lat":43.29622,"lon":5.3716,"is_reserved":false,"is_disabled":false,"rental_uris":{"android":"levelo://app?vid=46c901c6-484d-4144-9b45-591c5afda2bd","ios":"levelo://app?vid=46c901c6-484d-4144-9b45-591c5afda2bd"},"vehicle_type_id":"4","last_reported":1745071684,"current_range_meters":14400,"station_id":"ce4bgnh2rcd13ifvqc0g","pricing_plan_id":"cebpf4jnsgd1na2vs0mg"},{"bike_id":"63c0e50b-6521-48d4-8f59-28fb9ffe6b60","system_id":"levelo_inurba_marseille","lat":43.30429,"lon":5.38879,"is_reserved":false,"is_disabled":false,"rental_uris":{"android":"levelo://app?vid=63c0e50b-6521-48d4-8f59-28fb9ffe6b60","ios":"levelo://app?vid=63c0e50b-6521-48d4-8f59-28fb9ffe6b60"},"vehicle_type_id":"4","last_reported":1745071684,"current_range_meters":14800,"station_id":"ce4bgk12rcd13ifvqbi0","pricing_plan_id":"cebpf4jnsgd1na2vs0mg"},{"bike_id":"527fac75-0783-4b2c-bd4e-07f2f2fee902","system_id":"levelo_inurba_marseille","lat":43.311235,"lon":5.377832,"is_reserved":false,"is_disabled":true,"rental_uris":{"android":"levelo://app?vid=527fac75-0783-4b2c-bd4e-07f2f2fee902","ios":"levelo://app?vid=527fac75-0783-4b2c-bd4e-07f2f2fee902"},"vehicle_type_id":"4","last_reported":1745071684,"current_range_meters":14800,"station_id":"ce4bgt92rcd13ifvqcg0","pricing_plan_id":"cebpf4jnsgd1na2vs0mg"},{"bike_id":"49a1d797-b941-4171-af94-57eb3416bda4","system_id":"levelo_inurba_marseille","lat":43.30762,"lon":5.43511,"is_reserved":false,"is_disabled":false,"rental_uris":{"android":"levelo://app?vid=49a1d797-b941-4171-af94-57eb3416bda4","ios":"levelo://app?vid=49a1d797-b941-4171-af94-57eb3416bda4"},"vehicle_type_id":"4","last_reported":1745071684,"current_range_meters":14800,"station_id":"ce4bhph2rcd13ifvqheg","pricing_plan_id":"cebpf4jnsgd1na2vs0mg"},{"bike_id":"44c2515b-ff63-4bac-a0f9-f4fef656ac10","system_id":"levelo_inurba_marseille","lat":43.28418,"lon":5.3499,"is_reserved":false,"is_disabled":false,"rental_uris":{"android":"levelo://app?vid=44c2515b-ff63-4bac-a0f9-f4fef656ac10","ios":"levelo://app?vid=44c2515b-ff63-4bac-a0f9-f4fef656ac10"},"vehicle_type_id":"4","last_reported":1745071684,"current_range_meters":14800,"station_id":"ce4bhbh2rcd13ifvqepg","pricing_plan_id":"cebpf4jnsgd1na2vs0mg"},{"bike_id":"dcdd55fd-cbc5-4940-83d4-301616192a74","system_id":"levelo_inurba_marseille","lat":43.26554,"lon":5.37288,"is_reserved":false,"is_disabled":false,"rental_uris":{"android":"levelo://app?vid=dcdd55fd-cbc5-4940-83d4-301616192a74","ios":"levelo://app?vid=dcdd55fd-cbc5-4940-83d4-301616192a74"},"vehicle_type_id":"4","last_reported":1745071684,"current_range_meters":14800,"station_id":"ce4bhg12rcd13ifvqf70","pricing_plan_id":"cebpf4jnsgd1na2vs0mg"},{"bike_id":"597236d8-ee38-4d6f-b6ab-d41b8c4bd7ed","system_id":"levelo_inurba_marseille","lat":43.29027,"lon":5.3563,"is_reserved":false,"is_disabled":false,"rental_uris":{"android":"levelo://app?vid=597236d8-ee38-4d6f-b6ab-d41b8c4bd7ed","ios":"levelo://app?vid=597236d8-ee38-4d6f-b6ab-d41b8c4bd7ed"},"vehicle_type_id":"4","last_reported":1745071684,"current_range_meters":14800,"station_id":"ce4bhb92rcd13ifvqen0","pricing_plan_id":"cebpf4jnsgd1na2vs0mg"},{"bike_id":"c7602192-23fd-471d-aa7d-ff57d448fb0d","system_id":"levelo_inurba_marseille","lat":43.26198,"lon":5.37927,"is_reserved":false,"is_disabled":false,"rental_uris":{"android":"levelo://app?vid=c7602192-23fd-471d-aa7d-ff57d448fb0d","ios":"levelo://app?vid=c7602192-23fd-471d-aa7d-ff57d448fb0d"},"vehicle_type_id":"4","last_reported":1745071684,"current_range_meters":15200,"station_id":"ce4bhjp2rcd13ifvqg90","pricing_plan_id":"cebpf4jnsgd1na2vs0mg"},{"bike_id":"0940a4ce-d494-46dd-971c-213d051b7dbe","system_id":"levelo_inurba_marseille","lat":43.22935,"lon":5.35377,"is_reserved":false,"is_disabled":false,"rental_uris":{"android":"levelo://app?vid=0940a4ce-d494-46dd-971c-213d051b7dbe","ios":"levelo://app?vid=0940a4ce-d494-46dd-971c-213d051b7dbe"},"vehicle_type_id":"4","last_reported":1745071684,"current_range_meters":15200,"station_id":"cpo3532slgdg3j2ikp40","pricing_plan_id":"cebpf4jnsgd1na2vs0mg"},{"bike_id":"585dc1bf-e962-4c0c-94d3-bda040b0293a","system_id":"levelo_inurba_marseille","lat":43.28419,"lon":5.3499,"is_reserved":false,"is_disabled":false,"rental_uris":{"android":"levelo://app?vid=585dc1bf-e962-4c0c-94d3-bda040b0293a","ios":"levelo://app?vid=585dc1bf-e962-4c0c-94d3-bda040b0293a"},"vehicle_type_id":"4","last_reported":1745071684,"current_range_meters":15200,"station_id":"ce4bhbh2rcd13ifvqepg","pricing_plan_id":"cebpf4jnsgd1na2vs0mg"},{"bike_id":"ef465ed9-d1ab-416d-9d79-3b7cdc25fc2a","system_id":"levelo_inurba_marseille","lat":43.28498,"lon":5.38442,"is_reserved":false,"is_disabled":false,"rental_uris":{"android":"levelo://app?vid=ef465ed9-d1ab-416d-9d79-3b7cdc25fc2a","ios":"levelo://app?vid=ef465ed9-d1ab-416d-9d79-3b7cdc25fc2a"},"vehicle_type_id":"4","last_reported":1745071684,"current_range_meters":15200,"station_id":"ce4bh512rcd13ifvqe3g","pricing_plan_id":"cebpf4jnsgd1na2vs0mg"},{"bike_id":"15572984-94dd-404c-b34b-0eba775da91a","system_id":"levelo_inurba_marseille","lat":43.2501,"lon":5.38912,"is_reserved":false,"is_disabled":false,"rental_uris":{"android":"levelo://app?vid=15572984-94dd-404c-b34b-0eba775da91a","ios":"levelo://app?vid=15572984-94dd-404c-b34b-0eba775da91a"},"vehicle_type_id":"4","last_reported":1745071684,"current_range_meters":16000,"station_id":"ce4bhgp2rcd13ifvqfd0","pricing_plan_id":"cebpf4jnsgd1na2vs0mg"},{"bike_id":"8b386a13-d7ce-4797-850b-d66b405de4c3","system_id":"levelo_inurba_marseille","lat":43.29573,"lon":5.37517,"is_reserved":false,"is_disabled":false,"rental_uris":{"android":"levelo://app?vid=8b386a13-d7ce-4797-850b-d66b405de4c3","ios":"levelo://app?vid=8b386a13-d7ce-4797-850b-d66b405de4c3"},"vehicle_type_id":"4","last_reported":1745071684,"current_range_meters":16000,"station_id":"ce4bgh92rcd13ifvqb50","pricing_plan_id":"cebpf4jnsgd1na2vs0mg"},{"bike_id":"0adb5513-68c4-46c9-ba13-6d229579eb21","system_id":"levelo_inurba_marseille","lat":43.29967,"lon":5.36564,"is_reserved":false,"is_disabled":false,"rental_uris":{"android":"levelo://app?vid=0adb5513-68c4-46c9-ba13-6d229579eb21","ios":"levelo://app?vid=0adb5513-68c4-46c9-ba13-6d229579eb21"},"vehicle_type_id":"4","last_reported":1745071684,"current_range_meters":16000,"station_id":"","pricing_plan_id":"cebpf4jnsgd1na2vs0mg"},{"bike_id":"33399c5a-7b71-4ae2-a964-55b2f2e618d0","system_id":"levelo_inurba_marseille","lat":43.30224,"lon":5.36567,"is_reserved":false,"is_disabled":true,"rental_uris":{"android":"levelo://app?vid=33399c5a-7b71-4ae2-a964-55b2f2e618d0","ios":"levelo://app?vid=33399c5a-7b71-4ae2-a964-55b2f2e618d0"},"vehicle_type_id":"4","last_reported":1745071684,"current_range_meters":16000,"station_id":"","pricing_plan_id":"cebpf4jnsgd1na2vs0mg"},{"bike_id":"5b1e172c-206a-49cd-976f-4193bc400f3e","system_id":"levelo_inurba_marseille","lat":43.26551,"lon":5.37281,"is_reserved":false,"is_disabled":false,"rental_uris":{"android":"levelo://app?vid=5b1e172c-206a-49cd-976f-4193bc400f3e","ios":"levelo://app?vid=5b1e172c-206a-49cd-976f-4193bc400f3e"},"vehicle_type_id":"4","last_reported":1745071684,"current_range_meters":16000,"station_id":"ce4bhg12rcd13ifvqf70","pricing_plan_id":"cebpf4jnsgd1na2vs0mg"},{"bike_id":"71b4ce06-e551-4eb9-9837-aa9bd0243787","system_id":"levelo_inurba_marseille","lat":43.27322,"lon":5.39069,"is_reserved":false,"is_disabled":false,"rental_uris":{"android":"levelo://app?vid=71b4ce06-e551-4eb9-9837-aa9bd0243787","ios":"levelo://app?vid=71b4ce06-e551-4eb9-9837-aa9bd0243787"},"vehicle_type_id":"4","last_reported":1745071684,"current_range_meters":16000,"station_id":"ce4bhgp2rcd13ifvqfe0","pricing_plan_id":"cebpf4jnsgd1na2vs0mg"},{"bike_id":"5e7e83d6-8284-48e9-9372-797b9c44861d","system_id":"levelo_inurba_marseille","lat":43.26195,"lon":5.37917,"is_reserved":false,"is_disabled":false,"rental_uris":{"android":"levelo://app?vid=5e7e83d6-8284-48e9-9372-797b9c44861d","ios":"levelo://app?vid=5e7e83d6-8284-48e9-9372-797b9c44861d"},"vehicle_type_id":"4","last_reported":1745071684,"current_range_meters":16000,"station_id":"ce4bhjp2rcd13ifvqg90","pricing_plan_id":"cebpf4jnsgd1na2vs0mg"},{"bike_id":"ae351816-dd57-44ea-87fb-9e5a22d4b129","system_id":"levelo_inurba_marseille","lat":43.28274,"lon":5.35087,"is_reserved":false,"is_disabled":false,"rental_uris":{"android":"levelo://app?vid=ae351816-dd57-44ea-87fb-9e5a22d4b129","ios":"levelo://app?vid=ae351816-dd57-44ea-87fb-9e5a22d4b129"},"vehicle_type_id":"4","last_reported":1745071684,"current_range_meters":16000,"station_id":"ce4bhbp2rcd13ifvqerg","pricing_plan_id":"cebpf4jnsgd1na2vs0mg"},{"bike_id":"1cfd2529-c990-4d34-ac03-4a6b6fc68284","system_id":"levelo_inurba_marseille","lat":43.31363,"lon":5.38491,"is_reserved":false,"is_disabled":false,"rental_uris":{"android":"levelo://app?vid=1cfd2529-c990-4d34-ac03-4a6b6fc68284","ios":"levelo://app?vid=1cfd2529-c990-4d34-ac03-4a6b6fc68284"},"vehicle_type_id":"4","last_reported":1745071684,"current_range_meters":15200,"station_id":"ce4bgt92rcd13ifvqcf0","pricing_plan_id":"cebpf4jnsgd1na2vs0mg"},{"bike_id":"00879c1d-a962-4133-ba5d-8de0f524e6f5","system_id":"levelo_inurba_marseille","lat":43.27498,"lon":5.42455,"is_reserved":false,"is_disabled":false,"rental_uris":{"android":"levelo://app?vid=00879c1d-a962-4133-ba5d-8de0f524e6f5","ios":"levelo://app?vid=00879c1d-a962-4133-ba5d-8de0f524e6f5"},"vehicle_type_id":"4","last_reported":1745071684,"current_range_meters":16000,"station_id":"ce4bhn92rcd13ifvqgrg","pricing_plan_id":"cebpf4jnsgd1na2vs0mg"},{"bike_id":"84719cb0-b2e1-4661-b3da-1561d72fa27b","system_id":"levelo_inurba_marseille","lat":43.2657,"lon":5.39002,"is_reserved":false,"is_disabled":false,"rental_uris":{"android":"levelo://app?vid=84719cb0-b2e1-4661-b3da-1561d72fa27b","ios":"levelo://app?vid=84719cb0-b2e1-4661-b3da-1561d72fa27b"},"vehicle_type_id":"4","last_reported":1745071684,"current_range_meters":16000,"station_id":"ce4bhe12rcd13ifvqf30","pricing_plan_id":"cebpf4jnsgd1na2vs0mg"},{"bike_id":"210d3669-e710-4cfb-bac4-2059f4fa7eea","system_id":"levelo_inurba_marseille","lat":43.29008,"lon":5.35612,"is_reserved":false,"is_disabled":false,"rental_uris":{"android":"levelo://app?vid=210d3669-e710-4cfb-bac4-2059f4fa7eea","ios":"levelo://app?vid=210d3669-e710-4cfb-bac4-2059f4fa7eea"},"vehicle_type_id":"4","last_reported":1745071684,"current_range_meters":16000,"station_id":"ce4bh2h2rcd13ifvqdh0","pricing_plan_id":"cebpf4jnsgd1na2vs0mg"},{"bike_id":"04774b32-6ed5-4eb4-8e68-3fe3792eaf1a","system_id":"levelo_inurba_marseille","lat":43.23961,"lon":5.3664,"is_reserved":false,"is_disabled":false,"rental_uris":{"android":"levelo://app?vid=04774b32-6ed5-4eb4-8e68-3fe3792eaf1a","ios":"levelo://app?vid=04774b32-6ed5-4eb4-8e68-3fe3792eaf1a"},"vehicle_type_id":"4","last_reported":1745071684,"current_range_meters":16400,"station_id":"ce4bhi12rcd13ifvqfp0","pricing_plan_id":"cebpf4jnsgd1na2vs0mg"},{"bike_id":"708a27a3-ae11-43b6-a0a1-fa47ae9bfa09","system_id":"levelo_inurba_marseille","lat":43.26778,"lon":5.39422,"is_reserved":false,"is_disabled":false,"rental_uris":{"android":"levelo://app?vid=708a27a3-ae11-43b6-a0a1-fa47ae9bfa09","ios":"levelo://app?vid=708a27a3-ae11-43b6-a0a1-fa47ae9bfa09"},"vehicle_type_id":"4","last_reported":1745071684,"current_range_meters":16400,"station_id":"ce4bhh12rcd13ifvqfg0","pricing_plan_id":"cebpf4jnsgd1na2vs0mg"},{"bike_id":"1bc3325c-f771-4329-86b4-a70e236f7403","system_id":"levelo_inurba_marseille","lat":43.29951,"lon":5.36544,"is_reserved":false,"is_disabled":false,"rental_uris":{"android":"levelo://app?vid=1bc3325c-f771-4329-86b4-a70e236f7403","ios":"levelo://app?vid=1bc3325c-f771-4329-86b4-a70e236f7403"},"vehicle_type_id":"4","last_reported":1745071684,"current_range_meters":16400,"station_id":"ce4bgm92rcd13ifvqbr0","pricing_plan_id":"cebpf4jnsgd1na2vs0mg"},{"bike_id":"c3a9490f-d022-425c-bcff-e4672ad49050","system_id":"levelo_inurba_marseille","lat":43.28465,"lon":5.35892,"is_reserved":false,"is_disabled":false,"rental_uris":{"android":"levelo://app?vid=c3a9490f-d022-425c-bcff-e4672ad49050","ios":"levelo://app?vid=c3a9490f-d022-425c-bcff-e4672ad49050"},"vehicle_type_id":"4","last_reported":1745071684,"current_range_meters":16400,"station_id":"ce4bhah2rcd13ifvqei0","pricing_plan_id":"cebpf4jnsgd1na2vs0mg"},{"bike_id":"2b0970ad-d7e7-4271-a3a6-7441db1a3630","system_id":"levelo_inurba_marseille","lat":43.217489,"lon":5.346012,"is_reserved":false,"is_disabled":false,"rental_uris":{"android":"levelo://app?vid=2b0970ad-d7e7-4271-a3a6-7441db1a3630","ios":"levelo://app?vid=2b0970ad-d7e7-4271-a3a6-7441db1a3630"},"vehicle_type_id":"4","last_reported":1745071684,"current_range_meters":16800,"station_id":"st_cvj6r9ubvosntc0bgbag","pricing_plan_id":"cebpf4jnsgd1na2vs0mg"},{"bike_id":"758ce3d5-704f-465c-a707-c99c376d0568","system_id":"levelo_inurba_marseille","lat":43.28673,"lon":5.36354,"is_reserved":false,"is_disabled":false,"rental_uris":{"android":"levelo://app?vid=758ce3d5-704f-465c-a707-c99c376d0568","ios":"levelo://app?vid=758ce3d5-704f-465c-a707-c99c376d0568"},"vehicle_type_id":"4","last_reported":1745071684,"current_range_meters":16800,"station_id":"ce4bhah2rcd13ifvqej0","pricing_plan_id":"cebpf4jnsgd1na2vs0mg"},{"bike_id":"3ce33f55-eaea-4767-9178-711f59e9f83b","system_id":"levelo_inurba_marseille","lat":43.21755,"lon":5.34604,"is_reserved":false,"is_disabled":false,"rental_uris":{"android":"levelo://app?vid=3ce33f55-eaea-4767-9178-711f59e9f83b","ios":"levelo://app?vid=3ce33f55-eaea-4767-9178-711f59e9f83b"},"vehicle_type_id":"4","last_reported":1745071684,"current_range_meters":16800,"station_id":"st_cvj6r9ubvosntc0bgbag","pricing_plan_id":"cebpf4jnsgd1na2vs0mg"},{"bike_id":"6cf198f2-4f62-4c0e-a9e2-a48c7e5365b4","system_id":"levelo_inurba_marseille","lat":43.24663,"lon":5.38166,"is_reserved":false,"is_disabled":false,"rental_uris":{"android":"levelo://app?vid=6cf198f2-4f62-4c0e-a9e2-a48c7e5365b4","ios":"levelo://app?vid=6cf198f2-4f62-4c0e-a9e2-a48c7e5365b4"},"vehicle_type_id":"4","last_reported":1745071684,"current_range_meters":16400,"station_id":"ce4bhih2rcd13ifvqfr0","pricing_plan_id":"cebpf4jnsgd1na2vs0mg"},{"bike_id":"1dabd681-e9a2-45bd-9cc3-aad48d53a7d3","system_id":"levelo_inurba_marseille","lat":43.29008,"lon":5.35611,"is_reserved":false,"is_disabled":false,"rental_uris":{"android":"levelo://app?vid=1dabd681-e9a2-45bd-9cc3-aad48d53a7d3","ios":"levelo://app?vid=1dabd681-e9a2-45bd-9cc3-aad48d53a7d3"},"vehicle_type_id":"4","last_reported":1745071684,"current_range_meters":16800,"station_id":"ce4bhb92rcd13ifvqen0","pricing_plan_id":"cebpf4jnsgd1na2vs0mg"},{"bike_id":"37b82a9f-e66b-4bb6-81f2-24004df4c251","system_id":"levelo_inurba_marseille","lat":43.2439,"lon":5.37063,"is_reserved":false,"is_disabled":false,"rental_uris":{"android":"levelo://app?vid=37b82a9f-e66b-4bb6-81f2-24004df4c251","ios":"levelo://app?vid=37b82a9f-e66b-4bb6-81f2-24004df4c251"},"vehicle_type_id":"4","last_reported":1745071684,"current_range_meters":17200,"station_id":"ce4bhhh2rcd13ifvqfk0","pricing_plan_id":"cebpf4jnsgd1na2vs0mg"},{"bike_id":"11d4d34d-597c-427f-9431-106b5e64b136","system_id":"levelo_inurba_marseille","lat":43.22936,"lon":5.35378,"is_reserved":false,"is_disabled":false,"rental_uris":{"android":"levelo://app?vid=11d4d34d-597c-427f-9431-106b5e64b136","ios":"levelo://app?vid=11d4d34d-597c-427f-9431-106b5e64b136"},"vehicle_type_id":"4","last_reported":1745071684,"current_range_meters":17200,"station_id":"cpo3532slgdg3j2ikp40","pricing_plan_id":"cebpf4jnsgd1na2vs0mg"},{"bike_id":"b8adf5ba-9520-4b92-8108-37f9b7c240aa","system_id":"levelo_inurba_marseille","lat":43.23058,"lon":5.35502,"is_reserved":false,"is_disabled":false,"rental_uris":{"android":"levelo://app?vid=b8adf5ba-9520-4b92-8108-37f9b7c240aa","ios":"levelo://app?vid=b8adf5ba-9520-4b92-8108-37f9b7c240aa"},"vehicle_type_id":"4","last_reported":1745071684,"current_range_meters":17200,"station_id":"cpo3342slgdg3j2ifvpg","pricing_plan_id":"cebpf4jnsgd1na2vs0mg"},{"bike_id":"2751fe12-bcfa-4552-a872-1b5e3a0dd5f1","system_id":"levelo_inurba_marseille","lat":43.31226,"lon":5.36842,"is_reserved":false,"is_disabled":false,"rental_uris":{"android":"levelo://app?vid=2751fe12-bcfa-4552-a872-1b5e3a0dd5f1","ios":"levelo://app?vid=2751fe12-bcfa-4552-a872-1b5e3a0dd5f1"},"vehicle_type_id":"4","last_reported":1745071684,"current_range_meters":16800,"station_id":"ce4bgl92rcd13ifvqbq0","pricing_plan_id":"cebpf4jnsgd1na2vs0mg"},{"bike_id":"51d00b73-0d43-43b8-8340-84915d84cd41","system_id":"levelo_inurba_marseille","lat":43.2794,"lon":5.41054,"is_reserved":false,"is_disabled":false,"rental_uris":{"android":"levelo://app?vid=51d00b73-0d43-43b8-8340-84915d84cd41","ios":"levelo://app?vid=51d00b73-0d43-43b8-8340-84915d84cd41"},"vehicle_type_id":"4","last_reported":1745071684,"current_range_meters":17200,"station_id":"ce4bhnp2rcd13ifvqh0g","pricing_plan_id":"cebpf4jnsgd1na2vs0mg"},{"bike_id":"3137644f-6094-4558-8b63-10b709f635c1","system_id":"levelo_inurba_marseille","lat":43.28487,"lon":5.38412,"is_reserved":false,"is_disabled":false,"rental_uris":{"android":"levelo://app?vid=3137644f-6094-4558-8b63-10b709f635c1","ios":"levelo://app?vid=3137644f-6094-4558-8b63-10b709f635c1"},"vehicle_type_id":"4","last_reported":1745071684,"current_range_meters":17200,"station_id":"ce4bh512rcd13ifvqe3g","pricing_plan_id":"cebpf4jnsgd1na2vs0mg"},{"bike_id":"d35d0f85-f00c-4a65-b550-2fb004a0ef99","system_id":"levelo_inurba_marseille","lat":43.23968,"lon":5.36617,"is_reserved":false,"is_disabled":false,"rental_uris":{"android":"levelo://app?vid=d35d0f85-f00c-4a65-b550-2fb004a0ef99","ios":"levelo://app?vid=d35d0f85-f00c-4a65-b550-2fb004a0ef99"},"vehicle_type_id":"4","last_reported":1745071684,"current_range_meters":17200,"station_id":"ce4bhi12rcd13ifvqfp0","pricing_plan_id":"cebpf4jnsgd1na2vs0mg"},{"bike_id":"cdabf7b9-9c64-4517-ad25-3f15d4af5f52","system_id":"levelo_inurba_marseille","lat":43.29254,"lon":5.40902,"is_reserved":false,"is_disabled":false,"rental_uris":{"android":"levelo://app?vid=cdabf7b9-9c64-4517-ad25-3f15d4af5f52","ios":"levelo://app?vid=cdabf7b9-9c64-4517-ad25-3f15d4af5f52"},"vehicle_type_id":"4","last_reported":1745071684,"current_range_meters":16800,"station_id":"ce4bh192rcd13ifvqdc0","pricing_plan_id":"cebpf4jnsgd1na2vs0mg"},{"bike_id":"1f00d0e1-b276-4aa3-9a76-b0c2262473ce","system_id":"levelo_inurba_marseille","lat":43.28271,"lon":5.35059,"is_reserved":false,"is_disabled":false,"rental_uris":{"android":"levelo://app?vid=1f00d0e1-b276-4aa3-9a76-b0c2262473ce","ios":"levelo://app?vid=1f00d0e1-b276-4aa3-9a76-b0c2262473ce"},"vehicle_type_id":"4","last_reported":1745071684,"current_range_meters":17200,"station_id":"ce4bhbp2rcd13ifvqerg","pricing_plan_id":"cebpf4jnsgd1na2vs0mg"},{"bike_id":"d1a906c5-f9bf-4b81-9c99-4306ed72880b","system_id":"levelo_inurba_marseille","lat":43.21184,"lon":5.35075,"is_reserved":false,"is_disabled":false,"rental_uris":{"android":"levelo://app?vid=d1a906c5-f9bf-4b81-9c99-4306ed72880b","ios":"levelo://app?vid=d1a906c5-f9bf-4b81-9c99-4306ed72880b"},"vehicle_type_id":"4","last_reported":1745071684,"current_range_meters":17200,"station_id":"st_cvj6sg6p6f1abm77japg","pricing_plan_id":"cebpf4jnsgd1na2vs0mg"},{"bike_id":"764e760d-0600-47a4-8017-b7a9831db11a","system_id":"levelo_inurba_marseille","lat":43.30787,"lon":5.38148,"is_reserved":false,"is_disabled":false,"rental_uris":{"android":"levelo://app?vid=764e760d-0600-47a4-8017-b7a9831db11a","ios":"levelo://app?vid=764e760d-0600-47a4-8017-b7a9831db11a"},"vehicle_type_id":"4","last_reported":1745071684,"current_range_meters":17200,"station_id":"ce4bgt12rcd13ifvqce0","pricing_plan_id":"cebpf4jnsgd1na2vs0mg"},{"bike_id":"023def6a-bcc9-490a-b1dc-7b690eb1b57d","system_id":"levelo_inurba_marseille","lat":43.30646,"lon":5.40097,"is_reserved":false,"is_disabled":false,"rental_uris":{"android":"levelo://app?vid=023def6a-bcc9-490a-b1dc-7b690eb1b57d","ios":"levelo://app?vid=023def6a-bcc9-490a-b1dc-7b690eb1b57d"},"vehicle_type_id":"4","last_reported":1745071684,"current_range_meters":17200,"station_id":"ce4bh112rcd13ifvqda0","pricing_plan_id":"cebpf4jnsgd1na2vs0mg"},{"bike_id":"1918c1f4-5b0c-4292-b6f0-ad44b4037e15","system_id":"levelo_inurba_marseille","lat":43.28272,"lon":5.35059,"is_reserved":false,"is_disabled":false,"rental_uris":{"android":"levelo://app?vid=1918c1f4-5b0c-4292-b6f0-ad44b4037e15","ios":"levelo://app?vid=1918c1f4-5b0c-4292-b6f0-ad44b4037e15"},"vehicle_type_id":"4","last_reported":1745071684,"current_range_meters":17600,"station_id":"ce4bhbp2rcd13ifvqerg","pricing_plan_id":"cebpf4jnsgd1na2vs0mg"},{"bike_id":"354c0299-f5aa-4370-a4f1-4d9e54752dcf","system_id":"levelo_inurba_marseille","lat":43.28269,"lon":5.35067,"is_reserved":false,"is_disabled":false,"rental_uris":{"android":"levelo://app?vid=354c0299-f5aa-4370-a4f1-4d9e54752dcf","ios":"levelo://app?vid=354c0299-f5aa-4370-a4f1-4d9e54752dcf"},"vehicle_type_id":"4","last_reported":1745071684,"current_range_meters":17600,"station_id":"ce4bhbp2rcd13ifvqerg","pricing_plan_id":"cebpf4jnsgd1na2vs0mg"},{"bike_id":"3a314526-3aad-410b-a5b7-c30391e6b4d1","system_id":"levelo_inurba_marseille","lat":43.28419,"lon":5.34983,"is_reserved":false,"is_disabled":false,"rental_uris":{"android":"levelo://app?vid=3a314526-3aad-410b-a5b7-c30391e6b4d1","ios":"levelo://app?vid=3a314526-3aad-410b-a5b7-c30391e6b4d1"},"vehicle_type_id":"4","last_reported":1745071684,"current_range_meters":17600,"station_id":"ce4bhbh2rcd13ifvqepg","pricing_plan_id":"cebpf4jnsgd1na2vs0mg"},{"bike_id":"79813cad-4aae-4781-8eab-359e2cc1ff9e","system_id":"levelo_inurba_marseille","lat":43.225009,"lon":5.347784,"is_reserved":false,"is_disabled":false,"rental_uris":{"android":"levelo://app?vid=79813cad-4aae-4781-8eab-359e2cc1ff9e","ios":"levelo://app?vid=79813cad-4aae-4781-8eab-359e2cc1ff9e"},"vehicle_type_id":"4","last_reported":1745071684,"current_range_meters":17600,"station_id":"st_cvj5dfep6f1abm77gieg","pricing_plan_id":"cebpf4jnsgd1na2vs0mg"},{"bike_id":"d68b6398-1723-46f5-8e96-45d82cd63d98","system_id":"levelo_inurba_marseille","lat":43.29293,"lon":5.37456,"is_reserved":false,"is_disabled":false,"rental_uris":{"android":"levelo://app?vid=d68b6398-1723-46f5-8e96-45d82cd63d98","ios":"levelo://app?vid=d68b6398-1723-46f5-8e96-45d82cd63d98"},"vehicle_type_id":"4","last_reported":1745071684,"current_range_meters":17600,"station_id":"ce4bgi12rcd13ifvqb70","pricing_plan_id":"cebpf4jnsgd1na2vs0mg"},{"bike_id":"4693f8ec-a929-4eb6-ae37-d86312c2b736","system_id":"levelo_inurba_marseille","lat":43.29848,"lon":5.36284,"is_reserved":false,"is_disabled":false,"rental_uris":{"android":"levelo://app?vid=4693f8ec-a929-4eb6-ae37-d86312c2b736","ios":"levelo://app?vid=4693f8ec-a929-4eb6-ae37-d86312c2b736"},"vehicle_type_id":"4","last_reported":1745071684,"current_range_meters":18000,"station_id":"ce4bgpp2rcd13ifvqc3g","pricing_plan_id":"cebpf4jnsgd1na2vs0mg"},{"bike_id":"6019390b-7088-4c04-b80b-2acf1cb29041","system_id":"levelo_inurba_marseille","lat":43.2939,"lon":5.41237,"is_reserved":false,"is_disabled":false,"rental_uris":{"android":"levelo://app?vid=6019390b-7088-4c04-b80b-2acf1cb29041","ios":"levelo://app?vid=6019390b-7088-4c04-b80b-2acf1cb29041"},"vehicle_type_id":"4","last_reported":1745071684,"current_range_meters":18000,"station_id":"","pricing_plan_id":"cebpf4jnsgd1na2vs0mg"},{"bike_id":"77aa1dbd-6da9-4842-a37b-7c3e9f693271","system_id":"levelo_inurba_marseille","lat":43.29254,"lon":5.37615,"is_reserved":false,"is_disabled":false,"rental_uris":{"android":"levelo://app?vid=77aa1dbd-6da9-4842-a37b-7c3e9f693271","ios":"levelo://app?vid=77aa1dbd-6da9-4842-a37b-7c3e9f693271"},"vehicle_type_id":"4","last_reported":1745071684,"current_range_meters":18000,"station_id":"ce4bgi12rcd13ifvqb80","pricing_plan_id":"cebpf4jnsgd1na2vs0mg"},{"bike_id":"bc13e988-5248-4aa1-83de-ba0e22e6793d","system_id":"levelo_inurba_marseille","lat":43.27496,"lon":5.42456,"is_reserved":false,"is_disabled":false,"rental_uris":{"android":"levelo://app?vid=bc13e988-5248-4aa1-83de-ba0e22e6793d","ios":"levelo://app?vid=bc13e988-5248-4aa1-83de-ba0e22e6793d"},"vehicle_type_id":"4","last_reported":1745071684,"current_range_meters":18000,"station_id":"ce4bhn92rcd13ifvqgrg","pricing_plan_id":"cebpf4jnsgd1na2vs0mg"},{"bike_id":"f96cca1c-4e16-4641-baf8-26559b52afae","system_id":"levelo_inurba_marseille","lat":43.21751,"lon":5.34586,"is_reserved":false,"is_disabled":false,"rental_uris":{"android":"levelo://app?vid=f96cca1c-4e16-4641-baf8-26559b52afae","ios":"levelo://app?vid=f96cca1c-4e16-4641-baf8-26559b52afae"},"vehicle_type_id":"4","last_reported":1745071684,"current_range_meters":18000,"station_id":"st_cvj6r9ubvosntc0bgbag","pricing_plan_id":"cebpf4jnsgd1na2vs0mg"},{"bike_id":"d5bf3e51-83b4-419b-b784-58ab0f4a9ad2","system_id":"levelo_inurba_marseille","lat":43.21195,"lon":5.35072,"is_reserved":false,"is_disabled":false,"rental_uris":{"android":"levelo://app?vid=d5bf3e51-83b4-419b-b784-58ab0f4a9ad2","ios":"levelo://app?vid=d5bf3e51-83b4-419b-b784-58ab0f4a9ad2"},"vehicle_type_id":"4","last_reported":1745071684,"current_range_meters":18000,"station_id":"st_cvj6sg6p6f1abm77japg","pricing_plan_id":"cebpf4jnsgd1na2vs0mg"},{"bike_id":"c3b901f2-eea1-4b1b-a587-da68796434ac","system_id":"levelo_inurba_marseille","lat":43.28265,"lon":5.35057,"is_reserved":false,"is_disabled":false,"rental_uris":{"android":"levelo://app?vid=c3b901f2-eea1-4b1b-a587-da68796434ac","ios":"levelo://app?vid=c3b901f2-eea1-4b1b-a587-da68796434ac"},"vehicle_type_id":"4","last_reported":1745071684,"current_range_meters":18000,"station_id":"ce4bhbp2rcd13ifvqerg","pricing_plan_id":"cebpf4jnsgd1na2vs0mg"},{"bike_id":"61c19874-3e66-446b-9461-be09cac8be18","system_id":"levelo_inurba_marseille","lat":43.26228,"lon":5.40454,"is_reserved":false,"is_disabled":false,"rental_uris":{"android":"levelo://app?vid=61c19874-3e66-446b-9461-be09cac8be18","ios":"levelo://app?vid=61c19874-3e66-446b-9461-be09cac8be18"},"vehicle_type_id":"4","last_reported":1745071684,"current_range_meters":18000,"station_id":"ce4bhmh2rcd13ifvqgmg","pricing_plan_id":"cebpf4jnsgd1na2vs0mg"},{"bike_id":"8d9ac258-5453-488d-9e49-d37304683494","system_id":"levelo_inurba_marseille","lat":43.29541,"lon":5.37461,"is_reserved":false,"is_disabled":false,"rental_uris":{"android":"levelo://app?vid=8d9ac258-5453-488d-9e49-d37304683494","ios":"levelo://app?vid=8d9ac258-5453-488d-9e49-d37304683494"},"vehicle_type_id":"4","last_reported":1745071684,"current_range_meters":18000,"station_id":"","pricing_plan_id":"cebpf4jnsgd1na2vs0mg"},{"bike_id":"0cda20c8-2f2b-492b-9725-0d2e75c7c5c9","system_id":"levelo_inurba_marseille","lat":43.27618,"lon":5.36114,"is_reserved":false,"is_disabled":false,"rental_uris":{"android":"levelo://app?vid=0cda20c8-2f2b-492b-9725-0d2e75c7c5c9","ios":"levelo://app?vid=0cda20c8-2f2b-492b-9725-0d2e75c7c5c9"},"vehicle_type_id":"4","last_reported":1745071684,"current_range_meters":18000,"station_id":"ce4bgj92rcd13ifvqbe0","pricing_plan_id":"cebpf4jnsgd1na2vs0mg"},{"bike_id":"fe0d906c-18a4-47fa-96e1-6c88b9eb5396","system_id":"levelo_inurba_marseille","lat":43.24164,"lon":5.39729,"is_reserved":false,"is_disabled":false,"rental_uris":{"android":"levelo://app?vid=fe0d906c-18a4-47fa-96e1-6c88b9eb5396","ios":"levelo://app?vid=fe0d906c-18a4-47fa-96e1-6c88b9eb5396"},"vehicle_type_id":"4","last_reported":1745071684,"current_range_meters":18000,"station_id":"ce4bhn12rcd13ifvqgpg","pricing_plan_id":"cebpf4jnsgd1na2vs0mg"},{"bike_id":"c954a386-c510-42e9-932e-deb5aad8f1fb","system_id":"levelo_inurba_marseille","lat":43.32549,"lon":5.41435,"is_reserved":false,"is_disabled":false,"rental_uris":{"android":"levelo://app?vid=c954a386-c510-42e9-932e-deb5aad8f1fb","ios":"levelo://app?vid=c954a386-c510-42e9-932e-deb5aad8f1fb"},"vehicle_type_id":"4","last_reported":1745071684,"current_range_meters":18000,"station_id":"ce4bhq12rcd13ifvqhhg","pricing_plan_id":"cebpf4jnsgd1na2vs0mg"},{"bike_id":"1b84ac14-4ad1-4bf0-94be-9bcfcc7f287a","system_id":"levelo_inurba_marseille","lat":43.24054,"lon":5.37739,"is_reserved":false,"is_disabled":false,"rental_uris":{"android":"levelo://app?vid=1b84ac14-4ad1-4bf0-94be-9bcfcc7f287a","ios":"levelo://app?vid=1b84ac14-4ad1-4bf0-94be-9bcfcc7f287a"},"vehicle_type_id":"4","last_reported":1745071684,"current_range_meters":17600,"station_id":"ce4bhnp2rcd13ifvqgvg","pricing_plan_id":"cebpf4jnsgd1na2vs0mg"},{"bike_id":"3760752e-2509-474d-b460-22b46b7f0504","system_id":"levelo_inurba_marseille","lat":43.29201,"lon":5.358,"is_reserved":false,"is_disabled":false,"rental_uris":{"android":"levelo://app?vid=3760752e-2509-474d-b460-22b46b7f0504","ios":"levelo://app?vid=3760752e-2509-474d-b460-22b46b7f0504"},"vehicle_type_id":"4","last_reported":1745071684,"current_range_meters":18800,"station_id":"ce4bhb12rcd13ifvqel0","pricing_plan_id":"cebpf4jnsgd1na2vs0mg"},{"bike_id":"d52d705c-59dc-4c9d-9f18-6a111816e20f","system_id":"levelo_inurba_marseille","lat":43.29279,"lon":5.368453,"is_reserved":false,"is_disabled":false,"rental_uris":{"android":"levelo://app?vid=d52d705c-59dc-4c9d-9f18-6a111816e20f","ios":"levelo://app?vid=d52d705c-59dc-4c9d-9f18-6a111816e20f"},"vehicle_type_id":"4","last_reported":1745071684,"current_range_meters":18800,"station_id":"ce4bhbp2rcd13ifvqesg","pricing_plan_id":"cebpf4jnsgd1na2vs0mg"},{"bike_id":"d3454878-068e-4dbc-98e9-7f9cc337e146","system_id":"levelo_inurba_marseille","lat":43.26559,"lon":5.37279,"is_reserved":false,"is_disabled":false,"rental_uris":{"android":"levelo://app?vid=d3454878-068e-4dbc-98e9-7f9cc337e146","ios":"levelo://app?vid=d3454878-068e-4dbc-98e9-7f9cc337e146"},"vehicle_type_id":"4","last_reported":1745071684,"current_range_meters":18800,"station_id":"ce4bhg12rcd13ifvqf70","pricing_plan_id":"cebpf4jnsgd1na2vs0mg"},{"bike_id":"8199e302-7b4f-49e5-a95f-f097de738c0e","system_id":"levelo_inurba_marseille","lat":43.21738,"lon":5.34588,"is_reserved":false,"is_disabled":false,"rental_uris":{"android":"levelo://app?vid=8199e302-7b4f-49e5-a95f-f097de738c0e","ios":"levelo://app?vid=8199e302-7b4f-49e5-a95f-f097de738c0e"},"vehicle_type_id":"4","last_reported":1745071684,"current_range_meters":18800,"station_id":"st_cvj6r9ubvosntc0bgbag","pricing_plan_id":"cebpf4jnsgd1na2vs0mg"},{"bike_id":"fc70c0ad-8ff7-4eca-9224-7120d51de72f","system_id":"levelo_inurba_marseille","lat":43.26198,"lon":5.37928,"is_reserved":false,"is_disabled":false,"rental_uris":{"android":"levelo://app?vid=fc70c0ad-8ff7-4eca-9224-7120d51de72f","ios":"levelo://app?vid=fc70c0ad-8ff7-4eca-9224-7120d51de72f"},"vehicle_type_id":"4","last_reported":1745071684,"current_range_meters":18800,"station_id":"ce4bhjp2rcd13ifvqg90","pricing_plan_id":"cebpf4jnsgd1na2vs0mg"},{"bike_id":"77a1b158-4c60-418f-957c-2c0fc7284540","system_id":"levelo_inurba_marseille","lat":43.29228,"lon":5.36055,"is_reserved":false,"is_disabled":false,"rental_uris":{"android":"levelo://app?vid=77a1b158-4c60-418f-957c-2c0fc7284540","ios":"levelo://app?vid=77a1b158-4c60-418f-957c-2c0fc7284540"},"vehicle_type_id":"4","last_reported":1745071684,"current_range_meters":18800,"station_id":"ce4bhbh2rcd13ifvqeqg","pricing_plan_id":"cebpf4jnsgd1na2vs0mg"},{"bike_id":"7d28bf23-bfe0-45d0-a2d7-4f2ce3bcb384","system_id":"levelo_inurba_marseille","lat":43.28274,"lon":5.35069,"is_reserved":false,"is_disabled":false,"rental_uris":{"android":"levelo://app?vid=7d28bf23-bfe0-45d0-a2d7-4f2ce3bcb384","ios":"levelo://app?vid=7d28bf23-bfe0-45d0-a2d7-4f2ce3bcb384"},"vehicle_type_id":"4","last_reported":1745071684,"current_range_meters":18800,"station_id":"ce4bhbp2rcd13ifvqerg","pricing_plan_id":"cebpf4jnsgd1na2vs0mg"},{"bike_id":"20e1c3b0-02eb-4fb1-95f0-a9b273b7cd01","system_id":"levelo_inurba_marseille","lat":43.21753,"lon":5.34598,"is_reserved":false,"is_disabled":false,"rental_uris":{"android":"levelo://app?vid=20e1c3b0-02eb-4fb1-95f0-a9b273b7cd01","ios":"levelo://app?vid=20e1c3b0-02eb-4fb1-95f0-a9b273b7cd01"},"vehicle_type_id":"4","last_reported":1745071684,"current_range_meters":18800,"station_id":"st_cvj6r9ubvosntc0bgbag","pricing_plan_id":"cebpf4jnsgd1na2vs0mg"},{"bike_id":"5c5d0122-233c-4fac-a529-3bd37c119cd7","system_id":"levelo_inurba_marseille","lat":43.29796,"lon":5.39342,"is_reserved":false,"is_disabled":false,"rental_uris":{"android":"levelo://app?vid=5c5d0122-233c-4fac-a529-3bd37c119cd7","ios":"levelo://app?vid=5c5d0122-233c-4fac-a529-3bd37c119cd7"},"vehicle_type_id":"4","last_reported":1745071684,"current_range_meters":18000,"station_id":"chh1huq6cuj3fo74tm60","pricing_plan_id":"cebpf4jnsgd1na2vs0mg"},{"bike_id":"8eb10885-4f08-4917-a6a4-19b1f2575ab2","system_id":"levelo_inurba_marseille","lat":43.28978,"lon":5.37832,"is_reserved":false,"is_disabled":false,"rental_uris":{"android":"levelo://app?vid=8eb10885-4f08-4917-a6a4-19b1f2575ab2","ios":"levelo://app?vid=8eb10885-4f08-4917-a6a4-19b1f2575ab2"},"vehicle_type_id":"4","last_reported":1745071684,"current_range_meters":19200,"station_id":"ce4bh9p2rcd13ifvqed0","pricing_plan_id":"cebpf4jnsgd1na2vs0mg"},{"bike_id":"a35955ce-0964-46e1-b009-36aae8a5ec49","system_id":"levelo_inurba_marseille","lat":43.28846,"lon":5.39318,"is_reserved":false,"is_disabled":false,"rental_uris":{"android":"levelo://app?vid=a35955ce-0964-46e1-b009-36aae8a5ec49","ios":"levelo://app?vid=a35955ce-0964-46e1-b009-36aae8a5ec49"},"vehicle_type_id":"4","last_reported":1745071684,"current_range_meters":18800,"station_id":"ce4bh2p2rcd13ifvqdi0","pricing_plan_id":"cebpf4jnsgd1na2vs0mg"},{"bike_id":"7d14fa06-d36d-46e3-bd0a-2c2ba7296ccc","system_id":"levelo_inurba_marseille","lat":43.250923,"lon":5.403098,"is_reserved":false,"is_disabled":false,"rental_uris":{"android":"levelo://app?vid=7d14fa06-d36d-46e3-bd0a-2c2ba7296ccc","ios":"levelo://app?vid=7d14fa06-d36d-46e3-bd0a-2c2ba7296ccc"},"vehicle_type_id":"4","last_reported":1745071684,"current_range_meters":19200,"station_id":"ce4bhlh2rcd13ifvqgig","pricing_plan_id":"cebpf4jnsgd1na2vs0mg"},{"bike_id":"c18778a1-76a4-44f3-ba2a-f9d3b7b6ae3b","system_id":"levelo_inurba_marseille","lat":43.33743,"lon":5.39188,"is_reserved":false,"is_disabled":false,"rental_uris":{"android":"levelo://app?vid=c18778a1-76a4-44f3-ba2a-f9d3b7b6ae3b","ios":"levelo://app?vid=c18778a1-76a4-44f3-ba2a-f9d3b7b6ae3b"},"vehicle_type_id":"4","last_reported":1745071684,"current_range_meters":19200,"station_id":"ce4bhr92rcd13ifvqhsg","pricing_plan_id":"cebpf4jnsgd1na2vs0mg"},{"bike_id":"f7027e6a-48d2-4cae-b50c-97b01f670552","system_id":"levelo_inurba_marseille","lat":43.23969,"lon":5.3664,"is_reserved":false,"is_disabled":false,"rental_uris":{"android":"levelo://app?vid=f7027e6a-48d2-4cae-b50c-97b01f670552","ios":"levelo://app?vid=f7027e6a-48d2-4cae-b50c-97b01f670552"},"vehicle_type_id":"4","last_reported":1745071684,"current_range_meters":19200,"station_id":"ce4bhi12rcd13ifvqfp0","pricing_plan_id":"cebpf4jnsgd1na2vs0mg"},{"bike_id":"53cf4c27-f5dd-498e-9f3c-1bbd8406ebfb","system_id":"levelo_inurba_marseille","lat":43.25501,"lon":5.3765,"is_reserved":false,"is_disabled":false,"rental_uris":{"android":"levelo://app?vid=53cf4c27-f5dd-498e-9f3c-1bbd8406ebfb","ios":"levelo://app?vid=53cf4c27-f5dd-498e-9f3c-1bbd8406ebfb"},"vehicle_type_id":"4","last_reported":1745071684,"current_range_meters":19200,"station_id":"ce4bhh12rcd13ifvqff0","pricing_plan_id":"cebpf4jnsgd1na2vs0mg"},{"bike_id":"a3e59e84-ea6e-4c34-838c-571b21fbc3b1","system_id":"levelo_inurba_marseille","lat":43.298523,"lon":5.362837,"is_reserved":false,"is_disabled":false,"rental_uris":{"android":"levelo://app?vid=a3e59e84-ea6e-4c34-838c-571b21fbc3b1","ios":"levelo://app?vid=a3e59e84-ea6e-4c34-838c-571b21fbc3b1"},"vehicle_type_id":"4","last_reported":1745071684,"current_range_meters":19600,"station_id":"ce4bgpp2rcd13ifvqc3g","pricing_plan_id":"cebpf4jnsgd1na2vs0mg"},{"bike_id":"d53e964c-f934-484c-a259-3e8f23cdd819","system_id":"levelo_inurba_marseille","lat":43.33734,"lon":5.39209,"is_reserved":false,"is_disabled":false,"rental_uris":{"android":"levelo://app?vid=d53e964c-f934-484c-a259-3e8f23cdd819","ios":"levelo://app?vid=d53e964c-f934-484c-a259-3e8f23cdd819"},"vehicle_type_id":"4","last_reported":1745071684,"current_range_meters":19600,"station_id":"ce4bhr92rcd13ifvqhsg","pricing_plan_id":"cebpf4jnsgd1na2vs0mg"},{"bike_id":"7d29063e-cc47-43de-9fe3-33b900004d65","system_id":"levelo_inurba_marseille","lat":43.21191,"lon":5.3508,"is_reserved":false,"is_disabled":false,"rental_uris":{"android":"levelo://app?vid=7d29063e-cc47-43de-9fe3-33b900004d65","ios":"levelo://app?vid=7d29063e-cc47-43de-9fe3-33b900004d65"},"vehicle_type_id":"4","last_reported":1745071684,"current_range_meters":19600,"station_id":"st_cvj6sg6p6f1abm77japg","pricing_plan_id":"cebpf4jnsgd1na2vs0mg"},{"bike_id":"c025a61b-a86b-4ce4-8c78-b0db81ff8788","system_id":"levelo_inurba_marseille","lat":43.27375,"lon":5.36259,"is_reserved":false,"is_disabled":false,"rental_uris":{"android":"levelo://app?vid=c025a61b-a86b-4ce4-8c78-b0db81ff8788","ios":"levelo://app?vid=c025a61b-a86b-4ce4-8c78-b0db81ff8788"},"vehicle_type_id":"4","last_reported":1745071684,"current_range_meters":19600,"station_id":"ce4bhbh2rcd13ifvqeo0","pricing_plan_id":"cebpf4jnsgd1na2vs0mg"},{"bike_id":"b8808bd5-b66c-42b1-8122-616501d1d082","system_id":"levelo_inurba_marseille","lat":43.21751,"lon":5.34594,"is_reserved":false,"is_disabled":false,"rental_uris":{"android":"levelo://app?vid=b8808bd5-b66c-42b1-8122-616501d1d082","ios":"levelo://app?vid=b8808bd5-b66c-42b1-8122-616501d1d082"},"vehicle_type_id":"4","last_reported":1745071684,"current_range_meters":19600,"station_id":"st_cvj6r9ubvosntc0bgbag","pricing_plan_id":"cebpf4jnsgd1na2vs0mg"},{"bike_id":"05d675b3-9f02-4a64-ac92-6f4109d9f482","system_id":"levelo_inurba_marseille","lat":43.22501,"lon":5.34783,"is_reserved":false,"is_disabled":false,"rental_uris":{"android":"levelo://app?vid=05d675b3-9f02-4a64-ac92-6f4109d9f482","ios":"levelo://app?vid=05d675b3-9f02-4a64-ac92-6f4109d9f482"},"vehicle_type_id":"4","last_reported":1745071684,"current_range_meters":19600,"station_id":"st_cvj5dfep6f1abm77gieg","pricing_plan_id":"cebpf4jnsgd1na2vs0mg"},{"bike_id":"6a918590-f4d3-4b57-92dc-c9ccb37552b6","system_id":"levelo_inurba_marseille","lat":43.23068,"lon":5.35492,"is_reserved":false,"is_disabled":false,"rental_uris":{"android":"levelo://app?vid=6a918590-f4d3-4b57-92dc-c9ccb37552b6","ios":"levelo://app?vid=6a918590-f4d3-4b57-92dc-c9ccb37552b6"},"vehicle_type_id":"4","last_reported":1745071684,"current_range_meters":20000,"station_id":"cpo3342slgdg3j2ifvpg","pricing_plan_id":"cebpf4jnsgd1na2vs0mg"},{"bike_id":"ce98f9ed-57b3-49be-88aa-3bcd8853be8c","system_id":"levelo_inurba_marseille","lat":43.21751,"lon":5.34606,"is_reserved":false,"is_disabled":false,"rental_uris":{"android":"levelo://app?vid=ce98f9ed-57b3-49be-88aa-3bcd8853be8c","ios":"levelo://app?vid=ce98f9ed-57b3-49be-88aa-3bcd8853be8c"},"vehicle_type_id":"4","last_reported":1745071684,"current_range_meters":20000,"station_id":"st_cvj6r9ubvosntc0bgbag","pricing_plan_id":"cebpf4jnsgd1na2vs0mg"},{"bike_id":"d66f2fbf-84c1-4006-a003-d92ef3aa9479","system_id":"levelo_inurba_marseille","lat":43.23202,"lon":5.35549,"is_reserved":false,"is_disabled":false,"rental_uris":{"android":"levelo://app?vid=d66f2fbf-84c1-4006-a003-d92ef3aa9479","ios":"levelo://app?vid=d66f2fbf-84c1-4006-a003-d92ef3aa9479"},"vehicle_type_id":"4","last_reported":1745071684,"current_range_meters":20000,"station_id":"ce4bhu92rcd13ifvqi70","pricing_plan_id":"cebpf4jnsgd1na2vs0mg"},{"bike_id":"4658232a-77b6-4679-b12b-266752ae56a6","system_id":"levelo_inurba_marseille","lat":43.21192,"lon":5.3507,"is_reserved":false,"is_disabled":false,"rental_uris":{"android":"levelo://app?vid=4658232a-77b6-4679-b12b-266752ae56a6","ios":"levelo://app?vid=4658232a-77b6-4679-b12b-266752ae56a6"},"vehicle_type_id":"4","last_reported":1745071684,"current_range_meters":20000,"station_id":"st_cvj6sg6p6f1abm77japg","pricing_plan_id":"cebpf4jnsgd1na2vs0mg"},{"bike_id":"388194c0-b233-43c1-bca9-c69c838979d1","system_id":"levelo_inurba_marseille","lat":43.30129,"lon":5.39865,"is_reserved":false,"is_disabled":false,"rental_uris":{"android":"levelo://app?vid=388194c0-b233-43c1-bca9-c69c838979d1","ios":"levelo://app?vid=388194c0-b233-43c1-bca9-c69c838979d1"},"vehicle_type_id":"4","last_reported":1745071684,"current_range_meters":20400,"station_id":"ce4bh0h2rcd13ifvqd40","pricing_plan_id":"cebpf4jnsgd1na2vs0mg"},{"bike_id":"fc9e4a0b-cef4-449a-b7db-636c773d6309","system_id":"levelo_inurba_marseille","lat":43.27405,"lon":5.39792,"is_reserved":false,"is_disabled":false,"rental_uris":{"android":"levelo://app?vid=fc9e4a0b-cef4-449a-b7db-636c773d6309","ios":"levelo://app?vid=fc9e4a0b-cef4-449a-b7db-636c773d6309"},"vehicle_type_id":"4","last_reported":1745071684,"current_range_meters":20400,"station_id":"","pricing_plan_id":"cebpf4jnsgd1na2vs0mg"},{"bike_id":"49d6686e-a6e6-4dda-8a9b-bdf286ce622f","system_id":"levelo_inurba_marseille","lat":43.299095,"lon":5.365481,"is_reserved":false,"is_disabled":false,"rental_uris":{"android":"levelo://app?vid=49d6686e-a6e6-4dda-8a9b-bdf286ce622f","ios":"levelo://app?vid=49d6686e-a6e6-4dda-8a9b-bdf286ce622f"},"vehicle_type_id":"4","last_reported":1745071684,"current_range_meters":20400,"station_id":"ce4bgm92rcd13ifvqbr0","pricing_plan_id":"cebpf4jnsgd1na2vs0mg"},{"bike_id":"9cd66f20-0974-44a3-a00c-3af08e74ebf2","system_id":"levelo_inurba_marseille","lat":43.2602,"lon":5.41752,"is_reserved":false,"is_disabled":false,"rental_uris":{"android":"levelo://app?vid=9cd66f20-0974-44a3-a00c-3af08e74ebf2","ios":"levelo://app?vid=9cd66f20-0974-44a3-a00c-3af08e74ebf2"},"vehicle_type_id":"4","last_reported":1745071684,"current_range_meters":20400,"station_id":"","pricing_plan_id":"cebpf4jnsgd1na2vs0mg"},{"bike_id":"4683e631-4a33-49b4-936e-fb2024af8a44","system_id":"levelo_inurba_marseille","lat":43.27062,"lon":5.40248,"is_reserved":false,"is_disabled":false,"rental_uris":{"android":"levelo://app?vid=4683e631-4a33-49b4-936e-fb2024af8a44","ios":"levelo://app?vid=4683e631-4a33-49b4-936e-fb2024af8a44"},"vehicle_type_id":"4","last_reported":1745071684,"current_range_meters":20400,"station_id":"ce4bhk92rcd13ifvqgc0","pricing_plan_id":"cebpf4jnsgd1na2vs0mg"},{"bike_id":"6d10d7a7-6c32-4e1e-8e59-bb1ff89e5fa7","system_id":"levelo_inurba_marseille","lat":43.32321,"lon":5.36717,"is_reserved":false,"is_disabled":false,"rental_uris":{"android":"levelo://app?vid=6d10d7a7-6c32-4e1e-8e59-bb1ff89e5fa7","ios":"levelo://app?vid=6d10d7a7-6c32-4e1e-8e59-bb1ff89e5fa7"},"vehicle_type_id":"4","last_reported":1745071684,"current_range_meters":20400,"station_id":"ce4bhsh2rcd13ifvqi2g","pricing_plan_id":"cebpf4jnsgd1na2vs0mg"},{"bike_id":"1b2623e0-90bf-4d27-a569-ebc27b9384c2","system_id":"levelo_inurba_marseille","lat":43.24168,"lon":5.36393,"is_reserved":false,"is_disabled":false,"rental_uris":{"android":"levelo://app?vid=1b2623e0-90bf-4d27-a569-ebc27b9384c2","ios":"levelo://app?vid=1b2623e0-90bf-4d27-a569-ebc27b9384c2"},"vehicle_type_id":"4","last_reported":1745071684,"current_range_meters":18000,"station_id":"cpo36qri1sfpv3e86is0","pricing_plan_id":"cebpf4jnsgd1na2vs0mg"},{"bike_id":"e2778453-b727-4edd-80f4-620f53f6527c","system_id":"levelo_inurba_marseille","lat":43.28411,"lon":5.34988,"is_reserved":false,"is_disabled":false,"rental_uris":{"android":"levelo://app?vid=e2778453-b727-4edd-80f4-620f53f6527c","ios":"levelo://app?vid=e2778453-b727-4edd-80f4-620f53f6527c"},"vehicle_type_id":"4","last_reported":1745071684,"current_range_meters":20800,"station_id":"ce4bhbh2rcd13ifvqepg","pricing_plan_id":"cebpf4jnsgd1na2vs0mg"},