{"last_updated":1687896499,"ttl":30,"version":"2.2","data":{"bikes":[{"bike_id":"953bc70b-cf31-4f4a-a32f-fb5c4f6d82fe","system_id":"levelo_inurba_marseille","lat":43.31282,"lon":5.37049,"is_reserved":false,"is_disabled":false,"rental_uris":{"android":"levelo://app?vid=953bc70b-cf31-4f4a-a32f-fb5c4f6d82fe","ios":"levelo://app?vid=953bc70b-cf31-4f4a-a32f-fb5c4f6d82fe"},"vehicle_type_id":"4","last_reported":1687896499,"current_range_meters":20000,"station_id":"","pricing_plan_id":"free"},{"bike_id":"8a71e3c2-1d09-4780-834d-64b0137c9873","system_id":"levelo_inurba_marseille","lat":43.309076,"lon":5.368465,"is_reserved":false,"is_disabled":false,"rental_uris":{"android":"levelo://app?vid=8a71e3c2-1d09-4780-834d-64b0137c9873","ios":"levelo://app?vid=8a71e3c2-1d09-4780-834d-64b0137c9873"},"vehicle_type_id":"4","last_reported":1687896499,"current_range_meters":1200,"station_id":"ce4bgn92rcd13ifvqbvg","pricing_plan_id":"free"},{"bike_id":"947fcf84-c636-4007-8607-690fa191dc37","system_id":"levelo_inurba_marseille","lat":43.31433,"lon":5.37329,"is_reserved":false,"is_disabled":false,"rental_uris":{"android":"levelo://app?vid=947fcf84-c636-4007-8607-690fa191dc37","ios":"levelo://app?vid=947fcf84-c636-4007-8607-690fa191dc37"},"vehicle_type_id":"4","last_reported":1687896499,"current_range_meters":25200,"station_id":"","pricing_plan_id":"free"},{"bike_id":"1a663021-4fa7-4434-a8f9-e55d011f49c4","system_id":"levelo_inurba_marseille","lat":43.314811,"lon":5.373103,"is_reserved":false,"is_disabled":false,"rental_uris":{"android":"levelo://app?vid=1a663021-4fa7-4434-a8f9-e55d011f49c4","ios":"levelo://app?vid=1a663021-4fa7-4434-a8f9-e55d011f49c4"},"vehicle_type_id":"4","last_reported":1687896499,"current_range_meters":11600,"station_id":"ce4bgt12rcd13ifvqcd0","pricing_plan_id":"free"},{"bike_id":"2abc356b-27bd-4d29-af21-88c07cfe4c87","system_id":"levelo_inurba_marseille","lat":43.314811,"lon":5.373104,"is_reserved":false,"is_disabled":false,"rental_uris":{"android":"levelo://app?vid=2abc356b-27bd-4d29-af21-88c07cfe4c87","ios":"levelo://app?vid=2abc356b-27bd-4d29-af21-88c07cfe4c87"},"vehicle_type_id":"4","last_reported":1687896499,"current_range_meters":22000,"station_id":"ce4bgt12rcd13ifvqcd0","pricing_plan_id":"free"},{"bike_id":"f78816cd-c640-4b18-abb0-69fdd80c536f","system_id":"levelo_inurba_marseille","lat":43.30542,"lon":5.36531,"is_reserved":false,"is_disabled":false,"rental_uris":{"android":"levelo://app?vid=f78816cd-c640-4b18-abb0-69fdd80c536f","ios":"levelo://app?vid=f78816cd-c640-4b18-abb0-69fdd80c536f"},"vehicle_type_id":"4","last_reported":1687896499,"current_range_meters":0,"station_id":"ce4bgs12rcd13ifvqcag","pricing_plan_id":"free"},{"bike_id":"7b7731e3-6e5b-42b7-9b0a-2a7a49e9b190","system_id":"levelo_inurba_marseille","lat":43.305989,"lon":5.37225,"is_reserved":false,"is_disabled":false,"rental_uris":{"android":"levelo://app?vid=7b7731e3-6e5b-42b7-9b0a-2a7a49e9b190","ios":"levelo://app?vid=7b7731e3-6e5b-42b7-9b0a-2a7a49e9b190"},"vehicle_type_id":"4","last_reported":1687896499,"current_range_meters":2400,"station_id":"ce4bgqh2rcd13ifvqc4g","pricing_plan_id":"free"},{"bike_id":"c35763eb-b34f-48e9-b588-f631f11b06b7","system_id":"levelo_inurba_marseille","lat":43.305989,"lon":5.37225,"is_reserved":false,"is_disabled":false,"rental_uris":{"android":"levelo://app?vid=c35763eb-b34f-48e9-b588-f631f11b06b7","ios":"levelo://app?vid=c35763eb-b34f-48e9-b588-f631f11b06b7"},"vehicle_type_id":"4","last_reported":1687896499,"current_range_meters":800,"station_id":"ce4bgqh2rcd13ifvqc4g","pricing_plan_id":"free"},{"bike_id":"6460f425-efe3-4b78-83fa-c1a34ebb0b56","system_id":"levelo_inurba_marseille","lat":43.305989,"lon":5.37225,"is_reserved":false,"is_disabled":false,"rental_uris":{"android":"levelo://app?vid=6460f425-efe3-4b78-83fa-c1a34ebb0b56","ios":"levelo://app?vid=6460f425-efe3-4b78-83fa-c1a34ebb0b56"},"vehicle_type_id":"4","last_reported":1687896499,"current_range_meters":16000,"station_id":"ce4bgqh2rcd13ifvqc4g","pricing_plan_id":"free"},{"bike_id":"1b3f26f8-9dc5-4f8f-9db9-1eb070f4b909","system_id":"levelo_inurba_marseille","lat":43.305989,"lon":5.37225,"is_reserved":false,"is_disabled":false,"rental_uris":{"android":"levelo://app?vid=1b3f26f8-9dc5-4f8f-9db9-1eb070f4b909","ios":"levelo://app?vid=1b3f26f8-9dc5-4f8f-9db9-1eb070f4b909"},"vehicle_type_id":"4","last_reported":1687896499,"current_range_meters":28400,"station_id":"ce4bgqh2rcd13ifvqc4g","pricing_plan_id":"free"},{"bike_id":"a6bf1fa2-04ea-4aac-93d7-89fc1eb56c2a","system_id":"levelo_inurba_marseille","lat":43.305989,"lon":5.37225,"is_reserved":false,"is_disabled":false,"rental_uris":{"android":"levelo://app?vid=a6bf1fa2-04ea-4aac-93d7-89fc1eb56c2a","ios":"levelo://app?vid=a6bf1fa2-04ea-4aac-93d7-89fc1eb56c2a"},"vehicle_type_id":"4","last_reported":1687896499,"current_range_meters":22000,"station_id":"ce4bgqh2rcd13ifvqc4g","pricing_plan_id":"free"},{"bike_id":"a532d61e-6305-40e8-9490-59f2878626e7","system_id":"levelo_inurba_marseille","lat":43.305989,"lon":5.37225,"is_reserved":false,"is_disabled":false,"rental_uris":{"android":"levelo://app?vid=a532d61e-6305-40e8-9490-59f2878626e7","ios":"levelo://app?vid=a532d61e-6305-40e8-9490-59f2878626e7"},"vehicle_type_id":"4","last_reported":1687896499,"current_range_meters":5200,"station_id":"ce4bgqh2rcd13ifvqc4g","pricing_plan_id":"free"},{"bike_id":"1091adb0-429d-4806-8596-c0db602daa9a","system_id":"levelo_inurba_marseille","lat":43.308346,"lon":5.376106,"is_reserved":false,"is_disabled":false,"rental_uris":{"android":"levelo://app?vid=1091adb0-429d-4806-8596-c0db602daa9a","ios":"levelo://app?vid=1091adb0-429d-4806-8596-c0db602daa9a"},"vehicle_type_id":"4","last_reported":1687896499,"current_range_meters":19200,"station_id":"ce4bgt92rcd13ifvqcf0","pricing_plan_id":"free"},{"bike_id":"1db5fd78-e6b8-49a1-b3d0-152b3bf7ea86","system_id":"levelo_inurba_marseille","lat":43.3204,"lon":5.37448,"is_reserved":false,"is_disabled":false,"rental_uris":{"android":"levelo://app?vid=1db5fd78-e6b8-49a1-b3d0-152b3bf7ea86","ios":"levelo://app?vid=1db5fd78-e6b8-49a1-b3d0-152b3bf7ea86"},"vehicle_type_id":"4","last_reported":1687896499,"current_range_meters":26800,"station_id":"","pricing_plan_id":"free"},{"bike_id":"4ee15348-15e2-4f3c-9644-cacb33387e2c","system_id":"levelo_inurba_marseille","lat":43.315293,"lon":5.380349,"is_reserved":false,"is_disabled":false,"rental_uris":{"android":"levelo://app?vid=4ee15348-15e2-4f3c-9644-cacb33387e2c","ios":"levelo://app?vid=4ee15348-15e2-4f3c-9644-cacb33387e2c"},"vehicle_type_id":"4","last_reported":1687896499,"current_range_meters":8000,"station_id":"ce4bhsp2rcd13ifvqi50","pricing_plan_id":"free"},{"bike_id":"0cb784f1-566d-4f46-b9f0-75eb596b3813","system_id":"levelo_inurba_marseille","lat":43.315293,"lon":5.380349,"is_reserved":false,"is_disabled":false,"rental_uris":{"android":"levelo://app?vid=0cb784f1-566d-4f46-b9f0-75eb596b3813","ios":"levelo://app?vid=0cb784f1-566d-4f46-b9f0-75eb596b3813"},"vehicle_type_id":"4","last_reported":1687896499,"current_range_meters":17200,"station_id":"ce4bhsp2rcd13ifvqi50","pricing_plan_id":"free"},{"bike_id":"af031558-539c-4f73-88f7-11fc4820992b","system_id":"levelo_inurba_marseille","lat":43.301939,"lon":5.366286,"is_reserved":false,"is_disabled":false,"rental_uris":{"android":"levelo://app?vid=af031558-539c-4f73-88f7-11fc4820992b","ios":"levelo://app?vid=af031558-539c-4f73-88f7-11fc4820992b"},"vehicle_type_id":"4","last_reported":1687896499,"current_range_meters":12400,"station_id":"ce4bgrh2rcd13ifvqc8g","pricing_plan_id":"free"},{"bike_id":"8b83bcaa-8ff4-4acd-bde6-377d032bcf8d","system_id":"levelo_inurba_marseille","lat":43.308012,"lon":5.381511,"is_reserved":false,"is_disabled":false,"rental_uris":{"android":"levelo://app?vid=8b83bcaa-8ff4-4acd-bde6-377d032bcf8d","ios":"levelo://app?vid=8b83bcaa-8ff4-4acd-bde6-377d032bcf8d"},"vehicle_type_id":"4","last_reported":1687896499,"current_range_meters":22400,"station_id":"ce4bgt12rcd13ifvqce0","pricing_plan_id":"free"},{"bike_id":"3038bb4c-a8ee-4b41-8bb4-297ec350b62e","system_id":"levelo_inurba_marseille","lat":43.308012,"lon":5.381511,"is_reserved":false,"is_disabled":false,"rental_uris":{"android":"levelo://app?vid=3038bb4c-a8ee-4b41-8bb4-297ec350b62e","ios":"levelo://app?vid=3038bb4c-a8ee-4b41-8bb4-297ec350b62e"},"vehicle_type_id":"4","last_reported":1687896499,"current_range_meters":9600,"station_id":"ce4bgt12rcd13ifvqce0","pricing_plan_id":"free"},{"bike_id":"0c33bd2f-41ec-43b9-83e7-159ff8d4232d","system_id":"levelo_inurba_marseille","lat":43.304606,"lon":5.379026,"is_reserved":false,"is_disabled":false,"rental_uris":{"android":"levelo://app?vid=0c33bd2f-41ec-43b9-83e7-159ff8d4232d","ios":"levelo://app?vid=0c33bd2f-41ec-43b9-83e7-159ff8d4232d"},"vehicle_type_id":"4","last_reported":1687896499,"current_range_meters":20000,"station_id":"ce4bgup2rcd13ifvqcn0","pricing_plan_id":"free"},{"bike_id":"fe250cae-b771-4b52-bf61-525f2fae588e","system_id":"levelo_inurba_marseille","lat":43.30471,"lon":5.37903,"is_reserved":false,"is_disabled":false,"rental_uris":{"android":"levelo://app?vid=fe250cae-b771-4b52-bf61-525f2fae588e","ios":"levelo://app?vid=fe250cae-b771-4b52-bf61-525f2fae588e"},"vehicle_type_id":"4","last_reported":1687896499,"current_range_meters":12000,"station_id":"ce4bgup2rcd13ifvqcn0","pricing_plan_id":"free"},{"bike_id":"36f1e1f7-1618-4d37-b0ef-451d133e8bee","system_id":"levelo_inurba_marseille","lat":43.30465,"lon":5.37898,"is_reserved":false,"is_disabled":false,"rental_uris":{"android":"levelo://app?vid=36f1e1f7-1618-4d37-b0ef-451d133e8bee","ios":"levelo://app?vid=36f1e1f7-1618-4d37-b0ef-451d133e8bee"},"vehicle_type_id":"4","last_reported":1687896499,"current_range_meters":30000,"station_id":"ce4bgup2rcd13ifvqcn0","pricing_plan_id":"free"},{"bike_id":"8c5924d8-4186-4e57-bcc1-a17a911f0762","system_id":"levelo_inurba_marseille","lat":43.30466,"lon":5.37901,"is_reserved":false,"is_disabled":false,"rental_uris":{"android":"levelo://app?vid=8c5924d8-4186-4e57-bcc1-a17a911f0762","ios":"levelo://app?vid=8c5924d8-4186-4e57-bcc1-a17a911f0762"},"vehicle_type_id":"4","last_reported":1687896499,"current_range_meters":18800,"station_id":"ce4bgup2rcd13ifvqcn0","pricing_plan_id":"free"},{"bike_id":"a0a2169e-9b18-4ac6-a085-f46d22c33266","system_id":"levelo_inurba_marseille","lat":43.30462,"lon":5.37899,"is_reserved":false,"is_disabled":false,"rental_uris":{"android":"levelo://app?vid=a0a2169e-9b18-4ac6-a085-f46d22c33266","ios":"levelo://app?vid=a0a2169e-9b18-4ac6-a085-f46d22c33266"},"vehicle_type_id":"4","last_reported":1687896499,"current_range_meters":23600,"station_id":"ce4bgup2rcd13ifvqcn0","pricing_plan_id":"free"},{"bike_id":"4fbe4e81-c84e-486f-a829-7d1a92ed1530","system_id":"levelo_inurba_marseille","lat":43.304606,"lon":5.379026,"is_reserved":false,"is_disabled":false,"rental_uris":{"android":"levelo://app?vid=4fbe4e81-c84e-486f-a829-7d1a92ed1530","ios":"levelo://app?vid=4fbe4e81-c84e-486f-a829-7d1a92ed1530"},"vehicle_type_id":"4","last_reported":1687896499,"current_range_meters":31200,"station_id":"ce4bgup2rcd13ifvqcn0","pricing_plan_id":"free"},{"bike_id":"06e3420b-62f4-4ce1-baa7-ce27795884cb","system_id":"levelo_inurba_marseille","lat":43.30462,"lon":5.37903,"is_reserved":false,"is_disabled":false,"rental_uris":{"android":"levelo://app?vid=06e3420b-62f4-4ce1-baa7-ce27795884cb","ios":"levelo://app?vid=06e3420b-62f4-4ce1-baa7-ce27795884cb"},"vehicle_type_id":"4","last_reported":1687896499,"current_range_meters":19600,"station_id":"ce4bgup2rcd13ifvqcn0","pricing_plan_id":"free"},{"bike_id":"f3505c6d-714e-4f14-b55b-af56c4212c96","system_id":"levelo_inurba_marseille","lat":43.304606,"lon":5.379026,"is_reserved":false,"is_disabled":false,"rental_uris":{"android":"levelo://app?vid=f3505c6d-714e-4f14-b55b-af56c4212c96","ios":"levelo://app?vid=f3505c6d-714e-4f14-b55b-af56c4212c96"},"vehicle_type_id":"4","last_reported":1687896499,"current_range_meters":31200,"station_id":"ce4bgup2rcd13ifvqcn0","pricing_plan_id":"free"},{"bike_id":"bc0d9dd7-5fd3-43c9-9b15-3017e233aa7d","system_id":"levelo_inurba_marseille","lat":43.304606,"lon":5.379026,"is_reserved":false,"is_disabled":false,"rental_uris":{"android":"levelo://app?vid=bc0d9dd7-5fd3-43c9-9b15-3017e233aa7d","ios":"levelo://app?vid=bc0d9dd7-5fd3-43c9-9b15-3017e233aa7d"},"vehicle_type_id":"4","last_reported":1687896499,"current_range_meters":27200,"station_id":"ce4bgup2rcd13ifvqcn0","pricing_plan_id":"free"},{"bike_id":"cbcd46ef-e826-4ad7-af9b-56046a0ea98a","system_id":"levelo_inurba_marseille","lat":43.304606,"lon":5.379026,"is_reserved":false,"is_disabled":false,"rental_uris":{"android":"levelo://app?vid=cbcd46ef-e826-4ad7-af9b-56046a0ea98a","ios":"levelo://app?vid=cbcd46ef-e826-4ad7-af9b-56046a0ea98a"},"vehicle_type_id":"4","last_reported":1687896499,"current_range_meters":31600,"station_id":"ce4bgup2rcd13ifvqcn0","pricing_plan_id":"free"},{"bike_id":"ab2cad58-0abc-43ca-b59f-4c564be684d4","system_id":"levelo_inurba_marseille","lat":43.304606,"lon":5.379026,"is_reserved":false,"is_disabled":false,"rental_uris":{"android":"levelo://app?vid=ab2cad58-0abc-43ca-b59f-4c564be684d4","ios":"levelo://app?vid=ab2cad58-0abc-43ca-b59f-4c564be684d4"},"vehicle_type_id":"4","last_reported":1687896499,"current_range_meters":30800,"station_id":"ce4bgup2rcd13ifvqcn0","pricing_plan_id":"free"},{"bike_id":"e0dd89c4-b09e-44cd-b62f-33a9b88e9e4d","system_id":"levelo_inurba_marseille","lat":43.304606,"lon":5.379026,"is_reserved":false,"is_disabled":false,"rental_uris":{"android":"levelo://app?vid=e0dd89c4-b09e-44cd-b62f-33a9b88e9e4d","ios":"levelo://app?vid=e0dd89c4-b09e-44cd-b62f-33a9b88e9e4d"},"vehicle_type_id":"4","last_reported":1687896499,"current_range_meters":31600,"station_id":"ce4bgup2rcd13ifvqcn0","pricing_plan_id":"free"},{"bike_id":"6fdb936a-e512-4f0f-a16e-70aa7eacd9c1","system_id":"levelo_inurba_marseille","lat":43.304606,"lon":5.379026,"is_reserved":false,"is_disabled":false,"rental_uris":{"android":"levelo://app?vid=6fdb936a-e512-4f0f-a16e-70aa7eacd9c1","ios":"levelo://app?vid=6fdb936a-e512-4f0f-a16e-70aa7eacd9c1"},"vehicle_type_id":"4","last_reported":1687896499,"current_range_meters":30000,"station_id":"ce4bgup2rcd13ifvqcn0","pricing_plan_id":"free"},{"bike_id":"9abb8097-dedf-4de4-9be4-e8d60959d708","system_id":"levelo_inurba_marseille","lat":43.304606,"lon":5.379026,"is_reserved":false,"is_disabled":false,"rental_uris":{"android":"levelo://app?vid=9abb8097-dedf-4de4-9be4-e8d60959d708","ios":"levelo://app?vid=9abb8097-dedf-4de4-9be4-e8d60959d708"},"vehicle_type_id":"4","last_reported":1687896499,"current_range_meters":31200,"station_id":"ce4bgup2rcd13ifvqcn0","pricing_plan_id":"free"},{"bike_id":"eb540c70-173b-41d4-a902-86f882b60715","system_id":"levelo_inurba_marseille","lat":43.304606,"lon":5.379026,"is_reserved":false,"is_disabled":false,"rental_uris":{"android":"levelo://app?vid=eb540c70-173b-41d4-a902-86f882b60715","ios":"levelo://app?vid=eb540c70-173b-41d4-a902-86f882b60715"},"vehicle_type_id":"4","last_reported":1687896499,"current_range_meters":13600,"station_id":"ce4bgup2rcd13ifvqcn0","pricing_plan_id":"free"},{"bike_id":"cb14ce28-ff7f-4d3a-b2a2-2c165988c2cb","system_id":"levelo_inurba_marseille","lat":43.30058,"lon":5.36546,"is_reserved":false,"is_disabled":false,"rental_uris":{"android":"levelo://app?vid=cb14ce28-ff7f-4d3a-b2a2-2c165988c2cb","ios":"levelo://app?vid=cb14ce28-ff7f-4d3a-b2a2-2c165988c2cb"},"vehicle_type_id":"4","last_reported":1687896499,"current_range_meters":13600,"station_id":"","pricing_plan_id":"free"},{"bike_id":"e3ffbad8-9b94-4cdf-b094-f77e7df949c1","system_id":"levelo_inurba_marseille","lat":43.319935,"lon":5.381699,"is_reserved":false,"is_disabled":false,"rental_uris":{"android":"levelo://app?vid=e3ffbad8-9b94-4cdf-b094-f77e7df949c1","ios":"levelo://app?vid=e3ffbad8-9b94-4cdf-b094-f77e7df949c1"},"vehicle_type_id":"4","last_reported":1687896499,"current_range_meters":4400,"station_id":"ce4bhr12rcd13ifvqhpg","pricing_plan_id":"free"},{"bike_id":"ff2674b5-8725-4878-b5d3-488c50f2698c","system_id":"levelo_inurba_marseille","lat":43.319935,"lon":5.381699,"is_reserved":false,"is_disabled":false,"rental_uris":{"android":"levelo://app?vid=ff2674b5-8725-4878-b5d3-488c50f2698c","ios":"levelo://app?vid=ff2674b5-8725-4878-b5d3-488c50f2698c"},"vehicle_type_id":"4","last_reported":1687896499,"current_range_meters":17600,"station_id":"ce4bhr12rcd13ifvqhpg","pricing_plan_id":"free"},{"bike_id":"0be3ddb2-5315-4042-a49d-e4e79cc26a63","system_id":"levelo_inurba_marseille","lat":43.313571,"lon":5.384829,"is_reserved":false,"is_disabled":false,"rental_uris":{"android":"levelo://app?vid=0be3ddb2-5315-4042-a49d-e4e79cc26a63","ios":"levelo://app?vid=0be3ddb2-5315-4042-a49d-e4e79cc26a63"},"vehicle_type_id":"4","last_reported":1687896499,"current_range_meters":25200,"station_id":"ce4bgt92rcd13ifvqcf0","pricing_plan_id":"free"},{"bike_id":"495c5e31-f246-409b-acc0-e77ef2f8851c","system_id":"levelo_inurba_marseille","lat":43.31365,"lon":5.38494,"is_reserved":false,"is_disabled":false,"rental_uris":{"android":"levelo://app?vid=495c5e31-f246-409b-acc0-e77ef2f8851c","ios":"levelo://app?vid=495c5e31-f246-409b-acc0-e77ef2f8851c"},"vehicle_type_id":"4","last_reported":1687896499,"current_range_meters":14400,"station_id":"ce4bgt92rcd13ifvqcf0","pricing_plan_id":"free"},{"bike_id":"b9104778-212d-4ec5-905f-ecae5799fe68","system_id":"levelo_inurba_marseille","lat":43.305364,"lon":5.384119,"is_reserved":false,"is_disabled":false,"rental_uris":{"android":"levelo://app?vid=b9104778-212d-4ec5-905f-ecae5799fe68","ios":"levelo://app?vid=b9104778-212d-4ec5-905f-ecae5799fe68"},"vehicle_type_id":"4","last_reported":1687896499,"current_range_meters":24800,"station_id":"ce4bgg92rcd13ifvqb30","pricing_plan_id":"free"},{"bike_id":"efa8b239-6033-40f4-beb5-d54a69f0db9c","system_id":"levelo_inurba_marseille","lat":43.299243,"lon":5.37481,"is_reserved":false,"is_disabled":false,"rental_uris":{"android":"levelo://app?vid=efa8b239-6033-40f4-beb5-d54a69f0db9c","ios":"levelo://app?vid=efa8b239-6033-40f4-beb5-d54a69f0db9c"},"vehicle_type_id":"4","last_reported":1687896499,"current_range_meters":29600,"station_id":"ce4bgjh2rcd13ifvqbg0","pricing_plan_id":"free"},{"bike_id":"b1a60b5d-9b5e-4d90-9f91-2f81f4d2f289","system_id":"levelo_inurba_marseille","lat":43.299243,"lon":5.374807,"is_reserved":false,"is_disabled":false,"rental_uris":{"android":"levelo://app?vid=b1a60b5d-9b5e-4d90-9f91-2f81f4d2f289","ios":"levelo://app?vid=b1a60b5d-9b5e-4d90-9f91-2f81f4d2f289"},"vehicle_type_id":"4","last_reported":1687896499,"current_range_meters":30400,"station_id":"ce4bgjh2rcd13ifvqbg0","pricing_plan_id":"free"},{"bike_id":"5108659d-1431-4d89-a11a-e27336cba391","system_id":"levelo_inurba_marseille","lat":43.328371,"lon":5.366909,"is_reserved":false,"is_disabled":false,"rental_uris":{"android":"levelo://app?vid=5108659d-1431-4d89-a11a-e27336cba391","ios":"levelo://app?vid=5108659d-1431-4d89-a11a-e27336cba391"},"vehicle_type_id":"4","last_reported":1687896499,"current_range_meters":20400,"station_id":"ce4bhs92rcd13ifvqi0g","pricing_plan_id":"free"},{"bike_id":"902f7fd1-55f5-4375-853a-37b7b54a15c7","system_id":"levelo_inurba_marseille","lat":43.328371,"lon":5.366909,"is_reserved":false,"is_disabled":false,"rental_uris":{"android":"levelo://app?vid=902f7fd1-55f5-4375-853a-37b7b54a15c7","ios":"levelo://app?vid=902f7fd1-55f5-4375-853a-37b7b54a15c7"},"vehicle_type_id":"4","last_reported":1687896499,"current_range_meters":800,"station_id":"ce4bhs92rcd13ifvqi0g","pricing_plan_id":"free"},{"bike_id":"4ad0820a-b4f0-4687-9297-85e68595ea74","system_id":"levelo_inurba_marseille","lat":43.328371,"lon":5.366909,"is_reserved":false,"is_disabled":false,"rental_uris":{"android":"levelo://app?vid=4ad0820a-b4f0-4687-9297-85e68595ea74","ios":"levelo://app?vid=4ad0820a-b4f0-4687-9297-85e68595ea74"},"vehicle_type_id":"4","last_reported":1687896499,"current_range_meters":20000,"station_id":"ce4bhs92rcd13ifvqi0g","pricing_plan_id":"free"},{"bike_id":"2052a8d7-1b0b-4941-a806-7b1361a9aa6c","system_id":"levelo_inurba_marseille","lat":43.328371,"lon":5.366909,"is_reserved":false,"is_disabled":false,"rental_uris":{"android":"levelo://app?vid=2052a8d7-1b0b-4941-a806-7b1361a9aa6c","ios":"levelo://app?vid=2052a8d7-1b0b-4941-a806-7b1361a9aa6c"},"vehicle_type_id":"4","last_reported":1687896499,"current_range_meters":400,"station_id":"ce4bhs92rcd13ifvqi0g","pricing_plan_id":"free"},{"bike_id":"6fffd513-4814-4955-a96a-37c2be6aeead","system_id":"levelo_inurba_marseille","lat":43.328371,"lon":5.366909,"is_reserved":false,"is_disabled":false,"rental_uris":{"android":"levelo://app?vid=6fffd513-4814-4955-a96a-37c2be6aeead","ios":"levelo://app?vid=6fffd513-4814-4955-a96a-37c2be6aeead"},"vehicle_type_id":"4","last_reported":1687896499,"current_range_meters":16000,"station_id":"ce4bhs92rcd13ifvqi0g","pricing_plan_id":"free"},{"bike_id":"8d98417a-cbe4-4269-8bc9-598373a7d5de","system_id":"levelo_inurba_marseille","lat":43.3287,"lon":5.36296,"is_reserved":false,"is_disabled":false,"rental_uris":{"android":"levelo://app?vid=8d98417a-cbe4-4269-8bc9-598373a7d5de","ios":"levelo://app?vid=8d98417a-cbe4-4269-8bc9-598373a7d5de"},"vehicle_type_id":"4","last_reported":1687896499,"current_range_meters":6400,"station_id":"","pricing_plan_id":"free"},{"bike_id":"3bc73f1d-6930-4c4b-ac38-651f5ad6568e","system_id":"levelo_inurba_marseille","lat":43.309589,"lon":5.390258,"is_reserved":false,"is_disabled":false,"rental_uris":{"android":"levelo://app?vid=3bc73f1d-6930-4c4b-ac38-651f5ad6568e","ios":"levelo://app?vid=3bc73f1d-6930-4c4b-ac38-651f5ad6568e"},"vehicle_type_id":"4","last_reported":1687896499,"current_range_meters":6800,"station_id":"ce4bgup2rcd13ifvqco0","pricing_plan_id":"free"},{"bike_id":"ce60667e-74e9-4c72-a42c-e0832b340efa","system_id":"levelo_inurba_marseille","lat":43.309589,"lon":5.390258,"is_reserved":false,"is_disabled":false,"rental_uris":{"android":"levelo://app?vid=ce60667e-74e9-4c72-a42c-e0832b340efa","ios":"levelo://app?vid=ce60667e-74e9-4c72-a42c-e0832b340efa"},"vehicle_type_id":"4","last_reported":1687896499,"current_range_meters":14400,"station_id":"ce4bgup2rcd13ifvqco0","pricing_plan_id":"free"},{"bike_id":"a0a1768e-9505-41f3-85c5-dbd966c1563e","system_id":"levelo_inurba_marseille","lat":43.309589,"lon":5.390258,"is_reserved":false,"is_disabled":false,"rental_uris":{"android":"levelo://app?vid=a0a1768e-9505-41f3-85c5-dbd966c1563e","ios":"levelo://app?vid=a0a1768e-9505-41f3-85c5-dbd966c1563e"},"vehicle_type_id":"4","last_reported":1687896499,"current_range_meters":14800,"station_id":"ce4bgup2rcd13ifvqco0","pricing_plan_id":"free"},{"bike_id":"a66c95c7-e870-44cc-93bd-8cc5c1cff56a","system_id":"levelo_inurba_marseille","lat":43.309589,"lon":5.390258,"is_reserved":false,"is_disabled":false,"rental_uris":{"android":"levelo://app?vid=a66c95c7-e870-44cc-93bd-8cc5c1cff56a","ios":"levelo://app?vid=a66c95c7-e870-44cc-93bd-8cc5c1cff56a"},"vehicle_type_id":"4","last_reported":1687896499,"current_range_meters":2800,"station_id":"ce4bgup2rcd13ifvqco0","pricing_plan_id":"free"},{"bike_id":"43ddf487-4679-47ab-a640-42eb7f0c8f92","system_id":"levelo_inurba_marseille","lat":43.31763,"lon":5.39007,"is_reserved":false,"is_disabled":false,"rental_uris":{"android":"levelo://app?vid=43ddf487-4679-47ab-a640-42eb7f0c8f92","ios":"levelo://app?vid=43ddf487-4679-47ab-a640-42eb7f0c8f92"},"vehicle_type_id":"4","last_reported":1687896499,"current_range_meters":27200,"station_id":"ce4bhqp2rcd13ifvqhng","pricing_plan_id":"free"},{"bike_id":"868a6e2d-7909-4b20-be84-15fa3b700f4f","system_id":"levelo_inurba_marseille","lat":43.317557,"lon":5.390173,"is_reserved":false,"is_disabled":false,"rental_uris":{"android":"levelo://app?vid=868a6e2d-7909-4b20-be84-15fa3b700f4f","ios":"levelo://app?vid=868a6e2d-7909-4b20-be84-15fa3b700f4f"},"vehicle_type_id":"4","last_reported":1687896499,"current_range_meters":31200,"station_id":"ce4bhqp2rcd13ifvqhng","pricing_plan_id":"free"},{"bike_id":"c27ec358-c089-481e-a821-b37b206fc4b7","system_id":"levelo_inurba_marseille","lat":43.317557,"lon":5.390173,"is_reserved":false,"is_disabled":false,"rental_uris":{"android":"levelo://app?vid=c27ec358-c089-481e-a821-b37b206fc4b7","ios":"levelo://app?vid=c27ec358-c089-481e-a821-b37b206fc4b7"},"vehicle_type_id":"4","last_reported":1687896499,"current_range_meters":9200,"station_id":"ce4bhqp2rcd13ifvqhng","pricing_plan_id":"free"},{"bike_id":"1c150319-28cd-412a-b884-5193ede0cbc1","system_id":"levelo_inurba_marseille","lat":43.317557,"lon":5.390173,"is_reserved":false,"is_disabled":false,"rental_uris":{"android":"levelo://app?vid=1c150319-28cd-412a-b884-5193ede0cbc1","ios":"levelo://app?vid=1c150319-28cd-412a-b884-5193ede0cbc1"},"vehicle_type_id":"4","last_reported":1687896499,"current_range_meters":31200,"station_id":"ce4bhqp2rcd13ifvqhng","pricing_plan_id":"free"},{"bike_id":"7813a6d8-fb21-467b-82f3-814ade40895a","system_id":"levelo_inurba_marseille","lat":43.2992,"lon":5.38329,"is_reserved":false,"is_disabled":false,"rental_uris":{"android":"levelo://app?vid=7813a6d8-fb21-467b-82f3-814ade40895a","ios":"levelo://app?vid=7813a6d8-fb21-467b-82f3-814ade40895a"},"vehicle_type_id":"4","last_reported":1687896499,"current_range_meters":17600,"station_id":"","pricing_plan_id":"free"},{"bike_id":"17caf6cf-c025-4a9c-bbbe-b90972e8c289","system_id":"levelo_inurba_marseille","lat":43.304278,"lon":5.388868,"is_reserved":false,"is_disabled":false,"rental_uris":{"android":"levelo://app?vid=17caf6cf-c025-4a9c-bbbe-b90972e8c289","ios":"levelo://app?vid=17caf6cf-c025-4a9c-bbbe-b90972e8c289"},"vehicle_type_id":"4","last_reported":1687896499,"current_range_meters":20400,"station_id":"ce4bgk12rcd13ifvqbi0","pricing_plan_id":"free"},{"bike_id":"63f4cb63-4531-415b-bcba-a2aa2425df29","system_id":"levelo_inurba_marseille","lat":43.29785,"lon":5.38101,"is_reserved":false,"is_disabled":false,"rental_uris":{"android":"levelo://app?vid=63f4cb63-4531-415b-bcba-a2aa2425df29","ios":"levelo://app?vid=63f4cb63-4531-415b-bcba-a2aa2425df29"},"vehicle_type_id":"4","last_reported":1687896499,"current_range_meters":31200,"station_id":"ce4bgip2rcd13ifvqbb0","pricing_plan_id":"free"},{"bike_id":"ea64215e-dc8f-466a-acfa-df696589d715","system_id":"levelo_inurba_marseille","lat":43.299707,"lon":5.384859,"is_reserved":false,"is_disabled":false,"rental_uris":{"android":"levelo://app?vid=ea64215e-dc8f-466a-acfa-df696589d715","ios":"levelo://app?vid=ea64215e-dc8f-466a-acfa-df696589d715"},"vehicle_type_id":"4","last_reported":1687896499,"current_range_meters":2000,"station_id":"ce4bgj92rcd13ifvqbd0","pricing_plan_id":"free"},{"bike_id":"419c0350-51f0-4ba4-a2c4-0fd1233d8129","system_id":"levelo_inurba_marseille","lat":43.299707,"lon":5.384859,"is_reserved":false,"is_disabled":false,"rental_uris":{"android":"levelo://app?vid=419c0350-51f0-4ba4-a2c4-0fd1233d8129","ios":"levelo://app?vid=419c0350-51f0-4ba4-a2c4-0fd1233d8129"},"vehicle_type_id":"4","last_reported":1687896499,"current_range_meters":2000,"station_id":"ce4bgj92rcd13ifvqbd0","pricing_plan_id":"free"},{"bike_id":"819e1fd5-c1ce-4e70-8180-96f2ac41f990","system_id":"levelo_inurba_marseille","lat":43.286961,"lon":5.373785,"is_reserved":false,"is_disabled":false,"rental_uris":{"android":"levelo://app?vid=819e1fd5-c1ce-4e70-8180-96f2ac41f990","ios":"levelo://app?vid=819e1fd5-c1ce-4e70-8180-96f2ac41f990"},"vehicle_type_id":"4","last_reported":1687896499,"current_range_meters":10800,"station_id":"ce4bh3p2rcd13ifvqdq0","pricing_plan_id":"free"},{"bike_id":"28653ce8-4530-4d71-bac3-133efdad5ded","system_id":"levelo_inurba_marseille","lat":43.29975,"lon":5.38497,"is_reserved":false,"is_disabled":false,"rental_uris":{"android":"levelo://app?vid=28653ce8-4530-4d71-bac3-133efdad5ded","ios":"levelo://app?vid=28653ce8-4530-4d71-bac3-133efdad5ded"},"vehicle_type_id":"4","last_reported":1687896499,"current_range_meters":26800,"station_id":"ce4bgj92rcd13ifvqbd0","pricing_plan_id":"free"},{"bike_id":"9e1fc0b3-9203-4676-aa3f-4cbb37fb6e55","system_id":"levelo_inurba_marseille","lat":43.299724,"lon":5.384848,"is_reserved":false,"is_disabled":false,"rental_uris":{"android":"levelo://app?vid=9e1fc0b3-9203-4676-aa3f-4cbb37fb6e55","ios":"levelo://app?vid=9e1fc0b3-9203-4676-aa3f-4cbb37fb6e55"},"vehicle_type_id":"4","last_reported":1687896499,"current_range_meters":15200,"station_id":"ce4bgj92rcd13ifvqbd0","pricing_plan_id":"free"},{"bike_id":"0b64ce55-2a83-4310-9fc8-0db6a542a525","system_id":"levelo_inurba_marseille","lat":43.299724,"lon":5.384848,"is_reserved":false,"is_disabled":false,"rental_uris":{"android":"levelo://app?vid=0b64ce55-2a83-4310-9fc8-0db6a542a525","ios":"levelo://app?vid=0b64ce55-2a83-4310-9fc8-0db6a542a525"},"vehicle_type_id":"4","last_reported":1687896499,"current_range_meters":400,"station_id":"ce4bgj92rcd13ifvqbd0","pricing_plan_id":"free"},{"bike_id":"923ead6a-62bd-4631-bcbe-364552acbeb1","system_id":"levelo_inurba_marseille","lat":43.29961,"lon":5.385,"is_reserved":false,"is_disabled":false,"rental_uris":{"android":"levelo://app?vid=923ead6a-62bd-4631-bcbe-364552acbeb1","ios":"levelo://app?vid=923ead6a-62bd-4631-bcbe-364552acbeb1"},"vehicle_type_id":"4","last_reported":1687896499,"current_range_meters":12400,"station_id":"ce4bgj92rcd13ifvqbd0","pricing_plan_id":"free"},{"bike_id":"0f1d1613-e70d-4c72-a9eb-9a15204b459d","system_id":"levelo_inurba_marseille","lat":43.32367,"lon":5.388836,"is_reserved":false,"is_disabled":false,"rental_uris":{"android":"levelo://app?vid=0f1d1613-e70d-4c72-a9eb-9a15204b459d","ios":"levelo://app?vid=0f1d1613-e70d-4c72-a9eb-9a15204b459d"},"vehicle_type_id":"4","last_reported":1687896499,"current_range_meters":24800,"station_id":"ce4bhqp2rcd13ifvqhog","pricing_plan_id":"free"},{"bike_id":"d94e516d-f165-4856-adcd-253e139ac1f1","system_id":"levelo_inurba_marseille","lat":43.32367,"lon":5.388836,"is_reserved":false,"is_disabled":false,"rental_uris":{"android":"levelo://app?vid=d94e516d-f165-4856-adcd-253e139ac1f1","ios":"levelo://app?vid=d94e516d-f165-4856-adcd-253e139ac1f1"},"vehicle_type_id":"4","last_reported":1687896499,"current_range_meters":21200,"station_id":"ce4bhqp2rcd13ifvqhog","pricing_plan_id":"free"},{"bike_id":"5940a31c-91d0-4bd1-85a2-4b971ae4d9d7","system_id":"levelo_inurba_marseille","lat":43.32367,"lon":5.388836,"is_reserved":false,"is_disabled":false,"rental_uris":{"android":"levelo://app?vid=5940a31c-91d0-4bd1-85a2-4b971ae4d9d7","ios":"levelo://app?vid=5940a31c-91d0-4bd1-85a2-4b971ae4d9d7"},"vehicle_type_id":"4","last_reported":1687896499,"current_range_meters":28400,"station_id":"ce4bhqp2rcd13ifvqhog","pricing_plan_id":"free"},{"bike_id":"10ae1162-4e36-4f8f-b800-7fbb623ecf6b","system_id":"levelo_inurba_marseille","lat":43.32367,"lon":5.388836,"is_reserved":false,"is_disabled":false,"rental_uris":{"android":"levelo://app?vid=10ae1162-4e36-4f8f-b800-7fbb623ecf6b","ios":"levelo://app?vid=10ae1162-4e36-4f8f-b800-7fbb623ecf6b"},"vehicle_type_id":"4","last_reported":1687896499,"current_range_meters":29200,"station_id":"ce4bhqp2rcd13ifvqhog","pricing_plan_id":"free"},{"bike_id":"f8d99bf0-091d-4df6-93eb-3f4c79878874","system_id":"levelo_inurba_marseille","lat":43.32367,"lon":5.388836,"is_reserved":false,"is_disabled":false,"rental_uris":{"android":"levelo://app?vid=f8d99bf0-091d-4df6-93eb-3f4c79878874","ios":"levelo://app?vid=f8d99bf0-091d-4df6-93eb-3f4c79878874"},"vehicle_type_id":"4","last_reported":1687896499,"current_range_meters":23200,"station_id":"ce4bhqp2rcd13ifvqhog","pricing_plan_id":"free"},{"bike_id":"45cac2bc-1223-4321-9e57-bf15d91b2370","system_id":"levelo_inurba_marseille","lat":43.32367,"lon":5.388836,"is_reserved":false,"is_disabled":false,"rental_uris":{"android":"levelo://app?vid=45cac2bc-1223-4321-9e57-bf15d91b2370","ios":"levelo://app?vid=45cac2bc-1223-4321-9e57-bf15d91b2370"},"vehicle_type_id":"4","last_reported":1687896499,"current_range_meters":21600,"station_id":"ce4bhqp2rcd13ifvqhog","pricing_plan_id":"free"},{"bike_id":"a990baaa-8daf-4ef0-9060-f5af73b1b036","system_id":"levelo_inurba_marseille","lat":43.292749,"lon":5.368398,"is_reserved":false,"is_disabled":false,"rental_uris":{"android":"levelo://app?vid=a990baaa-8daf-4ef0-9060-f5af73b1b036","ios":"levelo://app?vid=a990baaa-8daf-4ef0-9060-f5af73b1b036"},"vehicle_type_id":"4","last_reported":1687896499,"current_range_meters":26400,"station_id":"ce4bhbp2rcd13ifvqesg","pricing_plan_id":"free"},{"bike_id":"676905d9-4982-47b3-9202-edd30025289a","system_id":"levelo_inurba_marseille","lat":43.305994,"lon":5.393687,"is_reserved":false,"is_disabled":false,"rental_uris":{"android":"levelo://app?vid=676905d9-4982-47b3-9202-edd30025289a","ios":"levelo://app?vid=676905d9-4982-47b3-9202-edd30025289a"},"vehicle_type_id":"4","last_reported":1687896499,"current_range_meters":18800,"station_id":"ce4bh0p2rcd13ifvqd80","pricing_plan_id":"free"},{"bike_id":"a658d053-69ea-4a81-b21d-bf841b9f8f0b","system_id":"levelo_inurba_marseille","lat":43.302992,"lon":5.392136,"is_reserved":false,"is_disabled":false,"rental_uris":{"android":"levelo://app?vid=a658d053-69ea-4a81-b21d-bf841b9f8f0b","ios":"levelo://app?vid=a658d053-69ea-4a81-b21d-bf841b9f8f0b"},"vehicle_type_id":"4","last_reported":1687896499,"current_range_meters":19600,"station_id":"ce4bgkh2rcd13ifvqbk0","pricing_plan_id":"free"},{"bike_id":"7176d078-be41-4fc6-a1b7-2d979cbd50bb","system_id":"levelo_inurba_marseille","lat":43.302992,"lon":5.392136,"is_reserved":false,"is_disabled":false,"rental_uris":{"android":"levelo://app?vid=7176d078-be41-4fc6-a1b7-2d979cbd50bb","ios":"levelo://app?vid=7176d078-be41-4fc6-a1b7-2d979cbd50bb"},"vehicle_type_id":"4","last_reported":1687896499,"current_range_meters":2000,"station_id":"ce4bgkh2rcd13ifvqbk0","pricing_plan_id":"free"},{"bike_id":"20eb6dbc-171f-4201-97ff-fd5aefda7d5c","system_id":"levelo_inurba_marseille","lat":43.30302,"lon":5.39206,"is_reserved":false,"is_disabled":false,"rental_uris":{"android":"levelo://app?vid=20eb6dbc-171f-4201-97ff-fd5aefda7d5c","ios":"levelo://app?vid=20eb6dbc-171f-4201-97ff-fd5aefda7d5c"},"vehicle_type_id":"4","last_reported":1687896499,"current_range_meters":24800,"station_id":"ce4bgkh2rcd13ifvqbk0","pricing_plan_id":"free"},{"bike_id":"4b1352d5-4f66-4b9e-be4a-89e0913d5429","system_id":"levelo_inurba_marseille","lat":43.302992,"lon":5.392136,"is_reserved":false,"is_disabled":false,"rental_uris":{"android":"levelo://app?vid=4b1352d5-4f66-4b9e-be4a-89e0913d5429","ios":"levelo://app?vid=4b1352d5-4f66-4b9e-be4a-89e0913d5429"},"vehicle_type_id":"4","last_reported":1687896499,"current_range_meters":23600,"station_id":"ce4bgkh2rcd13ifvqbk0","pricing_plan_id":"free"},{"bike_id":"b3a04b6d-90b2-46f7-b966-c7399b179f06","system_id":"levelo_inurba_marseille","lat":43.2936,"lon":5.37835,"is_reserved":false,"is_disabled":false,"rental_uris":{"android":"levelo://app?vid=b3a04b6d-90b2-46f7-b966-c7399b179f06","ios":"levelo://app?vid=b3a04b6d-90b2-46f7-b966-c7399b179f06"},"vehicle_type_id":"4","last_reported":1687896499,"current_range_meters":24400,"station_id":"ce4bgjh2rcd13ifvqbf0","pricing_plan_id":"free"},{"bike_id":"1a9ea801-f0b4-4011-a82d-43c264608cf0","system_id":"levelo_inurba_marseille","lat":43.300852,"lon":5.390859,"is_reserved":false,"is_disabled":false,"rental_uris":{"android":"levelo://app?vid=1a9ea801-f0b4-4011-a82d-43c264608cf0","ios":"levelo://app?vid=1a9ea801-f0b4-4011-a82d-43c264608cf0"},"vehicle_type_id":"4","last_reported":1687896499,"current_range_meters":20400,"station_id":"ce4bh192rcd13ifvqdb0","pricing_plan_id":"free"},{"bike_id":"b73dbe39-7f00-4ea3-aae7-3421c4218619","system_id":"levelo_inurba_marseille","lat":43.30672,"lon":5.39479,"is_reserved":false,"is_disabled":false,"rental_uris":{"android":"levelo://app?vid=b73dbe39-7f00-4ea3-aae7-3421c4218619","ios":"levelo://app?vid=b73dbe39-7f00-4ea3-aae7-3421c4218619"},"vehicle_type_id":"4","last_reported":1687896499,"current_range_meters":10000,"station_id":"","pricing_plan_id":"free"},{"bike_id":"2c1051e4-1bab-4a36-ae92-cc146dd89bcb","system_id":"levelo_inurba_marseille","lat":43.298764,"lon":5.388973,"is_reserved":false,"is_disabled":false,"rental_uris":{"android":"levelo://app?vid=2c1051e4-1bab-4a36-ae92-cc146dd89bcb","ios":"levelo://app?vid=2c1051e4-1bab-4a36-ae92-cc146dd89bcb"},"vehicle_type_id":"4","last_reported":1687896499,"current_range_meters":26400,"station_id":"ce4bh392rcd13ifvqdl0","pricing_plan_id":"free"},{"bike_id":"3d155bb3-d01d-4936-bfa4-bff9d4802eab","system_id":"levelo_inurba_marseille","lat":43.298764,"lon":5.388973,"is_reserved":false,"is_disabled":false,"rental_uris":{"android":"levelo://app?vid=3d155bb3-d01d-4936-bfa4-bff9d4802eab","ios":"levelo://app?vid=3d155bb3-d01d-4936-bfa4-bff9d4802eab"},"vehicle_type_id":"4","last_reported":1687896499,"current_range_meters":6400,"station_id":"ce4bh392rcd13ifvqdl0","pricing_plan_id":"free"},{"bike_id":"1947fdcf-10c7-476c-b8a2-8f04555b0000","system_id":"levelo_inurba_marseille","lat":43.30888,"lon":5.39632,"is_reserved":false,"is_disabled":false,"rental_uris":{"android":"levelo://app?vid=1947fdcf-10c7-476c-b8a2-8f04555b0000","ios":"levelo://app?vid=1947fdcf-10c7-476c-b8a2-8f04555b0000"},"vehicle_type_id":"4","last_reported":1687896499,"current_range_meters":6400,"station_id":"ce4bh012rcd13ifvqcv0","pricing_plan_id":"free"},{"bike_id":"3a37a747-757b-444f-9359-7b2f85d8bcf7","system_id":"levelo_inurba_marseille","lat":43.309038,"lon":5.396546,"is_reserved":false,"is_disabled":false,"rental_uris":{"android":"levelo://app?vid=3a37a747-757b-444f-9359-7b2f85d8bcf7","ios":"levelo://app?vid=3a37a747-757b-444f-9359-7b2f85d8bcf7"},"vehicle_type_id":"4","last_reported":1687896499,"current_range_meters":4000,"station_id":"ce4bh012rcd13ifvqcv0","pricing_plan_id":"free"},{"bike_id":"fa579a3f-baf9-4008-8de6-796c91ee8f0e","system_id":"levelo_inurba_marseille","lat":43.309038,"lon":5.396546,"is_reserved":false,"is_disabled":false,"rental_uris":{"android":"levelo://app?vid=fa579a3f-baf9-4008-8de6-796c91ee8f0e","ios":"levelo://app?vid=fa579a3f-baf9-4008-8de6-796c91ee8f0e"},"vehicle_type_id":"4","last_reported":1687896499,"current_range_meters":5200,"station_id":"ce4bh012rcd13ifvqcv0","pricing_plan_id":"free"},{"bike_id":"1b889afe-80ce-4106-994c-4a1ae0adb593","system_id":"levelo_inurba_marseille","lat":43.313291,"lon":5.396838,"is_reserved":false,"is_disabled":false,"rental_uris":{"android":"levelo://app?vid=1b889afe-80ce-4106-994c-4a1ae0adb593","ios":"levelo://app?vid=1b889afe-80ce-4106-994c-4a1ae0adb593"},"vehicle_type_id":"4","last_reported":1687896499,"current_range_meters":12000,"station_id":"ce4bgvp2rcd13ifvqcu0","pricing_plan_id":"free"},{"bike_id":"b326873f-1128-4c82-b428-f1aeabb6bc73","system_id":"levelo_inurba_marseille","lat":43.313333,"lon":5.396923,"is_reserved":false,"is_disabled":false,"rental_uris":{"android":"levelo://app?vid=b326873f-1128-4c82-b428-f1aeabb6bc73","ios":"levelo://app?vid=b326873f-1128-4c82-b428-f1aeabb6bc73"},"vehicle_type_id":"4","last_reported":1687896499,"current_range_meters":7200,"station_id":"ce4bgvp2rcd13ifvqcu0","pricing_plan_id":"free"},{"bike_id":"274f3268-a2c7-4b31-b827-7772b1c080bc","system_id":"levelo_inurba_marseille","lat":43.313319,"lon":5.396943,"is_reserved":false,"is_disabled":false,"rental_uris":{"android":"levelo://app?vid=274f3268-a2c7-4b31-b827-7772b1c080bc","ios":"levelo://app?vid=274f3268-a2c7-4b31-b827-7772b1c080bc"},"vehicle_type_id":"4","last_reported":1687896499,"current_range_meters":31200,"station_id":"ce4bgvp2rcd13ifvqcu0","pricing_plan_id":"free"},{"bike_id":"978f8d35-137f-4c42-a0e3-427aa982a70e","system_id":"levelo_inurba_marseille","lat":43.313291,"lon":5.396838,"is_reserved":false,"is_disabled":false,"rental_uris":{"android":"levelo://app?vid=978f8d35-137f-4c42-a0e3-427aa982a70e","ios":"levelo://app?vid=978f8d35-137f-4c42-a0e3-427aa982a70e"},"vehicle_type_id":"4","last_reported":1687896499,"current_range_meters":31200,"station_id":"ce4bgvp2rcd13ifvqcu0","pricing_plan_id":"free"},{"bike_id":"6d38a694-582d-48a7-a5a3-3f0f1636f889","system_id":"levelo_inurba_marseille","lat":43.309038,"lon":5.396546,"is_reserved":false,"is_disabled":false,"rental_uris":{"android":"levelo://app?vid=6d38a694-582d-48a7-a5a3-3f0f1636f889","ios":"levelo://app?vid=6d38a694-582d-48a7-a5a3-3f0f1636f889"},"vehicle_type_id":"4","last_reported":1687896499,"current_range_meters":31200,"station_id":"ce4bh012rcd13ifvqcv0","pricing_plan_id":"free"},{"bike_id":"49cdcad2-644d-4957-9b9e-d9a9be9a0f56","system_id":"levelo_inurba_marseille","lat":43.313347,"lon":5.396949,"is_reserved":false,"is_disabled":false,"rental_uris":{"android":"levelo://app?vid=49cdcad2-644d-4957-9b9e-d9a9be9a0f56","ios":"levelo://app?vid=49cdcad2-644d-4957-9b9e-d9a9be9a0f56"},"vehicle_type_id":"4","last_reported":1687896499,"current_range_meters":31200,"station_id":"ce4bgvp2rcd13ifvqcu0","pricing_plan_id":"free"},{"bike_id":"4d658128-ed4a-4205-96c0-95f0fcf83c04","system_id":"levelo_inurba_marseille","lat":43.309038,"lon":5.396546,"is_reserved":false,"is_disabled":false,"rental_uris":{"android":"levelo://app?vid=4d658128-ed4a-4205-96c0-95f0fcf83c04","ios":"levelo://app?vid=4d658128-ed4a-4205-96c0-95f0fcf83c04"},"vehicle_type_id":"4","last_reported":1687896499,"current_range_meters":31200,"station_id":"ce4bh012rcd13ifvqcv0","pricing_plan_id":"free"},{"bike_id":"cd702b0c-5456-4482-af10-93e8dcc45c29","system_id":"levelo_inurba_marseille","lat":43.31327,"lon":5.397,"is_reserved":false,"is_disabled":false,"rental_uris":{"android":"levelo://app?vid=cd702b0c-5456-4482-af10-93e8dcc45c29","ios":"levelo://app?vid=cd702b0c-5456-4482-af10-93e8dcc45c29"},"vehicle_type_id":"4","last_reported":1687896499,"current_range_meters":14000,"station_id":"ce4bgvp2rcd13ifvqcu0","pricing_plan_id":"free"},{"bike_id":"a2194508-e810-4455-862b-cd95baeed4ce","system_id":"levelo_inurba_marseille","lat":43.309038,"lon":5.396546,"is_reserved":false,"is_disabled":false,"rental_uris":{"android":"levelo://app?vid=a2194508-e810-4455-862b-cd95baeed4ce","ios":"levelo://app?vid=a2194508-e810-4455-862b-cd95baeed4ce"},"vehicle_type_id":"4","last_reported":1687896499,"current_range_meters":20000,"station_id":"ce4bh012rcd13ifvqcv0","pricing_plan_id":"free"},{"bike_id":"1d279abe-200a-44e9-a4a7-452f2123293a","system_id":"levelo_inurba_marseille","lat":43.29529,"lon":5.385581,"is_reserved":false,"is_disabled":false,"rental_uris":{"android":"levelo://app?vid=1d279abe-200a-44e9-a4a7-452f2123293a","ios":"levelo://app?vid=1d279abe-200a-44e9-a4a7-452f2123293a"},"vehicle_type_id":"4","last_reported":1687896499,"current_range_meters":26800,"station_id":"ce4bgih2rcd13ifvqba0","pricing_plan_id":"free"},{"bike_id":"bf3a41a1-aaad-4dd7-a0f9-93f96c569179","system_id":"levelo_inurba_marseille","lat":43.29529,"lon":5.385581,"is_reserved":false,"is_disabled":false,"rental_uris":{"android":"levelo://app?vid=bf3a41a1-aaad-4dd7-a0f9-93f96c569179","ios":"levelo://app?vid=bf3a41a1-aaad-4dd7-a0f9-93f96c569179"},"vehicle_type_id":"4","last_reported":1687896499,"current_range_meters":6400,"station_id":"ce4bgih2rcd13ifvqba0","pricing_plan_id":"free"},{"bike_id":"d2df99d7-7c33-431e-9e8c-15ceec4f6bab","system_id":"levelo_inurba_marseille","lat":43.29529,"lon":5.385581,"is_reserved":false,"is_disabled":false,"rental_uris":{"android":"levelo://app?vid=d2df99d7-7c33-431e-9e8c-15ceec4f6bab","ios":"levelo://app?vid=d2df99d7-7c33-431e-9e8c-15ceec4f6bab"},"vehicle_type_id":"4","last_reported":1687896499,"current_range_meters":14000,"station_id":"ce4bgih2rcd13ifvqba0","pricing_plan_id":"free"},{"bike_id":"53813616-680d-4bb5-b630-416b121ed1c1","system_id":"levelo_inurba_marseille","lat":43.29529,"lon":5.385581,"is_reserved":false,"is_disabled":false,"rental_uris":{"android":"levelo://app?vid=53813616-680d-4bb5-b630-416b121ed1c1","ios":"levelo://app?vid=53813616-680d-4bb5-b630-416b121ed1c1"},"vehicle_type_id":"4","last_reported":1687896499,"current_range_meters":14800,"station_id":"ce4bgih2rcd13ifvqba0","pricing_plan_id":"free"},{"bike_id":"50f2607d-1c26-411d-bd6e-7594a275799b","system_id":"levelo_inurba_marseille","lat":43.29533,"lon":5.38541,"is_reserved":false,"is_disabled":false,"rental_uris":{"android":"levelo://app?vid=50f2607d-1c26-411d-bd6e-7594a275799b","ios":"levelo://app?vid=50f2607d-1c26-411d-bd6e-7594a275799b"},"vehicle_type_id":"4","last_reported":1687896499,"current_range_meters":6000,"station_id":"ce4bgih2rcd13ifvqba0","pricing_plan_id":"free"},{"bike_id":"3ca42dbf-0dc7-41d1-8113-fc349a58e5f7","system_id":"levelo_inurba_marseille","lat":43.29529,"lon":5.385581,"is_reserved":false,"is_disabled":false,"rental_uris":{"android":"levelo://app?vid=3ca42dbf-0dc7-41d1-8113-fc349a58e5f7","ios":"levelo://app?vid=3ca42dbf-0dc7-41d1-8113-fc349a58e5f7"},"vehicle_type_id":"4","last_reported":1687896499,"current_range_meters":8400,"station_id":"ce4bgih2rcd13ifvqba0","pricing_plan_id":"free"},{"bike_id":"409b2866-decb-4cad-adc1-bee85362bb30","system_id":"levelo_inurba_marseille","lat":43.29529,"lon":5.385581,"is_reserved":false,"is_disabled":false,"rental_uris":{"android":"levelo://app?vid=409b2866-decb-4cad-adc1-bee85362bb30","ios":"levelo://app?vid=409b2866-decb-4cad-adc1-bee85362bb30"},"vehicle_type_id":"4","last_reported":1687896499,"current_range_meters":0,"station_id":"ce4bgih2rcd13ifvqba0","pricing_plan_id":"free"},{"bike_id":"a7879a2e-14ec-4893-b339-93f34523d7ac","system_id":"levelo_inurba_marseille","lat":43.29529,"lon":5.385581,"is_reserved":false,"is_disabled":false,"rental_uris":{"android":"levelo://app?vid=a7879a2e-14ec-4893-b339-93f34523d7ac","ios":"levelo://app?vid=a7879a2e-14ec-4893-b339-93f34523d7ac"},"vehicle_type_id":"4","last_reported":1687896499,"current_range_meters":5600,"station_id":"ce4bgih2rcd13ifvqba0","pricing_plan_id":"free"},{"bike_id":"06937cd0-5816-4bab-b8fe-b6bc6096cb00","system_id":"levelo_inurba_marseille","lat":43.302008,"lon":5.394694,"is_reserved":false,"is_disabled":false,"rental_uris":{"android":"levelo://app?vid=06937cd0-5816-4bab-b8fe-b6bc6096cb00","ios":"levelo://app?vid=06937cd0-5816-4bab-b8fe-b6bc6096cb00"},"vehicle_type_id":"4","last_reported":1687896499,"current_range_meters":2000,"station_id":"ce4bh0p2rcd13ifvqd70","pricing_plan_id":"free"},{"bike_id":"6867df42-30dd-4825-b7fe-404564247748","system_id":"levelo_inurba_marseille","lat":43.294174,"lon":5.386231,"is_reserved":false,"is_disabled":false,"rental_uris":{"android":"levelo://app?vid=6867df42-30dd-4825-b7fe-404564247748","ios":"levelo://app?vid=6867df42-30dd-4825-b7fe-404564247748"},"vehicle_type_id":"4","last_reported":1687896499,"current_range_meters":13600,"station_id":"","pricing_plan_id":"free"},{"bike_id":"399ef6b6-bd49-40a3-a085-0dfa050cfb9f","system_id":"levelo_inurba_marseille","lat":43.29411,"lon":5.38614,"is_reserved":false,"is_disabled":false,"rental_uris":{"android":"levelo://app?vid=399ef6b6-bd49-40a3-a085-0dfa050cfb9f","ios":"levelo://app?vid=399ef6b6-bd49-40a3-a085-0dfa050cfb9f"},"vehicle_type_id":"4","last_reported":1687896499,"current_range_meters":6400,"station_id":"","pricing_plan_id":"free"},{"bike_id":"ebcdb3fa-fef1-423f-aeda-fe619ea8c36b","system_id":"levelo_inurba_marseille","lat":43.289184,"lon":5.366408,"is_reserved":false,"is_disabled":false,"rental_uris":{"android":"levelo://app?vid=ebcdb3fa-fef1-423f-aeda-fe619ea8c36b","ios":"levelo://app?vid=ebcdb3fa-fef1-423f-aeda-fe619ea8c36b"},"vehicle_type_id":"4","last_reported":1687896499,"current_range_meters":0,"station_id":"ce4bhap2rcd13ifvqek0","pricing_plan_id":"free"},{"bike_id":"2f3eda3e-c978-43ab-ba64-0f5f8b8dfc94","system_id":"levelo_inurba_marseille","lat":43.289184,"lon":5.366408,"is_reserved":false,"is_disabled":false,"rental_uris":{"android":"levelo://app?vid=2f3eda3e-c978-43ab-ba64-0f5f8b8dfc94","ios":"levelo://app?vid=2f3eda3e-c978-43ab-ba64-0f5f8b8dfc94"},"vehicle_type_id":"4","last_reported":1687896499,"current_range_meters":19600,"station_id":"ce4bhap2rcd13ifvqek0","pricing_plan_id":"free"},{"bike_id":"80473443-5e46-4018-a9a6-2b3b2c8377fa","system_id":"levelo_inurba_marseille","lat":43.289184,"lon":5.366408,"is_reserved":false,"is_disabled":false,"rental_uris":{"android":"levelo://app?vid=80473443-5e46-4018-a9a6-2b3b2c8377fa","ios":"levelo://app?vid=80473443-5e46-4018-a9a6-2b3b2c8377fa"},"vehicle_type_id":"4","last_reported":1687896499,"current_range_meters":30000,"station_id":"ce4bhap2rcd13ifvqek0","pricing_plan_id":"free"},{"bike_id":"c71e7bdd-1b32-4f7d-a21e-e3ca28a191fe","system_id":"levelo_inurba_marseille","lat":43.2892,"lon":5.36659,"is_reserved":false,"is_disabled":false,"rental_uris":{"android":"levelo://app?vid=c71e7bdd-1b32-4f7d-a21e-e3ca28a191fe","ios":"levelo://app?vid=c71e7bdd-1b32-4f7d-a21e-e3ca28a191fe"},"vehicle_type_id":"4","last_reported":1687896499,"current_range_meters":8800,"station_id":"ce4bhap2rcd13ifvqek0","pricing_plan_id":"free"},{"bike_id":"0b8c44d6-e11d-4f6b-877a-9ed46016e043","system_id":"levelo_inurba_marseille","lat":43.29268,"lon":5.384387,"is_reserved":false,"is_disabled":false,"rental_uris":{"android":"levelo://app?vid=0b8c44d6-e11d-4f6b-877a-9ed46016e043","ios":"levelo://app?vid=0b8c44d6-e11d-4f6b-877a-9ed46016e043"},"vehicle_type_id":"4","last_reported":1687896499,"current_range_meters":400,"station_id":"ce4bh692rcd13ifvqea0","pricing_plan_id":"free"},{"bike_id":"d4d1d1e4-be94-487c-a442-5afbb5c3084e","system_id":"levelo_inurba_marseille","lat":43.29263,"lon":5.38428,"is_reserved":false,"is_disabled":false,"rental_uris":{"android":"levelo://app?vid=d4d1d1e4-be94-487c-a442-5afbb5c3084e","ios":"levelo://app?vid=d4d1d1e4-be94-487c-a442-5afbb5c3084e"},"vehicle_type_id":"4","last_reported":1687896499,"current_range_meters":22800,"station_id":"ce4bh692rcd13ifvqea0","pricing_plan_id":"free"},{"bike_id":"fdb2ec4e-e5e0-4d21-b3b2-4a7f220be321","system_id":"levelo_inurba_marseille","lat":43.29264,"lon":5.38436,"is_reserved":false,"is_disabled":false,"rental_uris":{"android":"levelo://app?vid=fdb2ec4e-e5e0-4d21-b3b2-4a7f220be321","ios":"levelo://app?vid=fdb2ec4e-e5e0-4d21-b3b2-4a7f220be321"},"vehicle_type_id":"4","last_reported":1687896499,"current_range_meters":0,"station_id":"ce4bh692rcd13ifvqea0","pricing_plan_id":"free"},{"bike_id":"b1e896f1-8356-46d2-8378-75b6449d4000","system_id":"levelo_inurba_marseille","lat":43.292644,"lon":5.384257,"is_reserved":false,"is_disabled":false,"rental_uris":{"android":"levelo://app?vid=b1e896f1-8356-46d2-8378-75b6449d4000","ios":"levelo://app?vid=b1e896f1-8356-46d2-8378-75b6449d4000"},"vehicle_type_id":"4","last_reported":1687896499,"current_range_meters":6000,"station_id":"ce4bh692rcd13ifvqea0","pricing_plan_id":"free"},{"bike_id":"063c750d-8982-45ce-bd86-e86ea74308d0","system_id":"levelo_inurba_marseille","lat":43.292642,"lon":5.384254,"is_reserved":false,"is_disabled":false,"rental_uris":{"android":"levelo://app?vid=063c750d-8982-45ce-bd86-e86ea74308d0","ios":"levelo://app?vid=063c750d-8982-45ce-bd86-e86ea74308d0"},"vehicle_type_id":"4","last_reported":1687896499,"current_range_meters":20800,"station_id":"ce4bh692rcd13ifvqea0","pricing_plan_id":"free"},{"bike_id":"cf94c03a-2453-4fea-8650-09a402173211","system_id":"levelo_inurba_marseille","lat":43.29258,"lon":5.38447,"is_reserved":false,"is_disabled":false,"rental_uris":{"android":"levelo://app?vid=cf94c03a-2453-4fea-8650-09a402173211","ios":"levelo://app?vid=cf94c03a-2453-4fea-8650-09a402173211"},"vehicle_type_id":"4","last_reported":1687896499,"current_range_meters":0,"station_id":"ce4bh692rcd13ifvqea0","pricing_plan_id":"free"},{"bike_id":"620d42eb-968c-4b2d-afab-1b20c736c549","system_id":"levelo_inurba_marseille","lat":43.33045,"lon":5.38911,"is_reserved":false,"is_disabled":false,"rental_uris":{"android":"levelo://app?vid=620d42eb-968c-4b2d-afab-1b20c736c549","ios":"levelo://app?vid=620d42eb-968c-4b2d-afab-1b20c736c549"},"vehicle_type_id":"4","last_reported":1687896499,"current_range_meters":1200,"station_id":"ce4bhr92rcd13ifvqhrg","pricing_plan_id":"free"},{"bike_id":"dc499986-9ddd-457a-a213-8aeb13714ee0","system_id":"levelo_inurba_marseille","lat":43.33046,"lon":5.38913,"is_reserved":false,"is_disabled":false,"rental_uris":{"android":"levelo://app?vid=dc499986-9ddd-457a-a213-8aeb13714ee0","ios":"levelo://app?vid=dc499986-9ddd-457a-a213-8aeb13714ee0"},"vehicle_type_id":"4","last_reported":1687896499,"current_range_meters":23200,"station_id":"ce4bhr92rcd13ifvqhrg","pricing_plan_id":"free"},{"bike_id":"0a52eda6-aef4-47ad-ae1d-76c679ae4cf0","system_id":"levelo_inurba_marseille","lat":43.33047,"lon":5.38913,"is_reserved":false,"is_disabled":false,"rental_uris":{"android":"levelo://app?vid=0a52eda6-aef4-47ad-ae1d-76c679ae4cf0","ios":"levelo://app?vid=0a52eda6-aef4-47ad-ae1d-76c679ae4cf0"},"vehicle_type_id":"4","last_reported":1687896499,"current_range_meters":16800,"station_id":"ce4bhr92rcd13ifvqhrg","pricing_plan_id":"free"},{"bike_id":"f3ce8296-a357-4ed3-991c-7c7987826693","system_id":"levelo_inurba_marseille","lat":43.33047,"lon":5.38913,"is_reserved":false,"is_disabled":false,"rental_uris":{"android":"levelo://app?vid=f3ce8296-a357-4ed3-991c-7c7987826693","ios":"levelo://app?vid=f3ce8296-a357-4ed3-991c-7c7987826693"},"vehicle_type_id":"4","last_reported":1687896499,"current_range_meters":31200,"station_id":"ce4bhr92rcd13ifvqhrg","pricing_plan_id":"free"},{"bike_id":"f796f425-6905-4fb3-9c08-efb7921e42ce","system_id":"levelo_inurba_marseille","lat":43.33048,"lon":5.38912,"is_reserved":false,"is_disabled":false,"rental_uris":{"android":"levelo://app?vid=f796f425-6905-4fb3-9c08-efb7921e42ce","ios":"levelo://app?vid=f796f425-6905-4fb3-9c08-efb7921e42ce"},"vehicle_type_id":"4","last_reported":1687896499,"current_range_meters":31200,"station_id":"ce4bhr92rcd13ifvqhrg","pricing_plan_id":"free"},{"bike_id":"84718f7a-81b3-4376-93eb-27bbf90e5c0d","system_id":"levelo_inurba_marseille","lat":43.33047,"lon":5.38914,"is_reserved":false,"is_disabled":false,"rental_uris":{"android":"levelo://app?vid=84718f7a-81b3-4376-93eb-27bbf90e5c0d","ios":"levelo://app?vid=84718f7a-81b3-4376-93eb-27bbf90e5c0d"},"vehicle_type_id":"4","last_reported":1687896499,"current_range_meters":15200,"station_id":"ce4bhr92rcd13ifvqhrg","pricing_plan_id":"free"},{"bike_id":"f9aa9b97-fd92-4abd-93a2-07a80136da67","system_id":"levelo_inurba_marseille","lat":43.33046,"lon":5.38916,"is_reserved":false,"is_disabled":false,"rental_uris":{"android":"levelo://app?vid=f9aa9b97-fd92-4abd-93a2-07a80136da67","ios":"levelo://app?vid=f9aa9b97-fd92-4abd-93a2-07a80136da67"},"vehicle_type_id":"4","last_reported":1687896499,"current_range_meters":20400,"station_id":"ce4bhr92rcd13ifvqhrg","pricing_plan_id":"free"},{"bike_id":"1a2931cc-2400-4c11-bca8-c22187ec9431","system_id":"levelo_inurba_marseille","lat":43.33049,"lon":5.38913,"is_reserved":false,"is_disabled":false,"rental_uris":{"android":"levelo://app?vid=1a2931cc-2400-4c11-bca8-c22187ec9431","ios":"levelo://app?vid=1a2931cc-2400-4c11-bca8-c22187ec9431"},"vehicle_type_id":"4","last_reported":1687896499,"current_range_meters":31200,"station_id":"ce4bhr92rcd13ifvqhrg","pricing_plan_id":"free"},{"bike_id":"31e670fe-027d-44b4-89c1-9f7413d8e201","system_id":"levelo_inurba_marseille","lat":43.33049,"lon":5.38914,"is_reserved":false,"is_disabled":false,"rental_uris":{"android":"levelo://app?vid=31e670fe-027d-44b4-89c1-9f7413d8e201","ios":"levelo://app?vid=31e670fe-027d-44b4-89c1-9f7413d8e201"},"vehicle_type_id":"4","last_reported":1687896499,"current_range_meters":22800,"station_id":"ce4bhr92rcd13ifvqhrg","pricing_plan_id":"free"},{"bike_id":"9f952cd5-a4e6-40b8-a42f-a3faa1a1bbb6","system_id":"levelo_inurba_marseille","lat":43.33049,"lon":5.38915,"is_reserved":false,"is_disabled":false,"rental_uris":{"android":"levelo://app?vid=9f952cd5-a4e6-40b8-a42f-a3faa1a1bbb6","ios":"levelo://app?vid=9f952cd5-a4e6-40b8-a42f-a3faa1a1bbb6"},"vehicle_type_id":"4","last_reported":1687896499,"current_range_meters":1600,"station_id":"ce4bhr92rcd13ifvqhrg","pricing_plan_id":"free"},{"bike_id":"1a7b853a-50f2-498a-a451-f4fc5c20ed55","system_id":"levelo_inurba_marseille","lat":43.33051,"lon":5.38912,"is_reserved":false,"is_disabled":false,"rental_uris":{"android":"levelo://app?vid=1a7b853a-50f2-498a-a451-f4fc5c20ed55","ios":"levelo://app?vid=1a7b853a-50f2-498a-a451-f4fc5c20ed55"},"vehicle_type_id":"4","last_reported":1687896499,"current_range_meters":4400,"station_id":"ce4bhr92rcd13ifvqhrg","pricing_plan_id":"free"},{"bike_id":"62ded512-0226-436a-a23b-66b2088d41b6","system_id":"levelo_inurba_marseille","lat":43.290995,"lon":5.381361,"is_reserved":false,"is_disabled":false,"rental_uris":{"android":"levelo://app?vid=62ded512-0226-436a-a23b-66b2088d41b6","ios":"levelo://app?vid=62ded512-0226-436a-a23b-66b2088d41b6"},"vehicle_type_id":"4","last_reported":1687896499,"current_range_meters":9600,"station_id":"ce4bh512rcd13ifvqe2g","pricing_plan_id":"free"},{"bike_id":"42f3c4da-5eff-4c0d-817f-80fd45a7b2e4","system_id":"levelo_inurba_marseille","lat":43.291,"lon":5.38124,"is_reserved":false,"is_disabled":false,"rental_uris":{"android":"levelo://app?vid=42f3c4da-5eff-4c0d-817f-80fd45a7b2e4","ios":"levelo://app?vid=42f3c4da-5eff-4c0d-817f-80fd45a7b2e4"},"vehicle_type_id":"4","last_reported":1687896499,"current_range_meters":19600,"station_id":"ce4bh512rcd13ifvqe2g","pricing_plan_id":"free"},{"bike_id":"e061700a-ddc8-4e50-8e8a-ff2b4783dd93","system_id":"levelo_inurba_marseille","lat":43.290995,"lon":5.381361,"is_reserved":false,"is_disabled":false,"rental_uris":{"android":"levelo://app?vid=e061700a-ddc8-4e50-8e8a-ff2b4783dd93","ios":"levelo://app?vid=e061700a-ddc8-4e50-8e8a-ff2b4783dd93"},"vehicle_type_id":"4","last_reported":1687896499,"current_range_meters":10800,"station_id":"ce4bh512rcd13ifvqe2g","pricing_plan_id":"free"},{"bike_id":"c1b3a556-5303-462a-bb53-5042a2634602","system_id":"levelo_inurba_marseille","lat":43.295169,"lon":5.390426,"is_reserved":false,"is_disabled":false,"rental_uris":{"android":"levelo://app?vid=c1b3a556-5303-462a-bb53-5042a2634602","ios":"levelo://app?vid=c1b3a556-5303-462a-bb53-5042a2634602"},"vehicle_type_id":"4","last_reported":1687896499,"current_range_meters":22400,"station_id":"ce4bh3p2rcd13ifvqdp0","pricing_plan_id":"free"},{"bike_id":"35b58f2f-9348-4f19-a437-a038872491eb","system_id":"levelo_inurba_marseille","lat":43.295169,"lon":5.390426,"is_reserved":false,"is_disabled":false,"rental_uris":{"android":"levelo://app?vid=35b58f2f-9348-4f19-a437-a038872491eb","ios":"levelo://app?vid=35b58f2f-9348-4f19-a437-a038872491eb"},"vehicle_type_id":"4","last_reported":1687896499,"current_range_meters":26400,"station_id":"ce4bh3p2rcd13ifvqdp0","pricing_plan_id":"free"},{"bike_id":"db3b281e-7619-4a3e-b012-1f4c43bc8d6a","system_id":"levelo_inurba_marseille","lat":43.297815,"lon":5.393548,"is_reserved":false,"is_disabled":false,"rental_uris":{"android":"levelo://app?vid=db3b281e-7619-4a3e-b012-1f4c43bc8d6a","ios":"levelo://app?vid=db3b281e-7619-4a3e-b012-1f4c43bc8d6a"},"vehicle_type_id":"4","last_reported":1687896499,"current_range_meters":13600,"station_id":"chh1huq6cuj3fo74tm60","pricing_plan_id":"free"},{"bike_id":"74f247f8-89fb-4530-adbf-856909202bd1","system_id":"levelo_inurba_marseille","lat":43.289743,"lon":5.378304,"is_reserved":false,"is_disabled":false,"rental_uris":{"android":"levelo://app?vid=74f247f8-89fb-4530-adbf-856909202bd1","ios":"levelo://app?vid=74f247f8-89fb-4530-adbf-856909202bd1"},"vehicle_type_id":"4","last_reported":1687896499,"current_range_meters":28000,"station_id":"ce4bh9p2rcd13ifvqed0","pricing_plan_id":"free"},{"bike_id":"e2e7ad9d-dc4c-4f3f-96fc-b83e0bbd6ffe","system_id":"levelo_inurba_marseille","lat":43.295169,"lon":5.390426,"is_reserved":false,"is_disabled":false,"rental_uris":{"android":"levelo://app?vid=e2e7ad9d-dc4c-4f3f-96fc-b83e0bbd6ffe","ios":"levelo://app?vid=e2e7ad9d-dc4c-4f3f-96fc-b83e0bbd6ffe"},"vehicle_type_id":"4","last_reported":1687896499,"current_range_meters":20800,"station_id":"ce4bh3p2rcd13ifvqdp0","pricing_plan_id":"free"},{"bike_id":"71e5a888-f273-4825-92ee-092cc543a09b","system_id":"levelo_inurba_marseille","lat":43.297815,"lon":5.393548,"is_reserved":false,"is_disabled":false,"rental_uris":{"android":"levelo://app?vid=71e5a888-f273-4825-92ee-092cc543a09b","ios":"levelo://app?vid=71e5a888-f273-4825-92ee-092cc543a09b"},"vehicle_type_id":"4","last_reported":1687896499,"current_range_meters":17600,"station_id":"chh1huq6cuj3fo74tm60","pricing_plan_id":"free"},{"bike_id":"90092355-5577-431a-857b-0e4bb8a3f5e8","system_id":"levelo_inurba_marseille","lat":43.295169,"lon":5.390426,"is_reserved":false,"is_disabled":false,"rental_uris":{"android":"levelo://app?vid=90092355-5577-431a-857b-0e4bb8a3f5e8","ios":"levelo://app?vid=90092355-5577-431a-857b-0e4bb8a3f5e8"},"vehicle_type_id":"4","last_reported":1687896499,"current_range_meters":9200,"station_id":"ce4bh3p2rcd13ifvqdp0","pricing_plan_id":"free"},{"bike_id":"a1da49c4-0a90-461e-901b-2832652389da","system_id":"levelo_inurba_marseille","lat":43.2901,"lon":5.381269,"is_reserved":false,"is_disabled":false,"rental_uris":{"android":"levelo://app?vid=a1da49c4-0a90-461e-901b-2832652389da","ios":"levelo://app?vid=a1da49c4-0a90-461e-901b-2832652389da"},"vehicle_type_id":"4","last_reported":1687896499,"current_range_meters":25600,"station_id":"ce4bh4p2rcd13ifvqe1g","pricing_plan_id":"free"},{"bike_id":"80fa1738-7e5d-4e4a-8e0d-48e3e245ca10","system_id":"levelo_inurba_marseille","lat":43.2902,"lon":5.38131,"is_reserved":false,"is_disabled":false,"rental_uris":{"android":"levelo://app?vid=80fa1738-7e5d-4e4a-8e0d-48e3e245ca10","ios":"levelo://app?vid=80fa1738-7e5d-4e4a-8e0d-48e3e245ca10"},"vehicle_type_id":"4","last_reported":1687896499,"current_range_meters":22000,"station_id":"ce4bh4p2rcd13ifvqe1g","pricing_plan_id":"free"},{"bike_id":"b152602a-aaa7-4eed-93ba-89050d9c58ba","system_id":"levelo_inurba_marseille","lat":43.3067,"lon":5.40078,"is_reserved":false,"is_disabled":false,"rental_uris":{"android":"levelo://app?vid=b152602a-aaa7-4eed-93ba-89050d9c58ba","ios":"levelo://app?vid=b152602a-aaa7-4eed-93ba-89050d9c58ba"},"vehicle_type_id":"4","last_reported":1687896499,"current_range_meters":26000,"station_id":"","pricing_plan_id":"free"},{"bike_id":"3a224d74-d62c-4eef-a671-eeeb44e637b2","system_id":"levelo_inurba_marseille","lat":43.306412,"lon":5.401035,"is_reserved":false,"is_disabled":false,"rental_uris":{"android":"levelo://app?vid=3a224d74-d62c-4eef-a671-eeeb44e637b2","ios":"levelo://app?vid=3a224d74-d62c-4eef-a671-eeeb44e637b2"},"vehicle_type_id":"4","last_reported":1687896499,"current_range_meters":2400,"station_id":"ce4bh112rcd13ifvqda0","pricing_plan_id":"free"},{"bike_id":"476cd57c-2e9c-4f0d-a086-f93a7e3396f6","system_id":"levelo_inurba_marseille","lat":43.337516,"lon":5.374747,"is_reserved":false,"is_disabled":false,"rental_uris":{"android":"levelo://app?vid=476cd57c-2e9c-4f0d-a086-f93a7e3396f6","ios":"levelo://app?vid=476cd57c-2e9c-4f0d-a086-f93a7e3396f6"},"vehicle_type_id":"4","last_reported":1687896499,"current_range_meters":31200,"station_id":"","pricing_plan_id":"free"},{"bike_id":"11d8887b-8d2a-4f1a-81d8-9d127edbe5df","system_id":"levelo_inurba_marseille","lat":43.3377,"lon":5.37405,"is_reserved":false,"is_disabled":false,"rental_uris":{"android":"levelo://app?vid=11d8887b-8d2a-4f1a-81d8-9d127edbe5df","ios":"levelo://app?vid=11d8887b-8d2a-4f1a-81d8-9d127edbe5df"},"vehicle_type_id":"4","last_reported":1687896499,"current_range_meters":28400,"station_id":"","pricing_plan_id":"free"},{"bike_id":"08479954-148a-4816-8c4a-0ffe143c89c6","system_id":"levelo_inurba_marseille","lat":43.306412,"lon":5.401035,"is_reserved":false,"is_disabled":false,"rental_uris":{"android":"levelo://app?vid=08479954-148a-4816-8c4a-0ffe143c89c6","ios":"levelo://app?vid=08479954-148a-4816-8c4a-0ffe143c89c6"},"vehicle_type_id":"4","last_reported":1687896499,"current_range_meters":8800,"station_id":"ce4bh112rcd13ifvqda0","pricing_plan_id":"free"},{"bike_id":"24c74788-4780-4b13-b3e2-d518372c3775","system_id":"levelo_inurba_marseille","lat":43.306412,"lon":5.401035,"is_reserved":false,"is_disabled":false,"rental_uris":{"android":"levelo://app?vid=24c74788-4780-4b13-b3e2-d518372c3775","ios":"levelo://app?vid=24c74788-4780-4b13-b3e2-d518372c3775"},"vehicle_type_id":"4","last_reported":1687896499,"current_range_meters":14000,"station_id":"ce4bh112rcd13ifvqda0","pricing_plan_id":"free"},{"bike_id":"489212b4-a4bc-48bd-bbc1-403b84640acd","system_id":"levelo_inurba_marseille","lat":43.298681,"lon":5.397225,"is_reserved":false,"is_disabled":false,"rental_uris":{"android":"levelo://app?vid=489212b4-a4bc-48bd-bbc1-403b84640acd","ios":"levelo://app?vid=489212b4-a4bc-48bd-bbc1-403b84640acd"},"vehicle_type_id":"4","last_reported":1687896499,"current_range_meters":4000,"station_id":"ce4bh0h2rcd13ifvqd50","pricing_plan_id":"free"},{"bike_id":"b2ee36cc-99a8-4379-94ec-8cd092d14e92","system_id":"levelo_inurba_marseille","lat":43.286961,"lon":5.373785,"is_reserved":false,"is_disabled":false,"rental_uris":{"android":"levelo://app?vid=b2ee36cc-99a8-4379-94ec-8cd092d14e92","ios":"levelo://app?vid=b2ee36cc-99a8-4379-94ec-8cd092d14e92"},"vehicle_type_id":"4","last_reported":1687896499,"current_range_meters":24000,"station_id":"ce4bh3p2rcd13ifvqdq0","pricing_plan_id":"free"},{"bike_id":"3bbc4d59-4dab-4154-8023-29ed50c8f93d","system_id":"levelo_inurba_marseille","lat":43.286591,"lon":5.363346,"is_reserved":false,"is_disabled":false,"rental_uris":{"android":"levelo://app?vid=3bbc4d59-4dab-4154-8023-29ed50c8f93d","ios":"levelo://app?vid=3bbc4d59-4dab-4154-8023-29ed50c8f93d"},"vehicle_type_id":"4","last_reported":1687896499,"current_range_meters":29200,"station_id":"ce4bhah2rcd13ifvqej0","pricing_plan_id":"free"},{"bike_id":"fd25e333-e320-468e-aab1-c035597cc9b7","system_id":"levelo_inurba_marseille","lat":43.286591,"lon":5.363346,"is_reserved":false,"is_disabled":false,"rental_uris":{"android":"levelo://app?vid=fd25e333-e320-468e-aab1-c035597cc9b7","ios":"levelo://app?vid=fd25e333-e320-468e-aab1-c035597cc9b7"},"vehicle_type_id":"4","last_reported":1687896499,"current_range_meters":11600,"station_id":"ce4bhah2rcd13ifvqej0","pricing_plan_id":"free"},{"bike_id":"2717885c-7ee7-494e-b89b-fe97fee113ce","system_id":"levelo_inurba_marseille","lat":43.28663,"lon":5.36341,"is_reserved":false,"is_disabled":false,"rental_uris":{"android":"levelo://app?vid=2717885c-7ee7-494e-b89b-fe97fee113ce","ios":"levelo://app?vid=2717885c-7ee7-494e-b89b-fe97fee113ce"},"vehicle_type_id":"4","last_reported":1687896499,"current_range_meters":10000,"station_id":"ce4bhah2rcd13ifvqej0","pricing_plan_id":"free"},{"bike_id":"b12d3ba2-4b18-4570-9d3b-4f36d64301d4","system_id":"levelo_inurba_marseille","lat":43.28659,"lon":5.36339,"is_reserved":false,"is_disabled":false,"rental_uris":{"android":"levelo://app?vid=b12d3ba2-4b18-4570-9d3b-4f36d64301d4","ios":"levelo://app?vid=b12d3ba2-4b18-4570-9d3b-4f36d64301d4"},"vehicle_type_id":"4","last_reported":1687896499,"current_range_meters":18800,"station_id":"ce4bhah2rcd13ifvqej0","pricing_plan_id":"free"},{"bike_id":"54e3731c-4100-4976-919d-7dc215467dfe","system_id":"levelo_inurba_marseille","lat":43.286591,"lon":5.363346,"is_reserved":false,"is_disabled":false,"rental_uris":{"android":"levelo://app?vid=54e3731c-4100-4976-919d-7dc215467dfe","ios":"levelo://app?vid=54e3731c-4100-4976-919d-7dc215467dfe"},"vehicle_type_id":"4","last_reported":1687896499,"current_range_meters":31600,"station_id":"ce4bhah2rcd13ifvqej0","pricing_plan_id":"free"},{"bike_id":"7c0a59a6-bda9-454d-9c55-a0fbcd43386c","system_id":"levelo_inurba_marseille","lat":43.286593,"lon":5.363346,"is_reserved":false,"is_disabled":false,"rental_uris":{"android":"levelo://app?vid=7c0a59a6-bda9-454d-9c55-a0fbcd43386c","ios":"levelo://app?vid=7c0a59a6-bda9-454d-9c55-a0fbcd43386c"},"vehicle_type_id":"4","last_reported":1687896499,"current_range_meters":23600,"station_id":"ce4bhah2rcd13ifvqej0","pricing_plan_id":"free"},{"bike_id":"b7ed10f6-de27-4702-bb57-c47d52558de5","system_id":"levelo_inurba_marseille","lat":43.286961,"lon":5.373785,"is_reserved":false,"is_disabled":false,"rental_uris":{"android":"levelo://app?vid=b7ed10f6-de27-4702-bb57-c47d52558de5","ios":"levelo://app?vid=b7ed10f6-de27-4702-bb57-c47d52558de5"},"vehicle_type_id":"4","last_reported":1687896499,"current_range_meters":13600,"station_id":"ce4bh3p2rcd13ifvqdq0","pricing_plan_id":"free"},{"bike_id":"34f1a4b3-0790-4f03-9a56-cc8661a5d987","system_id":"levelo_inurba_marseille","lat":43.28902,"lon":5.38291,"is_reserved":false,"is_disabled":false,"rental_uris":{"android":"levelo://app?vid=34f1a4b3-0790-4f03-9a56-cc8661a5d987","ios":"levelo://app?vid=34f1a4b3-0790-4f03-9a56-cc8661a5d987"},"vehicle_type_id":"4","last_reported":1687896499,"current_range_meters":10400,"station_id":"","pricing_plan_id":"free"},{"bike_id":"f457595a-a175-4274-b101-4f96479e9976","system_id":"levelo_inurba_marseille","lat":43.29505,"lon":5.39398,"is_reserved":false,"is_disabled":false,"rental_uris":{"android":"levelo://app?vid=f457595a-a175-4274-b101-4f96479e9976","ios":"levelo://app?vid=f457595a-a175-4274-b101-4f96479e9976"},"vehicle_type_id":"4","last_reported":1687896499,"current_range_meters":27200,"station_id":"ce4bh292rcd13ifvqdf0","pricing_plan_id":"free"},{"bike_id":"b7bbe51e-cca8-4e1b-9e42-41bfa469e084","system_id":"levelo_inurba_marseille","lat":43.30258,"lon":5.40077,"is_reserved":false,"is_disabled":false,"rental_uris":{"android":"levelo://app?vid=b7bbe51e-cca8-4e1b-9e42-41bfa469e084","ios":"levelo://app?vid=b7bbe51e-cca8-4e1b-9e42-41bfa469e084"},"vehicle_type_id":"4","last_reported":1687896499,"current_range_meters":14000,"station_id":"ce4bgvh2rcd13ifvqcs0","pricing_plan_id":"free"},{"bike_id":"efa8d892-c15e-4fda-8426-489254cabd9e","system_id":"levelo_inurba_marseille","lat":43.28616,"lon":5.37045,"is_reserved":false,"is_disabled":false,"rental_uris":{"android":"levelo://app?vid=efa8d892-c15e-4fda-8426-489254cabd9e","ios":"levelo://app?vid=efa8d892-c15e-4fda-8426-489254cabd9e"},"vehicle_type_id":"4","last_reported":1687896499,"current_range_meters":27200,"station_id":"ce4bht12rcd13ifvqi60","pricing_plan_id":"free"},{"bike_id":"a923f3c7-29d2-46e7-b33a-af42f3910463","system_id":"levelo_inurba_marseille","lat":43.28612,"lon":5.3707,"is_reserved":false,"is_disabled":false,"rental_uris":{"android":"levelo://app?vid=a923f3c7-29d2-46e7-b33a-af42f3910463","ios":"levelo://app?vid=a923f3c7-29d2-46e7-b33a-af42f3910463"},"vehicle_type_id":"4","last_reported":1687896499,"current_range_meters":31200,"station_id":"ce4bht12rcd13ifvqi60","pricing_plan_id":"free"},{"bike_id":"73b8cd6c-4425-4ca8-8271-44e2a4c4843a","system_id":"levelo_inurba_marseille","lat":43.28611,"lon":5.37058,"is_reserved":false,"is_disabled":false,"rental_uris":{"android":"levelo://app?vid=73b8cd6c-4425-4ca8-8271-44e2a4c4843a","ios":"levelo://app?vid=73b8cd6c-4425-4ca8-8271-44e2a4c4843a"},"vehicle_type_id":"4","last_reported":1687896499,"current_range_meters":31200,"station_id":"ce4bht12rcd13ifvqi60","pricing_plan_id":"free"},{"bike_id":"f9367b96-5d9e-4f26-9f47-abf0eab012dd","system_id":"levelo_inurba_marseille","lat":43.286039,"lon":5.370681,"is_reserved":false,"is_disabled":false,"rental_uris":{"android":"levelo://app?vid=f9367b96-5d9e-4f26-9f47-abf0eab012dd","ios":"levelo://app?vid=f9367b96-5d9e-4f26-9f47-abf0eab012dd"},"vehicle_type_id":"4","last_reported":1687896499,"current_range_meters":21600,"station_id":"ce4bht12rcd13ifvqi60","pricing_plan_id":"free"},{"bike_id":"9cd4ce9d-7919-4884-ad35-c9aea2f82c7b","system_id":"levelo_inurba_marseille","lat":43.286039,"lon":5.370681,"is_reserved":false,"is_disabled":false,"rental_uris":{"android":"levelo://app?vid=9cd4ce9d-7919-4884-ad35-c9aea2f82c7b","ios":"levelo://app?vid=9cd4ce9d-7919-4884-ad35-c9aea2f82c7b"},"vehicle_type_id":"4","last_reported":1687896499,"current_range_meters":6400,"station_id":"ce4bht12rcd13ifvqi60","pricing_plan_id":"free"},{"bike_id":"901122a1-1e45-47c7-919f-ab50597f5643","system_id":"levelo_inurba_marseille","lat":43.286039,"lon":5.370681,"is_reserved":false,"is_disabled":false,"rental_uris":{"android":"levelo://app?vid=901122a1-1e45-47c7-919f-ab50597f5643","ios":"levelo://app?vid=901122a1-1e45-47c7-919f-ab50597f5643"},"vehicle_type_id":"4","last_reported":1687896499,"current_range_meters":2400,"station_id":"ce4bht12rcd13ifvqi60","pricing_plan_id":"free"},{"bike_id":"58bf6b23-2505-4b35-bd86-8324a86a09fe","system_id":"levelo_inurba_marseille","lat":43.286039,"lon":5.370681,"is_reserved":false,"is_disabled":false,"rental_uris":{"android":"levelo://app?vid=58bf6b23-2505-4b35-bd86-8324a86a09fe","ios":"levelo://app?vid=58bf6b23-2505-4b35-bd86-8324a86a09fe"},"vehicle_type_id":"4","last_reported":1687896499,"current_range_meters":30000,"station_id":"ce4bht12rcd13ifvqi60","pricing_plan_id":"free"},{"bike_id":"2f1a63d1-a373-4844-be0a-c6af86ac11f1","system_id":"levelo_inurba_marseille","lat":43.287185,"lon":5.379373,"is_reserved":false,"is_disabled":false,"rental_uris":{"android":"levelo://app?vid=2f1a63d1-a373-4844-be0a-c6af86ac11f1","ios":"levelo://app?vid=2f1a63d1-a373-4844-be0a-c6af86ac11f1"},"vehicle_type_id":"4","last_reported":1687896499,"current_range_meters":12800,"station_id":"ce4bh9p2rcd13ifvqec0","pricing_plan_id":"free"},{"bike_id":"19f43d1d-e57b-4c74-9339-e84ea88e2a8e","system_id":"levelo_inurba_marseille","lat":43.287184,"lon":5.37937,"is_reserved":false,"is_disabled":false,"rental_uris":{"android":"levelo://app?vid=19f43d1d-e57b-4c74-9339-e84ea88e2a8e","ios":"levelo://app?vid=19f43d1d-e57b-4c74-9339-e84ea88e2a8e"},"vehicle_type_id":"4","last_reported":1687896499,"current_range_meters":20400,"station_id":"ce4bh9p2rcd13ifvqec0","pricing_plan_id":"free"},{"bike_id":"326530f9-f02e-490e-aa2f-cd5bbfeae039","system_id":"levelo_inurba_marseille","lat":43.287185,"lon":5.379373,"is_reserved":false,"is_disabled":false,"rental_uris":{"android":"levelo://app?vid=326530f9-f02e-490e-aa2f-cd5bbfeae039","ios":"levelo://app?vid=326530f9-f02e-490e-aa2f-cd5bbfeae039"},"vehicle_type_id":"4","last_reported":1687896499,"current_range_meters":9200,"station_id":"ce4bh9p2rcd13ifvqec0","pricing_plan_id":"free"},{"bike_id":"dacf8f79-ea9b-4848-9b2c-8522f3787abb","system_id":"levelo_inurba_marseille","lat":43.287184,"lon":5.37937,"is_reserved":false,"is_disabled":false,"rental_uris":{"android":"levelo://app?vid=dacf8f79-ea9b-4848-9b2c-8522f3787abb","ios":"levelo://app?vid=dacf8f79-ea9b-4848-9b2c-8522f3787abb"},"vehicle_type_id":"4","last_reported":1687896499,"current_range_meters":0,"station_id":"ce4bh9p2rcd13ifvqec0","pricing_plan_id":"free"},{"bike_id":"63a1ae29-0de9-466e-8214-ed2bdb885917","system_id":"levelo_inurba_marseille","lat":43.287184,"lon":5.37937,"is_reserved":false,"is_disabled":false,"rental_uris":{"android":"levelo://app?vid=63a1ae29-0de9-466e-8214-ed2bdb885917","ios":"levelo://app?vid=63a1ae29-0de9-466e-8214-ed2bdb885917"},"vehicle_type_id":"4","last_reported":1687896499,"current_range_meters":17200,"station_id":"ce4bh9p2rcd13ifvqec0","pricing_plan_id":"free"},{"bike_id":"c43f25f8-8065-47e9-8f14-c1ff5746389b","system_id":"levelo_inurba_marseille","lat":43.316517,"lon":5.404375,"is_reserved":false,"is_disabled":false,"rental_uris":{"android":"levelo://app?vid=c43f25f8-8065-47e9-8f14-c1ff5746389b","ios":"levelo://app?vid=c43f25f8-8065-47e9-8f14-c1ff5746389b"},"vehicle_type_id":"4","last_reported":1687896499,"current_range_meters":29600,"station_id":"ce4bh012rcd13ifvqd00","pricing_plan_id":"free"},{"bike_id":"dfb54c08-ea06-4fa6-b72a-98f8e5ec4489","system_id":"levelo_inurba_marseille","lat":43.316517,"lon":5.404375,"is_reserved":false,"is_disabled":false,"rental_uris":{"android":"levelo://app?vid=dfb54c08-ea06-4fa6-b72a-98f8e5ec4489","ios":"levelo://app?vid=dfb54c08-ea06-4fa6-b72a-98f8e5ec4489"},"vehicle_type_id":"4","last_reported":1687896499,"current_range_meters":6400,"station_id":"ce4bh012rcd13ifvqd00","pricing_plan_id":"free"},{"bike_id":"d69fed3a-efe9-46fb-b1dc-1240b8978d3e","system_id":"levelo_inurba_marseille","lat":43.316517,"lon":5.404375,"is_reserved":false,"is_disabled":false,"rental_uris":{"android":"levelo://app?vid=d69fed3a-efe9-46fb-b1dc-1240b8978d3e","ios":"levelo://app?vid=d69fed3a-efe9-46fb-b1dc-1240b8978d3e"},"vehicle_type_id":"4","last_reported":1687896499,"current_range_meters":29200,"station_id":"ce4bh012rcd13ifvqd00","pricing_plan_id":"free"},{"bike_id":"34c85cf4-1b73-4c89-946c-3381d41b25e8","system_id":"levelo_inurba_marseille","lat":43.316517,"lon":5.404375,"is_reserved":false,"is_disabled":false,"rental_uris":{"android":"levelo://app?vid=34c85cf4-1b73-4c89-946c-3381d41b25e8","ios":"levelo://app?vid=34c85cf4-1b73-4c89-946c-3381d41b25e8"},"vehicle_type_id":"4","last_reported":1687896499,"current_range_meters":31200,"station_id":"ce4bh012rcd13ifvqd00","pricing_plan_id":"free"},{"bike_id":"fb661348-afa9-4a7f-b7e2-a3e390f09d62","system_id":"levelo_inurba_marseille","lat":43.291994,"lon":5.392907,"is_reserved":false,"is_disabled":false,"rental_uris":{"android":"levelo://app?vid=fb661348-afa9-4a7f-b7e2-a3e390f09d62","ios":"levelo://app?vid=fb661348-afa9-4a7f-b7e2-a3e390f09d62"},"vehicle_type_id":"4","last_reported":1687896499,"current_range_meters":31600,"station_id":"ce4bh192rcd13ifvqdd0","pricing_plan_id":"free"},{"bike_id":"5d6d3c40-6d65-44bf-b266-5b7c94e0eb5a","system_id":"levelo_inurba_marseille","lat":43.291994,"lon":5.392907,"is_reserved":false,"is_disabled":false,"rental_uris":{"android":"levelo://app?vid=5d6d3c40-6d65-44bf-b266-5b7c94e0eb5a","ios":"levelo://app?vid=5d6d3c40-6d65-44bf-b266-5b7c94e0eb5a"},"vehicle_type_id":"4","last_reported":1687896499,"current_range_meters":29200,"station_id":"ce4bh192rcd13ifvqdd0","pricing_plan_id":"free"},{"bike_id":"d55e1ff6-3065-4879-837d-cc22481ed77a","system_id":"levelo_inurba_marseille","lat":43.291994,"lon":5.392907,"is_reserved":false,"is_disabled":false,"rental_uris":{"android":"levelo://app?vid=d55e1ff6-3065-4879-837d-cc22481ed77a","ios":"levelo://app?vid=d55e1ff6-3065-4879-837d-cc22481ed77a"},"vehicle_type_id":"4","last_reported":1687896499,"current_range_meters":0,"station_id":"ce4bh192rcd13ifvqdd0","pricing_plan_id":"free"},{"bike_id":"3cfae3df-da95-4767-96fe-e77b04f20eb3","system_id":"levelo_inurba_marseille","lat":43.291994,"lon":5.392907,"is_reserved":false,"is_disabled":false,"rental_uris":{"android":"levelo://app?vid=3cfae3df-da95-4767-96fe-e77b04f20eb3","ios":"levelo://app?vid=3cfae3df-da95-4767-96fe-e77b04f20eb3"},"vehicle_type_id":"4","last_reported":1687896499,"current_range_meters":11600,"station_id":"ce4bh192rcd13ifvqdd0","pricing_plan_id":"free"},{"bike_id":"6a6bc049-a2de-4c15-8dda-2396feccaa66","system_id":"levelo_inurba_marseille","lat":43.291994,"lon":5.392907,"is_reserved":false,"is_disabled":false,"rental_uris":{"android":"levelo://app?vid=6a6bc049-a2de-4c15-8dda-2396feccaa66","ios":"levelo://app?vid=6a6bc049-a2de-4c15-8dda-2396feccaa66"},"vehicle_type_id":"4","last_reported":1687896499,"current_range_meters":15200,"station_id":"ce4bh192rcd13ifvqdd0","pricing_plan_id":"free"},{"bike_id":"88a43747-d07c-45be-9f42-0880d2c5f69c","system_id":"levelo_inurba_marseille","lat":43.284534,"lon":5.358662,"is_reserved":false,"is_disabled":false,"rental_uris":{"android":"levelo://app?vid=88a43747-d07c-45be-9f42-0880d2c5f69c","ios":"levelo://app?vid=88a43747-d07c-45be-9f42-0880d2c5f69c"},"vehicle_type_id":"4","last_reported":1687896499,"current_range_meters":0,"station_id":"ce4bhah2rcd13ifvqei0","pricing_plan_id":"free"},{"bike_id":"67520fe9-41dd-4952-9d25-429f545f539d","system_id":"levelo_inurba_marseille","lat":43.284534,"lon":5.358662,"is_reserved":false,"is_disabled":false,"rental_uris":{"android":"levelo://app?vid=67520fe9-41dd-4952-9d25-429f545f539d","ios":"levelo://app?vid=67520fe9-41dd-4952-9d25-429f545f539d"},"vehicle_type_id":"4","last_reported":1687896499,"current_range_meters":4400,"station_id":"ce4bhah2rcd13ifvqei0","pricing_plan_id":"free"},{"bike_id":"bd82db9e-754e-422a-b897-bbd434a889e2","system_id":"levelo_inurba_marseille","lat":43.28615,"lon":5.35097,"is_reserved":false,"is_disabled":false,"rental_uris":{"android":"levelo://app?vid=bd82db9e-754e-422a-b897-bbd434a889e2","ios":"levelo://app?vid=bd82db9e-754e-422a-b897-bbd434a889e2"},"vehicle_type_id":"4","last_reported":1687896499,"current_range_meters":22400,"station_id":"ce4bhch2rcd13ifvqeug","pricing_plan_id":"free"},{"bike_id":"a37f2314-af62-4b47-8310-5917851b933e","system_id":"levelo_inurba_marseille","lat":43.283998,"lon":5.375062,"is_reserved":false,"is_disabled":false,"rental_uris":{"android":"levelo://app?vid=a37f2314-af62-4b47-8310-5917851b933e","ios":"levelo://app?vid=a37f2314-af62-4b47-8310-5917851b933e"},"vehicle_type_id":"4","last_reported":1687896499,"current_range_meters":0,"station_id":"ce4bh412rcd13ifvqds0","pricing_plan_id":"free"},{"bike_id":"bf3f4fe1-3c1c-4a20-8dfd-e47386c28673","system_id":"levelo_inurba_marseille","lat":43.283998,"lon":5.375062,"is_reserved":false,"is_disabled":false,"rental_uris":{"android":"levelo://app?vid=bf3f4fe1-3c1c-4a20-8dfd-e47386c28673","ios":"levelo://app?vid=bf3f4fe1-3c1c-4a20-8dfd-e47386c28673"},"vehicle_type_id":"4","last_reported":1687896499,"current_range_meters":9200,"station_id":"ce4bh412rcd13ifvqds0","pricing_plan_id":"free"},{"bike_id":"8583a502-a7ad-43aa-897b-f6800d0b92c3","system_id":"levelo_inurba_marseille","lat":43.283998,"lon":5.375062,"is_reserved":false,"is_disabled":false,"rental_uris":{"android":"levelo://app?vid=8583a502-a7ad-43aa-897b-f6800d0b92c3","ios":"levelo://app?vid=8583a502-a7ad-43aa-897b-f6800d0b92c3"},"vehicle_type_id":"4","last_reported":1687896499,"current_range_meters":28800,"station_id":"ce4bh412rcd13ifvqds0","pricing_plan_id":"free"},{"bike_id":"1a2ec91d-f347-418f-819b-13b7857b910a","system_id":"levelo_inurba_marseille","lat":43.295713,"lon":5.399639,"is_reserved":false,"is_disabled":false,"rental_uris":{"android":"levelo://app?vid=1a2ec91d-f347-418f-819b-13b7857b910a","ios":"levelo://app?vid=1a2ec91d-f347-418f-819b-13b7857b910a"},"vehicle_type_id":"4","last_reported":1687896499,"current_range_meters":17600,"station_id":"ce4bh312rcd13ifvqdj0","pricing_plan_id":"free"},{"bike_id":"fe2df9a1-6497-4ec0-8380-e81bedf13507","system_id":"levelo_inurba_marseille","lat":43.283998,"lon":5.375062,"is_reserved":false,"is_disabled":false,"rental_uris":{"android":"levelo://app?vid=fe2df9a1-6497-4ec0-8380-e81bedf13507","ios":"levelo://app?vid=fe2df9a1-6497-4ec0-8380-e81bedf13507"},"vehicle_type_id":"4","last_reported":1687896499,"current_range_meters":28000,"station_id":"ce4bh412rcd13ifvqds0","pricing_plan_id":"free"},{"bike_id":"30a8ec29-cd08-4abb-8e39-a8f24ec0c412","system_id":"levelo_inurba_marseille","lat":43.283998,"lon":5.375062,"is_reserved":false,"is_disabled":false,"rental_uris":{"android":"levelo://app?vid=30a8ec29-cd08-4abb-8e39-a8f24ec0c412","ios":"levelo://app?vid=30a8ec29-cd08-4abb-8e39-a8f24ec0c412"},"vehicle_type_id":"4","last_reported":1687896499,"current_range_meters":29600,"station_id":"ce4bh412rcd13ifvqds0","pricing_plan_id":"free"},{"bike_id":"c6c597b1-b2b1-4dab-bd2d-295ac88c89e9","system_id":"levelo_inurba_marseille","lat":43.283998,"lon":5.375062,"is_reserved":false,"is_disabled":false,"rental_uris":{"android":"levelo://app?vid=c6c597b1-b2b1-4dab-bd2d-295ac88c89e9","ios":"levelo://app?vid=c6c597b1-b2b1-4dab-bd2d-295ac88c89e9"},"vehicle_type_id":"4","last_reported":1687896499,"current_range_meters":13600,"station_id":"ce4bh412rcd13ifvqds0","pricing_plan_id":"free"},{"bike_id":"f1b34579-a31e-4c28-8caa-b18f1e465f43","system_id":"levelo_inurba_marseille","lat":43.283998,"lon":5.375062,"is_reserved":false,"is_disabled":false,"rental_uris":{"android":"levelo://app?vid=f1b34579-a31e-4c28-8caa-b18f1e465f43","ios":"levelo://app?vid=f1b34579-a31e-4c28-8caa-b18f1e465f43"},"vehicle_type_id":"4","last_reported":1687896499,"current_range_meters":1600,"station_id":"ce4bh412rcd13ifvqds0","pricing_plan_id":"free"},{"bike_id":"47e58e19-7327-4bd2-8fb5-04e5c2d56cc1","system_id":"levelo_inurba_marseille","lat":43.28658,"lon":5.38658,"is_reserved":false,"is_disabled":false,"rental_uris":{"android":"levelo://app?vid=47e58e19-7327-4bd2-8fb5-04e5c2d56cc1","ios":"levelo://app?vid=47e58e19-7327-4bd2-8fb5-04e5c2d56cc1"},"vehicle_type_id":"4","last_reported":1687896499,"current_range_meters":22000,"station_id":"ce4bh492rcd13ifvqdug","pricing_plan_id":"free"},{"bike_id":"783f3503-0860-4a7c-a53a-21b63f5ebf1b","system_id":"levelo_inurba_marseille","lat":43.28773,"lon":5.39028,"is_reserved":false,"is_disabled":false,"rental_uris":{"android":"levelo://app?vid=783f3503-0860-4a7c-a53a-21b63f5ebf1b","ios":"levelo://app?vid=783f3503-0860-4a7c-a53a-21b63f5ebf1b"},"vehicle_type_id":"4","last_reported":1687896499,"current_range_meters":24400,"station_id":"","pricing_plan_id":"free"},{"bike_id":"f2988b82-daec-4b0e-9d7c-376293e5d54f","system_id":"levelo_inurba_marseille","lat":43.33724,"lon":5.39187,"is_reserved":false,"is_disabled":false,"rental_uris":{"android":"levelo://app?vid=f2988b82-daec-4b0e-9d7c-376293e5d54f","ios":"levelo://app?vid=f2988b82-daec-4b0e-9d7c-376293e5d54f"},"vehicle_type_id":"4","last_reported":1687896499,"current_range_meters":21600,"station_id":"","pricing_plan_id":"free"},{"bike_id":"b4c950db-352f-4a1a-8e3c-c05101a6dad0","system_id":"levelo_inurba_marseille","lat":43.288501,"lon":5.393087,"is_reserved":false,"is_disabled":false,"rental_uris":{"android":"levelo://app?vid=b4c950db-352f-4a1a-8e3c-c05101a6dad0","ios":"levelo://app?vid=b4c950db-352f-4a1a-8e3c-c05101a6dad0"},"vehicle_type_id":"4","last_reported":1687896499,"current_range_meters":31600,"station_id":"ce4bh2p2rcd13ifvqdi0","pricing_plan_id":"free"},{"bike_id":"55bf4587-f700-4e99-9e3e-796ceb012669","system_id":"levelo_inurba_marseille","lat":43.284793,"lon":5.384119,"is_reserved":false,"is_disabled":false,"rental_uris":{"android":"levelo://app?vid=55bf4587-f700-4e99-9e3e-796ceb012669","ios":"levelo://app?vid=55bf4587-f700-4e99-9e3e-796ceb012669"},"vehicle_type_id":"4","last_reported":1687896499,"current_range_meters":6000,"station_id":"ce4bh512rcd13ifvqe3g","pricing_plan_id":"free"},{"bike_id":"c2987160-fb08-4330-8c42-06eab19ea1e0","system_id":"levelo_inurba_marseille","lat":43.283494,"lon":5.380945,"is_reserved":false,"is_disabled":false,"rental_uris":{"android":"levelo://app?vid=c2987160-fb08-4330-8c42-06eab19ea1e0","ios":"levelo://app?vid=c2987160-fb08-4330-8c42-06eab19ea1e0"},"vehicle_type_id":"4","last_reported":1687896499,"current_range_meters":31600,"station_id":"ce4bh412rcd13ifvqdr0","pricing_plan_id":"free"},{"bike_id":"04f66c51-9811-4100-9d5c-38affe76250e","system_id":"levelo_inurba_marseille","lat":43.32089,"lon":5.40865,"is_reserved":false,"is_disabled":false,"rental_uris":{"android":"levelo://app?vid=04f66c51-9811-4100-9d5c-38affe76250e","ios":"levelo://app?vid=04f66c51-9811-4100-9d5c-38affe76250e"},"vehicle_type_id":"4","last_reported":1687896499,"current_range_meters":29600,"station_id":"","pricing_plan_id":"free"},{"bike_id":"74df955c-fa6c-4141-9ab3-94c5a28b3537","system_id":"levelo_inurba_marseille","lat":43.282754,"lon":5.350519,"is_reserved":false,"is_disabled":false,"rental_uris":{"android":"levelo://app?vid=74df955c-fa6c-4141-9ab3-94c5a28b3537","ios":"levelo://app?vid=74df955c-fa6c-4141-9ab3-94c5a28b3537"},"vehicle_type_id":"4","last_reported":1687896499,"current_range_meters":7200,"station_id":"ce4bhbp2rcd13ifvqerg","pricing_plan_id":"free"},{"bike_id":"b6e15975-5cee-4f1a-9bd3-4e2b0c923498","system_id":"levelo_inurba_marseille","lat":43.28039,"lon":5.369297,"is_reserved":false,"is_disabled":false,"rental_uris":{"android":"levelo://app?vid=b6e15975-5cee-4f1a-9bd3-4e2b0c923498","ios":"levelo://app?vid=b6e15975-5cee-4f1a-9bd3-4e2b0c923498"},"vehicle_type_id":"4","last_reported":1687896499,"current_range_meters":4800,"station_id":"ce4bha12rcd13ifvqef0","pricing_plan_id":"free"},{"bike_id":"9f104931-3f80-4424-93a1-8fa2094152d0","system_id":"levelo_inurba_marseille","lat":43.28039,"lon":5.369297,"is_reserved":false,"is_disabled":false,"rental_uris":{"android":"levelo://app?vid=9f104931-3f80-4424-93a1-8fa2094152d0","ios":"levelo://app?vid=9f104931-3f80-4424-93a1-8fa2094152d0"},"vehicle_type_id":"4","last_reported":1687896499,"current_range_meters":2000,"station_id":"ce4bha12rcd13ifvqef0","pricing_plan_id":"free"},{"bike_id":"c3b3d8c1-fc98-4fd0-a573-c51c8ffa3d84","system_id":"levelo_inurba_marseille","lat":43.28039,"lon":5.369297,"is_reserved":false,"is_disabled":false,"rental_uris":{"android":"levelo://app?vid=c3b3d8c1-fc98-4fd0-a573-c51c8ffa3d84","ios":"levelo://app?vid=c3b3d8c1-fc98-4fd0-a573-c51c8ffa3d84"},"vehicle_type_id":"4","last_reported":1687896499,"current_range_meters":31600,"station_id":"ce4bha12rcd13ifvqef0","pricing_plan_id":"free"},{"bike_id":"61681041-071c-4813-bd65-a951bd016d12","system_id":"levelo_inurba_marseille","lat":43.28039,"lon":5.369297,"is_reserved":false,"is_disabled":false,"rental_uris":{"android":"levelo://app?vid=61681041-071c-4813-bd65-a951bd016d12","ios":"levelo://app?vid=61681041-071c-4813-bd65-a951bd016d12"},"vehicle_type_id":"4","last_reported":1687896499,"current_range_meters":31600,"station_id":"ce4bha12rcd13ifvqef0","pricing_plan_id":"free"},{"bike_id":"c554e5a5-3646-4f97-8d1e-1e6b36f32fa4","system_id":"levelo_inurba_marseille","lat":43.28039,"lon":5.369297,"is_reserved":false,"is_disabled":false,"rental_uris":{"android":"levelo://app?vid=c554e5a5-3646-4f97-8d1e-1e6b36f32fa4","ios":"levelo://app?vid=c554e5a5-3646-4f97-8d1e-1e6b36f32fa4"},"vehicle_type_id":"4","last_reported":1687896499,"current_range_meters":19600,"station_id":"ce4bha12rcd13ifvqef0","pricing_plan_id":"free"},{"bike_id":"0fd03652-8b10-439c-9085-f6a9e14e61da","system_id":"levelo_inurba_marseille","lat":43.280382,"lon":5.369291,"is_reserved":false,"is_disabled":false,"rental_uris":{"android":"levelo://app?vid=0fd03652-8b10-439c-9085-f6a9e14e61da","ios":"levelo://app?vid=0fd03652-8b10-439c-9085-f6a9e14e61da"},"vehicle_type_id":"4","last_reported":1687896499,"current_range_meters":2800,"station_id":"ce4bha12rcd13ifvqef0","pricing_plan_id":"free"},{"bike_id":"5cb368a2-c735-4ec0-9dc0-b3424cd29356","system_id":"levelo_inurba_marseille","lat":43.290412,"lon":5.399633,"is_reserved":false,"is_disabled":false,"rental_uris":{"android":"levelo://app?vid=5cb368a2-c735-4ec0-9dc0-b3424cd29356","ios":"levelo://app?vid=5cb368a2-c735-4ec0-9dc0-b3424cd29356"},"vehicle_type_id":"4","last_reported":1687896499,"current_range_meters":28000,"station_id":"ce4bh392rcd13ifvqdm0","pricing_plan_id":"free"},{"bike_id":"d90e3081-8bef-4b69-9b18-a5310a2a652a","system_id":"levelo_inurba_marseille","lat":43.290412,"lon":5.399633,"is_reserved":false,"is_disabled":false,"rental_uris":{"android":"levelo://app?vid=d90e3081-8bef-4b69-9b18-a5310a2a652a","ios":"levelo://app?vid=d90e3081-8bef-4b69-9b18-a5310a2a652a"},"vehicle_type_id":"4","last_reported":1687896499,"current_range_meters":5200,"station_id":"ce4bh392rcd13ifvqdm0","pricing_plan_id":"free"},{"bike_id":"bcca8404-b8a7-4c0e-ab71-7d411b4ece10","system_id":"levelo_inurba_marseille","lat":43.290412,"lon":5.399633,"is_reserved":false,"is_disabled":false,"rental_uris":{"android":"levelo://app?vid=bcca8404-b8a7-4c0e-ab71-7d411b4ece10","ios":"levelo://app?vid=bcca8404-b8a7-4c0e-ab71-7d411b4ece10"},"vehicle_type_id":"4","last_reported":1687896499,"current_range_meters":8800,"station_id":"ce4bh392rcd13ifvqdm0","pricing_plan_id":"free"},{"bike_id":"37322b92-425d-4ad2-8d69-ca88198d8799","system_id":"levelo_inurba_marseille","lat":43.290412,"lon":5.399633,"is_reserved":false,"is_disabled":false,"rental_uris":{"android":"levelo://app?vid=37322b92-425d-4ad2-8d69-ca88198d8799","ios":"levelo://app?vid=37322b92-425d-4ad2-8d69-ca88198d8799"},"vehicle_type_id":"4","last_reported":1687896499,"current_range_meters":2800,"station_id":"ce4bh392rcd13ifvqdm0","pricing_plan_id":"free"},{"bike_id":"ca6382be-0e5e-46ce-bd4c-81937fdef095","system_id":"levelo_inurba_marseille","lat":43.296263,"lon":5.40601,"is_reserved":false,"is_disabled":false,"rental_uris":{"android":"levelo://app?vid=ca6382be-0e5e-46ce-bd4c-81937fdef095","ios":"levelo://app?vid=ca6382be-0e5e-46ce-bd4c-81937fdef095"},"vehicle_type_id":"4","last_reported":1687896499,"current_range_meters":19200,"station_id":"ce4bh0h2rcd13ifvqd60","pricing_plan_id":"free"},{"bike_id":"7baadf08-cf22-4774-9207-942a4381837d","system_id":"levelo_inurba_marseille","lat":43.281044,"lon":5.378308,"is_reserved":false,"is_disabled":false,"rental_uris":{"android":"levelo://app?vid=7baadf08-cf22-4774-9207-942a4381837d","ios":"levelo://app?vid=7baadf08-cf22-4774-9207-942a4381837d"},"vehicle_type_id":"4","last_reported":1687896499,"current_range_meters":24400,"station_id":"ce4bha12rcd13ifvqee0","pricing_plan_id":"free"},{"bike_id":"61b79366-981a-417e-aad1-59b9bdb8c9a6","system_id":"levelo_inurba_marseille","lat":43.33056,"lon":5.40579,"is_reserved":false,"is_disabled":false,"rental_uris":{"android":"levelo://app?vid=61b79366-981a-417e-aad1-59b9bdb8c9a6","ios":"levelo://app?vid=61b79366-981a-417e-aad1-59b9bdb8c9a6"},"vehicle_type_id":"4","last_reported":1687896499,"current_range_meters":28800,"station_id":"","pricing_plan_id":"free"},{"bike_id":"c8e6ce45-f2b5-4772-a564-3c2039eea91a","system_id":"levelo_inurba_marseille","lat":43.33052,"lon":5.40588,"is_reserved":false,"is_disabled":false,"rental_uris":{"android":"levelo://app?vid=c8e6ce45-f2b5-4772-a564-3c2039eea91a","ios":"levelo://app?vid=c8e6ce45-f2b5-4772-a564-3c2039eea91a"},"vehicle_type_id":"4","last_reported":1687896499,"current_range_meters":2800,"station_id":"","pricing_plan_id":"free"},{"bike_id":"ee0b32b0-7726-42a6-8bef-ecb5200e09c2","system_id":"levelo_inurba_marseille","lat":43.284462,"lon":5.392121,"is_reserved":false,"is_disabled":false,"rental_uris":{"android":"levelo://app?vid=ee0b32b0-7726-42a6-8bef-ecb5200e09c2","ios":"levelo://app?vid=ee0b32b0-7726-42a6-8bef-ecb5200e09c2"},"vehicle_type_id":"4","last_reported":1687896499,"current_range_meters":17200,"station_id":"ce4bhoh2rcd13ifvqh5g","pricing_plan_id":"free"},{"bike_id":"db296121-bcb6-47a5-af8d-8b9965da0a85","system_id":"levelo_inurba_marseille","lat":43.284462,"lon":5.392121,"is_reserved":false,"is_disabled":false,"rental_uris":{"android":"levelo://app?vid=db296121-bcb6-47a5-af8d-8b9965da0a85","ios":"levelo://app?vid=db296121-bcb6-47a5-af8d-8b9965da0a85"},"vehicle_type_id":"4","last_reported":1687896499,"current_range_meters":29600,"station_id":"ce4bhoh2rcd13ifvqh5g","pricing_plan_id":"free"},{"bike_id":"0c8a5d0b-772d-4b60-be81-4c13cd3a0b3d","system_id":"levelo_inurba_marseille","lat":43.284462,"lon":5.392121,"is_reserved":false,"is_disabled":false,"rental_uris":{"android":"levelo://app?vid=0c8a5d0b-772d-4b60-be81-4c13cd3a0b3d","ios":"levelo://app?vid=0c8a5d0b-772d-4b60-be81-4c13cd3a0b3d"},"vehicle_type_id":"4","last_reported":1687896499,"current_range_meters":6000,"station_id":"ce4bhoh2rcd13ifvqh5g","pricing_plan_id":"free"},{"bike_id":"8c93f5e3-c153-406f-b91c-6a97df28fdea","system_id":"levelo_inurba_marseille","lat":43.284462,"lon":5.392121,"is_reserved":false,"is_disabled":false,"rental_uris":{"android":"levelo://app?vid=8c93f5e3-c153-406f-b91c-6a97df28fdea","ios":"levelo://app?vid=8c93f5e3-c153-406f-b91c-6a97df28fdea"},"vehicle_type_id":"4","last_reported":1687896499,"current_range_meters":6800,"station_id":"ce4bhoh2rcd13ifvqh5g","pricing_plan_id":"free"},{"bike_id":"104e4be4-777a-4d59-9e16-90f98aef09f7","system_id":"levelo_inurba_marseille","lat":43.32658,"lon":5.4099,"is_reserved":false,"is_disabled":false,"rental_uris":{"android":"levelo://app?vid=104e4be4-777a-4d59-9e16-90f98aef09f7","ios":"levelo://app?vid=104e4be4-777a-4d59-9e16-90f98aef09f7"},"vehicle_type_id":"4","last_reported":1687896499,"current_range_meters":2400,"station_id":"ce4bhpp2rcd13ifvqhgg","pricing_plan_id":"free"},{"bike_id":"57a8a150-a061-4c8b-ae07-ca22dafb499e","system_id":"levelo_inurba_marseille","lat":43.32652,"lon":5.40996,"is_reserved":false,"is_disabled":false,"rental_uris":{"android":"levelo://app?vid=57a8a150-a061-4c8b-ae07-ca22dafb499e","ios":"levelo://app?vid=57a8a150-a061-4c8b-ae07-ca22dafb499e"},"vehicle_type_id":"4","last_reported":1687896499,"current_range_meters":18400,"station_id":"ce4bhpp2rcd13ifvqhgg","pricing_plan_id":"free"},{"bike_id":"0c9eee73-532e-4f1f-8b23-5a0693e22298","system_id":"levelo_inurba_marseille","lat":43.326605,"lon":5.409903,"is_reserved":false,"is_disabled":false,"rental_uris":{"android":"levelo://app?vid=0c9eee73-532e-4f1f-8b23-5a0693e22298","ios":"levelo://app?vid=0c9eee73-532e-4f1f-8b23-5a0693e22298"},"vehicle_type_id":"4","last_reported":1687896499,"current_range_meters":31200,"station_id":"ce4bhpp2rcd13ifvqhgg","pricing_plan_id":"free"},{"bike_id":"bc52489e-7dd5-4112-a732-7eb18877460f","system_id":"levelo_inurba_marseille","lat":43.304188,"lon":5.412904,"is_reserved":false,"is_disabled":false,"rental_uris":{"android":"levelo://app?vid=bc52489e-7dd5-4112-a732-7eb18877460f","ios":"levelo://app?vid=bc52489e-7dd5-4112-a732-7eb18877460f"},"vehicle_type_id":"4","last_reported":1687896499,"current_range_meters":7200,"station_id":"ce4bhop2rcd13ifvqh8g","pricing_plan_id":"free"},{"bike_id":"a9167127-83ce-46ad-99b1-5d4250ba4ac7","system_id":"levelo_inurba_marseille","lat":43.304188,"lon":5.412904,"is_reserved":false,"is_disabled":false,"rental_uris":{"android":"levelo://app?vid=a9167127-83ce-46ad-99b1-5d4250ba4ac7","ios":"levelo://app?vid=a9167127-83ce-46ad-99b1-5d4250ba4ac7"},"vehicle_type_id":"4","last_reported":1687896499,"current_range_meters":1600,"station_id":"ce4bhop2rcd13ifvqh8g","pricing_plan_id":"free"},{"bike_id":"c407d5ce-4011-4592-ae17-3049ce3b2abd","system_id":"levelo_inurba_marseille","lat":43.304188,"lon":5.412904,"is_reserved":false,"is_disabled":false,"rental_uris":{"android":"levelo://app?vid=c407d5ce-4011-4592-ae17-3049ce3b2abd","ios":"levelo://app?vid=c407d5ce-4011-4592-ae17-3049ce3b2abd"},"vehicle_type_id":"4","last_reported":1687896499,"current_range_meters":22000,"station_id":"ce4bhop2rcd13ifvqh8g","pricing_plan_id":"free"},{"bike_id":"93ee1c8d-6652-4cc4-a714-04fe1bcf6311","system_id":"levelo_inurba_marseille","lat":43.304188,"lon":5.412904,"is_reserved":false,"is_disabled":false,"rental_uris":{"android":"levelo://app?vid=93ee1c8d-6652-4cc4-a714-04fe1bcf6311","ios":"levelo://app?vid=93ee1c8d-6652-4cc4-a714-04fe1bcf6311"},"vehicle_type_id":"4","last_reported":1687896499,"current_range_meters":19600,"station_id":"ce4bhop2rcd13ifvqh8g","pricing_plan_id":"free"},{"bike_id":"1f3810a2-899a-464d-9234-a5b46e55620d","system_id":"levelo_inurba_marseille","lat":43.279087,"lon":5.380114,"is_reserved":false,"is_disabled":false,"rental_uris":{"android":"levelo://app?vid=1f3810a2-899a-464d-9234-a5b46e55620d","ios":"levelo://app?vid=1f3810a2-899a-464d-9234-a5b46e55620d"},"vehicle_type_id":"4","last_reported":1687896499,"current_range_meters":24400,"station_id":"ce4bhf92rcd13ifvqf50","pricing_plan_id":"free"},{"bike_id":"adc086f2-55b1-4623-afe7-1028b8eb1aaa","system_id":"levelo_inurba_marseille","lat":43.287154,"lon":5.399979,"is_reserved":false,"is_disabled":false,"rental_uris":{"android":"levelo://app?vid=adc086f2-55b1-4623-afe7-1028b8eb1aaa","ios":"levelo://app?vid=adc086f2-55b1-4623-afe7-1028b8eb1aaa"},"vehicle_type_id":"4","last_reported":1687896499,"current_range_meters":19200,"station_id":"ce4bho92rcd13ifvqh3g","pricing_plan_id":"free"},{"bike_id":"50fd953c-9754-45f4-aec7-ae52bb9eb6fe","system_id":"levelo_inurba_marseille","lat":43.287154,"lon":5.399979,"is_reserved":false,"is_disabled":false,"rental_uris":{"android":"levelo://app?vid=50fd953c-9754-45f4-aec7-ae52bb9eb6fe","ios":"levelo://app?vid=50fd953c-9754-45f4-aec7-ae52bb9eb6fe"},"vehicle_type_id":"4","last_reported":1687896499,"current_range_meters":31600,"station_id":"ce4bho92rcd13ifvqh3g","pricing_plan_id":"free"},{"bike_id":"d121dca8-2596-4f85-a2a1-3d6410e5eda4","system_id":"levelo_inurba_marseille","lat":43.33134,"lon":5.40813,"is_reserved":false,"is_disabled":false,"rental_uris":{"android":"levelo://app?vid=d121dca8-2596-4f85-a2a1-3d6410e5eda4","ios":"levelo://app?vid=d121dca8-2596-4f85-a2a1-3d6410e5eda4"},"vehicle_type_id":"4","last_reported":1687896499,"current_range_meters":29200,"station_id":"","pricing_plan_id":"free"},{"bike_id":"19a4c7a6-650a-48bb-bd08-5050b9633680","system_id":"levelo_inurba_marseille","lat":43.320045,"lon":5.415046,"is_reserved":false,"is_disabled":false,"rental_uris":{"android":"levelo://app?vid=19a4c7a6-650a-48bb-bd08-5050b9633680","ios":"levelo://app?vid=19a4c7a6-650a-48bb-bd08-5050b9633680"},"vehicle_type_id":"4","last_reported":1687896499,"current_range_meters":11600,"station_id":"ce4bhq92rcd13ifvqhkg","pricing_plan_id":"free"},