{"last_updated":1727863759,"ttl":60,"version":"2.2","data":{"bikes":[{"bike_id":"bcf82663-17ee-46b9-afef-49e4ad13d1c5","system_id":"levelo_inurba_marseille","lat":43.30304,"lon":5.36904,"is_reserved":false,"is_disabled":false,"rental_uris":{"android":"levelo://app?vid=bcf82663-17ee-46b9-afef-49e4ad13d1c5","ios":"levelo://app?vid=bcf82663-17ee-46b9-afef-49e4ad13d1c5"},"vehicle_type_id":"4","last_reported":1727863759,"current_range_meters":8400,"station_id":"ce4bgqh2rcd13ifvqc5g","pricing_plan_id":"cebpf4jnsgd1na2vs0mg"},{"bike_id":"590a8d58-4170-45bf-9ac5-837bd3ff5b81","system_id":"levelo_inurba_marseille","lat":43.270631,"lon":5.422709,"is_reserved":false,"is_disabled":false,"rental_uris":{"android":"levelo://app?vid=590a8d58-4170-45bf-9ac5-837bd3ff5b81","ios":"levelo://app?vid=590a8d58-4170-45bf-9ac5-837bd3ff5b81"},"vehicle_type_id":"4","last_reported":1727863759,"current_range_meters":24400,"station_id":"ce4bhk92rcd13ifvqgb0","pricing_plan_id":"cebpf4jnsgd1na2vs0mg"},{"bike_id":"44cefc2e-25d9-4040-b45f-14956c78c679","system_id":"levelo_inurba_marseille","lat":43.27083,"lon":5.42322,"is_reserved":false,"is_disabled":false,"rental_uris":{"android":"levelo://app?vid=44cefc2e-25d9-4040-b45f-14956c78c679","ios":"levelo://app?vid=44cefc2e-25d9-4040-b45f-14956c78c679"},"vehicle_type_id":"4","last_reported":1727863759,"current_range_meters":37600,"station_id":"ce4bhk92rcd13ifvqgb0","pricing_plan_id":"cebpf4jnsgd1na2vs0mg"},{"bike_id":"4f60feaa-1808-4e7f-9340-f6a0254476e2","system_id":"levelo_inurba_marseille","lat":43.23964,"lon":5.36629,"is_reserved":false,"is_disabled":false,"rental_uris":{"android":"levelo://app?vid=4f60feaa-1808-4e7f-9340-f6a0254476e2","ios":"levelo://app?vid=4f60feaa-1808-4e7f-9340-f6a0254476e2"},"vehicle_type_id":"4","last_reported":1727863759,"current_range_meters":38800,"station_id":"ce4bhi12rcd13ifvqfp0","pricing_plan_id":"cebpf4jnsgd1na2vs0mg"},{"bike_id":"98bbd9c1-8307-405d-9250-6682408d96e2","system_id":"levelo_inurba_marseille","lat":43.33744,"lon":5.37491,"is_reserved":false,"is_disabled":false,"rental_uris":{"android":"levelo://app?vid=98bbd9c1-8307-405d-9250-6682408d96e2","ios":"levelo://app?vid=98bbd9c1-8307-405d-9250-6682408d96e2"},"vehicle_type_id":"4","last_reported":1727863759,"current_range_meters":38400,"station_id":"","pricing_plan_id":"cebpf4jnsgd1na2vs0mg"},{"bike_id":"0c89dfa8-c55b-430e-a9b8-c5ed3ad99e35","system_id":"levelo_inurba_marseille","lat":43.30548,"lon":5.36531,"is_reserved":false,"is_disabled":false,"rental_uris":{"android":"levelo://app?vid=0c89dfa8-c55b-430e-a9b8-c5ed3ad99e35","ios":"levelo://app?vid=0c89dfa8-c55b-430e-a9b8-c5ed3ad99e35"},"vehicle_type_id":"4","last_reported":1727863759,"current_range_meters":37600,"station_id":"ce4bgs12rcd13ifvqcag","pricing_plan_id":"cebpf4jnsgd1na2vs0mg"},{"bike_id":"bef04bc5-01fc-4470-b3ba-5aa6ddd8d6c1","system_id":"levelo_inurba_marseille","lat":43.31081,"lon":5.4243,"is_reserved":false,"is_disabled":false,"rental_uris":{"android":"levelo://app?vid=bef04bc5-01fc-4470-b3ba-5aa6ddd8d6c1","ios":"levelo://app?vid=bef04bc5-01fc-4470-b3ba-5aa6ddd8d6c1"},"vehicle_type_id":"4","last_reported":1727863759,"current_range_meters":10000,"station_id":"ce4bhp92rcd13ifvqhag","pricing_plan_id":"cebpf4jnsgd1na2vs0mg"},{"bike_id":"36c16717-a39d-4982-b908-c0d63ba1e343","system_id":"levelo_inurba_marseille","lat":43.30143,"lon":5.38074,"is_reserved":false,"is_disabled":false,"rental_uris":{"android":"levelo://app?vid=36c16717-a39d-4982-b908-c0d63ba1e343","ios":"levelo://app?vid=36c16717-a39d-4982-b908-c0d63ba1e343"},"vehicle_type_id":"4","last_reported":1727863759,"current_range_meters":10800,"station_id":"ce4bgjp2rcd13ifvqbh0","pricing_plan_id":"cebpf4jnsgd1na2vs0mg"},{"bike_id":"b44068e0-366c-4285-b893-3fb0582b3d59","system_id":"levelo_inurba_marseille","lat":43.30943,"lon":5.39044,"is_reserved":false,"is_disabled":false,"rental_uris":{"android":"levelo://app?vid=b44068e0-366c-4285-b893-3fb0582b3d59","ios":"levelo://app?vid=b44068e0-366c-4285-b893-3fb0582b3d59"},"vehicle_type_id":"4","last_reported":1727863759,"current_range_meters":11200,"station_id":"ce4bgup2rcd13ifvqco0","pricing_plan_id":"cebpf4jnsgd1na2vs0mg"},{"bike_id":"663c38ca-f7ed-4d2d-9a76-c267bd21796f","system_id":"levelo_inurba_marseille","lat":43.31359,"lon":5.36681,"is_reserved":false,"is_disabled":false,"rental_uris":{"android":"levelo://app?vid=663c38ca-f7ed-4d2d-9a76-c267bd21796f","ios":"levelo://app?vid=663c38ca-f7ed-4d2d-9a76-c267bd21796f"},"vehicle_type_id":"4","last_reported":1727863759,"current_range_meters":28400,"station_id":"ce4bgr92rcd13ifvqc6g","pricing_plan_id":"cebpf4jnsgd1na2vs0mg"},{"bike_id":"49538ee1-018d-4b81-97d6-02c09fe11c99","system_id":"levelo_inurba_marseille","lat":43.23155,"lon":5.43707,"is_reserved":false,"is_disabled":false,"rental_uris":{"android":"levelo://app?vid=49538ee1-018d-4b81-97d6-02c09fe11c99","ios":"levelo://app?vid=49538ee1-018d-4b81-97d6-02c09fe11c99"},"vehicle_type_id":"4","last_reported":1727863759,"current_range_meters":18000,"station_id":"ce4bhmp2rcd13ifvqgog","pricing_plan_id":"cebpf4jnsgd1na2vs0mg"},{"bike_id":"a4df2eb7-690f-4b11-9951-67b9790f07be","system_id":"levelo_inurba_marseille","lat":43.240854,"lon":5.377513,"is_reserved":false,"is_disabled":false,"rental_uris":{"android":"levelo://app?vid=a4df2eb7-690f-4b11-9951-67b9790f07be","ios":"levelo://app?vid=a4df2eb7-690f-4b11-9951-67b9790f07be"},"vehicle_type_id":"4","last_reported":1727863759,"current_range_meters":38400,"station_id":"ce4bh492rcd13ifvqdvg","pricing_plan_id":"cebpf4jnsgd1na2vs0mg"},{"bike_id":"e3de74ec-a675-457c-8890-1e2030314021","system_id":"levelo_inurba_marseille","lat":43.28103,"lon":5.3784,"is_reserved":false,"is_disabled":false,"rental_uris":{"android":"levelo://app?vid=e3de74ec-a675-457c-8890-1e2030314021","ios":"levelo://app?vid=e3de74ec-a675-457c-8890-1e2030314021"},"vehicle_type_id":"4","last_reported":1727863759,"current_range_meters":38400,"station_id":"ce4bha12rcd13ifvqee0","pricing_plan_id":"cebpf4jnsgd1na2vs0mg"},{"bike_id":"ee847438-f627-4ace-9f79-acc010094817","system_id":"levelo_inurba_marseille","lat":43.2957,"lon":5.37508,"is_reserved":false,"is_disabled":false,"rental_uris":{"android":"levelo://app?vid=ee847438-f627-4ace-9f79-acc010094817","ios":"levelo://app?vid=ee847438-f627-4ace-9f79-acc010094817"},"vehicle_type_id":"4","last_reported":1727863759,"current_range_meters":27200,"station_id":"ce4bgh92rcd13ifvqb50","pricing_plan_id":"cebpf4jnsgd1na2vs0mg"},{"bike_id":"064b0c92-49b5-410f-ac9e-35c1b10da809","system_id":"levelo_inurba_marseille","lat":43.23969,"lon":5.36624,"is_reserved":false,"is_disabled":false,"rental_uris":{"android":"levelo://app?vid=064b0c92-49b5-410f-ac9e-35c1b10da809","ios":"levelo://app?vid=064b0c92-49b5-410f-ac9e-35c1b10da809"},"vehicle_type_id":"4","last_reported":1727863759,"current_range_meters":39200,"station_id":"ce4bhi12rcd13ifvqfp0","pricing_plan_id":"cebpf4jnsgd1na2vs0mg"},{"bike_id":"f2536b45-917d-4a72-9370-1fba1b3bcd3c","system_id":"levelo_inurba_marseille","lat":43.27182,"lon":5.40992,"is_reserved":false,"is_disabled":false,"rental_uris":{"android":"levelo://app?vid=f2536b45-917d-4a72-9370-1fba1b3bcd3c","ios":"levelo://app?vid=f2536b45-917d-4a72-9370-1fba1b3bcd3c"},"vehicle_type_id":"4","last_reported":1727863759,"current_range_meters":38800,"station_id":"ce4bhl12rcd13ifvqgf0","pricing_plan_id":"cebpf4jnsgd1na2vs0mg"},{"bike_id":"cc1b0ea3-ad3d-4cdd-bd2d-01272f02e72c","system_id":"levelo_inurba_marseille","lat":43.30087,"lon":5.39069,"is_reserved":false,"is_disabled":false,"rental_uris":{"android":"levelo://app?vid=cc1b0ea3-ad3d-4cdd-bd2d-01272f02e72c","ios":"levelo://app?vid=cc1b0ea3-ad3d-4cdd-bd2d-01272f02e72c"},"vehicle_type_id":"4","last_reported":1727863759,"current_range_meters":36800,"station_id":"ce4bh192rcd13ifvqdb0","pricing_plan_id":"cebpf4jnsgd1na2vs0mg"},{"bike_id":"3266d668-2f81-4f3b-ae04-8070b32a0e52","system_id":"levelo_inurba_marseille","lat":43.33023,"lon":5.39045,"is_reserved":false,"is_disabled":false,"rental_uris":{"android":"levelo://app?vid=3266d668-2f81-4f3b-ae04-8070b32a0e52","ios":"levelo://app?vid=3266d668-2f81-4f3b-ae04-8070b32a0e52"},"vehicle_type_id":"4","last_reported":1727863759,"current_range_meters":32000,"station_id":"ce4bhr92rcd13ifvqhrg","pricing_plan_id":"cebpf4jnsgd1na2vs0mg"},{"bike_id":"09f5d7e1-13c8-45c2-9dbf-20d4d7b9aadd","system_id":"levelo_inurba_marseille","lat":43.30297,"lon":5.36883,"is_reserved":false,"is_disabled":false,"rental_uris":{"android":"levelo://app?vid=09f5d7e1-13c8-45c2-9dbf-20d4d7b9aadd","ios":"levelo://app?vid=09f5d7e1-13c8-45c2-9dbf-20d4d7b9aadd"},"vehicle_type_id":"4","last_reported":1727863759,"current_range_meters":22000,"station_id":"ce4bgqh2rcd13ifvqc5g","pricing_plan_id":"cebpf4jnsgd1na2vs0mg"},{"bike_id":"554d7a73-3b40-4dac-9894-f5eadfdc26ff","system_id":"levelo_inurba_marseille","lat":43.28152,"lon":5.42638,"is_reserved":false,"is_disabled":false,"rental_uris":{"android":"levelo://app?vid=554d7a73-3b40-4dac-9894-f5eadfdc26ff","ios":"levelo://app?vid=554d7a73-3b40-4dac-9894-f5eadfdc26ff"},"vehicle_type_id":"4","last_reported":1727863759,"current_range_meters":38400,"station_id":"ce4bhnh2rcd13ifvqgug","pricing_plan_id":"cebpf4jnsgd1na2vs0mg"},{"bike_id":"5c20e32a-e7b8-4f0c-859f-df9defd23ccb","system_id":"levelo_inurba_marseille","lat":43.30554,"lon":5.36537,"is_reserved":false,"is_disabled":false,"rental_uris":{"android":"levelo://app?vid=5c20e32a-e7b8-4f0c-859f-df9defd23ccb","ios":"levelo://app?vid=5c20e32a-e7b8-4f0c-859f-df9defd23ccb"},"vehicle_type_id":"4","last_reported":1727863759,"current_range_meters":19600,"station_id":"ce4bgs12rcd13ifvqcag","pricing_plan_id":"cebpf4jnsgd1na2vs0mg"},{"bike_id":"7e76f61d-1104-460b-895f-03b2abf7da39","system_id":"levelo_inurba_marseille","lat":43.2846,"lon":5.38415,"is_reserved":false,"is_disabled":false,"rental_uris":{"android":"levelo://app?vid=7e76f61d-1104-460b-895f-03b2abf7da39","ios":"levelo://app?vid=7e76f61d-1104-460b-895f-03b2abf7da39"},"vehicle_type_id":"4","last_reported":1727863759,"current_range_meters":11600,"station_id":"ce4bh512rcd13ifvqe3g","pricing_plan_id":"cebpf4jnsgd1na2vs0mg"},{"bike_id":"eb1273c6-dccf-4cb7-8b98-9d74066bfb54","system_id":"levelo_inurba_marseille","lat":43.30315,"lon":5.36903,"is_reserved":false,"is_disabled":false,"rental_uris":{"android":"levelo://app?vid=eb1273c6-dccf-4cb7-8b98-9d74066bfb54","ios":"levelo://app?vid=eb1273c6-dccf-4cb7-8b98-9d74066bfb54"},"vehicle_type_id":"4","last_reported":1727863759,"current_range_meters":30800,"station_id":"ce4bgqh2rcd13ifvqc5g","pricing_plan_id":"cebpf4jnsgd1na2vs0mg"},{"bike_id":"cc640da1-a3dd-4e35-b4a7-a69a4681666a","system_id":"levelo_inurba_marseille","lat":43.27067,"lon":5.42271,"is_reserved":false,"is_disabled":false,"rental_uris":{"android":"levelo://app?vid=cc640da1-a3dd-4e35-b4a7-a69a4681666a","ios":"levelo://app?vid=cc640da1-a3dd-4e35-b4a7-a69a4681666a"},"vehicle_type_id":"4","last_reported":1727863759,"current_range_meters":17600,"station_id":"ce4bhk92rcd13ifvqgb0","pricing_plan_id":"cebpf4jnsgd1na2vs0mg"},{"bike_id":"2deacd72-1532-4a8b-a253-8b9bd517b205","system_id":"levelo_inurba_marseille","lat":43.29976,"lon":5.37185,"is_reserved":false,"is_disabled":false,"rental_uris":{"android":"levelo://app?vid=2deacd72-1532-4a8b-a253-8b9bd517b205","ios":"levelo://app?vid=2deacd72-1532-4a8b-a253-8b9bd517b205"},"vehicle_type_id":"4","last_reported":1727863759,"current_range_meters":18800,"station_id":"ce4bgr92rcd13ifvqc7g","pricing_plan_id":"cebpf4jnsgd1na2vs0mg"},{"bike_id":"633759f0-dd89-43e7-802d-5a114b6967c7","system_id":"levelo_inurba_marseille","lat":43.30528,"lon":5.36548,"is_reserved":false,"is_disabled":false,"rental_uris":{"android":"levelo://app?vid=633759f0-dd89-43e7-802d-5a114b6967c7","ios":"levelo://app?vid=633759f0-dd89-43e7-802d-5a114b6967c7"},"vehicle_type_id":"4","last_reported":1727863759,"current_range_meters":24000,"station_id":"ce4bgs12rcd13ifvqcag","pricing_plan_id":"cebpf4jnsgd1na2vs0mg"},{"bike_id":"a654434f-32c7-419a-833a-9b7a2cb3b55a","system_id":"levelo_inurba_marseille","lat":43.32489,"lon":5.36563,"is_reserved":false,"is_disabled":false,"rental_uris":{"android":"levelo://app?vid=a654434f-32c7-419a-833a-9b7a2cb3b55a","ios":"levelo://app?vid=a654434f-32c7-419a-833a-9b7a2cb3b55a"},"vehicle_type_id":"4","last_reported":1727863759,"current_range_meters":9600,"station_id":"ce4bhs12rcd13ifvqhvg","pricing_plan_id":"cebpf4jnsgd1na2vs0mg"},{"bike_id":"ec1c3e2c-022c-4156-88fa-de4eba1043d2","system_id":"levelo_inurba_marseille","lat":43.24999,"lon":5.38916,"is_reserved":false,"is_disabled":false,"rental_uris":{"android":"levelo://app?vid=ec1c3e2c-022c-4156-88fa-de4eba1043d2","ios":"levelo://app?vid=ec1c3e2c-022c-4156-88fa-de4eba1043d2"},"vehicle_type_id":"4","last_reported":1727863759,"current_range_meters":34000,"station_id":"ce4bhgp2rcd13ifvqfd0","pricing_plan_id":"cebpf4jnsgd1na2vs0mg"},{"bike_id":"f841c39b-1e65-43d7-a280-34502f66bb6e","system_id":"levelo_inurba_marseille","lat":43.28565,"lon":5.3949,"is_reserved":false,"is_disabled":false,"rental_uris":{"android":"levelo://app?vid=f841c39b-1e65-43d7-a280-34502f66bb6e","ios":"levelo://app?vid=f841c39b-1e65-43d7-a280-34502f66bb6e"},"vehicle_type_id":"4","last_reported":1727863759,"current_range_meters":38400,"station_id":"ce4bh292rcd13ifvqdg0","pricing_plan_id":"cebpf4jnsgd1na2vs0mg"},{"bike_id":"186d1d7d-1293-4df2-9a3c-509d9f14d3c3","system_id":"levelo_inurba_marseille","lat":43.25928,"lon":5.40906,"is_reserved":false,"is_disabled":false,"rental_uris":{"android":"levelo://app?vid=186d1d7d-1293-4df2-9a3c-509d9f14d3c3","ios":"levelo://app?vid=186d1d7d-1293-4df2-9a3c-509d9f14d3c3"},"vehicle_type_id":"4","last_reported":1727863759,"current_range_meters":28800,"station_id":"ce4bhm92rcd13ifvqglg","pricing_plan_id":"cebpf4jnsgd1na2vs0mg"},{"bike_id":"124863e4-db68-43d5-b9aa-40c8641a8244","system_id":"levelo_inurba_marseille","lat":43.30303,"lon":5.3691,"is_reserved":false,"is_disabled":false,"rental_uris":{"android":"levelo://app?vid=124863e4-db68-43d5-b9aa-40c8641a8244","ios":"levelo://app?vid=124863e4-db68-43d5-b9aa-40c8641a8244"},"vehicle_type_id":"4","last_reported":1727863759,"current_range_meters":39200,"station_id":"ce4bgqh2rcd13ifvqc5g","pricing_plan_id":"cebpf4jnsgd1na2vs0mg"},{"bike_id":"21bd0eaa-d1a8-4886-9288-7871e0263a69","system_id":"levelo_inurba_marseille","lat":43.30542,"lon":5.36523,"is_reserved":false,"is_disabled":false,"rental_uris":{"android":"levelo://app?vid=21bd0eaa-d1a8-4886-9288-7871e0263a69","ios":"levelo://app?vid=21bd0eaa-d1a8-4886-9288-7871e0263a69"},"vehicle_type_id":"4","last_reported":1727863759,"current_range_meters":6400,"station_id":"ce4bgs12rcd13ifvqcag","pricing_plan_id":"cebpf4jnsgd1na2vs0mg"},{"bike_id":"d5bf9db1-7dca-49c1-8306-b4004223ad4f","system_id":"levelo_inurba_marseille","lat":43.30532,"lon":5.36534,"is_reserved":false,"is_disabled":false,"rental_uris":{"android":"levelo://app?vid=d5bf9db1-7dca-49c1-8306-b4004223ad4f","ios":"levelo://app?vid=d5bf9db1-7dca-49c1-8306-b4004223ad4f"},"vehicle_type_id":"4","last_reported":1727863759,"current_range_meters":39200,"station_id":"ce4bgs12rcd13ifvqcag","pricing_plan_id":"cebpf4jnsgd1na2vs0mg"},{"bike_id":"266ac202-895c-4bb6-9a6e-d9779dfb3bea","system_id":"levelo_inurba_marseille","lat":43.28485,"lon":5.38536,"is_reserved":false,"is_disabled":false,"rental_uris":{"android":"levelo://app?vid=266ac202-895c-4bb6-9a6e-d9779dfb3bea","ios":"levelo://app?vid=266ac202-895c-4bb6-9a6e-d9779dfb3bea"},"vehicle_type_id":"4","last_reported":1727863759,"current_range_meters":8800,"station_id":"ce4bh8p2rcd13ifvqeb0","pricing_plan_id":"cebpf4jnsgd1na2vs0mg"},{"bike_id":"23c4ac16-7c5b-4b8e-8637-491c7e97010d","system_id":"levelo_inurba_marseille","lat":43.33749,"lon":5.37458,"is_reserved":false,"is_disabled":false,"rental_uris":{"android":"levelo://app?vid=23c4ac16-7c5b-4b8e-8637-491c7e97010d","ios":"levelo://app?vid=23c4ac16-7c5b-4b8e-8637-491c7e97010d"},"vehicle_type_id":"4","last_reported":1727863759,"current_range_meters":38400,"station_id":"","pricing_plan_id":"cebpf4jnsgd1na2vs0mg"},{"bike_id":"c660c489-7cc5-4030-a3a2-c6e8ee9283fb","system_id":"levelo_inurba_marseille","lat":43.27894,"lon":5.38013,"is_reserved":false,"is_disabled":false,"rental_uris":{"android":"levelo://app?vid=c660c489-7cc5-4030-a3a2-c6e8ee9283fb","ios":"levelo://app?vid=c660c489-7cc5-4030-a3a2-c6e8ee9283fb"},"vehicle_type_id":"4","last_reported":1727863759,"current_range_meters":24400,"station_id":"ce4bhf92rcd13ifvqf50","pricing_plan_id":"cebpf4jnsgd1na2vs0mg"},{"bike_id":"11d8e8c4-ba71-4ab4-9cac-530b1f4f9a0b","system_id":"levelo_inurba_marseille","lat":43.30155,"lon":5.38066,"is_reserved":false,"is_disabled":false,"rental_uris":{"android":"levelo://app?vid=11d8e8c4-ba71-4ab4-9cac-530b1f4f9a0b","ios":"levelo://app?vid=11d8e8c4-ba71-4ab4-9cac-530b1f4f9a0b"},"vehicle_type_id":"4","last_reported":1727863759,"current_range_meters":8000,"station_id":"ce4bgjp2rcd13ifvqbh0","pricing_plan_id":"cebpf4jnsgd1na2vs0mg"},{"bike_id":"4af40065-c5ec-4f7d-88bb-124a1c77e44a","system_id":"levelo_inurba_marseille","lat":43.31348,"lon":5.36717,"is_reserved":false,"is_disabled":false,"rental_uris":{"android":"levelo://app?vid=4af40065-c5ec-4f7d-88bb-124a1c77e44a","ios":"levelo://app?vid=4af40065-c5ec-4f7d-88bb-124a1c77e44a"},"vehicle_type_id":"4","last_reported":1727863759,"current_range_meters":36800,"station_id":"ce4bgr92rcd13ifvqc6g","pricing_plan_id":"cebpf4jnsgd1na2vs0mg"},{"bike_id":"261b1485-5406-4984-80b3-2ee751343d4a","system_id":"levelo_inurba_marseille","lat":43.266296,"lon":5.381853,"is_reserved":false,"is_disabled":false,"rental_uris":{"android":"levelo://app?vid=261b1485-5406-4984-80b3-2ee751343d4a","ios":"levelo://app?vid=261b1485-5406-4984-80b3-2ee751343d4a"},"vehicle_type_id":"4","last_reported":1727863759,"current_range_meters":26000,"station_id":"ce4bhg92rcd13ifvqf90","pricing_plan_id":"cebpf4jnsgd1na2vs0mg"},{"bike_id":"4424d93e-1aef-4c0d-903a-da03a3d2d3c4","system_id":"levelo_inurba_marseille","lat":43.26208,"lon":5.37442,"is_reserved":false,"is_disabled":false,"rental_uris":{"android":"levelo://app?vid=4424d93e-1aef-4c0d-903a-da03a3d2d3c4","ios":"levelo://app?vid=4424d93e-1aef-4c0d-903a-da03a3d2d3c4"},"vehicle_type_id":"4","last_reported":1727863759,"current_range_meters":22800,"station_id":"ce4bhgp2rcd13ifvqfc0","pricing_plan_id":"cebpf4jnsgd1na2vs0mg"},{"bike_id":"90085ec2-3304-4141-b2fc-6bbce3f2e437","system_id":"levelo_inurba_marseille","lat":43.24665,"lon":5.38148,"is_reserved":false,"is_disabled":false,"rental_uris":{"android":"levelo://app?vid=90085ec2-3304-4141-b2fc-6bbce3f2e437","ios":"levelo://app?vid=90085ec2-3304-4141-b2fc-6bbce3f2e437"},"vehicle_type_id":"4","last_reported":1727863759,"current_range_meters":24800,"station_id":"ce4bhih2rcd13ifvqfr0","pricing_plan_id":"cebpf4jnsgd1na2vs0mg"},{"bike_id":"2392ac77-55f7-4c80-af73-e5c5c755b68a","system_id":"levelo_inurba_marseille","lat":43.26554,"lon":5.37284,"is_reserved":false,"is_disabled":false,"rental_uris":{"android":"levelo://app?vid=2392ac77-55f7-4c80-af73-e5c5c755b68a","ios":"levelo://app?vid=2392ac77-55f7-4c80-af73-e5c5c755b68a"},"vehicle_type_id":"4","last_reported":1727863759,"current_range_meters":28000,"station_id":"ce4bhg12rcd13ifvqf70","pricing_plan_id":"cebpf4jnsgd1na2vs0mg"},{"bike_id":"9cd128bb-3a64-4bb5-8c11-3fd33409958b","system_id":"levelo_inurba_marseille","lat":43.23151,"lon":5.43709,"is_reserved":false,"is_disabled":false,"rental_uris":{"android":"levelo://app?vid=9cd128bb-3a64-4bb5-8c11-3fd33409958b","ios":"levelo://app?vid=9cd128bb-3a64-4bb5-8c11-3fd33409958b"},"vehicle_type_id":"4","last_reported":1727863759,"current_range_meters":24000,"station_id":"ce4bhmp2rcd13ifvqgog","pricing_plan_id":"cebpf4jnsgd1na2vs0mg"},{"bike_id":"a1ac91c2-e22c-4ece-bfe2-4d5e13ad6026","system_id":"levelo_inurba_marseille","lat":43.34073,"lon":5.42003,"is_reserved":false,"is_disabled":false,"rental_uris":{"android":"levelo://app?vid=a1ac91c2-e22c-4ece-bfe2-4d5e13ad6026","ios":"levelo://app?vid=a1ac91c2-e22c-4ece-bfe2-4d5e13ad6026"},"vehicle_type_id":"4","last_reported":1727863759,"current_range_meters":5600,"station_id":"","pricing_plan_id":"cebpf4jnsgd1na2vs0mg"},{"bike_id":"a2b2e7ec-9291-4e2e-99f8-400018f4dc70","system_id":"levelo_inurba_marseille","lat":43.30526,"lon":5.36704,"is_reserved":false,"is_disabled":false,"rental_uris":{"android":"levelo://app?vid=a2b2e7ec-9291-4e2e-99f8-400018f4dc70","ios":"levelo://app?vid=a2b2e7ec-9291-4e2e-99f8-400018f4dc70"},"vehicle_type_id":"4","last_reported":1727863759,"current_range_meters":39200,"station_id":"ce4bgrp2rcd13ifvqc9g","pricing_plan_id":"cebpf4jnsgd1na2vs0mg"},{"bike_id":"5a306a5b-8554-44de-b608-031623eef1ae","system_id":"levelo_inurba_marseille","lat":43.30543,"lon":5.36527,"is_reserved":false,"is_disabled":false,"rental_uris":{"android":"levelo://app?vid=5a306a5b-8554-44de-b608-031623eef1ae","ios":"levelo://app?vid=5a306a5b-8554-44de-b608-031623eef1ae"},"vehicle_type_id":"4","last_reported":1727863759,"current_range_meters":9200,"station_id":"ce4bgs12rcd13ifvqcag","pricing_plan_id":"cebpf4jnsgd1na2vs0mg"},{"bike_id":"cabafb91-95dc-4d5c-baa9-5aea6e08d11c","system_id":"levelo_inurba_marseille","lat":43.33607,"lon":5.41037,"is_reserved":false,"is_disabled":false,"rental_uris":{"android":"levelo://app?vid=cabafb91-95dc-4d5c-baa9-5aea6e08d11c","ios":"levelo://app?vid=cabafb91-95dc-4d5c-baa9-5aea6e08d11c"},"vehicle_type_id":"4","last_reported":1727863759,"current_range_meters":26800,"station_id":"ce4bhqh2rcd13ifvqhmg","pricing_plan_id":"cebpf4jnsgd1na2vs0mg"},{"bike_id":"609844d3-402e-4c83-8b7f-d2093120cb67","system_id":"levelo_inurba_marseille","lat":43.32518,"lon":5.41452,"is_reserved":false,"is_disabled":false,"rental_uris":{"android":"levelo://app?vid=609844d3-402e-4c83-8b7f-d2093120cb67","ios":"levelo://app?vid=609844d3-402e-4c83-8b7f-d2093120cb67"},"vehicle_type_id":"4","last_reported":1727863759,"current_range_meters":36400,"station_id":"ce4bhq12rcd13ifvqhhg","pricing_plan_id":"cebpf4jnsgd1na2vs0mg"},{"bike_id":"de7884da-a3a8-4ce0-aba4-998827e572b7","system_id":"levelo_inurba_marseille","lat":43.23151,"lon":5.43718,"is_reserved":false,"is_disabled":false,"rental_uris":{"android":"levelo://app?vid=de7884da-a3a8-4ce0-aba4-998827e572b7","ios":"levelo://app?vid=de7884da-a3a8-4ce0-aba4-998827e572b7"},"vehicle_type_id":"4","last_reported":1727863759,"current_range_meters":26800,"station_id":"ce4bhmp2rcd13ifvqgog","pricing_plan_id":"cebpf4jnsgd1na2vs0mg"},{"bike_id":"649b0ebd-72c1-4ccb-bdb5-0127394604e7","system_id":"levelo_inurba_marseille","lat":43.33614,"lon":5.41021,"is_reserved":false,"is_disabled":false,"rental_uris":{"android":"levelo://app?vid=649b0ebd-72c1-4ccb-bdb5-0127394604e7","ios":"levelo://app?vid=649b0ebd-72c1-4ccb-bdb5-0127394604e7"},"vehicle_type_id":"4","last_reported":1727863759,"current_range_meters":37600,"station_id":"ce4bhqh2rcd13ifvqhmg","pricing_plan_id":"cebpf4jnsgd1na2vs0mg"},{"bike_id":"f184f6d6-a8c1-4d3e-9dc1-05e0e2d83651","system_id":"levelo_inurba_marseille","lat":43.30147,"lon":5.37419,"is_reserved":false,"is_disabled":false,"rental_uris":{"android":"levelo://app?vid=f184f6d6-a8c1-4d3e-9dc1-05e0e2d83651","ios":"levelo://app?vid=f184f6d6-a8c1-4d3e-9dc1-05e0e2d83651"},"vehicle_type_id":"4","last_reported":1727863759,"current_range_meters":18000,"station_id":"ce4bgs92rcd13ifvqcc0","pricing_plan_id":"cebpf4jnsgd1na2vs0mg"},{"bike_id":"ce0df4ca-6055-492d-98a4-010ec243e25d","system_id":"levelo_inurba_marseille","lat":43.30327,"lon":5.40437,"is_reserved":false,"is_disabled":false,"rental_uris":{"android":"levelo://app?vid=ce0df4ca-6055-492d-98a4-010ec243e25d","ios":"levelo://app?vid=ce0df4ca-6055-492d-98a4-010ec243e25d"},"vehicle_type_id":"4","last_reported":1727863759,"current_range_meters":20400,"station_id":"ce4bh012rcd13ifvqd10","pricing_plan_id":"cebpf4jnsgd1na2vs0mg"},{"bike_id":"9e6f82c5-7edd-4d61-8fe9-86f829a7226e","system_id":"levelo_inurba_marseille","lat":43.2315,"lon":5.43722,"is_reserved":false,"is_disabled":false,"rental_uris":{"android":"levelo://app?vid=9e6f82c5-7edd-4d61-8fe9-86f829a7226e","ios":"levelo://app?vid=9e6f82c5-7edd-4d61-8fe9-86f829a7226e"},"vehicle_type_id":"4","last_reported":1727863759,"current_range_meters":11600,"station_id":"ce4bhmp2rcd13ifvqgog","pricing_plan_id":"cebpf4jnsgd1na2vs0mg"},{"bike_id":"461fe619-c53a-40f0-bfc1-9e1cc3aa8c03","system_id":"levelo_inurba_marseille","lat":43.28466,"lon":5.38413,"is_reserved":false,"is_disabled":false,"rental_uris":{"android":"levelo://app?vid=461fe619-c53a-40f0-bfc1-9e1cc3aa8c03","ios":"levelo://app?vid=461fe619-c53a-40f0-bfc1-9e1cc3aa8c03"},"vehicle_type_id":"4","last_reported":1727863759,"current_range_meters":30800,"station_id":"ce4bh512rcd13ifvqe3g","pricing_plan_id":"cebpf4jnsgd1na2vs0mg"},{"bike_id":"8420c615-0a03-48f3-8c53-7945ca1519c1","system_id":"levelo_inurba_marseille","lat":43.30278,"lon":5.37696,"is_reserved":false,"is_disabled":false,"rental_uris":{"android":"levelo://app?vid=8420c615-0a03-48f3-8c53-7945ca1519c1","ios":"levelo://app?vid=8420c615-0a03-48f3-8c53-7945ca1519c1"},"vehicle_type_id":"4","last_reported":1727863759,"current_range_meters":38800,"station_id":"ce4bguh2rcd13ifvqcj0","pricing_plan_id":"cebpf4jnsgd1na2vs0mg"},{"bike_id":"0a13b548-31ea-4385-8131-6ee685f55640","system_id":"levelo_inurba_marseille","lat":43.295715,"lon":5.367384,"is_reserved":false,"is_disabled":false,"rental_uris":{"android":"levelo://app?vid=0a13b548-31ea-4385-8131-6ee685f55640","ios":"levelo://app?vid=0a13b548-31ea-4385-8131-6ee685f55640"},"vehicle_type_id":"4","last_reported":1727863759,"current_range_meters":39200,"station_id":"ce4bgph2rcd13ifvqc2g","pricing_plan_id":"cebpf4jnsgd1na2vs0mg"},{"bike_id":"5a0d3d90-449e-478b-94b1-488eb695ddbe","system_id":"levelo_inurba_marseille","lat":43.29843,"lon":5.36269,"is_reserved":false,"is_disabled":false,"rental_uris":{"android":"levelo://app?vid=5a0d3d90-449e-478b-94b1-488eb695ddbe","ios":"levelo://app?vid=5a0d3d90-449e-478b-94b1-488eb695ddbe"},"vehicle_type_id":"4","last_reported":1727863759,"current_range_meters":36800,"station_id":"ce4bgpp2rcd13ifvqc3g","pricing_plan_id":"cebpf4jnsgd1na2vs0mg"},{"bike_id":"54edffe6-5495-491b-9f2e-e7373852c7d2","system_id":"levelo_inurba_marseille","lat":43.30542,"lon":5.36708,"is_reserved":false,"is_disabled":false,"rental_uris":{"android":"levelo://app?vid=54edffe6-5495-491b-9f2e-e7373852c7d2","ios":"levelo://app?vid=54edffe6-5495-491b-9f2e-e7373852c7d2"},"vehicle_type_id":"4","last_reported":1727863759,"current_range_meters":36000,"station_id":"ce4bgrp2rcd13ifvqc9g","pricing_plan_id":"cebpf4jnsgd1na2vs0mg"},{"bike_id":"ea8c2452-bf71-49b6-abc4-1e010f66de00","system_id":"levelo_inurba_marseille","lat":43.27493,"lon":5.42456,"is_reserved":false,"is_disabled":false,"rental_uris":{"android":"levelo://app?vid=ea8c2452-bf71-49b6-abc4-1e010f66de00","ios":"levelo://app?vid=ea8c2452-bf71-49b6-abc4-1e010f66de00"},"vehicle_type_id":"4","last_reported":1727863759,"current_range_meters":29600,"station_id":"ce4bhn92rcd13ifvqgrg","pricing_plan_id":"cebpf4jnsgd1na2vs0mg"},{"bike_id":"a2b8cd9d-feb4-4bfc-9051-419ee5152320","system_id":"levelo_inurba_marseille","lat":43.23154,"lon":5.43704,"is_reserved":false,"is_disabled":false,"rental_uris":{"android":"levelo://app?vid=a2b8cd9d-feb4-4bfc-9051-419ee5152320","ios":"levelo://app?vid=a2b8cd9d-feb4-4bfc-9051-419ee5152320"},"vehicle_type_id":"4","last_reported":1727863759,"current_range_meters":38800,"station_id":"ce4bhmp2rcd13ifvqgog","pricing_plan_id":"cebpf4jnsgd1na2vs0mg"},{"bike_id":"76391673-cd5d-49f4-8b45-1b76892547a9","system_id":"levelo_inurba_marseille","lat":43.28561,"lon":5.39496,"is_reserved":false,"is_disabled":false,"rental_uris":{"android":"levelo://app?vid=76391673-cd5d-49f4-8b45-1b76892547a9","ios":"levelo://app?vid=76391673-cd5d-49f4-8b45-1b76892547a9"},"vehicle_type_id":"4","last_reported":1727863759,"current_range_meters":35600,"station_id":"ce4bh292rcd13ifvqdg0","pricing_plan_id":"cebpf4jnsgd1na2vs0mg"},{"bike_id":"8820dce1-16b5-4934-96cb-9938a9a746d3","system_id":"levelo_inurba_marseille","lat":43.23152,"lon":5.43713,"is_reserved":false,"is_disabled":false,"rental_uris":{"android":"levelo://app?vid=8820dce1-16b5-4934-96cb-9938a9a746d3","ios":"levelo://app?vid=8820dce1-16b5-4934-96cb-9938a9a746d3"},"vehicle_type_id":"4","last_reported":1727863759,"current_range_meters":16800,"station_id":"ce4bhmp2rcd13ifvqgog","pricing_plan_id":"cebpf4jnsgd1na2vs0mg"},{"bike_id":"32c3119e-3371-4f43-8913-1c30e0d13667","system_id":"levelo_inurba_marseille","lat":43.23058,"lon":5.35487,"is_reserved":false,"is_disabled":false,"rental_uris":{"android":"levelo://app?vid=32c3119e-3371-4f43-8913-1c30e0d13667","ios":"levelo://app?vid=32c3119e-3371-4f43-8913-1c30e0d13667"},"vehicle_type_id":"4","last_reported":1727863759,"current_range_meters":38000,"station_id":"cpo3342slgdg3j2ifvpg","pricing_plan_id":"cebpf4jnsgd1na2vs0mg"},{"bike_id":"a253aee3-25a2-4169-81f0-7160ec578495","system_id":"levelo_inurba_marseille","lat":43.27371,"lon":5.362644,"is_reserved":false,"is_disabled":false,"rental_uris":{"android":"levelo://app?vid=a253aee3-25a2-4169-81f0-7160ec578495","ios":"levelo://app?vid=a253aee3-25a2-4169-81f0-7160ec578495"},"vehicle_type_id":"4","last_reported":1727863759,"current_range_meters":34800,"station_id":"ce4bhbh2rcd13ifvqeo0","pricing_plan_id":"cebpf4jnsgd1na2vs0mg"},{"bike_id":"39c7dc54-6d62-4b84-92eb-f8a41a50040c","system_id":"levelo_inurba_marseille","lat":43.23155,"lon":5.43707,"is_reserved":false,"is_disabled":false,"rental_uris":{"android":"levelo://app?vid=39c7dc54-6d62-4b84-92eb-f8a41a50040c","ios":"levelo://app?vid=39c7dc54-6d62-4b84-92eb-f8a41a50040c"},"vehicle_type_id":"4","last_reported":1727863759,"current_range_meters":26000,"station_id":"ce4bhmp2rcd13ifvqgog","pricing_plan_id":"cebpf4jnsgd1na2vs0mg"},{"bike_id":"59f38fb3-bbe0-45e2-ac36-7ba107dd73ab","system_id":"levelo_inurba_marseille","lat":43.33748,"lon":5.37451,"is_reserved":false,"is_disabled":false,"rental_uris":{"android":"levelo://app?vid=59f38fb3-bbe0-45e2-ac36-7ba107dd73ab","ios":"levelo://app?vid=59f38fb3-bbe0-45e2-ac36-7ba107dd73ab"},"vehicle_type_id":"4","last_reported":1727863759,"current_range_meters":38000,"station_id":"","pricing_plan_id":"cebpf4jnsgd1na2vs0mg"},{"bike_id":"fec1c4e0-ecc5-4650-bb2c-a7b963c3d8fe","system_id":"levelo_inurba_marseille","lat":43.27812,"lon":5.40713,"is_reserved":false,"is_disabled":false,"rental_uris":{"android":"levelo://app?vid=fec1c4e0-ecc5-4650-bb2c-a7b963c3d8fe","ios":"levelo://app?vid=fec1c4e0-ecc5-4650-bb2c-a7b963c3d8fe"},"vehicle_type_id":"4","last_reported":1727863759,"current_range_meters":3200,"station_id":"ce4bhnh2rcd13ifvqgtg","pricing_plan_id":"cebpf4jnsgd1na2vs0mg"},{"bike_id":"123ff6ed-4385-4a10-999b-eb298bcab43c","system_id":"levelo_inurba_marseille","lat":43.33025,"lon":5.39038,"is_reserved":false,"is_disabled":false,"rental_uris":{"android":"levelo://app?vid=123ff6ed-4385-4a10-999b-eb298bcab43c","ios":"levelo://app?vid=123ff6ed-4385-4a10-999b-eb298bcab43c"},"vehicle_type_id":"4","last_reported":1727863759,"current_range_meters":37600,"station_id":"ce4bhr92rcd13ifvqhrg","pricing_plan_id":"cebpf4jnsgd1na2vs0mg"},{"bike_id":"d74fb2ef-f814-4ca8-94df-c647e77cc523","system_id":"levelo_inurba_marseille","lat":43.28152,"lon":5.42645,"is_reserved":false,"is_disabled":false,"rental_uris":{"android":"levelo://app?vid=d74fb2ef-f814-4ca8-94df-c647e77cc523","ios":"levelo://app?vid=d74fb2ef-f814-4ca8-94df-c647e77cc523"},"vehicle_type_id":"4","last_reported":1727863759,"current_range_meters":38000,"station_id":"ce4bhnh2rcd13ifvqgug","pricing_plan_id":"cebpf4jnsgd1na2vs0mg"},{"bike_id":"6b28d3bf-854c-484b-b7ff-ebeeff61dbe3","system_id":"levelo_inurba_marseille","lat":43.30303,"lon":5.36903,"is_reserved":false,"is_disabled":false,"rental_uris":{"android":"levelo://app?vid=6b28d3bf-854c-484b-b7ff-ebeeff61dbe3","ios":"levelo://app?vid=6b28d3bf-854c-484b-b7ff-ebeeff61dbe3"},"vehicle_type_id":"4","last_reported":1727863759,"current_range_meters":34000,"station_id":"ce4bgqh2rcd13ifvqc5g","pricing_plan_id":"cebpf4jnsgd1na2vs0mg"},{"bike_id":"df4e7b7b-3bc6-4e4a-bb7e-f2904168e2f7","system_id":"levelo_inurba_marseille","lat":43.301,"lon":5.39064,"is_reserved":false,"is_disabled":false,"rental_uris":{"android":"levelo://app?vid=df4e7b7b-3bc6-4e4a-bb7e-f2904168e2f7","ios":"levelo://app?vid=df4e7b7b-3bc6-4e4a-bb7e-f2904168e2f7"},"vehicle_type_id":"4","last_reported":1727863759,"current_range_meters":28400,"station_id":"ce4bh192rcd13ifvqdb0","pricing_plan_id":"cebpf4jnsgd1na2vs0mg"},{"bike_id":"81c8f3eb-4f47-48de-b362-cac094d7e803","system_id":"levelo_inurba_marseille","lat":43.25934,"lon":5.4091,"is_reserved":false,"is_disabled":false,"rental_uris":{"android":"levelo://app?vid=81c8f3eb-4f47-48de-b362-cac094d7e803","ios":"levelo://app?vid=81c8f3eb-4f47-48de-b362-cac094d7e803"},"vehicle_type_id":"4","last_reported":1727863759,"current_range_meters":8000,"station_id":"ce4bhm92rcd13ifvqglg","pricing_plan_id":"cebpf4jnsgd1na2vs0mg"},{"bike_id":"a8c4c051-987a-40cc-82b5-8f1c4ddd87c1","system_id":"levelo_inurba_marseille","lat":43.28269,"lon":5.35074,"is_reserved":false,"is_disabled":false,"rental_uris":{"android":"levelo://app?vid=a8c4c051-987a-40cc-82b5-8f1c4ddd87c1","ios":"levelo://app?vid=a8c4c051-987a-40cc-82b5-8f1c4ddd87c1"},"vehicle_type_id":"4","last_reported":1727863759,"current_range_meters":39200,"station_id":"ce4bhbp2rcd13ifvqerg","pricing_plan_id":"cebpf4jnsgd1na2vs0mg"},{"bike_id":"613dc259-624b-4dec-b5ed-363ab49a6820","system_id":"levelo_inurba_marseille","lat":43.27483,"lon":5.4245,"is_reserved":false,"is_disabled":false,"rental_uris":{"android":"levelo://app?vid=613dc259-624b-4dec-b5ed-363ab49a6820","ios":"levelo://app?vid=613dc259-624b-4dec-b5ed-363ab49a6820"},"vehicle_type_id":"4","last_reported":1727863759,"current_range_meters":29600,"station_id":"ce4bhn92rcd13ifvqgrg","pricing_plan_id":"cebpf4jnsgd1na2vs0mg"},{"bike_id":"a0840b49-97f0-44b7-99e8-40cbc445591d","system_id":"levelo_inurba_marseille","lat":43.29299,"lon":5.37461,"is_reserved":false,"is_disabled":false,"rental_uris":{"android":"levelo://app?vid=a0840b49-97f0-44b7-99e8-40cbc445591d","ios":"levelo://app?vid=a0840b49-97f0-44b7-99e8-40cbc445591d"},"vehicle_type_id":"4","last_reported":1727863759,"current_range_meters":8000,"station_id":"ce4bgi12rcd13ifvqb70","pricing_plan_id":"cebpf4jnsgd1na2vs0mg"},{"bike_id":"070e769f-47d6-4acc-8ccb-6be635793b53","system_id":"levelo_inurba_marseille","lat":43.23054,"lon":5.35491,"is_reserved":false,"is_disabled":false,"rental_uris":{"android":"levelo://app?vid=070e769f-47d6-4acc-8ccb-6be635793b53","ios":"levelo://app?vid=070e769f-47d6-4acc-8ccb-6be635793b53"},"vehicle_type_id":"4","last_reported":1727863759,"current_range_meters":17200,"station_id":"cpo3342slgdg3j2ifvpg","pricing_plan_id":"cebpf4jnsgd1na2vs0mg"},{"bike_id":"3de6e063-d170-445d-99e6-b76ac33be872","system_id":"levelo_inurba_marseille","lat":43.23157,"lon":5.43697,"is_reserved":false,"is_disabled":false,"rental_uris":{"android":"levelo://app?vid=3de6e063-d170-445d-99e6-b76ac33be872","ios":"levelo://app?vid=3de6e063-d170-445d-99e6-b76ac33be872"},"vehicle_type_id":"4","last_reported":1727863759,"current_range_meters":17600,"station_id":"ce4bhmp2rcd13ifvqgog","pricing_plan_id":"cebpf4jnsgd1na2vs0mg"},{"bike_id":"54b61184-8afb-4583-aca7-eef7f7330c8a","system_id":"levelo_inurba_marseille","lat":43.30348,"lon":5.41881,"is_reserved":false,"is_disabled":false,"rental_uris":{"android":"levelo://app?vid=54b61184-8afb-4583-aca7-eef7f7330c8a","ios":"levelo://app?vid=54b61184-8afb-4583-aca7-eef7f7330c8a"},"vehicle_type_id":"4","last_reported":1727863759,"current_range_meters":31200,"station_id":"ce4bhop2rcd13ifvqh7g","pricing_plan_id":"cebpf4jnsgd1na2vs0mg"},{"bike_id":"87d7ad47-719d-4714-bb01-837221fe8954","system_id":"levelo_inurba_marseille","lat":43.30935,"lon":5.39074,"is_reserved":false,"is_disabled":false,"rental_uris":{"android":"levelo://app?vid=87d7ad47-719d-4714-bb01-837221fe8954","ios":"levelo://app?vid=87d7ad47-719d-4714-bb01-837221fe8954"},"vehicle_type_id":"4","last_reported":1727863759,"current_range_meters":28400,"station_id":"ce4bgup2rcd13ifvqco0","pricing_plan_id":"cebpf4jnsgd1na2vs0mg"},{"bike_id":"fceaeb14-0563-4b0f-885e-a63c514d85cd","system_id":"levelo_inurba_marseille","lat":43.28406,"lon":5.34987,"is_reserved":false,"is_disabled":false,"rental_uris":{"android":"levelo://app?vid=fceaeb14-0563-4b0f-885e-a63c514d85cd","ios":"levelo://app?vid=fceaeb14-0563-4b0f-885e-a63c514d85cd"},"vehicle_type_id":"4","last_reported":1727863759,"current_range_meters":40000,"station_id":"ce4bhbh2rcd13ifvqepg","pricing_plan_id":"cebpf4jnsgd1na2vs0mg"},{"bike_id":"630bf99b-8da5-4fa5-9381-4552175c26f1","system_id":"levelo_inurba_marseille","lat":43.30904,"lon":5.3685,"is_reserved":false,"is_disabled":false,"rental_uris":{"android":"levelo://app?vid=630bf99b-8da5-4fa5-9381-4552175c26f1","ios":"levelo://app?vid=630bf99b-8da5-4fa5-9381-4552175c26f1"},"vehicle_type_id":"4","last_reported":1727863759,"current_range_meters":38400,"station_id":"ce4bgn92rcd13ifvqbvg","pricing_plan_id":"cebpf4jnsgd1na2vs0mg"},{"bike_id":"f8f518e3-bd48-40f5-801a-4ead88758ee2","system_id":"levelo_inurba_marseille","lat":43.32113,"lon":5.36772,"is_reserved":false,"is_disabled":false,"rental_uris":{"android":"levelo://app?vid=f8f518e3-bd48-40f5-801a-4ead88758ee2","ios":"levelo://app?vid=f8f518e3-bd48-40f5-801a-4ead88758ee2"},"vehicle_type_id":"4","last_reported":1727863759,"current_range_meters":10000,"station_id":"ce4bhrh2rcd13ifvqhug","pricing_plan_id":"cebpf4jnsgd1na2vs0mg"},{"bike_id":"cdb7cf2e-2e87-4673-920d-e49ad8e2f5e8","system_id":"levelo_inurba_marseille","lat":43.31342,"lon":5.36709,"is_reserved":false,"is_disabled":false,"rental_uris":{"android":"levelo://app?vid=cdb7cf2e-2e87-4673-920d-e49ad8e2f5e8","ios":"levelo://app?vid=cdb7cf2e-2e87-4673-920d-e49ad8e2f5e8"},"vehicle_type_id":"4","last_reported":1727863759,"current_range_meters":26000,"station_id":"ce4bgr92rcd13ifvqc6g","pricing_plan_id":"cebpf4jnsgd1na2vs0mg"},{"bike_id":"b8d0f0fe-9829-4e25-b3fc-9da75c2774f3","system_id":"levelo_inurba_marseille","lat":43.25935,"lon":5.40913,"is_reserved":false,"is_disabled":false,"rental_uris":{"android":"levelo://app?vid=b8d0f0fe-9829-4e25-b3fc-9da75c2774f3","ios":"levelo://app?vid=b8d0f0fe-9829-4e25-b3fc-9da75c2774f3"},"vehicle_type_id":"4","last_reported":1727863759,"current_range_meters":16800,"station_id":"ce4bhm92rcd13ifvqglg","pricing_plan_id":"cebpf4jnsgd1na2vs0mg"},{"bike_id":"1090c467-845e-4a37-83b2-277521f93c9a","system_id":"levelo_inurba_marseille","lat":43.27614,"lon":5.36107,"is_reserved":false,"is_disabled":false,"rental_uris":{"android":"levelo://app?vid=1090c467-845e-4a37-83b2-277521f93c9a","ios":"levelo://app?vid=1090c467-845e-4a37-83b2-277521f93c9a"},"vehicle_type_id":"4","last_reported":1727863759,"current_range_meters":24000,"station_id":"ce4bgj92rcd13ifvqbe0","pricing_plan_id":"cebpf4jnsgd1na2vs0mg"},{"bike_id":"9328694f-748c-4034-9e7c-77bac2c8d9ad","system_id":"levelo_inurba_marseille","lat":43.29979,"lon":5.371777,"is_reserved":false,"is_disabled":false,"rental_uris":{"android":"levelo://app?vid=9328694f-748c-4034-9e7c-77bac2c8d9ad","ios":"levelo://app?vid=9328694f-748c-4034-9e7c-77bac2c8d9ad"},"vehicle_type_id":"4","last_reported":1727863759,"current_range_meters":29600,"station_id":"ce4bh512rcd13ifvqe3g","pricing_plan_id":"cebpf4jnsgd1na2vs0mg"},{"bike_id":"34d7077e-36f3-4739-9772-61813e607197","system_id":"levelo_inurba_marseille","lat":43.24172,"lon":5.39722,"is_reserved":false,"is_disabled":false,"rental_uris":{"android":"levelo://app?vid=34d7077e-36f3-4739-9772-61813e607197","ios":"levelo://app?vid=34d7077e-36f3-4739-9772-61813e607197"},"vehicle_type_id":"4","last_reported":1727863759,"current_range_meters":28000,"station_id":"ce4bhn12rcd13ifvqgpg","pricing_plan_id":"cebpf4jnsgd1na2vs0mg"},{"bike_id":"b536ea55-3b05-43e6-89a6-ceb6b5f19f57","system_id":"levelo_inurba_marseille","lat":43.27506,"lon":5.39004,"is_reserved":false,"is_disabled":false,"rental_uris":{"android":"levelo://app?vid=b536ea55-3b05-43e6-89a6-ceb6b5f19f57","ios":"levelo://app?vid=b536ea55-3b05-43e6-89a6-ceb6b5f19f57"},"vehicle_type_id":"4","last_reported":1727863759,"current_range_meters":34000,"station_id":"ce4bh4p2rcd13ifvqe1g","pricing_plan_id":"cebpf4jnsgd1na2vs0mg"},{"bike_id":"c79512c0-5855-4853-a139-4583c6a4ff0a","system_id":"levelo_inurba_marseille","lat":43.25001,"lon":5.38916,"is_reserved":false,"is_disabled":false,"rental_uris":{"android":"levelo://app?vid=c79512c0-5855-4853-a139-4583c6a4ff0a","ios":"levelo://app?vid=c79512c0-5855-4853-a139-4583c6a4ff0a"},"vehicle_type_id":"4","last_reported":1727863759,"current_range_meters":39200,"station_id":"ce4bhgp2rcd13ifvqfd0","pricing_plan_id":"cebpf4jnsgd1na2vs0mg"},{"bike_id":"a3dc05af-bd76-4671-b8eb-904646cf30c7","system_id":"levelo_inurba_marseille","lat":43.31168,"lon":5.38727,"is_reserved":false,"is_disabled":false,"rental_uris":{"android":"levelo://app?vid=a3dc05af-bd76-4671-b8eb-904646cf30c7","ios":"levelo://app?vid=a3dc05af-bd76-4671-b8eb-904646cf30c7"},"vehicle_type_id":"4","last_reported":1727863759,"current_range_meters":27600,"station_id":"ce4bgv12rcd13ifvqcp0","pricing_plan_id":"cebpf4jnsgd1na2vs0mg"},{"bike_id":"82de02ff-5552-4e0e-8926-5a8a29c23e1a","system_id":"levelo_inurba_marseille","lat":43.2811,"lon":5.37835,"is_reserved":false,"is_disabled":false,"rental_uris":{"android":"levelo://app?vid=82de02ff-5552-4e0e-8926-5a8a29c23e1a","ios":"levelo://app?vid=82de02ff-5552-4e0e-8926-5a8a29c23e1a"},"vehicle_type_id":"4","last_reported":1727863759,"current_range_meters":30000,"station_id":"ce4bha12rcd13ifvqee0","pricing_plan_id":"cebpf4jnsgd1na2vs0mg"},{"bike_id":"007ad35a-9225-4480-8ce5-f866fbd0cc82","system_id":"levelo_inurba_marseille","lat":43.29634,"lon":5.40593,"is_reserved":false,"is_disabled":false,"rental_uris":{"android":"levelo://app?vid=007ad35a-9225-4480-8ce5-f866fbd0cc82","ios":"levelo://app?vid=007ad35a-9225-4480-8ce5-f866fbd0cc82"},"vehicle_type_id":"4","last_reported":1727863759,"current_range_meters":24800,"station_id":"ce4bh0h2rcd13ifvqd60","pricing_plan_id":"cebpf4jnsgd1na2vs0mg"},{"bike_id":"f73c0357-2191-480e-a049-d52ffb607063","system_id":"levelo_inurba_marseille","lat":43.3361,"lon":5.4103,"is_reserved":false,"is_disabled":false,"rental_uris":{"android":"levelo://app?vid=f73c0357-2191-480e-a049-d52ffb607063","ios":"levelo://app?vid=f73c0357-2191-480e-a049-d52ffb607063"},"vehicle_type_id":"4","last_reported":1727863759,"current_range_meters":34800,"station_id":"ce4bhqh2rcd13ifvqhmg","pricing_plan_id":"cebpf4jnsgd1na2vs0mg"},{"bike_id":"d79507fe-ec54-4ee6-b19b-8f095e99f98d","system_id":"levelo_inurba_marseille","lat":43.24803,"lon":5.37451,"is_reserved":false,"is_disabled":false,"rental_uris":{"android":"levelo://app?vid=d79507fe-ec54-4ee6-b19b-8f095e99f98d","ios":"levelo://app?vid=d79507fe-ec54-4ee6-b19b-8f095e99f98d"},"vehicle_type_id":"4","last_reported":1727863759,"current_range_meters":4000,"station_id":"ce4bhgh2rcd13ifvqfb0","pricing_plan_id":"cebpf4jnsgd1na2vs0mg"},{"bike_id":"c472ffce-f717-4217-9759-dd8b34dda62c","system_id":"levelo_inurba_marseille","lat":43.30192,"lon":5.36627,"is_reserved":false,"is_disabled":false,"rental_uris":{"android":"levelo://app?vid=c472ffce-f717-4217-9759-dd8b34dda62c","ios":"levelo://app?vid=c472ffce-f717-4217-9759-dd8b34dda62c"},"vehicle_type_id":"4","last_reported":1727863759,"current_range_meters":34800,"station_id":"ce4bgrh2rcd13ifvqc8g","pricing_plan_id":"cebpf4jnsgd1na2vs0mg"},{"bike_id":"d1774312-75bc-436e-88ec-22588f98b90c","system_id":"levelo_inurba_marseille","lat":43.32484,"lon":5.36559,"is_reserved":false,"is_disabled":false,"rental_uris":{"android":"levelo://app?vid=d1774312-75bc-436e-88ec-22588f98b90c","ios":"levelo://app?vid=d1774312-75bc-436e-88ec-22588f98b90c"},"vehicle_type_id":"4","last_reported":1727863759,"current_range_meters":30000,"station_id":"ce4bhs12rcd13ifvqhvg","pricing_plan_id":"cebpf4jnsgd1na2vs0mg"},{"bike_id":"b7b2c6a4-94bb-4e4c-942a-7dd2f55032d9","system_id":"levelo_inurba_marseille","lat":43.30545,"lon":5.36532,"is_reserved":false,"is_disabled":false,"rental_uris":{"android":"levelo://app?vid=b7b2c6a4-94bb-4e4c-942a-7dd2f55032d9","ios":"levelo://app?vid=b7b2c6a4-94bb-4e4c-942a-7dd2f55032d9"},"vehicle_type_id":"4","last_reported":1727863759,"current_range_meters":28800,"station_id":"ce4bgs12rcd13ifvqcag","pricing_plan_id":"cebpf4jnsgd1na2vs0mg"},{"bike_id":"49594de6-cdfb-4f2d-9d2b-c32ab49cd5ff","system_id":"levelo_inurba_marseille","lat":43.29911,"lon":5.37471,"is_reserved":false,"is_disabled":false,"rental_uris":{"android":"levelo://app?vid=49594de6-cdfb-4f2d-9d2b-c32ab49cd5ff","ios":"levelo://app?vid=49594de6-cdfb-4f2d-9d2b-c32ab49cd5ff"},"vehicle_type_id":"4","last_reported":1727863759,"current_range_meters":36800,"station_id":"ce4bgjh2rcd13ifvqbg0","pricing_plan_id":"cebpf4jnsgd1na2vs0mg"},{"bike_id":"9e0f8531-ac87-4939-876c-6806e8dfeda9","system_id":"levelo_inurba_marseille","lat":43.23151,"lon":5.43709,"is_reserved":false,"is_disabled":false,"rental_uris":{"android":"levelo://app?vid=9e0f8531-ac87-4939-876c-6806e8dfeda9","ios":"levelo://app?vid=9e0f8531-ac87-4939-876c-6806e8dfeda9"},"vehicle_type_id":"4","last_reported":1727863759,"current_range_meters":8000,"station_id":"ce4bhmp2rcd13ifvqgog","pricing_plan_id":"cebpf4jnsgd1na2vs0mg"},{"bike_id":"53c6fe7a-c5f0-4c29-bdb6-08c6c7db5c71","system_id":"levelo_inurba_marseille","lat":43.32075,"lon":5.36762,"is_reserved":false,"is_disabled":false,"rental_uris":{"android":"levelo://app?vid=53c6fe7a-c5f0-4c29-bdb6-08c6c7db5c71","ios":"levelo://app?vid=53c6fe7a-c5f0-4c29-bdb6-08c6c7db5c71"},"vehicle_type_id":"4","last_reported":1727863759,"current_range_meters":16800,"station_id":"ce4bhrh2rcd13ifvqhug","pricing_plan_id":"cebpf4jnsgd1na2vs0mg"},{"bike_id":"e5b4acad-a526-4677-b608-6110c1720df0","system_id":"levelo_inurba_marseille","lat":43.31352,"lon":5.36708,"is_reserved":false,"is_disabled":false,"rental_uris":{"android":"levelo://app?vid=e5b4acad-a526-4677-b608-6110c1720df0","ios":"levelo://app?vid=e5b4acad-a526-4677-b608-6110c1720df0"},"vehicle_type_id":"4","last_reported":1727863759,"current_range_meters":4400,"station_id":"ce4bgr92rcd13ifvqc6g","pricing_plan_id":"cebpf4jnsgd1na2vs0mg"},{"bike_id":"9f51284f-7263-407e-a937-b1874b001f18","system_id":"levelo_inurba_marseille","lat":43.2315,"lon":5.43712,"is_reserved":false,"is_disabled":false,"rental_uris":{"android":"levelo://app?vid=9f51284f-7263-407e-a937-b1874b001f18","ios":"levelo://app?vid=9f51284f-7263-407e-a937-b1874b001f18"},"vehicle_type_id":"4","last_reported":1727863759,"current_range_meters":27600,"station_id":"ce4bhmp2rcd13ifvqgog","pricing_plan_id":"cebpf4jnsgd1na2vs0mg"},{"bike_id":"2fb6b27c-bd2a-40f2-b0cf-75306d8d7e32","system_id":"levelo_inurba_marseille","lat":43.24168,"lon":5.36402,"is_reserved":false,"is_disabled":false,"rental_uris":{"android":"levelo://app?vid=2fb6b27c-bd2a-40f2-b0cf-75306d8d7e32","ios":"levelo://app?vid=2fb6b27c-bd2a-40f2-b0cf-75306d8d7e32"},"vehicle_type_id":"4","last_reported":1727863759,"current_range_meters":38400,"station_id":"cpo36qri1sfpv3e86is0","pricing_plan_id":"cebpf4jnsgd1na2vs0mg"},{"bike_id":"df952b1f-0654-4cff-8972-4495d5d3b837","system_id":"levelo_inurba_marseille","lat":43.3375,"lon":5.37479,"is_reserved":false,"is_disabled":false,"rental_uris":{"android":"levelo://app?vid=df952b1f-0654-4cff-8972-4495d5d3b837","ios":"levelo://app?vid=df952b1f-0654-4cff-8972-4495d5d3b837"},"vehicle_type_id":"4","last_reported":1727863759,"current_range_meters":8400,"station_id":"","pricing_plan_id":"cebpf4jnsgd1na2vs0mg"},{"bike_id":"804e3d71-db47-4264-9445-f1dd957f20d8","system_id":"levelo_inurba_marseille","lat":43.30299,"lon":5.36902,"is_reserved":false,"is_disabled":false,"rental_uris":{"android":"levelo://app?vid=804e3d71-db47-4264-9445-f1dd957f20d8","ios":"levelo://app?vid=804e3d71-db47-4264-9445-f1dd957f20d8"},"vehicle_type_id":"4","last_reported":1727863759,"current_range_meters":40000,"station_id":"ce4bgqh2rcd13ifvqc5g","pricing_plan_id":"cebpf4jnsgd1na2vs0mg"},{"bike_id":"78889ba2-ec70-468b-8ced-14bc3c412a27","system_id":"levelo_inurba_marseille","lat":43.30092,"lon":5.39075,"is_reserved":false,"is_disabled":false,"rental_uris":{"android":"levelo://app?vid=78889ba2-ec70-468b-8ced-14bc3c412a27","ios":"levelo://app?vid=78889ba2-ec70-468b-8ced-14bc3c412a27"},"vehicle_type_id":"4","last_reported":1727863759,"current_range_meters":38800,"station_id":"ce4bh192rcd13ifvqdb0","pricing_plan_id":"cebpf4jnsgd1na2vs0mg"},{"bike_id":"8192b593-9aca-468c-b907-030a74254c59","system_id":"levelo_inurba_marseille","lat":43.30902,"lon":5.36853,"is_reserved":false,"is_disabled":false,"rental_uris":{"android":"levelo://app?vid=8192b593-9aca-468c-b907-030a74254c59","ios":"levelo://app?vid=8192b593-9aca-468c-b907-030a74254c59"},"vehicle_type_id":"4","last_reported":1727863759,"current_range_meters":8400,"station_id":"ce4bgn92rcd13ifvqbvg","pricing_plan_id":"cebpf4jnsgd1na2vs0mg"},{"bike_id":"85b9886d-d4b1-4a8f-903e-8795a110d38a","system_id":"levelo_inurba_marseille","lat":43.2315,"lon":5.43714,"is_reserved":false,"is_disabled":false,"rental_uris":{"android":"levelo://app?vid=85b9886d-d4b1-4a8f-903e-8795a110d38a","ios":"levelo://app?vid=85b9886d-d4b1-4a8f-903e-8795a110d38a"},"vehicle_type_id":"4","last_reported":1727863759,"current_range_meters":16800,"station_id":"ce4bhmp2rcd13ifvqgog","pricing_plan_id":"cebpf4jnsgd1na2vs0mg"},{"bike_id":"5b789e69-9988-4818-9eca-bf357cf1fde0","system_id":"levelo_inurba_marseille","lat":43.30532,"lon":5.36537,"is_reserved":false,"is_disabled":false,"rental_uris":{"android":"levelo://app?vid=5b789e69-9988-4818-9eca-bf357cf1fde0","ios":"levelo://app?vid=5b789e69-9988-4818-9eca-bf357cf1fde0"},"vehicle_type_id":"4","last_reported":1727863759,"current_range_meters":28400,"station_id":"ce4bgs12rcd13ifvqcag","pricing_plan_id":"cebpf4jnsgd1na2vs0mg"},{"bike_id":"ee30eb65-e2b5-42f0-9767-04264112c239","system_id":"levelo_inurba_marseille","lat":43.30541,"lon":5.36544,"is_reserved":false,"is_disabled":false,"rental_uris":{"android":"levelo://app?vid=ee30eb65-e2b5-42f0-9767-04264112c239","ios":"levelo://app?vid=ee30eb65-e2b5-42f0-9767-04264112c239"},"vehicle_type_id":"4","last_reported":1727863759,"current_range_meters":15200,"station_id":"ce4bgs12rcd13ifvqcag","pricing_plan_id":"cebpf4jnsgd1na2vs0mg"},{"bike_id":"b993e505-e084-4b1a-9429-c10fe07c1a52","system_id":"levelo_inurba_marseille","lat":43.32526,"lon":5.41445,"is_reserved":false,"is_disabled":false,"rental_uris":{"android":"levelo://app?vid=b993e505-e084-4b1a-9429-c10fe07c1a52","ios":"levelo://app?vid=b993e505-e084-4b1a-9429-c10fe07c1a52"},"vehicle_type_id":"4","last_reported":1727863759,"current_range_meters":8400,"station_id":"ce4bhq12rcd13ifvqhhg","pricing_plan_id":"cebpf4jnsgd1na2vs0mg"},{"bike_id":"92778824-43d0-48af-977c-04511febaa5e","system_id":"levelo_inurba_marseille","lat":43.33756,"lon":5.37433,"is_reserved":false,"is_disabled":false,"rental_uris":{"android":"levelo://app?vid=92778824-43d0-48af-977c-04511febaa5e","ios":"levelo://app?vid=92778824-43d0-48af-977c-04511febaa5e"},"vehicle_type_id":"4","last_reported":1727863759,"current_range_meters":35600,"station_id":"","pricing_plan_id":"cebpf4jnsgd1na2vs0mg"},{"bike_id":"3d8d75f1-c5ee-4ce4-b332-4d2417a305aa","system_id":"levelo_inurba_marseille","lat":43.27424,"lon":5.3941,"is_reserved":false,"is_disabled":false,"rental_uris":{"android":"levelo://app?vid=3d8d75f1-c5ee-4ce4-b332-4d2417a305aa","ios":"levelo://app?vid=3d8d75f1-c5ee-4ce4-b332-4d2417a305aa"},"vehicle_type_id":"4","last_reported":1727863759,"current_range_meters":37600,"station_id":"ce4bhdp2rcd13ifvqf20","pricing_plan_id":"cebpf4jnsgd1na2vs0mg"},{"bike_id":"0d0c09c7-e409-4059-95eb-e2007a7f7fa5","system_id":"levelo_inurba_marseille","lat":43.3361,"lon":5.41035,"is_reserved":false,"is_disabled":false,"rental_uris":{"android":"levelo://app?vid=0d0c09c7-e409-4059-95eb-e2007a7f7fa5","ios":"levelo://app?vid=0d0c09c7-e409-4059-95eb-e2007a7f7fa5"},"vehicle_type_id":"4","last_reported":1727863759,"current_range_meters":9600,"station_id":"ce4bhqh2rcd13ifvqhmg","pricing_plan_id":"cebpf4jnsgd1na2vs0mg"},{"bike_id":"d882c178-db66-4976-adc4-d612f68051db","system_id":"levelo_inurba_marseille","lat":43.2586,"lon":5.399,"is_reserved":false,"is_disabled":false,"rental_uris":{"android":"levelo://app?vid=d882c178-db66-4976-adc4-d612f68051db","ios":"levelo://app?vid=d882c178-db66-4976-adc4-d612f68051db"},"vehicle_type_id":"4","last_reported":1727863759,"current_range_meters":38800,"station_id":"ce4bhl92rcd13ifvqghg","pricing_plan_id":"cebpf4jnsgd1na2vs0mg"},{"bike_id":"ed0ff215-7b2c-4059-ad20-efb236b0cf19","system_id":"levelo_inurba_marseille","lat":43.30278,"lon":5.37697,"is_reserved":false,"is_disabled":false,"rental_uris":{"android":"levelo://app?vid=ed0ff215-7b2c-4059-ad20-efb236b0cf19","ios":"levelo://app?vid=ed0ff215-7b2c-4059-ad20-efb236b0cf19"},"vehicle_type_id":"4","last_reported":1727863759,"current_range_meters":38800,"station_id":"ce4bguh2rcd13ifvqcj0","pricing_plan_id":"cebpf4jnsgd1na2vs0mg"},{"bike_id":"8956d160-2217-42da-9123-ee87d7141bd3","system_id":"levelo_inurba_marseille","lat":43.23962,"lon":5.3663,"is_reserved":false,"is_disabled":false,"rental_uris":{"android":"levelo://app?vid=8956d160-2217-42da-9123-ee87d7141bd3","ios":"levelo://app?vid=8956d160-2217-42da-9123-ee87d7141bd3"},"vehicle_type_id":"4","last_reported":1727863759,"current_range_meters":25600,"station_id":"ce4bhi12rcd13ifvqfp0","pricing_plan_id":"cebpf4jnsgd1na2vs0mg"},{"bike_id":"41faedcc-3211-42f3-bb0c-ba646a7b43e3","system_id":"levelo_inurba_marseille","lat":43.29297,"lon":5.37459,"is_reserved":false,"is_disabled":false,"rental_uris":{"android":"levelo://app?vid=41faedcc-3211-42f3-bb0c-ba646a7b43e3","ios":"levelo://app?vid=41faedcc-3211-42f3-bb0c-ba646a7b43e3"},"vehicle_type_id":"4","last_reported":1727863759,"current_range_meters":32800,"station_id":"ce4bgi12rcd13ifvqb70","pricing_plan_id":"cebpf4jnsgd1na2vs0mg"},{"bike_id":"389dbe3b-4b02-4d49-9def-1a6fa2f84c9b","system_id":"levelo_inurba_marseille","lat":43.29855,"lon":5.38006,"is_reserved":false,"is_disabled":false,"rental_uris":{"android":"levelo://app?vid=389dbe3b-4b02-4d49-9def-1a6fa2f84c9b","ios":"levelo://app?vid=389dbe3b-4b02-4d49-9def-1a6fa2f84c9b"},"vehicle_type_id":"4","last_reported":1727863759,"current_range_meters":30800,"station_id":"ce4bgip2rcd13ifvqbb0","pricing_plan_id":"cebpf4jnsgd1na2vs0mg"},{"bike_id":"3355cbba-3f17-4f4d-9cae-ee2aa1ddff19","system_id":"levelo_inurba_marseille","lat":43.30135,"lon":5.37418,"is_reserved":false,"is_disabled":false,"rental_uris":{"android":"levelo://app?vid=3355cbba-3f17-4f4d-9cae-ee2aa1ddff19","ios":"levelo://app?vid=3355cbba-3f17-4f4d-9cae-ee2aa1ddff19"},"vehicle_type_id":"4","last_reported":1727863759,"current_range_meters":18000,"station_id":"ce4bgs92rcd13ifvqcc0","pricing_plan_id":"cebpf4jnsgd1na2vs0mg"},{"bike_id":"935ec555-f0ea-4583-b650-fc90dc78a1ac","system_id":"levelo_inurba_marseille","lat":43.27204,"lon":5.39184,"is_reserved":false,"is_disabled":false,"rental_uris":{"android":"levelo://app?vid=935ec555-f0ea-4583-b650-fc90dc78a1ac","ios":"levelo://app?vid=935ec555-f0ea-4583-b650-fc90dc78a1ac"},"vehicle_type_id":"4","last_reported":1727863759,"current_range_meters":34800,"station_id":"ce4bhhp2rcd13ifvqfm0","pricing_plan_id":"cebpf4jnsgd1na2vs0mg"},{"bike_id":"e87b5406-bfc3-450b-90be-ea33674025e0","system_id":"levelo_inurba_marseille","lat":43.31343,"lon":5.36719,"is_reserved":false,"is_disabled":false,"rental_uris":{"android":"levelo://app?vid=e87b5406-bfc3-450b-90be-ea33674025e0","ios":"levelo://app?vid=e87b5406-bfc3-450b-90be-ea33674025e0"},"vehicle_type_id":"4","last_reported":1727863759,"current_range_meters":36400,"station_id":"ce4bgr92rcd13ifvqc6g","pricing_plan_id":"cebpf4jnsgd1na2vs0mg"},{"bike_id":"f791259a-df2c-414e-92e0-4d64d343370b","system_id":"levelo_inurba_marseille","lat":43.30906,"lon":5.36859,"is_reserved":false,"is_disabled":false,"rental_uris":{"android":"levelo://app?vid=f791259a-df2c-414e-92e0-4d64d343370b","ios":"levelo://app?vid=f791259a-df2c-414e-92e0-4d64d343370b"},"vehicle_type_id":"4","last_reported":1727863759,"current_range_meters":38000,"station_id":"ce4bgn92rcd13ifvqbvg","pricing_plan_id":"cebpf4jnsgd1na2vs0mg"},{"bike_id":"d59c0fb7-fc79-4fd0-be1c-03e904cbe3db","system_id":"levelo_inurba_marseille","lat":43.29257,"lon":5.40905,"is_reserved":false,"is_disabled":false,"rental_uris":{"android":"levelo://app?vid=d59c0fb7-fc79-4fd0-be1c-03e904cbe3db","ios":"levelo://app?vid=d59c0fb7-fc79-4fd0-be1c-03e904cbe3db"},"vehicle_type_id":"4","last_reported":1727863759,"current_range_meters":37600,"station_id":"ce4bh192rcd13ifvqdc0","pricing_plan_id":"cebpf4jnsgd1na2vs0mg"},{"bike_id":"6ae20033-92da-495d-9743-905496a75472","system_id":"levelo_inurba_marseille","lat":43.33607,"lon":5.41013,"is_reserved":false,"is_disabled":false,"rental_uris":{"android":"levelo://app?vid=6ae20033-92da-495d-9743-905496a75472","ios":"levelo://app?vid=6ae20033-92da-495d-9743-905496a75472"},"vehicle_type_id":"4","last_reported":1727863759,"current_range_meters":38800,"station_id":"ce4bhqh2rcd13ifvqhmg","pricing_plan_id":"cebpf4jnsgd1na2vs0mg"},{"bike_id":"70967d43-0f1a-4602-a537-8a7d34cb1f69","system_id":"levelo_inurba_marseille","lat":43.29981,"lon":5.38457,"is_reserved":false,"is_disabled":false,"rental_uris":{"android":"levelo://app?vid=70967d43-0f1a-4602-a537-8a7d34cb1f69","ios":"levelo://app?vid=70967d43-0f1a-4602-a537-8a7d34cb1f69"},"vehicle_type_id":"4","last_reported":1727863759,"current_range_meters":25200,"station_id":"ce4bgj92rcd13ifvqbd0","pricing_plan_id":"cebpf4jnsgd1na2vs0mg"},{"bike_id":"32f94b16-f43f-4ab0-9cc4-441c595e0a56","system_id":"levelo_inurba_marseille","lat":43.28145,"lon":5.42631,"is_reserved":false,"is_disabled":false,"rental_uris":{"android":"levelo://app?vid=32f94b16-f43f-4ab0-9cc4-441c595e0a56","ios":"levelo://app?vid=32f94b16-f43f-4ab0-9cc4-441c595e0a56"},"vehicle_type_id":"4","last_reported":1727863759,"current_range_meters":36400,"station_id":"ce4bhnh2rcd13ifvqgug","pricing_plan_id":"cebpf4jnsgd1na2vs0mg"},{"bike_id":"a6dee003-1feb-474f-90ab-955ae11dce3f","system_id":"levelo_inurba_marseille","lat":43.29756,"lon":5.37283,"is_reserved":false,"is_disabled":false,"rental_uris":{"android":"levelo://app?vid=a6dee003-1feb-474f-90ab-955ae11dce3f","ios":"levelo://app?vid=a6dee003-1feb-474f-90ab-955ae11dce3f"},"vehicle_type_id":"4","last_reported":1727863759,"current_range_meters":17600,"station_id":"","pricing_plan_id":"cebpf4jnsgd1na2vs0mg"},{"bike_id":"4585a52b-704e-4d73-8d39-1c11231f55bb","system_id":"levelo_inurba_marseille","lat":43.29976,"lon":5.37175,"is_reserved":false,"is_disabled":false,"rental_uris":{"android":"levelo://app?vid=4585a52b-704e-4d73-8d39-1c11231f55bb","ios":"levelo://app?vid=4585a52b-704e-4d73-8d39-1c11231f55bb"},"vehicle_type_id":"4","last_reported":1727863759,"current_range_meters":38800,"station_id":"ce4bgr92rcd13ifvqc7g","pricing_plan_id":"cebpf4jnsgd1na2vs0mg"},{"bike_id":"4bd2bdb0-2428-4b26-b66c-938192bf3d68","system_id":"levelo_inurba_marseille","lat":43.33757,"lon":5.37417,"is_reserved":false,"is_disabled":false,"rental_uris":{"android":"levelo://app?vid=4bd2bdb0-2428-4b26-b66c-938192bf3d68","ios":"levelo://app?vid=4bd2bdb0-2428-4b26-b66c-938192bf3d68"},"vehicle_type_id":"4","last_reported":1727863759,"current_range_meters":33600,"station_id":"","pricing_plan_id":"cebpf4jnsgd1na2vs0mg"},{"bike_id":"5018f960-dc4e-426f-a85a-0f663ea79b3a","system_id":"levelo_inurba_marseille","lat":43.30133,"lon":5.37414,"is_reserved":false,"is_disabled":false,"rental_uris":{"android":"levelo://app?vid=5018f960-dc4e-426f-a85a-0f663ea79b3a","ios":"levelo://app?vid=5018f960-dc4e-426f-a85a-0f663ea79b3a"},"vehicle_type_id":"4","last_reported":1727863759,"current_range_meters":4400,"station_id":"ce4bgs92rcd13ifvqcc0","pricing_plan_id":"cebpf4jnsgd1na2vs0mg"},{"bike_id":"02a81143-3c53-4caf-ae14-65502029536a","system_id":"levelo_inurba_marseille","lat":43.27201,"lon":5.39182,"is_reserved":false,"is_disabled":false,"rental_uris":{"android":"levelo://app?vid=02a81143-3c53-4caf-ae14-65502029536a","ios":"levelo://app?vid=02a81143-3c53-4caf-ae14-65502029536a"},"vehicle_type_id":"4","last_reported":1727863759,"current_range_meters":25600,"station_id":"ce4bhhp2rcd13ifvqfm0","pricing_plan_id":"cebpf4jnsgd1na2vs0mg"},{"bike_id":"1ade37b3-845d-4c33-8cbe-673e5496e708","system_id":"levelo_inurba_marseille","lat":43.24542,"lon":5.3953,"is_reserved":false,"is_disabled":false,"rental_uris":{"android":"levelo://app?vid=1ade37b3-845d-4c33-8cbe-673e5496e708","ios":"levelo://app?vid=1ade37b3-845d-4c33-8cbe-673e5496e708"},"vehicle_type_id":"4","last_reported":1727863759,"current_range_meters":33600,"station_id":"ce4bhlp2rcd13ifvqgjg","pricing_plan_id":"cebpf4jnsgd1na2vs0mg"},{"bike_id":"c6aefcac-9b59-4be9-ba9c-464572888e5a","system_id":"levelo_inurba_marseille","lat":43.30539,"lon":5.36716,"is_reserved":false,"is_disabled":false,"rental_uris":{"android":"levelo://app?vid=c6aefcac-9b59-4be9-ba9c-464572888e5a","ios":"levelo://app?vid=c6aefcac-9b59-4be9-ba9c-464572888e5a"},"vehicle_type_id":"4","last_reported":1727863759,"current_range_meters":39200,"station_id":"ce4bgrp2rcd13ifvqc9g","pricing_plan_id":"cebpf4jnsgd1na2vs0mg"},{"bike_id":"e327d4c5-e7de-478d-89b6-da24369c6f53","system_id":"levelo_inurba_marseille","lat":43.29843,"lon":5.36275,"is_reserved":false,"is_disabled":false,"rental_uris":{"android":"levelo://app?vid=e327d4c5-e7de-478d-89b6-da24369c6f53","ios":"levelo://app?vid=e327d4c5-e7de-478d-89b6-da24369c6f53"},"vehicle_type_id":"4","last_reported":1727863759,"current_range_meters":37600,"station_id":"ce4bgpp2rcd13ifvqc3g","pricing_plan_id":"cebpf4jnsgd1na2vs0mg"},{"bike_id":"56e41a58-73e0-4bb7-9fbb-ae4f0eb6460e","system_id":"levelo_inurba_marseille","lat":43.28856,"lon":5.3584,"is_reserved":false,"is_disabled":false,"rental_uris":{"android":"levelo://app?vid=56e41a58-73e0-4bb7-9fbb-ae4f0eb6460e","ios":"levelo://app?vid=56e41a58-73e0-4bb7-9fbb-ae4f0eb6460e"},"vehicle_type_id":"4","last_reported":1727863759,"current_range_meters":9600,"station_id":"ce4bhb12rcd13ifvqem0","pricing_plan_id":"cebpf4jnsgd1na2vs0mg"},{"bike_id":"f91d816a-4cf4-45b6-9d96-9385756703a6","system_id":"levelo_inurba_marseille","lat":43.27373,"lon":5.36261,"is_reserved":false,"is_disabled":false,"rental_uris":{"android":"levelo://app?vid=f91d816a-4cf4-45b6-9d96-9385756703a6","ios":"levelo://app?vid=f91d816a-4cf4-45b6-9d96-9385756703a6"},"vehicle_type_id":"4","last_reported":1727863759,"current_range_meters":36000,"station_id":"ce4bhbh2rcd13ifvqeo0","pricing_plan_id":"cebpf4jnsgd1na2vs0mg"},{"bike_id":"81b94490-1dea-44a2-9e98-cf0c9bd477b0","system_id":"levelo_inurba_marseille","lat":43.30306,"lon":5.36907,"is_reserved":false,"is_disabled":false,"rental_uris":{"android":"levelo://app?vid=81b94490-1dea-44a2-9e98-cf0c9bd477b0","ios":"levelo://app?vid=81b94490-1dea-44a2-9e98-cf0c9bd477b0"},"vehicle_type_id":"4","last_reported":1727863759,"current_range_meters":16000,"station_id":"ce4bgqh2rcd13ifvqc5g","pricing_plan_id":"cebpf4jnsgd1na2vs0mg"},{"bike_id":"0351257e-74b9-436d-b879-4f7477bdd615","system_id":"levelo_inurba_marseille","lat":43.23068,"lon":5.35493,"is_reserved":false,"is_disabled":false,"rental_uris":{"android":"levelo://app?vid=0351257e-74b9-436d-b879-4f7477bdd615","ios":"levelo://app?vid=0351257e-74b9-436d-b879-4f7477bdd615"},"vehicle_type_id":"4","last_reported":1727863759,"current_range_meters":28000,"station_id":"cpo3342slgdg3j2ifvpg","pricing_plan_id":"cebpf4jnsgd1na2vs0mg"},{"bike_id":"66c1cfb0-2b20-433a-94b2-c02013f6c4e9","system_id":"levelo_inurba_marseille","lat":43.30554,"lon":5.36542,"is_reserved":false,"is_disabled":false,"rental_uris":{"android":"levelo://app?vid=66c1cfb0-2b20-433a-94b2-c02013f6c4e9","ios":"levelo://app?vid=66c1cfb0-2b20-433a-94b2-c02013f6c4e9"},"vehicle_type_id":"4","last_reported":1727863759,"current_range_meters":3600,"station_id":"ce4bgs12rcd13ifvqcag","pricing_plan_id":"cebpf4jnsgd1na2vs0mg"},{"bike_id":"9da4a5f4-1a97-4224-a5a8-18de5740c318","system_id":"levelo_inurba_marseille","lat":43.30541,"lon":5.36547,"is_reserved":false,"is_disabled":false,"rental_uris":{"android":"levelo://app?vid=9da4a5f4-1a97-4224-a5a8-18de5740c318","ios":"levelo://app?vid=9da4a5f4-1a97-4224-a5a8-18de5740c318"},"vehicle_type_id":"4","last_reported":1727863759,"current_range_meters":29600,"station_id":"ce4bgs12rcd13ifvqcag","pricing_plan_id":"cebpf4jnsgd1na2vs0mg"},{"bike_id":"4bc069e9-27cb-4e2c-9e2e-007bc95d2cfc","system_id":"levelo_inurba_marseille","lat":43.29221,"lon":5.36055,"is_reserved":false,"is_disabled":false,"rental_uris":{"android":"levelo://app?vid=4bc069e9-27cb-4e2c-9e2e-007bc95d2cfc","ios":"levelo://app?vid=4bc069e9-27cb-4e2c-9e2e-007bc95d2cfc"},"vehicle_type_id":"4","last_reported":1727863759,"current_range_meters":38000,"station_id":"ce4bhbh2rcd13ifvqeqg","pricing_plan_id":"cebpf4jnsgd1na2vs0mg"},{"bike_id":"5232706d-f6ed-49c5-82b0-3d08f9db9c69","system_id":"levelo_inurba_marseille","lat":43.29838,"lon":5.36256,"is_reserved":false,"is_disabled":false,"rental_uris":{"android":"levelo://app?vid=5232706d-f6ed-49c5-82b0-3d08f9db9c69","ios":"levelo://app?vid=5232706d-f6ed-49c5-82b0-3d08f9db9c69"},"vehicle_type_id":"4","last_reported":1727863759,"current_range_meters":36800,"station_id":"ce4bgpp2rcd13ifvqc3g","pricing_plan_id":"cebpf4jnsgd1na2vs0mg"},{"bike_id":"6ca24f61-090a-4715-a991-883ca237ff8b","system_id":"levelo_inurba_marseille","lat":43.29846,"lon":5.36275,"is_reserved":false,"is_disabled":false,"rental_uris":{"android":"levelo://app?vid=6ca24f61-090a-4715-a991-883ca237ff8b","ios":"levelo://app?vid=6ca24f61-090a-4715-a991-883ca237ff8b"},"vehicle_type_id":"4","last_reported":1727863759,"current_range_meters":38000,"station_id":"ce4bgpp2rcd13ifvqc3g","pricing_plan_id":"cebpf4jnsgd1na2vs0mg"},{"bike_id":"e30c3d3b-088b-4e1f-887e-a57753480314","system_id":"levelo_inurba_marseille","lat":43.297041,"lon":5.372293,"is_reserved":false,"is_disabled":false,"rental_uris":{"android":"levelo://app?vid=e30c3d3b-088b-4e1f-887e-a57753480314","ios":"levelo://app?vid=e30c3d3b-088b-4e1f-887e-a57753480314"},"vehicle_type_id":"4","last_reported":1727863759,"current_range_meters":27600,"station_id":"ce4bgk12rcd13ifvqbj0","pricing_plan_id":"cebpf4jnsgd1na2vs0mg"},{"bike_id":"8eebbf9b-09d5-41f7-9fcb-1a511b9e8ee3","system_id":"levelo_inurba_marseille","lat":43.23149,"lon":5.43714,"is_reserved":false,"is_disabled":false,"rental_uris":{"android":"levelo://app?vid=8eebbf9b-09d5-41f7-9fcb-1a511b9e8ee3","ios":"levelo://app?vid=8eebbf9b-09d5-41f7-9fcb-1a511b9e8ee3"},"vehicle_type_id":"4","last_reported":1727863759,"current_range_meters":38800,"station_id":"ce4bhmp2rcd13ifvqgog","pricing_plan_id":"cebpf4jnsgd1na2vs0mg"},{"bike_id":"0525355d-4320-47a5-8dcd-2ebc85c2a1e1","system_id":"levelo_inurba_marseille","lat":43.3132,"lon":5.36708,"is_reserved":false,"is_disabled":false,"rental_uris":{"android":"levelo://app?vid=0525355d-4320-47a5-8dcd-2ebc85c2a1e1","ios":"levelo://app?vid=0525355d-4320-47a5-8dcd-2ebc85c2a1e1"},"vehicle_type_id":"4","last_reported":1727863759,"current_range_meters":24800,"station_id":"ce4bgr92rcd13ifvqc6g","pricing_plan_id":"cebpf4jnsgd1na2vs0mg"},{"bike_id":"54e018a7-7fbc-4580-b942-5a53fc542609","system_id":"levelo_inurba_marseille","lat":43.241811,"lon":5.397311,"is_reserved":false,"is_disabled":false,"rental_uris":{"android":"levelo://app?vid=54e018a7-7fbc-4580-b942-5a53fc542609","ios":"levelo://app?vid=54e018a7-7fbc-4580-b942-5a53fc542609"},"vehicle_type_id":"4","last_reported":1727863759,"current_range_meters":11200,"station_id":"ce4bhn12rcd13ifvqgpg","pricing_plan_id":"cebpf4jnsgd1na2vs0mg"},{"bike_id":"772088a0-7828-4f69-ba5d-0f6cdb83dec2","system_id":"levelo_inurba_marseille","lat":43.337444,"lon":5.374475,"is_reserved":false,"is_disabled":false,"rental_uris":{"android":"levelo://app?vid=772088a0-7828-4f69-ba5d-0f6cdb83dec2","ios":"levelo://app?vid=772088a0-7828-4f69-ba5d-0f6cdb83dec2"},"vehicle_type_id":"4","last_reported":1727863759,"current_range_meters":6800,"station_id":"","pricing_plan_id":"cebpf4jnsgd1na2vs0mg"},{"bike_id":"38a9f3dd-099a-4c62-aa5f-ceb413b75c6d","system_id":"levelo_inurba_marseille","lat":43.29707,"lon":5.36609,"is_reserved":false,"is_disabled":false,"rental_uris":{"android":"levelo://app?vid=38a9f3dd-099a-4c62-aa5f-ceb413b75c6d","ios":"levelo://app?vid=38a9f3dd-099a-4c62-aa5f-ceb413b75c6d"},"vehicle_type_id":"4","last_reported":1727863759,"current_range_meters":22000,"station_id":"ce4bgn12rcd13ifvqbt0","pricing_plan_id":"cebpf4jnsgd1na2vs0mg"},{"bike_id":"7a7e4978-023c-4125-ae1e-54a889e3191f","system_id":"levelo_inurba_marseille","lat":43.30558,"lon":5.36528,"is_reserved":false,"is_disabled":false,"rental_uris":{"android":"levelo://app?vid=7a7e4978-023c-4125-ae1e-54a889e3191f","ios":"levelo://app?vid=7a7e4978-023c-4125-ae1e-54a889e3191f"},"vehicle_type_id":"4","last_reported":1727863759,"current_range_meters":23200,"station_id":"ce4bgs12rcd13ifvqcag","pricing_plan_id":"cebpf4jnsgd1na2vs0mg"},{"bike_id":"cd385f71-7ba5-497a-9c21-e01e06c76d4e","system_id":"levelo_inurba_marseille","lat":43.32037,"lon":5.41571,"is_reserved":false,"is_disabled":false,"rental_uris":{"android":"levelo://app?vid=cd385f71-7ba5-497a-9c21-e01e06c76d4e","ios":"levelo://app?vid=cd385f71-7ba5-497a-9c21-e01e06c76d4e"},"vehicle_type_id":"4","last_reported":1727863759,"current_range_meters":9600,"station_id":"ce4bhq92rcd13ifvqhkg","pricing_plan_id":"cebpf4jnsgd1na2vs0mg"},{"bike_id":"7200ccdb-20f0-4cfd-b8b5-6a2be0ee7633","system_id":"levelo_inurba_marseille","lat":43.29304,"lon":5.37474,"is_reserved":false,"is_disabled":false,"rental_uris":{"android":"levelo://app?vid=7200ccdb-20f0-4cfd-b8b5-6a2be0ee7633","ios":"levelo://app?vid=7200ccdb-20f0-4cfd-b8b5-6a2be0ee7633"},"vehicle_type_id":"4","last_reported":1727863759,"current_range_meters":35200,"station_id":"ce4bgn12rcd13ifvqbt0","pricing_plan_id":"cebpf4jnsgd1na2vs0mg"},{"bike_id":"93a09bd4-b4ac-4185-9e12-0f57b4f3984d","system_id":"levelo_inurba_marseille","lat":43.23157,"lon":5.43692,"is_reserved":false,"is_disabled":false,"rental_uris":{"android":"levelo://app?vid=93a09bd4-b4ac-4185-9e12-0f57b4f3984d","ios":"levelo://app?vid=93a09bd4-b4ac-4185-9e12-0f57b4f3984d"},"vehicle_type_id":"4","last_reported":1727863759,"current_range_meters":38800,"station_id":"ce4bhmp2rcd13ifvqgog","pricing_plan_id":"cebpf4jnsgd1na2vs0mg"},{"bike_id":"f2eafe04-603e-4fb0-8676-42d468e4f953","system_id":"levelo_inurba_marseille","lat":43.33756,"lon":5.37451,"is_reserved":false,"is_disabled":false,"rental_uris":{"android":"levelo://app?vid=f2eafe04-603e-4fb0-8676-42d468e4f953","ios":"levelo://app?vid=f2eafe04-603e-4fb0-8676-42d468e4f953"},"vehicle_type_id":"4","last_reported":1727863759,"current_range_meters":38800,"station_id":"","pricing_plan_id":"cebpf4jnsgd1na2vs0mg"},{"bike_id":"2cd4f78f-27e8-4ffa-b41d-1ce28787607e","system_id":"levelo_inurba_marseille","lat":43.29953,"lon":5.41323,"is_reserved":false,"is_disabled":false,"rental_uris":{"android":"levelo://app?vid=2cd4f78f-27e8-4ffa-b41d-1ce28787607e","ios":"levelo://app?vid=2cd4f78f-27e8-4ffa-b41d-1ce28787607e"},"vehicle_type_id":"4","last_reported":1727863759,"current_range_meters":24000,"station_id":"ce4bhp12rcd13ifvqh9g","pricing_plan_id":"cebpf4jnsgd1na2vs0mg"},{"bike_id":"bbcd0e1a-a8db-46a5-8b37-925f063bf997","system_id":"levelo_inurba_marseille","lat":43.29521,"lon":5.39049,"is_reserved":false,"is_disabled":false,"rental_uris":{"android":"levelo://app?vid=bbcd0e1a-a8db-46a5-8b37-925f063bf997","ios":"levelo://app?vid=bbcd0e1a-a8db-46a5-8b37-925f063bf997"},"vehicle_type_id":"4","last_reported":1727863759,"current_range_meters":30400,"station_id":"ce4bh3p2rcd13ifvqdp0","pricing_plan_id":"cebpf4jnsgd1na2vs0mg"},{"bike_id":"b4b62ddb-dc1e-4130-8121-2e162bbdd78a","system_id":"levelo_inurba_marseille","lat":43.27997,"lon":5.41662,"is_reserved":false,"is_disabled":false,"rental_uris":{"android":"levelo://app?vid=b4b62ddb-dc1e-4130-8121-2e162bbdd78a","ios":"levelo://app?vid=b4b62ddb-dc1e-4130-8121-2e162bbdd78a"},"vehicle_type_id":"4","last_reported":1727863759,"current_range_meters":32400,"station_id":"ce4bho12rcd13ifvqh1g","pricing_plan_id":"cebpf4jnsgd1na2vs0mg"},{"bike_id":"f74b94bd-4df2-44d7-a73b-0c0ff17290b9","system_id":"levelo_inurba_marseille","lat":43.34143,"lon":5.40897,"is_reserved":false,"is_disabled":false,"rental_uris":{"android":"levelo://app?vid=f74b94bd-4df2-44d7-a73b-0c0ff17290b9","ios":"levelo://app?vid=f74b94bd-4df2-44d7-a73b-0c0ff17290b9"},"vehicle_type_id":"4","last_reported":1727863759,"current_range_meters":11200,"station_id":"ce4bhqh2rcd13ifvqhlg","pricing_plan_id":"cebpf4jnsgd1na2vs0mg"},{"bike_id":"39f7225f-645e-40c4-a62a-85ad1c5640eb","system_id":"levelo_inurba_marseille","lat":43.337444,"lon":5.374475,"is_reserved":false,"is_disabled":false,"rental_uris":{"android":"levelo://app?vid=39f7225f-645e-40c4-a62a-85ad1c5640eb","ios":"levelo://app?vid=39f7225f-645e-40c4-a62a-85ad1c5640eb"},"vehicle_type_id":"4","last_reported":1727863759,"current_range_meters":25600,"station_id":"ce4bh192rcd13ifvqdb0","pricing_plan_id":"cebpf4jnsgd1na2vs0mg"},{"bike_id":"ae8fe54b-0758-4598-a3a6-368c8971129e","system_id":"levelo_inurba_marseille","lat":43.30555,"lon":5.36537,"is_reserved":false,"is_disabled":false,"rental_uris":{"android":"levelo://app?vid=ae8fe54b-0758-4598-a3a6-368c8971129e","ios":"levelo://app?vid=ae8fe54b-0758-4598-a3a6-368c8971129e"},"vehicle_type_id":"4","last_reported":1727863759,"current_range_meters":26000,"station_id":"ce4bgs12rcd13ifvqcag","pricing_plan_id":"cebpf4jnsgd1na2vs0mg"},{"bike_id":"6eba1abc-2435-44ab-ba81-b10227bea0da","system_id":"levelo_inurba_marseille","lat":43.28363,"lon":5.38624,"is_reserved":false,"is_disabled":false,"rental_uris":{"android":"levelo://app?vid=6eba1abc-2435-44ab-ba81-b10227bea0da","ios":"levelo://app?vid=6eba1abc-2435-44ab-ba81-b10227bea0da"},"vehicle_type_id":"4","last_reported":1727863759,"current_range_meters":19600,"station_id":"ce4bh492rcd13ifvqdvg","pricing_plan_id":"cebpf4jnsgd1na2vs0mg"},{"bike_id":"d0f3ba74-2db6-4276-a970-d6d9e934005a","system_id":"levelo_inurba_marseille","lat":43.33727,"lon":5.39176,"is_reserved":false,"is_disabled":false,"rental_uris":{"android":"levelo://app?vid=d0f3ba74-2db6-4276-a970-d6d9e934005a","ios":"levelo://app?vid=d0f3ba74-2db6-4276-a970-d6d9e934005a"},"vehicle_type_id":"4","last_reported":1727863759,"current_range_meters":39200,"station_id":"ce4bhr92rcd13ifvqhsg","pricing_plan_id":"cebpf4jnsgd1na2vs0mg"},{"bike_id":"890f96ea-eda5-427c-858e-9a917a74f5c2","system_id":"levelo_inurba_marseille","lat":43.26064,"lon":5.39391,"is_reserved":false,"is_disabled":false,"rental_uris":{"android":"levelo://app?vid=890f96ea-eda5-427c-858e-9a917a74f5c2","ios":"levelo://app?vid=890f96ea-eda5-427c-858e-9a917a74f5c2"},"vehicle_type_id":"4","last_reported":1727863759,"current_range_meters":8000,"station_id":"ce4bhh92rcd13ifvqfj0","pricing_plan_id":"cebpf4jnsgd1na2vs0mg"},{"bike_id":"a2ba7602-9b90-45c6-8d5a-66c0710e2f94","system_id":"levelo_inurba_marseille","lat":43.33607,"lon":5.41025,"is_reserved":false,"is_disabled":false,"rental_uris":{"android":"levelo://app?vid=a2ba7602-9b90-45c6-8d5a-66c0710e2f94","ios":"levelo://app?vid=a2ba7602-9b90-45c6-8d5a-66c0710e2f94"},"vehicle_type_id":"4","last_reported":1727863759,"current_range_meters":24000,"station_id":"ce4bhqh2rcd13ifvqhmg","pricing_plan_id":"cebpf4jnsgd1na2vs0mg"},{"bike_id":"0ff27e27-d297-4868-830a-583b86c93763","system_id":"levelo_inurba_marseille","lat":43.30277,"lon":5.37699,"is_reserved":false,"is_disabled":false,"rental_uris":{"android":"levelo://app?vid=0ff27e27-d297-4868-830a-583b86c93763","ios":"levelo://app?vid=0ff27e27-d297-4868-830a-583b86c93763"},"vehicle_type_id":"4","last_reported":1727863759,"current_range_meters":39200,"station_id":"ce4bguh2rcd13ifvqcj0","pricing_plan_id":"cebpf4jnsgd1na2vs0mg"},{"bike_id":"b3988bd0-b870-43ec-b253-16935f88b4c8","system_id":"levelo_inurba_marseille","lat":43.28418,"lon":5.34988,"is_reserved":false,"is_disabled":false,"rental_uris":{"android":"levelo://app?vid=b3988bd0-b870-43ec-b253-16935f88b4c8","ios":"levelo://app?vid=b3988bd0-b870-43ec-b253-16935f88b4c8"},"vehicle_type_id":"4","last_reported":1727863759,"current_range_meters":38400,"station_id":"ce4bhbh2rcd13ifvqepg","pricing_plan_id":"cebpf4jnsgd1na2vs0mg"},{"bike_id":"f7f1f8df-12fc-4e27-9e2e-261635c28839","system_id":"levelo_inurba_marseille","lat":43.31343,"lon":5.36716,"is_reserved":false,"is_disabled":false,"rental_uris":{"android":"levelo://app?vid=f7f1f8df-12fc-4e27-9e2e-261635c28839","ios":"levelo://app?vid=f7f1f8df-12fc-4e27-9e2e-261635c28839"},"vehicle_type_id":"4","last_reported":1727863759,"current_range_meters":28000,"station_id":"ce4bgr92rcd13ifvqc6g","pricing_plan_id":"cebpf4jnsgd1na2vs0mg"},{"bike_id":"32a6fef7-40df-4667-8c14-616f1defa8cc","system_id":"levelo_inurba_marseille","lat":43.31221,"lon":5.36873,"is_reserved":false,"is_disabled":false,"rental_uris":{"android":"levelo://app?vid=32a6fef7-40df-4667-8c14-616f1defa8cc","ios":"levelo://app?vid=32a6fef7-40df-4667-8c14-616f1defa8cc"},"vehicle_type_id":"4","last_reported":1727863759,"current_range_meters":38800,"station_id":"ce4bgl92rcd13ifvqbq0","pricing_plan_id":"cebpf4jnsgd1na2vs0mg"},{"bike_id":"b1e473d1-2fa9-4b32-9332-17fa92fe2708","system_id":"levelo_inurba_marseille","lat":43.33745,"lon":5.37471,"is_reserved":false,"is_disabled":false,"rental_uris":{"android":"levelo://app?vid=b1e473d1-2fa9-4b32-9332-17fa92fe2708","ios":"levelo://app?vid=b1e473d1-2fa9-4b32-9332-17fa92fe2708"},"vehicle_type_id":"4","last_reported":1727863759,"current_range_meters":38800,"station_id":"","pricing_plan_id":"cebpf4jnsgd1na2vs0mg"},{"bike_id":"26910d4e-dfca-45c5-9dfb-228d098ca3b4","system_id":"levelo_inurba_marseille","lat":43.31369,"lon":5.36684,"is_reserved":false,"is_disabled":false,"rental_uris":{"android":"levelo://app?vid=26910d4e-dfca-45c5-9dfb-228d098ca3b4","ios":"levelo://app?vid=26910d4e-dfca-45c5-9dfb-228d098ca3b4"},"vehicle_type_id":"4","last_reported":1727863759,"current_range_meters":39200,"station_id":"ce4bgr92rcd13ifvqc6g","pricing_plan_id":"cebpf4jnsgd1na2vs0mg"},{"bike_id":"abd5d167-e57c-484c-802a-fa7bc8898347","system_id":"levelo_inurba_marseille","lat":43.28416,"lon":5.34983,"is_reserved":false,"is_disabled":false,"rental_uris":{"android":"levelo://app?vid=abd5d167-e57c-484c-802a-fa7bc8898347","ios":"levelo://app?vid=abd5d167-e57c-484c-802a-fa7bc8898347"},"vehicle_type_id":"4","last_reported":1727863759,"current_range_meters":38800,"station_id":"ce4bhbh2rcd13ifvqepg","pricing_plan_id":"cebpf4jnsgd1na2vs0mg"},{"bike_id":"c546708d-ab03-4bef-84fb-2920175ec1cf","system_id":"levelo_inurba_marseille","lat":43.29971,"lon":5.37175,"is_reserved":false,"is_disabled":false,"rental_uris":{"android":"levelo://app?vid=c546708d-ab03-4bef-84fb-2920175ec1cf","ios":"levelo://app?vid=c546708d-ab03-4bef-84fb-2920175ec1cf"},"vehicle_type_id":"4","last_reported":1727863759,"current_range_meters":30000,"station_id":"ce4bgr92rcd13ifvqc7g","pricing_plan_id":"cebpf4jnsgd1na2vs0mg"},{"bike_id":"6bc87502-6a3b-47e0-893f-d2d751cfe6ff","system_id":"levelo_inurba_marseille","lat":43.27484,"lon":5.42465,"is_reserved":false,"is_disabled":false,"rental_uris":{"android":"levelo://app?vid=6bc87502-6a3b-47e0-893f-d2d751cfe6ff","ios":"levelo://app?vid=6bc87502-6a3b-47e0-893f-d2d751cfe6ff"},"vehicle_type_id":"4","last_reported":1727863759,"current_range_meters":11600,"station_id":"ce4bhn92rcd13ifvqgrg","pricing_plan_id":"cebpf4jnsgd1na2vs0mg"},{"bike_id":"6c4dea4d-ee9e-4bc2-bc53-aa6d538d9493","system_id":"levelo_inurba_marseille","lat":43.312209,"lon":5.368597,"is_reserved":false,"is_disabled":false,"rental_uris":{"android":"levelo://app?vid=6c4dea4d-ee9e-4bc2-bc53-aa6d538d9493","ios":"levelo://app?vid=6c4dea4d-ee9e-4bc2-bc53-aa6d538d9493"},"vehicle_type_id":"4","last_reported":1727863759,"current_range_meters":8000,"station_id":"ce4bgt12rcd13ifvqce0","pricing_plan_id":"cebpf4jnsgd1na2vs0mg"},{"bike_id":"ef70c1a5-aeb8-4aed-b5c9-58504973e27b","system_id":"levelo_inurba_marseille","lat":43.30307,"lon":5.36871,"is_reserved":false,"is_disabled":false,"rental_uris":{"android":"levelo://app?vid=ef70c1a5-aeb8-4aed-b5c9-58504973e27b","ios":"levelo://app?vid=ef70c1a5-aeb8-4aed-b5c9-58504973e27b"},"vehicle_type_id":"4","last_reported":1727863759,"current_range_meters":37600,"station_id":"ce4bgqh2rcd13ifvqc5g","pricing_plan_id":"cebpf4jnsgd1na2vs0mg"},{"bike_id":"c7058b14-e6f6-4c41-916b-09a9a29c38e0","system_id":"levelo_inurba_marseille","lat":43.27052,"lon":5.4026,"is_reserved":false,"is_disabled":false,"rental_uris":{"android":"levelo://app?vid=c7058b14-e6f6-4c41-916b-09a9a29c38e0","ios":"levelo://app?vid=c7058b14-e6f6-4c41-916b-09a9a29c38e0"},"vehicle_type_id":"4","last_reported":1727863759,"current_range_meters":38400,"station_id":"ce4bhk92rcd13ifvqgc0","pricing_plan_id":"cebpf4jnsgd1na2vs0mg"},{"bike_id":"5084d4e8-22d7-4248-aec8-4997331ff1e0","system_id":"levelo_inurba_marseille","lat":43.22924,"lon":5.35375,"is_reserved":false,"is_disabled":false,"rental_uris":{"android":"levelo://app?vid=5084d4e8-22d7-4248-aec8-4997331ff1e0","ios":"levelo://app?vid=5084d4e8-22d7-4248-aec8-4997331ff1e0"},"vehicle_type_id":"4","last_reported":1727863759,"current_range_meters":38800,"station_id":"cpo3532slgdg3j2ikp40","pricing_plan_id":"cebpf4jnsgd1na2vs0mg"},{"bike_id":"4b00bf19-3ccd-42aa-a58e-5be624727ea2","system_id":"levelo_inurba_marseille","lat":43.24179,"lon":5.39726,"is_reserved":false,"is_disabled":false,"rental_uris":{"android":"levelo://app?vid=4b00bf19-3ccd-42aa-a58e-5be624727ea2","ios":"levelo://app?vid=4b00bf19-3ccd-42aa-a58e-5be624727ea2"},"vehicle_type_id":"4","last_reported":1727863759,"current_range_meters":37600,"station_id":"ce4bhn12rcd13ifvqgpg","pricing_plan_id":"cebpf4jnsgd1na2vs0mg"},{"bike_id":"21cd8bee-8581-4f36-9fc1-52a9ec9169ef","system_id":"levelo_inurba_marseille","lat":43.23151,"lon":5.43704,"is_reserved":false,"is_disabled":false,"rental_uris":{"android":"levelo://app?vid=21cd8bee-8581-4f36-9fc1-52a9ec9169ef","ios":"levelo://app?vid=21cd8bee-8581-4f36-9fc1-52a9ec9169ef"},"vehicle_type_id":"4","last_reported":1727863759,"current_range_meters":38400,"station_id":"ce4bhmp2rcd13ifvqgog","pricing_plan_id":"cebpf4jnsgd1na2vs0mg"},{"bike_id":"68fbe977-0cd5-4564-8f23-a8c2e9bcb77d","system_id":"levelo_inurba_marseille","lat":43.30295,"lon":5.36907,"is_reserved":false,"is_disabled":false,"rental_uris":{"android":"levelo://app?vid=68fbe977-0cd5-4564-8f23-a8c2e9bcb77d","ios":"levelo://app?vid=68fbe977-0cd5-4564-8f23-a8c2e9bcb77d"},"vehicle_type_id":"4","last_reported":1727863759,"current_range_meters":36000,"station_id":"ce4bgqh2rcd13ifvqc5g","pricing_plan_id":"cebpf4jnsgd1na2vs0mg"},{"bike_id":"f7d09901-c089-4d3d-917e-e2b79c155b54","system_id":"levelo_inurba_marseille","lat":43.31357,"lon":5.38491,"is_reserved":false,"is_disabled":false,"rental_uris":{"android":"levelo://app?vid=f7d09901-c089-4d3d-917e-e2b79c155b54","ios":"levelo://app?vid=f7d09901-c089-4d3d-917e-e2b79c155b54"},"vehicle_type_id":"4","last_reported":1727863759,"current_range_meters":24400,"station_id":"ce4bgt92rcd13ifvqcf0","pricing_plan_id":"cebpf4jnsgd1na2vs0mg"},{"bike_id":"5110dcc7-859a-4076-8a7a-d63045a123f7","system_id":"levelo_inurba_marseille","lat":43.29441,"lon":5.39751,"is_reserved":false,"is_disabled":false,"rental_uris":{"android":"levelo://app?vid=5110dcc7-859a-4076-8a7a-d63045a123f7","ios":"levelo://app?vid=5110dcc7-859a-4076-8a7a-d63045a123f7"},"vehicle_type_id":"4","last_reported":1727863759,"current_range_meters":32000,"station_id":"ce4bh3h2rcd13ifvqdo0","pricing_plan_id":"cebpf4jnsgd1na2vs0mg"},{"bike_id":"2a967336-3328-4e48-a435-bf7a1d464584","system_id":"levelo_inurba_marseille","lat":43.30911,"lon":5.36854,"is_reserved":false,"is_disabled":false,"rental_uris":{"android":"levelo://app?vid=2a967336-3328-4e48-a435-bf7a1d464584","ios":"levelo://app?vid=2a967336-3328-4e48-a435-bf7a1d464584"},"vehicle_type_id":"4","last_reported":1727863759,"current_range_meters":14400,"station_id":"ce4bgn92rcd13ifvqbvg","pricing_plan_id":"cebpf4jnsgd1na2vs0mg"},{"bike_id":"849785e9-3354-451b-a4b8-9dfecd3e3883","system_id":"levelo_inurba_marseille","lat":43.2668,"lon":5.38275,"is_reserved":false,"is_disabled":false,"rental_uris":{"android":"levelo://app?vid=849785e9-3354-451b-a4b8-9dfecd3e3883","ios":"levelo://app?vid=849785e9-3354-451b-a4b8-9dfecd3e3883"},"vehicle_type_id":"4","last_reported":1727863759,"current_range_meters":39200,"station_id":"ce4bhg92rcd13ifvqf90","pricing_plan_id":"cebpf4jnsgd1na2vs0mg"},{"bike_id":"9a01dcf8-5ed8-4767-a4ab-43252d05c561","system_id":"levelo_inurba_marseille","lat":43.25935,"lon":5.40903,"is_reserved":false,"is_disabled":false,"rental_uris":{"android":"levelo://app?vid=9a01dcf8-5ed8-4767-a4ab-43252d05c561","ios":"levelo://app?vid=9a01dcf8-5ed8-4767-a4ab-43252d05c561"},"vehicle_type_id":"4","last_reported":1727863759,"current_range_meters":34000,"station_id":"ce4bhm92rcd13ifvqglg","pricing_plan_id":"cebpf4jnsgd1na2vs0mg"},{"bike_id":"355513cb-f902-419c-8bbb-68fdf61e44b3","system_id":"levelo_inurba_marseille","lat":43.27422,"lon":5.39411,"is_reserved":false,"is_disabled":false,"rental_uris":{"android":"levelo://app?vid=355513cb-f902-419c-8bbb-68fdf61e44b3","ios":"levelo://app?vid=355513cb-f902-419c-8bbb-68fdf61e44b3"},"vehicle_type_id":"4","last_reported":1727863759,"current_range_meters":36400,"station_id":"ce4bhdp2rcd13ifvqf20","pricing_plan_id":"cebpf4jnsgd1na2vs0mg"},{"bike_id":"361c4015-fea1-4d09-abed-03e20c4632cc","system_id":"levelo_inurba_marseille","lat":43.30909,"lon":5.36852,"is_reserved":false,"is_disabled":false,"rental_uris":{"android":"levelo://app?vid=361c4015-fea1-4d09-abed-03e20c4632cc","ios":"levelo://app?vid=361c4015-fea1-4d09-abed-03e20c4632cc"},"vehicle_type_id":"4","last_reported":1727863759,"current_range_meters":40000,"station_id":"ce4bgn92rcd13ifvqbvg","pricing_plan_id":"cebpf4jnsgd1na2vs0mg"},{"bike_id":"ed23dfe2-fe91-4750-bfee-c1ebc841c6a5","system_id":"levelo_inurba_marseille","lat":43.28397,"lon":5.37516,"is_reserved":false,"is_disabled":false,"rental_uris":{"android":"levelo://app?vid=ed23dfe2-fe91-4750-bfee-c1ebc841c6a5","ios":"levelo://app?vid=ed23dfe2-fe91-4750-bfee-c1ebc841c6a5"},"vehicle_type_id":"4","last_reported":1727863759,"current_range_meters":29600,"station_id":"ce4bh412rcd13ifvqds0","pricing_plan_id":"cebpf4jnsgd1na2vs0mg"},{"bike_id":"9a81342e-960a-4c5e-a036-74beb4f83fd7","system_id":"levelo_inurba_marseille","lat":43.31717,"lon":5.3774,"is_reserved":false,"is_disabled":false,"rental_uris":{"android":"levelo://app?vid=9a81342e-960a-4c5e-a036-74beb4f83fd7","ios":"levelo://app?vid=9a81342e-960a-4c5e-a036-74beb4f83fd7"},"vehicle_type_id":"4","last_reported":1727863759,"current_range_meters":37600,"station_id":"ce4bgth2rcd13ifvqch0","pricing_plan_id":"cebpf4jnsgd1na2vs0mg"},{"bike_id":"55cfb1ad-d80a-480d-bfe7-f79544ab315e","system_id":"levelo_inurba_marseille","lat":43.27055,"lon":5.40264,"is_reserved":false,"is_disabled":false,"rental_uris":{"android":"levelo://app?vid=55cfb1ad-d80a-480d-bfe7-f79544ab315e","ios":"levelo://app?vid=55cfb1ad-d80a-480d-bfe7-f79544ab315e"},"vehicle_type_id":"4","last_reported":1727863759,"current_range_meters":38800,"station_id":"ce4bhk92rcd13ifvqgc0","pricing_plan_id":"cebpf4jnsgd1na2vs0mg"},{"bike_id":"15797583-b329-4893-848f-ce0e9117fe75","system_id":"levelo_inurba_marseille","lat":43.30148,"lon":5.38087,"is_reserved":false,"is_disabled":false,"rental_uris":{"android":"levelo://app?vid=15797583-b329-4893-848f-ce0e9117fe75","ios":"levelo://app?vid=15797583-b329-4893-848f-ce0e9117fe75"},"vehicle_type_id":"4","last_reported":1727863759,"current_range_meters":15200,"station_id":"ce4bgjp2rcd13ifvqbh0","pricing_plan_id":"cebpf4jnsgd1na2vs0mg"},{"bike_id":"8efd8046-bef1-4df8-9be2-60676f747249","system_id":"levelo_inurba_marseille","lat":43.29849,"lon":5.36281,"is_reserved":false,"is_disabled":false,"rental_uris":{"android":"levelo://app?vid=8efd8046-bef1-4df8-9be2-60676f747249","ios":"levelo://app?vid=8efd8046-bef1-4df8-9be2-60676f747249"},"vehicle_type_id":"4","last_reported":1727863759,"current_range_meters":38000,"station_id":"ce4bgpp2rcd13ifvqc3g","pricing_plan_id":"cebpf4jnsgd1na2vs0mg"},{"bike_id":"28939106-6a37-4823-83ed-b7e1ad4f3aed","system_id":"levelo_inurba_marseille","lat":43.30136,"lon":5.38774,"is_reserved":false,"is_disabled":false,"rental_uris":{"android":"levelo://app?vid=28939106-6a37-4823-83ed-b7e1ad4f3aed","ios":"levelo://app?vid=28939106-6a37-4823-83ed-b7e1ad4f3aed"},"vehicle_type_id":"4","last_reported":1727863759,"current_range_meters":30000,"station_id":"ce4bghh2rcd13ifvqb60","pricing_plan_id":"cebpf4jnsgd1na2vs0mg"},{"bike_id":"9b8805fa-855e-467c-951c-165f604ebdac","system_id":"levelo_inurba_marseille","lat":43.28264,"lon":5.35071,"is_reserved":false,"is_disabled":false,"rental_uris":{"android":"levelo://app?vid=9b8805fa-855e-467c-951c-165f604ebdac","ios":"levelo://app?vid=9b8805fa-855e-467c-951c-165f604ebdac"},"vehicle_type_id":"4","last_reported":1727863759,"current_range_meters":39200,"station_id":"ce4bhbp2rcd13ifvqerg","pricing_plan_id":"cebpf4jnsgd1na2vs0mg"},{"bike_id":"ecb73d32-b030-4324-976d-03d7186a9fa0","system_id":"levelo_inurba_marseille","lat":43.33768,"lon":5.37432,"is_reserved":false,"is_disabled":false,"rental_uris":{"android":"levelo://app?vid=ecb73d32-b030-4324-976d-03d7186a9fa0","ios":"levelo://app?vid=ecb73d32-b030-4324-976d-03d7186a9fa0"},"vehicle_type_id":"4","last_reported":1727863759,"current_range_meters":35600,"station_id":"","pricing_plan_id":"cebpf4jnsgd1na2vs0mg"},{"bike_id":"a4f72ba4-7661-4075-9bd4-ebcaa0168cb8","system_id":"levelo_inurba_marseille","lat":43.30538,"lon":5.36549,"is_reserved":false,"is_disabled":false,"rental_uris":{"android":"levelo://app?vid=a4f72ba4-7661-4075-9bd4-ebcaa0168cb8","ios":"levelo://app?vid=a4f72ba4-7661-4075-9bd4-ebcaa0168cb8"},"vehicle_type_id":"4","last_reported":1727863759,"current_range_meters":33600,"station_id":"ce4bgs12rcd13ifvqcag","pricing_plan_id":"cebpf4jnsgd1na2vs0mg"},{"bike_id":"7081a02a-6587-466d-a0c6-ca93bc44b056","system_id":"levelo_inurba_marseille","lat":43.32469,"lon":5.3658,"is_reserved":false,"is_disabled":false,"rental_uris":{"android":"levelo://app?vid=7081a02a-6587-466d-a0c6-ca93bc44b056","ios":"levelo://app?vid=7081a02a-6587-466d-a0c6-ca93bc44b056"},"vehicle_type_id":"4","last_reported":1727863759,"current_range_meters":16400,"station_id":"ce4bhs12rcd13ifvqhvg","pricing_plan_id":"cebpf4jnsgd1na2vs0mg"},{"bike_id":"a6af50a8-627d-44ab-a72f-a0742c9ca591","system_id":"levelo_inurba_marseille","lat":43.28272,"lon":5.35056,"is_reserved":false,"is_disabled":false,"rental_uris":{"android":"levelo://app?vid=a6af50a8-627d-44ab-a72f-a0742c9ca591","ios":"levelo://app?vid=a6af50a8-627d-44ab-a72f-a0742c9ca591"},"vehicle_type_id":"4","last_reported":1727863759,"current_range_meters":26800,"station_id":"ce4bhbp2rcd13ifvqerg","pricing_plan_id":"cebpf4jnsgd1na2vs0mg"},{"bike_id":"a0ca7731-5b70-4c59-b1b0-1a08e64880f0","system_id":"levelo_inurba_marseille","lat":43.30544,"lon":5.36542,"is_reserved":false,"is_disabled":false,"rental_uris":{"android":"levelo://app?vid=a0ca7731-5b70-4c59-b1b0-1a08e64880f0","ios":"levelo://app?vid=a0ca7731-5b70-4c59-b1b0-1a08e64880f0"},"vehicle_type_id":"4","last_reported":1727863759,"current_range_meters":29600,"station_id":"ce4bgs12rcd13ifvqcag","pricing_plan_id":"cebpf4jnsgd1na2vs0mg"},{"bike_id":"70152133-302b-4e14-ab99-88dc5ae3f3c6","system_id":"levelo_inurba_marseille","lat":43.27486,"lon":5.42458,"is_reserved":false,"is_disabled":false,"rental_uris":{"android":"levelo://app?vid=70152133-302b-4e14-ab99-88dc5ae3f3c6","ios":"levelo://app?vid=70152133-302b-4e14-ab99-88dc5ae3f3c6"},"vehicle_type_id":"4","last_reported":1727863759,"current_range_meters":29600,"station_id":"ce4bhn92rcd13ifvqgrg","pricing_plan_id":"cebpf4jnsgd1na2vs0mg"},{"bike_id":"af73b995-6c55-4096-8776-a462be9b879a","system_id":"levelo_inurba_marseille","lat":43.30585,"lon":5.37111,"is_reserved":false,"is_disabled":false,"rental_uris":{"android":"levelo://app?vid=af73b995-6c55-4096-8776-a462be9b879a","ios":"levelo://app?vid=af73b995-6c55-4096-8776-a462be9b879a"},"vehicle_type_id":"4","last_reported":1727863759,"current_range_meters":36800,"station_id":"","pricing_plan_id":"cebpf4jnsgd1na2vs0mg"},{"bike_id":"975873d9-72bd-4cb1-ad3c-7391c7f0ee7b","system_id":"levelo_inurba_marseille","lat":43.23969,"lon":5.36628,"is_reserved":false,"is_disabled":false,"rental_uris":{"android":"levelo://app?vid=975873d9-72bd-4cb1-ad3c-7391c7f0ee7b","ios":"levelo://app?vid=975873d9-72bd-4cb1-ad3c-7391c7f0ee7b"},"vehicle_type_id":"4","last_reported":1727863759,"current_range_meters":16000,"station_id":"ce4bhi12rcd13ifvqfp0","pricing_plan_id":"cebpf4jnsgd1na2vs0mg"},{"bike_id":"ab2b4300-1b5b-4b0e-ac89-76bb04601038","system_id":"levelo_inurba_marseille","lat":43.31116,"lon":5.37763,"is_reserved":false,"is_disabled":false,"rental_uris":{"android":"levelo://app?vid=ab2b4300-1b5b-4b0e-ac89-76bb04601038","ios":"levelo://app?vid=ab2b4300-1b5b-4b0e-ac89-76bb04601038"},"vehicle_type_id":"4","last_reported":1727863759,"current_range_meters":38800,"station_id":"ce4bgt92rcd13ifvqcg0","pricing_plan_id":"cebpf4jnsgd1na2vs0mg"},{"bike_id":"6ad662ca-0f18-4a30-9d6d-d8a9e6ece23c","system_id":"levelo_inurba_marseille","lat":43.3122,"lon":5.36868,"is_reserved":false,"is_disabled":false,"rental_uris":{"android":"levelo://app?vid=6ad662ca-0f18-4a30-9d6d-d8a9e6ece23c","ios":"levelo://app?vid=6ad662ca-0f18-4a30-9d6d-d8a9e6ece23c"},"vehicle_type_id":"4","last_reported":1727863759,"current_range_meters":38800,"station_id":"ce4bgl92rcd13ifvqbq0","pricing_plan_id":"cebpf4jnsgd1na2vs0mg"},{"bike_id":"11f94ccf-95d9-4f97-9f1a-dbf64c836658","system_id":"levelo_inurba_marseille","lat":43.33612,"lon":5.41025,"is_reserved":false,"is_disabled":false,"rental_uris":{"android":"levelo://app?vid=11f94ccf-95d9-4f97-9f1a-dbf64c836658","ios":"levelo://app?vid=11f94ccf-95d9-4f97-9f1a-dbf64c836658"},"vehicle_type_id":"4","last_reported":1727863759,"current_range_meters":22000,"station_id":"ce4bhqh2rcd13ifvqhmg","pricing_plan_id":"cebpf4jnsgd1na2vs0mg"},{"bike_id":"dc71b5f2-729f-4b71-a034-83d1556c5621","system_id":"levelo_inurba_marseille","lat":43.23152,"lon":5.43714,"is_reserved":false,"is_disabled":false,"rental_uris":{"android":"levelo://app?vid=dc71b5f2-729f-4b71-a034-83d1556c5621","ios":"levelo://app?vid=dc71b5f2-729f-4b71-a034-83d1556c5621"},"vehicle_type_id":"4","last_reported":1727863759,"current_range_meters":3200,"station_id":"ce4bhmp2rcd13ifvqgog","pricing_plan_id":"cebpf4jnsgd1na2vs0mg"},{"bike_id":"a3b54844-7e72-468f-aaff-c8c90431b75a","system_id":"levelo_inurba_marseille","lat":43.265842,"lon":5.3804,"is_reserved":false,"is_disabled":false,"rental_uris":{"android":"levelo://app?vid=a3b54844-7e72-468f-aaff-c8c90431b75a","ios":"levelo://app?vid=a3b54844-7e72-468f-aaff-c8c90431b75a"},"vehicle_type_id":"4","last_reported":1727863759,"current_range_meters":33200,"station_id":"ce4bhg12rcd13ifvqf70","pricing_plan_id":"cebpf4jnsgd1na2vs0mg"},{"bike_id":"c9dcea15-4ad0-4ebb-943b-f82ed9122b48","system_id":"levelo_inurba_marseille","lat":43.23963,"lon":5.36637,"is_reserved":false,"is_disabled":false,"rental_uris":{"android":"levelo://app?vid=c9dcea15-4ad0-4ebb-943b-f82ed9122b48","ios":"levelo://app?vid=c9dcea15-4ad0-4ebb-943b-f82ed9122b48"},"vehicle_type_id":"4","last_reported":1727863759,"current_range_meters":22400,"station_id":"ce4bhi12rcd13ifvqfp0","pricing_plan_id":"cebpf4jnsgd1na2vs0mg"},{"bike_id":"6bb9cfee-49b8-4fac-8448-119a9f0e9dc5","system_id":"levelo_inurba_marseille","lat":43.27068,"lon":5.42274,"is_reserved":false,"is_disabled":false,"rental_uris":{"android":"levelo://app?vid=6bb9cfee-49b8-4fac-8448-119a9f0e9dc5","ios":"levelo://app?vid=6bb9cfee-49b8-4fac-8448-119a9f0e9dc5"},"vehicle_type_id":"4","last_reported":1727863759,"current_range_meters":12000,"station_id":"ce4bhk92rcd13ifvqgb0","pricing_plan_id":"cebpf4jnsgd1na2vs0mg"},{"bike_id":"068b66f4-7ef6-4575-9402-dc5aa1ccbbf4","system_id":"levelo_inurba_marseille","lat":43.23147,"lon":5.43711,"is_reserved":false,"is_disabled":false,"rental_uris":{"android":"levelo://app?vid=068b66f4-7ef6-4575-9402-dc5aa1ccbbf4","ios":"levelo://app?vid=068b66f4-7ef6-4575-9402-dc5aa1ccbbf4"},"vehicle_type_id":"4","last_reported":1727863759,"current_range_meters":36800,"station_id":"ce4bhmp2rcd13ifvqgog","pricing_plan_id":"cebpf4jnsgd1na2vs0mg"},{"bike_id":"5c04dbd2-d87b-4093-ae31-4e420a121b65","system_id":"levelo_inurba_marseille","lat":43.29969,"lon":5.3849,"is_reserved":false,"is_disabled":false,"rental_uris":{"android":"levelo://app?vid=5c04dbd2-d87b-4093-ae31-4e420a121b65","ios":"levelo://app?vid=5c04dbd2-d87b-4093-ae31-4e420a121b65"},"vehicle_type_id":"4","last_reported":1727863759,"current_range_meters":16400,"station_id":"ce4bgj92rcd13ifvqbd0","pricing_plan_id":"cebpf4jnsgd1na2vs0mg"},{"bike_id":"41e6d744-f470-46f6-9bd7-aa2b0bbaf566","system_id":"levelo_inurba_marseille","lat":43.28073,"lon":5.39654,"is_reserved":false,"is_disabled":false,"rental_uris":{"android":"levelo://app?vid=41e6d744-f470-46f6-9bd7-aa2b0bbaf566","ios":"levelo://app?vid=41e6d744-f470-46f6-9bd7-aa2b0bbaf566"},"vehicle_type_id":"4","last_reported":1727863759,"current_range_meters":13600,"station_id":"ce4bho12rcd13ifvqh2g","pricing_plan_id":"cebpf4jnsgd1na2vs0mg"},{"bike_id":"81e8b2b8-cfba-48d8-9edd-8e07ebe8ff07","system_id":"levelo_inurba_marseille","lat":43.24988,"lon":5.38941,"is_reserved":false,"is_disabled":false,"rental_uris":{"android":"levelo://app?vid=81e8b2b8-cfba-48d8-9edd-8e07ebe8ff07","ios":"levelo://app?vid=81e8b2b8-cfba-48d8-9edd-8e07ebe8ff07"},"vehicle_type_id":"4","last_reported":1727863759,"current_range_meters":22800,"station_id":"ce4bhgp2rcd13ifvqfd0","pricing_plan_id":"cebpf4jnsgd1na2vs0mg"},{"bike_id":"e68bae73-4b13-4f38-8f52-1b0ba47c1713","system_id":"levelo_inurba_marseille","lat":43.30153,"lon":5.38082,"is_reserved":false,"is_disabled":false,"rental_uris":{"android":"levelo://app?vid=e68bae73-4b13-4f38-8f52-1b0ba47c1713","ios":"levelo://app?vid=e68bae73-4b13-4f38-8f52-1b0ba47c1713"},"vehicle_type_id":"4","last_reported":1727863759,"current_range_meters":34000,"station_id":"ce4bgjp2rcd13ifvqbh0","pricing_plan_id":"cebpf4jnsgd1na2vs0mg"},{"bike_id":"703e0191-61bb-47a1-8356-a5b5b3c6144e","system_id":"levelo_inurba_marseille","lat":43.28165,"lon":5.42697,"is_reserved":false,"is_disabled":false,"rental_uris":{"android":"levelo://app?vid=703e0191-61bb-47a1-8356-a5b5b3c6144e","ios":"levelo://app?vid=703e0191-61bb-47a1-8356-a5b5b3c6144e"},"vehicle_type_id":"4","last_reported":1727863759,"current_range_meters":24800,"station_id":"ce4bhph2rcd13ifvqhdg","pricing_plan_id":"cebpf4jnsgd1na2vs0mg"},{"bike_id":"80b30f67-2deb-4765-8650-a606127cb3cb","system_id":"levelo_inurba_marseille","lat":43.33736,"lon":5.37448,"is_reserved":false,"is_disabled":false,"rental_uris":{"android":"levelo://app?vid=80b30f67-2deb-4765-8650-a606127cb3cb","ios":"levelo://app?vid=80b30f67-2deb-4765-8650-a606127cb3cb"},"vehicle_type_id":"4","last_reported":1727863759,"current_range_meters":16800,"station_id":"","pricing_plan_id":"cebpf4jnsgd1na2vs0mg"},{"bike_id":"ff0a02cf-3d5b-48b6-8149-ffafc6265340","system_id":"levelo_inurba_marseille","lat":43.30784,"lon":5.37646,"is_reserved":false,"is_disabled":false,"rental_uris":{"android":"levelo://app?vid=ff0a02cf-3d5b-48b6-8149-ffafc6265340","ios":"levelo://app?vid=ff0a02cf-3d5b-48b6-8149-ffafc6265340"},"vehicle_type_id":"4","last_reported":1727863759,"current_range_meters":19200,"station_id":"ce4bgv92rcd13ifvqcq0","pricing_plan_id":"cebpf4jnsgd1na2vs0mg"},{"bike_id":"f657e769-9956-4bba-9944-59225d3aab4d","system_id":"levelo_inurba_marseille","lat":43.2846,"lon":5.35874,"is_reserved":false,"is_disabled":false,"rental_uris":{"android":"levelo://app?vid=f657e769-9956-4bba-9944-59225d3aab4d","ios":"levelo://app?vid=f657e769-9956-4bba-9944-59225d3aab4d"},"vehicle_type_id":"4","last_reported":1727863759,"current_range_meters":3200,"station_id":"ce4bhah2rcd13ifvqei0","pricing_plan_id":"cebpf4jnsgd1na2vs0mg"},