{"last_updated":1751958700,"ttl":60,"version":"2.2","data":{"bikes":[{"bike_id":"3da29fb8-fc97-44c6-b9ac-31dd456b2fd4","system_id":"levelo_inurba_marseille","lat":43.33771,"lon":5.37424,"is_reserved":false,"is_disabled":true,"rental_uris":{"android":"levelo://app?vid=3da29fb8-fc97-44c6-b9ac-31dd456b2fd4","ios":"levelo://app?vid=3da29fb8-fc97-44c6-b9ac-31dd456b2fd4"},"vehicle_type_id":"4","last_reported":1751958701,"current_range_meters":0,"station_id":"","pricing_plan_id":"cebpf4jnsgd1na2vs0mg"},{"bike_id":"01861ad8-a8d7-4be6-816e-651927c87584","system_id":"levelo_inurba_marseille","lat":43.33751,"lon":5.37456,"is_reserved":false,"is_disabled":true,"rental_uris":{"android":"levelo://app?vid=01861ad8-a8d7-4be6-816e-651927c87584","ios":"levelo://app?vid=01861ad8-a8d7-4be6-816e-651927c87584"},"vehicle_type_id":"4","last_reported":1751958701,"current_range_meters":0,"station_id":"","pricing_plan_id":"cebpf4jnsgd1na2vs0mg"},{"bike_id":"c7eb67b5-220f-4c33-9ed3-2a9bba3d601b","system_id":"levelo_inurba_marseille","lat":43.300293,"lon":5.401387,"is_reserved":false,"is_disabled":true,"rental_uris":{"android":"levelo://app?vid=c7eb67b5-220f-4c33-9ed3-2a9bba3d601b","ios":"levelo://app?vid=c7eb67b5-220f-4c33-9ed3-2a9bba3d601b"},"vehicle_type_id":"4","last_reported":1751958701,"current_range_meters":0,"station_id":"","pricing_plan_id":"cebpf4jnsgd1na2vs0mg"},{"bike_id":"ba9988dc-1f92-4a86-ab5c-a73ea978d409","system_id":"levelo_inurba_marseille","lat":43.28841,"lon":5.37366,"is_reserved":false,"is_disabled":true,"rental_uris":{"android":"levelo://app?vid=ba9988dc-1f92-4a86-ab5c-a73ea978d409","ios":"levelo://app?vid=ba9988dc-1f92-4a86-ab5c-a73ea978d409"},"vehicle_type_id":"4","last_reported":1751958701,"current_range_meters":0,"station_id":"","pricing_plan_id":"cebpf4jnsgd1na2vs0mg"},{"bike_id":"ca634930-ae50-473a-8ca8-a0b3db987762","system_id":"levelo_inurba_marseille","lat":43.294,"lon":5.37395,"is_reserved":false,"is_disabled":true,"rental_uris":{"android":"levelo://app?vid=ca634930-ae50-473a-8ca8-a0b3db987762","ios":"levelo://app?vid=ca634930-ae50-473a-8ca8-a0b3db987762"},"vehicle_type_id":"4","last_reported":1751958701,"current_range_meters":0,"station_id":"","pricing_plan_id":"cebpf4jnsgd1na2vs0mg"},{"bike_id":"36fc43ff-930e-421b-9c9a-ac8fb9d1625b","system_id":"levelo_inurba_marseille","lat":43.29233,"lon":5.40556,"is_reserved":false,"is_disabled":true,"rental_uris":{"android":"levelo://app?vid=36fc43ff-930e-421b-9c9a-ac8fb9d1625b","ios":"levelo://app?vid=36fc43ff-930e-421b-9c9a-ac8fb9d1625b"},"vehicle_type_id":"4","last_reported":1751958701,"current_range_meters":0,"station_id":"","pricing_plan_id":"cebpf4jnsgd1na2vs0mg"},{"bike_id":"573a928a-27e4-4c41-92dd-ed057948734b","system_id":"levelo_inurba_marseille","lat":43.31927,"lon":5.37383,"is_reserved":false,"is_disabled":true,"rental_uris":{"android":"levelo://app?vid=573a928a-27e4-4c41-92dd-ed057948734b","ios":"levelo://app?vid=573a928a-27e4-4c41-92dd-ed057948734b"},"vehicle_type_id":"4","last_reported":1751958701,"current_range_meters":0,"station_id":"","pricing_plan_id":"cebpf4jnsgd1na2vs0mg"},{"bike_id":"9db15efa-62b5-43dc-beab-14a16c0840b9","system_id":"levelo_inurba_marseille","lat":43.28047,"lon":5.42067,"is_reserved":false,"is_disabled":true,"rental_uris":{"android":"levelo://app?vid=9db15efa-62b5-43dc-beab-14a16c0840b9","ios":"levelo://app?vid=9db15efa-62b5-43dc-beab-14a16c0840b9"},"vehicle_type_id":"4","last_reported":1751958701,"current_range_meters":0,"station_id":"","pricing_plan_id":"cebpf4jnsgd1na2vs0mg"},{"bike_id":"24cb9089-93ac-4b36-9d4e-b77f1a42140d","system_id":"levelo_inurba_marseille","lat":43.30922,"lon":5.36868,"is_reserved":false,"is_disabled":true,"rental_uris":{"android":"levelo://app?vid=24cb9089-93ac-4b36-9d4e-b77f1a42140d","ios":"levelo://app?vid=24cb9089-93ac-4b36-9d4e-b77f1a42140d"},"vehicle_type_id":"4","last_reported":1751958701,"current_range_meters":0,"station_id":"ce4bgn92rcd13ifvqbvg","pricing_plan_id":"cebpf4jnsgd1na2vs0mg"},{"bike_id":"4d2426fd-ed83-4b3b-9946-e5d612afc6f9","system_id":"levelo_inurba_marseille","lat":43.306369,"lon":5.400676,"is_reserved":false,"is_disabled":true,"rental_uris":{"android":"levelo://app?vid=4d2426fd-ed83-4b3b-9946-e5d612afc6f9","ios":"levelo://app?vid=4d2426fd-ed83-4b3b-9946-e5d612afc6f9"},"vehicle_type_id":"4","last_reported":1751958701,"current_range_meters":0,"station_id":"ce4bh112rcd13ifvqda0","pricing_plan_id":"cebpf4jnsgd1na2vs0mg"},{"bike_id":"2c2465f6-20de-4b0a-912b-589d59e56f74","system_id":"levelo_inurba_marseille","lat":43.29578,"lon":5.3995,"is_reserved":false,"is_disabled":false,"rental_uris":{"android":"levelo://app?vid=2c2465f6-20de-4b0a-912b-589d59e56f74","ios":"levelo://app?vid=2c2465f6-20de-4b0a-912b-589d59e56f74"},"vehicle_type_id":"4","last_reported":1751958701,"current_range_meters":0,"station_id":"ce4bh312rcd13ifvqdj0","pricing_plan_id":"cebpf4jnsgd1na2vs0mg"},{"bike_id":"26fedc6d-edb7-4a5a-8f0e-8f5f0e3ee82d","system_id":"levelo_inurba_marseille","lat":43.290275,"lon":5.399732,"is_reserved":false,"is_disabled":true,"rental_uris":{"android":"levelo://app?vid=26fedc6d-edb7-4a5a-8f0e-8f5f0e3ee82d","ios":"levelo://app?vid=26fedc6d-edb7-4a5a-8f0e-8f5f0e3ee82d"},"vehicle_type_id":"4","last_reported":1751958701,"current_range_meters":0,"station_id":"ce4bh392rcd13ifvqdm0","pricing_plan_id":"cebpf4jnsgd1na2vs0mg"},{"bike_id":"ca7709a9-0fca-4961-8291-63bfe8fcda8d","system_id":"levelo_inurba_marseille","lat":43.28936,"lon":5.39636,"is_reserved":false,"is_disabled":true,"rental_uris":{"android":"levelo://app?vid=ca7709a9-0fca-4961-8291-63bfe8fcda8d","ios":"levelo://app?vid=ca7709a9-0fca-4961-8291-63bfe8fcda8d"},"vehicle_type_id":"4","last_reported":1751958701,"current_range_meters":0,"station_id":"ce4bh3h2rcd13ifvqdn0","pricing_plan_id":"cebpf4jnsgd1na2vs0mg"},{"bike_id":"a5994280-b5f2-40ce-9603-ef6d581f26c8","system_id":"levelo_inurba_marseille","lat":43.32112,"lon":5.36766,"is_reserved":false,"is_disabled":true,"rental_uris":{"android":"levelo://app?vid=a5994280-b5f2-40ce-9603-ef6d581f26c8","ios":"levelo://app?vid=a5994280-b5f2-40ce-9603-ef6d581f26c8"},"vehicle_type_id":"4","last_reported":1751958701,"current_range_meters":0,"station_id":"ce4bhrh2rcd13ifvqhug","pricing_plan_id":"cebpf4jnsgd1na2vs0mg"},{"bike_id":"be5c351d-3f8f-4a18-bfa3-f7c9617b5636","system_id":"levelo_inurba_marseille","lat":43.32475,"lon":5.36577,"is_reserved":false,"is_disabled":true,"rental_uris":{"android":"levelo://app?vid=be5c351d-3f8f-4a18-bfa3-f7c9617b5636","ios":"levelo://app?vid=be5c351d-3f8f-4a18-bfa3-f7c9617b5636"},"vehicle_type_id":"4","last_reported":1751958701,"current_range_meters":0,"station_id":"ce4bhs12rcd13ifvqhvg","pricing_plan_id":"cebpf4jnsgd1na2vs0mg"},{"bike_id":"3d508917-55ee-42b6-894b-89c2a444dc06","system_id":"levelo_inurba_marseille","lat":43.22493,"lon":5.34777,"is_reserved":false,"is_disabled":true,"rental_uris":{"android":"levelo://app?vid=3d508917-55ee-42b6-894b-89c2a444dc06","ios":"levelo://app?vid=3d508917-55ee-42b6-894b-89c2a444dc06"},"vehicle_type_id":"4","last_reported":1751958701,"current_range_meters":0,"station_id":"st_cvj5dfep6f1abm77gieg","pricing_plan_id":"cebpf4jnsgd1na2vs0mg"},{"bike_id":"c32a44ab-b078-4729-9be5-e0735978229d","system_id":"levelo_inurba_marseille","lat":43.212094,"lon":5.350627,"is_reserved":false,"is_disabled":true,"rental_uris":{"android":"levelo://app?vid=c32a44ab-b078-4729-9be5-e0735978229d","ios":"levelo://app?vid=c32a44ab-b078-4729-9be5-e0735978229d"},"vehicle_type_id":"4","last_reported":1751958701,"current_range_meters":0,"station_id":"st_cvj6sg6p6f1abm77japg","pricing_plan_id":"cebpf4jnsgd1na2vs0mg"},{"bike_id":"e86ba8c9-208d-482c-a826-4c100938472a","system_id":"levelo_inurba_marseille","lat":43.211918,"lon":5.350734,"is_reserved":false,"is_disabled":true,"rental_uris":{"android":"levelo://app?vid=e86ba8c9-208d-482c-a826-4c100938472a","ios":"levelo://app?vid=e86ba8c9-208d-482c-a826-4c100938472a"},"vehicle_type_id":"4","last_reported":1751958701,"current_range_meters":0,"station_id":"st_cvj6sg6p6f1abm77japg","pricing_plan_id":"cebpf4jnsgd1na2vs0mg"},{"bike_id":"ee7792a8-1784-4e7d-ae9e-cf668d8be445","system_id":"levelo_inurba_marseille","lat":43.30543,"lon":5.36564,"is_reserved":false,"is_disabled":true,"rental_uris":{"android":"levelo://app?vid=ee7792a8-1784-4e7d-ae9e-cf668d8be445","ios":"levelo://app?vid=ee7792a8-1784-4e7d-ae9e-cf668d8be445"},"vehicle_type_id":"4","last_reported":1751958701,"current_range_meters":400,"station_id":"ce4bgs12rcd13ifvqcag","pricing_plan_id":"cebpf4jnsgd1na2vs0mg"},{"bike_id":"e010d862-47b8-465d-bed8-9676297a68d5","system_id":"levelo_inurba_marseille","lat":43.28929,"lon":5.36386,"is_reserved":false,"is_disabled":true,"rental_uris":{"android":"levelo://app?vid=e010d862-47b8-465d-bed8-9676297a68d5","ios":"levelo://app?vid=e010d862-47b8-465d-bed8-9676297a68d5"},"vehicle_type_id":"4","last_reported":1751958701,"current_range_meters":400,"station_id":"ce4bhc92rcd13ifvqetg","pricing_plan_id":"cebpf4jnsgd1na2vs0mg"},{"bike_id":"d2866ccd-e3dd-415c-9c91-4093a42f7191","system_id":"levelo_inurba_marseille","lat":43.3235,"lon":5.36753,"is_reserved":false,"is_disabled":true,"rental_uris":{"android":"levelo://app?vid=d2866ccd-e3dd-415c-9c91-4093a42f7191","ios":"levelo://app?vid=d2866ccd-e3dd-415c-9c91-4093a42f7191"},"vehicle_type_id":"4","last_reported":1751958701,"current_range_meters":400,"station_id":"ce4bhsh2rcd13ifvqi2g","pricing_plan_id":"cebpf4jnsgd1na2vs0mg"},{"bike_id":"9dfe98ba-9b27-42b6-8614-59def8be4a8a","system_id":"levelo_inurba_marseille","lat":43.26961,"lon":5.386,"is_reserved":false,"is_disabled":true,"rental_uris":{"android":"levelo://app?vid=9dfe98ba-9b27-42b6-8614-59def8be4a8a","ios":"levelo://app?vid=9dfe98ba-9b27-42b6-8614-59def8be4a8a"},"vehicle_type_id":"4","last_reported":1751958701,"current_range_meters":800,"station_id":"ce4bhh92rcd13ifvqfh0","pricing_plan_id":"cebpf4jnsgd1na2vs0mg"},{"bike_id":"ce85ba87-2506-4249-b5b6-2c7628f0e369","system_id":"levelo_inurba_marseille","lat":43.30597,"lon":5.37267,"is_reserved":false,"is_disabled":true,"rental_uris":{"android":"levelo://app?vid=ce85ba87-2506-4249-b5b6-2c7628f0e369","ios":"levelo://app?vid=ce85ba87-2506-4249-b5b6-2c7628f0e369"},"vehicle_type_id":"4","last_reported":1751958701,"current_range_meters":1200,"station_id":"ce4bgqh2rcd13ifvqc4g","pricing_plan_id":"cebpf4jnsgd1na2vs0mg"},{"bike_id":"d66ad7ef-7762-4c9c-9c47-cebdeadb0810","system_id":"levelo_inurba_marseille","lat":43.28971,"lon":5.3782,"is_reserved":false,"is_disabled":true,"rental_uris":{"android":"levelo://app?vid=d66ad7ef-7762-4c9c-9c47-cebdeadb0810","ios":"levelo://app?vid=d66ad7ef-7762-4c9c-9c47-cebdeadb0810"},"vehicle_type_id":"4","last_reported":1751958701,"current_range_meters":1200,"station_id":"ce4bh9p2rcd13ifvqed0","pricing_plan_id":"cebpf4jnsgd1na2vs0mg"},{"bike_id":"2574b451-1837-4e1d-b39c-f23e8b14b790","system_id":"levelo_inurba_marseille","lat":43.3088,"lon":5.3964,"is_reserved":false,"is_disabled":true,"rental_uris":{"android":"levelo://app?vid=2574b451-1837-4e1d-b39c-f23e8b14b790","ios":"levelo://app?vid=2574b451-1837-4e1d-b39c-f23e8b14b790"},"vehicle_type_id":"4","last_reported":1751958701,"current_range_meters":1600,"station_id":"ce4bh012rcd13ifvqcv0","pricing_plan_id":"cebpf4jnsgd1na2vs0mg"},{"bike_id":"32f0b4a1-eb3b-4764-b87b-72cc56773da8","system_id":"levelo_inurba_marseille","lat":43.26565,"lon":5.39047,"is_reserved":false,"is_disabled":true,"rental_uris":{"android":"levelo://app?vid=32f0b4a1-eb3b-4764-b87b-72cc56773da8","ios":"levelo://app?vid=32f0b4a1-eb3b-4764-b87b-72cc56773da8"},"vehicle_type_id":"4","last_reported":1751958701,"current_range_meters":1600,"station_id":"ce4bhe12rcd13ifvqf30","pricing_plan_id":"cebpf4jnsgd1na2vs0mg"},{"bike_id":"433e1104-75a6-40f7-a2d1-2f080f4b8de7","system_id":"levelo_inurba_marseille","lat":43.23156,"lon":5.43707,"is_reserved":false,"is_disabled":true,"rental_uris":{"android":"levelo://app?vid=433e1104-75a6-40f7-a2d1-2f080f4b8de7","ios":"levelo://app?vid=433e1104-75a6-40f7-a2d1-2f080f4b8de7"},"vehicle_type_id":"4","last_reported":1751958701,"current_range_meters":1600,"station_id":"ce4bhmp2rcd13ifvqgog","pricing_plan_id":"cebpf4jnsgd1na2vs0mg"},{"bike_id":"1b016022-1403-4520-b248-40bcb9f3237d","system_id":"levelo_inurba_marseille","lat":43.28436,"lon":5.39181,"is_reserved":false,"is_disabled":true,"rental_uris":{"android":"levelo://app?vid=1b016022-1403-4520-b248-40bcb9f3237d","ios":"levelo://app?vid=1b016022-1403-4520-b248-40bcb9f3237d"},"vehicle_type_id":"4","last_reported":1751958701,"current_range_meters":2000,"station_id":"ce4bhoh2rcd13ifvqh5g","pricing_plan_id":"cebpf4jnsgd1na2vs0mg"},{"bike_id":"4bb78ff6-0b2c-4418-8625-20e6a044fb16","system_id":"levelo_inurba_marseille","lat":43.29076,"lon":5.37162,"is_reserved":false,"is_disabled":false,"rental_uris":{"android":"levelo://app?vid=4bb78ff6-0b2c-4418-8625-20e6a044fb16","ios":"levelo://app?vid=4bb78ff6-0b2c-4418-8625-20e6a044fb16"},"vehicle_type_id":"4","last_reported":1751958701,"current_range_meters":3200,"station_id":"ce4bh5p2rcd13ifvqe4g","pricing_plan_id":"cebpf4jnsgd1na2vs0mg"},{"bike_id":"f4cd585d-4b7c-4260-97c6-2f1212d0c113","system_id":"levelo_inurba_marseille","lat":43.29206,"lon":5.358071,"is_reserved":false,"is_disabled":false,"rental_uris":{"android":"levelo://app?vid=f4cd585d-4b7c-4260-97c6-2f1212d0c113","ios":"levelo://app?vid=f4cd585d-4b7c-4260-97c6-2f1212d0c113"},"vehicle_type_id":"4","last_reported":1751958701,"current_range_meters":3200,"station_id":"ce4bhb12rcd13ifvqel0","pricing_plan_id":"cebpf4jnsgd1na2vs0mg"},{"bike_id":"a7753154-ad7f-4eb5-b7b3-df27edf18a53","system_id":"levelo_inurba_marseille","lat":43.22478,"lon":5.34826,"is_reserved":false,"is_disabled":false,"rental_uris":{"android":"levelo://app?vid=a7753154-ad7f-4eb5-b7b3-df27edf18a53","ios":"levelo://app?vid=a7753154-ad7f-4eb5-b7b3-df27edf18a53"},"vehicle_type_id":"4","last_reported":1751958701,"current_range_meters":3200,"station_id":"st_cvj5dfep6f1abm77gieg","pricing_plan_id":"cebpf4jnsgd1na2vs0mg"},{"bike_id":"ed290504-6948-4f69-8584-2e2b0286febf","system_id":"levelo_inurba_marseille","lat":43.21191,"lon":5.35075,"is_reserved":false,"is_disabled":false,"rental_uris":{"android":"levelo://app?vid=ed290504-6948-4f69-8584-2e2b0286febf","ios":"levelo://app?vid=ed290504-6948-4f69-8584-2e2b0286febf"},"vehicle_type_id":"4","last_reported":1751958701,"current_range_meters":3200,"station_id":"st_cvj6sg6p6f1abm77japg","pricing_plan_id":"cebpf4jnsgd1na2vs0mg"},{"bike_id":"acdafa95-7c75-48aa-ab44-0dde49345d81","system_id":"levelo_inurba_marseille","lat":43.292291,"lon":5.360511,"is_reserved":false,"is_disabled":false,"rental_uris":{"android":"levelo://app?vid=acdafa95-7c75-48aa-ab44-0dde49345d81","ios":"levelo://app?vid=acdafa95-7c75-48aa-ab44-0dde49345d81"},"vehicle_type_id":"4","last_reported":1751958701,"current_range_meters":3600,"station_id":"","pricing_plan_id":"cebpf4jnsgd1na2vs0mg"},{"bike_id":"fb050c3b-cfdd-4400-b095-901f2331acd1","system_id":"levelo_inurba_marseille","lat":43.23189,"lon":5.39982,"is_reserved":false,"is_disabled":false,"rental_uris":{"android":"levelo://app?vid=fb050c3b-cfdd-4400-b095-901f2331acd1","ios":"levelo://app?vid=fb050c3b-cfdd-4400-b095-901f2331acd1"},"vehicle_type_id":"4","last_reported":1751958701,"current_range_meters":3600,"station_id":"ce4bhn12rcd13ifvqgqg","pricing_plan_id":"cebpf4jnsgd1na2vs0mg"},{"bike_id":"8d1f2db5-6f2a-4427-9928-c8663920cbad","system_id":"levelo_inurba_marseille","lat":43.32473,"lon":5.36557,"is_reserved":false,"is_disabled":false,"rental_uris":{"android":"levelo://app?vid=8d1f2db5-6f2a-4427-9928-c8663920cbad","ios":"levelo://app?vid=8d1f2db5-6f2a-4427-9928-c8663920cbad"},"vehicle_type_id":"4","last_reported":1751958701,"current_range_meters":3600,"station_id":"ce4bhs12rcd13ifvqhvg","pricing_plan_id":"cebpf4jnsgd1na2vs0mg"},{"bike_id":"3b638e02-6a55-403d-b500-cc62d0041fbc","system_id":"levelo_inurba_marseille","lat":43.265764,"lon":5.39006,"is_reserved":false,"is_disabled":false,"rental_uris":{"android":"levelo://app?vid=3b638e02-6a55-403d-b500-cc62d0041fbc","ios":"levelo://app?vid=3b638e02-6a55-403d-b500-cc62d0041fbc"},"vehicle_type_id":"4","last_reported":1751958701,"current_range_meters":4000,"station_id":"","pricing_plan_id":"cebpf4jnsgd1na2vs0mg"},{"bike_id":"a23562a3-0a2c-460b-be41-1e099f3c189d","system_id":"levelo_inurba_marseille","lat":43.26669,"lon":5.3826,"is_reserved":false,"is_disabled":false,"rental_uris":{"android":"levelo://app?vid=a23562a3-0a2c-460b-be41-1e099f3c189d","ios":"levelo://app?vid=a23562a3-0a2c-460b-be41-1e099f3c189d"},"vehicle_type_id":"4","last_reported":1751958701,"current_range_meters":4000,"station_id":"ce4bhg92rcd13ifvqf90","pricing_plan_id":"cebpf4jnsgd1na2vs0mg"},{"bike_id":"71e58a67-8342-4dd2-84ab-8b7866263f42","system_id":"levelo_inurba_marseille","lat":43.307111,"lon":5.401438,"is_reserved":false,"is_disabled":false,"rental_uris":{"android":"levelo://app?vid=71e58a67-8342-4dd2-84ab-8b7866263f42","ios":"levelo://app?vid=71e58a67-8342-4dd2-84ab-8b7866263f42"},"vehicle_type_id":"4","last_reported":1751958701,"current_range_meters":4400,"station_id":"","pricing_plan_id":"cebpf4jnsgd1na2vs0mg"},{"bike_id":"13382f17-5d01-48b4-bddc-a147875aadc4","system_id":"levelo_inurba_marseille","lat":43.27936,"lon":5.38697,"is_reserved":false,"is_disabled":false,"rental_uris":{"android":"levelo://app?vid=13382f17-5d01-48b4-bddc-a147875aadc4","ios":"levelo://app?vid=13382f17-5d01-48b4-bddc-a147875aadc4"},"vehicle_type_id":"4","last_reported":1751958701,"current_range_meters":4400,"station_id":"","pricing_plan_id":"cebpf4jnsgd1na2vs0mg"},{"bike_id":"3f040268-07a8-4b23-8dcb-adb9aea1aa97","system_id":"levelo_inurba_marseille","lat":43.291691,"lon":5.371563,"is_reserved":false,"is_disabled":false,"rental_uris":{"android":"levelo://app?vid=3f040268-07a8-4b23-8dcb-adb9aea1aa97","ios":"levelo://app?vid=3f040268-07a8-4b23-8dcb-adb9aea1aa97"},"vehicle_type_id":"4","last_reported":1751958701,"current_range_meters":4400,"station_id":"ce4bha92rcd13ifvqeh0","pricing_plan_id":"cebpf4jnsgd1na2vs0mg"},{"bike_id":"a6efe00c-a2d7-4bc3-897c-8dd609764202","system_id":"levelo_inurba_marseille","lat":43.2572,"lon":5.41112,"is_reserved":false,"is_disabled":false,"rental_uris":{"android":"levelo://app?vid=a6efe00c-a2d7-4bc3-897c-8dd609764202","ios":"levelo://app?vid=a6efe00c-a2d7-4bc3-897c-8dd609764202"},"vehicle_type_id":"4","last_reported":1751958701,"current_range_meters":4400,"station_id":"ce4bhkp2rcd13ifvqgd0","pricing_plan_id":"cebpf4jnsgd1na2vs0mg"},{"bike_id":"2a644680-a682-4a1f-8cbd-3d0fb57685b4","system_id":"levelo_inurba_marseille","lat":43.217611,"lon":5.345955,"is_reserved":false,"is_disabled":false,"rental_uris":{"android":"levelo://app?vid=2a644680-a682-4a1f-8cbd-3d0fb57685b4","ios":"levelo://app?vid=2a644680-a682-4a1f-8cbd-3d0fb57685b4"},"vehicle_type_id":"4","last_reported":1751958701,"current_range_meters":4400,"station_id":"st_cvj6r9ubvosntc0bgbag","pricing_plan_id":"cebpf4jnsgd1na2vs0mg"},{"bike_id":"de3c7479-ad03-448f-a78e-88898eddd51a","system_id":"levelo_inurba_marseille","lat":43.329505,"lon":5.396949,"is_reserved":false,"is_disabled":false,"rental_uris":{"android":"levelo://app?vid=de3c7479-ad03-448f-a78e-88898eddd51a","ios":"levelo://app?vid=de3c7479-ad03-448f-a78e-88898eddd51a"},"vehicle_type_id":"4","last_reported":1751958701,"current_range_meters":4800,"station_id":"","pricing_plan_id":"cebpf4jnsgd1na2vs0mg"},{"bike_id":"ff6969fc-5512-4edf-a61d-6936ccb9a278","system_id":"levelo_inurba_marseille","lat":43.330142,"lon":5.36378,"is_reserved":false,"is_disabled":false,"rental_uris":{"android":"levelo://app?vid=ff6969fc-5512-4edf-a61d-6936ccb9a278","ios":"levelo://app?vid=ff6969fc-5512-4edf-a61d-6936ccb9a278"},"vehicle_type_id":"4","last_reported":1751958701,"current_range_meters":4800,"station_id":"","pricing_plan_id":"cebpf4jnsgd1na2vs0mg"},{"bike_id":"6b316848-9bce-45de-9e4a-cd01ac19e548","system_id":"levelo_inurba_marseille","lat":43.304144,"lon":5.37076,"is_reserved":false,"is_disabled":false,"rental_uris":{"android":"levelo://app?vid=6b316848-9bce-45de-9e4a-cd01ac19e548","ios":"levelo://app?vid=6b316848-9bce-45de-9e4a-cd01ac19e548"},"vehicle_type_id":"4","last_reported":1751958701,"current_range_meters":4800,"station_id":"","pricing_plan_id":"cebpf4jnsgd1na2vs0mg"},{"bike_id":"9248a1fc-c04b-4014-a241-f84a76d5c26c","system_id":"levelo_inurba_marseille","lat":43.30907,"lon":5.36852,"is_reserved":false,"is_disabled":false,"rental_uris":{"android":"levelo://app?vid=9248a1fc-c04b-4014-a241-f84a76d5c26c","ios":"levelo://app?vid=9248a1fc-c04b-4014-a241-f84a76d5c26c"},"vehicle_type_id":"4","last_reported":1751958701,"current_range_meters":4800,"station_id":"ce4bgn92rcd13ifvqbvg","pricing_plan_id":"cebpf4jnsgd1na2vs0mg"},{"bike_id":"10fbb63a-50c5-43c7-9e58-9c33b7a31fbe","system_id":"levelo_inurba_marseille","lat":43.24996,"lon":5.38936,"is_reserved":false,"is_disabled":false,"rental_uris":{"android":"levelo://app?vid=10fbb63a-50c5-43c7-9e58-9c33b7a31fbe","ios":"levelo://app?vid=10fbb63a-50c5-43c7-9e58-9c33b7a31fbe"},"vehicle_type_id":"4","last_reported":1751958701,"current_range_meters":4800,"station_id":"ce4bhgp2rcd13ifvqfd0","pricing_plan_id":"cebpf4jnsgd1na2vs0mg"},{"bike_id":"d6bffe1f-2ba2-4014-af91-704ed862a47b","system_id":"levelo_inurba_marseille","lat":43.23148,"lon":5.43709,"is_reserved":false,"is_disabled":false,"rental_uris":{"android":"levelo://app?vid=d6bffe1f-2ba2-4014-af91-704ed862a47b","ios":"levelo://app?vid=d6bffe1f-2ba2-4014-af91-704ed862a47b"},"vehicle_type_id":"4","last_reported":1751958701,"current_range_meters":4800,"station_id":"ce4bhmp2rcd13ifvqgog","pricing_plan_id":"cebpf4jnsgd1na2vs0mg"},{"bike_id":"ce9ebd4c-2329-41e6-bf3f-0a7a113e1c2f","system_id":"levelo_inurba_marseille","lat":43.29515,"lon":5.37502,"is_reserved":false,"is_disabled":false,"rental_uris":{"android":"levelo://app?vid=ce9ebd4c-2329-41e6-bf3f-0a7a113e1c2f","ios":"levelo://app?vid=ce9ebd4c-2329-41e6-bf3f-0a7a113e1c2f"},"vehicle_type_id":"4","last_reported":1751958701,"current_range_meters":5600,"station_id":"ce4bgkp2rcd13ifvqbmg","pricing_plan_id":"cebpf4jnsgd1na2vs0mg"},{"bike_id":"6757b548-e566-497c-9ddc-9a9f5cfb4285","system_id":"levelo_inurba_marseille","lat":43.29033,"lon":5.37554,"is_reserved":false,"is_disabled":false,"rental_uris":{"android":"levelo://app?vid=6757b548-e566-497c-9ddc-9a9f5cfb4285","ios":"levelo://app?vid=6757b548-e566-497c-9ddc-9a9f5cfb4285"},"vehicle_type_id":"4","last_reported":1751958701,"current_range_meters":5600,"station_id":"ce4bh692rcd13ifvqe90","pricing_plan_id":"cebpf4jnsgd1na2vs0mg"},{"bike_id":"98b2e04d-5909-45ee-9489-f310dd194fa8","system_id":"levelo_inurba_marseille","lat":43.24182,"lon":5.39726,"is_reserved":false,"is_disabled":false,"rental_uris":{"android":"levelo://app?vid=98b2e04d-5909-45ee-9489-f310dd194fa8","ios":"levelo://app?vid=98b2e04d-5909-45ee-9489-f310dd194fa8"},"vehicle_type_id":"4","last_reported":1751958701,"current_range_meters":5600,"station_id":"ce4bhn12rcd13ifvqgpg","pricing_plan_id":"cebpf4jnsgd1na2vs0mg"},{"bike_id":"8eff12cd-c538-412d-95bc-b68542ba8601","system_id":"levelo_inurba_marseille","lat":43.26498,"lon":5.39538,"is_reserved":false,"is_disabled":false,"rental_uris":{"android":"levelo://app?vid=8eff12cd-c538-412d-95bc-b68542ba8601","ios":"levelo://app?vid=8eff12cd-c538-412d-95bc-b68542ba8601"},"vehicle_type_id":"4","last_reported":1751958701,"current_range_meters":6000,"station_id":"ce4bhi12rcd13ifvqfq0","pricing_plan_id":"cebpf4jnsgd1na2vs0mg"},{"bike_id":"774f397b-c74c-4d05-836a-edb17c7e1a45","system_id":"levelo_inurba_marseille","lat":43.25929,"lon":5.40904,"is_reserved":false,"is_disabled":false,"rental_uris":{"android":"levelo://app?vid=774f397b-c74c-4d05-836a-edb17c7e1a45","ios":"levelo://app?vid=774f397b-c74c-4d05-836a-edb17c7e1a45"},"vehicle_type_id":"4","last_reported":1751958701,"current_range_meters":6000,"station_id":"ce4bhm92rcd13ifvqglg","pricing_plan_id":"cebpf4jnsgd1na2vs0mg"},{"bike_id":"7a46aa5e-32fa-4a96-b5d5-dc3e36314997","system_id":"levelo_inurba_marseille","lat":43.33603,"lon":5.41033,"is_reserved":false,"is_disabled":false,"rental_uris":{"android":"levelo://app?vid=7a46aa5e-32fa-4a96-b5d5-dc3e36314997","ios":"levelo://app?vid=7a46aa5e-32fa-4a96-b5d5-dc3e36314997"},"vehicle_type_id":"4","last_reported":1751958701,"current_range_meters":6000,"station_id":"ce4bhqh2rcd13ifvqhmg","pricing_plan_id":"cebpf4jnsgd1na2vs0mg"},{"bike_id":"f75a49da-5b75-41c6-8e34-ac454014db40","system_id":"levelo_inurba_marseille","lat":43.32502,"lon":5.36542,"is_reserved":false,"is_disabled":false,"rental_uris":{"android":"levelo://app?vid=f75a49da-5b75-41c6-8e34-ac454014db40","ios":"levelo://app?vid=f75a49da-5b75-41c6-8e34-ac454014db40"},"vehicle_type_id":"4","last_reported":1751958701,"current_range_meters":6000,"station_id":"ce4bhs12rcd13ifvqhvg","pricing_plan_id":"cebpf4jnsgd1na2vs0mg"},{"bike_id":"bd1874bf-e30a-482e-a165-63d599b3ee06","system_id":"levelo_inurba_marseille","lat":43.31498,"lon":5.397653,"is_reserved":false,"is_disabled":false,"rental_uris":{"android":"levelo://app?vid=bd1874bf-e30a-482e-a165-63d599b3ee06","ios":"levelo://app?vid=bd1874bf-e30a-482e-a165-63d599b3ee06"},"vehicle_type_id":"4","last_reported":1751958701,"current_range_meters":6400,"station_id":"","pricing_plan_id":"cebpf4jnsgd1na2vs0mg"},{"bike_id":"7b527f00-f6ea-4963-b59d-8da04a2feedb","system_id":"levelo_inurba_marseille","lat":43.32084,"lon":5.40113,"is_reserved":false,"is_disabled":false,"rental_uris":{"android":"levelo://app?vid=7b527f00-f6ea-4963-b59d-8da04a2feedb","ios":"levelo://app?vid=7b527f00-f6ea-4963-b59d-8da04a2feedb"},"vehicle_type_id":"4","last_reported":1751958701,"current_range_meters":7200,"station_id":"","pricing_plan_id":"cebpf4jnsgd1na2vs0mg"},{"bike_id":"af7fb79a-9c44-45e4-95ed-78a37d5fcdcc","system_id":"levelo_inurba_marseille","lat":43.29257,"lon":5.37629,"is_reserved":false,"is_disabled":false,"rental_uris":{"android":"levelo://app?vid=af7fb79a-9c44-45e4-95ed-78a37d5fcdcc","ios":"levelo://app?vid=af7fb79a-9c44-45e4-95ed-78a37d5fcdcc"},"vehicle_type_id":"4","last_reported":1751958701,"current_range_meters":7200,"station_id":"ce4bgi12rcd13ifvqb80","pricing_plan_id":"cebpf4jnsgd1na2vs0mg"},{"bike_id":"18264400-f550-43af-ab98-b8ce1b4f41b3","system_id":"levelo_inurba_marseille","lat":43.241773,"lon":5.397138,"is_reserved":false,"is_disabled":false,"rental_uris":{"android":"levelo://app?vid=18264400-f550-43af-ab98-b8ce1b4f41b3","ios":"levelo://app?vid=18264400-f550-43af-ab98-b8ce1b4f41b3"},"vehicle_type_id":"4","last_reported":1751958701,"current_range_meters":7200,"station_id":"ce4bhn12rcd13ifvqgpg","pricing_plan_id":"cebpf4jnsgd1na2vs0mg"},{"bike_id":"e97ee5c0-87e5-403c-92ed-929b14d6ff8f","system_id":"levelo_inurba_marseille","lat":43.28321,"lon":5.38501,"is_reserved":false,"is_disabled":false,"rental_uris":{"android":"levelo://app?vid=e97ee5c0-87e5-403c-92ed-929b14d6ff8f","ios":"levelo://app?vid=e97ee5c0-87e5-403c-92ed-929b14d6ff8f"},"vehicle_type_id":"4","last_reported":1751958701,"current_range_meters":8000,"station_id":"","pricing_plan_id":"cebpf4jnsgd1na2vs0mg"},{"bike_id":"88ea42cb-cf0f-4e4a-8442-732645bc4ba5","system_id":"levelo_inurba_marseille","lat":43.310873,"lon":5.366973,"is_reserved":false,"is_disabled":false,"rental_uris":{"android":"levelo://app?vid=88ea42cb-cf0f-4e4a-8442-732645bc4ba5","ios":"levelo://app?vid=88ea42cb-cf0f-4e4a-8442-732645bc4ba5"},"vehicle_type_id":"4","last_reported":1751958701,"current_range_meters":8000,"station_id":"","pricing_plan_id":"cebpf4jnsgd1na2vs0mg"},{"bike_id":"9d5a30fa-c138-4a59-8f0a-5563ac9e8c07","system_id":"levelo_inurba_marseille","lat":43.30908,"lon":5.36852,"is_reserved":false,"is_disabled":false,"rental_uris":{"android":"levelo://app?vid=9d5a30fa-c138-4a59-8f0a-5563ac9e8c07","ios":"levelo://app?vid=9d5a30fa-c138-4a59-8f0a-5563ac9e8c07"},"vehicle_type_id":"4","last_reported":1751958701,"current_range_meters":8000,"station_id":"ce4bgn92rcd13ifvqbvg","pricing_plan_id":"cebpf4jnsgd1na2vs0mg"},{"bike_id":"b1c07486-b726-4416-84c2-267464d254a2","system_id":"levelo_inurba_marseille","lat":43.30962,"lon":5.39048,"is_reserved":false,"is_disabled":false,"rental_uris":{"android":"levelo://app?vid=b1c07486-b726-4416-84c2-267464d254a2","ios":"levelo://app?vid=b1c07486-b726-4416-84c2-267464d254a2"},"vehicle_type_id":"4","last_reported":1751958701,"current_range_meters":8000,"station_id":"ce4bgup2rcd13ifvqco0","pricing_plan_id":"cebpf4jnsgd1na2vs0mg"},{"bike_id":"98f46642-8fdc-43be-8379-a5bf33d8441b","system_id":"levelo_inurba_marseille","lat":43.211918,"lon":5.350723,"is_reserved":false,"is_disabled":false,"rental_uris":{"android":"levelo://app?vid=98f46642-8fdc-43be-8379-a5bf33d8441b","ios":"levelo://app?vid=98f46642-8fdc-43be-8379-a5bf33d8441b"},"vehicle_type_id":"4","last_reported":1751958701,"current_range_meters":8000,"station_id":"st_cvj6sg6p6f1abm77japg","pricing_plan_id":"cebpf4jnsgd1na2vs0mg"},{"bike_id":"3b22f952-d0bc-4c00-8fd3-7e27b88aea23","system_id":"levelo_inurba_marseille","lat":43.29659,"lon":5.36245,"is_reserved":false,"is_disabled":false,"rental_uris":{"android":"levelo://app?vid=3b22f952-d0bc-4c00-8fd3-7e27b88aea23","ios":"levelo://app?vid=3b22f952-d0bc-4c00-8fd3-7e27b88aea23"},"vehicle_type_id":"4","last_reported":1751958701,"current_range_meters":8400,"station_id":"","pricing_plan_id":"cebpf4jnsgd1na2vs0mg"},{"bike_id":"8158e4c8-d20f-4635-b50c-9af0d08bb1d8","system_id":"levelo_inurba_marseille","lat":43.25928,"lon":5.40897,"is_reserved":false,"is_disabled":false,"rental_uris":{"android":"levelo://app?vid=8158e4c8-d20f-4635-b50c-9af0d08bb1d8","ios":"levelo://app?vid=8158e4c8-d20f-4635-b50c-9af0d08bb1d8"},"vehicle_type_id":"4","last_reported":1751958701,"current_range_meters":8400,"station_id":"ce4bhm92rcd13ifvqglg","pricing_plan_id":"cebpf4jnsgd1na2vs0mg"},{"bike_id":"6bff5dd0-cbe0-4a6b-b636-68a10a73f715","system_id":"levelo_inurba_marseille","lat":43.3071,"lon":5.40143,"is_reserved":false,"is_disabled":false,"rental_uris":{"android":"levelo://app?vid=6bff5dd0-cbe0-4a6b-b636-68a10a73f715","ios":"levelo://app?vid=6bff5dd0-cbe0-4a6b-b636-68a10a73f715"},"vehicle_type_id":"4","last_reported":1751958701,"current_range_meters":8800,"station_id":"","pricing_plan_id":"cebpf4jnsgd1na2vs0mg"},{"bike_id":"a58c5cd4-8699-4799-9a76-140058ea6167","system_id":"levelo_inurba_marseille","lat":43.30592,"lon":5.37248,"is_reserved":false,"is_disabled":false,"rental_uris":{"android":"levelo://app?vid=a58c5cd4-8699-4799-9a76-140058ea6167","ios":"levelo://app?vid=a58c5cd4-8699-4799-9a76-140058ea6167"},"vehicle_type_id":"4","last_reported":1751958701,"current_range_meters":8800,"station_id":"ce4bgqh2rcd13ifvqc4g","pricing_plan_id":"cebpf4jnsgd1na2vs0mg"},{"bike_id":"bff287d5-0c9a-4575-8cd6-c178d6ab245e","system_id":"levelo_inurba_marseille","lat":43.30598,"lon":5.37225,"is_reserved":false,"is_disabled":false,"rental_uris":{"android":"levelo://app?vid=bff287d5-0c9a-4575-8cd6-c178d6ab245e","ios":"levelo://app?vid=bff287d5-0c9a-4575-8cd6-c178d6ab245e"},"vehicle_type_id":"4","last_reported":1751958701,"current_range_meters":8800,"station_id":"ce4bgqh2rcd13ifvqc4g","pricing_plan_id":"cebpf4jnsgd1na2vs0mg"},{"bike_id":"37f2becd-23f9-4f13-a711-38b8024eeec7","system_id":"levelo_inurba_marseille","lat":43.33768,"lon":5.37516,"is_reserved":false,"is_disabled":false,"rental_uris":{"android":"levelo://app?vid=37f2becd-23f9-4f13-a711-38b8024eeec7","ios":"levelo://app?vid=37f2becd-23f9-4f13-a711-38b8024eeec7"},"vehicle_type_id":"4","last_reported":1751958701,"current_range_meters":9200,"station_id":"","pricing_plan_id":"cebpf4jnsgd1na2vs0mg"},{"bike_id":"9ab86fc5-b5c8-434f-bdef-9ecdfe243609","system_id":"levelo_inurba_marseille","lat":43.305369,"lon":5.367276,"is_reserved":false,"is_disabled":false,"rental_uris":{"android":"levelo://app?vid=9ab86fc5-b5c8-434f-bdef-9ecdfe243609","ios":"levelo://app?vid=9ab86fc5-b5c8-434f-bdef-9ecdfe243609"},"vehicle_type_id":"4","last_reported":1751958701,"current_range_meters":9200,"station_id":"ce4bgrp2rcd13ifvqc9g","pricing_plan_id":"cebpf4jnsgd1na2vs0mg"},{"bike_id":"a3f02b73-bc13-41f0-9c51-3104a0ca89c5","system_id":"levelo_inurba_marseille","lat":43.30369,"lon":5.42469,"is_reserved":false,"is_disabled":false,"rental_uris":{"android":"levelo://app?vid=a3f02b73-bc13-41f0-9c51-3104a0ca89c5","ios":"levelo://app?vid=a3f02b73-bc13-41f0-9c51-3104a0ca89c5"},"vehicle_type_id":"4","last_reported":1751958701,"current_range_meters":9200,"station_id":"ce4bhoh2rcd13ifvqh6g","pricing_plan_id":"cebpf4jnsgd1na2vs0mg"},{"bike_id":"608bac89-0c16-45d5-9fbe-13e016f70edc","system_id":"levelo_inurba_marseille","lat":43.321026,"lon":5.367861,"is_reserved":false,"is_disabled":false,"rental_uris":{"android":"levelo://app?vid=608bac89-0c16-45d5-9fbe-13e016f70edc","ios":"levelo://app?vid=608bac89-0c16-45d5-9fbe-13e016f70edc"},"vehicle_type_id":"4","last_reported":1751958701,"current_range_meters":9200,"station_id":"ce4bhrh2rcd13ifvqhug","pricing_plan_id":"cebpf4jnsgd1na2vs0mg"},{"bike_id":"2c423baa-ecca-420a-87d7-ad0b7e0b9ebb","system_id":"levelo_inurba_marseille","lat":43.280379,"lon":5.353607,"is_reserved":false,"is_disabled":false,"rental_uris":{"android":"levelo://app?vid=2c423baa-ecca-420a-87d7-ad0b7e0b9ebb","ios":"levelo://app?vid=2c423baa-ecca-420a-87d7-ad0b7e0b9ebb"},"vehicle_type_id":"4","last_reported":1751958701,"current_range_meters":9600,"station_id":"","pricing_plan_id":"cebpf4jnsgd1na2vs0mg"},{"bike_id":"82ebaad4-75be-4c00-aecc-24b3421dd883","system_id":"levelo_inurba_marseille","lat":43.31227,"lon":5.36845,"is_reserved":false,"is_disabled":false,"rental_uris":{"android":"levelo://app?vid=82ebaad4-75be-4c00-aecc-24b3421dd883","ios":"levelo://app?vid=82ebaad4-75be-4c00-aecc-24b3421dd883"},"vehicle_type_id":"4","last_reported":1751958701,"current_range_meters":9600,"station_id":"ce4bgl92rcd13ifvqbq0","pricing_plan_id":"cebpf4jnsgd1na2vs0mg"},{"bike_id":"be35a21f-4ea0-4cb8-9207-5788dd123425","system_id":"levelo_inurba_marseille","lat":43.254924,"lon":5.376431,"is_reserved":false,"is_disabled":false,"rental_uris":{"android":"levelo://app?vid=be35a21f-4ea0-4cb8-9207-5788dd123425","ios":"levelo://app?vid=be35a21f-4ea0-4cb8-9207-5788dd123425"},"vehicle_type_id":"4","last_reported":1751958701,"current_range_meters":9600,"station_id":"ce4bhh12rcd13ifvqff0","pricing_plan_id":"cebpf4jnsgd1na2vs0mg"},{"bike_id":"ca5ebf48-8b02-4097-ab13-94953a51c186","system_id":"levelo_inurba_marseille","lat":43.243898,"lon":5.37059,"is_reserved":false,"is_disabled":false,"rental_uris":{"android":"levelo://app?vid=ca5ebf48-8b02-4097-ab13-94953a51c186","ios":"levelo://app?vid=ca5ebf48-8b02-4097-ab13-94953a51c186"},"vehicle_type_id":"4","last_reported":1751958701,"current_range_meters":9600,"station_id":"ce4bhhh2rcd13ifvqfk0","pricing_plan_id":"cebpf4jnsgd1na2vs0mg"},{"bike_id":"942a983a-7094-47d3-97b7-ba4ab853d965","system_id":"levelo_inurba_marseille","lat":43.270735,"lon":5.422746,"is_reserved":false,"is_disabled":false,"rental_uris":{"android":"levelo://app?vid=942a983a-7094-47d3-97b7-ba4ab853d965","ios":"levelo://app?vid=942a983a-7094-47d3-97b7-ba4ab853d965"},"vehicle_type_id":"4","last_reported":1751958701,"current_range_meters":9600,"station_id":"ce4bhk92rcd13ifvqgb0","pricing_plan_id":"cebpf4jnsgd1na2vs0mg"},{"bike_id":"29102da4-02a2-4f9c-99ed-89cdef887179","system_id":"levelo_inurba_marseille","lat":43.22503,"lon":5.34761,"is_reserved":false,"is_disabled":false,"rental_uris":{"android":"levelo://app?vid=29102da4-02a2-4f9c-99ed-89cdef887179","ios":"levelo://app?vid=29102da4-02a2-4f9c-99ed-89cdef887179"},"vehicle_type_id":"4","last_reported":1751958701,"current_range_meters":9600,"station_id":"st_cvj5dfep6f1abm77gieg","pricing_plan_id":"cebpf4jnsgd1na2vs0mg"},{"bike_id":"cbc44642-484c-4154-99b1-912511f25af5","system_id":"levelo_inurba_marseille","lat":43.29903,"lon":5.37476,"is_reserved":false,"is_disabled":false,"rental_uris":{"android":"levelo://app?vid=cbc44642-484c-4154-99b1-912511f25af5","ios":"levelo://app?vid=cbc44642-484c-4154-99b1-912511f25af5"},"vehicle_type_id":"4","last_reported":1751958701,"current_range_meters":10000,"station_id":"ce4bgjh2rcd13ifvqbg0","pricing_plan_id":"cebpf4jnsgd1na2vs0mg"},{"bike_id":"215b0660-d9c1-404a-9849-3e4a0aeb82ac","system_id":"levelo_inurba_marseille","lat":43.29841,"lon":5.36267,"is_reserved":false,"is_disabled":false,"rental_uris":{"android":"levelo://app?vid=215b0660-d9c1-404a-9849-3e4a0aeb82ac","ios":"levelo://app?vid=215b0660-d9c1-404a-9849-3e4a0aeb82ac"},"vehicle_type_id":"4","last_reported":1751958701,"current_range_meters":10000,"station_id":"ce4bgpp2rcd13ifvqc3g","pricing_plan_id":"cebpf4jnsgd1na2vs0mg"},{"bike_id":"a70cfab5-f447-4d61-b80a-343a49825360","system_id":"levelo_inurba_marseille","lat":43.31726,"lon":5.37787,"is_reserved":false,"is_disabled":false,"rental_uris":{"android":"levelo://app?vid=a70cfab5-f447-4d61-b80a-343a49825360","ios":"levelo://app?vid=a70cfab5-f447-4d61-b80a-343a49825360"},"vehicle_type_id":"4","last_reported":1751958701,"current_range_meters":10000,"station_id":"ce4bgth2rcd13ifvqch0","pricing_plan_id":"cebpf4jnsgd1na2vs0mg"},{"bike_id":"9a835e01-725b-41f5-8a1c-1a4de65a16a4","system_id":"levelo_inurba_marseille","lat":43.280331,"lon":5.369422,"is_reserved":false,"is_disabled":false,"rental_uris":{"android":"levelo://app?vid=9a835e01-725b-41f5-8a1c-1a4de65a16a4","ios":"levelo://app?vid=9a835e01-725b-41f5-8a1c-1a4de65a16a4"},"vehicle_type_id":"4","last_reported":1751958701,"current_range_meters":10000,"station_id":"ce4bha12rcd13ifvqef0","pricing_plan_id":"cebpf4jnsgd1na2vs0mg"},{"bike_id":"1c8acbb1-d8ac-4adc-b44b-2be51efa2522","system_id":"levelo_inurba_marseille","lat":43.26954,"lon":5.3864,"is_reserved":false,"is_disabled":false,"rental_uris":{"android":"levelo://app?vid=1c8acbb1-d8ac-4adc-b44b-2be51efa2522","ios":"levelo://app?vid=1c8acbb1-d8ac-4adc-b44b-2be51efa2522"},"vehicle_type_id":"4","last_reported":1751958701,"current_range_meters":10000,"station_id":"ce4bhh92rcd13ifvqfh0","pricing_plan_id":"cebpf4jnsgd1na2vs0mg"},{"bike_id":"d09da396-d088-4952-9845-c995e74b14b8","system_id":"levelo_inurba_marseille","lat":43.25726,"lon":5.41108,"is_reserved":false,"is_disabled":false,"rental_uris":{"android":"levelo://app?vid=d09da396-d088-4952-9845-c995e74b14b8","ios":"levelo://app?vid=d09da396-d088-4952-9845-c995e74b14b8"},"vehicle_type_id":"4","last_reported":1751958701,"current_range_meters":10000,"station_id":"ce4bhkp2rcd13ifvqgd0","pricing_plan_id":"cebpf4jnsgd1na2vs0mg"},{"bike_id":"d2abbea5-d25e-4b8f-a9ce-3eaea508c786","system_id":"levelo_inurba_marseille","lat":43.24182,"lon":5.39704,"is_reserved":false,"is_disabled":false,"rental_uris":{"android":"levelo://app?vid=d2abbea5-d25e-4b8f-a9ce-3eaea508c786","ios":"levelo://app?vid=d2abbea5-d25e-4b8f-a9ce-3eaea508c786"},"vehicle_type_id":"4","last_reported":1751958701,"current_range_meters":10000,"station_id":"ce4bhn12rcd13ifvqgpg","pricing_plan_id":"cebpf4jnsgd1na2vs0mg"},{"bike_id":"218d1f16-f8a8-4528-8407-4c84f38a7294","system_id":"levelo_inurba_marseille","lat":43.3109,"lon":5.42438,"is_reserved":false,"is_disabled":false,"rental_uris":{"android":"levelo://app?vid=218d1f16-f8a8-4528-8407-4c84f38a7294","ios":"levelo://app?vid=218d1f16-f8a8-4528-8407-4c84f38a7294"},"vehicle_type_id":"4","last_reported":1751958701,"current_range_meters":10000,"station_id":"ce4bhp92rcd13ifvqhag","pricing_plan_id":"cebpf4jnsgd1na2vs0mg"},{"bike_id":"a31d7b1d-f875-4f27-b8f6-640a4ac62493","system_id":"levelo_inurba_marseille","lat":43.337255,"lon":5.391867,"is_reserved":false,"is_disabled":false,"rental_uris":{"android":"levelo://app?vid=a31d7b1d-f875-4f27-b8f6-640a4ac62493","ios":"levelo://app?vid=a31d7b1d-f875-4f27-b8f6-640a4ac62493"},"vehicle_type_id":"4","last_reported":1751958701,"current_range_meters":10000,"station_id":"ce4bhr92rcd13ifvqhsg","pricing_plan_id":"cebpf4jnsgd1na2vs0mg"},{"bike_id":"20c0674d-b5fd-4e8e-88c4-fe181160a0e2","system_id":"levelo_inurba_marseille","lat":43.21758,"lon":5.34615,"is_reserved":false,"is_disabled":false,"rental_uris":{"android":"levelo://app?vid=20c0674d-b5fd-4e8e-88c4-fe181160a0e2","ios":"levelo://app?vid=20c0674d-b5fd-4e8e-88c4-fe181160a0e2"},"vehicle_type_id":"4","last_reported":1751958701,"current_range_meters":10000,"station_id":"st_cvj6r9ubvosntc0bgbag","pricing_plan_id":"cebpf4jnsgd1na2vs0mg"},{"bike_id":"9e73b50f-9cee-4f18-96c6-73b300443c52","system_id":"levelo_inurba_marseille","lat":43.30278,"lon":5.37717,"is_reserved":false,"is_disabled":false,"rental_uris":{"android":"levelo://app?vid=9e73b50f-9cee-4f18-96c6-73b300443c52","ios":"levelo://app?vid=9e73b50f-9cee-4f18-96c6-73b300443c52"},"vehicle_type_id":"4","last_reported":1751958701,"current_range_meters":10800,"station_id":"ce4bguh2rcd13ifvqcj0","pricing_plan_id":"cebpf4jnsgd1na2vs0mg"},{"bike_id":"520db1de-894b-49d4-b9f4-553feb163659","system_id":"levelo_inurba_marseille","lat":43.3234,"lon":5.40628,"is_reserved":false,"is_disabled":false,"rental_uris":{"android":"levelo://app?vid=520db1de-894b-49d4-b9f4-553feb163659","ios":"levelo://app?vid=520db1de-894b-49d4-b9f4-553feb163659"},"vehicle_type_id":"4","last_reported":1751958701,"current_range_meters":10800,"station_id":"ce4bhq92rcd13ifvqhjg","pricing_plan_id":"cebpf4jnsgd1na2vs0mg"},{"bike_id":"3940df16-67e4-48d2-ba98-0b9c909004b3","system_id":"levelo_inurba_marseille","lat":43.314871,"lon":5.397581,"is_reserved":false,"is_disabled":false,"rental_uris":{"android":"levelo://app?vid=3940df16-67e4-48d2-ba98-0b9c909004b3","ios":"levelo://app?vid=3940df16-67e4-48d2-ba98-0b9c909004b3"},"vehicle_type_id":"4","last_reported":1751958701,"current_range_meters":11200,"station_id":"","pricing_plan_id":"cebpf4jnsgd1na2vs0mg"},{"bike_id":"558c27cf-0296-44ad-81a4-527b14fd9bdb","system_id":"levelo_inurba_marseille","lat":43.3135,"lon":5.36723,"is_reserved":false,"is_disabled":false,"rental_uris":{"android":"levelo://app?vid=558c27cf-0296-44ad-81a4-527b14fd9bdb","ios":"levelo://app?vid=558c27cf-0296-44ad-81a4-527b14fd9bdb"},"vehicle_type_id":"4","last_reported":1751958701,"current_range_meters":11200,"station_id":"ce4bgr92rcd13ifvqc6g","pricing_plan_id":"cebpf4jnsgd1na2vs0mg"},{"bike_id":"75062e20-f215-442e-b0bc-ff40078050a4","system_id":"levelo_inurba_marseille","lat":43.31369,"lon":5.36712,"is_reserved":false,"is_disabled":false,"rental_uris":{"android":"levelo://app?vid=75062e20-f215-442e-b0bc-ff40078050a4","ios":"levelo://app?vid=75062e20-f215-442e-b0bc-ff40078050a4"},"vehicle_type_id":"4","last_reported":1751958701,"current_range_meters":11200,"station_id":"ce4bgr92rcd13ifvqc6g","pricing_plan_id":"cebpf4jnsgd1na2vs0mg"},{"bike_id":"eb518bb0-5dd5-4762-bf58-5c5db5fd85f4","system_id":"levelo_inurba_marseille","lat":43.31501,"lon":5.373093,"is_reserved":false,"is_disabled":false,"rental_uris":{"android":"levelo://app?vid=eb518bb0-5dd5-4762-bf58-5c5db5fd85f4","ios":"levelo://app?vid=eb518bb0-5dd5-4762-bf58-5c5db5fd85f4"},"vehicle_type_id":"4","last_reported":1751958701,"current_range_meters":11200,"station_id":"ce4bgt12rcd13ifvqcd0","pricing_plan_id":"cebpf4jnsgd1na2vs0mg"},{"bike_id":"e0193cfe-11f7-4bf7-8da9-797db3e35ddc","system_id":"levelo_inurba_marseille","lat":43.3096,"lon":5.39039,"is_reserved":false,"is_disabled":false,"rental_uris":{"android":"levelo://app?vid=e0193cfe-11f7-4bf7-8da9-797db3e35ddc","ios":"levelo://app?vid=e0193cfe-11f7-4bf7-8da9-797db3e35ddc"},"vehicle_type_id":"4","last_reported":1751958701,"current_range_meters":11200,"station_id":"ce4bgup2rcd13ifvqco0","pricing_plan_id":"cebpf4jnsgd1na2vs0mg"},{"bike_id":"002f2ba8-82ee-4831-bc18-f0b75d723675","system_id":"levelo_inurba_marseille","lat":43.287255,"lon":5.399943,"is_reserved":false,"is_disabled":false,"rental_uris":{"android":"levelo://app?vid=002f2ba8-82ee-4831-bc18-f0b75d723675","ios":"levelo://app?vid=002f2ba8-82ee-4831-bc18-f0b75d723675"},"vehicle_type_id":"4","last_reported":1751958701,"current_range_meters":11200,"station_id":"ce4bho92rcd13ifvqh3g","pricing_plan_id":"cebpf4jnsgd1na2vs0mg"},{"bike_id":"072aef18-8c4c-41ca-9032-1b5fba7539b3","system_id":"levelo_inurba_marseille","lat":43.31992,"lon":5.36752,"is_reserved":false,"is_disabled":false,"rental_uris":{"android":"levelo://app?vid=072aef18-8c4c-41ca-9032-1b5fba7539b3","ios":"levelo://app?vid=072aef18-8c4c-41ca-9032-1b5fba7539b3"},"vehicle_type_id":"4","last_reported":1751958701,"current_range_meters":11200,"station_id":"ce4bhrh2rcd13ifvqhug","pricing_plan_id":"cebpf4jnsgd1na2vs0mg"},{"bike_id":"4cc495d5-e597-4967-9c52-2a54104880ee","system_id":"levelo_inurba_marseille","lat":43.22945,"lon":5.3538,"is_reserved":false,"is_disabled":false,"rental_uris":{"android":"levelo://app?vid=4cc495d5-e597-4967-9c52-2a54104880ee","ios":"levelo://app?vid=4cc495d5-e597-4967-9c52-2a54104880ee"},"vehicle_type_id":"4","last_reported":1751958701,"current_range_meters":11200,"station_id":"cpo3532slgdg3j2ikp40","pricing_plan_id":"cebpf4jnsgd1na2vs0mg"},{"bike_id":"b260b628-14ee-4f8d-a7bb-2148a7e59e67","system_id":"levelo_inurba_marseille","lat":43.30604,"lon":5.37246,"is_reserved":false,"is_disabled":false,"rental_uris":{"android":"levelo://app?vid=b260b628-14ee-4f8d-a7bb-2148a7e59e67","ios":"levelo://app?vid=b260b628-14ee-4f8d-a7bb-2148a7e59e67"},"vehicle_type_id":"4","last_reported":1751958701,"current_range_meters":11600,"station_id":"ce4bgqh2rcd13ifvqc4g","pricing_plan_id":"cebpf4jnsgd1na2vs0mg"},{"bike_id":"82f40aca-214c-480a-99d7-4df294448107","system_id":"levelo_inurba_marseille","lat":43.25505,"lon":5.37638,"is_reserved":false,"is_disabled":false,"rental_uris":{"android":"levelo://app?vid=82f40aca-214c-480a-99d7-4df294448107","ios":"levelo://app?vid=82f40aca-214c-480a-99d7-4df294448107"},"vehicle_type_id":"4","last_reported":1751958701,"current_range_meters":11600,"station_id":"ce4bhh12rcd13ifvqff0","pricing_plan_id":"cebpf4jnsgd1na2vs0mg"},{"bike_id":"e79346c8-86fc-4daa-86ef-e1e68b65043e","system_id":"levelo_inurba_marseille","lat":43.24069,"lon":5.37754,"is_reserved":false,"is_disabled":false,"rental_uris":{"android":"levelo://app?vid=e79346c8-86fc-4daa-86ef-e1e68b65043e","ios":"levelo://app?vid=e79346c8-86fc-4daa-86ef-e1e68b65043e"},"vehicle_type_id":"4","last_reported":1751958701,"current_range_meters":11600,"station_id":"ce4bhnp2rcd13ifvqgvg","pricing_plan_id":"cebpf4jnsgd1na2vs0mg"},{"bike_id":"d10c0c16-4c90-463d-9792-09cb6a9810e9","system_id":"levelo_inurba_marseille","lat":43.32291,"lon":5.38266,"is_reserved":false,"is_disabled":false,"rental_uris":{"android":"levelo://app?vid=d10c0c16-4c90-463d-9792-09cb6a9810e9","ios":"levelo://app?vid=d10c0c16-4c90-463d-9792-09cb6a9810e9"},"vehicle_type_id":"4","last_reported":1751958701,"current_range_meters":11600,"station_id":"ce4bhr12rcd13ifvqhqg","pricing_plan_id":"cebpf4jnsgd1na2vs0mg"},{"bike_id":"c2ee7d66-374b-44cd-b9d7-9ad64301293b","system_id":"levelo_inurba_marseille","lat":43.22495,"lon":5.34767,"is_reserved":false,"is_disabled":false,"rental_uris":{"android":"levelo://app?vid=c2ee7d66-374b-44cd-b9d7-9ad64301293b","ios":"levelo://app?vid=c2ee7d66-374b-44cd-b9d7-9ad64301293b"},"vehicle_type_id":"4","last_reported":1751958701,"current_range_meters":11600,"station_id":"st_cvj5dfep6f1abm77gieg","pricing_plan_id":"cebpf4jnsgd1na2vs0mg"},{"bike_id":"373f7154-05e4-4923-8d21-eb4b99691656","system_id":"levelo_inurba_marseille","lat":43.31535,"lon":5.38667,"is_reserved":false,"is_disabled":false,"rental_uris":{"android":"levelo://app?vid=373f7154-05e4-4923-8d21-eb4b99691656","ios":"levelo://app?vid=373f7154-05e4-4923-8d21-eb4b99691656"},"vehicle_type_id":"4","last_reported":1751958701,"current_range_meters":12000,"station_id":"","pricing_plan_id":"cebpf4jnsgd1na2vs0mg"},{"bike_id":"51729ad6-58fe-4dd5-ba02-40d4afe081d1","system_id":"levelo_inurba_marseille","lat":43.29634,"lon":5.37151,"is_reserved":false,"is_disabled":false,"rental_uris":{"android":"levelo://app?vid=51729ad6-58fe-4dd5-ba02-40d4afe081d1","ios":"levelo://app?vid=51729ad6-58fe-4dd5-ba02-40d4afe081d1"},"vehicle_type_id":"4","last_reported":1751958701,"current_range_meters":12000,"station_id":"ce4bgnh2rcd13ifvqc0g","pricing_plan_id":"cebpf4jnsgd1na2vs0mg"},{"bike_id":"adf7255d-2719-4443-af6b-696304ab154b","system_id":"levelo_inurba_marseille","lat":43.305273,"lon":5.367033,"is_reserved":false,"is_disabled":false,"rental_uris":{"android":"levelo://app?vid=adf7255d-2719-4443-af6b-696304ab154b","ios":"levelo://app?vid=adf7255d-2719-4443-af6b-696304ab154b"},"vehicle_type_id":"4","last_reported":1751958701,"current_range_meters":12000,"station_id":"ce4bgrp2rcd13ifvqc9g","pricing_plan_id":"cebpf4jnsgd1na2vs0mg"},{"bike_id":"b842a834-2fa4-472d-835b-013e3f131ad8","system_id":"levelo_inurba_marseille","lat":43.25008,"lon":5.38933,"is_reserved":false,"is_disabled":false,"rental_uris":{"android":"levelo://app?vid=b842a834-2fa4-472d-835b-013e3f131ad8","ios":"levelo://app?vid=b842a834-2fa4-472d-835b-013e3f131ad8"},"vehicle_type_id":"4","last_reported":1751958701,"current_range_meters":12000,"station_id":"ce4bhgp2rcd13ifvqfd0","pricing_plan_id":"cebpf4jnsgd1na2vs0mg"},{"bike_id":"11b7d985-cc37-4184-b626-301a52f1dcd7","system_id":"levelo_inurba_marseille","lat":43.25932,"lon":5.40905,"is_reserved":false,"is_disabled":false,"rental_uris":{"android":"levelo://app?vid=11b7d985-cc37-4184-b626-301a52f1dcd7","ios":"levelo://app?vid=11b7d985-cc37-4184-b626-301a52f1dcd7"},"vehicle_type_id":"4","last_reported":1751958701,"current_range_meters":12000,"station_id":"ce4bhm92rcd13ifvqglg","pricing_plan_id":"cebpf4jnsgd1na2vs0mg"},{"bike_id":"9bfc7d3d-4e60-4f8a-9c32-ef3d0e77ec5b","system_id":"levelo_inurba_marseille","lat":43.21191,"lon":5.35074,"is_reserved":false,"is_disabled":false,"rental_uris":{"android":"levelo://app?vid=9bfc7d3d-4e60-4f8a-9c32-ef3d0e77ec5b","ios":"levelo://app?vid=9bfc7d3d-4e60-4f8a-9c32-ef3d0e77ec5b"},"vehicle_type_id":"4","last_reported":1751958701,"current_range_meters":12000,"station_id":"st_cvj6sg6p6f1abm77japg","pricing_plan_id":"cebpf4jnsgd1na2vs0mg"},{"bike_id":"905002ae-8291-41e0-9056-1c4ba52b6021","system_id":"levelo_inurba_marseille","lat":43.309479,"lon":5.390343,"is_reserved":false,"is_disabled":false,"rental_uris":{"android":"levelo://app?vid=905002ae-8291-41e0-9056-1c4ba52b6021","ios":"levelo://app?vid=905002ae-8291-41e0-9056-1c4ba52b6021"},"vehicle_type_id":"4","last_reported":1751958701,"current_range_meters":12400,"station_id":"ce4bgup2rcd13ifvqco0","pricing_plan_id":"cebpf4jnsgd1na2vs0mg"},{"bike_id":"4ae18159-e914-44ac-a777-c4cbe182e774","system_id":"levelo_inurba_marseille","lat":43.26783,"lon":5.39415,"is_reserved":false,"is_disabled":false,"rental_uris":{"android":"levelo://app?vid=4ae18159-e914-44ac-a777-c4cbe182e774","ios":"levelo://app?vid=4ae18159-e914-44ac-a777-c4cbe182e774"},"vehicle_type_id":"4","last_reported":1751958701,"current_range_meters":12400,"station_id":"ce4bhh12rcd13ifvqfg0","pricing_plan_id":"cebpf4jnsgd1na2vs0mg"},{"bike_id":"4c4d4b94-5832-431b-a6a4-1addce77dff7","system_id":"levelo_inurba_marseille","lat":43.24415,"lon":5.37081,"is_reserved":false,"is_disabled":false,"rental_uris":{"android":"levelo://app?vid=4c4d4b94-5832-431b-a6a4-1addce77dff7","ios":"levelo://app?vid=4c4d4b94-5832-431b-a6a4-1addce77dff7"},"vehicle_type_id":"4","last_reported":1751958701,"current_range_meters":12400,"station_id":"ce4bhhh2rcd13ifvqfk0","pricing_plan_id":"cebpf4jnsgd1na2vs0mg"},{"bike_id":"2090512e-543d-4a55-b888-2423e2f84234","system_id":"levelo_inurba_marseille","lat":43.240816,"lon":5.377264,"is_reserved":false,"is_disabled":false,"rental_uris":{"android":"levelo://app?vid=2090512e-543d-4a55-b888-2423e2f84234","ios":"levelo://app?vid=2090512e-543d-4a55-b888-2423e2f84234"},"vehicle_type_id":"4","last_reported":1751958701,"current_range_meters":12400,"station_id":"ce4bhnp2rcd13ifvqgvg","pricing_plan_id":"cebpf4jnsgd1na2vs0mg"},{"bike_id":"bac13eb2-75b6-43a2-8750-65111fd6394f","system_id":"levelo_inurba_marseille","lat":43.321012,"lon":5.3676,"is_reserved":false,"is_disabled":false,"rental_uris":{"android":"levelo://app?vid=bac13eb2-75b6-43a2-8750-65111fd6394f","ios":"levelo://app?vid=bac13eb2-75b6-43a2-8750-65111fd6394f"},"vehicle_type_id":"4","last_reported":1751958701,"current_range_meters":12400,"station_id":"ce4bhrh2rcd13ifvqhug","pricing_plan_id":"cebpf4jnsgd1na2vs0mg"},{"bike_id":"ae063a66-86c8-4dbf-85fb-211b53656a78","system_id":"levelo_inurba_marseille","lat":43.30796,"lon":5.37634,"is_reserved":false,"is_disabled":false,"rental_uris":{"android":"levelo://app?vid=ae063a66-86c8-4dbf-85fb-211b53656a78","ios":"levelo://app?vid=ae063a66-86c8-4dbf-85fb-211b53656a78"},"vehicle_type_id":"4","last_reported":1751958701,"current_range_meters":12800,"station_id":"ce4bgv92rcd13ifvqcq0","pricing_plan_id":"cebpf4jnsgd1na2vs0mg"},{"bike_id":"283c956e-3346-476e-8640-46e94b7e905a","system_id":"levelo_inurba_marseille","lat":43.24998,"lon":5.38938,"is_reserved":false,"is_disabled":false,"rental_uris":{"android":"levelo://app?vid=283c956e-3346-476e-8640-46e94b7e905a","ios":"levelo://app?vid=283c956e-3346-476e-8640-46e94b7e905a"},"vehicle_type_id":"4","last_reported":1751958701,"current_range_meters":12800,"station_id":"ce4bhgp2rcd13ifvqfd0","pricing_plan_id":"cebpf4jnsgd1na2vs0mg"},{"bike_id":"10788a4f-1c94-4080-9730-62af135f7369","system_id":"levelo_inurba_marseille","lat":43.26202,"lon":5.37933,"is_reserved":false,"is_disabled":false,"rental_uris":{"android":"levelo://app?vid=10788a4f-1c94-4080-9730-62af135f7369","ios":"levelo://app?vid=10788a4f-1c94-4080-9730-62af135f7369"},"vehicle_type_id":"4","last_reported":1751958701,"current_range_meters":12800,"station_id":"ce4bhjp2rcd13ifvqg90","pricing_plan_id":"cebpf4jnsgd1na2vs0mg"},{"bike_id":"910e7672-d724-4195-a4e9-ffc3ceef0d80","system_id":"levelo_inurba_marseille","lat":43.30797,"lon":5.4353,"is_reserved":false,"is_disabled":false,"rental_uris":{"android":"levelo://app?vid=910e7672-d724-4195-a4e9-ffc3ceef0d80","ios":"levelo://app?vid=910e7672-d724-4195-a4e9-ffc3ceef0d80"},"vehicle_type_id":"4","last_reported":1751958701,"current_range_meters":12800,"station_id":"ce4bhph2rcd13ifvqheg","pricing_plan_id":"cebpf4jnsgd1na2vs0mg"},{"bike_id":"a6e09a08-5259-48eb-9481-b9b082516a25","system_id":"levelo_inurba_marseille","lat":43.31749,"lon":5.39018,"is_reserved":false,"is_disabled":false,"rental_uris":{"android":"levelo://app?vid=a6e09a08-5259-48eb-9481-b9b082516a25","ios":"levelo://app?vid=a6e09a08-5259-48eb-9481-b9b082516a25"},"vehicle_type_id":"4","last_reported":1751958701,"current_range_meters":12800,"station_id":"ce4bhqp2rcd13ifvqhng","pricing_plan_id":"cebpf4jnsgd1na2vs0mg"},{"bike_id":"e54a69bc-634c-4579-91a1-2ea1e7521c68","system_id":"levelo_inurba_marseille","lat":43.300813,"lon":5.37227,"is_reserved":false,"is_disabled":false,"rental_uris":{"android":"levelo://app?vid=e54a69bc-634c-4579-91a1-2ea1e7521c68","ios":"levelo://app?vid=e54a69bc-634c-4579-91a1-2ea1e7521c68"},"vehicle_type_id":"4","last_reported":1751958701,"current_range_meters":13600,"station_id":"","pricing_plan_id":"cebpf4jnsgd1na2vs0mg"},{"bike_id":"6ffc31bf-be63-440b-8353-4ff83386083b","system_id":"levelo_inurba_marseille","lat":43.298405,"lon":5.364035,"is_reserved":false,"is_disabled":false,"rental_uris":{"android":"levelo://app?vid=6ffc31bf-be63-440b-8353-4ff83386083b","ios":"levelo://app?vid=6ffc31bf-be63-440b-8353-4ff83386083b"},"vehicle_type_id":"4","last_reported":1751958701,"current_range_meters":13600,"station_id":"","pricing_plan_id":"cebpf4jnsgd1na2vs0mg"},{"bike_id":"5979aa03-b2bf-42c4-ab0c-e7d7a89366b4","system_id":"levelo_inurba_marseille","lat":43.29974,"lon":5.37173,"is_reserved":false,"is_disabled":false,"rental_uris":{"android":"levelo://app?vid=5979aa03-b2bf-42c4-ab0c-e7d7a89366b4","ios":"levelo://app?vid=5979aa03-b2bf-42c4-ab0c-e7d7a89366b4"},"vehicle_type_id":"4","last_reported":1751958701,"current_range_meters":13600,"station_id":"ce4bgr92rcd13ifvqc7g","pricing_plan_id":"cebpf4jnsgd1na2vs0mg"},{"bike_id":"47469edd-ed91-4b0e-a49a-8757f4e1f640","system_id":"levelo_inurba_marseille","lat":43.29037,"lon":5.40002,"is_reserved":false,"is_disabled":false,"rental_uris":{"android":"levelo://app?vid=47469edd-ed91-4b0e-a49a-8757f4e1f640","ios":"levelo://app?vid=47469edd-ed91-4b0e-a49a-8757f4e1f640"},"vehicle_type_id":"4","last_reported":1751958701,"current_range_meters":13600,"station_id":"ce4bh392rcd13ifvqdm0","pricing_plan_id":"cebpf4jnsgd1na2vs0mg"},{"bike_id":"dfc86629-43d8-4dd5-b3b8-8a6b2f791d1f","system_id":"levelo_inurba_marseille","lat":43.290387,"lon":5.399607,"is_reserved":false,"is_disabled":false,"rental_uris":{"android":"levelo://app?vid=dfc86629-43d8-4dd5-b3b8-8a6b2f791d1f","ios":"levelo://app?vid=dfc86629-43d8-4dd5-b3b8-8a6b2f791d1f"},"vehicle_type_id":"4","last_reported":1751958701,"current_range_meters":13600,"station_id":"ce4bh392rcd13ifvqdm0","pricing_plan_id":"cebpf4jnsgd1na2vs0mg"},{"bike_id":"d0c5d792-0761-4141-a0b1-6f288f3c6fc1","system_id":"levelo_inurba_marseille","lat":43.27178,"lon":5.392,"is_reserved":false,"is_disabled":false,"rental_uris":{"android":"levelo://app?vid=d0c5d792-0761-4141-a0b1-6f288f3c6fc1","ios":"levelo://app?vid=d0c5d792-0761-4141-a0b1-6f288f3c6fc1"},"vehicle_type_id":"4","last_reported":1751958701,"current_range_meters":13600,"station_id":"ce4bhhp2rcd13ifvqfm0","pricing_plan_id":"cebpf4jnsgd1na2vs0mg"},{"bike_id":"cc6ff4bb-5e7c-4300-b646-1ab807e54573","system_id":"levelo_inurba_marseille","lat":43.259346,"lon":5.409034,"is_reserved":false,"is_disabled":false,"rental_uris":{"android":"levelo://app?vid=cc6ff4bb-5e7c-4300-b646-1ab807e54573","ios":"levelo://app?vid=cc6ff4bb-5e7c-4300-b646-1ab807e54573"},"vehicle_type_id":"4","last_reported":1751958701,"current_range_meters":13600,"station_id":"ce4bhm92rcd13ifvqglg","pricing_plan_id":"cebpf4jnsgd1na2vs0mg"},{"bike_id":"513c2c87-4edc-461e-8055-04147f9d8658","system_id":"levelo_inurba_marseille","lat":43.25933,"lon":5.409103,"is_reserved":false,"is_disabled":false,"rental_uris":{"android":"levelo://app?vid=513c2c87-4edc-461e-8055-04147f9d8658","ios":"levelo://app?vid=513c2c87-4edc-461e-8055-04147f9d8658"},"vehicle_type_id":"4","last_reported":1751958701,"current_range_meters":13600,"station_id":"ce4bhm92rcd13ifvqglg","pricing_plan_id":"cebpf4jnsgd1na2vs0mg"},{"bike_id":"386f78c8-c5d2-4a60-91a0-e89087189dc8","system_id":"levelo_inurba_marseille","lat":43.25926,"lon":5.40888,"is_reserved":false,"is_disabled":false,"rental_uris":{"android":"levelo://app?vid=386f78c8-c5d2-4a60-91a0-e89087189dc8","ios":"levelo://app?vid=386f78c8-c5d2-4a60-91a0-e89087189dc8"},"vehicle_type_id":"4","last_reported":1751958701,"current_range_meters":13600,"station_id":"ce4bhm92rcd13ifvqglg","pricing_plan_id":"cebpf4jnsgd1na2vs0mg"},{"bike_id":"5564b255-061f-4143-b6a7-2760f2362f32","system_id":"levelo_inurba_marseille","lat":43.31356,"lon":5.36753,"is_reserved":false,"is_disabled":false,"rental_uris":{"android":"levelo://app?vid=5564b255-061f-4143-b6a7-2760f2362f32","ios":"levelo://app?vid=5564b255-061f-4143-b6a7-2760f2362f32"},"vehicle_type_id":"4","last_reported":1751958701,"current_range_meters":14000,"station_id":"ce4bgr92rcd13ifvqc6g","pricing_plan_id":"cebpf4jnsgd1na2vs0mg"},{"bike_id":"ef37d4e2-0ac0-46be-951e-4995a78ba684","system_id":"levelo_inurba_marseille","lat":43.25502,"lon":5.37624,"is_reserved":false,"is_disabled":false,"rental_uris":{"android":"levelo://app?vid=ef37d4e2-0ac0-46be-951e-4995a78ba684","ios":"levelo://app?vid=ef37d4e2-0ac0-46be-951e-4995a78ba684"},"vehicle_type_id":"4","last_reported":1751958701,"current_range_meters":14000,"station_id":"ce4bhh12rcd13ifvqff0","pricing_plan_id":"cebpf4jnsgd1na2vs0mg"},{"bike_id":"2fe78b45-c18f-4d39-81db-0f452e878cba","system_id":"levelo_inurba_marseille","lat":43.30356,"lon":5.42459,"is_reserved":false,"is_disabled":false,"rental_uris":{"android":"levelo://app?vid=2fe78b45-c18f-4d39-81db-0f452e878cba","ios":"levelo://app?vid=2fe78b45-c18f-4d39-81db-0f452e878cba"},"vehicle_type_id":"4","last_reported":1751958701,"current_range_meters":14000,"station_id":"ce4bhoh2rcd13ifvqh6g","pricing_plan_id":"cebpf4jnsgd1na2vs0mg"},{"bike_id":"35e10867-44a4-4944-be35-4effd4645ce8","system_id":"levelo_inurba_marseille","lat":43.29548,"lon":5.42289,"is_reserved":false,"is_disabled":false,"rental_uris":{"android":"levelo://app?vid=35e10867-44a4-4944-be35-4effd4645ce8","ios":"levelo://app?vid=35e10867-44a4-4944-be35-4effd4645ce8"},"vehicle_type_id":"4","last_reported":1751958701,"current_range_meters":14000,"station_id":"ce4bhph2rcd13ifvqhdg","pricing_plan_id":"cebpf4jnsgd1na2vs0mg"},{"bike_id":"64b4fa4f-0779-4ed7-89cb-2e78d143f36e","system_id":"levelo_inurba_marseille","lat":43.217529,"lon":5.345956,"is_reserved":false,"is_disabled":false,"rental_uris":{"android":"levelo://app?vid=64b4fa4f-0779-4ed7-89cb-2e78d143f36e","ios":"levelo://app?vid=64b4fa4f-0779-4ed7-89cb-2e78d143f36e"},"vehicle_type_id":"4","last_reported":1751958701,"current_range_meters":14000,"station_id":"st_cvj6r9ubvosntc0bgbag","pricing_plan_id":"cebpf4jnsgd1na2vs0mg"},{"bike_id":"427cea64-fc3b-46a4-bd25-2bad84cd1642","system_id":"levelo_inurba_marseille","lat":43.212022,"lon":5.350667,"is_reserved":false,"is_disabled":false,"rental_uris":{"android":"levelo://app?vid=427cea64-fc3b-46a4-bd25-2bad84cd1642","ios":"levelo://app?vid=427cea64-fc3b-46a4-bd25-2bad84cd1642"},"vehicle_type_id":"4","last_reported":1751958701,"current_range_meters":14000,"station_id":"st_cvj6sg6p6f1abm77japg","pricing_plan_id":"cebpf4jnsgd1na2vs0mg"},{"bike_id":"888522e3-39b6-4ff3-ad74-ff6c6f771157","system_id":"levelo_inurba_marseille","lat":43.29529,"lon":5.40265,"is_reserved":false,"is_disabled":false,"rental_uris":{"android":"levelo://app?vid=888522e3-39b6-4ff3-ad74-ff6c6f771157","ios":"levelo://app?vid=888522e3-39b6-4ff3-ad74-ff6c6f771157"},"vehicle_type_id":"4","last_reported":1751958701,"current_range_meters":14400,"station_id":"","pricing_plan_id":"cebpf4jnsgd1na2vs0mg"},{"bike_id":"cd74cf1d-3435-48cc-9bcb-d182108a4350","system_id":"levelo_inurba_marseille","lat":43.30543,"lon":5.36717,"is_reserved":false,"is_disabled":false,"rental_uris":{"android":"levelo://app?vid=cd74cf1d-3435-48cc-9bcb-d182108a4350","ios":"levelo://app?vid=cd74cf1d-3435-48cc-9bcb-d182108a4350"},"vehicle_type_id":"4","last_reported":1751958701,"current_range_meters":14400,"station_id":"ce4bgrp2rcd13ifvqc9g","pricing_plan_id":"cebpf4jnsgd1na2vs0mg"},{"bike_id":"a11f7711-06b5-48d4-ad64-228f8a05b25d","system_id":"levelo_inurba_marseille","lat":43.26677,"lon":5.38263,"is_reserved":false,"is_disabled":false,"rental_uris":{"android":"levelo://app?vid=a11f7711-06b5-48d4-ad64-228f8a05b25d","ios":"levelo://app?vid=a11f7711-06b5-48d4-ad64-228f8a05b25d"},"vehicle_type_id":"4","last_reported":1751958701,"current_range_meters":14400,"station_id":"ce4bhg92rcd13ifvqf90","pricing_plan_id":"cebpf4jnsgd1na2vs0mg"},{"bike_id":"d2e87ca7-b19c-4758-b063-cde3e32ef67e","system_id":"levelo_inurba_marseille","lat":43.26679,"lon":5.38271,"is_reserved":false,"is_disabled":false,"rental_uris":{"android":"levelo://app?vid=d2e87ca7-b19c-4758-b063-cde3e32ef67e","ios":"levelo://app?vid=d2e87ca7-b19c-4758-b063-cde3e32ef67e"},"vehicle_type_id":"4","last_reported":1751958701,"current_range_meters":14400,"station_id":"ce4bhg92rcd13ifvqf90","pricing_plan_id":"cebpf4jnsgd1na2vs0mg"},{"bike_id":"2acdb97e-7ea7-4c87-9236-5d0e97f4bb9f","system_id":"levelo_inurba_marseille","lat":43.2871,"lon":5.39959,"is_reserved":false,"is_disabled":false,"rental_uris":{"android":"levelo://app?vid=2acdb97e-7ea7-4c87-9236-5d0e97f4bb9f","ios":"levelo://app?vid=2acdb97e-7ea7-4c87-9236-5d0e97f4bb9f"},"vehicle_type_id":"4","last_reported":1751958701,"current_range_meters":14400,"station_id":"ce4bho92rcd13ifvqh3g","pricing_plan_id":"cebpf4jnsgd1na2vs0mg"},{"bike_id":"8c0e056d-abd2-464e-b3a5-fd410fb97ce4","system_id":"levelo_inurba_marseille","lat":43.30369,"lon":5.42481,"is_reserved":false,"is_disabled":false,"rental_uris":{"android":"levelo://app?vid=8c0e056d-abd2-464e-b3a5-fd410fb97ce4","ios":"levelo://app?vid=8c0e056d-abd2-464e-b3a5-fd410fb97ce4"},"vehicle_type_id":"4","last_reported":1751958701,"current_range_meters":14400,"station_id":"ce4bhoh2rcd13ifvqh6g","pricing_plan_id":"cebpf4jnsgd1na2vs0mg"},{"bike_id":"bcbe3056-9c38-4ff8-b15c-86a1f9a52cd9","system_id":"levelo_inurba_marseille","lat":43.31197,"lon":5.40191,"is_reserved":false,"is_disabled":false,"rental_uris":{"android":"levelo://app?vid=bcbe3056-9c38-4ff8-b15c-86a1f9a52cd9","ios":"levelo://app?vid=bcbe3056-9c38-4ff8-b15c-86a1f9a52cd9"},"vehicle_type_id":"4","last_reported":1751958701,"current_range_meters":14800,"station_id":"","pricing_plan_id":"cebpf4jnsgd1na2vs0mg"},{"bike_id":"6a3a3e65-1839-43d5-b574-3a73e4e32dac","system_id":"levelo_inurba_marseille","lat":43.32321,"lon":5.3887,"is_reserved":false,"is_disabled":false,"rental_uris":{"android":"levelo://app?vid=6a3a3e65-1839-43d5-b574-3a73e4e32dac","ios":"levelo://app?vid=6a3a3e65-1839-43d5-b574-3a73e4e32dac"},"vehicle_type_id":"4","last_reported":1751958701,"current_range_meters":14800,"station_id":"","pricing_plan_id":"cebpf4jnsgd1na2vs0mg"},{"bike_id":"f3b8ac35-65e0-4a78-a921-58c46ef0b20b","system_id":"levelo_inurba_marseille","lat":43.24181,"lon":5.39726,"is_reserved":false,"is_disabled":false,"rental_uris":{"android":"levelo://app?vid=f3b8ac35-65e0-4a78-a921-58c46ef0b20b","ios":"levelo://app?vid=f3b8ac35-65e0-4a78-a921-58c46ef0b20b"},"vehicle_type_id":"4","last_reported":1751958701,"current_range_meters":14800,"station_id":"ce4bhn12rcd13ifvqgpg","pricing_plan_id":"cebpf4jnsgd1na2vs0mg"},{"bike_id":"d5ef770d-9759-47e3-b3a5-7d2785ef76db","system_id":"levelo_inurba_marseille","lat":43.32929,"lon":5.39031,"is_reserved":false,"is_disabled":false,"rental_uris":{"android":"levelo://app?vid=d5ef770d-9759-47e3-b3a5-7d2785ef76db","ios":"levelo://app?vid=d5ef770d-9759-47e3-b3a5-7d2785ef76db"},"vehicle_type_id":"4","last_reported":1751958701,"current_range_meters":15200,"station_id":"","pricing_plan_id":"cebpf4jnsgd1na2vs0mg"},{"bike_id":"b23d026f-39b3-4875-b82a-aecc0799bd8d","system_id":"levelo_inurba_marseille","lat":43.3095,"lon":5.39035,"is_reserved":false,"is_disabled":false,"rental_uris":{"android":"levelo://app?vid=b23d026f-39b3-4875-b82a-aecc0799bd8d","ios":"levelo://app?vid=b23d026f-39b3-4875-b82a-aecc0799bd8d"},"vehicle_type_id":"4","last_reported":1751958701,"current_range_meters":15200,"station_id":"ce4bgup2rcd13ifvqco0","pricing_plan_id":"cebpf4jnsgd1na2vs0mg"},{"bike_id":"51890362-46b0-4ee7-9f02-afbf036d064e","system_id":"levelo_inurba_marseille","lat":43.211929,"lon":5.350718,"is_reserved":false,"is_disabled":false,"rental_uris":{"android":"levelo://app?vid=51890362-46b0-4ee7-9f02-afbf036d064e","ios":"levelo://app?vid=51890362-46b0-4ee7-9f02-afbf036d064e"},"vehicle_type_id":"4","last_reported":1751958701,"current_range_meters":15200,"station_id":"st_cvj6sg6p6f1abm77japg","pricing_plan_id":"cebpf4jnsgd1na2vs0mg"},{"bike_id":"f5c5d48c-b7cf-48a8-84f0-a80044871d04","system_id":"levelo_inurba_marseille","lat":43.264907,"lon":5.395394,"is_reserved":false,"is_disabled":false,"rental_uris":{"android":"levelo://app?vid=f5c5d48c-b7cf-48a8-84f0-a80044871d04","ios":"levelo://app?vid=f5c5d48c-b7cf-48a8-84f0-a80044871d04"},"vehicle_type_id":"4","last_reported":1751958701,"current_range_meters":16000,"station_id":"","pricing_plan_id":"cebpf4jnsgd1na2vs0mg"},{"bike_id":"13c84df3-55fc-4465-b582-17389625d267","system_id":"levelo_inurba_marseille","lat":43.260276,"lon":5.417421,"is_reserved":false,"is_disabled":false,"rental_uris":{"android":"levelo://app?vid=13c84df3-55fc-4465-b582-17389625d267","ios":"levelo://app?vid=13c84df3-55fc-4465-b582-17389625d267"},"vehicle_type_id":"4","last_reported":1751958701,"current_range_meters":16000,"station_id":"","pricing_plan_id":"cebpf4jnsgd1na2vs0mg"},{"bike_id":"f55e4238-4a40-432c-9ed1-3a649d4698bf","system_id":"levelo_inurba_marseille","lat":43.31361,"lon":5.36705,"is_reserved":false,"is_disabled":false,"rental_uris":{"android":"levelo://app?vid=f55e4238-4a40-432c-9ed1-3a649d4698bf","ios":"levelo://app?vid=f55e4238-4a40-432c-9ed1-3a649d4698bf"},"vehicle_type_id":"4","last_reported":1751958701,"current_range_meters":16000,"station_id":"ce4bgr92rcd13ifvqc6g","pricing_plan_id":"cebpf4jnsgd1na2vs0mg"},{"bike_id":"711a8bad-8df1-4410-bc03-bd989f73d4dd","system_id":"levelo_inurba_marseille","lat":43.269643,"lon":5.387575,"is_reserved":false,"is_disabled":false,"rental_uris":{"android":"levelo://app?vid=711a8bad-8df1-4410-bc03-bd989f73d4dd","ios":"levelo://app?vid=711a8bad-8df1-4410-bc03-bd989f73d4dd"},"vehicle_type_id":"4","last_reported":1751958701,"current_range_meters":16000,"station_id":"ce4bhi12rcd13ifvqfo0","pricing_plan_id":"cebpf4jnsgd1na2vs0mg"},{"bike_id":"8b60f337-8cbd-4944-afdf-67383b8b4b68","system_id":"levelo_inurba_marseille","lat":43.26204,"lon":5.3793,"is_reserved":false,"is_disabled":false,"rental_uris":{"android":"levelo://app?vid=8b60f337-8cbd-4944-afdf-67383b8b4b68","ios":"levelo://app?vid=8b60f337-8cbd-4944-afdf-67383b8b4b68"},"vehicle_type_id":"4","last_reported":1751958701,"current_range_meters":16000,"station_id":"ce4bhjp2rcd13ifvqg90","pricing_plan_id":"cebpf4jnsgd1na2vs0mg"},{"bike_id":"d78487cb-fa92-4db1-b4fa-56250fd7e81f","system_id":"levelo_inurba_marseille","lat":43.24891,"lon":5.39318,"is_reserved":false,"is_disabled":false,"rental_uris":{"android":"levelo://app?vid=d78487cb-fa92-4db1-b4fa-56250fd7e81f","ios":"levelo://app?vid=d78487cb-fa92-4db1-b4fa-56250fd7e81f"},"vehicle_type_id":"4","last_reported":1751958701,"current_range_meters":16400,"station_id":"","pricing_plan_id":"cebpf4jnsgd1na2vs0mg"},{"bike_id":"afd2c671-b274-4716-95f7-9abfdfc6dc55","system_id":"levelo_inurba_marseille","lat":43.31444,"lon":5.37543,"is_reserved":false,"is_disabled":false,"rental_uris":{"android":"levelo://app?vid=afd2c671-b274-4716-95f7-9abfdfc6dc55","ios":"levelo://app?vid=afd2c671-b274-4716-95f7-9abfdfc6dc55"},"vehicle_type_id":"4","last_reported":1751958701,"current_range_meters":16400,"station_id":"","pricing_plan_id":"cebpf4jnsgd1na2vs0mg"},{"bike_id":"87c2d236-4978-4760-be77-27d7f5a212e4","system_id":"levelo_inurba_marseille","lat":43.29644,"lon":5.36205,"is_reserved":false,"is_disabled":false,"rental_uris":{"android":"levelo://app?vid=87c2d236-4978-4760-be77-27d7f5a212e4","ios":"levelo://app?vid=87c2d236-4978-4760-be77-27d7f5a212e4"},"vehicle_type_id":"4","last_reported":1751958701,"current_range_meters":16400,"station_id":"","pricing_plan_id":"cebpf4jnsgd1na2vs0mg"},{"bike_id":"e30bc87a-1261-4ed4-ab35-70d03e2a416d","system_id":"levelo_inurba_marseille","lat":43.29609,"lon":5.37728,"is_reserved":false,"is_disabled":false,"rental_uris":{"android":"levelo://app?vid=e30bc87a-1261-4ed4-ab35-70d03e2a416d","ios":"levelo://app?vid=e30bc87a-1261-4ed4-ab35-70d03e2a416d"},"vehicle_type_id":"4","last_reported":1751958701,"current_range_meters":16400,"station_id":"ce4bgi92rcd13ifvqb90","pricing_plan_id":"cebpf4jnsgd1na2vs0mg"},{"bike_id":"4286ff59-2bc5-4090-a86c-8916e2e28188","system_id":"levelo_inurba_marseille","lat":43.289434,"lon":5.396271,"is_reserved":false,"is_disabled":false,"rental_uris":{"android":"levelo://app?vid=4286ff59-2bc5-4090-a86c-8916e2e28188","ios":"levelo://app?vid=4286ff59-2bc5-4090-a86c-8916e2e28188"},"vehicle_type_id":"4","last_reported":1751958701,"current_range_meters":16400,"station_id":"ce4bh3h2rcd13ifvqdn0","pricing_plan_id":"cebpf4jnsgd1na2vs0mg"},{"bike_id":"111cad53-4c1d-4254-97f4-ee6f00ad1981","system_id":"levelo_inurba_marseille","lat":43.28937,"lon":5.39632,"is_reserved":false,"is_disabled":false,"rental_uris":{"android":"levelo://app?vid=111cad53-4c1d-4254-97f4-ee6f00ad1981","ios":"levelo://app?vid=111cad53-4c1d-4254-97f4-ee6f00ad1981"},"vehicle_type_id":"4","last_reported":1751958701,"current_range_meters":16400,"station_id":"ce4bh3h2rcd13ifvqdn0","pricing_plan_id":"cebpf4jnsgd1na2vs0mg"},{"bike_id":"8ba6315e-6728-4fe5-b7a5-582d37e8e3a1","system_id":"levelo_inurba_marseille","lat":43.27944,"lon":5.41051,"is_reserved":false,"is_disabled":false,"rental_uris":{"android":"levelo://app?vid=8ba6315e-6728-4fe5-b7a5-582d37e8e3a1","ios":"levelo://app?vid=8ba6315e-6728-4fe5-b7a5-582d37e8e3a1"},"vehicle_type_id":"4","last_reported":1751958701,"current_range_meters":16400,"station_id":"ce4bhnp2rcd13ifvqh0g","pricing_plan_id":"cebpf4jnsgd1na2vs0mg"},{"bike_id":"6649721b-1a91-4e50-b39b-63f5e7e53122","system_id":"levelo_inurba_marseille","lat":43.3234,"lon":5.40627,"is_reserved":false,"is_disabled":false,"rental_uris":{"android":"levelo://app?vid=6649721b-1a91-4e50-b39b-63f5e7e53122","ios":"levelo://app?vid=6649721b-1a91-4e50-b39b-63f5e7e53122"},"vehicle_type_id":"4","last_reported":1751958701,"current_range_meters":16400,"station_id":"ce4bhq92rcd13ifvqhjg","pricing_plan_id":"cebpf4jnsgd1na2vs0mg"},{"bike_id":"d089f3fd-319b-46b4-a1b6-d6ef1ab6d33a","system_id":"levelo_inurba_marseille","lat":43.29976,"lon":5.37178,"is_reserved":false,"is_disabled":false,"rental_uris":{"android":"levelo://app?vid=d089f3fd-319b-46b4-a1b6-d6ef1ab6d33a","ios":"levelo://app?vid=d089f3fd-319b-46b4-a1b6-d6ef1ab6d33a"},"vehicle_type_id":"4","last_reported":1751958701,"current_range_meters":16800,"station_id":"ce4bgr92rcd13ifvqc7g","pricing_plan_id":"cebpf4jnsgd1na2vs0mg"},{"bike_id":"13644c56-40c2-4601-be4f-62fbade2142e","system_id":"levelo_inurba_marseille","lat":43.28921,"lon":5.39618,"is_reserved":false,"is_disabled":false,"rental_uris":{"android":"levelo://app?vid=13644c56-40c2-4601-be4f-62fbade2142e","ios":"levelo://app?vid=13644c56-40c2-4601-be4f-62fbade2142e"},"vehicle_type_id":"4","last_reported":1751958701,"current_range_meters":16800,"station_id":"ce4bh3h2rcd13ifvqdn0","pricing_plan_id":"cebpf4jnsgd1na2vs0mg"},{"bike_id":"da9e0cc6-b739-410b-895b-cad8f90bf164","system_id":"levelo_inurba_marseille","lat":43.262,"lon":5.37934,"is_reserved":false,"is_disabled":false,"rental_uris":{"android":"levelo://app?vid=da9e0cc6-b739-410b-895b-cad8f90bf164","ios":"levelo://app?vid=da9e0cc6-b739-410b-895b-cad8f90bf164"},"vehicle_type_id":"4","last_reported":1751958701,"current_range_meters":16800,"station_id":"ce4bhjp2rcd13ifvqg90","pricing_plan_id":"cebpf4jnsgd1na2vs0mg"},{"bike_id":"6228872c-3df3-4178-9c29-7ff5a89ebe4b","system_id":"levelo_inurba_marseille","lat":43.28718,"lon":5.399837,"is_reserved":false,"is_disabled":false,"rental_uris":{"android":"levelo://app?vid=6228872c-3df3-4178-9c29-7ff5a89ebe4b","ios":"levelo://app?vid=6228872c-3df3-4178-9c29-7ff5a89ebe4b"},"vehicle_type_id":"4","last_reported":1751958701,"current_range_meters":16800,"station_id":"ce4bho92rcd13ifvqh3g","pricing_plan_id":"cebpf4jnsgd1na2vs0mg"},{"bike_id":"6acb8a5e-8ed9-47e1-85c4-ca3213fe5a29","system_id":"levelo_inurba_marseille","lat":43.31363,"lon":5.36725,"is_reserved":false,"is_disabled":false,"rental_uris":{"android":"levelo://app?vid=6acb8a5e-8ed9-47e1-85c4-ca3213fe5a29","ios":"levelo://app?vid=6acb8a5e-8ed9-47e1-85c4-ca3213fe5a29"},"vehicle_type_id":"4","last_reported":1751958701,"current_range_meters":17200,"station_id":"ce4bgr92rcd13ifvqc6g","pricing_plan_id":"cebpf4jnsgd1na2vs0mg"},{"bike_id":"6ffee8b1-2603-45c2-884d-12d107053649","system_id":"levelo_inurba_marseille","lat":43.28866,"lon":5.35841,"is_reserved":false,"is_disabled":false,"rental_uris":{"android":"levelo://app?vid=6ffee8b1-2603-45c2-884d-12d107053649","ios":"levelo://app?vid=6ffee8b1-2603-45c2-884d-12d107053649"},"vehicle_type_id":"4","last_reported":1751958701,"current_range_meters":17200,"station_id":"ce4bhb12rcd13ifvqem0","pricing_plan_id":"cebpf4jnsgd1na2vs0mg"},{"bike_id":"4755992c-9d62-4c57-b744-ac292db44b08","system_id":"levelo_inurba_marseille","lat":43.24544,"lon":5.39527,"is_reserved":false,"is_disabled":false,"rental_uris":{"android":"levelo://app?vid=4755992c-9d62-4c57-b744-ac292db44b08","ios":"levelo://app?vid=4755992c-9d62-4c57-b744-ac292db44b08"},"vehicle_type_id":"4","last_reported":1751958701,"current_range_meters":17200,"station_id":"ce4bhlp2rcd13ifvqgjg","pricing_plan_id":"cebpf4jnsgd1na2vs0mg"},{"bike_id":"dac8ed43-8660-4765-bbc6-2a32ac173de0","system_id":"levelo_inurba_marseille","lat":43.32481,"lon":5.36572,"is_reserved":false,"is_disabled":false,"rental_uris":{"android":"levelo://app?vid=dac8ed43-8660-4765-bbc6-2a32ac173de0","ios":"levelo://app?vid=dac8ed43-8660-4765-bbc6-2a32ac173de0"},"vehicle_type_id":"4","last_reported":1751958701,"current_range_meters":17200,"station_id":"ce4bhs12rcd13ifvqhvg","pricing_plan_id":"cebpf4jnsgd1na2vs0mg"},{"bike_id":"20f8549d-efca-40aa-8f4b-c4e657a161c9","system_id":"levelo_inurba_marseille","lat":43.217424,"lon":5.346026,"is_reserved":false,"is_disabled":false,"rental_uris":{"android":"levelo://app?vid=20f8549d-efca-40aa-8f4b-c4e657a161c9","ios":"levelo://app?vid=20f8549d-efca-40aa-8f4b-c4e657a161c9"},"vehicle_type_id":"4","last_reported":1751958701,"current_range_meters":17600,"station_id":"","pricing_plan_id":"cebpf4jnsgd1na2vs0mg"},{"bike_id":"94e835ab-51bf-4e08-aac8-3196f327f440","system_id":"levelo_inurba_marseille","lat":43.25492,"lon":5.37653,"is_reserved":false,"is_disabled":false,"rental_uris":{"android":"levelo://app?vid=94e835ab-51bf-4e08-aac8-3196f327f440","ios":"levelo://app?vid=94e835ab-51bf-4e08-aac8-3196f327f440"},"vehicle_type_id":"4","last_reported":1751958701,"current_range_meters":17600,"station_id":"ce4bhh12rcd13ifvqff0","pricing_plan_id":"cebpf4jnsgd1na2vs0mg"},{"bike_id":"9af7211a-ee73-4988-8b4d-1279621d6941","system_id":"levelo_inurba_marseille","lat":43.26224,"lon":5.4044,"is_reserved":false,"is_disabled":false,"rental_uris":{"android":"levelo://app?vid=9af7211a-ee73-4988-8b4d-1279621d6941","ios":"levelo://app?vid=9af7211a-ee73-4988-8b4d-1279621d6941"},"vehicle_type_id":"4","last_reported":1751958701,"current_range_meters":17600,"station_id":"ce4bhmh2rcd13ifvqgmg","pricing_plan_id":"cebpf4jnsgd1na2vs0mg"},{"bike_id":"a0967684-aa48-48c0-a325-5bbf21808b32","system_id":"levelo_inurba_marseille","lat":43.32489,"lon":5.365647,"is_reserved":false,"is_disabled":false,"rental_uris":{"android":"levelo://app?vid=a0967684-aa48-48c0-a325-5bbf21808b32","ios":"levelo://app?vid=a0967684-aa48-48c0-a325-5bbf21808b32"},"vehicle_type_id":"4","last_reported":1751958701,"current_range_meters":17600,"station_id":"ce4bhs12rcd13ifvqhvg","pricing_plan_id":"cebpf4jnsgd1na2vs0mg"},{"bike_id":"ea7df389-5dc0-4c58-88fe-80a5af035925","system_id":"levelo_inurba_marseille","lat":43.298411,"lon":5.364282,"is_reserved":false,"is_disabled":false,"rental_uris":{"android":"levelo://app?vid=ea7df389-5dc0-4c58-88fe-80a5af035925","ios":"levelo://app?vid=ea7df389-5dc0-4c58-88fe-80a5af035925"},"vehicle_type_id":"4","last_reported":1751958701,"current_range_meters":18000,"station_id":"","pricing_plan_id":"cebpf4jnsgd1na2vs0mg"},{"bike_id":"8eb6164e-362a-4621-ba04-7a4cd1de43ee","system_id":"levelo_inurba_marseille","lat":43.29637,"lon":5.3718,"is_reserved":false,"is_disabled":false,"rental_uris":{"android":"levelo://app?vid=8eb6164e-362a-4621-ba04-7a4cd1de43ee","ios":"levelo://app?vid=8eb6164e-362a-4621-ba04-7a4cd1de43ee"},"vehicle_type_id":"4","last_reported":1751958701,"current_range_meters":18000,"station_id":"ce4bgnh2rcd13ifvqc0g","pricing_plan_id":"cebpf4jnsgd1na2vs0mg"},{"bike_id":"a7f08aad-5f7e-4c70-9165-efb06b46bc82","system_id":"levelo_inurba_marseille","lat":43.30312,"lon":5.36882,"is_reserved":false,"is_disabled":false,"rental_uris":{"android":"levelo://app?vid=a7f08aad-5f7e-4c70-9165-efb06b46bc82","ios":"levelo://app?vid=a7f08aad-5f7e-4c70-9165-efb06b46bc82"},"vehicle_type_id":"4","last_reported":1751958701,"current_range_meters":18000,"station_id":"ce4bgqh2rcd13ifvqc5g","pricing_plan_id":"cebpf4jnsgd1na2vs0mg"},{"bike_id":"91caa7cf-da48-4b77-92af-de77619dbcc7","system_id":"levelo_inurba_marseille","lat":43.30524,"lon":5.36716,"is_reserved":false,"is_disabled":false,"rental_uris":{"android":"levelo://app?vid=91caa7cf-da48-4b77-92af-de77619dbcc7","ios":"levelo://app?vid=91caa7cf-da48-4b77-92af-de77619dbcc7"},"vehicle_type_id":"4","last_reported":1751958701,"current_range_meters":18000,"station_id":"ce4bgrp2rcd13ifvqc9g","pricing_plan_id":"cebpf4jnsgd1na2vs0mg"},{"bike_id":"a95f90c9-84c8-4e72-9093-fa109d73a445","system_id":"levelo_inurba_marseille","lat":43.30427,"lon":5.39749,"is_reserved":false,"is_disabled":false,"rental_uris":{"android":"levelo://app?vid=a95f90c9-84c8-4e72-9093-fa109d73a445","ios":"levelo://app?vid=a95f90c9-84c8-4e72-9093-fa109d73a445"},"vehicle_type_id":"4","last_reported":1751958701,"current_range_meters":18000,"station_id":"ce4bh092rcd13ifvqd20","pricing_plan_id":"cebpf4jnsgd1na2vs0mg"},{"bike_id":"09dc1f42-e661-4e5c-8d03-24fc62d8a8a0","system_id":"levelo_inurba_marseille","lat":43.25103,"lon":5.40347,"is_reserved":false,"is_disabled":false,"rental_uris":{"android":"levelo://app?vid=09dc1f42-e661-4e5c-8d03-24fc62d8a8a0","ios":"levelo://app?vid=09dc1f42-e661-4e5c-8d03-24fc62d8a8a0"},"vehicle_type_id":"4","last_reported":1751958701,"current_range_meters":18000,"station_id":"ce4bhlh2rcd13ifvqgig","pricing_plan_id":"cebpf4jnsgd1na2vs0mg"},{"bike_id":"b287377f-3d0b-47ac-86fe-9e0dfc1563de","system_id":"levelo_inurba_marseille","lat":43.22509,"lon":5.34764,"is_reserved":false,"is_disabled":false,"rental_uris":{"android":"levelo://app?vid=b287377f-3d0b-47ac-86fe-9e0dfc1563de","ios":"levelo://app?vid=b287377f-3d0b-47ac-86fe-9e0dfc1563de"},"vehicle_type_id":"4","last_reported":1751958701,"current_range_meters":18000,"station_id":"st_cvj5dfep6f1abm77gieg","pricing_plan_id":"cebpf4jnsgd1na2vs0mg"},{"bike_id":"44e5acdf-f072-4a26-8a20-4b5aedc1239f","system_id":"levelo_inurba_marseille","lat":43.30916,"lon":5.3685,"is_reserved":false,"is_disabled":false,"rental_uris":{"android":"levelo://app?vid=44e5acdf-f072-4a26-8a20-4b5aedc1239f","ios":"levelo://app?vid=44e5acdf-f072-4a26-8a20-4b5aedc1239f"},"vehicle_type_id":"4","last_reported":1751958701,"current_range_meters":18800,"station_id":"ce4bgn92rcd13ifvqbvg","pricing_plan_id":"cebpf4jnsgd1na2vs0mg"},{"bike_id":"6e0cb045-7a78-4a10-92d3-cbf7399a39df","system_id":"levelo_inurba_marseille","lat":43.26953,"lon":5.38629,"is_reserved":false,"is_disabled":false,"rental_uris":{"android":"levelo://app?vid=6e0cb045-7a78-4a10-92d3-cbf7399a39df","ios":"levelo://app?vid=6e0cb045-7a78-4a10-92d3-cbf7399a39df"},"vehicle_type_id":"4","last_reported":1751958701,"current_range_meters":18800,"station_id":"ce4bhh92rcd13ifvqfh0","pricing_plan_id":"cebpf4jnsgd1na2vs0mg"},{"bike_id":"fe434c5a-6d91-4d71-8d15-b6570f2a66e8","system_id":"levelo_inurba_marseille","lat":43.24393,"lon":5.37056,"is_reserved":false,"is_disabled":false,"rental_uris":{"android":"levelo://app?vid=fe434c5a-6d91-4d71-8d15-b6570f2a66e8","ios":"levelo://app?vid=fe434c5a-6d91-4d71-8d15-b6570f2a66e8"},"vehicle_type_id":"4","last_reported":1751958701,"current_range_meters":18800,"station_id":"ce4bhhh2rcd13ifvqfk0","pricing_plan_id":"cebpf4jnsgd1na2vs0mg"},{"bike_id":"74b628be-cd3c-405d-9e98-a7581ad6a167","system_id":"levelo_inurba_marseille","lat":43.25938,"lon":5.40896,"is_reserved":false,"is_disabled":false,"rental_uris":{"android":"levelo://app?vid=74b628be-cd3c-405d-9e98-a7581ad6a167","ios":"levelo://app?vid=74b628be-cd3c-405d-9e98-a7581ad6a167"},"vehicle_type_id":"4","last_reported":1751958701,"current_range_meters":18800,"station_id":"ce4bhm92rcd13ifvqglg","pricing_plan_id":"cebpf4jnsgd1na2vs0mg"},{"bike_id":"533874ce-3879-4efa-a214-6ba7be8bdc8c","system_id":"levelo_inurba_marseille","lat":43.241855,"lon":5.397272,"is_reserved":false,"is_disabled":false,"rental_uris":{"android":"levelo://app?vid=533874ce-3879-4efa-a214-6ba7be8bdc8c","ios":"levelo://app?vid=533874ce-3879-4efa-a214-6ba7be8bdc8c"},"vehicle_type_id":"4","last_reported":1751958701,"current_range_meters":18800,"station_id":"ce4bhn12rcd13ifvqgpg","pricing_plan_id":"cebpf4jnsgd1na2vs0mg"},{"bike_id":"6f95aa3d-16f6-4202-bc85-2719195ddcb9","system_id":"levelo_inurba_marseille","lat":43.23185,"lon":5.39973,"is_reserved":false,"is_disabled":false,"rental_uris":{"android":"levelo://app?vid=6f95aa3d-16f6-4202-bc85-2719195ddcb9","ios":"levelo://app?vid=6f95aa3d-16f6-4202-bc85-2719195ddcb9"},"vehicle_type_id":"4","last_reported":1751958701,"current_range_meters":18800,"station_id":"ce4bhn12rcd13ifvqgqg","pricing_plan_id":"cebpf4jnsgd1na2vs0mg"},{"bike_id":"e510547d-5e7f-401c-81e9-a7b1e5bdf04d","system_id":"levelo_inurba_marseille","lat":43.29268,"lon":5.37631,"is_reserved":false,"is_disabled":false,"rental_uris":{"android":"levelo://app?vid=e510547d-5e7f-401c-81e9-a7b1e5bdf04d","ios":"levelo://app?vid=e510547d-5e7f-401c-81e9-a7b1e5bdf04d"},"vehicle_type_id":"4","last_reported":1751958701,"current_range_meters":19200,"station_id":"ce4bgi12rcd13ifvqb80","pricing_plan_id":"cebpf4jnsgd1na2vs0mg"},{"bike_id":"a3fdcdf8-b5b2-4037-91ca-fbaa718d041a","system_id":"levelo_inurba_marseille","lat":43.30454,"lon":5.37921,"is_reserved":false,"is_disabled":false,"rental_uris":{"android":"levelo://app?vid=a3fdcdf8-b5b2-4037-91ca-fbaa718d041a","ios":"levelo://app?vid=a3fdcdf8-b5b2-4037-91ca-fbaa718d041a"},"vehicle_type_id":"4","last_reported":1751958701,"current_range_meters":19200,"station_id":"ce4bgup2rcd13ifvqcn0","pricing_plan_id":"cebpf4jnsgd1na2vs0mg"},{"bike_id":"a7b204a4-6cab-4ecc-b9c1-0b73bad7c61d","system_id":"levelo_inurba_marseille","lat":43.26212,"lon":5.37441,"is_reserved":false,"is_disabled":false,"rental_uris":{"android":"levelo://app?vid=a7b204a4-6cab-4ecc-b9c1-0b73bad7c61d","ios":"levelo://app?vid=a7b204a4-6cab-4ecc-b9c1-0b73bad7c61d"},"vehicle_type_id":"4","last_reported":1751958701,"current_range_meters":19200,"station_id":"ce4bhgp2rcd13ifvqfc0","pricing_plan_id":"cebpf4jnsgd1na2vs0mg"},{"bike_id":"8af3bab5-67ca-4001-a1bb-3e99bc14c96c","system_id":"levelo_inurba_marseille","lat":43.229383,"lon":5.353884,"is_reserved":false,"is_disabled":false,"rental_uris":{"android":"levelo://app?vid=8af3bab5-67ca-4001-a1bb-3e99bc14c96c","ios":"levelo://app?vid=8af3bab5-67ca-4001-a1bb-3e99bc14c96c"},"vehicle_type_id":"4","last_reported":1751958701,"current_range_meters":19200,"station_id":"cpo3532slgdg3j2ikp40","pricing_plan_id":"cebpf4jnsgd1na2vs0mg"},{"bike_id":"1d8d682c-2f49-49f2-a1cd-46b296d570cd","system_id":"levelo_inurba_marseille","lat":43.3073,"lon":5.42442,"is_reserved":false,"is_disabled":false,"rental_uris":{"android":"levelo://app?vid=1d8d682c-2f49-49f2-a1cd-46b296d570cd","ios":"levelo://app?vid=1d8d682c-2f49-49f2-a1cd-46b296d570cd"},"vehicle_type_id":"4","last_reported":1751958701,"current_range_meters":19200,"station_id":"st_cvj6ca6bvosntc0bfgr0","pricing_plan_id":"cebpf4jnsgd1na2vs0mg"},{"bike_id":"1e91cee9-7d4a-458c-9805-68ef6c30eb40","system_id":"levelo_inurba_marseille","lat":43.217484,"lon":5.345913,"is_reserved":false,"is_disabled":false,"rental_uris":{"android":"levelo://app?vid=1e91cee9-7d4a-458c-9805-68ef6c30eb40","ios":"levelo://app?vid=1e91cee9-7d4a-458c-9805-68ef6c30eb40"},"vehicle_type_id":"4","last_reported":1751958701,"current_range_meters":19200,"station_id":"st_cvj6r9ubvosntc0bgbag","pricing_plan_id":"cebpf4jnsgd1na2vs0mg"},{"bike_id":"d0f90c24-dd03-411b-9731-55305f76b7c8","system_id":"levelo_inurba_marseille","lat":43.21188,"lon":5.3508,"is_reserved":false,"is_disabled":false,"rental_uris":{"android":"levelo://app?vid=d0f90c24-dd03-411b-9731-55305f76b7c8","ios":"levelo://app?vid=d0f90c24-dd03-411b-9731-55305f76b7c8"},"vehicle_type_id":"4","last_reported":1751958701,"current_range_meters":19200,"station_id":"st_cvj6sg6p6f1abm77japg","pricing_plan_id":"cebpf4jnsgd1na2vs0mg"},{"bike_id":"27c078c5-7232-46ce-bd97-cf7bc40d0b63","system_id":"levelo_inurba_marseille","lat":43.29522,"lon":5.390318,"is_reserved":false,"is_disabled":false,"rental_uris":{"android":"levelo://app?vid=27c078c5-7232-46ce-bd97-cf7bc40d0b63","ios":"levelo://app?vid=27c078c5-7232-46ce-bd97-cf7bc40d0b63"},"vehicle_type_id":"4","last_reported":1751958701,"current_range_meters":19600,"station_id":"","pricing_plan_id":"cebpf4jnsgd1na2vs0mg"},{"bike_id":"e4793d5e-b4cd-4c12-b9d4-446cb97752b9","system_id":"levelo_inurba_marseille","lat":43.292745,"lon":5.39054,"is_reserved":false,"is_disabled":false,"rental_uris":{"android":"levelo://app?vid=e4793d5e-b4cd-4c12-b9d4-446cb97752b9","ios":"levelo://app?vid=e4793d5e-b4cd-4c12-b9d4-446cb97752b9"},"vehicle_type_id":"4","last_reported":1751958701,"current_range_meters":19600,"station_id":"","pricing_plan_id":"cebpf4jnsgd1na2vs0mg"},{"bike_id":"f5c16f07-bc6f-4121-91a7-5ad90eec4f34","system_id":"levelo_inurba_marseille","lat":43.312069,"lon":5.373189,"is_reserved":false,"is_disabled":false,"rental_uris":{"android":"levelo://app?vid=f5c16f07-bc6f-4121-91a7-5ad90eec4f34","ios":"levelo://app?vid=f5c16f07-bc6f-4121-91a7-5ad90eec4f34"},"vehicle_type_id":"4","last_reported":1751958701,"current_range_meters":19600,"station_id":"","pricing_plan_id":"cebpf4jnsgd1na2vs0mg"},{"bike_id":"31c8b4ca-76e5-48ff-b98e-e8afd6e97038","system_id":"levelo_inurba_marseille","lat":43.313023,"lon":5.368328,"is_reserved":false,"is_disabled":false,"rental_uris":{"android":"levelo://app?vid=31c8b4ca-76e5-48ff-b98e-e8afd6e97038","ios":"levelo://app?vid=31c8b4ca-76e5-48ff-b98e-e8afd6e97038"},"vehicle_type_id":"4","last_reported":1751958701,"current_range_meters":19600,"station_id":"ce4bgl92rcd13ifvqbq0","pricing_plan_id":"cebpf4jnsgd1na2vs0mg"},{"bike_id":"964e50f4-2e53-487d-b684-7178cc91bdf2","system_id":"levelo_inurba_marseille","lat":43.29852,"lon":5.36287,"is_reserved":false,"is_disabled":false,"rental_uris":{"android":"levelo://app?vid=964e50f4-2e53-487d-b684-7178cc91bdf2","ios":"levelo://app?vid=964e50f4-2e53-487d-b684-7178cc91bdf2"},"vehicle_type_id":"4","last_reported":1751958701,"current_range_meters":19600,"station_id":"ce4bgpp2rcd13ifvqc3g","pricing_plan_id":"cebpf4jnsgd1na2vs0mg"},{"bike_id":"8bb41b88-26b4-4649-8eb1-f744e8c1599d","system_id":"levelo_inurba_marseille","lat":43.30305,"lon":5.36888,"is_reserved":false,"is_disabled":false,"rental_uris":{"android":"levelo://app?vid=8bb41b88-26b4-4649-8eb1-f744e8c1599d","ios":"levelo://app?vid=8bb41b88-26b4-4649-8eb1-f744e8c1599d"},"vehicle_type_id":"4","last_reported":1751958701,"current_range_meters":19600,"station_id":"ce4bgqh2rcd13ifvqc5g","pricing_plan_id":"cebpf4jnsgd1na2vs0mg"},{"bike_id":"c2b72fe0-bae6-4c7b-ad48-9e771b203dc8","system_id":"levelo_inurba_marseille","lat":43.31359,"lon":5.384621,"is_reserved":false,"is_disabled":false,"rental_uris":{"android":"levelo://app?vid=c2b72fe0-bae6-4c7b-ad48-9e771b203dc8","ios":"levelo://app?vid=c2b72fe0-bae6-4c7b-ad48-9e771b203dc8"},"vehicle_type_id":"4","last_reported":1751958701,"current_range_meters":19600,"station_id":"ce4bgt92rcd13ifvqcf0","pricing_plan_id":"cebpf4jnsgd1na2vs0mg"},{"bike_id":"45591190-f306-45e6-9747-c928fdd84db7","system_id":"levelo_inurba_marseille","lat":43.31119,"lon":5.37758,"is_reserved":false,"is_disabled":false,"rental_uris":{"android":"levelo://app?vid=45591190-f306-45e6-9747-c928fdd84db7","ios":"levelo://app?vid=45591190-f306-45e6-9747-c928fdd84db7"},"vehicle_type_id":"4","last_reported":1751958701,"current_range_meters":19600,"station_id":"ce4bgt92rcd13ifvqcg0","pricing_plan_id":"cebpf4jnsgd1na2vs0mg"},{"bike_id":"add0a7ad-5533-4044-ab72-bdb3f7720e39","system_id":"levelo_inurba_marseille","lat":43.25938,"lon":5.40899,"is_reserved":false,"is_disabled":false,"rental_uris":{"android":"levelo://app?vid=add0a7ad-5533-4044-ab72-bdb3f7720e39","ios":"levelo://app?vid=add0a7ad-5533-4044-ab72-bdb3f7720e39"},"vehicle_type_id":"4","last_reported":1751958701,"current_range_meters":19600,"station_id":"ce4bhm92rcd13ifvqglg","pricing_plan_id":"cebpf4jnsgd1na2vs0mg"},{"bike_id":"5e4b110f-4f34-4a9e-a5f5-7ace7520bbd5","system_id":"levelo_inurba_marseille","lat":43.29676,"lon":5.37424,"is_reserved":false,"is_disabled":false,"rental_uris":{"android":"levelo://app?vid=5e4b110f-4f34-4a9e-a5f5-7ace7520bbd5","ios":"levelo://app?vid=5e4b110f-4f34-4a9e-a5f5-7ace7520bbd5"},"vehicle_type_id":"4","last_reported":1751958701,"current_range_meters":20000,"station_id":"","pricing_plan_id":"cebpf4jnsgd1na2vs0mg"},{"bike_id":"4df46636-e99e-4f29-881b-2bb8fb2b7b39","system_id":"levelo_inurba_marseille","lat":43.31229,"lon":5.36866,"is_reserved":false,"is_disabled":false,"rental_uris":{"android":"levelo://app?vid=4df46636-e99e-4f29-881b-2bb8fb2b7b39","ios":"levelo://app?vid=4df46636-e99e-4f29-881b-2bb8fb2b7b39"},"vehicle_type_id":"4","last_reported":1751958701,"current_range_meters":20000,"station_id":"ce4bgl92rcd13ifvqbq0","pricing_plan_id":"cebpf4jnsgd1na2vs0mg"},{"bike_id":"81e6cee0-d214-4c9f-90f4-4fef55de0bc8","system_id":"levelo_inurba_marseille","lat":43.30794,"lon":5.38165,"is_reserved":false,"is_disabled":false,"rental_uris":{"android":"levelo://app?vid=81e6cee0-d214-4c9f-90f4-4fef55de0bc8","ios":"levelo://app?vid=81e6cee0-d214-4c9f-90f4-4fef55de0bc8"},"vehicle_type_id":"4","last_reported":1751958701,"current_range_meters":20000,"station_id":"ce4bgt12rcd13ifvqce0","pricing_plan_id":"cebpf4jnsgd1na2vs0mg"},{"bike_id":"8fb5b1f9-46f3-4b81-a979-82dee99d5243","system_id":"levelo_inurba_marseille","lat":43.25924,"lon":5.40899,"is_reserved":false,"is_disabled":false,"rental_uris":{"android":"levelo://app?vid=8fb5b1f9-46f3-4b81-a979-82dee99d5243","ios":"levelo://app?vid=8fb5b1f9-46f3-4b81-a979-82dee99d5243"},"vehicle_type_id":"4","last_reported":1751958701,"current_range_meters":20000,"station_id":"ce4bhm92rcd13ifvqglg","pricing_plan_id":"cebpf4jnsgd1na2vs0mg"},{"bike_id":"868bde2f-b341-48f9-9c4f-9d36adc96217","system_id":"levelo_inurba_marseille","lat":43.25938,"lon":5.40903,"is_reserved":false,"is_disabled":false,"rental_uris":{"android":"levelo://app?vid=868bde2f-b341-48f9-9c4f-9d36adc96217","ios":"levelo://app?vid=868bde2f-b341-48f9-9c4f-9d36adc96217"},"vehicle_type_id":"4","last_reported":1751958701,"current_range_meters":20000,"station_id":"ce4bhm92rcd13ifvqglg","pricing_plan_id":"cebpf4jnsgd1na2vs0mg"},{"bike_id":"fb4122cd-0277-4297-8cd5-1b777b465e3e","system_id":"levelo_inurba_marseille","lat":43.24086,"lon":5.377601,"is_reserved":false,"is_disabled":false,"rental_uris":{"android":"levelo://app?vid=fb4122cd-0277-4297-8cd5-1b777b465e3e","ios":"levelo://app?vid=fb4122cd-0277-4297-8cd5-1b777b465e3e"},"vehicle_type_id":"4","last_reported":1751958701,"current_range_meters":20000,"station_id":"ce4bhnp2rcd13ifvqgvg","pricing_plan_id":"cebpf4jnsgd1na2vs0mg"},{"bike_id":"2fb1b239-fc78-4633-9fc8-bcc808e91438","system_id":"levelo_inurba_marseille","lat":43.32364,"lon":5.3887,"is_reserved":false,"is_disabled":false,"rental_uris":{"android":"levelo://app?vid=2fb1b239-fc78-4633-9fc8-bcc808e91438","ios":"levelo://app?vid=2fb1b239-fc78-4633-9fc8-bcc808e91438"},"vehicle_type_id":"4","last_reported":1751958701,"current_range_meters":20000,"station_id":"ce4bhqp2rcd13ifvqhog","pricing_plan_id":"cebpf4jnsgd1na2vs0mg"},{"bike_id":"bfac8432-badf-4a2e-a29b-e054a59cad03","system_id":"levelo_inurba_marseille","lat":43.33717,"lon":5.39192,"is_reserved":false,"is_disabled":false,"rental_uris":{"android":"levelo://app?vid=bfac8432-badf-4a2e-a29b-e054a59cad03","ios":"levelo://app?vid=bfac8432-badf-4a2e-a29b-e054a59cad03"},"vehicle_type_id":"4","last_reported":1751958701,"current_range_meters":20000,"station_id":"ce4bhr92rcd13ifvqhsg","pricing_plan_id":"cebpf4jnsgd1na2vs0mg"},{"bike_id":"7f0c405c-cebd-402f-b8ba-98e46b99f50b","system_id":"levelo_inurba_marseille","lat":43.211879,"lon":5.350722,"is_reserved":false,"is_disabled":false,"rental_uris":{"android":"levelo://app?vid=7f0c405c-cebd-402f-b8ba-98e46b99f50b","ios":"levelo://app?vid=7f0c405c-cebd-402f-b8ba-98e46b99f50b"},"vehicle_type_id":"4","last_reported":1751958701,"current_range_meters":20000,"station_id":"st_cvj6sg6p6f1abm77japg","pricing_plan_id":"cebpf4jnsgd1na2vs0mg"},{"bike_id":"b757ffbb-2b71-4330-9f60-5f8a9d46d16e","system_id":"levelo_inurba_marseille","lat":43.296578,"lon":5.37108,"is_reserved":false,"is_disabled":false,"rental_uris":{"android":"levelo://app?vid=b757ffbb-2b71-4330-9f60-5f8a9d46d16e","ios":"levelo://app?vid=b757ffbb-2b71-4330-9f60-5f8a9d46d16e"},"vehicle_type_id":"4","last_reported":1751958701,"current_range_meters":20400,"station_id":"","pricing_plan_id":"cebpf4jnsgd1na2vs0mg"},{"bike_id":"06feb6af-5eb5-49ba-8d41-8d2f4dbe1ee1","system_id":"levelo_inurba_marseille","lat":43.2994,"lon":5.36562,"is_reserved":false,"is_disabled":false,"rental_uris":{"android":"levelo://app?vid=06feb6af-5eb5-49ba-8d41-8d2f4dbe1ee1","ios":"levelo://app?vid=06feb6af-5eb5-49ba-8d41-8d2f4dbe1ee1"},"vehicle_type_id":"4","last_reported":1751958701,"current_range_meters":20400,"station_id":"","pricing_plan_id":"cebpf4jnsgd1na2vs0mg"},{"bike_id":"c88b239d-27cf-4a8a-a45c-740cd2e4b5c3","system_id":"levelo_inurba_marseille","lat":43.29616,"lon":5.37716,"is_reserved":false,"is_disabled":false,"rental_uris":{"android":"levelo://app?vid=c88b239d-27cf-4a8a-a45c-740cd2e4b5c3","ios":"levelo://app?vid=c88b239d-27cf-4a8a-a45c-740cd2e4b5c3"},"vehicle_type_id":"4","last_reported":1751958701,"current_range_meters":20400,"station_id":"ce4bgi92rcd13ifvqb90","pricing_plan_id":"cebpf4jnsgd1na2vs0mg"},{"bike_id":"1d746455-0a77-41e4-ae52-a7982e0f3d64","system_id":"levelo_inurba_marseille","lat":43.30948,"lon":5.3903,"is_reserved":false,"is_disabled":false,"rental_uris":{"android":"levelo://app?vid=1d746455-0a77-41e4-ae52-a7982e0f3d64","ios":"levelo://app?vid=1d746455-0a77-41e4-ae52-a7982e0f3d64"},"vehicle_type_id":"4","last_reported":1751958701,"current_range_meters":20400,"station_id":"ce4bgup2rcd13ifvqco0","pricing_plan_id":"cebpf4jnsgd1na2vs0mg"},{"bike_id":"1d6241b6-88bf-405a-83a9-613804a1ea0b","system_id":"levelo_inurba_marseille","lat":43.241798,"lon":5.397458,"is_reserved":false,"is_disabled":false,"rental_uris":{"android":"levelo://app?vid=1d6241b6-88bf-405a-83a9-613804a1ea0b","ios":"levelo://app?vid=1d6241b6-88bf-405a-83a9-613804a1ea0b"},"vehicle_type_id":"4","last_reported":1751958701,"current_range_meters":20400,"station_id":"ce4bhn12rcd13ifvqgpg","pricing_plan_id":"cebpf4jnsgd1na2vs0mg"},{"bike_id":"4280c5e0-7e35-41db-be72-cbea4e3bab90","system_id":"levelo_inurba_marseille","lat":43.3172,"lon":5.42394,"is_reserved":false,"is_disabled":false,"rental_uris":{"android":"levelo://app?vid=4280c5e0-7e35-41db-be72-cbea4e3bab90","ios":"levelo://app?vid=4280c5e0-7e35-41db-be72-cbea4e3bab90"},"vehicle_type_id":"4","last_reported":1751958701,"current_range_meters":20400,"station_id":"ce4bhp92rcd13ifvqhbg","pricing_plan_id":"cebpf4jnsgd1na2vs0mg"},{"bike_id":"56eb3fdf-ea87-4fcf-85df-3680fa66363e","system_id":"levelo_inurba_marseille","lat":43.22509,"lon":5.34758,"is_reserved":false,"is_disabled":false,"rental_uris":{"android":"levelo://app?vid=56eb3fdf-ea87-4fcf-85df-3680fa66363e","ios":"levelo://app?vid=56eb3fdf-ea87-4fcf-85df-3680fa66363e"},"vehicle_type_id":"4","last_reported":1751958701,"current_range_meters":20400,"station_id":"st_cvj5dfep6f1abm77gieg","pricing_plan_id":"cebpf4jnsgd1na2vs0mg"},{"bike_id":"b2caa530-bb19-4cc6-a6bd-61e3e1d7432e","system_id":"levelo_inurba_marseille","lat":43.33763,"lon":5.37461,"is_reserved":false,"is_disabled":false,"rental_uris":{"android":"levelo://app?vid=b2caa530-bb19-4cc6-a6bd-61e3e1d7432e","ios":"levelo://app?vid=b2caa530-bb19-4cc6-a6bd-61e3e1d7432e"},"vehicle_type_id":"4","last_reported":1751958701,"current_range_meters":20800,"station_id":"","pricing_plan_id":"cebpf4jnsgd1na2vs0mg"},{"bike_id":"c2ba546f-d4ce-415d-a023-f67c1584b148","system_id":"levelo_inurba_marseille","lat":43.29841,"lon":5.36268,"is_reserved":false,"is_disabled":false,"rental_uris":{"android":"levelo://app?vid=c2ba546f-d4ce-415d-a023-f67c1584b148","ios":"levelo://app?vid=c2ba546f-d4ce-415d-a023-f67c1584b148"},"vehicle_type_id":"4","last_reported":1751958701,"current_range_meters":20800,"station_id":"ce4bgpp2rcd13ifvqc3g","pricing_plan_id":"cebpf4jnsgd1na2vs0mg"},{"bike_id":"13aeacd5-5f92-40eb-9a02-92e9ec7a5e20","system_id":"levelo_inurba_marseille","lat":43.30534,"lon":5.36711,"is_reserved":false,"is_disabled":false,"rental_uris":{"android":"levelo://app?vid=13aeacd5-5f92-40eb-9a02-92e9ec7a5e20","ios":"levelo://app?vid=13aeacd5-5f92-40eb-9a02-92e9ec7a5e20"},"vehicle_type_id":"4","last_reported":1751958701,"current_range_meters":20800,"station_id":"ce4bgrp2rcd13ifvqc9g","pricing_plan_id":"cebpf4jnsgd1na2vs0mg"},{"bike_id":"cf8db820-51b7-45ac-8fad-d9a9798f03fa","system_id":"levelo_inurba_marseille","lat":43.28267,"lon":5.35059,"is_reserved":false,"is_disabled":false,"rental_uris":{"android":"levelo://app?vid=cf8db820-51b7-45ac-8fad-d9a9798f03fa","ios":"levelo://app?vid=cf8db820-51b7-45ac-8fad-d9a9798f03fa"},