{"last_updated":1687806338,"ttl":30,"version":"2.2","data":{"bikes":[{"bike_id":"25e4bc6d-91ae-4df3-bbff-18d570139ae2","system_id":"levelo_inurba_marseille","lat":43.313391,"lon":5.36706,"is_reserved":false,"is_disabled":false,"rental_uris":{"android":"levelo://app?vid=25e4bc6d-91ae-4df3-bbff-18d570139ae2","ios":"levelo://app?vid=25e4bc6d-91ae-4df3-bbff-18d570139ae2"},"vehicle_type_id":"4","last_reported":1687806339,"current_range_meters":12400,"station_id":"ce4bgr92rcd13ifvqc6g","pricing_plan_id":"free"},{"bike_id":"941e79bc-c3b2-402c-aa7c-ad023a478910","system_id":"levelo_inurba_marseille","lat":43.308614,"lon":5.372098,"is_reserved":false,"is_disabled":false,"rental_uris":{"android":"levelo://app?vid=941e79bc-c3b2-402c-aa7c-ad023a478910","ios":"levelo://app?vid=941e79bc-c3b2-402c-aa7c-ad023a478910"},"vehicle_type_id":"4","last_reported":1687806339,"current_range_meters":3200,"station_id":"ce4bguh2rcd13ifvqckg","pricing_plan_id":"free"},{"bike_id":"5fc25653-48ab-4d87-aafa-054bf7c11c9b","system_id":"levelo_inurba_marseille","lat":43.311125,"lon":5.377624,"is_reserved":false,"is_disabled":false,"rental_uris":{"android":"levelo://app?vid=5fc25653-48ab-4d87-aafa-054bf7c11c9b","ios":"levelo://app?vid=5fc25653-48ab-4d87-aafa-054bf7c11c9b"},"vehicle_type_id":"4","last_reported":1687806339,"current_range_meters":4800,"station_id":"ce4bgt92rcd13ifvqcg0","pricing_plan_id":"free"},{"bike_id":"4a4c79ce-9c96-45b2-b610-6d621427e80b","system_id":"levelo_inurba_marseille","lat":43.311125,"lon":5.377624,"is_reserved":false,"is_disabled":false,"rental_uris":{"android":"levelo://app?vid=4a4c79ce-9c96-45b2-b610-6d621427e80b","ios":"levelo://app?vid=4a4c79ce-9c96-45b2-b610-6d621427e80b"},"vehicle_type_id":"4","last_reported":1687806339,"current_range_meters":25200,"station_id":"ce4bgt92rcd13ifvqcg0","pricing_plan_id":"free"},{"bike_id":"bebc1c6e-53cb-447e-b363-d0d9b5a3694f","system_id":"levelo_inurba_marseille","lat":43.31532,"lon":5.38037,"is_reserved":false,"is_disabled":false,"rental_uris":{"android":"levelo://app?vid=bebc1c6e-53cb-447e-b363-d0d9b5a3694f","ios":"levelo://app?vid=bebc1c6e-53cb-447e-b363-d0d9b5a3694f"},"vehicle_type_id":"4","last_reported":1687806339,"current_range_meters":2000,"station_id":"ce4bhsp2rcd13ifvqi50","pricing_plan_id":"free"},{"bike_id":"7961c058-6bbf-43fe-9e62-f3ba9264f471","system_id":"levelo_inurba_marseille","lat":43.3021,"lon":5.37396,"is_reserved":false,"is_disabled":false,"rental_uris":{"android":"levelo://app?vid=7961c058-6bbf-43fe-9e62-f3ba9264f471","ios":"levelo://app?vid=7961c058-6bbf-43fe-9e62-f3ba9264f471"},"vehicle_type_id":"4","last_reported":1687806339,"current_range_meters":0,"station_id":"","pricing_plan_id":"free"},{"bike_id":"26e732ed-54c2-4c16-89f3-07f5bc0fb00d","system_id":"levelo_inurba_marseille","lat":43.311125,"lon":5.377624,"is_reserved":false,"is_disabled":false,"rental_uris":{"android":"levelo://app?vid=26e732ed-54c2-4c16-89f3-07f5bc0fb00d","ios":"levelo://app?vid=26e732ed-54c2-4c16-89f3-07f5bc0fb00d"},"vehicle_type_id":"4","last_reported":1687806339,"current_range_meters":28800,"station_id":"ce4bgt92rcd13ifvqcg0","pricing_plan_id":"free"},{"bike_id":"32079ba2-9792-4bca-810e-462ba0a5cedd","system_id":"levelo_inurba_marseille","lat":43.319935,"lon":5.381699,"is_reserved":false,"is_disabled":false,"rental_uris":{"android":"levelo://app?vid=32079ba2-9792-4bca-810e-462ba0a5cedd","ios":"levelo://app?vid=32079ba2-9792-4bca-810e-462ba0a5cedd"},"vehicle_type_id":"4","last_reported":1687806339,"current_range_meters":14000,"station_id":"ce4bhr12rcd13ifvqhpg","pricing_plan_id":"free"},{"bike_id":"a9d45a8e-731a-4c2e-85f8-4585d5e878ab","system_id":"levelo_inurba_marseille","lat":43.319935,"lon":5.381699,"is_reserved":false,"is_disabled":false,"rental_uris":{"android":"levelo://app?vid=a9d45a8e-731a-4c2e-85f8-4585d5e878ab","ios":"levelo://app?vid=a9d45a8e-731a-4c2e-85f8-4585d5e878ab"},"vehicle_type_id":"4","last_reported":1687806339,"current_range_meters":8000,"station_id":"ce4bhr12rcd13ifvqhpg","pricing_plan_id":"free"},{"bike_id":"6d34e2e0-deb8-4c5b-ba1d-44fe5c3cbee8","system_id":"levelo_inurba_marseille","lat":43.319935,"lon":5.381699,"is_reserved":false,"is_disabled":false,"rental_uris":{"android":"levelo://app?vid=6d34e2e0-deb8-4c5b-ba1d-44fe5c3cbee8","ios":"levelo://app?vid=6d34e2e0-deb8-4c5b-ba1d-44fe5c3cbee8"},"vehicle_type_id":"4","last_reported":1687806339,"current_range_meters":20000,"station_id":"ce4bhr12rcd13ifvqhpg","pricing_plan_id":"free"},{"bike_id":"bfef2e1f-fdd1-41e7-92c6-59bbdfab519e","system_id":"levelo_inurba_marseille","lat":43.319935,"lon":5.381699,"is_reserved":false,"is_disabled":false,"rental_uris":{"android":"levelo://app?vid=bfef2e1f-fdd1-41e7-92c6-59bbdfab519e","ios":"levelo://app?vid=bfef2e1f-fdd1-41e7-92c6-59bbdfab519e"},"vehicle_type_id":"4","last_reported":1687806339,"current_range_meters":19600,"station_id":"ce4bhr12rcd13ifvqhpg","pricing_plan_id":"free"},{"bike_id":"cae13a0e-ddec-4b57-9e3e-2d80586a2b49","system_id":"levelo_inurba_marseille","lat":43.313571,"lon":5.384829,"is_reserved":false,"is_disabled":false,"rental_uris":{"android":"levelo://app?vid=cae13a0e-ddec-4b57-9e3e-2d80586a2b49","ios":"levelo://app?vid=cae13a0e-ddec-4b57-9e3e-2d80586a2b49"},"vehicle_type_id":"4","last_reported":1687806339,"current_range_meters":30400,"station_id":"ce4bgt92rcd13ifvqcf0","pricing_plan_id":"free"},{"bike_id":"cc6a5626-19e3-4c3b-8eb8-2e3f40609cc0","system_id":"levelo_inurba_marseille","lat":43.313571,"lon":5.384829,"is_reserved":false,"is_disabled":false,"rental_uris":{"android":"levelo://app?vid=cc6a5626-19e3-4c3b-8eb8-2e3f40609cc0","ios":"levelo://app?vid=cc6a5626-19e3-4c3b-8eb8-2e3f40609cc0"},"vehicle_type_id":"4","last_reported":1687806339,"current_range_meters":17200,"station_id":"ce4bgt92rcd13ifvqcf0","pricing_plan_id":"free"},{"bike_id":"b73f9874-724c-4169-93c0-36992a1fadec","system_id":"levelo_inurba_marseille","lat":43.313571,"lon":5.384829,"is_reserved":false,"is_disabled":false,"rental_uris":{"android":"levelo://app?vid=b73f9874-724c-4169-93c0-36992a1fadec","ios":"levelo://app?vid=b73f9874-724c-4169-93c0-36992a1fadec"},"vehicle_type_id":"4","last_reported":1687806339,"current_range_meters":26800,"station_id":"ce4bgt92rcd13ifvqcf0","pricing_plan_id":"free"},{"bike_id":"41a6ce6d-3975-4f6b-8ad0-5a26bb2989bb","system_id":"levelo_inurba_marseille","lat":43.313571,"lon":5.384829,"is_reserved":false,"is_disabled":false,"rental_uris":{"android":"levelo://app?vid=41a6ce6d-3975-4f6b-8ad0-5a26bb2989bb","ios":"levelo://app?vid=41a6ce6d-3975-4f6b-8ad0-5a26bb2989bb"},"vehicle_type_id":"4","last_reported":1687806339,"current_range_meters":28000,"station_id":"ce4bgt92rcd13ifvqcf0","pricing_plan_id":"free"},{"bike_id":"c8303303-eff3-4bb4-b219-aa7b6fe56c3f","system_id":"levelo_inurba_marseille","lat":43.313571,"lon":5.384829,"is_reserved":false,"is_disabled":false,"rental_uris":{"android":"levelo://app?vid=c8303303-eff3-4bb4-b219-aa7b6fe56c3f","ios":"levelo://app?vid=c8303303-eff3-4bb4-b219-aa7b6fe56c3f"},"vehicle_type_id":"4","last_reported":1687806339,"current_range_meters":27600,"station_id":"ce4bgt92rcd13ifvqcf0","pricing_plan_id":"free"},{"bike_id":"5ecd859f-60bb-4249-8d00-dc9c5baa3769","system_id":"levelo_inurba_marseille","lat":43.313571,"lon":5.384829,"is_reserved":false,"is_disabled":false,"rental_uris":{"android":"levelo://app?vid=5ecd859f-60bb-4249-8d00-dc9c5baa3769","ios":"levelo://app?vid=5ecd859f-60bb-4249-8d00-dc9c5baa3769"},"vehicle_type_id":"4","last_reported":1687806339,"current_range_meters":31200,"station_id":"ce4bgt92rcd13ifvqcf0","pricing_plan_id":"free"},{"bike_id":"31670502-705d-41e1-8f8d-3db99d4cb96d","system_id":"levelo_inurba_marseille","lat":43.313571,"lon":5.384829,"is_reserved":false,"is_disabled":false,"rental_uris":{"android":"levelo://app?vid=31670502-705d-41e1-8f8d-3db99d4cb96d","ios":"levelo://app?vid=31670502-705d-41e1-8f8d-3db99d4cb96d"},"vehicle_type_id":"4","last_reported":1687806339,"current_range_meters":30400,"station_id":"ce4bgt92rcd13ifvqcf0","pricing_plan_id":"free"},{"bike_id":"14453054-578e-4070-b88a-30545b2717be","system_id":"levelo_inurba_marseille","lat":43.313571,"lon":5.384829,"is_reserved":false,"is_disabled":false,"rental_uris":{"android":"levelo://app?vid=14453054-578e-4070-b88a-30545b2717be","ios":"levelo://app?vid=14453054-578e-4070-b88a-30545b2717be"},"vehicle_type_id":"4","last_reported":1687806339,"current_range_meters":31200,"station_id":"ce4bgt92rcd13ifvqcf0","pricing_plan_id":"free"},{"bike_id":"3f5422d0-dd1b-43c1-b03f-b3afd431dbb0","system_id":"levelo_inurba_marseille","lat":43.299222,"lon":5.365554,"is_reserved":false,"is_disabled":false,"rental_uris":{"android":"levelo://app?vid=3f5422d0-dd1b-43c1-b03f-b3afd431dbb0","ios":"levelo://app?vid=3f5422d0-dd1b-43c1-b03f-b3afd431dbb0"},"vehicle_type_id":"4","last_reported":1687806339,"current_range_meters":27600,"station_id":"ce4bgm92rcd13ifvqbr0","pricing_plan_id":"free"},{"bike_id":"57bcd0a9-1252-4fc3-8844-80dd7487c97d","system_id":"levelo_inurba_marseille","lat":43.305364,"lon":5.384119,"is_reserved":false,"is_disabled":false,"rental_uris":{"android":"levelo://app?vid=57bcd0a9-1252-4fc3-8844-80dd7487c97d","ios":"levelo://app?vid=57bcd0a9-1252-4fc3-8844-80dd7487c97d"},"vehicle_type_id":"4","last_reported":1687806339,"current_range_meters":13200,"station_id":"ce4bgg92rcd13ifvqb30","pricing_plan_id":"free"},{"bike_id":"e3870379-abe4-4006-a9b5-4cf2570b9605","system_id":"levelo_inurba_marseille","lat":43.299243,"lon":5.374807,"is_reserved":false,"is_disabled":false,"rental_uris":{"android":"levelo://app?vid=e3870379-abe4-4006-a9b5-4cf2570b9605","ios":"levelo://app?vid=e3870379-abe4-4006-a9b5-4cf2570b9605"},"vehicle_type_id":"4","last_reported":1687806339,"current_range_meters":17600,"station_id":"ce4bgjh2rcd13ifvqbg0","pricing_plan_id":"free"},{"bike_id":"94673181-585e-4a8d-8830-ea6e1c3d5108","system_id":"levelo_inurba_marseille","lat":43.298433,"lon":5.362774,"is_reserved":false,"is_disabled":false,"rental_uris":{"android":"levelo://app?vid=94673181-585e-4a8d-8830-ea6e1c3d5108","ios":"levelo://app?vid=94673181-585e-4a8d-8830-ea6e1c3d5108"},"vehicle_type_id":"4","last_reported":1687806339,"current_range_meters":22000,"station_id":"ce4bgpp2rcd13ifvqc3g","pricing_plan_id":"free"},{"bike_id":"8628dc5d-083b-43f6-b2e2-044e7d0496cf","system_id":"levelo_inurba_marseille","lat":43.299243,"lon":5.37481,"is_reserved":false,"is_disabled":false,"rental_uris":{"android":"levelo://app?vid=8628dc5d-083b-43f6-b2e2-044e7d0496cf","ios":"levelo://app?vid=8628dc5d-083b-43f6-b2e2-044e7d0496cf"},"vehicle_type_id":"4","last_reported":1687806339,"current_range_meters":7200,"station_id":"ce4bgjh2rcd13ifvqbg0","pricing_plan_id":"free"},{"bike_id":"8a0c1bcf-4d35-4cf1-9f58-f962959e75f4","system_id":"levelo_inurba_marseille","lat":43.311722,"lon":5.387247,"is_reserved":false,"is_disabled":false,"rental_uris":{"android":"levelo://app?vid=8a0c1bcf-4d35-4cf1-9f58-f962959e75f4","ios":"levelo://app?vid=8a0c1bcf-4d35-4cf1-9f58-f962959e75f4"},"vehicle_type_id":"4","last_reported":1687806339,"current_range_meters":13200,"station_id":"ce4bgv12rcd13ifvqcp0","pricing_plan_id":"free"},{"bike_id":"1580a472-182f-4d91-8a6c-4c3a23a9c034","system_id":"levelo_inurba_marseille","lat":43.302,"lon":5.3821,"is_reserved":false,"is_disabled":false,"rental_uris":{"android":"levelo://app?vid=1580a472-182f-4d91-8a6c-4c3a23a9c034","ios":"levelo://app?vid=1580a472-182f-4d91-8a6c-4c3a23a9c034"},"vehicle_type_id":"4","last_reported":1687806339,"current_range_meters":8800,"station_id":"","pricing_plan_id":"free"},{"bike_id":"a7f0de62-cbcb-4f09-8e9e-1b6465dbbc67","system_id":"levelo_inurba_marseille","lat":43.32823,"lon":5.36691,"is_reserved":false,"is_disabled":false,"rental_uris":{"android":"levelo://app?vid=a7f0de62-cbcb-4f09-8e9e-1b6465dbbc67","ios":"levelo://app?vid=a7f0de62-cbcb-4f09-8e9e-1b6465dbbc67"},"vehicle_type_id":"4","last_reported":1687806339,"current_range_meters":25200,"station_id":"ce4bhs92rcd13ifvqi0g","pricing_plan_id":"free"},{"bike_id":"67dae117-9f00-4d7d-aabd-157674c206a8","system_id":"levelo_inurba_marseille","lat":43.32824,"lon":5.3669,"is_reserved":false,"is_disabled":false,"rental_uris":{"android":"levelo://app?vid=67dae117-9f00-4d7d-aabd-157674c206a8","ios":"levelo://app?vid=67dae117-9f00-4d7d-aabd-157674c206a8"},"vehicle_type_id":"4","last_reported":1687806339,"current_range_meters":6800,"station_id":"ce4bhs92rcd13ifvqi0g","pricing_plan_id":"free"},{"bike_id":"19952690-4398-4bce-a952-2259d64ee381","system_id":"levelo_inurba_marseille","lat":43.32825,"lon":5.36697,"is_reserved":false,"is_disabled":false,"rental_uris":{"android":"levelo://app?vid=19952690-4398-4bce-a952-2259d64ee381","ios":"levelo://app?vid=19952690-4398-4bce-a952-2259d64ee381"},"vehicle_type_id":"4","last_reported":1687806339,"current_range_meters":13600,"station_id":"ce4bhs92rcd13ifvqi0g","pricing_plan_id":"free"},{"bike_id":"e0d28c6d-cda5-4ad7-9ed5-96823da4f883","system_id":"levelo_inurba_marseille","lat":43.328371,"lon":5.366909,"is_reserved":false,"is_disabled":false,"rental_uris":{"android":"levelo://app?vid=e0d28c6d-cda5-4ad7-9ed5-96823da4f883","ios":"levelo://app?vid=e0d28c6d-cda5-4ad7-9ed5-96823da4f883"},"vehicle_type_id":"4","last_reported":1687806339,"current_range_meters":13600,"station_id":"ce4bhs92rcd13ifvqi0g","pricing_plan_id":"free"},{"bike_id":"be4c2b1e-4409-4655-b800-08e6615894b0","system_id":"levelo_inurba_marseille","lat":43.328371,"lon":5.366909,"is_reserved":false,"is_disabled":false,"rental_uris":{"android":"levelo://app?vid=be4c2b1e-4409-4655-b800-08e6615894b0","ios":"levelo://app?vid=be4c2b1e-4409-4655-b800-08e6615894b0"},"vehicle_type_id":"4","last_reported":1687806339,"current_range_meters":28400,"station_id":"ce4bhs92rcd13ifvqi0g","pricing_plan_id":"free"},{"bike_id":"65f5abd3-b84a-41f7-b88b-1130d5dca958","system_id":"levelo_inurba_marseille","lat":43.32826,"lon":5.36696,"is_reserved":false,"is_disabled":false,"rental_uris":{"android":"levelo://app?vid=65f5abd3-b84a-41f7-b88b-1130d5dca958","ios":"levelo://app?vid=65f5abd3-b84a-41f7-b88b-1130d5dca958"},"vehicle_type_id":"4","last_reported":1687806339,"current_range_meters":4000,"station_id":"ce4bhs92rcd13ifvqi0g","pricing_plan_id":"free"},{"bike_id":"1a986163-fd5b-44c7-bf15-50a76c7f7598","system_id":"levelo_inurba_marseille","lat":43.32827,"lon":5.36699,"is_reserved":false,"is_disabled":false,"rental_uris":{"android":"levelo://app?vid=1a986163-fd5b-44c7-bf15-50a76c7f7598","ios":"levelo://app?vid=1a986163-fd5b-44c7-bf15-50a76c7f7598"},"vehicle_type_id":"4","last_reported":1687806339,"current_range_meters":8000,"station_id":"ce4bhs92rcd13ifvqi0g","pricing_plan_id":"free"},{"bike_id":"8679cc42-f60f-4d46-8ef1-a90dcd0c6845","system_id":"levelo_inurba_marseille","lat":43.32827,"lon":5.36699,"is_reserved":false,"is_disabled":false,"rental_uris":{"android":"levelo://app?vid=8679cc42-f60f-4d46-8ef1-a90dcd0c6845","ios":"levelo://app?vid=8679cc42-f60f-4d46-8ef1-a90dcd0c6845"},"vehicle_type_id":"4","last_reported":1687806339,"current_range_meters":13600,"station_id":"ce4bhs92rcd13ifvqi0g","pricing_plan_id":"free"},{"bike_id":"c0ba4054-03d2-4233-93b4-0461723bc0b5","system_id":"levelo_inurba_marseille","lat":43.328371,"lon":5.366909,"is_reserved":false,"is_disabled":false,"rental_uris":{"android":"levelo://app?vid=c0ba4054-03d2-4233-93b4-0461723bc0b5","ios":"levelo://app?vid=c0ba4054-03d2-4233-93b4-0461723bc0b5"},"vehicle_type_id":"4","last_reported":1687806339,"current_range_meters":28000,"station_id":"ce4bhs92rcd13ifvqi0g","pricing_plan_id":"free"},{"bike_id":"1a470b1a-9939-4abe-b104-58b18427e48b","system_id":"levelo_inurba_marseille","lat":43.32828,"lon":5.36682,"is_reserved":false,"is_disabled":false,"rental_uris":{"android":"levelo://app?vid=1a470b1a-9939-4abe-b104-58b18427e48b","ios":"levelo://app?vid=1a470b1a-9939-4abe-b104-58b18427e48b"},"vehicle_type_id":"4","last_reported":1687806339,"current_range_meters":12800,"station_id":"ce4bhs92rcd13ifvqi0g","pricing_plan_id":"free"},{"bike_id":"5108659d-1431-4d89-a11a-e27336cba391","system_id":"levelo_inurba_marseille","lat":43.328371,"lon":5.366909,"is_reserved":false,"is_disabled":false,"rental_uris":{"android":"levelo://app?vid=5108659d-1431-4d89-a11a-e27336cba391","ios":"levelo://app?vid=5108659d-1431-4d89-a11a-e27336cba391"},"vehicle_type_id":"4","last_reported":1687806339,"current_range_meters":25600,"station_id":"ce4bhs92rcd13ifvqi0g","pricing_plan_id":"free"},{"bike_id":"de087542-21b0-413c-a660-903336b701da","system_id":"levelo_inurba_marseille","lat":43.297163,"lon":5.365866,"is_reserved":false,"is_disabled":false,"rental_uris":{"android":"levelo://app?vid=de087542-21b0-413c-a660-903336b701da","ios":"levelo://app?vid=de087542-21b0-413c-a660-903336b701da"},"vehicle_type_id":"4","last_reported":1687806339,"current_range_meters":17200,"station_id":"ce4bgn12rcd13ifvqbt0","pricing_plan_id":"free"},{"bike_id":"8d98417a-cbe4-4269-8bc9-598373a7d5de","system_id":"levelo_inurba_marseille","lat":43.32867,"lon":5.3631,"is_reserved":false,"is_disabled":false,"rental_uris":{"android":"levelo://app?vid=8d98417a-cbe4-4269-8bc9-598373a7d5de","ios":"levelo://app?vid=8d98417a-cbe4-4269-8bc9-598373a7d5de"},"vehicle_type_id":"4","last_reported":1687806339,"current_range_meters":11600,"station_id":"","pricing_plan_id":"free"},{"bike_id":"a20458f4-fa99-4cc6-91a7-c29ef8f86ae0","system_id":"levelo_inurba_marseille","lat":43.2968,"lon":5.37291,"is_reserved":false,"is_disabled":false,"rental_uris":{"android":"levelo://app?vid=a20458f4-fa99-4cc6-91a7-c29ef8f86ae0","ios":"levelo://app?vid=a20458f4-fa99-4cc6-91a7-c29ef8f86ae0"},"vehicle_type_id":"4","last_reported":1687806339,"current_range_meters":30400,"station_id":"ce4bgk12rcd13ifvqbj0","pricing_plan_id":"free"},{"bike_id":"420e50f4-2583-4398-81c9-d08016558d97","system_id":"levelo_inurba_marseille","lat":43.309589,"lon":5.390258,"is_reserved":false,"is_disabled":false,"rental_uris":{"android":"levelo://app?vid=420e50f4-2583-4398-81c9-d08016558d97","ios":"levelo://app?vid=420e50f4-2583-4398-81c9-d08016558d97"},"vehicle_type_id":"4","last_reported":1687806339,"current_range_meters":14800,"station_id":"ce4bgup2rcd13ifvqco0","pricing_plan_id":"free"},{"bike_id":"5dd58428-1fa0-4863-87ac-6127ad34b4c2","system_id":"levelo_inurba_marseille","lat":43.29573,"lon":5.367355,"is_reserved":false,"is_disabled":false,"rental_uris":{"android":"levelo://app?vid=5dd58428-1fa0-4863-87ac-6127ad34b4c2","ios":"levelo://app?vid=5dd58428-1fa0-4863-87ac-6127ad34b4c2"},"vehicle_type_id":"4","last_reported":1687806339,"current_range_meters":0,"station_id":"ce4bgph2rcd13ifvqc2g","pricing_plan_id":"free"},{"bike_id":"956a3cb1-e9c8-4f89-92b2-9d574cacaba2","system_id":"levelo_inurba_marseille","lat":43.296131,"lon":5.370791,"is_reserved":false,"is_disabled":false,"rental_uris":{"android":"levelo://app?vid=956a3cb1-e9c8-4f89-92b2-9d574cacaba2","ios":"levelo://app?vid=956a3cb1-e9c8-4f89-92b2-9d574cacaba2"},"vehicle_type_id":"4","last_reported":1687806339,"current_range_meters":2400,"station_id":"ce4bgnh2rcd13ifvqc0g","pricing_plan_id":"free"},{"bike_id":"2cbf720e-3337-496e-96d1-b3933acbb3d7","system_id":"levelo_inurba_marseille","lat":43.29573,"lon":5.367355,"is_reserved":false,"is_disabled":false,"rental_uris":{"android":"levelo://app?vid=2cbf720e-3337-496e-96d1-b3933acbb3d7","ios":"levelo://app?vid=2cbf720e-3337-496e-96d1-b3933acbb3d7"},"vehicle_type_id":"4","last_reported":1687806339,"current_range_meters":1600,"station_id":"ce4bgph2rcd13ifvqc2g","pricing_plan_id":"free"},{"bike_id":"9dd00072-59e9-4342-9e9c-c2bf15cd73ac","system_id":"levelo_inurba_marseille","lat":43.2991,"lon":5.38145,"is_reserved":false,"is_disabled":false,"rental_uris":{"android":"levelo://app?vid=9dd00072-59e9-4342-9e9c-c2bf15cd73ac","ios":"levelo://app?vid=9dd00072-59e9-4342-9e9c-c2bf15cd73ac"},"vehicle_type_id":"4","last_reported":1687806339,"current_range_meters":0,"station_id":"ce4bgj12rcd13ifvqbc0","pricing_plan_id":"free"},{"bike_id":"add1f2d4-eaf0-463d-80e3-168ddd83570e","system_id":"levelo_inurba_marseille","lat":43.296921,"lon":5.376579,"is_reserved":false,"is_disabled":false,"rental_uris":{"android":"levelo://app?vid=add1f2d4-eaf0-463d-80e3-168ddd83570e","ios":"levelo://app?vid=add1f2d4-eaf0-463d-80e3-168ddd83570e"},"vehicle_type_id":"4","last_reported":1687806339,"current_range_meters":20000,"station_id":"ce4bgkh2rcd13ifvqbl0","pricing_plan_id":"free"},{"bike_id":"f751824e-4de3-4c73-a818-35554dc390f6","system_id":"levelo_inurba_marseille","lat":43.309589,"lon":5.390258,"is_reserved":false,"is_disabled":false,"rental_uris":{"android":"levelo://app?vid=f751824e-4de3-4c73-a818-35554dc390f6","ios":"levelo://app?vid=f751824e-4de3-4c73-a818-35554dc390f6"},"vehicle_type_id":"4","last_reported":1687806339,"current_range_meters":8000,"station_id":"ce4bgup2rcd13ifvqco0","pricing_plan_id":"free"},{"bike_id":"d8fb9954-648e-4d6f-805f-da7fca5f6af0","system_id":"levelo_inurba_marseille","lat":43.309589,"lon":5.390258,"is_reserved":false,"is_disabled":false,"rental_uris":{"android":"levelo://app?vid=d8fb9954-648e-4d6f-805f-da7fca5f6af0","ios":"levelo://app?vid=d8fb9954-648e-4d6f-805f-da7fca5f6af0"},"vehicle_type_id":"4","last_reported":1687806339,"current_range_meters":19200,"station_id":"ce4bgup2rcd13ifvqco0","pricing_plan_id":"free"},{"bike_id":"3f609fa9-00e8-4b81-96ee-1ad9dbebb365","system_id":"levelo_inurba_marseille","lat":43.317557,"lon":5.390173,"is_reserved":false,"is_disabled":false,"rental_uris":{"android":"levelo://app?vid=3f609fa9-00e8-4b81-96ee-1ad9dbebb365","ios":"levelo://app?vid=3f609fa9-00e8-4b81-96ee-1ad9dbebb365"},"vehicle_type_id":"4","last_reported":1687806339,"current_range_meters":8000,"station_id":"ce4bhqp2rcd13ifvqhng","pricing_plan_id":"free"},{"bike_id":"67490cfa-9e08-4636-bcd2-676f6825334b","system_id":"levelo_inurba_marseille","lat":43.317557,"lon":5.390173,"is_reserved":false,"is_disabled":false,"rental_uris":{"android":"levelo://app?vid=67490cfa-9e08-4636-bcd2-676f6825334b","ios":"levelo://app?vid=67490cfa-9e08-4636-bcd2-676f6825334b"},"vehicle_type_id":"4","last_reported":1687806339,"current_range_meters":29200,"station_id":"ce4bhqp2rcd13ifvqhng","pricing_plan_id":"free"},{"bike_id":"b10cf3fe-d83b-4cc6-8d09-08bcf872edec","system_id":"levelo_inurba_marseille","lat":43.298037,"lon":5.381066,"is_reserved":false,"is_disabled":false,"rental_uris":{"android":"levelo://app?vid=b10cf3fe-d83b-4cc6-8d09-08bcf872edec","ios":"levelo://app?vid=b10cf3fe-d83b-4cc6-8d09-08bcf872edec"},"vehicle_type_id":"4","last_reported":1687806339,"current_range_meters":18000,"station_id":"ce4bgip2rcd13ifvqbb0","pricing_plan_id":"free"},{"bike_id":"a17568c2-2103-463a-b284-d6dd9cb3d34e","system_id":"levelo_inurba_marseille","lat":43.298037,"lon":5.381066,"is_reserved":false,"is_disabled":false,"rental_uris":{"android":"levelo://app?vid=a17568c2-2103-463a-b284-d6dd9cb3d34e","ios":"levelo://app?vid=a17568c2-2103-463a-b284-d6dd9cb3d34e"},"vehicle_type_id":"4","last_reported":1687806339,"current_range_meters":800,"station_id":"ce4bgip2rcd13ifvqbb0","pricing_plan_id":"free"},{"bike_id":"99d11e9a-d263-4c34-9152-d24d2501d4dd","system_id":"levelo_inurba_marseille","lat":43.304274,"lon":5.388873,"is_reserved":false,"is_disabled":false,"rental_uris":{"android":"levelo://app?vid=99d11e9a-d263-4c34-9152-d24d2501d4dd","ios":"levelo://app?vid=99d11e9a-d263-4c34-9152-d24d2501d4dd"},"vehicle_type_id":"4","last_reported":1687806339,"current_range_meters":2000,"station_id":"ce4bgk12rcd13ifvqbi0","pricing_plan_id":"free"},{"bike_id":"a2c8b52e-e7e3-4ee4-8b21-798a41fd6dd6","system_id":"levelo_inurba_marseille","lat":43.304274,"lon":5.388873,"is_reserved":false,"is_disabled":false,"rental_uris":{"android":"levelo://app?vid=a2c8b52e-e7e3-4ee4-8b21-798a41fd6dd6","ios":"levelo://app?vid=a2c8b52e-e7e3-4ee4-8b21-798a41fd6dd6"},"vehicle_type_id":"4","last_reported":1687806339,"current_range_meters":800,"station_id":"ce4bgk12rcd13ifvqbi0","pricing_plan_id":"free"},{"bike_id":"7720a138-f239-4df1-9f28-c69d5a288ec1","system_id":"levelo_inurba_marseille","lat":43.304274,"lon":5.388873,"is_reserved":false,"is_disabled":false,"rental_uris":{"android":"levelo://app?vid=7720a138-f239-4df1-9f28-c69d5a288ec1","ios":"levelo://app?vid=7720a138-f239-4df1-9f28-c69d5a288ec1"},"vehicle_type_id":"4","last_reported":1687806339,"current_range_meters":23600,"station_id":"ce4bgk12rcd13ifvqbi0","pricing_plan_id":"free"},{"bike_id":"532c94c7-9c1a-4f19-952e-8a6a829a2a74","system_id":"levelo_inurba_marseille","lat":43.304274,"lon":5.388873,"is_reserved":false,"is_disabled":false,"rental_uris":{"android":"levelo://app?vid=532c94c7-9c1a-4f19-952e-8a6a829a2a74","ios":"levelo://app?vid=532c94c7-9c1a-4f19-952e-8a6a829a2a74"},"vehicle_type_id":"4","last_reported":1687806339,"current_range_meters":31200,"station_id":"ce4bgk12rcd13ifvqbi0","pricing_plan_id":"free"},{"bike_id":"ebf37c7e-a644-4233-8d67-f98f8dba20ce","system_id":"levelo_inurba_marseille","lat":43.304274,"lon":5.388873,"is_reserved":false,"is_disabled":false,"rental_uris":{"android":"levelo://app?vid=ebf37c7e-a644-4233-8d67-f98f8dba20ce","ios":"levelo://app?vid=ebf37c7e-a644-4233-8d67-f98f8dba20ce"},"vehicle_type_id":"4","last_reported":1687806339,"current_range_meters":6800,"station_id":"ce4bgk12rcd13ifvqbi0","pricing_plan_id":"free"},{"bike_id":"d2e8a186-7ce7-4bcc-821a-6e47e9e5aa81","system_id":"levelo_inurba_marseille","lat":43.304274,"lon":5.388873,"is_reserved":false,"is_disabled":false,"rental_uris":{"android":"levelo://app?vid=d2e8a186-7ce7-4bcc-821a-6e47e9e5aa81","ios":"levelo://app?vid=d2e8a186-7ce7-4bcc-821a-6e47e9e5aa81"},"vehicle_type_id":"4","last_reported":1687806339,"current_range_meters":0,"station_id":"ce4bgk12rcd13ifvqbi0","pricing_plan_id":"free"},{"bike_id":"4ac889ac-6bf1-425d-860c-0297d871fa33","system_id":"levelo_inurba_marseille","lat":43.296277,"lon":5.377108,"is_reserved":false,"is_disabled":false,"rental_uris":{"android":"levelo://app?vid=4ac889ac-6bf1-425d-860c-0297d871fa33","ios":"levelo://app?vid=4ac889ac-6bf1-425d-860c-0297d871fa33"},"vehicle_type_id":"4","last_reported":1687806339,"current_range_meters":6000,"station_id":"ce4bgi92rcd13ifvqb90","pricing_plan_id":"free"},{"bike_id":"67732d1a-41b2-4aeb-a0b8-6eaaffa81a4a","system_id":"levelo_inurba_marseille","lat":43.29602,"lon":5.37727,"is_reserved":false,"is_disabled":false,"rental_uris":{"android":"levelo://app?vid=67732d1a-41b2-4aeb-a0b8-6eaaffa81a4a","ios":"levelo://app?vid=67732d1a-41b2-4aeb-a0b8-6eaaffa81a4a"},"vehicle_type_id":"4","last_reported":1687806339,"current_range_meters":24000,"station_id":"ce4bgi92rcd13ifvqb90","pricing_plan_id":"free"},{"bike_id":"4cc42b38-cb91-4774-805b-c6d305c4f27c","system_id":"levelo_inurba_marseille","lat":43.299717,"lon":5.384845,"is_reserved":false,"is_disabled":false,"rental_uris":{"android":"levelo://app?vid=4cc42b38-cb91-4774-805b-c6d305c4f27c","ios":"levelo://app?vid=4cc42b38-cb91-4774-805b-c6d305c4f27c"},"vehicle_type_id":"4","last_reported":1687806339,"current_range_meters":14400,"station_id":"ce4bgj92rcd13ifvqbd0","pricing_plan_id":"free"},{"bike_id":"8205acf7-8672-44d5-b737-fbf64241bf1a","system_id":"levelo_inurba_marseille","lat":43.29566,"lon":5.37893,"is_reserved":false,"is_disabled":false,"rental_uris":{"android":"levelo://app?vid=8205acf7-8672-44d5-b737-fbf64241bf1a","ios":"levelo://app?vid=8205acf7-8672-44d5-b737-fbf64241bf1a"},"vehicle_type_id":"4","last_reported":1687806339,"current_range_meters":400,"station_id":"","pricing_plan_id":"free"},{"bike_id":"cfc56cbc-ed14-4bfa-b254-12c0c8c5bee7","system_id":"levelo_inurba_marseille","lat":43.29601,"lon":5.381084,"is_reserved":false,"is_disabled":false,"rental_uris":{"android":"levelo://app?vid=cfc56cbc-ed14-4bfa-b254-12c0c8c5bee7","ios":"levelo://app?vid=cfc56cbc-ed14-4bfa-b254-12c0c8c5bee7"},"vehicle_type_id":"4","last_reported":1687806339,"current_range_meters":6400,"station_id":"ce4bgl12rcd13ifvqbo0","pricing_plan_id":"free"},{"bike_id":"73944d69-0966-425a-9a09-59e22e5a46a4","system_id":"levelo_inurba_marseille","lat":43.292749,"lon":5.368398,"is_reserved":false,"is_disabled":false,"rental_uris":{"android":"levelo://app?vid=73944d69-0966-425a-9a09-59e22e5a46a4","ios":"levelo://app?vid=73944d69-0966-425a-9a09-59e22e5a46a4"},"vehicle_type_id":"4","last_reported":1687806339,"current_range_meters":4800,"station_id":"ce4bhbp2rcd13ifvqesg","pricing_plan_id":"free"},{"bike_id":"69fb3769-5f1b-43bf-b7e7-8c95543f681f","system_id":"levelo_inurba_marseille","lat":43.292749,"lon":5.368402,"is_reserved":false,"is_disabled":false,"rental_uris":{"android":"levelo://app?vid=69fb3769-5f1b-43bf-b7e7-8c95543f681f","ios":"levelo://app?vid=69fb3769-5f1b-43bf-b7e7-8c95543f681f"},"vehicle_type_id":"4","last_reported":1687806339,"current_range_meters":27200,"station_id":"ce4bhbp2rcd13ifvqesg","pricing_plan_id":"free"},{"bike_id":"4783d9b9-a677-4f36-ad6a-330e59bc93c3","system_id":"levelo_inurba_marseille","lat":43.29305,"lon":5.37165,"is_reserved":false,"is_disabled":false,"rental_uris":{"android":"levelo://app?vid=4783d9b9-a677-4f36-ad6a-330e59bc93c3","ios":"levelo://app?vid=4783d9b9-a677-4f36-ad6a-330e59bc93c3"},"vehicle_type_id":"4","last_reported":1687806339,"current_range_meters":0,"station_id":"ce4bgh92rcd13ifvqb40","pricing_plan_id":"free"},{"bike_id":"d26653d5-1b93-4230-8f27-0149fe436c06","system_id":"levelo_inurba_marseille","lat":43.292749,"lon":5.368402,"is_reserved":false,"is_disabled":false,"rental_uris":{"android":"levelo://app?vid=d26653d5-1b93-4230-8f27-0149fe436c06","ios":"levelo://app?vid=d26653d5-1b93-4230-8f27-0149fe436c06"},"vehicle_type_id":"4","last_reported":1687806339,"current_range_meters":18800,"station_id":"ce4bhbp2rcd13ifvqesg","pricing_plan_id":"free"},{"bike_id":"70f56b2e-a8e2-4feb-8901-1822ecbc1367","system_id":"levelo_inurba_marseille","lat":43.292749,"lon":5.368402,"is_reserved":false,"is_disabled":false,"rental_uris":{"android":"levelo://app?vid=70f56b2e-a8e2-4feb-8901-1822ecbc1367","ios":"levelo://app?vid=70f56b2e-a8e2-4feb-8901-1822ecbc1367"},"vehicle_type_id":"4","last_reported":1687806339,"current_range_meters":7200,"station_id":"ce4bhbp2rcd13ifvqesg","pricing_plan_id":"free"},{"bike_id":"b146d3cc-0265-45c2-bce5-0d207831b217","system_id":"levelo_inurba_marseille","lat":43.29901,"lon":5.38824,"is_reserved":false,"is_disabled":false,"rental_uris":{"android":"levelo://app?vid=b146d3cc-0265-45c2-bce5-0d207831b217","ios":"levelo://app?vid=b146d3cc-0265-45c2-bce5-0d207831b217"},"vehicle_type_id":"4","last_reported":1687806339,"current_range_meters":16400,"station_id":"","pricing_plan_id":"free"},{"bike_id":"eb74cad4-ad05-46b8-bbb4-258239b5f5c0","system_id":"levelo_inurba_marseille","lat":43.293009,"lon":5.374584,"is_reserved":false,"is_disabled":false,"rental_uris":{"android":"levelo://app?vid=eb74cad4-ad05-46b8-bbb4-258239b5f5c0","ios":"levelo://app?vid=eb74cad4-ad05-46b8-bbb4-258239b5f5c0"},"vehicle_type_id":"4","last_reported":1687806339,"current_range_meters":0,"station_id":"ce4bgi12rcd13ifvqb70","pricing_plan_id":"free"},{"bike_id":"3cc0bd93-24e5-4a4e-bbdd-bb7418982244","system_id":"levelo_inurba_marseille","lat":43.29188,"lon":5.35793,"is_reserved":false,"is_disabled":false,"rental_uris":{"android":"levelo://app?vid=3cc0bd93-24e5-4a4e-bbdd-bb7418982244","ios":"levelo://app?vid=3cc0bd93-24e5-4a4e-bbdd-bb7418982244"},"vehicle_type_id":"4","last_reported":1687806339,"current_range_meters":30800,"station_id":"ce4bhb12rcd13ifvqel0","pricing_plan_id":"free"},{"bike_id":"14a47e36-d273-4b53-b28c-53df946310f7","system_id":"levelo_inurba_marseille","lat":43.313291,"lon":5.396838,"is_reserved":false,"is_disabled":false,"rental_uris":{"android":"levelo://app?vid=14a47e36-d273-4b53-b28c-53df946310f7","ios":"levelo://app?vid=14a47e36-d273-4b53-b28c-53df946310f7"},"vehicle_type_id":"4","last_reported":1687806339,"current_range_meters":25600,"station_id":"ce4bgvp2rcd13ifvqcu0","pricing_plan_id":"free"},{"bike_id":"4eefd9a4-9901-45ba-b684-54da279d817a","system_id":"levelo_inurba_marseille","lat":43.309038,"lon":5.396546,"is_reserved":false,"is_disabled":false,"rental_uris":{"android":"levelo://app?vid=4eefd9a4-9901-45ba-b684-54da279d817a","ios":"levelo://app?vid=4eefd9a4-9901-45ba-b684-54da279d817a"},"vehicle_type_id":"4","last_reported":1687806339,"current_range_meters":20000,"station_id":"ce4bh012rcd13ifvqcv0","pricing_plan_id":"free"},{"bike_id":"7082c999-d9b0-4d5d-a60d-9906e1f353ca","system_id":"levelo_inurba_marseille","lat":43.309038,"lon":5.396546,"is_reserved":false,"is_disabled":false,"rental_uris":{"android":"levelo://app?vid=7082c999-d9b0-4d5d-a60d-9906e1f353ca","ios":"levelo://app?vid=7082c999-d9b0-4d5d-a60d-9906e1f353ca"},"vehicle_type_id":"4","last_reported":1687806339,"current_range_meters":16800,"station_id":"ce4bh012rcd13ifvqcv0","pricing_plan_id":"free"},{"bike_id":"dd2982d4-dd02-4a00-bcc0-54087adb52ea","system_id":"levelo_inurba_marseille","lat":43.29529,"lon":5.385581,"is_reserved":false,"is_disabled":false,"rental_uris":{"android":"levelo://app?vid=dd2982d4-dd02-4a00-bcc0-54087adb52ea","ios":"levelo://app?vid=dd2982d4-dd02-4a00-bcc0-54087adb52ea"},"vehicle_type_id":"4","last_reported":1687806339,"current_range_meters":26400,"station_id":"ce4bgih2rcd13ifvqba0","pricing_plan_id":"free"},{"bike_id":"c1d7453f-72df-46ee-8ccf-7831cc7ccaec","system_id":"levelo_inurba_marseille","lat":43.29529,"lon":5.385581,"is_reserved":false,"is_disabled":false,"rental_uris":{"android":"levelo://app?vid=c1d7453f-72df-46ee-8ccf-7831cc7ccaec","ios":"levelo://app?vid=c1d7453f-72df-46ee-8ccf-7831cc7ccaec"},"vehicle_type_id":"4","last_reported":1687806339,"current_range_meters":24000,"station_id":"ce4bgih2rcd13ifvqba0","pricing_plan_id":"free"},{"bike_id":"154c3324-c388-413f-a9c2-e893ae83e520","system_id":"levelo_inurba_marseille","lat":43.290779,"lon":5.371482,"is_reserved":false,"is_disabled":false,"rental_uris":{"android":"levelo://app?vid=154c3324-c388-413f-a9c2-e893ae83e520","ios":"levelo://app?vid=154c3324-c388-413f-a9c2-e893ae83e520"},"vehicle_type_id":"4","last_reported":1687806339,"current_range_meters":10000,"station_id":"ce4bh5p2rcd13ifvqe4g","pricing_plan_id":"free"},{"bike_id":"2feb8233-1692-4ff4-937e-b99d9548afc7","system_id":"levelo_inurba_marseille","lat":43.290779,"lon":5.371482,"is_reserved":false,"is_disabled":false,"rental_uris":{"android":"levelo://app?vid=2feb8233-1692-4ff4-937e-b99d9548afc7","ios":"levelo://app?vid=2feb8233-1692-4ff4-937e-b99d9548afc7"},"vehicle_type_id":"4","last_reported":1687806339,"current_range_meters":7200,"station_id":"ce4bh5p2rcd13ifvqe4g","pricing_plan_id":"free"},{"bike_id":"24ae30d3-00f6-4bf5-b630-a92e1589151a","system_id":"levelo_inurba_marseille","lat":43.294153,"lon":5.386305,"is_reserved":false,"is_disabled":false,"rental_uris":{"android":"levelo://app?vid=24ae30d3-00f6-4bf5-b630-a92e1589151a","ios":"levelo://app?vid=24ae30d3-00f6-4bf5-b630-a92e1589151a"},"vehicle_type_id":"4","last_reported":1687806339,"current_range_meters":7200,"station_id":"ce4bh2h2rcd13ifvqdh0","pricing_plan_id":"free"},{"bike_id":"20b2702a-2cf1-439f-b7da-41f192fa1a0a","system_id":"levelo_inurba_marseille","lat":43.29411,"lon":5.38614,"is_reserved":false,"is_disabled":false,"rental_uris":{"android":"levelo://app?vid=20b2702a-2cf1-439f-b7da-41f192fa1a0a","ios":"levelo://app?vid=20b2702a-2cf1-439f-b7da-41f192fa1a0a"},"vehicle_type_id":"4","last_reported":1687806339,"current_range_meters":10400,"station_id":"","pricing_plan_id":"free"},{"bike_id":"d265ae9f-e17c-40d5-b672-fe25997f8447","system_id":"levelo_inurba_marseille","lat":43.294162,"lon":5.386292,"is_reserved":false,"is_disabled":false,"rental_uris":{"android":"levelo://app?vid=d265ae9f-e17c-40d5-b672-fe25997f8447","ios":"levelo://app?vid=d265ae9f-e17c-40d5-b672-fe25997f8447"},"vehicle_type_id":"4","last_reported":1687806339,"current_range_meters":4000,"station_id":"ce4bh2h2rcd13ifvqdh0","pricing_plan_id":"free"},{"bike_id":"81cf3bec-6fdd-4368-a08a-256f92f814fc","system_id":"levelo_inurba_marseille","lat":43.294162,"lon":5.386292,"is_reserved":false,"is_disabled":false,"rental_uris":{"android":"levelo://app?vid=81cf3bec-6fdd-4368-a08a-256f92f814fc","ios":"levelo://app?vid=81cf3bec-6fdd-4368-a08a-256f92f814fc"},"vehicle_type_id":"4","last_reported":1687806339,"current_range_meters":20400,"station_id":"ce4bh2h2rcd13ifvqdh0","pricing_plan_id":"free"},{"bike_id":"c64ef513-39c0-4c31-bbb3-7dd8ac119c46","system_id":"levelo_inurba_marseille","lat":43.294162,"lon":5.386292,"is_reserved":false,"is_disabled":false,"rental_uris":{"android":"levelo://app?vid=c64ef513-39c0-4c31-bbb3-7dd8ac119c46","ios":"levelo://app?vid=c64ef513-39c0-4c31-bbb3-7dd8ac119c46"},"vehicle_type_id":"4","last_reported":1687806339,"current_range_meters":12400,"station_id":"ce4bh2h2rcd13ifvqdh0","pricing_plan_id":"free"},{"bike_id":"1a751877-ad5a-4906-87da-c65893b3a1cf","system_id":"levelo_inurba_marseille","lat":43.294162,"lon":5.386292,"is_reserved":false,"is_disabled":false,"rental_uris":{"android":"levelo://app?vid=1a751877-ad5a-4906-87da-c65893b3a1cf","ios":"levelo://app?vid=1a751877-ad5a-4906-87da-c65893b3a1cf"},"vehicle_type_id":"4","last_reported":1687806339,"current_range_meters":24000,"station_id":"ce4bh2h2rcd13ifvqdh0","pricing_plan_id":"free"},{"bike_id":"e87388a2-acae-4d49-b59f-76dce3af91f1","system_id":"levelo_inurba_marseille","lat":43.289468,"lon":5.363719,"is_reserved":false,"is_disabled":false,"rental_uris":{"android":"levelo://app?vid=e87388a2-acae-4d49-b59f-76dce3af91f1","ios":"levelo://app?vid=e87388a2-acae-4d49-b59f-76dce3af91f1"},"vehicle_type_id":"4","last_reported":1687806339,"current_range_meters":6400,"station_id":"ce4bhc92rcd13ifvqetg","pricing_plan_id":"free"},{"bike_id":"d193ab75-147e-4fb4-b190-cb2e6447593b","system_id":"levelo_inurba_marseille","lat":43.289184,"lon":5.366408,"is_reserved":false,"is_disabled":false,"rental_uris":{"android":"levelo://app?vid=d193ab75-147e-4fb4-b190-cb2e6447593b","ios":"levelo://app?vid=d193ab75-147e-4fb4-b190-cb2e6447593b"},"vehicle_type_id":"4","last_reported":1687806339,"current_range_meters":4800,"station_id":"ce4bhap2rcd13ifvqek0","pricing_plan_id":"free"},{"bike_id":"9e72749b-b05d-4647-866b-aeec5dd06644","system_id":"levelo_inurba_marseille","lat":43.289184,"lon":5.366408,"is_reserved":false,"is_disabled":false,"rental_uris":{"android":"levelo://app?vid=9e72749b-b05d-4647-866b-aeec5dd06644","ios":"levelo://app?vid=9e72749b-b05d-4647-866b-aeec5dd06644"},"vehicle_type_id":"4","last_reported":1687806339,"current_range_meters":31200,"station_id":"ce4bhap2rcd13ifvqek0","pricing_plan_id":"free"},{"bike_id":"3aee2e16-6682-415c-b4af-c5dc97faf10a","system_id":"levelo_inurba_marseille","lat":43.289468,"lon":5.363719,"is_reserved":false,"is_disabled":false,"rental_uris":{"android":"levelo://app?vid=3aee2e16-6682-415c-b4af-c5dc97faf10a","ios":"levelo://app?vid=3aee2e16-6682-415c-b4af-c5dc97faf10a"},"vehicle_type_id":"4","last_reported":1687806339,"current_range_meters":10400,"station_id":"ce4bhc92rcd13ifvqetg","pricing_plan_id":"free"},{"bike_id":"3f8a6293-27aa-4546-95f8-185dae6fbefd","system_id":"levelo_inurba_marseille","lat":43.28927,"lon":5.36645,"is_reserved":false,"is_disabled":false,"rental_uris":{"android":"levelo://app?vid=3f8a6293-27aa-4546-95f8-185dae6fbefd","ios":"levelo://app?vid=3f8a6293-27aa-4546-95f8-185dae6fbefd"},"vehicle_type_id":"4","last_reported":1687806339,"current_range_meters":26000,"station_id":"ce4bhap2rcd13ifvqek0","pricing_plan_id":"free"},{"bike_id":"cff0bc92-87a2-4981-be92-b5537d3acef2","system_id":"levelo_inurba_marseille","lat":43.289184,"lon":5.366408,"is_reserved":false,"is_disabled":false,"rental_uris":{"android":"levelo://app?vid=cff0bc92-87a2-4981-be92-b5537d3acef2","ios":"levelo://app?vid=cff0bc92-87a2-4981-be92-b5537d3acef2"},"vehicle_type_id":"4","last_reported":1687806339,"current_range_meters":14800,"station_id":"ce4bhap2rcd13ifvqek0","pricing_plan_id":"free"},{"bike_id":"36237576-4306-4a6d-8cd2-e1cc64d26cf0","system_id":"levelo_inurba_marseille","lat":43.28936,"lon":5.36385,"is_reserved":false,"is_disabled":false,"rental_uris":{"android":"levelo://app?vid=36237576-4306-4a6d-8cd2-e1cc64d26cf0","ios":"levelo://app?vid=36237576-4306-4a6d-8cd2-e1cc64d26cf0"},"vehicle_type_id":"4","last_reported":1687806339,"current_range_meters":4800,"station_id":"ce4bhc92rcd13ifvqetg","pricing_plan_id":"free"},{"bike_id":"eea284a4-dd44-45b0-83bc-76321be27a92","system_id":"levelo_inurba_marseille","lat":43.289468,"lon":5.363719,"is_reserved":false,"is_disabled":false,"rental_uris":{"android":"levelo://app?vid=eea284a4-dd44-45b0-83bc-76321be27a92","ios":"levelo://app?vid=eea284a4-dd44-45b0-83bc-76321be27a92"},"vehicle_type_id":"4","last_reported":1687806339,"current_range_meters":31200,"station_id":"ce4bhc92rcd13ifvqetg","pricing_plan_id":"free"},{"bike_id":"ead3ec98-2f3e-44fb-abb6-b8d0cb7158f6","system_id":"levelo_inurba_marseille","lat":43.30243,"lon":5.39594,"is_reserved":false,"is_disabled":false,"rental_uris":{"android":"levelo://app?vid=ead3ec98-2f3e-44fb-abb6-b8d0cb7158f6","ios":"levelo://app?vid=ead3ec98-2f3e-44fb-abb6-b8d0cb7158f6"},"vehicle_type_id":"4","last_reported":1687806339,"current_range_meters":22400,"station_id":"","pricing_plan_id":"free"},{"bike_id":"d56eb756-4ed2-4b88-9201-94aa167be954","system_id":"levelo_inurba_marseille","lat":43.292642,"lon":5.384254,"is_reserved":false,"is_disabled":false,"rental_uris":{"android":"levelo://app?vid=d56eb756-4ed2-4b88-9201-94aa167be954","ios":"levelo://app?vid=d56eb756-4ed2-4b88-9201-94aa167be954"},"vehicle_type_id":"4","last_reported":1687806339,"current_range_meters":25200,"station_id":"ce4bh692rcd13ifvqea0","pricing_plan_id":"free"},{"bike_id":"9db621a9-a26f-484d-ae48-755a45e4e797","system_id":"levelo_inurba_marseille","lat":43.29252,"lon":5.38437,"is_reserved":false,"is_disabled":false,"rental_uris":{"android":"levelo://app?vid=9db621a9-a26f-484d-ae48-755a45e4e797","ios":"levelo://app?vid=9db621a9-a26f-484d-ae48-755a45e4e797"},"vehicle_type_id":"4","last_reported":1687806339,"current_range_meters":0,"station_id":"ce4bh692rcd13ifvqea0","pricing_plan_id":"free"},{"bike_id":"6e1232b2-ecca-4693-8693-1f788e36dc01","system_id":"levelo_inurba_marseille","lat":43.290104,"lon":5.356111,"is_reserved":false,"is_disabled":false,"rental_uris":{"android":"levelo://app?vid=6e1232b2-ecca-4693-8693-1f788e36dc01","ios":"levelo://app?vid=6e1232b2-ecca-4693-8693-1f788e36dc01"},"vehicle_type_id":"4","last_reported":1687806339,"current_range_meters":11600,"station_id":"ce4bhb92rcd13ifvqen0","pricing_plan_id":"free"},{"bike_id":"23332775-6514-4b3a-97bd-4dafe96705cd","system_id":"levelo_inurba_marseille","lat":43.29008,"lon":5.35611,"is_reserved":false,"is_disabled":false,"rental_uris":{"android":"levelo://app?vid=23332775-6514-4b3a-97bd-4dafe96705cd","ios":"levelo://app?vid=23332775-6514-4b3a-97bd-4dafe96705cd"},"vehicle_type_id":"4","last_reported":1687806339,"current_range_meters":2000,"station_id":"ce4bhb92rcd13ifvqen0","pricing_plan_id":"free"},{"bike_id":"b3ef2810-358a-43a0-a312-6225dc5eb570","system_id":"levelo_inurba_marseille","lat":43.33044,"lon":5.3892,"is_reserved":false,"is_disabled":false,"rental_uris":{"android":"levelo://app?vid=b3ef2810-358a-43a0-a312-6225dc5eb570","ios":"levelo://app?vid=b3ef2810-358a-43a0-a312-6225dc5eb570"},"vehicle_type_id":"4","last_reported":1687806339,"current_range_meters":20400,"station_id":"ce4bhr92rcd13ifvqhrg","pricing_plan_id":"free"},{"bike_id":"ab80e80c-00cc-405a-8c47-9a03947056a2","system_id":"levelo_inurba_marseille","lat":43.290995,"lon":5.381361,"is_reserved":false,"is_disabled":false,"rental_uris":{"android":"levelo://app?vid=ab80e80c-00cc-405a-8c47-9a03947056a2","ios":"levelo://app?vid=ab80e80c-00cc-405a-8c47-9a03947056a2"},"vehicle_type_id":"4","last_reported":1687806339,"current_range_meters":800,"station_id":"ce4bh512rcd13ifvqe2g","pricing_plan_id":"free"},{"bike_id":"c9eec8cc-a2c6-4883-9863-7ea55db2c881","system_id":"levelo_inurba_marseille","lat":43.29101,"lon":5.38124,"is_reserved":false,"is_disabled":false,"rental_uris":{"android":"levelo://app?vid=c9eec8cc-a2c6-4883-9863-7ea55db2c881","ios":"levelo://app?vid=c9eec8cc-a2c6-4883-9863-7ea55db2c881"},"vehicle_type_id":"4","last_reported":1687806339,"current_range_meters":3600,"station_id":"ce4bh512rcd13ifvqe2g","pricing_plan_id":"free"},{"bike_id":"14dfc016-145f-4ba8-b64f-a2db1ddc2a35","system_id":"levelo_inurba_marseille","lat":43.290995,"lon":5.381361,"is_reserved":false,"is_disabled":false,"rental_uris":{"android":"levelo://app?vid=14dfc016-145f-4ba8-b64f-a2db1ddc2a35","ios":"levelo://app?vid=14dfc016-145f-4ba8-b64f-a2db1ddc2a35"},"vehicle_type_id":"4","last_reported":1687806339,"current_range_meters":8400,"station_id":"ce4bh512rcd13ifvqe2g","pricing_plan_id":"free"},{"bike_id":"1dac8f77-aba5-4f43-86be-a2e66eb2333c","system_id":"levelo_inurba_marseille","lat":43.290995,"lon":5.381361,"is_reserved":false,"is_disabled":false,"rental_uris":{"android":"levelo://app?vid=1dac8f77-aba5-4f43-86be-a2e66eb2333c","ios":"levelo://app?vid=1dac8f77-aba5-4f43-86be-a2e66eb2333c"},"vehicle_type_id":"4","last_reported":1687806339,"current_range_meters":0,"station_id":"ce4bh512rcd13ifvqe2g","pricing_plan_id":"free"},{"bike_id":"3773ea12-6d50-4a27-8865-e1160ce46ad1","system_id":"levelo_inurba_marseille","lat":43.289741,"lon":5.378306,"is_reserved":false,"is_disabled":false,"rental_uris":{"android":"levelo://app?vid=3773ea12-6d50-4a27-8865-e1160ce46ad1","ios":"levelo://app?vid=3773ea12-6d50-4a27-8865-e1160ce46ad1"},"vehicle_type_id":"4","last_reported":1687806339,"current_range_meters":19200,"station_id":"ce4bh9p2rcd13ifvqed0","pricing_plan_id":"free"},{"bike_id":"20cc8fdc-e4b7-4fee-8fb2-abe2506fa5ca","system_id":"levelo_inurba_marseille","lat":43.295169,"lon":5.390426,"is_reserved":false,"is_disabled":false,"rental_uris":{"android":"levelo://app?vid=20cc8fdc-e4b7-4fee-8fb2-abe2506fa5ca","ios":"levelo://app?vid=20cc8fdc-e4b7-4fee-8fb2-abe2506fa5ca"},"vehicle_type_id":"4","last_reported":1687806339,"current_range_meters":6400,"station_id":"ce4bh3p2rcd13ifvqdp0","pricing_plan_id":"free"},{"bike_id":"0c941b4e-8be1-4d04-9e47-015f906b6b4a","system_id":"levelo_inurba_marseille","lat":43.28856,"lon":5.358371,"is_reserved":false,"is_disabled":false,"rental_uris":{"android":"levelo://app?vid=0c941b4e-8be1-4d04-9e47-015f906b6b4a","ios":"levelo://app?vid=0c941b4e-8be1-4d04-9e47-015f906b6b4a"},"vehicle_type_id":"4","last_reported":1687806339,"current_range_meters":12000,"station_id":"ce4bhb12rcd13ifvqem0","pricing_plan_id":"free"},{"bike_id":"d20b6b4f-713b-4736-b9ea-ac96259c8873","system_id":"levelo_inurba_marseille","lat":43.28856,"lon":5.358371,"is_reserved":false,"is_disabled":false,"rental_uris":{"android":"levelo://app?vid=d20b6b4f-713b-4736-b9ea-ac96259c8873","ios":"levelo://app?vid=d20b6b4f-713b-4736-b9ea-ac96259c8873"},"vehicle_type_id":"4","last_reported":1687806339,"current_range_meters":18400,"station_id":"ce4bhb12rcd13ifvqem0","pricing_plan_id":"free"},{"bike_id":"19567cd9-e25c-4284-b55b-c42c1f10a47a","system_id":"levelo_inurba_marseille","lat":43.28856,"lon":5.358371,"is_reserved":false,"is_disabled":false,"rental_uris":{"android":"levelo://app?vid=19567cd9-e25c-4284-b55b-c42c1f10a47a","ios":"levelo://app?vid=19567cd9-e25c-4284-b55b-c42c1f10a47a"},"vehicle_type_id":"4","last_reported":1687806339,"current_range_meters":5600,"station_id":"ce4bhb12rcd13ifvqem0","pricing_plan_id":"free"},{"bike_id":"4995f9a9-12d0-4fc4-8535-2bc8863f0ff4","system_id":"levelo_inurba_marseille","lat":43.28856,"lon":5.358371,"is_reserved":false,"is_disabled":false,"rental_uris":{"android":"levelo://app?vid=4995f9a9-12d0-4fc4-8535-2bc8863f0ff4","ios":"levelo://app?vid=4995f9a9-12d0-4fc4-8535-2bc8863f0ff4"},"vehicle_type_id":"4","last_reported":1687806339,"current_range_meters":24800,"station_id":"ce4bhb12rcd13ifvqem0","pricing_plan_id":"free"},{"bike_id":"1a362119-7d65-4fb5-8967-097e71ff306a","system_id":"levelo_inurba_marseille","lat":43.309371,"lon":5.401449,"is_reserved":false,"is_disabled":false,"rental_uris":{"android":"levelo://app?vid=1a362119-7d65-4fb5-8967-097e71ff306a","ios":"levelo://app?vid=1a362119-7d65-4fb5-8967-097e71ff306a"},"vehicle_type_id":"4","last_reported":1687806339,"current_range_meters":0,"station_id":"ce4bgvp2rcd13ifvqct0","pricing_plan_id":"free"},{"bike_id":"c180ae38-f769-441f-8a55-5a6e4930e6ad","system_id":"levelo_inurba_marseille","lat":43.3375,"lon":5.37439,"is_reserved":false,"is_disabled":false,"rental_uris":{"android":"levelo://app?vid=c180ae38-f769-441f-8a55-5a6e4930e6ad","ios":"levelo://app?vid=c180ae38-f769-441f-8a55-5a6e4930e6ad"},"vehicle_type_id":"4","last_reported":1687806339,"current_range_meters":16000,"station_id":"","pricing_plan_id":"free"},{"bike_id":"3f8a925a-6a54-4259-a38f-9cf091aab246","system_id":"levelo_inurba_marseille","lat":43.29223,"lon":5.38757,"is_reserved":false,"is_disabled":false,"rental_uris":{"android":"levelo://app?vid=3f8a925a-6a54-4259-a38f-9cf091aab246","ios":"levelo://app?vid=3f8a925a-6a54-4259-a38f-9cf091aab246"},"vehicle_type_id":"4","last_reported":1687806339,"current_range_meters":10400,"station_id":"","pricing_plan_id":"free"},{"bike_id":"5b2c789f-cdad-4dda-ad3b-eedf90b9e1d7","system_id":"levelo_inurba_marseille","lat":43.30642,"lon":5.401031,"is_reserved":false,"is_disabled":false,"rental_uris":{"android":"levelo://app?vid=5b2c789f-cdad-4dda-ad3b-eedf90b9e1d7","ios":"levelo://app?vid=5b2c789f-cdad-4dda-ad3b-eedf90b9e1d7"},"vehicle_type_id":"4","last_reported":1687806339,"current_range_meters":11200,"station_id":"ce4bh112rcd13ifvqda0","pricing_plan_id":"free"},{"bike_id":"0bf03c3a-828f-4989-a3c6-c6becede2377","system_id":"levelo_inurba_marseille","lat":43.286591,"lon":5.363346,"is_reserved":false,"is_disabled":false,"rental_uris":{"android":"levelo://app?vid=0bf03c3a-828f-4989-a3c6-c6becede2377","ios":"levelo://app?vid=0bf03c3a-828f-4989-a3c6-c6becede2377"},"vehicle_type_id":"4","last_reported":1687806339,"current_range_meters":27600,"station_id":"ce4bhah2rcd13ifvqej0","pricing_plan_id":"free"},{"bike_id":"813a574f-183d-4c2b-949c-f8d3f074f3cb","system_id":"levelo_inurba_marseille","lat":43.286591,"lon":5.363346,"is_reserved":false,"is_disabled":false,"rental_uris":{"android":"levelo://app?vid=813a574f-183d-4c2b-949c-f8d3f074f3cb","ios":"levelo://app?vid=813a574f-183d-4c2b-949c-f8d3f074f3cb"},"vehicle_type_id":"4","last_reported":1687806339,"current_range_meters":25600,"station_id":"ce4bhah2rcd13ifvqej0","pricing_plan_id":"free"},{"bike_id":"45058523-42ab-463e-af79-ef86de0af5e9","system_id":"levelo_inurba_marseille","lat":43.286591,"lon":5.363346,"is_reserved":false,"is_disabled":false,"rental_uris":{"android":"levelo://app?vid=45058523-42ab-463e-af79-ef86de0af5e9","ios":"levelo://app?vid=45058523-42ab-463e-af79-ef86de0af5e9"},"vehicle_type_id":"4","last_reported":1687806339,"current_range_meters":15200,"station_id":"ce4bhah2rcd13ifvqej0","pricing_plan_id":"free"},{"bike_id":"15655aab-c187-4982-a335-c42a5c558205","system_id":"levelo_inurba_marseille","lat":43.286591,"lon":5.363346,"is_reserved":false,"is_disabled":false,"rental_uris":{"android":"levelo://app?vid=15655aab-c187-4982-a335-c42a5c558205","ios":"levelo://app?vid=15655aab-c187-4982-a335-c42a5c558205"},"vehicle_type_id":"4","last_reported":1687806339,"current_range_meters":2400,"station_id":"ce4bhah2rcd13ifvqej0","pricing_plan_id":"free"},{"bike_id":"bbadd294-7979-43b8-b71b-3014c76ca7df","system_id":"levelo_inurba_marseille","lat":43.286961,"lon":5.373785,"is_reserved":false,"is_disabled":false,"rental_uris":{"android":"levelo://app?vid=bbadd294-7979-43b8-b71b-3014c76ca7df","ios":"levelo://app?vid=bbadd294-7979-43b8-b71b-3014c76ca7df"},"vehicle_type_id":"4","last_reported":1687806339,"current_range_meters":6000,"station_id":"ce4bh3p2rcd13ifvqdq0","pricing_plan_id":"free"},{"bike_id":"5fc4b15b-e51c-49cd-9467-b8aa29aad44e","system_id":"levelo_inurba_marseille","lat":43.286593,"lon":5.363346,"is_reserved":false,"is_disabled":false,"rental_uris":{"android":"levelo://app?vid=5fc4b15b-e51c-49cd-9467-b8aa29aad44e","ios":"levelo://app?vid=5fc4b15b-e51c-49cd-9467-b8aa29aad44e"},"vehicle_type_id":"4","last_reported":1687806339,"current_range_meters":12400,"station_id":"ce4bhah2rcd13ifvqej0","pricing_plan_id":"free"},{"bike_id":"7966cefe-a78d-424d-8131-c63be627899c","system_id":"levelo_inurba_marseille","lat":43.286961,"lon":5.373785,"is_reserved":false,"is_disabled":false,"rental_uris":{"android":"levelo://app?vid=7966cefe-a78d-424d-8131-c63be627899c","ios":"levelo://app?vid=7966cefe-a78d-424d-8131-c63be627899c"},"vehicle_type_id":"4","last_reported":1687806339,"current_range_meters":30800,"station_id":"ce4bh3p2rcd13ifvqdq0","pricing_plan_id":"free"},{"bike_id":"3c035a6f-f477-44f2-9203-9610e1735a1a","system_id":"levelo_inurba_marseille","lat":43.290288,"lon":5.3865,"is_reserved":false,"is_disabled":false,"rental_uris":{"android":"levelo://app?vid=3c035a6f-f477-44f2-9203-9610e1735a1a","ios":"levelo://app?vid=3c035a6f-f477-44f2-9203-9610e1735a1a"},"vehicle_type_id":"4","last_reported":1687806339,"current_range_meters":800,"station_id":"ce4bh4p2rcd13ifvqe0g","pricing_plan_id":"free"},{"bike_id":"7ad28d77-13d2-48e9-bca4-966f3bb8a3ce","system_id":"levelo_inurba_marseille","lat":43.283998,"lon":5.375062,"is_reserved":false,"is_disabled":false,"rental_uris":{"android":"levelo://app?vid=7ad28d77-13d2-48e9-bca4-966f3bb8a3ce","ios":"levelo://app?vid=7ad28d77-13d2-48e9-bca4-966f3bb8a3ce"},"vehicle_type_id":"4","last_reported":1687806339,"current_range_meters":0,"station_id":"ce4bh412rcd13ifvqds0","pricing_plan_id":"free"},{"bike_id":"021c192d-59fe-4375-8bed-b9f0447cfb71","system_id":"levelo_inurba_marseille","lat":43.316476,"lon":5.40426,"is_reserved":false,"is_disabled":false,"rental_uris":{"android":"levelo://app?vid=021c192d-59fe-4375-8bed-b9f0447cfb71","ios":"levelo://app?vid=021c192d-59fe-4375-8bed-b9f0447cfb71"},"vehicle_type_id":"4","last_reported":1687806339,"current_range_meters":10400,"station_id":"","pricing_plan_id":"free"},{"bike_id":"d69fed3a-efe9-46fb-b1dc-1240b8978d3e","system_id":"levelo_inurba_marseille","lat":43.31642,"lon":5.40441,"is_reserved":false,"is_disabled":false,"rental_uris":{"android":"levelo://app?vid=d69fed3a-efe9-46fb-b1dc-1240b8978d3e","ios":"levelo://app?vid=d69fed3a-efe9-46fb-b1dc-1240b8978d3e"},"vehicle_type_id":"4","last_reported":1687806339,"current_range_meters":8400,"station_id":"ce4bh012rcd13ifvqd00","pricing_plan_id":"free"},{"bike_id":"0d0e097b-fe1f-4c98-a63f-ce9072c9b5a3","system_id":"levelo_inurba_marseille","lat":43.291994,"lon":5.392907,"is_reserved":false,"is_disabled":false,"rental_uris":{"android":"levelo://app?vid=0d0e097b-fe1f-4c98-a63f-ce9072c9b5a3","ios":"levelo://app?vid=0d0e097b-fe1f-4c98-a63f-ce9072c9b5a3"},"vehicle_type_id":"4","last_reported":1687806339,"current_range_meters":16400,"station_id":"ce4bh192rcd13ifvqdd0","pricing_plan_id":"free"},{"bike_id":"f5f43f0d-dd7b-4b4b-8d19-b3a62a287421","system_id":"levelo_inurba_marseille","lat":43.28461,"lon":5.3588,"is_reserved":false,"is_disabled":false,"rental_uris":{"android":"levelo://app?vid=f5f43f0d-dd7b-4b4b-8d19-b3a62a287421","ios":"levelo://app?vid=f5f43f0d-dd7b-4b4b-8d19-b3a62a287421"},"vehicle_type_id":"4","last_reported":1687806339,"current_range_meters":21600,"station_id":"ce4bhah2rcd13ifvqei0","pricing_plan_id":"free"},{"bike_id":"63ed8b90-94be-4289-aa20-d114be86175a","system_id":"levelo_inurba_marseille","lat":43.28459,"lon":5.35886,"is_reserved":false,"is_disabled":false,"rental_uris":{"android":"levelo://app?vid=63ed8b90-94be-4289-aa20-d114be86175a","ios":"levelo://app?vid=63ed8b90-94be-4289-aa20-d114be86175a"},"vehicle_type_id":"4","last_reported":1687806339,"current_range_meters":11600,"station_id":"ce4bhah2rcd13ifvqei0","pricing_plan_id":"free"},{"bike_id":"980511b9-38c4-4dae-9ddf-25fe90c7b9de","system_id":"levelo_inurba_marseille","lat":43.28458,"lon":5.35892,"is_reserved":false,"is_disabled":false,"rental_uris":{"android":"levelo://app?vid=980511b9-38c4-4dae-9ddf-25fe90c7b9de","ios":"levelo://app?vid=980511b9-38c4-4dae-9ddf-25fe90c7b9de"},"vehicle_type_id":"4","last_reported":1687806339,"current_range_meters":2800,"station_id":"ce4bhah2rcd13ifvqei0","pricing_plan_id":"free"},{"bike_id":"1c6c39c3-7998-492c-8b9f-b1e9b043d065","system_id":"levelo_inurba_marseille","lat":43.28456,"lon":5.35895,"is_reserved":false,"is_disabled":false,"rental_uris":{"android":"levelo://app?vid=1c6c39c3-7998-492c-8b9f-b1e9b043d065","ios":"levelo://app?vid=1c6c39c3-7998-492c-8b9f-b1e9b043d065"},"vehicle_type_id":"4","last_reported":1687806339,"current_range_meters":31200,"station_id":"ce4bhah2rcd13ifvqei0","pricing_plan_id":"free"},{"bike_id":"031e545f-4329-436c-84f2-e1f2820f0f5e","system_id":"levelo_inurba_marseille","lat":43.284534,"lon":5.358662,"is_reserved":false,"is_disabled":false,"rental_uris":{"android":"levelo://app?vid=031e545f-4329-436c-84f2-e1f2820f0f5e","ios":"levelo://app?vid=031e545f-4329-436c-84f2-e1f2820f0f5e"},"vehicle_type_id":"4","last_reported":1687806339,"current_range_meters":17200,"station_id":"ce4bhah2rcd13ifvqei0","pricing_plan_id":"free"},{"bike_id":"d68c7b00-a3ee-4a90-be1b-8334b9fcfb95","system_id":"levelo_inurba_marseille","lat":43.284534,"lon":5.358662,"is_reserved":false,"is_disabled":false,"rental_uris":{"android":"levelo://app?vid=d68c7b00-a3ee-4a90-be1b-8334b9fcfb95","ios":"levelo://app?vid=d68c7b00-a3ee-4a90-be1b-8334b9fcfb95"},"vehicle_type_id":"4","last_reported":1687806339,"current_range_meters":18800,"station_id":"ce4bhah2rcd13ifvqei0","pricing_plan_id":"free"},{"bike_id":"aa053417-cbec-4b39-9c30-ab71c7f49225","system_id":"levelo_inurba_marseille","lat":43.28454,"lon":5.35898,"is_reserved":false,"is_disabled":false,"rental_uris":{"android":"levelo://app?vid=aa053417-cbec-4b39-9c30-ab71c7f49225","ios":"levelo://app?vid=aa053417-cbec-4b39-9c30-ab71c7f49225"},"vehicle_type_id":"4","last_reported":1687806339,"current_range_meters":2800,"station_id":"ce4bhah2rcd13ifvqei0","pricing_plan_id":"free"},{"bike_id":"d16e9c96-645c-4496-8d58-9640d33be41c","system_id":"levelo_inurba_marseille","lat":43.28455,"lon":5.35885,"is_reserved":false,"is_disabled":false,"rental_uris":{"android":"levelo://app?vid=d16e9c96-645c-4496-8d58-9640d33be41c","ios":"levelo://app?vid=d16e9c96-645c-4496-8d58-9640d33be41c"},"vehicle_type_id":"4","last_reported":1687806339,"current_range_meters":31200,"station_id":"ce4bhah2rcd13ifvqei0","pricing_plan_id":"free"},{"bike_id":"207f1e41-709b-411a-9855-4872f7d0ae04","system_id":"levelo_inurba_marseille","lat":43.284534,"lon":5.358662,"is_reserved":false,"is_disabled":false,"rental_uris":{"android":"levelo://app?vid=207f1e41-709b-411a-9855-4872f7d0ae04","ios":"levelo://app?vid=207f1e41-709b-411a-9855-4872f7d0ae04"},"vehicle_type_id":"4","last_reported":1687806339,"current_range_meters":11600,"station_id":"ce4bhah2rcd13ifvqei0","pricing_plan_id":"free"},{"bike_id":"148a80d4-6431-422b-a0b8-d10f3ef79616","system_id":"levelo_inurba_marseille","lat":43.284534,"lon":5.358662,"is_reserved":false,"is_disabled":false,"rental_uris":{"android":"levelo://app?vid=148a80d4-6431-422b-a0b8-d10f3ef79616","ios":"levelo://app?vid=148a80d4-6431-422b-a0b8-d10f3ef79616"},"vehicle_type_id":"4","last_reported":1687806339,"current_range_meters":16400,"station_id":"ce4bhah2rcd13ifvqei0","pricing_plan_id":"free"},{"bike_id":"5519cd89-b95b-44d6-960c-4cd13b669abd","system_id":"levelo_inurba_marseille","lat":43.284534,"lon":5.358662,"is_reserved":false,"is_disabled":false,"rental_uris":{"android":"levelo://app?vid=5519cd89-b95b-44d6-960c-4cd13b669abd","ios":"levelo://app?vid=5519cd89-b95b-44d6-960c-4cd13b669abd"},"vehicle_type_id":"4","last_reported":1687806339,"current_range_meters":12000,"station_id":"ce4bhah2rcd13ifvqei0","pricing_plan_id":"free"},{"bike_id":"a2708ae7-124e-446d-8d8b-b6b272081942","system_id":"levelo_inurba_marseille","lat":43.284534,"lon":5.358662,"is_reserved":false,"is_disabled":false,"rental_uris":{"android":"levelo://app?vid=a2708ae7-124e-446d-8d8b-b6b272081942","ios":"levelo://app?vid=a2708ae7-124e-446d-8d8b-b6b272081942"},"vehicle_type_id":"4","last_reported":1687806339,"current_range_meters":15200,"station_id":"ce4bhah2rcd13ifvqei0","pricing_plan_id":"free"},{"bike_id":"7f2809c6-c8fd-4a71-b62e-8f23fa5bfab8","system_id":"levelo_inurba_marseille","lat":43.28624,"lon":5.35107,"is_reserved":false,"is_disabled":false,"rental_uris":{"android":"levelo://app?vid=7f2809c6-c8fd-4a71-b62e-8f23fa5bfab8","ios":"levelo://app?vid=7f2809c6-c8fd-4a71-b62e-8f23fa5bfab8"},"vehicle_type_id":"4","last_reported":1687806339,"current_range_meters":11600,"station_id":"ce4bhch2rcd13ifvqeug","pricing_plan_id":"free"},{"bike_id":"212ae070-8c98-4529-b7ae-7306fd3a83b0","system_id":"levelo_inurba_marseille","lat":43.285848,"lon":5.350787,"is_reserved":false,"is_disabled":false,"rental_uris":{"android":"levelo://app?vid=212ae070-8c98-4529-b7ae-7306fd3a83b0","ios":"levelo://app?vid=212ae070-8c98-4529-b7ae-7306fd3a83b0"},"vehicle_type_id":"4","last_reported":1687806339,"current_range_meters":22000,"station_id":"ce4bhch2rcd13ifvqeug","pricing_plan_id":"free"},{"bike_id":"445a025e-d5f8-4370-ac68-b2301461ec02","system_id":"levelo_inurba_marseille","lat":43.282744,"lon":5.350533,"is_reserved":false,"is_disabled":false,"rental_uris":{"android":"levelo://app?vid=445a025e-d5f8-4370-ac68-b2301461ec02","ios":"levelo://app?vid=445a025e-d5f8-4370-ac68-b2301461ec02"},"vehicle_type_id":"4","last_reported":1687806339,"current_range_meters":6800,"station_id":"ce4bhbp2rcd13ifvqerg","pricing_plan_id":"free"},{"bike_id":"432b952b-f1e2-40c1-8ccf-b6a4fbd9511c","system_id":"levelo_inurba_marseille","lat":43.285848,"lon":5.350787,"is_reserved":false,"is_disabled":false,"rental_uris":{"android":"levelo://app?vid=432b952b-f1e2-40c1-8ccf-b6a4fbd9511c","ios":"levelo://app?vid=432b952b-f1e2-40c1-8ccf-b6a4fbd9511c"},"vehicle_type_id":"4","last_reported":1687806339,"current_range_meters":19600,"station_id":"ce4bhch2rcd13ifvqeug","pricing_plan_id":"free"},{"bike_id":"5ce447d5-814e-4587-9ff6-900857379c70","system_id":"levelo_inurba_marseille","lat":43.28612,"lon":5.35113,"is_reserved":false,"is_disabled":false,"rental_uris":{"android":"levelo://app?vid=5ce447d5-814e-4587-9ff6-900857379c70","ios":"levelo://app?vid=5ce447d5-814e-4587-9ff6-900857379c70"},"vehicle_type_id":"4","last_reported":1687806339,"current_range_meters":28000,"station_id":"ce4bhch2rcd13ifvqeug","pricing_plan_id":"free"},{"bike_id":"5c6f0368-3a1a-4a3f-a09f-3f77eedfe473","system_id":"levelo_inurba_marseille","lat":43.28614,"lon":5.35105,"is_reserved":false,"is_disabled":false,"rental_uris":{"android":"levelo://app?vid=5c6f0368-3a1a-4a3f-a09f-3f77eedfe473","ios":"levelo://app?vid=5c6f0368-3a1a-4a3f-a09f-3f77eedfe473"},"vehicle_type_id":"4","last_reported":1687806339,"current_range_meters":17200,"station_id":"ce4bhch2rcd13ifvqeug","pricing_plan_id":"free"},{"bike_id":"61a0ef81-9af4-45b7-a867-9e7409a8b003","system_id":"levelo_inurba_marseille","lat":43.28607,"lon":5.35108,"is_reserved":false,"is_disabled":false,"rental_uris":{"android":"levelo://app?vid=61a0ef81-9af4-45b7-a867-9e7409a8b003","ios":"levelo://app?vid=61a0ef81-9af4-45b7-a867-9e7409a8b003"},"vehicle_type_id":"4","last_reported":1687806339,"current_range_meters":1200,"station_id":"ce4bhch2rcd13ifvqeug","pricing_plan_id":"free"},{"bike_id":"f2afd2a9-21d4-42d8-b66f-45393b25e65c","system_id":"levelo_inurba_marseille","lat":43.285848,"lon":5.350787,"is_reserved":false,"is_disabled":false,"rental_uris":{"android":"levelo://app?vid=f2afd2a9-21d4-42d8-b66f-45393b25e65c","ios":"levelo://app?vid=f2afd2a9-21d4-42d8-b66f-45393b25e65c"},"vehicle_type_id":"4","last_reported":1687806339,"current_range_meters":23600,"station_id":"ce4bhch2rcd13ifvqeug","pricing_plan_id":"free"},{"bike_id":"8514b51f-e00d-4bef-a81d-c8f4eed46d5d","system_id":"levelo_inurba_marseille","lat":43.283998,"lon":5.375062,"is_reserved":false,"is_disabled":false,"rental_uris":{"android":"levelo://app?vid=8514b51f-e00d-4bef-a81d-c8f4eed46d5d","ios":"levelo://app?vid=8514b51f-e00d-4bef-a81d-c8f4eed46d5d"},"vehicle_type_id":"4","last_reported":1687806339,"current_range_meters":1200,"station_id":"ce4bh412rcd13ifvqds0","pricing_plan_id":"free"},{"bike_id":"ba8f2e89-a4d8-4bb1-8916-139279a241c3","system_id":"levelo_inurba_marseille","lat":43.295713,"lon":5.399639,"is_reserved":false,"is_disabled":false,"rental_uris":{"android":"levelo://app?vid=ba8f2e89-a4d8-4bb1-8916-139279a241c3","ios":"levelo://app?vid=ba8f2e89-a4d8-4bb1-8916-139279a241c3"},"vehicle_type_id":"4","last_reported":1687806339,"current_range_meters":19600,"station_id":"ce4bh312rcd13ifvqdj0","pricing_plan_id":"free"},{"bike_id":"47cf2591-be30-4574-b81b-5471f953e13f","system_id":"levelo_inurba_marseille","lat":43.323464,"lon":5.406297,"is_reserved":false,"is_disabled":false,"rental_uris":{"android":"levelo://app?vid=47cf2591-be30-4574-b81b-5471f953e13f","ios":"levelo://app?vid=47cf2591-be30-4574-b81b-5471f953e13f"},"vehicle_type_id":"4","last_reported":1687806339,"current_range_meters":25200,"station_id":"ce4bhq92rcd13ifvqhjg","pricing_plan_id":"free"},{"bike_id":"e1c41ebe-c45a-42c8-8249-21aa680cb70e","system_id":"levelo_inurba_marseille","lat":43.323464,"lon":5.406297,"is_reserved":false,"is_disabled":false,"rental_uris":{"android":"levelo://app?vid=e1c41ebe-c45a-42c8-8249-21aa680cb70e","ios":"levelo://app?vid=e1c41ebe-c45a-42c8-8249-21aa680cb70e"},"vehicle_type_id":"4","last_reported":1687806339,"current_range_meters":31200,"station_id":"ce4bhq92rcd13ifvqhjg","pricing_plan_id":"free"},{"bike_id":"7649266b-fb3f-4557-b2d6-bfc49a705891","system_id":"levelo_inurba_marseille","lat":43.284793,"lon":5.384113,"is_reserved":false,"is_disabled":false,"rental_uris":{"android":"levelo://app?vid=7649266b-fb3f-4557-b2d6-bfc49a705891","ios":"levelo://app?vid=7649266b-fb3f-4557-b2d6-bfc49a705891"},"vehicle_type_id":"4","last_reported":1687806339,"current_range_meters":0,"station_id":"ce4bh512rcd13ifvqe3g","pricing_plan_id":"free"},{"bike_id":"b4c950db-352f-4a1a-8e3c-c05101a6dad0","system_id":"levelo_inurba_marseille","lat":43.288501,"lon":5.393087,"is_reserved":false,"is_disabled":false,"rental_uris":{"android":"levelo://app?vid=b4c950db-352f-4a1a-8e3c-c05101a6dad0","ios":"levelo://app?vid=b4c950db-352f-4a1a-8e3c-c05101a6dad0"},"vehicle_type_id":"4","last_reported":1687806339,"current_range_meters":30000,"station_id":"ce4bh2p2rcd13ifvqdi0","pricing_plan_id":"free"},{"bike_id":"b1bb2df7-849c-480e-9008-8a4550496db9","system_id":"levelo_inurba_marseille","lat":43.283494,"lon":5.380945,"is_reserved":false,"is_disabled":false,"rental_uris":{"android":"levelo://app?vid=b1bb2df7-849c-480e-9008-8a4550496db9","ios":"levelo://app?vid=b1bb2df7-849c-480e-9008-8a4550496db9"},"vehicle_type_id":"4","last_reported":1687806339,"current_range_meters":0,"station_id":"ce4bh412rcd13ifvqdr0","pricing_plan_id":"free"},{"bike_id":"291d5014-8c5e-4143-b2b7-fc8ad078744a","system_id":"levelo_inurba_marseille","lat":43.284219,"lon":5.3497,"is_reserved":false,"is_disabled":false,"rental_uris":{"android":"levelo://app?vid=291d5014-8c5e-4143-b2b7-fc8ad078744a","ios":"levelo://app?vid=291d5014-8c5e-4143-b2b7-fc8ad078744a"},"vehicle_type_id":"4","last_reported":1687806339,"current_range_meters":2000,"station_id":"ce4bhbh2rcd13ifvqepg","pricing_plan_id":"free"},{"bike_id":"868a7975-7b76-4ee6-b9fd-40bc721a83a4","system_id":"levelo_inurba_marseille","lat":43.284219,"lon":5.3497,"is_reserved":false,"is_disabled":false,"rental_uris":{"android":"levelo://app?vid=868a7975-7b76-4ee6-b9fd-40bc721a83a4","ios":"levelo://app?vid=868a7975-7b76-4ee6-b9fd-40bc721a83a4"},"vehicle_type_id":"4","last_reported":1687806339,"current_range_meters":27200,"station_id":"ce4bhbh2rcd13ifvqepg","pricing_plan_id":"free"},{"bike_id":"8ec79220-c470-46bd-90f2-ef729d10b6e8","system_id":"levelo_inurba_marseille","lat":43.28415,"lon":5.34995,"is_reserved":false,"is_disabled":false,"rental_uris":{"android":"levelo://app?vid=8ec79220-c470-46bd-90f2-ef729d10b6e8","ios":"levelo://app?vid=8ec79220-c470-46bd-90f2-ef729d10b6e8"},"vehicle_type_id":"4","last_reported":1687806339,"current_range_meters":4400,"station_id":"ce4bhbh2rcd13ifvqepg","pricing_plan_id":"free"},{"bike_id":"cc86e344-7bb7-45f8-b2f2-d6ef7f91d415","system_id":"levelo_inurba_marseille","lat":43.28414,"lon":5.34996,"is_reserved":false,"is_disabled":false,"rental_uris":{"android":"levelo://app?vid=cc86e344-7bb7-45f8-b2f2-d6ef7f91d415","ios":"levelo://app?vid=cc86e344-7bb7-45f8-b2f2-d6ef7f91d415"},"vehicle_type_id":"4","last_reported":1687806339,"current_range_meters":6000,"station_id":"ce4bhbh2rcd13ifvqepg","pricing_plan_id":"free"},{"bike_id":"821cdccf-6ee6-430e-919b-6aab2d5dca24","system_id":"levelo_inurba_marseille","lat":43.284217,"lon":5.349697,"is_reserved":false,"is_disabled":false,"rental_uris":{"android":"levelo://app?vid=821cdccf-6ee6-430e-919b-6aab2d5dca24","ios":"levelo://app?vid=821cdccf-6ee6-430e-919b-6aab2d5dca24"},"vehicle_type_id":"4","last_reported":1687806339,"current_range_meters":11600,"station_id":"ce4bhbh2rcd13ifvqepg","pricing_plan_id":"free"},{"bike_id":"fcc7d2ec-249e-4686-b6e6-4f2279616d5e","system_id":"levelo_inurba_marseille","lat":43.28415,"lon":5.34984,"is_reserved":false,"is_disabled":false,"rental_uris":{"android":"levelo://app?vid=fcc7d2ec-249e-4686-b6e6-4f2279616d5e","ios":"levelo://app?vid=fcc7d2ec-249e-4686-b6e6-4f2279616d5e"},"vehicle_type_id":"4","last_reported":1687806339,"current_range_meters":29600,"station_id":"ce4bhbh2rcd13ifvqepg","pricing_plan_id":"free"},{"bike_id":"66020921-b1b7-4d9d-b40f-dc563be6341b","system_id":"levelo_inurba_marseille","lat":43.284219,"lon":5.3497,"is_reserved":false,"is_disabled":false,"rental_uris":{"android":"levelo://app?vid=66020921-b1b7-4d9d-b40f-dc563be6341b","ios":"levelo://app?vid=66020921-b1b7-4d9d-b40f-dc563be6341b"},"vehicle_type_id":"4","last_reported":1687806339,"current_range_meters":29600,"station_id":"ce4bhbh2rcd13ifvqepg","pricing_plan_id":"free"},{"bike_id":"7e57402e-dd8e-4e1a-ad1f-0e9234e4289c","system_id":"levelo_inurba_marseille","lat":43.2841,"lon":5.34997,"is_reserved":false,"is_disabled":false,"rental_uris":{"android":"levelo://app?vid=7e57402e-dd8e-4e1a-ad1f-0e9234e4289c","ios":"levelo://app?vid=7e57402e-dd8e-4e1a-ad1f-0e9234e4289c"},"vehicle_type_id":"4","last_reported":1687806339,"current_range_meters":25600,"station_id":"ce4bhbh2rcd13ifvqepg","pricing_plan_id":"free"},{"bike_id":"16286ddd-c94e-41b9-8999-923e3919f067","system_id":"levelo_inurba_marseille","lat":43.28412,"lon":5.34985,"is_reserved":false,"is_disabled":false,"rental_uris":{"android":"levelo://app?vid=16286ddd-c94e-41b9-8999-923e3919f067","ios":"levelo://app?vid=16286ddd-c94e-41b9-8999-923e3919f067"},"vehicle_type_id":"4","last_reported":1687806339,"current_range_meters":31200,"station_id":"ce4bhbh2rcd13ifvqepg","pricing_plan_id":"free"},{"bike_id":"1b04a6e6-42b8-4afc-ad94-9d8702274b4c","system_id":"levelo_inurba_marseille","lat":43.2841,"lon":5.34991,"is_reserved":false,"is_disabled":false,"rental_uris":{"android":"levelo://app?vid=1b04a6e6-42b8-4afc-ad94-9d8702274b4c","ios":"levelo://app?vid=1b04a6e6-42b8-4afc-ad94-9d8702274b4c"},"vehicle_type_id":"4","last_reported":1687806339,"current_range_meters":27200,"station_id":"ce4bhbh2rcd13ifvqepg","pricing_plan_id":"free"},{"bike_id":"0e394965-7f50-49a5-ad85-7f6f3657f5b0","system_id":"levelo_inurba_marseille","lat":43.284217,"lon":5.349697,"is_reserved":false,"is_disabled":false,"rental_uris":{"android":"levelo://app?vid=0e394965-7f50-49a5-ad85-7f6f3657f5b0","ios":"levelo://app?vid=0e394965-7f50-49a5-ad85-7f6f3657f5b0"},"vehicle_type_id":"4","last_reported":1687806339,"current_range_meters":22800,"station_id":"ce4bhbh2rcd13ifvqepg","pricing_plan_id":"free"},{"bike_id":"69d8dc3f-1e9f-4a3f-9cac-b821bcb0e023","system_id":"levelo_inurba_marseille","lat":43.284219,"lon":5.3497,"is_reserved":false,"is_disabled":false,"rental_uris":{"android":"levelo://app?vid=69d8dc3f-1e9f-4a3f-9cac-b821bcb0e023","ios":"levelo://app?vid=69d8dc3f-1e9f-4a3f-9cac-b821bcb0e023"},"vehicle_type_id":"4","last_reported":1687806339,"current_range_meters":30400,"station_id":"ce4bhbh2rcd13ifvqepg","pricing_plan_id":"free"},{"bike_id":"adfeb7b7-cc40-41da-b602-957518c6a59d","system_id":"levelo_inurba_marseille","lat":43.28407,"lon":5.34989,"is_reserved":false,"is_disabled":false,"rental_uris":{"android":"levelo://app?vid=adfeb7b7-cc40-41da-b602-957518c6a59d","ios":"levelo://app?vid=adfeb7b7-cc40-41da-b602-957518c6a59d"},"vehicle_type_id":"4","last_reported":1687806339,"current_range_meters":31200,"station_id":"ce4bhbh2rcd13ifvqepg","pricing_plan_id":"free"},{"bike_id":"8957d524-f5b4-4034-925e-96cacef29c5a","system_id":"levelo_inurba_marseille","lat":43.30625,"lon":5.4091,"is_reserved":false,"is_disabled":false,"rental_uris":{"android":"levelo://app?vid=8957d524-f5b4-4034-925e-96cacef29c5a","ios":"levelo://app?vid=8957d524-f5b4-4034-925e-96cacef29c5a"},"vehicle_type_id":"4","last_reported":1687806339,"current_range_meters":0,"station_id":"","pricing_plan_id":"free"},{"bike_id":"cd0bdd51-ff50-48c4-acb1-17a0d7edea2e","system_id":"levelo_inurba_marseille","lat":43.28412,"lon":5.38463,"is_reserved":false,"is_disabled":false,"rental_uris":{"android":"levelo://app?vid=cd0bdd51-ff50-48c4-acb1-17a0d7edea2e","ios":"levelo://app?vid=cd0bdd51-ff50-48c4-acb1-17a0d7edea2e"},"vehicle_type_id":"4","last_reported":1687806339,"current_range_meters":2000,"station_id":"","pricing_plan_id":"free"},{"bike_id":"cafe7315-5323-49e8-a003-d5af89f6283e","system_id":"levelo_inurba_marseille","lat":43.3094,"lon":5.41071,"is_reserved":false,"is_disabled":false,"rental_uris":{"android":"levelo://app?vid=cafe7315-5323-49e8-a003-d5af89f6283e","ios":"levelo://app?vid=cafe7315-5323-49e8-a003-d5af89f6283e"},"vehicle_type_id":"4","last_reported":1687806339,"current_range_meters":8000,"station_id":"","pricing_plan_id":"free"},{"bike_id":"31d8f23c-30fd-4bd5-9e7a-a837f9d23cf3","system_id":"levelo_inurba_marseille","lat":43.32037,"lon":5.40975,"is_reserved":false,"is_disabled":false,"rental_uris":{"android":"levelo://app?vid=31d8f23c-30fd-4bd5-9e7a-a837f9d23cf3","ios":"levelo://app?vid=31d8f23c-30fd-4bd5-9e7a-a837f9d23cf3"},"vehicle_type_id":"4","last_reported":1687806339,"current_range_meters":2400,"station_id":"","pricing_plan_id":"free"},{"bike_id":"8f27212b-7c77-4791-9e1d-6ad74152ace0","system_id":"levelo_inurba_marseille","lat":43.282744,"lon":5.350533,"is_reserved":false,"is_disabled":false,"rental_uris":{"android":"levelo://app?vid=8f27212b-7c77-4791-9e1d-6ad74152ace0","ios":"levelo://app?vid=8f27212b-7c77-4791-9e1d-6ad74152ace0"},"vehicle_type_id":"4","last_reported":1687806339,"current_range_meters":12000,"station_id":"ce4bhbp2rcd13ifvqerg","pricing_plan_id":"free"},{"bike_id":"51e1567a-6058-4e93-9cac-e24bb05f9f9e","system_id":"levelo_inurba_marseille","lat":43.282744,"lon":5.350533,"is_reserved":false,"is_disabled":false,"rental_uris":{"android":"levelo://app?vid=51e1567a-6058-4e93-9cac-e24bb05f9f9e","ios":"levelo://app?vid=51e1567a-6058-4e93-9cac-e24bb05f9f9e"},"vehicle_type_id":"4","last_reported":1687806339,"current_range_meters":31200,"station_id":"ce4bhbp2rcd13ifvqerg","pricing_plan_id":"free"},{"bike_id":"4979989a-d632-4c6b-a56a-4da71a9d8c96","system_id":"levelo_inurba_marseille","lat":43.28039,"lon":5.369297,"is_reserved":false,"is_disabled":false,"rental_uris":{"android":"levelo://app?vid=4979989a-d632-4c6b-a56a-4da71a9d8c96","ios":"levelo://app?vid=4979989a-d632-4c6b-a56a-4da71a9d8c96"},"vehicle_type_id":"4","last_reported":1687806339,"current_range_meters":10400,"station_id":"ce4bha12rcd13ifvqef0","pricing_plan_id":"free"},{"bike_id":"9b382138-2125-4eb2-af1c-e1336bd6bdec","system_id":"levelo_inurba_marseille","lat":43.280382,"lon":5.369291,"is_reserved":false,"is_disabled":false,"rental_uris":{"android":"levelo://app?vid=9b382138-2125-4eb2-af1c-e1336bd6bdec","ios":"levelo://app?vid=9b382138-2125-4eb2-af1c-e1336bd6bdec"},"vehicle_type_id":"4","last_reported":1687806339,"current_range_meters":1200,"station_id":"ce4bha12rcd13ifvqef0","pricing_plan_id":"free"},{"bike_id":"27b662c9-e7f3-43fe-8094-4128c2548506","system_id":"levelo_inurba_marseille","lat":43.280382,"lon":5.369291,"is_reserved":false,"is_disabled":false,"rental_uris":{"android":"levelo://app?vid=27b662c9-e7f3-43fe-8094-4128c2548506","ios":"levelo://app?vid=27b662c9-e7f3-43fe-8094-4128c2548506"},"vehicle_type_id":"4","last_reported":1687806339,"current_range_meters":12800,"station_id":"ce4bha12rcd13ifvqef0","pricing_plan_id":"free"},{"bike_id":"c6dd8561-223e-4973-8b48-ded371504c97","system_id":"levelo_inurba_marseille","lat":43.28039,"lon":5.369297,"is_reserved":false,"is_disabled":false,"rental_uris":{"android":"levelo://app?vid=c6dd8561-223e-4973-8b48-ded371504c97","ios":"levelo://app?vid=c6dd8561-223e-4973-8b48-ded371504c97"},"vehicle_type_id":"4","last_reported":1687806339,"current_range_meters":9600,"station_id":"ce4bha12rcd13ifvqef0","pricing_plan_id":"free"},{"bike_id":"13cdae53-b88b-4cc8-8957-a14bc7100021","system_id":"levelo_inurba_marseille","lat":43.28039,"lon":5.369297,"is_reserved":false,"is_disabled":false,"rental_uris":{"android":"levelo://app?vid=13cdae53-b88b-4cc8-8957-a14bc7100021","ios":"levelo://app?vid=13cdae53-b88b-4cc8-8957-a14bc7100021"},"vehicle_type_id":"4","last_reported":1687806339,"current_range_meters":24800,"station_id":"ce4bha12rcd13ifvqef0","pricing_plan_id":"free"},{"bike_id":"dcf2543c-e283-4c23-a79a-8c6780b76e40","system_id":"levelo_inurba_marseille","lat":43.28039,"lon":5.369297,"is_reserved":false,"is_disabled":false,"rental_uris":{"android":"levelo://app?vid=dcf2543c-e283-4c23-a79a-8c6780b76e40","ios":"levelo://app?vid=dcf2543c-e283-4c23-a79a-8c6780b76e40"},"vehicle_type_id":"4","last_reported":1687806339,"current_range_meters":11200,"station_id":"ce4bha12rcd13ifvqef0","pricing_plan_id":"free"},{"bike_id":"050644fb-a48a-4169-ad75-aea03305db8e","system_id":"levelo_inurba_marseille","lat":43.28039,"lon":5.369297,"is_reserved":false,"is_disabled":false,"rental_uris":{"android":"levelo://app?vid=050644fb-a48a-4169-ad75-aea03305db8e","ios":"levelo://app?vid=050644fb-a48a-4169-ad75-aea03305db8e"},"vehicle_type_id":"4","last_reported":1687806339,"current_range_meters":7200,"station_id":"ce4bha12rcd13ifvqef0","pricing_plan_id":"free"},{"bike_id":"c1666ad2-d30b-401d-9efb-cc4f0cad4f0c","system_id":"levelo_inurba_marseille","lat":43.280382,"lon":5.369291,"is_reserved":false,"is_disabled":false,"rental_uris":{"android":"levelo://app?vid=c1666ad2-d30b-401d-9efb-cc4f0cad4f0c","ios":"levelo://app?vid=c1666ad2-d30b-401d-9efb-cc4f0cad4f0c"},"vehicle_type_id":"4","last_reported":1687806339,"current_range_meters":16000,"station_id":"ce4bha12rcd13ifvqef0","pricing_plan_id":"free"},{"bike_id":"e117cfb8-9ead-42d7-a4d8-88ba21e7f6dc","system_id":"levelo_inurba_marseille","lat":43.28039,"lon":5.369297,"is_reserved":false,"is_disabled":false,"rental_uris":{"android":"levelo://app?vid=e117cfb8-9ead-42d7-a4d8-88ba21e7f6dc","ios":"levelo://app?vid=e117cfb8-9ead-42d7-a4d8-88ba21e7f6dc"},"vehicle_type_id":"4","last_reported":1687806339,"current_range_meters":31200,"station_id":"ce4bha12rcd13ifvqef0","pricing_plan_id":"free"},{"bike_id":"8407486c-d48e-4a32-ad1e-02548a18f26b","system_id":"levelo_inurba_marseille","lat":43.281044,"lon":5.378308,"is_reserved":false,"is_disabled":false,"rental_uris":{"android":"levelo://app?vid=8407486c-d48e-4a32-ad1e-02548a18f26b","ios":"levelo://app?vid=8407486c-d48e-4a32-ad1e-02548a18f26b"},"vehicle_type_id":"4","last_reported":1687806339,"current_range_meters":11200,"station_id":"ce4bha12rcd13ifvqee0","pricing_plan_id":"free"},{"bike_id":"681b3880-1b73-453e-a8e7-53d079eda7f3","system_id":"levelo_inurba_marseille","lat":43.28104,"lon":5.37842,"is_reserved":false,"is_disabled":false,"rental_uris":{"android":"levelo://app?vid=681b3880-1b73-453e-a8e7-53d079eda7f3","ios":"levelo://app?vid=681b3880-1b73-453e-a8e7-53d079eda7f3"},"vehicle_type_id":"4","last_reported":1687806339,"current_range_meters":24000,"station_id":"ce4bha12rcd13ifvqee0","pricing_plan_id":"free"},{"bike_id":"0891e0f0-4366-4e64-a934-c51022ba00b7","system_id":"levelo_inurba_marseille","lat":43.28097,"lon":5.37836,"is_reserved":false,"is_disabled":false,"rental_uris":{"android":"levelo://app?vid=0891e0f0-4366-4e64-a934-c51022ba00b7","ios":"levelo://app?vid=0891e0f0-4366-4e64-a934-c51022ba00b7"},"vehicle_type_id":"4","last_reported":1687806339,"current_range_meters":800,"station_id":"ce4bha12rcd13ifvqee0","pricing_plan_id":"free"},{"bike_id":"a562d0ae-dabe-4c13-ad84-d5d0ecd985e3","system_id":"levelo_inurba_marseille","lat":43.28098,"lon":5.37843,"is_reserved":false,"is_disabled":false,"rental_uris":{"android":"levelo://app?vid=a562d0ae-dabe-4c13-ad84-d5d0ecd985e3","ios":"levelo://app?vid=a562d0ae-dabe-4c13-ad84-d5d0ecd985e3"},"vehicle_type_id":"4","last_reported":1687806339,"current_range_meters":26800,"station_id":"ce4bha12rcd13ifvqee0","pricing_plan_id":"free"},{"bike_id":"e42e005e-b4c2-4e9a-87f9-de4837c92158","system_id":"levelo_inurba_marseille","lat":43.28096,"lon":5.37833,"is_reserved":false,"is_disabled":false,"rental_uris":{"android":"levelo://app?vid=e42e005e-b4c2-4e9a-87f9-de4837c92158","ios":"levelo://app?vid=e42e005e-b4c2-4e9a-87f9-de4837c92158"},"vehicle_type_id":"4","last_reported":1687806339,"current_range_meters":6800,"station_id":"ce4bha12rcd13ifvqee0","pricing_plan_id":"free"},{"bike_id":"0c9eee73-532e-4f1f-8b23-5a0693e22298","system_id":"levelo_inurba_marseille","lat":43.32658,"lon":5.40996,"is_reserved":false,"is_disabled":false,"rental_uris":{"android":"levelo://app?vid=0c9eee73-532e-4f1f-8b23-5a0693e22298","ios":"levelo://app?vid=0c9eee73-532e-4f1f-8b23-5a0693e22298"},"vehicle_type_id":"4","last_reported":1687806339,"current_range_meters":27200,"station_id":"ce4bhpp2rcd13ifvqhgg","pricing_plan_id":"free"},{"bike_id":"7f4e5f33-3d6b-4470-b773-9bb881f7fc86","system_id":"levelo_inurba_marseille","lat":43.326551,"lon":5.409982,"is_reserved":false,"is_disabled":false,"rental_uris":{"android":"levelo://app?vid=7f4e5f33-3d6b-4470-b773-9bb881f7fc86","ios":"levelo://app?vid=7f4e5f33-3d6b-4470-b773-9bb881f7fc86"},"vehicle_type_id":"4","last_reported":1687806339,"current_range_meters":0,"station_id":"ce4bhpp2rcd13ifvqhgg","pricing_plan_id":"free"},{"bike_id":"50fd953c-9754-45f4-aec7-ae52bb9eb6fe","system_id":"levelo_inurba_marseille","lat":43.28701,"lon":5.39989,"is_reserved":false,"is_disabled":false,"rental_uris":{"android":"levelo://app?vid=50fd953c-9754-45f4-aec7-ae52bb9eb6fe","ios":"levelo://app?vid=50fd953c-9754-45f4-aec7-ae52bb9eb6fe"},"vehicle_type_id":"4","last_reported":1687806339,"current_range_meters":31200,"station_id":"ce4bho92rcd13ifvqh3g","pricing_plan_id":"free"},{"bike_id":"8159838f-fce0-435f-b03f-c7249adc0808","system_id":"levelo_inurba_marseille","lat":43.28698,"lon":5.39991,"is_reserved":false,"is_disabled":false,"rental_uris":{"android":"levelo://app?vid=8159838f-fce0-435f-b03f-c7249adc0808","ios":"levelo://app?vid=8159838f-fce0-435f-b03f-c7249adc0808"},"vehicle_type_id":"4","last_reported":1687806339,"current_range_meters":29600,"station_id":"ce4bho92rcd13ifvqh3g","pricing_plan_id":"free"},{"bike_id":"9f3db0a4-63b4-4dc1-8e5f-d42d6781149c","system_id":"levelo_inurba_marseille","lat":43.31954,"lon":5.41538,"is_reserved":false,"is_disabled":false,"rental_uris":{"android":"levelo://app?vid=9f3db0a4-63b4-4dc1-8e5f-d42d6781149c","ios":"levelo://app?vid=9f3db0a4-63b4-4dc1-8e5f-d42d6781149c"},"vehicle_type_id":"4","last_reported":1687806339,"current_range_meters":31200,"station_id":"","pricing_plan_id":"free"},{"bike_id":"0124ded5-fc20-4012-9150-34bfc18ae2af","system_id":"levelo_inurba_marseille","lat":43.320045,"lon":5.415046,"is_reserved":false,"is_disabled":false,"rental_uris":{"android":"levelo://app?vid=0124ded5-fc20-4012-9150-34bfc18ae2af","ios":"levelo://app?vid=0124ded5-fc20-4012-9150-34bfc18ae2af"},"vehicle_type_id":"4","last_reported":1687806339,"current_range_meters":29600,"station_id":"ce4bhq92rcd13ifvqhkg","pricing_plan_id":"free"},{"bike_id":"9aaf7d7e-bfc6-4fa5-b90c-4a37d79ca54f","system_id":"levelo_inurba_marseille","lat":43.299579,"lon":5.413255,"is_reserved":false,"is_disabled":false,"rental_uris":{"android":"levelo://app?vid=9aaf7d7e-bfc6-4fa5-b90c-4a37d79ca54f","ios":"levelo://app?vid=9aaf7d7e-bfc6-4fa5-b90c-4a37d79ca54f"},"vehicle_type_id":"4","last_reported":1687806339,"current_range_meters":18000,"station_id":"ce4bhp12rcd13ifvqh9g","pricing_plan_id":"free"},{"bike_id":"b79d2de0-4e5e-438c-80b7-33683a48dcdb","system_id":"levelo_inurba_marseille","lat":43.299579,"lon":5.413255,"is_reserved":false,"is_disabled":false,"rental_uris":{"android":"levelo://app?vid=b79d2de0-4e5e-438c-80b7-33683a48dcdb","ios":"levelo://app?vid=b79d2de0-4e5e-438c-80b7-33683a48dcdb"},"vehicle_type_id":"4","last_reported":1687806339,"current_range_meters":12400,"station_id":"ce4bhp12rcd13ifvqh9g","pricing_plan_id":"free"},{"bike_id":"ba66460d-818b-4aa0-b0b0-5063345a7127","system_id":"levelo_inurba_marseille","lat":43.320045,"lon":5.415048,"is_reserved":false,"is_disabled":false,"rental_uris":{"android":"levelo://app?vid=ba66460d-818b-4aa0-b0b0-5063345a7127","ios":"levelo://app?vid=ba66460d-818b-4aa0-b0b0-5063345a7127"},"vehicle_type_id":"4","last_reported":1687806339,"current_range_meters":12400,"station_id":"ce4bhq92rcd13ifvqhkg","pricing_plan_id":"free"},{"bike_id":"597d2922-f45d-4c4c-a6b4-18dd0b70b0f6","system_id":"levelo_inurba_marseille","lat":43.292569,"lon":5.409107,"is_reserved":false,"is_disabled":false,"rental_uris":{"android":"levelo://app?vid=597d2922-f45d-4c4c-a6b4-18dd0b70b0f6","ios":"levelo://app?vid=597d2922-f45d-4c4c-a6b4-18dd0b70b0f6"},"vehicle_type_id":"4","last_reported":1687806339,"current_range_meters":6800,"station_id":"ce4bh192rcd13ifvqdc0","pricing_plan_id":"free"},{"bike_id":"a87345c2-47ea-4f6b-8bec-184ca1feacde","system_id":"levelo_inurba_marseille","lat":43.292569,"lon":5.409107,"is_reserved":false,"is_disabled":false,"rental_uris":{"android":"levelo://app?vid=a87345c2-47ea-4f6b-8bec-184ca1feacde","ios":"levelo://app?vid=a87345c2-47ea-4f6b-8bec-184ca1feacde"},"vehicle_type_id":"4","last_reported":1687806339,"current_range_meters":12800,"station_id":"ce4bh192rcd13ifvqdc0","pricing_plan_id":"free"},{"bike_id":"841dcea2-6955-4006-836c-1bb8e82923e4","system_id":"levelo_inurba_marseille","lat":43.325233,"lon":5.414318,"is_reserved":false,"is_disabled":false,"rental_uris":{"android":"levelo://app?vid=841dcea2-6955-4006-836c-1bb8e82923e4","ios":"levelo://app?vid=841dcea2-6955-4006-836c-1bb8e82923e4"},"vehicle_type_id":"4","last_reported":1687806339,"current_range_meters":8800,"station_id":"ce4bhq12rcd13ifvqhhg","pricing_plan_id":"free"},{"bike_id":"931a10ab-4d56-4727-b417-f4da154d7992","system_id":"levelo_inurba_marseille","lat":43.292569,"lon":5.409107,"is_reserved":false,"is_disabled":false,"rental_uris":{"android":"levelo://app?vid=931a10ab-4d56-4727-b417-f4da154d7992","ios":"levelo://app?vid=931a10ab-4d56-4727-b417-f4da154d7992"},"vehicle_type_id":"4","last_reported":1687806339,"current_range_meters":16000,"station_id":"ce4bh192rcd13ifvqdc0","pricing_plan_id":"free"},{"bike_id":"809fca37-279e-485e-b43d-d84b7919a28d","system_id":"levelo_inurba_marseille","lat":43.325233,"lon":5.414318,"is_reserved":false,"is_disabled":false,"rental_uris":{"android":"levelo://app?vid=809fca37-279e-485e-b43d-d84b7919a28d","ios":"levelo://app?vid=809fca37-279e-485e-b43d-d84b7919a28d"},"vehicle_type_id":"4","last_reported":1687806339,"current_range_meters":31200,"station_id":"ce4bhq12rcd13ifvqhhg","pricing_plan_id":"free"},{"bike_id":"d2217ee5-1c8b-4b8b-81f0-a5e6d19a15d6","system_id":"levelo_inurba_marseille","lat":43.280784,"lon":5.396622,"is_reserved":false,"is_disabled":false,"rental_uris":{"android":"levelo://app?vid=d2217ee5-1c8b-4b8b-81f0-a5e6d19a15d6","ios":"levelo://app?vid=d2217ee5-1c8b-4b8b-81f0-a5e6d19a15d6"},"vehicle_type_id":"4","last_reported":1687806339,"current_range_meters":28800,"station_id":"ce4bho12rcd13ifvqh2g","pricing_plan_id":"free"},{"bike_id":"a6f97f46-80da-4835-81a4-786a53d0fb8f","system_id":"levelo_inurba_marseille","lat":43.276097,"lon":5.384102,"is_reserved":false,"is_disabled":false,"rental_uris":{"android":"levelo://app?vid=a6f97f46-80da-4835-81a4-786a53d0fb8f","ios":"levelo://app?vid=a6f97f46-80da-4835-81a4-786a53d0fb8f"},"vehicle_type_id":"4","last_reported":1687806339,"current_range_meters":20000,"station_id":"","pricing_plan_id":"free"},{"bike_id":"7ab2e32b-7e8b-4f3c-a4f0-263c95ebf185","system_id":"levelo_inurba_marseille","lat":43.27379,"lon":5.36253,"is_reserved":false,"is_disabled":false,"rental_uris":{"android":"levelo://app?vid=7ab2e32b-7e8b-4f3c-a4f0-263c95ebf185","ios":"levelo://app?vid=7ab2e32b-7e8b-4f3c-a4f0-263c95ebf185"},"vehicle_type_id":"4","last_reported":1687806339,"current_range_meters":19200,"station_id":"ce4bhbh2rcd13ifvqeo0","pricing_plan_id":"free"},{"bike_id":"f9968679-da90-4222-a89b-7a4fea7347d9","system_id":"levelo_inurba_marseille","lat":43.27378,"lon":5.36252,"is_reserved":false,"is_disabled":false,"rental_uris":{"android":"levelo://app?vid=f9968679-da90-4222-a89b-7a4fea7347d9","ios":"levelo://app?vid=f9968679-da90-4222-a89b-7a4fea7347d9"},"vehicle_type_id":"4","last_reported":1687806339,"current_range_meters":22400,"station_id":"ce4bhbh2rcd13ifvqeo0","pricing_plan_id":"free"},{"bike_id":"09be1f08-64c3-438b-be5d-a11779f2d38b","system_id":"levelo_inurba_marseille","lat":43.273613,"lon":5.362705,"is_reserved":false,"is_disabled":false,"rental_uris":{"android":"levelo://app?vid=09be1f08-64c3-438b-be5d-a11779f2d38b","ios":"levelo://app?vid=09be1f08-64c3-438b-be5d-a11779f2d38b"},"vehicle_type_id":"4","last_reported":1687806339,"current_range_meters":21600,"station_id":"ce4bhbh2rcd13ifvqeo0","pricing_plan_id":"free"},{"bike_id":"54ad1ab5-c22a-43a2-8b0b-a08c8e3b5144","system_id":"levelo_inurba_marseille","lat":43.273613,"lon":5.362705,"is_reserved":false,"is_disabled":false,"rental_uris":{"android":"levelo://app?vid=54ad1ab5-c22a-43a2-8b0b-a08c8e3b5144","ios":"levelo://app?vid=54ad1ab5-c22a-43a2-8b0b-a08c8e3b5144"},"vehicle_type_id":"4","last_reported":1687806339,"current_range_meters":14400,"station_id":"ce4bhbh2rcd13ifvqeo0","pricing_plan_id":"free"},{"bike_id":"ab3bb04b-4d06-43bb-89d3-b8e8026c8fb0","system_id":"levelo_inurba_marseille","lat":43.273613,"lon":5.362705,"is_reserved":false,"is_disabled":false,"rental_uris":{"android":"levelo://app?vid=ab3bb04b-4d06-43bb-89d3-b8e8026c8fb0","ios":"levelo://app?vid=ab3bb04b-4d06-43bb-89d3-b8e8026c8fb0"},"vehicle_type_id":"4","last_reported":1687806339,"current_range_meters":22400,"station_id":"ce4bhbh2rcd13ifvqeo0","pricing_plan_id":"free"},{"bike_id":"78ded248-71f7-4e48-b904-0bd5f544111a","system_id":"levelo_inurba_marseille","lat":43.273613,"lon":5.362705,"is_reserved":false,"is_disabled":false,"rental_uris":{"android":"levelo://app?vid=78ded248-71f7-4e48-b904-0bd5f544111a","ios":"levelo://app?vid=78ded248-71f7-4e48-b904-0bd5f544111a"},"vehicle_type_id":"4","last_reported":1687806339,"current_range_meters":31600,"station_id":"ce4bhbh2rcd13ifvqeo0","pricing_plan_id":"free"},{"bike_id":"e4679cbc-412c-4961-a375-18c46ff2fc10","system_id":"levelo_inurba_marseille","lat":43.273613,"lon":5.362705,"is_reserved":false,"is_disabled":false,"rental_uris":{"android":"levelo://app?vid=e4679cbc-412c-4961-a375-18c46ff2fc10","ios":"levelo://app?vid=e4679cbc-412c-4961-a375-18c46ff2fc10"},"vehicle_type_id":"4","last_reported":1687806339,"current_range_meters":7600,"station_id":"ce4bhbh2rcd13ifvqeo0","pricing_plan_id":"free"},{"bike_id":"9cdd126a-5a84-4b18-b7d9-0b3a8e82fe67","system_id":"levelo_inurba_marseille","lat":43.2737,"lon":5.36265,"is_reserved":false,"is_disabled":false,"rental_uris":{"android":"levelo://app?vid=9cdd126a-5a84-4b18-b7d9-0b3a8e82fe67","ios":"levelo://app?vid=9cdd126a-5a84-4b18-b7d9-0b3a8e82fe67"},"vehicle_type_id":"4","last_reported":1687806339,"current_range_meters":2000,"station_id":"ce4bhbh2rcd13ifvqeo0","pricing_plan_id":"free"},{"bike_id":"2d19a93e-7ef9-4cff-85a0-dbffc9c2ac5c","system_id":"levelo_inurba_marseille","lat":43.273609,"lon":5.362708,"is_reserved":false,"is_disabled":false,"rental_uris":{"android":"levelo://app?vid=2d19a93e-7ef9-4cff-85a0-dbffc9c2ac5c","ios":"levelo://app?vid=2d19a93e-7ef9-4cff-85a0-dbffc9c2ac5c"},"vehicle_type_id":"4","last_reported":1687806339,"current_range_meters":31200,"station_id":"ce4bhbh2rcd13ifvqeo0","pricing_plan_id":"free"},{"bike_id":"d134d639-ec61-4083-9bf7-fa7b2acaeff5","system_id":"levelo_inurba_marseille","lat":43.273609,"lon":5.362708,"is_reserved":false,"is_disabled":false,"rental_uris":{"android":"levelo://app?vid=d134d639-ec61-4083-9bf7-fa7b2acaeff5","ios":"levelo://app?vid=d134d639-ec61-4083-9bf7-fa7b2acaeff5"},"vehicle_type_id":"4","last_reported":1687806339,"current_range_meters":11600,"station_id":"ce4bhbh2rcd13ifvqeo0","pricing_plan_id":"free"},{"bike_id":"ad767a5d-fd72-471b-bc1a-21e494ac16da","system_id":"levelo_inurba_marseille","lat":43.273613,"lon":5.362705,"is_reserved":false,"is_disabled":false,"rental_uris":{"android":"levelo://app?vid=ad767a5d-fd72-471b-bc1a-21e494ac16da","ios":"levelo://app?vid=ad767a5d-fd72-471b-bc1a-21e494ac16da"},"vehicle_type_id":"4","last_reported":1687806339,"current_range_meters":24400,"station_id":"ce4bhbh2rcd13ifvqeo0","pricing_plan_id":"free"},{"bike_id":"17f96f51-0bbd-4ba1-9e9b-b530536dc899","system_id":"levelo_inurba_marseille","lat":43.273609,"lon":5.362708,"is_reserved":false,"is_disabled":false,"rental_uris":{"android":"levelo://app?vid=17f96f51-0bbd-4ba1-9e9b-b530536dc899","ios":"levelo://app?vid=17f96f51-0bbd-4ba1-9e9b-b530536dc899"},"vehicle_type_id":"4","last_reported":1687806339,"current_range_meters":24000,"station_id":"ce4bhbh2rcd13ifvqeo0","pricing_plan_id":"free"},{"bike_id":"b390053e-b1b2-4577-a6e0-e6203ceaddc4","system_id":"levelo_inurba_marseille","lat":43.273613,"lon":5.362705,"is_reserved":false,"is_disabled":false,"rental_uris":{"android":"levelo://app?vid=b390053e-b1b2-4577-a6e0-e6203ceaddc4","ios":"levelo://app?vid=b390053e-b1b2-4577-a6e0-e6203ceaddc4"},"vehicle_type_id":"4","last_reported":1687806339,"current_range_meters":26800,"station_id":"ce4bhbh2rcd13ifvqeo0","pricing_plan_id":"free"},{"bike_id":"74fe3e8e-7393-4589-9e65-28268a39379b","system_id":"levelo_inurba_marseille","lat":43.273609,"lon":5.362708,"is_reserved":false,"is_disabled":false,"rental_uris":{"android":"levelo://app?vid=74fe3e8e-7393-4589-9e65-28268a39379b","ios":"levelo://app?vid=74fe3e8e-7393-4589-9e65-28268a39379b"},"vehicle_type_id":"4","last_reported":1687806339,"current_range_meters":17600,"station_id":"ce4bhbh2rcd13ifvqeo0","pricing_plan_id":"free"},{"bike_id":"036286c3-51f0-4050-af54-418795f22c0a","system_id":"levelo_inurba_marseille","lat":43.273609,"lon":5.362708,"is_reserved":false,"is_disabled":false,"rental_uris":{"android":"levelo://app?vid=036286c3-51f0-4050-af54-418795f22c0a","ios":"levelo://app?vid=036286c3-51f0-4050-af54-418795f22c0a"},"vehicle_type_id":"4","last_reported":1687806339,"current_range_meters":13200,"station_id":"ce4bhbh2rcd13ifvqeo0","pricing_plan_id":"free"},{"bike_id":"ff52e2ee-bc8a-40de-b1bd-16c0b187e960","system_id":"levelo_inurba_marseille","lat":43.273609,"lon":5.362708,"is_reserved":false,"is_disabled":false,"rental_uris":{"android":"levelo://app?vid=ff52e2ee-bc8a-40de-b1bd-16c0b187e960","ios":"levelo://app?vid=ff52e2ee-bc8a-40de-b1bd-16c0b187e960"},"vehicle_type_id":"4","last_reported":1687806339,"current_range_meters":31200,"station_id":"ce4bhbh2rcd13ifvqeo0","pricing_plan_id":"free"},{"bike_id":"f6d15d12-5449-43f5-95b0-d788c3c8af96","system_id":"levelo_inurba_marseille","lat":43.273609,"lon":5.362708,"is_reserved":false,"is_disabled":false,"rental_uris":{"android":"levelo://app?vid=f6d15d12-5449-43f5-95b0-d788c3c8af96","ios":"levelo://app?vid=f6d15d12-5449-43f5-95b0-d788c3c8af96"},"vehicle_type_id":"4","last_reported":1687806339,"current_range_meters":31600,"station_id":"ce4bhbh2rcd13ifvqeo0","pricing_plan_id":"free"},{"bike_id":"5919c953-efdd-4250-b31d-8ccd6d7c0de9","system_id":"levelo_inurba_marseille","lat":43.33612,"lon":5.410321,"is_reserved":false,"is_disabled":false,"rental_uris":{"android":"levelo://app?vid=5919c953-efdd-4250-b31d-8ccd6d7c0de9","ios":"levelo://app?vid=5919c953-efdd-4250-b31d-8ccd6d7c0de9"},"vehicle_type_id":"4","last_reported":1687806339,"current_range_meters":4400,"station_id":"ce4bhqh2rcd13ifvqhmg","pricing_plan_id":"free"},{"bike_id":"b30adca5-6e5e-42af-a506-d7fe67902dc7","system_id":"levelo_inurba_marseille","lat":43.336134,"lon":5.410341,"is_reserved":false,"is_disabled":false,"rental_uris":{"android":"levelo://app?vid=b30adca5-6e5e-42af-a506-d7fe67902dc7","ios":"levelo://app?vid=b30adca5-6e5e-42af-a506-d7fe67902dc7"},"vehicle_type_id":"4","last_reported":1687806339,"current_range_meters":16400,"station_id":"ce4bhqh2rcd13ifvqhmg","pricing_plan_id":"free"},{"bike_id":"7d45837b-78f0-4fd5-ae5d-9dee32aef32a","system_id":"levelo_inurba_marseille","lat":43.336134,"lon":5.410341,"is_reserved":false,"is_disabled":false,"rental_uris":{"android":"levelo://app?vid=7d45837b-78f0-4fd5-ae5d-9dee32aef32a","ios":"levelo://app?vid=7d45837b-78f0-4fd5-ae5d-9dee32aef32a"},"vehicle_type_id":"4","last_reported":1687806339,"current_range_meters":27200,"station_id":"ce4bhqh2rcd13ifvqhmg","pricing_plan_id":"free"},{"bike_id":"5ea65bfb-78ef-4d37-a231-ff8d4ecbefa6","system_id":"levelo_inurba_marseille","lat":43.33612,"lon":5.410321,"is_reserved":false,"is_disabled":false,"rental_uris":{"android":"levelo://app?vid=5ea65bfb-78ef-4d37-a231-ff8d4ecbefa6","ios":"levelo://app?vid=5ea65bfb-78ef-4d37-a231-ff8d4ecbefa6"},"vehicle_type_id":"4","last_reported":1687806339,"current_range_meters":18800,"station_id":"ce4bhqh2rcd13ifvqhmg","pricing_plan_id":"free"},{"bike_id":"aa2db1b5-b4c3-4a3c-84ba-112d8cd2c66b","system_id":"levelo_inurba_marseille","lat":43.27864,"lon":5.39477,"is_reserved":false,"is_disabled":false,"rental_uris":{"android":"levelo://app?vid=aa2db1b5-b4c3-4a3c-84ba-112d8cd2c66b","ios":"levelo://app?vid=aa2db1b5-b4c3-4a3c-84ba-112d8cd2c66b"},"vehicle_type_id":"4","last_reported":1687806339,"current_range_meters":26800,"station_id":"","pricing_plan_id":"free"},{"bike_id":"ee4ea6f3-cdd8-48f4-a059-6e86485fd08c","system_id":"levelo_inurba_marseille","lat":43.27233,"lon":5.36261,"is_reserved":false,"is_disabled":false,"rental_uris":{"android":"levelo://app?vid=ee4ea6f3-cdd8-48f4-a059-6e86485fd08c","ios":"levelo://app?vid=ee4ea6f3-cdd8-48f4-a059-6e86485fd08c"},"vehicle_type_id":"4","last_reported":1687806339,"current_range_meters":20800,"station_id":"","pricing_plan_id":"free"},{"bike_id":"7ef736b9-eed9-427c-ae7c-e73d4267fa40","system_id":"levelo_inurba_marseille","lat":43.317121,"lon":5.423936,"is_reserved":false,"is_disabled":false,"rental_uris":{"android":"levelo://app?vid=7ef736b9-eed9-427c-ae7c-e73d4267fa40","ios":"levelo://app?vid=7ef736b9-eed9-427c-ae7c-e73d4267fa40"},"vehicle_type_id":"4","last_reported":1687806339,"current_range_meters":29600,"station_id":"ce4bhp92rcd13ifvqhbg","pricing_plan_id":"free"},{"bike_id":"aeb66592-b50f-4049-ae07-d5347fe8b6de","system_id":"levelo_inurba_marseille","lat":43.31077,"lon":5.4243,"is_reserved":false,"is_disabled":false,"rental_uris":{"android":"levelo://app?vid=aeb66592-b50f-4049-ae07-d5347fe8b6de","ios":"levelo://app?vid=aeb66592-b50f-4049-ae07-d5347fe8b6de"},"vehicle_type_id":"4","last_reported":1687806339,"current_range_meters":18400,"station_id":"ce4bhp92rcd13ifvqhag","pricing_plan_id":"free"},{"bike_id":"4d3c5685-b66d-4ebb-a114-ca9b7fe89a76","system_id":"levelo_inurba_marseille","lat":43.31075,"lon":5.42436,"is_reserved":false,"is_disabled":false,"rental_uris":{"android":"levelo://app?vid=4d3c5685-b66d-4ebb-a114-ca9b7fe89a76","ios":"levelo://app?vid=4d3c5685-b66d-4ebb-a114-ca9b7fe89a76"},"vehicle_type_id":"4","last_reported":1687806339,"current_range_meters":31200,"station_id":"ce4bhp92rcd13ifvqhag","pricing_plan_id":"free"},{"bike_id":"7bfcb41c-6c4f-4082-bbca-609376a23a83","system_id":"levelo_inurba_marseille","lat":43.27398,"lon":5.38955,"is_reserved":false,"is_disabled":false,"rental_uris":{"android":"levelo://app?vid=7bfcb41c-6c4f-4082-bbca-609376a23a83","ios":"levelo://app?vid=7bfcb41c-6c4f-4082-bbca-609376a23a83"},"vehicle_type_id":"4","last_reported":1687806339,"current_range_meters":800,"station_id":"","pricing_plan_id":"free"},