{"last_updated":1687208762,"ttl":30,"version":"2.2","data":{"bikes":[{"bike_id":"d1aa32a5-10bf-40ef-89cb-cffdfe513f01","system_id":"levelo_inurba_marseille","lat":43.309076,"lon":5.368465,"is_reserved":false,"is_disabled":false,"rental_uris":{"android":"levelo://app?vid=d1aa32a5-10bf-40ef-89cb-cffdfe513f01","ios":"levelo://app?vid=d1aa32a5-10bf-40ef-89cb-cffdfe513f01"},"vehicle_type_id":"4","last_reported":1687208763,"current_range_meters":12400,"station_id":"ce4bgn92rcd13ifvqbvg","pricing_plan_id":"free"},{"bike_id":"04a5c7a0-7300-4543-933b-6792551a9106","system_id":"levelo_inurba_marseille","lat":43.309076,"lon":5.368465,"is_reserved":false,"is_disabled":false,"rental_uris":{"android":"levelo://app?vid=04a5c7a0-7300-4543-933b-6792551a9106","ios":"levelo://app?vid=04a5c7a0-7300-4543-933b-6792551a9106"},"vehicle_type_id":"4","last_reported":1687208763,"current_range_meters":28800,"station_id":"ce4bgn92rcd13ifvqbvg","pricing_plan_id":"free"},{"bike_id":"d4c687df-26ab-442c-ae34-8646b5276451","system_id":"levelo_inurba_marseille","lat":43.309076,"lon":5.368465,"is_reserved":false,"is_disabled":false,"rental_uris":{"android":"levelo://app?vid=d4c687df-26ab-442c-ae34-8646b5276451","ios":"levelo://app?vid=d4c687df-26ab-442c-ae34-8646b5276451"},"vehicle_type_id":"4","last_reported":1687208763,"current_range_meters":0,"station_id":"ce4bgn92rcd13ifvqbvg","pricing_plan_id":"free"},{"bike_id":"1f7cb87c-1fb0-4458-833b-d7951221c121","system_id":"levelo_inurba_marseille","lat":43.314811,"lon":5.373103,"is_reserved":false,"is_disabled":false,"rental_uris":{"android":"levelo://app?vid=1f7cb87c-1fb0-4458-833b-d7951221c121","ios":"levelo://app?vid=1f7cb87c-1fb0-4458-833b-d7951221c121"},"vehicle_type_id":"4","last_reported":1687208763,"current_range_meters":4000,"station_id":"ce4bgt12rcd13ifvqcd0","pricing_plan_id":"free"},{"bike_id":"5874287e-e316-4f61-9f29-13324557a23c","system_id":"levelo_inurba_marseille","lat":43.314811,"lon":5.373103,"is_reserved":false,"is_disabled":false,"rental_uris":{"android":"levelo://app?vid=5874287e-e316-4f61-9f29-13324557a23c","ios":"levelo://app?vid=5874287e-e316-4f61-9f29-13324557a23c"},"vehicle_type_id":"4","last_reported":1687208763,"current_range_meters":18800,"station_id":"ce4bgt12rcd13ifvqcd0","pricing_plan_id":"free"},{"bike_id":"addb8dd8-a70a-4c19-977f-ec5bdcc74995","system_id":"levelo_inurba_marseille","lat":43.30878,"lon":5.37176,"is_reserved":false,"is_disabled":false,"rental_uris":{"android":"levelo://app?vid=addb8dd8-a70a-4c19-977f-ec5bdcc74995","ios":"levelo://app?vid=addb8dd8-a70a-4c19-977f-ec5bdcc74995"},"vehicle_type_id":"4","last_reported":1687208763,"current_range_meters":7600,"station_id":"","pricing_plan_id":"free"},{"bike_id":"2c48d0d3-9303-4ac6-ac6a-3853524cb540","system_id":"levelo_inurba_marseille","lat":43.30558,"lon":5.36497,"is_reserved":false,"is_disabled":false,"rental_uris":{"android":"levelo://app?vid=2c48d0d3-9303-4ac6-ac6a-3853524cb540","ios":"levelo://app?vid=2c48d0d3-9303-4ac6-ac6a-3853524cb540"},"vehicle_type_id":"4","last_reported":1687208763,"current_range_meters":31200,"station_id":"","pricing_plan_id":"free"},{"bike_id":"8e12ecdd-b61c-4835-9258-4e733736b865","system_id":"levelo_inurba_marseille","lat":43.305368,"lon":5.367343,"is_reserved":false,"is_disabled":false,"rental_uris":{"android":"levelo://app?vid=8e12ecdd-b61c-4835-9258-4e733736b865","ios":"levelo://app?vid=8e12ecdd-b61c-4835-9258-4e733736b865"},"vehicle_type_id":"4","last_reported":1687208763,"current_range_meters":24000,"station_id":"ce4bgrp2rcd13ifvqc9g","pricing_plan_id":"free"},{"bike_id":"749092ea-2bcd-4e48-a411-808fe362a965","system_id":"levelo_inurba_marseille","lat":43.30546,"lon":5.3652,"is_reserved":false,"is_disabled":false,"rental_uris":{"android":"levelo://app?vid=749092ea-2bcd-4e48-a411-808fe362a965","ios":"levelo://app?vid=749092ea-2bcd-4e48-a411-808fe362a965"},"vehicle_type_id":"4","last_reported":1687208763,"current_range_meters":30400,"station_id":"","pricing_plan_id":"free"},{"bike_id":"cd1d3157-9e61-4009-b240-e1339f255a78","system_id":"levelo_inurba_marseille","lat":43.305989,"lon":5.37225,"is_reserved":false,"is_disabled":false,"rental_uris":{"android":"levelo://app?vid=cd1d3157-9e61-4009-b240-e1339f255a78","ios":"levelo://app?vid=cd1d3157-9e61-4009-b240-e1339f255a78"},"vehicle_type_id":"4","last_reported":1687208763,"current_range_meters":15600,"station_id":"ce4bgqh2rcd13ifvqc4g","pricing_plan_id":"free"},{"bike_id":"7ab35d12-1b61-4b8e-afee-4e5552c6bb50","system_id":"levelo_inurba_marseille","lat":43.31119,"lon":5.37754,"is_reserved":false,"is_disabled":false,"rental_uris":{"android":"levelo://app?vid=7ab35d12-1b61-4b8e-afee-4e5552c6bb50","ios":"levelo://app?vid=7ab35d12-1b61-4b8e-afee-4e5552c6bb50"},"vehicle_type_id":"4","last_reported":1687208763,"current_range_meters":7600,"station_id":"ce4bgt92rcd13ifvqcg0","pricing_plan_id":"free"},{"bike_id":"e7d8dcdd-da52-4aa1-b7f7-a9e0e13cdabb","system_id":"levelo_inurba_marseille","lat":43.311125,"lon":5.377624,"is_reserved":false,"is_disabled":false,"rental_uris":{"android":"levelo://app?vid=e7d8dcdd-da52-4aa1-b7f7-a9e0e13cdabb","ios":"levelo://app?vid=e7d8dcdd-da52-4aa1-b7f7-a9e0e13cdabb"},"vehicle_type_id":"4","last_reported":1687208763,"current_range_meters":24400,"station_id":"ce4bgt92rcd13ifvqcg0","pricing_plan_id":"free"},{"bike_id":"e394e8a3-8395-4593-825c-5dec0d725b94","system_id":"levelo_inurba_marseille","lat":43.30973,"lon":5.37951,"is_reserved":false,"is_disabled":false,"rental_uris":{"android":"levelo://app?vid=e394e8a3-8395-4593-825c-5dec0d725b94","ios":"levelo://app?vid=e394e8a3-8395-4593-825c-5dec0d725b94"},"vehicle_type_id":"4","last_reported":1687208763,"current_range_meters":17600,"station_id":"","pricing_plan_id":"free"},{"bike_id":"e30593ef-04e1-4f02-a136-505b738937e8","system_id":"levelo_inurba_marseille","lat":43.303046,"lon":5.368981,"is_reserved":false,"is_disabled":false,"rental_uris":{"android":"levelo://app?vid=e30593ef-04e1-4f02-a136-505b738937e8","ios":"levelo://app?vid=e30593ef-04e1-4f02-a136-505b738937e8"},"vehicle_type_id":"4","last_reported":1687208763,"current_range_meters":31200,"station_id":"ce4bgqh2rcd13ifvqc5g","pricing_plan_id":"free"},{"bike_id":"d600a9eb-6920-4766-a502-7c355ac0d698","system_id":"levelo_inurba_marseille","lat":43.303046,"lon":5.368981,"is_reserved":false,"is_disabled":false,"rental_uris":{"android":"levelo://app?vid=d600a9eb-6920-4766-a502-7c355ac0d698","ios":"levelo://app?vid=d600a9eb-6920-4766-a502-7c355ac0d698"},"vehicle_type_id":"4","last_reported":1687208763,"current_range_meters":26800,"station_id":"ce4bgqh2rcd13ifvqc5g","pricing_plan_id":"free"},{"bike_id":"8e24c612-8f5f-4d37-bf50-48964d8d61bd","system_id":"levelo_inurba_marseille","lat":43.303046,"lon":5.368981,"is_reserved":false,"is_disabled":false,"rental_uris":{"android":"levelo://app?vid=8e24c612-8f5f-4d37-bf50-48964d8d61bd","ios":"levelo://app?vid=8e24c612-8f5f-4d37-bf50-48964d8d61bd"},"vehicle_type_id":"4","last_reported":1687208763,"current_range_meters":31200,"station_id":"ce4bgqh2rcd13ifvqc5g","pricing_plan_id":"free"},{"bike_id":"d50e398f-526f-480a-8e93-55c9d1998908","system_id":"levelo_inurba_marseille","lat":43.303046,"lon":5.368981,"is_reserved":false,"is_disabled":false,"rental_uris":{"android":"levelo://app?vid=d50e398f-526f-480a-8e93-55c9d1998908","ios":"levelo://app?vid=d50e398f-526f-480a-8e93-55c9d1998908"},"vehicle_type_id":"4","last_reported":1687208763,"current_range_meters":24400,"station_id":"ce4bgqh2rcd13ifvqc5g","pricing_plan_id":"free"},{"bike_id":"9ad1cddf-b44e-42a0-9280-d2dc4c422719","system_id":"levelo_inurba_marseille","lat":43.31535,"lon":5.38023,"is_reserved":false,"is_disabled":false,"rental_uris":{"android":"levelo://app?vid=9ad1cddf-b44e-42a0-9280-d2dc4c422719","ios":"levelo://app?vid=9ad1cddf-b44e-42a0-9280-d2dc4c422719"},"vehicle_type_id":"4","last_reported":1687208763,"current_range_meters":7200,"station_id":"ce4bhsp2rcd13ifvqi50","pricing_plan_id":"free"},{"bike_id":"3a3b0222-de45-4a80-be95-f0781b4c3a5d","system_id":"levelo_inurba_marseille","lat":43.315289,"lon":5.380349,"is_reserved":false,"is_disabled":false,"rental_uris":{"android":"levelo://app?vid=3a3b0222-de45-4a80-be95-f0781b4c3a5d","ios":"levelo://app?vid=3a3b0222-de45-4a80-be95-f0781b4c3a5d"},"vehicle_type_id":"4","last_reported":1687208763,"current_range_meters":22400,"station_id":"ce4bhsp2rcd13ifvqi50","pricing_plan_id":"free"},{"bike_id":"42ca8b03-b89a-4548-865c-54181a7d6b09","system_id":"levelo_inurba_marseille","lat":43.31528,"lon":5.38039,"is_reserved":false,"is_disabled":false,"rental_uris":{"android":"levelo://app?vid=42ca8b03-b89a-4548-865c-54181a7d6b09","ios":"levelo://app?vid=42ca8b03-b89a-4548-865c-54181a7d6b09"},"vehicle_type_id":"4","last_reported":1687208763,"current_range_meters":11600,"station_id":"ce4bhsp2rcd13ifvqi50","pricing_plan_id":"free"},{"bike_id":"ae33307b-fcd5-479b-9ae1-9002ed226c6e","system_id":"levelo_inurba_marseille","lat":43.308012,"lon":5.381511,"is_reserved":false,"is_disabled":false,"rental_uris":{"android":"levelo://app?vid=ae33307b-fcd5-479b-9ae1-9002ed226c6e","ios":"levelo://app?vid=ae33307b-fcd5-479b-9ae1-9002ed226c6e"},"vehicle_type_id":"4","last_reported":1687208763,"current_range_meters":23600,"station_id":"ce4bgt12rcd13ifvqce0","pricing_plan_id":"free"},{"bike_id":"442d383e-578f-4436-b60f-7955baa8606d","system_id":"levelo_inurba_marseille","lat":43.308012,"lon":5.381511,"is_reserved":false,"is_disabled":false,"rental_uris":{"android":"levelo://app?vid=442d383e-578f-4436-b60f-7955baa8606d","ios":"levelo://app?vid=442d383e-578f-4436-b60f-7955baa8606d"},"vehicle_type_id":"4","last_reported":1687208763,"current_range_meters":29600,"station_id":"ce4bgt12rcd13ifvqce0","pricing_plan_id":"free"},{"bike_id":"8ded1d1d-d529-4ada-a43a-10a34c8fb069","system_id":"levelo_inurba_marseille","lat":43.308012,"lon":5.381511,"is_reserved":false,"is_disabled":false,"rental_uris":{"android":"levelo://app?vid=8ded1d1d-d529-4ada-a43a-10a34c8fb069","ios":"levelo://app?vid=8ded1d1d-d529-4ada-a43a-10a34c8fb069"},"vehicle_type_id":"4","last_reported":1687208763,"current_range_meters":25600,"station_id":"ce4bgt12rcd13ifvqce0","pricing_plan_id":"free"},{"bike_id":"11ece4dc-078d-4759-ab88-73bef5b937cc","system_id":"levelo_inurba_marseille","lat":43.304606,"lon":5.379026,"is_reserved":false,"is_disabled":false,"rental_uris":{"android":"levelo://app?vid=11ece4dc-078d-4759-ab88-73bef5b937cc","ios":"levelo://app?vid=11ece4dc-078d-4759-ab88-73bef5b937cc"},"vehicle_type_id":"4","last_reported":1687208763,"current_range_meters":4000,"station_id":"ce4bgup2rcd13ifvqcn0","pricing_plan_id":"free"},{"bike_id":"5038318d-8d86-4203-bc58-a3e78c00acb7","system_id":"levelo_inurba_marseille","lat":43.30461,"lon":5.37898,"is_reserved":false,"is_disabled":false,"rental_uris":{"android":"levelo://app?vid=5038318d-8d86-4203-bc58-a3e78c00acb7","ios":"levelo://app?vid=5038318d-8d86-4203-bc58-a3e78c00acb7"},"vehicle_type_id":"4","last_reported":1687208763,"current_range_meters":16400,"station_id":"ce4bgup2rcd13ifvqcn0","pricing_plan_id":"free"},{"bike_id":"041bc147-ef2f-419b-bb81-deca3bdf89e2","system_id":"levelo_inurba_marseille","lat":43.304606,"lon":5.379026,"is_reserved":false,"is_disabled":false,"rental_uris":{"android":"levelo://app?vid=041bc147-ef2f-419b-bb81-deca3bdf89e2","ios":"levelo://app?vid=041bc147-ef2f-419b-bb81-deca3bdf89e2"},"vehicle_type_id":"4","last_reported":1687208763,"current_range_meters":28000,"station_id":"ce4bgup2rcd13ifvqcn0","pricing_plan_id":"free"},{"bike_id":"5965d893-0a57-4cbe-b065-e9aa1470b3e6","system_id":"levelo_inurba_marseille","lat":43.30458,"lon":5.37899,"is_reserved":false,"is_disabled":false,"rental_uris":{"android":"levelo://app?vid=5965d893-0a57-4cbe-b065-e9aa1470b3e6","ios":"levelo://app?vid=5965d893-0a57-4cbe-b065-e9aa1470b3e6"},"vehicle_type_id":"4","last_reported":1687208763,"current_range_meters":0,"station_id":"ce4bgup2rcd13ifvqcn0","pricing_plan_id":"free"},{"bike_id":"43fc693e-f2a9-4aec-8fd9-d094bb02cb70","system_id":"levelo_inurba_marseille","lat":43.304606,"lon":5.379026,"is_reserved":false,"is_disabled":false,"rental_uris":{"android":"levelo://app?vid=43fc693e-f2a9-4aec-8fd9-d094bb02cb70","ios":"levelo://app?vid=43fc693e-f2a9-4aec-8fd9-d094bb02cb70"},"vehicle_type_id":"4","last_reported":1687208763,"current_range_meters":12400,"station_id":"ce4bgup2rcd13ifvqcn0","pricing_plan_id":"free"},{"bike_id":"adebcff0-799c-416e-8900-cd0809f04ed4","system_id":"levelo_inurba_marseille","lat":43.313571,"lon":5.384829,"is_reserved":false,"is_disabled":false,"rental_uris":{"android":"levelo://app?vid=adebcff0-799c-416e-8900-cd0809f04ed4","ios":"levelo://app?vid=adebcff0-799c-416e-8900-cd0809f04ed4"},"vehicle_type_id":"4","last_reported":1687208763,"current_range_meters":11600,"station_id":"ce4bgt92rcd13ifvqcf0","pricing_plan_id":"free"},{"bike_id":"b68c77c6-9c35-445c-89a4-68b99316ff1d","system_id":"levelo_inurba_marseille","lat":43.313571,"lon":5.384829,"is_reserved":false,"is_disabled":false,"rental_uris":{"android":"levelo://app?vid=b68c77c6-9c35-445c-89a4-68b99316ff1d","ios":"levelo://app?vid=b68c77c6-9c35-445c-89a4-68b99316ff1d"},"vehicle_type_id":"4","last_reported":1687208763,"current_range_meters":6000,"station_id":"ce4bgt92rcd13ifvqcf0","pricing_plan_id":"free"},{"bike_id":"8846a4b4-eb37-461c-9af6-3503a780d1c9","system_id":"levelo_inurba_marseille","lat":43.30727,"lon":5.38337,"is_reserved":false,"is_disabled":false,"rental_uris":{"android":"levelo://app?vid=8846a4b4-eb37-461c-9af6-3503a780d1c9","ios":"levelo://app?vid=8846a4b4-eb37-461c-9af6-3503a780d1c9"},"vehicle_type_id":"4","last_reported":1687208763,"current_range_meters":16000,"station_id":"","pricing_plan_id":"free"},{"bike_id":"e77b10d9-a469-454e-81c6-7a0fd2d3bc56","system_id":"levelo_inurba_marseille","lat":43.305364,"lon":5.384119,"is_reserved":false,"is_disabled":false,"rental_uris":{"android":"levelo://app?vid=e77b10d9-a469-454e-81c6-7a0fd2d3bc56","ios":"levelo://app?vid=e77b10d9-a469-454e-81c6-7a0fd2d3bc56"},"vehicle_type_id":"4","last_reported":1687208763,"current_range_meters":14000,"station_id":"ce4bgg92rcd13ifvqb30","pricing_plan_id":"free"},{"bike_id":"91549990-62be-48c4-b105-82dcaf25506c","system_id":"levelo_inurba_marseille","lat":43.29921,"lon":5.37474,"is_reserved":false,"is_disabled":false,"rental_uris":{"android":"levelo://app?vid=91549990-62be-48c4-b105-82dcaf25506c","ios":"levelo://app?vid=91549990-62be-48c4-b105-82dcaf25506c"},"vehicle_type_id":"4","last_reported":1687208763,"current_range_meters":9600,"station_id":"ce4bgjh2rcd13ifvqbg0","pricing_plan_id":"free"},{"bike_id":"1d5dbef4-a4a9-4763-b725-db3ae4bab209","system_id":"levelo_inurba_marseille","lat":43.311722,"lon":5.387247,"is_reserved":false,"is_disabled":false,"rental_uris":{"android":"levelo://app?vid=1d5dbef4-a4a9-4763-b725-db3ae4bab209","ios":"levelo://app?vid=1d5dbef4-a4a9-4763-b725-db3ae4bab209"},"vehicle_type_id":"4","last_reported":1687208763,"current_range_meters":8800,"station_id":"ce4bgv12rcd13ifvqcp0","pricing_plan_id":"free"},{"bike_id":"ed551a1d-28ad-435c-a319-316c408c0167","system_id":"levelo_inurba_marseille","lat":43.311722,"lon":5.387247,"is_reserved":false,"is_disabled":false,"rental_uris":{"android":"levelo://app?vid=ed551a1d-28ad-435c-a319-316c408c0167","ios":"levelo://app?vid=ed551a1d-28ad-435c-a319-316c408c0167"},"vehicle_type_id":"4","last_reported":1687208763,"current_range_meters":31200,"station_id":"ce4bgv12rcd13ifvqcp0","pricing_plan_id":"free"},{"bike_id":"acb547cb-7456-4573-ba83-c9be8a5e6999","system_id":"levelo_inurba_marseille","lat":43.311722,"lon":5.387247,"is_reserved":false,"is_disabled":false,"rental_uris":{"android":"levelo://app?vid=acb547cb-7456-4573-ba83-c9be8a5e6999","ios":"levelo://app?vid=acb547cb-7456-4573-ba83-c9be8a5e6999"},"vehicle_type_id":"4","last_reported":1687208763,"current_range_meters":11600,"station_id":"ce4bgv12rcd13ifvqcp0","pricing_plan_id":"free"},{"bike_id":"1d9994fd-02a0-45b7-ba0f-3d7f05be1570","system_id":"levelo_inurba_marseille","lat":43.311722,"lon":5.387247,"is_reserved":false,"is_disabled":false,"rental_uris":{"android":"levelo://app?vid=1d9994fd-02a0-45b7-ba0f-3d7f05be1570","ios":"levelo://app?vid=1d9994fd-02a0-45b7-ba0f-3d7f05be1570"},"vehicle_type_id":"4","last_reported":1687208763,"current_range_meters":24000,"station_id":"ce4bgv12rcd13ifvqcp0","pricing_plan_id":"free"},{"bike_id":"832e1273-fa14-42aa-b411-4f520f45589b","system_id":"levelo_inurba_marseille","lat":43.32833,"lon":5.36684,"is_reserved":false,"is_disabled":false,"rental_uris":{"android":"levelo://app?vid=832e1273-fa14-42aa-b411-4f520f45589b","ios":"levelo://app?vid=832e1273-fa14-42aa-b411-4f520f45589b"},"vehicle_type_id":"4","last_reported":1687208763,"current_range_meters":11200,"station_id":"ce4bhs92rcd13ifvqi0g","pricing_plan_id":"free"},{"bike_id":"f5c7f8b6-0397-45cd-aaf7-282381eb2475","system_id":"levelo_inurba_marseille","lat":43.29709,"lon":5.3661,"is_reserved":false,"is_disabled":false,"rental_uris":{"android":"levelo://app?vid=f5c7f8b6-0397-45cd-aaf7-282381eb2475","ios":"levelo://app?vid=f5c7f8b6-0397-45cd-aaf7-282381eb2475"},"vehicle_type_id":"4","last_reported":1687208763,"current_range_meters":29600,"station_id":"ce4bgn12rcd13ifvqbt0","pricing_plan_id":"free"},{"bike_id":"176f4894-d7fc-460e-aa5d-7c8c1e206dc3","system_id":"levelo_inurba_marseille","lat":43.29707,"lon":5.36613,"is_reserved":false,"is_disabled":false,"rental_uris":{"android":"levelo://app?vid=176f4894-d7fc-460e-aa5d-7c8c1e206dc3","ios":"levelo://app?vid=176f4894-d7fc-460e-aa5d-7c8c1e206dc3"},"vehicle_type_id":"4","last_reported":1687208763,"current_range_meters":28000,"station_id":"ce4bgn12rcd13ifvqbt0","pricing_plan_id":"free"},{"bike_id":"493b7ee3-0728-4205-925f-0f351e2364a3","system_id":"levelo_inurba_marseille","lat":43.2968,"lon":5.37291,"is_reserved":false,"is_disabled":false,"rental_uris":{"android":"levelo://app?vid=493b7ee3-0728-4205-925f-0f351e2364a3","ios":"levelo://app?vid=493b7ee3-0728-4205-925f-0f351e2364a3"},"vehicle_type_id":"4","last_reported":1687208763,"current_range_meters":26000,"station_id":"ce4bgk12rcd13ifvqbj0","pricing_plan_id":"free"},{"bike_id":"f0ee6996-22ee-44cd-b957-fefdf76f60ee","system_id":"levelo_inurba_marseille","lat":43.297794,"lon":5.370888,"is_reserved":false,"is_disabled":false,"rental_uris":{"android":"levelo://app?vid=f0ee6996-22ee-44cd-b957-fefdf76f60ee","ios":"levelo://app?vid=f0ee6996-22ee-44cd-b957-fefdf76f60ee"},"vehicle_type_id":"4","last_reported":1687208763,"current_range_meters":3200,"station_id":"ce4bgop2rcd13ifvqc1g","pricing_plan_id":"free"},{"bike_id":"6f015f4f-4936-481d-a0ad-da8b75100980","system_id":"levelo_inurba_marseille","lat":43.29573,"lon":5.367355,"is_reserved":false,"is_disabled":false,"rental_uris":{"android":"levelo://app?vid=6f015f4f-4936-481d-a0ad-da8b75100980","ios":"levelo://app?vid=6f015f4f-4936-481d-a0ad-da8b75100980"},"vehicle_type_id":"4","last_reported":1687208763,"current_range_meters":31200,"station_id":"ce4bgph2rcd13ifvqc2g","pricing_plan_id":"free"},{"bike_id":"cedd9f2e-0954-47ba-8d32-00c8e12bdf67","system_id":"levelo_inurba_marseille","lat":43.29573,"lon":5.367355,"is_reserved":false,"is_disabled":false,"rental_uris":{"android":"levelo://app?vid=cedd9f2e-0954-47ba-8d32-00c8e12bdf67","ios":"levelo://app?vid=cedd9f2e-0954-47ba-8d32-00c8e12bdf67"},"vehicle_type_id":"4","last_reported":1687208763,"current_range_meters":26400,"station_id":"ce4bgph2rcd13ifvqc2g","pricing_plan_id":"free"},{"bike_id":"24f41ca5-b432-4feb-a0c8-a15026b97306","system_id":"levelo_inurba_marseille","lat":43.296131,"lon":5.370773,"is_reserved":false,"is_disabled":false,"rental_uris":{"android":"levelo://app?vid=24f41ca5-b432-4feb-a0c8-a15026b97306","ios":"levelo://app?vid=24f41ca5-b432-4feb-a0c8-a15026b97306"},"vehicle_type_id":"4","last_reported":1687208763,"current_range_meters":7200,"station_id":"ce4bgnh2rcd13ifvqc0g","pricing_plan_id":"free"},{"bike_id":"aa9ab3ed-be4d-4d35-92b0-8107b3f98d72","system_id":"levelo_inurba_marseille","lat":43.299028,"lon":5.381509,"is_reserved":false,"is_disabled":false,"rental_uris":{"android":"levelo://app?vid=aa9ab3ed-be4d-4d35-92b0-8107b3f98d72","ios":"levelo://app?vid=aa9ab3ed-be4d-4d35-92b0-8107b3f98d72"},"vehicle_type_id":"4","last_reported":1687208763,"current_range_meters":12000,"station_id":"ce4bgj12rcd13ifvqbc0","pricing_plan_id":"free"},{"bike_id":"9d23d206-558d-418d-9cff-60df6343b02e","system_id":"levelo_inurba_marseille","lat":43.299028,"lon":5.381509,"is_reserved":false,"is_disabled":false,"rental_uris":{"android":"levelo://app?vid=9d23d206-558d-418d-9cff-60df6343b02e","ios":"levelo://app?vid=9d23d206-558d-418d-9cff-60df6343b02e"},"vehicle_type_id":"4","last_reported":1687208763,"current_range_meters":9600,"station_id":"ce4bgj12rcd13ifvqbc0","pricing_plan_id":"free"},{"bike_id":"5358f02d-b216-4c47-a7df-65a32c65de27","system_id":"levelo_inurba_marseille","lat":43.299028,"lon":5.381509,"is_reserved":false,"is_disabled":false,"rental_uris":{"android":"levelo://app?vid=5358f02d-b216-4c47-a7df-65a32c65de27","ios":"levelo://app?vid=5358f02d-b216-4c47-a7df-65a32c65de27"},"vehicle_type_id":"4","last_reported":1687208763,"current_range_meters":27600,"station_id":"ce4bgj12rcd13ifvqbc0","pricing_plan_id":"free"},{"bike_id":"ab137c87-7b5d-4a6d-b139-0e4813e4842d","system_id":"levelo_inurba_marseille","lat":43.317557,"lon":5.390173,"is_reserved":false,"is_disabled":false,"rental_uris":{"android":"levelo://app?vid=ab137c87-7b5d-4a6d-b139-0e4813e4842d","ios":"levelo://app?vid=ab137c87-7b5d-4a6d-b139-0e4813e4842d"},"vehicle_type_id":"4","last_reported":1687208763,"current_range_meters":26000,"station_id":"ce4bhqp2rcd13ifvqhng","pricing_plan_id":"free"},{"bike_id":"734ce217-e6fb-41df-bb44-4b53bd35a53a","system_id":"levelo_inurba_marseille","lat":43.317557,"lon":5.390173,"is_reserved":false,"is_disabled":false,"rental_uris":{"android":"levelo://app?vid=734ce217-e6fb-41df-bb44-4b53bd35a53a","ios":"levelo://app?vid=734ce217-e6fb-41df-bb44-4b53bd35a53a"},"vehicle_type_id":"4","last_reported":1687208763,"current_range_meters":13600,"station_id":"ce4bhqp2rcd13ifvqhng","pricing_plan_id":"free"},{"bike_id":"34e2d3aa-169c-4af3-8480-807be04aae36","system_id":"levelo_inurba_marseille","lat":43.317557,"lon":5.390173,"is_reserved":false,"is_disabled":false,"rental_uris":{"android":"levelo://app?vid=34e2d3aa-169c-4af3-8480-807be04aae36","ios":"levelo://app?vid=34e2d3aa-169c-4af3-8480-807be04aae36"},"vehicle_type_id":"4","last_reported":1687208763,"current_range_meters":19200,"station_id":"ce4bhqp2rcd13ifvqhng","pricing_plan_id":"free"},{"bike_id":"6764152f-1072-4daf-b067-0fdce8aa78d7","system_id":"levelo_inurba_marseille","lat":43.298037,"lon":5.381066,"is_reserved":false,"is_disabled":false,"rental_uris":{"android":"levelo://app?vid=6764152f-1072-4daf-b067-0fdce8aa78d7","ios":"levelo://app?vid=6764152f-1072-4daf-b067-0fdce8aa78d7"},"vehicle_type_id":"4","last_reported":1687208763,"current_range_meters":28000,"station_id":"ce4bgip2rcd13ifvqbb0","pricing_plan_id":"free"},{"bike_id":"836fb3c0-91ef-482b-a394-880c39cf66f5","system_id":"levelo_inurba_marseille","lat":43.298037,"lon":5.381066,"is_reserved":false,"is_disabled":false,"rental_uris":{"android":"levelo://app?vid=836fb3c0-91ef-482b-a394-880c39cf66f5","ios":"levelo://app?vid=836fb3c0-91ef-482b-a394-880c39cf66f5"},"vehicle_type_id":"4","last_reported":1687208763,"current_range_meters":16000,"station_id":"ce4bgip2rcd13ifvqbb0","pricing_plan_id":"free"},{"bike_id":"6081c3d6-ef7b-4860-ab97-620d85c8f00c","system_id":"levelo_inurba_marseille","lat":43.295761,"lon":5.375029,"is_reserved":false,"is_disabled":false,"rental_uris":{"android":"levelo://app?vid=6081c3d6-ef7b-4860-ab97-620d85c8f00c","ios":"levelo://app?vid=6081c3d6-ef7b-4860-ab97-620d85c8f00c"},"vehicle_type_id":"4","last_reported":1687208763,"current_range_meters":11600,"station_id":"","pricing_plan_id":"free"},{"bike_id":"250c8a96-8498-4211-b8f3-1b00a8d1fbaf","system_id":"levelo_inurba_marseille","lat":43.296477,"lon":5.37768,"is_reserved":false,"is_disabled":false,"rental_uris":{"android":"levelo://app?vid=250c8a96-8498-4211-b8f3-1b00a8d1fbaf","ios":"levelo://app?vid=250c8a96-8498-4211-b8f3-1b00a8d1fbaf"},"vehicle_type_id":"4","last_reported":1687208763,"current_range_meters":7600,"station_id":"","pricing_plan_id":"free"},{"bike_id":"b7b1d109-f109-46f0-bcde-562f2f46f0be","system_id":"levelo_inurba_marseille","lat":43.30424,"lon":5.38891,"is_reserved":false,"is_disabled":false,"rental_uris":{"android":"levelo://app?vid=b7b1d109-f109-46f0-bcde-562f2f46f0be","ios":"levelo://app?vid=b7b1d109-f109-46f0-bcde-562f2f46f0be"},"vehicle_type_id":"4","last_reported":1687208763,"current_range_meters":0,"station_id":"ce4bgk12rcd13ifvqbi0","pricing_plan_id":"free"},{"bike_id":"afb61759-8b03-4a6a-a393-439478444541","system_id":"levelo_inurba_marseille","lat":43.304239,"lon":5.388917,"is_reserved":false,"is_disabled":false,"rental_uris":{"android":"levelo://app?vid=afb61759-8b03-4a6a-a393-439478444541","ios":"levelo://app?vid=afb61759-8b03-4a6a-a393-439478444541"},"vehicle_type_id":"4","last_reported":1687208763,"current_range_meters":11600,"station_id":"ce4bh512rcd13ifvqe3g","pricing_plan_id":"free"},{"bike_id":"1f2ec5cd-5c1c-4444-9819-edc38a9e1c88","system_id":"levelo_inurba_marseille","lat":43.299745,"lon":5.384759,"is_reserved":false,"is_disabled":false,"rental_uris":{"android":"levelo://app?vid=1f2ec5cd-5c1c-4444-9819-edc38a9e1c88","ios":"levelo://app?vid=1f2ec5cd-5c1c-4444-9819-edc38a9e1c88"},"vehicle_type_id":"4","last_reported":1687208763,"current_range_meters":3600,"station_id":"","pricing_plan_id":"free"},{"bike_id":"499a5301-dc84-4c52-a5a8-4132281ab878","system_id":"levelo_inurba_marseille","lat":43.299717,"lon":5.384845,"is_reserved":false,"is_disabled":false,"rental_uris":{"android":"levelo://app?vid=499a5301-dc84-4c52-a5a8-4132281ab878","ios":"levelo://app?vid=499a5301-dc84-4c52-a5a8-4132281ab878"},"vehicle_type_id":"4","last_reported":1687208763,"current_range_meters":0,"station_id":"ce4bgj92rcd13ifvqbd0","pricing_plan_id":"free"},{"bike_id":"eb56f040-d7e3-440c-9d05-82afe187dd21","system_id":"levelo_inurba_marseille","lat":43.299717,"lon":5.384845,"is_reserved":false,"is_disabled":false,"rental_uris":{"android":"levelo://app?vid=eb56f040-d7e3-440c-9d05-82afe187dd21","ios":"levelo://app?vid=eb56f040-d7e3-440c-9d05-82afe187dd21"},"vehicle_type_id":"4","last_reported":1687208763,"current_range_meters":30400,"station_id":"ce4bgj92rcd13ifvqbd0","pricing_plan_id":"free"},{"bike_id":"beb1f134-292f-42e3-8904-5df6190a5bb9","system_id":"levelo_inurba_marseille","lat":43.29904,"lon":5.38505,"is_reserved":false,"is_disabled":false,"rental_uris":{"android":"levelo://app?vid=beb1f134-292f-42e3-8904-5df6190a5bb9","ios":"levelo://app?vid=beb1f134-292f-42e3-8904-5df6190a5bb9"},"vehicle_type_id":"4","last_reported":1687208763,"current_range_meters":10000,"station_id":"","pricing_plan_id":"free"},{"bike_id":"554d461b-faf0-4249-b043-1ce5292e3cda","system_id":"levelo_inurba_marseille","lat":43.32358,"lon":5.38874,"is_reserved":false,"is_disabled":false,"rental_uris":{"android":"levelo://app?vid=554d461b-faf0-4249-b043-1ce5292e3cda","ios":"levelo://app?vid=554d461b-faf0-4249-b043-1ce5292e3cda"},"vehicle_type_id":"4","last_reported":1687208763,"current_range_meters":3200,"station_id":"ce4bhqp2rcd13ifvqhog","pricing_plan_id":"free"},{"bike_id":"b3af4213-6f75-4eeb-a9c5-95698eb70200","system_id":"levelo_inurba_marseille","lat":43.32367,"lon":5.388836,"is_reserved":false,"is_disabled":false,"rental_uris":{"android":"levelo://app?vid=b3af4213-6f75-4eeb-a9c5-95698eb70200","ios":"levelo://app?vid=b3af4213-6f75-4eeb-a9c5-95698eb70200"},"vehicle_type_id":"4","last_reported":1687208763,"current_range_meters":2800,"station_id":"ce4bhqp2rcd13ifvqhog","pricing_plan_id":"free"},{"bike_id":"709e83c0-4cc9-4649-a912-da02c41b49b2","system_id":"levelo_inurba_marseille","lat":43.32367,"lon":5.388836,"is_reserved":false,"is_disabled":false,"rental_uris":{"android":"levelo://app?vid=709e83c0-4cc9-4649-a912-da02c41b49b2","ios":"levelo://app?vid=709e83c0-4cc9-4649-a912-da02c41b49b2"},"vehicle_type_id":"4","last_reported":1687208763,"current_range_meters":15200,"station_id":"ce4bhqp2rcd13ifvqhog","pricing_plan_id":"free"},{"bike_id":"fed0fa05-6563-4a2c-a686-a1bf0f63a977","system_id":"levelo_inurba_marseille","lat":43.32367,"lon":5.388836,"is_reserved":false,"is_disabled":false,"rental_uris":{"android":"levelo://app?vid=fed0fa05-6563-4a2c-a686-a1bf0f63a977","ios":"levelo://app?vid=fed0fa05-6563-4a2c-a686-a1bf0f63a977"},"vehicle_type_id":"4","last_reported":1687208763,"current_range_meters":4400,"station_id":"ce4bhqp2rcd13ifvqhog","pricing_plan_id":"free"},{"bike_id":"924f5e2c-3798-48c5-a26b-4aa840da3bf3","system_id":"levelo_inurba_marseille","lat":43.32367,"lon":5.388836,"is_reserved":false,"is_disabled":false,"rental_uris":{"android":"levelo://app?vid=924f5e2c-3798-48c5-a26b-4aa840da3bf3","ios":"levelo://app?vid=924f5e2c-3798-48c5-a26b-4aa840da3bf3"},"vehicle_type_id":"4","last_reported":1687208763,"current_range_meters":24400,"station_id":"ce4bhqp2rcd13ifvqhog","pricing_plan_id":"free"},{"bike_id":"a1992d99-4166-47a2-9232-caeb23792c5e","system_id":"levelo_inurba_marseille","lat":43.29601,"lon":5.381084,"is_reserved":false,"is_disabled":false,"rental_uris":{"android":"levelo://app?vid=a1992d99-4166-47a2-9232-caeb23792c5e","ios":"levelo://app?vid=a1992d99-4166-47a2-9232-caeb23792c5e"},"vehicle_type_id":"4","last_reported":1687208763,"current_range_meters":20400,"station_id":"ce4bgl12rcd13ifvqbo0","pricing_plan_id":"free"},{"bike_id":"4f610fab-0cee-4631-8203-09a5a01609f0","system_id":"levelo_inurba_marseille","lat":43.292749,"lon":5.368398,"is_reserved":false,"is_disabled":false,"rental_uris":{"android":"levelo://app?vid=4f610fab-0cee-4631-8203-09a5a01609f0","ios":"levelo://app?vid=4f610fab-0cee-4631-8203-09a5a01609f0"},"vehicle_type_id":"4","last_reported":1687208763,"current_range_meters":20000,"station_id":"ce4bhbp2rcd13ifvqesg","pricing_plan_id":"free"},{"bike_id":"f96bc5ef-773a-4c29-b818-b40707fecfaa","system_id":"levelo_inurba_marseille","lat":43.30596,"lon":5.39354,"is_reserved":false,"is_disabled":false,"rental_uris":{"android":"levelo://app?vid=f96bc5ef-773a-4c29-b818-b40707fecfaa","ios":"levelo://app?vid=f96bc5ef-773a-4c29-b818-b40707fecfaa"},"vehicle_type_id":"4","last_reported":1687208763,"current_range_meters":31200,"station_id":"ce4bh0p2rcd13ifvqd80","pricing_plan_id":"free"},{"bike_id":"66b480a6-9947-4496-98e2-93e61a3244b4","system_id":"levelo_inurba_marseille","lat":43.30594,"lon":5.39355,"is_reserved":false,"is_disabled":false,"rental_uris":{"android":"levelo://app?vid=66b480a6-9947-4496-98e2-93e61a3244b4","ios":"levelo://app?vid=66b480a6-9947-4496-98e2-93e61a3244b4"},"vehicle_type_id":"4","last_reported":1687208763,"current_range_meters":29200,"station_id":"ce4bh0p2rcd13ifvqd80","pricing_plan_id":"free"},{"bike_id":"dbc2cadf-155d-41b5-8117-021a4980ad01","system_id":"levelo_inurba_marseille","lat":43.305994,"lon":5.393687,"is_reserved":false,"is_disabled":false,"rental_uris":{"android":"levelo://app?vid=dbc2cadf-155d-41b5-8117-021a4980ad01","ios":"levelo://app?vid=dbc2cadf-155d-41b5-8117-021a4980ad01"},"vehicle_type_id":"4","last_reported":1687208763,"current_range_meters":30400,"station_id":"ce4bh0p2rcd13ifvqd80","pricing_plan_id":"free"},{"bike_id":"1860480f-dfbb-42e5-b4ee-caf7801dee17","system_id":"levelo_inurba_marseille","lat":43.305994,"lon":5.393687,"is_reserved":false,"is_disabled":false,"rental_uris":{"android":"levelo://app?vid=1860480f-dfbb-42e5-b4ee-caf7801dee17","ios":"levelo://app?vid=1860480f-dfbb-42e5-b4ee-caf7801dee17"},"vehicle_type_id":"4","last_reported":1687208763,"current_range_meters":14000,"station_id":"ce4bh0p2rcd13ifvqd80","pricing_plan_id":"free"},{"bike_id":"31e9b52b-637e-4fe6-8843-73d931b1f83c","system_id":"levelo_inurba_marseille","lat":43.305994,"lon":5.393687,"is_reserved":false,"is_disabled":false,"rental_uris":{"android":"levelo://app?vid=31e9b52b-637e-4fe6-8843-73d931b1f83c","ios":"levelo://app?vid=31e9b52b-637e-4fe6-8843-73d931b1f83c"},"vehicle_type_id":"4","last_reported":1687208763,"current_range_meters":11600,"station_id":"ce4bh0p2rcd13ifvqd80","pricing_plan_id":"free"},{"bike_id":"f56dd423-174a-459c-a9b5-a7f304653c65","system_id":"levelo_inurba_marseille","lat":43.305994,"lon":5.393687,"is_reserved":false,"is_disabled":false,"rental_uris":{"android":"levelo://app?vid=f56dd423-174a-459c-a9b5-a7f304653c65","ios":"levelo://app?vid=f56dd423-174a-459c-a9b5-a7f304653c65"},"vehicle_type_id":"4","last_reported":1687208763,"current_range_meters":6000,"station_id":"ce4bh0p2rcd13ifvqd80","pricing_plan_id":"free"},{"bike_id":"659b5d8b-1631-48ee-8cff-de6411143e1c","system_id":"levelo_inurba_marseille","lat":43.302992,"lon":5.392136,"is_reserved":false,"is_disabled":false,"rental_uris":{"android":"levelo://app?vid=659b5d8b-1631-48ee-8cff-de6411143e1c","ios":"levelo://app?vid=659b5d8b-1631-48ee-8cff-de6411143e1c"},"vehicle_type_id":"4","last_reported":1687208763,"current_range_meters":0,"station_id":"ce4bgkh2rcd13ifvqbk0","pricing_plan_id":"free"},{"bike_id":"7ee8e857-e58f-4d0f-9ec8-cf55d6494b29","system_id":"levelo_inurba_marseille","lat":43.2927,"lon":5.35966,"is_reserved":false,"is_disabled":false,"rental_uris":{"android":"levelo://app?vid=7ee8e857-e58f-4d0f-9ec8-cf55d6494b29","ios":"levelo://app?vid=7ee8e857-e58f-4d0f-9ec8-cf55d6494b29"},"vehicle_type_id":"4","last_reported":1687208763,"current_range_meters":5600,"station_id":"","pricing_plan_id":"free"},{"bike_id":"e2cdb45e-4b35-4f2e-bbb0-bc71e8131349","system_id":"levelo_inurba_marseille","lat":43.302992,"lon":5.392136,"is_reserved":false,"is_disabled":false,"rental_uris":{"android":"levelo://app?vid=e2cdb45e-4b35-4f2e-bbb0-bc71e8131349","ios":"levelo://app?vid=e2cdb45e-4b35-4f2e-bbb0-bc71e8131349"},"vehicle_type_id":"4","last_reported":1687208763,"current_range_meters":22800,"station_id":"ce4bgkh2rcd13ifvqbk0","pricing_plan_id":"free"},{"bike_id":"3a4d5ad6-31b0-4118-96f8-49616ec4fb89","system_id":"levelo_inurba_marseille","lat":43.2936,"lon":5.37835,"is_reserved":false,"is_disabled":false,"rental_uris":{"android":"levelo://app?vid=3a4d5ad6-31b0-4118-96f8-49616ec4fb89","ios":"levelo://app?vid=3a4d5ad6-31b0-4118-96f8-49616ec4fb89"},"vehicle_type_id":"4","last_reported":1687208763,"current_range_meters":13200,"station_id":"ce4bgjh2rcd13ifvqbf0","pricing_plan_id":"free"},{"bike_id":"c97936f6-37b2-4a17-bdc2-9dec88bb5232","system_id":"levelo_inurba_marseille","lat":43.2936,"lon":5.37835,"is_reserved":false,"is_disabled":false,"rental_uris":{"android":"levelo://app?vid=c97936f6-37b2-4a17-bdc2-9dec88bb5232","ios":"levelo://app?vid=c97936f6-37b2-4a17-bdc2-9dec88bb5232"},"vehicle_type_id":"4","last_reported":1687208763,"current_range_meters":23200,"station_id":"ce4bgjh2rcd13ifvqbf0","pricing_plan_id":"free"},{"bike_id":"6024aca9-4a62-401f-ad62-0286d576444c","system_id":"levelo_inurba_marseille","lat":43.300852,"lon":5.390859,"is_reserved":false,"is_disabled":false,"rental_uris":{"android":"levelo://app?vid=6024aca9-4a62-401f-ad62-0286d576444c","ios":"levelo://app?vid=6024aca9-4a62-401f-ad62-0286d576444c"},"vehicle_type_id":"4","last_reported":1687208763,"current_range_meters":26000,"station_id":"ce4bh192rcd13ifvqdb0","pricing_plan_id":"free"},{"bike_id":"6f0efa68-e035-4954-a958-d7a085f2bdfc","system_id":"levelo_inurba_marseille","lat":43.298764,"lon":5.388973,"is_reserved":false,"is_disabled":false,"rental_uris":{"android":"levelo://app?vid=6f0efa68-e035-4954-a958-d7a085f2bdfc","ios":"levelo://app?vid=6f0efa68-e035-4954-a958-d7a085f2bdfc"},"vehicle_type_id":"4","last_reported":1687208763,"current_range_meters":14400,"station_id":"ce4bh392rcd13ifvqdl0","pricing_plan_id":"free"},{"bike_id":"cae32191-9101-4151-86a4-961ba4e9ecae","system_id":"levelo_inurba_marseille","lat":43.298764,"lon":5.388973,"is_reserved":false,"is_disabled":false,"rental_uris":{"android":"levelo://app?vid=cae32191-9101-4151-86a4-961ba4e9ecae","ios":"levelo://app?vid=cae32191-9101-4151-86a4-961ba4e9ecae"},"vehicle_type_id":"4","last_reported":1687208763,"current_range_meters":16000,"station_id":"ce4bh392rcd13ifvqdl0","pricing_plan_id":"free"},{"bike_id":"418bfebe-9f9f-45a7-9353-ea76a9bc9de0","system_id":"levelo_inurba_marseille","lat":43.29883,"lon":5.38898,"is_reserved":false,"is_disabled":false,"rental_uris":{"android":"levelo://app?vid=418bfebe-9f9f-45a7-9353-ea76a9bc9de0","ios":"levelo://app?vid=418bfebe-9f9f-45a7-9353-ea76a9bc9de0"},"vehicle_type_id":"4","last_reported":1687208763,"current_range_meters":5600,"station_id":"ce4bh392rcd13ifvqdl0","pricing_plan_id":"free"},{"bike_id":"e648c8a9-2c69-4d5a-a28e-8b5d9fc152d3","system_id":"levelo_inurba_marseille","lat":43.3069,"lon":5.39504,"is_reserved":false,"is_disabled":false,"rental_uris":{"android":"levelo://app?vid=e648c8a9-2c69-4d5a-a28e-8b5d9fc152d3","ios":"levelo://app?vid=e648c8a9-2c69-4d5a-a28e-8b5d9fc152d3"},"vehicle_type_id":"4","last_reported":1687208763,"current_range_meters":4400,"station_id":"","pricing_plan_id":"free"},{"bike_id":"fc170ce6-7099-4dd4-b6d3-37e9a19ddb5d","system_id":"levelo_inurba_marseille","lat":43.29874,"lon":5.38904,"is_reserved":false,"is_disabled":false,"rental_uris":{"android":"levelo://app?vid=fc170ce6-7099-4dd4-b6d3-37e9a19ddb5d","ios":"levelo://app?vid=fc170ce6-7099-4dd4-b6d3-37e9a19ddb5d"},"vehicle_type_id":"4","last_reported":1687208763,"current_range_meters":24800,"station_id":"ce4bh392rcd13ifvqdl0","pricing_plan_id":"free"},{"bike_id":"8defb793-bd42-454a-85b8-9e9e2c438d0f","system_id":"levelo_inurba_marseille","lat":43.298764,"lon":5.388973,"is_reserved":false,"is_disabled":false,"rental_uris":{"android":"levelo://app?vid=8defb793-bd42-454a-85b8-9e9e2c438d0f","ios":"levelo://app?vid=8defb793-bd42-454a-85b8-9e9e2c438d0f"},"vehicle_type_id":"4","last_reported":1687208763,"current_range_meters":30400,"station_id":"ce4bh392rcd13ifvqdl0","pricing_plan_id":"free"},{"bike_id":"9448bdb5-8d60-4e5f-9b56-77a9bb0349fe","system_id":"levelo_inurba_marseille","lat":43.29869,"lon":5.38901,"is_reserved":false,"is_disabled":false,"rental_uris":{"android":"levelo://app?vid=9448bdb5-8d60-4e5f-9b56-77a9bb0349fe","ios":"levelo://app?vid=9448bdb5-8d60-4e5f-9b56-77a9bb0349fe"},"vehicle_type_id":"4","last_reported":1687208763,"current_range_meters":4400,"station_id":"ce4bh392rcd13ifvqdl0","pricing_plan_id":"free"},{"bike_id":"fe44a3d2-c304-4cd7-ac98-87b9960400e2","system_id":"levelo_inurba_marseille","lat":43.29874,"lon":5.38911,"is_reserved":false,"is_disabled":false,"rental_uris":{"android":"levelo://app?vid=fe44a3d2-c304-4cd7-ac98-87b9960400e2","ios":"levelo://app?vid=fe44a3d2-c304-4cd7-ac98-87b9960400e2"},"vehicle_type_id":"4","last_reported":1687208763,"current_range_meters":800,"station_id":"ce4bh392rcd13ifvqdl0","pricing_plan_id":"free"},{"bike_id":"da837983-dad8-4798-a98a-cd4e35a3fd17","system_id":"levelo_inurba_marseille","lat":43.30886,"lon":5.39624,"is_reserved":false,"is_disabled":false,"rental_uris":{"android":"levelo://app?vid=da837983-dad8-4798-a98a-cd4e35a3fd17","ios":"levelo://app?vid=da837983-dad8-4798-a98a-cd4e35a3fd17"},"vehicle_type_id":"4","last_reported":1687208763,"current_range_meters":4000,"station_id":"","pricing_plan_id":"free"},{"bike_id":"bc176c9f-0272-49a5-9cfa-debe67a3910d","system_id":"levelo_inurba_marseille","lat":43.309038,"lon":5.396546,"is_reserved":false,"is_disabled":false,"rental_uris":{"android":"levelo://app?vid=bc176c9f-0272-49a5-9cfa-debe67a3910d","ios":"levelo://app?vid=bc176c9f-0272-49a5-9cfa-debe67a3910d"},"vehicle_type_id":"4","last_reported":1687208763,"current_range_meters":800,"station_id":"ce4bh012rcd13ifvqcv0","pricing_plan_id":"free"},{"bike_id":"d38c5de4-1b75-44fb-88b5-eb30bcdcd7d0","system_id":"levelo_inurba_marseille","lat":43.31325,"lon":5.396882,"is_reserved":false,"is_disabled":false,"rental_uris":{"android":"levelo://app?vid=d38c5de4-1b75-44fb-88b5-eb30bcdcd7d0","ios":"levelo://app?vid=d38c5de4-1b75-44fb-88b5-eb30bcdcd7d0"},"vehicle_type_id":"4","last_reported":1687208763,"current_range_meters":24800,"station_id":"","pricing_plan_id":"free"},{"bike_id":"46b50c70-7124-4ac8-b85a-076d1d159446","system_id":"levelo_inurba_marseille","lat":43.30887,"lon":5.39643,"is_reserved":false,"is_disabled":false,"rental_uris":{"android":"levelo://app?vid=46b50c70-7124-4ac8-b85a-076d1d159446","ios":"levelo://app?vid=46b50c70-7124-4ac8-b85a-076d1d159446"},"vehicle_type_id":"4","last_reported":1687208763,"current_range_meters":3600,"station_id":"","pricing_plan_id":"free"},{"bike_id":"06529458-7eb9-4188-a41f-b06a114f4aec","system_id":"levelo_inurba_marseille","lat":43.309038,"lon":5.396546,"is_reserved":false,"is_disabled":false,"rental_uris":{"android":"levelo://app?vid=06529458-7eb9-4188-a41f-b06a114f4aec","ios":"levelo://app?vid=06529458-7eb9-4188-a41f-b06a114f4aec"},"vehicle_type_id":"4","last_reported":1687208763,"current_range_meters":4800,"station_id":"ce4bh012rcd13ifvqcv0","pricing_plan_id":"free"},{"bike_id":"9c539148-0342-4ae4-bfcb-fafdbff067e2","system_id":"levelo_inurba_marseille","lat":43.30878,"lon":5.39645,"is_reserved":false,"is_disabled":false,"rental_uris":{"android":"levelo://app?vid=9c539148-0342-4ae4-bfcb-fafdbff067e2","ios":"levelo://app?vid=9c539148-0342-4ae4-bfcb-fafdbff067e2"},"vehicle_type_id":"4","last_reported":1687208763,"current_range_meters":3200,"station_id":"","pricing_plan_id":"free"},{"bike_id":"16825454-3f9b-4efa-ac4f-134480ead278","system_id":"levelo_inurba_marseille","lat":43.309038,"lon":5.396546,"is_reserved":false,"is_disabled":false,"rental_uris":{"android":"levelo://app?vid=16825454-3f9b-4efa-ac4f-134480ead278","ios":"levelo://app?vid=16825454-3f9b-4efa-ac4f-134480ead278"},"vehicle_type_id":"4","last_reported":1687208763,"current_range_meters":24400,"station_id":"ce4bh012rcd13ifvqcv0","pricing_plan_id":"free"},{"bike_id":"d7ec17da-c062-436f-a937-7b9ff940324d","system_id":"levelo_inurba_marseille","lat":43.29542,"lon":5.38529,"is_reserved":false,"is_disabled":false,"rental_uris":{"android":"levelo://app?vid=d7ec17da-c062-436f-a937-7b9ff940324d","ios":"levelo://app?vid=d7ec17da-c062-436f-a937-7b9ff940324d"},"vehicle_type_id":"4","last_reported":1687208763,"current_range_meters":22800,"station_id":"","pricing_plan_id":"free"},{"bike_id":"3f3cef94-9c2e-4039-825c-5421299dcaf4","system_id":"levelo_inurba_marseille","lat":43.309038,"lon":5.396546,"is_reserved":false,"is_disabled":false,"rental_uris":{"android":"levelo://app?vid=3f3cef94-9c2e-4039-825c-5421299dcaf4","ios":"levelo://app?vid=3f3cef94-9c2e-4039-825c-5421299dcaf4"},"vehicle_type_id":"4","last_reported":1687208763,"current_range_meters":23600,"station_id":"ce4bh012rcd13ifvqcv0","pricing_plan_id":"free"},{"bike_id":"ca93611f-b3bf-4330-952a-b45aaf9b706a","system_id":"levelo_inurba_marseille","lat":43.30882,"lon":5.39656,"is_reserved":false,"is_disabled":false,"rental_uris":{"android":"levelo://app?vid=ca93611f-b3bf-4330-952a-b45aaf9b706a","ios":"levelo://app?vid=ca93611f-b3bf-4330-952a-b45aaf9b706a"},"vehicle_type_id":"4","last_reported":1687208763,"current_range_meters":11200,"station_id":"ce4bh012rcd13ifvqcv0","pricing_plan_id":"free"},{"bike_id":"a0f732ea-3232-4748-bcb6-847d9871300d","system_id":"levelo_inurba_marseille","lat":43.29529,"lon":5.385581,"is_reserved":false,"is_disabled":false,"rental_uris":{"android":"levelo://app?vid=a0f732ea-3232-4748-bcb6-847d9871300d","ios":"levelo://app?vid=a0f732ea-3232-4748-bcb6-847d9871300d"},"vehicle_type_id":"4","last_reported":1687208763,"current_range_meters":6400,"station_id":"ce4bgih2rcd13ifvqba0","pricing_plan_id":"free"},{"bike_id":"1d7c2963-6f46-41f4-8a08-191ef842514e","system_id":"levelo_inurba_marseille","lat":43.29529,"lon":5.385581,"is_reserved":false,"is_disabled":false,"rental_uris":{"android":"levelo://app?vid=1d7c2963-6f46-41f4-8a08-191ef842514e","ios":"levelo://app?vid=1d7c2963-6f46-41f4-8a08-191ef842514e"},"vehicle_type_id":"4","last_reported":1687208763,"current_range_meters":22400,"station_id":"ce4bgih2rcd13ifvqba0","pricing_plan_id":"free"},{"bike_id":"0eca35b3-1a18-4718-9521-355826ef24f3","system_id":"levelo_inurba_marseille","lat":43.29529,"lon":5.385581,"is_reserved":false,"is_disabled":false,"rental_uris":{"android":"levelo://app?vid=0eca35b3-1a18-4718-9521-355826ef24f3","ios":"levelo://app?vid=0eca35b3-1a18-4718-9521-355826ef24f3"},"vehicle_type_id":"4","last_reported":1687208763,"current_range_meters":14000,"station_id":"ce4bgih2rcd13ifvqba0","pricing_plan_id":"free"},{"bike_id":"9252f1f9-2017-4894-a3bb-07e89a912cb5","system_id":"levelo_inurba_marseille","lat":43.29148,"lon":5.3774,"is_reserved":false,"is_disabled":false,"rental_uris":{"android":"levelo://app?vid=9252f1f9-2017-4894-a3bb-07e89a912cb5","ios":"levelo://app?vid=9252f1f9-2017-4894-a3bb-07e89a912cb5"},"vehicle_type_id":"4","last_reported":1687208763,"current_range_meters":9200,"station_id":"","pricing_plan_id":"free"},{"bike_id":"d14e8d88-e6a4-416f-8670-2fb37f1327ec","system_id":"levelo_inurba_marseille","lat":43.30211,"lon":5.39464,"is_reserved":false,"is_disabled":false,"rental_uris":{"android":"levelo://app?vid=d14e8d88-e6a4-416f-8670-2fb37f1327ec","ios":"levelo://app?vid=d14e8d88-e6a4-416f-8670-2fb37f1327ec"},"vehicle_type_id":"4","last_reported":1687208763,"current_range_meters":8400,"station_id":"ce4bh0p2rcd13ifvqd70","pricing_plan_id":"free"},{"bike_id":"8929540a-e010-4fd7-8754-1ddb18f8cbcf","system_id":"levelo_inurba_marseille","lat":43.302008,"lon":5.394694,"is_reserved":false,"is_disabled":false,"rental_uris":{"android":"levelo://app?vid=8929540a-e010-4fd7-8754-1ddb18f8cbcf","ios":"levelo://app?vid=8929540a-e010-4fd7-8754-1ddb18f8cbcf"},"vehicle_type_id":"4","last_reported":1687208763,"current_range_meters":18000,"station_id":"ce4bh0p2rcd13ifvqd70","pricing_plan_id":"free"},{"bike_id":"e0471e69-0945-484d-893c-f71cf48f8b86","system_id":"levelo_inurba_marseille","lat":43.290631,"lon":5.359244,"is_reserved":false,"is_disabled":false,"rental_uris":{"android":"levelo://app?vid=e0471e69-0945-484d-893c-f71cf48f8b86","ios":"levelo://app?vid=e0471e69-0945-484d-893c-f71cf48f8b86"},"vehicle_type_id":"4","last_reported":1687208763,"current_range_meters":400,"station_id":"ce4bha92rcd13ifvqeg0","pricing_plan_id":"free"},{"bike_id":"cc2a4ced-817d-440f-b0d5-8f71633785ee","system_id":"levelo_inurba_marseille","lat":43.29032,"lon":5.37559,"is_reserved":false,"is_disabled":false,"rental_uris":{"android":"levelo://app?vid=cc2a4ced-817d-440f-b0d5-8f71633785ee","ios":"levelo://app?vid=cc2a4ced-817d-440f-b0d5-8f71633785ee"},"vehicle_type_id":"4","last_reported":1687208763,"current_range_meters":30000,"station_id":"ce4bh692rcd13ifvqe90","pricing_plan_id":"free"},{"bike_id":"0609f09b-61e5-40d1-a057-3a5b9409ddd1","system_id":"levelo_inurba_marseille","lat":43.29416,"lon":5.38628,"is_reserved":false,"is_disabled":false,"rental_uris":{"android":"levelo://app?vid=0609f09b-61e5-40d1-a057-3a5b9409ddd1","ios":"levelo://app?vid=0609f09b-61e5-40d1-a057-3a5b9409ddd1"},"vehicle_type_id":"4","last_reported":1687208763,"current_range_meters":28400,"station_id":"ce4bh2h2rcd13ifvqdh0","pricing_plan_id":"free"},{"bike_id":"6bf6cdba-40d2-437f-a5c0-a6022899438a","system_id":"levelo_inurba_marseille","lat":43.294162,"lon":5.386292,"is_reserved":false,"is_disabled":false,"rental_uris":{"android":"levelo://app?vid=6bf6cdba-40d2-437f-a5c0-a6022899438a","ios":"levelo://app?vid=6bf6cdba-40d2-437f-a5c0-a6022899438a"},"vehicle_type_id":"4","last_reported":1687208763,"current_range_meters":10400,"station_id":"ce4bh2h2rcd13ifvqdh0","pricing_plan_id":"free"},{"bike_id":"13996ae2-4dac-4749-b815-c9135c2ef0e4","system_id":"levelo_inurba_marseille","lat":43.28942,"lon":5.36625,"is_reserved":false,"is_disabled":false,"rental_uris":{"android":"levelo://app?vid=13996ae2-4dac-4749-b815-c9135c2ef0e4","ios":"levelo://app?vid=13996ae2-4dac-4749-b815-c9135c2ef0e4"},"vehicle_type_id":"4","last_reported":1687208763,"current_range_meters":31200,"station_id":"ce4bhap2rcd13ifvqek0","pricing_plan_id":"free"},{"bike_id":"298e3d0e-d68f-44d6-831f-eac509fff7b1","system_id":"levelo_inurba_marseille","lat":43.289184,"lon":5.366408,"is_reserved":false,"is_disabled":false,"rental_uris":{"android":"levelo://app?vid=298e3d0e-d68f-44d6-831f-eac509fff7b1","ios":"levelo://app?vid=298e3d0e-d68f-44d6-831f-eac509fff7b1"},"vehicle_type_id":"4","last_reported":1687208763,"current_range_meters":31200,"station_id":"ce4bhap2rcd13ifvqek0","pricing_plan_id":"free"},{"bike_id":"bee16c1e-f84c-46d2-b97f-ae246b01b0e5","system_id":"levelo_inurba_marseille","lat":43.289184,"lon":5.366408,"is_reserved":false,"is_disabled":false,"rental_uris":{"android":"levelo://app?vid=bee16c1e-f84c-46d2-b97f-ae246b01b0e5","ios":"levelo://app?vid=bee16c1e-f84c-46d2-b97f-ae246b01b0e5"},"vehicle_type_id":"4","last_reported":1687208763,"current_range_meters":30800,"station_id":"ce4bhap2rcd13ifvqek0","pricing_plan_id":"free"},{"bike_id":"3a98a594-78a7-4792-86ab-889e66ec5c37","system_id":"levelo_inurba_marseille","lat":43.289385,"lon":5.366398,"is_reserved":false,"is_disabled":false,"rental_uris":{"android":"levelo://app?vid=3a98a594-78a7-4792-86ab-889e66ec5c37","ios":"levelo://app?vid=3a98a594-78a7-4792-86ab-889e66ec5c37"},"vehicle_type_id":"4","last_reported":1687208763,"current_range_meters":0,"station_id":"ce4bhap2rcd13ifvqek0","pricing_plan_id":"free"},{"bike_id":"08297025-671f-40f9-90f9-0d6ccbad1dd6","system_id":"levelo_inurba_marseille","lat":43.289184,"lon":5.366408,"is_reserved":false,"is_disabled":false,"rental_uris":{"android":"levelo://app?vid=08297025-671f-40f9-90f9-0d6ccbad1dd6","ios":"levelo://app?vid=08297025-671f-40f9-90f9-0d6ccbad1dd6"},"vehicle_type_id":"4","last_reported":1687208763,"current_range_meters":28400,"station_id":"ce4bhap2rcd13ifvqek0","pricing_plan_id":"free"},{"bike_id":"253795c1-45b2-4c07-89a5-34d2564de43f","system_id":"levelo_inurba_marseille","lat":43.289184,"lon":5.366408,"is_reserved":false,"is_disabled":false,"rental_uris":{"android":"levelo://app?vid=253795c1-45b2-4c07-89a5-34d2564de43f","ios":"levelo://app?vid=253795c1-45b2-4c07-89a5-34d2564de43f"},"vehicle_type_id":"4","last_reported":1687208763,"current_range_meters":31200,"station_id":"ce4bhap2rcd13ifvqek0","pricing_plan_id":"free"},{"bike_id":"86204a71-32f7-48a3-b865-0fd0dea3e79b","system_id":"levelo_inurba_marseille","lat":43.28933,"lon":5.36622,"is_reserved":false,"is_disabled":false,"rental_uris":{"android":"levelo://app?vid=86204a71-32f7-48a3-b865-0fd0dea3e79b","ios":"levelo://app?vid=86204a71-32f7-48a3-b865-0fd0dea3e79b"},"vehicle_type_id":"4","last_reported":1687208763,"current_range_meters":31200,"station_id":"ce4bhap2rcd13ifvqek0","pricing_plan_id":"free"},{"bike_id":"9fe0326f-536a-4737-963c-2bdf1b644bd0","system_id":"levelo_inurba_marseille","lat":43.289184,"lon":5.366408,"is_reserved":false,"is_disabled":false,"rental_uris":{"android":"levelo://app?vid=9fe0326f-536a-4737-963c-2bdf1b644bd0","ios":"levelo://app?vid=9fe0326f-536a-4737-963c-2bdf1b644bd0"},"vehicle_type_id":"4","last_reported":1687208763,"current_range_meters":27600,"station_id":"ce4bhap2rcd13ifvqek0","pricing_plan_id":"free"},{"bike_id":"737d5716-ef6d-4bfb-bdc7-d634eb75ef0b","system_id":"levelo_inurba_marseille","lat":43.28931,"lon":5.3663,"is_reserved":false,"is_disabled":false,"rental_uris":{"android":"levelo://app?vid=737d5716-ef6d-4bfb-bdc7-d634eb75ef0b","ios":"levelo://app?vid=737d5716-ef6d-4bfb-bdc7-d634eb75ef0b"},"vehicle_type_id":"4","last_reported":1687208763,"current_range_meters":31200,"station_id":"ce4bhap2rcd13ifvqek0","pricing_plan_id":"free"},{"bike_id":"d90a5f82-5aa8-4326-8ad8-70720c23a142","system_id":"levelo_inurba_marseille","lat":43.289184,"lon":5.366408,"is_reserved":false,"is_disabled":false,"rental_uris":{"android":"levelo://app?vid=d90a5f82-5aa8-4326-8ad8-70720c23a142","ios":"levelo://app?vid=d90a5f82-5aa8-4326-8ad8-70720c23a142"},"vehicle_type_id":"4","last_reported":1687208763,"current_range_meters":18400,"station_id":"ce4bhap2rcd13ifvqek0","pricing_plan_id":"free"},{"bike_id":"474c64f1-54c8-47eb-a881-1854d735eee9","system_id":"levelo_inurba_marseille","lat":43.304296,"lon":5.397513,"is_reserved":false,"is_disabled":false,"rental_uris":{"android":"levelo://app?vid=474c64f1-54c8-47eb-a881-1854d735eee9","ios":"levelo://app?vid=474c64f1-54c8-47eb-a881-1854d735eee9"},"vehicle_type_id":"4","last_reported":1687208763,"current_range_meters":8400,"station_id":"ce4bh092rcd13ifvqd20","pricing_plan_id":"free"},{"bike_id":"3f5756c5-bb74-4d24-9333-15b0b3094201","system_id":"levelo_inurba_marseille","lat":43.304296,"lon":5.397513,"is_reserved":false,"is_disabled":false,"rental_uris":{"android":"levelo://app?vid=3f5756c5-bb74-4d24-9333-15b0b3094201","ios":"levelo://app?vid=3f5756c5-bb74-4d24-9333-15b0b3094201"},"vehicle_type_id":"4","last_reported":1687208763,"current_range_meters":11600,"station_id":"ce4bh092rcd13ifvqd20","pricing_plan_id":"free"},{"bike_id":"38eb09af-7166-42b9-865e-84246929498f","system_id":"levelo_inurba_marseille","lat":43.292644,"lon":5.384257,"is_reserved":false,"is_disabled":false,"rental_uris":{"android":"levelo://app?vid=38eb09af-7166-42b9-865e-84246929498f","ios":"levelo://app?vid=38eb09af-7166-42b9-865e-84246929498f"},"vehicle_type_id":"4","last_reported":1687208763,"current_range_meters":31200,"station_id":"ce4bh692rcd13ifvqea0","pricing_plan_id":"free"},{"bike_id":"ec3c8939-a1ee-4f5d-a00c-6fa1b447e878","system_id":"levelo_inurba_marseille","lat":43.33041,"lon":5.38916,"is_reserved":false,"is_disabled":false,"rental_uris":{"android":"levelo://app?vid=ec3c8939-a1ee-4f5d-a00c-6fa1b447e878","ios":"levelo://app?vid=ec3c8939-a1ee-4f5d-a00c-6fa1b447e878"},"vehicle_type_id":"4","last_reported":1687208763,"current_range_meters":14400,"station_id":"ce4bhr92rcd13ifvqhrg","pricing_plan_id":"free"},{"bike_id":"ecc4fbfe-54d6-4b1e-b301-e4552d8086e5","system_id":"levelo_inurba_marseille","lat":43.33046,"lon":5.38916,"is_reserved":false,"is_disabled":false,"rental_uris":{"android":"levelo://app?vid=ecc4fbfe-54d6-4b1e-b301-e4552d8086e5","ios":"levelo://app?vid=ecc4fbfe-54d6-4b1e-b301-e4552d8086e5"},"vehicle_type_id":"4","last_reported":1687208763,"current_range_meters":18400,"station_id":"ce4bhr92rcd13ifvqhrg","pricing_plan_id":"free"},{"bike_id":"50acd0f6-e8ab-4440-bf11-e8e1472f5652","system_id":"levelo_inurba_marseille","lat":43.289741,"lon":5.378306,"is_reserved":false,"is_disabled":false,"rental_uris":{"android":"levelo://app?vid=50acd0f6-e8ab-4440-bf11-e8e1472f5652","ios":"levelo://app?vid=50acd0f6-e8ab-4440-bf11-e8e1472f5652"},"vehicle_type_id":"4","last_reported":1687208763,"current_range_meters":12800,"station_id":"ce4bh9p2rcd13ifvqed0","pricing_plan_id":"free"},{"bike_id":"c326ecc8-b73d-4d38-b0d4-f33f341fac1d","system_id":"levelo_inurba_marseille","lat":43.295169,"lon":5.390426,"is_reserved":false,"is_disabled":false,"rental_uris":{"android":"levelo://app?vid=c326ecc8-b73d-4d38-b0d4-f33f341fac1d","ios":"levelo://app?vid=c326ecc8-b73d-4d38-b0d4-f33f341fac1d"},"vehicle_type_id":"4","last_reported":1687208763,"current_range_meters":21200,"station_id":"ce4bh3p2rcd13ifvqdp0","pricing_plan_id":"free"},{"bike_id":"33510915-09ce-4b3d-948a-520fc36327fb","system_id":"levelo_inurba_marseille","lat":43.295169,"lon":5.390426,"is_reserved":false,"is_disabled":false,"rental_uris":{"android":"levelo://app?vid=33510915-09ce-4b3d-948a-520fc36327fb","ios":"levelo://app?vid=33510915-09ce-4b3d-948a-520fc36327fb"},"vehicle_type_id":"4","last_reported":1687208763,"current_range_meters":30800,"station_id":"ce4bh3p2rcd13ifvqdp0","pricing_plan_id":"free"},{"bike_id":"54590e75-dc5a-4a8a-b9c5-a0a5343a8aa3","system_id":"levelo_inurba_marseille","lat":43.289741,"lon":5.378306,"is_reserved":false,"is_disabled":false,"rental_uris":{"android":"levelo://app?vid=54590e75-dc5a-4a8a-b9c5-a0a5343a8aa3","ios":"levelo://app?vid=54590e75-dc5a-4a8a-b9c5-a0a5343a8aa3"},"vehicle_type_id":"4","last_reported":1687208763,"current_range_meters":21200,"station_id":"ce4bh9p2rcd13ifvqed0","pricing_plan_id":"free"},{"bike_id":"b20c189e-273c-47fc-aeca-9cc354825f68","system_id":"levelo_inurba_marseille","lat":43.295169,"lon":5.390426,"is_reserved":false,"is_disabled":false,"rental_uris":{"android":"levelo://app?vid=b20c189e-273c-47fc-aeca-9cc354825f68","ios":"levelo://app?vid=b20c189e-273c-47fc-aeca-9cc354825f68"},"vehicle_type_id":"4","last_reported":1687208763,"current_range_meters":0,"station_id":"ce4bh3p2rcd13ifvqdp0","pricing_plan_id":"free"},{"bike_id":"dbf061f2-72bf-4ade-b69a-4b731333442f","system_id":"levelo_inurba_marseille","lat":43.295169,"lon":5.390426,"is_reserved":false,"is_disabled":false,"rental_uris":{"android":"levelo://app?vid=dbf061f2-72bf-4ade-b69a-4b731333442f","ios":"levelo://app?vid=dbf061f2-72bf-4ade-b69a-4b731333442f"},"vehicle_type_id":"4","last_reported":1687208763,"current_range_meters":23600,"station_id":"ce4bh3p2rcd13ifvqdp0","pricing_plan_id":"free"},{"bike_id":"f0024a45-4aa0-4dee-88fa-9912da60206c","system_id":"levelo_inurba_marseille","lat":43.295169,"lon":5.390426,"is_reserved":false,"is_disabled":false,"rental_uris":{"android":"levelo://app?vid=f0024a45-4aa0-4dee-88fa-9912da60206c","ios":"levelo://app?vid=f0024a45-4aa0-4dee-88fa-9912da60206c"},"vehicle_type_id":"4","last_reported":1687208763,"current_range_meters":29600,"station_id":"ce4bh3p2rcd13ifvqdp0","pricing_plan_id":"free"},{"bike_id":"a2910c65-f8d5-465e-b057-01d7ad4c9d21","system_id":"levelo_inurba_marseille","lat":43.331161,"lon":5.389061,"is_reserved":false,"is_disabled":false,"rental_uris":{"android":"levelo://app?vid=a2910c65-f8d5-465e-b057-01d7ad4c9d21","ios":"levelo://app?vid=a2910c65-f8d5-465e-b057-01d7ad4c9d21"},"vehicle_type_id":"4","last_reported":1687208763,"current_range_meters":12400,"station_id":"ce4bhr92rcd13ifvqhrg","pricing_plan_id":"free"},{"bike_id":"7a6e6fc4-6488-4261-978f-d61bfcde5dc1","system_id":"levelo_inurba_marseille","lat":43.295169,"lon":5.390426,"is_reserved":false,"is_disabled":false,"rental_uris":{"android":"levelo://app?vid=7a6e6fc4-6488-4261-978f-d61bfcde5dc1","ios":"levelo://app?vid=7a6e6fc4-6488-4261-978f-d61bfcde5dc1"},"vehicle_type_id":"4","last_reported":1687208763,"current_range_meters":31200,"station_id":"ce4bh3p2rcd13ifvqdp0","pricing_plan_id":"free"},{"bike_id":"b9b44b37-7edf-4ab6-8685-17eb58a26dbc","system_id":"levelo_inurba_marseille","lat":43.295169,"lon":5.390426,"is_reserved":false,"is_disabled":false,"rental_uris":{"android":"levelo://app?vid=b9b44b37-7edf-4ab6-8685-17eb58a26dbc","ios":"levelo://app?vid=b9b44b37-7edf-4ab6-8685-17eb58a26dbc"},"vehicle_type_id":"4","last_reported":1687208763,"current_range_meters":31200,"station_id":"ce4bh3p2rcd13ifvqdp0","pricing_plan_id":"free"},{"bike_id":"c1b573d5-8ef0-414e-93ef-124839ee6436","system_id":"levelo_inurba_marseille","lat":43.28856,"lon":5.358371,"is_reserved":false,"is_disabled":false,"rental_uris":{"android":"levelo://app?vid=c1b573d5-8ef0-414e-93ef-124839ee6436","ios":"levelo://app?vid=c1b573d5-8ef0-414e-93ef-124839ee6436"},"vehicle_type_id":"4","last_reported":1687208763,"current_range_meters":14000,"station_id":"ce4bhb12rcd13ifvqem0","pricing_plan_id":"free"},{"bike_id":"72953470-690d-4b03-8040-d63c05f01887","system_id":"levelo_inurba_marseille","lat":43.309371,"lon":5.401449,"is_reserved":false,"is_disabled":false,"rental_uris":{"android":"levelo://app?vid=72953470-690d-4b03-8040-d63c05f01887","ios":"levelo://app?vid=72953470-690d-4b03-8040-d63c05f01887"},"vehicle_type_id":"4","last_reported":1687208763,"current_range_meters":17600,"station_id":"ce4bgvp2rcd13ifvqct0","pricing_plan_id":"free"},{"bike_id":"1f3b15f3-9cea-4875-8afc-ba9671912097","system_id":"levelo_inurba_marseille","lat":43.309371,"lon":5.401449,"is_reserved":false,"is_disabled":false,"rental_uris":{"android":"levelo://app?vid=1f3b15f3-9cea-4875-8afc-ba9671912097","ios":"levelo://app?vid=1f3b15f3-9cea-4875-8afc-ba9671912097"},"vehicle_type_id":"4","last_reported":1687208763,"current_range_meters":31200,"station_id":"ce4bgvp2rcd13ifvqct0","pricing_plan_id":"free"},{"bike_id":"e006e3f1-73af-4d4d-8626-313aed5b5829","system_id":"levelo_inurba_marseille","lat":43.3093,"lon":5.40142,"is_reserved":false,"is_disabled":false,"rental_uris":{"android":"levelo://app?vid=e006e3f1-73af-4d4d-8626-313aed5b5829","ios":"levelo://app?vid=e006e3f1-73af-4d4d-8626-313aed5b5829"},"vehicle_type_id":"4","last_reported":1687208763,"current_range_meters":31200,"station_id":"ce4bgvp2rcd13ifvqct0","pricing_plan_id":"free"},{"bike_id":"597f3c43-c39f-4923-a2b3-d905b18f3e9a","system_id":"levelo_inurba_marseille","lat":43.30644,"lon":5.40065,"is_reserved":false,"is_disabled":false,"rental_uris":{"android":"levelo://app?vid=597f3c43-c39f-4923-a2b3-d905b18f3e9a","ios":"levelo://app?vid=597f3c43-c39f-4923-a2b3-d905b18f3e9a"},"vehicle_type_id":"4","last_reported":1687208763,"current_range_meters":9200,"station_id":"","pricing_plan_id":"free"},{"bike_id":"d23da691-1ad9-401f-8ad8-0a9defbe9b1a","system_id":"levelo_inurba_marseille","lat":43.30928,"lon":5.40142,"is_reserved":false,"is_disabled":false,"rental_uris":{"android":"levelo://app?vid=d23da691-1ad9-401f-8ad8-0a9defbe9b1a","ios":"levelo://app?vid=d23da691-1ad9-401f-8ad8-0a9defbe9b1a"},"vehicle_type_id":"4","last_reported":1687208763,"current_range_meters":31200,"station_id":"ce4bgvp2rcd13ifvqct0","pricing_plan_id":"free"},{"bike_id":"4e42d55c-2cef-4129-88a6-703c7d1391a5","system_id":"levelo_inurba_marseille","lat":43.306412,"lon":5.401035,"is_reserved":false,"is_disabled":false,"rental_uris":{"android":"levelo://app?vid=4e42d55c-2cef-4129-88a6-703c7d1391a5","ios":"levelo://app?vid=4e42d55c-2cef-4129-88a6-703c7d1391a5"},"vehicle_type_id":"4","last_reported":1687208763,"current_range_meters":15200,"station_id":"ce4bh112rcd13ifvqda0","pricing_plan_id":"free"},{"bike_id":"2bd08979-1d7f-4e57-929e-22f08880daa5","system_id":"levelo_inurba_marseille","lat":43.30814,"lon":5.40123,"is_reserved":false,"is_disabled":false,"rental_uris":{"android":"levelo://app?vid=2bd08979-1d7f-4e57-929e-22f08880daa5","ios":"levelo://app?vid=2bd08979-1d7f-4e57-929e-22f08880daa5"},"vehicle_type_id":"4","last_reported":1687208763,"current_range_meters":18000,"station_id":"","pricing_plan_id":"free"},{"bike_id":"41a8749b-6d93-4d1b-8e52-c5f60f65ae7c","system_id":"levelo_inurba_marseille","lat":43.33756,"lon":5.3745,"is_reserved":false,"is_disabled":false,"rental_uris":{"android":"levelo://app?vid=41a8749b-6d93-4d1b-8e52-c5f60f65ae7c","ios":"levelo://app?vid=41a8749b-6d93-4d1b-8e52-c5f60f65ae7c"},"vehicle_type_id":"4","last_reported":1687208763,"current_range_meters":30000,"station_id":"","pricing_plan_id":"free"},{"bike_id":"42a2a75a-9d72-4603-bca9-e6720bab50e0","system_id":"levelo_inurba_marseille","lat":43.306412,"lon":5.401035,"is_reserved":false,"is_disabled":false,"rental_uris":{"android":"levelo://app?vid=42a2a75a-9d72-4603-bca9-e6720bab50e0","ios":"levelo://app?vid=42a2a75a-9d72-4603-bca9-e6720bab50e0"},"vehicle_type_id":"4","last_reported":1687208763,"current_range_meters":23200,"station_id":"ce4bh112rcd13ifvqda0","pricing_plan_id":"free"},{"bike_id":"5c485a33-2430-456b-afb3-307aac6a8424","system_id":"levelo_inurba_marseille","lat":43.33764,"lon":5.37421,"is_reserved":false,"is_disabled":false,"rental_uris":{"android":"levelo://app?vid=5c485a33-2430-456b-afb3-307aac6a8424","ios":"levelo://app?vid=5c485a33-2430-456b-afb3-307aac6a8424"},"vehicle_type_id":"4","last_reported":1687208763,"current_range_meters":24400,"station_id":"","pricing_plan_id":"free"},{"bike_id":"f2a370ec-6d9e-4a74-a332-c950fa09e1b5","system_id":"levelo_inurba_marseille","lat":43.301117,"lon":5.398795,"is_reserved":false,"is_disabled":false,"rental_uris":{"android":"levelo://app?vid=f2a370ec-6d9e-4a74-a332-c950fa09e1b5","ios":"levelo://app?vid=f2a370ec-6d9e-4a74-a332-c950fa09e1b5"},"vehicle_type_id":"4","last_reported":1687208763,"current_range_meters":14800,"station_id":"ce4bh0h2rcd13ifvqd40","pricing_plan_id":"free"},{"bike_id":"b34b0b72-8cc8-4086-a968-440a07c19996","system_id":"levelo_inurba_marseille","lat":43.30591,"lon":5.40096,"is_reserved":false,"is_disabled":false,"rental_uris":{"android":"levelo://app?vid=b34b0b72-8cc8-4086-a968-440a07c19996","ios":"levelo://app?vid=b34b0b72-8cc8-4086-a968-440a07c19996"},"vehicle_type_id":"4","last_reported":1687208763,"current_range_meters":15200,"station_id":"","pricing_plan_id":"free"},{"bike_id":"57f35582-29e0-478e-b3fb-9407442d987f","system_id":"levelo_inurba_marseille","lat":43.287184,"lon":5.37937,"is_reserved":false,"is_disabled":false,"rental_uris":{"android":"levelo://app?vid=57f35582-29e0-478e-b3fb-9407442d987f","ios":"levelo://app?vid=57f35582-29e0-478e-b3fb-9407442d987f"},"vehicle_type_id":"4","last_reported":1687208763,"current_range_meters":15200,"station_id":"ce4bh9p2rcd13ifvqec0","pricing_plan_id":"free"},{"bike_id":"a859e5bc-6ff4-4b17-a34d-b8d8f44c2788","system_id":"levelo_inurba_marseille","lat":43.28712,"lon":5.37376,"is_reserved":false,"is_disabled":false,"rental_uris":{"android":"levelo://app?vid=a859e5bc-6ff4-4b17-a34d-b8d8f44c2788","ios":"levelo://app?vid=a859e5bc-6ff4-4b17-a34d-b8d8f44c2788"},"vehicle_type_id":"4","last_reported":1687208763,"current_range_meters":8400,"station_id":"ce4bh3p2rcd13ifvqdq0","pricing_plan_id":"free"},{"bike_id":"7d9876a4-6d60-4a00-913f-f07acb5c951d","system_id":"levelo_inurba_marseille","lat":43.28708,"lon":5.37371,"is_reserved":false,"is_disabled":false,"rental_uris":{"android":"levelo://app?vid=7d9876a4-6d60-4a00-913f-f07acb5c951d","ios":"levelo://app?vid=7d9876a4-6d60-4a00-913f-f07acb5c951d"},"vehicle_type_id":"4","last_reported":1687208763,"current_range_meters":4400,"station_id":"ce4bh3p2rcd13ifvqdq0","pricing_plan_id":"free"},{"bike_id":"5bd24d25-dbfc-4194-9a30-1f85667f506b","system_id":"levelo_inurba_marseille","lat":43.28706,"lon":5.37363,"is_reserved":false,"is_disabled":false,"rental_uris":{"android":"levelo://app?vid=5bd24d25-dbfc-4194-9a30-1f85667f506b","ios":"levelo://app?vid=5bd24d25-dbfc-4194-9a30-1f85667f506b"},"vehicle_type_id":"4","last_reported":1687208763,"current_range_meters":0,"station_id":"ce4bh3p2rcd13ifvqdq0","pricing_plan_id":"free"},{"bike_id":"6508969b-e311-4e99-a7e1-d3604e63463d","system_id":"levelo_inurba_marseille","lat":43.28709,"lon":5.37388,"is_reserved":false,"is_disabled":false,"rental_uris":{"android":"levelo://app?vid=6508969b-e311-4e99-a7e1-d3604e63463d","ios":"levelo://app?vid=6508969b-e311-4e99-a7e1-d3604e63463d"},"vehicle_type_id":"4","last_reported":1687208763,"current_range_meters":8800,"station_id":"ce4bh3p2rcd13ifvqdq0","pricing_plan_id":"free"},{"bike_id":"74bd893a-d183-4975-a74c-9e7eb43bc9f4","system_id":"levelo_inurba_marseille","lat":43.286591,"lon":5.363346,"is_reserved":false,"is_disabled":false,"rental_uris":{"android":"levelo://app?vid=74bd893a-d183-4975-a74c-9e7eb43bc9f4","ios":"levelo://app?vid=74bd893a-d183-4975-a74c-9e7eb43bc9f4"},"vehicle_type_id":"4","last_reported":1687208763,"current_range_meters":21200,"station_id":"ce4bhah2rcd13ifvqej0","pricing_plan_id":"free"},{"bike_id":"59a8dd6e-0c6a-4f29-baa9-849daffd0f17","system_id":"levelo_inurba_marseille","lat":43.286591,"lon":5.363346,"is_reserved":false,"is_disabled":false,"rental_uris":{"android":"levelo://app?vid=59a8dd6e-0c6a-4f29-baa9-849daffd0f17","ios":"levelo://app?vid=59a8dd6e-0c6a-4f29-baa9-849daffd0f17"},"vehicle_type_id":"4","last_reported":1687208763,"current_range_meters":31200,"station_id":"ce4bhah2rcd13ifvqej0","pricing_plan_id":"free"},{"bike_id":"1b42baf5-7194-4b55-a4fc-62cb560a4312","system_id":"levelo_inurba_marseille","lat":43.298681,"lon":5.397225,"is_reserved":false,"is_disabled":false,"rental_uris":{"android":"levelo://app?vid=1b42baf5-7194-4b55-a4fc-62cb560a4312","ios":"levelo://app?vid=1b42baf5-7194-4b55-a4fc-62cb560a4312"},"vehicle_type_id":"4","last_reported":1687208763,"current_range_meters":3600,"station_id":"ce4bh0h2rcd13ifvqd50","pricing_plan_id":"free"},{"bike_id":"6de98da6-6b85-4650-826c-cee1e1701899","system_id":"levelo_inurba_marseille","lat":43.28705,"lon":5.37385,"is_reserved":false,"is_disabled":false,"rental_uris":{"android":"levelo://app?vid=6de98da6-6b85-4650-826c-cee1e1701899","ios":"levelo://app?vid=6de98da6-6b85-4650-826c-cee1e1701899"},"vehicle_type_id":"4","last_reported":1687208763,"current_range_meters":20400,"station_id":"ce4bh3p2rcd13ifvqdq0","pricing_plan_id":"free"},{"bike_id":"819b5144-aca3-4c99-9e90-5071072414aa","system_id":"levelo_inurba_marseille","lat":43.286591,"lon":5.363346,"is_reserved":false,"is_disabled":false,"rental_uris":{"android":"levelo://app?vid=819b5144-aca3-4c99-9e90-5071072414aa","ios":"levelo://app?vid=819b5144-aca3-4c99-9e90-5071072414aa"},"vehicle_type_id":"4","last_reported":1687208763,"current_range_meters":11200,"station_id":"ce4bhah2rcd13ifvqej0","pricing_plan_id":"free"},{"bike_id":"77f87782-71ce-4bfc-b347-ed91a6cb4e6b","system_id":"levelo_inurba_marseille","lat":43.286961,"lon":5.373785,"is_reserved":false,"is_disabled":false,"rental_uris":{"android":"levelo://app?vid=77f87782-71ce-4bfc-b347-ed91a6cb4e6b","ios":"levelo://app?vid=77f87782-71ce-4bfc-b347-ed91a6cb4e6b"},"vehicle_type_id":"4","last_reported":1687208763,"current_range_meters":27600,"station_id":"ce4bh3p2rcd13ifvqdq0","pricing_plan_id":"free"},{"bike_id":"d3cc82bc-6e21-4d51-b2ba-207d7cb74e28","system_id":"levelo_inurba_marseille","lat":43.298681,"lon":5.397225,"is_reserved":false,"is_disabled":false,"rental_uris":{"android":"levelo://app?vid=d3cc82bc-6e21-4d51-b2ba-207d7cb74e28","ios":"levelo://app?vid=d3cc82bc-6e21-4d51-b2ba-207d7cb74e28"},"vehicle_type_id":"4","last_reported":1687208763,"current_range_meters":1600,"station_id":"ce4bh0h2rcd13ifvqd50","pricing_plan_id":"free"},{"bike_id":"d58e2862-e122-4c0d-85cc-e1677792f8a8","system_id":"levelo_inurba_marseille","lat":43.28701,"lon":5.37369,"is_reserved":false,"is_disabled":false,"rental_uris":{"android":"levelo://app?vid=d58e2862-e122-4c0d-85cc-e1677792f8a8","ios":"levelo://app?vid=d58e2862-e122-4c0d-85cc-e1677792f8a8"},"vehicle_type_id":"4","last_reported":1687208763,"current_range_meters":27200,"station_id":"ce4bh3p2rcd13ifvqdq0","pricing_plan_id":"free"},{"bike_id":"c476a54f-8d83-4e77-a2f2-049d903ad886","system_id":"levelo_inurba_marseille","lat":43.28702,"lon":5.37378,"is_reserved":false,"is_disabled":false,"rental_uris":{"android":"levelo://app?vid=c476a54f-8d83-4e77-a2f2-049d903ad886","ios":"levelo://app?vid=c476a54f-8d83-4e77-a2f2-049d903ad886"},"vehicle_type_id":"4","last_reported":1687208763,"current_range_meters":24400,"station_id":"ce4bh3p2rcd13ifvqdq0","pricing_plan_id":"free"},{"bike_id":"42ff071e-316a-4b7a-9675-009743f02561","system_id":"levelo_inurba_marseille","lat":43.28699,"lon":5.37382,"is_reserved":false,"is_disabled":false,"rental_uris":{"android":"levelo://app?vid=42ff071e-316a-4b7a-9675-009743f02561","ios":"levelo://app?vid=42ff071e-316a-4b7a-9675-009743f02561"},"vehicle_type_id":"4","last_reported":1687208763,"current_range_meters":2800,"station_id":"ce4bh3p2rcd13ifvqdq0","pricing_plan_id":"free"},{"bike_id":"aca089d6-2b2e-4c84-806a-dbd7ff24d6d5","system_id":"levelo_inurba_marseille","lat":43.295194,"lon":5.39397,"is_reserved":false,"is_disabled":false,"rental_uris":{"android":"levelo://app?vid=aca089d6-2b2e-4c84-806a-dbd7ff24d6d5","ios":"levelo://app?vid=aca089d6-2b2e-4c84-806a-dbd7ff24d6d5"},"vehicle_type_id":"4","last_reported":1687208763,"current_range_meters":16400,"station_id":"ce4bh292rcd13ifvqdf0","pricing_plan_id":"free"},{"bike_id":"c19d18ab-0551-4b60-9271-c56c586526af","system_id":"levelo_inurba_marseille","lat":43.286591,"lon":5.363346,"is_reserved":false,"is_disabled":false,"rental_uris":{"android":"levelo://app?vid=c19d18ab-0551-4b60-9271-c56c586526af","ios":"levelo://app?vid=c19d18ab-0551-4b60-9271-c56c586526af"},"vehicle_type_id":"4","last_reported":1687208763,"current_range_meters":27200,"station_id":"ce4bhah2rcd13ifvqej0","pricing_plan_id":"free"},{"bike_id":"26f2452e-80d2-47a2-b2eb-062da5d2be94","system_id":"levelo_inurba_marseille","lat":43.286591,"lon":5.363346,"is_reserved":false,"is_disabled":false,"rental_uris":{"android":"levelo://app?vid=26f2452e-80d2-47a2-b2eb-062da5d2be94","ios":"levelo://app?vid=26f2452e-80d2-47a2-b2eb-062da5d2be94"},"vehicle_type_id":"4","last_reported":1687208763,"current_range_meters":25600,"station_id":"ce4bhah2rcd13ifvqej0","pricing_plan_id":"free"},{"bike_id":"f529566c-0bb5-4c38-995c-df34a81dcce1","system_id":"levelo_inurba_marseille","lat":43.286593,"lon":5.363346,"is_reserved":false,"is_disabled":false,"rental_uris":{"android":"levelo://app?vid=f529566c-0bb5-4c38-995c-df34a81dcce1","ios":"levelo://app?vid=f529566c-0bb5-4c38-995c-df34a81dcce1"},"vehicle_type_id":"4","last_reported":1687208763,"current_range_meters":10400,"station_id":"ce4bhah2rcd13ifvqej0","pricing_plan_id":"free"},{"bike_id":"41438965-7576-4ba1-a2b9-bf2152b5fe96","system_id":"levelo_inurba_marseille","lat":43.286593,"lon":5.363346,"is_reserved":false,"is_disabled":false,"rental_uris":{"android":"levelo://app?vid=41438965-7576-4ba1-a2b9-bf2152b5fe96","ios":"levelo://app?vid=41438965-7576-4ba1-a2b9-bf2152b5fe96"},"vehicle_type_id":"4","last_reported":1687208763,"current_range_meters":31200,"station_id":"ce4bhah2rcd13ifvqej0","pricing_plan_id":"free"},{"bike_id":"f6a9d880-3c4c-4303-9e41-a38c3d4fb2d9","system_id":"levelo_inurba_marseille","lat":43.286591,"lon":5.363346,"is_reserved":false,"is_disabled":false,"rental_uris":{"android":"levelo://app?vid=f6a9d880-3c4c-4303-9e41-a38c3d4fb2d9","ios":"levelo://app?vid=f6a9d880-3c4c-4303-9e41-a38c3d4fb2d9"},"vehicle_type_id":"4","last_reported":1687208763,"current_range_meters":28800,"station_id":"ce4bhah2rcd13ifvqej0","pricing_plan_id":"free"},{"bike_id":"0896dc81-9870-4d05-9d15-ec1bb925afc2","system_id":"levelo_inurba_marseille","lat":43.286593,"lon":5.363346,"is_reserved":false,"is_disabled":false,"rental_uris":{"android":"levelo://app?vid=0896dc81-9870-4d05-9d15-ec1bb925afc2","ios":"levelo://app?vid=0896dc81-9870-4d05-9d15-ec1bb925afc2"},"vehicle_type_id":"4","last_reported":1687208763,"current_range_meters":15200,"station_id":"ce4bhah2rcd13ifvqej0","pricing_plan_id":"free"},{"bike_id":"eca0acdc-7d10-4eea-aa74-3b0ef91d232d","system_id":"levelo_inurba_marseille","lat":43.286593,"lon":5.363346,"is_reserved":false,"is_disabled":false,"rental_uris":{"android":"levelo://app?vid=eca0acdc-7d10-4eea-aa74-3b0ef91d232d","ios":"levelo://app?vid=eca0acdc-7d10-4eea-aa74-3b0ef91d232d"},"vehicle_type_id":"4","last_reported":1687208763,"current_range_meters":11200,"station_id":"ce4bhah2rcd13ifvqej0","pricing_plan_id":"free"},{"bike_id":"016e198a-c7ea-45de-91b8-2ce78f9cc09d","system_id":"levelo_inurba_marseille","lat":43.295196,"lon":5.39397,"is_reserved":false,"is_disabled":false,"rental_uris":{"android":"levelo://app?vid=016e198a-c7ea-45de-91b8-2ce78f9cc09d","ios":"levelo://app?vid=016e198a-c7ea-45de-91b8-2ce78f9cc09d"},"vehicle_type_id":"4","last_reported":1687208763,"current_range_meters":4000,"station_id":"ce4bh292rcd13ifvqdf0","pricing_plan_id":"free"},{"bike_id":"5284f260-dd31-4cd9-8ac9-e0974e8922dc","system_id":"levelo_inurba_marseille","lat":43.295194,"lon":5.39397,"is_reserved":false,"is_disabled":false,"rental_uris":{"android":"levelo://app?vid=5284f260-dd31-4cd9-8ac9-e0974e8922dc","ios":"levelo://app?vid=5284f260-dd31-4cd9-8ac9-e0974e8922dc"},"vehicle_type_id":"4","last_reported":1687208763,"current_range_meters":13600,"station_id":"ce4bh292rcd13ifvqdf0","pricing_plan_id":"free"},{"bike_id":"52987aff-3cfb-4904-af27-ccd819780c34","system_id":"levelo_inurba_marseille","lat":43.290345,"lon":5.38646,"is_reserved":false,"is_disabled":false,"rental_uris":{"android":"levelo://app?vid=52987aff-3cfb-4904-af27-ccd819780c34","ios":"levelo://app?vid=52987aff-3cfb-4904-af27-ccd819780c34"},"vehicle_type_id":"4","last_reported":1687208763,"current_range_meters":14000,"station_id":"ce4bh4p2rcd13ifvqe0g","pricing_plan_id":"free"},{"bike_id":"8f18b22a-41c9-4193-af6b-c1251a0fc5bb","system_id":"levelo_inurba_marseille","lat":43.290336,"lon":5.386425,"is_reserved":false,"is_disabled":false,"rental_uris":{"android":"levelo://app?vid=8f18b22a-41c9-4193-af6b-c1251a0fc5bb","ios":"levelo://app?vid=8f18b22a-41c9-4193-af6b-c1251a0fc5bb"},"vehicle_type_id":"4","last_reported":1687208763,"current_range_meters":24400,"station_id":"ce4bh4p2rcd13ifvqe0g","pricing_plan_id":"free"},{"bike_id":"b890727a-086c-46f7-9c23-4a64bd938c0b","system_id":"levelo_inurba_marseille","lat":43.290345,"lon":5.38646,"is_reserved":false,"is_disabled":false,"rental_uris":{"android":"levelo://app?vid=b890727a-086c-46f7-9c23-4a64bd938c0b","ios":"levelo://app?vid=b890727a-086c-46f7-9c23-4a64bd938c0b"},"vehicle_type_id":"4","last_reported":1687208763,"current_range_meters":18000,"station_id":"ce4bh4p2rcd13ifvqe0g","pricing_plan_id":"free"},{"bike_id":"2c337063-752e-44c9-b51d-dca6a057f6e5","system_id":"levelo_inurba_marseille","lat":43.290345,"lon":5.38646,"is_reserved":false,"is_disabled":false,"rental_uris":{"android":"levelo://app?vid=2c337063-752e-44c9-b51d-dca6a057f6e5","ios":"levelo://app?vid=2c337063-752e-44c9-b51d-dca6a057f6e5"},"vehicle_type_id":"4","last_reported":1687208763,"current_range_meters":25200,"station_id":"ce4bh4p2rcd13ifvqe0g","pricing_plan_id":"free"},{"bike_id":"d048b0e3-e725-4084-9bad-c3b64fddba66","system_id":"levelo_inurba_marseille","lat":43.302759,"lon":5.400793,"is_reserved":false,"is_disabled":false,"rental_uris":{"android":"levelo://app?vid=d048b0e3-e725-4084-9bad-c3b64fddba66","ios":"levelo://app?vid=d048b0e3-e725-4084-9bad-c3b64fddba66"},"vehicle_type_id":"4","last_reported":1687208763,"current_range_meters":14000,"station_id":"ce4bgvh2rcd13ifvqcs0","pricing_plan_id":"free"},{"bike_id":"56ecb035-04e5-4cef-aa7b-13aa363bf524","system_id":"levelo_inurba_marseille","lat":43.290336,"lon":5.386425,"is_reserved":false,"is_disabled":false,"rental_uris":{"android":"levelo://app?vid=56ecb035-04e5-4cef-aa7b-13aa363bf524","ios":"levelo://app?vid=56ecb035-04e5-4cef-aa7b-13aa363bf524"},"vehicle_type_id":"4","last_reported":1687208763,"current_range_meters":1600,"station_id":"ce4bh4p2rcd13ifvqe0g","pricing_plan_id":"free"},{"bike_id":"2de8d707-cc57-45c8-ba3f-4062aebc3f41","system_id":"levelo_inurba_marseille","lat":43.290345,"lon":5.38646,"is_reserved":false,"is_disabled":false,"rental_uris":{"android":"levelo://app?vid=2de8d707-cc57-45c8-ba3f-4062aebc3f41","ios":"levelo://app?vid=2de8d707-cc57-45c8-ba3f-4062aebc3f41"},"vehicle_type_id":"4","last_reported":1687208763,"current_range_meters":17200,"station_id":"ce4bh4p2rcd13ifvqe0g","pricing_plan_id":"free"},{"bike_id":"107519b0-e5a9-4245-b904-c0094e0ec1d8","system_id":"levelo_inurba_marseille","lat":43.302759,"lon":5.400793,"is_reserved":false,"is_disabled":false,"rental_uris":{"android":"levelo://app?vid=107519b0-e5a9-4245-b904-c0094e0ec1d8","ios":"levelo://app?vid=107519b0-e5a9-4245-b904-c0094e0ec1d8"},"vehicle_type_id":"4","last_reported":1687208763,"current_range_meters":22800,"station_id":"ce4bgvh2rcd13ifvqcs0","pricing_plan_id":"free"},{"bike_id":"864a86a0-133f-4687-9ad4-f5590c273e08","system_id":"levelo_inurba_marseille","lat":43.302759,"lon":5.400793,"is_reserved":false,"is_disabled":false,"rental_uris":{"android":"levelo://app?vid=864a86a0-133f-4687-9ad4-f5590c273e08","ios":"levelo://app?vid=864a86a0-133f-4687-9ad4-f5590c273e08"},"vehicle_type_id":"4","last_reported":1687208763,"current_range_meters":28000,"station_id":"ce4bgvh2rcd13ifvqcs0","pricing_plan_id":"free"},{"bike_id":"bb61752b-4cde-4f01-99b5-9f2fc4a6c251","system_id":"levelo_inurba_marseille","lat":43.290336,"lon":5.386425,"is_reserved":false,"is_disabled":false,"rental_uris":{"android":"levelo://app?vid=bb61752b-4cde-4f01-99b5-9f2fc4a6c251","ios":"levelo://app?vid=bb61752b-4cde-4f01-99b5-9f2fc4a6c251"},"vehicle_type_id":"4","last_reported":1687208763,"current_range_meters":11600,"station_id":"ce4bh4p2rcd13ifvqe0g","pricing_plan_id":"free"},{"bike_id":"827eaf8f-78e2-407a-87b0-8fecb84c258d","system_id":"levelo_inurba_marseille","lat":43.290336,"lon":5.386425,"is_reserved":false,"is_disabled":false,"rental_uris":{"android":"levelo://app?vid=827eaf8f-78e2-407a-87b0-8fecb84c258d","ios":"levelo://app?vid=827eaf8f-78e2-407a-87b0-8fecb84c258d"},"vehicle_type_id":"4","last_reported":1687208763,"current_range_meters":12000,"station_id":"ce4bh4p2rcd13ifvqe0g","pricing_plan_id":"free"},{"bike_id":"1a6f3edb-24a9-4be8-a378-4454ee8afd9b","system_id":"levelo_inurba_marseille","lat":43.302759,"lon":5.400793,"is_reserved":false,"is_disabled":false,"rental_uris":{"android":"levelo://app?vid=1a6f3edb-24a9-4be8-a378-4454ee8afd9b","ios":"levelo://app?vid=1a6f3edb-24a9-4be8-a378-4454ee8afd9b"},"vehicle_type_id":"4","last_reported":1687208763,"current_range_meters":4000,"station_id":"ce4bgvh2rcd13ifvqcs0","pricing_plan_id":"free"},{"bike_id":"978e018e-b37d-4f4a-9223-649ce84c1201","system_id":"levelo_inurba_marseille","lat":43.302759,"lon":5.400793,"is_reserved":false,"is_disabled":false,"rental_uris":{"android":"levelo://app?vid=978e018e-b37d-4f4a-9223-649ce84c1201","ios":"levelo://app?vid=978e018e-b37d-4f4a-9223-649ce84c1201"},"vehicle_type_id":"4","last_reported":1687208763,"current_range_meters":10000,"station_id":"ce4bgvh2rcd13ifvqcs0","pricing_plan_id":"free"},{"bike_id":"9874ffaf-9654-4a54-98cc-0a9dff720620","system_id":"levelo_inurba_marseille","lat":43.29022,"lon":5.38644,"is_reserved":false,"is_disabled":false,"rental_uris":{"android":"levelo://app?vid=9874ffaf-9654-4a54-98cc-0a9dff720620","ios":"levelo://app?vid=9874ffaf-9654-4a54-98cc-0a9dff720620"},"vehicle_type_id":"4","last_reported":1687208763,"current_range_meters":7600,"station_id":"","pricing_plan_id":"free"},{"bike_id":"e9e062ee-d8ff-40e7-b30b-1b471686cefa","system_id":"levelo_inurba_marseille","lat":43.302759,"lon":5.400793,"is_reserved":false,"is_disabled":false,"rental_uris":{"android":"levelo://app?vid=e9e062ee-d8ff-40e7-b30b-1b471686cefa","ios":"levelo://app?vid=e9e062ee-d8ff-40e7-b30b-1b471686cefa"},"vehicle_type_id":"4","last_reported":1687208763,"current_range_meters":7200,"station_id":"ce4bgvh2rcd13ifvqcs0","pricing_plan_id":"free"},{"bike_id":"be821724-5bb3-499c-a063-37a60b49f0a9","system_id":"levelo_inurba_marseille","lat":43.286039,"lon":5.370679,"is_reserved":false,"is_disabled":false,"rental_uris":{"android":"levelo://app?vid=be821724-5bb3-499c-a063-37a60b49f0a9","ios":"levelo://app?vid=be821724-5bb3-499c-a063-37a60b49f0a9"},"vehicle_type_id":"4","last_reported":1687208763,"current_range_meters":31200,"station_id":"ce4bht12rcd13ifvqi60","pricing_plan_id":"free"},{"bike_id":"dc4e455f-30f9-4022-9685-1573a240fc3a","system_id":"levelo_inurba_marseille","lat":43.2861,"lon":5.37061,"is_reserved":false,"is_disabled":false,"rental_uris":{"android":"levelo://app?vid=dc4e455f-30f9-4022-9685-1573a240fc3a","ios":"levelo://app?vid=dc4e455f-30f9-4022-9685-1573a240fc3a"},"vehicle_type_id":"4","last_reported":1687208763,"current_range_meters":0,"station_id":"ce4bht12rcd13ifvqi60","pricing_plan_id":"free"},{"bike_id":"fa8ea5f8-793b-432d-85f3-feb7caffc709","system_id":"levelo_inurba_marseille","lat":43.28609,"lon":5.37069,"is_reserved":false,"is_disabled":false,"rental_uris":{"android":"levelo://app?vid=fa8ea5f8-793b-432d-85f3-feb7caffc709","ios":"levelo://app?vid=fa8ea5f8-793b-432d-85f3-feb7caffc709"},"vehicle_type_id":"4","last_reported":1687208763,"current_range_meters":1200,"station_id":"ce4bht12rcd13ifvqi60","pricing_plan_id":"free"},{"bike_id":"ed8625b8-1c80-43d2-bae0-a2faa626b8c6","system_id":"levelo_inurba_marseille","lat":43.287185,"lon":5.379373,"is_reserved":false,"is_disabled":false,"rental_uris":{"android":"levelo://app?vid=ed8625b8-1c80-43d2-bae0-a2faa626b8c6","ios":"levelo://app?vid=ed8625b8-1c80-43d2-bae0-a2faa626b8c6"},"vehicle_type_id":"4","last_reported":1687208763,"current_range_meters":28800,"station_id":"ce4bh9p2rcd13ifvqec0","pricing_plan_id":"free"},{"bike_id":"de83bb71-937a-4065-a21c-9cfdb19e2dcc","system_id":"levelo_inurba_marseille","lat":43.287184,"lon":5.37937,"is_reserved":false,"is_disabled":false,"rental_uris":{"android":"levelo://app?vid=de83bb71-937a-4065-a21c-9cfdb19e2dcc","ios":"levelo://app?vid=de83bb71-937a-4065-a21c-9cfdb19e2dcc"},"vehicle_type_id":"4","last_reported":1687208763,"current_range_meters":27200,"station_id":"ce4bh9p2rcd13ifvqec0","pricing_plan_id":"free"},{"bike_id":"15d03ea5-b788-48e2-bcd5-2e2e358c6605","system_id":"levelo_inurba_marseille","lat":43.287184,"lon":5.37937,"is_reserved":false,"is_disabled":false,"rental_uris":{"android":"levelo://app?vid=15d03ea5-b788-48e2-bcd5-2e2e358c6605","ios":"levelo://app?vid=15d03ea5-b788-48e2-bcd5-2e2e358c6605"},"vehicle_type_id":"4","last_reported":1687208763,"current_range_meters":7200,"station_id":"ce4bh9p2rcd13ifvqec0","pricing_plan_id":"free"},{"bike_id":"ccd77a1a-e681-4565-9604-8a74145dc4fb","system_id":"levelo_inurba_marseille","lat":43.287185,"lon":5.379373,"is_reserved":false,"is_disabled":false,"rental_uris":{"android":"levelo://app?vid=ccd77a1a-e681-4565-9604-8a74145dc4fb","ios":"levelo://app?vid=ccd77a1a-e681-4565-9604-8a74145dc4fb"},"vehicle_type_id":"4","last_reported":1687208763,"current_range_meters":17200,"station_id":"ce4bh9p2rcd13ifvqec0","pricing_plan_id":"free"},{"bike_id":"b7508f98-e61d-4d46-b2c1-b6d85c4c671e","system_id":"levelo_inurba_marseille","lat":43.28977,"lon":5.38677,"is_reserved":false,"is_disabled":false,"rental_uris":{"android":"levelo://app?vid=b7508f98-e61d-4d46-b2c1-b6d85c4c671e","ios":"levelo://app?vid=b7508f98-e61d-4d46-b2c1-b6d85c4c671e"},"vehicle_type_id":"4","last_reported":1687208763,"current_range_meters":16000,"station_id":"","pricing_plan_id":"free"},{"bike_id":"0366a65b-39d8-47a8-935d-16d0e1ade187","system_id":"levelo_inurba_marseille","lat":43.316517,"lon":5.404375,"is_reserved":false,"is_disabled":false,"rental_uris":{"android":"levelo://app?vid=0366a65b-39d8-47a8-935d-16d0e1ade187","ios":"levelo://app?vid=0366a65b-39d8-47a8-935d-16d0e1ade187"},"vehicle_type_id":"4","last_reported":1687208763,"current_range_meters":31200,"station_id":"ce4bh012rcd13ifvqd00","pricing_plan_id":"free"},{"bike_id":"588cb08b-7841-4614-93d1-566388f1e3a3","system_id":"levelo_inurba_marseille","lat":43.31646,"lon":5.40432,"is_reserved":false,"is_disabled":false,"rental_uris":{"android":"levelo://app?vid=588cb08b-7841-4614-93d1-566388f1e3a3","ios":"levelo://app?vid=588cb08b-7841-4614-93d1-566388f1e3a3"},"vehicle_type_id":"4","last_reported":1687208763,"current_range_meters":15200,"station_id":"ce4bh012rcd13ifvqd00","pricing_plan_id":"free"},{"bike_id":"fb6d7503-112a-4e9d-9853-7b957cff013f","system_id":"levelo_inurba_marseille","lat":43.3165,"lon":5.40436,"is_reserved":false,"is_disabled":false,"rental_uris":{"android":"levelo://app?vid=fb6d7503-112a-4e9d-9853-7b957cff013f","ios":"levelo://app?vid=fb6d7503-112a-4e9d-9853-7b957cff013f"},"vehicle_type_id":"4","last_reported":1687208763,"current_range_meters":10400,"station_id":"ce4bh012rcd13ifvqd00","pricing_plan_id":"free"},{"bike_id":"449af95a-7b68-48f9-9b49-5f77796e17f4","system_id":"levelo_inurba_marseille","lat":43.291994,"lon":5.392907,"is_reserved":false,"is_disabled":false,"rental_uris":{"android":"levelo://app?vid=449af95a-7b68-48f9-9b49-5f77796e17f4","ios":"levelo://app?vid=449af95a-7b68-48f9-9b49-5f77796e17f4"},"vehicle_type_id":"4","last_reported":1687208763,"current_range_meters":11600,"station_id":"ce4bh192rcd13ifvqdd0","pricing_plan_id":"free"},{"bike_id":"3b2f76b7-c379-4bd1-8bfe-2ae46fb3669d","system_id":"levelo_inurba_marseille","lat":43.291994,"lon":5.392907,"is_reserved":false,"is_disabled":false,"rental_uris":{"android":"levelo://app?vid=3b2f76b7-c379-4bd1-8bfe-2ae46fb3669d","ios":"levelo://app?vid=3b2f76b7-c379-4bd1-8bfe-2ae46fb3669d"},"vehicle_type_id":"4","last_reported":1687208763,"current_range_meters":20800,"station_id":"ce4bh192rcd13ifvqdd0","pricing_plan_id":"free"},{"bike_id":"545826c9-941d-4a1d-a65e-f0b1d830baa1","system_id":"levelo_inurba_marseille","lat":43.2919,"lon":5.39312,"is_reserved":false,"is_disabled":false,"rental_uris":{"android":"levelo://app?vid=545826c9-941d-4a1d-a65e-f0b1d830baa1","ios":"levelo://app?vid=545826c9-941d-4a1d-a65e-f0b1d830baa1"},"vehicle_type_id":"4","last_reported":1687208763,"current_range_meters":29600,"station_id":"ce4bh192rcd13ifvqdd0","pricing_plan_id":"free"},{"bike_id":"a7fc1897-79df-49f5-b5a0-3a86b7ed938b","system_id":"levelo_inurba_marseille","lat":43.33355,"lon":5.39375,"is_reserved":false,"is_disabled":false,"rental_uris":{"android":"levelo://app?vid=a7fc1897-79df-49f5-b5a0-3a86b7ed938b","ios":"levelo://app?vid=a7fc1897-79df-49f5-b5a0-3a86b7ed938b"},"vehicle_type_id":"4","last_reported":1687208763,"current_range_meters":4400,"station_id":"","pricing_plan_id":"free"},{"bike_id":"81f56690-179b-4b9d-ac69-7b3c6db516ff","system_id":"levelo_inurba_marseille","lat":43.284639,"lon":5.358891,"is_reserved":false,"is_disabled":false,"rental_uris":{"android":"levelo://app?vid=81f56690-179b-4b9d-ac69-7b3c6db516ff","ios":"levelo://app?vid=81f56690-179b-4b9d-ac69-7b3c6db516ff"},"vehicle_type_id":"4","last_reported":1687208763,"current_range_meters":31200,"station_id":"ce4bhah2rcd13ifvqei0","pricing_plan_id":"free"},{"bike_id":"c7875f67-2e7b-4098-b5c9-cfd1f193f550","system_id":"levelo_inurba_marseille","lat":43.284534,"lon":5.358662,"is_reserved":false,"is_disabled":false,"rental_uris":{"android":"levelo://app?vid=c7875f67-2e7b-4098-b5c9-cfd1f193f550","ios":"levelo://app?vid=c7875f67-2e7b-4098-b5c9-cfd1f193f550"},"vehicle_type_id":"4","last_reported":1687208763,"current_range_meters":18400,"station_id":"ce4bhah2rcd13ifvqei0","pricing_plan_id":"free"},{"bike_id":"574d0051-386c-4c59-aa68-c10eead93831","system_id":"levelo_inurba_marseille","lat":43.284619,"lon":5.358889,"is_reserved":false,"is_disabled":false,"rental_uris":{"android":"levelo://app?vid=574d0051-386c-4c59-aa68-c10eead93831","ios":"levelo://app?vid=574d0051-386c-4c59-aa68-c10eead93831"},"vehicle_type_id":"4","last_reported":1687208763,"current_range_meters":16400,"station_id":"ce4bhah2rcd13ifvqei0","pricing_plan_id":"free"},{"bike_id":"45c52255-5717-4a13-ad69-6efea5547bb6","system_id":"levelo_inurba_marseille","lat":43.284619,"lon":5.358884,"is_reserved":false,"is_disabled":false,"rental_uris":{"android":"levelo://app?vid=45c52255-5717-4a13-ad69-6efea5547bb6","ios":"levelo://app?vid=45c52255-5717-4a13-ad69-6efea5547bb6"},"vehicle_type_id":"4","last_reported":1687208763,"current_range_meters":22800,"station_id":"ce4bhah2rcd13ifvqei0","pricing_plan_id":"free"},{"bike_id":"3b818723-c420-4f99-923e-0e40dec0b476","system_id":"levelo_inurba_marseille","lat":43.284534,"lon":5.358662,"is_reserved":false,"is_disabled":false,"rental_uris":{"android":"levelo://app?vid=3b818723-c420-4f99-923e-0e40dec0b476","ios":"levelo://app?vid=3b818723-c420-4f99-923e-0e40dec0b476"},"vehicle_type_id":"4","last_reported":1687208763,"current_range_meters":31200,"station_id":"ce4bhah2rcd13ifvqei0","pricing_plan_id":"free"},{"bike_id":"1fe5100e-f94d-400b-9d37-3ec5e01219da","system_id":"levelo_inurba_marseille","lat":43.284534,"lon":5.358662,"is_reserved":false,"is_disabled":false,"rental_uris":{"android":"levelo://app?vid=1fe5100e-f94d-400b-9d37-3ec5e01219da","ios":"levelo://app?vid=1fe5100e-f94d-400b-9d37-3ec5e01219da"},"vehicle_type_id":"4","last_reported":1687208763,"current_range_meters":10800,"station_id":"ce4bhah2rcd13ifvqei0","pricing_plan_id":"free"},{"bike_id":"a4fc25d8-3414-4bad-acdf-d56eca010e0a","system_id":"levelo_inurba_marseille","lat":43.284534,"lon":5.358662,"is_reserved":false,"is_disabled":false,"rental_uris":{"android":"levelo://app?vid=a4fc25d8-3414-4bad-acdf-d56eca010e0a","ios":"levelo://app?vid=a4fc25d8-3414-4bad-acdf-d56eca010e0a"},"vehicle_type_id":"4","last_reported":1687208763,"current_range_meters":21600,"station_id":"ce4bhah2rcd13ifvqei0","pricing_plan_id":"free"},{"bike_id":"92511ac5-cefe-4f24-a0b8-998109d1c924","system_id":"levelo_inurba_marseille","lat":43.284534,"lon":5.358662,"is_reserved":false,"is_disabled":false,"rental_uris":{"android":"levelo://app?vid=92511ac5-cefe-4f24-a0b8-998109d1c924","ios":"levelo://app?vid=92511ac5-cefe-4f24-a0b8-998109d1c924"},"vehicle_type_id":"4","last_reported":1687208763,"current_range_meters":14400,"station_id":"ce4bhah2rcd13ifvqei0","pricing_plan_id":"free"},{"bike_id":"87ba3843-7f13-459c-a8b8-3e43c845081b","system_id":"levelo_inurba_marseille","lat":43.28461,"lon":5.35886,"is_reserved":false,"is_disabled":false,"rental_uris":{"android":"levelo://app?vid=87ba3843-7f13-459c-a8b8-3e43c845081b","ios":"levelo://app?vid=87ba3843-7f13-459c-a8b8-3e43c845081b"},"vehicle_type_id":"4","last_reported":1687208763,"current_range_meters":31200,"station_id":"ce4bhah2rcd13ifvqei0","pricing_plan_id":"free"},{"bike_id":"53328c74-f3e3-4144-8f03-0534fa00e5fb","system_id":"levelo_inurba_marseille","lat":43.284534,"lon":5.358662,"is_reserved":false,"is_disabled":false,"rental_uris":{"android":"levelo://app?vid=53328c74-f3e3-4144-8f03-0534fa00e5fb","ios":"levelo://app?vid=53328c74-f3e3-4144-8f03-0534fa00e5fb"},"vehicle_type_id":"4","last_reported":1687208763,"current_range_meters":29200,"station_id":"ce4bhah2rcd13ifvqei0","pricing_plan_id":"free"},{"bike_id":"112c4fef-0cd3-4194-a6ae-e92e70b287e5","system_id":"levelo_inurba_marseille","lat":43.284534,"lon":5.358662,"is_reserved":false,"is_disabled":false,"rental_uris":{"android":"levelo://app?vid=112c4fef-0cd3-4194-a6ae-e92e70b287e5","ios":"levelo://app?vid=112c4fef-0cd3-4194-a6ae-e92e70b287e5"},"vehicle_type_id":"4","last_reported":1687208763,"current_range_meters":25200,"station_id":"ce4bhah2rcd13ifvqei0","pricing_plan_id":"free"},{"bike_id":"b086daeb-f46f-46b6-8420-2ec2c974bd0e","system_id":"levelo_inurba_marseille","lat":43.284534,"lon":5.358662,"is_reserved":false,"is_disabled":false,"rental_uris":{"android":"levelo://app?vid=b086daeb-f46f-46b6-8420-2ec2c974bd0e","ios":"levelo://app?vid=b086daeb-f46f-46b6-8420-2ec2c974bd0e"},"vehicle_type_id":"4","last_reported":1687208763,"current_range_meters":26800,"station_id":"ce4bhah2rcd13ifvqei0","pricing_plan_id":"free"},{"bike_id":"0ebe3d5a-8268-493b-a817-a1e001bd06b9","system_id":"levelo_inurba_marseille","lat":43.28458,"lon":5.35886,"is_reserved":false,"is_disabled":false,"rental_uris":{"android":"levelo://app?vid=0ebe3d5a-8268-493b-a817-a1e001bd06b9","ios":"levelo://app?vid=0ebe3d5a-8268-493b-a817-a1e001bd06b9"},"vehicle_type_id":"4","last_reported":1687208763,"current_range_meters":31200,"station_id":"ce4bhah2rcd13ifvqei0","pricing_plan_id":"free"},{"bike_id":"9687c34d-b1be-4c39-adcb-7fc64517acdd","system_id":"levelo_inurba_marseille","lat":43.284582,"lon":5.358818,"is_reserved":false,"is_disabled":false,"rental_uris":{"android":"levelo://app?vid=9687c34d-b1be-4c39-adcb-7fc64517acdd","ios":"levelo://app?vid=9687c34d-b1be-4c39-adcb-7fc64517acdd"},"vehicle_type_id":"4","last_reported":1687208763,"current_range_meters":29600,"station_id":"ce4bhah2rcd13ifvqei0","pricing_plan_id":"free"},{"bike_id":"86844344-5d9a-4b3b-b9f0-230e77a5bd99","system_id":"levelo_inurba_marseille","lat":43.284583,"lon":5.358807,"is_reserved":false,"is_disabled":false,"rental_uris":{"android":"levelo://app?vid=86844344-5d9a-4b3b-b9f0-230e77a5bd99","ios":"levelo://app?vid=86844344-5d9a-4b3b-b9f0-230e77a5bd99"},"vehicle_type_id":"4","last_reported":1687208763,"current_range_meters":6800,"station_id":"ce4bhah2rcd13ifvqei0","pricing_plan_id":"free"},{"bike_id":"e226e841-1364-4611-b448-ae7345d0816a","system_id":"levelo_inurba_marseille","lat":43.284534,"lon":5.358662,"is_reserved":false,"is_disabled":false,"rental_uris":{"android":"levelo://app?vid=e226e841-1364-4611-b448-ae7345d0816a","ios":"levelo://app?vid=e226e841-1364-4611-b448-ae7345d0816a"},"vehicle_type_id":"4","last_reported":1687208763,"current_range_meters":12400,"station_id":"ce4bhah2rcd13ifvqei0","pricing_plan_id":"free"},{"bike_id":"2dfe1c5c-b69e-46f9-b47c-c310da39e2f4","system_id":"levelo_inurba_marseille","lat":43.284579,"lon":5.358809,"is_reserved":false,"is_disabled":false,"rental_uris":{"android":"levelo://app?vid=2dfe1c5c-b69e-46f9-b47c-c310da39e2f4","ios":"levelo://app?vid=2dfe1c5c-b69e-46f9-b47c-c310da39e2f4"},"vehicle_type_id":"4","last_reported":1687208763,"current_range_meters":29600,"station_id":"ce4bhah2rcd13ifvqei0","pricing_plan_id":"free"},{"bike_id":"0fc71b69-4e94-4f77-9ccb-d2651cefa289","system_id":"levelo_inurba_marseille","lat":43.28456,"lon":5.35891,"is_reserved":false,"is_disabled":false,"rental_uris":{"android":"levelo://app?vid=0fc71b69-4e94-4f77-9ccb-d2651cefa289","ios":"levelo://app?vid=0fc71b69-4e94-4f77-9ccb-d2651cefa289"},"vehicle_type_id":"4","last_reported":1687208763,"current_range_meters":22000,"station_id":"ce4bhah2rcd13ifvqei0","pricing_plan_id":"free"},{"bike_id":"3f33731e-46ba-4934-9b8f-7454e90a2d0d","system_id":"levelo_inurba_marseille","lat":43.294314,"lon":5.397498,"is_reserved":false,"is_disabled":false,"rental_uris":{"android":"levelo://app?vid=3f33731e-46ba-4934-9b8f-7454e90a2d0d","ios":"levelo://app?vid=3f33731e-46ba-4934-9b8f-7454e90a2d0d"},"vehicle_type_id":"4","last_reported":1687208763,"current_range_meters":23200,"station_id":"ce4bh3h2rcd13ifvqdo0","pricing_plan_id":"free"},{"bike_id":"7f684ca4-bf5b-4229-993b-ffee8bd6d310","system_id":"levelo_inurba_marseille","lat":43.294314,"lon":5.397498,"is_reserved":false,"is_disabled":false,"rental_uris":{"android":"levelo://app?vid=7f684ca4-bf5b-4229-993b-ffee8bd6d310","ios":"levelo://app?vid=7f684ca4-bf5b-4229-993b-ffee8bd6d310"},"vehicle_type_id":"4","last_reported":1687208763,"current_range_meters":31600,"station_id":"ce4bh3h2rcd13ifvqdo0","pricing_plan_id":"free"},{"bike_id":"81495a49-6ba8-402b-bf62-2ac92962e6d2","system_id":"levelo_inurba_marseille","lat":43.28455,"lon":5.35884,"is_reserved":false,"is_disabled":false,"rental_uris":{"android":"levelo://app?vid=81495a49-6ba8-402b-bf62-2ac92962e6d2","ios":"levelo://app?vid=81495a49-6ba8-402b-bf62-2ac92962e6d2"},"vehicle_type_id":"4","last_reported":1687208763,"current_range_meters":30800,"station_id":"ce4bhah2rcd13ifvqei0","pricing_plan_id":"free"},{"bike_id":"3eff5fdd-0391-4072-bf77-7fb98feb0723","system_id":"levelo_inurba_marseille","lat":43.284534,"lon":5.358662,"is_reserved":false,"is_disabled":false,"rental_uris":{"android":"levelo://app?vid=3eff5fdd-0391-4072-bf77-7fb98feb0723","ios":"levelo://app?vid=3eff5fdd-0391-4072-bf77-7fb98feb0723"},"vehicle_type_id":"4","last_reported":1687208763,"current_range_meters":18400,"station_id":"ce4bhah2rcd13ifvqei0","pricing_plan_id":"free"},{"bike_id":"73c00c3b-2ae9-4ab1-b6ff-4cbe4e1a9c77","system_id":"levelo_inurba_marseille","lat":43.285848,"lon":5.350787,"is_reserved":false,"is_disabled":false,"rental_uris":{"android":"levelo://app?vid=73c00c3b-2ae9-4ab1-b6ff-4cbe4e1a9c77","ios":"levelo://app?vid=73c00c3b-2ae9-4ab1-b6ff-4cbe4e1a9c77"},"vehicle_type_id":"4","last_reported":1687208763,"current_range_meters":1200,"station_id":"ce4bhch2rcd13ifvqeug","pricing_plan_id":"free"},{"bike_id":"cded6663-86a4-4859-8b1c-b3a8f64502b1","system_id":"levelo_inurba_marseille","lat":43.285848,"lon":5.350787,"is_reserved":false,"is_disabled":false,"rental_uris":{"android":"levelo://app?vid=cded6663-86a4-4859-8b1c-b3a8f64502b1","ios":"levelo://app?vid=cded6663-86a4-4859-8b1c-b3a8f64502b1"},"vehicle_type_id":"4","last_reported":1687208763,"current_range_meters":5600,"station_id":"ce4bhch2rcd13ifvqeug","pricing_plan_id":"free"},{"bike_id":"9da09770-2afe-4153-8ca1-4116afec7a91","system_id":"levelo_inurba_marseille","lat":43.283998,"lon":5.375062,"is_reserved":false,"is_disabled":false,"rental_uris":{"android":"levelo://app?vid=9da09770-2afe-4153-8ca1-4116afec7a91","ios":"levelo://app?vid=9da09770-2afe-4153-8ca1-4116afec7a91"},"vehicle_type_id":"4","last_reported":1687208763,"current_range_meters":5600,"station_id":"ce4bh412rcd13ifvqds0","pricing_plan_id":"free"},{"bike_id":"a5833b9d-2fde-40bf-8390-34e2fddfb874","system_id":"levelo_inurba_marseille","lat":43.28624,"lon":5.38359,"is_reserved":false,"is_disabled":false,"rental_uris":{"android":"levelo://app?vid=a5833b9d-2fde-40bf-8390-34e2fddfb874","ios":"levelo://app?vid=a5833b9d-2fde-40bf-8390-34e2fddfb874"},"vehicle_type_id":"4","last_reported":1687208763,"current_range_meters":0,"station_id":"","pricing_plan_id":"free"},