{"last_updated":1743199731,"ttl":60,"version":"2.2","data":{"bikes":[{"bike_id":"04f4a73b-cd58-4830-9242-a5bbcf7947cf","system_id":"levelo_inurba_marseille","lat":43.31883,"lon":5.40734,"is_reserved":false,"is_disabled":false,"rental_uris":{"android":"levelo://app?vid=04f4a73b-cd58-4830-9242-a5bbcf7947cf","ios":"levelo://app?vid=04f4a73b-cd58-4830-9242-a5bbcf7947cf"},"vehicle_type_id":"4","last_reported":1743199731,"current_range_meters":2000,"station_id":"ce4bhq12rcd13ifvqhig","pricing_plan_id":"cebpf4jnsgd1na2vs0mg"},{"bike_id":"8d1602fb-0182-4c41-925e-a4ded0c3ad72","system_id":"levelo_inurba_marseille","lat":43.30877,"lon":5.37189,"is_reserved":false,"is_disabled":false,"rental_uris":{"android":"levelo://app?vid=8d1602fb-0182-4c41-925e-a4ded0c3ad72","ios":"levelo://app?vid=8d1602fb-0182-4c41-925e-a4ded0c3ad72"},"vehicle_type_id":"4","last_reported":1743199731,"current_range_meters":3200,"station_id":"ce4bguh2rcd13ifvqckg","pricing_plan_id":"cebpf4jnsgd1na2vs0mg"},{"bike_id":"17d0f0fd-7393-435f-8cf7-a14f368eb591","system_id":"levelo_inurba_marseille","lat":43.29395,"lon":5.37857,"is_reserved":false,"is_disabled":true,"rental_uris":{"android":"levelo://app?vid=17d0f0fd-7393-435f-8cf7-a14f368eb591","ios":"levelo://app?vid=17d0f0fd-7393-435f-8cf7-a14f368eb591"},"vehicle_type_id":"4","last_reported":1743199731,"current_range_meters":3200,"station_id":"ce4bgjh2rcd13ifvqbf0","pricing_plan_id":"cebpf4jnsgd1na2vs0mg"},{"bike_id":"945f40ac-982e-492e-9c35-a10c4d579806","system_id":"levelo_inurba_marseille","lat":43.29283,"lon":5.36846,"is_reserved":false,"is_disabled":false,"rental_uris":{"android":"levelo://app?vid=945f40ac-982e-492e-9c35-a10c4d579806","ios":"levelo://app?vid=945f40ac-982e-492e-9c35-a10c4d579806"},"vehicle_type_id":"4","last_reported":1743199731,"current_range_meters":3200,"station_id":"ce4bhbp2rcd13ifvqesg","pricing_plan_id":"cebpf4jnsgd1na2vs0mg"},{"bike_id":"9ebbf19c-53f2-42ad-93bf-28054e276d0c","system_id":"levelo_inurba_marseille","lat":43.2926,"lon":5.40901,"is_reserved":false,"is_disabled":false,"rental_uris":{"android":"levelo://app?vid=9ebbf19c-53f2-42ad-93bf-28054e276d0c","ios":"levelo://app?vid=9ebbf19c-53f2-42ad-93bf-28054e276d0c"},"vehicle_type_id":"4","last_reported":1743199731,"current_range_meters":2800,"station_id":"ce4bh192rcd13ifvqdc0","pricing_plan_id":"cebpf4jnsgd1na2vs0mg"},{"bike_id":"c18155db-65c7-4d5a-8c5b-923eb75c675d","system_id":"levelo_inurba_marseille","lat":43.32109,"lon":5.36782,"is_reserved":false,"is_disabled":false,"rental_uris":{"android":"levelo://app?vid=c18155db-65c7-4d5a-8c5b-923eb75c675d","ios":"levelo://app?vid=c18155db-65c7-4d5a-8c5b-923eb75c675d"},"vehicle_type_id":"4","last_reported":1743199731,"current_range_meters":3200,"station_id":"ce4bhrh2rcd13ifvqhug","pricing_plan_id":"cebpf4jnsgd1na2vs0mg"},{"bike_id":"c044ef83-8bb1-4d47-9b04-62e17eeef369","system_id":"levelo_inurba_marseille","lat":43.29263,"lon":5.38451,"is_reserved":false,"is_disabled":false,"rental_uris":{"android":"levelo://app?vid=c044ef83-8bb1-4d47-9b04-62e17eeef369","ios":"levelo://app?vid=c044ef83-8bb1-4d47-9b04-62e17eeef369"},"vehicle_type_id":"4","last_reported":1743199731,"current_range_meters":3200,"station_id":"ce4bh692rcd13ifvqea0","pricing_plan_id":"cebpf4jnsgd1na2vs0mg"},{"bike_id":"513b1e47-84ce-4d4d-8c69-76b821b6dd6f","system_id":"levelo_inurba_marseille","lat":43.28617,"lon":5.35119,"is_reserved":false,"is_disabled":false,"rental_uris":{"android":"levelo://app?vid=513b1e47-84ce-4d4d-8c69-76b821b6dd6f","ios":"levelo://app?vid=513b1e47-84ce-4d4d-8c69-76b821b6dd6f"},"vehicle_type_id":"4","last_reported":1743199731,"current_range_meters":3600,"station_id":"ce4bhch2rcd13ifvqeug","pricing_plan_id":"cebpf4jnsgd1na2vs0mg"},{"bike_id":"37feb872-afb0-4162-9d8b-3b6f53cae9f7","system_id":"levelo_inurba_marseille","lat":43.31346,"lon":5.39708,"is_reserved":false,"is_disabled":false,"rental_uris":{"android":"levelo://app?vid=37feb872-afb0-4162-9d8b-3b6f53cae9f7","ios":"levelo://app?vid=37feb872-afb0-4162-9d8b-3b6f53cae9f7"},"vehicle_type_id":"4","last_reported":1743199731,"current_range_meters":3600,"station_id":"ce4bgvp2rcd13ifvqcu0","pricing_plan_id":"cebpf4jnsgd1na2vs0mg"},{"bike_id":"6bb775f2-2d8e-42a1-ab08-7d48a7f4152e","system_id":"levelo_inurba_marseille","lat":43.33604,"lon":5.41018,"is_reserved":false,"is_disabled":false,"rental_uris":{"android":"levelo://app?vid=6bb775f2-2d8e-42a1-ab08-7d48a7f4152e","ios":"levelo://app?vid=6bb775f2-2d8e-42a1-ab08-7d48a7f4152e"},"vehicle_type_id":"4","last_reported":1743199731,"current_range_meters":3600,"station_id":"ce4bhqh2rcd13ifvqhmg","pricing_plan_id":"cebpf4jnsgd1na2vs0mg"},{"bike_id":"93719956-b3e3-4d07-a571-c4ec4290a9cc","system_id":"levelo_inurba_marseille","lat":43.2926,"lon":5.36843,"is_reserved":false,"is_disabled":false,"rental_uris":{"android":"levelo://app?vid=93719956-b3e3-4d07-a571-c4ec4290a9cc","ios":"levelo://app?vid=93719956-b3e3-4d07-a571-c4ec4290a9cc"},"vehicle_type_id":"4","last_reported":1743199731,"current_range_meters":4000,"station_id":"ce4bhbp2rcd13ifvqesg","pricing_plan_id":"cebpf4jnsgd1na2vs0mg"},{"bike_id":"d811e250-342f-4e86-a3e3-42003a24416c","system_id":"levelo_inurba_marseille","lat":43.28001,"lon":5.40005,"is_reserved":false,"is_disabled":false,"rental_uris":{"android":"levelo://app?vid=d811e250-342f-4e86-a3e3-42003a24416c","ios":"levelo://app?vid=d811e250-342f-4e86-a3e3-42003a24416c"},"vehicle_type_id":"4","last_reported":1743199731,"current_range_meters":4000,"station_id":"ce4bho92rcd13ifvqh4g","pricing_plan_id":"cebpf4jnsgd1na2vs0mg"},{"bike_id":"d43b2a86-10ae-42b3-8b7e-8bb72fd0fb1c","system_id":"levelo_inurba_marseille","lat":43.2884,"lon":5.35842,"is_reserved":false,"is_disabled":false,"rental_uris":{"android":"levelo://app?vid=d43b2a86-10ae-42b3-8b7e-8bb72fd0fb1c","ios":"levelo://app?vid=d43b2a86-10ae-42b3-8b7e-8bb72fd0fb1c"},"vehicle_type_id":"4","last_reported":1743199731,"current_range_meters":4000,"station_id":"ce4bhb12rcd13ifvqem0","pricing_plan_id":"cebpf4jnsgd1na2vs0mg"},{"bike_id":"8610c0a7-54e0-46b6-b97c-eb43fd27f9ca","system_id":"levelo_inurba_marseille","lat":43.29768,"lon":5.38165,"is_reserved":false,"is_disabled":false,"rental_uris":{"android":"levelo://app?vid=8610c0a7-54e0-46b6-b97c-eb43fd27f9ca","ios":"levelo://app?vid=8610c0a7-54e0-46b6-b97c-eb43fd27f9ca"},"vehicle_type_id":"4","last_reported":1743199731,"current_range_meters":4000,"station_id":"","pricing_plan_id":"cebpf4jnsgd1na2vs0mg"},{"bike_id":"2a6f3541-0c50-4cc5-acb7-d90a922326fc","system_id":"levelo_inurba_marseille","lat":43.28574,"lon":5.39491,"is_reserved":false,"is_disabled":false,"rental_uris":{"android":"levelo://app?vid=2a6f3541-0c50-4cc5-acb7-d90a922326fc","ios":"levelo://app?vid=2a6f3541-0c50-4cc5-acb7-d90a922326fc"},"vehicle_type_id":"4","last_reported":1743199731,"current_range_meters":4400,"station_id":"ce4bh292rcd13ifvqdg0","pricing_plan_id":"cebpf4jnsgd1na2vs0mg"},{"bike_id":"e0bd8552-eaef-4342-bdcd-1df755c00099","system_id":"levelo_inurba_marseille","lat":43.26193,"lon":5.42073,"is_reserved":false,"is_disabled":false,"rental_uris":{"android":"levelo://app?vid=e0bd8552-eaef-4342-bdcd-1df755c00099","ios":"levelo://app?vid=e0bd8552-eaef-4342-bdcd-1df755c00099"},"vehicle_type_id":"4","last_reported":1743199731,"current_range_meters":4400,"station_id":"","pricing_plan_id":"cebpf4jnsgd1na2vs0mg"},{"bike_id":"2f3eeac0-239c-44be-9ea2-5661fcbed8f7","system_id":"levelo_inurba_marseille","lat":43.28355,"lon":5.38106,"is_reserved":false,"is_disabled":false,"rental_uris":{"android":"levelo://app?vid=2f3eeac0-239c-44be-9ea2-5661fcbed8f7","ios":"levelo://app?vid=2f3eeac0-239c-44be-9ea2-5661fcbed8f7"},"vehicle_type_id":"4","last_reported":1743199731,"current_range_meters":4400,"station_id":"ce4bh412rcd13ifvqdr0","pricing_plan_id":"cebpf4jnsgd1na2vs0mg"},{"bike_id":"9108efae-73e9-412e-8196-cfca317be609","system_id":"levelo_inurba_marseille","lat":43.29292,"lon":5.37183,"is_reserved":false,"is_disabled":true,"rental_uris":{"android":"levelo://app?vid=9108efae-73e9-412e-8196-cfca317be609","ios":"levelo://app?vid=9108efae-73e9-412e-8196-cfca317be609"},"vehicle_type_id":"4","last_reported":1743199731,"current_range_meters":4400,"station_id":"ce4bgh92rcd13ifvqb40","pricing_plan_id":"cebpf4jnsgd1na2vs0mg"},{"bike_id":"0714e207-7246-458a-9d1d-be45c6f0f274","system_id":"levelo_inurba_marseille","lat":43.30322,"lon":5.4043,"is_reserved":false,"is_disabled":false,"rental_uris":{"android":"levelo://app?vid=0714e207-7246-458a-9d1d-be45c6f0f274","ios":"levelo://app?vid=0714e207-7246-458a-9d1d-be45c6f0f274"},"vehicle_type_id":"4","last_reported":1743199731,"current_range_meters":4400,"station_id":"ce4bh012rcd13ifvqd10","pricing_plan_id":"cebpf4jnsgd1na2vs0mg"},{"bike_id":"dee42fc1-6024-490d-8bbf-f7206b5a5e28","system_id":"levelo_inurba_marseille","lat":43.290649,"lon":5.371255,"is_reserved":false,"is_disabled":false,"rental_uris":{"android":"levelo://app?vid=dee42fc1-6024-490d-8bbf-f7206b5a5e28","ios":"levelo://app?vid=dee42fc1-6024-490d-8bbf-f7206b5a5e28"},"vehicle_type_id":"4","last_reported":1743199731,"current_range_meters":4400,"station_id":"ce4bha92rcd13ifvqeg0","pricing_plan_id":"cebpf4jnsgd1na2vs0mg"},{"bike_id":"c6b416c7-e5ff-4d4a-9f74-d0f04b96b7f0","system_id":"levelo_inurba_marseille","lat":43.30405,"lon":5.39767,"is_reserved":false,"is_disabled":false,"rental_uris":{"android":"levelo://app?vid=c6b416c7-e5ff-4d4a-9f74-d0f04b96b7f0","ios":"levelo://app?vid=c6b416c7-e5ff-4d4a-9f74-d0f04b96b7f0"},"vehicle_type_id":"4","last_reported":1743199731,"current_range_meters":4400,"station_id":"ce4bh092rcd13ifvqd20","pricing_plan_id":"cebpf4jnsgd1na2vs0mg"},{"bike_id":"f46eea1f-108d-4507-b3e2-89b39c0d15e7","system_id":"levelo_inurba_marseille","lat":43.3234,"lon":5.4063,"is_reserved":false,"is_disabled":false,"rental_uris":{"android":"levelo://app?vid=f46eea1f-108d-4507-b3e2-89b39c0d15e7","ios":"levelo://app?vid=f46eea1f-108d-4507-b3e2-89b39c0d15e7"},"vehicle_type_id":"4","last_reported":1743199731,"current_range_meters":4400,"station_id":"ce4bhq92rcd13ifvqhjg","pricing_plan_id":"cebpf4jnsgd1na2vs0mg"},{"bike_id":"52803407-c6ec-45bb-be39-30b5c2f46387","system_id":"levelo_inurba_marseille","lat":43.28736,"lon":5.36088,"is_reserved":false,"is_disabled":false,"rental_uris":{"android":"levelo://app?vid=52803407-c6ec-45bb-be39-30b5c2f46387","ios":"levelo://app?vid=52803407-c6ec-45bb-be39-30b5c2f46387"},"vehicle_type_id":"4","last_reported":1743199731,"current_range_meters":4400,"station_id":"cki0cbj6b192h4jlfktg","pricing_plan_id":"cebpf4jnsgd1na2vs0mg"},{"bike_id":"9b6b5664-07f9-450e-a946-ff576f414882","system_id":"levelo_inurba_marseille","lat":43.27974,"lon":5.38589,"is_reserved":false,"is_disabled":false,"rental_uris":{"android":"levelo://app?vid=9b6b5664-07f9-450e-a946-ff576f414882","ios":"levelo://app?vid=9b6b5664-07f9-450e-a946-ff576f414882"},"vehicle_type_id":"4","last_reported":1743199731,"current_range_meters":4400,"station_id":"","pricing_plan_id":"cebpf4jnsgd1na2vs0mg"},{"bike_id":"cf49318e-b0f4-4cea-92f2-6aff2f4e5c78","system_id":"levelo_inurba_marseille","lat":43.29224,"lon":5.35797,"is_reserved":false,"is_disabled":false,"rental_uris":{"android":"levelo://app?vid=cf49318e-b0f4-4cea-92f2-6aff2f4e5c78","ios":"levelo://app?vid=cf49318e-b0f4-4cea-92f2-6aff2f4e5c78"},"vehicle_type_id":"4","last_reported":1743199731,"current_range_meters":4400,"station_id":"ce4bhb12rcd13ifvqel0","pricing_plan_id":"cebpf4jnsgd1na2vs0mg"},{"bike_id":"319b2b3a-29b9-484f-8b56-77b050f07ca8","system_id":"levelo_inurba_marseille","lat":43.32101,"lon":5.36776,"is_reserved":false,"is_disabled":false,"rental_uris":{"android":"levelo://app?vid=319b2b3a-29b9-484f-8b56-77b050f07ca8","ios":"levelo://app?vid=319b2b3a-29b9-484f-8b56-77b050f07ca8"},"vehicle_type_id":"4","last_reported":1743199731,"current_range_meters":4400,"station_id":"ce4bhrh2rcd13ifvqhug","pricing_plan_id":"cebpf4jnsgd1na2vs0mg"},{"bike_id":"66575d8e-5a43-4800-bd7b-a6ae7fac0e47","system_id":"levelo_inurba_marseille","lat":43.29555,"lon":5.38541,"is_reserved":false,"is_disabled":false,"rental_uris":{"android":"levelo://app?vid=66575d8e-5a43-4800-bd7b-a6ae7fac0e47","ios":"levelo://app?vid=66575d8e-5a43-4800-bd7b-a6ae7fac0e47"},"vehicle_type_id":"4","last_reported":1743199731,"current_range_meters":4400,"station_id":"ce4bgih2rcd13ifvqba0","pricing_plan_id":"cebpf4jnsgd1na2vs0mg"},{"bike_id":"4035b94c-cde3-45e1-a2f2-dddbc5286c43","system_id":"levelo_inurba_marseille","lat":43.27195,"lon":5.392,"is_reserved":false,"is_disabled":false,"rental_uris":{"android":"levelo://app?vid=4035b94c-cde3-45e1-a2f2-dddbc5286c43","ios":"levelo://app?vid=4035b94c-cde3-45e1-a2f2-dddbc5286c43"},"vehicle_type_id":"4","last_reported":1743199731,"current_range_meters":4400,"station_id":"ce4bhhp2rcd13ifvqfm0","pricing_plan_id":"cebpf4jnsgd1na2vs0mg"},{"bike_id":"c7ba5d51-40ee-4cbc-a79a-ab625f34e00b","system_id":"levelo_inurba_marseille","lat":43.2558,"lon":5.38244,"is_reserved":false,"is_disabled":true,"rental_uris":{"android":"levelo://app?vid=c7ba5d51-40ee-4cbc-a79a-ab625f34e00b","ios":"levelo://app?vid=c7ba5d51-40ee-4cbc-a79a-ab625f34e00b"},"vehicle_type_id":"4","last_reported":1743199731,"current_range_meters":4400,"station_id":"ce4bhih2rcd13ifvqfs0","pricing_plan_id":"cebpf4jnsgd1na2vs0mg"},{"bike_id":"ec5ccd69-0dfb-4c56-9873-3a973d75a8a3","system_id":"levelo_inurba_marseille","lat":43.28688,"lon":5.38661,"is_reserved":false,"is_disabled":false,"rental_uris":{"android":"levelo://app?vid=ec5ccd69-0dfb-4c56-9873-3a973d75a8a3","ios":"levelo://app?vid=ec5ccd69-0dfb-4c56-9873-3a973d75a8a3"},"vehicle_type_id":"4","last_reported":1743199731,"current_range_meters":4800,"station_id":"ce4bh492rcd13ifvqdug","pricing_plan_id":"cebpf4jnsgd1na2vs0mg"},{"bike_id":"02c3099e-a32e-4334-8692-7185f398d7cf","system_id":"levelo_inurba_marseille","lat":43.27071,"lon":5.42277,"is_reserved":false,"is_disabled":false,"rental_uris":{"android":"levelo://app?vid=02c3099e-a32e-4334-8692-7185f398d7cf","ios":"levelo://app?vid=02c3099e-a32e-4334-8692-7185f398d7cf"},"vehicle_type_id":"4","last_reported":1743199731,"current_range_meters":4800,"station_id":"ce4bhk92rcd13ifvqgb0","pricing_plan_id":"cebpf4jnsgd1na2vs0mg"},{"bike_id":"c73f0e70-cf05-4c3d-9791-00361b8a4b59","system_id":"levelo_inurba_marseille","lat":43.26778,"lon":5.39388,"is_reserved":false,"is_disabled":false,"rental_uris":{"android":"levelo://app?vid=c73f0e70-cf05-4c3d-9791-00361b8a4b59","ios":"levelo://app?vid=c73f0e70-cf05-4c3d-9791-00361b8a4b59"},"vehicle_type_id":"4","last_reported":1743199731,"current_range_meters":4800,"station_id":"ce4bhh12rcd13ifvqfg0","pricing_plan_id":"cebpf4jnsgd1na2vs0mg"},{"bike_id":"fc8e8371-f4e9-4721-bc19-563801e389dc","system_id":"levelo_inurba_marseille","lat":43.337444,"lon":5.374475,"is_reserved":false,"is_disabled":false,"rental_uris":{"android":"levelo://app?vid=fc8e8371-f4e9-4721-bc19-563801e389dc","ios":"levelo://app?vid=fc8e8371-f4e9-4721-bc19-563801e389dc"},"vehicle_type_id":"4","last_reported":1743199731,"current_range_meters":4800,"station_id":"","pricing_plan_id":"cebpf4jnsgd1na2vs0mg"},{"bike_id":"05c19c64-cc46-42af-9a28-2e6ea7df66e1","system_id":"levelo_inurba_marseille","lat":43.29294,"lon":5.3714,"is_reserved":false,"is_disabled":false,"rental_uris":{"android":"levelo://app?vid=05c19c64-cc46-42af-9a28-2e6ea7df66e1","ios":"levelo://app?vid=05c19c64-cc46-42af-9a28-2e6ea7df66e1"},"vehicle_type_id":"4","last_reported":1743199731,"current_range_meters":5600,"station_id":"ce4bgh92rcd13ifvqb40","pricing_plan_id":"cebpf4jnsgd1na2vs0mg"},{"bike_id":"8bc87a97-b2dd-4281-9a97-90a14dad055d","system_id":"levelo_inurba_marseille","lat":43.30803,"lon":5.38171,"is_reserved":false,"is_disabled":false,"rental_uris":{"android":"levelo://app?vid=8bc87a97-b2dd-4281-9a97-90a14dad055d","ios":"levelo://app?vid=8bc87a97-b2dd-4281-9a97-90a14dad055d"},"vehicle_type_id":"4","last_reported":1743199731,"current_range_meters":5600,"station_id":"ce4bgt12rcd13ifvqce0","pricing_plan_id":"cebpf4jnsgd1na2vs0mg"},{"bike_id":"548e0281-6cce-4bbc-84cd-23f8ff8b8e8a","system_id":"levelo_inurba_marseille","lat":43.306169,"lon":5.372109,"is_reserved":false,"is_disabled":false,"rental_uris":{"android":"levelo://app?vid=548e0281-6cce-4bbc-84cd-23f8ff8b8e8a","ios":"levelo://app?vid=548e0281-6cce-4bbc-84cd-23f8ff8b8e8a"},"vehicle_type_id":"4","last_reported":1743199731,"current_range_meters":5600,"station_id":"ce4bgqh2rcd13ifvqc4g","pricing_plan_id":"cebpf4jnsgd1na2vs0mg"},{"bike_id":"e142a687-9e3d-4947-aab1-a16e6708a7d9","system_id":"levelo_inurba_marseille","lat":43.302096,"lon":5.394628,"is_reserved":false,"is_disabled":false,"rental_uris":{"android":"levelo://app?vid=e142a687-9e3d-4947-aab1-a16e6708a7d9","ios":"levelo://app?vid=e142a687-9e3d-4947-aab1-a16e6708a7d9"},"vehicle_type_id":"4","last_reported":1743199731,"current_range_meters":5600,"station_id":"chh1huq6cuj3fo74tm60","pricing_plan_id":"cebpf4jnsgd1na2vs0mg"},{"bike_id":"980ff761-ef4f-469b-8661-624f949ac9ec","system_id":"levelo_inurba_marseille","lat":43.25809,"lon":5.39466,"is_reserved":false,"is_disabled":false,"rental_uris":{"android":"levelo://app?vid=980ff761-ef4f-469b-8661-624f949ac9ec","ios":"levelo://app?vid=980ff761-ef4f-469b-8661-624f949ac9ec"},"vehicle_type_id":"4","last_reported":1743199731,"current_range_meters":5600,"station_id":"ce4bhip2rcd13ifvqft0","pricing_plan_id":"cebpf4jnsgd1na2vs0mg"},{"bike_id":"70d616e3-8eca-4707-9218-38d2fbdccab2","system_id":"levelo_inurba_marseille","lat":43.29512,"lon":5.37523,"is_reserved":false,"is_disabled":true,"rental_uris":{"android":"levelo://app?vid=70d616e3-8eca-4707-9218-38d2fbdccab2","ios":"levelo://app?vid=70d616e3-8eca-4707-9218-38d2fbdccab2"},"vehicle_type_id":"4","last_reported":1743199731,"current_range_meters":5600,"station_id":"ce4bgkp2rcd13ifvqbmg","pricing_plan_id":"cebpf4jnsgd1na2vs0mg"},{"bike_id":"8306ff47-284b-460f-888b-6204683b7222","system_id":"levelo_inurba_marseille","lat":43.2872,"lon":5.36105,"is_reserved":false,"is_disabled":false,"rental_uris":{"android":"levelo://app?vid=8306ff47-284b-460f-888b-6204683b7222","ios":"levelo://app?vid=8306ff47-284b-460f-888b-6204683b7222"},"vehicle_type_id":"4","last_reported":1743199731,"current_range_meters":5600,"station_id":"cki0cbj6b192h4jlfktg","pricing_plan_id":"cebpf4jnsgd1na2vs0mg"},{"bike_id":"fb94d37c-a5f0-424c-9c95-a0f43cd760b8","system_id":"levelo_inurba_marseille","lat":43.30396,"lon":5.39755,"is_reserved":false,"is_disabled":true,"rental_uris":{"android":"levelo://app?vid=fb94d37c-a5f0-424c-9c95-a0f43cd760b8","ios":"levelo://app?vid=fb94d37c-a5f0-424c-9c95-a0f43cd760b8"},"vehicle_type_id":"4","last_reported":1743199731,"current_range_meters":5600,"station_id":"ce4bh092rcd13ifvqd20","pricing_plan_id":"cebpf4jnsgd1na2vs0mg"},{"bike_id":"f3c12a40-186a-48f6-9f54-4ece2b648bce","system_id":"levelo_inurba_marseille","lat":43.29294,"lon":5.3715,"is_reserved":false,"is_disabled":false,"rental_uris":{"android":"levelo://app?vid=f3c12a40-186a-48f6-9f54-4ece2b648bce","ios":"levelo://app?vid=f3c12a40-186a-48f6-9f54-4ece2b648bce"},"vehicle_type_id":"4","last_reported":1743199731,"current_range_meters":6000,"station_id":"ce4bgh92rcd13ifvqb40","pricing_plan_id":"cebpf4jnsgd1na2vs0mg"},{"bike_id":"f0572f02-d22d-49f0-8f0c-6b0e312e89eb","system_id":"levelo_inurba_marseille","lat":43.31388,"lon":5.38495,"is_reserved":false,"is_disabled":false,"rental_uris":{"android":"levelo://app?vid=f0572f02-d22d-49f0-8f0c-6b0e312e89eb","ios":"levelo://app?vid=f0572f02-d22d-49f0-8f0c-6b0e312e89eb"},"vehicle_type_id":"4","last_reported":1743199731,"current_range_meters":6000,"station_id":"ce4bgt92rcd13ifvqcf0","pricing_plan_id":"cebpf4jnsgd1na2vs0mg"},{"bike_id":"6a2508a5-4594-4289-a196-eaa98272754a","system_id":"levelo_inurba_marseille","lat":43.29544,"lon":5.42314,"is_reserved":false,"is_disabled":false,"rental_uris":{"android":"levelo://app?vid=6a2508a5-4594-4289-a196-eaa98272754a","ios":"levelo://app?vid=6a2508a5-4594-4289-a196-eaa98272754a"},"vehicle_type_id":"4","last_reported":1743199731,"current_range_meters":6000,"station_id":"ce4bhph2rcd13ifvqhdg","pricing_plan_id":"cebpf4jnsgd1na2vs0mg"},{"bike_id":"19221227-42ec-4f4b-8f04-42a0818e22f5","system_id":"levelo_inurba_marseille","lat":43.32118,"lon":5.36781,"is_reserved":false,"is_disabled":false,"rental_uris":{"android":"levelo://app?vid=19221227-42ec-4f4b-8f04-42a0818e22f5","ios":"levelo://app?vid=19221227-42ec-4f4b-8f04-42a0818e22f5"},"vehicle_type_id":"4","last_reported":1743199731,"current_range_meters":6000,"station_id":"ce4bhrh2rcd13ifvqhug","pricing_plan_id":"cebpf4jnsgd1na2vs0mg"},{"bike_id":"67a1a2f2-eb76-40dd-b124-62581646fa46","system_id":"levelo_inurba_marseille","lat":43.2803,"lon":5.36984,"is_reserved":false,"is_disabled":false,"rental_uris":{"android":"levelo://app?vid=67a1a2f2-eb76-40dd-b124-62581646fa46","ios":"levelo://app?vid=67a1a2f2-eb76-40dd-b124-62581646fa46"},"vehicle_type_id":"4","last_reported":1743199731,"current_range_meters":6000,"station_id":"ce4bha12rcd13ifvqef0","pricing_plan_id":"cebpf4jnsgd1na2vs0mg"},{"bike_id":"26a39d3d-c457-44e7-a5d5-c029830e07e2","system_id":"levelo_inurba_marseille","lat":43.25113,"lon":5.4032,"is_reserved":false,"is_disabled":false,"rental_uris":{"android":"levelo://app?vid=26a39d3d-c457-44e7-a5d5-c029830e07e2","ios":"levelo://app?vid=26a39d3d-c457-44e7-a5d5-c029830e07e2"},"vehicle_type_id":"4","last_reported":1743199731,"current_range_meters":6000,"station_id":"ce4bhlh2rcd13ifvqgig","pricing_plan_id":"cebpf4jnsgd1na2vs0mg"},{"bike_id":"86402da5-f9ef-43b6-a281-06ce7c4c3160","system_id":"levelo_inurba_marseille","lat":43.28615,"lon":5.35111,"is_reserved":false,"is_disabled":false,"rental_uris":{"android":"levelo://app?vid=86402da5-f9ef-43b6-a281-06ce7c4c3160","ios":"levelo://app?vid=86402da5-f9ef-43b6-a281-06ce7c4c3160"},"vehicle_type_id":"4","last_reported":1743199731,"current_range_meters":6400,"station_id":"ce4bhch2rcd13ifvqeug","pricing_plan_id":"cebpf4jnsgd1na2vs0mg"},{"bike_id":"f79bf41a-c9f0-4144-86b0-298777acc946","system_id":"levelo_inurba_marseille","lat":43.29412,"lon":5.38626,"is_reserved":false,"is_disabled":false,"rental_uris":{"android":"levelo://app?vid=f79bf41a-c9f0-4144-86b0-298777acc946","ios":"levelo://app?vid=f79bf41a-c9f0-4144-86b0-298777acc946"},"vehicle_type_id":"4","last_reported":1743199731,"current_range_meters":6400,"station_id":"ce4bh2h2rcd13ifvqdh0","pricing_plan_id":"cebpf4jnsgd1na2vs0mg"},{"bike_id":"7fe9a38f-4d97-49ec-8db6-139f7c5ded5a","system_id":"levelo_inurba_marseille","lat":43.28931,"lon":5.36647,"is_reserved":false,"is_disabled":false,"rental_uris":{"android":"levelo://app?vid=7fe9a38f-4d97-49ec-8db6-139f7c5ded5a","ios":"levelo://app?vid=7fe9a38f-4d97-49ec-8db6-139f7c5ded5a"},"vehicle_type_id":"4","last_reported":1743199731,"current_range_meters":6400,"station_id":"ce4bhap2rcd13ifvqek0","pricing_plan_id":"cebpf4jnsgd1na2vs0mg"},{"bike_id":"b1cf1c74-0e8d-4acb-b4c4-40c219cc06a1","system_id":"levelo_inurba_marseille","lat":43.30256,"lon":5.40053,"is_reserved":false,"is_disabled":false,"rental_uris":{"android":"levelo://app?vid=b1cf1c74-0e8d-4acb-b4c4-40c219cc06a1","ios":"levelo://app?vid=b1cf1c74-0e8d-4acb-b4c4-40c219cc06a1"},"vehicle_type_id":"4","last_reported":1743199731,"current_range_meters":6400,"station_id":"ce4bgvh2rcd13ifvqcs0","pricing_plan_id":"cebpf4jnsgd1na2vs0mg"},{"bike_id":"ddb3e057-8a1c-4f4a-8056-17b5b845e0b9","system_id":"levelo_inurba_marseille","lat":43.28122,"lon":5.3985,"is_reserved":false,"is_disabled":false,"rental_uris":{"android":"levelo://app?vid=ddb3e057-8a1c-4f4a-8056-17b5b845e0b9","ios":"levelo://app?vid=ddb3e057-8a1c-4f4a-8056-17b5b845e0b9"},"vehicle_type_id":"4","last_reported":1743199731,"current_range_meters":6400,"station_id":"","pricing_plan_id":"cebpf4jnsgd1na2vs0mg"},{"bike_id":"48e30962-ce97-466f-94d1-eafbb441e3ab","system_id":"levelo_inurba_marseille","lat":43.29852,"lon":5.36283,"is_reserved":false,"is_disabled":false,"rental_uris":{"android":"levelo://app?vid=48e30962-ce97-466f-94d1-eafbb441e3ab","ios":"levelo://app?vid=48e30962-ce97-466f-94d1-eafbb441e3ab"},"vehicle_type_id":"4","last_reported":1743199731,"current_range_meters":6400,"station_id":"ce4bgpp2rcd13ifvqc3g","pricing_plan_id":"cebpf4jnsgd1na2vs0mg"},{"bike_id":"fd3421f3-9336-4d90-b616-c4936932ff9c","system_id":"levelo_inurba_marseille","lat":43.330208,"lon":5.391869,"is_reserved":false,"is_disabled":false,"rental_uris":{"android":"levelo://app?vid=fd3421f3-9336-4d90-b616-c4936932ff9c","ios":"levelo://app?vid=fd3421f3-9336-4d90-b616-c4936932ff9c"},"vehicle_type_id":"4","last_reported":1743199731,"current_range_meters":6400,"station_id":"","pricing_plan_id":"cebpf4jnsgd1na2vs0mg"},{"bike_id":"0ac88cdf-dd3a-494f-aaa5-2b24d1ce393f","system_id":"levelo_inurba_marseille","lat":43.23192,"lon":5.35559,"is_reserved":false,"is_disabled":false,"rental_uris":{"android":"levelo://app?vid=0ac88cdf-dd3a-494f-aaa5-2b24d1ce393f","ios":"levelo://app?vid=0ac88cdf-dd3a-494f-aaa5-2b24d1ce393f"},"vehicle_type_id":"4","last_reported":1743199731,"current_range_meters":6400,"station_id":"ce4bhu92rcd13ifvqi70","pricing_plan_id":"cebpf4jnsgd1na2vs0mg"},{"bike_id":"2923013c-cb64-4427-aa6f-cf86ac254ae5","system_id":"levelo_inurba_marseille","lat":43.295864,"lon":5.367538,"is_reserved":false,"is_disabled":false,"rental_uris":{"android":"levelo://app?vid=2923013c-cb64-4427-aa6f-cf86ac254ae5","ios":"levelo://app?vid=2923013c-cb64-4427-aa6f-cf86ac254ae5"},"vehicle_type_id":"4","last_reported":1743199731,"current_range_meters":6400,"station_id":"","pricing_plan_id":"cebpf4jnsgd1na2vs0mg"},{"bike_id":"64f0ea86-1180-4755-95e1-3cbc9c8d4cf5","system_id":"levelo_inurba_marseille","lat":43.33005,"lon":5.43842,"is_reserved":false,"is_disabled":true,"rental_uris":{"android":"levelo://app?vid=64f0ea86-1180-4755-95e1-3cbc9c8d4cf5","ios":"levelo://app?vid=64f0ea86-1180-4755-95e1-3cbc9c8d4cf5"},"vehicle_type_id":"4","last_reported":1743199731,"current_range_meters":6400,"station_id":"","pricing_plan_id":"cebpf4jnsgd1na2vs0mg"},{"bike_id":"c14a8fc7-e8db-45ab-b563-5fdd959cef0f","system_id":"levelo_inurba_marseille","lat":43.26032,"lon":5.41739,"is_reserved":false,"is_disabled":false,"rental_uris":{"android":"levelo://app?vid=c14a8fc7-e8db-45ab-b563-5fdd959cef0f","ios":"levelo://app?vid=c14a8fc7-e8db-45ab-b563-5fdd959cef0f"},"vehicle_type_id":"4","last_reported":1743199731,"current_range_meters":6400,"station_id":"","pricing_plan_id":"cebpf4jnsgd1na2vs0mg"},{"bike_id":"961245ca-8d90-4d71-b735-61afea929100","system_id":"levelo_inurba_marseille","lat":43.24146,"lon":5.36406,"is_reserved":false,"is_disabled":false,"rental_uris":{"android":"levelo://app?vid=961245ca-8d90-4d71-b735-61afea929100","ios":"levelo://app?vid=961245ca-8d90-4d71-b735-61afea929100"},"vehicle_type_id":"4","last_reported":1743199731,"current_range_meters":6800,"station_id":"cpo36qri1sfpv3e86is0","pricing_plan_id":"cebpf4jnsgd1na2vs0mg"},{"bike_id":"14054c23-e1aa-4fb0-b7cc-6cf90b5fbd28","system_id":"levelo_inurba_marseille","lat":43.29802,"lon":5.3813,"is_reserved":false,"is_disabled":true,"rental_uris":{"android":"levelo://app?vid=14054c23-e1aa-4fb0-b7cc-6cf90b5fbd28","ios":"levelo://app?vid=14054c23-e1aa-4fb0-b7cc-6cf90b5fbd28"},"vehicle_type_id":"4","last_reported":1743199731,"current_range_meters":6800,"station_id":"ce4bgip2rcd13ifvqbb0","pricing_plan_id":"cebpf4jnsgd1na2vs0mg"},{"bike_id":"6026f9b7-25ae-4d64-8648-76338e9b1c4c","system_id":"levelo_inurba_marseille","lat":43.32322,"lon":5.38891,"is_reserved":false,"is_disabled":false,"rental_uris":{"android":"levelo://app?vid=6026f9b7-25ae-4d64-8648-76338e9b1c4c","ios":"levelo://app?vid=6026f9b7-25ae-4d64-8648-76338e9b1c4c"},"vehicle_type_id":"4","last_reported":1743199731,"current_range_meters":6800,"station_id":"","pricing_plan_id":"cebpf4jnsgd1na2vs0mg"},{"bike_id":"ec940620-2a09-4eae-aace-1a0a72b62180","system_id":"levelo_inurba_marseille","lat":43.30287,"lon":5.40079,"is_reserved":false,"is_disabled":false,"rental_uris":{"android":"levelo://app?vid=ec940620-2a09-4eae-aace-1a0a72b62180","ios":"levelo://app?vid=ec940620-2a09-4eae-aace-1a0a72b62180"},"vehicle_type_id":"4","last_reported":1743199731,"current_range_meters":6800,"station_id":"ce4bgvh2rcd13ifvqcs0","pricing_plan_id":"cebpf4jnsgd1na2vs0mg"},{"bike_id":"777a9afb-9959-4a95-9840-9ea6d70d63d3","system_id":"levelo_inurba_marseille","lat":43.29852,"lon":5.36285,"is_reserved":false,"is_disabled":false,"rental_uris":{"android":"levelo://app?vid=777a9afb-9959-4a95-9840-9ea6d70d63d3","ios":"levelo://app?vid=777a9afb-9959-4a95-9840-9ea6d70d63d3"},"vehicle_type_id":"4","last_reported":1743199731,"current_range_meters":6800,"station_id":"ce4bgpp2rcd13ifvqc3g","pricing_plan_id":"cebpf4jnsgd1na2vs0mg"},{"bike_id":"d0c2ba62-325f-42ee-b4c5-fe6707aa69d7","system_id":"levelo_inurba_marseille","lat":43.24813,"lon":5.37453,"is_reserved":false,"is_disabled":false,"rental_uris":{"android":"levelo://app?vid=d0c2ba62-325f-42ee-b4c5-fe6707aa69d7","ios":"levelo://app?vid=d0c2ba62-325f-42ee-b4c5-fe6707aa69d7"},"vehicle_type_id":"4","last_reported":1743199731,"current_range_meters":6800,"station_id":"ce4bhgh2rcd13ifvqfb0","pricing_plan_id":"cebpf4jnsgd1na2vs0mg"},{"bike_id":"62a03102-c56f-45b7-a536-4323daebd950","system_id":"levelo_inurba_marseille","lat":43.29581,"lon":5.36741,"is_reserved":false,"is_disabled":false,"rental_uris":{"android":"levelo://app?vid=62a03102-c56f-45b7-a536-4323daebd950","ios":"levelo://app?vid=62a03102-c56f-45b7-a536-4323daebd950"},"vehicle_type_id":"4","last_reported":1743199731,"current_range_meters":6800,"station_id":"ce4bgph2rcd13ifvqc2g","pricing_plan_id":"cebpf4jnsgd1na2vs0mg"},{"bike_id":"c74a2dc2-aa31-4c6d-ada8-0d28ee6aedb4","system_id":"levelo_inurba_marseille","lat":43.28422,"lon":5.34983,"is_reserved":false,"is_disabled":false,"rental_uris":{"android":"levelo://app?vid=c74a2dc2-aa31-4c6d-ada8-0d28ee6aedb4","ios":"levelo://app?vid=c74a2dc2-aa31-4c6d-ada8-0d28ee6aedb4"},"vehicle_type_id":"4","last_reported":1743199731,"current_range_meters":6800,"station_id":"ce4bhbh2rcd13ifvqepg","pricing_plan_id":"cebpf4jnsgd1na2vs0mg"},{"bike_id":"efec2e4f-7291-4336-a1f2-33d2f7cba36f","system_id":"levelo_inurba_marseille","lat":43.292431,"lon":5.38442,"is_reserved":false,"is_disabled":false,"rental_uris":{"android":"levelo://app?vid=efec2e4f-7291-4336-a1f2-33d2f7cba36f","ios":"levelo://app?vid=efec2e4f-7291-4336-a1f2-33d2f7cba36f"},"vehicle_type_id":"4","last_reported":1743199731,"current_range_meters":6800,"station_id":"ce4bh692rcd13ifvqea0","pricing_plan_id":"cebpf4jnsgd1na2vs0mg"},{"bike_id":"a43e5931-5a4e-4bcf-977d-45358e944f12","system_id":"levelo_inurba_marseille","lat":43.2803,"lon":5.36938,"is_reserved":false,"is_disabled":false,"rental_uris":{"android":"levelo://app?vid=a43e5931-5a4e-4bcf-977d-45358e944f12","ios":"levelo://app?vid=a43e5931-5a4e-4bcf-977d-45358e944f12"},"vehicle_type_id":"4","last_reported":1743199731,"current_range_meters":6800,"station_id":"ce4bha12rcd13ifvqef0","pricing_plan_id":"cebpf4jnsgd1na2vs0mg"},{"bike_id":"fcc0dc5f-80ba-4b29-9751-446ed563366d","system_id":"levelo_inurba_marseille","lat":43.28973,"lon":5.37829,"is_reserved":false,"is_disabled":false,"rental_uris":{"android":"levelo://app?vid=fcc0dc5f-80ba-4b29-9751-446ed563366d","ios":"levelo://app?vid=fcc0dc5f-80ba-4b29-9751-446ed563366d"},"vehicle_type_id":"4","last_reported":1743199731,"current_range_meters":6800,"station_id":"ce4bh9p2rcd13ifvqed0","pricing_plan_id":"cebpf4jnsgd1na2vs0mg"},{"bike_id":"779df052-2e91-4c4c-b7c7-c99a5f967063","system_id":"levelo_inurba_marseille","lat":43.28846,"lon":5.39308,"is_reserved":false,"is_disabled":false,"rental_uris":{"android":"levelo://app?vid=779df052-2e91-4c4c-b7c7-c99a5f967063","ios":"levelo://app?vid=779df052-2e91-4c4c-b7c7-c99a5f967063"},"vehicle_type_id":"4","last_reported":1743199731,"current_range_meters":6400,"station_id":"ce4bh2p2rcd13ifvqdi0","pricing_plan_id":"cebpf4jnsgd1na2vs0mg"},{"bike_id":"5ce256d8-df5a-49ec-a9d7-d012197f7db8","system_id":"levelo_inurba_marseille","lat":43.29227,"lon":5.36055,"is_reserved":false,"is_disabled":false,"rental_uris":{"android":"levelo://app?vid=5ce256d8-df5a-49ec-a9d7-d012197f7db8","ios":"levelo://app?vid=5ce256d8-df5a-49ec-a9d7-d012197f7db8"},"vehicle_type_id":"4","last_reported":1743199731,"current_range_meters":7200,"station_id":"ce4bhbh2rcd13ifvqeqg","pricing_plan_id":"cebpf4jnsgd1na2vs0mg"},{"bike_id":"734b06a4-5c41-4d6a-a757-7f5e19975ada","system_id":"levelo_inurba_marseille","lat":43.29243,"lon":5.38457,"is_reserved":false,"is_disabled":false,"rental_uris":{"android":"levelo://app?vid=734b06a4-5c41-4d6a-a757-7f5e19975ada","ios":"levelo://app?vid=734b06a4-5c41-4d6a-a757-7f5e19975ada"},"vehicle_type_id":"4","last_reported":1743199731,"current_range_meters":7200,"station_id":"ce4bh692rcd13ifvqea0","pricing_plan_id":"cebpf4jnsgd1na2vs0mg"},{"bike_id":"69d4a96e-aebb-48d7-9d81-4070f7503e98","system_id":"levelo_inurba_marseille","lat":43.30822,"lon":5.3736,"is_reserved":false,"is_disabled":false,"rental_uris":{"android":"levelo://app?vid=69d4a96e-aebb-48d7-9d81-4070f7503e98","ios":"levelo://app?vid=69d4a96e-aebb-48d7-9d81-4070f7503e98"},"vehicle_type_id":"4","last_reported":1743199731,"current_range_meters":7200,"station_id":"","pricing_plan_id":"cebpf4jnsgd1na2vs0mg"},{"bike_id":"018bbec2-0bfc-4545-87a0-8714158a124b","system_id":"levelo_inurba_marseille","lat":43.27967,"lon":5.38704,"is_reserved":false,"is_disabled":false,"rental_uris":{"android":"levelo://app?vid=018bbec2-0bfc-4545-87a0-8714158a124b","ios":"levelo://app?vid=018bbec2-0bfc-4545-87a0-8714158a124b"},"vehicle_type_id":"4","last_reported":1743199731,"current_range_meters":7200,"station_id":"ce4bhg12rcd13ifvqf80","pricing_plan_id":"cebpf4jnsgd1na2vs0mg"},{"bike_id":"b725e67e-bf4f-4c68-a364-8cc209e7634f","system_id":"levelo_inurba_marseille","lat":43.29265,"lon":5.38447,"is_reserved":false,"is_disabled":false,"rental_uris":{"android":"levelo://app?vid=b725e67e-bf4f-4c68-a364-8cc209e7634f","ios":"levelo://app?vid=b725e67e-bf4f-4c68-a364-8cc209e7634f"},"vehicle_type_id":"4","last_reported":1743199731,"current_range_meters":7200,"station_id":"ce4bh692rcd13ifvqea0","pricing_plan_id":"cebpf4jnsgd1na2vs0mg"},{"bike_id":"0109a751-f296-45af-89bf-b8221d85f32f","system_id":"levelo_inurba_marseille","lat":43.29287,"lon":5.37441,"is_reserved":false,"is_disabled":false,"rental_uris":{"android":"levelo://app?vid=0109a751-f296-45af-89bf-b8221d85f32f","ios":"levelo://app?vid=0109a751-f296-45af-89bf-b8221d85f32f"},"vehicle_type_id":"4","last_reported":1743199731,"current_range_meters":7200,"station_id":"ce4bgi12rcd13ifvqb70","pricing_plan_id":"cebpf4jnsgd1na2vs0mg"},{"bike_id":"f6f9fa63-a538-4962-89a2-7e0fd8bec717","system_id":"levelo_inurba_marseille","lat":43.320011,"lon":5.381492,"is_reserved":false,"is_disabled":true,"rental_uris":{"android":"levelo://app?vid=f6f9fa63-a538-4962-89a2-7e0fd8bec717","ios":"levelo://app?vid=f6f9fa63-a538-4962-89a2-7e0fd8bec717"},"vehicle_type_id":"4","last_reported":1743199731,"current_range_meters":7200,"station_id":"ce4bhr12rcd13ifvqhpg","pricing_plan_id":"cebpf4jnsgd1na2vs0mg"},{"bike_id":"fbf23545-878e-46e0-b77f-1457e0849656","system_id":"levelo_inurba_marseille","lat":43.28616,"lon":5.35112,"is_reserved":false,"is_disabled":false,"rental_uris":{"android":"levelo://app?vid=fbf23545-878e-46e0-b77f-1457e0849656","ios":"levelo://app?vid=fbf23545-878e-46e0-b77f-1457e0849656"},"vehicle_type_id":"4","last_reported":1743199731,"current_range_meters":7200,"station_id":"ce4bhch2rcd13ifvqeug","pricing_plan_id":"cebpf4jnsgd1na2vs0mg"},{"bike_id":"ee2588a0-8a3d-4c56-88e3-6823a90de92d","system_id":"levelo_inurba_marseille","lat":43.28092,"lon":5.38591,"is_reserved":false,"is_disabled":false,"rental_uris":{"android":"levelo://app?vid=ee2588a0-8a3d-4c56-88e3-6823a90de92d","ios":"levelo://app?vid=ee2588a0-8a3d-4c56-88e3-6823a90de92d"},"vehicle_type_id":"4","last_reported":1743199731,"current_range_meters":7200,"station_id":"","pricing_plan_id":"cebpf4jnsgd1na2vs0mg"},{"bike_id":"d9540813-5ede-493e-8b83-9a1f29b1c5e2","system_id":"levelo_inurba_marseille","lat":43.298546,"lon":5.362805,"is_reserved":false,"is_disabled":false,"rental_uris":{"android":"levelo://app?vid=d9540813-5ede-493e-8b83-9a1f29b1c5e2","ios":"levelo://app?vid=d9540813-5ede-493e-8b83-9a1f29b1c5e2"},"vehicle_type_id":"4","last_reported":1743199731,"current_range_meters":7200,"station_id":"ce4bgpp2rcd13ifvqc3g","pricing_plan_id":"cebpf4jnsgd1na2vs0mg"},{"bike_id":"e32ec79b-0914-4d43-8179-9dd5ccb1e2d0","system_id":"levelo_inurba_marseille","lat":43.29031,"lon":5.37573,"is_reserved":false,"is_disabled":false,"rental_uris":{"android":"levelo://app?vid=e32ec79b-0914-4d43-8179-9dd5ccb1e2d0","ios":"levelo://app?vid=e32ec79b-0914-4d43-8179-9dd5ccb1e2d0"},"vehicle_type_id":"4","last_reported":1743199731,"current_range_meters":7200,"station_id":"ce4bh692rcd13ifvqe90","pricing_plan_id":"cebpf4jnsgd1na2vs0mg"},{"bike_id":"422a75c2-467f-4b23-9c54-3e84a1bf2eb6","system_id":"levelo_inurba_marseille","lat":43.32998,"lon":5.39033,"is_reserved":false,"is_disabled":false,"rental_uris":{"android":"levelo://app?vid=422a75c2-467f-4b23-9c54-3e84a1bf2eb6","ios":"levelo://app?vid=422a75c2-467f-4b23-9c54-3e84a1bf2eb6"},"vehicle_type_id":"4","last_reported":1743199731,"current_range_meters":7200,"station_id":"ce4bhr92rcd13ifvqhrg","pricing_plan_id":"cebpf4jnsgd1na2vs0mg"},{"bike_id":"0dd576f4-2e6b-4da4-b288-35feebf8c995","system_id":"levelo_inurba_marseille","lat":43.27372,"lon":5.3626,"is_reserved":false,"is_disabled":false,"rental_uris":{"android":"levelo://app?vid=0dd576f4-2e6b-4da4-b288-35feebf8c995","ios":"levelo://app?vid=0dd576f4-2e6b-4da4-b288-35feebf8c995"},"vehicle_type_id":"4","last_reported":1743199731,"current_range_meters":7200,"station_id":"ce4bhbh2rcd13ifvqeo0","pricing_plan_id":"cebpf4jnsgd1na2vs0mg"},{"bike_id":"420ec5e6-685f-4399-ac53-c79c0af070c0","system_id":"levelo_inurba_marseille","lat":43.30944,"lon":5.40137,"is_reserved":false,"is_disabled":false,"rental_uris":{"android":"levelo://app?vid=420ec5e6-685f-4399-ac53-c79c0af070c0","ios":"levelo://app?vid=420ec5e6-685f-4399-ac53-c79c0af070c0"},"vehicle_type_id":"4","last_reported":1743199731,"current_range_meters":8000,"station_id":"ce4bgvp2rcd13ifvqct0","pricing_plan_id":"cebpf4jnsgd1na2vs0mg"},{"bike_id":"813634ed-e21d-4b9e-88e8-aa8b87581eb3","system_id":"levelo_inurba_marseille","lat":43.32109,"lon":5.36784,"is_reserved":false,"is_disabled":false,"rental_uris":{"android":"levelo://app?vid=813634ed-e21d-4b9e-88e8-aa8b87581eb3","ios":"levelo://app?vid=813634ed-e21d-4b9e-88e8-aa8b87581eb3"},"vehicle_type_id":"4","last_reported":1743199731,"current_range_meters":8000,"station_id":"ce4bhrh2rcd13ifvqhug","pricing_plan_id":"cebpf4jnsgd1na2vs0mg"},{"bike_id":"bf486d29-80ae-43fc-9394-756ed3e2b73e","system_id":"levelo_inurba_marseille","lat":43.28004,"lon":5.40013,"is_reserved":false,"is_disabled":false,"rental_uris":{"android":"levelo://app?vid=bf486d29-80ae-43fc-9394-756ed3e2b73e","ios":"levelo://app?vid=bf486d29-80ae-43fc-9394-756ed3e2b73e"},"vehicle_type_id":"4","last_reported":1743199731,"current_range_meters":8000,"station_id":"ce4bho92rcd13ifvqh4g","pricing_plan_id":"cebpf4jnsgd1na2vs0mg"},{"bike_id":"1e87bcad-f769-439c-86b8-fe99b56028d1","system_id":"levelo_inurba_marseille","lat":43.283837,"lon":5.380816,"is_reserved":false,"is_disabled":false,"rental_uris":{"android":"levelo://app?vid=1e87bcad-f769-439c-86b8-fe99b56028d1","ios":"levelo://app?vid=1e87bcad-f769-439c-86b8-fe99b56028d1"},"vehicle_type_id":"4","last_reported":1743199731,"current_range_meters":8000,"station_id":"ce4bh412rcd13ifvqdr0","pricing_plan_id":"cebpf4jnsgd1na2vs0mg"},{"bike_id":"fb9b5d83-e13d-407b-b838-22cd645caa9b","system_id":"levelo_inurba_marseille","lat":43.28614,"lon":5.35113,"is_reserved":false,"is_disabled":false,"rental_uris":{"android":"levelo://app?vid=fb9b5d83-e13d-407b-b838-22cd645caa9b","ios":"levelo://app?vid=fb9b5d83-e13d-407b-b838-22cd645caa9b"},"vehicle_type_id":"4","last_reported":1743199731,"current_range_meters":8000,"station_id":"ce4bhch2rcd13ifvqeug","pricing_plan_id":"cebpf4jnsgd1na2vs0mg"},{"bike_id":"fd134268-1499-401e-bb83-137ea2b7a695","system_id":"levelo_inurba_marseille","lat":43.2396,"lon":5.3664,"is_reserved":false,"is_disabled":false,"rental_uris":{"android":"levelo://app?vid=fd134268-1499-401e-bb83-137ea2b7a695","ios":"levelo://app?vid=fd134268-1499-401e-bb83-137ea2b7a695"},"vehicle_type_id":"4","last_reported":1743199731,"current_range_meters":8000,"station_id":"ce4bhi12rcd13ifvqfp0","pricing_plan_id":"cebpf4jnsgd1na2vs0mg"},{"bike_id":"3d9ef19f-17c2-4c6b-9d0a-586ea95f474d","system_id":"levelo_inurba_marseille","lat":43.29861,"lon":5.36283,"is_reserved":false,"is_disabled":false,"rental_uris":{"android":"levelo://app?vid=3d9ef19f-17c2-4c6b-9d0a-586ea95f474d","ios":"levelo://app?vid=3d9ef19f-17c2-4c6b-9d0a-586ea95f474d"},"vehicle_type_id":"4","last_reported":1743199731,"current_range_meters":8000,"station_id":"ce4bgpp2rcd13ifvqc3g","pricing_plan_id":"cebpf4jnsgd1na2vs0mg"},{"bike_id":"09ca1c29-2f54-4498-9a13-5a4d803cb678","system_id":"levelo_inurba_marseille","lat":43.30427,"lon":5.397433,"is_reserved":false,"is_disabled":false,"rental_uris":{"android":"levelo://app?vid=09ca1c29-2f54-4498-9a13-5a4d803cb678","ios":"levelo://app?vid=09ca1c29-2f54-4498-9a13-5a4d803cb678"},"vehicle_type_id":"4","last_reported":1743199731,"current_range_meters":8000,"station_id":"ce4bh092rcd13ifvqd20","pricing_plan_id":"cebpf4jnsgd1na2vs0mg"},{"bike_id":"a3514274-c949-4c91-b768-3857fda27d00","system_id":"levelo_inurba_marseille","lat":43.28609,"lon":5.37049,"is_reserved":false,"is_disabled":false,"rental_uris":{"android":"levelo://app?vid=a3514274-c949-4c91-b768-3857fda27d00","ios":"levelo://app?vid=a3514274-c949-4c91-b768-3857fda27d00"},"vehicle_type_id":"4","last_reported":1743199731,"current_range_meters":8000,"station_id":"ce4bht12rcd13ifvqi60","pricing_plan_id":"cebpf4jnsgd1na2vs0mg"},{"bike_id":"2e919ca5-ce98-4c47-a9d7-66e6ab7584e4","system_id":"levelo_inurba_marseille","lat":43.32118,"lon":5.36784,"is_reserved":false,"is_disabled":false,"rental_uris":{"android":"levelo://app?vid=2e919ca5-ce98-4c47-a9d7-66e6ab7584e4","ios":"levelo://app?vid=2e919ca5-ce98-4c47-a9d7-66e6ab7584e4"},"vehicle_type_id":"4","last_reported":1743199731,"current_range_meters":8000,"station_id":"ce4bhrh2rcd13ifvqhug","pricing_plan_id":"cebpf4jnsgd1na2vs0mg"},{"bike_id":"6a5faf51-2bec-4782-8a8f-e039ed407c9b","system_id":"levelo_inurba_marseille","lat":43.25094,"lon":5.39523,"is_reserved":false,"is_disabled":false,"rental_uris":{"android":"levelo://app?vid=6a5faf51-2bec-4782-8a8f-e039ed407c9b","ios":"levelo://app?vid=6a5faf51-2bec-4782-8a8f-e039ed407c9b"},"vehicle_type_id":"4","last_reported":1743199731,"current_range_meters":8000,"station_id":"ce4bhm12rcd13ifvqgkg","pricing_plan_id":"cebpf4jnsgd1na2vs0mg"},{"bike_id":"f6646e8b-e53d-4722-b388-dcd1f3259566","system_id":"levelo_inurba_marseille","lat":43.30756,"lon":5.43474,"is_reserved":false,"is_disabled":false,"rental_uris":{"android":"levelo://app?vid=f6646e8b-e53d-4722-b388-dcd1f3259566","ios":"levelo://app?vid=f6646e8b-e53d-4722-b388-dcd1f3259566"},"vehicle_type_id":"4","last_reported":1743199731,"current_range_meters":8000,"station_id":"","pricing_plan_id":"cebpf4jnsgd1na2vs0mg"},{"bike_id":"90f3d319-5c7b-4e00-ad82-4bf379d19cb3","system_id":"levelo_inurba_marseille","lat":43.29856,"lon":5.36303,"is_reserved":false,"is_disabled":false,"rental_uris":{"android":"levelo://app?vid=90f3d319-5c7b-4e00-ad82-4bf379d19cb3","ios":"levelo://app?vid=90f3d319-5c7b-4e00-ad82-4bf379d19cb3"},"vehicle_type_id":"4","last_reported":1743199731,"current_range_meters":8000,"station_id":"ce4bgpp2rcd13ifvqc3g","pricing_plan_id":"cebpf4jnsgd1na2vs0mg"},{"bike_id":"6db825b4-8be2-4bda-b96c-822e345da3bb","system_id":"levelo_inurba_marseille","lat":43.29046,"lon":5.38642,"is_reserved":false,"is_disabled":false,"rental_uris":{"android":"levelo://app?vid=6db825b4-8be2-4bda-b96c-822e345da3bb","ios":"levelo://app?vid=6db825b4-8be2-4bda-b96c-822e345da3bb"},"vehicle_type_id":"4","last_reported":1743199731,"current_range_meters":8000,"station_id":"ce4bh4p2rcd13ifvqe0g","pricing_plan_id":"cebpf4jnsgd1na2vs0mg"},{"bike_id":"0009eca3-f243-43d3-a06a-66f6a4a5ccdd","system_id":"levelo_inurba_marseille","lat":43.23192,"lon":5.35549,"is_reserved":false,"is_disabled":false,"rental_uris":{"android":"levelo://app?vid=0009eca3-f243-43d3-a06a-66f6a4a5ccdd","ios":"levelo://app?vid=0009eca3-f243-43d3-a06a-66f6a4a5ccdd"},"vehicle_type_id":"4","last_reported":1743199731,"current_range_meters":8000,"station_id":"ce4bhu92rcd13ifvqi70","pricing_plan_id":"cebpf4jnsgd1na2vs0mg"},{"bike_id":"57f8c7cb-17ce-46c9-b07d-dc98d28c951d","system_id":"levelo_inurba_marseille","lat":43.2582,"lon":5.39434,"is_reserved":false,"is_disabled":false,"rental_uris":{"android":"levelo://app?vid=57f8c7cb-17ce-46c9-b07d-dc98d28c951d","ios":"levelo://app?vid=57f8c7cb-17ce-46c9-b07d-dc98d28c951d"},"vehicle_type_id":"4","last_reported":1743199731,"current_range_meters":8000,"station_id":"ce4bhip2rcd13ifvqft0","pricing_plan_id":"cebpf4jnsgd1na2vs0mg"},{"bike_id":"6910bf35-0e38-44d4-9c65-41d806e13cf8","system_id":"levelo_inurba_marseille","lat":43.32283,"lon":5.38284,"is_reserved":false,"is_disabled":false,"rental_uris":{"android":"levelo://app?vid=6910bf35-0e38-44d4-9c65-41d806e13cf8","ios":"levelo://app?vid=6910bf35-0e38-44d4-9c65-41d806e13cf8"},"vehicle_type_id":"4","last_reported":1743199731,"current_range_meters":8000,"station_id":"ce4bhr12rcd13ifvqhqg","pricing_plan_id":"cebpf4jnsgd1na2vs0mg"},{"bike_id":"32d46488-0319-48a4-bdb8-540107ec53e1","system_id":"levelo_inurba_marseille","lat":43.30887,"lon":5.39657,"is_reserved":false,"is_disabled":false,"rental_uris":{"android":"levelo://app?vid=32d46488-0319-48a4-bdb8-540107ec53e1","ios":"levelo://app?vid=32d46488-0319-48a4-bdb8-540107ec53e1"},"vehicle_type_id":"4","last_reported":1743199731,"current_range_meters":8000,"station_id":"ce4bh012rcd13ifvqcv0","pricing_plan_id":"cebpf4jnsgd1na2vs0mg"},{"bike_id":"8489e4b8-7251-466a-98ef-b6dcd82094be","system_id":"levelo_inurba_marseille","lat":43.29431,"lon":5.38627,"is_reserved":false,"is_disabled":false,"rental_uris":{"android":"levelo://app?vid=8489e4b8-7251-466a-98ef-b6dcd82094be","ios":"levelo://app?vid=8489e4b8-7251-466a-98ef-b6dcd82094be"},"vehicle_type_id":"4","last_reported":1743199731,"current_range_meters":8400,"station_id":"ce4bh2h2rcd13ifvqdh0","pricing_plan_id":"cebpf4jnsgd1na2vs0mg"},{"bike_id":"4a42ca1e-41e4-4233-a4bb-a180f04564d6","system_id":"levelo_inurba_marseille","lat":43.29192,"lon":5.37146,"is_reserved":false,"is_disabled":true,"rental_uris":{"android":"levelo://app?vid=4a42ca1e-41e4-4233-a4bb-a180f04564d6","ios":"levelo://app?vid=4a42ca1e-41e4-4233-a4bb-a180f04564d6"},"vehicle_type_id":"4","last_reported":1743199731,"current_range_meters":8400,"station_id":"ce4bha92rcd13ifvqeh0","pricing_plan_id":"cebpf4jnsgd1na2vs0mg"},{"bike_id":"1def5fc1-8f39-4131-8109-88fb354ea625","system_id":"levelo_inurba_marseille","lat":43.27981,"lon":5.40021,"is_reserved":false,"is_disabled":false,"rental_uris":{"android":"levelo://app?vid=1def5fc1-8f39-4131-8109-88fb354ea625","ios":"levelo://app?vid=1def5fc1-8f39-4131-8109-88fb354ea625"},"vehicle_type_id":"4","last_reported":1743199731,"current_range_meters":8400,"station_id":"ce4bho92rcd13ifvqh4g","pricing_plan_id":"cebpf4jnsgd1na2vs0mg"},{"bike_id":"861ae205-c318-4688-ac53-947993e1b65f","system_id":"levelo_inurba_marseille","lat":43.2417,"lon":5.3639,"is_reserved":false,"is_disabled":false,"rental_uris":{"android":"levelo://app?vid=861ae205-c318-4688-ac53-947993e1b65f","ios":"levelo://app?vid=861ae205-c318-4688-ac53-947993e1b65f"},"vehicle_type_id":"4","last_reported":1743199731,"current_range_meters":8400,"station_id":"cpo36qri1sfpv3e86is0","pricing_plan_id":"cebpf4jnsgd1na2vs0mg"},{"bike_id":"2cafe16a-e69e-4f2d-b1a9-7d1f132a62cc","system_id":"levelo_inurba_marseille","lat":43.29512,"lon":5.39409,"is_reserved":false,"is_disabled":false,"rental_uris":{"android":"levelo://app?vid=2cafe16a-e69e-4f2d-b1a9-7d1f132a62cc","ios":"levelo://app?vid=2cafe16a-e69e-4f2d-b1a9-7d1f132a62cc"},"vehicle_type_id":"4","last_reported":1743199731,"current_range_meters":8400,"station_id":"ce4bh292rcd13ifvqdf0","pricing_plan_id":"cebpf4jnsgd1na2vs0mg"},{"bike_id":"b2fd8e70-5b37-4865-bf49-d30da2481695","system_id":"levelo_inurba_marseille","lat":43.23208,"lon":5.35561,"is_reserved":false,"is_disabled":false,"rental_uris":{"android":"levelo://app?vid=b2fd8e70-5b37-4865-bf49-d30da2481695","ios":"levelo://app?vid=b2fd8e70-5b37-4865-bf49-d30da2481695"},"vehicle_type_id":"4","last_reported":1743199731,"current_range_meters":8400,"station_id":"ce4bhu92rcd13ifvqi70","pricing_plan_id":"cebpf4jnsgd1na2vs0mg"},{"bike_id":"f0e27e89-7189-48e7-8fa7-1c5343d181a6","system_id":"levelo_inurba_marseille","lat":43.29263,"lon":5.38432,"is_reserved":false,"is_disabled":false,"rental_uris":{"android":"levelo://app?vid=f0e27e89-7189-48e7-8fa7-1c5343d181a6","ios":"levelo://app?vid=f0e27e89-7189-48e7-8fa7-1c5343d181a6"},"vehicle_type_id":"4","last_reported":1743199731,"current_range_meters":8400,"station_id":"ce4bh692rcd13ifvqea0","pricing_plan_id":"cebpf4jnsgd1na2vs0mg"},{"bike_id":"3ba33190-788c-44db-b334-d3a41568d8b2","system_id":"levelo_inurba_marseille","lat":43.29264,"lon":5.3845,"is_reserved":false,"is_disabled":false,"rental_uris":{"android":"levelo://app?vid=3ba33190-788c-44db-b334-d3a41568d8b2","ios":"levelo://app?vid=3ba33190-788c-44db-b334-d3a41568d8b2"},"vehicle_type_id":"4","last_reported":1743199731,"current_range_meters":8400,"station_id":"ce4bh692rcd13ifvqea0","pricing_plan_id":"cebpf4jnsgd1na2vs0mg"},{"bike_id":"b2bfdea8-1832-4b77-bf05-454dcf6a2dfe","system_id":"levelo_inurba_marseille","lat":43.29031,"lon":5.3865,"is_reserved":false,"is_disabled":false,"rental_uris":{"android":"levelo://app?vid=b2bfdea8-1832-4b77-bf05-454dcf6a2dfe","ios":"levelo://app?vid=b2bfdea8-1832-4b77-bf05-454dcf6a2dfe"},"vehicle_type_id":"4","last_reported":1743199731,"current_range_meters":8400,"station_id":"ce4bh4p2rcd13ifvqe0g","pricing_plan_id":"cebpf4jnsgd1na2vs0mg"},{"bike_id":"424417c8-67c1-4c27-bf29-2d271899c7c0","system_id":"levelo_inurba_marseille","lat":43.29229,"lon":5.38465,"is_reserved":false,"is_disabled":false,"rental_uris":{"android":"levelo://app?vid=424417c8-67c1-4c27-bf29-2d271899c7c0","ios":"levelo://app?vid=424417c8-67c1-4c27-bf29-2d271899c7c0"},"vehicle_type_id":"4","last_reported":1743199731,"current_range_meters":8400,"station_id":"","pricing_plan_id":"cebpf4jnsgd1na2vs0mg"},{"bike_id":"188bd17a-539c-43bc-baa6-693e9ec09e7f","system_id":"levelo_inurba_marseille","lat":43.29428,"lon":5.38624,"is_reserved":false,"is_disabled":false,"rental_uris":{"android":"levelo://app?vid=188bd17a-539c-43bc-baa6-693e9ec09e7f","ios":"levelo://app?vid=188bd17a-539c-43bc-baa6-693e9ec09e7f"},"vehicle_type_id":"4","last_reported":1743199731,"current_range_meters":8800,"station_id":"ce4bh2h2rcd13ifvqdh0","pricing_plan_id":"cebpf4jnsgd1na2vs0mg"},{"bike_id":"0aeb67d9-0597-4320-b75c-16757bd3ba8f","system_id":"levelo_inurba_marseille","lat":43.29027,"lon":5.3593,"is_reserved":false,"is_disabled":false,"rental_uris":{"android":"levelo://app?vid=0aeb67d9-0597-4320-b75c-16757bd3ba8f","ios":"levelo://app?vid=0aeb67d9-0597-4320-b75c-16757bd3ba8f"},"vehicle_type_id":"4","last_reported":1743199731,"current_range_meters":8800,"station_id":"ce4bha92rcd13ifvqeg0","pricing_plan_id":"cebpf4jnsgd1na2vs0mg"},{"bike_id":"94b5bcc7-6238-4eda-85ba-005d36893295","system_id":"levelo_inurba_marseille","lat":43.29057,"lon":5.35903,"is_reserved":false,"is_disabled":false,"rental_uris":{"android":"levelo://app?vid=94b5bcc7-6238-4eda-85ba-005d36893295","ios":"levelo://app?vid=94b5bcc7-6238-4eda-85ba-005d36893295"},"vehicle_type_id":"4","last_reported":1743199731,"current_range_meters":8800,"station_id":"ce4bha92rcd13ifvqeg0","pricing_plan_id":"cebpf4jnsgd1na2vs0mg"},{"bike_id":"653f4403-c5cd-4032-b5a8-482768e38f5f","system_id":"levelo_inurba_marseille","lat":43.23949,"lon":5.36655,"is_reserved":false,"is_disabled":false,"rental_uris":{"android":"levelo://app?vid=653f4403-c5cd-4032-b5a8-482768e38f5f","ios":"levelo://app?vid=653f4403-c5cd-4032-b5a8-482768e38f5f"},"vehicle_type_id":"4","last_reported":1743199731,"current_range_meters":8800,"station_id":"ce4bhi12rcd13ifvqfp0","pricing_plan_id":"cebpf4jnsgd1na2vs0mg"},{"bike_id":"9ee402e7-1a17-4a4f-8096-bc833bafbd6b","system_id":"levelo_inurba_marseille","lat":43.28923,"lon":5.36634,"is_reserved":false,"is_disabled":false,"rental_uris":{"android":"levelo://app?vid=9ee402e7-1a17-4a4f-8096-bc833bafbd6b","ios":"levelo://app?vid=9ee402e7-1a17-4a4f-8096-bc833bafbd6b"},"vehicle_type_id":"4","last_reported":1743199731,"current_range_meters":8800,"station_id":"ce4bhap2rcd13ifvqek0","pricing_plan_id":"cebpf4jnsgd1na2vs0mg"},{"bike_id":"971c92cb-66df-438d-9a85-e63af939e6ff","system_id":"levelo_inurba_marseille","lat":43.28619,"lon":5.35088,"is_reserved":false,"is_disabled":true,"rental_uris":{"android":"levelo://app?vid=971c92cb-66df-438d-9a85-e63af939e6ff","ios":"levelo://app?vid=971c92cb-66df-438d-9a85-e63af939e6ff"},"vehicle_type_id":"4","last_reported":1743199731,"current_range_meters":8800,"station_id":"ce4bhch2rcd13ifvqeug","pricing_plan_id":"cebpf4jnsgd1na2vs0mg"},{"bike_id":"14581527-9381-4a91-8b9c-c0da6f25faed","system_id":"levelo_inurba_marseille","lat":43.29924,"lon":5.36549,"is_reserved":false,"is_disabled":false,"rental_uris":{"android":"levelo://app?vid=14581527-9381-4a91-8b9c-c0da6f25faed","ios":"levelo://app?vid=14581527-9381-4a91-8b9c-c0da6f25faed"},"vehicle_type_id":"4","last_reported":1743199731,"current_range_meters":8800,"station_id":"ce4bgm92rcd13ifvqbr0","pricing_plan_id":"cebpf4jnsgd1na2vs0mg"},{"bike_id":"c6b682a7-e903-4363-967f-d69957e8f7ed","system_id":"levelo_inurba_marseille","lat":43.2861,"lon":5.35109,"is_reserved":false,"is_disabled":false,"rental_uris":{"android":"levelo://app?vid=c6b682a7-e903-4363-967f-d69957e8f7ed","ios":"levelo://app?vid=c6b682a7-e903-4363-967f-d69957e8f7ed"},"vehicle_type_id":"4","last_reported":1743199731,"current_range_meters":8800,"station_id":"ce4bhch2rcd13ifvqeug","pricing_plan_id":"cebpf4jnsgd1na2vs0mg"},{"bike_id":"637381b6-9a30-466b-9208-22bc7b0d414d","system_id":"levelo_inurba_marseille","lat":43.29432,"lon":5.38626,"is_reserved":false,"is_disabled":false,"rental_uris":{"android":"levelo://app?vid=637381b6-9a30-466b-9208-22bc7b0d414d","ios":"levelo://app?vid=637381b6-9a30-466b-9208-22bc7b0d414d"},"vehicle_type_id":"4","last_reported":1743199731,"current_range_meters":8800,"station_id":"ce4bh2h2rcd13ifvqdh0","pricing_plan_id":"cebpf4jnsgd1na2vs0mg"},{"bike_id":"70cb17f5-cdf1-47fa-b901-00068bb5e719","system_id":"levelo_inurba_marseille","lat":43.29248,"lon":5.38439,"is_reserved":false,"is_disabled":false,"rental_uris":{"android":"levelo://app?vid=70cb17f5-cdf1-47fa-b901-00068bb5e719","ios":"levelo://app?vid=70cb17f5-cdf1-47fa-b901-00068bb5e719"},"vehicle_type_id":"4","last_reported":1743199731,"current_range_meters":8800,"station_id":"ce4bh692rcd13ifvqea0","pricing_plan_id":"cebpf4jnsgd1na2vs0mg"},{"bike_id":"1c14bf9c-ada4-4a36-8853-740a1a2c000a","system_id":"levelo_inurba_marseille","lat":43.23191,"lon":5.35553,"is_reserved":false,"is_disabled":false,"rental_uris":{"android":"levelo://app?vid=1c14bf9c-ada4-4a36-8853-740a1a2c000a","ios":"levelo://app?vid=1c14bf9c-ada4-4a36-8853-740a1a2c000a"},"vehicle_type_id":"4","last_reported":1743199731,"current_range_meters":8800,"station_id":"ce4bhu92rcd13ifvqi70","pricing_plan_id":"cebpf4jnsgd1na2vs0mg"},{"bike_id":"f7cccba5-f4a0-4a16-9030-93bb6cd8988f","system_id":"levelo_inurba_marseille","lat":43.23967,"lon":5.36632,"is_reserved":false,"is_disabled":false,"rental_uris":{"android":"levelo://app?vid=f7cccba5-f4a0-4a16-9030-93bb6cd8988f","ios":"levelo://app?vid=f7cccba5-f4a0-4a16-9030-93bb6cd8988f"},"vehicle_type_id":"4","last_reported":1743199731,"current_range_meters":8800,"station_id":"ce4bhi12rcd13ifvqfp0","pricing_plan_id":"cebpf4jnsgd1na2vs0mg"},{"bike_id":"3a62358d-acc7-4d29-8480-8115ff151fbd","system_id":"levelo_inurba_marseille","lat":43.27622,"lon":5.36093,"is_reserved":false,"is_disabled":false,"rental_uris":{"android":"levelo://app?vid=3a62358d-acc7-4d29-8480-8115ff151fbd","ios":"levelo://app?vid=3a62358d-acc7-4d29-8480-8115ff151fbd"},"vehicle_type_id":"4","last_reported":1743199731,"current_range_meters":9200,"station_id":"ce4bgj92rcd13ifvqbe0","pricing_plan_id":"cebpf4jnsgd1na2vs0mg"},{"bike_id":"cbe177f9-7359-4495-b99f-8a1700a0286f","system_id":"levelo_inurba_marseille","lat":43.28726,"lon":5.36093,"is_reserved":false,"is_disabled":false,"rental_uris":{"android":"levelo://app?vid=cbe177f9-7359-4495-b99f-8a1700a0286f","ios":"levelo://app?vid=cbe177f9-7359-4495-b99f-8a1700a0286f"},"vehicle_type_id":"4","last_reported":1743199731,"current_range_meters":9200,"station_id":"cki0cbj6b192h4jlfktg","pricing_plan_id":"cebpf4jnsgd1na2vs0mg"},{"bike_id":"0aa0698a-b097-4316-98ea-d50dce4806b6","system_id":"levelo_inurba_marseille","lat":43.29261,"lon":5.409,"is_reserved":false,"is_disabled":false,"rental_uris":{"android":"levelo://app?vid=0aa0698a-b097-4316-98ea-d50dce4806b6","ios":"levelo://app?vid=0aa0698a-b097-4316-98ea-d50dce4806b6"},"vehicle_type_id":"4","last_reported":1743199731,"current_range_meters":9200,"station_id":"ce4bh192rcd13ifvqdc0","pricing_plan_id":"cebpf4jnsgd1na2vs0mg"},{"bike_id":"90df0f14-f996-423e-b605-53c2c708242e","system_id":"levelo_inurba_marseille","lat":43.31679,"lon":5.40509,"is_reserved":false,"is_disabled":false,"rental_uris":{"android":"levelo://app?vid=90df0f14-f996-423e-b605-53c2c708242e","ios":"levelo://app?vid=90df0f14-f996-423e-b605-53c2c708242e"},"vehicle_type_id":"4","last_reported":1743199731,"current_range_meters":9200,"station_id":"ce4bh012rcd13ifvqd00","pricing_plan_id":"cebpf4jnsgd1na2vs0mg"},{"bike_id":"7120f45a-dd67-4197-bf90-c4b3d554bf25","system_id":"levelo_inurba_marseille","lat":43.29253,"lon":5.38442,"is_reserved":false,"is_disabled":false,"rental_uris":{"android":"levelo://app?vid=7120f45a-dd67-4197-bf90-c4b3d554bf25","ios":"levelo://app?vid=7120f45a-dd67-4197-bf90-c4b3d554bf25"},"vehicle_type_id":"4","last_reported":1743199731,"current_range_meters":9200,"station_id":"ce4bh692rcd13ifvqea0","pricing_plan_id":"cebpf4jnsgd1na2vs0mg"},{"bike_id":"5e88e231-5600-4ca8-aa39-f6cc64e0a9b2","system_id":"levelo_inurba_marseille","lat":43.280356,"lon":5.36947,"is_reserved":false,"is_disabled":false,"rental_uris":{"android":"levelo://app?vid=5e88e231-5600-4ca8-aa39-f6cc64e0a9b2","ios":"levelo://app?vid=5e88e231-5600-4ca8-aa39-f6cc64e0a9b2"},"vehicle_type_id":"4","last_reported":1743199731,"current_range_meters":9600,"station_id":"ce4bha12rcd13ifvqef0","pricing_plan_id":"cebpf4jnsgd1na2vs0mg"},{"bike_id":"3fbcdfd8-5176-471d-aa84-e8e20bb4418e","system_id":"levelo_inurba_marseille","lat":43.32112,"lon":5.36807,"is_reserved":false,"is_disabled":false,"rental_uris":{"android":"levelo://app?vid=3fbcdfd8-5176-471d-aa84-e8e20bb4418e","ios":"levelo://app?vid=3fbcdfd8-5176-471d-aa84-e8e20bb4418e"},"vehicle_type_id":"4","last_reported":1743199731,"current_range_meters":9600,"station_id":"ce4bhrh2rcd13ifvqhug","pricing_plan_id":"cebpf4jnsgd1na2vs0mg"},{"bike_id":"ae9fd65a-8718-48d4-9b81-2cbf2c732fb6","system_id":"levelo_inurba_marseille","lat":43.28927,"lon":5.39644,"is_reserved":false,"is_disabled":false,"rental_uris":{"android":"levelo://app?vid=ae9fd65a-8718-48d4-9b81-2cbf2c732fb6","ios":"levelo://app?vid=ae9fd65a-8718-48d4-9b81-2cbf2c732fb6"},"vehicle_type_id":"4","last_reported":1743199731,"current_range_meters":9600,"station_id":"ce4bh3h2rcd13ifvqdn0","pricing_plan_id":"cebpf4jnsgd1na2vs0mg"},{"bike_id":"dc050fee-4831-491a-867e-a64f70c001d2","system_id":"levelo_inurba_marseille","lat":43.29415,"lon":5.3863,"is_reserved":false,"is_disabled":false,"rental_uris":{"android":"levelo://app?vid=dc050fee-4831-491a-867e-a64f70c001d2","ios":"levelo://app?vid=dc050fee-4831-491a-867e-a64f70c001d2"},"vehicle_type_id":"4","last_reported":1743199731,"current_range_meters":9600,"station_id":"ce4bh2h2rcd13ifvqdh0","pricing_plan_id":"cebpf4jnsgd1na2vs0mg"},{"bike_id":"68e9fc26-8998-4bf7-8da8-af47209f9b7c","system_id":"levelo_inurba_marseille","lat":43.32117,"lon":5.36783,"is_reserved":false,"is_disabled":false,"rental_uris":{"android":"levelo://app?vid=68e9fc26-8998-4bf7-8da8-af47209f9b7c","ios":"levelo://app?vid=68e9fc26-8998-4bf7-8da8-af47209f9b7c"},"vehicle_type_id":"4","last_reported":1743199731,"current_range_meters":9600,"station_id":"ce4bhrh2rcd13ifvqhug","pricing_plan_id":"cebpf4jnsgd1na2vs0mg"},{"bike_id":"65c86302-8ef0-46f4-ab6e-bac7149a2865","system_id":"levelo_inurba_marseille","lat":43.32111,"lon":5.36773,"is_reserved":false,"is_disabled":false,"rental_uris":{"android":"levelo://app?vid=65c86302-8ef0-46f4-ab6e-bac7149a2865","ios":"levelo://app?vid=65c86302-8ef0-46f4-ab6e-bac7149a2865"},"vehicle_type_id":"4","last_reported":1743199731,"current_range_meters":9600,"station_id":"ce4bhrh2rcd13ifvqhug","pricing_plan_id":"cebpf4jnsgd1na2vs0mg"},{"bike_id":"720418e4-be24-437c-b3d5-320a64debb1b","system_id":"levelo_inurba_marseille","lat":43.29623,"lon":5.37163,"is_reserved":false,"is_disabled":false,"rental_uris":{"android":"levelo://app?vid=720418e4-be24-437c-b3d5-320a64debb1b","ios":"levelo://app?vid=720418e4-be24-437c-b3d5-320a64debb1b"},"vehicle_type_id":"4","last_reported":1743199731,"current_range_meters":9600,"station_id":"ce4bgnh2rcd13ifvqc0g","pricing_plan_id":"cebpf4jnsgd1na2vs0mg"},{"bike_id":"417fc3b7-3a4e-401d-a3ad-f7bc4de00dd1","system_id":"levelo_inurba_marseille","lat":43.29844,"lon":5.3628,"is_reserved":false,"is_disabled":false,"rental_uris":{"android":"levelo://app?vid=417fc3b7-3a4e-401d-a3ad-f7bc4de00dd1","ios":"levelo://app?vid=417fc3b7-3a4e-401d-a3ad-f7bc4de00dd1"},"vehicle_type_id":"4","last_reported":1743199731,"current_range_meters":9600,"station_id":"ce4bgpp2rcd13ifvqc3g","pricing_plan_id":"cebpf4jnsgd1na2vs0mg"},{"bike_id":"3baabe1e-785f-4275-b2ae-669cc3f900da","system_id":"levelo_inurba_marseille","lat":43.27805,"lon":5.40719,"is_reserved":false,"is_disabled":true,"rental_uris":{"android":"levelo://app?vid=3baabe1e-785f-4275-b2ae-669cc3f900da","ios":"levelo://app?vid=3baabe1e-785f-4275-b2ae-669cc3f900da"},"vehicle_type_id":"4","last_reported":1743199731,"current_range_meters":10000,"station_id":"ce4bhnh2rcd13ifvqgtg","pricing_plan_id":"cebpf4jnsgd1na2vs0mg"},{"bike_id":"d2be6ce3-8e79-4804-b0d3-008c875e7b9d","system_id":"levelo_inurba_marseille","lat":43.262205,"lon":5.379339,"is_reserved":false,"is_disabled":false,"rental_uris":{"android":"levelo://app?vid=d2be6ce3-8e79-4804-b0d3-008c875e7b9d","ios":"levelo://app?vid=d2be6ce3-8e79-4804-b0d3-008c875e7b9d"},"vehicle_type_id":"4","last_reported":1743199731,"current_range_meters":10000,"station_id":"ce4bhjp2rcd13ifvqg90","pricing_plan_id":"cebpf4jnsgd1na2vs0mg"},{"bike_id":"fb348b09-6abb-47a4-a266-91f2eeaee291","system_id":"levelo_inurba_marseille","lat":43.32103,"lon":5.36808,"is_reserved":false,"is_disabled":false,"rental_uris":{"android":"levelo://app?vid=fb348b09-6abb-47a4-a266-91f2eeaee291","ios":"levelo://app?vid=fb348b09-6abb-47a4-a266-91f2eeaee291"},"vehicle_type_id":"4","last_reported":1743199731,"current_range_meters":10000,"station_id":"ce4bhrh2rcd13ifvqhug","pricing_plan_id":"cebpf4jnsgd1na2vs0mg"},{"bike_id":"17d2c56a-04b7-4565-828e-4e8647a3dd59","system_id":"levelo_inurba_marseille","lat":43.23199,"lon":5.35551,"is_reserved":false,"is_disabled":false,"rental_uris":{"android":"levelo://app?vid=17d2c56a-04b7-4565-828e-4e8647a3dd59","ios":"levelo://app?vid=17d2c56a-04b7-4565-828e-4e8647a3dd59"},"vehicle_type_id":"4","last_reported":1743199731,"current_range_meters":10000,"station_id":"ce4bhu92rcd13ifvqi70","pricing_plan_id":"cebpf4jnsgd1na2vs0mg"},{"bike_id":"dee53596-0ae8-4296-a138-f88d1609df6d","system_id":"levelo_inurba_marseille","lat":43.29566,"lon":5.39123,"is_reserved":false,"is_disabled":false,"rental_uris":{"android":"levelo://app?vid=dee53596-0ae8-4296-a138-f88d1609df6d","ios":"levelo://app?vid=dee53596-0ae8-4296-a138-f88d1609df6d"},"vehicle_type_id":"4","last_reported":1743199731,"current_range_meters":10000,"station_id":"","pricing_plan_id":"cebpf4jnsgd1na2vs0mg"},{"bike_id":"f47eba55-a588-4033-a3dc-992c836c995d","system_id":"levelo_inurba_marseille","lat":43.31667,"lon":5.40515,"is_reserved":false,"is_disabled":false,"rental_uris":{"android":"levelo://app?vid=f47eba55-a588-4033-a3dc-992c836c995d","ios":"levelo://app?vid=f47eba55-a588-4033-a3dc-992c836c995d"},"vehicle_type_id":"4","last_reported":1743199731,"current_range_meters":10000,"station_id":"ce4bh012rcd13ifvqd00","pricing_plan_id":"cebpf4jnsgd1na2vs0mg"},{"bike_id":"8ce57e29-9e4e-4c4b-9eac-25dbada77966","system_id":"levelo_inurba_marseille","lat":43.27617,"lon":5.36116,"is_reserved":false,"is_disabled":false,"rental_uris":{"android":"levelo://app?vid=8ce57e29-9e4e-4c4b-9eac-25dbada77966","ios":"levelo://app?vid=8ce57e29-9e4e-4c4b-9eac-25dbada77966"},"vehicle_type_id":"4","last_reported":1743199731,"current_range_meters":10000,"station_id":"ce4bgj92rcd13ifvqbe0","pricing_plan_id":"cebpf4jnsgd1na2vs0mg"},{"bike_id":"c812ddcb-34b2-469d-9843-7192ba31aa1e","system_id":"levelo_inurba_marseille","lat":43.29846,"lon":5.36278,"is_reserved":false,"is_disabled":false,"rental_uris":{"android":"levelo://app?vid=c812ddcb-34b2-469d-9843-7192ba31aa1e","ios":"levelo://app?vid=c812ddcb-34b2-469d-9843-7192ba31aa1e"},"vehicle_type_id":"4","last_reported":1743199731,"current_range_meters":10000,"station_id":"ce4bgpp2rcd13ifvqc3g","pricing_plan_id":"cebpf4jnsgd1na2vs0mg"},{"bike_id":"1c71b01c-8c90-4b90-84da-0ce75e1f9712","system_id":"levelo_inurba_marseille","lat":43.29416,"lon":5.38632,"is_reserved":false,"is_disabled":false,"rental_uris":{"android":"levelo://app?vid=1c71b01c-8c90-4b90-84da-0ce75e1f9712","ios":"levelo://app?vid=1c71b01c-8c90-4b90-84da-0ce75e1f9712"},"vehicle_type_id":"4","last_reported":1743199731,"current_range_meters":10000,"station_id":"ce4bh2h2rcd13ifvqdh0","pricing_plan_id":"cebpf4jnsgd1na2vs0mg"},{"bike_id":"6082a6d8-29f3-4441-bd82-d0f95ead75d7","system_id":"levelo_inurba_marseille","lat":43.23187,"lon":5.35546,"is_reserved":false,"is_disabled":false,"rental_uris":{"android":"levelo://app?vid=6082a6d8-29f3-4441-bd82-d0f95ead75d7","ios":"levelo://app?vid=6082a6d8-29f3-4441-bd82-d0f95ead75d7"},"vehicle_type_id":"4","last_reported":1743199731,"current_range_meters":10000,"station_id":"ce4bhu92rcd13ifvqi70","pricing_plan_id":"cebpf4jnsgd1na2vs0mg"},{"bike_id":"b5ace6c6-32e3-486d-9744-efb1ce0dfa9d","system_id":"levelo_inurba_marseille","lat":43.28623,"lon":5.37054,"is_reserved":false,"is_disabled":false,"rental_uris":{"android":"levelo://app?vid=b5ace6c6-32e3-486d-9744-efb1ce0dfa9d","ios":"levelo://app?vid=b5ace6c6-32e3-486d-9744-efb1ce0dfa9d"},"vehicle_type_id":"4","last_reported":1743199731,"current_range_meters":10000,"station_id":"ce4bht12rcd13ifvqi60","pricing_plan_id":"cebpf4jnsgd1na2vs0mg"},{"bike_id":"4fbfc3e6-1d5a-469b-ab70-bfc87a275095","system_id":"levelo_inurba_marseille","lat":43.23188,"lon":5.35564,"is_reserved":false,"is_disabled":false,"rental_uris":{"android":"levelo://app?vid=4fbfc3e6-1d5a-469b-ab70-bfc87a275095","ios":"levelo://app?vid=4fbfc3e6-1d5a-469b-ab70-bfc87a275095"},"vehicle_type_id":"4","last_reported":1743199731,"current_range_meters":10000,"station_id":"ce4bhu92rcd13ifvqi70","pricing_plan_id":"cebpf4jnsgd1na2vs0mg"},{"bike_id":"c6c8fb31-86de-4758-859b-e74b70125ab7","system_id":"levelo_inurba_marseille","lat":43.32115,"lon":5.36779,"is_reserved":false,"is_disabled":false,"rental_uris":{"android":"levelo://app?vid=c6c8fb31-86de-4758-859b-e74b70125ab7","ios":"levelo://app?vid=c6c8fb31-86de-4758-859b-e74b70125ab7"},"vehicle_type_id":"4","last_reported":1743199731,"current_range_meters":10000,"station_id":"ce4bhrh2rcd13ifvqhug","pricing_plan_id":"cebpf4jnsgd1na2vs0mg"},{"bike_id":"9309954f-8fe9-4d0d-a320-0efba4bd7784","system_id":"levelo_inurba_marseille","lat":43.29876,"lon":5.36545,"is_reserved":false,"is_disabled":false,"rental_uris":{"android":"levelo://app?vid=9309954f-8fe9-4d0d-a320-0efba4bd7784","ios":"levelo://app?vid=9309954f-8fe9-4d0d-a320-0efba4bd7784"},"vehicle_type_id":"4","last_reported":1743199731,"current_range_meters":10000,"station_id":"","pricing_plan_id":"cebpf4jnsgd1na2vs0mg"},{"bike_id":"bb238aab-ecce-4d51-ba90-677f93725c94","system_id":"levelo_inurba_marseille","lat":43.34153,"lon":5.40913,"is_reserved":false,"is_disabled":false,"rental_uris":{"android":"levelo://app?vid=bb238aab-ecce-4d51-ba90-677f93725c94","ios":"levelo://app?vid=bb238aab-ecce-4d51-ba90-677f93725c94"},"vehicle_type_id":"4","last_reported":1743199731,"current_range_meters":10000,"station_id":"ce4bhqh2rcd13ifvqhlg","pricing_plan_id":"cebpf4jnsgd1na2vs0mg"},{"bike_id":"9462a91b-8b4b-430a-ac7a-4612f1bebb31","system_id":"levelo_inurba_marseille","lat":43.29089,"lon":5.38173,"is_reserved":false,"is_disabled":true,"rental_uris":{"android":"levelo://app?vid=9462a91b-8b4b-430a-ac7a-4612f1bebb31","ios":"levelo://app?vid=9462a91b-8b4b-430a-ac7a-4612f1bebb31"},"vehicle_type_id":"4","last_reported":1743199731,"current_range_meters":10000,"station_id":"ce4bh512rcd13ifvqe2g","pricing_plan_id":"cebpf4jnsgd1na2vs0mg"},{"bike_id":"c527e224-a9b8-44ca-9995-b4eac024e1b6","system_id":"levelo_inurba_marseille","lat":43.29853,"lon":5.36283,"is_reserved":false,"is_disabled":false,"rental_uris":{"android":"levelo://app?vid=c527e224-a9b8-44ca-9995-b4eac024e1b6","ios":"levelo://app?vid=c527e224-a9b8-44ca-9995-b4eac024e1b6"},"vehicle_type_id":"4","last_reported":1743199731,"current_range_meters":10000,"station_id":"ce4bgpp2rcd13ifvqc3g","pricing_plan_id":"cebpf4jnsgd1na2vs0mg"},{"bike_id":"c8b8d9c3-f5db-4db1-81ae-fc34790a3b61","system_id":"levelo_inurba_marseille","lat":43.28563,"lon":5.39495,"is_reserved":false,"is_disabled":false,"rental_uris":{"android":"levelo://app?vid=c8b8d9c3-f5db-4db1-81ae-fc34790a3b61","ios":"levelo://app?vid=c8b8d9c3-f5db-4db1-81ae-fc34790a3b61"},"vehicle_type_id":"4","last_reported":1743199731,"current_range_meters":10000,"station_id":"ce4bh292rcd13ifvqdg0","pricing_plan_id":"cebpf4jnsgd1na2vs0mg"},{"bike_id":"01e468da-008b-43cd-82d9-daa6cc3b4150","system_id":"levelo_inurba_marseille","lat":43.29609,"lon":5.38107,"is_reserved":false,"is_disabled":false,"rental_uris":{"android":"levelo://app?vid=01e468da-008b-43cd-82d9-daa6cc3b4150","ios":"levelo://app?vid=01e468da-008b-43cd-82d9-daa6cc3b4150"},"vehicle_type_id":"4","last_reported":1743199731,"current_range_meters":10800,"station_id":"ce4bgl12rcd13ifvqbo0","pricing_plan_id":"cebpf4jnsgd1na2vs0mg"},{"bike_id":"78879d72-d868-43c9-a743-a6ab48dd9b11","system_id":"levelo_inurba_marseille","lat":43.28722,"lon":5.3609,"is_reserved":false,"is_disabled":false,"rental_uris":{"android":"levelo://app?vid=78879d72-d868-43c9-a743-a6ab48dd9b11","ios":"levelo://app?vid=78879d72-d868-43c9-a743-a6ab48dd9b11"},"vehicle_type_id":"4","last_reported":1743199731,"current_range_meters":10800,"station_id":"cki0cbj6b192h4jlfktg","pricing_plan_id":"cebpf4jnsgd1na2vs0mg"},{"bike_id":"7a947e5d-1d25-4736-8347-339a47ef211e","system_id":"levelo_inurba_marseille","lat":43.29972,"lon":5.38491,"is_reserved":false,"is_disabled":false,"rental_uris":{"android":"levelo://app?vid=7a947e5d-1d25-4736-8347-339a47ef211e","ios":"levelo://app?vid=7a947e5d-1d25-4736-8347-339a47ef211e"},"vehicle_type_id":"4","last_reported":1743199731,"current_range_meters":10800,"station_id":"ce4bgj92rcd13ifvqbd0","pricing_plan_id":"cebpf4jnsgd1na2vs0mg"},{"bike_id":"008094ac-5f39-4870-9a02-26c638f52ea0","system_id":"levelo_inurba_marseille","lat":43.29876,"lon":5.38908,"is_reserved":false,"is_disabled":false,"rental_uris":{"android":"levelo://app?vid=008094ac-5f39-4870-9a02-26c638f52ea0","ios":"levelo://app?vid=008094ac-5f39-4870-9a02-26c638f52ea0"},"vehicle_type_id":"4","last_reported":1743199731,"current_range_meters":10800,"station_id":"ce4bh392rcd13ifvqdl0","pricing_plan_id":"cebpf4jnsgd1na2vs0mg"},{"bike_id":"3de7e269-872b-48e1-a5c3-feb82dca978b","system_id":"levelo_inurba_marseille","lat":43.31124,"lon":5.37771,"is_reserved":false,"is_disabled":false,"rental_uris":{"android":"levelo://app?vid=3de7e269-872b-48e1-a5c3-feb82dca978b","ios":"levelo://app?vid=3de7e269-872b-48e1-a5c3-feb82dca978b"},"vehicle_type_id":"4","last_reported":1743199731,"current_range_meters":10800,"station_id":"ce4bgt92rcd13ifvqcg0","pricing_plan_id":"cebpf4jnsgd1na2vs0mg"},{"bike_id":"eef75a29-8f94-45b0-b9d9-6991a77efccc","system_id":"levelo_inurba_marseille","lat":43.292564,"lon":5.376235,"is_reserved":false,"is_disabled":false,"rental_uris":{"android":"levelo://app?vid=eef75a29-8f94-45b0-b9d9-6991a77efccc","ios":"levelo://app?vid=eef75a29-8f94-45b0-b9d9-6991a77efccc"},"vehicle_type_id":"4","last_reported":1743199731,"current_range_meters":10800,"station_id":"ce4bgi12rcd13ifvqb80","pricing_plan_id":"cebpf4jnsgd1na2vs0mg"},{"bike_id":"e4688cc6-b36e-4561-b7b8-c64b508457eb","system_id":"levelo_inurba_marseille","lat":43.30882,"lon":5.39681,"is_reserved":false,"is_disabled":false,"rental_uris":{"android":"levelo://app?vid=e4688cc6-b36e-4561-b7b8-c64b508457eb","ios":"levelo://app?vid=e4688cc6-b36e-4561-b7b8-c64b508457eb"},"vehicle_type_id":"4","last_reported":1743199731,"current_range_meters":10800,"station_id":"ce4bh012rcd13ifvqcv0","pricing_plan_id":"cebpf4jnsgd1na2vs0mg"},{"bike_id":"57de8df4-120f-488c-a67d-7b52b6ad35d1","system_id":"levelo_inurba_marseille","lat":43.31377,"lon":5.3849,"is_reserved":false,"is_disabled":false,"rental_uris":{"android":"levelo://app?vid=57de8df4-120f-488c-a67d-7b52b6ad35d1","ios":"levelo://app?vid=57de8df4-120f-488c-a67d-7b52b6ad35d1"},"vehicle_type_id":"4","last_reported":1743199731,"current_range_meters":10800,"station_id":"ce4bgt92rcd13ifvqcf0","pricing_plan_id":"cebpf4jnsgd1na2vs0mg"},{"bike_id":"6e5f4618-59dd-425b-aa11-f67d0d9fb1a5","system_id":"levelo_inurba_marseille","lat":43.32011,"lon":5.38152,"is_reserved":false,"is_disabled":true,"rental_uris":{"android":"levelo://app?vid=6e5f4618-59dd-425b-aa11-f67d0d9fb1a5","ios":"levelo://app?vid=6e5f4618-59dd-425b-aa11-f67d0d9fb1a5"},"vehicle_type_id":"4","last_reported":1743199731,"current_range_meters":10800,"station_id":"ce4bhr12rcd13ifvqhpg","pricing_plan_id":"cebpf4jnsgd1na2vs0mg"},{"bike_id":"6ed3e744-bad8-4a3c-adc5-5054effd315a","system_id":"levelo_inurba_marseille","lat":43.29856,"lon":5.36284,"is_reserved":false,"is_disabled":false,"rental_uris":{"android":"levelo://app?vid=6ed3e744-bad8-4a3c-adc5-5054effd315a","ios":"levelo://app?vid=6ed3e744-bad8-4a3c-adc5-5054effd315a"},"vehicle_type_id":"4","last_reported":1743199731,"current_range_meters":10800,"station_id":"ce4bgpp2rcd13ifvqc3g","pricing_plan_id":"cebpf4jnsgd1na2vs0mg"},{"bike_id":"17d5ad6c-1bcb-44fc-b455-486da0d48244","system_id":"levelo_inurba_marseille","lat":43.23948,"lon":5.36646,"is_reserved":false,"is_disabled":false,"rental_uris":{"android":"levelo://app?vid=17d5ad6c-1bcb-44fc-b455-486da0d48244","ios":"levelo://app?vid=17d5ad6c-1bcb-44fc-b455-486da0d48244"},"vehicle_type_id":"4","last_reported":1743199731,"current_range_meters":10800,"station_id":"ce4bhi12rcd13ifvqfp0","pricing_plan_id":"cebpf4jnsgd1na2vs0mg"},{"bike_id":"77a84f82-c6e8-433d-b3a5-bed09f6a4df7","system_id":"levelo_inurba_marseille","lat":43.30554,"lon":5.3654,"is_reserved":false,"is_disabled":false,"rental_uris":{"android":"levelo://app?vid=77a84f82-c6e8-433d-b3a5-bed09f6a4df7","ios":"levelo://app?vid=77a84f82-c6e8-433d-b3a5-bed09f6a4df7"},"vehicle_type_id":"4","last_reported":1743199731,"current_range_meters":10800,"station_id":"ce4bgs12rcd13ifvqcag","pricing_plan_id":"cebpf4jnsgd1na2vs0mg"},{"bike_id":"04974724-db2c-4968-859f-11e6296e82a0","system_id":"levelo_inurba_marseille","lat":43.29416,"lon":5.38629,"is_reserved":false,"is_disabled":false,"rental_uris":{"android":"levelo://app?vid=04974724-db2c-4968-859f-11e6296e82a0","ios":"levelo://app?vid=04974724-db2c-4968-859f-11e6296e82a0"},"vehicle_type_id":"4","last_reported":1743199731,"current_range_meters":10800,"station_id":"ce4bh2h2rcd13ifvqdh0","pricing_plan_id":"cebpf4jnsgd1na2vs0mg"},{"bike_id":"e4614adf-59ca-49c9-9f29-fb2629aacd37","system_id":"levelo_inurba_marseille","lat":43.28617,"lon":5.3512,"is_reserved":false,"is_disabled":false,"rental_uris":{"android":"levelo://app?vid=e4614adf-59ca-49c9-9f29-fb2629aacd37","ios":"levelo://app?vid=e4614adf-59ca-49c9-9f29-fb2629aacd37"},"vehicle_type_id":"4","last_reported":1743199731,"current_range_meters":10800,"station_id":"ce4bhch2rcd13ifvqeug","pricing_plan_id":"cebpf4jnsgd1na2vs0mg"},{"bike_id":"d110ea9c-afe8-47f1-b008-e66bc6e44a55","system_id":"levelo_inurba_marseille","lat":43.28415,"lon":5.35009,"is_reserved":false,"is_disabled":false,"rental_uris":{"android":"levelo://app?vid=d110ea9c-afe8-47f1-b008-e66bc6e44a55","ios":"levelo://app?vid=d110ea9c-afe8-47f1-b008-e66bc6e44a55"},"vehicle_type_id":"4","last_reported":1743199731,"current_range_meters":11200,"station_id":"ce4bhbh2rcd13ifvqepg","pricing_plan_id":"cebpf4jnsgd1na2vs0mg"},{"bike_id":"676aa410-285a-48fa-832f-41d35fee7288","system_id":"levelo_inurba_marseille","lat":43.28598,"lon":5.37064,"is_reserved":false,"is_disabled":false,"rental_uris":{"android":"levelo://app?vid=676aa410-285a-48fa-832f-41d35fee7288","ios":"levelo://app?vid=676aa410-285a-48fa-832f-41d35fee7288"},"vehicle_type_id":"4","last_reported":1743199731,"current_range_meters":11200,"station_id":"ce4bht12rcd13ifvqi60","pricing_plan_id":"cebpf4jnsgd1na2vs0mg"},{"bike_id":"13c3ca67-8c97-40f4-8f60-41bad9654cad","system_id":"levelo_inurba_marseille","lat":43.29281,"lon":5.40123,"is_reserved":false,"is_disabled":false,"rental_uris":{"android":"levelo://app?vid=13c3ca67-8c97-40f4-8f60-41bad9654cad","ios":"levelo://app?vid=13c3ca67-8c97-40f4-8f60-41bad9654cad"},"vehicle_type_id":"4","last_reported":1743199731,"current_range_meters":11200,"station_id":"ce4bh312rcd13ifvqdk0","pricing_plan_id":"cebpf4jnsgd1na2vs0mg"},{"bike_id":"20b1a633-5523-46de-86bb-ccc76e245f2b","system_id":"levelo_inurba_marseille","lat":43.30426,"lon":5.39747,"is_reserved":false,"is_disabled":false,"rental_uris":{"android":"levelo://app?vid=20b1a633-5523-46de-86bb-ccc76e245f2b","ios":"levelo://app?vid=20b1a633-5523-46de-86bb-ccc76e245f2b"},"vehicle_type_id":"4","last_reported":1743199731,"current_range_meters":11200,"station_id":"ce4bh092rcd13ifvqd20","pricing_plan_id":"cebpf4jnsgd1na2vs0mg"},{"bike_id":"ea4d652d-0687-4fa8-9e2c-7cf26eec9129","system_id":"levelo_inurba_marseille","lat":43.29252,"lon":5.38434,"is_reserved":false,"is_disabled":true,"rental_uris":{"android":"levelo://app?vid=ea4d652d-0687-4fa8-9e2c-7cf26eec9129","ios":"levelo://app?vid=ea4d652d-0687-4fa8-9e2c-7cf26eec9129"},"vehicle_type_id":"4","last_reported":1743199731,"current_range_meters":11200,"station_id":"ce4bh692rcd13ifvqea0","pricing_plan_id":"cebpf4jnsgd1na2vs0mg"},{"bike_id":"ddbaedaa-3941-4e9d-8cd6-a1a53a4c2426","system_id":"levelo_inurba_marseille","lat":43.23195,"lon":5.40016,"is_reserved":false,"is_disabled":false,"rental_uris":{"android":"levelo://app?vid=ddbaedaa-3941-4e9d-8cd6-a1a53a4c2426","ios":"levelo://app?vid=ddbaedaa-3941-4e9d-8cd6-a1a53a4c2426"},"vehicle_type_id":"4","last_reported":1743199731,"current_range_meters":11200,"station_id":"ce4bhn12rcd13ifvqgqg","pricing_plan_id":"cebpf4jnsgd1na2vs0mg"},{"bike_id":"d14cdd1e-f0b3-48a5-be5e-77128af69a2d","system_id":"levelo_inurba_marseille","lat":43.28629,"lon":5.35106,"is_reserved":false,"is_disabled":false,"rental_uris":{"android":"levelo://app?vid=d14cdd1e-f0b3-48a5-be5e-77128af69a2d","ios":"levelo://app?vid=d14cdd1e-f0b3-48a5-be5e-77128af69a2d"},"vehicle_type_id":"4","last_reported":1743199731,"current_range_meters":11200,"station_id":"ce4bhch2rcd13ifvqeug","pricing_plan_id":"cebpf4jnsgd1na2vs0mg"},{"bike_id":"08664c3d-c475-47e5-b091-2db417347431","system_id":"levelo_inurba_marseille","lat":43.29258,"lon":5.38426,"is_reserved":false,"is_disabled":false,"rental_uris":{"android":"levelo://app?vid=08664c3d-c475-47e5-b091-2db417347431","ios":"levelo://app?vid=08664c3d-c475-47e5-b091-2db417347431"},"vehicle_type_id":"4","last_reported":1743199731,"current_range_meters":11600,"station_id":"ce4bh692rcd13ifvqea0","pricing_plan_id":"cebpf4jnsgd1na2vs0mg"},{"bike_id":"4193c548-3f50-4976-8ffa-692017d261f5","system_id":"levelo_inurba_marseille","lat":43.29023,"lon":5.38122,"is_reserved":false,"is_disabled":false,"rental_uris":{"android":"levelo://app?vid=4193c548-3f50-4976-8ffa-692017d261f5","ios":"levelo://app?vid=4193c548-3f50-4976-8ffa-692017d261f5"},"vehicle_type_id":"4","last_reported":1743199731,"current_range_meters":11600,"station_id":"ce4bh4p2rcd13ifvqe1g","pricing_plan_id":"cebpf4jnsgd1na2vs0mg"},{"bike_id":"72fd4046-5b3e-40ff-a9ef-423fa43645d9","system_id":"levelo_inurba_marseille","lat":43.28084,"lon":5.39641,"is_reserved":false,"is_disabled":false,"rental_uris":{"android":"levelo://app?vid=72fd4046-5b3e-40ff-a9ef-423fa43645d9","ios":"levelo://app?vid=72fd4046-5b3e-40ff-a9ef-423fa43645d9"},"vehicle_type_id":"4","last_reported":1743199731,"current_range_meters":11600,"station_id":"ce4bho12rcd13ifvqh2g","pricing_plan_id":"cebpf4jnsgd1na2vs0mg"},{"bike_id":"8b7e2333-3279-47a1-af44-5227b2c78362","system_id":"levelo_inurba_marseille","lat":43.24158,"lon":5.36411,"is_reserved":false,"is_disabled":false,"rental_uris":{"android":"levelo://app?vid=8b7e2333-3279-47a1-af44-5227b2c78362","ios":"levelo://app?vid=8b7e2333-3279-47a1-af44-5227b2c78362"},"vehicle_type_id":"4","last_reported":1743199731,"current_range_meters":11600,"station_id":"cpo36qri1sfpv3e86is0","pricing_plan_id":"cebpf4jnsgd1na2vs0mg"},{"bike_id":"983c4c9f-ee1a-4d13-8ce7-bfd36c479f46","system_id":"levelo_inurba_marseille","lat":43.24164,"lon":5.36404,"is_reserved":false,"is_disabled":false,"rental_uris":{"android":"levelo://app?vid=983c4c9f-ee1a-4d13-8ce7-bfd36c479f46","ios":"levelo://app?vid=983c4c9f-ee1a-4d13-8ce7-bfd36c479f46"},"vehicle_type_id":"4","last_reported":1743199731,"current_range_meters":11600,"station_id":"cpo36qri1sfpv3e86is0","pricing_plan_id":"cebpf4jnsgd1na2vs0mg"},{"bike_id":"d7e7f669-6873-4554-96d6-cb6f4da09760","system_id":"levelo_inurba_marseille","lat":43.30138,"lon":5.38073,"is_reserved":false,"is_disabled":false,"rental_uris":{"android":"levelo://app?vid=d7e7f669-6873-4554-96d6-cb6f4da09760","ios":"levelo://app?vid=d7e7f669-6873-4554-96d6-cb6f4da09760"},"vehicle_type_id":"4","last_reported":1743199731,"current_range_meters":11600,"station_id":"ce4bgjp2rcd13ifvqbh0","pricing_plan_id":"cebpf4jnsgd1na2vs0mg"},{"bike_id":"6a2a152c-b494-4170-b110-214e113f5b83","system_id":"levelo_inurba_marseille","lat":43.29188,"lon":5.39323,"is_reserved":false,"is_disabled":false,"rental_uris":{"android":"levelo://app?vid=6a2a152c-b494-4170-b110-214e113f5b83","ios":"levelo://app?vid=6a2a152c-b494-4170-b110-214e113f5b83"},"vehicle_type_id":"4","last_reported":1743199731,"current_range_meters":11600,"station_id":"ce4bh192rcd13ifvqdd0","pricing_plan_id":"cebpf4jnsgd1na2vs0mg"},{"bike_id":"703c6035-7db6-48af-a14b-885bc497dbc7","system_id":"levelo_inurba_marseille","lat":43.298453,"lon":5.362626,"is_reserved":false,"is_disabled":false,"rental_uris":{"android":"levelo://app?vid=703c6035-7db6-48af-a14b-885bc497dbc7","ios":"levelo://app?vid=703c6035-7db6-48af-a14b-885bc497dbc7"},"vehicle_type_id":"4","last_reported":1743199731,"current_range_meters":11600,"station_id":"ce4bgpp2rcd13ifvqc3g","pricing_plan_id":"cebpf4jnsgd1na2vs0mg"},{"bike_id":"c5b98171-7d4f-46ff-a16b-29d4415d0fe6","system_id":"levelo_inurba_marseille","lat":43.29259,"lon":5.38443,"is_reserved":false,"is_disabled":false,"rental_uris":{"android":"levelo://app?vid=c5b98171-7d4f-46ff-a16b-29d4415d0fe6","ios":"levelo://app?vid=c5b98171-7d4f-46ff-a16b-29d4415d0fe6"},"vehicle_type_id":"4","last_reported":1743199731,"current_range_meters":11600,"station_id":"ce4bh692rcd13ifvqea0","pricing_plan_id":"cebpf4jnsgd1na2vs0mg"},{"bike_id":"b7a27c02-4eb5-4ddb-b218-acd464a4e76a","system_id":"levelo_inurba_marseille","lat":43.298734,"lon":5.388102,"is_reserved":false,"is_disabled":false,"rental_uris":{"android":"levelo://app?vid=b7a27c02-4eb5-4ddb-b218-acd464a4e76a","ios":"levelo://app?vid=b7a27c02-4eb5-4ddb-b218-acd464a4e76a"},"vehicle_type_id":"4","last_reported":1743199731,"current_range_meters":11600,"station_id":"ce4bgv12rcd13ifvqcp0","pricing_plan_id":"cebpf4jnsgd1na2vs0mg"},{"bike_id":"9a7b4e6a-fd8e-4005-b1f1-d848e9b15f63","system_id":"levelo_inurba_marseille","lat":43.29212,"lon":5.35817,"is_reserved":false,"is_disabled":false,"rental_uris":{"android":"levelo://app?vid=9a7b4e6a-fd8e-4005-b1f1-d848e9b15f63","ios":"levelo://app?vid=9a7b4e6a-fd8e-4005-b1f1-d848e9b15f63"},"vehicle_type_id":"4","last_reported":1743199731,"current_range_meters":11600,"station_id":"ce4bhb12rcd13ifvqel0","pricing_plan_id":"cebpf4jnsgd1na2vs0mg"},{"bike_id":"161d8420-1bd4-4c54-8885-cf257d3ec950","system_id":"levelo_inurba_marseille","lat":43.250039,"lon":5.38926,"is_reserved":false,"is_disabled":false,"rental_uris":{"android":"levelo://app?vid=161d8420-1bd4-4c54-8885-cf257d3ec950","ios":"levelo://app?vid=161d8420-1bd4-4c54-8885-cf257d3ec950"},"vehicle_type_id":"4","last_reported":1743199731,"current_range_meters":11600,"station_id":"ce4bhgp2rcd13ifvqfd0","pricing_plan_id":"cebpf4jnsgd1na2vs0mg"},{"bike_id":"6a745c80-5253-4f31-8a6e-8960828aae98","system_id":"levelo_inurba_marseille","lat":43.31122,"lon":5.37754,"is_reserved":false,"is_disabled":false,"rental_uris":{"android":"levelo://app?vid=6a745c80-5253-4f31-8a6e-8960828aae98","ios":"levelo://app?vid=6a745c80-5253-4f31-8a6e-8960828aae98"},"vehicle_type_id":"4","last_reported":1743199731,"current_range_meters":12000,"station_id":"ce4bgt92rcd13ifvqcg0","pricing_plan_id":"cebpf4jnsgd1na2vs0mg"},{"bike_id":"b1ecd358-38ec-4753-8af1-9b87454b444a","system_id":"levelo_inurba_marseille","lat":43.28618,"lon":5.351007,"is_reserved":false,"is_disabled":false,"rental_uris":{"android":"levelo://app?vid=b1ecd358-38ec-4753-8af1-9b87454b444a","ios":"levelo://app?vid=b1ecd358-38ec-4753-8af1-9b87454b444a"},"vehicle_type_id":"4","last_reported":1743199731,"current_range_meters":12000,"station_id":"ce4bhch2rcd13ifvqeug","pricing_plan_id":"cebpf4jnsgd1na2vs0mg"},{"bike_id":"52e0210e-8808-4eec-83b4-60ac379c059c","system_id":"levelo_inurba_marseille","lat":43.29213,"lon":5.36068,"is_reserved":false,"is_disabled":false,"rental_uris":{"android":"levelo://app?vid=52e0210e-8808-4eec-83b4-60ac379c059c","ios":"levelo://app?vid=52e0210e-8808-4eec-83b4-60ac379c059c"},"vehicle_type_id":"4","last_reported":1743199731,"current_range_meters":12000,"station_id":"ce4bhbh2rcd13ifvqeqg","pricing_plan_id":"cebpf4jnsgd1na2vs0mg"},{"bike_id":"c4d541b2-6e4c-4e84-a0da-28cb70cd9dee","system_id":"levelo_inurba_marseille","lat":43.24671,"lon":5.38156,"is_reserved":false,"is_disabled":false,"rental_uris":{"android":"levelo://app?vid=c4d541b2-6e4c-4e84-a0da-28cb70cd9dee","ios":"levelo://app?vid=c4d541b2-6e4c-4e84-a0da-28cb70cd9dee"},"vehicle_type_id":"4","last_reported":1743199731,"current_range_meters":12000,"station_id":"ce4bhih2rcd13ifvqfr0","pricing_plan_id":"cebpf4jnsgd1na2vs0mg"},{"bike_id":"d14264cb-d29b-4525-bb03-fa41ba961afa","system_id":"levelo_inurba_marseille","lat":43.2903,"lon":5.38642,"is_reserved":false,"is_disabled":false,"rental_uris":{"android":"levelo://app?vid=d14264cb-d29b-4525-bb03-fa41ba961afa","ios":"levelo://app?vid=d14264cb-d29b-4525-bb03-fa41ba961afa"},"vehicle_type_id":"4","last_reported":1743199731,"current_range_meters":12000,"station_id":"ce4bh4p2rcd13ifvqe0g","pricing_plan_id":"cebpf4jnsgd1na2vs0mg"},{"bike_id":"980b1b8d-c114-4f00-88f8-a0ddccb8fb71","system_id":"levelo_inurba_marseille","lat":43.2861,"lon":5.35096,"is_reserved":false,"is_disabled":false,"rental_uris":{"android":"levelo://app?vid=980b1b8d-c114-4f00-88f8-a0ddccb8fb71","ios":"levelo://app?vid=980b1b8d-c114-4f00-88f8-a0ddccb8fb71"},"vehicle_type_id":"4","last_reported":1743199731,"current_range_meters":12000,"station_id":"ce4bhch2rcd13ifvqeug","pricing_plan_id":"cebpf4jnsgd1na2vs0mg"},{"bike_id":"1cebea5c-cfeb-4552-a2b6-bf6db1cff8b1","system_id":"levelo_inurba_marseille","lat":43.29198,"lon":5.35815,"is_reserved":false,"is_disabled":false,"rental_uris":{"android":"levelo://app?vid=1cebea5c-cfeb-4552-a2b6-bf6db1cff8b1","ios":"levelo://app?vid=1cebea5c-cfeb-4552-a2b6-bf6db1cff8b1"},"vehicle_type_id":"4","last_reported":1743199731,"current_range_meters":12000,"station_id":"ce4bhb12rcd13ifvqel0","pricing_plan_id":"cebpf4jnsgd1na2vs0mg"},{"bike_id":"bf72efd4-194c-40b6-b3ff-76aaae7db408","system_id":"levelo_inurba_marseille","lat":43.30097,"lon":5.39081,"is_reserved":false,"is_disabled":false,"rental_uris":{"android":"levelo://app?vid=bf72efd4-194c-40b6-b3ff-76aaae7db408","ios":"levelo://app?vid=bf72efd4-194c-40b6-b3ff-76aaae7db408"},"vehicle_type_id":"4","last_reported":1743199731,"current_range_meters":12400,"station_id":"ce4bh192rcd13ifvqdb0","pricing_plan_id":"cebpf4jnsgd1na2vs0mg"},{"bike_id":"cccdfc50-9172-4019-9d86-2d339a3ec58f","system_id":"levelo_inurba_marseille","lat":43.24669,"lon":5.38163,"is_reserved":false,"is_disabled":false,"rental_uris":{"android":"levelo://app?vid=cccdfc50-9172-4019-9d86-2d339a3ec58f","ios":"levelo://app?vid=cccdfc50-9172-4019-9d86-2d339a3ec58f"},"vehicle_type_id":"4","last_reported":1743199731,"current_range_meters":12400,"station_id":"ce4bhih2rcd13ifvqfr0","pricing_plan_id":"cebpf4jnsgd1na2vs0mg"},{"bike_id":"00bae8ac-3a3f-457a-ae99-77be9ead3c8f","system_id":"levelo_inurba_marseille","lat":43.29252,"lon":5.40911,"is_reserved":false,"is_disabled":false,"rental_uris":{"android":"levelo://app?vid=00bae8ac-3a3f-457a-ae99-77be9ead3c8f","ios":"levelo://app?vid=00bae8ac-3a3f-457a-ae99-77be9ead3c8f"},"vehicle_type_id":"4","last_reported":1743199731,"current_range_meters":12400,"station_id":"ce4bh192rcd13ifvqdc0","pricing_plan_id":"cebpf4jnsgd1na2vs0mg"},{"bike_id":"3a2e35ff-67f7-42a4-b09b-1fe3ef6e95d8","system_id":"levelo_inurba_marseille","lat":43.22929,"lon":5.35385,"is_reserved":false,"is_disabled":false,"rental_uris":{"android":"levelo://app?vid=3a2e35ff-67f7-42a4-b09b-1fe3ef6e95d8","ios":"levelo://app?vid=3a2e35ff-67f7-42a4-b09b-1fe3ef6e95d8"},"vehicle_type_id":"4","last_reported":1743199731,"current_range_meters":12400,"station_id":"cpo3532slgdg3j2ikp40","pricing_plan_id":"cebpf4jnsgd1na2vs0mg"},{"bike_id":"2e2fc79c-87bd-4d88-908e-bdd987ac041b","system_id":"levelo_inurba_marseille","lat":43.29232,"lon":5.38472,"is_reserved":false,"is_disabled":false,"rental_uris":{"android":"levelo://app?vid=2e2fc79c-87bd-4d88-908e-bdd987ac041b","ios":"levelo://app?vid=2e2fc79c-87bd-4d88-908e-bdd987ac041b"},"vehicle_type_id":"4","last_reported":1743199731,"current_range_meters":12400,"station_id":"","pricing_plan_id":"cebpf4jnsgd1na2vs0mg"},{"bike_id":"4d33bc5b-fded-4b79-abc4-d8ca2a4f7165","system_id":"levelo_inurba_marseille","lat":43.25729,"lon":5.41105,"is_reserved":false,"is_disabled":false,"rental_uris":{"android":"levelo://app?vid=4d33bc5b-fded-4b79-abc4-d8ca2a4f7165","ios":"levelo://app?vid=4d33bc5b-fded-4b79-abc4-d8ca2a4f7165"},"vehicle_type_id":"4","last_reported":1743199731,"current_range_meters":12400,"station_id":"ce4bhkp2rcd13ifvqgd0","pricing_plan_id":"cebpf4jnsgd1na2vs0mg"},{"bike_id":"a1f36ca3-7077-4235-adb8-8ead169ba95d","system_id":"levelo_inurba_marseille","lat":43.29423,"lon":5.38637,"is_reserved":false,"is_disabled":false,"rental_uris":{"android":"levelo://app?vid=a1f36ca3-7077-4235-adb8-8ead169ba95d","ios":"levelo://app?vid=a1f36ca3-7077-4235-adb8-8ead169ba95d"},"vehicle_type_id":"4","last_reported":1743199731,"current_range_meters":12400,"station_id":"ce4bh2h2rcd13ifvqdh0","pricing_plan_id":"cebpf4jnsgd1na2vs0mg"},{"bike_id":"4e251f24-93aa-4959-b14c-07fb3902889e","system_id":"levelo_inurba_marseille","lat":43.29424,"lon":5.38622,"is_reserved":false,"is_disabled":false,"rental_uris":{"android":"levelo://app?vid=4e251f24-93aa-4959-b14c-07fb3902889e","ios":"levelo://app?vid=4e251f24-93aa-4959-b14c-07fb3902889e"},"vehicle_type_id":"4","last_reported":1743199731,"current_range_meters":12400,"station_id":"ce4bh2h2rcd13ifvqdh0","pricing_plan_id":"cebpf4jnsgd1na2vs0mg"},{"bike_id":"f628ac7c-d52c-4246-83a3-0f835538519c","system_id":"levelo_inurba_marseille","lat":43.30932,"lon":5.40141,"is_reserved":false,"is_disabled":false,"rental_uris":{"android":"levelo://app?vid=f628ac7c-d52c-4246-83a3-0f835538519c","ios":"levelo://app?vid=f628ac7c-d52c-4246-83a3-0f835538519c"},"vehicle_type_id":"4","last_reported":1743199731,"current_range_meters":12400,"station_id":"ce4bgvp2rcd13ifvqct0","pricing_plan_id":"cebpf4jnsgd1na2vs0mg"},{"bike_id":"c62b25f2-48e0-435e-97de-761e7cec02a7","system_id":"levelo_inurba_marseille","lat":43.29416,"lon":5.38633,"is_reserved":false,"is_disabled":false,"rental_uris":{"android":"levelo://app?vid=c62b25f2-48e0-435e-97de-761e7cec02a7","ios":"levelo://app?vid=c62b25f2-48e0-435e-97de-761e7cec02a7"},"vehicle_type_id":"4","last_reported":1743199731,"current_range_meters":12400,"station_id":"ce4bh2h2rcd13ifvqdh0","pricing_plan_id":"cebpf4jnsgd1na2vs0mg"},{"bike_id":"9f2583cf-461d-4d57-8c37-99ef1e89cade","system_id":"levelo_inurba_marseille","lat":43.23199,"lon":5.35549,"is_reserved":false,"is_disabled":false,"rental_uris":{"android":"levelo://app?vid=9f2583cf-461d-4d57-8c37-99ef1e89cade","ios":"levelo://app?vid=9f2583cf-461d-4d57-8c37-99ef1e89cade"},"vehicle_type_id":"4","last_reported":1743199731,"current_range_meters":12400,"station_id":"ce4bhu92rcd13ifvqi70","pricing_plan_id":"cebpf4jnsgd1na2vs0mg"},{"bike_id":"971678a7-0df1-4cd3-a5c7-baff08acb488","system_id":"levelo_inurba_marseille","lat":43.29275,"lon":5.36843,"is_reserved":false,"is_disabled":false,"rental_uris":{"android":"levelo://app?vid=971678a7-0df1-4cd3-a5c7-baff08acb488","ios":"levelo://app?vid=971678a7-0df1-4cd3-a5c7-baff08acb488"},"vehicle_type_id":"4","last_reported":1743199731,"current_range_meters":12400,"station_id":"ce4bhbp2rcd13ifvqesg","pricing_plan_id":"cebpf4jnsgd1na2vs0mg"},{"bike_id":"ad095ff6-2192-4acf-9d3b-75082cfc78be","system_id":"levelo_inurba_marseille","lat":43.29254,"lon":5.37746,"is_reserved":false,"is_disabled":false,"rental_uris":{"android":"levelo://app?vid=ad095ff6-2192-4acf-9d3b-75082cfc78be","ios":"levelo://app?vid=ad095ff6-2192-4acf-9d3b-75082cfc78be"},"vehicle_type_id":"4","last_reported":1743199731,"current_range_meters":12400,"station_id":"","pricing_plan_id":"cebpf4jnsgd1na2vs0mg"},{"bike_id":"4bab1033-15e5-496a-9909-b25978c93993","system_id":"levelo_inurba_marseille","lat":43.26943,"lon":5.38626,"is_reserved":false,"is_disabled":false,"rental_uris":{"android":"levelo://app?vid=4bab1033-15e5-496a-9909-b25978c93993","ios":"levelo://app?vid=4bab1033-15e5-496a-9909-b25978c93993"},"vehicle_type_id":"4","last_reported":1743199731,"current_range_meters":12400,"station_id":"ce4bhh92rcd13ifvqfh0","pricing_plan_id":"cebpf4jnsgd1na2vs0mg"},{"bike_id":"7986efd3-94d1-4755-9667-458cb6c1a6e3","system_id":"levelo_inurba_marseille","lat":43.301453,"lon":5.380807,"is_reserved":false,"is_disabled":false,"rental_uris":{"android":"levelo://app?vid=7986efd3-94d1-4755-9667-458cb6c1a6e3","ios":"levelo://app?vid=7986efd3-94d1-4755-9667-458cb6c1a6e3"},"vehicle_type_id":"4","last_reported":1743199731,"current_range_meters":12800,"station_id":"ce4bh012rcd13ifvqd10","pricing_plan_id":"cebpf4jnsgd1na2vs0mg"},{"bike_id":"376e2628-4699-4887-9ff3-b8de9424e7ce","system_id":"levelo_inurba_marseille","lat":43.27991,"lon":5.41646,"is_reserved":false,"is_disabled":false,"rental_uris":{"android":"levelo://app?vid=376e2628-4699-4887-9ff3-b8de9424e7ce","ios":"levelo://app?vid=376e2628-4699-4887-9ff3-b8de9424e7ce"},"vehicle_type_id":"4","last_reported":1743199731,"current_range_meters":12800,"station_id":"ce4bho12rcd13ifvqh1g","pricing_plan_id":"cebpf4jnsgd1na2vs0mg"},{"bike_id":"01d5e08b-2ea8-4f4b-9d01-610ea15628e5","system_id":"levelo_inurba_marseille","lat":43.2903,"lon":5.38633,"is_reserved":false,"is_disabled":false,"rental_uris":{"android":"levelo://app?vid=01d5e08b-2ea8-4f4b-9d01-610ea15628e5","ios":"levelo://app?vid=01d5e08b-2ea8-4f4b-9d01-610ea15628e5"},"vehicle_type_id":"4","last_reported":1743199731,"current_range_meters":12800,"station_id":"ce4bh4p2rcd13ifvqe0g","pricing_plan_id":"cebpf4jnsgd1na2vs0mg"},{"bike_id":"bc029669-eeb2-4839-be1a-8312e37a4d09","system_id":"levelo_inurba_marseille","lat":43.29418,"lon":5.38636,"is_reserved":false,"is_disabled":false,"rental_uris":{"android":"levelo://app?vid=bc029669-eeb2-4839-be1a-8312e37a4d09","ios":"levelo://app?vid=bc029669-eeb2-4839-be1a-8312e37a4d09"},"vehicle_type_id":"4","last_reported":1743199731,"current_range_meters":12800,"station_id":"ce4bh2h2rcd13ifvqdh0","pricing_plan_id":"cebpf4jnsgd1na2vs0mg"},{"bike_id":"e394bfc8-7a96-41c9-9652-2296469ad48e","system_id":"levelo_inurba_marseille","lat":43.29425,"lon":5.38635,"is_reserved":false,"is_disabled":false,"rental_uris":{"android":"levelo://app?vid=e394bfc8-7a96-41c9-9652-2296469ad48e","ios":"levelo://app?vid=e394bfc8-7a96-41c9-9652-2296469ad48e"},"vehicle_type_id":"4","last_reported":1743199731,"current_range_meters":12800,"station_id":"ce4bh2h2rcd13ifvqdh0","pricing_plan_id":"cebpf4jnsgd1na2vs0mg"},{"bike_id":"4b2323ae-94b8-41f7-9062-4d9bd4bd549e","system_id":"levelo_inurba_marseille","lat":43.24131,"lon":5.36404,"is_reserved":false,"is_disabled":false,"rental_uris":{"android":"levelo://app?vid=4b2323ae-94b8-41f7-9062-4d9bd4bd549e","ios":"levelo://app?vid=4b2323ae-94b8-41f7-9062-4d9bd4bd549e"},"vehicle_type_id":"4","last_reported":1743199731,"current_range_meters":12800,"station_id":"cpo36qri1sfpv3e86is0","pricing_plan_id":"cebpf4jnsgd1na2vs0mg"},{"bike_id":"eef1e917-8312-4088-94d9-da3622ce4c2d","system_id":"levelo_inurba_marseille","lat":43.30301,"lon":5.39213,"is_reserved":false,"is_disabled":false,"rental_uris":{"android":"levelo://app?vid=eef1e917-8312-4088-94d9-da3622ce4c2d","ios":"levelo://app?vid=eef1e917-8312-4088-94d9-da3622ce4c2d"},"vehicle_type_id":"4","last_reported":1743199731,"current_range_meters":12800,"station_id":"ce4bgkh2rcd13ifvqbk0","pricing_plan_id":"cebpf4jnsgd1na2vs0mg"},{"bike_id":"bc13ce4b-80c3-434c-be50-109c6ccb0031","system_id":"levelo_inurba_marseille","lat":43.29258,"lon":5.40908,"is_reserved":false,"is_disabled":false,"rental_uris":{"android":"levelo://app?vid=bc13ce4b-80c3-434c-be50-109c6ccb0031","ios":"levelo://app?vid=bc13ce4b-80c3-434c-be50-109c6ccb0031"},"vehicle_type_id":"4","last_reported":1743199731,"current_range_meters":12800,"station_id":"ce4bh192rcd13ifvqdc0","pricing_plan_id":"cebpf4jnsgd1na2vs0mg"},{"bike_id":"2a4bb481-2694-4a59-954a-c8671a9cae8b","system_id":"levelo_inurba_marseille","lat":43.29425,"lon":5.38622,"is_reserved":false,"is_disabled":false,"rental_uris":{"android":"levelo://app?vid=2a4bb481-2694-4a59-954a-c8671a9cae8b","ios":"levelo://app?vid=2a4bb481-2694-4a59-954a-c8671a9cae8b"},"vehicle_type_id":"4","last_reported":1743199731,"current_range_meters":12800,"station_id":"ce4bh2h2rcd13ifvqdh0","pricing_plan_id":"cebpf4jnsgd1na2vs0mg"},{"bike_id":"94d65f6b-69b8-4734-b70d-8e10efd9e66c","system_id":"levelo_inurba_marseille","lat":43.298602,"lon":5.36276,"is_reserved":false,"is_disabled":false,"rental_uris":{"android":"levelo://app?vid=94d65f6b-69b8-4734-b70d-8e10efd9e66c","ios":"levelo://app?vid=94d65f6b-69b8-4734-b70d-8e10efd9e66c"},"vehicle_type_id":"4","last_reported":1743199731,"current_range_meters":12800,"station_id":"ce4bgpp2rcd13ifvqc3g","pricing_plan_id":"cebpf4jnsgd1na2vs0mg"},{"bike_id":"5b6a8b80-2d63-46d6-9df2-cbd6216a992b","system_id":"levelo_inurba_marseille","lat":43.31368,"lon":5.36745,"is_reserved":false,"is_disabled":true,"rental_uris":{"android":"levelo://app?vid=5b6a8b80-2d63-46d6-9df2-cbd6216a992b","ios":"levelo://app?vid=5b6a8b80-2d63-46d6-9df2-cbd6216a992b"},"vehicle_type_id":"4","last_reported":1743199731,"current_range_meters":12800,"station_id":"ce4bgr92rcd13ifvqc6g","pricing_plan_id":"cebpf4jnsgd1na2vs0mg"},{"bike_id":"ead0250d-f1e4-44da-b6aa-6be99ee2da5f","system_id":"levelo_inurba_marseille","lat":43.32346,"lon":5.36752,"is_reserved":false,"is_disabled":false,"rental_uris":{"android":"levelo://app?vid=ead0250d-f1e4-44da-b6aa-6be99ee2da5f","ios":"levelo://app?vid=ead0250d-f1e4-44da-b6aa-6be99ee2da5f"},