{"last_updated":1702627781,"ttl":30,"version":"2.2","data":{"bikes":[{"bike_id":"500b1cc1-06b5-4a49-b594-610cc505f678","system_id":"levelo_inurba_marseille","lat":43.31341,"lon":5.367098,"is_reserved":false,"is_disabled":false,"rental_uris":{"android":"levelo://app?vid=500b1cc1-06b5-4a49-b594-610cc505f678","ios":"levelo://app?vid=500b1cc1-06b5-4a49-b594-610cc505f678"},"vehicle_type_id":"4","last_reported":1702627782,"current_range_meters":26800,"station_id":"ce4bgr92rcd13ifvqc6g","pricing_plan_id":"free"},{"bike_id":"ceb6a469-dba4-455c-b68d-e3ae215e36bb","system_id":"levelo_inurba_marseille","lat":43.313391,"lon":5.36706,"is_reserved":false,"is_disabled":false,"rental_uris":{"android":"levelo://app?vid=ceb6a469-dba4-455c-b68d-e3ae215e36bb","ios":"levelo://app?vid=ceb6a469-dba4-455c-b68d-e3ae215e36bb"},"vehicle_type_id":"4","last_reported":1702627782,"current_range_meters":25200,"station_id":"ce4bgr92rcd13ifvqc6g","pricing_plan_id":"free"},{"bike_id":"1e4b2a8a-079c-47e6-aed5-2e90b9a3d67e","system_id":"levelo_inurba_marseille","lat":43.313391,"lon":5.36706,"is_reserved":false,"is_disabled":false,"rental_uris":{"android":"levelo://app?vid=1e4b2a8a-079c-47e6-aed5-2e90b9a3d67e","ios":"levelo://app?vid=1e4b2a8a-079c-47e6-aed5-2e90b9a3d67e"},"vehicle_type_id":"4","last_reported":1702627782,"current_range_meters":29200,"station_id":"ce4bgr92rcd13ifvqc6g","pricing_plan_id":"free"},{"bike_id":"ed0cc9b9-ef2e-400a-ae2d-91d5657b993a","system_id":"levelo_inurba_marseille","lat":43.31341,"lon":5.367098,"is_reserved":false,"is_disabled":false,"rental_uris":{"android":"levelo://app?vid=ed0cc9b9-ef2e-400a-ae2d-91d5657b993a","ios":"levelo://app?vid=ed0cc9b9-ef2e-400a-ae2d-91d5657b993a"},"vehicle_type_id":"4","last_reported":1702627782,"current_range_meters":10000,"station_id":"ce4bgr92rcd13ifvqc6g","pricing_plan_id":"free"},{"bike_id":"8bef25e2-ab22-4025-a50c-8f0f6c8031eb","system_id":"levelo_inurba_marseille","lat":43.313391,"lon":5.36706,"is_reserved":false,"is_disabled":false,"rental_uris":{"android":"levelo://app?vid=8bef25e2-ab22-4025-a50c-8f0f6c8031eb","ios":"levelo://app?vid=8bef25e2-ab22-4025-a50c-8f0f6c8031eb"},"vehicle_type_id":"4","last_reported":1702627782,"current_range_meters":29600,"station_id":"ce4bgr92rcd13ifvqc6g","pricing_plan_id":"free"},{"bike_id":"c87e6ef7-0c44-4991-87f4-1a9e88b746f7","system_id":"levelo_inurba_marseille","lat":43.313391,"lon":5.36706,"is_reserved":false,"is_disabled":false,"rental_uris":{"android":"levelo://app?vid=c87e6ef7-0c44-4991-87f4-1a9e88b746f7","ios":"levelo://app?vid=c87e6ef7-0c44-4991-87f4-1a9e88b746f7"},"vehicle_type_id":"4","last_reported":1702627782,"current_range_meters":24000,"station_id":"ce4bgr92rcd13ifvqc6g","pricing_plan_id":"free"},{"bike_id":"13521fa5-3aad-4070-a625-7cfe291de933","system_id":"levelo_inurba_marseille","lat":43.312239,"lon":5.368562,"is_reserved":false,"is_disabled":false,"rental_uris":{"android":"levelo://app?vid=13521fa5-3aad-4070-a625-7cfe291de933","ios":"levelo://app?vid=13521fa5-3aad-4070-a625-7cfe291de933"},"vehicle_type_id":"4","last_reported":1702627782,"current_range_meters":23600,"station_id":"ce4bgl92rcd13ifvqbq0","pricing_plan_id":"free"},{"bike_id":"9d034e94-5ce2-4489-9089-f60171e47899","system_id":"levelo_inurba_marseille","lat":43.309076,"lon":5.368465,"is_reserved":false,"is_disabled":false,"rental_uris":{"android":"levelo://app?vid=9d034e94-5ce2-4489-9089-f60171e47899","ios":"levelo://app?vid=9d034e94-5ce2-4489-9089-f60171e47899"},"vehicle_type_id":"4","last_reported":1702627782,"current_range_meters":20400,"station_id":"ce4bgn92rcd13ifvqbvg","pricing_plan_id":"free"},{"bike_id":"ba2c5e15-7050-4f3d-a2bf-4cbf4ec3d36c","system_id":"levelo_inurba_marseille","lat":43.309076,"lon":5.368465,"is_reserved":false,"is_disabled":false,"rental_uris":{"android":"levelo://app?vid=ba2c5e15-7050-4f3d-a2bf-4cbf4ec3d36c","ios":"levelo://app?vid=ba2c5e15-7050-4f3d-a2bf-4cbf4ec3d36c"},"vehicle_type_id":"4","last_reported":1702627782,"current_range_meters":17200,"station_id":"ce4bgn92rcd13ifvqbvg","pricing_plan_id":"free"},{"bike_id":"cca0cedc-ddd5-45ff-9b5b-d31c0b645042","system_id":"levelo_inurba_marseille","lat":43.309076,"lon":5.368465,"is_reserved":false,"is_disabled":false,"rental_uris":{"android":"levelo://app?vid=cca0cedc-ddd5-45ff-9b5b-d31c0b645042","ios":"levelo://app?vid=cca0cedc-ddd5-45ff-9b5b-d31c0b645042"},"vehicle_type_id":"4","last_reported":1702627782,"current_range_meters":26800,"station_id":"ce4bgn92rcd13ifvqbvg","pricing_plan_id":"free"},{"bike_id":"c2a10888-2e93-4dff-8f9a-2b3df162b9af","system_id":"levelo_inurba_marseille","lat":43.30898,"lon":5.371987,"is_reserved":false,"is_disabled":false,"rental_uris":{"android":"levelo://app?vid=c2a10888-2e93-4dff-8f9a-2b3df162b9af","ios":"levelo://app?vid=c2a10888-2e93-4dff-8f9a-2b3df162b9af"},"vehicle_type_id":"4","last_reported":1702627782,"current_range_meters":25200,"station_id":"ce4bguh2rcd13ifvqckg","pricing_plan_id":"free"},{"bike_id":"3f8b821f-e430-4a35-bf14-f8b6e777ea11","system_id":"levelo_inurba_marseille","lat":43.313939,"lon":5.375306,"is_reserved":false,"is_disabled":false,"rental_uris":{"android":"levelo://app?vid=3f8b821f-e430-4a35-bf14-f8b6e777ea11","ios":"levelo://app?vid=3f8b821f-e430-4a35-bf14-f8b6e777ea11"},"vehicle_type_id":"4","last_reported":1702627782,"current_range_meters":800,"station_id":"","pricing_plan_id":"free"},{"bike_id":"a753d17b-a425-4fc2-b70c-ffb7cfc13771","system_id":"levelo_inurba_marseille","lat":43.305712,"lon":5.365641,"is_reserved":false,"is_disabled":false,"rental_uris":{"android":"levelo://app?vid=a753d17b-a425-4fc2-b70c-ffb7cfc13771","ios":"levelo://app?vid=a753d17b-a425-4fc2-b70c-ffb7cfc13771"},"vehicle_type_id":"4","last_reported":1702627782,"current_range_meters":20800,"station_id":"ce4bgs12rcd13ifvqcag","pricing_plan_id":"free"},{"bike_id":"602456bc-d701-4de1-a3ca-a55708f38cae","system_id":"levelo_inurba_marseille","lat":43.30549,"lon":5.36703,"is_reserved":false,"is_disabled":false,"rental_uris":{"android":"levelo://app?vid=602456bc-d701-4de1-a3ca-a55708f38cae","ios":"levelo://app?vid=602456bc-d701-4de1-a3ca-a55708f38cae"},"vehicle_type_id":"4","last_reported":1702627782,"current_range_meters":21200,"station_id":"ce4bgrp2rcd13ifvqc9g","pricing_plan_id":"free"},{"bike_id":"dae3d371-2cad-40b1-928f-17d2b34f6615","system_id":"levelo_inurba_marseille","lat":43.30546,"lon":5.36703,"is_reserved":false,"is_disabled":false,"rental_uris":{"android":"levelo://app?vid=dae3d371-2cad-40b1-928f-17d2b34f6615","ios":"levelo://app?vid=dae3d371-2cad-40b1-928f-17d2b34f6615"},"vehicle_type_id":"4","last_reported":1702627782,"current_range_meters":31200,"station_id":"ce4bgrp2rcd13ifvqc9g","pricing_plan_id":"free"},{"bike_id":"b9a61213-f60b-4899-9f1f-9f5ad9c86497","system_id":"levelo_inurba_marseille","lat":43.305368,"lon":5.367343,"is_reserved":false,"is_disabled":false,"rental_uris":{"android":"levelo://app?vid=b9a61213-f60b-4899-9f1f-9f5ad9c86497","ios":"levelo://app?vid=b9a61213-f60b-4899-9f1f-9f5ad9c86497"},"vehicle_type_id":"4","last_reported":1702627782,"current_range_meters":25200,"station_id":"ce4bgrp2rcd13ifvqc9g","pricing_plan_id":"free"},{"bike_id":"157a8f3a-68c6-4c32-aea5-7295b93ec660","system_id":"levelo_inurba_marseille","lat":43.305368,"lon":5.367343,"is_reserved":false,"is_disabled":false,"rental_uris":{"android":"levelo://app?vid=157a8f3a-68c6-4c32-aea5-7295b93ec660","ios":"levelo://app?vid=157a8f3a-68c6-4c32-aea5-7295b93ec660"},"vehicle_type_id":"4","last_reported":1702627782,"current_range_meters":24000,"station_id":"ce4bgrp2rcd13ifvqc9g","pricing_plan_id":"free"},{"bike_id":"7c13521e-4a84-47bd-9a47-41bfa5e48b5a","system_id":"levelo_inurba_marseille","lat":43.305368,"lon":5.367343,"is_reserved":false,"is_disabled":false,"rental_uris":{"android":"levelo://app?vid=7c13521e-4a84-47bd-9a47-41bfa5e48b5a","ios":"levelo://app?vid=7c13521e-4a84-47bd-9a47-41bfa5e48b5a"},"vehicle_type_id":"4","last_reported":1702627782,"current_range_meters":23600,"station_id":"ce4bgrp2rcd13ifvqc9g","pricing_plan_id":"free"},{"bike_id":"203c13d6-1f55-4a80-93d1-b8667e889f0c","system_id":"levelo_inurba_marseille","lat":43.30543,"lon":5.36712,"is_reserved":false,"is_disabled":false,"rental_uris":{"android":"levelo://app?vid=203c13d6-1f55-4a80-93d1-b8667e889f0c","ios":"levelo://app?vid=203c13d6-1f55-4a80-93d1-b8667e889f0c"},"vehicle_type_id":"4","last_reported":1702627782,"current_range_meters":26400,"station_id":"ce4bgrp2rcd13ifvqc9g","pricing_plan_id":"free"},{"bike_id":"a19fae66-f288-441b-a1e4-bd178918b39b","system_id":"levelo_inurba_marseille","lat":43.305368,"lon":5.367343,"is_reserved":false,"is_disabled":false,"rental_uris":{"android":"levelo://app?vid=a19fae66-f288-441b-a1e4-bd178918b39b","ios":"levelo://app?vid=a19fae66-f288-441b-a1e4-bd178918b39b"},"vehicle_type_id":"4","last_reported":1702627782,"current_range_meters":19600,"station_id":"ce4bgrp2rcd13ifvqc9g","pricing_plan_id":"free"},{"bike_id":"f7acd720-0f92-4ad0-bbfb-358ed8f7e40e","system_id":"levelo_inurba_marseille","lat":43.305368,"lon":5.367343,"is_reserved":false,"is_disabled":false,"rental_uris":{"android":"levelo://app?vid=f7acd720-0f92-4ad0-bbfb-358ed8f7e40e","ios":"levelo://app?vid=f7acd720-0f92-4ad0-bbfb-358ed8f7e40e"},"vehicle_type_id":"4","last_reported":1702627782,"current_range_meters":23600,"station_id":"ce4bgrp2rcd13ifvqc9g","pricing_plan_id":"free"},{"bike_id":"763c8f79-5050-4eec-a47e-bf27cca6bdb3","system_id":"levelo_inurba_marseille","lat":43.305368,"lon":5.367343,"is_reserved":false,"is_disabled":false,"rental_uris":{"android":"levelo://app?vid=763c8f79-5050-4eec-a47e-bf27cca6bdb3","ios":"levelo://app?vid=763c8f79-5050-4eec-a47e-bf27cca6bdb3"},"vehicle_type_id":"4","last_reported":1702627782,"current_range_meters":25200,"station_id":"ce4bgrp2rcd13ifvqc9g","pricing_plan_id":"free"},{"bike_id":"6b648eb3-a2fe-4cdb-a6c9-15272fbe3bef","system_id":"levelo_inurba_marseille","lat":43.305368,"lon":5.367343,"is_reserved":false,"is_disabled":false,"rental_uris":{"android":"levelo://app?vid=6b648eb3-a2fe-4cdb-a6c9-15272fbe3bef","ios":"levelo://app?vid=6b648eb3-a2fe-4cdb-a6c9-15272fbe3bef"},"vehicle_type_id":"4","last_reported":1702627782,"current_range_meters":30800,"station_id":"ce4bgrp2rcd13ifvqc9g","pricing_plan_id":"free"},{"bike_id":"18a9f65f-e97c-40ee-bcc3-1b1c7dd5dd34","system_id":"levelo_inurba_marseille","lat":43.305714,"lon":5.365633,"is_reserved":false,"is_disabled":false,"rental_uris":{"android":"levelo://app?vid=18a9f65f-e97c-40ee-bcc3-1b1c7dd5dd34","ios":"levelo://app?vid=18a9f65f-e97c-40ee-bcc3-1b1c7dd5dd34"},"vehicle_type_id":"4","last_reported":1702627782,"current_range_meters":30400,"station_id":"ce4bgs12rcd13ifvqcag","pricing_plan_id":"free"},{"bike_id":"7906156c-2e10-4a64-b1a7-2d364211b918","system_id":"levelo_inurba_marseille","lat":43.305368,"lon":5.367343,"is_reserved":false,"is_disabled":false,"rental_uris":{"android":"levelo://app?vid=7906156c-2e10-4a64-b1a7-2d364211b918","ios":"levelo://app?vid=7906156c-2e10-4a64-b1a7-2d364211b918"},"vehicle_type_id":"4","last_reported":1702627782,"current_range_meters":29200,"station_id":"ce4bgrp2rcd13ifvqc9g","pricing_plan_id":"free"},{"bike_id":"14e93773-de84-4db5-b826-dff4c80b188c","system_id":"levelo_inurba_marseille","lat":43.305368,"lon":5.367343,"is_reserved":false,"is_disabled":false,"rental_uris":{"android":"levelo://app?vid=14e93773-de84-4db5-b826-dff4c80b188c","ios":"levelo://app?vid=14e93773-de84-4db5-b826-dff4c80b188c"},"vehicle_type_id":"4","last_reported":1702627782,"current_range_meters":20400,"station_id":"ce4bgrp2rcd13ifvqc9g","pricing_plan_id":"free"},{"bike_id":"955e4ab2-16e5-44e8-a986-a2f50ff96c06","system_id":"levelo_inurba_marseille","lat":43.305382,"lon":5.365389,"is_reserved":false,"is_disabled":false,"rental_uris":{"android":"levelo://app?vid=955e4ab2-16e5-44e8-a986-a2f50ff96c06","ios":"levelo://app?vid=955e4ab2-16e5-44e8-a986-a2f50ff96c06"},"vehicle_type_id":"4","last_reported":1702627782,"current_range_meters":20000,"station_id":"","pricing_plan_id":"free"},{"bike_id":"55285a82-d434-477f-8efb-68044e144c3a","system_id":"levelo_inurba_marseille","lat":43.305368,"lon":5.367343,"is_reserved":false,"is_disabled":false,"rental_uris":{"android":"levelo://app?vid=55285a82-d434-477f-8efb-68044e144c3a","ios":"levelo://app?vid=55285a82-d434-477f-8efb-68044e144c3a"},"vehicle_type_id":"4","last_reported":1702627782,"current_range_meters":29200,"station_id":"ce4bgrp2rcd13ifvqc9g","pricing_plan_id":"free"},{"bike_id":"b56c892c-b465-4528-b14b-20226230facd","system_id":"levelo_inurba_marseille","lat":43.305368,"lon":5.367343,"is_reserved":false,"is_disabled":false,"rental_uris":{"android":"levelo://app?vid=b56c892c-b465-4528-b14b-20226230facd","ios":"levelo://app?vid=b56c892c-b465-4528-b14b-20226230facd"},"vehicle_type_id":"4","last_reported":1702627782,"current_range_meters":31200,"station_id":"ce4bgrp2rcd13ifvqc9g","pricing_plan_id":"free"},{"bike_id":"95c5359e-f913-40bc-92c0-3ea7c91e9cf3","system_id":"levelo_inurba_marseille","lat":43.305706,"lon":5.365654,"is_reserved":false,"is_disabled":false,"rental_uris":{"android":"levelo://app?vid=95c5359e-f913-40bc-92c0-3ea7c91e9cf3","ios":"levelo://app?vid=95c5359e-f913-40bc-92c0-3ea7c91e9cf3"},"vehicle_type_id":"4","last_reported":1702627782,"current_range_meters":31200,"station_id":"ce4bgs12rcd13ifvqcag","pricing_plan_id":"free"},{"bike_id":"ea90133d-bf35-4e95-bb67-746ac9b8d0d3","system_id":"levelo_inurba_marseille","lat":43.305706,"lon":5.365654,"is_reserved":false,"is_disabled":false,"rental_uris":{"android":"levelo://app?vid=ea90133d-bf35-4e95-bb67-746ac9b8d0d3","ios":"levelo://app?vid=ea90133d-bf35-4e95-bb67-746ac9b8d0d3"},"vehicle_type_id":"4","last_reported":1702627782,"current_range_meters":25200,"station_id":"ce4bgs12rcd13ifvqcag","pricing_plan_id":"free"},{"bike_id":"1f0ce392-d0a2-44cc-93b6-f7ef4b84b624","system_id":"levelo_inurba_marseille","lat":43.311238,"lon":5.377658,"is_reserved":false,"is_disabled":false,"rental_uris":{"android":"levelo://app?vid=1f0ce392-d0a2-44cc-93b6-f7ef4b84b624","ios":"levelo://app?vid=1f0ce392-d0a2-44cc-93b6-f7ef4b84b624"},"vehicle_type_id":"4","last_reported":1702627782,"current_range_meters":30400,"station_id":"ce4bgt92rcd13ifvqcg0","pricing_plan_id":"free"},{"bike_id":"80f2ce3f-58de-44d7-b172-286bc2b887ae","system_id":"levelo_inurba_marseille","lat":43.307945,"lon":5.376487,"is_reserved":false,"is_disabled":false,"rental_uris":{"android":"levelo://app?vid=80f2ce3f-58de-44d7-b172-286bc2b887ae","ios":"levelo://app?vid=80f2ce3f-58de-44d7-b172-286bc2b887ae"},"vehicle_type_id":"4","last_reported":1702627782,"current_range_meters":30800,"station_id":"ce4bgv92rcd13ifvqcq0","pricing_plan_id":"free"},{"bike_id":"902f7443-fcd1-4444-843e-ab16fa200580","system_id":"levelo_inurba_marseille","lat":43.317075,"lon":5.377367,"is_reserved":false,"is_disabled":false,"rental_uris":{"android":"levelo://app?vid=902f7443-fcd1-4444-843e-ab16fa200580","ios":"levelo://app?vid=902f7443-fcd1-4444-843e-ab16fa200580"},"vehicle_type_id":"4","last_reported":1702627782,"current_range_meters":16400,"station_id":"ce4bgth2rcd13ifvqch0","pricing_plan_id":"free"},{"bike_id":"dead9712-8f60-475b-8b2c-c1610664f5c7","system_id":"levelo_inurba_marseille","lat":43.303046,"lon":5.368981,"is_reserved":false,"is_disabled":false,"rental_uris":{"android":"levelo://app?vid=dead9712-8f60-475b-8b2c-c1610664f5c7","ios":"levelo://app?vid=dead9712-8f60-475b-8b2c-c1610664f5c7"},"vehicle_type_id":"4","last_reported":1702627782,"current_range_meters":30400,"station_id":"ce4bgqh2rcd13ifvqc5g","pricing_plan_id":"free"},{"bike_id":"0bb55533-9b5c-4028-bd03-bf05fc204d36","system_id":"levelo_inurba_marseille","lat":43.303046,"lon":5.368981,"is_reserved":false,"is_disabled":false,"rental_uris":{"android":"levelo://app?vid=0bb55533-9b5c-4028-bd03-bf05fc204d36","ios":"levelo://app?vid=0bb55533-9b5c-4028-bd03-bf05fc204d36"},"vehicle_type_id":"4","last_reported":1702627782,"current_range_meters":6400,"station_id":"ce4bgqh2rcd13ifvqc5g","pricing_plan_id":"free"},{"bike_id":"7c1c8c80-c575-4b1c-a834-0d37cb936a31","system_id":"levelo_inurba_marseille","lat":43.301939,"lon":5.366286,"is_reserved":false,"is_disabled":false,"rental_uris":{"android":"levelo://app?vid=7c1c8c80-c575-4b1c-a834-0d37cb936a31","ios":"levelo://app?vid=7c1c8c80-c575-4b1c-a834-0d37cb936a31"},"vehicle_type_id":"4","last_reported":1702627782,"current_range_meters":17600,"station_id":"ce4bgrh2rcd13ifvqc8g","pricing_plan_id":"free"},{"bike_id":"44ae9383-0d11-4308-84c3-ccdec0a11c00","system_id":"levelo_inurba_marseille","lat":43.308098,"lon":5.381528,"is_reserved":false,"is_disabled":false,"rental_uris":{"android":"levelo://app?vid=44ae9383-0d11-4308-84c3-ccdec0a11c00","ios":"levelo://app?vid=44ae9383-0d11-4308-84c3-ccdec0a11c00"},"vehicle_type_id":"4","last_reported":1702627782,"current_range_meters":25600,"station_id":"ce4bgt12rcd13ifvqce0","pricing_plan_id":"free"},{"bike_id":"4593980f-e4e6-4719-abec-7c6e2c9dc076","system_id":"levelo_inurba_marseille","lat":43.302784,"lon":5.377158,"is_reserved":false,"is_disabled":false,"rental_uris":{"android":"levelo://app?vid=4593980f-e4e6-4719-abec-7c6e2c9dc076","ios":"levelo://app?vid=4593980f-e4e6-4719-abec-7c6e2c9dc076"},"vehicle_type_id":"4","last_reported":1702627782,"current_range_meters":26400,"station_id":"ce4bguh2rcd13ifvqcj0","pricing_plan_id":"free"},{"bike_id":"88cecc06-7045-4f65-84cd-ad7f1d903a5a","system_id":"levelo_inurba_marseille","lat":43.302773,"lon":5.377157,"is_reserved":false,"is_disabled":false,"rental_uris":{"android":"levelo://app?vid=88cecc06-7045-4f65-84cd-ad7f1d903a5a","ios":"levelo://app?vid=88cecc06-7045-4f65-84cd-ad7f1d903a5a"},"vehicle_type_id":"4","last_reported":1702627782,"current_range_meters":27200,"station_id":"ce4bguh2rcd13ifvqcj0","pricing_plan_id":"free"},{"bike_id":"efe4d24a-3c79-4456-8cf5-28f44dfd4210","system_id":"levelo_inurba_marseille","lat":43.30278,"lon":5.37719,"is_reserved":false,"is_disabled":false,"rental_uris":{"android":"levelo://app?vid=efe4d24a-3c79-4456-8cf5-28f44dfd4210","ios":"levelo://app?vid=efe4d24a-3c79-4456-8cf5-28f44dfd4210"},"vehicle_type_id":"4","last_reported":1702627782,"current_range_meters":20000,"station_id":"ce4bguh2rcd13ifvqcj0","pricing_plan_id":"free"},{"bike_id":"7f47e3a5-39ec-4f06-ac8f-75b30f7a869a","system_id":"levelo_inurba_marseille","lat":43.30145,"lon":5.37417,"is_reserved":false,"is_disabled":false,"rental_uris":{"android":"levelo://app?vid=7f47e3a5-39ec-4f06-ac8f-75b30f7a869a","ios":"levelo://app?vid=7f47e3a5-39ec-4f06-ac8f-75b30f7a869a"},"vehicle_type_id":"4","last_reported":1702627782,"current_range_meters":27200,"station_id":"ce4bgs92rcd13ifvqcc0","pricing_plan_id":"free"},{"bike_id":"db5e3a62-f2f4-4494-b87d-6fd3de6fc094","system_id":"levelo_inurba_marseille","lat":43.30143,"lon":5.37413,"is_reserved":false,"is_disabled":false,"rental_uris":{"android":"levelo://app?vid=db5e3a62-f2f4-4494-b87d-6fd3de6fc094","ios":"levelo://app?vid=db5e3a62-f2f4-4494-b87d-6fd3de6fc094"},"vehicle_type_id":"4","last_reported":1702627782,"current_range_meters":11600,"station_id":"ce4bgs92rcd13ifvqcc0","pricing_plan_id":"free"},{"bike_id":"0573dbd8-8b17-466f-9926-46423def20ce","system_id":"levelo_inurba_marseille","lat":43.30269,"lon":5.37718,"is_reserved":false,"is_disabled":false,"rental_uris":{"android":"levelo://app?vid=0573dbd8-8b17-466f-9926-46423def20ce","ios":"levelo://app?vid=0573dbd8-8b17-466f-9926-46423def20ce"},"vehicle_type_id":"4","last_reported":1702627782,"current_range_meters":800,"station_id":"ce4bguh2rcd13ifvqcj0","pricing_plan_id":"free"},{"bike_id":"59dc5dd1-a724-4f34-acf9-17eff8213f3c","system_id":"levelo_inurba_marseille","lat":43.301429,"lon":5.37413,"is_reserved":false,"is_disabled":false,"rental_uris":{"android":"levelo://app?vid=59dc5dd1-a724-4f34-acf9-17eff8213f3c","ios":"levelo://app?vid=59dc5dd1-a724-4f34-acf9-17eff8213f3c"},"vehicle_type_id":"4","last_reported":1702627782,"current_range_meters":29200,"station_id":"ce4bgs92rcd13ifvqcc0","pricing_plan_id":"free"},{"bike_id":"fdcd74e0-5fce-436e-805d-ade6ef010660","system_id":"levelo_inurba_marseille","lat":43.319935,"lon":5.381699,"is_reserved":false,"is_disabled":false,"rental_uris":{"android":"levelo://app?vid=fdcd74e0-5fce-436e-805d-ade6ef010660","ios":"levelo://app?vid=fdcd74e0-5fce-436e-805d-ade6ef010660"},"vehicle_type_id":"4","last_reported":1702627782,"current_range_meters":0,"station_id":"ce4bhr12rcd13ifvqhpg","pricing_plan_id":"free"},{"bike_id":"32a87be1-0e89-4500-b277-365104472c84","system_id":"levelo_inurba_marseille","lat":43.30143,"lon":5.37413,"is_reserved":false,"is_disabled":false,"rental_uris":{"android":"levelo://app?vid=32a87be1-0e89-4500-b277-365104472c84","ios":"levelo://app?vid=32a87be1-0e89-4500-b277-365104472c84"},"vehicle_type_id":"4","last_reported":1702627782,"current_range_meters":17600,"station_id":"ce4bgs92rcd13ifvqcc0","pricing_plan_id":"free"},{"bike_id":"16e2f880-50e3-4d0c-bda9-1811ed14ccac","system_id":"levelo_inurba_marseille","lat":43.299724,"lon":5.371829,"is_reserved":false,"is_disabled":false,"rental_uris":{"android":"levelo://app?vid=16e2f880-50e3-4d0c-bda9-1811ed14ccac","ios":"levelo://app?vid=16e2f880-50e3-4d0c-bda9-1811ed14ccac"},"vehicle_type_id":"4","last_reported":1702627782,"current_range_meters":24000,"station_id":"ce4bgr92rcd13ifvqc7g","pricing_plan_id":"free"},{"bike_id":"d5397892-03a4-40d3-8db8-ed83f9e28c45","system_id":"levelo_inurba_marseille","lat":43.299724,"lon":5.371829,"is_reserved":false,"is_disabled":false,"rental_uris":{"android":"levelo://app?vid=d5397892-03a4-40d3-8db8-ed83f9e28c45","ios":"levelo://app?vid=d5397892-03a4-40d3-8db8-ed83f9e28c45"},"vehicle_type_id":"4","last_reported":1702627782,"current_range_meters":22400,"station_id":"ce4bgr92rcd13ifvqc7g","pricing_plan_id":"free"},{"bike_id":"74c91466-1b45-4db0-9dd2-ba2fe8c6946c","system_id":"levelo_inurba_marseille","lat":43.29846,"lon":5.36272,"is_reserved":false,"is_disabled":false,"rental_uris":{"android":"levelo://app?vid=74c91466-1b45-4db0-9dd2-ba2fe8c6946c","ios":"levelo://app?vid=74c91466-1b45-4db0-9dd2-ba2fe8c6946c"},"vehicle_type_id":"4","last_reported":1702627782,"current_range_meters":23600,"station_id":"ce4bgpp2rcd13ifvqc3g","pricing_plan_id":"free"},{"bike_id":"e5ab0212-1b3e-40b5-a5e8-ef4be0bdaff2","system_id":"levelo_inurba_marseille","lat":43.298433,"lon":5.362774,"is_reserved":false,"is_disabled":false,"rental_uris":{"android":"levelo://app?vid=e5ab0212-1b3e-40b5-a5e8-ef4be0bdaff2","ios":"levelo://app?vid=e5ab0212-1b3e-40b5-a5e8-ef4be0bdaff2"},"vehicle_type_id":"4","last_reported":1702627782,"current_range_meters":27600,"station_id":"ce4bgpp2rcd13ifvqc3g","pricing_plan_id":"free"},{"bike_id":"b87a4e0f-1a02-4eaa-a872-96fdd0fd5c9f","system_id":"levelo_inurba_marseille","lat":43.299243,"lon":5.37481,"is_reserved":false,"is_disabled":false,"rental_uris":{"android":"levelo://app?vid=b87a4e0f-1a02-4eaa-a872-96fdd0fd5c9f","ios":"levelo://app?vid=b87a4e0f-1a02-4eaa-a872-96fdd0fd5c9f"},"vehicle_type_id":"4","last_reported":1702627782,"current_range_meters":12800,"station_id":"ce4bgjh2rcd13ifvqbg0","pricing_plan_id":"free"},{"bike_id":"e8416776-5809-4d8d-8244-11dbee1b6cd2","system_id":"levelo_inurba_marseille","lat":43.29909,"lon":5.3745,"is_reserved":false,"is_disabled":false,"rental_uris":{"android":"levelo://app?vid=e8416776-5809-4d8d-8244-11dbee1b6cd2","ios":"levelo://app?vid=e8416776-5809-4d8d-8244-11dbee1b6cd2"},"vehicle_type_id":"4","last_reported":1702627782,"current_range_meters":26000,"station_id":"ce4bgjh2rcd13ifvqbg0","pricing_plan_id":"free"},{"bike_id":"4877c2f3-50de-417e-9f37-66803650f97d","system_id":"levelo_inurba_marseille","lat":43.299243,"lon":5.374807,"is_reserved":false,"is_disabled":false,"rental_uris":{"android":"levelo://app?vid=4877c2f3-50de-417e-9f37-66803650f97d","ios":"levelo://app?vid=4877c2f3-50de-417e-9f37-66803650f97d"},"vehicle_type_id":"4","last_reported":1702627782,"current_range_meters":19600,"station_id":"ce4bgjh2rcd13ifvqbg0","pricing_plan_id":"free"},{"bike_id":"964d1280-699f-4f8b-beb1-52842bf2c3ab","system_id":"levelo_inurba_marseille","lat":43.315483,"lon":5.387424,"is_reserved":false,"is_disabled":false,"rental_uris":{"android":"levelo://app?vid=964d1280-699f-4f8b-beb1-52842bf2c3ab","ios":"levelo://app?vid=964d1280-699f-4f8b-beb1-52842bf2c3ab"},"vehicle_type_id":"4","last_reported":1702627782,"current_range_meters":30400,"station_id":"","pricing_plan_id":"free"},{"bike_id":"0eea8a30-88a6-46e7-9a8c-2c6a74a10c02","system_id":"levelo_inurba_marseille","lat":43.32331,"lon":5.38213,"is_reserved":false,"is_disabled":false,"rental_uris":{"android":"levelo://app?vid=0eea8a30-88a6-46e7-9a8c-2c6a74a10c02","ios":"levelo://app?vid=0eea8a30-88a6-46e7-9a8c-2c6a74a10c02"},"vehicle_type_id":"4","last_reported":1702627782,"current_range_meters":1200,"station_id":"","pricing_plan_id":"free"},{"bike_id":"54009a14-f96d-46cd-87dc-156aab800157","system_id":"levelo_inurba_marseille","lat":43.328371,"lon":5.366909,"is_reserved":false,"is_disabled":false,"rental_uris":{"android":"levelo://app?vid=54009a14-f96d-46cd-87dc-156aab800157","ios":"levelo://app?vid=54009a14-f96d-46cd-87dc-156aab800157"},"vehicle_type_id":"4","last_reported":1702627782,"current_range_meters":11200,"station_id":"ce4bhs92rcd13ifvqi0g","pricing_plan_id":"free"},{"bike_id":"2bad1c13-dacd-49f4-9782-8aab86012e46","system_id":"levelo_inurba_marseille","lat":43.297163,"lon":5.365866,"is_reserved":false,"is_disabled":false,"rental_uris":{"android":"levelo://app?vid=2bad1c13-dacd-49f4-9782-8aab86012e46","ios":"levelo://app?vid=2bad1c13-dacd-49f4-9782-8aab86012e46"},"vehicle_type_id":"4","last_reported":1702627782,"current_range_meters":26000,"station_id":"ce4bgn12rcd13ifvqbt0","pricing_plan_id":"free"},{"bike_id":"5b5e50df-722b-4228-8c9b-57965fcd073f","system_id":"levelo_inurba_marseille","lat":43.297079,"lon":5.366136,"is_reserved":false,"is_disabled":false,"rental_uris":{"android":"levelo://app?vid=5b5e50df-722b-4228-8c9b-57965fcd073f","ios":"levelo://app?vid=5b5e50df-722b-4228-8c9b-57965fcd073f"},"vehicle_type_id":"4","last_reported":1702627782,"current_range_meters":6000,"station_id":"","pricing_plan_id":"free"},{"bike_id":"545c024e-f12f-41fe-af0e-169042a502e6","system_id":"levelo_inurba_marseille","lat":43.309589,"lon":5.390258,"is_reserved":false,"is_disabled":false,"rental_uris":{"android":"levelo://app?vid=545c024e-f12f-41fe-af0e-169042a502e6","ios":"levelo://app?vid=545c024e-f12f-41fe-af0e-169042a502e6"},"vehicle_type_id":"4","last_reported":1702627782,"current_range_meters":7200,"station_id":"ce4bgup2rcd13ifvqco0","pricing_plan_id":"free"},{"bike_id":"5b4620ca-8f55-4f2f-b930-7b7171643418","system_id":"levelo_inurba_marseille","lat":43.309589,"lon":5.390258,"is_reserved":false,"is_disabled":false,"rental_uris":{"android":"levelo://app?vid=5b4620ca-8f55-4f2f-b930-7b7171643418","ios":"levelo://app?vid=5b4620ca-8f55-4f2f-b930-7b7171643418"},"vehicle_type_id":"4","last_reported":1702627782,"current_range_meters":3600,"station_id":"ce4bgup2rcd13ifvqco0","pricing_plan_id":"free"},{"bike_id":"502a9a77-8c0d-4335-a796-eb1a793b8809","system_id":"levelo_inurba_marseille","lat":43.299028,"lon":5.381509,"is_reserved":false,"is_disabled":false,"rental_uris":{"android":"levelo://app?vid=502a9a77-8c0d-4335-a796-eb1a793b8809","ios":"levelo://app?vid=502a9a77-8c0d-4335-a796-eb1a793b8809"},"vehicle_type_id":"4","last_reported":1702627782,"current_range_meters":27600,"station_id":"ce4bgj12rcd13ifvqbc0","pricing_plan_id":"free"},{"bike_id":"b824f801-c8b5-438f-b235-e33d9c551920","system_id":"levelo_inurba_marseille","lat":43.309589,"lon":5.390258,"is_reserved":false,"is_disabled":false,"rental_uris":{"android":"levelo://app?vid=b824f801-c8b5-438f-b235-e33d9c551920","ios":"levelo://app?vid=b824f801-c8b5-438f-b235-e33d9c551920"},"vehicle_type_id":"4","last_reported":1702627782,"current_range_meters":12800,"station_id":"ce4bgup2rcd13ifvqco0","pricing_plan_id":"free"},{"bike_id":"c1bbecf8-64ec-48a7-a04b-714748ebf783","system_id":"levelo_inurba_marseille","lat":43.309589,"lon":5.390258,"is_reserved":false,"is_disabled":false,"rental_uris":{"android":"levelo://app?vid=c1bbecf8-64ec-48a7-a04b-714748ebf783","ios":"levelo://app?vid=c1bbecf8-64ec-48a7-a04b-714748ebf783"},"vehicle_type_id":"4","last_reported":1702627782,"current_range_meters":26400,"station_id":"ce4bgup2rcd13ifvqco0","pricing_plan_id":"free"},{"bike_id":"88e10ae8-cad0-4aa0-9f96-2efce9340013","system_id":"levelo_inurba_marseille","lat":43.29807,"lon":5.38095,"is_reserved":false,"is_disabled":false,"rental_uris":{"android":"levelo://app?vid=88e10ae8-cad0-4aa0-9f96-2efce9340013","ios":"levelo://app?vid=88e10ae8-cad0-4aa0-9f96-2efce9340013"},"vehicle_type_id":"4","last_reported":1702627782,"current_range_meters":30400,"station_id":"","pricing_plan_id":"free"},{"bike_id":"298ebd5a-0299-4d1f-88cf-325b9cf61e26","system_id":"levelo_inurba_marseille","lat":43.32362,"lon":5.388796,"is_reserved":false,"is_disabled":false,"rental_uris":{"android":"levelo://app?vid=298ebd5a-0299-4d1f-88cf-325b9cf61e26","ios":"levelo://app?vid=298ebd5a-0299-4d1f-88cf-325b9cf61e26"},"vehicle_type_id":"4","last_reported":1702627782,"current_range_meters":5200,"station_id":"ce4bhqp2rcd13ifvqhog","pricing_plan_id":"free"},{"bike_id":"94798e76-5bc8-439a-bc7b-3ed36cdc1fa2","system_id":"levelo_inurba_marseille","lat":43.29601,"lon":5.381084,"is_reserved":false,"is_disabled":false,"rental_uris":{"android":"levelo://app?vid=94798e76-5bc8-439a-bc7b-3ed36cdc1fa2","ios":"levelo://app?vid=94798e76-5bc8-439a-bc7b-3ed36cdc1fa2"},"vehicle_type_id":"4","last_reported":1702627782,"current_range_meters":10400,"station_id":"ce4bgl12rcd13ifvqbo0","pricing_plan_id":"free"},{"bike_id":"e82f72cf-082b-4c22-9586-f6f782a50607","system_id":"levelo_inurba_marseille","lat":43.293259,"lon":5.371586,"is_reserved":false,"is_disabled":false,"rental_uris":{"android":"levelo://app?vid=e82f72cf-082b-4c22-9586-f6f782a50607","ios":"levelo://app?vid=e82f72cf-082b-4c22-9586-f6f782a50607"},"vehicle_type_id":"4","last_reported":1702627782,"current_range_meters":27200,"station_id":"ce4bgh92rcd13ifvqb40","pricing_plan_id":"free"},{"bike_id":"e2edcd2e-b657-4cbe-82a7-a378101e7fda","system_id":"levelo_inurba_marseille","lat":43.293009,"lon":5.374584,"is_reserved":false,"is_disabled":false,"rental_uris":{"android":"levelo://app?vid=e2edcd2e-b657-4cbe-82a7-a378101e7fda","ios":"levelo://app?vid=e2edcd2e-b657-4cbe-82a7-a378101e7fda"},"vehicle_type_id":"4","last_reported":1702627782,"current_range_meters":26000,"station_id":"ce4bgi12rcd13ifvqb70","pricing_plan_id":"free"},{"bike_id":"3512a19e-aaa1-4287-a92a-979036f40715","system_id":"levelo_inurba_marseille","lat":43.293009,"lon":5.374584,"is_reserved":false,"is_disabled":false,"rental_uris":{"android":"levelo://app?vid=3512a19e-aaa1-4287-a92a-979036f40715","ios":"levelo://app?vid=3512a19e-aaa1-4287-a92a-979036f40715"},"vehicle_type_id":"4","last_reported":1702627782,"current_range_meters":15600,"station_id":"ce4bgi12rcd13ifvqb70","pricing_plan_id":"free"},{"bike_id":"1784be05-4864-45f4-ae3e-a11d13cd3904","system_id":"levelo_inurba_marseille","lat":43.2936,"lon":5.37835,"is_reserved":false,"is_disabled":false,"rental_uris":{"android":"levelo://app?vid=1784be05-4864-45f4-ae3e-a11d13cd3904","ios":"levelo://app?vid=1784be05-4864-45f4-ae3e-a11d13cd3904"},"vehicle_type_id":"4","last_reported":1702627782,"current_range_meters":26400,"station_id":"ce4bgjh2rcd13ifvqbf0","pricing_plan_id":"free"},{"bike_id":"656df1a5-12d8-44fe-a6d5-d6816d83eebe","system_id":"levelo_inurba_marseille","lat":43.291671,"lon":5.371575,"is_reserved":false,"is_disabled":false,"rental_uris":{"android":"levelo://app?vid=656df1a5-12d8-44fe-a6d5-d6816d83eebe","ios":"levelo://app?vid=656df1a5-12d8-44fe-a6d5-d6816d83eebe"},"vehicle_type_id":"4","last_reported":1702627782,"current_range_meters":11200,"station_id":"ce4bha92rcd13ifvqeh0","pricing_plan_id":"free"},{"bike_id":"e177567d-88fb-4a74-8766-d1511c351028","system_id":"levelo_inurba_marseille","lat":43.29191,"lon":5.35807,"is_reserved":false,"is_disabled":false,"rental_uris":{"android":"levelo://app?vid=e177567d-88fb-4a74-8766-d1511c351028","ios":"levelo://app?vid=e177567d-88fb-4a74-8766-d1511c351028"},"vehicle_type_id":"4","last_reported":1702627782,"current_range_meters":3600,"station_id":"ce4bhb12rcd13ifvqel0","pricing_plan_id":"free"},{"bike_id":"ad14bf37-b8f0-4260-8e88-17861886382d","system_id":"levelo_inurba_marseille","lat":43.290779,"lon":5.371482,"is_reserved":false,"is_disabled":false,"rental_uris":{"android":"levelo://app?vid=ad14bf37-b8f0-4260-8e88-17861886382d","ios":"levelo://app?vid=ad14bf37-b8f0-4260-8e88-17861886382d"},"vehicle_type_id":"4","last_reported":1702627782,"current_range_meters":21600,"station_id":"ce4bh5p2rcd13ifvqe4g","pricing_plan_id":"free"},{"bike_id":"6ea20547-7695-41d9-b8eb-8da1dc4263ab","system_id":"levelo_inurba_marseille","lat":43.290327,"lon":5.375711,"is_reserved":false,"is_disabled":false,"rental_uris":{"android":"levelo://app?vid=6ea20547-7695-41d9-b8eb-8da1dc4263ab","ios":"levelo://app?vid=6ea20547-7695-41d9-b8eb-8da1dc4263ab"},"vehicle_type_id":"4","last_reported":1702627782,"current_range_meters":16400,"station_id":"ce4bh692rcd13ifvqe90","pricing_plan_id":"free"},{"bike_id":"3ee004a8-e7ef-4523-8006-53cb4bad1bfe","system_id":"levelo_inurba_marseille","lat":43.290104,"lon":5.356111,"is_reserved":false,"is_disabled":false,"rental_uris":{"android":"levelo://app?vid=3ee004a8-e7ef-4523-8006-53cb4bad1bfe","ios":"levelo://app?vid=3ee004a8-e7ef-4523-8006-53cb4bad1bfe"},"vehicle_type_id":"4","last_reported":1702627782,"current_range_meters":20800,"station_id":"ce4bhb92rcd13ifvqen0","pricing_plan_id":"free"},{"bike_id":"d11d2900-eda9-40a1-913d-709cf2942f67","system_id":"levelo_inurba_marseille","lat":43.290104,"lon":5.356111,"is_reserved":false,"is_disabled":false,"rental_uris":{"android":"levelo://app?vid=d11d2900-eda9-40a1-913d-709cf2942f67","ios":"levelo://app?vid=d11d2900-eda9-40a1-913d-709cf2942f67"},"vehicle_type_id":"4","last_reported":1702627782,"current_range_meters":26400,"station_id":"ce4bhb92rcd13ifvqen0","pricing_plan_id":"free"},{"bike_id":"899e046b-2fd8-4ea4-88f6-ab2791a1393a","system_id":"levelo_inurba_marseille","lat":43.290103,"lon":5.356114,"is_reserved":false,"is_disabled":false,"rental_uris":{"android":"levelo://app?vid=899e046b-2fd8-4ea4-88f6-ab2791a1393a","ios":"levelo://app?vid=899e046b-2fd8-4ea4-88f6-ab2791a1393a"},"vehicle_type_id":"4","last_reported":1702627782,"current_range_meters":30000,"station_id":"ce4bhb92rcd13ifvqen0","pricing_plan_id":"free"},{"bike_id":"4a39a0c6-e1dd-483a-94e8-cfa9d7bd5873","system_id":"levelo_inurba_marseille","lat":43.290104,"lon":5.356111,"is_reserved":false,"is_disabled":false,"rental_uris":{"android":"levelo://app?vid=4a39a0c6-e1dd-483a-94e8-cfa9d7bd5873","ios":"levelo://app?vid=4a39a0c6-e1dd-483a-94e8-cfa9d7bd5873"},"vehicle_type_id":"4","last_reported":1702627782,"current_range_meters":31200,"station_id":"ce4bhb92rcd13ifvqen0","pricing_plan_id":"free"},{"bike_id":"2c9d0dee-a286-4677-95cd-7a22d0d936af","system_id":"levelo_inurba_marseille","lat":43.290077,"lon":5.356193,"is_reserved":false,"is_disabled":false,"rental_uris":{"android":"levelo://app?vid=2c9d0dee-a286-4677-95cd-7a22d0d936af","ios":"levelo://app?vid=2c9d0dee-a286-4677-95cd-7a22d0d936af"},"vehicle_type_id":"4","last_reported":1702627782,"current_range_meters":25200,"station_id":"","pricing_plan_id":"free"},{"bike_id":"4c6156b1-8bc0-4181-81b6-86f59524a904","system_id":"levelo_inurba_marseille","lat":43.290062,"lon":5.356209,"is_reserved":false,"is_disabled":false,"rental_uris":{"android":"levelo://app?vid=4c6156b1-8bc0-4181-81b6-86f59524a904","ios":"levelo://app?vid=4c6156b1-8bc0-4181-81b6-86f59524a904"},"vehicle_type_id":"4","last_reported":1702627782,"current_range_meters":25200,"station_id":"","pricing_plan_id":"free"},{"bike_id":"277d707b-847f-4576-a0f4-bd431b978f2d","system_id":"levelo_inurba_marseille","lat":43.295169,"lon":5.390426,"is_reserved":false,"is_disabled":false,"rental_uris":{"android":"levelo://app?vid=277d707b-847f-4576-a0f4-bd431b978f2d","ios":"levelo://app?vid=277d707b-847f-4576-a0f4-bd431b978f2d"},"vehicle_type_id":"4","last_reported":1702627782,"current_range_meters":12400,"station_id":"ce4bh3p2rcd13ifvqdp0","pricing_plan_id":"free"},{"bike_id":"4f70777b-c241-4df9-a8b6-c31c195a618e","system_id":"levelo_inurba_marseille","lat":43.31266,"lon":5.40165,"is_reserved":false,"is_disabled":false,"rental_uris":{"android":"levelo://app?vid=4f70777b-c241-4df9-a8b6-c31c195a618e","ios":"levelo://app?vid=4f70777b-c241-4df9-a8b6-c31c195a618e"},"vehicle_type_id":"4","last_reported":1702627782,"current_range_meters":21600,"station_id":"ce4bh092rcd13ifvqd30","pricing_plan_id":"free"},{"bike_id":"cc5156e9-940f-4e6a-9baa-bb83048619bd","system_id":"levelo_inurba_marseille","lat":43.3376,"lon":5.374575,"is_reserved":false,"is_disabled":false,"rental_uris":{"android":"levelo://app?vid=cc5156e9-940f-4e6a-9baa-bb83048619bd","ios":"levelo://app?vid=cc5156e9-940f-4e6a-9baa-bb83048619bd"},"vehicle_type_id":"4","last_reported":1702627782,"current_range_meters":21200,"station_id":"","pricing_plan_id":"free"},{"bike_id":"930bba3a-4350-44cf-bb9b-310a6cbdb5ef","system_id":"levelo_inurba_marseille","lat":43.337606,"lon":5.374665,"is_reserved":false,"is_disabled":false,"rental_uris":{"android":"levelo://app?vid=930bba3a-4350-44cf-bb9b-310a6cbdb5ef","ios":"levelo://app?vid=930bba3a-4350-44cf-bb9b-310a6cbdb5ef"},"vehicle_type_id":"4","last_reported":1702627782,"current_range_meters":30800,"station_id":"","pricing_plan_id":"free"},{"bike_id":"fcb060b7-a9b3-42f7-9984-8cb96c0796ef","system_id":"levelo_inurba_marseille","lat":43.31688,"lon":5.40468,"is_reserved":false,"is_disabled":false,"rental_uris":{"android":"levelo://app?vid=fcb060b7-a9b3-42f7-9984-8cb96c0796ef","ios":"levelo://app?vid=fcb060b7-a9b3-42f7-9984-8cb96c0796ef"},"vehicle_type_id":"4","last_reported":1702627782,"current_range_meters":24000,"station_id":"ce4bh012rcd13ifvqd00","pricing_plan_id":"free"},{"bike_id":"3acbe5c6-6468-446a-903f-c5e4037630e9","system_id":"levelo_inurba_marseille","lat":43.31686,"lon":5.40471,"is_reserved":false,"is_disabled":false,"rental_uris":{"android":"levelo://app?vid=3acbe5c6-6468-446a-903f-c5e4037630e9","ios":"levelo://app?vid=3acbe5c6-6468-446a-903f-c5e4037630e9"},"vehicle_type_id":"4","last_reported":1702627782,"current_range_meters":19600,"station_id":"ce4bh012rcd13ifvqd00","pricing_plan_id":"free"},{"bike_id":"876f1b58-e2ab-4725-bbd7-ee2eaa632122","system_id":"levelo_inurba_marseille","lat":43.294314,"lon":5.397498,"is_reserved":false,"is_disabled":false,"rental_uris":{"android":"levelo://app?vid=876f1b58-e2ab-4725-bbd7-ee2eaa632122","ios":"levelo://app?vid=876f1b58-e2ab-4725-bbd7-ee2eaa632122"},"vehicle_type_id":"4","last_reported":1702627782,"current_range_meters":22000,"station_id":"ce4bh3h2rcd13ifvqdo0","pricing_plan_id":"free"},{"bike_id":"60217d9c-c3c4-40ba-bc8a-3a4849b2bf3b","system_id":"levelo_inurba_marseille","lat":43.283998,"lon":5.375062,"is_reserved":false,"is_disabled":false,"rental_uris":{"android":"levelo://app?vid=60217d9c-c3c4-40ba-bc8a-3a4849b2bf3b","ios":"levelo://app?vid=60217d9c-c3c4-40ba-bc8a-3a4849b2bf3b"},"vehicle_type_id":"4","last_reported":1702627782,"current_range_meters":29600,"station_id":"ce4bh412rcd13ifvqds0","pricing_plan_id":"free"},{"bike_id":"887ee581-f6c2-47ed-9f5e-d9275694bd82","system_id":"levelo_inurba_marseille","lat":43.295713,"lon":5.399639,"is_reserved":false,"is_disabled":false,"rental_uris":{"android":"levelo://app?vid=887ee581-f6c2-47ed-9f5e-d9275694bd82","ios":"levelo://app?vid=887ee581-f6c2-47ed-9f5e-d9275694bd82"},"vehicle_type_id":"4","last_reported":1702627782,"current_range_meters":31200,"station_id":"ce4bh312rcd13ifvqdj0","pricing_plan_id":"free"},{"bike_id":"2e0f20e7-b9d4-454e-aab9-e71b696b9545","system_id":"levelo_inurba_marseille","lat":43.286595,"lon":5.386795,"is_reserved":false,"is_disabled":false,"rental_uris":{"android":"levelo://app?vid=2e0f20e7-b9d4-454e-aab9-e71b696b9545","ios":"levelo://app?vid=2e0f20e7-b9d4-454e-aab9-e71b696b9545"},"vehicle_type_id":"4","last_reported":1702627782,"current_range_meters":13600,"station_id":"ce4bh492rcd13ifvqdug","pricing_plan_id":"free"},{"bike_id":"ccf80a34-893f-43ff-bccc-1bc2a7fbc5e8","system_id":"levelo_inurba_marseille","lat":43.319179,"lon":5.407725,"is_reserved":false,"is_disabled":false,"rental_uris":{"android":"levelo://app?vid=ccf80a34-893f-43ff-bccc-1bc2a7fbc5e8","ios":"levelo://app?vid=ccf80a34-893f-43ff-bccc-1bc2a7fbc5e8"},"vehicle_type_id":"4","last_reported":1702627782,"current_range_meters":19200,"station_id":"ce4bhq12rcd13ifvqhig","pricing_plan_id":"free"},{"bike_id":"1ab5cd54-43c0-49fa-a466-54df9f902037","system_id":"levelo_inurba_marseille","lat":43.323464,"lon":5.406297,"is_reserved":false,"is_disabled":false,"rental_uris":{"android":"levelo://app?vid=1ab5cd54-43c0-49fa-a466-54df9f902037","ios":"levelo://app?vid=1ab5cd54-43c0-49fa-a466-54df9f902037"},"vehicle_type_id":"4","last_reported":1702627782,"current_range_meters":31200,"station_id":"ce4bhq92rcd13ifvqhjg","pricing_plan_id":"free"},{"bike_id":"41f7c2ab-6ae9-416d-bdc9-69f9f84af943","system_id":"levelo_inurba_marseille","lat":43.323464,"lon":5.406297,"is_reserved":false,"is_disabled":false,"rental_uris":{"android":"levelo://app?vid=41f7c2ab-6ae9-416d-bdc9-69f9f84af943","ios":"levelo://app?vid=41f7c2ab-6ae9-416d-bdc9-69f9f84af943"},"vehicle_type_id":"4","last_reported":1702627782,"current_range_meters":31600,"station_id":"ce4bhq92rcd13ifvqhjg","pricing_plan_id":"free"},{"bike_id":"705f5f48-9a36-4b1d-9b2c-f39f9b70ff68","system_id":"levelo_inurba_marseille","lat":43.323464,"lon":5.406297,"is_reserved":false,"is_disabled":false,"rental_uris":{"android":"levelo://app?vid=705f5f48-9a36-4b1d-9b2c-f39f9b70ff68","ios":"levelo://app?vid=705f5f48-9a36-4b1d-9b2c-f39f9b70ff68"},"vehicle_type_id":"4","last_reported":1702627782,"current_range_meters":5600,"station_id":"ce4bhq92rcd13ifvqhjg","pricing_plan_id":"free"},{"bike_id":"712ad544-f83f-4a2f-a6b4-f8db753f5033","system_id":"levelo_inurba_marseille","lat":43.284793,"lon":5.384119,"is_reserved":false,"is_disabled":false,"rental_uris":{"android":"levelo://app?vid=712ad544-f83f-4a2f-a6b4-f8db753f5033","ios":"levelo://app?vid=712ad544-f83f-4a2f-a6b4-f8db753f5033"},"vehicle_type_id":"4","last_reported":1702627782,"current_range_meters":26000,"station_id":"ce4bh512rcd13ifvqe3g","pricing_plan_id":"free"},{"bike_id":"37940bcf-faae-47c5-a321-0247385058f9","system_id":"levelo_inurba_marseille","lat":43.282754,"lon":5.350519,"is_reserved":false,"is_disabled":false,"rental_uris":{"android":"levelo://app?vid=37940bcf-faae-47c5-a321-0247385058f9","ios":"levelo://app?vid=37940bcf-faae-47c5-a321-0247385058f9"},"vehicle_type_id":"4","last_reported":1702627782,"current_range_meters":24000,"station_id":"ce4bhbp2rcd13ifvqerg","pricing_plan_id":"free"},{"bike_id":"f79fb64b-bd06-47e0-8811-b4a85a156fce","system_id":"levelo_inurba_marseille","lat":43.281044,"lon":5.378308,"is_reserved":false,"is_disabled":false,"rental_uris":{"android":"levelo://app?vid=f79fb64b-bd06-47e0-8811-b4a85a156fce","ios":"levelo://app?vid=f79fb64b-bd06-47e0-8811-b4a85a156fce"},"vehicle_type_id":"4","last_reported":1702627782,"current_range_meters":26800,"station_id":"ce4bha12rcd13ifvqee0","pricing_plan_id":"free"},{"bike_id":"906d09ac-183c-4c69-9db6-274e5ab56127","system_id":"levelo_inurba_marseille","lat":43.28573,"lon":5.394992,"is_reserved":false,"is_disabled":false,"rental_uris":{"android":"levelo://app?vid=906d09ac-183c-4c69-9db6-274e5ab56127","ios":"levelo://app?vid=906d09ac-183c-4c69-9db6-274e5ab56127"},"vehicle_type_id":"4","last_reported":1702627782,"current_range_meters":20800,"station_id":"ce4bh292rcd13ifvqdg0","pricing_plan_id":"free"},{"bike_id":"a504b27d-6e8a-48d0-866f-304fb1963ec6","system_id":"levelo_inurba_marseille","lat":43.326616,"lon":5.409853,"is_reserved":false,"is_disabled":false,"rental_uris":{"android":"levelo://app?vid=a504b27d-6e8a-48d0-866f-304fb1963ec6","ios":"levelo://app?vid=a504b27d-6e8a-48d0-866f-304fb1963ec6"},"vehicle_type_id":"4","last_reported":1702627782,"current_range_meters":800,"station_id":"ce4bhpp2rcd13ifvqhgg","pricing_plan_id":"free"},{"bike_id":"d071dcd6-44bd-424a-b9df-a75622ff0e8a","system_id":"levelo_inurba_marseille","lat":43.3042,"lon":5.41276,"is_reserved":false,"is_disabled":false,"rental_uris":{"android":"levelo://app?vid=d071dcd6-44bd-424a-b9df-a75622ff0e8a","ios":"levelo://app?vid=d071dcd6-44bd-424a-b9df-a75622ff0e8a"},"vehicle_type_id":"4","last_reported":1702627782,"current_range_meters":26000,"station_id":"ce4bhop2rcd13ifvqh8g","pricing_plan_id":"free"},{"bike_id":"846dafa0-598f-4789-939c-acd53b4e0ffa","system_id":"levelo_inurba_marseille","lat":43.304188,"lon":5.412904,"is_reserved":false,"is_disabled":false,"rental_uris":{"android":"levelo://app?vid=846dafa0-598f-4789-939c-acd53b4e0ffa","ios":"levelo://app?vid=846dafa0-598f-4789-939c-acd53b4e0ffa"},"vehicle_type_id":"4","last_reported":1702627782,"current_range_meters":19200,"station_id":"ce4bhop2rcd13ifvqh8g","pricing_plan_id":"free"},{"bike_id":"a2db5b98-f7ff-445c-8bfc-006abb56b600","system_id":"levelo_inurba_marseille","lat":43.304188,"lon":5.412904,"is_reserved":false,"is_disabled":false,"rental_uris":{"android":"levelo://app?vid=a2db5b98-f7ff-445c-8bfc-006abb56b600","ios":"levelo://app?vid=a2db5b98-f7ff-445c-8bfc-006abb56b600"},"vehicle_type_id":"4","last_reported":1702627782,"current_range_meters":0,"station_id":"ce4bhop2rcd13ifvqh8g","pricing_plan_id":"free"},{"bike_id":"16e35e61-0d29-460d-a592-ee400d072ad7","system_id":"levelo_inurba_marseille","lat":43.30418,"lon":5.41287,"is_reserved":false,"is_disabled":false,"rental_uris":{"android":"levelo://app?vid=16e35e61-0d29-460d-a592-ee400d072ad7","ios":"levelo://app?vid=16e35e61-0d29-460d-a592-ee400d072ad7"},"vehicle_type_id":"4","last_reported":1702627782,"current_range_meters":23200,"station_id":"ce4bhop2rcd13ifvqh8g","pricing_plan_id":"free"},{"bike_id":"c99de67d-4722-47ad-9289-1378328c61a0","system_id":"levelo_inurba_marseille","lat":43.304188,"lon":5.412904,"is_reserved":false,"is_disabled":false,"rental_uris":{"android":"levelo://app?vid=c99de67d-4722-47ad-9289-1378328c61a0","ios":"levelo://app?vid=c99de67d-4722-47ad-9289-1378328c61a0"},"vehicle_type_id":"4","last_reported":1702627782,"current_range_meters":30800,"station_id":"ce4bhop2rcd13ifvqh8g","pricing_plan_id":"free"},{"bike_id":"157fe418-22e6-479e-a96d-7b5f7e6cf4bb","system_id":"levelo_inurba_marseille","lat":43.30415,"lon":5.412879,"is_reserved":false,"is_disabled":false,"rental_uris":{"android":"levelo://app?vid=157fe418-22e6-479e-a96d-7b5f7e6cf4bb","ios":"levelo://app?vid=157fe418-22e6-479e-a96d-7b5f7e6cf4bb"},"vehicle_type_id":"4","last_reported":1702627782,"current_range_meters":31200,"station_id":"ce4bhop2rcd13ifvqh8g","pricing_plan_id":"free"},{"bike_id":"8cabf520-42aa-4ba0-a318-3c82f05974c2","system_id":"levelo_inurba_marseille","lat":43.320045,"lon":5.415046,"is_reserved":false,"is_disabled":false,"rental_uris":{"android":"levelo://app?vid=8cabf520-42aa-4ba0-a318-3c82f05974c2","ios":"levelo://app?vid=8cabf520-42aa-4ba0-a318-3c82f05974c2"},"vehicle_type_id":"4","last_reported":1702627782,"current_range_meters":17200,"station_id":"ce4bhq92rcd13ifvqhkg","pricing_plan_id":"free"},{"bike_id":"36e59804-1d05-4077-ab77-7b8366f309af","system_id":"levelo_inurba_marseille","lat":43.299579,"lon":5.413255,"is_reserved":false,"is_disabled":false,"rental_uris":{"android":"levelo://app?vid=36e59804-1d05-4077-ab77-7b8366f309af","ios":"levelo://app?vid=36e59804-1d05-4077-ab77-7b8366f309af"},"vehicle_type_id":"4","last_reported":1702627782,"current_range_meters":29200,"station_id":"ce4bhp12rcd13ifvqh9g","pricing_plan_id":"free"},{"bike_id":"f20cc8b3-2651-49c7-95c5-be9c6e7d6503","system_id":"levelo_inurba_marseille","lat":43.299577,"lon":5.413277,"is_reserved":false,"is_disabled":false,"rental_uris":{"android":"levelo://app?vid=f20cc8b3-2651-49c7-95c5-be9c6e7d6503","ios":"levelo://app?vid=f20cc8b3-2651-49c7-95c5-be9c6e7d6503"},"vehicle_type_id":"4","last_reported":1702627782,"current_range_meters":28000,"station_id":"ce4bhp12rcd13ifvqh9g","pricing_plan_id":"free"},{"bike_id":"1efda5bc-8308-4b04-8a78-c9dbbc72d4fc","system_id":"levelo_inurba_marseille","lat":43.279742,"lon":5.38744,"is_reserved":false,"is_disabled":false,"rental_uris":{"android":"levelo://app?vid=1efda5bc-8308-4b04-8a78-c9dbbc72d4fc","ios":"levelo://app?vid=1efda5bc-8308-4b04-8a78-c9dbbc72d4fc"},"vehicle_type_id":"4","last_reported":1702627782,"current_range_meters":14800,"station_id":"ce4bhg12rcd13ifvqf80","pricing_plan_id":"free"},{"bike_id":"1a7251ba-9aef-4814-a6a3-e34accc7bbd7","system_id":"levelo_inurba_marseille","lat":43.279742,"lon":5.38744,"is_reserved":false,"is_disabled":false,"rental_uris":{"android":"levelo://app?vid=1a7251ba-9aef-4814-a6a3-e34accc7bbd7","ios":"levelo://app?vid=1a7251ba-9aef-4814-a6a3-e34accc7bbd7"},"vehicle_type_id":"4","last_reported":1702627782,"current_range_meters":24400,"station_id":"ce4bhg12rcd13ifvqf80","pricing_plan_id":"free"},{"bike_id":"da460447-23c3-4df0-b725-57a6cfaf5ee5","system_id":"levelo_inurba_marseille","lat":43.29255,"lon":5.40907,"is_reserved":false,"is_disabled":false,"rental_uris":{"android":"levelo://app?vid=da460447-23c3-4df0-b725-57a6cfaf5ee5","ios":"levelo://app?vid=da460447-23c3-4df0-b725-57a6cfaf5ee5"},"vehicle_type_id":"4","last_reported":1702627782,"current_range_meters":2800,"station_id":"ce4bh192rcd13ifvqdc0","pricing_plan_id":"free"},{"bike_id":"72da60ac-c4be-4e45-ba40-8b7f74c7f23d","system_id":"levelo_inurba_marseille","lat":43.325233,"lon":5.414318,"is_reserved":false,"is_disabled":false,"rental_uris":{"android":"levelo://app?vid=72da60ac-c4be-4e45-ba40-8b7f74c7f23d","ios":"levelo://app?vid=72da60ac-c4be-4e45-ba40-8b7f74c7f23d"},"vehicle_type_id":"4","last_reported":1702627782,"current_range_meters":28400,"station_id":"ce4bhq12rcd13ifvqhhg","pricing_plan_id":"free"},{"bike_id":"23f4836e-01ad-4fc8-8340-dac236f394c8","system_id":"levelo_inurba_marseille","lat":43.278401,"lon":5.392152,"is_reserved":false,"is_disabled":false,"rental_uris":{"android":"levelo://app?vid=23f4836e-01ad-4fc8-8340-dac236f394c8","ios":"levelo://app?vid=23f4836e-01ad-4fc8-8340-dac236f394c8"},"vehicle_type_id":"4","last_reported":1702627782,"current_range_meters":10000,"station_id":"ce4bhjp2rcd13ifvqga0","pricing_plan_id":"free"},{"bike_id":"98b1ea02-0ceb-4303-ac50-6ce24a7d6c07","system_id":"levelo_inurba_marseille","lat":43.336148,"lon":5.410349,"is_reserved":false,"is_disabled":false,"rental_uris":{"android":"levelo://app?vid=98b1ea02-0ceb-4303-ac50-6ce24a7d6c07","ios":"levelo://app?vid=98b1ea02-0ceb-4303-ac50-6ce24a7d6c07"},"vehicle_type_id":"4","last_reported":1702627782,"current_range_meters":27600,"station_id":"ce4bhqh2rcd13ifvqhmg","pricing_plan_id":"free"},{"bike_id":"9fef2ba0-7421-4cc4-bab5-a4d88e5d93f1","system_id":"levelo_inurba_marseille","lat":43.336134,"lon":5.410341,"is_reserved":false,"is_disabled":false,"rental_uris":{"android":"levelo://app?vid=9fef2ba0-7421-4cc4-bab5-a4d88e5d93f1","ios":"levelo://app?vid=9fef2ba0-7421-4cc4-bab5-a4d88e5d93f1"},"vehicle_type_id":"4","last_reported":1702627782,"current_range_meters":10000,"station_id":"ce4bhqh2rcd13ifvqhmg","pricing_plan_id":"free"},{"bike_id":"f066416d-8c59-48cd-8737-45b29e679cef","system_id":"levelo_inurba_marseille","lat":43.336148,"lon":5.410349,"is_reserved":false,"is_disabled":false,"rental_uris":{"android":"levelo://app?vid=f066416d-8c59-48cd-8737-45b29e679cef","ios":"levelo://app?vid=f066416d-8c59-48cd-8737-45b29e679cef"},"vehicle_type_id":"4","last_reported":1702627782,"current_range_meters":28400,"station_id":"ce4bhqh2rcd13ifvqhmg","pricing_plan_id":"free"},{"bike_id":"8dd7f3b2-fac2-4f40-8d56-9a0ca7caf5b3","system_id":"levelo_inurba_marseille","lat":43.32778,"lon":5.41804,"is_reserved":false,"is_disabled":false,"rental_uris":{"android":"levelo://app?vid=8dd7f3b2-fac2-4f40-8d56-9a0ca7caf5b3","ios":"levelo://app?vid=8dd7f3b2-fac2-4f40-8d56-9a0ca7caf5b3"},"vehicle_type_id":"4","last_reported":1702627782,"current_range_meters":8800,"station_id":"","pricing_plan_id":"free"},{"bike_id":"42480997-c2e6-46dd-835e-645a39cad71d","system_id":"levelo_inurba_marseille","lat":43.340804,"lon":5.410219,"is_reserved":false,"is_disabled":false,"rental_uris":{"android":"levelo://app?vid=42480997-c2e6-46dd-835e-645a39cad71d","ios":"levelo://app?vid=42480997-c2e6-46dd-835e-645a39cad71d"},"vehicle_type_id":"4","last_reported":1702627782,"current_range_meters":30400,"station_id":"ce4bhqh2rcd13ifvqhlg","pricing_plan_id":"free"},{"bike_id":"435c43fc-4889-44ab-9b05-535635f4a017","system_id":"levelo_inurba_marseille","lat":43.340804,"lon":5.410219,"is_reserved":false,"is_disabled":false,"rental_uris":{"android":"levelo://app?vid=435c43fc-4889-44ab-9b05-535635f4a017","ios":"levelo://app?vid=435c43fc-4889-44ab-9b05-535635f4a017"},"vehicle_type_id":"4","last_reported":1702627782,"current_range_meters":27200,"station_id":"ce4bhqh2rcd13ifvqhlg","pricing_plan_id":"free"},{"bike_id":"880892c9-46a8-4d00-a9cf-fafd7a519234","system_id":"levelo_inurba_marseille","lat":43.340804,"lon":5.410219,"is_reserved":false,"is_disabled":false,"rental_uris":{"android":"levelo://app?vid=880892c9-46a8-4d00-a9cf-fafd7a519234","ios":"levelo://app?vid=880892c9-46a8-4d00-a9cf-fafd7a519234"},"vehicle_type_id":"4","last_reported":1702627782,"current_range_meters":18800,"station_id":"ce4bhqh2rcd13ifvqhlg","pricing_plan_id":"free"},{"bike_id":"bef127eb-ad09-4148-acb9-c2e1f27e433e","system_id":"levelo_inurba_marseille","lat":43.340804,"lon":5.410219,"is_reserved":false,"is_disabled":false,"rental_uris":{"android":"levelo://app?vid=bef127eb-ad09-4148-acb9-c2e1f27e433e","ios":"levelo://app?vid=bef127eb-ad09-4148-acb9-c2e1f27e433e"},"vehicle_type_id":"4","last_reported":1702627782,"current_range_meters":22000,"station_id":"ce4bhqh2rcd13ifvqhlg","pricing_plan_id":"free"},{"bike_id":"3ca2c2d2-99b0-4aa6-a05d-e30f02e6a7fb","system_id":"levelo_inurba_marseille","lat":43.276092,"lon":5.395289,"is_reserved":false,"is_disabled":false,"rental_uris":{"android":"levelo://app?vid=3ca2c2d2-99b0-4aa6-a05d-e30f02e6a7fb","ios":"levelo://app?vid=3ca2c2d2-99b0-4aa6-a05d-e30f02e6a7fb"},"vehicle_type_id":"4","last_reported":1702627782,"current_range_meters":28400,"station_id":"","pricing_plan_id":"free"},{"bike_id":"aa0f8af4-4301-4cb6-9588-e2a05e699294","system_id":"levelo_inurba_marseille","lat":43.304184,"lon":5.425278,"is_reserved":false,"is_disabled":false,"rental_uris":{"android":"levelo://app?vid=aa0f8af4-4301-4cb6-9588-e2a05e699294","ios":"levelo://app?vid=aa0f8af4-4301-4cb6-9588-e2a05e699294"},"vehicle_type_id":"4","last_reported":1702627782,"current_range_meters":18400,"station_id":"ce4bhp92rcd13ifvqhcg","pricing_plan_id":"free"},{"bike_id":"3ee6b74b-5db0-4580-98a7-fc79a9e0df6a","system_id":"levelo_inurba_marseille","lat":43.304096,"lon":5.425385,"is_reserved":false,"is_disabled":false,"rental_uris":{"android":"levelo://app?vid=3ee6b74b-5db0-4580-98a7-fc79a9e0df6a","ios":"levelo://app?vid=3ee6b74b-5db0-4580-98a7-fc79a9e0df6a"},"vehicle_type_id":"4","last_reported":1702627782,"current_range_meters":21200,"station_id":"ce4bhoh2rcd13ifvqh6g","pricing_plan_id":"free"},{"bike_id":"5d3f594c-9b0e-418e-807f-31b01190d134","system_id":"levelo_inurba_marseille","lat":43.295523,"lon":5.422926,"is_reserved":false,"is_disabled":false,"rental_uris":{"android":"levelo://app?vid=5d3f594c-9b0e-418e-807f-31b01190d134","ios":"levelo://app?vid=5d3f594c-9b0e-418e-807f-31b01190d134"},"vehicle_type_id":"4","last_reported":1702627782,"current_range_meters":29200,"station_id":"ce4bhph2rcd13ifvqhdg","pricing_plan_id":"free"},{"bike_id":"94984fc3-6575-498f-bb52-e6c05e1c5e4b","system_id":"levelo_inurba_marseille","lat":43.295523,"lon":5.422926,"is_reserved":false,"is_disabled":false,"rental_uris":{"android":"levelo://app?vid=94984fc3-6575-498f-bb52-e6c05e1c5e4b","ios":"levelo://app?vid=94984fc3-6575-498f-bb52-e6c05e1c5e4b"},"vehicle_type_id":"4","last_reported":1702627782,"current_range_meters":22000,"station_id":"ce4bhph2rcd13ifvqhdg","pricing_plan_id":"free"},{"bike_id":"9128feaf-36b8-4e63-849f-ccc68f896dc0","system_id":"levelo_inurba_marseille","lat":43.295523,"lon":5.422926,"is_reserved":false,"is_disabled":false,"rental_uris":{"android":"levelo://app?vid=9128feaf-36b8-4e63-849f-ccc68f896dc0","ios":"levelo://app?vid=9128feaf-36b8-4e63-849f-ccc68f896dc0"},"vehicle_type_id":"4","last_reported":1702627782,"current_range_meters":31200,"station_id":"ce4bhph2rcd13ifvqhdg","pricing_plan_id":"free"},{"bike_id":"a389eb3a-22bd-48d7-922a-d466e9ddbd28","system_id":"levelo_inurba_marseille","lat":43.29557,"lon":5.42281,"is_reserved":false,"is_disabled":false,"rental_uris":{"android":"levelo://app?vid=a389eb3a-22bd-48d7-922a-d466e9ddbd28","ios":"levelo://app?vid=a389eb3a-22bd-48d7-922a-d466e9ddbd28"},"vehicle_type_id":"4","last_reported":1702627782,"current_range_meters":0,"station_id":"ce4bhph2rcd13ifvqhdg","pricing_plan_id":"free"},{"bike_id":"04b3d846-1da3-4e37-aa5f-d8bcc257dd52","system_id":"levelo_inurba_marseille","lat":43.27454,"lon":5.397335,"is_reserved":false,"is_disabled":false,"rental_uris":{"android":"levelo://app?vid=04b3d846-1da3-4e37-aa5f-d8bcc257dd52","ios":"levelo://app?vid=04b3d846-1da3-4e37-aa5f-d8bcc257dd52"},"vehicle_type_id":"4","last_reported":1702627782,"current_range_meters":0,"station_id":"","pricing_plan_id":"free"},{"bike_id":"44b5f216-a7b6-4c19-8600-d0fc7a6dee0a","system_id":"levelo_inurba_marseille","lat":43.295523,"lon":5.422926,"is_reserved":false,"is_disabled":false,"rental_uris":{"android":"levelo://app?vid=44b5f216-a7b6-4c19-8600-d0fc7a6dee0a","ios":"levelo://app?vid=44b5f216-a7b6-4c19-8600-d0fc7a6dee0a"},"vehicle_type_id":"4","last_reported":1702627782,"current_range_meters":24000,"station_id":"ce4bhph2rcd13ifvqhdg","pricing_plan_id":"free"},{"bike_id":"69f8ad0f-2459-47c5-93c3-15dea485ac8b","system_id":"levelo_inurba_marseille","lat":43.295523,"lon":5.422839,"is_reserved":false,"is_disabled":false,"rental_uris":{"android":"levelo://app?vid=69f8ad0f-2459-47c5-93c3-15dea485ac8b","ios":"levelo://app?vid=69f8ad0f-2459-47c5-93c3-15dea485ac8b"},"vehicle_type_id":"4","last_reported":1702627782,"current_range_meters":26400,"station_id":"ce4bhph2rcd13ifvqhdg","pricing_plan_id":"free"},{"bike_id":"a7863f6b-776e-4daa-b931-d7ecbe1a71ad","system_id":"levelo_inurba_marseille","lat":43.295531,"lon":5.422848,"is_reserved":false,"is_disabled":false,"rental_uris":{"android":"levelo://app?vid=a7863f6b-776e-4daa-b931-d7ecbe1a71ad","ios":"levelo://app?vid=a7863f6b-776e-4daa-b931-d7ecbe1a71ad"},"vehicle_type_id":"4","last_reported":1702627782,"current_range_meters":22400,"station_id":"ce4bhph2rcd13ifvqhdg","pricing_plan_id":"free"},{"bike_id":"1d2472e2-350f-44fa-a627-38e6bb5829da","system_id":"levelo_inurba_marseille","lat":43.295529,"lon":5.422861,"is_reserved":false,"is_disabled":false,"rental_uris":{"android":"levelo://app?vid=1d2472e2-350f-44fa-a627-38e6bb5829da","ios":"levelo://app?vid=1d2472e2-350f-44fa-a627-38e6bb5829da"},"vehicle_type_id":"4","last_reported":1702627782,"current_range_meters":24400,"station_id":"ce4bhph2rcd13ifvqhdg","pricing_plan_id":"free"},{"bike_id":"0fdd36e0-a97d-4931-83bd-dc41afbd80cb","system_id":"levelo_inurba_marseille","lat":43.29553,"lon":5.42288,"is_reserved":false,"is_disabled":false,"rental_uris":{"android":"levelo://app?vid=0fdd36e0-a97d-4931-83bd-dc41afbd80cb","ios":"levelo://app?vid=0fdd36e0-a97d-4931-83bd-dc41afbd80cb"},"vehicle_type_id":"4","last_reported":1702627782,"current_range_meters":26800,"station_id":"ce4bhph2rcd13ifvqhdg","pricing_plan_id":"free"},{"bike_id":"3a62acfa-47d9-4dd1-9c20-5dc7647a057b","system_id":"levelo_inurba_marseille","lat":43.29553,"lon":5.42292,"is_reserved":false,"is_disabled":false,"rental_uris":{"android":"levelo://app?vid=3a62acfa-47d9-4dd1-9c20-5dc7647a057b","ios":"levelo://app?vid=3a62acfa-47d9-4dd1-9c20-5dc7647a057b"},"vehicle_type_id":"4","last_reported":1702627782,"current_range_meters":12400,"station_id":"ce4bhph2rcd13ifvqhdg","pricing_plan_id":"free"},{"bike_id":"3c5e776b-3de3-4986-ab13-41c97b2f42c9","system_id":"levelo_inurba_marseille","lat":43.272116,"lon":5.391747,"is_reserved":false,"is_disabled":false,"rental_uris":{"android":"levelo://app?vid=3c5e776b-3de3-4986-ab13-41c97b2f42c9","ios":"levelo://app?vid=3c5e776b-3de3-4986-ab13-41c97b2f42c9"},"vehicle_type_id":"4","last_reported":1702627782,"current_range_meters":14400,"station_id":"ce4bhhp2rcd13ifvqfm0","pricing_plan_id":"free"},{"bike_id":"1b417dc1-ae3e-4da0-9afa-fdcf1107512a","system_id":"levelo_inurba_marseille","lat":43.27204,"lon":5.39191,"is_reserved":false,"is_disabled":false,"rental_uris":{"android":"levelo://app?vid=1b417dc1-ae3e-4da0-9afa-fdcf1107512a","ios":"levelo://app?vid=1b417dc1-ae3e-4da0-9afa-fdcf1107512a"},"vehicle_type_id":"4","last_reported":1702627782,"current_range_meters":29600,"station_id":"ce4bhhp2rcd13ifvqfm0","pricing_plan_id":"free"},{"bike_id":"744d0915-676f-445e-8051-ce5abddae6b8","system_id":"levelo_inurba_marseille","lat":43.278128,"lon":5.407195,"is_reserved":false,"is_disabled":false,"rental_uris":{"android":"levelo://app?vid=744d0915-676f-445e-8051-ce5abddae6b8","ios":"levelo://app?vid=744d0915-676f-445e-8051-ce5abddae6b8"},"vehicle_type_id":"4","last_reported":1702627782,"current_range_meters":30000,"station_id":"ce4bhnh2rcd13ifvqgtg","pricing_plan_id":"free"},{"bike_id":"fc10e7a2-ec87-4e2b-bf4a-451521878895","system_id":"levelo_inurba_marseille","lat":43.27813,"lon":5.40709,"is_reserved":false,"is_disabled":false,"rental_uris":{"android":"levelo://app?vid=fc10e7a2-ec87-4e2b-bf4a-451521878895","ios":"levelo://app?vid=fc10e7a2-ec87-4e2b-bf4a-451521878895"},"vehicle_type_id":"4","last_reported":1702627782,"current_range_meters":30800,"station_id":"ce4bhnh2rcd13ifvqgtg","pricing_plan_id":"free"},{"bike_id":"13136e7b-17d5-41a3-baf1-84312a187446","system_id":"levelo_inurba_marseille","lat":43.278128,"lon":5.407195,"is_reserved":false,"is_disabled":false,"rental_uris":{"android":"levelo://app?vid=13136e7b-17d5-41a3-baf1-84312a187446","ios":"levelo://app?vid=13136e7b-17d5-41a3-baf1-84312a187446"},"vehicle_type_id":"4","last_reported":1702627782,"current_range_meters":31200,"station_id":"ce4bhnh2rcd13ifvqgtg","pricing_plan_id":"free"},{"bike_id":"9295d241-3ede-4962-8e94-0b2831dbd578","system_id":"levelo_inurba_marseille","lat":43.27813,"lon":5.40712,"is_reserved":false,"is_disabled":false,"rental_uris":{"android":"levelo://app?vid=9295d241-3ede-4962-8e94-0b2831dbd578","ios":"levelo://app?vid=9295d241-3ede-4962-8e94-0b2831dbd578"},"vehicle_type_id":"4","last_reported":1702627782,"current_range_meters":31200,"station_id":"ce4bhnh2rcd13ifvqgtg","pricing_plan_id":"free"},{"bike_id":"9ed8a8b0-adcb-4301-a90b-ada718e24e35","system_id":"levelo_inurba_marseille","lat":43.278128,"lon":5.407195,"is_reserved":false,"is_disabled":false,"rental_uris":{"android":"levelo://app?vid=9ed8a8b0-adcb-4301-a90b-ada718e24e35","ios":"levelo://app?vid=9ed8a8b0-adcb-4301-a90b-ada718e24e35"},"vehicle_type_id":"4","last_reported":1702627782,"current_range_meters":28000,"station_id":"ce4bhnh2rcd13ifvqgtg","pricing_plan_id":"free"},{"bike_id":"aaf0a2da-6559-483e-b877-95aab8f7a9d9","system_id":"levelo_inurba_marseille","lat":43.27816,"lon":5.4072,"is_reserved":false,"is_disabled":false,"rental_uris":{"android":"levelo://app?vid=aaf0a2da-6559-483e-b877-95aab8f7a9d9","ios":"levelo://app?vid=aaf0a2da-6559-483e-b877-95aab8f7a9d9"},"vehicle_type_id":"4","last_reported":1702627782,"current_range_meters":23200,"station_id":"ce4bhnh2rcd13ifvqgtg","pricing_plan_id":"free"},{"bike_id":"6baecf9e-750f-4685-ba33-d33fd9cbfd22","system_id":"levelo_inurba_marseille","lat":43.278128,"lon":5.407195,"is_reserved":false,"is_disabled":false,"rental_uris":{"android":"levelo://app?vid=6baecf9e-750f-4685-ba33-d33fd9cbfd22","ios":"levelo://app?vid=6baecf9e-750f-4685-ba33-d33fd9cbfd22"},"vehicle_type_id":"4","last_reported":1702627782,"current_range_meters":30800,"station_id":"ce4bhnh2rcd13ifvqgtg","pricing_plan_id":"free"},{"bike_id":"99672b23-a5b6-4be4-9c79-7ddffd972fd5","system_id":"levelo_inurba_marseille","lat":43.278128,"lon":5.407195,"is_reserved":false,"is_disabled":false,"rental_uris":{"android":"levelo://app?vid=99672b23-a5b6-4be4-9c79-7ddffd972fd5","ios":"levelo://app?vid=99672b23-a5b6-4be4-9c79-7ddffd972fd5"},"vehicle_type_id":"4","last_reported":1702627782,"current_range_meters":30400,"station_id":"ce4bhnh2rcd13ifvqgtg","pricing_plan_id":"free"},{"bike_id":"06662d04-a66b-4f91-8a9c-6c65e2c5c5c5","system_id":"levelo_inurba_marseille","lat":43.269467,"lon":5.386439,"is_reserved":false,"is_disabled":false,"rental_uris":{"android":"levelo://app?vid=06662d04-a66b-4f91-8a9c-6c65e2c5c5c5","ios":"levelo://app?vid=06662d04-a66b-4f91-8a9c-6c65e2c5c5c5"},"vehicle_type_id":"4","last_reported":1702627782,"current_range_meters":27200,"station_id":"ce4bhh92rcd13ifvqfh0","pricing_plan_id":"free"},{"bike_id":"a4b7fddf-6322-4586-bc30-ce6b7b6f550b","system_id":"levelo_inurba_marseille","lat":43.269467,"lon":5.386439,"is_reserved":false,"is_disabled":false,"rental_uris":{"android":"levelo://app?vid=a4b7fddf-6322-4586-bc30-ce6b7b6f550b","ios":"levelo://app?vid=a4b7fddf-6322-4586-bc30-ce6b7b6f550b"},"vehicle_type_id":"4","last_reported":1702627782,"current_range_meters":19600,"station_id":"ce4bhh92rcd13ifvqfh0","pricing_plan_id":"free"},{"bike_id":"a25b5c9a-b4b5-458d-9db3-e572c7d57067","system_id":"levelo_inurba_marseille","lat":43.269467,"lon":5.386439,"is_reserved":false,"is_disabled":false,"rental_uris":{"android":"levelo://app?vid=a25b5c9a-b4b5-458d-9db3-e572c7d57067","ios":"levelo://app?vid=a25b5c9a-b4b5-458d-9db3-e572c7d57067"},"vehicle_type_id":"4","last_reported":1702627782,"current_range_meters":24800,"station_id":"ce4bhh92rcd13ifvqfh0","pricing_plan_id":"free"},{"bike_id":"76cc33b1-f4ee-42ff-bc97-311a175184c3","system_id":"levelo_inurba_marseille","lat":43.27948,"lon":5.41042,"is_reserved":false,"is_disabled":false,"rental_uris":{"android":"levelo://app?vid=76cc33b1-f4ee-42ff-bc97-311a175184c3","ios":"levelo://app?vid=76cc33b1-f4ee-42ff-bc97-311a175184c3"},"vehicle_type_id":"4","last_reported":1702627782,"current_range_meters":30800,"station_id":"ce4bhnp2rcd13ifvqh0g","pricing_plan_id":"free"},{"bike_id":"f56d1639-c75a-49ae-a824-dcf5718915ab","system_id":"levelo_inurba_marseille","lat":43.279465,"lon":5.410561,"is_reserved":false,"is_disabled":false,"rental_uris":{"android":"levelo://app?vid=f56d1639-c75a-49ae-a824-dcf5718915ab","ios":"levelo://app?vid=f56d1639-c75a-49ae-a824-dcf5718915ab"},"vehicle_type_id":"4","last_reported":1702627782,"current_range_meters":20400,"station_id":"ce4bhnp2rcd13ifvqh0g","pricing_plan_id":"free"},{"bike_id":"0650813a-e71b-48fe-b621-fedb00b0f8f5","system_id":"levelo_inurba_marseille","lat":43.26681,"lon":5.382694,"is_reserved":false,"is_disabled":false,"rental_uris":{"android":"levelo://app?vid=0650813a-e71b-48fe-b621-fedb00b0f8f5","ios":"levelo://app?vid=0650813a-e71b-48fe-b621-fedb00b0f8f5"},"vehicle_type_id":"4","last_reported":1702627782,"current_range_meters":19200,"station_id":"ce4bhg92rcd13ifvqf90","pricing_plan_id":"free"},{"bike_id":"eb6ccbee-ab6a-4e74-adda-2871950dfeb7","system_id":"levelo_inurba_marseille","lat":43.26681,"lon":5.382694,"is_reserved":false,"is_disabled":false,"rental_uris":{"android":"levelo://app?vid=eb6ccbee-ab6a-4e74-adda-2871950dfeb7","ios":"levelo://app?vid=eb6ccbee-ab6a-4e74-adda-2871950dfeb7"},"vehicle_type_id":"4","last_reported":1702627782,"current_range_meters":21200,"station_id":"ce4bhg92rcd13ifvqf90","pricing_plan_id":"free"},{"bike_id":"829307dd-9e44-449a-bf7d-95a9170e4219","system_id":"levelo_inurba_marseille","lat":43.26681,"lon":5.382694,"is_reserved":false,"is_disabled":false,"rental_uris":{"android":"levelo://app?vid=829307dd-9e44-449a-bf7d-95a9170e4219","ios":"levelo://app?vid=829307dd-9e44-449a-bf7d-95a9170e4219"},"vehicle_type_id":"4","last_reported":1702627782,"current_range_meters":5200,"station_id":"ce4bhg92rcd13ifvqf90","pricing_plan_id":"free"},{"bike_id":"e8e248da-6af5-4b0e-8934-ed8721777e5c","system_id":"levelo_inurba_marseille","lat":43.26681,"lon":5.382694,"is_reserved":false,"is_disabled":false,"rental_uris":{"android":"levelo://app?vid=e8e248da-6af5-4b0e-8934-ed8721777e5c","ios":"levelo://app?vid=e8e248da-6af5-4b0e-8934-ed8721777e5c"},"vehicle_type_id":"4","last_reported":1702627782,"current_range_meters":24400,"station_id":"ce4bhg92rcd13ifvqf90","pricing_plan_id":"free"},{"bike_id":"233e4d84-6e5c-4e53-ae5b-241ab43f5062","system_id":"levelo_inurba_marseille","lat":43.268194,"lon":5.389231,"is_reserved":false,"is_disabled":false,"rental_uris":{"android":"levelo://app?vid=233e4d84-6e5c-4e53-ae5b-241ab43f5062","ios":"levelo://app?vid=233e4d84-6e5c-4e53-ae5b-241ab43f5062"},"vehicle_type_id":"4","last_reported":1702627782,"current_range_meters":4800,"station_id":"","pricing_plan_id":"free"},{"bike_id":"bcbedf1b-83ff-489c-86dd-65f1f37a8571","system_id":"levelo_inurba_marseille","lat":43.285265,"lon":5.42357,"is_reserved":false,"is_disabled":false,"rental_uris":{"android":"levelo://app?vid=bcbedf1b-83ff-489c-86dd-65f1f37a8571","ios":"levelo://app?vid=bcbedf1b-83ff-489c-86dd-65f1f37a8571"},"vehicle_type_id":"4","last_reported":1702627782,"current_range_meters":18400,"station_id":"ce4bhn92rcd13ifvqgrg","pricing_plan_id":"free"},{"bike_id":"99c0e4cc-6f87-4416-b5b9-5fc02b5b8c59","system_id":"levelo_inurba_marseille","lat":43.308051,"lon":5.43527,"is_reserved":false,"is_disabled":false,"rental_uris":{"android":"levelo://app?vid=99c0e4cc-6f87-4416-b5b9-5fc02b5b8c59","ios":"levelo://app?vid=99c0e4cc-6f87-4416-b5b9-5fc02b5b8c59"},"vehicle_type_id":"4","last_reported":1702627782,"current_range_meters":10000,"station_id":"ce4bhph2rcd13ifvqheg","pricing_plan_id":"free"},{"bike_id":"b3b508fa-0568-42e6-b5e4-8ee7f100ce44","system_id":"levelo_inurba_marseille","lat":43.265684,"lon":5.390084,"is_reserved":false,"is_disabled":false,"rental_uris":{"android":"levelo://app?vid=b3b508fa-0568-42e6-b5e4-8ee7f100ce44","ios":"levelo://app?vid=b3b508fa-0568-42e6-b5e4-8ee7f100ce44"},"vehicle_type_id":"4","last_reported":1702627782,"current_range_meters":22400,"station_id":"ce4bhe12rcd13ifvqf30","pricing_plan_id":"free"},{"bike_id":"e1e5d341-4781-449a-b316-4d7519b7d553","system_id":"levelo_inurba_marseille","lat":43.265569,"lon":5.390047,"is_reserved":false,"is_disabled":false,"rental_uris":{"android":"levelo://app?vid=e1e5d341-4781-449a-b316-4d7519b7d553","ios":"levelo://app?vid=e1e5d341-4781-449a-b316-4d7519b7d553"},"vehicle_type_id":"4","last_reported":1702627782,"current_range_meters":30000,"station_id":"ce4bhe12rcd13ifvqf30","pricing_plan_id":"free"},{"bike_id":"58b7ffe3-528d-4a0b-8000-38f813ae35b3","system_id":"levelo_inurba_marseille","lat":43.317104,"lon":5.436818,"is_reserved":false,"is_disabled":false,"rental_uris":{"android":"levelo://app?vid=58b7ffe3-528d-4a0b-8000-38f813ae35b3","ios":"levelo://app?vid=58b7ffe3-528d-4a0b-8000-38f813ae35b3"},"vehicle_type_id":"4","last_reported":1702627782,"current_range_meters":31200,"station_id":"ce4bhp92rcd13ifvqhcg","pricing_plan_id":"free"},{"bike_id":"dcd51afc-e0ea-40ce-a3ed-c5c9a2a1a2ae","system_id":"levelo_inurba_marseille","lat":43.317104,"lon":5.436818,"is_reserved":false,"is_disabled":false,"rental_uris":{"android":"levelo://app?vid=dcd51afc-e0ea-40ce-a3ed-c5c9a2a1a2ae","ios":"levelo://app?vid=dcd51afc-e0ea-40ce-a3ed-c5c9a2a1a2ae"},"vehicle_type_id":"4","last_reported":1702627782,"current_range_meters":29600,"station_id":"ce4bhp92rcd13ifvqhcg","pricing_plan_id":"free"},{"bike_id":"c9747a60-ad15-46e4-b223-6a5b8bc5652a","system_id":"levelo_inurba_marseille","lat":43.262012,"lon":5.379307,"is_reserved":false,"is_disabled":false,"rental_uris":{"android":"levelo://app?vid=c9747a60-ad15-46e4-b223-6a5b8bc5652a","ios":"levelo://app?vid=c9747a60-ad15-46e4-b223-6a5b8bc5652a"},"vehicle_type_id":"4","last_reported":1702627782,"current_range_meters":18800,"station_id":"ce4bhjp2rcd13ifvqg90","pricing_plan_id":"free"},{"bike_id":"0b845d98-c765-4efc-b889-4fab1bce0ade","system_id":"levelo_inurba_marseille","lat":43.26202,"lon":5.379299,"is_reserved":false,"is_disabled":false,"rental_uris":{"android":"levelo://app?vid=0b845d98-c765-4efc-b889-4fab1bce0ade","ios":"levelo://app?vid=0b845d98-c765-4efc-b889-4fab1bce0ade"},"vehicle_type_id":"4","last_reported":1702627782,"current_range_meters":22800,"station_id":"ce4bhjp2rcd13ifvqg90","pricing_plan_id":"free"},{"bike_id":"4510633c-6100-41ad-9855-e4f0def2a04e","system_id":"levelo_inurba_marseille","lat":43.299011,"lon":5.43665,"is_reserved":false,"is_disabled":false,"rental_uris":{"android":"levelo://app?vid=4510633c-6100-41ad-9855-e4f0def2a04e","ios":"levelo://app?vid=4510633c-6100-41ad-9855-e4f0def2a04e"},"vehicle_type_id":"4","last_reported":1702627782,"current_range_meters":20800,"station_id":"ce4bhpp2rcd13ifvqhfg","pricing_plan_id":"free"},{"bike_id":"bbd17705-55dd-4eee-bd6c-f4dc4f125738","system_id":"levelo_inurba_marseille","lat":43.260219,"lon":5.37546,"is_reserved":false,"is_disabled":false,"rental_uris":{"android":"levelo://app?vid=bbd17705-55dd-4eee-bd6c-f4dc4f125738","ios":"levelo://app?vid=bbd17705-55dd-4eee-bd6c-f4dc4f125738"},"vehicle_type_id":"4","last_reported":1702627782,"current_range_meters":22400,"station_id":"ce4bhgh2rcd13ifvqfa0","pricing_plan_id":"free"},{"bike_id":"281cc086-7c8f-44e0-abbe-0ddc559b2c6b","system_id":"levelo_inurba_marseille","lat":43.281548,"lon":5.42643,"is_reserved":false,"is_disabled":false,"rental_uris":{"android":"levelo://app?vid=281cc086-7c8f-44e0-abbe-0ddc559b2c6b","ios":"levelo://app?vid=281cc086-7c8f-44e0-abbe-0ddc559b2c6b"},"vehicle_type_id":"4","last_reported":1702627782,"current_range_meters":27200,"station_id":"ce4bhnh2rcd13ifvqgug","pricing_plan_id":"free"},{"bike_id":"58480613-cc73-4361-9d94-04f619291aaf","system_id":"levelo_inurba_marseille","lat":43.281548,"lon":5.42643,"is_reserved":false,"is_disabled":false,"rental_uris":{"android":"levelo://app?vid=58480613-cc73-4361-9d94-04f619291aaf","ios":"levelo://app?vid=58480613-cc73-4361-9d94-04f619291aaf"},"vehicle_type_id":"4","last_reported":1702627782,"current_range_meters":22000,"station_id":"ce4bhnh2rcd13ifvqgug","pricing_plan_id":"free"},{"bike_id":"47c09f4d-b026-488b-88bd-d86fe61e55ad","system_id":"levelo_inurba_marseille","lat":43.281548,"lon":5.42643,"is_reserved":false,"is_disabled":false,"rental_uris":{"android":"levelo://app?vid=47c09f4d-b026-488b-88bd-d86fe61e55ad","ios":"levelo://app?vid=47c09f4d-b026-488b-88bd-d86fe61e55ad"},"vehicle_type_id":"4","last_reported":1702627782,"current_range_meters":31200,"station_id":"ce4bhnh2rcd13ifvqgug","pricing_plan_id":"free"},{"bike_id":"c6ad59c2-72b2-4f1b-a631-10cc0955876a","system_id":"levelo_inurba_marseille","lat":43.281548,"lon":5.42643,"is_reserved":false,"is_disabled":false,"rental_uris":{"android":"levelo://app?vid=c6ad59c2-72b2-4f1b-a631-10cc0955876a","ios":"levelo://app?vid=c6ad59c2-72b2-4f1b-a631-10cc0955876a"},"vehicle_type_id":"4","last_reported":1702627782,"current_range_meters":26400,"station_id":"ce4bhnh2rcd13ifvqgug","pricing_plan_id":"free"},{"bike_id":"e1a4e7f2-d6c9-431f-9be0-2c76848eb849","system_id":"levelo_inurba_marseille","lat":43.281548,"lon":5.42643,"is_reserved":false,"is_disabled":false,"rental_uris":{"android":"levelo://app?vid=e1a4e7f2-d6c9-431f-9be0-2c76848eb849","ios":"levelo://app?vid=e1a4e7f2-d6c9-431f-9be0-2c76848eb849"},"vehicle_type_id":"4","last_reported":1702627782,"current_range_meters":30000,"station_id":"ce4bhnh2rcd13ifvqgug","pricing_plan_id":"free"},{"bike_id":"6aa362c8-9a46-458b-813a-b9a7fee51c49","system_id":"levelo_inurba_marseille","lat":43.275028,"lon":5.424534,"is_reserved":false,"is_disabled":false,"rental_uris":{"android":"levelo://app?vid=6aa362c8-9a46-458b-813a-b9a7fee51c49","ios":"levelo://app?vid=6aa362c8-9a46-458b-813a-b9a7fee51c49"},"vehicle_type_id":"4","last_reported":1702627782,"current_range_meters":28000,"station_id":"ce4bhn92rcd13ifvqgrg","pricing_plan_id":"free"},{"bike_id":"9e66cd7f-9609-47c0-80d4-664c070fb529","system_id":"levelo_inurba_marseille","lat":43.2607,"lon":5.393983,"is_reserved":false,"is_disabled":false,"rental_uris":{"android":"levelo://app?vid=9e66cd7f-9609-47c0-80d4-664c070fb529","ios":"levelo://app?vid=9e66cd7f-9609-47c0-80d4-664c070fb529"},"vehicle_type_id":"4","last_reported":1702627782,"current_range_meters":31200,"station_id":"ce4bhh92rcd13ifvqfj0","pricing_plan_id":"free"},{"bike_id":"1cb60a24-c2be-43f6-9a9b-c8b6a5d9e10f","system_id":"levelo_inurba_marseille","lat":43.2607,"lon":5.393983,"is_reserved":false,"is_disabled":false,"rental_uris":{"android":"levelo://app?vid=1cb60a24-c2be-43f6-9a9b-c8b6a5d9e10f","ios":"levelo://app?vid=1cb60a24-c2be-43f6-9a9b-c8b6a5d9e10f"},"vehicle_type_id":"4","last_reported":1702627782,"current_range_meters":31200,"station_id":"ce4bhh92rcd13ifvqfj0","pricing_plan_id":"free"},{"bike_id":"5a7aad06-a599-40eb-87c0-e5cd41ac6735","system_id":"levelo_inurba_marseille","lat":43.260539,"lon":5.394015,"is_reserved":false,"is_disabled":false,"rental_uris":{"android":"levelo://app?vid=5a7aad06-a599-40eb-87c0-e5cd41ac6735","ios":"levelo://app?vid=5a7aad06-a599-40eb-87c0-e5cd41ac6735"},"vehicle_type_id":"4","last_reported":1702627782,"current_range_meters":23200,"station_id":"","pricing_plan_id":"free"},{"bike_id":"61759779-3102-4335-85bb-471201d8436f","system_id":"levelo_inurba_marseille","lat":43.275028,"lon":5.424534,"is_reserved":false,"is_disabled":false,"rental_uris":{"android":"levelo://app?vid=61759779-3102-4335-85bb-471201d8436f","ios":"levelo://app?vid=61759779-3102-4335-85bb-471201d8436f"},"vehicle_type_id":"4","last_reported":1702627782,"current_range_meters":26800,"station_id":"ce4bhn92rcd13ifvqgrg","pricing_plan_id":"free"},{"bike_id":"6b439d36-410c-4b80-ad9e-8b4f882cb7c1","system_id":"levelo_inurba_marseille","lat":43.27499,"lon":5.42448,"is_reserved":false,"is_disabled":false,"rental_uris":{"android":"levelo://app?vid=6b439d36-410c-4b80-ad9e-8b4f882cb7c1","ios":"levelo://app?vid=6b439d36-410c-4b80-ad9e-8b4f882cb7c1"},"vehicle_type_id":"4","last_reported":1702627782,"current_range_meters":20400,"station_id":"ce4bhn92rcd13ifvqgrg","pricing_plan_id":"free"},{"bike_id":"7f1d355d-d0e0-455c-acdb-1d3fb2975bf5","system_id":"levelo_inurba_marseille","lat":43.275028,"lon":5.424534,"is_reserved":false,"is_disabled":false,"rental_uris":{"android":"levelo://app?vid=7f1d355d-d0e0-455c-acdb-1d3fb2975bf5","ios":"levelo://app?vid=7f1d355d-d0e0-455c-acdb-1d3fb2975bf5"},"vehicle_type_id":"4","last_reported":1702627782,"current_range_meters":22400,"station_id":"ce4bhn92rcd13ifvqgrg","pricing_plan_id":"free"},{"bike_id":"af6bc09a-5c6d-4955-b057-42d5653b1f8c","system_id":"levelo_inurba_marseille","lat":43.275028,"lon":5.424534,"is_reserved":false,"is_disabled":false,"rental_uris":{"android":"levelo://app?vid=af6bc09a-5c6d-4955-b057-42d5653b1f8c","ios":"levelo://app?vid=af6bc09a-5c6d-4955-b057-42d5653b1f8c"},"vehicle_type_id":"4","last_reported":1702627782,"current_range_meters":20800,"station_id":"ce4bhn92rcd13ifvqgrg","pricing_plan_id":"free"},{"bike_id":"7a3b8a2b-9eaf-4ce3-9206-95378878fe92","system_id":"levelo_inurba_marseille","lat":43.275028,"lon":5.424534,"is_reserved":false,"is_disabled":false,"rental_uris":{"android":"levelo://app?vid=7a3b8a2b-9eaf-4ce3-9206-95378878fe92","ios":"levelo://app?vid=7a3b8a2b-9eaf-4ce3-9206-95378878fe92"},"vehicle_type_id":"4","last_reported":1702627782,"current_range_meters":30400,"station_id":"ce4bhn92rcd13ifvqgrg","pricing_plan_id":"free"},{"bike_id":"8eb11b68-350f-4238-9580-eb2604e67bf8","system_id":"levelo_inurba_marseille","lat":43.275028,"lon":5.424534,"is_reserved":false,"is_disabled":false,"rental_uris":{"android":"levelo://app?vid=8eb11b68-350f-4238-9580-eb2604e67bf8","ios":"levelo://app?vid=8eb11b68-350f-4238-9580-eb2604e67bf8"},"vehicle_type_id":"4","last_reported":1702627782,"current_range_meters":10400,"station_id":"ce4bhn92rcd13ifvqgrg","pricing_plan_id":"free"},{"bike_id":"786ce9a3-131e-40d4-85f8-31d935c8c652","system_id":"levelo_inurba_marseille","lat":43.275028,"lon":5.424534,"is_reserved":false,"is_disabled":false,"rental_uris":{"android":"levelo://app?vid=786ce9a3-131e-40d4-85f8-31d935c8c652","ios":"levelo://app?vid=786ce9a3-131e-40d4-85f8-31d935c8c652"},"vehicle_type_id":"4","last_reported":1702627782,"current_range_meters":26400,"station_id":"ce4bhn92rcd13ifvqgrg","pricing_plan_id":"free"},{"bike_id":"50c47490-41fa-4dea-ad5f-eaaa77656fe5","system_id":"levelo_inurba_marseille","lat":43.27497,"lon":5.42451,"is_reserved":false,"is_disabled":false,"rental_uris":{"android":"levelo://app?vid=50c47490-41fa-4dea-ad5f-eaaa77656fe5","ios":"levelo://app?vid=50c47490-41fa-4dea-ad5f-eaaa77656fe5"},"vehicle_type_id":"4","last_reported":1702627782,"current_range_meters":28800,"station_id":"ce4bhn92rcd13ifvqgrg","pricing_plan_id":"free"},{"bike_id":"0b41f3a7-2efa-462f-b0bd-2fee3739c3ce","system_id":"levelo_inurba_marseille","lat":43.275028,"lon":5.424534,"is_reserved":false,"is_disabled":false,"rental_uris":{"android":"levelo://app?vid=0b41f3a7-2efa-462f-b0bd-2fee3739c3ce","ios":"levelo://app?vid=0b41f3a7-2efa-462f-b0bd-2fee3739c3ce"},"vehicle_type_id":"4","last_reported":1702627782,"current_range_meters":31600,"station_id":"ce4bhn92rcd13ifvqgrg","pricing_plan_id":"free"},{"bike_id":"f8a376cc-e9e8-40b4-b8cb-d28bb47eafca","system_id":"levelo_inurba_marseille","lat":43.275028,"lon":5.424534,"is_reserved":false,"is_disabled":false,"rental_uris":{"android":"levelo://app?vid=f8a376cc-e9e8-40b4-b8cb-d28bb47eafca","ios":"levelo://app?vid=f8a376cc-e9e8-40b4-b8cb-d28bb47eafca"},"vehicle_type_id":"4","last_reported":1702627782,"current_range_meters":22000,"station_id":"ce4bhn92rcd13ifvqgrg","pricing_plan_id":"free"},{"bike_id":"831280d8-21d2-40e8-9483-f2c9825c8ecc","system_id":"levelo_inurba_marseille","lat":43.27487,"lon":5.42451,"is_reserved":false,"is_disabled":false,"rental_uris":{"android":"levelo://app?vid=831280d8-21d2-40e8-9483-f2c9825c8ecc","ios":"levelo://app?vid=831280d8-21d2-40e8-9483-f2c9825c8ecc"},"vehicle_type_id":"4","last_reported":1702627782,"current_range_meters":6800,"station_id":"ce4bhn92rcd13ifvqgrg","pricing_plan_id":"free"},{"bike_id":"7f404b92-58c4-48ef-a627-c6130ab9a592","system_id":"levelo_inurba_marseille","lat":43.25582,"lon":5.3823,"is_reserved":false,"is_disabled":false,"rental_uris":{"android":"levelo://app?vid=7f404b92-58c4-48ef-a627-c6130ab9a592","ios":"levelo://app?vid=7f404b92-58c4-48ef-a627-c6130ab9a592"},"vehicle_type_id":"4","last_reported":1702627782,"current_range_meters":5200,"station_id":"ce4bhih2rcd13ifvqfs0","pricing_plan_id":"free"},{"bike_id":"14257a08-986b-4cfe-87f5-c5070bc0123b","system_id":"levelo_inurba_marseille","lat":43.258224,"lon":5.394369,"is_reserved":false,"is_disabled":false,"rental_uris":{"android":"levelo://app?vid=14257a08-986b-4cfe-87f5-c5070bc0123b","ios":"levelo://app?vid=14257a08-986b-4cfe-87f5-c5070bc0123b"},"vehicle_type_id":"4","last_reported":1702627782,"current_range_meters":24000,"station_id":"ce4bhip2rcd13ifvqft0","pricing_plan_id":"free"},{"bike_id":"dc8f872a-faa0-4407-adf7-c757f5331d61","system_id":"levelo_inurba_marseille","lat":43.258224,"lon":5.394369,"is_reserved":false,"is_disabled":false,"rental_uris":{"android":"levelo://app?vid=dc8f872a-faa0-4407-adf7-c757f5331d61","ios":"levelo://app?vid=dc8f872a-faa0-4407-adf7-c757f5331d61"},"vehicle_type_id":"4","last_reported":1702627782,"current_range_meters":27200,"station_id":"ce4bhip2rcd13ifvqft0","pricing_plan_id":"free"},{"bike_id":"51b7c1de-c619-402d-b318-40a701026270","system_id":"levelo_inurba_marseille","lat":43.258224,"lon":5.394369,"is_reserved":false,"is_disabled":false,"rental_uris":{"android":"levelo://app?vid=51b7c1de-c619-402d-b318-40a701026270","ios":"levelo://app?vid=51b7c1de-c619-402d-b318-40a701026270"},"vehicle_type_id":"4","last_reported":1702627782,"current_range_meters":11600,"station_id":"ce4bhip2rcd13ifvqft0","pricing_plan_id":"free"},{"bike_id":"92078985-8db4-4336-8ded-912e691a0deb","system_id":"levelo_inurba_marseille","lat":43.25573,"lon":5.38237,"is_reserved":false,"is_disabled":false,"rental_uris":{"android":"levelo://app?vid=92078985-8db4-4336-8ded-912e691a0deb","ios":"levelo://app?vid=92078985-8db4-4336-8ded-912e691a0deb"},"vehicle_type_id":"4","last_reported":1702627782,"current_range_meters":28400,"station_id":"ce4bhih2rcd13ifvqfs0","pricing_plan_id":"free"},{"bike_id":"35426eb5-e00b-46a9-9756-0fc1e6a55ee9","system_id":"levelo_inurba_marseille","lat":43.254947,"lon":5.376454,"is_reserved":false,"is_disabled":false,"rental_uris":{"android":"levelo://app?vid=35426eb5-e00b-46a9-9756-0fc1e6a55ee9","ios":"levelo://app?vid=35426eb5-e00b-46a9-9756-0fc1e6a55ee9"},"vehicle_type_id":"4","last_reported":1702627782,"current_range_meters":14800,"station_id":"ce4bhh12rcd13ifvqff0","pricing_plan_id":"free"},{"bike_id":"c9d15fe8-c8f1-46ba-b078-8ce19d809ac2","system_id":"levelo_inurba_marseille","lat":43.27069,"lon":5.42278,"is_reserved":false,"is_disabled":false,"rental_uris":{"android":"levelo://app?vid=c9d15fe8-c8f1-46ba-b078-8ce19d809ac2","ios":"levelo://app?vid=c9d15fe8-c8f1-46ba-b078-8ce19d809ac2"},"vehicle_type_id":"4","last_reported":1702627782,"current_range_meters":30400,"station_id":"ce4bhk92rcd13ifvqgb0","pricing_plan_id":"free"},{"bike_id":"6cf6a95d-2116-4603-96fc-fb7173e759df","system_id":"levelo_inurba_marseille","lat":43.258658,"lon":5.398935,"is_reserved":false,"is_disabled":false,"rental_uris":{"android":"levelo://app?vid=6cf6a95d-2116-4603-96fc-fb7173e759df","ios":"levelo://app?vid=6cf6a95d-2116-4603-96fc-fb7173e759df"},"vehicle_type_id":"4","last_reported":1702627782,"current_range_meters":14400,"station_id":"ce4bhl92rcd13ifvqghg","pricing_plan_id":"free"},{"bike_id":"73a26abf-ee0d-44f0-bed5-34291a501510","system_id":"levelo_inurba_marseille","lat":43.258658,"lon":5.398935,"is_reserved":false,"is_disabled":false,"rental_uris":{"android":"levelo://app?vid=73a26abf-ee0d-44f0-bed5-34291a501510","ios":"levelo://app?vid=73a26abf-ee0d-44f0-bed5-34291a501510"},"vehicle_type_id":"4","last_reported":1702627782,"current_range_meters":19600,"station_id":"ce4bhl92rcd13ifvqghg","pricing_plan_id":"free"},{"bike_id":"974d0537-2322-48eb-8813-582c8783fb65","system_id":"levelo_inurba_marseille","lat":43.25939,"lon":5.40903,"is_reserved":false,"is_disabled":false,"rental_uris":{"android":"levelo://app?vid=974d0537-2322-48eb-8813-582c8783fb65","ios":"levelo://app?vid=974d0537-2322-48eb-8813-582c8783fb65"},"vehicle_type_id":"4","last_reported":1702627782,"current_range_meters":15600,"station_id":"ce4bhm92rcd13ifvqglg","pricing_plan_id":"free"},{"bike_id":"e1ce5875-df5e-453d-aca3-a97eb03dbea1","system_id":"levelo_inurba_marseille","lat":43.25936,"lon":5.40913,"is_reserved":false,"is_disabled":false,"rental_uris":{"android":"levelo://app?vid=e1ce5875-df5e-453d-aca3-a97eb03dbea1","ios":"levelo://app?vid=e1ce5875-df5e-453d-aca3-a97eb03dbea1"},"vehicle_type_id":"4","last_reported":1702627782,"current_range_meters":19600,"station_id":"ce4bhm92rcd13ifvqglg","pricing_plan_id":"free"},{"bike_id":"b0f80740-e3e1-420c-9fab-1084f4861ab8","system_id":"levelo_inurba_marseille","lat":43.25933,"lon":5.40911,"is_reserved":false,"is_disabled":false,"rental_uris":{"android":"levelo://app?vid=b0f80740-e3e1-420c-9fab-1084f4861ab8","ios":"levelo://app?vid=b0f80740-e3e1-420c-9fab-1084f4861ab8"},"vehicle_type_id":"4","last_reported":1702627782,"current_range_meters":23200,"station_id":"ce4bhm92rcd13ifvqglg","pricing_plan_id":"free"},{"bike_id":"4977ef1c-759d-460b-be92-ce3af5cbab8e","system_id":"levelo_inurba_marseille","lat":43.25933,"lon":5.40913,"is_reserved":false,"is_disabled":false,"rental_uris":{"android":"levelo://app?vid=4977ef1c-759d-460b-be92-ce3af5cbab8e","ios":"levelo://app?vid=4977ef1c-759d-460b-be92-ce3af5cbab8e"},"vehicle_type_id":"4","last_reported":1702627782,"current_range_meters":17600,"station_id":"ce4bhm92rcd13ifvqglg","pricing_plan_id":"free"},{"bike_id":"640714f5-618c-4118-bfeb-63a862712304","system_id":"levelo_inurba_marseille","lat":43.259321,"lon":5.409149,"is_reserved":false,"is_disabled":false,"rental_uris":{"android":"levelo://app?vid=640714f5-618c-4118-bfeb-63a862712304","ios":"levelo://app?vid=640714f5-618c-4118-bfeb-63a862712304"},"vehicle_type_id":"4","last_reported":1702627782,"current_range_meters":23200,"station_id":"","pricing_plan_id":"free"},{"bike_id":"f40f97d0-5dc9-48ee-9396-a786fb9f9ede","system_id":"levelo_inurba_marseille","lat":43.2593,"lon":5.40912,"is_reserved":false,"is_disabled":false,"rental_uris":{"android":"levelo://app?vid=f40f97d0-5dc9-48ee-9396-a786fb9f9ede","ios":"levelo://app?vid=f40f97d0-5dc9-48ee-9396-a786fb9f9ede"},"vehicle_type_id":"4","last_reported":1702627782,"current_range_meters":15200,"station_id":"ce4bhm92rcd13ifvqglg","pricing_plan_id":"free"},{"bike_id":"db140ae3-05d1-43cc-a7cb-19fe416166e3","system_id":"levelo_inurba_marseille","lat":43.259064,"lon":5.408977,"is_reserved":false,"is_disabled":false,"rental_uris":{"android":"levelo://app?vid=db140ae3-05d1-43cc-a7cb-19fe416166e3","ios":"levelo://app?vid=db140ae3-05d1-43cc-a7cb-19fe416166e3"},"vehicle_type_id":"4","last_reported":1702627782,"current_range_meters":9200,"station_id":"ce4bhm92rcd13ifvqglg","pricing_plan_id":"free"},{"bike_id":"482bd442-be41-45c7-b94e-a3f078ab5f3c","system_id":"levelo_inurba_marseille","lat":43.257079,"lon":5.411051,"is_reserved":false,"is_disabled":false,"rental_uris":{"android":"levelo://app?vid=482bd442-be41-45c7-b94e-a3f078ab5f3c","ios":"levelo://app?vid=482bd442-be41-45c7-b94e-a3f078ab5f3c"},"vehicle_type_id":"4","last_reported":1702627782,"current_range_meters":20000,"station_id":"ce4bhkp2rcd13ifvqgd0","pricing_plan_id":"free"},{"bike_id":"1febdd23-af7f-4290-877e-8ace7e8852c0","system_id":"levelo_inurba_marseille","lat":43.250009,"lon":5.389195,"is_reserved":false,"is_disabled":false,"rental_uris":{"android":"levelo://app?vid=1febdd23-af7f-4290-877e-8ace7e8852c0","ios":"levelo://app?vid=1febdd23-af7f-4290-877e-8ace7e8852c0"},"vehicle_type_id":"4","last_reported":1702627782,"current_range_meters":7600,"station_id":"ce4bhgp2rcd13ifvqfd0","pricing_plan_id":"free"},{"bike_id":"0cacd2de-a4e3-473e-b554-67dcffeabd9b","system_id":"levelo_inurba_marseille","lat":43.250023,"lon":5.38919,"is_reserved":false,"is_disabled":false,"rental_uris":{"android":"levelo://app?vid=0cacd2de-a4e3-473e-b554-67dcffeabd9b","ios":"levelo://app?vid=0cacd2de-a4e3-473e-b554-67dcffeabd9b"},"vehicle_type_id":"4","last_reported":1702627782,"current_range_meters":16000,"station_id":"ce4bhgp2rcd13ifvqfd0","pricing_plan_id":"free"},{"bike_id":"943e52e8-36d7-4fec-9ddf-e07fe42c8d89","system_id":"levelo_inurba_marseille","lat":43.246461,"lon":5.389014,"is_reserved":false,"is_disabled":false,"rental_uris":{"android":"levelo://app?vid=943e52e8-36d7-4fec-9ddf-e07fe42c8d89","ios":"levelo://app?vid=943e52e8-36d7-4fec-9ddf-e07fe42c8d89"},"vehicle_type_id":"4","last_reported":1702627782,"current_range_meters":30800,"station_id":"ce4bhg12rcd13ifvqf60","pricing_plan_id":"free"},{"bike_id":"104ec263-3b25-4cde-8d5c-3e8ae35eb557","system_id":"levelo_inurba_marseille","lat":43.243884,"lon":5.370736,"is_reserved":false,"is_disabled":false,"rental_uris":{"android":"levelo://app?vid=104ec263-3b25-4cde-8d5c-3e8ae35eb557","ios":"levelo://app?vid=104ec263-3b25-4cde-8d5c-3e8ae35eb557"},"vehicle_type_id":"4","last_reported":1702627782,"current_range_meters":27600,"station_id":"ce4bhhh2rcd13ifvqfk0","pricing_plan_id":"free"},{"bike_id":"8c2241fc-921d-42bf-a650-33480d87b1b0","system_id":"levelo_inurba_marseille","lat":43.245581,"lon":5.395069,"is_reserved":false,"is_disabled":false,"rental_uris":{"android":"levelo://app?vid=8c2241fc-921d-42bf-a650-33480d87b1b0","ios":"levelo://app?vid=8c2241fc-921d-42bf-a650-33480d87b1b0"},"vehicle_type_id":"4","last_reported":1702627782,"current_range_meters":28400,"station_id":"ce4bhlp2rcd13ifvqgjg","pricing_plan_id":"free"},{"bike_id":"ec9f485b-4fd5-44d1-acf5-e072432ae828","system_id":"levelo_inurba_marseille","lat":43.245581,"lon":5.395069,"is_reserved":false,"is_disabled":false,"rental_uris":{"android":"levelo://app?vid=ec9f485b-4fd5-44d1-acf5-e072432ae828","ios":"levelo://app?vid=ec9f485b-4fd5-44d1-acf5-e072432ae828"},"vehicle_type_id":"4","last_reported":1702627782,"current_range_meters":27600,"station_id":"ce4bhlp2rcd13ifvqgjg","pricing_plan_id":"free"},{"bike_id":"9298352d-903c-4616-919b-e9d6e6f5f0a6","system_id":"levelo_inurba_marseille","lat":43.240623,"lon":5.377642,"is_reserved":false,"is_disabled":false,"rental_uris":{"android":"levelo://app?vid=9298352d-903c-4616-919b-e9d6e6f5f0a6","ios":"levelo://app?vid=9298352d-903c-4616-919b-e9d6e6f5f0a6"},"vehicle_type_id":"4","last_reported":1702627782,"current_range_meters":24400,"station_id":"ce4bhnp2rcd13ifvqgvg","pricing_plan_id":"free"},{"bike_id":"68ddc6c4-dcfd-4f13-bd89-26f5c5751dfb","system_id":"levelo_inurba_marseille","lat":43.24076,"lon":5.37757,"is_reserved":false,"is_disabled":false,"rental_uris":{"android":"levelo://app?vid=68ddc6c4-dcfd-4f13-bd89-26f5c5751dfb","ios":"levelo://app?vid=68ddc6c4-dcfd-4f13-bd89-26f5c5751dfb"},"vehicle_type_id":"4","last_reported":1702627782,"current_range_meters":22400,"station_id":"ce4bhnp2rcd13ifvqgvg","pricing_plan_id":"free"},{"bike_id":"1c3ca974-45f9-43bc-9547-cb0f0c146440","system_id":"levelo_inurba_marseille","lat":43.24076,"lon":5.37757,"is_reserved":false,"is_disabled":false,"rental_uris":{"android":"levelo://app?vid=1c3ca974-45f9-43bc-9547-cb0f0c146440","ios":"levelo://app?vid=1c3ca974-45f9-43bc-9547-cb0f0c146440"},"vehicle_type_id":"4","last_reported":1702627782,"current_range_meters":17200,"station_id":"ce4bhnp2rcd13ifvqgvg","pricing_plan_id":"free"},{"bike_id":"c4715a41-10a8-4c3e-9ca8-41402b5b599e","system_id":"levelo_inurba_marseille","lat":43.24075,"lon":5.37758,"is_reserved":false,"is_disabled":false,"rental_uris":{"android":"levelo://app?vid=c4715a41-10a8-4c3e-9ca8-41402b5b599e","ios":"levelo://app?vid=c4715a41-10a8-4c3e-9ca8-41402b5b599e"},"vehicle_type_id":"4","last_reported":1702627782,"current_range_meters":23200,"station_id":"ce4bhnp2rcd13ifvqgvg","pricing_plan_id":"free"},{"bike_id":"4f0bd448-91fd-480b-a3b5-7342dee5740c","system_id":"levelo_inurba_marseille","lat":43.240746,"lon":5.377546,"is_reserved":false,"is_disabled":false,"rental_uris":{"android":"levelo://app?vid=4f0bd448-91fd-480b-a3b5-7342dee5740c","ios":"levelo://app?vid=4f0bd448-91fd-480b-a3b5-7342dee5740c"},"vehicle_type_id":"4","last_reported":1702627782,"current_range_meters":30000,"station_id":"ce4bhnp2rcd13ifvqgvg","pricing_plan_id":"free"},{"bike_id":"7e4b538e-290f-42d3-a8e6-b8c3a8f111c3","system_id":"levelo_inurba_marseille","lat":43.240739,"lon":5.377589,"is_reserved":false,"is_disabled":false,"rental_uris":{"android":"levelo://app?vid=7e4b538e-290f-42d3-a8e6-b8c3a8f111c3","ios":"levelo://app?vid=7e4b538e-290f-42d3-a8e6-b8c3a8f111c3"},"vehicle_type_id":"4","last_reported":1702627782,"current_range_meters":26400,"station_id":"ce4bhnp2rcd13ifvqgvg","pricing_plan_id":"free"},{"bike_id":"b209af17-86be-4ee0-8716-11a31bf4677f","system_id":"levelo_inurba_marseille","lat":43.240623,"lon":5.377642,"is_reserved":false,"is_disabled":false,"rental_uris":{"android":"levelo://app?vid=b209af17-86be-4ee0-8716-11a31bf4677f","ios":"levelo://app?vid=b209af17-86be-4ee0-8716-11a31bf4677f"},"vehicle_type_id":"4","last_reported":1702627782,"current_range_meters":16800,"station_id":"ce4bhnp2rcd13ifvqgvg","pricing_plan_id":"free"},{"bike_id":"8550b19f-1615-4836-8252-cde83a687270","system_id":"levelo_inurba_marseille","lat":43.240623,"lon":5.377642,"is_reserved":false,"is_disabled":false,"rental_uris":{"android":"levelo://app?vid=8550b19f-1615-4836-8252-cde83a687270","ios":"levelo://app?vid=8550b19f-1615-4836-8252-cde83a687270"},"vehicle_type_id":"4","last_reported":1702627782,"current_range_meters":30000,"station_id":"ce4bhnp2rcd13ifvqgvg","pricing_plan_id":"free"},{"bike_id":"5b8d13f6-72bc-4b42-9a79-cd90af386fbc","system_id":"levelo_inurba_marseille","lat":43.240623,"lon":5.377642,"is_reserved":false,"is_disabled":false,"rental_uris":{"android":"levelo://app?vid=5b8d13f6-72bc-4b42-9a79-cd90af386fbc","ios":"levelo://app?vid=5b8d13f6-72bc-4b42-9a79-cd90af386fbc"},"vehicle_type_id":"4","last_reported":1702627782,"current_range_meters":31200,"station_id":"ce4bhnp2rcd13ifvqgvg","pricing_plan_id":"free"},{"bike_id":"7b6bb271-ecf2-4bfb-bdf8-4f1e834c6b2c","system_id":"levelo_inurba_marseille","lat":43.240623,"lon":5.377642,"is_reserved":false,"is_disabled":false,"rental_uris":{"android":"levelo://app?vid=7b6bb271-ecf2-4bfb-bdf8-4f1e834c6b2c","ios":"levelo://app?vid=7b6bb271-ecf2-4bfb-bdf8-4f1e834c6b2c"},"vehicle_type_id":"4","last_reported":1702627782,"current_range_meters":20800,"station_id":"ce4bhnp2rcd13ifvqgvg","pricing_plan_id":"free"},{"bike_id":"cbe8f3a9-5564-4558-9f50-f6e2369f6155","system_id":"levelo_inurba_marseille","lat":43.240623,"lon":5.377642,"is_reserved":false,"is_disabled":false,"rental_uris":{"android":"levelo://app?vid=cbe8f3a9-5564-4558-9f50-f6e2369f6155","ios":"levelo://app?vid=cbe8f3a9-5564-4558-9f50-f6e2369f6155"},"vehicle_type_id":"4","last_reported":1702627782,"current_range_meters":29200,"station_id":"ce4bhnp2rcd13ifvqgvg","pricing_plan_id":"free"},{"bike_id":"e7660fcf-abfb-4882-b2c0-5015b68b75df","system_id":"levelo_inurba_marseille","lat":43.240623,"lon":5.377642,"is_reserved":false,"is_disabled":false,"rental_uris":{"android":"levelo://app?vid=e7660fcf-abfb-4882-b2c0-5015b68b75df","ios":"levelo://app?vid=e7660fcf-abfb-4882-b2c0-5015b68b75df"},"vehicle_type_id":"4","last_reported":1702627782,"current_range_meters":26400,"station_id":"ce4bhnp2rcd13ifvqgvg","pricing_plan_id":"free"},{"bike_id":"f9a4a95d-816a-4479-9d88-9c4690e85632","system_id":"levelo_inurba_marseille","lat":43.240623,"lon":5.377642,"is_reserved":false,"is_disabled":false,"rental_uris":{"android":"levelo://app?vid=f9a4a95d-816a-4479-9d88-9c4690e85632","ios":"levelo://app?vid=f9a4a95d-816a-4479-9d88-9c4690e85632"},"vehicle_type_id":"4","last_reported":1702627782,"current_range_meters":28800,"station_id":"ce4bhnp2rcd13ifvqgvg","pricing_plan_id":"free"},{"bike_id":"d9d2fc47-2991-4be6-b212-6f8fa1908614","system_id":"levelo_inurba_marseille","lat":43.240623,"lon":5.377642,"is_reserved":false,"is_disabled":false,"rental_uris":{"android":"levelo://app?vid=d9d2fc47-2991-4be6-b212-6f8fa1908614","ios":"levelo://app?vid=d9d2fc47-2991-4be6-b212-6f8fa1908614"},"vehicle_type_id":"4","last_reported":1702627782,"current_range_meters":24400,"station_id":"ce4bhnp2rcd13ifvqgvg","pricing_plan_id":"free"},{"bike_id":"ec93a981-1d1b-482a-b7b6-e0007f874c11","system_id":"levelo_inurba_marseille","lat":43.240623,"lon":5.377642,"is_reserved":false,"is_disabled":false,"rental_uris":{"android":"levelo://app?vid=ec93a981-1d1b-482a-b7b6-e0007f874c11","ios":"levelo://app?vid=ec93a981-1d1b-482a-b7b6-e0007f874c11"},"vehicle_type_id":"4","last_reported":1702627782,"current_range_meters":21600,"station_id":"ce4bhnp2rcd13ifvqgvg","pricing_plan_id":"free"},{"bike_id":"8dd33327-9ce5-4480-9af1-9df1e94a9d5c","system_id":"levelo_inurba_marseille","lat":43.240623,"lon":5.377642,"is_reserved":false,"is_disabled":false,"rental_uris":{"android":"levelo://app?vid=8dd33327-9ce5-4480-9af1-9df1e94a9d5c","ios":"levelo://app?vid=8dd33327-9ce5-4480-9af1-9df1e94a9d5c"},"vehicle_type_id":"4","last_reported":1702627782,"current_range_meters":29600,"station_id":"ce4bhnp2rcd13ifvqgvg","pricing_plan_id":"free"},{"bike_id":"89632fb2-e1f9-4894-8e38-bd39377b5553","system_id":"levelo_inurba_marseille","lat":43.240623,"lon":5.377642,"is_reserved":false,"is_disabled":false,"rental_uris":{"android":"levelo://app?vid=89632fb2-e1f9-4894-8e38-bd39377b5553","ios":"levelo://app?vid=89632fb2-e1f9-4894-8e38-bd39377b5553"},"vehicle_type_id":"4","last_reported":1702627782,"current_range_meters":28400,"station_id":"ce4bhnp2rcd13ifvqgvg","pricing_plan_id":"free"},