{"last_updated":1740395275,"ttl":60,"version":"2.2","data":{"bikes":[{"bike_id":"1284377d-613e-4b0e-b8b9-30807af03316","system_id":"levelo_inurba_marseille","lat":43.27835,"lon":5.39208,"is_reserved":false,"is_disabled":false,"rental_uris":{"android":"levelo://app?vid=1284377d-613e-4b0e-b8b9-30807af03316","ios":"levelo://app?vid=1284377d-613e-4b0e-b8b9-30807af03316"},"vehicle_type_id":"4","last_reported":1740395275,"current_range_meters":3200,"station_id":"ce4bhjp2rcd13ifvqga0","pricing_plan_id":"cebpf4jnsgd1na2vs0mg"},{"bike_id":"52ab0136-19cb-41ee-9eab-8991ca3c2d52","system_id":"levelo_inurba_marseille","lat":43.28348,"lon":5.38105,"is_reserved":false,"is_disabled":false,"rental_uris":{"android":"levelo://app?vid=52ab0136-19cb-41ee-9eab-8991ca3c2d52","ios":"levelo://app?vid=52ab0136-19cb-41ee-9eab-8991ca3c2d52"},"vehicle_type_id":"4","last_reported":1740395275,"current_range_meters":3600,"station_id":"ce4bh412rcd13ifvqdr0","pricing_plan_id":"cebpf4jnsgd1na2vs0mg"},{"bike_id":"6915d38b-7c98-40d5-a035-63905cee53fe","system_id":"levelo_inurba_marseille","lat":43.29705,"lon":5.37662,"is_reserved":false,"is_disabled":false,"rental_uris":{"android":"levelo://app?vid=6915d38b-7c98-40d5-a035-63905cee53fe","ios":"levelo://app?vid=6915d38b-7c98-40d5-a035-63905cee53fe"},"vehicle_type_id":"4","last_reported":1740395275,"current_range_meters":4000,"station_id":"ce4bgkh2rcd13ifvqbl0","pricing_plan_id":"cebpf4jnsgd1na2vs0mg"},{"bike_id":"1f66338a-b1c7-442e-8bfe-d626d34326a5","system_id":"levelo_inurba_marseille","lat":43.30158,"lon":5.38081,"is_reserved":false,"is_disabled":false,"rental_uris":{"android":"levelo://app?vid=1f66338a-b1c7-442e-8bfe-d626d34326a5","ios":"levelo://app?vid=1f66338a-b1c7-442e-8bfe-d626d34326a5"},"vehicle_type_id":"4","last_reported":1740395275,"current_range_meters":4400,"station_id":"ce4bgjp2rcd13ifvqbh0","pricing_plan_id":"cebpf4jnsgd1na2vs0mg"},{"bike_id":"69777bf4-f196-4d92-944d-65c72e7557a6","system_id":"levelo_inurba_marseille","lat":43.3051,"lon":5.37329,"is_reserved":false,"is_disabled":true,"rental_uris":{"android":"levelo://app?vid=69777bf4-f196-4d92-944d-65c72e7557a6","ios":"levelo://app?vid=69777bf4-f196-4d92-944d-65c72e7557a6"},"vehicle_type_id":"4","last_reported":1740395275,"current_range_meters":4400,"station_id":"","pricing_plan_id":"cebpf4jnsgd1na2vs0mg"},{"bike_id":"e4b3bcd3-d2ff-41b0-8b0f-46c53c9b09bc","system_id":"levelo_inurba_marseille","lat":43.2828,"lon":5.35064,"is_reserved":false,"is_disabled":false,"rental_uris":{"android":"levelo://app?vid=e4b3bcd3-d2ff-41b0-8b0f-46c53c9b09bc","ios":"levelo://app?vid=e4b3bcd3-d2ff-41b0-8b0f-46c53c9b09bc"},"vehicle_type_id":"4","last_reported":1740395275,"current_range_meters":4400,"station_id":"ce4bhbp2rcd13ifvqerg","pricing_plan_id":"cebpf4jnsgd1na2vs0mg"},{"bike_id":"b710ff74-b7bd-4699-8487-1d6fc6d13e54","system_id":"levelo_inurba_marseille","lat":43.30536,"lon":5.36552,"is_reserved":false,"is_disabled":false,"rental_uris":{"android":"levelo://app?vid=b710ff74-b7bd-4699-8487-1d6fc6d13e54","ios":"levelo://app?vid=b710ff74-b7bd-4699-8487-1d6fc6d13e54"},"vehicle_type_id":"4","last_reported":1740395275,"current_range_meters":4400,"station_id":"ce4bgs12rcd13ifvqcag","pricing_plan_id":"cebpf4jnsgd1na2vs0mg"},{"bike_id":"7b4f7df6-efc9-424a-a95f-688d11bbd56b","system_id":"levelo_inurba_marseille","lat":43.30138,"lon":5.38776,"is_reserved":false,"is_disabled":false,"rental_uris":{"android":"levelo://app?vid=7b4f7df6-efc9-424a-a95f-688d11bbd56b","ios":"levelo://app?vid=7b4f7df6-efc9-424a-a95f-688d11bbd56b"},"vehicle_type_id":"4","last_reported":1740395275,"current_range_meters":5600,"station_id":"ce4bghh2rcd13ifvqb60","pricing_plan_id":"cebpf4jnsgd1na2vs0mg"},{"bike_id":"1af71967-b274-4269-9655-88715abf61c6","system_id":"levelo_inurba_marseille","lat":43.26554,"lon":5.37296,"is_reserved":false,"is_disabled":true,"rental_uris":{"android":"levelo://app?vid=1af71967-b274-4269-9655-88715abf61c6","ios":"levelo://app?vid=1af71967-b274-4269-9655-88715abf61c6"},"vehicle_type_id":"4","last_reported":1740395275,"current_range_meters":6000,"station_id":"ce4bhg12rcd13ifvqf70","pricing_plan_id":"cebpf4jnsgd1na2vs0mg"},{"bike_id":"32490862-8d04-4644-bcc3-073dc87d7806","system_id":"levelo_inurba_marseille","lat":43.30145,"lon":5.38073,"is_reserved":false,"is_disabled":false,"rental_uris":{"android":"levelo://app?vid=32490862-8d04-4644-bcc3-073dc87d7806","ios":"levelo://app?vid=32490862-8d04-4644-bcc3-073dc87d7806"},"vehicle_type_id":"4","last_reported":1740395275,"current_range_meters":6400,"station_id":"ce4bgjp2rcd13ifvqbh0","pricing_plan_id":"cebpf4jnsgd1na2vs0mg"},{"bike_id":"6eeca275-8423-4d72-85ea-f3f01cd220b2","system_id":"levelo_inurba_marseille","lat":43.29622,"lon":5.40633,"is_reserved":false,"is_disabled":false,"rental_uris":{"android":"levelo://app?vid=6eeca275-8423-4d72-85ea-f3f01cd220b2","ios":"levelo://app?vid=6eeca275-8423-4d72-85ea-f3f01cd220b2"},"vehicle_type_id":"4","last_reported":1740395275,"current_range_meters":6400,"station_id":"ce4bh0h2rcd13ifvqd60","pricing_plan_id":"cebpf4jnsgd1na2vs0mg"},{"bike_id":"eb83b99d-1e03-486b-aa0c-3d12a8da97ca","system_id":"levelo_inurba_marseille","lat":43.29704,"lon":5.37698,"is_reserved":false,"is_disabled":false,"rental_uris":{"android":"levelo://app?vid=eb83b99d-1e03-486b-aa0c-3d12a8da97ca","ios":"levelo://app?vid=eb83b99d-1e03-486b-aa0c-3d12a8da97ca"},"vehicle_type_id":"4","last_reported":1740395275,"current_range_meters":6400,"station_id":"ce4bgkh2rcd13ifvqbl0","pricing_plan_id":"cebpf4jnsgd1na2vs0mg"},{"bike_id":"49e1c317-c43a-4e17-be08-ea23dc8d6739","system_id":"levelo_inurba_marseille","lat":43.30126,"lon":5.39578,"is_reserved":false,"is_disabled":true,"rental_uris":{"android":"levelo://app?vid=49e1c317-c43a-4e17-be08-ea23dc8d6739","ios":"levelo://app?vid=49e1c317-c43a-4e17-be08-ea23dc8d6739"},"vehicle_type_id":"4","last_reported":1740395275,"current_range_meters":6400,"station_id":"","pricing_plan_id":"cebpf4jnsgd1na2vs0mg"},{"bike_id":"ff937aeb-69fb-4291-aaf3-b93d8d0f52b1","system_id":"levelo_inurba_marseille","lat":43.24664,"lon":5.38165,"is_reserved":false,"is_disabled":false,"rental_uris":{"android":"levelo://app?vid=ff937aeb-69fb-4291-aaf3-b93d8d0f52b1","ios":"levelo://app?vid=ff937aeb-69fb-4291-aaf3-b93d8d0f52b1"},"vehicle_type_id":"4","last_reported":1740395275,"current_range_meters":6400,"station_id":"ce4bhih2rcd13ifvqfr0","pricing_plan_id":"cebpf4jnsgd1na2vs0mg"},{"bike_id":"8dc51aab-29d3-43fa-a37e-6c47cc4c2e69","system_id":"levelo_inurba_marseille","lat":43.24157,"lon":5.36408,"is_reserved":false,"is_disabled":false,"rental_uris":{"android":"levelo://app?vid=8dc51aab-29d3-43fa-a37e-6c47cc4c2e69","ios":"levelo://app?vid=8dc51aab-29d3-43fa-a37e-6c47cc4c2e69"},"vehicle_type_id":"4","last_reported":1740395275,"current_range_meters":6800,"station_id":"cpo36qri1sfpv3e86is0","pricing_plan_id":"cebpf4jnsgd1na2vs0mg"},{"bike_id":"33bb368e-dc68-4de3-bee4-58404db96f01","system_id":"levelo_inurba_marseille","lat":43.30537,"lon":5.36717,"is_reserved":false,"is_disabled":false,"rental_uris":{"android":"levelo://app?vid=33bb368e-dc68-4de3-bee4-58404db96f01","ios":"levelo://app?vid=33bb368e-dc68-4de3-bee4-58404db96f01"},"vehicle_type_id":"4","last_reported":1740395275,"current_range_meters":6800,"station_id":"ce4bgrp2rcd13ifvqc9g","pricing_plan_id":"cebpf4jnsgd1na2vs0mg"},{"bike_id":"828a85b3-be94-443f-94e4-209b598f69d5","system_id":"levelo_inurba_marseille","lat":43.24808,"lon":5.37457,"is_reserved":false,"is_disabled":false,"rental_uris":{"android":"levelo://app?vid=828a85b3-be94-443f-94e4-209b598f69d5","ios":"levelo://app?vid=828a85b3-be94-443f-94e4-209b598f69d5"},"vehicle_type_id":"4","last_reported":1740395275,"current_range_meters":6800,"station_id":"ce4bhgh2rcd13ifvqfb0","pricing_plan_id":"cebpf4jnsgd1na2vs0mg"},{"bike_id":"a1e0da15-ceef-4be5-9b2c-eebeab4f3e38","system_id":"levelo_inurba_marseille","lat":43.29592,"lon":5.37746,"is_reserved":false,"is_disabled":false,"rental_uris":{"android":"levelo://app?vid=a1e0da15-ceef-4be5-9b2c-eebeab4f3e38","ios":"levelo://app?vid=a1e0da15-ceef-4be5-9b2c-eebeab4f3e38"},"vehicle_type_id":"4","last_reported":1740395275,"current_range_meters":6800,"station_id":"ce4bgi92rcd13ifvqb90","pricing_plan_id":"cebpf4jnsgd1na2vs0mg"},{"bike_id":"bd35f3ed-ff3d-47c6-a345-2ee7a7ab4020","system_id":"levelo_inurba_marseille","lat":43.31203,"lon":5.368474,"is_reserved":false,"is_disabled":false,"rental_uris":{"android":"levelo://app?vid=bd35f3ed-ff3d-47c6-a345-2ee7a7ab4020","ios":"levelo://app?vid=bd35f3ed-ff3d-47c6-a345-2ee7a7ab4020"},"vehicle_type_id":"4","last_reported":1740395275,"current_range_meters":6800,"station_id":"ce4bgl92rcd13ifvqbq0","pricing_plan_id":"cebpf4jnsgd1na2vs0mg"},{"bike_id":"1f7411cd-9379-4bab-a8bc-411b928d8602","system_id":"levelo_inurba_marseille","lat":43.27496,"lon":5.42463,"is_reserved":false,"is_disabled":false,"rental_uris":{"android":"levelo://app?vid=1f7411cd-9379-4bab-a8bc-411b928d8602","ios":"levelo://app?vid=1f7411cd-9379-4bab-a8bc-411b928d8602"},"vehicle_type_id":"4","last_reported":1740395275,"current_range_meters":7200,"station_id":"ce4bhn92rcd13ifvqgrg","pricing_plan_id":"cebpf4jnsgd1na2vs0mg"},{"bike_id":"dfb7f572-5d50-4071-9259-fd02399fd006","system_id":"levelo_inurba_marseille","lat":43.31879,"lon":5.40734,"is_reserved":false,"is_disabled":false,"rental_uris":{"android":"levelo://app?vid=dfb7f572-5d50-4071-9259-fd02399fd006","ios":"levelo://app?vid=dfb7f572-5d50-4071-9259-fd02399fd006"},"vehicle_type_id":"4","last_reported":1740395275,"current_range_meters":7200,"station_id":"ce4bhq12rcd13ifvqhig","pricing_plan_id":"cebpf4jnsgd1na2vs0mg"},{"bike_id":"10aea09a-aedf-496f-ae8d-071404818f91","system_id":"levelo_inurba_marseille","lat":43.29573,"lon":5.39962,"is_reserved":false,"is_disabled":false,"rental_uris":{"android":"levelo://app?vid=10aea09a-aedf-496f-ae8d-071404818f91","ios":"levelo://app?vid=10aea09a-aedf-496f-ae8d-071404818f91"},"vehicle_type_id":"4","last_reported":1740395275,"current_range_meters":8000,"station_id":"ce4bh312rcd13ifvqdj0","pricing_plan_id":"cebpf4jnsgd1na2vs0mg"},{"bike_id":"f6e87c6f-b50f-4ba2-b645-67f54d43ab73","system_id":"levelo_inurba_marseille","lat":43.2603,"lon":5.37547,"is_reserved":false,"is_disabled":false,"rental_uris":{"android":"levelo://app?vid=f6e87c6f-b50f-4ba2-b645-67f54d43ab73","ios":"levelo://app?vid=f6e87c6f-b50f-4ba2-b645-67f54d43ab73"},"vehicle_type_id":"4","last_reported":1740395275,"current_range_meters":8000,"station_id":"ce4bhgh2rcd13ifvqfa0","pricing_plan_id":"cebpf4jnsgd1na2vs0mg"},{"bike_id":"095d5026-b6cb-411c-ab71-6c60703e2b2f","system_id":"levelo_inurba_marseille","lat":43.23068,"lon":5.35497,"is_reserved":false,"is_disabled":true,"rental_uris":{"android":"levelo://app?vid=095d5026-b6cb-411c-ab71-6c60703e2b2f","ios":"levelo://app?vid=095d5026-b6cb-411c-ab71-6c60703e2b2f"},"vehicle_type_id":"4","last_reported":1740395275,"current_range_meters":8000,"station_id":"","pricing_plan_id":"cebpf4jnsgd1na2vs0mg"},{"bike_id":"d68d8965-f0df-40d2-a511-522c1a007517","system_id":"levelo_inurba_marseille","lat":43.32475,"lon":5.365656,"is_reserved":false,"is_disabled":false,"rental_uris":{"android":"levelo://app?vid=d68d8965-f0df-40d2-a511-522c1a007517","ios":"levelo://app?vid=d68d8965-f0df-40d2-a511-522c1a007517"},"vehicle_type_id":"4","last_reported":1740395275,"current_range_meters":8000,"station_id":"ce4bhs12rcd13ifvqhvg","pricing_plan_id":"cebpf4jnsgd1na2vs0mg"},{"bike_id":"b252819f-c545-4309-badc-d64c88fe476e","system_id":"levelo_inurba_marseille","lat":43.28439,"lon":5.39204,"is_reserved":false,"is_disabled":false,"rental_uris":{"android":"levelo://app?vid=b252819f-c545-4309-badc-d64c88fe476e","ios":"levelo://app?vid=b252819f-c545-4309-badc-d64c88fe476e"},"vehicle_type_id":"4","last_reported":1740395275,"current_range_meters":7200,"station_id":"ce4bhoh2rcd13ifvqh5g","pricing_plan_id":"cebpf4jnsgd1na2vs0mg"},{"bike_id":"bfebdd23-22fa-42a8-b908-68fd3c3129c9","system_id":"levelo_inurba_marseille","lat":43.30144,"lon":5.3741,"is_reserved":false,"is_disabled":false,"rental_uris":{"android":"levelo://app?vid=bfebdd23-22fa-42a8-b908-68fd3c3129c9","ios":"levelo://app?vid=bfebdd23-22fa-42a8-b908-68fd3c3129c9"},"vehicle_type_id":"4","last_reported":1740395275,"current_range_meters":8400,"station_id":"ce4bgs92rcd13ifvqcc0","pricing_plan_id":"cebpf4jnsgd1na2vs0mg"},{"bike_id":"5451ebc4-d2a6-415d-b4f5-2d1cce409a1e","system_id":"levelo_inurba_marseille","lat":43.29172,"lon":5.35621,"is_reserved":false,"is_disabled":true,"rental_uris":{"android":"levelo://app?vid=5451ebc4-d2a6-415d-b4f5-2d1cce409a1e","ios":"levelo://app?vid=5451ebc4-d2a6-415d-b4f5-2d1cce409a1e"},"vehicle_type_id":"4","last_reported":1740395275,"current_range_meters":8400,"station_id":"","pricing_plan_id":"cebpf4jnsgd1na2vs0mg"},{"bike_id":"058edd19-c8b4-4dd7-a960-d6113b770bb3","system_id":"levelo_inurba_marseille","lat":43.31364,"lon":5.38492,"is_reserved":false,"is_disabled":false,"rental_uris":{"android":"levelo://app?vid=058edd19-c8b4-4dd7-a960-d6113b770bb3","ios":"levelo://app?vid=058edd19-c8b4-4dd7-a960-d6113b770bb3"},"vehicle_type_id":"4","last_reported":1740395275,"current_range_meters":8800,"station_id":"ce4bgt92rcd13ifvqcf0","pricing_plan_id":"cebpf4jnsgd1na2vs0mg"},{"bike_id":"290726c4-e532-4afd-b722-493c4c7267d5","system_id":"levelo_inurba_marseille","lat":43.29599,"lon":5.37735,"is_reserved":false,"is_disabled":false,"rental_uris":{"android":"levelo://app?vid=290726c4-e532-4afd-b722-493c4c7267d5","ios":"levelo://app?vid=290726c4-e532-4afd-b722-493c4c7267d5"},"vehicle_type_id":"4","last_reported":1740395275,"current_range_meters":8800,"station_id":"ce4bgi92rcd13ifvqb90","pricing_plan_id":"cebpf4jnsgd1na2vs0mg"},{"bike_id":"1127a561-55dc-461d-840d-fc4e71e9155a","system_id":"levelo_inurba_marseille","lat":43.29905,"lon":5.43668,"is_reserved":false,"is_disabled":false,"rental_uris":{"android":"levelo://app?vid=1127a561-55dc-461d-840d-fc4e71e9155a","ios":"levelo://app?vid=1127a561-55dc-461d-840d-fc4e71e9155a"},"vehicle_type_id":"4","last_reported":1740395275,"current_range_meters":8800,"station_id":"ce4bhpp2rcd13ifvqhfg","pricing_plan_id":"cebpf4jnsgd1na2vs0mg"},{"bike_id":"934fa269-c84a-4c60-bc6f-23a7decae83c","system_id":"levelo_inurba_marseille","lat":43.2501,"lon":5.38921,"is_reserved":false,"is_disabled":false,"rental_uris":{"android":"levelo://app?vid=934fa269-c84a-4c60-bc6f-23a7decae83c","ios":"levelo://app?vid=934fa269-c84a-4c60-bc6f-23a7decae83c"},"vehicle_type_id":"4","last_reported":1740395275,"current_range_meters":8800,"station_id":"ce4bhgp2rcd13ifvqfd0","pricing_plan_id":"cebpf4jnsgd1na2vs0mg"},{"bike_id":"4da7c364-fe6d-4755-9b59-136247f3a5c0","system_id":"levelo_inurba_marseille","lat":43.29715,"lon":5.37693,"is_reserved":false,"is_disabled":false,"rental_uris":{"android":"levelo://app?vid=4da7c364-fe6d-4755-9b59-136247f3a5c0","ios":"levelo://app?vid=4da7c364-fe6d-4755-9b59-136247f3a5c0"},"vehicle_type_id":"4","last_reported":1740395275,"current_range_meters":8800,"station_id":"ce4bgkh2rcd13ifvqbl0","pricing_plan_id":"cebpf4jnsgd1na2vs0mg"},{"bike_id":"ab7da9df-c7ed-482b-9961-43b5cca3e34b","system_id":"levelo_inurba_marseille","lat":43.31114,"lon":5.37798,"is_reserved":false,"is_disabled":true,"rental_uris":{"android":"levelo://app?vid=ab7da9df-c7ed-482b-9961-43b5cca3e34b","ios":"levelo://app?vid=ab7da9df-c7ed-482b-9961-43b5cca3e34b"},"vehicle_type_id":"4","last_reported":1740395275,"current_range_meters":8800,"station_id":"ce4bgt92rcd13ifvqcg0","pricing_plan_id":"cebpf4jnsgd1na2vs0mg"},{"bike_id":"769d0dae-7575-4e66-ae92-2b40ba318d9c","system_id":"levelo_inurba_marseille","lat":43.2511,"lon":5.40324,"is_reserved":false,"is_disabled":false,"rental_uris":{"android":"levelo://app?vid=769d0dae-7575-4e66-ae92-2b40ba318d9c","ios":"levelo://app?vid=769d0dae-7575-4e66-ae92-2b40ba318d9c"},"vehicle_type_id":"4","last_reported":1740395275,"current_range_meters":8800,"station_id":"ce4bhlh2rcd13ifvqgig","pricing_plan_id":"cebpf4jnsgd1na2vs0mg"},{"bike_id":"41b8905f-5d71-47d2-981b-cd5802ac227d","system_id":"levelo_inurba_marseille","lat":43.29243,"lon":5.39953,"is_reserved":false,"is_disabled":false,"rental_uris":{"android":"levelo://app?vid=41b8905f-5d71-47d2-981b-cd5802ac227d","ios":"levelo://app?vid=41b8905f-5d71-47d2-981b-cd5802ac227d"},"vehicle_type_id":"4","last_reported":1740395275,"current_range_meters":8800,"station_id":"","pricing_plan_id":"cebpf4jnsgd1na2vs0mg"},{"bike_id":"a7fa2785-50df-467d-852e-5fa4a94f0f7d","system_id":"levelo_inurba_marseille","lat":43.29953,"lon":5.41321,"is_reserved":false,"is_disabled":false,"rental_uris":{"android":"levelo://app?vid=a7fa2785-50df-467d-852e-5fa4a94f0f7d","ios":"levelo://app?vid=a7fa2785-50df-467d-852e-5fa4a94f0f7d"},"vehicle_type_id":"4","last_reported":1740395275,"current_range_meters":8800,"station_id":"ce4bhp12rcd13ifvqh9g","pricing_plan_id":"cebpf4jnsgd1na2vs0mg"},{"bike_id":"e047fd22-fba3-438a-99b3-065e69b8a446","system_id":"levelo_inurba_marseille","lat":43.29035,"lon":5.38638,"is_reserved":false,"is_disabled":false,"rental_uris":{"android":"levelo://app?vid=e047fd22-fba3-438a-99b3-065e69b8a446","ios":"levelo://app?vid=e047fd22-fba3-438a-99b3-065e69b8a446"},"vehicle_type_id":"4","last_reported":1740395275,"current_range_meters":8800,"station_id":"ce4bh4p2rcd13ifvqe0g","pricing_plan_id":"cebpf4jnsgd1na2vs0mg"},{"bike_id":"79423435-50c4-4f9d-b5f5-bf531937b957","system_id":"levelo_inurba_marseille","lat":43.30974,"lon":5.39034,"is_reserved":false,"is_disabled":false,"rental_uris":{"android":"levelo://app?vid=79423435-50c4-4f9d-b5f5-bf531937b957","ios":"levelo://app?vid=79423435-50c4-4f9d-b5f5-bf531937b957"},"vehicle_type_id":"4","last_reported":1740395275,"current_range_meters":9200,"station_id":"ce4bgup2rcd13ifvqco0","pricing_plan_id":"cebpf4jnsgd1na2vs0mg"},{"bike_id":"a8dc7729-6589-4862-ac61-2b20487771e6","system_id":"levelo_inurba_marseille","lat":43.32128,"lon":5.36739,"is_reserved":false,"is_disabled":false,"rental_uris":{"android":"levelo://app?vid=a8dc7729-6589-4862-ac61-2b20487771e6","ios":"levelo://app?vid=a8dc7729-6589-4862-ac61-2b20487771e6"},"vehicle_type_id":"4","last_reported":1740395275,"current_range_meters":9200,"station_id":"ce4bhrh2rcd13ifvqhug","pricing_plan_id":"cebpf4jnsgd1na2vs0mg"},{"bike_id":"a98b92eb-8791-4383-8199-5dbca4f0e12b","system_id":"levelo_inurba_marseille","lat":43.28499,"lon":5.426194,"is_reserved":false,"is_disabled":false,"rental_uris":{"android":"levelo://app?vid=a98b92eb-8791-4383-8199-5dbca4f0e12b","ios":"levelo://app?vid=a98b92eb-8791-4383-8199-5dbca4f0e12b"},"vehicle_type_id":"4","last_reported":1740395275,"current_range_meters":9200,"station_id":"ce4bhnh2rcd13ifvqgug","pricing_plan_id":"cebpf4jnsgd1na2vs0mg"},{"bike_id":"bf8b3c77-18bb-4d7a-99fd-ad0172b50e87","system_id":"levelo_inurba_marseille","lat":43.30146,"lon":5.37413,"is_reserved":false,"is_disabled":false,"rental_uris":{"android":"levelo://app?vid=bf8b3c77-18bb-4d7a-99fd-ad0172b50e87","ios":"levelo://app?vid=bf8b3c77-18bb-4d7a-99fd-ad0172b50e87"},"vehicle_type_id":"4","last_reported":1740395275,"current_range_meters":9200,"station_id":"ce4bgs92rcd13ifvqcc0","pricing_plan_id":"cebpf4jnsgd1na2vs0mg"},{"bike_id":"9fdc5228-e835-4793-ad30-e5834cfd975b","system_id":"levelo_inurba_marseille","lat":43.25859,"lon":5.39902,"is_reserved":false,"is_disabled":false,"rental_uris":{"android":"levelo://app?vid=9fdc5228-e835-4793-ad30-e5834cfd975b","ios":"levelo://app?vid=9fdc5228-e835-4793-ad30-e5834cfd975b"},"vehicle_type_id":"4","last_reported":1740395275,"current_range_meters":9200,"station_id":"ce4bhl92rcd13ifvqghg","pricing_plan_id":"cebpf4jnsgd1na2vs0mg"},{"bike_id":"a3610751-bbe4-4d3e-a717-1a0eebd2fb2a","system_id":"levelo_inurba_marseille","lat":43.30684,"lon":5.37521,"is_reserved":false,"is_disabled":false,"rental_uris":{"android":"levelo://app?vid=a3610751-bbe4-4d3e-a717-1a0eebd2fb2a","ios":"levelo://app?vid=a3610751-bbe4-4d3e-a717-1a0eebd2fb2a"},"vehicle_type_id":"4","last_reported":1740395275,"current_range_meters":9200,"station_id":"","pricing_plan_id":"cebpf4jnsgd1na2vs0mg"},{"bike_id":"5de90a37-b7c7-4a02-ac2e-e5ef7e12ddbb","system_id":"levelo_inurba_marseille","lat":43.24159,"lon":5.36425,"is_reserved":false,"is_disabled":false,"rental_uris":{"android":"levelo://app?vid=5de90a37-b7c7-4a02-ac2e-e5ef7e12ddbb","ios":"levelo://app?vid=5de90a37-b7c7-4a02-ac2e-e5ef7e12ddbb"},"vehicle_type_id":"4","last_reported":1740395275,"current_range_meters":9600,"station_id":"cpo36qri1sfpv3e86is0","pricing_plan_id":"cebpf4jnsgd1na2vs0mg"},{"bike_id":"59cee8b2-041d-483f-9014-53e4c3fcc3d2","system_id":"levelo_inurba_marseille","lat":43.28281,"lon":5.35097,"is_reserved":false,"is_disabled":true,"rental_uris":{"android":"levelo://app?vid=59cee8b2-041d-483f-9014-53e4c3fcc3d2","ios":"levelo://app?vid=59cee8b2-041d-483f-9014-53e4c3fcc3d2"},"vehicle_type_id":"4","last_reported":1740395275,"current_range_meters":9600,"station_id":"ce4bhbp2rcd13ifvqerg","pricing_plan_id":"cebpf4jnsgd1na2vs0mg"},{"bike_id":"dd6d0f3e-06cb-4ba3-b701-c3b17b9c6c29","system_id":"levelo_inurba_marseille","lat":43.29892,"lon":5.4367,"is_reserved":false,"is_disabled":false,"rental_uris":{"android":"levelo://app?vid=dd6d0f3e-06cb-4ba3-b701-c3b17b9c6c29","ios":"levelo://app?vid=dd6d0f3e-06cb-4ba3-b701-c3b17b9c6c29"},"vehicle_type_id":"4","last_reported":1740395275,"current_range_meters":9200,"station_id":"ce4bhpp2rcd13ifvqhfg","pricing_plan_id":"cebpf4jnsgd1na2vs0mg"},{"bike_id":"bfec4bef-82ff-4ff0-a064-581eacb64d10","system_id":"levelo_inurba_marseille","lat":43.26057,"lon":5.39398,"is_reserved":false,"is_disabled":false,"rental_uris":{"android":"levelo://app?vid=bfec4bef-82ff-4ff0-a064-581eacb64d10","ios":"levelo://app?vid=bfec4bef-82ff-4ff0-a064-581eacb64d10"},"vehicle_type_id":"4","last_reported":1740395275,"current_range_meters":9600,"station_id":"ce4bhh92rcd13ifvqfj0","pricing_plan_id":"cebpf4jnsgd1na2vs0mg"},{"bike_id":"860eff15-4aff-4d92-8690-98414ae73df2","system_id":"levelo_inurba_marseille","lat":43.26507,"lon":5.3906,"is_reserved":false,"is_disabled":true,"rental_uris":{"android":"levelo://app?vid=860eff15-4aff-4d92-8690-98414ae73df2","ios":"levelo://app?vid=860eff15-4aff-4d92-8690-98414ae73df2"},"vehicle_type_id":"4","last_reported":1740395275,"current_range_meters":10000,"station_id":"ce4bhe12rcd13ifvqf30","pricing_plan_id":"cebpf4jnsgd1na2vs0mg"},{"bike_id":"a993bf50-2e24-4459-b259-85663b01f835","system_id":"levelo_inurba_marseille","lat":43.2455,"lon":5.39525,"is_reserved":false,"is_disabled":false,"rental_uris":{"android":"levelo://app?vid=a993bf50-2e24-4459-b259-85663b01f835","ios":"levelo://app?vid=a993bf50-2e24-4459-b259-85663b01f835"},"vehicle_type_id":"4","last_reported":1740395275,"current_range_meters":10000,"station_id":"ce4bhlp2rcd13ifvqgjg","pricing_plan_id":"cebpf4jnsgd1na2vs0mg"},{"bike_id":"47658611-b378-4943-a496-50f710ab6711","system_id":"levelo_inurba_marseille","lat":43.29295,"lon":5.3745,"is_reserved":false,"is_disabled":false,"rental_uris":{"android":"levelo://app?vid=47658611-b378-4943-a496-50f710ab6711","ios":"levelo://app?vid=47658611-b378-4943-a496-50f710ab6711"},"vehicle_type_id":"4","last_reported":1740395275,"current_range_meters":10000,"station_id":"ce4bgi12rcd13ifvqb70","pricing_plan_id":"cebpf4jnsgd1na2vs0mg"},{"bike_id":"6399c70e-3b4d-49f9-bd0b-6ab1ce61309b","system_id":"levelo_inurba_marseille","lat":43.25576,"lon":5.38239,"is_reserved":false,"is_disabled":false,"rental_uris":{"android":"levelo://app?vid=6399c70e-3b4d-49f9-bd0b-6ab1ce61309b","ios":"levelo://app?vid=6399c70e-3b4d-49f9-bd0b-6ab1ce61309b"},"vehicle_type_id":"4","last_reported":1740395275,"current_range_meters":10800,"station_id":"ce4bhih2rcd13ifvqfs0","pricing_plan_id":"cebpf4jnsgd1na2vs0mg"},{"bike_id":"9faf844a-413f-419f-bdea-64830f7f2bfb","system_id":"levelo_inurba_marseille","lat":43.299,"lon":5.37862,"is_reserved":false,"is_disabled":false,"rental_uris":{"android":"levelo://app?vid=9faf844a-413f-419f-bdea-64830f7f2bfb","ios":"levelo://app?vid=9faf844a-413f-419f-bdea-64830f7f2bfb"},"vehicle_type_id":"4","last_reported":1740395275,"current_range_meters":10800,"station_id":"","pricing_plan_id":"cebpf4jnsgd1na2vs0mg"},{"bike_id":"f2432c4e-f972-41c3-a9a8-ce0b38f5cad6","system_id":"levelo_inurba_marseille","lat":43.27211,"lon":5.39175,"is_reserved":false,"is_disabled":false,"rental_uris":{"android":"levelo://app?vid=f2432c4e-f972-41c3-a9a8-ce0b38f5cad6","ios":"levelo://app?vid=f2432c4e-f972-41c3-a9a8-ce0b38f5cad6"},"vehicle_type_id":"4","last_reported":1740395275,"current_range_meters":10800,"station_id":"ce4bhhp2rcd13ifvqfm0","pricing_plan_id":"cebpf4jnsgd1na2vs0mg"},{"bike_id":"dc54d4c7-bc24-4392-9110-799e297e7337","system_id":"levelo_inurba_marseille","lat":43.29351,"lon":5.37257,"is_reserved":false,"is_disabled":false,"rental_uris":{"android":"levelo://app?vid=dc54d4c7-bc24-4392-9110-799e297e7337","ios":"levelo://app?vid=dc54d4c7-bc24-4392-9110-799e297e7337"},"vehicle_type_id":"4","last_reported":1740395275,"current_range_meters":10800,"station_id":"","pricing_plan_id":"cebpf4jnsgd1na2vs0mg"},{"bike_id":"fc93a0cd-d658-4fe7-9e6a-52a49333f268","system_id":"levelo_inurba_marseille","lat":43.30819,"lon":5.38185,"is_reserved":false,"is_disabled":false,"rental_uris":{"android":"levelo://app?vid=fc93a0cd-d658-4fe7-9e6a-52a49333f268","ios":"levelo://app?vid=fc93a0cd-d658-4fe7-9e6a-52a49333f268"},"vehicle_type_id":"4","last_reported":1740395275,"current_range_meters":10800,"station_id":"ce4bgt12rcd13ifvqce0","pricing_plan_id":"cebpf4jnsgd1na2vs0mg"},{"bike_id":"71958289-3578-4314-8703-1708e9840f6b","system_id":"levelo_inurba_marseille","lat":43.28352,"lon":5.38105,"is_reserved":false,"is_disabled":false,"rental_uris":{"android":"levelo://app?vid=71958289-3578-4314-8703-1708e9840f6b","ios":"levelo://app?vid=71958289-3578-4314-8703-1708e9840f6b"},"vehicle_type_id":"4","last_reported":1740395275,"current_range_meters":11200,"station_id":"ce4bgk12rcd13ifvqbi0","pricing_plan_id":"cebpf4jnsgd1na2vs0mg"},{"bike_id":"3fe402df-efb2-421d-9441-7aab75d83404","system_id":"levelo_inurba_marseille","lat":43.23145,"lon":5.43723,"is_reserved":false,"is_disabled":false,"rental_uris":{"android":"levelo://app?vid=3fe402df-efb2-421d-9441-7aab75d83404","ios":"levelo://app?vid=3fe402df-efb2-421d-9441-7aab75d83404"},"vehicle_type_id":"4","last_reported":1740395275,"current_range_meters":11600,"station_id":"ce4bhmp2rcd13ifvqgog","pricing_plan_id":"cebpf4jnsgd1na2vs0mg"},{"bike_id":"10a9365f-072c-4bc6-9967-75e3cf71bc73","system_id":"levelo_inurba_marseille","lat":43.26384,"lon":5.39591,"is_reserved":false,"is_disabled":false,"rental_uris":{"android":"levelo://app?vid=10a9365f-072c-4bc6-9967-75e3cf71bc73","ios":"levelo://app?vid=10a9365f-072c-4bc6-9967-75e3cf71bc73"},"vehicle_type_id":"4","last_reported":1740395275,"current_range_meters":11600,"station_id":"","pricing_plan_id":"cebpf4jnsgd1na2vs0mg"},{"bike_id":"06e1f752-0631-4115-b2d5-0075ce84bc3c","system_id":"levelo_inurba_marseille","lat":43.25828,"lon":5.3944,"is_reserved":false,"is_disabled":false,"rental_uris":{"android":"levelo://app?vid=06e1f752-0631-4115-b2d5-0075ce84bc3c","ios":"levelo://app?vid=06e1f752-0631-4115-b2d5-0075ce84bc3c"},"vehicle_type_id":"4","last_reported":1740395275,"current_range_meters":12000,"station_id":"ce4bhip2rcd13ifvqft0","pricing_plan_id":"cebpf4jnsgd1na2vs0mg"},{"bike_id":"9e119d0b-c0b5-4dc4-8adb-833c259e51d8","system_id":"levelo_inurba_marseille","lat":43.26951,"lon":5.3863,"is_reserved":false,"is_disabled":false,"rental_uris":{"android":"levelo://app?vid=9e119d0b-c0b5-4dc4-8adb-833c259e51d8","ios":"levelo://app?vid=9e119d0b-c0b5-4dc4-8adb-833c259e51d8"},"vehicle_type_id":"4","last_reported":1740395275,"current_range_meters":12000,"station_id":"ce4bhh92rcd13ifvqfh0","pricing_plan_id":"cebpf4jnsgd1na2vs0mg"},{"bike_id":"3ba64b92-b77a-4578-831a-8b81eb3cb1a5","system_id":"levelo_inurba_marseille","lat":43.28266,"lon":5.35066,"is_reserved":false,"is_disabled":false,"rental_uris":{"android":"levelo://app?vid=3ba64b92-b77a-4578-831a-8b81eb3cb1a5","ios":"levelo://app?vid=3ba64b92-b77a-4578-831a-8b81eb3cb1a5"},"vehicle_type_id":"4","last_reported":1740395275,"current_range_meters":10800,"station_id":"ce4bhbp2rcd13ifvqerg","pricing_plan_id":"cebpf4jnsgd1na2vs0mg"},{"bike_id":"56df2748-2c2e-439e-a556-627cad7c808a","system_id":"levelo_inurba_marseille","lat":43.26681,"lon":5.38276,"is_reserved":false,"is_disabled":false,"rental_uris":{"android":"levelo://app?vid=56df2748-2c2e-439e-a556-627cad7c808a","ios":"levelo://app?vid=56df2748-2c2e-439e-a556-627cad7c808a"},"vehicle_type_id":"4","last_reported":1740395275,"current_range_meters":12400,"station_id":"ce4bhg92rcd13ifvqf90","pricing_plan_id":"cebpf4jnsgd1na2vs0mg"},{"bike_id":"8db8ed58-37cb-4c97-97a8-1ea2735c388d","system_id":"levelo_inurba_marseille","lat":43.26741,"lon":5.39446,"is_reserved":false,"is_disabled":false,"rental_uris":{"android":"levelo://app?vid=8db8ed58-37cb-4c97-97a8-1ea2735c388d","ios":"levelo://app?vid=8db8ed58-37cb-4c97-97a8-1ea2735c388d"},"vehicle_type_id":"4","last_reported":1740395275,"current_range_meters":12400,"station_id":"","pricing_plan_id":"cebpf4jnsgd1na2vs0mg"},{"bike_id":"01d1da51-2cef-46ef-923d-6fa5ded2f3da","system_id":"levelo_inurba_marseille","lat":43.30486,"lon":5.36518,"is_reserved":false,"is_disabled":false,"rental_uris":{"android":"levelo://app?vid=01d1da51-2cef-46ef-923d-6fa5ded2f3da","ios":"levelo://app?vid=01d1da51-2cef-46ef-923d-6fa5ded2f3da"},"vehicle_type_id":"4","last_reported":1740395275,"current_range_meters":12400,"station_id":"ce4bgs12rcd13ifvqcag","pricing_plan_id":"cebpf4jnsgd1na2vs0mg"},{"bike_id":"7d0e072a-3432-4778-a61a-3575849181ae","system_id":"levelo_inurba_marseille","lat":43.30541,"lon":5.36533,"is_reserved":false,"is_disabled":false,"rental_uris":{"android":"levelo://app?vid=7d0e072a-3432-4778-a61a-3575849181ae","ios":"levelo://app?vid=7d0e072a-3432-4778-a61a-3575849181ae"},"vehicle_type_id":"4","last_reported":1740395275,"current_range_meters":12800,"station_id":"ce4bgs12rcd13ifvqcag","pricing_plan_id":"cebpf4jnsgd1na2vs0mg"},{"bike_id":"7fe0996e-2e24-4a3a-b975-03a2a20f6506","system_id":"levelo_inurba_marseille","lat":43.32361,"lon":5.36755,"is_reserved":false,"is_disabled":false,"rental_uris":{"android":"levelo://app?vid=7fe0996e-2e24-4a3a-b975-03a2a20f6506","ios":"levelo://app?vid=7fe0996e-2e24-4a3a-b975-03a2a20f6506"},"vehicle_type_id":"4","last_reported":1740395275,"current_range_meters":12800,"station_id":"ce4bhsh2rcd13ifvqi2g","pricing_plan_id":"cebpf4jnsgd1na2vs0mg"},{"bike_id":"d1a1f41d-d5c3-4e15-a152-cd4283abd7c7","system_id":"levelo_inurba_marseille","lat":43.30272,"lon":5.37697,"is_reserved":false,"is_disabled":false,"rental_uris":{"android":"levelo://app?vid=d1a1f41d-d5c3-4e15-a152-cd4283abd7c7","ios":"levelo://app?vid=d1a1f41d-d5c3-4e15-a152-cd4283abd7c7"},"vehicle_type_id":"4","last_reported":1740395275,"current_range_meters":12800,"station_id":"ce4bguh2rcd13ifvqcj0","pricing_plan_id":"cebpf4jnsgd1na2vs0mg"},{"bike_id":"407310b2-8975-442e-88f3-4cfc2adac278","system_id":"levelo_inurba_marseille","lat":43.2942,"lon":5.38619,"is_reserved":false,"is_disabled":false,"rental_uris":{"android":"levelo://app?vid=407310b2-8975-442e-88f3-4cfc2adac278","ios":"levelo://app?vid=407310b2-8975-442e-88f3-4cfc2adac278"},"vehicle_type_id":"4","last_reported":1740395275,"current_range_meters":12800,"station_id":"ce4bh2h2rcd13ifvqdh0","pricing_plan_id":"cebpf4jnsgd1na2vs0mg"},{"bike_id":"25ef5a1f-5aec-48a2-a786-541af88b2004","system_id":"levelo_inurba_marseille","lat":43.30362,"lon":5.39443,"is_reserved":false,"is_disabled":false,"rental_uris":{"android":"levelo://app?vid=25ef5a1f-5aec-48a2-a786-541af88b2004","ios":"levelo://app?vid=25ef5a1f-5aec-48a2-a786-541af88b2004"},"vehicle_type_id":"4","last_reported":1740395275,"current_range_meters":13600,"station_id":"","pricing_plan_id":"cebpf4jnsgd1na2vs0mg"},{"bike_id":"41a2216f-8b22-4f4f-9eac-5e2283bcdb4b","system_id":"levelo_inurba_marseille","lat":43.28156,"lon":5.42656,"is_reserved":false,"is_disabled":true,"rental_uris":{"android":"levelo://app?vid=41a2216f-8b22-4f4f-9eac-5e2283bcdb4b","ios":"levelo://app?vid=41a2216f-8b22-4f4f-9eac-5e2283bcdb4b"},"vehicle_type_id":"4","last_reported":1740395275,"current_range_meters":13600,"station_id":"ce4bhnh2rcd13ifvqgug","pricing_plan_id":"cebpf4jnsgd1na2vs0mg"},{"bike_id":"2b512a9e-47a8-4c34-a21c-f85bc9da9f6d","system_id":"levelo_inurba_marseille","lat":43.23181,"lon":5.39983,"is_reserved":false,"is_disabled":false,"rental_uris":{"android":"levelo://app?vid=2b512a9e-47a8-4c34-a21c-f85bc9da9f6d","ios":"levelo://app?vid=2b512a9e-47a8-4c34-a21c-f85bc9da9f6d"},"vehicle_type_id":"4","last_reported":1740395275,"current_range_meters":13600,"station_id":"ce4bhn12rcd13ifvqgqg","pricing_plan_id":"cebpf4jnsgd1na2vs0mg"},{"bike_id":"ad505fac-e138-45e3-b358-d135036ac08a","system_id":"levelo_inurba_marseille","lat":43.246522,"lon":5.388984,"is_reserved":false,"is_disabled":false,"rental_uris":{"android":"levelo://app?vid=ad505fac-e138-45e3-b358-d135036ac08a","ios":"levelo://app?vid=ad505fac-e138-45e3-b358-d135036ac08a"},"vehicle_type_id":"4","last_reported":1740395275,"current_range_meters":14000,"station_id":"ce4bhg12rcd13ifvqf60","pricing_plan_id":"cebpf4jnsgd1na2vs0mg"},{"bike_id":"55e8dfe4-3690-4fe4-a013-f8375845b432","system_id":"levelo_inurba_marseille","lat":43.25924,"lon":5.40884,"is_reserved":false,"is_disabled":false,"rental_uris":{"android":"levelo://app?vid=55e8dfe4-3690-4fe4-a013-f8375845b432","ios":"levelo://app?vid=55e8dfe4-3690-4fe4-a013-f8375845b432"},"vehicle_type_id":"4","last_reported":1740395275,"current_range_meters":14000,"station_id":"ce4bhm92rcd13ifvqglg","pricing_plan_id":"cebpf4jnsgd1na2vs0mg"},{"bike_id":"ce9a237e-f064-4a96-a8c6-bb6f73832877","system_id":"levelo_inurba_marseille","lat":43.295227,"lon":5.394063,"is_reserved":false,"is_disabled":false,"rental_uris":{"android":"levelo://app?vid=ce9a237e-f064-4a96-a8c6-bb6f73832877","ios":"levelo://app?vid=ce9a237e-f064-4a96-a8c6-bb6f73832877"},"vehicle_type_id":"4","last_reported":1740395275,"current_range_meters":14000,"station_id":"ce4bh3p2rcd13ifvqdq0","pricing_plan_id":"cebpf4jnsgd1na2vs0mg"},{"bike_id":"bc5fff51-e01e-46fc-8536-90b9645e2001","system_id":"levelo_inurba_marseille","lat":43.30297,"lon":5.36911,"is_reserved":false,"is_disabled":false,"rental_uris":{"android":"levelo://app?vid=bc5fff51-e01e-46fc-8536-90b9645e2001","ios":"levelo://app?vid=bc5fff51-e01e-46fc-8536-90b9645e2001"},"vehicle_type_id":"4","last_reported":1740395275,"current_range_meters":14400,"station_id":"ce4bgqh2rcd13ifvqc5g","pricing_plan_id":"cebpf4jnsgd1na2vs0mg"},{"bike_id":"da805173-c32f-4615-b8c5-69bdaf0f2e7f","system_id":"levelo_inurba_marseille","lat":43.29012,"lon":5.35618,"is_reserved":false,"is_disabled":true,"rental_uris":{"android":"levelo://app?vid=da805173-c32f-4615-b8c5-69bdaf0f2e7f","ios":"levelo://app?vid=da805173-c32f-4615-b8c5-69bdaf0f2e7f"},"vehicle_type_id":"4","last_reported":1740395275,"current_range_meters":14400,"station_id":"ce4bhb92rcd13ifvqen0","pricing_plan_id":"cebpf4jnsgd1na2vs0mg"},{"bike_id":"8f379b35-e4e1-4d8c-8319-ea3240528b0a","system_id":"levelo_inurba_marseille","lat":43.27492,"lon":5.42459,"is_reserved":false,"is_disabled":false,"rental_uris":{"android":"levelo://app?vid=8f379b35-e4e1-4d8c-8319-ea3240528b0a","ios":"levelo://app?vid=8f379b35-e4e1-4d8c-8319-ea3240528b0a"},"vehicle_type_id":"4","last_reported":1740395275,"current_range_meters":14400,"station_id":"ce4bhn92rcd13ifvqgrg","pricing_plan_id":"cebpf4jnsgd1na2vs0mg"},{"bike_id":"9a430061-f10e-4e5e-9ce8-598e3ea94c1a","system_id":"levelo_inurba_marseille","lat":43.24189,"lon":5.39735,"is_reserved":false,"is_disabled":false,"rental_uris":{"android":"levelo://app?vid=9a430061-f10e-4e5e-9ce8-598e3ea94c1a","ios":"levelo://app?vid=9a430061-f10e-4e5e-9ce8-598e3ea94c1a"},"vehicle_type_id":"4","last_reported":1740395275,"current_range_meters":14400,"station_id":"ce4bhn12rcd13ifvqgpg","pricing_plan_id":"cebpf4jnsgd1na2vs0mg"},{"bike_id":"66f0ec1e-c319-4fe7-bbb7-77543d8b7c11","system_id":"levelo_inurba_marseille","lat":43.25901,"lon":5.40961,"is_reserved":false,"is_disabled":false,"rental_uris":{"android":"levelo://app?vid=66f0ec1e-c319-4fe7-bbb7-77543d8b7c11","ios":"levelo://app?vid=66f0ec1e-c319-4fe7-bbb7-77543d8b7c11"},"vehicle_type_id":"4","last_reported":1740395275,"current_range_meters":14400,"station_id":"","pricing_plan_id":"cebpf4jnsgd1na2vs0mg"},{"bike_id":"4b1eaef8-a348-424f-86e8-f6e23d3f8341","system_id":"levelo_inurba_marseille","lat":43.29903,"lon":5.38151,"is_reserved":false,"is_disabled":false,"rental_uris":{"android":"levelo://app?vid=4b1eaef8-a348-424f-86e8-f6e23d3f8341","ios":"levelo://app?vid=4b1eaef8-a348-424f-86e8-f6e23d3f8341"},"vehicle_type_id":"4","last_reported":1740395275,"current_range_meters":14400,"station_id":"ce4bgj12rcd13ifvqbc0","pricing_plan_id":"cebpf4jnsgd1na2vs0mg"},{"bike_id":"cd1ed5da-4193-4b1f-828e-88308d393b06","system_id":"levelo_inurba_marseille","lat":43.33611,"lon":5.4102,"is_reserved":false,"is_disabled":false,"rental_uris":{"android":"levelo://app?vid=cd1ed5da-4193-4b1f-828e-88308d393b06","ios":"levelo://app?vid=cd1ed5da-4193-4b1f-828e-88308d393b06"},"vehicle_type_id":"4","last_reported":1740395275,"current_range_meters":14800,"station_id":"ce4bhqh2rcd13ifvqhmg","pricing_plan_id":"cebpf4jnsgd1na2vs0mg"},{"bike_id":"2b0c9749-918f-4c73-866c-b7194bd62e5f","system_id":"levelo_inurba_marseille","lat":43.27992,"lon":5.40014,"is_reserved":false,"is_disabled":false,"rental_uris":{"android":"levelo://app?vid=2b0c9749-918f-4c73-866c-b7194bd62e5f","ios":"levelo://app?vid=2b0c9749-918f-4c73-866c-b7194bd62e5f"},"vehicle_type_id":"4","last_reported":1740395275,"current_range_meters":14800,"station_id":"ce4bho92rcd13ifvqh4g","pricing_plan_id":"cebpf4jnsgd1na2vs0mg"},{"bike_id":"8eb7a4f5-d7c7-45fa-9d22-3b6547d841cd","system_id":"levelo_inurba_marseille","lat":43.2903,"lon":5.39963,"is_reserved":false,"is_disabled":false,"rental_uris":{"android":"levelo://app?vid=8eb7a4f5-d7c7-45fa-9d22-3b6547d841cd","ios":"levelo://app?vid=8eb7a4f5-d7c7-45fa-9d22-3b6547d841cd"},"vehicle_type_id":"4","last_reported":1740395275,"current_range_meters":14800,"station_id":"ce4bh392rcd13ifvqdm0","pricing_plan_id":"cebpf4jnsgd1na2vs0mg"},{"bike_id":"615a02a6-6646-4df1-8ade-8686d89d8747","system_id":"levelo_inurba_marseille","lat":43.31332,"lon":5.39691,"is_reserved":false,"is_disabled":true,"rental_uris":{"android":"levelo://app?vid=615a02a6-6646-4df1-8ade-8686d89d8747","ios":"levelo://app?vid=615a02a6-6646-4df1-8ade-8686d89d8747"},"vehicle_type_id":"4","last_reported":1740395275,"current_range_meters":14800,"station_id":"ce4bgvp2rcd13ifvqcu0","pricing_plan_id":"cebpf4jnsgd1na2vs0mg"},{"bike_id":"668ee0cc-7133-4cdf-bc15-1a9f5d20ea60","system_id":"levelo_inurba_marseille","lat":43.29786,"lon":5.39346,"is_reserved":false,"is_disabled":false,"rental_uris":{"android":"levelo://app?vid=668ee0cc-7133-4cdf-bc15-1a9f5d20ea60","ios":"levelo://app?vid=668ee0cc-7133-4cdf-bc15-1a9f5d20ea60"},"vehicle_type_id":"4","last_reported":1740395275,"current_range_meters":15200,"station_id":"chh1huq6cuj3fo74tm60","pricing_plan_id":"cebpf4jnsgd1na2vs0mg"},{"bike_id":"d07822d3-2fdf-4cd3-b61a-402505c3f1d9","system_id":"levelo_inurba_marseille","lat":43.27997,"lon":5.40018,"is_reserved":false,"is_disabled":false,"rental_uris":{"android":"levelo://app?vid=d07822d3-2fdf-4cd3-b61a-402505c3f1d9","ios":"levelo://app?vid=d07822d3-2fdf-4cd3-b61a-402505c3f1d9"},"vehicle_type_id":"4","last_reported":1740395275,"current_range_meters":15200,"station_id":"ce4bho92rcd13ifvqh4g","pricing_plan_id":"cebpf4jnsgd1na2vs0mg"},{"bike_id":"4eed8502-a3f9-4e4e-808c-1ec441e9fb9d","system_id":"levelo_inurba_marseille","lat":43.281,"lon":5.37837,"is_reserved":false,"is_disabled":false,"rental_uris":{"android":"levelo://app?vid=4eed8502-a3f9-4e4e-808c-1ec441e9fb9d","ios":"levelo://app?vid=4eed8502-a3f9-4e4e-808c-1ec441e9fb9d"},"vehicle_type_id":"4","last_reported":1740395275,"current_range_meters":15200,"station_id":"ce4bha12rcd13ifvqee0","pricing_plan_id":"cebpf4jnsgd1na2vs0mg"},{"bike_id":"2cb3f284-7b8f-46db-a012-ff6c476270a8","system_id":"levelo_inurba_marseille","lat":43.23187,"lon":5.35558,"is_reserved":false,"is_disabled":false,"rental_uris":{"android":"levelo://app?vid=2cb3f284-7b8f-46db-a012-ff6c476270a8","ios":"levelo://app?vid=2cb3f284-7b8f-46db-a012-ff6c476270a8"},"vehicle_type_id":"4","last_reported":1740395275,"current_range_meters":15200,"station_id":"ce4bhu92rcd13ifvqi70","pricing_plan_id":"cebpf4jnsgd1na2vs0mg"},{"bike_id":"809a5499-8856-465d-9900-d02f97daa1a3","system_id":"levelo_inurba_marseille","lat":43.24084,"lon":5.3775,"is_reserved":false,"is_disabled":false,"rental_uris":{"android":"levelo://app?vid=809a5499-8856-465d-9900-d02f97daa1a3","ios":"levelo://app?vid=809a5499-8856-465d-9900-d02f97daa1a3"},"vehicle_type_id":"4","last_reported":1740395275,"current_range_meters":15200,"station_id":"ce4bhnp2rcd13ifvqgvg","pricing_plan_id":"cebpf4jnsgd1na2vs0mg"},{"bike_id":"706643d2-c89f-4374-8393-6c79d403ba35","system_id":"levelo_inurba_marseille","lat":43.29496,"lon":5.37529,"is_reserved":false,"is_disabled":true,"rental_uris":{"android":"levelo://app?vid=706643d2-c89f-4374-8393-6c79d403ba35","ios":"levelo://app?vid=706643d2-c89f-4374-8393-6c79d403ba35"},"vehicle_type_id":"4","last_reported":1740395275,"current_range_meters":16000,"station_id":"","pricing_plan_id":"cebpf4jnsgd1na2vs0mg"},{"bike_id":"d0f9baeb-9149-42dc-b55d-2776f262fab0","system_id":"levelo_inurba_marseille","lat":43.274901,"lon":5.424575,"is_reserved":false,"is_disabled":false,"rental_uris":{"android":"levelo://app?vid=d0f9baeb-9149-42dc-b55d-2776f262fab0","ios":"levelo://app?vid=d0f9baeb-9149-42dc-b55d-2776f262fab0"},"vehicle_type_id":"4","last_reported":1740395275,"current_range_meters":16000,"station_id":"ce4bhn92rcd13ifvqgrg","pricing_plan_id":"cebpf4jnsgd1na2vs0mg"},{"bike_id":"651daff1-98da-410a-b32e-701a59554f48","system_id":"levelo_inurba_marseille","lat":43.28483,"lon":5.38425,"is_reserved":false,"is_disabled":false,"rental_uris":{"android":"levelo://app?vid=651daff1-98da-410a-b32e-701a59554f48","ios":"levelo://app?vid=651daff1-98da-410a-b32e-701a59554f48"},"vehicle_type_id":"4","last_reported":1740395275,"current_range_meters":16000,"station_id":"ce4bh512rcd13ifvqe3g","pricing_plan_id":"cebpf4jnsgd1na2vs0mg"},{"bike_id":"8dc8947f-b4ba-43fa-8a3e-d3aa24ccb8cc","system_id":"levelo_inurba_marseille","lat":43.23961,"lon":5.36644,"is_reserved":false,"is_disabled":false,"rental_uris":{"android":"levelo://app?vid=8dc8947f-b4ba-43fa-8a3e-d3aa24ccb8cc","ios":"levelo://app?vid=8dc8947f-b4ba-43fa-8a3e-d3aa24ccb8cc"},"vehicle_type_id":"4","last_reported":1740395275,"current_range_meters":16000,"station_id":"ce4bhi12rcd13ifvqfp0","pricing_plan_id":"cebpf4jnsgd1na2vs0mg"},{"bike_id":"c97f5ab1-20b5-4c00-b657-8a7a3dfc639d","system_id":"levelo_inurba_marseille","lat":43.31222,"lon":5.37226,"is_reserved":false,"is_disabled":false,"rental_uris":{"android":"levelo://app?vid=c97f5ab1-20b5-4c00-b657-8a7a3dfc639d","ios":"levelo://app?vid=c97f5ab1-20b5-4c00-b657-8a7a3dfc639d"},"vehicle_type_id":"4","last_reported":1740395275,"current_range_meters":16400,"station_id":"","pricing_plan_id":"cebpf4jnsgd1na2vs0mg"},{"bike_id":"bed63fbe-cbad-4fc3-b28c-b0f5f1e90e32","system_id":"levelo_inurba_marseille","lat":43.337444,"lon":5.374475,"is_reserved":false,"is_disabled":false,"rental_uris":{"android":"levelo://app?vid=bed63fbe-cbad-4fc3-b28c-b0f5f1e90e32","ios":"levelo://app?vid=bed63fbe-cbad-4fc3-b28c-b0f5f1e90e32"},"vehicle_type_id":"4","last_reported":1740395275,"current_range_meters":16400,"station_id":"","pricing_plan_id":"cebpf4jnsgd1na2vs0mg"},{"bike_id":"35cd2393-9cb8-4dc4-9255-fd86d001fa5f","system_id":"levelo_inurba_marseille","lat":43.25118,"lon":5.40316,"is_reserved":false,"is_disabled":false,"rental_uris":{"android":"levelo://app?vid=35cd2393-9cb8-4dc4-9255-fd86d001fa5f","ios":"levelo://app?vid=35cd2393-9cb8-4dc4-9255-fd86d001fa5f"},"vehicle_type_id":"4","last_reported":1740395275,"current_range_meters":16400,"station_id":"ce4bhlh2rcd13ifvqgig","pricing_plan_id":"cebpf4jnsgd1na2vs0mg"},{"bike_id":"20c4b001-7bc5-40ad-b23f-f1b527d39223","system_id":"levelo_inurba_marseille","lat":43.29876,"lon":5.39728,"is_reserved":false,"is_disabled":false,"rental_uris":{"android":"levelo://app?vid=20c4b001-7bc5-40ad-b23f-f1b527d39223","ios":"levelo://app?vid=20c4b001-7bc5-40ad-b23f-f1b527d39223"},"vehicle_type_id":"4","last_reported":1740395275,"current_range_meters":16000,"station_id":"ce4bh0h2rcd13ifvqd50","pricing_plan_id":"cebpf4jnsgd1na2vs0mg"},{"bike_id":"f7a53193-6521-4d42-88a1-68ce0f56b10b","system_id":"levelo_inurba_marseille","lat":43.26059,"lon":5.39396,"is_reserved":false,"is_disabled":false,"rental_uris":{"android":"levelo://app?vid=f7a53193-6521-4d42-88a1-68ce0f56b10b","ios":"levelo://app?vid=f7a53193-6521-4d42-88a1-68ce0f56b10b"},"vehicle_type_id":"4","last_reported":1740395275,"current_range_meters":16400,"station_id":"ce4bhh92rcd13ifvqfj0","pricing_plan_id":"cebpf4jnsgd1na2vs0mg"},{"bike_id":"d4730943-c8a0-45ac-a541-8183607370d1","system_id":"levelo_inurba_marseille","lat":43.2501,"lon":5.38927,"is_reserved":false,"is_disabled":false,"rental_uris":{"android":"levelo://app?vid=d4730943-c8a0-45ac-a541-8183607370d1","ios":"levelo://app?vid=d4730943-c8a0-45ac-a541-8183607370d1"},"vehicle_type_id":"4","last_reported":1740395275,"current_range_meters":16400,"station_id":"ce4bhgp2rcd13ifvqfd0","pricing_plan_id":"cebpf4jnsgd1na2vs0mg"},{"bike_id":"6f659b43-696c-45e6-a6ff-94f50362d397","system_id":"levelo_inurba_marseille","lat":43.30544,"lon":5.36734,"is_reserved":false,"is_disabled":false,"rental_uris":{"android":"levelo://app?vid=6f659b43-696c-45e6-a6ff-94f50362d397","ios":"levelo://app?vid=6f659b43-696c-45e6-a6ff-94f50362d397"},"vehicle_type_id":"4","last_reported":1740395275,"current_range_meters":16400,"station_id":"ce4bgrp2rcd13ifvqc9g","pricing_plan_id":"cebpf4jnsgd1na2vs0mg"},{"bike_id":"54b23bfa-27ec-4835-9def-b21203126fb2","system_id":"levelo_inurba_marseille","lat":43.29697,"lon":5.40031,"is_reserved":false,"is_disabled":false,"rental_uris":{"android":"levelo://app?vid=54b23bfa-27ec-4835-9def-b21203126fb2","ios":"levelo://app?vid=54b23bfa-27ec-4835-9def-b21203126fb2"},"vehicle_type_id":"4","last_reported":1740395275,"current_range_meters":16400,"station_id":"ce4bh392rcd13ifvqdm0","pricing_plan_id":"cebpf4jnsgd1na2vs0mg"},{"bike_id":"7431e132-6d36-49cf-9215-85b1b1bba892","system_id":"levelo_inurba_marseille","lat":43.2952,"lon":5.37517,"is_reserved":false,"is_disabled":false,"rental_uris":{"android":"levelo://app?vid=7431e132-6d36-49cf-9215-85b1b1bba892","ios":"levelo://app?vid=7431e132-6d36-49cf-9215-85b1b1bba892"},"vehicle_type_id":"4","last_reported":1740395275,"current_range_meters":16800,"station_id":"ce4bgkp2rcd13ifvqbmg","pricing_plan_id":"cebpf4jnsgd1na2vs0mg"},{"bike_id":"f373858c-4bfe-491d-8681-185b20c75a86","system_id":"levelo_inurba_marseille","lat":43.30653,"lon":5.40098,"is_reserved":false,"is_disabled":true,"rental_uris":{"android":"levelo://app?vid=f373858c-4bfe-491d-8681-185b20c75a86","ios":"levelo://app?vid=f373858c-4bfe-491d-8681-185b20c75a86"},"vehicle_type_id":"4","last_reported":1740395275,"current_range_meters":16800,"station_id":"ce4bh112rcd13ifvqda0","pricing_plan_id":"cebpf4jnsgd1na2vs0mg"},{"bike_id":"5c4d5d55-b6da-47ea-bc81-b1ebd15ccf06","system_id":"levelo_inurba_marseille","lat":43.28932,"lon":5.36638,"is_reserved":false,"is_disabled":false,"rental_uris":{"android":"levelo://app?vid=5c4d5d55-b6da-47ea-bc81-b1ebd15ccf06","ios":"levelo://app?vid=5c4d5d55-b6da-47ea-bc81-b1ebd15ccf06"},"vehicle_type_id":"4","last_reported":1740395275,"current_range_meters":16800,"station_id":"ce4bhap2rcd13ifvqek0","pricing_plan_id":"cebpf4jnsgd1na2vs0mg"},{"bike_id":"a66059f6-2ce2-47aa-83b0-ca76626e6c68","system_id":"levelo_inurba_marseille","lat":43.24173,"lon":5.39738,"is_reserved":false,"is_disabled":false,"rental_uris":{"android":"levelo://app?vid=a66059f6-2ce2-47aa-83b0-ca76626e6c68","ios":"levelo://app?vid=a66059f6-2ce2-47aa-83b0-ca76626e6c68"},"vehicle_type_id":"4","last_reported":1740395275,"current_range_meters":16800,"station_id":"ce4bhn12rcd13ifvqgpg","pricing_plan_id":"cebpf4jnsgd1na2vs0mg"},{"bike_id":"67353ec5-ce91-46f3-8df8-86128e85fd44","system_id":"levelo_inurba_marseille","lat":43.28156,"lon":5.42646,"is_reserved":false,"is_disabled":false,"rental_uris":{"android":"levelo://app?vid=67353ec5-ce91-46f3-8df8-86128e85fd44","ios":"levelo://app?vid=67353ec5-ce91-46f3-8df8-86128e85fd44"},"vehicle_type_id":"4","last_reported":1740395275,"current_range_meters":16800,"station_id":"ce4bhnh2rcd13ifvqgug","pricing_plan_id":"cebpf4jnsgd1na2vs0mg"},{"bike_id":"df0ba0ea-b798-466b-9e3a-75220c03aa10","system_id":"levelo_inurba_marseille","lat":43.28417,"lon":5.34992,"is_reserved":false,"is_disabled":false,"rental_uris":{"android":"levelo://app?vid=df0ba0ea-b798-466b-9e3a-75220c03aa10","ios":"levelo://app?vid=df0ba0ea-b798-466b-9e3a-75220c03aa10"},"vehicle_type_id":"4","last_reported":1740395275,"current_range_meters":17200,"station_id":"ce4bhbh2rcd13ifvqepg","pricing_plan_id":"cebpf4jnsgd1na2vs0mg"},{"bike_id":"ad35292a-c073-4d0d-af69-aef7baf292e1","system_id":"levelo_inurba_marseille","lat":43.31163,"lon":5.38721,"is_reserved":false,"is_disabled":false,"rental_uris":{"android":"levelo://app?vid=ad35292a-c073-4d0d-af69-aef7baf292e1","ios":"levelo://app?vid=ad35292a-c073-4d0d-af69-aef7baf292e1"},"vehicle_type_id":"4","last_reported":1740395275,"current_range_meters":17200,"station_id":"ce4bgv12rcd13ifvqcp0","pricing_plan_id":"cebpf4jnsgd1na2vs0mg"},{"bike_id":"147467f8-df4e-4a9b-9e9b-8fc4b8bc51fd","system_id":"levelo_inurba_marseille","lat":43.30128,"lon":5.37422,"is_reserved":false,"is_disabled":false,"rental_uris":{"android":"levelo://app?vid=147467f8-df4e-4a9b-9e9b-8fc4b8bc51fd","ios":"levelo://app?vid=147467f8-df4e-4a9b-9e9b-8fc4b8bc51fd"},"vehicle_type_id":"4","last_reported":1740395275,"current_range_meters":17200,"station_id":"ce4bgs92rcd13ifvqcc0","pricing_plan_id":"cebpf4jnsgd1na2vs0mg"},{"bike_id":"7da6a383-5978-447e-b8b7-b13dbfefda9d","system_id":"levelo_inurba_marseille","lat":43.27496,"lon":5.42457,"is_reserved":false,"is_disabled":false,"rental_uris":{"android":"levelo://app?vid=7da6a383-5978-447e-b8b7-b13dbfefda9d","ios":"levelo://app?vid=7da6a383-5978-447e-b8b7-b13dbfefda9d"},"vehicle_type_id":"4","last_reported":1740395275,"current_range_meters":17200,"station_id":"ce4bhn92rcd13ifvqgrg","pricing_plan_id":"cebpf4jnsgd1na2vs0mg"},{"bike_id":"d0b77c90-acb5-4b50-93d7-7c4734e246cd","system_id":"levelo_inurba_marseille","lat":43.289907,"lon":5.386912,"is_reserved":false,"is_disabled":false,"rental_uris":{"android":"levelo://app?vid=d0b77c90-acb5-4b50-93d7-7c4734e246cd","ios":"levelo://app?vid=d0b77c90-acb5-4b50-93d7-7c4734e246cd"},"vehicle_type_id":"4","last_reported":1740395275,"current_range_meters":17200,"station_id":"ce4bh0h2rcd13ifvqd50","pricing_plan_id":"cebpf4jnsgd1na2vs0mg"},{"bike_id":"a2a01edb-023d-461b-9ed1-67e1fc306710","system_id":"levelo_inurba_marseille","lat":43.305437,"lon":5.36697,"is_reserved":false,"is_disabled":false,"rental_uris":{"android":"levelo://app?vid=a2a01edb-023d-461b-9ed1-67e1fc306710","ios":"levelo://app?vid=a2a01edb-023d-461b-9ed1-67e1fc306710"},"vehicle_type_id":"4","last_reported":1740395275,"current_range_meters":17200,"station_id":"ce4bgrp2rcd13ifvqc9g","pricing_plan_id":"cebpf4jnsgd1na2vs0mg"},{"bike_id":"15bde3e4-f2d9-4343-977e-9e29cea25b8c","system_id":"levelo_inurba_marseille","lat":43.31519,"lon":5.3804,"is_reserved":false,"is_disabled":false,"rental_uris":{"android":"levelo://app?vid=15bde3e4-f2d9-4343-977e-9e29cea25b8c","ios":"levelo://app?vid=15bde3e4-f2d9-4343-977e-9e29cea25b8c"},"vehicle_type_id":"4","last_reported":1740395275,"current_range_meters":16800,"station_id":"ce4bhsp2rcd13ifvqi50","pricing_plan_id":"cebpf4jnsgd1na2vs0mg"},{"bike_id":"002fc56f-f92b-47d9-bfcd-07462820ba2e","system_id":"levelo_inurba_marseille","lat":43.30151,"lon":5.38099,"is_reserved":false,"is_disabled":false,"rental_uris":{"android":"levelo://app?vid=002fc56f-f92b-47d9-bfcd-07462820ba2e","ios":"levelo://app?vid=002fc56f-f92b-47d9-bfcd-07462820ba2e"},"vehicle_type_id":"4","last_reported":1740395275,"current_range_meters":16800,"station_id":"ce4bgjp2rcd13ifvqbh0","pricing_plan_id":"cebpf4jnsgd1na2vs0mg"},{"bike_id":"073518a5-4dc0-447e-9477-a67f73b2a5a2","system_id":"levelo_inurba_marseille","lat":43.32374,"lon":5.3676,"is_reserved":false,"is_disabled":false,"rental_uris":{"android":"levelo://app?vid=073518a5-4dc0-447e-9477-a67f73b2a5a2","ios":"levelo://app?vid=073518a5-4dc0-447e-9477-a67f73b2a5a2"},"vehicle_type_id":"4","last_reported":1740395275,"current_range_meters":17200,"station_id":"ce4bhsh2rcd13ifvqi2g","pricing_plan_id":"cebpf4jnsgd1na2vs0mg"},{"bike_id":"486e2ada-5bcc-4384-96a4-414ac5e5e4a4","system_id":"levelo_inurba_marseille","lat":43.26938,"lon":5.38644,"is_reserved":false,"is_disabled":false,"rental_uris":{"android":"levelo://app?vid=486e2ada-5bcc-4384-96a4-414ac5e5e4a4","ios":"levelo://app?vid=486e2ada-5bcc-4384-96a4-414ac5e5e4a4"},"vehicle_type_id":"4","last_reported":1740395275,"current_range_meters":17600,"station_id":"ce4bhh92rcd13ifvqfh0","pricing_plan_id":"cebpf4jnsgd1na2vs0mg"},{"bike_id":"3cd03f65-d537-4e2f-ae9d-06a738421f4a","system_id":"levelo_inurba_marseille","lat":43.293,"lon":5.37184,"is_reserved":false,"is_disabled":false,"rental_uris":{"android":"levelo://app?vid=3cd03f65-d537-4e2f-ae9d-06a738421f4a","ios":"levelo://app?vid=3cd03f65-d537-4e2f-ae9d-06a738421f4a"},"vehicle_type_id":"4","last_reported":1740395275,"current_range_meters":17600,"station_id":"ce4bgh92rcd13ifvqb40","pricing_plan_id":"cebpf4jnsgd1na2vs0mg"},{"bike_id":"345366f6-516a-4d89-9170-80dbef722e3a","system_id":"levelo_inurba_marseille","lat":43.28161,"lon":5.42777,"is_reserved":false,"is_disabled":false,"rental_uris":{"android":"levelo://app?vid=345366f6-516a-4d89-9170-80dbef722e3a","ios":"levelo://app?vid=345366f6-516a-4d89-9170-80dbef722e3a"},"vehicle_type_id":"4","last_reported":1740395275,"current_range_meters":17600,"station_id":"ce4bhnh2rcd13ifvqgug","pricing_plan_id":"cebpf4jnsgd1na2vs0mg"},{"bike_id":"a437ce3e-94c1-4d80-949a-3eb291854603","system_id":"levelo_inurba_marseille","lat":43.30915,"lon":5.40153,"is_reserved":false,"is_disabled":true,"rental_uris":{"android":"levelo://app?vid=a437ce3e-94c1-4d80-949a-3eb291854603","ios":"levelo://app?vid=a437ce3e-94c1-4d80-949a-3eb291854603"},"vehicle_type_id":"4","last_reported":1740395275,"current_range_meters":17600,"station_id":"ce4bgvp2rcd13ifvqct0","pricing_plan_id":"cebpf4jnsgd1na2vs0mg"},{"bike_id":"67350e3b-ced3-434f-8df5-0f50029c572e","system_id":"levelo_inurba_marseille","lat":43.23179,"lon":5.35582,"is_reserved":false,"is_disabled":false,"rental_uris":{"android":"levelo://app?vid=67350e3b-ced3-434f-8df5-0f50029c572e","ios":"levelo://app?vid=67350e3b-ced3-434f-8df5-0f50029c572e"},"vehicle_type_id":"4","last_reported":1740395275,"current_range_meters":17600,"station_id":"ce4bhu92rcd13ifvqi70","pricing_plan_id":"cebpf4jnsgd1na2vs0mg"},{"bike_id":"4f5c28ac-4885-432b-9714-fec1b9e0a9de","system_id":"levelo_inurba_marseille","lat":43.29768,"lon":5.37115,"is_reserved":false,"is_disabled":false,"rental_uris":{"android":"levelo://app?vid=4f5c28ac-4885-432b-9714-fec1b9e0a9de","ios":"levelo://app?vid=4f5c28ac-4885-432b-9714-fec1b9e0a9de"},"vehicle_type_id":"4","last_reported":1740395275,"current_range_meters":17200,"station_id":"ce4bgop2rcd13ifvqc1g","pricing_plan_id":"cebpf4jnsgd1na2vs0mg"},{"bike_id":"d1c684af-a17a-437c-b7d3-1fc53a0ca241","system_id":"levelo_inurba_marseille","lat":43.27492,"lon":5.42455,"is_reserved":false,"is_disabled":false,"rental_uris":{"android":"levelo://app?vid=d1c684af-a17a-437c-b7d3-1fc53a0ca241","ios":"levelo://app?vid=d1c684af-a17a-437c-b7d3-1fc53a0ca241"},"vehicle_type_id":"4","last_reported":1740395275,"current_range_meters":17600,"station_id":"ce4bhn92rcd13ifvqgrg","pricing_plan_id":"cebpf4jnsgd1na2vs0mg"},{"bike_id":"5fc54711-15f5-44b0-973a-3f6a6a556cdb","system_id":"levelo_inurba_marseille","lat":43.270851,"lon":5.422725,"is_reserved":false,"is_disabled":false,"rental_uris":{"android":"levelo://app?vid=5fc54711-15f5-44b0-973a-3f6a6a556cdb","ios":"levelo://app?vid=5fc54711-15f5-44b0-973a-3f6a6a556cdb"},"vehicle_type_id":"4","last_reported":1740395275,"current_range_meters":17600,"station_id":"ce4bhk92rcd13ifvqgb0","pricing_plan_id":"cebpf4jnsgd1na2vs0mg"},{"bike_id":"042eb7c8-40df-4f8f-9f6a-e631084c9584","system_id":"levelo_inurba_marseille","lat":43.27203,"lon":5.39178,"is_reserved":false,"is_disabled":false,"rental_uris":{"android":"levelo://app?vid=042eb7c8-40df-4f8f-9f6a-e631084c9584","ios":"levelo://app?vid=042eb7c8-40df-4f8f-9f6a-e631084c9584"},"vehicle_type_id":"4","last_reported":1740395275,"current_range_meters":17600,"station_id":"ce4bhhp2rcd13ifvqfm0","pricing_plan_id":"cebpf4jnsgd1na2vs0mg"},{"bike_id":"e20ea495-e079-4c4f-9424-cf3771523818","system_id":"levelo_inurba_marseille","lat":43.30121,"lon":5.38794,"is_reserved":false,"is_disabled":false,"rental_uris":{"android":"levelo://app?vid=e20ea495-e079-4c4f-9424-cf3771523818","ios":"levelo://app?vid=e20ea495-e079-4c4f-9424-cf3771523818"},"vehicle_type_id":"4","last_reported":1740395275,"current_range_meters":18000,"station_id":"ce4bghh2rcd13ifvqb60","pricing_plan_id":"cebpf4jnsgd1na2vs0mg"},{"bike_id":"70210e2e-cc4a-49c9-91ae-9d13165ada35","system_id":"levelo_inurba_marseille","lat":43.30531,"lon":5.36705,"is_reserved":false,"is_disabled":false,"rental_uris":{"android":"levelo://app?vid=70210e2e-cc4a-49c9-91ae-9d13165ada35","ios":"levelo://app?vid=70210e2e-cc4a-49c9-91ae-9d13165ada35"},"vehicle_type_id":"4","last_reported":1740395275,"current_range_meters":18000,"station_id":"ce4bgrp2rcd13ifvqc9g","pricing_plan_id":"cebpf4jnsgd1na2vs0mg"},{"bike_id":"f0160043-f6ca-47c0-9d9b-10df12c28b69","system_id":"levelo_inurba_marseille","lat":43.28147,"lon":5.42622,"is_reserved":false,"is_disabled":false,"rental_uris":{"android":"levelo://app?vid=f0160043-f6ca-47c0-9d9b-10df12c28b69","ios":"levelo://app?vid=f0160043-f6ca-47c0-9d9b-10df12c28b69"},"vehicle_type_id":"4","last_reported":1740395275,"current_range_meters":18000,"station_id":"ce4bhnh2rcd13ifvqgug","pricing_plan_id":"cebpf4jnsgd1na2vs0mg"},{"bike_id":"da67e47d-4af1-4ff8-9b4f-c62542b1fd58","system_id":"levelo_inurba_marseille","lat":43.29868,"lon":5.39728,"is_reserved":false,"is_disabled":false,"rental_uris":{"android":"levelo://app?vid=da67e47d-4af1-4ff8-9b4f-c62542b1fd58","ios":"levelo://app?vid=da67e47d-4af1-4ff8-9b4f-c62542b1fd58"},"vehicle_type_id":"4","last_reported":1740395275,"current_range_meters":18000,"station_id":"ce4bh0h2rcd13ifvqd50","pricing_plan_id":"cebpf4jnsgd1na2vs0mg"},{"bike_id":"fafcab75-ad60-45c4-bbff-7d36b94c9428","system_id":"levelo_inurba_marseille","lat":43.27968,"lon":5.38765,"is_reserved":false,"is_disabled":false,"rental_uris":{"android":"levelo://app?vid=fafcab75-ad60-45c4-bbff-7d36b94c9428","ios":"levelo://app?vid=fafcab75-ad60-45c4-bbff-7d36b94c9428"},"vehicle_type_id":"4","last_reported":1740395275,"current_range_meters":17600,"station_id":"ce4bhg12rcd13ifvqf80","pricing_plan_id":"cebpf4jnsgd1na2vs0mg"},{"bike_id":"8b6d6dc7-9b3a-49c7-9e4e-44a1a302ed03","system_id":"levelo_inurba_marseille","lat":43.25924,"lon":5.40894,"is_reserved":false,"is_disabled":false,"rental_uris":{"android":"levelo://app?vid=8b6d6dc7-9b3a-49c7-9e4e-44a1a302ed03","ios":"levelo://app?vid=8b6d6dc7-9b3a-49c7-9e4e-44a1a302ed03"},"vehicle_type_id":"4","last_reported":1740395275,"current_range_meters":18000,"station_id":"ce4bhm92rcd13ifvqglg","pricing_plan_id":"cebpf4jnsgd1na2vs0mg"},{"bike_id":"479b9ae0-d182-4c84-9c54-e67ea850c4a9","system_id":"levelo_inurba_marseille","lat":43.30537,"lon":5.36532,"is_reserved":false,"is_disabled":false,"rental_uris":{"android":"levelo://app?vid=479b9ae0-d182-4c84-9c54-e67ea850c4a9","ios":"levelo://app?vid=479b9ae0-d182-4c84-9c54-e67ea850c4a9"},"vehicle_type_id":"4","last_reported":1740395275,"current_range_meters":18000,"station_id":"ce4bgs12rcd13ifvqcag","pricing_plan_id":"cebpf4jnsgd1na2vs0mg"},{"bike_id":"876aa59c-c91a-4ffc-81c7-21dd319d2cb2","system_id":"levelo_inurba_marseille","lat":43.29217,"lon":5.40501,"is_reserved":false,"is_disabled":false,"rental_uris":{"android":"levelo://app?vid=876aa59c-c91a-4ffc-81c7-21dd319d2cb2","ios":"levelo://app?vid=876aa59c-c91a-4ffc-81c7-21dd319d2cb2"},"vehicle_type_id":"4","last_reported":1740395275,"current_range_meters":18000,"station_id":"","pricing_plan_id":"cebpf4jnsgd1na2vs0mg"},{"bike_id":"e9da648c-3851-48ca-aead-05fabd95115a","system_id":"levelo_inurba_marseille","lat":43.27903,"lon":5.38004,"is_reserved":false,"is_disabled":false,"rental_uris":{"android":"levelo://app?vid=e9da648c-3851-48ca-aead-05fabd95115a","ios":"levelo://app?vid=e9da648c-3851-48ca-aead-05fabd95115a"},"vehicle_type_id":"4","last_reported":1740395275,"current_range_meters":17600,"station_id":"ce4bhf92rcd13ifvqf50","pricing_plan_id":"cebpf4jnsgd1na2vs0mg"},{"bike_id":"365aebe8-9761-41aa-a351-0d71e4acc959","system_id":"levelo_inurba_marseille","lat":43.24642,"lon":5.38916,"is_reserved":false,"is_disabled":false,"rental_uris":{"android":"levelo://app?vid=365aebe8-9761-41aa-a351-0d71e4acc959","ios":"levelo://app?vid=365aebe8-9761-41aa-a351-0d71e4acc959"},"vehicle_type_id":"4","last_reported":1740395275,"current_range_meters":18000,"station_id":"ce4bhg12rcd13ifvqf60","pricing_plan_id":"cebpf4jnsgd1na2vs0mg"},{"bike_id":"e813f92c-4fd3-41c9-ae0a-6879c319e323","system_id":"levelo_inurba_marseille","lat":43.29635,"lon":5.37154,"is_reserved":false,"is_disabled":false,"rental_uris":{"android":"levelo://app?vid=e813f92c-4fd3-41c9-ae0a-6879c319e323","ios":"levelo://app?vid=e813f92c-4fd3-41c9-ae0a-6879c319e323"},"vehicle_type_id":"4","last_reported":1740395275,"current_range_meters":18000,"station_id":"ce4bgnh2rcd13ifvqc0g","pricing_plan_id":"cebpf4jnsgd1na2vs0mg"},{"bike_id":"0db4c3f7-6b83-4b6b-b085-323d4c61deac","system_id":"levelo_inurba_marseille","lat":43.321099,"lon":5.367714,"is_reserved":false,"is_disabled":false,"rental_uris":{"android":"levelo://app?vid=0db4c3f7-6b83-4b6b-b085-323d4c61deac","ios":"levelo://app?vid=0db4c3f7-6b83-4b6b-b085-323d4c61deac"},"vehicle_type_id":"4","last_reported":1740395275,"current_range_meters":18000,"station_id":"ce4bhrh2rcd13ifvqhug","pricing_plan_id":"cebpf4jnsgd1na2vs0mg"},{"bike_id":"f905b96c-098c-4d82-b15f-0831d9a9bce0","system_id":"levelo_inurba_marseille","lat":43.27997,"lon":5.40014,"is_reserved":false,"is_disabled":false,"rental_uris":{"android":"levelo://app?vid=f905b96c-098c-4d82-b15f-0831d9a9bce0","ios":"levelo://app?vid=f905b96c-098c-4d82-b15f-0831d9a9bce0"},"vehicle_type_id":"4","last_reported":1740395275,"current_range_meters":18000,"station_id":"ce4bho92rcd13ifvqh4g","pricing_plan_id":"cebpf4jnsgd1na2vs0mg"},{"bike_id":"1aa0c844-9f4a-4120-9343-40dc37c3dd33","system_id":"levelo_inurba_marseille","lat":43.29921,"lon":5.36547,"is_reserved":false,"is_disabled":false,"rental_uris":{"android":"levelo://app?vid=1aa0c844-9f4a-4120-9343-40dc37c3dd33","ios":"levelo://app?vid=1aa0c844-9f4a-4120-9343-40dc37c3dd33"},"vehicle_type_id":"4","last_reported":1740395275,"current_range_meters":18000,"station_id":"ce4bgm92rcd13ifvqbr0","pricing_plan_id":"cebpf4jnsgd1na2vs0mg"},{"bike_id":"8668c50d-5a16-43e6-97d1-31afd3a3d465","system_id":"levelo_inurba_marseille","lat":43.2314,"lon":5.43729,"is_reserved":false,"is_disabled":false,"rental_uris":{"android":"levelo://app?vid=8668c50d-5a16-43e6-97d1-31afd3a3d465","ios":"levelo://app?vid=8668c50d-5a16-43e6-97d1-31afd3a3d465"},"vehicle_type_id":"4","last_reported":1740395275,"current_range_meters":18800,"station_id":"ce4bhmp2rcd13ifvqgog","pricing_plan_id":"cebpf4jnsgd1na2vs0mg"},{"bike_id":"299b0f81-8f69-4b5e-bf32-a961e2bb8fcb","system_id":"levelo_inurba_marseille","lat":43.29573,"lon":5.39983,"is_reserved":false,"is_disabled":false,"rental_uris":{"android":"levelo://app?vid=299b0f81-8f69-4b5e-bf32-a961e2bb8fcb","ios":"levelo://app?vid=299b0f81-8f69-4b5e-bf32-a961e2bb8fcb"},"vehicle_type_id":"4","last_reported":1740395275,"current_range_meters":18800,"station_id":"ce4bh312rcd13ifvqdj0","pricing_plan_id":"cebpf4jnsgd1na2vs0mg"},{"bike_id":"56a0cb01-fc13-42c8-94be-4f8cad837efb","system_id":"levelo_inurba_marseille","lat":43.30321,"lon":5.36927,"is_reserved":false,"is_disabled":false,"rental_uris":{"android":"levelo://app?vid=56a0cb01-fc13-42c8-94be-4f8cad837efb","ios":"levelo://app?vid=56a0cb01-fc13-42c8-94be-4f8cad837efb"},"vehicle_type_id":"4","last_reported":1740395275,"current_range_meters":18800,"station_id":"ce4bgqh2rcd13ifvqc5g","pricing_plan_id":"cebpf4jnsgd1na2vs0mg"},{"bike_id":"a814f25e-89b4-4f0e-a0d6-313eb014c9c9","system_id":"levelo_inurba_marseille","lat":43.25927,"lon":5.40839,"is_reserved":false,"is_disabled":false,"rental_uris":{"android":"levelo://app?vid=a814f25e-89b4-4f0e-a0d6-313eb014c9c9","ios":"levelo://app?vid=a814f25e-89b4-4f0e-a0d6-313eb014c9c9"},"vehicle_type_id":"4","last_reported":1740395275,"current_range_meters":18800,"station_id":"ce4bhm92rcd13ifvqglg","pricing_plan_id":"cebpf4jnsgd1na2vs0mg"},{"bike_id":"0b578b0a-918d-46f6-81f3-220ca5fc5b14","system_id":"levelo_inurba_marseille","lat":43.24171,"lon":5.39735,"is_reserved":false,"is_disabled":false,"rental_uris":{"android":"levelo://app?vid=0b578b0a-918d-46f6-81f3-220ca5fc5b14","ios":"levelo://app?vid=0b578b0a-918d-46f6-81f3-220ca5fc5b14"},"vehicle_type_id":"4","last_reported":1740395275,"current_range_meters":18800,"station_id":"ce4bhn12rcd13ifvqgpg","pricing_plan_id":"cebpf4jnsgd1na2vs0mg"},{"bike_id":"e97d4900-9d11-4739-8d7c-13caa97a9b43","system_id":"levelo_inurba_marseille","lat":43.23159,"lon":5.43722,"is_reserved":false,"is_disabled":false,"rental_uris":{"android":"levelo://app?vid=e97d4900-9d11-4739-8d7c-13caa97a9b43","ios":"levelo://app?vid=e97d4900-9d11-4739-8d7c-13caa97a9b43"},"vehicle_type_id":"4","last_reported":1740395275,"current_range_meters":19200,"station_id":"ce4bhmp2rcd13ifvqgog","pricing_plan_id":"cebpf4jnsgd1na2vs0mg"},{"bike_id":"830923c6-39cb-4786-bd84-d8bc9287d2f2","system_id":"levelo_inurba_marseille","lat":43.31218,"lon":5.36876,"is_reserved":false,"is_disabled":false,"rental_uris":{"android":"levelo://app?vid=830923c6-39cb-4786-bd84-d8bc9287d2f2","ios":"levelo://app?vid=830923c6-39cb-4786-bd84-d8bc9287d2f2"},"vehicle_type_id":"4","last_reported":1740395275,"current_range_meters":19200,"station_id":"ce4bgl92rcd13ifvqbq0","pricing_plan_id":"cebpf4jnsgd1na2vs0mg"},{"bike_id":"d15bab97-415a-42d4-b817-ae269ea37219","system_id":"levelo_inurba_marseille","lat":43.29418,"lon":5.38602,"is_reserved":false,"is_disabled":true,"rental_uris":{"android":"levelo://app?vid=d15bab97-415a-42d4-b817-ae269ea37219","ios":"levelo://app?vid=d15bab97-415a-42d4-b817-ae269ea37219"},"vehicle_type_id":"4","last_reported":1740395275,"current_range_meters":19200,"station_id":"ce4bh2h2rcd13ifvqdh0","pricing_plan_id":"cebpf4jnsgd1na2vs0mg"},{"bike_id":"082174e0-6b0b-4f72-aa2b-e9d5d472725b","system_id":"levelo_inurba_marseille","lat":43.30952,"lon":5.40164,"is_reserved":false,"is_disabled":false,"rental_uris":{"android":"levelo://app?vid=082174e0-6b0b-4f72-aa2b-e9d5d472725b","ios":"levelo://app?vid=082174e0-6b0b-4f72-aa2b-e9d5d472725b"},"vehicle_type_id":"4","last_reported":1740395275,"current_range_meters":19200,"station_id":"ce4bgvp2rcd13ifvqct0","pricing_plan_id":"cebpf4jnsgd1na2vs0mg"},{"bike_id":"0d10eacc-9ae3-4f45-88bd-b7540c730cbe","system_id":"levelo_inurba_marseille","lat":43.27053,"lon":5.40263,"is_reserved":false,"is_disabled":false,"rental_uris":{"android":"levelo://app?vid=0d10eacc-9ae3-4f45-88bd-b7540c730cbe","ios":"levelo://app?vid=0d10eacc-9ae3-4f45-88bd-b7540c730cbe"},"vehicle_type_id":"4","last_reported":1740395275,"current_range_meters":19200,"station_id":"ce4bhk92rcd13ifvqgc0","pricing_plan_id":"cebpf4jnsgd1na2vs0mg"},{"bike_id":"96166e45-652c-4eb0-8cd0-ab89e248c010","system_id":"levelo_inurba_marseille","lat":43.33606,"lon":5.41026,"is_reserved":false,"is_disabled":false,"rental_uris":{"android":"levelo://app?vid=96166e45-652c-4eb0-8cd0-ab89e248c010","ios":"levelo://app?vid=96166e45-652c-4eb0-8cd0-ab89e248c010"},"vehicle_type_id":"4","last_reported":1740395275,"current_range_meters":19600,"station_id":"ce4bhqh2rcd13ifvqhmg","pricing_plan_id":"cebpf4jnsgd1na2vs0mg"},{"bike_id":"9a674891-3501-4e94-8c08-32ea35d838ec","system_id":"levelo_inurba_marseille","lat":43.30133,"lon":5.38788,"is_reserved":false,"is_disabled":false,"rental_uris":{"android":"levelo://app?vid=9a674891-3501-4e94-8c08-32ea35d838ec","ios":"levelo://app?vid=9a674891-3501-4e94-8c08-32ea35d838ec"},"vehicle_type_id":"4","last_reported":1740395275,"current_range_meters":19200,"station_id":"ce4bghh2rcd13ifvqb60","pricing_plan_id":"cebpf4jnsgd1na2vs0mg"},{"bike_id":"6dac1f2a-dae3-41cd-b475-5dce0158a35b","system_id":"levelo_inurba_marseille","lat":43.26949,"lon":5.38616,"is_reserved":false,"is_disabled":false,"rental_uris":{"android":"levelo://app?vid=6dac1f2a-dae3-41cd-b475-5dce0158a35b","ios":"levelo://app?vid=6dac1f2a-dae3-41cd-b475-5dce0158a35b"},"vehicle_type_id":"4","last_reported":1740395275,"current_range_meters":19600,"station_id":"ce4bhh92rcd13ifvqfh0","pricing_plan_id":"cebpf4jnsgd1na2vs0mg"},{"bike_id":"5f8eca6d-4a72-4675-bcfb-e06b7a55fc27","system_id":"levelo_inurba_marseille","lat":43.29554,"lon":5.42291,"is_reserved":false,"is_disabled":false,"rental_uris":{"android":"levelo://app?vid=5f8eca6d-4a72-4675-bcfb-e06b7a55fc27","ios":"levelo://app?vid=5f8eca6d-4a72-4675-bcfb-e06b7a55fc27"},"vehicle_type_id":"4","last_reported":1740395275,"current_range_meters":19600,"station_id":"ce4bhph2rcd13ifvqhdg","pricing_plan_id":"cebpf4jnsgd1na2vs0mg"},{"bike_id":"dd4be6f0-885d-4750-a8bb-6b3a073ca6b7","system_id":"levelo_inurba_marseille","lat":43.2465,"lon":5.38897,"is_reserved":false,"is_disabled":false,"rental_uris":{"android":"levelo://app?vid=dd4be6f0-885d-4750-a8bb-6b3a073ca6b7","ios":"levelo://app?vid=dd4be6f0-885d-4750-a8bb-6b3a073ca6b7"},"vehicle_type_id":"4","last_reported":1740395275,"current_range_meters":19600,"station_id":"ce4bhg12rcd13ifvqf60","pricing_plan_id":"cebpf4jnsgd1na2vs0mg"},{"bike_id":"33b5d627-9d4d-4369-9f7b-64a3062b50f4","system_id":"levelo_inurba_marseille","lat":43.29499,"lon":5.3752,"is_reserved":false,"is_disabled":false,"rental_uris":{"android":"levelo://app?vid=33b5d627-9d4d-4369-9f7b-64a3062b50f4","ios":"levelo://app?vid=33b5d627-9d4d-4369-9f7b-64a3062b50f4"},"vehicle_type_id":"4","last_reported":1740395275,"current_range_meters":20000,"station_id":"ce4bgkp2rcd13ifvqbmg","pricing_plan_id":"cebpf4jnsgd1na2vs0mg"},{"bike_id":"0c3f1a16-73be-4388-8565-ab2c3a87d66a","system_id":"levelo_inurba_marseille","lat":43.28085,"lon":5.37809,"is_reserved":false,"is_disabled":false,"rental_uris":{"android":"levelo://app?vid=0c3f1a16-73be-4388-8565-ab2c3a87d66a","ios":"levelo://app?vid=0c3f1a16-73be-4388-8565-ab2c3a87d66a"},"vehicle_type_id":"4","last_reported":1740395275,"current_range_meters":20000,"station_id":"ce4bha12rcd13ifvqee0","pricing_plan_id":"cebpf4jnsgd1na2vs0mg"},{"bike_id":"cd649c04-58e1-4113-bc6d-a7b088bd2777","system_id":"levelo_inurba_marseille","lat":43.250131,"lon":5.389237,"is_reserved":false,"is_disabled":false,"rental_uris":{"android":"levelo://app?vid=cd649c04-58e1-4113-bc6d-a7b088bd2777","ios":"levelo://app?vid=cd649c04-58e1-4113-bc6d-a7b088bd2777"},"vehicle_type_id":"4","last_reported":1740395275,"current_range_meters":20000,"station_id":"ce4bhgp2rcd13ifvqfd0","pricing_plan_id":"cebpf4jnsgd1na2vs0mg"},{"bike_id":"af26d2bd-1d1e-4422-bb95-f586c3044b9a","system_id":"levelo_inurba_marseille","lat":43.31714,"lon":5.43709,"is_reserved":false,"is_disabled":false,"rental_uris":{"android":"levelo://app?vid=af26d2bd-1d1e-4422-bb95-f586c3044b9a","ios":"levelo://app?vid=af26d2bd-1d1e-4422-bb95-f586c3044b9a"},"vehicle_type_id":"4","last_reported":1740395275,"current_range_meters":20000,"station_id":"ce4bhp92rcd13ifvqhcg","pricing_plan_id":"cebpf4jnsgd1na2vs0mg"},{"bike_id":"26e67349-8270-4806-aad3-839f545a79a4","system_id":"levelo_inurba_marseille","lat":43.30606,"lon":5.39352,"is_reserved":false,"is_disabled":true,"rental_uris":{"android":"levelo://app?vid=26e67349-8270-4806-aad3-839f545a79a4","ios":"levelo://app?vid=26e67349-8270-4806-aad3-839f545a79a4"},"vehicle_type_id":"4","last_reported":1740395275,"current_range_meters":20000,"station_id":"ce4bh0p2rcd13ifvqd80","pricing_plan_id":"cebpf4jnsgd1na2vs0mg"},{"bike_id":"e7539ad2-6a17-4121-8cfc-95cb5f90a052","system_id":"levelo_inurba_marseille","lat":43.27974,"lon":5.38727,"is_reserved":false,"is_disabled":false,"rental_uris":{"android":"levelo://app?vid=e7539ad2-6a17-4121-8cfc-95cb5f90a052","ios":"levelo://app?vid=e7539ad2-6a17-4121-8cfc-95cb5f90a052"},"vehicle_type_id":"4","last_reported":1740395275,"current_range_meters":20400,"station_id":"ce4bhg12rcd13ifvqf80","pricing_plan_id":"cebpf4jnsgd1na2vs0mg"},{"bike_id":"7ee7f826-dc37-4344-ad19-a7d227aa9e57","system_id":"levelo_inurba_marseille","lat":43.334097,"lon":5.44112,"is_reserved":false,"is_disabled":true,"rental_uris":{"android":"levelo://app?vid=7ee7f826-dc37-4344-ad19-a7d227aa9e57","ios":"levelo://app?vid=7ee7f826-dc37-4344-ad19-a7d227aa9e57"},"vehicle_type_id":"4","last_reported":1740395275,"current_range_meters":20400,"station_id":"","pricing_plan_id":"cebpf4jnsgd1na2vs0mg"},{"bike_id":"1e4ddf92-0eea-4d24-a416-d7a279008e23","system_id":"levelo_inurba_marseille","lat":43.25934,"lon":5.40902,"is_reserved":false,"is_disabled":false,"rental_uris":{"android":"levelo://app?vid=1e4ddf92-0eea-4d24-a416-d7a279008e23","ios":"levelo://app?vid=1e4ddf92-0eea-4d24-a416-d7a279008e23"},"vehicle_type_id":"4","last_reported":1740395275,"current_range_meters":20400,"station_id":"ce4bhm92rcd13ifvqglg","pricing_plan_id":"cebpf4jnsgd1na2vs0mg"},{"bike_id":"94a5dfcb-cdfc-4ad8-8881-8a12d01b416a","system_id":"levelo_inurba_marseille","lat":43.24187,"lon":5.39726,"is_reserved":false,"is_disabled":false,"rental_uris":{"android":"levelo://app?vid=94a5dfcb-cdfc-4ad8-8881-8a12d01b416a","ios":"levelo://app?vid=94a5dfcb-cdfc-4ad8-8881-8a12d01b416a"},"vehicle_type_id":"4","last_reported":1740395275,"current_range_meters":20400,"station_id":"ce4bhn12rcd13ifvqgpg","pricing_plan_id":"cebpf4jnsgd1na2vs0mg"},{"bike_id":"41c02980-2d5d-4ec8-b439-0a197839dea1","system_id":"levelo_inurba_marseille","lat":43.29902,"lon":5.4366,"is_reserved":false,"is_disabled":false,"rental_uris":{"android":"levelo://app?vid=41c02980-2d5d-4ec8-b439-0a197839dea1","ios":"levelo://app?vid=41c02980-2d5d-4ec8-b439-0a197839dea1"},"vehicle_type_id":"4","last_reported":1740395275,"current_range_meters":20400,"station_id":"ce4bhpp2rcd13ifvqhfg","pricing_plan_id":"cebpf4jnsgd1na2vs0mg"},{"bike_id":"b09ce1dc-f9db-412b-b3ae-ccb39e4da95c","system_id":"levelo_inurba_marseille","lat":43.26801,"lon":5.40269,"is_reserved":false,"is_disabled":false,"rental_uris":{"android":"levelo://app?vid=b09ce1dc-f9db-412b-b3ae-ccb39e4da95c","ios":"levelo://app?vid=b09ce1dc-f9db-412b-b3ae-ccb39e4da95c"},"vehicle_type_id":"4","last_reported":1740395275,"current_range_meters":20800,"station_id":"ce501612rcd8frsf0b60","pricing_plan_id":"cebpf4jnsgd1na2vs0mg"},{"bike_id":"58615b91-d569-4e44-82ac-59cd9ff1f078","system_id":"levelo_inurba_marseille","lat":43.24659,"lon":5.38163,"is_reserved":false,"is_disabled":false,"rental_uris":{"android":"levelo://app?vid=58615b91-d569-4e44-82ac-59cd9ff1f078","ios":"levelo://app?vid=58615b91-d569-4e44-82ac-59cd9ff1f078"},"vehicle_type_id":"4","last_reported":1740395275,"current_range_meters":20800,"station_id":"ce4bhih2rcd13ifvqfr0","pricing_plan_id":"cebpf4jnsgd1na2vs0mg"},{"bike_id":"ba116aa4-9a2c-4951-b196-63e0a40889ed","system_id":"levelo_inurba_marseille","lat":43.32375,"lon":5.36677,"is_reserved":false,"is_disabled":false,"rental_uris":{"android":"levelo://app?vid=ba116aa4-9a2c-4951-b196-63e0a40889ed","ios":"levelo://app?vid=ba116aa4-9a2c-4951-b196-63e0a40889ed"},"vehicle_type_id":"4","last_reported":1740395275,"current_range_meters":20800,"station_id":"","pricing_plan_id":"cebpf4jnsgd1na2vs0mg"},{"bike_id":"03428ea9-79a0-4c32-8a3a-b12ce7c2caf7","system_id":"levelo_inurba_marseille","lat":43.29204,"lon":5.39318,"is_reserved":false,"is_disabled":false,"rental_uris":{"android":"levelo://app?vid=03428ea9-79a0-4c32-8a3a-b12ce7c2caf7","ios":"levelo://app?vid=03428ea9-79a0-4c32-8a3a-b12ce7c2caf7"},"vehicle_type_id":"4","last_reported":1740395275,"current_range_meters":20800,"station_id":"ce4bh192rcd13ifvqdd0","pricing_plan_id":"cebpf4jnsgd1na2vs0mg"},{"bike_id":"b7aa87b8-a3e9-4f8f-9f0b-8c74166d84dc","system_id":"levelo_inurba_marseille","lat":43.2314,"lon":5.35516,"is_reserved":false,"is_disabled":false,"rental_uris":{"android":"levelo://app?vid=b7aa87b8-a3e9-4f8f-9f0b-8c74166d84dc","ios":"levelo://app?vid=b7aa87b8-a3e9-4f8f-9f0b-8c74166d84dc"},"vehicle_type_id":"4","last_reported":1740395275,"current_range_meters":20800,"station_id":"","pricing_plan_id":"cebpf4jnsgd1na2vs0mg"},{"bike_id":"1c21642d-345a-4ba1-aefd-3d94a5ca40de","system_id":"levelo_inurba_marseille","lat":43.29038,"lon":5.39967,"is_reserved":false,"is_disabled":false,"rental_uris":{"android":"levelo://app?vid=1c21642d-345a-4ba1-aefd-3d94a5ca40de","ios":"levelo://app?vid=1c21642d-345a-4ba1-aefd-3d94a5ca40de"},"vehicle_type_id":"4","last_reported":1740395275,"current_range_meters":21600,"station_id":"ce4bh392rcd13ifvqdm0","pricing_plan_id":"cebpf4jnsgd1na2vs0mg"},{"bike_id":"89266a3a-9a43-4472-8d6d-7d1e906a5af0","system_id":"levelo_inurba_marseille","lat":43.29315,"lon":5.37181,"is_reserved":false,"is_disabled":false,"rental_uris":{"android":"levelo://app?vid=89266a3a-9a43-4472-8d6d-7d1e906a5af0","ios":"levelo://app?vid=89266a3a-9a43-4472-8d6d-7d1e906a5af0"},"vehicle_type_id":"4","last_reported":1740395275,"current_range_meters":21600,"station_id":"ce4bgh92rcd13ifvqb40","pricing_plan_id":"cebpf4jnsgd1na2vs0mg"},{"bike_id":"63bd7c61-4a1f-4c33-b0da-bb44c69a1793","system_id":"levelo_inurba_marseille","lat":43.2408,"lon":5.37748,"is_reserved":false,"is_disabled":false,"rental_uris":{"android":"levelo://app?vid=63bd7c61-4a1f-4c33-b0da-bb44c69a1793","ios":"levelo://app?vid=63bd7c61-4a1f-4c33-b0da-bb44c69a1793"},"vehicle_type_id":"4","last_reported":1740395275,"current_range_meters":21600,"station_id":"ce4bhnp2rcd13ifvqgvg","pricing_plan_id":"cebpf4jnsgd1na2vs0mg"},{"bike_id":"b22fca54-b192-4ce1-8458-feec3c525f8b","system_id":"levelo_inurba_marseille","lat":43.2481,"lon":5.37455,"is_reserved":false,"is_disabled":false,"rental_uris":{"android":"levelo://app?vid=b22fca54-b192-4ce1-8458-feec3c525f8b","ios":"levelo://app?vid=b22fca54-b192-4ce1-8458-feec3c525f8b"},"vehicle_type_id":"4","last_reported":1740395275,"current_range_meters":21600,"station_id":"ce4bhgh2rcd13ifvqfb0","pricing_plan_id":"cebpf4jnsgd1na2vs0mg"},{"bike_id":"54a5dfc3-2f57-41c2-b686-2b2033be78ef","system_id":"levelo_inurba_marseille","lat":43.27542,"lon":5.38441,"is_reserved":false,"is_disabled":false,"rental_uris":{"android":"levelo://app?vid=54a5dfc3-2f57-41c2-b686-2b2033be78ef","ios":"levelo://app?vid=54a5dfc3-2f57-41c2-b686-2b2033be78ef"},"vehicle_type_id":"4","last_reported":1740395275,"current_range_meters":21600,"station_id":"ce4bhh92rcd13ifvqfi0","pricing_plan_id":"cebpf4jnsgd1na2vs0mg"},{"bike_id":"1723c35e-b0a2-4f4f-8120-f4fdaf58b0ac","system_id":"levelo_inurba_marseille","lat":43.30157,"lon":5.38077,"is_reserved":false,"is_disabled":false,"rental_uris":{"android":"levelo://app?vid=1723c35e-b0a2-4f4f-8120-f4fdaf58b0ac","ios":"levelo://app?vid=1723c35e-b0a2-4f4f-8120-f4fdaf58b0ac"},"vehicle_type_id":"4","last_reported":1740395275,"current_range_meters":21600,"station_id":"ce4bgjp2rcd13ifvqbh0","pricing_plan_id":"cebpf4jnsgd1na2vs0mg"},{"bike_id":"09099391-8a81-40ef-abc5-e567e6c542cf","system_id":"levelo_inurba_marseille","lat":43.3121,"lon":5.36875,"is_reserved":false,"is_disabled":false,"rental_uris":{"android":"levelo://app?vid=09099391-8a81-40ef-abc5-e567e6c542cf","ios":"levelo://app?vid=09099391-8a81-40ef-abc5-e567e6c542cf"},"vehicle_type_id":"4","last_reported":1740395275,"current_range_meters":21600,"station_id":"ce4bgl92rcd13ifvqbq0","pricing_plan_id":"cebpf4jnsgd1na2vs0mg"},{"bike_id":"631281c3-a72e-4262-9afc-6df4191f2a24","system_id":"levelo_inurba_marseille","lat":43.29916,"lon":5.36544,"is_reserved":false,"is_disabled":false,"rental_uris":{"android":"levelo://app?vid=631281c3-a72e-4262-9afc-6df4191f2a24","ios":"levelo://app?vid=631281c3-a72e-4262-9afc-6df4191f2a24"},"vehicle_type_id":"4","last_reported":1740395275,"current_range_meters":22000,"station_id":"ce4bgm92rcd13ifvqbr0","pricing_plan_id":"cebpf4jnsgd1na2vs0mg"},{"bike_id":"27a1c852-7ff0-4c4f-a7dd-742806920cf9","system_id":"levelo_inurba_marseille","lat":43.31211,"lon":5.36883,"is_reserved":false,"is_disabled":false,"rental_uris":{"android":"levelo://app?vid=27a1c852-7ff0-4c4f-a7dd-742806920cf9","ios":"levelo://app?vid=27a1c852-7ff0-4c4f-a7dd-742806920cf9"},"vehicle_type_id":"4","last_reported":1740395275,"current_range_meters":22000,"station_id":"ce4bgl92rcd13ifvqbq0","pricing_plan_id":"cebpf4jnsgd1na2vs0mg"},{"bike_id":"a5439f94-a94b-472a-8212-9c3f3cd98f91","system_id":"levelo_inurba_marseille","lat":43.25926,"lon":5.40882,"is_reserved":false,"is_disabled":false,"rental_uris":{"android":"levelo://app?vid=a5439f94-a94b-472a-8212-9c3f3cd98f91","ios":"levelo://app?vid=a5439f94-a94b-472a-8212-9c3f3cd98f91"},"vehicle_type_id":"4","last_reported":1740395275,"current_range_meters":22000,"station_id":"ce4bhm92rcd13ifvqglg","pricing_plan_id":"cebpf4jnsgd1na2vs0mg"},{"bike_id":"7978493f-6d0c-486c-bebc-8e719c5dc113","system_id":"levelo_inurba_marseille","lat":43.23147,"lon":5.43723,"is_reserved":false,"is_disabled":false,"rental_uris":{"android":"levelo://app?vid=7978493f-6d0c-486c-bebc-8e719c5dc113","ios":"levelo://app?vid=7978493f-6d0c-486c-bebc-8e719c5dc113"},"vehicle_type_id":"4","last_reported":1740395275,"current_range_meters":22000,"station_id":"ce4bhmp2rcd13ifvqgog","pricing_plan_id":"cebpf4jnsgd1na2vs0mg"},{"bike_id":"53dada72-8bc6-4f5d-9d2b-757649b7996c","system_id":"levelo_inurba_marseille","lat":43.30142,"lon":5.39849,"is_reserved":false,"is_disabled":false,"rental_uris":{"android":"levelo://app?vid=53dada72-8bc6-4f5d-9d2b-757649b7996c","ios":"levelo://app?vid=53dada72-8bc6-4f5d-9d2b-757649b7996c"},"vehicle_type_id":"4","last_reported":1740395275,"current_range_meters":22000,"station_id":"ce4bh0h2rcd13ifvqd40","pricing_plan_id":"cebpf4jnsgd1na2vs0mg"},{"bike_id":"40c93502-1dfa-4230-b089-2007da8bd0c2","system_id":"levelo_inurba_marseille","lat":43.32496,"lon":5.36561,"is_reserved":false,"is_disabled":false,"rental_uris":{"android":"levelo://app?vid=40c93502-1dfa-4230-b089-2007da8bd0c2","ios":"levelo://app?vid=40c93502-1dfa-4230-b089-2007da8bd0c2"},"vehicle_type_id":"4","last_reported":1740395275,"current_range_meters":22000,"station_id":"ce4bhs12rcd13ifvqhvg","pricing_plan_id":"cebpf4jnsgd1na2vs0mg"},{"bike_id":"236a2c8a-00d4-402b-bc71-1b0bb81f1a81","system_id":"levelo_inurba_marseille","lat":43.29863,"lon":5.36272,"is_reserved":false,"is_disabled":false,"rental_uris":{"android":"levelo://app?vid=236a2c8a-00d4-402b-bc71-1b0bb81f1a81","ios":"levelo://app?vid=236a2c8a-00d4-402b-bc71-1b0bb81f1a81"},"vehicle_type_id":"4","last_reported":1740395275,"current_range_meters":22000,"station_id":"ce4bgpp2rcd13ifvqc3g","pricing_plan_id":"cebpf4jnsgd1na2vs0mg"},{"bike_id":"5eccde47-c74f-44d6-ac41-bc94c0ec4504","system_id":"levelo_inurba_marseille","lat":43.295258,"lon":5.394029,"is_reserved":false,"is_disabled":false,"rental_uris":{"android":"levelo://app?vid=5eccde47-c74f-44d6-ac41-bc94c0ec4504","ios":"levelo://app?vid=5eccde47-c74f-44d6-ac41-bc94c0ec4504"},"vehicle_type_id":"4","last_reported":1740395275,"current_range_meters":22000,"station_id":"ce4bh292rcd13ifvqdf0","pricing_plan_id":"cebpf4jnsgd1na2vs0mg"},{"bike_id":"7d7a36c6-d2eb-49ab-b48a-eba7e73fbdfc","system_id":"levelo_inurba_marseille","lat":43.33619,"lon":5.41019,"is_reserved":false,"is_disabled":true,"rental_uris":{"android":"levelo://app?vid=7d7a36c6-d2eb-49ab-b48a-eba7e73fbdfc","ios":"levelo://app?vid=7d7a36c6-d2eb-49ab-b48a-eba7e73fbdfc"},"vehicle_type_id":"4","last_reported":1740395275,"current_range_meters":22000,"station_id":"ce4bhqh2rcd13ifvqhmg","pricing_plan_id":"cebpf4jnsgd1na2vs0mg"},{"bike_id":"c4dd3773-3889-4834-b943-2ead510dd48a","system_id":"levelo_inurba_marseille","lat":43.23137,"lon":5.43714,"is_reserved":false,"is_disabled":false,"rental_uris":{"android":"levelo://app?vid=c4dd3773-3889-4834-b943-2ead510dd48a","ios":"levelo://app?vid=c4dd3773-3889-4834-b943-2ead510dd48a"},"vehicle_type_id":"4","last_reported":1740395275,"current_range_meters":22000,"station_id":"ce4bhmp2rcd13ifvqgog","pricing_plan_id":"cebpf4jnsgd1na2vs0mg"},{"bike_id":"9444f60b-f151-41f2-9c24-9e260e851c37","system_id":"levelo_inurba_marseille","lat":43.28457,"lon":5.35889,"is_reserved":false,"is_disabled":false,"rental_uris":{"android":"levelo://app?vid=9444f60b-f151-41f2-9c24-9e260e851c37","ios":"levelo://app?vid=9444f60b-f151-41f2-9c24-9e260e851c37"},"vehicle_type_id":"4","last_reported":1740395275,"current_range_meters":22000,"station_id":"ce4bhah2rcd13ifvqei0","pricing_plan_id":"cebpf4jnsgd1na2vs0mg"},{"bike_id":"e6fbaa73-4380-4a37-92ae-0c4401d71ecb","system_id":"levelo_inurba_marseille","lat":43.30151,"lon":5.3808,"is_reserved":false,"is_disabled":false,"rental_uris":{"android":"levelo://app?vid=e6fbaa73-4380-4a37-92ae-0c4401d71ecb","ios":"levelo://app?vid=e6fbaa73-4380-4a37-92ae-0c4401d71ecb"},"vehicle_type_id":"4","last_reported":1740395275,"current_range_meters":22400,"station_id":"ce4bgjp2rcd13ifvqbh0","pricing_plan_id":"cebpf4jnsgd1na2vs0mg"},{"bike_id":"166f328a-b662-4401-8cb0-c4d5a1d86942","system_id":"levelo_inurba_marseille","lat":43.25725,"lon":5.41108,"is_reserved":false,"is_disabled":false,"rental_uris":{"android":"levelo://app?vid=166f328a-b662-4401-8cb0-c4d5a1d86942","ios":"levelo://app?vid=166f328a-b662-4401-8cb0-c4d5a1d86942"},"vehicle_type_id":"4","last_reported":1740395275,"current_range_meters":22400,"station_id":"ce4bhkp2rcd13ifvqgd0","pricing_plan_id":"cebpf4jnsgd1na2vs0mg"},{"bike_id":"689f7e3a-f580-4871-8dd7-eeefc768fa46","system_id":"levelo_inurba_marseille","lat":43.30084,"lon":5.39079,"is_reserved":false,"is_disabled":false,"rental_uris":{"android":"levelo://app?vid=689f7e3a-f580-4871-8dd7-eeefc768fa46","ios":"levelo://app?vid=689f7e3a-f580-4871-8dd7-eeefc768fa46"},"vehicle_type_id":"4","last_reported":1740395275,"current_range_meters":22800,"station_id":"ce4bh192rcd13ifvqdb0","pricing_plan_id":"cebpf4jnsgd1na2vs0mg"},{"bike_id":"d8a8a893-c727-4590-99cd-7c2a5b416322","system_id":"levelo_inurba_marseille","lat":43.30144,"lon":5.38074,"is_reserved":false,"is_disabled":false,"rental_uris":{"android":"levelo://app?vid=d8a8a893-c727-4590-99cd-7c2a5b416322","ios":"levelo://app?vid=d8a8a893-c727-4590-99cd-7c2a5b416322"},"vehicle_type_id":"4","last_reported":1740395275,"current_range_meters":22800,"station_id":"ce4bgjp2rcd13ifvqbh0","pricing_plan_id":"cebpf4jnsgd1na2vs0mg"},{"bike_id":"78a5ea12-c8a5-46fd-95ee-0be9cc57e523","system_id":"levelo_inurba_marseille","lat":43.29,"lon":5.35609,"is_reserved":false,"is_disabled":false,"rental_uris":{"android":"levelo://app?vid=78a5ea12-c8a5-46fd-95ee-0be9cc57e523","ios":"levelo://app?vid=78a5ea12-c8a5-46fd-95ee-0be9cc57e523"},"vehicle_type_id":"4","last_reported":1740395275,"current_range_meters":22800,"station_id":"","pricing_plan_id":"cebpf4jnsgd1na2vs0mg"},{"bike_id":"a69ad374-2022-46df-9986-42f02b6f4a66","system_id":"levelo_inurba_marseille","lat":43.33605,"lon":5.41009,"is_reserved":false,"is_disabled":false,"rental_uris":{"android":"levelo://app?vid=a69ad374-2022-46df-9986-42f02b6f4a66","ios":"levelo://app?vid=a69ad374-2022-46df-9986-42f02b6f4a66"},"vehicle_type_id":"4","last_reported":1740395275,"current_range_meters":23200,"station_id":"ce4bhqh2rcd13ifvqhmg","pricing_plan_id":"cebpf4jnsgd1na2vs0mg"},{"bike_id":"75651af0-4bed-4d91-a680-87ff012d4e27","system_id":"levelo_inurba_marseille","lat":43.29779,"lon":5.39343,"is_reserved":false,"is_disabled":false,"rental_uris":{"android":"levelo://app?vid=75651af0-4bed-4d91-a680-87ff012d4e27","ios":"levelo://app?vid=75651af0-4bed-4d91-a680-87ff012d4e27"},"vehicle_type_id":"4","last_reported":1740395275,"current_range_meters":23200,"station_id":"chh1huq6cuj3fo74tm60","pricing_plan_id":"cebpf4jnsgd1na2vs0mg"},{"bike_id":"5729328b-6d93-4838-b40b-6fd7bde65fd1","system_id":"levelo_inurba_marseille","lat":43.30533,"lon":5.36734,"is_reserved":false,"is_disabled":false,"rental_uris":{"android":"levelo://app?vid=5729328b-6d93-4838-b40b-6fd7bde65fd1","ios":"levelo://app?vid=5729328b-6d93-4838-b40b-6fd7bde65fd1"},"vehicle_type_id":"4","last_reported":1740395275,"current_range_meters":23200,"station_id":"ce4bgrp2rcd13ifvqc9g","pricing_plan_id":"cebpf4jnsgd1na2vs0mg"},{"bike_id":"2f54c560-2110-4856-8683-ab0bc6dcebf0","system_id":"levelo_inurba_marseille","lat":43.28165,"lon":5.42629,"is_reserved":false,"is_disabled":false,"rental_uris":{"android":"levelo://app?vid=2f54c560-2110-4856-8683-ab0bc6dcebf0","ios":"levelo://app?vid=2f54c560-2110-4856-8683-ab0bc6dcebf0"},"vehicle_type_id":"4","last_reported":1740395275,"current_range_meters":23200,"station_id":"ce4bhnh2rcd13ifvqgug","pricing_plan_id":"cebpf4jnsgd1na2vs0mg"},{"bike_id":"ef4917e1-122a-4160-8d25-f47c27f5bf1b","system_id":"levelo_inurba_marseille","lat":43.246417,"lon":5.381312,"is_reserved":false,"is_disabled":false,"rental_uris":{"android":"levelo://app?vid=ef4917e1-122a-4160-8d25-f47c27f5bf1b","ios":"levelo://app?vid=ef4917e1-122a-4160-8d25-f47c27f5bf1b"},"vehicle_type_id":"4","last_reported":1740395275,"current_range_meters":23200,"station_id":"ce4bhh92rcd13ifvqfh0","pricing_plan_id":"cebpf4jnsgd1na2vs0mg"},{"bike_id":"47b5e017-5d17-4225-9b76-d410eda737a5","system_id":"levelo_inurba_marseille","lat":43.30148,"lon":5.38071,"is_reserved":false,"is_disabled":false,"rental_uris":{"android":"levelo://app?vid=47b5e017-5d17-4225-9b76-d410eda737a5","ios":"levelo://app?vid=47b5e017-5d17-4225-9b76-d410eda737a5"},"vehicle_type_id":"4","last_reported":1740395275,"current_range_meters":23200,"station_id":"ce4bgjp2rcd13ifvqbh0","pricing_plan_id":"cebpf4jnsgd1na2vs0mg"},{"bike_id":"d83c16f1-a119-4636-bc08-fad643a5b837","system_id":"levelo_inurba_marseille","lat":43.31114,"lon":5.37767,"is_reserved":false,"is_disabled":true,"rental_uris":{"android":"levelo://app?vid=d83c16f1-a119-4636-bc08-fad643a5b837","ios":"levelo://app?vid=d83c16f1-a119-4636-bc08-fad643a5b837"},"vehicle_type_id":"4","last_reported":1740395275,"current_range_meters":23200,"station_id":"ce4bgt92rcd13ifvqcg0","pricing_plan_id":"cebpf4jnsgd1na2vs0mg"},{"bike_id":"0d46d535-daf7-4c0d-91b1-d3982adcae0c","system_id":"levelo_inurba_marseille","lat":43.32367,"lon":5.36751,"is_reserved":false,"is_disabled":false,"rental_uris":{"android":"levelo://app?vid=0d46d535-daf7-4c0d-91b1-d3982adcae0c","ios":"levelo://app?vid=0d46d535-daf7-4c0d-91b1-d3982adcae0c"},"vehicle_type_id":"4","last_reported":1740395275,"current_range_meters":23200,"station_id":"ce4bhsh2rcd13ifvqi2g","pricing_plan_id":"cebpf4jnsgd1na2vs0mg"},{"bike_id":"8f0e6e61-548a-41cb-aa44-b18daed0fe0e","system_id":"levelo_inurba_marseille","lat":43.28469,"lon":5.35893,"is_reserved":false,"is_disabled":true,"rental_uris":{"android":"levelo://app?vid=8f0e6e61-548a-41cb-aa44-b18daed0fe0e","ios":"levelo://app?vid=8f0e6e61-548a-41cb-aa44-b18daed0fe0e"},"vehicle_type_id":"4","last_reported":1740395275,"current_range_meters":23200,"station_id":"ce4bhah2rcd13ifvqei0","pricing_plan_id":"cebpf4jnsgd1na2vs0mg"},{"bike_id":"253f9302-a100-419e-90ae-15f79371c5d6","system_id":"levelo_inurba_marseille","lat":43.25932,"lon":5.40858,"is_reserved":false,"is_disabled":false,"rental_uris":{"android":"levelo://app?vid=253f9302-a100-419e-90ae-15f79371c5d6","ios":"levelo://app?vid=253f9302-a100-419e-90ae-15f79371c5d6"},"vehicle_type_id":"4","last_reported":1740395275,"current_range_meters":23200,"station_id":"ce4bhm92rcd13ifvqglg","pricing_plan_id":"cebpf4jnsgd1na2vs0mg"},{"bike_id":"c03c5ed1-faa5-4128-b13b-0b75d6d8d0d9","system_id":"levelo_inurba_marseille","lat":43.2857,"lon":5.39504,"is_reserved":false,"is_disabled":false,"rental_uris":{"android":"levelo://app?vid=c03c5ed1-faa5-4128-b13b-0b75d6d8d0d9","ios":"levelo://app?vid=c03c5ed1-faa5-4128-b13b-0b75d6d8d0d9"},"vehicle_type_id":"4","last_reported":1740395275,"current_range_meters":24000,"station_id":"ce4bh292rcd13ifvqdg0","pricing_plan_id":"cebpf4jnsgd1na2vs0mg"},{"bike_id":"6676787c-a1e5-4cb2-97a0-c706a2671907","system_id":"levelo_inurba_marseille","lat":43.301318,"lon":5.387765,"is_reserved":false,"is_disabled":true,"rental_uris":{"android":"levelo://app?vid=6676787c-a1e5-4cb2-97a0-c706a2671907","ios":"levelo://app?vid=6676787c-a1e5-4cb2-97a0-c706a2671907"},"vehicle_type_id":"4","last_reported":1740395275,"current_range_meters":24000,"station_id":"","pricing_plan_id":"cebpf4jnsgd1na2vs0mg"},{"bike_id":"0dd39dff-b059-4663-b812-da796892bc6a","system_id":"levelo_inurba_marseille","lat":43.27911,"lon":5.39585,"is_reserved":false,"is_disabled":false,"rental_uris":{"android":"levelo://app?vid=0dd39dff-b059-4663-b812-da796892bc6a","ios":"levelo://app?vid=0dd39dff-b059-4663-b812-da796892bc6a"},"vehicle_type_id":"4","last_reported":1740395275,"current_range_meters":24000,"station_id":"ce4bhf92rcd13ifvqf40","pricing_plan_id":"cebpf4jnsgd1na2vs0mg"},{"bike_id":"aed5036a-2d99-4696-b993-0bcbfed89a94","system_id":"levelo_inurba_marseille","lat":43.32469,"lon":5.36573,"is_reserved":false,"is_disabled":false,"rental_uris":{"android":"levelo://app?vid=aed5036a-2d99-4696-b993-0bcbfed89a94","ios":"levelo://app?vid=aed5036a-2d99-4696-b993-0bcbfed89a94"},"vehicle_type_id":"4","last_reported":1740395275,"current_range_meters":23200,"station_id":"ce4bhs12rcd13ifvqhvg","pricing_plan_id":"cebpf4jnsgd1na2vs0mg"},{"bike_id":"2dd32aab-8978-4a77-960b-c7f5cc78c6e8","system_id":"levelo_inurba_marseille","lat":43.28938,"lon":5.39635,"is_reserved":false,"is_disabled":false,"rental_uris":{"android":"levelo://app?vid=2dd32aab-8978-4a77-960b-c7f5cc78c6e8","ios":"levelo://app?vid=2dd32aab-8978-4a77-960b-c7f5cc78c6e8"},"vehicle_type_id":"4","last_reported":1740395275,"current_range_meters":24000,"station_id":"ce4bh3h2rcd13ifvqdn0","pricing_plan_id":"cebpf4jnsgd1na2vs0mg"},{"bike_id":"fd6a18c4-3f03-4673-b66a-ffc5eeea942e","system_id":"levelo_inurba_marseille","lat":43.28413,"lon":5.34998,"is_reserved":false,"is_disabled":true,"rental_uris":{"android":"levelo://app?vid=fd6a18c4-3f03-4673-b66a-ffc5eeea942e","ios":"levelo://app?vid=fd6a18c4-3f03-4673-b66a-ffc5eeea942e"},"vehicle_type_id":"4","last_reported":1740395275,"current_range_meters":24000,"station_id":"ce4bhbh2rcd13ifvqepg","pricing_plan_id":"cebpf4jnsgd1na2vs0mg"},{"bike_id":"3fe81b70-13ba-466b-860d-fceaeb9ebe5a","system_id":"levelo_inurba_marseille","lat":43.24098,"lon":5.37722,"is_reserved":false,"is_disabled":true,"rental_uris":{"android":"levelo://app?vid=3fe81b70-13ba-466b-860d-fceaeb9ebe5a","ios":"levelo://app?vid=3fe81b70-13ba-466b-860d-fceaeb9ebe5a"},"vehicle_type_id":"4","last_reported":1740395275,"current_range_meters":24000,"station_id":"ce4bhnp2rcd13ifvqgvg","pricing_plan_id":"cebpf4jnsgd1na2vs0mg"},{"bike_id":"8358b48f-387d-4415-aac7-e98a888b4a72","system_id":"levelo_inurba_marseille","lat":43.27851,"lon":5.3869,"is_reserved":false,"is_disabled":false,"rental_uris":{"android":"levelo://app?vid=8358b48f-387d-4415-aac7-e98a888b4a72","ios":"levelo://app?vid=8358b48f-387d-4415-aac7-e98a888b4a72"},"vehicle_type_id":"4","last_reported":1740395275,"current_range_meters":24000,"station_id":"ce4bhg12rcd13ifvqf80","pricing_plan_id":"cebpf4jnsgd1na2vs0mg"},{"bike_id":"d2f20a00-2752-405d-82c6-6393a01c632e","system_id":"levelo_inurba_marseille","lat":43.295746,"lon":5.385586,"is_reserved":false,"is_disabled":false,"rental_uris":{"android":"levelo://app?vid=d2f20a00-2752-405d-82c6-6393a01c632e","ios":"levelo://app?vid=d2f20a00-2752-405d-82c6-6393a01c632e"},"vehicle_type_id":"4","last_reported":1740395275,"current_range_meters":24000,"station_id":"ce4bguh2rcd13ifvqcj0","pricing_plan_id":"cebpf4jnsgd1na2vs0mg"},{"bike_id":"795f6758-4dfa-4f57-be2b-cc9727660fba","system_id":"levelo_inurba_marseille","lat":43.24066,"lon":5.37761,"is_reserved":false,"is_disabled":false,"rental_uris":{"android":"levelo://app?vid=795f6758-4dfa-4f57-be2b-cc9727660fba","ios":"levelo://app?vid=795f6758-4dfa-4f57-be2b-cc9727660fba"},"vehicle_type_id":"4","last_reported":1740395275,"current_range_meters":24000,"station_id":"ce4bhnp2rcd13ifvqgvg","pricing_plan_id":"cebpf4jnsgd1na2vs0mg"},{"bike_id":"a9a05ce0-468d-4bd8-9f1f-e5ba337d5855","system_id":"levelo_inurba_marseille","lat":43.312064,"lon":5.368572,"is_reserved":false,"is_disabled":false,"rental_uris":{"android":"levelo://app?vid=a9a05ce0-468d-4bd8-9f1f-e5ba337d5855","ios":"levelo://app?vid=a9a05ce0-468d-4bd8-9f1f-e5ba337d5855"},"vehicle_type_id":"4","last_reported":1740395275,"current_range_meters":24000,"station_id":"ce4bgl92rcd13ifvqbq0","pricing_plan_id":"cebpf4jnsgd1na2vs0mg"},{"bike_id":"0ac527a7-ad44-47ce-899c-bf2e6b38fc59","system_id":"levelo_inurba_marseille","lat":43.29568,"lon":5.38877,"is_reserved":false,"is_disabled":true,"rental_uris":{"android":"levelo://app?vid=0ac527a7-ad44-47ce-899c-bf2e6b38fc59","ios":"levelo://app?vid=0ac527a7-ad44-47ce-899c-bf2e6b38fc59"},"vehicle_type_id":"4","last_reported":1740395275,"current_range_meters":24000,"station_id":"","pricing_plan_id":"cebpf4jnsgd1na2vs0mg"},{"bike_id":"c8cef608-8d95-4b45-ba12-28b9cd01ab53","system_id":"levelo_inurba_marseille","lat":43.25947,"lon":5.40907,"is_reserved":false,"is_disabled":false,"rental_uris":{"android":"levelo://app?vid=c8cef608-8d95-4b45-ba12-28b9cd01ab53","ios":"levelo://app?vid=c8cef608-8d95-4b45-ba12-28b9cd01ab53"},"vehicle_type_id":"4","last_reported":1740395275,"current_range_meters":24400,"station_id":"ce4bhm92rcd13ifvqglg","pricing_plan_id":"cebpf4jnsgd1na2vs0mg"},{"bike_id":"1e925120-35ba-4324-8a68-4b7038a37c64","system_id":"levelo_inurba_marseille","lat":43.27552,"lon":5.38446,"is_reserved":false,"is_disabled":false,"rental_uris":{"android":"levelo://app?vid=1e925120-35ba-4324-8a68-4b7038a37c64","ios":"levelo://app?vid=1e925120-35ba-4324-8a68-4b7038a37c64"},"vehicle_type_id":"4","last_reported":1740395275,"current_range_meters":24400,"station_id":"ce4bhh92rcd13ifvqfi0","pricing_plan_id":"cebpf4jnsgd1na2vs0mg"},{"bike_id":"eb56db0a-ae35-40c3-924c-b5a310c48f75","system_id":"levelo_inurba_marseille","lat":43.312635,"lon":5.401657,"is_reserved":false,"is_disabled":false,"rental_uris":{"android":"levelo://app?vid=eb56db0a-ae35-40c3-924c-b5a310c48f75","ios":"levelo://app?vid=eb56db0a-ae35-40c3-924c-b5a310c48f75"},"vehicle_type_id":"4","last_reported":1740395275,"current_range_meters":24400,"station_id":"ce4bh092rcd13ifvqd30","pricing_plan_id":"cebpf4jnsgd1na2vs0mg"},{"bike_id":"577e9054-02a0-41ca-bc92-794b06bcf24d","system_id":"levelo_inurba_marseille","lat":43.29264,"lon":5.37623,"is_reserved":false,"is_disabled":false,"rental_uris":{"android":"levelo://app?vid=577e9054-02a0-41ca-bc92-794b06bcf24d","ios":"levelo://app?vid=577e9054-02a0-41ca-bc92-794b06bcf24d"},"vehicle_type_id":"4","last_reported":1740395275,"current_range_meters":24400,"station_id":"ce4bgi12rcd13ifvqb80","pricing_plan_id":"cebpf4jnsgd1na2vs0mg"},{"bike_id":"8519d736-da0b-4f47-b5cd-3c824c774615","system_id":"levelo_inurba_marseille","lat":43.29847,"lon":5.3629,"is_reserved":false,"is_disabled":false,"rental_uris":{"android":"levelo://app?vid=8519d736-da0b-4f47-b5cd-3c824c774615","ios":"levelo://app?vid=8519d736-da0b-4f47-b5cd-3c824c774615"},"vehicle_type_id":"4","last_reported":1740395275,"current_range_meters":24400,"station_id":"ce4bgpp2rcd13ifvqc3g","pricing_plan_id":"cebpf4jnsgd1na2vs0mg"},{"bike_id":"38866b50-00e1-481b-b74f-96e4ef43d4d1","system_id":"levelo_inurba_marseille","lat":43.290797,"lon":5.371697,"is_reserved":false,"is_disabled":true,"rental_uris":{"android":"levelo://app?vid=38866b50-00e1-481b-b74f-96e4ef43d4d1","ios":"levelo://app?vid=38866b50-00e1-481b-b74f-96e4ef43d4d1"},