{"last_updated":1727028639,"ttl":30,"version":"2.2","data":{"bikes":[{"bike_id":"fd84f170-c075-4570-a556-c5e617e29406","system_id":"levelo_inurba_marseille","lat":43.28216,"lon":5.4092,"is_reserved":false,"is_disabled":false,"rental_uris":{"android":"levelo://app?vid=fd84f170-c075-4570-a556-c5e617e29406","ios":"levelo://app?vid=fd84f170-c075-4570-a556-c5e617e29406"},"vehicle_type_id":"4","last_reported":1727028639,"current_range_meters":18000,"station_id":"","pricing_plan_id":"cebpf4jnsgd1na2vs0mg"},{"bike_id":"73746984-0193-4b72-b6c5-7424d2e94ca1","system_id":"levelo_inurba_marseille","lat":43.29265,"lon":5.38441,"is_reserved":false,"is_disabled":false,"rental_uris":{"android":"levelo://app?vid=73746984-0193-4b72-b6c5-7424d2e94ca1","ios":"levelo://app?vid=73746984-0193-4b72-b6c5-7424d2e94ca1"},"vehicle_type_id":"4","last_reported":1727028639,"current_range_meters":38800,"station_id":"ce4bh692rcd13ifvqea0","pricing_plan_id":"cebpf4jnsgd1na2vs0mg"},{"bike_id":"67474596-6b8c-4126-af30-a4197a8a4f0f","system_id":"levelo_inurba_marseille","lat":43.295173,"lon":5.37878,"is_reserved":false,"is_disabled":false,"rental_uris":{"android":"levelo://app?vid=67474596-6b8c-4126-af30-a4197a8a4f0f","ios":"levelo://app?vid=67474596-6b8c-4126-af30-a4197a8a4f0f"},"vehicle_type_id":"4","last_reported":1727028639,"current_range_meters":32400,"station_id":"","pricing_plan_id":"cebpf4jnsgd1na2vs0mg"},{"bike_id":"219b79a7-796f-4a13-9373-66545f36e1c9","system_id":"levelo_inurba_marseille","lat":43.32367,"lon":5.38887,"is_reserved":false,"is_disabled":false,"rental_uris":{"android":"levelo://app?vid=219b79a7-796f-4a13-9373-66545f36e1c9","ios":"levelo://app?vid=219b79a7-796f-4a13-9373-66545f36e1c9"},"vehicle_type_id":"4","last_reported":1727028639,"current_range_meters":9600,"station_id":"ce4bhqp2rcd13ifvqhog","pricing_plan_id":"cebpf4jnsgd1na2vs0mg"},{"bike_id":"ea392576-08d1-48b7-a706-bc91cdc7d912","system_id":"levelo_inurba_marseille","lat":43.3231,"lon":5.41222,"is_reserved":false,"is_disabled":false,"rental_uris":{"android":"levelo://app?vid=ea392576-08d1-48b7-a706-bc91cdc7d912","ios":"levelo://app?vid=ea392576-08d1-48b7-a706-bc91cdc7d912"},"vehicle_type_id":"4","last_reported":1727028639,"current_range_meters":14000,"station_id":"ce4bhpp2rcd13ifvqhgg","pricing_plan_id":"cebpf4jnsgd1na2vs0mg"},{"bike_id":"ec40ffa7-116d-4d71-b7e8-fd520e0c080e","system_id":"levelo_inurba_marseille","lat":43.311493,"lon":5.376571,"is_reserved":false,"is_disabled":false,"rental_uris":{"android":"levelo://app?vid=ec40ffa7-116d-4d71-b7e8-fd520e0c080e","ios":"levelo://app?vid=ec40ffa7-116d-4d71-b7e8-fd520e0c080e"},"vehicle_type_id":"4","last_reported":1727028639,"current_range_meters":6400,"station_id":"ce4bgt92rcd13ifvqcg0","pricing_plan_id":"cebpf4jnsgd1na2vs0mg"},{"bike_id":"7f2d115b-3bf2-403d-b257-6ef648256539","system_id":"levelo_inurba_marseille","lat":43.31526,"lon":5.38037,"is_reserved":false,"is_disabled":false,"rental_uris":{"android":"levelo://app?vid=7f2d115b-3bf2-403d-b257-6ef648256539","ios":"levelo://app?vid=7f2d115b-3bf2-403d-b257-6ef648256539"},"vehicle_type_id":"4","last_reported":1727028639,"current_range_meters":20800,"station_id":"ce4bhsp2rcd13ifvqi50","pricing_plan_id":"cebpf4jnsgd1na2vs0mg"},{"bike_id":"2375269c-1ee0-4177-a574-bcc26e16eb27","system_id":"levelo_inurba_marseille","lat":43.31712,"lon":5.43704,"is_reserved":false,"is_disabled":false,"rental_uris":{"android":"levelo://app?vid=2375269c-1ee0-4177-a574-bcc26e16eb27","ios":"levelo://app?vid=2375269c-1ee0-4177-a574-bcc26e16eb27"},"vehicle_type_id":"4","last_reported":1727028639,"current_range_meters":19200,"station_id":"ce4bhp92rcd13ifvqhcg","pricing_plan_id":"cebpf4jnsgd1na2vs0mg"},{"bike_id":"019bbfb2-f8bf-47c7-a947-967438b3946d","system_id":"levelo_inurba_marseille","lat":43.298517,"lon":5.362876,"is_reserved":false,"is_disabled":false,"rental_uris":{"android":"levelo://app?vid=019bbfb2-f8bf-47c7-a947-967438b3946d","ios":"levelo://app?vid=019bbfb2-f8bf-47c7-a947-967438b3946d"},"vehicle_type_id":"4","last_reported":1727028639,"current_range_meters":33200,"station_id":"ce4bgpp2rcd13ifvqc3g","pricing_plan_id":"cebpf4jnsgd1na2vs0mg"},{"bike_id":"3088b933-0eb0-44a5-81e7-422b8bfe6707","system_id":"levelo_inurba_marseille","lat":43.2407,"lon":5.37756,"is_reserved":false,"is_disabled":false,"rental_uris":{"android":"levelo://app?vid=3088b933-0eb0-44a5-81e7-422b8bfe6707","ios":"levelo://app?vid=3088b933-0eb0-44a5-81e7-422b8bfe6707"},"vehicle_type_id":"4","last_reported":1727028639,"current_range_meters":19200,"station_id":"ce4bhnp2rcd13ifvqgvg","pricing_plan_id":"cebpf4jnsgd1na2vs0mg"},{"bike_id":"9122fef2-cb2a-44fa-94ba-1afacdad2371","system_id":"levelo_inurba_marseille","lat":43.30785,"lon":5.37654,"is_reserved":false,"is_disabled":false,"rental_uris":{"android":"levelo://app?vid=9122fef2-cb2a-44fa-94ba-1afacdad2371","ios":"levelo://app?vid=9122fef2-cb2a-44fa-94ba-1afacdad2371"},"vehicle_type_id":"4","last_reported":1727028639,"current_range_meters":38400,"station_id":"ce4bgv92rcd13ifvqcq0","pricing_plan_id":"cebpf4jnsgd1na2vs0mg"},{"bike_id":"d29d10bf-2a59-482e-9056-75f4d5b04afd","system_id":"levelo_inurba_marseille","lat":43.2893,"lon":5.38395,"is_reserved":false,"is_disabled":false,"rental_uris":{"android":"levelo://app?vid=d29d10bf-2a59-482e-9056-75f4d5b04afd","ios":"levelo://app?vid=d29d10bf-2a59-482e-9056-75f4d5b04afd"},"vehicle_type_id":"4","last_reported":1727028639,"current_range_meters":39200,"station_id":"ce4bh612rcd13ifvqe6g","pricing_plan_id":"cebpf4jnsgd1na2vs0mg"},{"bike_id":"3b802b75-b8f4-42af-bffe-c8739ba611ff","system_id":"levelo_inurba_marseille","lat":43.3019,"lon":5.3662,"is_reserved":false,"is_disabled":false,"rental_uris":{"android":"levelo://app?vid=3b802b75-b8f4-42af-bffe-c8739ba611ff","ios":"levelo://app?vid=3b802b75-b8f4-42af-bffe-c8739ba611ff"},"vehicle_type_id":"4","last_reported":1727028639,"current_range_meters":19200,"station_id":"ce4bgrh2rcd13ifvqc8g","pricing_plan_id":"cebpf4jnsgd1na2vs0mg"},{"bike_id":"3a99ad31-9efc-407e-ba93-103c29aa2f07","system_id":"levelo_inurba_marseille","lat":43.26796,"lon":5.39413,"is_reserved":false,"is_disabled":false,"rental_uris":{"android":"levelo://app?vid=3a99ad31-9efc-407e-ba93-103c29aa2f07","ios":"levelo://app?vid=3a99ad31-9efc-407e-ba93-103c29aa2f07"},"vehicle_type_id":"4","last_reported":1727028639,"current_range_meters":38800,"station_id":"ce4bhh12rcd13ifvqfg0","pricing_plan_id":"cebpf4jnsgd1na2vs0mg"},{"bike_id":"bcb6566e-5009-487f-bceb-5722278fd988","system_id":"levelo_inurba_marseille","lat":43.31223,"lon":5.36852,"is_reserved":false,"is_disabled":false,"rental_uris":{"android":"levelo://app?vid=bcb6566e-5009-487f-bceb-5722278fd988","ios":"levelo://app?vid=bcb6566e-5009-487f-bceb-5722278fd988"},"vehicle_type_id":"4","last_reported":1727028639,"current_range_meters":38800,"station_id":"ce4bgl92rcd13ifvqbq0","pricing_plan_id":"cebpf4jnsgd1na2vs0mg"},{"bike_id":"20a042f1-81aa-4cde-8548-4f002e395336","system_id":"levelo_inurba_marseille","lat":43.30181,"lon":5.39862,"is_reserved":false,"is_disabled":false,"rental_uris":{"android":"levelo://app?vid=20a042f1-81aa-4cde-8548-4f002e395336","ios":"levelo://app?vid=20a042f1-81aa-4cde-8548-4f002e395336"},"vehicle_type_id":"4","last_reported":1727028639,"current_range_meters":36400,"station_id":"ce4bgvp2rcd13ifvqct0","pricing_plan_id":"cebpf4jnsgd1na2vs0mg"},{"bike_id":"eba66bb8-485a-4a36-900e-7a7af5e48d0c","system_id":"levelo_inurba_marseille","lat":43.27998,"lon":5.41669,"is_reserved":false,"is_disabled":false,"rental_uris":{"android":"levelo://app?vid=eba66bb8-485a-4a36-900e-7a7af5e48d0c","ios":"levelo://app?vid=eba66bb8-485a-4a36-900e-7a7af5e48d0c"},"vehicle_type_id":"4","last_reported":1727028639,"current_range_meters":34000,"station_id":"ce4bho12rcd13ifvqh1g","pricing_plan_id":"cebpf4jnsgd1na2vs0mg"},{"bike_id":"d7da139e-330f-4909-b52b-93cda3171239","system_id":"levelo_inurba_marseille","lat":43.30803,"lon":5.43529,"is_reserved":false,"is_disabled":false,"rental_uris":{"android":"levelo://app?vid=d7da139e-330f-4909-b52b-93cda3171239","ios":"levelo://app?vid=d7da139e-330f-4909-b52b-93cda3171239"},"vehicle_type_id":"4","last_reported":1727028639,"current_range_meters":2800,"station_id":"ce4bhph2rcd13ifvqheg","pricing_plan_id":"cebpf4jnsgd1na2vs0mg"},{"bike_id":"cbe1d532-4808-44ee-b9d0-83fa9f257b96","system_id":"levelo_inurba_marseille","lat":43.260572,"lon":5.393967,"is_reserved":false,"is_disabled":false,"rental_uris":{"android":"levelo://app?vid=cbe1d532-4808-44ee-b9d0-83fa9f257b96","ios":"levelo://app?vid=cbe1d532-4808-44ee-b9d0-83fa9f257b96"},"vehicle_type_id":"4","last_reported":1727028639,"current_range_meters":29600,"station_id":"ce4bhh92rcd13ifvqfj0","pricing_plan_id":"cebpf4jnsgd1na2vs0mg"},{"bike_id":"4c8d015a-c4f2-430f-86bf-eca81a629001","system_id":"levelo_inurba_marseille","lat":43.3021,"lon":5.39471,"is_reserved":false,"is_disabled":false,"rental_uris":{"android":"levelo://app?vid=4c8d015a-c4f2-430f-86bf-eca81a629001","ios":"levelo://app?vid=4c8d015a-c4f2-430f-86bf-eca81a629001"},"vehicle_type_id":"4","last_reported":1727028639,"current_range_meters":37600,"station_id":"ce4bh0p2rcd13ifvqd70","pricing_plan_id":"cebpf4jnsgd1na2vs0mg"},{"bike_id":"68b1f62b-d8b3-40fd-860c-4a28332f3487","system_id":"levelo_inurba_marseille","lat":43.27808,"lon":5.40717,"is_reserved":false,"is_disabled":false,"rental_uris":{"android":"levelo://app?vid=68b1f62b-d8b3-40fd-860c-4a28332f3487","ios":"levelo://app?vid=68b1f62b-d8b3-40fd-860c-4a28332f3487"},"vehicle_type_id":"4","last_reported":1727028639,"current_range_meters":28000,"station_id":"ce4bhnh2rcd13ifvqgtg","pricing_plan_id":"cebpf4jnsgd1na2vs0mg"},{"bike_id":"33817eff-36f4-46e2-938b-7e62383edc1c","system_id":"levelo_inurba_marseille","lat":43.29262,"lon":5.38443,"is_reserved":false,"is_disabled":false,"rental_uris":{"android":"levelo://app?vid=33817eff-36f4-46e2-938b-7e62383edc1c","ios":"levelo://app?vid=33817eff-36f4-46e2-938b-7e62383edc1c"},"vehicle_type_id":"4","last_reported":1727028639,"current_range_meters":38800,"station_id":"ce4bh692rcd13ifvqea0","pricing_plan_id":"cebpf4jnsgd1na2vs0mg"},{"bike_id":"485ecc86-ed09-4e2b-863c-5a12da381fd8","system_id":"levelo_inurba_marseille","lat":43.25081,"lon":5.3952,"is_reserved":false,"is_disabled":false,"rental_uris":{"android":"levelo://app?vid=485ecc86-ed09-4e2b-863c-5a12da381fd8","ios":"levelo://app?vid=485ecc86-ed09-4e2b-863c-5a12da381fd8"},"vehicle_type_id":"4","last_reported":1727028639,"current_range_meters":28000,"station_id":"ce4bhm12rcd13ifvqgkg","pricing_plan_id":"cebpf4jnsgd1na2vs0mg"},{"bike_id":"ddef2735-203a-4460-8fe2-32d0d088e5d5","system_id":"levelo_inurba_marseille","lat":43.31244,"lon":5.37982,"is_reserved":false,"is_disabled":false,"rental_uris":{"android":"levelo://app?vid=ddef2735-203a-4460-8fe2-32d0d088e5d5","ios":"levelo://app?vid=ddef2735-203a-4460-8fe2-32d0d088e5d5"},"vehicle_type_id":"4","last_reported":1727028639,"current_range_meters":4400,"station_id":"","pricing_plan_id":"cebpf4jnsgd1na2vs0mg"},{"bike_id":"f827a044-c973-4eff-8cae-6ddecc3ca20d","system_id":"levelo_inurba_marseille","lat":43.29618,"lon":5.37712,"is_reserved":false,"is_disabled":false,"rental_uris":{"android":"levelo://app?vid=f827a044-c973-4eff-8cae-6ddecc3ca20d","ios":"levelo://app?vid=f827a044-c973-4eff-8cae-6ddecc3ca20d"},"vehicle_type_id":"4","last_reported":1727028639,"current_range_meters":12800,"station_id":"ce4bgi92rcd13ifvqb90","pricing_plan_id":"cebpf4jnsgd1na2vs0mg"},{"bike_id":"d7768b41-42b6-44d5-906a-db089dfd5ded","system_id":"levelo_inurba_marseille","lat":43.2958,"lon":5.36754,"is_reserved":false,"is_disabled":false,"rental_uris":{"android":"levelo://app?vid=d7768b41-42b6-44d5-906a-db089dfd5ded","ios":"levelo://app?vid=d7768b41-42b6-44d5-906a-db089dfd5ded"},"vehicle_type_id":"4","last_reported":1727028639,"current_range_meters":4800,"station_id":"ce4bgph2rcd13ifvqc2g","pricing_plan_id":"cebpf4jnsgd1na2vs0mg"},{"bike_id":"baa9e3ba-a317-4c5a-937b-63c24c256bd8","system_id":"levelo_inurba_marseille","lat":43.32667,"lon":5.40942,"is_reserved":false,"is_disabled":false,"rental_uris":{"android":"levelo://app?vid=baa9e3ba-a317-4c5a-937b-63c24c256bd8","ios":"levelo://app?vid=baa9e3ba-a317-4c5a-937b-63c24c256bd8"},"vehicle_type_id":"4","last_reported":1727028639,"current_range_meters":38800,"station_id":"ce4bhpp2rcd13ifvqhgg","pricing_plan_id":"cebpf4jnsgd1na2vs0mg"},{"bike_id":"bc7ee07a-eb6f-46f7-b14c-b92248103165","system_id":"levelo_inurba_marseille","lat":43.29275,"lon":5.38452,"is_reserved":false,"is_disabled":false,"rental_uris":{"android":"levelo://app?vid=bc7ee07a-eb6f-46f7-b14c-b92248103165","ios":"levelo://app?vid=bc7ee07a-eb6f-46f7-b14c-b92248103165"},"vehicle_type_id":"4","last_reported":1727028639,"current_range_meters":38000,"station_id":"ce4bh692rcd13ifvqea0","pricing_plan_id":"cebpf4jnsgd1na2vs0mg"},{"bike_id":"e35f0e97-2b9f-438d-b1bc-2da44bc851c0","system_id":"levelo_inurba_marseille","lat":43.31711,"lon":5.43708,"is_reserved":false,"is_disabled":false,"rental_uris":{"android":"levelo://app?vid=e35f0e97-2b9f-438d-b1bc-2da44bc851c0","ios":"levelo://app?vid=e35f0e97-2b9f-438d-b1bc-2da44bc851c0"},"vehicle_type_id":"4","last_reported":1727028639,"current_range_meters":33200,"station_id":"ce4bhp92rcd13ifvqhcg","pricing_plan_id":"cebpf4jnsgd1na2vs0mg"},{"bike_id":"d991ad35-28c9-48ee-987a-503186f52663","system_id":"levelo_inurba_marseille","lat":43.296221,"lon":5.376993,"is_reserved":false,"is_disabled":false,"rental_uris":{"android":"levelo://app?vid=d991ad35-28c9-48ee-987a-503186f52663","ios":"levelo://app?vid=d991ad35-28c9-48ee-987a-503186f52663"},"vehicle_type_id":"4","last_reported":1727028639,"current_range_meters":39200,"station_id":"ce4bgi92rcd13ifvqb90","pricing_plan_id":"cebpf4jnsgd1na2vs0mg"},{"bike_id":"b51ce446-611a-42c6-8797-bda05e34d07b","system_id":"levelo_inurba_marseille","lat":43.31325,"lon":5.39705,"is_reserved":false,"is_disabled":false,"rental_uris":{"android":"levelo://app?vid=b51ce446-611a-42c6-8797-bda05e34d07b","ios":"levelo://app?vid=b51ce446-611a-42c6-8797-bda05e34d07b"},"vehicle_type_id":"4","last_reported":1727028639,"current_range_meters":17600,"station_id":"ce4bgvp2rcd13ifvqcu0","pricing_plan_id":"cebpf4jnsgd1na2vs0mg"},{"bike_id":"92af40a6-c6b1-4ec3-ae40-8c50d628e400","system_id":"levelo_inurba_marseille","lat":43.25001,"lon":5.38926,"is_reserved":false,"is_disabled":false,"rental_uris":{"android":"levelo://app?vid=92af40a6-c6b1-4ec3-ae40-8c50d628e400","ios":"levelo://app?vid=92af40a6-c6b1-4ec3-ae40-8c50d628e400"},"vehicle_type_id":"4","last_reported":1727028639,"current_range_meters":9200,"station_id":"ce4bhgp2rcd13ifvqfd0","pricing_plan_id":"cebpf4jnsgd1na2vs0mg"},{"bike_id":"0122b3a8-8d03-4ad5-a0c0-f2dbe1e5db8f","system_id":"levelo_inurba_marseille","lat":43.308128,"lon":5.376783,"is_reserved":false,"is_disabled":false,"rental_uris":{"android":"levelo://app?vid=0122b3a8-8d03-4ad5-a0c0-f2dbe1e5db8f","ios":"levelo://app?vid=0122b3a8-8d03-4ad5-a0c0-f2dbe1e5db8f"},"vehicle_type_id":"4","last_reported":1727028639,"current_range_meters":12400,"station_id":"ce4bgv92rcd13ifvqcq0","pricing_plan_id":"cebpf4jnsgd1na2vs0mg"},{"bike_id":"bf1b2103-b792-4830-9ce1-52d19f810b0b","system_id":"levelo_inurba_marseille","lat":43.308,"lon":5.43529,"is_reserved":false,"is_disabled":false,"rental_uris":{"android":"levelo://app?vid=bf1b2103-b792-4830-9ce1-52d19f810b0b","ios":"levelo://app?vid=bf1b2103-b792-4830-9ce1-52d19f810b0b"},"vehicle_type_id":"4","last_reported":1727028639,"current_range_meters":9600,"station_id":"ce4bhph2rcd13ifvqheg","pricing_plan_id":"cebpf4jnsgd1na2vs0mg"},{"bike_id":"7ea6f11e-bb74-4722-bd77-c4a2c92da2c7","system_id":"levelo_inurba_marseille","lat":43.25869,"lon":5.39896,"is_reserved":false,"is_disabled":false,"rental_uris":{"android":"levelo://app?vid=7ea6f11e-bb74-4722-bd77-c4a2c92da2c7","ios":"levelo://app?vid=7ea6f11e-bb74-4722-bd77-c4a2c92da2c7"},"vehicle_type_id":"4","last_reported":1727028639,"current_range_meters":9600,"station_id":"ce4bhl92rcd13ifvqghg","pricing_plan_id":"cebpf4jnsgd1na2vs0mg"},{"bike_id":"aef93c0b-b4e8-4ece-84a8-cdb351a252bf","system_id":"levelo_inurba_marseille","lat":43.305908,"lon":5.372649,"is_reserved":false,"is_disabled":false,"rental_uris":{"android":"levelo://app?vid=aef93c0b-b4e8-4ece-84a8-cdb351a252bf","ios":"levelo://app?vid=aef93c0b-b4e8-4ece-84a8-cdb351a252bf"},"vehicle_type_id":"4","last_reported":1727028639,"current_range_meters":20400,"station_id":"ce4bgqh2rcd13ifvqc4g","pricing_plan_id":"cebpf4jnsgd1na2vs0mg"},{"bike_id":"e68b94cf-f394-4560-9c0b-52865583d26a","system_id":"levelo_inurba_marseille","lat":43.23188,"lon":5.3998,"is_reserved":false,"is_disabled":false,"rental_uris":{"android":"levelo://app?vid=e68b94cf-f394-4560-9c0b-52865583d26a","ios":"levelo://app?vid=e68b94cf-f394-4560-9c0b-52865583d26a"},"vehicle_type_id":"4","last_reported":1727028639,"current_range_meters":18000,"station_id":"ce4bhn12rcd13ifvqgqg","pricing_plan_id":"cebpf4jnsgd1na2vs0mg"},{"bike_id":"8fea3d40-1027-4b93-b566-cf6bf82d1cb6","system_id":"levelo_inurba_marseille","lat":43.30911,"lon":5.40271,"is_reserved":false,"is_disabled":false,"rental_uris":{"android":"levelo://app?vid=8fea3d40-1027-4b93-b566-cf6bf82d1cb6","ios":"levelo://app?vid=8fea3d40-1027-4b93-b566-cf6bf82d1cb6"},"vehicle_type_id":"4","last_reported":1727028639,"current_range_meters":36400,"station_id":"","pricing_plan_id":"cebpf4jnsgd1na2vs0mg"},{"bike_id":"fa434d1c-ed09-4e1e-b76b-403ef93db80e","system_id":"levelo_inurba_marseille","lat":43.2781,"lon":5.40717,"is_reserved":false,"is_disabled":false,"rental_uris":{"android":"levelo://app?vid=fa434d1c-ed09-4e1e-b76b-403ef93db80e","ios":"levelo://app?vid=fa434d1c-ed09-4e1e-b76b-403ef93db80e"},"vehicle_type_id":"4","last_reported":1727028639,"current_range_meters":25600,"station_id":"ce4bhnh2rcd13ifvqgtg","pricing_plan_id":"cebpf4jnsgd1na2vs0mg"},{"bike_id":"a95284b2-1c9e-4354-8b3f-8199a22782c1","system_id":"levelo_inurba_marseille","lat":43.28936,"lon":5.36385,"is_reserved":false,"is_disabled":false,"rental_uris":{"android":"levelo://app?vid=a95284b2-1c9e-4354-8b3f-8199a22782c1","ios":"levelo://app?vid=a95284b2-1c9e-4354-8b3f-8199a22782c1"},"vehicle_type_id":"4","last_reported":1727028639,"current_range_meters":39200,"station_id":"ce4bhc92rcd13ifvqetg","pricing_plan_id":"cebpf4jnsgd1na2vs0mg"},{"bike_id":"e809c965-1479-40ef-a408-686e2b5761af","system_id":"levelo_inurba_marseille","lat":43.27428,"lon":5.39421,"is_reserved":false,"is_disabled":false,"rental_uris":{"android":"levelo://app?vid=e809c965-1479-40ef-a408-686e2b5761af","ios":"levelo://app?vid=e809c965-1479-40ef-a408-686e2b5761af"},"vehicle_type_id":"4","last_reported":1727028639,"current_range_meters":19200,"station_id":"ce4bhdp2rcd13ifvqf20","pricing_plan_id":"cebpf4jnsgd1na2vs0mg"},{"bike_id":"90890cf4-4c81-4003-ba44-9a9a23207e3d","system_id":"levelo_inurba_marseille","lat":43.25862,"lon":5.399,"is_reserved":false,"is_disabled":false,"rental_uris":{"android":"levelo://app?vid=90890cf4-4c81-4003-ba44-9a9a23207e3d","ios":"levelo://app?vid=90890cf4-4c81-4003-ba44-9a9a23207e3d"},"vehicle_type_id":"4","last_reported":1727028639,"current_range_meters":38800,"station_id":"ce4bhl92rcd13ifvqghg","pricing_plan_id":"cebpf4jnsgd1na2vs0mg"},{"bike_id":"e9c2ed1a-ca72-4458-b232-e03d7bda4901","system_id":"levelo_inurba_marseille","lat":43.28923,"lon":5.38394,"is_reserved":false,"is_disabled":false,"rental_uris":{"android":"levelo://app?vid=e9c2ed1a-ca72-4458-b232-e03d7bda4901","ios":"levelo://app?vid=e9c2ed1a-ca72-4458-b232-e03d7bda4901"},"vehicle_type_id":"4","last_reported":1727028639,"current_range_meters":8400,"station_id":"ce4bh612rcd13ifvqe6g","pricing_plan_id":"cebpf4jnsgd1na2vs0mg"},{"bike_id":"36c416da-9158-44af-aa3a-06b103bea7bf","system_id":"levelo_inurba_marseille","lat":43.337444,"lon":5.374475,"is_reserved":false,"is_disabled":false,"rental_uris":{"android":"levelo://app?vid=36c416da-9158-44af-aa3a-06b103bea7bf","ios":"levelo://app?vid=36c416da-9158-44af-aa3a-06b103bea7bf"},"vehicle_type_id":"4","last_reported":1727028639,"current_range_meters":27200,"station_id":"","pricing_plan_id":"cebpf4jnsgd1na2vs0mg"},{"bike_id":"06675f7e-0cf1-40be-8017-4989b27c397a","system_id":"levelo_inurba_marseille","lat":43.28684,"lon":5.38655,"is_reserved":false,"is_disabled":false,"rental_uris":{"android":"levelo://app?vid=06675f7e-0cf1-40be-8017-4989b27c397a","ios":"levelo://app?vid=06675f7e-0cf1-40be-8017-4989b27c397a"},"vehicle_type_id":"4","last_reported":1727028639,"current_range_meters":38800,"station_id":"ce4bh492rcd13ifvqdug","pricing_plan_id":"cebpf4jnsgd1na2vs0mg"},{"bike_id":"5a84c0d3-d0dd-4812-981c-75f776a68479","system_id":"levelo_inurba_marseille","lat":43.308048,"lon":5.381565,"is_reserved":false,"is_disabled":false,"rental_uris":{"android":"levelo://app?vid=5a84c0d3-d0dd-4812-981c-75f776a68479","ios":"levelo://app?vid=5a84c0d3-d0dd-4812-981c-75f776a68479"},"vehicle_type_id":"4","last_reported":1727028639,"current_range_meters":13600,"station_id":"ce4bgt12rcd13ifvqce0","pricing_plan_id":"cebpf4jnsgd1na2vs0mg"},{"bike_id":"e7ba8be8-bb54-4ee1-83ab-ce479a272181","system_id":"levelo_inurba_marseille","lat":43.31329,"lon":5.3969,"is_reserved":false,"is_disabled":false,"rental_uris":{"android":"levelo://app?vid=e7ba8be8-bb54-4ee1-83ab-ce479a272181","ios":"levelo://app?vid=e7ba8be8-bb54-4ee1-83ab-ce479a272181"},"vehicle_type_id":"4","last_reported":1727028639,"current_range_meters":4400,"station_id":"ce4bgvp2rcd13ifvqcu0","pricing_plan_id":"cebpf4jnsgd1na2vs0mg"},{"bike_id":"558c76b0-215a-4a84-9e10-663662edc353","system_id":"levelo_inurba_marseille","lat":43.31072,"lon":5.38353,"is_reserved":false,"is_disabled":false,"rental_uris":{"android":"levelo://app?vid=558c76b0-215a-4a84-9e10-663662edc353","ios":"levelo://app?vid=558c76b0-215a-4a84-9e10-663662edc353"},"vehicle_type_id":"4","last_reported":1727028639,"current_range_meters":10800,"station_id":"ce4bgv92rcd13ifvqcr0","pricing_plan_id":"cebpf4jnsgd1na2vs0mg"},{"bike_id":"dcf3d7bc-c35f-4647-a9ab-733122a04faf","system_id":"levelo_inurba_marseille","lat":43.2511,"lon":5.40327,"is_reserved":false,"is_disabled":false,"rental_uris":{"android":"levelo://app?vid=dcf3d7bc-c35f-4647-a9ab-733122a04faf","ios":"levelo://app?vid=dcf3d7bc-c35f-4647-a9ab-733122a04faf"},"vehicle_type_id":"4","last_reported":1727028639,"current_range_meters":38800,"station_id":"ce4bhlh2rcd13ifvqgig","pricing_plan_id":"cebpf4jnsgd1na2vs0mg"},{"bike_id":"bc08d377-8934-49f9-a16b-d231e67a2261","system_id":"levelo_inurba_marseille","lat":43.28151,"lon":5.42652,"is_reserved":false,"is_disabled":false,"rental_uris":{"android":"levelo://app?vid=bc08d377-8934-49f9-a16b-d231e67a2261","ios":"levelo://app?vid=bc08d377-8934-49f9-a16b-d231e67a2261"},"vehicle_type_id":"4","last_reported":1727028639,"current_range_meters":17200,"station_id":"ce4bhnh2rcd13ifvqgug","pricing_plan_id":"cebpf4jnsgd1na2vs0mg"},{"bike_id":"f72b4ee5-3b6a-4bba-8e4b-bc24bda6e341","system_id":"levelo_inurba_marseille","lat":43.28571,"lon":5.39502,"is_reserved":false,"is_disabled":false,"rental_uris":{"android":"levelo://app?vid=f72b4ee5-3b6a-4bba-8e4b-bc24bda6e341","ios":"levelo://app?vid=f72b4ee5-3b6a-4bba-8e4b-bc24bda6e341"},"vehicle_type_id":"4","last_reported":1727028639,"current_range_meters":28000,"station_id":"ce4bh292rcd13ifvqdg0","pricing_plan_id":"cebpf4jnsgd1na2vs0mg"},{"bike_id":"d6391691-de65-45d3-b374-0c65a866bbce","system_id":"levelo_inurba_marseille","lat":43.31697,"lon":5.40483,"is_reserved":false,"is_disabled":false,"rental_uris":{"android":"levelo://app?vid=d6391691-de65-45d3-b374-0c65a866bbce","ios":"levelo://app?vid=d6391691-de65-45d3-b374-0c65a866bbce"},"vehicle_type_id":"4","last_reported":1727028639,"current_range_meters":36800,"station_id":"ce4bh012rcd13ifvqd00","pricing_plan_id":"cebpf4jnsgd1na2vs0mg"},{"bike_id":"fee847b2-684e-4f0f-b3c3-0910bdb1f06e","system_id":"levelo_inurba_marseille","lat":43.28154,"lon":5.42645,"is_reserved":false,"is_disabled":false,"rental_uris":{"android":"levelo://app?vid=fee847b2-684e-4f0f-b3c3-0910bdb1f06e","ios":"levelo://app?vid=fee847b2-684e-4f0f-b3c3-0910bdb1f06e"},"vehicle_type_id":"4","last_reported":1727028639,"current_range_meters":12400,"station_id":"ce4bhnh2rcd13ifvqgug","pricing_plan_id":"cebpf4jnsgd1na2vs0mg"},{"bike_id":"d894223a-4e7a-4950-afa3-fc457a96210b","system_id":"levelo_inurba_marseille","lat":43.23184,"lon":5.39986,"is_reserved":false,"is_disabled":false,"rental_uris":{"android":"levelo://app?vid=d894223a-4e7a-4950-afa3-fc457a96210b","ios":"levelo://app?vid=d894223a-4e7a-4950-afa3-fc457a96210b"},"vehicle_type_id":"4","last_reported":1727028639,"current_range_meters":39200,"station_id":"ce4bhn12rcd13ifvqgqg","pricing_plan_id":"cebpf4jnsgd1na2vs0mg"},{"bike_id":"41c90b48-de93-4d56-a965-3b11fc010bd5","system_id":"levelo_inurba_marseille","lat":43.24651,"lon":5.3889,"is_reserved":false,"is_disabled":false,"rental_uris":{"android":"levelo://app?vid=41c90b48-de93-4d56-a965-3b11fc010bd5","ios":"levelo://app?vid=41c90b48-de93-4d56-a965-3b11fc010bd5"},"vehicle_type_id":"4","last_reported":1727028639,"current_range_meters":38800,"station_id":"ce4bhg12rcd13ifvqf60","pricing_plan_id":"cebpf4jnsgd1na2vs0mg"},{"bike_id":"05cfe6f3-b07f-4f5d-bad3-9f31a71c2e22","system_id":"levelo_inurba_marseille","lat":43.30932,"lon":5.40146,"is_reserved":false,"is_disabled":false,"rental_uris":{"android":"levelo://app?vid=05cfe6f3-b07f-4f5d-bad3-9f31a71c2e22","ios":"levelo://app?vid=05cfe6f3-b07f-4f5d-bad3-9f31a71c2e22"},"vehicle_type_id":"4","last_reported":1727028639,"current_range_meters":3200,"station_id":"ce4bho92rcd13ifvqh3g","pricing_plan_id":"cebpf4jnsgd1na2vs0mg"},{"bike_id":"c041f175-138a-4fe9-a5f4-31506ee131f8","system_id":"levelo_inurba_marseille","lat":43.30797,"lon":5.43525,"is_reserved":false,"is_disabled":false,"rental_uris":{"android":"levelo://app?vid=c041f175-138a-4fe9-a5f4-31506ee131f8","ios":"levelo://app?vid=c041f175-138a-4fe9-a5f4-31506ee131f8"},"vehicle_type_id":"4","last_reported":1727028639,"current_range_meters":30800,"station_id":"ce4bhph2rcd13ifvqheg","pricing_plan_id":"cebpf4jnsgd1na2vs0mg"},{"bike_id":"b209acf9-2ba4-4213-8a63-ba09525b9934","system_id":"levelo_inurba_marseille","lat":43.28846,"lon":5.35853,"is_reserved":false,"is_disabled":false,"rental_uris":{"android":"levelo://app?vid=b209acf9-2ba4-4213-8a63-ba09525b9934","ios":"levelo://app?vid=b209acf9-2ba4-4213-8a63-ba09525b9934"},"vehicle_type_id":"4","last_reported":1727028639,"current_range_meters":8800,"station_id":"ce4bhb12rcd13ifvqem0","pricing_plan_id":"cebpf4jnsgd1na2vs0mg"},{"bike_id":"149779fc-bc45-458a-857f-33707eedaf6a","system_id":"levelo_inurba_marseille","lat":43.2319,"lon":5.3556,"is_reserved":false,"is_disabled":false,"rental_uris":{"android":"levelo://app?vid=149779fc-bc45-458a-857f-33707eedaf6a","ios":"levelo://app?vid=149779fc-bc45-458a-857f-33707eedaf6a"},"vehicle_type_id":"4","last_reported":1727028639,"current_range_meters":13600,"station_id":"ce4bhu92rcd13ifvqi70","pricing_plan_id":"cebpf4jnsgd1na2vs0mg"},{"bike_id":"6d7e25c7-c1bf-4562-b237-aa6bbecb4faf","system_id":"levelo_inurba_marseille","lat":43.30529,"lon":5.3844,"is_reserved":false,"is_disabled":false,"rental_uris":{"android":"levelo://app?vid=6d7e25c7-c1bf-4562-b237-aa6bbecb4faf","ios":"levelo://app?vid=6d7e25c7-c1bf-4562-b237-aa6bbecb4faf"},"vehicle_type_id":"4","last_reported":1727028639,"current_range_meters":35200,"station_id":"ce4bgg92rcd13ifvqb30","pricing_plan_id":"cebpf4jnsgd1na2vs0mg"},{"bike_id":"43df60f0-901e-45e8-a739-2918ae0ece83","system_id":"levelo_inurba_marseille","lat":43.2467,"lon":5.3816,"is_reserved":false,"is_disabled":false,"rental_uris":{"android":"levelo://app?vid=43df60f0-901e-45e8-a739-2918ae0ece83","ios":"levelo://app?vid=43df60f0-901e-45e8-a739-2918ae0ece83"},"vehicle_type_id":"4","last_reported":1727028639,"current_range_meters":39200,"station_id":"ce4bhih2rcd13ifvqfr0","pricing_plan_id":"cebpf4jnsgd1na2vs0mg"},{"bike_id":"2674c829-cbfc-41fc-94cc-403a1dabb051","system_id":"levelo_inurba_marseille","lat":43.29265,"lon":5.3844,"is_reserved":false,"is_disabled":false,"rental_uris":{"android":"levelo://app?vid=2674c829-cbfc-41fc-94cc-403a1dabb051","ios":"levelo://app?vid=2674c829-cbfc-41fc-94cc-403a1dabb051"},"vehicle_type_id":"4","last_reported":1727028639,"current_range_meters":38000,"station_id":"ce4bh692rcd13ifvqea0","pricing_plan_id":"cebpf4jnsgd1na2vs0mg"},{"bike_id":"9e76614e-09a0-4c59-8bc7-1ac57848deef","system_id":"levelo_inurba_marseille","lat":43.24078,"lon":5.37747,"is_reserved":false,"is_disabled":false,"rental_uris":{"android":"levelo://app?vid=9e76614e-09a0-4c59-8bc7-1ac57848deef","ios":"levelo://app?vid=9e76614e-09a0-4c59-8bc7-1ac57848deef"},"vehicle_type_id":"4","last_reported":1727028639,"current_range_meters":38800,"station_id":"ce4bhnp2rcd13ifvqgvg","pricing_plan_id":"cebpf4jnsgd1na2vs0mg"},{"bike_id":"55d14929-1e05-446b-bef7-03a909f5cc33","system_id":"levelo_inurba_marseille","lat":43.28931,"lon":5.3841,"is_reserved":false,"is_disabled":false,"rental_uris":{"android":"levelo://app?vid=55d14929-1e05-446b-bef7-03a909f5cc33","ios":"levelo://app?vid=55d14929-1e05-446b-bef7-03a909f5cc33"},"vehicle_type_id":"4","last_reported":1727028639,"current_range_meters":20800,"station_id":"ce4bh612rcd13ifvqe6g","pricing_plan_id":"cebpf4jnsgd1na2vs0mg"},{"bike_id":"2eb59fce-4b09-45e1-8472-de3ef262d301","system_id":"levelo_inurba_marseille","lat":43.31532,"lon":5.3803,"is_reserved":false,"is_disabled":false,"rental_uris":{"android":"levelo://app?vid=2eb59fce-4b09-45e1-8472-de3ef262d301","ios":"levelo://app?vid=2eb59fce-4b09-45e1-8472-de3ef262d301"},"vehicle_type_id":"4","last_reported":1727028639,"current_range_meters":10000,"station_id":"ce4bhsp2rcd13ifvqi50","pricing_plan_id":"cebpf4jnsgd1na2vs0mg"},{"bike_id":"25028397-422e-4a91-9053-5eebab3e3753","system_id":"levelo_inurba_marseille","lat":43.31173,"lon":5.38721,"is_reserved":false,"is_disabled":false,"rental_uris":{"android":"levelo://app?vid=25028397-422e-4a91-9053-5eebab3e3753","ios":"levelo://app?vid=25028397-422e-4a91-9053-5eebab3e3753"},"vehicle_type_id":"4","last_reported":1727028639,"current_range_meters":38000,"station_id":"ce4bgv12rcd13ifvqcp0","pricing_plan_id":"cebpf4jnsgd1na2vs0mg"},{"bike_id":"88652ec3-2459-4db5-982c-12577594f1fa","system_id":"levelo_inurba_marseille","lat":43.319021,"lon":5.40738,"is_reserved":false,"is_disabled":false,"rental_uris":{"android":"levelo://app?vid=88652ec3-2459-4db5-982c-12577594f1fa","ios":"levelo://app?vid=88652ec3-2459-4db5-982c-12577594f1fa"},"vehicle_type_id":"4","last_reported":1727028639,"current_range_meters":33200,"station_id":"ce4bhq12rcd13ifvqhig","pricing_plan_id":"cebpf4jnsgd1na2vs0mg"},{"bike_id":"5344444c-bd69-4452-b538-e9190ebb8b74","system_id":"levelo_inurba_marseille","lat":43.260254,"lon":5.375489,"is_reserved":false,"is_disabled":false,"rental_uris":{"android":"levelo://app?vid=5344444c-bd69-4452-b538-e9190ebb8b74","ios":"levelo://app?vid=5344444c-bd69-4452-b538-e9190ebb8b74"},"vehicle_type_id":"4","last_reported":1727028639,"current_range_meters":4400,"station_id":"ce4bh312rcd13ifvqdk0","pricing_plan_id":"cebpf4jnsgd1na2vs0mg"},{"bike_id":"19633ef5-54e1-46af-b1fa-684178fe65c6","system_id":"levelo_inurba_marseille","lat":43.278375,"lon":5.392052,"is_reserved":false,"is_disabled":false,"rental_uris":{"android":"levelo://app?vid=19633ef5-54e1-46af-b1fa-684178fe65c6","ios":"levelo://app?vid=19633ef5-54e1-46af-b1fa-684178fe65c6"},"vehicle_type_id":"4","last_reported":1727028639,"current_range_meters":34800,"station_id":"ce4bhjp2rcd13ifvqga0","pricing_plan_id":"cebpf4jnsgd1na2vs0mg"},{"bike_id":"ab53795f-5404-4f9e-b16e-6b273164588e","system_id":"levelo_inurba_marseille","lat":43.33023,"lon":5.39039,"is_reserved":false,"is_disabled":false,"rental_uris":{"android":"levelo://app?vid=ab53795f-5404-4f9e-b16e-6b273164588e","ios":"levelo://app?vid=ab53795f-5404-4f9e-b16e-6b273164588e"},"vehicle_type_id":"4","last_reported":1727028639,"current_range_meters":24400,"station_id":"ce4bhr92rcd13ifvqhrg","pricing_plan_id":"cebpf4jnsgd1na2vs0mg"},{"bike_id":"71bac315-ae3a-44ba-b051-9159b7b17179","system_id":"levelo_inurba_marseille","lat":43.24998,"lon":5.38939,"is_reserved":false,"is_disabled":false,"rental_uris":{"android":"levelo://app?vid=71bac315-ae3a-44ba-b051-9159b7b17179","ios":"levelo://app?vid=71bac315-ae3a-44ba-b051-9159b7b17179"},"vehicle_type_id":"4","last_reported":1727028639,"current_range_meters":38800,"station_id":"ce4bhgp2rcd13ifvqfd0","pricing_plan_id":"cebpf4jnsgd1na2vs0mg"},{"bike_id":"d4cd02a2-8196-45a0-ade7-083f2b1cddee","system_id":"levelo_inurba_marseille","lat":43.24176,"lon":5.39716,"is_reserved":false,"is_disabled":false,"rental_uris":{"android":"levelo://app?vid=d4cd02a2-8196-45a0-ade7-083f2b1cddee","ios":"levelo://app?vid=d4cd02a2-8196-45a0-ade7-083f2b1cddee"},"vehicle_type_id":"4","last_reported":1727028639,"current_range_meters":37600,"station_id":"ce4bhn12rcd13ifvqgpg","pricing_plan_id":"cebpf4jnsgd1na2vs0mg"},{"bike_id":"19b9aa55-279f-47f2-87d7-0a5390c939fa","system_id":"levelo_inurba_marseille","lat":43.3414,"lon":5.40916,"is_reserved":false,"is_disabled":false,"rental_uris":{"android":"levelo://app?vid=19b9aa55-279f-47f2-87d7-0a5390c939fa","ios":"levelo://app?vid=19b9aa55-279f-47f2-87d7-0a5390c939fa"},"vehicle_type_id":"4","last_reported":1727028639,"current_range_meters":19200,"station_id":"ce4bhqh2rcd13ifvqhlg","pricing_plan_id":"cebpf4jnsgd1na2vs0mg"},{"bike_id":"745165ca-2557-4cbf-840f-706713e329dd","system_id":"levelo_inurba_marseille","lat":43.23962,"lon":5.36625,"is_reserved":false,"is_disabled":false,"rental_uris":{"android":"levelo://app?vid=745165ca-2557-4cbf-840f-706713e329dd","ios":"levelo://app?vid=745165ca-2557-4cbf-840f-706713e329dd"},"vehicle_type_id":"4","last_reported":1727028639,"current_range_meters":10000,"station_id":"ce4bhi12rcd13ifvqfp0","pricing_plan_id":"cebpf4jnsgd1na2vs0mg"},{"bike_id":"bac3326f-0cac-4c1d-a438-f2794f5573eb","system_id":"levelo_inurba_marseille","lat":43.24539,"lon":5.39533,"is_reserved":false,"is_disabled":false,"rental_uris":{"android":"levelo://app?vid=bac3326f-0cac-4c1d-a438-f2794f5573eb","ios":"levelo://app?vid=bac3326f-0cac-4c1d-a438-f2794f5573eb"},"vehicle_type_id":"4","last_reported":1727028639,"current_range_meters":9600,"station_id":"ce4bhlp2rcd13ifvqgjg","pricing_plan_id":"cebpf4jnsgd1na2vs0mg"},{"bike_id":"4aaff02e-644a-4022-9352-1d65c33f608d","system_id":"levelo_inurba_marseille","lat":43.27835,"lon":5.39223,"is_reserved":false,"is_disabled":false,"rental_uris":{"android":"levelo://app?vid=4aaff02e-644a-4022-9352-1d65c33f608d","ios":"levelo://app?vid=4aaff02e-644a-4022-9352-1d65c33f608d"},"vehicle_type_id":"4","last_reported":1727028639,"current_range_meters":9600,"station_id":"ce4bhjp2rcd13ifvqga0","pricing_plan_id":"cebpf4jnsgd1na2vs0mg"},{"bike_id":"53ebd296-9c09-489f-b39f-fbe2b3d1dcdc","system_id":"levelo_inurba_marseille","lat":43.25002,"lon":5.38943,"is_reserved":false,"is_disabled":false,"rental_uris":{"android":"levelo://app?vid=53ebd296-9c09-489f-b39f-fbe2b3d1dcdc","ios":"levelo://app?vid=53ebd296-9c09-489f-b39f-fbe2b3d1dcdc"},"vehicle_type_id":"4","last_reported":1727028639,"current_range_meters":38800,"station_id":"ce4bhgp2rcd13ifvqfd0","pricing_plan_id":"cebpf4jnsgd1na2vs0mg"},{"bike_id":"f33d9a21-90dd-4902-bdc4-76ce8cc50c51","system_id":"levelo_inurba_marseille","lat":43.29791,"lon":5.39348,"is_reserved":false,"is_disabled":false,"rental_uris":{"android":"levelo://app?vid=f33d9a21-90dd-4902-bdc4-76ce8cc50c51","ios":"levelo://app?vid=f33d9a21-90dd-4902-bdc4-76ce8cc50c51"},"vehicle_type_id":"4","last_reported":1727028639,"current_range_meters":16000,"station_id":"chh1huq6cuj3fo74tm60","pricing_plan_id":"cebpf4jnsgd1na2vs0mg"},{"bike_id":"d97a2ce6-bdda-4a91-9a8a-6f8d26f41242","system_id":"levelo_inurba_marseille","lat":43.309196,"lon":5.401896,"is_reserved":false,"is_disabled":false,"rental_uris":{"android":"levelo://app?vid=d97a2ce6-bdda-4a91-9a8a-6f8d26f41242","ios":"levelo://app?vid=d97a2ce6-bdda-4a91-9a8a-6f8d26f41242"},"vehicle_type_id":"4","last_reported":1727028639,"current_range_meters":11600,"station_id":"ce4bgvp2rcd13ifvqct0","pricing_plan_id":"cebpf4jnsgd1na2vs0mg"},{"bike_id":"a7a2630d-54d4-495a-8506-d0472b9b9a1a","system_id":"levelo_inurba_marseille","lat":43.29562,"lon":5.42289,"is_reserved":false,"is_disabled":false,"rental_uris":{"android":"levelo://app?vid=a7a2630d-54d4-495a-8506-d0472b9b9a1a","ios":"levelo://app?vid=a7a2630d-54d4-495a-8506-d0472b9b9a1a"},"vehicle_type_id":"4","last_reported":1727028639,"current_range_meters":38000,"station_id":"ce4bhph2rcd13ifvqhdg","pricing_plan_id":"cebpf4jnsgd1na2vs0mg"},{"bike_id":"3a8f884c-dd4f-4d86-9979-2c67a86aeff5","system_id":"levelo_inurba_marseille","lat":43.29906,"lon":5.38125,"is_reserved":false,"is_disabled":false,"rental_uris":{"android":"levelo://app?vid=3a8f884c-dd4f-4d86-9979-2c67a86aeff5","ios":"levelo://app?vid=3a8f884c-dd4f-4d86-9979-2c67a86aeff5"},"vehicle_type_id":"4","last_reported":1727028639,"current_range_meters":4000,"station_id":"ce4bgj12rcd13ifvqbc0","pricing_plan_id":"cebpf4jnsgd1na2vs0mg"},{"bike_id":"8e68118a-2d9d-4efe-9707-d8225016ba37","system_id":"levelo_inurba_marseille","lat":43.23969,"lon":5.36631,"is_reserved":false,"is_disabled":false,"rental_uris":{"android":"levelo://app?vid=8e68118a-2d9d-4efe-9707-d8225016ba37","ios":"levelo://app?vid=8e68118a-2d9d-4efe-9707-d8225016ba37"},"vehicle_type_id":"4","last_reported":1727028639,"current_range_meters":11200,"station_id":"ce4bhi12rcd13ifvqfp0","pricing_plan_id":"cebpf4jnsgd1na2vs0mg"},{"bike_id":"757411e7-939e-4353-9792-02a3aa30f3ed","system_id":"levelo_inurba_marseille","lat":43.23195,"lon":5.35549,"is_reserved":false,"is_disabled":false,"rental_uris":{"android":"levelo://app?vid=757411e7-939e-4353-9792-02a3aa30f3ed","ios":"levelo://app?vid=757411e7-939e-4353-9792-02a3aa30f3ed"},"vehicle_type_id":"4","last_reported":1727028639,"current_range_meters":38800,"station_id":"ce4bhu92rcd13ifvqi70","pricing_plan_id":"cebpf4jnsgd1na2vs0mg"},{"bike_id":"a9f431df-7e09-4b5f-bf81-014b92202f58","system_id":"levelo_inurba_marseille","lat":43.27375,"lon":5.36251,"is_reserved":false,"is_disabled":false,"rental_uris":{"android":"levelo://app?vid=a9f431df-7e09-4b5f-bf81-014b92202f58","ios":"levelo://app?vid=a9f431df-7e09-4b5f-bf81-014b92202f58"},"vehicle_type_id":"4","last_reported":1727028639,"current_range_meters":38800,"station_id":"ce4bhbh2rcd13ifvqeo0","pricing_plan_id":"cebpf4jnsgd1na2vs0mg"},{"bike_id":"8c126830-0f24-4884-9f3e-7db2e1691230","system_id":"levelo_inurba_marseille","lat":43.30887,"lon":5.39632,"is_reserved":false,"is_disabled":false,"rental_uris":{"android":"levelo://app?vid=8c126830-0f24-4884-9f3e-7db2e1691230","ios":"levelo://app?vid=8c126830-0f24-4884-9f3e-7db2e1691230"},"vehicle_type_id":"4","last_reported":1727028639,"current_range_meters":28400,"station_id":"ce4bh012rcd13ifvqcv0","pricing_plan_id":"cebpf4jnsgd1na2vs0mg"},{"bike_id":"8ea3ea29-5c01-4016-a590-e853cf837830","system_id":"levelo_inurba_marseille","lat":43.2465,"lon":5.38909,"is_reserved":false,"is_disabled":false,"rental_uris":{"android":"levelo://app?vid=8ea3ea29-5c01-4016-a590-e853cf837830","ios":"levelo://app?vid=8ea3ea29-5c01-4016-a590-e853cf837830"},"vehicle_type_id":"4","last_reported":1727028639,"current_range_meters":38800,"station_id":"ce4bhg12rcd13ifvqf60","pricing_plan_id":"cebpf4jnsgd1na2vs0mg"},{"bike_id":"71aa8592-ddf7-4343-aed4-c00d3433340f","system_id":"levelo_inurba_marseille","lat":43.337444,"lon":5.374475,"is_reserved":false,"is_disabled":false,"rental_uris":{"android":"levelo://app?vid=71aa8592-ddf7-4343-aed4-c00d3433340f","ios":"levelo://app?vid=71aa8592-ddf7-4343-aed4-c00d3433340f"},"vehicle_type_id":"4","last_reported":1727028639,"current_range_meters":30400,"station_id":"","pricing_plan_id":"cebpf4jnsgd1na2vs0mg"},{"bike_id":"3740c6df-06cd-419b-9ae6-b8d9e5eff548","system_id":"levelo_inurba_marseille","lat":43.2753,"lon":5.40935,"is_reserved":false,"is_disabled":false,"rental_uris":{"android":"levelo://app?vid=3740c6df-06cd-419b-9ae6-b8d9e5eff548","ios":"levelo://app?vid=3740c6df-06cd-419b-9ae6-b8d9e5eff548"},"vehicle_type_id":"4","last_reported":1727028639,"current_range_meters":12400,"station_id":"","pricing_plan_id":"cebpf4jnsgd1na2vs0mg"},{"bike_id":"efcd897b-264f-4588-85ca-8a52097cf7b5","system_id":"levelo_inurba_marseille","lat":43.29016,"lon":5.38644,"is_reserved":false,"is_disabled":false,"rental_uris":{"android":"levelo://app?vid=efcd897b-264f-4588-85ca-8a52097cf7b5","ios":"levelo://app?vid=efcd897b-264f-4588-85ca-8a52097cf7b5"},"vehicle_type_id":"4","last_reported":1727028639,"current_range_meters":38800,"station_id":"ce4bh4p2rcd13ifvqe0g","pricing_plan_id":"cebpf4jnsgd1na2vs0mg"},{"bike_id":"38e55ba7-c26c-4b9c-8404-9f7cec825759","system_id":"levelo_inurba_marseille","lat":43.22928,"lon":5.35377,"is_reserved":false,"is_disabled":false,"rental_uris":{"android":"levelo://app?vid=38e55ba7-c26c-4b9c-8404-9f7cec825759","ios":"levelo://app?vid=38e55ba7-c26c-4b9c-8404-9f7cec825759"},"vehicle_type_id":"4","last_reported":1727028639,"current_range_meters":38800,"station_id":"cpo3532slgdg3j2ikp40","pricing_plan_id":"cebpf4jnsgd1na2vs0mg"},{"bike_id":"c11ed82c-1d9e-425d-9840-8ef40b737a69","system_id":"levelo_inurba_marseille","lat":43.26061,"lon":5.394,"is_reserved":false,"is_disabled":false,"rental_uris":{"android":"levelo://app?vid=c11ed82c-1d9e-425d-9840-8ef40b737a69","ios":"levelo://app?vid=c11ed82c-1d9e-425d-9840-8ef40b737a69"},"vehicle_type_id":"4","last_reported":1727028639,"current_range_meters":22800,"station_id":"ce4bhh92rcd13ifvqfj0","pricing_plan_id":"cebpf4jnsgd1na2vs0mg"},{"bike_id":"ebd878be-d45e-41ec-8445-716482387886","system_id":"levelo_inurba_marseille","lat":43.30962,"lon":5.39048,"is_reserved":false,"is_disabled":false,"rental_uris":{"android":"levelo://app?vid=ebd878be-d45e-41ec-8445-716482387886","ios":"levelo://app?vid=ebd878be-d45e-41ec-8445-716482387886"},"vehicle_type_id":"4","last_reported":1727028639,"current_range_meters":31200,"station_id":"ce4bgup2rcd13ifvqco0","pricing_plan_id":"cebpf4jnsgd1na2vs0mg"},{"bike_id":"df1ca689-a44b-4d7b-ae50-90ade339c4cf","system_id":"levelo_inurba_marseille","lat":43.29252,"lon":5.40916,"is_reserved":false,"is_disabled":false,"rental_uris":{"android":"levelo://app?vid=df1ca689-a44b-4d7b-ae50-90ade339c4cf","ios":"levelo://app?vid=df1ca689-a44b-4d7b-ae50-90ade339c4cf"},"vehicle_type_id":"4","last_reported":1727028639,"current_range_meters":3600,"station_id":"ce4bh192rcd13ifvqdc0","pricing_plan_id":"cebpf4jnsgd1na2vs0mg"},{"bike_id":"f2c752a1-56a8-478a-bfde-d550e6225907","system_id":"levelo_inurba_marseille","lat":43.31276,"lon":5.40171,"is_reserved":false,"is_disabled":false,"rental_uris":{"android":"levelo://app?vid=f2c752a1-56a8-478a-bfde-d550e6225907","ios":"levelo://app?vid=f2c752a1-56a8-478a-bfde-d550e6225907"},"vehicle_type_id":"4","last_reported":1727028639,"current_range_meters":39200,"station_id":"ce4bh092rcd13ifvqd30","pricing_plan_id":"cebpf4jnsgd1na2vs0mg"},{"bike_id":"15810b61-7b4b-4d43-b16c-f43bc145bf74","system_id":"levelo_inurba_marseille","lat":43.32656,"lon":5.41001,"is_reserved":false,"is_disabled":false,"rental_uris":{"android":"levelo://app?vid=15810b61-7b4b-4d43-b16c-f43bc145bf74","ios":"levelo://app?vid=15810b61-7b4b-4d43-b16c-f43bc145bf74"},"vehicle_type_id":"4","last_reported":1727028639,"current_range_meters":8800,"station_id":"ce4bhpp2rcd13ifvqhgg","pricing_plan_id":"cebpf4jnsgd1na2vs0mg"},{"bike_id":"34bac9de-afcc-485f-a901-124a385dd441","system_id":"levelo_inurba_marseille","lat":43.24538,"lon":5.39515,"is_reserved":false,"is_disabled":false,"rental_uris":{"android":"levelo://app?vid=34bac9de-afcc-485f-a901-124a385dd441","ios":"levelo://app?vid=34bac9de-afcc-485f-a901-124a385dd441"},"vehicle_type_id":"4","last_reported":1727028639,"current_range_meters":38000,"station_id":"ce4bhlp2rcd13ifvqgjg","pricing_plan_id":"cebpf4jnsgd1na2vs0mg"},{"bike_id":"2ee07ada-3085-496d-98ef-ceb76f26f88d","system_id":"levelo_inurba_marseille","lat":43.24646,"lon":5.38904,"is_reserved":false,"is_disabled":false,"rental_uris":{"android":"levelo://app?vid=2ee07ada-3085-496d-98ef-ceb76f26f88d","ios":"levelo://app?vid=2ee07ada-3085-496d-98ef-ceb76f26f88d"},"vehicle_type_id":"4","last_reported":1727028639,"current_range_meters":9600,"station_id":"ce4bhg12rcd13ifvqf60","pricing_plan_id":"cebpf4jnsgd1na2vs0mg"},{"bike_id":"1575e777-51f8-479e-bd95-714cef91a125","system_id":"levelo_inurba_marseille","lat":43.24173,"lon":5.39712,"is_reserved":false,"is_disabled":false,"rental_uris":{"android":"levelo://app?vid=1575e777-51f8-479e-bd95-714cef91a125","ios":"levelo://app?vid=1575e777-51f8-479e-bd95-714cef91a125"},"vehicle_type_id":"4","last_reported":1727028639,"current_range_meters":25600,"station_id":"ce4bhn12rcd13ifvqgpg","pricing_plan_id":"cebpf4jnsgd1na2vs0mg"},{"bike_id":"493351e3-2673-4fea-86d7-dbb5ef4ffae6","system_id":"levelo_inurba_marseille","lat":43.29553,"lon":5.42284,"is_reserved":false,"is_disabled":false,"rental_uris":{"android":"levelo://app?vid=493351e3-2673-4fea-86d7-dbb5ef4ffae6","ios":"levelo://app?vid=493351e3-2673-4fea-86d7-dbb5ef4ffae6"},"vehicle_type_id":"4","last_reported":1727028639,"current_range_meters":23200,"station_id":"ce4bhph2rcd13ifvqhdg","pricing_plan_id":"cebpf4jnsgd1na2vs0mg"},{"bike_id":"ce747fcf-8287-4906-8d72-b64a9aae8d3c","system_id":"levelo_inurba_marseille","lat":43.29521,"lon":5.39045,"is_reserved":false,"is_disabled":false,"rental_uris":{"android":"levelo://app?vid=ce747fcf-8287-4906-8d72-b64a9aae8d3c","ios":"levelo://app?vid=ce747fcf-8287-4906-8d72-b64a9aae8d3c"},"vehicle_type_id":"4","last_reported":1727028639,"current_range_meters":38800,"station_id":"ce4bh3p2rcd13ifvqdp0","pricing_plan_id":"cebpf4jnsgd1na2vs0mg"},{"bike_id":"f49bd976-685d-4c11-9be5-56bd1aaa5bb2","system_id":"levelo_inurba_marseille","lat":43.309296,"lon":5.368621,"is_reserved":false,"is_disabled":false,"rental_uris":{"android":"levelo://app?vid=f49bd976-685d-4c11-9be5-56bd1aaa5bb2","ios":"levelo://app?vid=f49bd976-685d-4c11-9be5-56bd1aaa5bb2"},"vehicle_type_id":"4","last_reported":1727028639,"current_range_meters":21600,"station_id":"ce4bgn92rcd13ifvqbvg","pricing_plan_id":"cebpf4jnsgd1na2vs0mg"},{"bike_id":"8d9038f2-7784-4d9c-82cd-834726cb1d16","system_id":"levelo_inurba_marseille","lat":43.27569,"lon":5.38399,"is_reserved":false,"is_disabled":false,"rental_uris":{"android":"levelo://app?vid=8d9038f2-7784-4d9c-82cd-834726cb1d16","ios":"levelo://app?vid=8d9038f2-7784-4d9c-82cd-834726cb1d16"},"vehicle_type_id":"4","last_reported":1727028639,"current_range_meters":4400,"station_id":"ce4bhh92rcd13ifvqfi0","pricing_plan_id":"cebpf4jnsgd1na2vs0mg"},{"bike_id":"932407ff-2077-40b2-b44d-9de249d86649","system_id":"levelo_inurba_marseille","lat":43.29967,"lon":5.41323,"is_reserved":false,"is_disabled":false,"rental_uris":{"android":"levelo://app?vid=932407ff-2077-40b2-b44d-9de249d86649","ios":"levelo://app?vid=932407ff-2077-40b2-b44d-9de249d86649"},"vehicle_type_id":"4","last_reported":1727028639,"current_range_meters":38800,"station_id":"ce4bhp12rcd13ifvqh9g","pricing_plan_id":"cebpf4jnsgd1na2vs0mg"},{"bike_id":"4338e1f0-345e-4b51-9a37-7c290a3ef146","system_id":"levelo_inurba_marseille","lat":43.28434,"lon":5.39194,"is_reserved":false,"is_disabled":false,"rental_uris":{"android":"levelo://app?vid=4338e1f0-345e-4b51-9a37-7c290a3ef146","ios":"levelo://app?vid=4338e1f0-345e-4b51-9a37-7c290a3ef146"},"vehicle_type_id":"4","last_reported":1727028639,"current_range_meters":16800,"station_id":"ce4bhoh2rcd13ifvqh5g","pricing_plan_id":"cebpf4jnsgd1na2vs0mg"},{"bike_id":"1452c4a9-61ae-4e36-80bc-305f2209f473","system_id":"levelo_inurba_marseille","lat":43.25937,"lon":5.409,"is_reserved":false,"is_disabled":false,"rental_uris":{"android":"levelo://app?vid=1452c4a9-61ae-4e36-80bc-305f2209f473","ios":"levelo://app?vid=1452c4a9-61ae-4e36-80bc-305f2209f473"},"vehicle_type_id":"4","last_reported":1727028639,"current_range_meters":6400,"station_id":"ce4bhm92rcd13ifvqglg","pricing_plan_id":"cebpf4jnsgd1na2vs0mg"},{"bike_id":"a5361a64-14b2-4795-aa01-e4f984ce6702","system_id":"levelo_inurba_marseille","lat":43.29263,"lon":5.38463,"is_reserved":false,"is_disabled":false,"rental_uris":{"android":"levelo://app?vid=a5361a64-14b2-4795-aa01-e4f984ce6702","ios":"levelo://app?vid=a5361a64-14b2-4795-aa01-e4f984ce6702"},"vehicle_type_id":"4","last_reported":1727028639,"current_range_meters":23200,"station_id":"ce4bh692rcd13ifvqea0","pricing_plan_id":"cebpf4jnsgd1na2vs0mg"},{"bike_id":"8f234d07-88cf-4b46-a0f1-cb37492ad8ff","system_id":"levelo_inurba_marseille","lat":43.31531,"lon":5.38025,"is_reserved":false,"is_disabled":false,"rental_uris":{"android":"levelo://app?vid=8f234d07-88cf-4b46-a0f1-cb37492ad8ff","ios":"levelo://app?vid=8f234d07-88cf-4b46-a0f1-cb37492ad8ff"},"vehicle_type_id":"4","last_reported":1727028639,"current_range_meters":39200,"station_id":"ce4bhsp2rcd13ifvqi50","pricing_plan_id":"cebpf4jnsgd1na2vs0mg"},{"bike_id":"d765ecc6-f24e-4e18-aeb0-429ef33b50a7","system_id":"levelo_inurba_marseille","lat":43.23183,"lon":5.39985,"is_reserved":false,"is_disabled":false,"rental_uris":{"android":"levelo://app?vid=d765ecc6-f24e-4e18-aeb0-429ef33b50a7","ios":"levelo://app?vid=d765ecc6-f24e-4e18-aeb0-429ef33b50a7"},"vehicle_type_id":"4","last_reported":1727028639,"current_range_meters":38800,"station_id":"ce4bhn12rcd13ifvqgqg","pricing_plan_id":"cebpf4jnsgd1na2vs0mg"},{"bike_id":"6d823e02-37a6-40de-8ea0-23cd9ae3749e","system_id":"levelo_inurba_marseille","lat":43.31074,"lon":5.38356,"is_reserved":false,"is_disabled":false,"rental_uris":{"android":"levelo://app?vid=6d823e02-37a6-40de-8ea0-23cd9ae3749e","ios":"levelo://app?vid=6d823e02-37a6-40de-8ea0-23cd9ae3749e"},"vehicle_type_id":"4","last_reported":1727028639,"current_range_meters":38800,"station_id":"ce4bgv92rcd13ifvqcr0","pricing_plan_id":"cebpf4jnsgd1na2vs0mg"},{"bike_id":"feb42740-c719-4916-9efa-d99f861e0e6d","system_id":"levelo_inurba_marseille","lat":43.32479,"lon":5.36579,"is_reserved":false,"is_disabled":false,"rental_uris":{"android":"levelo://app?vid=feb42740-c719-4916-9efa-d99f861e0e6d","ios":"levelo://app?vid=feb42740-c719-4916-9efa-d99f861e0e6d"},"vehicle_type_id":"4","last_reported":1727028639,"current_range_meters":34800,"station_id":"ce4bhs12rcd13ifvqhvg","pricing_plan_id":"cebpf4jnsgd1na2vs0mg"},{"bike_id":"c5ffc1c0-381a-458f-a127-016acbeaf92f","system_id":"levelo_inurba_marseille","lat":43.27905,"lon":5.38016,"is_reserved":false,"is_disabled":false,"rental_uris":{"android":"levelo://app?vid=c5ffc1c0-381a-458f-a127-016acbeaf92f","ios":"levelo://app?vid=c5ffc1c0-381a-458f-a127-016acbeaf92f"},"vehicle_type_id":"4","last_reported":1727028639,"current_range_meters":29600,"station_id":"ce4bhf92rcd13ifvqf50","pricing_plan_id":"cebpf4jnsgd1na2vs0mg"},{"bike_id":"0ccaade9-4bf4-45df-9358-99e7c0801b96","system_id":"levelo_inurba_marseille","lat":43.30531,"lon":5.38432,"is_reserved":false,"is_disabled":false,"rental_uris":{"android":"levelo://app?vid=0ccaade9-4bf4-45df-9358-99e7c0801b96","ios":"levelo://app?vid=0ccaade9-4bf4-45df-9358-99e7c0801b96"},"vehicle_type_id":"4","last_reported":1727028639,"current_range_meters":22800,"station_id":"ce4bgg92rcd13ifvqb30","pricing_plan_id":"cebpf4jnsgd1na2vs0mg"},{"bike_id":"ffb3eff3-3eab-4aee-8214-41780d8a8a9e","system_id":"levelo_inurba_marseille","lat":43.26058,"lon":5.39398,"is_reserved":false,"is_disabled":false,"rental_uris":{"android":"levelo://app?vid=ffb3eff3-3eab-4aee-8214-41780d8a8a9e","ios":"levelo://app?vid=ffb3eff3-3eab-4aee-8214-41780d8a8a9e"},"vehicle_type_id":"4","last_reported":1727028639,"current_range_meters":30400,"station_id":"ce4bhh92rcd13ifvqfj0","pricing_plan_id":"cebpf4jnsgd1na2vs0mg"},{"bike_id":"d88c04c9-5e62-4d5d-851d-643f064c8972","system_id":"levelo_inurba_marseille","lat":43.26559,"lon":5.39019,"is_reserved":false,"is_disabled":false,"rental_uris":{"android":"levelo://app?vid=d88c04c9-5e62-4d5d-851d-643f064c8972","ios":"levelo://app?vid=d88c04c9-5e62-4d5d-851d-643f064c8972"},"vehicle_type_id":"4","last_reported":1727028639,"current_range_meters":3600,"station_id":"ce4bhe12rcd13ifvqf30","pricing_plan_id":"cebpf4jnsgd1na2vs0mg"},{"bike_id":"1049c65f-15cc-482e-b6f5-6928eabcf8b3","system_id":"levelo_inurba_marseille","lat":43.31479,"lon":5.37313,"is_reserved":false,"is_disabled":false,"rental_uris":{"android":"levelo://app?vid=1049c65f-15cc-482e-b6f5-6928eabcf8b3","ios":"levelo://app?vid=1049c65f-15cc-482e-b6f5-6928eabcf8b3"},"vehicle_type_id":"4","last_reported":1727028639,"current_range_meters":7200,"station_id":"ce4bgt12rcd13ifvqcd0","pricing_plan_id":"cebpf4jnsgd1na2vs0mg"},{"bike_id":"cc83ed21-4bd7-48ec-bb1c-9d52e2f82b52","system_id":"levelo_inurba_marseille","lat":43.29262,"lon":5.38436,"is_reserved":false,"is_disabled":false,"rental_uris":{"android":"levelo://app?vid=cc83ed21-4bd7-48ec-bb1c-9d52e2f82b52","ios":"levelo://app?vid=cc83ed21-4bd7-48ec-bb1c-9d52e2f82b52"},"vehicle_type_id":"4","last_reported":1727028639,"current_range_meters":12800,"station_id":"ce4bh692rcd13ifvqea0","pricing_plan_id":"cebpf4jnsgd1na2vs0mg"},{"bike_id":"fce734b4-6c36-4cb6-983c-c95238702258","system_id":"levelo_inurba_marseille","lat":43.31071,"lon":5.38119,"is_reserved":false,"is_disabled":false,"rental_uris":{"android":"levelo://app?vid=fce734b4-6c36-4cb6-983c-c95238702258","ios":"levelo://app?vid=fce734b4-6c36-4cb6-983c-c95238702258"},"vehicle_type_id":"4","last_reported":1727028639,"current_range_meters":11200,"station_id":"","pricing_plan_id":"cebpf4jnsgd1na2vs0mg"},{"bike_id":"0f08bb21-cbbd-4eab-b6b5-6eba8e91ec1b","system_id":"levelo_inurba_marseille","lat":43.31891,"lon":5.40736,"is_reserved":false,"is_disabled":false,"rental_uris":{"android":"levelo://app?vid=0f08bb21-cbbd-4eab-b6b5-6eba8e91ec1b","ios":"levelo://app?vid=0f08bb21-cbbd-4eab-b6b5-6eba8e91ec1b"},"vehicle_type_id":"4","last_reported":1727028639,"current_range_meters":38800,"station_id":"ce4bhq12rcd13ifvqhig","pricing_plan_id":"cebpf4jnsgd1na2vs0mg"},{"bike_id":"08ec2bc0-fe7f-4b29-852a-08d2caeb5f6a","system_id":"levelo_inurba_marseille","lat":43.30536,"lon":5.3843,"is_reserved":false,"is_disabled":false,"rental_uris":{"android":"levelo://app?vid=08ec2bc0-fe7f-4b29-852a-08d2caeb5f6a","ios":"levelo://app?vid=08ec2bc0-fe7f-4b29-852a-08d2caeb5f6a"},"vehicle_type_id":"4","last_reported":1727028639,"current_range_meters":30800,"station_id":"ce4bgg92rcd13ifvqb30","pricing_plan_id":"cebpf4jnsgd1na2vs0mg"},{"bike_id":"e9ff8a04-d08a-4e53-ba15-13ed3974ebbf","system_id":"levelo_inurba_marseille","lat":43.29903,"lon":5.43672,"is_reserved":false,"is_disabled":false,"rental_uris":{"android":"levelo://app?vid=e9ff8a04-d08a-4e53-ba15-13ed3974ebbf","ios":"levelo://app?vid=e9ff8a04-d08a-4e53-ba15-13ed3974ebbf"},"vehicle_type_id":"4","last_reported":1727028639,"current_range_meters":14400,"station_id":"ce4bhpp2rcd13ifvqhfg","pricing_plan_id":"cebpf4jnsgd1na2vs0mg"},{"bike_id":"5b64b615-7ca0-41e8-9508-8195b3a3555c","system_id":"levelo_inurba_marseille","lat":43.28673,"lon":5.38671,"is_reserved":false,"is_disabled":false,"rental_uris":{"android":"levelo://app?vid=5b64b615-7ca0-41e8-9508-8195b3a3555c","ios":"levelo://app?vid=5b64b615-7ca0-41e8-9508-8195b3a3555c"},"vehicle_type_id":"4","last_reported":1727028639,"current_range_meters":31200,"station_id":"ce4bh492rcd13ifvqdug","pricing_plan_id":"cebpf4jnsgd1na2vs0mg"},{"bike_id":"b8901bf2-fc56-49ba-8703-896e1e8b899c","system_id":"levelo_inurba_marseille","lat":43.31326,"lon":5.39695,"is_reserved":false,"is_disabled":false,"rental_uris":{"android":"levelo://app?vid=b8901bf2-fc56-49ba-8703-896e1e8b899c","ios":"levelo://app?vid=b8901bf2-fc56-49ba-8703-896e1e8b899c"},"vehicle_type_id":"4","last_reported":1727028639,"current_range_meters":15200,"station_id":"ce4bgvp2rcd13ifvqcu0","pricing_plan_id":"cebpf4jnsgd1na2vs0mg"},{"bike_id":"dbf7a699-6d7a-465f-8b67-63a48f82afe0","system_id":"levelo_inurba_marseille","lat":43.24655,"lon":5.38897,"is_reserved":false,"is_disabled":false,"rental_uris":{"android":"levelo://app?vid=dbf7a699-6d7a-465f-8b67-63a48f82afe0","ios":"levelo://app?vid=dbf7a699-6d7a-465f-8b67-63a48f82afe0"},"vehicle_type_id":"4","last_reported":1727028639,"current_range_meters":38800,"station_id":"ce4bhg12rcd13ifvqf60","pricing_plan_id":"cebpf4jnsgd1na2vs0mg"},{"bike_id":"4096736b-91ae-472e-8103-1f9454f46680","system_id":"levelo_inurba_marseille","lat":43.30426,"lon":5.39749,"is_reserved":false,"is_disabled":false,"rental_uris":{"android":"levelo://app?vid=4096736b-91ae-472e-8103-1f9454f46680","ios":"levelo://app?vid=4096736b-91ae-472e-8103-1f9454f46680"},"vehicle_type_id":"4","last_reported":1727028639,"current_range_meters":23200,"station_id":"ce4bh092rcd13ifvqd20","pricing_plan_id":"cebpf4jnsgd1na2vs0mg"},{"bike_id":"c9d644ea-b525-4061-ab89-a29cb33c53e2","system_id":"levelo_inurba_marseille","lat":43.29865,"lon":5.38921,"is_reserved":false,"is_disabled":false,"rental_uris":{"android":"levelo://app?vid=c9d644ea-b525-4061-ab89-a29cb33c53e2","ios":"levelo://app?vid=c9d644ea-b525-4061-ab89-a29cb33c53e2"},"vehicle_type_id":"4","last_reported":1727028639,"current_range_meters":33200,"station_id":"ce4bh392rcd13ifvqdl0","pricing_plan_id":"cebpf4jnsgd1na2vs0mg"},{"bike_id":"509b148d-0503-40c2-a2c5-19db187c5f80","system_id":"levelo_inurba_marseille","lat":43.24671,"lon":5.38158,"is_reserved":false,"is_disabled":false,"rental_uris":{"android":"levelo://app?vid=509b148d-0503-40c2-a2c5-19db187c5f80","ios":"levelo://app?vid=509b148d-0503-40c2-a2c5-19db187c5f80"},"vehicle_type_id":"4","last_reported":1727028639,"current_range_meters":11200,"station_id":"ce4bhih2rcd13ifvqfr0","pricing_plan_id":"cebpf4jnsgd1na2vs0mg"},{"bike_id":"a8b4375b-39c6-4815-8a88-427fa77a5010","system_id":"levelo_inurba_marseille","lat":43.27073,"lon":5.42278,"is_reserved":false,"is_disabled":false,"rental_uris":{"android":"levelo://app?vid=a8b4375b-39c6-4815-8a88-427fa77a5010","ios":"levelo://app?vid=a8b4375b-39c6-4815-8a88-427fa77a5010"},"vehicle_type_id":"4","last_reported":1727028639,"current_range_meters":28800,"station_id":"ce4bhk92rcd13ifvqgb0","pricing_plan_id":"cebpf4jnsgd1na2vs0mg"},{"bike_id":"b8551345-00a8-413b-a6da-b44b1e50d1de","system_id":"levelo_inurba_marseille","lat":43.27493,"lon":5.42463,"is_reserved":false,"is_disabled":false,"rental_uris":{"android":"levelo://app?vid=b8551345-00a8-413b-a6da-b44b1e50d1de","ios":"levelo://app?vid=b8551345-00a8-413b-a6da-b44b1e50d1de"},"vehicle_type_id":"4","last_reported":1727028639,"current_range_meters":38800,"station_id":"ce4bhn92rcd13ifvqgrg","pricing_plan_id":"cebpf4jnsgd1na2vs0mg"},{"bike_id":"534a783e-c777-46cc-823d-92376ca47d4d","system_id":"levelo_inurba_marseille","lat":43.28157,"lon":5.42641,"is_reserved":false,"is_disabled":false,"rental_uris":{"android":"levelo://app?vid=534a783e-c777-46cc-823d-92376ca47d4d","ios":"levelo://app?vid=534a783e-c777-46cc-823d-92376ca47d4d"},"vehicle_type_id":"4","last_reported":1727028639,"current_range_meters":9200,"station_id":"ce4bhnh2rcd13ifvqgug","pricing_plan_id":"cebpf4jnsgd1na2vs0mg"},{"bike_id":"e43e6310-a348-41cd-8943-af09fa3133d4","system_id":"levelo_inurba_marseille","lat":43.25866,"lon":5.39906,"is_reserved":false,"is_disabled":false,"rental_uris":{"android":"levelo://app?vid=e43e6310-a348-41cd-8943-af09fa3133d4","ios":"levelo://app?vid=e43e6310-a348-41cd-8943-af09fa3133d4"},"vehicle_type_id":"4","last_reported":1727028639,"current_range_meters":27200,"station_id":"ce4bhl92rcd13ifvqghg","pricing_plan_id":"cebpf4jnsgd1na2vs0mg"},{"bike_id":"e75155b1-0ef5-48d8-b51f-776702be0d20","system_id":"levelo_inurba_marseille","lat":43.28925,"lon":5.38401,"is_reserved":false,"is_disabled":false,"rental_uris":{"android":"levelo://app?vid=e75155b1-0ef5-48d8-b51f-776702be0d20","ios":"levelo://app?vid=e75155b1-0ef5-48d8-b51f-776702be0d20"},"vehicle_type_id":"4","last_reported":1727028639,"current_range_meters":10800,"station_id":"ce4bh612rcd13ifvqe6g","pricing_plan_id":"cebpf4jnsgd1na2vs0mg"},{"bike_id":"5b95533b-c88b-4e00-9ba1-79e4e7876ebe","system_id":"levelo_inurba_marseille","lat":43.29265,"lon":5.38443,"is_reserved":false,"is_disabled":false,"rental_uris":{"android":"levelo://app?vid=5b95533b-c88b-4e00-9ba1-79e4e7876ebe","ios":"levelo://app?vid=5b95533b-c88b-4e00-9ba1-79e4e7876ebe"},"vehicle_type_id":"4","last_reported":1727028639,"current_range_meters":9200,"station_id":"ce4bh692rcd13ifvqea0","pricing_plan_id":"cebpf4jnsgd1na2vs0mg"},{"bike_id":"113b10fb-1b14-408a-97a3-970b058150a0","system_id":"levelo_inurba_marseille","lat":43.25861,"lon":5.39909,"is_reserved":false,"is_disabled":false,"rental_uris":{"android":"levelo://app?vid=113b10fb-1b14-408a-97a3-970b058150a0","ios":"levelo://app?vid=113b10fb-1b14-408a-97a3-970b058150a0"},"vehicle_type_id":"4","last_reported":1727028639,"current_range_meters":38800,"station_id":"ce4bhl92rcd13ifvqghg","pricing_plan_id":"cebpf4jnsgd1na2vs0mg"},{"bike_id":"1b2633c7-3231-4e7d-89e9-a2c8e8cd897a","system_id":"levelo_inurba_marseille","lat":43.28118,"lon":5.35179,"is_reserved":false,"is_disabled":false,"rental_uris":{"android":"levelo://app?vid=1b2633c7-3231-4e7d-89e9-a2c8e8cd897a","ios":"levelo://app?vid=1b2633c7-3231-4e7d-89e9-a2c8e8cd897a"},"vehicle_type_id":"4","last_reported":1727028639,"current_range_meters":9200,"station_id":"","pricing_plan_id":"cebpf4jnsgd1na2vs0mg"},{"bike_id":"4fbb5250-9647-470b-8d93-052750ba4685","system_id":"levelo_inurba_marseille","lat":43.287806,"lon":5.373697,"is_reserved":false,"is_disabled":false,"rental_uris":{"android":"levelo://app?vid=4fbb5250-9647-470b-8d93-052750ba4685","ios":"levelo://app?vid=4fbb5250-9647-470b-8d93-052750ba4685"},"vehicle_type_id":"4","last_reported":1727028639,"current_range_meters":25200,"station_id":"ce4bh692rcd13ifvqe90","pricing_plan_id":"cebpf4jnsgd1na2vs0mg"},{"bike_id":"46507af9-b147-4f4d-a48c-e8425b7a3bbe","system_id":"levelo_inurba_marseille","lat":43.2315,"lon":5.43706,"is_reserved":false,"is_disabled":false,"rental_uris":{"android":"levelo://app?vid=46507af9-b147-4f4d-a48c-e8425b7a3bbe","ios":"levelo://app?vid=46507af9-b147-4f4d-a48c-e8425b7a3bbe"},"vehicle_type_id":"4","last_reported":1727028639,"current_range_meters":38800,"station_id":"ce4bhmp2rcd13ifvqgog","pricing_plan_id":"cebpf4jnsgd1na2vs0mg"},{"bike_id":"687e45cc-3291-4a06-a549-9ca2a3f5a1ad","system_id":"levelo_inurba_marseille","lat":43.23958,"lon":5.36649,"is_reserved":false,"is_disabled":false,"rental_uris":{"android":"levelo://app?vid=687e45cc-3291-4a06-a549-9ca2a3f5a1ad","ios":"levelo://app?vid=687e45cc-3291-4a06-a549-9ca2a3f5a1ad"},"vehicle_type_id":"4","last_reported":1727028639,"current_range_meters":38800,"station_id":"ce4bhi12rcd13ifvqfp0","pricing_plan_id":"cebpf4jnsgd1na2vs0mg"},{"bike_id":"fa690805-233a-4a70-a9f3-33f1b67cdb1f","system_id":"levelo_inurba_marseille","lat":43.32289,"lon":5.38264,"is_reserved":false,"is_disabled":false,"rental_uris":{"android":"levelo://app?vid=fa690805-233a-4a70-a9f3-33f1b67cdb1f","ios":"levelo://app?vid=fa690805-233a-4a70-a9f3-33f1b67cdb1f"},"vehicle_type_id":"4","last_reported":1727028639,"current_range_meters":6800,"station_id":"ce4bhr12rcd13ifvqhqg","pricing_plan_id":"cebpf4jnsgd1na2vs0mg"},{"bike_id":"411ea7a3-2d18-43ca-8ceb-94d43a9848de","system_id":"levelo_inurba_marseille","lat":43.286952,"lon":5.399855,"is_reserved":false,"is_disabled":false,"rental_uris":{"android":"levelo://app?vid=411ea7a3-2d18-43ca-8ceb-94d43a9848de","ios":"levelo://app?vid=411ea7a3-2d18-43ca-8ceb-94d43a9848de"},"vehicle_type_id":"4","last_reported":1727028639,"current_range_meters":28000,"station_id":"ce4bho92rcd13ifvqh3g","pricing_plan_id":"cebpf4jnsgd1na2vs0mg"},{"bike_id":"adb2d004-0fe0-493e-8626-b7a5d9254715","system_id":"levelo_inurba_marseille","lat":43.31117,"lon":5.37785,"is_reserved":false,"is_disabled":false,"rental_uris":{"android":"levelo://app?vid=adb2d004-0fe0-493e-8626-b7a5d9254715","ios":"levelo://app?vid=adb2d004-0fe0-493e-8626-b7a5d9254715"},"vehicle_type_id":"4","last_reported":1727028639,"current_range_meters":4400,"station_id":"ce4bgt92rcd13ifvqcg0","pricing_plan_id":"cebpf4jnsgd1na2vs0mg"},{"bike_id":"bc3584b9-4a83-4d0c-a410-b2fd8d1ac8dd","system_id":"levelo_inurba_marseille","lat":43.247936,"lon":5.374758,"is_reserved":false,"is_disabled":false,"rental_uris":{"android":"levelo://app?vid=bc3584b9-4a83-4d0c-a410-b2fd8d1ac8dd","ios":"levelo://app?vid=bc3584b9-4a83-4d0c-a410-b2fd8d1ac8dd"},"vehicle_type_id":"4","last_reported":1727028639,"current_range_meters":38800,"station_id":"ce4bhgh2rcd13ifvqfb0","pricing_plan_id":"cebpf4jnsgd1na2vs0mg"},{"bike_id":"8fe1a5e0-e557-4f0d-a80b-2323d5b1e8a5","system_id":"levelo_inurba_marseille","lat":43.297805,"lon":5.37109,"is_reserved":false,"is_disabled":false,"rental_uris":{"android":"levelo://app?vid=8fe1a5e0-e557-4f0d-a80b-2323d5b1e8a5","ios":"levelo://app?vid=8fe1a5e0-e557-4f0d-a80b-2323d5b1e8a5"},"vehicle_type_id":"4","last_reported":1727028639,"current_range_meters":38800,"station_id":"ce4bgop2rcd13ifvqc1g","pricing_plan_id":"cebpf4jnsgd1na2vs0mg"},{"bike_id":"d9c7c834-bc46-4532-bc1e-cce41dc50b92","system_id":"levelo_inurba_marseille","lat":43.279999,"lon":5.416676,"is_reserved":false,"is_disabled":false,"rental_uris":{"android":"levelo://app?vid=d9c7c834-bc46-4532-bc1e-cce41dc50b92","ios":"levelo://app?vid=d9c7c834-bc46-4532-bc1e-cce41dc50b92"},"vehicle_type_id":"4","last_reported":1727028639,"current_range_meters":38400,"station_id":"ce4bho12rcd13ifvqh1g","pricing_plan_id":"cebpf4jnsgd1na2vs0mg"},{"bike_id":"ab6a9519-2381-45e5-a002-24d0702d3ffa","system_id":"levelo_inurba_marseille","lat":43.26804,"lon":5.40264,"is_reserved":false,"is_disabled":false,"rental_uris":{"android":"levelo://app?vid=ab6a9519-2381-45e5-a002-24d0702d3ffa","ios":"levelo://app?vid=ab6a9519-2381-45e5-a002-24d0702d3ffa"},"vehicle_type_id":"4","last_reported":1727028639,"current_range_meters":6000,"station_id":"ce501612rcd8frsf0b60","pricing_plan_id":"cebpf4jnsgd1na2vs0mg"},{"bike_id":"6b2dee0b-51f4-4046-ba9b-e0f7710bf752","system_id":"levelo_inurba_marseille","lat":43.2926,"lon":5.38442,"is_reserved":false,"is_disabled":false,"rental_uris":{"android":"levelo://app?vid=6b2dee0b-51f4-4046-ba9b-e0f7710bf752","ios":"levelo://app?vid=6b2dee0b-51f4-4046-ba9b-e0f7710bf752"},"vehicle_type_id":"4","last_reported":1727028639,"current_range_meters":38800,"station_id":"ce4bh692rcd13ifvqea0","pricing_plan_id":"cebpf4jnsgd1na2vs0mg"},{"bike_id":"4fff38dc-bd3c-4e8f-98bc-85181f638254","system_id":"levelo_inurba_marseille","lat":43.24077,"lon":5.37745,"is_reserved":false,"is_disabled":false,"rental_uris":{"android":"levelo://app?vid=4fff38dc-bd3c-4e8f-98bc-85181f638254","ios":"levelo://app?vid=4fff38dc-bd3c-4e8f-98bc-85181f638254"},"vehicle_type_id":"4","last_reported":1727028639,"current_range_meters":38800,"station_id":"ce4bhnp2rcd13ifvqgvg","pricing_plan_id":"cebpf4jnsgd1na2vs0mg"},{"bike_id":"07675862-0e4d-481b-b631-5c34926e9e4d","system_id":"levelo_inurba_marseille","lat":43.26501,"lon":5.39532,"is_reserved":false,"is_disabled":false,"rental_uris":{"android":"levelo://app?vid=07675862-0e4d-481b-b631-5c34926e9e4d","ios":"levelo://app?vid=07675862-0e4d-481b-b631-5c34926e9e4d"},"vehicle_type_id":"4","last_reported":1727028639,"current_range_meters":24400,"station_id":"ce4bhi12rcd13ifvqfq0","pricing_plan_id":"cebpf4jnsgd1na2vs0mg"},{"bike_id":"be0088aa-5ffc-4670-b80e-7b1179bc8290","system_id":"levelo_inurba_marseille","lat":43.2927,"lon":5.38445,"is_reserved":false,"is_disabled":false,"rental_uris":{"android":"levelo://app?vid=be0088aa-5ffc-4670-b80e-7b1179bc8290","ios":"levelo://app?vid=be0088aa-5ffc-4670-b80e-7b1179bc8290"},"vehicle_type_id":"4","last_reported":1727028639,"current_range_meters":11600,"station_id":"ce4bh692rcd13ifvqea0","pricing_plan_id":"cebpf4jnsgd1na2vs0mg"},{"bike_id":"91d8e15c-1f30-4bb8-a019-a77678645dec","system_id":"levelo_inurba_marseille","lat":43.30057,"lon":5.38945,"is_reserved":false,"is_disabled":false,"rental_uris":{"android":"levelo://app?vid=91d8e15c-1f30-4bb8-a019-a77678645dec","ios":"levelo://app?vid=91d8e15c-1f30-4bb8-a019-a77678645dec"},"vehicle_type_id":"4","last_reported":1727028639,"current_range_meters":24000,"station_id":"","pricing_plan_id":"cebpf4jnsgd1na2vs0mg"},{"bike_id":"b2b35de5-2177-4df5-afd2-8ec2d030fd4a","system_id":"levelo_inurba_marseille","lat":43.25819,"lon":5.39442,"is_reserved":false,"is_disabled":false,"rental_uris":{"android":"levelo://app?vid=b2b35de5-2177-4df5-afd2-8ec2d030fd4a","ios":"levelo://app?vid=b2b35de5-2177-4df5-afd2-8ec2d030fd4a"},"vehicle_type_id":"4","last_reported":1727028639,"current_range_meters":14000,"station_id":"ce4bhip2rcd13ifvqft0","pricing_plan_id":"cebpf4jnsgd1na2vs0mg"},{"bike_id":"2e544a87-6ec2-46db-8490-bb5cd4911826","system_id":"levelo_inurba_marseille","lat":43.25939,"lon":5.40902,"is_reserved":false,"is_disabled":false,"rental_uris":{"android":"levelo://app?vid=2e544a87-6ec2-46db-8490-bb5cd4911826","ios":"levelo://app?vid=2e544a87-6ec2-46db-8490-bb5cd4911826"},"vehicle_type_id":"4","last_reported":1727028639,"current_range_meters":10000,"station_id":"ce4bhm92rcd13ifvqglg","pricing_plan_id":"cebpf4jnsgd1na2vs0mg"},{"bike_id":"00d186cd-12db-42d6-a083-175303c1e1d1","system_id":"levelo_inurba_marseille","lat":43.30355,"lon":5.41883,"is_reserved":false,"is_disabled":false,"rental_uris":{"android":"levelo://app?vid=00d186cd-12db-42d6-a083-175303c1e1d1","ios":"levelo://app?vid=00d186cd-12db-42d6-a083-175303c1e1d1"},"vehicle_type_id":"4","last_reported":1727028639,"current_range_meters":8000,"station_id":"ce4bhop2rcd13ifvqh7g","pricing_plan_id":"cebpf4jnsgd1na2vs0mg"},{"bike_id":"d28ffa41-9d7e-41f1-8b70-1aa04f034503","system_id":"levelo_inurba_marseille","lat":43.29556,"lon":5.42283,"is_reserved":false,"is_disabled":false,"rental_uris":{"android":"levelo://app?vid=d28ffa41-9d7e-41f1-8b70-1aa04f034503","ios":"levelo://app?vid=d28ffa41-9d7e-41f1-8b70-1aa04f034503"},"vehicle_type_id":"4","last_reported":1727028639,"current_range_meters":2800,"station_id":"ce4bhph2rcd13ifvqhdg","pricing_plan_id":"cebpf4jnsgd1na2vs0mg"},{"bike_id":"bec92394-8860-4fe2-8433-524cc1554a7a","system_id":"levelo_inurba_marseille","lat":43.31711,"lon":5.43711,"is_reserved":false,"is_disabled":false,"rental_uris":{"android":"levelo://app?vid=bec92394-8860-4fe2-8433-524cc1554a7a","ios":"levelo://app?vid=bec92394-8860-4fe2-8433-524cc1554a7a"},"vehicle_type_id":"4","last_reported":1727028639,"current_range_meters":38800,"station_id":"ce4bhp92rcd13ifvqhcg","pricing_plan_id":"cebpf4jnsgd1na2vs0mg"},{"bike_id":"8a5f5b90-42a7-4ee6-b444-56a77fdb035c","system_id":"levelo_inurba_marseille","lat":43.28152,"lon":5.42651,"is_reserved":false,"is_disabled":false,"rental_uris":{"android":"levelo://app?vid=8a5f5b90-42a7-4ee6-b444-56a77fdb035c","ios":"levelo://app?vid=8a5f5b90-42a7-4ee6-b444-56a77fdb035c"},"vehicle_type_id":"4","last_reported":1727028639,"current_range_meters":16000,"station_id":"ce4bhnh2rcd13ifvqgug","pricing_plan_id":"cebpf4jnsgd1na2vs0mg"},{"bike_id":"573da8cc-92ed-45e0-95ff-36fa97d84a8a","system_id":"levelo_inurba_marseille","lat":43.31326,"lon":5.3969,"is_reserved":false,"is_disabled":false,"rental_uris":{"android":"levelo://app?vid=573da8cc-92ed-45e0-95ff-36fa97d84a8a","ios":"levelo://app?vid=573da8cc-92ed-45e0-95ff-36fa97d84a8a"},"vehicle_type_id":"4","last_reported":1727028639,"current_range_meters":38400,"station_id":"ce4bgvp2rcd13ifvqcu0","pricing_plan_id":"cebpf4jnsgd1na2vs0mg"},{"bike_id":"f2dc22e0-4166-44e3-b903-ea8cb1fabfed","system_id":"levelo_inurba_marseille","lat":43.31361,"lon":5.38495,"is_reserved":false,"is_disabled":false,"rental_uris":{"android":"levelo://app?vid=f2dc22e0-4166-44e3-b903-ea8cb1fabfed","ios":"levelo://app?vid=f2dc22e0-4166-44e3-b903-ea8cb1fabfed"},"vehicle_type_id":"4","last_reported":1727028639,"current_range_meters":30000,"station_id":"ce4bgt92rcd13ifvqcf0","pricing_plan_id":"cebpf4jnsgd1na2vs0mg"},{"bike_id":"12883d26-f662-4048-81d6-99aa13a8aee0","system_id":"levelo_inurba_marseille","lat":43.28724,"lon":5.36096,"is_reserved":false,"is_disabled":false,"rental_uris":{"android":"levelo://app?vid=12883d26-f662-4048-81d6-99aa13a8aee0","ios":"levelo://app?vid=12883d26-f662-4048-81d6-99aa13a8aee0"},"vehicle_type_id":"4","last_reported":1727028639,"current_range_meters":32000,"station_id":"cki0cbj6b192h4jlfktg","pricing_plan_id":"cebpf4jnsgd1na2vs0mg"},{"bike_id":"7a5df0c0-fbbc-43c5-950b-3fcac519d79d","system_id":"levelo_inurba_marseille","lat":43.28453,"lon":5.35889,"is_reserved":false,"is_disabled":false,"rental_uris":{"android":"levelo://app?vid=7a5df0c0-fbbc-43c5-950b-3fcac519d79d","ios":"levelo://app?vid=7a5df0c0-fbbc-43c5-950b-3fcac519d79d"},"vehicle_type_id":"4","last_reported":1727028639,"current_range_meters":7200,"station_id":"ce4bhah2rcd13ifvqei0","pricing_plan_id":"cebpf4jnsgd1na2vs0mg"},{"bike_id":"1e43de8f-9dc9-42df-bbe6-256ec5e1a6ad","system_id":"levelo_inurba_marseille","lat":43.31489,"lon":5.37311,"is_reserved":false,"is_disabled":false,"rental_uris":{"android":"levelo://app?vid=1e43de8f-9dc9-42df-bbe6-256ec5e1a6ad","ios":"levelo://app?vid=1e43de8f-9dc9-42df-bbe6-256ec5e1a6ad"},"vehicle_type_id":"4","last_reported":1727028639,"current_range_meters":37600,"station_id":"ce4bgt12rcd13ifvqcd0","pricing_plan_id":"cebpf4jnsgd1na2vs0mg"},{"bike_id":"52add1b5-eb55-4484-8663-eb177d87b68c","system_id":"levelo_inurba_marseille","lat":43.29895,"lon":5.43663,"is_reserved":false,"is_disabled":false,"rental_uris":{"android":"levelo://app?vid=52add1b5-eb55-4484-8663-eb177d87b68c","ios":"levelo://app?vid=52add1b5-eb55-4484-8663-eb177d87b68c"},"vehicle_type_id":"4","last_reported":1727028639,"current_range_meters":30800,"station_id":"ce4bhpp2rcd13ifvqhfg","pricing_plan_id":"cebpf4jnsgd1na2vs0mg"},{"bike_id":"d7e370b9-0eb7-4a7a-b870-f27ba586df16","system_id":"levelo_inurba_marseille","lat":43.31218,"lon":5.36852,"is_reserved":false,"is_disabled":false,"rental_uris":{"android":"levelo://app?vid=d7e370b9-0eb7-4a7a-b870-f27ba586df16","ios":"levelo://app?vid=d7e370b9-0eb7-4a7a-b870-f27ba586df16"},"vehicle_type_id":"4","last_reported":1727028639,"current_range_meters":38400,"station_id":"ce4bgl92rcd13ifvqbq0","pricing_plan_id":"cebpf4jnsgd1na2vs0mg"},{"bike_id":"401ac810-85ed-4c84-b91c-7a0d98e85fd4","system_id":"levelo_inurba_marseille","lat":43.29533,"lon":5.3855,"is_reserved":false,"is_disabled":false,"rental_uris":{"android":"levelo://app?vid=401ac810-85ed-4c84-b91c-7a0d98e85fd4","ios":"levelo://app?vid=401ac810-85ed-4c84-b91c-7a0d98e85fd4"},"vehicle_type_id":"4","last_reported":1727028639,"current_range_meters":38800,"station_id":"ce4bgih2rcd13ifvqba0","pricing_plan_id":"cebpf4jnsgd1na2vs0mg"},{"bike_id":"0cd4b4e0-8b76-4f1a-aed2-9d8f097d29ac","system_id":"levelo_inurba_marseille","lat":43.30261,"lon":5.40073,"is_reserved":false,"is_disabled":false,"rental_uris":{"android":"levelo://app?vid=0cd4b4e0-8b76-4f1a-aed2-9d8f097d29ac","ios":"levelo://app?vid=0cd4b4e0-8b76-4f1a-aed2-9d8f097d29ac"},"vehicle_type_id":"4","last_reported":1727028639,"current_range_meters":20000,"station_id":"ce4bgvh2rcd13ifvqcs0","pricing_plan_id":"cebpf4jnsgd1na2vs0mg"},{"bike_id":"ccc88ebb-8c97-4797-8223-c7bfd3c960e6","system_id":"levelo_inurba_marseille","lat":43.2811,"lon":5.37847,"is_reserved":false,"is_disabled":false,"rental_uris":{"android":"levelo://app?vid=ccc88ebb-8c97-4797-8223-c7bfd3c960e6","ios":"levelo://app?vid=ccc88ebb-8c97-4797-8223-c7bfd3c960e6"},"vehicle_type_id":"4","last_reported":1727028639,"current_range_meters":38800,"station_id":"ce4bha12rcd13ifvqee0","pricing_plan_id":"cebpf4jnsgd1na2vs0mg"},{"bike_id":"9ed24570-8306-4bcb-900e-cd8f94718ccb","system_id":"levelo_inurba_marseille","lat":43.32339,"lon":5.40625,"is_reserved":false,"is_disabled":false,"rental_uris":{"android":"levelo://app?vid=9ed24570-8306-4bcb-900e-cd8f94718ccb","ios":"levelo://app?vid=9ed24570-8306-4bcb-900e-cd8f94718ccb"},"vehicle_type_id":"4","last_reported":1727028639,"current_range_meters":11600,"station_id":"ce4bhq92rcd13ifvqhjg","pricing_plan_id":"cebpf4jnsgd1na2vs0mg"},{"bike_id":"e3e59cfc-6719-44dd-9ce3-ba84c0e8bd26","system_id":"levelo_inurba_marseille","lat":43.295135,"lon":5.375159,"is_reserved":false,"is_disabled":false,"rental_uris":{"android":"levelo://app?vid=e3e59cfc-6719-44dd-9ce3-ba84c0e8bd26","ios":"levelo://app?vid=e3e59cfc-6719-44dd-9ce3-ba84c0e8bd26"},"vehicle_type_id":"4","last_reported":1727028639,"current_range_meters":36400,"station_id":"ce4bgkp2rcd13ifvqbmg","pricing_plan_id":"cebpf4jnsgd1na2vs0mg"},{"bike_id":"e06b9f9c-de21-48d8-b253-a34a4a3f3b6c","system_id":"levelo_inurba_marseille","lat":43.30885,"lon":5.39648,"is_reserved":false,"is_disabled":false,"rental_uris":{"android":"levelo://app?vid=e06b9f9c-de21-48d8-b253-a34a4a3f3b6c","ios":"levelo://app?vid=e06b9f9c-de21-48d8-b253-a34a4a3f3b6c"},"vehicle_type_id":"4","last_reported":1727028639,"current_range_meters":10800,"station_id":"ce4bh012rcd13ifvqcv0","pricing_plan_id":"cebpf4jnsgd1na2vs0mg"},{"bike_id":"58e7bc79-5583-4fe7-94bb-a9e3ceb2981f","system_id":"levelo_inurba_marseille","lat":43.22931,"lon":5.35386,"is_reserved":false,"is_disabled":false,"rental_uris":{"android":"levelo://app?vid=58e7bc79-5583-4fe7-94bb-a9e3ceb2981f","ios":"levelo://app?vid=58e7bc79-5583-4fe7-94bb-a9e3ceb2981f"},"vehicle_type_id":"4","last_reported":1727028639,"current_range_meters":38800,"station_id":"cpo3532slgdg3j2ikp40","pricing_plan_id":"cebpf4jnsgd1na2vs0mg"},{"bike_id":"8b919f12-3055-4ea7-b9c3-1d53f0706ce3","system_id":"levelo_inurba_marseille","lat":43.292938,"lon":5.374462,"is_reserved":false,"is_disabled":false,"rental_uris":{"android":"levelo://app?vid=8b919f12-3055-4ea7-b9c3-1d53f0706ce3","ios":"levelo://app?vid=8b919f12-3055-4ea7-b9c3-1d53f0706ce3"},"vehicle_type_id":"4","last_reported":1727028639,"current_range_meters":7200,"station_id":"ce4bgj12rcd13ifvqbc0","pricing_plan_id":"cebpf4jnsgd1na2vs0mg"},{"bike_id":"6049b86b-a1d4-4888-9a57-f5e3f4d82f77","system_id":"levelo_inurba_marseille","lat":43.28843,"lon":5.3932,"is_reserved":false,"is_disabled":false,"rental_uris":{"android":"levelo://app?vid=6049b86b-a1d4-4888-9a57-f5e3f4d82f77","ios":"levelo://app?vid=6049b86b-a1d4-4888-9a57-f5e3f4d82f77"},"vehicle_type_id":"4","last_reported":1727028639,"current_range_meters":16000,"station_id":"ce4bh2p2rcd13ifvqdi0","pricing_plan_id":"cebpf4jnsgd1na2vs0mg"},{"bike_id":"4390574c-5f9a-4305-ac06-87fd03e82370","system_id":"levelo_inurba_marseille","lat":43.25858,"lon":5.39902,"is_reserved":false,"is_disabled":false,"rental_uris":{"android":"levelo://app?vid=4390574c-5f9a-4305-ac06-87fd03e82370","ios":"levelo://app?vid=4390574c-5f9a-4305-ac06-87fd03e82370"},"vehicle_type_id":"4","last_reported":1727028639,"current_range_meters":38800,"station_id":"ce4bhl92rcd13ifvqghg","pricing_plan_id":"cebpf4jnsgd1na2vs0mg"},{"bike_id":"f6bf609a-86db-494d-92cc-0ddb5f4799bc","system_id":"levelo_inurba_marseille","lat":43.29515,"lon":5.39043,"is_reserved":false,"is_disabled":false,"rental_uris":{"android":"levelo://app?vid=f6bf609a-86db-494d-92cc-0ddb5f4799bc","ios":"levelo://app?vid=f6bf609a-86db-494d-92cc-0ddb5f4799bc"},"vehicle_type_id":"4","last_reported":1727028639,"current_range_meters":22400,"station_id":"ce4bh3p2rcd13ifvqdp0","pricing_plan_id":"cebpf4jnsgd1na2vs0mg"},{"bike_id":"3d840dca-8a73-436d-b5d8-9ea9f6b19dea","system_id":"levelo_inurba_marseille","lat":43.29852,"lon":5.36303,"is_reserved":false,"is_disabled":false,"rental_uris":{"android":"levelo://app?vid=3d840dca-8a73-436d-b5d8-9ea9f6b19dea","ios":"levelo://app?vid=3d840dca-8a73-436d-b5d8-9ea9f6b19dea"},"vehicle_type_id":"4","last_reported":1727028639,"current_range_meters":8800,"station_id":"ce4bgpp2rcd13ifvqc3g","pricing_plan_id":"cebpf4jnsgd1na2vs0mg"},{"bike_id":"e6190756-118f-4eb6-a85b-235c149ff787","system_id":"levelo_inurba_marseille","lat":43.30884,"lon":5.39646,"is_reserved":false,"is_disabled":false,"rental_uris":{"android":"levelo://app?vid=e6190756-118f-4eb6-a85b-235c149ff787","ios":"levelo://app?vid=e6190756-118f-4eb6-a85b-235c149ff787"},"vehicle_type_id":"4","last_reported":1727028639,"current_range_meters":38800,"station_id":"ce4bh012rcd13ifvqcv0","pricing_plan_id":"cebpf4jnsgd1na2vs0mg"},{"bike_id":"45df21b1-6418-447a-844b-5625671df584","system_id":"levelo_inurba_marseille","lat":43.260295,"lon":5.375868,"is_reserved":false,"is_disabled":false,"rental_uris":{"android":"levelo://app?vid=45df21b1-6418-447a-844b-5625671df584","ios":"levelo://app?vid=45df21b1-6418-447a-844b-5625671df584"},"vehicle_type_id":"4","last_reported":1727028639,"current_range_meters":30800,"station_id":"ce4bhm12rcd13ifvqgkg","pricing_plan_id":"cebpf4jnsgd1na2vs0mg"},{"bike_id":"1102eb3d-2dc8-4019-9e1d-c4670dad7e11","system_id":"levelo_inurba_marseille","lat":43.23957,"lon":5.36628,"is_reserved":false,"is_disabled":false,"rental_uris":{"android":"levelo://app?vid=1102eb3d-2dc8-4019-9e1d-c4670dad7e11","ios":"levelo://app?vid=1102eb3d-2dc8-4019-9e1d-c4670dad7e11"},"vehicle_type_id":"4","last_reported":1727028639,"current_range_meters":10000,"station_id":"ce4bhi12rcd13ifvqfp0","pricing_plan_id":"cebpf4jnsgd1na2vs0mg"},{"bike_id":"64f5de26-934d-465b-9f87-68cda6f94793","system_id":"levelo_inurba_marseille","lat":43.30542,"lon":5.38419,"is_reserved":false,"is_disabled":false,"rental_uris":{"android":"levelo://app?vid=64f5de26-934d-465b-9f87-68cda6f94793","ios":"levelo://app?vid=64f5de26-934d-465b-9f87-68cda6f94793"},"vehicle_type_id":"4","last_reported":1727028639,"current_range_meters":34000,"station_id":"ce4bgg92rcd13ifvqb30","pricing_plan_id":"cebpf4jnsgd1na2vs0mg"},{"bike_id":"9adf261b-d68a-47f3-b516-29dde04566ec","system_id":"levelo_inurba_marseille","lat":43.27315,"lon":5.39075,"is_reserved":false,"is_disabled":false,"rental_uris":{"android":"levelo://app?vid=9adf261b-d68a-47f3-b516-29dde04566ec","ios":"levelo://app?vid=9adf261b-d68a-47f3-b516-29dde04566ec"},"vehicle_type_id":"4","last_reported":1727028639,"current_range_meters":9200,"station_id":"ce4bhgp2rcd13ifvqfe0","pricing_plan_id":"cebpf4jnsgd1na2vs0mg"},{"bike_id":"7c7205bb-7829-4b9e-ac2f-618cc9341607","system_id":"levelo_inurba_marseille","lat":43.2781,"lon":5.40732,"is_reserved":false,"is_disabled":false,"rental_uris":{"android":"levelo://app?vid=7c7205bb-7829-4b9e-ac2f-618cc9341607","ios":"levelo://app?vid=7c7205bb-7829-4b9e-ac2f-618cc9341607"},"vehicle_type_id":"4","last_reported":1727028639,"current_range_meters":37600,"station_id":"ce4bhnh2rcd13ifvqgtg","pricing_plan_id":"cebpf4jnsgd1na2vs0mg"},{"bike_id":"97c88354-ef75-4867-a0bb-96f286568a64","system_id":"levelo_inurba_marseille","lat":43.27181,"lon":5.40986,"is_reserved":false,"is_disabled":false,"rental_uris":{"android":"levelo://app?vid=97c88354-ef75-4867-a0bb-96f286568a64","ios":"levelo://app?vid=97c88354-ef75-4867-a0bb-96f286568a64"},"vehicle_type_id":"4","last_reported":1727028639,"current_range_meters":9600,"station_id":"ce4bhl12rcd13ifvqgf0","pricing_plan_id":"cebpf4jnsgd1na2vs0mg"},{"bike_id":"36dc71fe-bfc9-4a4d-b2ef-39ebb067c458","system_id":"levelo_inurba_marseille","lat":43.29554,"lon":5.42285,"is_reserved":false,"is_disabled":false,"rental_uris":{"android":"levelo://app?vid=36dc71fe-bfc9-4a4d-b2ef-39ebb067c458","ios":"levelo://app?vid=36dc71fe-bfc9-4a4d-b2ef-39ebb067c458"},"vehicle_type_id":"4","last_reported":1727028639,"current_range_meters":39200,"station_id":"ce4bhph2rcd13ifvqhdg","pricing_plan_id":"cebpf4jnsgd1na2vs0mg"},{"bike_id":"92ab8a1a-6606-49e1-9951-f10e38cd789d","system_id":"levelo_inurba_marseille","lat":43.31712,"lon":5.43696,"is_reserved":false,"is_disabled":false,"rental_uris":{"android":"levelo://app?vid=92ab8a1a-6606-49e1-9951-f10e38cd789d","ios":"levelo://app?vid=92ab8a1a-6606-49e1-9951-f10e38cd789d"},"vehicle_type_id":"4","last_reported":1727028639,"current_range_meters":38800,"station_id":"ce4bhp92rcd13ifvqhcg","pricing_plan_id":"cebpf4jnsgd1na2vs0mg"},{"bike_id":"8466d142-55cc-4636-ad2f-ba13f2f2680d","system_id":"levelo_inurba_marseille","lat":43.26561,"lon":5.39017,"is_reserved":false,"is_disabled":false,"rental_uris":{"android":"levelo://app?vid=8466d142-55cc-4636-ad2f-ba13f2f2680d","ios":"levelo://app?vid=8466d142-55cc-4636-ad2f-ba13f2f2680d"},"vehicle_type_id":"4","last_reported":1727028639,"current_range_meters":38000,"station_id":"ce4bhe12rcd13ifvqf30","pricing_plan_id":"cebpf4jnsgd1na2vs0mg"},{"bike_id":"bcbe6095-74c6-4e6a-9235-6041481bec8a","system_id":"levelo_inurba_marseille","lat":43.23187,"lon":5.39987,"is_reserved":false,"is_disabled":false,"rental_uris":{"android":"levelo://app?vid=bcbe6095-74c6-4e6a-9235-6041481bec8a","ios":"levelo://app?vid=bcbe6095-74c6-4e6a-9235-6041481bec8a"},"vehicle_type_id":"4","last_reported":1727028639,"current_range_meters":6800,"station_id":"ce4bhn12rcd13ifvqgqg","pricing_plan_id":"cebpf4jnsgd1na2vs0mg"},{"bike_id":"1437b30c-7d45-456f-be5f-6d19204997b1","system_id":"levelo_inurba_marseille","lat":43.32487,"lon":5.36568,"is_reserved":false,"is_disabled":false,"rental_uris":{"android":"levelo://app?vid=1437b30c-7d45-456f-be5f-6d19204997b1","ios":"levelo://app?vid=1437b30c-7d45-456f-be5f-6d19204997b1"},"vehicle_type_id":"4","last_reported":1727028639,"current_range_meters":26000,"station_id":"ce4bhs12rcd13ifvqhvg","pricing_plan_id":"cebpf4jnsgd1na2vs0mg"},{"bike_id":"8b02e659-fbd8-436d-85ca-eed5dbe2b7c2","system_id":"levelo_inurba_marseille","lat":43.30529,"lon":5.38419,"is_reserved":false,"is_disabled":false,"rental_uris":{"android":"levelo://app?vid=8b02e659-fbd8-436d-85ca-eed5dbe2b7c2","ios":"levelo://app?vid=8b02e659-fbd8-436d-85ca-eed5dbe2b7c2"},"vehicle_type_id":"4","last_reported":1727028639,"current_range_meters":12000,"station_id":"ce4bgg92rcd13ifvqb30","pricing_plan_id":"cebpf4jnsgd1na2vs0mg"},{"bike_id":"c4330dd1-33c8-49ba-a408-9c6e1ac5f997","system_id":"levelo_inurba_marseille","lat":43.31481,"lon":5.37306,"is_reserved":false,"is_disabled":false,"rental_uris":{"android":"levelo://app?vid=c4330dd1-33c8-49ba-a408-9c6e1ac5f997","ios":"levelo://app?vid=c4330dd1-33c8-49ba-a408-9c6e1ac5f997"},"vehicle_type_id":"4","last_reported":1727028639,"current_range_meters":38800,"station_id":"ce4bgt12rcd13ifvqcd0","pricing_plan_id":"cebpf4jnsgd1na2vs0mg"},{"bike_id":"1008ede6-cbae-4281-8f22-ef3fe8917d3f","system_id":"levelo_inurba_marseille","lat":43.31529,"lon":5.38033,"is_reserved":false,"is_disabled":false,"rental_uris":{"android":"levelo://app?vid=1008ede6-cbae-4281-8f22-ef3fe8917d3f","ios":"levelo://app?vid=1008ede6-cbae-4281-8f22-ef3fe8917d3f"},"vehicle_type_id":"4","last_reported":1727028639,"current_range_meters":38800,"station_id":"ce4bhsp2rcd13ifvqi50","pricing_plan_id":"cebpf4jnsgd1na2vs0mg"},{"bike_id":"7ae379da-9440-4378-a690-86693789de4b","system_id":"levelo_inurba_marseille","lat":43.29555,"lon":5.42283,"is_reserved":false,"is_disabled":false,"rental_uris":{"android":"levelo://app?vid=7ae379da-9440-4378-a690-86693789de4b","ios":"levelo://app?vid=7ae379da-9440-4378-a690-86693789de4b"},"vehicle_type_id":"4","last_reported":1727028639,"current_range_meters":16400,"station_id":"ce4bhph2rcd13ifvqhdg","pricing_plan_id":"cebpf4jnsgd1na2vs0mg"},{"bike_id":"02552a84-93ac-4f47-9115-b594cbf16674","system_id":"levelo_inurba_marseille","lat":43.2955,"lon":5.42288,"is_reserved":false,"is_disabled":false,"rental_uris":{"android":"levelo://app?vid=02552a84-93ac-4f47-9115-b594cbf16674","ios":"levelo://app?vid=02552a84-93ac-4f47-9115-b594cbf16674"},"vehicle_type_id":"4","last_reported":1727028639,"current_range_meters":38800,"station_id":"ce4bhph2rcd13ifvqhdg","pricing_plan_id":"cebpf4jnsgd1na2vs0mg"},{"bike_id":"e872a7a2-8ebc-4912-8d81-ce091735e7ee","system_id":"levelo_inurba_marseille","lat":43.27174,"lon":5.40999,"is_reserved":false,"is_disabled":false,"rental_uris":{"android":"levelo://app?vid=e872a7a2-8ebc-4912-8d81-ce091735e7ee","ios":"levelo://app?vid=e872a7a2-8ebc-4912-8d81-ce091735e7ee"},"vehicle_type_id":"4","last_reported":1727028639,"current_range_meters":17200,"station_id":"ce4bhl12rcd13ifvqgf0","pricing_plan_id":"cebpf4jnsgd1na2vs0mg"},{"bike_id":"ab8577ab-94eb-4960-b8f3-c1218b3ae39b","system_id":"levelo_inurba_marseille","lat":43.28465,"lon":5.35892,"is_reserved":false,"is_disabled":false,"rental_uris":{"android":"levelo://app?vid=ab8577ab-94eb-4960-b8f3-c1218b3ae39b","ios":"levelo://app?vid=ab8577ab-94eb-4960-b8f3-c1218b3ae39b"},"vehicle_type_id":"4","last_reported":1727028639,"current_range_meters":35200,"station_id":"ce4bhah2rcd13ifvqei0","pricing_plan_id":"cebpf4jnsgd1na2vs0mg"},{"bike_id":"d75fadaf-dee0-432a-a8b8-7e49c511e289","system_id":"levelo_inurba_marseille","lat":43.29705,"lon":5.36597,"is_reserved":false,"is_disabled":false,"rental_uris":{"android":"levelo://app?vid=d75fadaf-dee0-432a-a8b8-7e49c511e289","ios":"levelo://app?vid=d75fadaf-dee0-432a-a8b8-7e49c511e289"},"vehicle_type_id":"4","last_reported":1727028639,"current_range_meters":4400,"station_id":"ce4bgn12rcd13ifvqbt0","pricing_plan_id":"cebpf4jnsgd1na2vs0mg"},{"bike_id":"b49e8aa4-b4d7-4f9d-a437-8d1bbdfe618a","system_id":"levelo_inurba_marseille","lat":43.29557,"lon":5.42287,"is_reserved":false,"is_disabled":false,"rental_uris":{"android":"levelo://app?vid=b49e8aa4-b4d7-4f9d-a437-8d1bbdfe618a","ios":"levelo://app?vid=b49e8aa4-b4d7-4f9d-a437-8d1bbdfe618a"},"vehicle_type_id":"4","last_reported":1727028639,"current_range_meters":38800,"station_id":"ce4bhph2rcd13ifvqhdg","pricing_plan_id":"cebpf4jnsgd1na2vs0mg"},{"bike_id":"a71518b7-98f0-42a8-9028-d03bf27a905b","system_id":"levelo_inurba_marseille","lat":43.27423,"lon":5.39417,"is_reserved":false,"is_disabled":false,"rental_uris":{"android":"levelo://app?vid=a71518b7-98f0-42a8-9028-d03bf27a905b","ios":"levelo://app?vid=a71518b7-98f0-42a8-9028-d03bf27a905b"},"vehicle_type_id":"4","last_reported":1727028639,"current_range_meters":1600,"station_id":"ce4bhdp2rcd13ifvqf20","pricing_plan_id":"cebpf4jnsgd1na2vs0mg"},{"bike_id":"6175892d-cfa3-4dd0-82f0-2574d7cee8f9","system_id":"levelo_inurba_marseille","lat":43.27817,"lon":5.40706,"is_reserved":false,"is_disabled":false,"rental_uris":{"android":"levelo://app?vid=6175892d-cfa3-4dd0-82f0-2574d7cee8f9","ios":"levelo://app?vid=6175892d-cfa3-4dd0-82f0-2574d7cee8f9"},"vehicle_type_id":"4","last_reported":1727028639,"current_range_meters":14800,"station_id":"ce4bhnh2rcd13ifvqgtg","pricing_plan_id":"cebpf4jnsgd1na2vs0mg"},{"bike_id":"6994038b-7339-4c8c-b30b-5c2f974eb488","system_id":"levelo_inurba_marseille","lat":43.29024,"lon":5.38649,"is_reserved":false,"is_disabled":false,"rental_uris":{"android":"levelo://app?vid=6994038b-7339-4c8c-b30b-5c2f974eb488","ios":"levelo://app?vid=6994038b-7339-4c8c-b30b-5c2f974eb488"},"vehicle_type_id":"4","last_reported":1727028639,"current_range_meters":38800,"station_id":"ce4bh4p2rcd13ifvqe0g","pricing_plan_id":"cebpf4jnsgd1na2vs0mg"},{"bike_id":"c7529683-96f2-4a93-a24a-84e8bdef1545","system_id":"levelo_inurba_marseille","lat":43.25864,"lon":5.39909,"is_reserved":false,"is_disabled":false,"rental_uris":{"android":"levelo://app?vid=c7529683-96f2-4a93-a24a-84e8bdef1545","ios":"levelo://app?vid=c7529683-96f2-4a93-a24a-84e8bdef1545"},"vehicle_type_id":"4","last_reported":1727028639,"current_range_meters":8000,"station_id":"ce4bhl92rcd13ifvqghg","pricing_plan_id":"cebpf4jnsgd1na2vs0mg"},{"bike_id":"777c3f97-0cf4-4871-821b-d2f46dcdc8fa","system_id":"levelo_inurba_marseille","lat":43.29711,"lon":5.36609,"is_reserved":false,"is_disabled":false,"rental_uris":{"android":"levelo://app?vid=777c3f97-0cf4-4871-821b-d2f46dcdc8fa","ios":"levelo://app?vid=777c3f97-0cf4-4871-821b-d2f46dcdc8fa"},"vehicle_type_id":"4","last_reported":1727028639,"current_range_meters":37600,"station_id":"ce4bgn12rcd13ifvqbt0","pricing_plan_id":"cebpf4jnsgd1na2vs0mg"},{"bike_id":"431f01a9-7116-47b5-bcb1-06717a1a3539","system_id":"levelo_inurba_marseille","lat":43.27069,"lon":5.42282,"is_reserved":false,"is_disabled":false,"rental_uris":{"android":"levelo://app?vid=431f01a9-7116-47b5-bcb1-06717a1a3539","ios":"levelo://app?vid=431f01a9-7116-47b5-bcb1-06717a1a3539"},"vehicle_type_id":"4","last_reported":1727028639,"current_range_meters":10800,"station_id":"ce4bhk92rcd13ifvqgb0","pricing_plan_id":"cebpf4jnsgd1na2vs0mg"},{"bike_id":"2a24e38f-3529-4a44-bcfa-925dc9795347","system_id":"levelo_inurba_marseille","lat":43.295197,"lon":5.374963,"is_reserved":false,"is_disabled":false,"rental_uris":{"android":"levelo://app?vid=2a24e38f-3529-4a44-bcfa-925dc9795347","ios":"levelo://app?vid=2a24e38f-3529-4a44-bcfa-925dc9795347"},"vehicle_type_id":"4","last_reported":1727028639,"current_range_meters":29600,"station_id":"ce4bgkp2rcd13ifvqbmg","pricing_plan_id":"cebpf4jnsgd1na2vs0mg"},{"bike_id":"71745df1-8511-42d1-b236-94ecb1109e61","system_id":"levelo_inurba_marseille","lat":43.31695,"lon":5.39618,"is_reserved":false,"is_disabled":false,"rental_uris":{"android":"levelo://app?vid=71745df1-8511-42d1-b236-94ecb1109e61","ios":"levelo://app?vid=71745df1-8511-42d1-b236-94ecb1109e61"},"vehicle_type_id":"4","last_reported":1727028639,"current_range_meters":8000,"station_id":"","pricing_plan_id":"cebpf4jnsgd1na2vs0mg"},{"bike_id":"cade469a-0ccc-49a0-a7c4-fb89ee989f16","system_id":"levelo_inurba_marseille","lat":43.28922,"lon":5.38397,"is_reserved":false,"is_disabled":false,"rental_uris":{"android":"levelo://app?vid=cade469a-0ccc-49a0-a7c4-fb89ee989f16","ios":"levelo://app?vid=cade469a-0ccc-49a0-a7c4-fb89ee989f16"},"vehicle_type_id":"4","last_reported":1727028639,"current_range_meters":39200,"station_id":"ce4bh612rcd13ifvqe6g","pricing_plan_id":"cebpf4jnsgd1na2vs0mg"},{"bike_id":"01404ffe-10fd-4fc3-aafc-b8d4575bede4","system_id":"levelo_inurba_marseille","lat":43.29894,"lon":5.43673,"is_reserved":false,"is_disabled":false,"rental_uris":{"android":"levelo://app?vid=01404ffe-10fd-4fc3-aafc-b8d4575bede4","ios":"levelo://app?vid=01404ffe-10fd-4fc3-aafc-b8d4575bede4"},"vehicle_type_id":"4","last_reported":1727028639,"current_range_meters":9600,"station_id":"ce4bhpp2rcd13ifvqhfg","pricing_plan_id":"cebpf4jnsgd1na2vs0mg"},{"bike_id":"91858cdd-53e1-4916-9e48-06bb86a5b8ec","system_id":"levelo_inurba_marseille","lat":43.292008,"lon":5.358053,"is_reserved":false,"is_disabled":false,"rental_uris":{"android":"levelo://app?vid=91858cdd-53e1-4916-9e48-06bb86a5b8ec","ios":"levelo://app?vid=91858cdd-53e1-4916-9e48-06bb86a5b8ec"},"vehicle_type_id":"4","last_reported":1727028639,"current_range_meters":36400,"station_id":"ce4bhb12rcd13ifvqel0","pricing_plan_id":"cebpf4jnsgd1na2vs0mg"},{"bike_id":"5f6e5321-ccd4-470b-8425-a6713c6ac745","system_id":"levelo_inurba_marseille","lat":43.25728,"lon":5.41111,"is_reserved":false,"is_disabled":false,"rental_uris":{"android":"levelo://app?vid=5f6e5321-ccd4-470b-8425-a6713c6ac745","ios":"levelo://app?vid=5f6e5321-ccd4-470b-8425-a6713c6ac745"},"vehicle_type_id":"4","last_reported":1727028639,"current_range_meters":37600,"station_id":"ce4bhkp2rcd13ifvqgd0","pricing_plan_id":"cebpf4jnsgd1na2vs0mg"},{"bike_id":"ca2ce4dc-f8a0-42a0-9e2a-b890e406b05f","system_id":"levelo_inurba_marseille","lat":43.29095,"lon":5.38154,"is_reserved":false,"is_disabled":false,"rental_uris":{"android":"levelo://app?vid=ca2ce4dc-f8a0-42a0-9e2a-b890e406b05f","ios":"levelo://app?vid=ca2ce4dc-f8a0-42a0-9e2a-b890e406b05f"},"vehicle_type_id":"4","last_reported":1727028639,"current_range_meters":16400,"station_id":"ce4bh512rcd13ifvqe2g","pricing_plan_id":"cebpf4jnsgd1na2vs0mg"},{"bike_id":"d399b5a5-50ac-471e-9ce7-cb1b1b3a1724","system_id":"levelo_inurba_marseille","lat":43.33023,"lon":5.39039,"is_reserved":false,"is_disabled":false,"rental_uris":{"android":"levelo://app?vid=d399b5a5-50ac-471e-9ce7-cb1b1b3a1724","ios":"levelo://app?vid=d399b5a5-50ac-471e-9ce7-cb1b1b3a1724"},"vehicle_type_id":"4","last_reported":1727028639,"current_range_meters":36800,"station_id":"ce4bhr92rcd13ifvqhrg","pricing_plan_id":"cebpf4jnsgd1na2vs0mg"},{"bike_id":"22e4a15e-6041-4c71-b288-1c12c69d262d","system_id":"levelo_inurba_marseille","lat":43.33719,"lon":5.39178,"is_reserved":false,"is_disabled":false,"rental_uris":{"android":"levelo://app?vid=22e4a15e-6041-4c71-b288-1c12c69d262d","ios":"levelo://app?vid=22e4a15e-6041-4c71-b288-1c12c69d262d"},"vehicle_type_id":"4","last_reported":1727028639,"current_range_meters":7200,"station_id":"ce4bhr92rcd13ifvqhsg","pricing_plan_id":"cebpf4jnsgd1na2vs0mg"},{"bike_id":"5b5f51e2-eecd-462d-9dbf-e84cc4beebe3","system_id":"levelo_inurba_marseille","lat":43.29841,"lon":5.36274,"is_reserved":false,"is_disabled":false,"rental_uris":{"android":"levelo://app?vid=5b5f51e2-eecd-462d-9dbf-e84cc4beebe3","ios":"levelo://app?vid=5b5f51e2-eecd-462d-9dbf-e84cc4beebe3"},"vehicle_type_id":"4","last_reported":1727028639,"current_range_meters":38400,"station_id":"ce4bgpp2rcd13ifvqc3g","pricing_plan_id":"cebpf4jnsgd1na2vs0mg"},{"bike_id":"06b2c2dc-6d8b-4117-95d8-afb48ee7ac42","system_id":"levelo_inurba_marseille","lat":43.28435,"lon":5.392,"is_reserved":false,"is_disabled":false,"rental_uris":{"android":"levelo://app?vid=06b2c2dc-6d8b-4117-95d8-afb48ee7ac42","ios":"levelo://app?vid=06b2c2dc-6d8b-4117-95d8-afb48ee7ac42"},"vehicle_type_id":"4","last_reported":1727028639,"current_range_meters":8400,"station_id":"ce4bhoh2rcd13ifvqh5g","pricing_plan_id":"cebpf4jnsgd1na2vs0mg"},{"bike_id":"77c946d1-24a6-48e5-8ef3-b6796080c987","system_id":"levelo_inurba_marseille","lat":43.32479,"lon":5.36569,"is_reserved":false,"is_disabled":false,"rental_uris":{"android":"levelo://app?vid=77c946d1-24a6-48e5-8ef3-b6796080c987","ios":"levelo://app?vid=77c946d1-24a6-48e5-8ef3-b6796080c987"},"vehicle_type_id":"4","last_reported":1727028639,"current_range_meters":16400,"station_id":"ce4bhs12rcd13ifvqhvg","pricing_plan_id":"cebpf4jnsgd1na2vs0mg"},{"bike_id":"81acc64b-5efd-4942-a859-2ca3de232af5","system_id":"levelo_inurba_marseille","lat":43.28459,"lon":5.35892,"is_reserved":false,"is_disabled":false,"rental_uris":{"android":"levelo://app?vid=81acc64b-5efd-4942-a859-2ca3de232af5","ios":"levelo://app?vid=81acc64b-5efd-4942-a859-2ca3de232af5"},"vehicle_type_id":"4","last_reported":1727028639,"current_range_meters":10800,"station_id":"ce4bhah2rcd13ifvqei0","pricing_plan_id":"cebpf4jnsgd1na2vs0mg"},{"bike_id":"3b6455fb-f49c-4631-8286-b189072ad3dc","system_id":"levelo_inurba_marseille","lat":43.29269,"lon":5.38447,"is_reserved":false,"is_disabled":false,"rental_uris":{"android":"levelo://app?vid=3b6455fb-f49c-4631-8286-b189072ad3dc","ios":"levelo://app?vid=3b6455fb-f49c-4631-8286-b189072ad3dc"},"vehicle_type_id":"4","last_reported":1727028639,"current_range_meters":27600,"station_id":"ce4bh692rcd13ifvqea0","pricing_plan_id":"cebpf4jnsgd1na2vs0mg"},{"bike_id":"d55ea77e-7719-45ba-9c71-e37a85489a77","system_id":"levelo_inurba_marseille","lat":43.28928,"lon":5.38392,"is_reserved":false,"is_disabled":false,"rental_uris":{"android":"levelo://app?vid=d55ea77e-7719-45ba-9c71-e37a85489a77","ios":"levelo://app?vid=d55ea77e-7719-45ba-9c71-e37a85489a77"},"vehicle_type_id":"4","last_reported":1727028639,"current_range_meters":6800,"station_id":"ce4bh612rcd13ifvqe6g","pricing_plan_id":"cebpf4jnsgd1na2vs0mg"},{"bike_id":"ab9de632-0a34-4da5-8550-8ec2dcde3f4c","system_id":"levelo_inurba_marseille","lat":43.23191,"lon":5.39987,"is_reserved":false,"is_disabled":false,"rental_uris":{"android":"levelo://app?vid=ab9de632-0a34-4da5-8550-8ec2dcde3f4c","ios":"levelo://app?vid=ab9de632-0a34-4da5-8550-8ec2dcde3f4c"},"vehicle_type_id":"4","last_reported":1727028639,"current_range_meters":39200,"station_id":"ce4bhn12rcd13ifvqgqg","pricing_plan_id":"cebpf4jnsgd1na2vs0mg"},{"bike_id":"9b85e259-3031-43cf-a7d3-af91b83e2463","system_id":"levelo_inurba_marseille","lat":43.250727,"lon":5.403043,"is_reserved":false,"is_disabled":false,"rental_uris":{"android":"levelo://app?vid=9b85e259-3031-43cf-a7d3-af91b83e2463","ios":"levelo://app?vid=9b85e259-3031-43cf-a7d3-af91b83e2463"},"vehicle_type_id":"4","last_reported":1727028639,"current_range_meters":28800,"station_id":"ce4bhlh2rcd13ifvqgig","pricing_plan_id":"cebpf4jnsgd1na2vs0mg"},{"bike_id":"a67b4287-da83-43eb-8e86-126974c9a016","system_id":"levelo_inurba_marseille","lat":43.29548,"lon":5.42287,"is_reserved":false,"is_disabled":false,"rental_uris":{"android":"levelo://app?vid=a67b4287-da83-43eb-8e86-126974c9a016","ios":"levelo://app?vid=a67b4287-da83-43eb-8e86-126974c9a016"},"vehicle_type_id":"4","last_reported":1727028639,"current_range_meters":28000,"station_id":"ce4bhph2rcd13ifvqhdg","pricing_plan_id":"cebpf4jnsgd1na2vs0mg"},