{"last_updated":1725962985,"ttl":30,"version":"2.2","data":{"bikes":[{"bike_id":"893900fa-905b-44d9-b4f5-8131c552abed","system_id":"levelo_inurba_marseille","lat":43.30533,"lon":5.36712,"is_reserved":false,"is_disabled":false,"rental_uris":{"android":"levelo://app?vid=893900fa-905b-44d9-b4f5-8131c552abed","ios":"levelo://app?vid=893900fa-905b-44d9-b4f5-8131c552abed"},"vehicle_type_id":"4","last_reported":1725962985,"current_range_meters":35600,"station_id":"ce4bgrp2rcd13ifvqc9g","pricing_plan_id":"cebpf4jnsgd1na2vs0mg"},{"bike_id":"317167fb-451a-48ab-aff6-0945e2c67bfb","system_id":"levelo_inurba_marseille","lat":43.23204,"lon":5.39968,"is_reserved":false,"is_disabled":false,"rental_uris":{"android":"levelo://app?vid=317167fb-451a-48ab-aff6-0945e2c67bfb","ios":"levelo://app?vid=317167fb-451a-48ab-aff6-0945e2c67bfb"},"vehicle_type_id":"4","last_reported":1725962985,"current_range_meters":20400,"station_id":"ce4bhn12rcd13ifvqgqg","pricing_plan_id":"cebpf4jnsgd1na2vs0mg"},{"bike_id":"bc30dbe3-2402-4b3a-b5da-8f5d9a126da2","system_id":"levelo_inurba_marseille","lat":43.25937,"lon":5.40893,"is_reserved":false,"is_disabled":false,"rental_uris":{"android":"levelo://app?vid=bc30dbe3-2402-4b3a-b5da-8f5d9a126da2","ios":"levelo://app?vid=bc30dbe3-2402-4b3a-b5da-8f5d9a126da2"},"vehicle_type_id":"4","last_reported":1725962985,"current_range_meters":25600,"station_id":"ce4bhm92rcd13ifvqglg","pricing_plan_id":"cebpf4jnsgd1na2vs0mg"},{"bike_id":"9938e91c-265b-40a5-a9ee-a8a818767b92","system_id":"levelo_inurba_marseille","lat":43.24673,"lon":5.38161,"is_reserved":false,"is_disabled":false,"rental_uris":{"android":"levelo://app?vid=9938e91c-265b-40a5-a9ee-a8a818767b92","ios":"levelo://app?vid=9938e91c-265b-40a5-a9ee-a8a818767b92"},"vehicle_type_id":"4","last_reported":1725962985,"current_range_meters":14800,"station_id":"ce4bhih2rcd13ifvqfr0","pricing_plan_id":"cebpf4jnsgd1na2vs0mg"},{"bike_id":"b02222ec-0387-4ff5-8918-29e62bcf5a98","system_id":"levelo_inurba_marseille","lat":43.32484,"lon":5.36572,"is_reserved":false,"is_disabled":false,"rental_uris":{"android":"levelo://app?vid=b02222ec-0387-4ff5-8918-29e62bcf5a98","ios":"levelo://app?vid=b02222ec-0387-4ff5-8918-29e62bcf5a98"},"vehicle_type_id":"4","last_reported":1725962985,"current_range_meters":21600,"station_id":"ce4bhs12rcd13ifvqhvg","pricing_plan_id":"cebpf4jnsgd1na2vs0mg"},{"bike_id":"25a734f0-5a58-49fa-9e2e-761a6040d468","system_id":"levelo_inurba_marseille","lat":43.23142,"lon":5.43721,"is_reserved":false,"is_disabled":false,"rental_uris":{"android":"levelo://app?vid=25a734f0-5a58-49fa-9e2e-761a6040d468","ios":"levelo://app?vid=25a734f0-5a58-49fa-9e2e-761a6040d468"},"vehicle_type_id":"4","last_reported":1725962985,"current_range_meters":20800,"station_id":"ce4bhmp2rcd13ifvqgog","pricing_plan_id":"cebpf4jnsgd1na2vs0mg"},{"bike_id":"273bfe13-bc71-40ca-9955-e31d49cb88e0","system_id":"levelo_inurba_marseille","lat":43.23956,"lon":5.36626,"is_reserved":false,"is_disabled":false,"rental_uris":{"android":"levelo://app?vid=273bfe13-bc71-40ca-9955-e31d49cb88e0","ios":"levelo://app?vid=273bfe13-bc71-40ca-9955-e31d49cb88e0"},"vehicle_type_id":"4","last_reported":1725962985,"current_range_meters":37600,"station_id":"ce4bhi12rcd13ifvqfp0","pricing_plan_id":"cebpf4jnsgd1na2vs0mg"},{"bike_id":"f5c9d5a3-bded-4bdf-a211-9658b468f702","system_id":"levelo_inurba_marseille","lat":43.32284,"lon":5.38274,"is_reserved":false,"is_disabled":false,"rental_uris":{"android":"levelo://app?vid=f5c9d5a3-bded-4bdf-a211-9658b468f702","ios":"levelo://app?vid=f5c9d5a3-bded-4bdf-a211-9658b468f702"},"vehicle_type_id":"4","last_reported":1725962985,"current_range_meters":37600,"station_id":"ce4bhr12rcd13ifvqhqg","pricing_plan_id":"cebpf4jnsgd1na2vs0mg"},{"bike_id":"16cd0dcf-4345-473e-bf5c-7be705310706","system_id":"levelo_inurba_marseille","lat":43.27053,"lon":5.42264,"is_reserved":false,"is_disabled":false,"rental_uris":{"android":"levelo://app?vid=16cd0dcf-4345-473e-bf5c-7be705310706","ios":"levelo://app?vid=16cd0dcf-4345-473e-bf5c-7be705310706"},"vehicle_type_id":"4","last_reported":1725962985,"current_range_meters":35600,"station_id":"ce4bhk92rcd13ifvqgb0","pricing_plan_id":"cebpf4jnsgd1na2vs0mg"},{"bike_id":"73a1f507-b56c-43d3-a62b-4708c2b556d0","system_id":"levelo_inurba_marseille","lat":43.33757,"lon":5.37442,"is_reserved":false,"is_disabled":false,"rental_uris":{"android":"levelo://app?vid=73a1f507-b56c-43d3-a62b-4708c2b556d0","ios":"levelo://app?vid=73a1f507-b56c-43d3-a62b-4708c2b556d0"},"vehicle_type_id":"4","last_reported":1725962985,"current_range_meters":38000,"station_id":"","pricing_plan_id":"cebpf4jnsgd1na2vs0mg"},{"bike_id":"3a9476c7-6b6f-421e-8d19-3bc19ddc96aa","system_id":"levelo_inurba_marseille","lat":43.30537,"lon":5.36552,"is_reserved":false,"is_disabled":false,"rental_uris":{"android":"levelo://app?vid=3a9476c7-6b6f-421e-8d19-3bc19ddc96aa","ios":"levelo://app?vid=3a9476c7-6b6f-421e-8d19-3bc19ddc96aa"},"vehicle_type_id":"4","last_reported":1725962985,"current_range_meters":8400,"station_id":"ce4bgs12rcd13ifvqcag","pricing_plan_id":"cebpf4jnsgd1na2vs0mg"},{"bike_id":"2f3dd428-4c1e-4ccd-8d1e-4c978e1aa15d","system_id":"levelo_inurba_marseille","lat":43.30465,"lon":5.37901,"is_reserved":false,"is_disabled":false,"rental_uris":{"android":"levelo://app?vid=2f3dd428-4c1e-4ccd-8d1e-4c978e1aa15d","ios":"levelo://app?vid=2f3dd428-4c1e-4ccd-8d1e-4c978e1aa15d"},"vehicle_type_id":"4","last_reported":1725962985,"current_range_meters":38800,"station_id":"ce4bgup2rcd13ifvqcn0","pricing_plan_id":"cebpf4jnsgd1na2vs0mg"},{"bike_id":"394bd584-8445-46bf-ada2-5a34056bc5a2","system_id":"levelo_inurba_marseille","lat":43.30425,"lon":5.38895,"is_reserved":false,"is_disabled":false,"rental_uris":{"android":"levelo://app?vid=394bd584-8445-46bf-ada2-5a34056bc5a2","ios":"levelo://app?vid=394bd584-8445-46bf-ada2-5a34056bc5a2"},"vehicle_type_id":"4","last_reported":1725962985,"current_range_meters":32400,"station_id":"ce4bgk12rcd13ifvqbi0","pricing_plan_id":"cebpf4jnsgd1na2vs0mg"},{"bike_id":"ab19811c-a902-4d59-9093-d4cac6bd552d","system_id":"levelo_inurba_marseille","lat":43.30878,"lon":5.39654,"is_reserved":false,"is_disabled":false,"rental_uris":{"android":"levelo://app?vid=ab19811c-a902-4d59-9093-d4cac6bd552d","ios":"levelo://app?vid=ab19811c-a902-4d59-9093-d4cac6bd552d"},"vehicle_type_id":"4","last_reported":1725962985,"current_range_meters":29600,"station_id":"ce4bh012rcd13ifvqcv0","pricing_plan_id":"cebpf4jnsgd1na2vs0mg"},{"bike_id":"73204a20-b243-4f3c-bf49-9b59588294d1","system_id":"levelo_inurba_marseille","lat":43.23147,"lon":5.43716,"is_reserved":false,"is_disabled":false,"rental_uris":{"android":"levelo://app?vid=73204a20-b243-4f3c-bf49-9b59588294d1","ios":"levelo://app?vid=73204a20-b243-4f3c-bf49-9b59588294d1"},"vehicle_type_id":"4","last_reported":1725962985,"current_range_meters":38000,"station_id":"ce4bhmp2rcd13ifvqgog","pricing_plan_id":"cebpf4jnsgd1na2vs0mg"},{"bike_id":"86155553-b2dc-40ef-99b1-d1f15363aa86","system_id":"levelo_inurba_marseille","lat":43.31331,"lon":5.39688,"is_reserved":false,"is_disabled":false,"rental_uris":{"android":"levelo://app?vid=86155553-b2dc-40ef-99b1-d1f15363aa86","ios":"levelo://app?vid=86155553-b2dc-40ef-99b1-d1f15363aa86"},"vehicle_type_id":"4","last_reported":1725962985,"current_range_meters":24800,"station_id":"ce4bgvp2rcd13ifvqcu0","pricing_plan_id":"cebpf4jnsgd1na2vs0mg"},{"bike_id":"bb337f2f-8335-4b1b-91ec-d462c0a2f3c9","system_id":"levelo_inurba_marseille","lat":43.24822,"lon":5.37447,"is_reserved":false,"is_disabled":false,"rental_uris":{"android":"levelo://app?vid=bb337f2f-8335-4b1b-91ec-d462c0a2f3c9","ios":"levelo://app?vid=bb337f2f-8335-4b1b-91ec-d462c0a2f3c9"},"vehicle_type_id":"4","last_reported":1725962985,"current_range_meters":37600,"station_id":"ce4bhgh2rcd13ifvqfb0","pricing_plan_id":"cebpf4jnsgd1na2vs0mg"},{"bike_id":"173a22a6-c6b3-4156-ad2b-4962f41c7342","system_id":"levelo_inurba_marseille","lat":43.30534,"lon":5.36703,"is_reserved":false,"is_disabled":false,"rental_uris":{"android":"levelo://app?vid=173a22a6-c6b3-4156-ad2b-4962f41c7342","ios":"levelo://app?vid=173a22a6-c6b3-4156-ad2b-4962f41c7342"},"vehicle_type_id":"4","last_reported":1725962985,"current_range_meters":34000,"station_id":"ce4bgrp2rcd13ifvqc9g","pricing_plan_id":"cebpf4jnsgd1na2vs0mg"},{"bike_id":"77aba159-ccc5-482c-9138-df141f41437a","system_id":"levelo_inurba_marseille","lat":43.30077,"lon":5.39055,"is_reserved":false,"is_disabled":false,"rental_uris":{"android":"levelo://app?vid=77aba159-ccc5-482c-9138-df141f41437a","ios":"levelo://app?vid=77aba159-ccc5-482c-9138-df141f41437a"},"vehicle_type_id":"4","last_reported":1725962985,"current_range_meters":27200,"station_id":"ce4bh192rcd13ifvqdb0","pricing_plan_id":"cebpf4jnsgd1na2vs0mg"},{"bike_id":"e7371266-6a38-474b-8ebe-d54bcbd0c7ad","system_id":"levelo_inurba_marseille","lat":43.30889,"lon":5.37189,"is_reserved":false,"is_disabled":false,"rental_uris":{"android":"levelo://app?vid=e7371266-6a38-474b-8ebe-d54bcbd0c7ad","ios":"levelo://app?vid=e7371266-6a38-474b-8ebe-d54bcbd0c7ad"},"vehicle_type_id":"4","last_reported":1725962985,"current_range_meters":36800,"station_id":"ce4bguh2rcd13ifvqckg","pricing_plan_id":"cebpf4jnsgd1na2vs0mg"},{"bike_id":"5e541c14-39ab-4d22-9359-c27581dd3dd8","system_id":"levelo_inurba_marseille","lat":43.243835,"lon":5.370586,"is_reserved":false,"is_disabled":false,"rental_uris":{"android":"levelo://app?vid=5e541c14-39ab-4d22-9359-c27581dd3dd8","ios":"levelo://app?vid=5e541c14-39ab-4d22-9359-c27581dd3dd8"},"vehicle_type_id":"4","last_reported":1725962985,"current_range_meters":33600,"station_id":"ce4bhhh2rcd13ifvqfk0","pricing_plan_id":"cebpf4jnsgd1na2vs0mg"},{"bike_id":"34814ea5-d5a8-4eff-8ed8-5951075fc694","system_id":"levelo_inurba_marseille","lat":43.29263,"lon":5.40905,"is_reserved":false,"is_disabled":false,"rental_uris":{"android":"levelo://app?vid=34814ea5-d5a8-4eff-8ed8-5951075fc694","ios":"levelo://app?vid=34814ea5-d5a8-4eff-8ed8-5951075fc694"},"vehicle_type_id":"4","last_reported":1725962985,"current_range_meters":10800,"station_id":"ce4bh192rcd13ifvqdc0","pricing_plan_id":"cebpf4jnsgd1na2vs0mg"},{"bike_id":"e2dbcbfc-fc2f-4194-855d-a61126008ef4","system_id":"levelo_inurba_marseille","lat":43.3136,"lon":5.36697,"is_reserved":false,"is_disabled":false,"rental_uris":{"android":"levelo://app?vid=e2dbcbfc-fc2f-4194-855d-a61126008ef4","ios":"levelo://app?vid=e2dbcbfc-fc2f-4194-855d-a61126008ef4"},"vehicle_type_id":"4","last_reported":1725962985,"current_range_meters":18000,"station_id":"ce4bgr92rcd13ifvqc6g","pricing_plan_id":"cebpf4jnsgd1na2vs0mg"},{"bike_id":"46b6ace0-dac8-4fc2-a1a1-53ffd370f033","system_id":"levelo_inurba_marseille","lat":43.28613,"lon":5.35102,"is_reserved":false,"is_disabled":false,"rental_uris":{"android":"levelo://app?vid=46b6ace0-dac8-4fc2-a1a1-53ffd370f033","ios":"levelo://app?vid=46b6ace0-dac8-4fc2-a1a1-53ffd370f033"},"vehicle_type_id":"4","last_reported":1725962985,"current_range_meters":32000,"station_id":"ce4bhch2rcd13ifvqeug","pricing_plan_id":"cebpf4jnsgd1na2vs0mg"},{"bike_id":"cc20224a-dbe9-402c-80dd-dd6fc1acf566","system_id":"levelo_inurba_marseille","lat":43.30309,"lon":5.36908,"is_reserved":false,"is_disabled":false,"rental_uris":{"android":"levelo://app?vid=cc20224a-dbe9-402c-80dd-dd6fc1acf566","ios":"levelo://app?vid=cc20224a-dbe9-402c-80dd-dd6fc1acf566"},"vehicle_type_id":"4","last_reported":1725962985,"current_range_meters":30400,"station_id":"ce4bgqh2rcd13ifvqc5g","pricing_plan_id":"cebpf4jnsgd1na2vs0mg"},{"bike_id":"12872647-4372-4cf2-9fc5-598f616cb55c","system_id":"levelo_inurba_marseille","lat":43.24075,"lon":5.37742,"is_reserved":false,"is_disabled":false,"rental_uris":{"android":"levelo://app?vid=12872647-4372-4cf2-9fc5-598f616cb55c","ios":"levelo://app?vid=12872647-4372-4cf2-9fc5-598f616cb55c"},"vehicle_type_id":"4","last_reported":1725962985,"current_range_meters":22800,"station_id":"ce4bhnp2rcd13ifvqgvg","pricing_plan_id":"cebpf4jnsgd1na2vs0mg"},{"bike_id":"af7b4ff6-6b7e-4123-801e-b5a7a6e99eb1","system_id":"levelo_inurba_marseille","lat":43.337444,"lon":5.374475,"is_reserved":false,"is_disabled":false,"rental_uris":{"android":"levelo://app?vid=af7b4ff6-6b7e-4123-801e-b5a7a6e99eb1","ios":"levelo://app?vid=af7b4ff6-6b7e-4123-801e-b5a7a6e99eb1"},"vehicle_type_id":"4","last_reported":1725962985,"current_range_meters":28000,"station_id":"ce4bgj92rcd13ifvqbd0","pricing_plan_id":"cebpf4jnsgd1na2vs0mg"},{"bike_id":"dc4b3ebd-7b78-4207-8338-8060568a1a7b","system_id":"levelo_inurba_marseille","lat":43.337444,"lon":5.374475,"is_reserved":false,"is_disabled":false,"rental_uris":{"android":"levelo://app?vid=dc4b3ebd-7b78-4207-8338-8060568a1a7b","ios":"levelo://app?vid=dc4b3ebd-7b78-4207-8338-8060568a1a7b"},"vehicle_type_id":"4","last_reported":1725962985,"current_range_meters":37600,"station_id":"ce4bgj92rcd13ifvqbd0","pricing_plan_id":"cebpf4jnsgd1na2vs0mg"},{"bike_id":"d0a22151-5873-4516-ad59-35801290152e","system_id":"levelo_inurba_marseille","lat":43.23193,"lon":5.35548,"is_reserved":false,"is_disabled":false,"rental_uris":{"android":"levelo://app?vid=d0a22151-5873-4516-ad59-35801290152e","ios":"levelo://app?vid=d0a22151-5873-4516-ad59-35801290152e"},"vehicle_type_id":"4","last_reported":1725962985,"current_range_meters":10000,"station_id":"ce4bhu92rcd13ifvqi70","pricing_plan_id":"cebpf4jnsgd1na2vs0mg"},{"bike_id":"68f8b6e1-4d03-45ce-841c-3f3408c75648","system_id":"levelo_inurba_marseille","lat":43.3253,"lon":5.41445,"is_reserved":false,"is_disabled":false,"rental_uris":{"android":"levelo://app?vid=68f8b6e1-4d03-45ce-841c-3f3408c75648","ios":"levelo://app?vid=68f8b6e1-4d03-45ce-841c-3f3408c75648"},"vehicle_type_id":"4","last_reported":1725962985,"current_range_meters":14800,"station_id":"ce4bhq12rcd13ifvqhhg","pricing_plan_id":"cebpf4jnsgd1na2vs0mg"},{"bike_id":"3920a849-8a6b-49bc-ae78-e5b2e212c3f8","system_id":"levelo_inurba_marseille","lat":43.30947,"lon":5.39053,"is_reserved":false,"is_disabled":false,"rental_uris":{"android":"levelo://app?vid=3920a849-8a6b-49bc-ae78-e5b2e212c3f8","ios":"levelo://app?vid=3920a849-8a6b-49bc-ae78-e5b2e212c3f8"},"vehicle_type_id":"4","last_reported":1725962985,"current_range_meters":36800,"station_id":"ce4bgup2rcd13ifvqco0","pricing_plan_id":"cebpf4jnsgd1na2vs0mg"},{"bike_id":"b4f4660b-dfc7-46fd-8d73-2036c1606308","system_id":"levelo_inurba_marseille","lat":43.309075,"lon":5.396524,"is_reserved":false,"is_disabled":false,"rental_uris":{"android":"levelo://app?vid=b4f4660b-dfc7-46fd-8d73-2036c1606308","ios":"levelo://app?vid=b4f4660b-dfc7-46fd-8d73-2036c1606308"},"vehicle_type_id":"4","last_reported":1725962985,"current_range_meters":2000,"station_id":"ce4bh012rcd13ifvqcv0","pricing_plan_id":"cebpf4jnsgd1na2vs0mg"},{"bike_id":"1cdaa4e5-0eea-4cfd-b651-8c52b690c45d","system_id":"levelo_inurba_marseille","lat":43.32337,"lon":5.40616,"is_reserved":false,"is_disabled":false,"rental_uris":{"android":"levelo://app?vid=1cdaa4e5-0eea-4cfd-b651-8c52b690c45d","ios":"levelo://app?vid=1cdaa4e5-0eea-4cfd-b651-8c52b690c45d"},"vehicle_type_id":"4","last_reported":1725962985,"current_range_meters":2000,"station_id":"ce4bhq92rcd13ifvqhjg","pricing_plan_id":"cebpf4jnsgd1na2vs0mg"},{"bike_id":"fbe1eef0-30eb-4f0b-9bea-9d1122f16d3a","system_id":"levelo_inurba_marseille","lat":43.29867,"lon":5.39746,"is_reserved":false,"is_disabled":false,"rental_uris":{"android":"levelo://app?vid=fbe1eef0-30eb-4f0b-9bea-9d1122f16d3a","ios":"levelo://app?vid=fbe1eef0-30eb-4f0b-9bea-9d1122f16d3a"},"vehicle_type_id":"4","last_reported":1725962985,"current_range_meters":10000,"station_id":"ce4bh0h2rcd13ifvqd50","pricing_plan_id":"cebpf4jnsgd1na2vs0mg"},{"bike_id":"860f63ce-3c9e-4e0e-b9ef-63638adf3621","system_id":"levelo_inurba_marseille","lat":43.26777,"lon":5.39413,"is_reserved":false,"is_disabled":false,"rental_uris":{"android":"levelo://app?vid=860f63ce-3c9e-4e0e-b9ef-63638adf3621","ios":"levelo://app?vid=860f63ce-3c9e-4e0e-b9ef-63638adf3621"},"vehicle_type_id":"4","last_reported":1725962985,"current_range_meters":20400,"station_id":"ce4bhh12rcd13ifvqfg0","pricing_plan_id":"cebpf4jnsgd1na2vs0mg"},{"bike_id":"47383cd3-6119-4304-bb3a-0a9a3634a1f1","system_id":"levelo_inurba_marseille","lat":43.23149,"lon":5.43718,"is_reserved":false,"is_disabled":false,"rental_uris":{"android":"levelo://app?vid=47383cd3-6119-4304-bb3a-0a9a3634a1f1","ios":"levelo://app?vid=47383cd3-6119-4304-bb3a-0a9a3634a1f1"},"vehicle_type_id":"4","last_reported":1725962985,"current_range_meters":16400,"station_id":"ce4bhmp2rcd13ifvqgog","pricing_plan_id":"cebpf4jnsgd1na2vs0mg"},{"bike_id":"a4d5373b-202a-41bc-a6de-150b9afc8bf5","system_id":"levelo_inurba_marseille","lat":43.28617,"lon":5.35104,"is_reserved":false,"is_disabled":false,"rental_uris":{"android":"levelo://app?vid=a4d5373b-202a-41bc-a6de-150b9afc8bf5","ios":"levelo://app?vid=a4d5373b-202a-41bc-a6de-150b9afc8bf5"},"vehicle_type_id":"4","last_reported":1725962985,"current_range_meters":37600,"station_id":"ce4bhch2rcd13ifvqeug","pricing_plan_id":"cebpf4jnsgd1na2vs0mg"},{"bike_id":"c379a911-ce29-4e70-83a3-e7a9d2fe4120","system_id":"levelo_inurba_marseille","lat":43.26949,"lon":5.38629,"is_reserved":false,"is_disabled":false,"rental_uris":{"android":"levelo://app?vid=c379a911-ce29-4e70-83a3-e7a9d2fe4120","ios":"levelo://app?vid=c379a911-ce29-4e70-83a3-e7a9d2fe4120"},"vehicle_type_id":"4","last_reported":1725962985,"current_range_meters":38800,"station_id":"ce4bhh92rcd13ifvqfh0","pricing_plan_id":"cebpf4jnsgd1na2vs0mg"},{"bike_id":"d233bbcf-1837-4d8e-902d-8e919213c511","system_id":"levelo_inurba_marseille","lat":43.297825,"lon":5.43564,"is_reserved":false,"is_disabled":false,"rental_uris":{"android":"levelo://app?vid=d233bbcf-1837-4d8e-902d-8e919213c511","ios":"levelo://app?vid=d233bbcf-1837-4d8e-902d-8e919213c511"},"vehicle_type_id":"4","last_reported":1725962985,"current_range_meters":12800,"station_id":"ce4bhpp2rcd13ifvqhfg","pricing_plan_id":"cebpf4jnsgd1na2vs0mg"},{"bike_id":"641a6f9a-c272-44cf-92d6-cbef97fa1631","system_id":"levelo_inurba_marseille","lat":43.26559,"lon":5.39043,"is_reserved":false,"is_disabled":false,"rental_uris":{"android":"levelo://app?vid=641a6f9a-c272-44cf-92d6-cbef97fa1631","ios":"levelo://app?vid=641a6f9a-c272-44cf-92d6-cbef97fa1631"},"vehicle_type_id":"4","last_reported":1725962985,"current_range_meters":19600,"station_id":"ce4bhe12rcd13ifvqf30","pricing_plan_id":"cebpf4jnsgd1na2vs0mg"},{"bike_id":"5c863558-e2a8-4498-b72e-5598ae2c28c3","system_id":"levelo_inurba_marseille","lat":43.27671,"lon":5.38845,"is_reserved":false,"is_disabled":false,"rental_uris":{"android":"levelo://app?vid=5c863558-e2a8-4498-b72e-5598ae2c28c3","ios":"levelo://app?vid=5c863558-e2a8-4498-b72e-5598ae2c28c3"},"vehicle_type_id":"4","last_reported":1725962985,"current_range_meters":10800,"station_id":"ce4bhi12rcd13ifvqfo0","pricing_plan_id":"cebpf4jnsgd1na2vs0mg"},{"bike_id":"730f1596-4499-46bb-bc0b-165e5703bfb2","system_id":"levelo_inurba_marseille","lat":43.28261,"lon":5.3506,"is_reserved":false,"is_disabled":false,"rental_uris":{"android":"levelo://app?vid=730f1596-4499-46bb-bc0b-165e5703bfb2","ios":"levelo://app?vid=730f1596-4499-46bb-bc0b-165e5703bfb2"},"vehicle_type_id":"4","last_reported":1725962985,"current_range_meters":38800,"station_id":"ce4bhbp2rcd13ifvqerg","pricing_plan_id":"cebpf4jnsgd1na2vs0mg"},{"bike_id":"a0663206-9926-48b2-bc29-e38c4e86c7e4","system_id":"levelo_inurba_marseille","lat":43.293005,"lon":5.374644,"is_reserved":false,"is_disabled":false,"rental_uris":{"android":"levelo://app?vid=a0663206-9926-48b2-bc29-e38c4e86c7e4","ios":"levelo://app?vid=a0663206-9926-48b2-bc29-e38c4e86c7e4"},"vehicle_type_id":"4","last_reported":1725962985,"current_range_meters":20000,"station_id":"ce4bgi12rcd13ifvqb70","pricing_plan_id":"cebpf4jnsgd1na2vs0mg"},{"bike_id":"a1e52c1c-3844-4829-9d7b-ff0033a9b77d","system_id":"levelo_inurba_marseille","lat":43.28415,"lon":5.34984,"is_reserved":false,"is_disabled":false,"rental_uris":{"android":"levelo://app?vid=a1e52c1c-3844-4829-9d7b-ff0033a9b77d","ios":"levelo://app?vid=a1e52c1c-3844-4829-9d7b-ff0033a9b77d"},"vehicle_type_id":"4","last_reported":1725962985,"current_range_meters":6800,"station_id":"ce4bhbh2rcd13ifvqepg","pricing_plan_id":"cebpf4jnsgd1na2vs0mg"},{"bike_id":"90c7fb9d-c48f-4d20-af50-573c6b0c1ef2","system_id":"levelo_inurba_marseille","lat":43.32533,"lon":5.41434,"is_reserved":false,"is_disabled":false,"rental_uris":{"android":"levelo://app?vid=90c7fb9d-c48f-4d20-af50-573c6b0c1ef2","ios":"levelo://app?vid=90c7fb9d-c48f-4d20-af50-573c6b0c1ef2"},"vehicle_type_id":"4","last_reported":1725962985,"current_range_meters":25600,"station_id":"ce4bhq12rcd13ifvqhhg","pricing_plan_id":"cebpf4jnsgd1na2vs0mg"},{"bike_id":"90023e37-8125-44ab-a5d8-f29c63717d1a","system_id":"levelo_inurba_marseille","lat":43.231775,"lon":5.399823,"is_reserved":false,"is_disabled":false,"rental_uris":{"android":"levelo://app?vid=90023e37-8125-44ab-a5d8-f29c63717d1a","ios":"levelo://app?vid=90023e37-8125-44ab-a5d8-f29c63717d1a"},"vehicle_type_id":"4","last_reported":1725962985,"current_range_meters":22000,"station_id":"ce4bhn12rcd13ifvqgqg","pricing_plan_id":"cebpf4jnsgd1na2vs0mg"},{"bike_id":"96f4bf45-5f76-4ee9-ac22-008912d72b06","system_id":"levelo_inurba_marseille","lat":43.28924,"lon":5.36632,"is_reserved":false,"is_disabled":false,"rental_uris":{"android":"levelo://app?vid=96f4bf45-5f76-4ee9-ac22-008912d72b06","ios":"levelo://app?vid=96f4bf45-5f76-4ee9-ac22-008912d72b06"},"vehicle_type_id":"4","last_reported":1725962985,"current_range_meters":30000,"station_id":"ce4bhap2rcd13ifvqek0","pricing_plan_id":"cebpf4jnsgd1na2vs0mg"},{"bike_id":"64f25725-e05b-4f29-8181-60e04b4ee309","system_id":"levelo_inurba_marseille","lat":43.24386,"lon":5.37063,"is_reserved":false,"is_disabled":false,"rental_uris":{"android":"levelo://app?vid=64f25725-e05b-4f29-8181-60e04b4ee309","ios":"levelo://app?vid=64f25725-e05b-4f29-8181-60e04b4ee309"},"vehicle_type_id":"4","last_reported":1725962985,"current_range_meters":6800,"station_id":"ce4bhhh2rcd13ifvqfk0","pricing_plan_id":"cebpf4jnsgd1na2vs0mg"},{"bike_id":"ec2312e3-63ea-4f31-a2d4-d85a21c1616a","system_id":"levelo_inurba_marseille","lat":43.33781,"lon":5.37484,"is_reserved":false,"is_disabled":false,"rental_uris":{"android":"levelo://app?vid=ec2312e3-63ea-4f31-a2d4-d85a21c1616a","ios":"levelo://app?vid=ec2312e3-63ea-4f31-a2d4-d85a21c1616a"},"vehicle_type_id":"4","last_reported":1725962985,"current_range_meters":38800,"station_id":"","pricing_plan_id":"cebpf4jnsgd1na2vs0mg"},{"bike_id":"09d15703-fd8c-4ed1-8730-025698de9a93","system_id":"levelo_inurba_marseille","lat":43.30273,"lon":5.37693,"is_reserved":false,"is_disabled":false,"rental_uris":{"android":"levelo://app?vid=09d15703-fd8c-4ed1-8730-025698de9a93","ios":"levelo://app?vid=09d15703-fd8c-4ed1-8730-025698de9a93"},"vehicle_type_id":"4","last_reported":1725962985,"current_range_meters":23200,"station_id":"ce4bguh2rcd13ifvqcj0","pricing_plan_id":"cebpf4jnsgd1na2vs0mg"},{"bike_id":"ba71fde6-330c-4694-b58a-6b28fa15c9ce","system_id":"levelo_inurba_marseille","lat":43.30461,"lon":5.37894,"is_reserved":false,"is_disabled":false,"rental_uris":{"android":"levelo://app?vid=ba71fde6-330c-4694-b58a-6b28fa15c9ce","ios":"levelo://app?vid=ba71fde6-330c-4694-b58a-6b28fa15c9ce"},"vehicle_type_id":"4","last_reported":1725962985,"current_range_meters":38800,"station_id":"ce4bgup2rcd13ifvqcn0","pricing_plan_id":"cebpf4jnsgd1na2vs0mg"},{"bike_id":"35e60698-596c-4f8e-9c5b-f2842525c1ad","system_id":"levelo_inurba_marseille","lat":43.23172,"lon":5.39984,"is_reserved":false,"is_disabled":false,"rental_uris":{"android":"levelo://app?vid=35e60698-596c-4f8e-9c5b-f2842525c1ad","ios":"levelo://app?vid=35e60698-596c-4f8e-9c5b-f2842525c1ad"},"vehicle_type_id":"4","last_reported":1725962985,"current_range_meters":9600,"station_id":"ce4bhn12rcd13ifvqgqg","pricing_plan_id":"cebpf4jnsgd1na2vs0mg"},{"bike_id":"e0731622-94a1-43e6-ab86-d933c45e9d15","system_id":"levelo_inurba_marseille","lat":43.24078,"lon":5.37761,"is_reserved":false,"is_disabled":false,"rental_uris":{"android":"levelo://app?vid=e0731622-94a1-43e6-ab86-d933c45e9d15","ios":"levelo://app?vid=e0731622-94a1-43e6-ab86-d933c45e9d15"},"vehicle_type_id":"4","last_reported":1725962985,"current_range_meters":4800,"station_id":"ce4bhnp2rcd13ifvqgvg","pricing_plan_id":"cebpf4jnsgd1na2vs0mg"},{"bike_id":"9395e962-76ca-4e02-9084-a21e990a1068","system_id":"levelo_inurba_marseille","lat":43.26557,"lon":5.39025,"is_reserved":false,"is_disabled":false,"rental_uris":{"android":"levelo://app?vid=9395e962-76ca-4e02-9084-a21e990a1068","ios":"levelo://app?vid=9395e962-76ca-4e02-9084-a21e990a1068"},"vehicle_type_id":"4","last_reported":1725962985,"current_range_meters":31200,"station_id":"ce4bhe12rcd13ifvqf30","pricing_plan_id":"cebpf4jnsgd1na2vs0mg"},{"bike_id":"f73a9555-1431-42ca-b35e-b29493d62fe9","system_id":"levelo_inurba_marseille","lat":43.290063,"lon":5.356149,"is_reserved":false,"is_disabled":false,"rental_uris":{"android":"levelo://app?vid=f73a9555-1431-42ca-b35e-b29493d62fe9","ios":"levelo://app?vid=f73a9555-1431-42ca-b35e-b29493d62fe9"},"vehicle_type_id":"4","last_reported":1725962985,"current_range_meters":28400,"station_id":"ce4bhb92rcd13ifvqen0","pricing_plan_id":"cebpf4jnsgd1na2vs0mg"},{"bike_id":"3c6c0f4e-a3ab-4518-a08c-6f8d1166e07c","system_id":"levelo_inurba_marseille","lat":43.23145,"lon":5.43703,"is_reserved":false,"is_disabled":false,"rental_uris":{"android":"levelo://app?vid=3c6c0f4e-a3ab-4518-a08c-6f8d1166e07c","ios":"levelo://app?vid=3c6c0f4e-a3ab-4518-a08c-6f8d1166e07c"},"vehicle_type_id":"4","last_reported":1725962985,"current_range_meters":38400,"station_id":"ce4bhmp2rcd13ifvqgog","pricing_plan_id":"cebpf4jnsgd1na2vs0mg"},{"bike_id":"90437a4a-a8ed-419f-b482-00ce1f86e2f2","system_id":"levelo_inurba_marseille","lat":43.30452,"lon":5.37898,"is_reserved":false,"is_disabled":false,"rental_uris":{"android":"levelo://app?vid=90437a4a-a8ed-419f-b482-00ce1f86e2f2","ios":"levelo://app?vid=90437a4a-a8ed-419f-b482-00ce1f86e2f2"},"vehicle_type_id":"4","last_reported":1725962985,"current_range_meters":20400,"station_id":"ce4bgup2rcd13ifvqcn0","pricing_plan_id":"cebpf4jnsgd1na2vs0mg"},{"bike_id":"fc7d615f-1a12-4f5c-822f-a64d0708f6e2","system_id":"levelo_inurba_marseille","lat":43.2315,"lon":5.43695,"is_reserved":false,"is_disabled":false,"rental_uris":{"android":"levelo://app?vid=fc7d615f-1a12-4f5c-822f-a64d0708f6e2","ios":"levelo://app?vid=fc7d615f-1a12-4f5c-822f-a64d0708f6e2"},"vehicle_type_id":"4","last_reported":1725962985,"current_range_meters":36400,"station_id":"ce4bhmp2rcd13ifvqgog","pricing_plan_id":"cebpf4jnsgd1na2vs0mg"},{"bike_id":"8d2ae83c-a90c-4d50-8c8e-b137ed16cdf7","system_id":"levelo_inurba_marseille","lat":43.30249,"lon":5.40064,"is_reserved":false,"is_disabled":false,"rental_uris":{"android":"levelo://app?vid=8d2ae83c-a90c-4d50-8c8e-b137ed16cdf7","ios":"levelo://app?vid=8d2ae83c-a90c-4d50-8c8e-b137ed16cdf7"},"vehicle_type_id":"4","last_reported":1725962985,"current_range_meters":34000,"station_id":"ce4bgvh2rcd13ifvqcs0","pricing_plan_id":"cebpf4jnsgd1na2vs0mg"},{"bike_id":"b108262c-7c7d-4d80-aa40-0711ab55944d","system_id":"levelo_inurba_marseille","lat":43.27906,"lon":5.38018,"is_reserved":false,"is_disabled":false,"rental_uris":{"android":"levelo://app?vid=b108262c-7c7d-4d80-aa40-0711ab55944d","ios":"levelo://app?vid=b108262c-7c7d-4d80-aa40-0711ab55944d"},"vehicle_type_id":"4","last_reported":1725962985,"current_range_meters":6400,"station_id":"ce4bhf92rcd13ifvqf50","pricing_plan_id":"cebpf4jnsgd1na2vs0mg"},{"bike_id":"d21cb3aa-c77a-47a9-a07a-715b122e3520","system_id":"levelo_inurba_marseille","lat":43.33718,"lon":5.39182,"is_reserved":false,"is_disabled":false,"rental_uris":{"android":"levelo://app?vid=d21cb3aa-c77a-47a9-a07a-715b122e3520","ios":"levelo://app?vid=d21cb3aa-c77a-47a9-a07a-715b122e3520"},"vehicle_type_id":"4","last_reported":1725962985,"current_range_meters":38800,"station_id":"ce4bhr92rcd13ifvqhsg","pricing_plan_id":"cebpf4jnsgd1na2vs0mg"},{"bike_id":"99ff5113-63b8-4286-bc76-22496d34f647","system_id":"levelo_inurba_marseille","lat":43.23187,"lon":5.35553,"is_reserved":false,"is_disabled":false,"rental_uris":{"android":"levelo://app?vid=99ff5113-63b8-4286-bc76-22496d34f647","ios":"levelo://app?vid=99ff5113-63b8-4286-bc76-22496d34f647"},"vehicle_type_id":"4","last_reported":1725962985,"current_range_meters":5600,"station_id":"ce4bhu92rcd13ifvqi70","pricing_plan_id":"cebpf4jnsgd1na2vs0mg"},{"bike_id":"b2271fdc-77ec-463d-81cd-45840003e14b","system_id":"levelo_inurba_marseille","lat":43.28614,"lon":5.3511,"is_reserved":false,"is_disabled":false,"rental_uris":{"android":"levelo://app?vid=b2271fdc-77ec-463d-81cd-45840003e14b","ios":"levelo://app?vid=b2271fdc-77ec-463d-81cd-45840003e14b"},"vehicle_type_id":"4","last_reported":1725962985,"current_range_meters":38400,"station_id":"ce4bhch2rcd13ifvqeug","pricing_plan_id":"cebpf4jnsgd1na2vs0mg"},{"bike_id":"bc0c7842-1164-4503-a94b-e89f82d7ba1f","system_id":"levelo_inurba_marseille","lat":43.23153,"lon":5.43693,"is_reserved":false,"is_disabled":false,"rental_uris":{"android":"levelo://app?vid=bc0c7842-1164-4503-a94b-e89f82d7ba1f","ios":"levelo://app?vid=bc0c7842-1164-4503-a94b-e89f82d7ba1f"},"vehicle_type_id":"4","last_reported":1725962985,"current_range_meters":38000,"station_id":"ce4bhmp2rcd13ifvqgog","pricing_plan_id":"cebpf4jnsgd1na2vs0mg"},{"bike_id":"a5fba7ca-49a6-49bc-91d4-82b83bdca5c3","system_id":"levelo_inurba_marseille","lat":43.30543,"lon":5.36536,"is_reserved":false,"is_disabled":false,"rental_uris":{"android":"levelo://app?vid=a5fba7ca-49a6-49bc-91d4-82b83bdca5c3","ios":"levelo://app?vid=a5fba7ca-49a6-49bc-91d4-82b83bdca5c3"},"vehicle_type_id":"4","last_reported":1725962985,"current_range_meters":16400,"station_id":"ce4bgs12rcd13ifvqcag","pricing_plan_id":"cebpf4jnsgd1na2vs0mg"},{"bike_id":"ab9b8990-e378-4cf6-9ff1-6f0f22223b29","system_id":"levelo_inurba_marseille","lat":43.23146,"lon":5.43711,"is_reserved":false,"is_disabled":false,"rental_uris":{"android":"levelo://app?vid=ab9b8990-e378-4cf6-9ff1-6f0f22223b29","ios":"levelo://app?vid=ab9b8990-e378-4cf6-9ff1-6f0f22223b29"},"vehicle_type_id":"4","last_reported":1725962985,"current_range_meters":16000,"station_id":"ce4bhmp2rcd13ifvqgog","pricing_plan_id":"cebpf4jnsgd1na2vs0mg"},{"bike_id":"56fe391e-723e-42df-8d0c-af51e6441891","system_id":"levelo_inurba_marseille","lat":43.23057,"lon":5.35492,"is_reserved":false,"is_disabled":false,"rental_uris":{"android":"levelo://app?vid=56fe391e-723e-42df-8d0c-af51e6441891","ios":"levelo://app?vid=56fe391e-723e-42df-8d0c-af51e6441891"},"vehicle_type_id":"4","last_reported":1725962985,"current_range_meters":3600,"station_id":"cpo3342slgdg3j2ifvpg","pricing_plan_id":"cebpf4jnsgd1na2vs0mg"},{"bike_id":"e88197ed-cef7-4441-86a7-84ab731d73ee","system_id":"levelo_inurba_marseille","lat":43.30257,"lon":5.40073,"is_reserved":false,"is_disabled":false,"rental_uris":{"android":"levelo://app?vid=e88197ed-cef7-4441-86a7-84ab731d73ee","ios":"levelo://app?vid=e88197ed-cef7-4441-86a7-84ab731d73ee"},"vehicle_type_id":"4","last_reported":1725962985,"current_range_meters":35600,"station_id":"ce4bgvh2rcd13ifvqcs0","pricing_plan_id":"cebpf4jnsgd1na2vs0mg"},{"bike_id":"c5b54f07-9e8a-4d5d-af65-a461c660ca45","system_id":"levelo_inurba_marseille","lat":43.32284,"lon":5.38259,"is_reserved":false,"is_disabled":false,"rental_uris":{"android":"levelo://app?vid=c5b54f07-9e8a-4d5d-af65-a461c660ca45","ios":"levelo://app?vid=c5b54f07-9e8a-4d5d-af65-a461c660ca45"},"vehicle_type_id":"4","last_reported":1725962985,"current_range_meters":10000,"station_id":"ce4bhr12rcd13ifvqhqg","pricing_plan_id":"cebpf4jnsgd1na2vs0mg"},{"bike_id":"5581e1d9-6c9f-4630-bdf0-f258430a8ff1","system_id":"levelo_inurba_marseille","lat":43.241816,"lon":5.397278,"is_reserved":false,"is_disabled":false,"rental_uris":{"android":"levelo://app?vid=5581e1d9-6c9f-4630-bdf0-f258430a8ff1","ios":"levelo://app?vid=5581e1d9-6c9f-4630-bdf0-f258430a8ff1"},"vehicle_type_id":"4","last_reported":1725962985,"current_range_meters":11600,"station_id":"ce4bhn12rcd13ifvqgpg","pricing_plan_id":"cebpf4jnsgd1na2vs0mg"},{"bike_id":"5c864af9-51c8-47b2-b853-4a05fb829bd2","system_id":"levelo_inurba_marseille","lat":43.27421,"lon":5.39415,"is_reserved":false,"is_disabled":false,"rental_uris":{"android":"levelo://app?vid=5c864af9-51c8-47b2-b853-4a05fb829bd2","ios":"levelo://app?vid=5c864af9-51c8-47b2-b853-4a05fb829bd2"},"vehicle_type_id":"4","last_reported":1725962985,"current_range_meters":18800,"station_id":"ce4bhdp2rcd13ifvqf20","pricing_plan_id":"cebpf4jnsgd1na2vs0mg"},{"bike_id":"b874cd39-3ae9-4272-8c2c-95985a6792ea","system_id":"levelo_inurba_marseille","lat":43.30534,"lon":5.36545,"is_reserved":false,"is_disabled":false,"rental_uris":{"android":"levelo://app?vid=b874cd39-3ae9-4272-8c2c-95985a6792ea","ios":"levelo://app?vid=b874cd39-3ae9-4272-8c2c-95985a6792ea"},"vehicle_type_id":"4","last_reported":1725962985,"current_range_meters":28400,"station_id":"ce4bgs12rcd13ifvqcag","pricing_plan_id":"cebpf4jnsgd1na2vs0mg"},{"bike_id":"0e6d8ac9-eb06-4686-b2a2-953fdab7dd5a","system_id":"levelo_inurba_marseille","lat":43.33598,"lon":5.41023,"is_reserved":false,"is_disabled":false,"rental_uris":{"android":"levelo://app?vid=0e6d8ac9-eb06-4686-b2a2-953fdab7dd5a","ios":"levelo://app?vid=0e6d8ac9-eb06-4686-b2a2-953fdab7dd5a"},"vehicle_type_id":"4","last_reported":1725962985,"current_range_meters":38800,"station_id":"ce4bhqh2rcd13ifvqhmg","pricing_plan_id":"cebpf4jnsgd1na2vs0mg"},{"bike_id":"b5aa1d87-dded-4988-a469-70a1bd707f24","system_id":"levelo_inurba_marseille","lat":43.29963,"lon":5.38498,"is_reserved":false,"is_disabled":false,"rental_uris":{"android":"levelo://app?vid=b5aa1d87-dded-4988-a469-70a1bd707f24","ios":"levelo://app?vid=b5aa1d87-dded-4988-a469-70a1bd707f24"},"vehicle_type_id":"4","last_reported":1725962985,"current_range_meters":38800,"station_id":"ce4bgj92rcd13ifvqbd0","pricing_plan_id":"cebpf4jnsgd1na2vs0mg"},{"bike_id":"f5ab10c4-6d47-48ee-9572-4519f61eb1b5","system_id":"levelo_inurba_marseille","lat":43.25937,"lon":5.40907,"is_reserved":false,"is_disabled":false,"rental_uris":{"android":"levelo://app?vid=f5ab10c4-6d47-48ee-9572-4519f61eb1b5","ios":"levelo://app?vid=f5ab10c4-6d47-48ee-9572-4519f61eb1b5"},"vehicle_type_id":"4","last_reported":1725962985,"current_range_meters":7200,"station_id":"ce4bhm92rcd13ifvqglg","pricing_plan_id":"cebpf4jnsgd1na2vs0mg"},{"bike_id":"13663b96-1ce8-4999-b865-12bd6afd370e","system_id":"levelo_inurba_marseille","lat":43.30408,"lon":5.38871,"is_reserved":false,"is_disabled":false,"rental_uris":{"android":"levelo://app?vid=13663b96-1ce8-4999-b865-12bd6afd370e","ios":"levelo://app?vid=13663b96-1ce8-4999-b865-12bd6afd370e"},"vehicle_type_id":"4","last_reported":1725962985,"current_range_meters":29600,"station_id":"ce4bgk12rcd13ifvqbi0","pricing_plan_id":"cebpf4jnsgd1na2vs0mg"},{"bike_id":"e238eb9a-b5ce-4daa-a070-0709dee78a5d","system_id":"levelo_inurba_marseille","lat":43.23151,"lon":5.43713,"is_reserved":false,"is_disabled":false,"rental_uris":{"android":"levelo://app?vid=e238eb9a-b5ce-4daa-a070-0709dee78a5d","ios":"levelo://app?vid=e238eb9a-b5ce-4daa-a070-0709dee78a5d"},"vehicle_type_id":"4","last_reported":1725962985,"current_range_meters":19200,"station_id":"ce4bhmp2rcd13ifvqgog","pricing_plan_id":"cebpf4jnsgd1na2vs0mg"},{"bike_id":"2a2ee487-9718-41ad-8eef-0dd5e8bda6ac","system_id":"levelo_inurba_marseille","lat":43.29171,"lon":5.3715,"is_reserved":false,"is_disabled":false,"rental_uris":{"android":"levelo://app?vid=2a2ee487-9718-41ad-8eef-0dd5e8bda6ac","ios":"levelo://app?vid=2a2ee487-9718-41ad-8eef-0dd5e8bda6ac"},"vehicle_type_id":"4","last_reported":1725962985,"current_range_meters":36800,"station_id":"ce4bha92rcd13ifvqeh0","pricing_plan_id":"cebpf4jnsgd1na2vs0mg"},{"bike_id":"d655b562-9ac5-43dc-b6de-75eec2c288dd","system_id":"levelo_inurba_marseille","lat":43.2439,"lon":5.3706,"is_reserved":false,"is_disabled":false,"rental_uris":{"android":"levelo://app?vid=d655b562-9ac5-43dc-b6de-75eec2c288dd","ios":"levelo://app?vid=d655b562-9ac5-43dc-b6de-75eec2c288dd"},"vehicle_type_id":"4","last_reported":1725962985,"current_range_meters":4800,"station_id":"ce4bhhh2rcd13ifvqfk0","pricing_plan_id":"cebpf4jnsgd1na2vs0mg"},{"bike_id":"df10b944-e5a5-4da4-b121-513a52757ff8","system_id":"levelo_inurba_marseille","lat":43.31755,"lon":5.39016,"is_reserved":false,"is_disabled":false,"rental_uris":{"android":"levelo://app?vid=df10b944-e5a5-4da4-b121-513a52757ff8","ios":"levelo://app?vid=df10b944-e5a5-4da4-b121-513a52757ff8"},"vehicle_type_id":"4","last_reported":1725962985,"current_range_meters":29600,"station_id":"ce4bhqp2rcd13ifvqhng","pricing_plan_id":"cebpf4jnsgd1na2vs0mg"},{"bike_id":"35a92e2d-d77b-400b-aeba-f522bf358e49","system_id":"levelo_inurba_marseille","lat":43.31869,"lon":5.37384,"is_reserved":false,"is_disabled":false,"rental_uris":{"android":"levelo://app?vid=35a92e2d-d77b-400b-aeba-f522bf358e49","ios":"levelo://app?vid=35a92e2d-d77b-400b-aeba-f522bf358e49"},"vehicle_type_id":"4","last_reported":1725962985,"current_range_meters":16800,"station_id":"ce4bgup2rcd13ifvqco0","pricing_plan_id":"cebpf4jnsgd1na2vs0mg"},{"bike_id":"080c7b59-af9b-4684-a1b3-a8785e08146e","system_id":"levelo_inurba_marseille","lat":43.32285,"lon":5.38267,"is_reserved":false,"is_disabled":false,"rental_uris":{"android":"levelo://app?vid=080c7b59-af9b-4684-a1b3-a8785e08146e","ios":"levelo://app?vid=080c7b59-af9b-4684-a1b3-a8785e08146e"},"vehicle_type_id":"4","last_reported":1725962985,"current_range_meters":37600,"station_id":"ce4bhr12rcd13ifvqhqg","pricing_plan_id":"cebpf4jnsgd1na2vs0mg"},{"bike_id":"74e8506f-52d8-48d1-b2f5-3ab864ffd9ce","system_id":"levelo_inurba_marseille","lat":43.30091,"lon":5.39065,"is_reserved":false,"is_disabled":false,"rental_uris":{"android":"levelo://app?vid=74e8506f-52d8-48d1-b2f5-3ab864ffd9ce","ios":"levelo://app?vid=74e8506f-52d8-48d1-b2f5-3ab864ffd9ce"},"vehicle_type_id":"4","last_reported":1725962985,"current_range_meters":16400,"station_id":"ce4bh192rcd13ifvqdb0","pricing_plan_id":"cebpf4jnsgd1na2vs0mg"},{"bike_id":"689af299-077a-4b96-aadf-024a1a87228a","system_id":"levelo_inurba_marseille","lat":43.27487,"lon":5.4245,"is_reserved":false,"is_disabled":false,"rental_uris":{"android":"levelo://app?vid=689af299-077a-4b96-aadf-024a1a87228a","ios":"levelo://app?vid=689af299-077a-4b96-aadf-024a1a87228a"},"vehicle_type_id":"4","last_reported":1725962985,"current_range_meters":23200,"station_id":"ce4bhn92rcd13ifvqgrg","pricing_plan_id":"cebpf4jnsgd1na2vs0mg"},{"bike_id":"cfc6650a-34d8-4613-835d-150880fbaae0","system_id":"levelo_inurba_marseille","lat":43.2315,"lon":5.4371,"is_reserved":false,"is_disabled":false,"rental_uris":{"android":"levelo://app?vid=cfc6650a-34d8-4613-835d-150880fbaae0","ios":"levelo://app?vid=cfc6650a-34d8-4613-835d-150880fbaae0"},"vehicle_type_id":"4","last_reported":1725962985,"current_range_meters":15200,"station_id":"ce4bhmp2rcd13ifvqgog","pricing_plan_id":"cebpf4jnsgd1na2vs0mg"},{"bike_id":"78778da8-03c2-4260-b5d2-a398d9400b64","system_id":"levelo_inurba_marseille","lat":43.23146,"lon":5.43726,"is_reserved":false,"is_disabled":false,"rental_uris":{"android":"levelo://app?vid=78778da8-03c2-4260-b5d2-a398d9400b64","ios":"levelo://app?vid=78778da8-03c2-4260-b5d2-a398d9400b64"},"vehicle_type_id":"4","last_reported":1725962985,"current_range_meters":37600,"station_id":"ce4bhmp2rcd13ifvqgog","pricing_plan_id":"cebpf4jnsgd1na2vs0mg"},{"bike_id":"0889134f-c064-43c0-a8db-bf97e4cfdc35","system_id":"levelo_inurba_marseille","lat":43.337444,"lon":5.374475,"is_reserved":false,"is_disabled":false,"rental_uris":{"android":"levelo://app?vid=0889134f-c064-43c0-a8db-bf97e4cfdc35","ios":"levelo://app?vid=0889134f-c064-43c0-a8db-bf97e4cfdc35"},"vehicle_type_id":"4","last_reported":1725962985,"current_range_meters":8400,"station_id":"","pricing_plan_id":"cebpf4jnsgd1na2vs0mg"},{"bike_id":"2d614141-b61c-4e1b-b2d5-9d7ed1466cce","system_id":"levelo_inurba_marseille","lat":43.298687,"lon":5.363037,"is_reserved":false,"is_disabled":false,"rental_uris":{"android":"levelo://app?vid=2d614141-b61c-4e1b-b2d5-9d7ed1466cce","ios":"levelo://app?vid=2d614141-b61c-4e1b-b2d5-9d7ed1466cce"},"vehicle_type_id":"4","last_reported":1725962985,"current_range_meters":22000,"station_id":"ce4bgpp2rcd13ifvqc3g","pricing_plan_id":"cebpf4jnsgd1na2vs0mg"},{"bike_id":"5704885e-1618-4594-8cff-7f027c04c4a2","system_id":"levelo_inurba_marseille","lat":43.25942,"lon":5.40903,"is_reserved":false,"is_disabled":false,"rental_uris":{"android":"levelo://app?vid=5704885e-1618-4594-8cff-7f027c04c4a2","ios":"levelo://app?vid=5704885e-1618-4594-8cff-7f027c04c4a2"},"vehicle_type_id":"4","last_reported":1725962985,"current_range_meters":17200,"station_id":"ce4bhm92rcd13ifvqglg","pricing_plan_id":"cebpf4jnsgd1na2vs0mg"},{"bike_id":"02e9227e-4d15-45e3-b464-2b03b597a05f","system_id":"levelo_inurba_marseille","lat":43.30542,"lon":5.36717,"is_reserved":false,"is_disabled":false,"rental_uris":{"android":"levelo://app?vid=02e9227e-4d15-45e3-b464-2b03b597a05f","ios":"levelo://app?vid=02e9227e-4d15-45e3-b464-2b03b597a05f"},"vehicle_type_id":"4","last_reported":1725962985,"current_range_meters":38400,"station_id":"ce4bgrp2rcd13ifvqc9g","pricing_plan_id":"cebpf4jnsgd1na2vs0mg"},{"bike_id":"1d583431-4535-43ff-9cfe-97c3afe38e61","system_id":"levelo_inurba_marseille","lat":43.30961,"lon":5.40053,"is_reserved":false,"is_disabled":false,"rental_uris":{"android":"levelo://app?vid=1d583431-4535-43ff-9cfe-97c3afe38e61","ios":"levelo://app?vid=1d583431-4535-43ff-9cfe-97c3afe38e61"},"vehicle_type_id":"4","last_reported":1725962985,"current_range_meters":13600,"station_id":"ce4bhpp2rcd13ifvqhgg","pricing_plan_id":"cebpf4jnsgd1na2vs0mg"},{"bike_id":"5d411a94-71dc-41e3-ae74-13086227871e","system_id":"levelo_inurba_marseille","lat":43.27484,"lon":5.42452,"is_reserved":false,"is_disabled":false,"rental_uris":{"android":"levelo://app?vid=5d411a94-71dc-41e3-ae74-13086227871e","ios":"levelo://app?vid=5d411a94-71dc-41e3-ae74-13086227871e"},"vehicle_type_id":"4","last_reported":1725962985,"current_range_meters":34000,"station_id":"ce4bhn92rcd13ifvqgrg","pricing_plan_id":"cebpf4jnsgd1na2vs0mg"},{"bike_id":"fd35fa38-adf1-4f1a-b3da-4f1d38e91ee0","system_id":"levelo_inurba_marseille","lat":43.2418,"lon":5.39727,"is_reserved":false,"is_disabled":false,"rental_uris":{"android":"levelo://app?vid=fd35fa38-adf1-4f1a-b3da-4f1d38e91ee0","ios":"levelo://app?vid=fd35fa38-adf1-4f1a-b3da-4f1d38e91ee0"},"vehicle_type_id":"4","last_reported":1725962985,"current_range_meters":18800,"station_id":"ce4bhn12rcd13ifvqgpg","pricing_plan_id":"cebpf4jnsgd1na2vs0mg"},{"bike_id":"bf5555e9-efb7-4521-b052-9d5a2c8f2941","system_id":"levelo_inurba_marseille","lat":43.25937,"lon":5.40905,"is_reserved":false,"is_disabled":false,"rental_uris":{"android":"levelo://app?vid=bf5555e9-efb7-4521-b052-9d5a2c8f2941","ios":"levelo://app?vid=bf5555e9-efb7-4521-b052-9d5a2c8f2941"},"vehicle_type_id":"4","last_reported":1725962985,"current_range_meters":31200,"station_id":"ce4bhm92rcd13ifvqglg","pricing_plan_id":"cebpf4jnsgd1na2vs0mg"},{"bike_id":"0d318225-f77d-4b1b-8c7b-e5dce1e1083e","system_id":"levelo_inurba_marseille","lat":43.2798,"lon":5.40019,"is_reserved":false,"is_disabled":false,"rental_uris":{"android":"levelo://app?vid=0d318225-f77d-4b1b-8c7b-e5dce1e1083e","ios":"levelo://app?vid=0d318225-f77d-4b1b-8c7b-e5dce1e1083e"},"vehicle_type_id":"4","last_reported":1725962985,"current_range_meters":28000,"station_id":"ce4bho92rcd13ifvqh4g","pricing_plan_id":"cebpf4jnsgd1na2vs0mg"},{"bike_id":"e4067140-ef5f-4d5d-b312-3ad8fb897ba0","system_id":"levelo_inurba_marseille","lat":43.25571,"lon":5.38234,"is_reserved":false,"is_disabled":false,"rental_uris":{"android":"levelo://app?vid=e4067140-ef5f-4d5d-b312-3ad8fb897ba0","ios":"levelo://app?vid=e4067140-ef5f-4d5d-b312-3ad8fb897ba0"},"vehicle_type_id":"4","last_reported":1725962985,"current_range_meters":30000,"station_id":"ce4bhih2rcd13ifvqfs0","pricing_plan_id":"cebpf4jnsgd1na2vs0mg"},{"bike_id":"ec66178c-9377-4a8d-ba34-1a39bc42f1ac","system_id":"levelo_inurba_marseille","lat":43.32287,"lon":5.38277,"is_reserved":false,"is_disabled":false,"rental_uris":{"android":"levelo://app?vid=ec66178c-9377-4a8d-ba34-1a39bc42f1ac","ios":"levelo://app?vid=ec66178c-9377-4a8d-ba34-1a39bc42f1ac"},"vehicle_type_id":"4","last_reported":1725962985,"current_range_meters":37600,"station_id":"ce4bhr12rcd13ifvqhqg","pricing_plan_id":"cebpf4jnsgd1na2vs0mg"},{"bike_id":"b8c3d51d-b0b7-4220-84d6-7c9ab9263782","system_id":"levelo_inurba_marseille","lat":43.30861,"lon":5.39646,"is_reserved":false,"is_disabled":false,"rental_uris":{"android":"levelo://app?vid=b8c3d51d-b0b7-4220-84d6-7c9ab9263782","ios":"levelo://app?vid=b8c3d51d-b0b7-4220-84d6-7c9ab9263782"},"vehicle_type_id":"4","last_reported":1725962985,"current_range_meters":30800,"station_id":"ce4bh012rcd13ifvqcv0","pricing_plan_id":"cebpf4jnsgd1na2vs0mg"},{"bike_id":"c8566ff8-48bb-4153-8f25-6ecc62ca6edb","system_id":"levelo_inurba_marseille","lat":43.34124,"lon":5.4091,"is_reserved":false,"is_disabled":false,"rental_uris":{"android":"levelo://app?vid=c8566ff8-48bb-4153-8f25-6ecc62ca6edb","ios":"levelo://app?vid=c8566ff8-48bb-4153-8f25-6ecc62ca6edb"},"vehicle_type_id":"4","last_reported":1725962985,"current_range_meters":39200,"station_id":"ce4bhqh2rcd13ifvqhlg","pricing_plan_id":"cebpf4jnsgd1na2vs0mg"},{"bike_id":"bc745383-2511-4656-a4d1-e131400dfd60","system_id":"levelo_inurba_marseille","lat":43.23188,"lon":5.35558,"is_reserved":false,"is_disabled":false,"rental_uris":{"android":"levelo://app?vid=bc745383-2511-4656-a4d1-e131400dfd60","ios":"levelo://app?vid=bc745383-2511-4656-a4d1-e131400dfd60"},"vehicle_type_id":"4","last_reported":1725962985,"current_range_meters":17600,"station_id":"ce4bhu92rcd13ifvqi70","pricing_plan_id":"cebpf4jnsgd1na2vs0mg"},{"bike_id":"2995aec0-d6e8-496b-82d8-5a402d2c0f8a","system_id":"levelo_inurba_marseille","lat":43.24384,"lon":5.37058,"is_reserved":false,"is_disabled":false,"rental_uris":{"android":"levelo://app?vid=2995aec0-d6e8-496b-82d8-5a402d2c0f8a","ios":"levelo://app?vid=2995aec0-d6e8-496b-82d8-5a402d2c0f8a"},"vehicle_type_id":"4","last_reported":1725962985,"current_range_meters":9600,"station_id":"ce4bhhh2rcd13ifvqfk0","pricing_plan_id":"cebpf4jnsgd1na2vs0mg"},{"bike_id":"256ff1b4-3cda-4078-ac92-9b2b566638b7","system_id":"levelo_inurba_marseille","lat":43.25567,"lon":5.38234,"is_reserved":false,"is_disabled":false,"rental_uris":{"android":"levelo://app?vid=256ff1b4-3cda-4078-ac92-9b2b566638b7","ios":"levelo://app?vid=256ff1b4-3cda-4078-ac92-9b2b566638b7"},"vehicle_type_id":"4","last_reported":1725962985,"current_range_meters":31200,"station_id":"ce4bhih2rcd13ifvqfs0","pricing_plan_id":"cebpf4jnsgd1na2vs0mg"},{"bike_id":"e725015d-de34-473c-8e97-ff25677e08ff","system_id":"levelo_inurba_marseille","lat":43.31326,"lon":5.39695,"is_reserved":false,"is_disabled":false,"rental_uris":{"android":"levelo://app?vid=e725015d-de34-473c-8e97-ff25677e08ff","ios":"levelo://app?vid=e725015d-de34-473c-8e97-ff25677e08ff"},"vehicle_type_id":"4","last_reported":1725962985,"current_range_meters":34000,"station_id":"ce4bgvp2rcd13ifvqcu0","pricing_plan_id":"cebpf4jnsgd1na2vs0mg"},{"bike_id":"cbf59a2f-5339-4273-acba-478410a57dc1","system_id":"levelo_inurba_marseille","lat":43.309514,"lon":5.390055,"is_reserved":false,"is_disabled":false,"rental_uris":{"android":"levelo://app?vid=cbf59a2f-5339-4273-acba-478410a57dc1","ios":"levelo://app?vid=cbf59a2f-5339-4273-acba-478410a57dc1"},"vehicle_type_id":"4","last_reported":1725962985,"current_range_meters":30800,"station_id":"ce4bgup2rcd13ifvqco0","pricing_plan_id":"cebpf4jnsgd1na2vs0mg"},{"bike_id":"ccbf5e43-be0f-4330-aa14-cfe13aff8a11","system_id":"levelo_inurba_marseille","lat":43.27286,"lon":5.41591,"is_reserved":false,"is_disabled":false,"rental_uris":{"android":"levelo://app?vid=ccbf5e43-be0f-4330-aa14-cfe13aff8a11","ios":"levelo://app?vid=ccbf5e43-be0f-4330-aa14-cfe13aff8a11"},"vehicle_type_id":"4","last_reported":1725962985,"current_range_meters":7200,"station_id":"","pricing_plan_id":"cebpf4jnsgd1na2vs0mg"},{"bike_id":"ce9d80c0-1796-49d7-bfc7-195378095ab9","system_id":"levelo_inurba_marseille","lat":43.30548,"lon":5.36708,"is_reserved":false,"is_disabled":false,"rental_uris":{"android":"levelo://app?vid=ce9d80c0-1796-49d7-bfc7-195378095ab9","ios":"levelo://app?vid=ce9d80c0-1796-49d7-bfc7-195378095ab9"},"vehicle_type_id":"4","last_reported":1725962985,"current_range_meters":33600,"station_id":"ce4bgrp2rcd13ifvqc9g","pricing_plan_id":"cebpf4jnsgd1na2vs0mg"},{"bike_id":"cb1e1328-2b54-42f5-854c-24680a7f750d","system_id":"levelo_inurba_marseille","lat":43.29792,"lon":5.40399,"is_reserved":false,"is_disabled":false,"rental_uris":{"android":"levelo://app?vid=cb1e1328-2b54-42f5-854c-24680a7f750d","ios":"levelo://app?vid=cb1e1328-2b54-42f5-854c-24680a7f750d"},"vehicle_type_id":"4","last_reported":1725962985,"current_range_meters":32400,"station_id":"ce4bh112rcd13ifvqd90","pricing_plan_id":"cebpf4jnsgd1na2vs0mg"},{"bike_id":"353513a9-d517-45c5-be78-696864f6c147","system_id":"levelo_inurba_marseille","lat":43.24649,"lon":5.38894,"is_reserved":false,"is_disabled":false,"rental_uris":{"android":"levelo://app?vid=353513a9-d517-45c5-be78-696864f6c147","ios":"levelo://app?vid=353513a9-d517-45c5-be78-696864f6c147"},"vehicle_type_id":"4","last_reported":1725962985,"current_range_meters":11200,"station_id":"ce4bhg12rcd13ifvqf60","pricing_plan_id":"cebpf4jnsgd1na2vs0mg"},{"bike_id":"98dc66e2-5a71-4a68-b04f-72f920b4931b","system_id":"levelo_inurba_marseille","lat":43.26678,"lon":5.38262,"is_reserved":false,"is_disabled":false,"rental_uris":{"android":"levelo://app?vid=98dc66e2-5a71-4a68-b04f-72f920b4931b","ios":"levelo://app?vid=98dc66e2-5a71-4a68-b04f-72f920b4931b"},"vehicle_type_id":"4","last_reported":1725962985,"current_range_meters":11200,"station_id":"ce4bhg92rcd13ifvqf90","pricing_plan_id":"cebpf4jnsgd1na2vs0mg"},{"bike_id":"69e887f5-8a63-4dc2-8534-1bb6d6ddd4fa","system_id":"levelo_inurba_marseille","lat":43.23145,"lon":5.43721,"is_reserved":false,"is_disabled":false,"rental_uris":{"android":"levelo://app?vid=69e887f5-8a63-4dc2-8534-1bb6d6ddd4fa","ios":"levelo://app?vid=69e887f5-8a63-4dc2-8534-1bb6d6ddd4fa"},"vehicle_type_id":"4","last_reported":1725962985,"current_range_meters":36000,"station_id":"ce4bhmp2rcd13ifvqgog","pricing_plan_id":"cebpf4jnsgd1na2vs0mg"},{"bike_id":"ca245fec-9e51-4c63-a821-35899749dfb8","system_id":"levelo_inurba_marseille","lat":43.337444,"lon":5.374475,"is_reserved":false,"is_disabled":false,"rental_uris":{"android":"levelo://app?vid=ca245fec-9e51-4c63-a821-35899749dfb8","ios":"levelo://app?vid=ca245fec-9e51-4c63-a821-35899749dfb8"},"vehicle_type_id":"4","last_reported":1725962985,"current_range_meters":27600,"station_id":"","pricing_plan_id":"cebpf4jnsgd1na2vs0mg"},{"bike_id":"bc8f049d-7d50-4c54-93af-75867b8874d0","system_id":"levelo_inurba_marseille","lat":43.24071,"lon":5.37764,"is_reserved":false,"is_disabled":false,"rental_uris":{"android":"levelo://app?vid=bc8f049d-7d50-4c54-93af-75867b8874d0","ios":"levelo://app?vid=bc8f049d-7d50-4c54-93af-75867b8874d0"},"vehicle_type_id":"4","last_reported":1725962985,"current_range_meters":32000,"station_id":"ce4bhnp2rcd13ifvqgvg","pricing_plan_id":"cebpf4jnsgd1na2vs0mg"},{"bike_id":"c13e1edb-f817-452d-bc46-6f34e97f4d9c","system_id":"levelo_inurba_marseille","lat":43.24075,"lon":5.37743,"is_reserved":false,"is_disabled":false,"rental_uris":{"android":"levelo://app?vid=c13e1edb-f817-452d-bc46-6f34e97f4d9c","ios":"levelo://app?vid=c13e1edb-f817-452d-bc46-6f34e97f4d9c"},"vehicle_type_id":"4","last_reported":1725962985,"current_range_meters":32400,"station_id":"ce4bhnp2rcd13ifvqgvg","pricing_plan_id":"cebpf4jnsgd1na2vs0mg"},{"bike_id":"94745892-f06c-47cb-af60-a3b3d46dfc18","system_id":"levelo_inurba_marseille","lat":43.3013,"lon":5.38054,"is_reserved":false,"is_disabled":false,"rental_uris":{"android":"levelo://app?vid=94745892-f06c-47cb-af60-a3b3d46dfc18","ios":"levelo://app?vid=94745892-f06c-47cb-af60-a3b3d46dfc18"},"vehicle_type_id":"4","last_reported":1725962985,"current_range_meters":36400,"station_id":"ce4bgjp2rcd13ifvqbh0","pricing_plan_id":"cebpf4jnsgd1na2vs0mg"},{"bike_id":"626a82a3-3112-4517-a47c-f68d55d34938","system_id":"levelo_inurba_marseille","lat":43.24645,"lon":5.38889,"is_reserved":false,"is_disabled":false,"rental_uris":{"android":"levelo://app?vid=626a82a3-3112-4517-a47c-f68d55d34938","ios":"levelo://app?vid=626a82a3-3112-4517-a47c-f68d55d34938"},"vehicle_type_id":"4","last_reported":1725962985,"current_range_meters":33600,"station_id":"ce4bhg12rcd13ifvqf60","pricing_plan_id":"cebpf4jnsgd1na2vs0mg"},{"bike_id":"b431ae45-151f-44c8-8690-790461e8ccc2","system_id":"levelo_inurba_marseille","lat":43.27466,"lon":5.42467,"is_reserved":false,"is_disabled":false,"rental_uris":{"android":"levelo://app?vid=b431ae45-151f-44c8-8690-790461e8ccc2","ios":"levelo://app?vid=b431ae45-151f-44c8-8690-790461e8ccc2"},"vehicle_type_id":"4","last_reported":1725962985,"current_range_meters":22800,"station_id":"ce4bhn92rcd13ifvqgrg","pricing_plan_id":"cebpf4jnsgd1na2vs0mg"},{"bike_id":"5221c0b4-e605-4aaf-857f-11e406852fdf","system_id":"levelo_inurba_marseille","lat":43.24077,"lon":5.37748,"is_reserved":false,"is_disabled":false,"rental_uris":{"android":"levelo://app?vid=5221c0b4-e605-4aaf-857f-11e406852fdf","ios":"levelo://app?vid=5221c0b4-e605-4aaf-857f-11e406852fdf"},"vehicle_type_id":"4","last_reported":1725962985,"current_range_meters":15200,"station_id":"ce4bhnp2rcd13ifvqgvg","pricing_plan_id":"cebpf4jnsgd1na2vs0mg"},{"bike_id":"26505684-7909-4a05-a336-28c2a2ea143e","system_id":"levelo_inurba_marseille","lat":43.24081,"lon":5.37738,"is_reserved":false,"is_disabled":false,"rental_uris":{"android":"levelo://app?vid=26505684-7909-4a05-a336-28c2a2ea143e","ios":"levelo://app?vid=26505684-7909-4a05-a336-28c2a2ea143e"},"vehicle_type_id":"4","last_reported":1725962985,"current_range_meters":20400,"station_id":"ce4bhnp2rcd13ifvqgvg","pricing_plan_id":"cebpf4jnsgd1na2vs0mg"},{"bike_id":"058501bb-5a22-4398-ae6a-7b4d1f5de701","system_id":"levelo_inurba_marseille","lat":43.32282,"lon":5.38277,"is_reserved":false,"is_disabled":false,"rental_uris":{"android":"levelo://app?vid=058501bb-5a22-4398-ae6a-7b4d1f5de701","ios":"levelo://app?vid=058501bb-5a22-4398-ae6a-7b4d1f5de701"},"vehicle_type_id":"4","last_reported":1725962985,"current_range_meters":33600,"station_id":"ce4bhr12rcd13ifvqhqg","pricing_plan_id":"cebpf4jnsgd1na2vs0mg"},{"bike_id":"53bfff36-b94a-45fe-82e3-e585e0b70be0","system_id":"levelo_inurba_marseille","lat":43.2668,"lon":5.38264,"is_reserved":false,"is_disabled":false,"rental_uris":{"android":"levelo://app?vid=53bfff36-b94a-45fe-82e3-e585e0b70be0","ios":"levelo://app?vid=53bfff36-b94a-45fe-82e3-e585e0b70be0"},"vehicle_type_id":"4","last_reported":1725962985,"current_range_meters":28400,"station_id":"ce4bhg92rcd13ifvqf90","pricing_plan_id":"cebpf4jnsgd1na2vs0mg"},{"bike_id":"d170a587-1e00-4d01-b299-3ca4977fc50a","system_id":"levelo_inurba_marseille","lat":43.337444,"lon":5.374475,"is_reserved":false,"is_disabled":false,"rental_uris":{"android":"levelo://app?vid=d170a587-1e00-4d01-b299-3ca4977fc50a","ios":"levelo://app?vid=d170a587-1e00-4d01-b299-3ca4977fc50a"},"vehicle_type_id":"4","last_reported":1725962985,"current_range_meters":36400,"station_id":"","pricing_plan_id":"cebpf4jnsgd1na2vs0mg"},{"bike_id":"a095d557-e884-4866-b6c4-5dbebc1d04a9","system_id":"levelo_inurba_marseille","lat":43.29554,"lon":5.42277,"is_reserved":false,"is_disabled":false,"rental_uris":{"android":"levelo://app?vid=a095d557-e884-4866-b6c4-5dbebc1d04a9","ios":"levelo://app?vid=a095d557-e884-4866-b6c4-5dbebc1d04a9"},"vehicle_type_id":"4","last_reported":1725962985,"current_range_meters":20000,"station_id":"ce4bhph2rcd13ifvqhdg","pricing_plan_id":"cebpf4jnsgd1na2vs0mg"},{"bike_id":"382ee7a1-7683-45f8-8ca3-e3dd4262b7f6","system_id":"levelo_inurba_marseille","lat":43.27813,"lon":5.40713,"is_reserved":false,"is_disabled":false,"rental_uris":{"android":"levelo://app?vid=382ee7a1-7683-45f8-8ca3-e3dd4262b7f6","ios":"levelo://app?vid=382ee7a1-7683-45f8-8ca3-e3dd4262b7f6"},"vehicle_type_id":"4","last_reported":1725962985,"current_range_meters":30000,"station_id":"ce4bhnh2rcd13ifvqgtg","pricing_plan_id":"cebpf4jnsgd1na2vs0mg"},{"bike_id":"835ae718-d954-4895-8110-addc0146bee5","system_id":"levelo_inurba_marseille","lat":43.3133,"lon":5.3673,"is_reserved":false,"is_disabled":false,"rental_uris":{"android":"levelo://app?vid=835ae718-d954-4895-8110-addc0146bee5","ios":"levelo://app?vid=835ae718-d954-4895-8110-addc0146bee5"},"vehicle_type_id":"4","last_reported":1725962985,"current_range_meters":38800,"station_id":"ce4bgr92rcd13ifvqc6g","pricing_plan_id":"cebpf4jnsgd1na2vs0mg"},{"bike_id":"5786f67f-c2dd-4682-9f1b-60264c69ea15","system_id":"levelo_inurba_marseille","lat":43.25855,"lon":5.39893,"is_reserved":false,"is_disabled":false,"rental_uris":{"android":"levelo://app?vid=5786f67f-c2dd-4682-9f1b-60264c69ea15","ios":"levelo://app?vid=5786f67f-c2dd-4682-9f1b-60264c69ea15"},"vehicle_type_id":"4","last_reported":1725962985,"current_range_meters":10800,"station_id":"ce4bhl92rcd13ifvqghg","pricing_plan_id":"cebpf4jnsgd1na2vs0mg"},{"bike_id":"1857e20a-2905-4b84-8016-1a9cc5d5bb03","system_id":"levelo_inurba_marseille","lat":43.305473,"lon":5.365582,"is_reserved":false,"is_disabled":false,"rental_uris":{"android":"levelo://app?vid=1857e20a-2905-4b84-8016-1a9cc5d5bb03","ios":"levelo://app?vid=1857e20a-2905-4b84-8016-1a9cc5d5bb03"},"vehicle_type_id":"4","last_reported":1725962985,"current_range_meters":14400,"station_id":"ce4bgs12rcd13ifvqcag","pricing_plan_id":"cebpf4jnsgd1na2vs0mg"},{"bike_id":"e1a869db-a9c9-40ff-852a-8793cc94c5a8","system_id":"levelo_inurba_marseille","lat":43.27485,"lon":5.42459,"is_reserved":false,"is_disabled":false,"rental_uris":{"android":"levelo://app?vid=e1a869db-a9c9-40ff-852a-8793cc94c5a8","ios":"levelo://app?vid=e1a869db-a9c9-40ff-852a-8793cc94c5a8"},"vehicle_type_id":"4","last_reported":1725962985,"current_range_meters":33200,"station_id":"ce4bhn92rcd13ifvqgrg","pricing_plan_id":"cebpf4jnsgd1na2vs0mg"},{"bike_id":"e1afa912-2bf9-49f5-ab54-6e9af09aacb3","system_id":"levelo_inurba_marseille","lat":43.23183,"lon":5.3999,"is_reserved":false,"is_disabled":false,"rental_uris":{"android":"levelo://app?vid=e1afa912-2bf9-49f5-ab54-6e9af09aacb3","ios":"levelo://app?vid=e1afa912-2bf9-49f5-ab54-6e9af09aacb3"},"vehicle_type_id":"4","last_reported":1725962985,"current_range_meters":11200,"station_id":"ce4bhn12rcd13ifvqgqg","pricing_plan_id":"cebpf4jnsgd1na2vs0mg"},{"bike_id":"575be697-065b-4a21-be17-8e732ce43e4b","system_id":"levelo_inurba_marseille","lat":43.24385,"lon":5.37056,"is_reserved":false,"is_disabled":false,"rental_uris":{"android":"levelo://app?vid=575be697-065b-4a21-be17-8e732ce43e4b","ios":"levelo://app?vid=575be697-065b-4a21-be17-8e732ce43e4b"},"vehicle_type_id":"4","last_reported":1725962985,"current_range_meters":35200,"station_id":"ce4bhhh2rcd13ifvqfk0","pricing_plan_id":"cebpf4jnsgd1na2vs0mg"},{"bike_id":"e7036c44-a45a-4935-b5dd-c627753e0a29","system_id":"levelo_inurba_marseille","lat":43.28606,"lon":5.35097,"is_reserved":false,"is_disabled":false,"rental_uris":{"android":"levelo://app?vid=e7036c44-a45a-4935-b5dd-c627753e0a29","ios":"levelo://app?vid=e7036c44-a45a-4935-b5dd-c627753e0a29"},"vehicle_type_id":"4","last_reported":1725962985,"current_range_meters":38000,"station_id":"ce4bhch2rcd13ifvqeug","pricing_plan_id":"cebpf4jnsgd1na2vs0mg"},{"bike_id":"3077af2e-6a31-47df-9107-9d55d6896f70","system_id":"levelo_inurba_marseille","lat":43.24071,"lon":5.37762,"is_reserved":false,"is_disabled":false,"rental_uris":{"android":"levelo://app?vid=3077af2e-6a31-47df-9107-9d55d6896f70","ios":"levelo://app?vid=3077af2e-6a31-47df-9107-9d55d6896f70"},"vehicle_type_id":"4","last_reported":1725962985,"current_range_meters":12000,"station_id":"ce4bhnp2rcd13ifvqgvg","pricing_plan_id":"cebpf4jnsgd1na2vs0mg"},{"bike_id":"5da2003d-fb1c-434c-ae81-c10b92dc97e9","system_id":"levelo_inurba_marseille","lat":43.30459,"lon":5.379,"is_reserved":false,"is_disabled":false,"rental_uris":{"android":"levelo://app?vid=5da2003d-fb1c-434c-ae81-c10b92dc97e9","ios":"levelo://app?vid=5da2003d-fb1c-434c-ae81-c10b92dc97e9"},"vehicle_type_id":"4","last_reported":1725962985,"current_range_meters":38800,"station_id":"ce4bgup2rcd13ifvqcn0","pricing_plan_id":"cebpf4jnsgd1na2vs0mg"},{"bike_id":"28491286-df76-416a-bc4a-5d60e2e8a96a","system_id":"levelo_inurba_marseille","lat":43.309466,"lon":5.390327,"is_reserved":false,"is_disabled":false,"rental_uris":{"android":"levelo://app?vid=28491286-df76-416a-bc4a-5d60e2e8a96a","ios":"levelo://app?vid=28491286-df76-416a-bc4a-5d60e2e8a96a"},"vehicle_type_id":"4","last_reported":1725962985,"current_range_meters":26000,"station_id":"ce4bhph2rcd13ifvqhdg","pricing_plan_id":"cebpf4jnsgd1na2vs0mg"},{"bike_id":"af5ef4c5-483a-4118-a975-c813206ac5e1","system_id":"levelo_inurba_marseille","lat":43.29587,"lon":5.38104,"is_reserved":false,"is_disabled":false,"rental_uris":{"android":"levelo://app?vid=af5ef4c5-483a-4118-a975-c813206ac5e1","ios":"levelo://app?vid=af5ef4c5-483a-4118-a975-c813206ac5e1"},"vehicle_type_id":"4","last_reported":1725962985,"current_range_meters":19200,"station_id":"ce4bgl12rcd13ifvqbo0","pricing_plan_id":"cebpf4jnsgd1na2vs0mg"},{"bike_id":"fc3a0572-143d-4313-9e0d-391fb9baa90a","system_id":"levelo_inurba_marseille","lat":43.26544,"lon":5.37288,"is_reserved":false,"is_disabled":false,"rental_uris":{"android":"levelo://app?vid=fc3a0572-143d-4313-9e0d-391fb9baa90a","ios":"levelo://app?vid=fc3a0572-143d-4313-9e0d-391fb9baa90a"},"vehicle_type_id":"4","last_reported":1725962985,"current_range_meters":7200,"station_id":"ce4bhg12rcd13ifvqf70","pricing_plan_id":"cebpf4jnsgd1na2vs0mg"},{"bike_id":"a85c78bc-418c-4af0-8edd-59c76790768f","system_id":"levelo_inurba_marseille","lat":43.32481,"lon":5.36582,"is_reserved":false,"is_disabled":false,"rental_uris":{"android":"levelo://app?vid=a85c78bc-418c-4af0-8edd-59c76790768f","ios":"levelo://app?vid=a85c78bc-418c-4af0-8edd-59c76790768f"},"vehicle_type_id":"4","last_reported":1725962985,"current_range_meters":28000,"station_id":"ce4bhs12rcd13ifvqhvg","pricing_plan_id":"cebpf4jnsgd1na2vs0mg"},{"bike_id":"8bcc0cac-e194-457b-af48-a1976a5d5edd","system_id":"levelo_inurba_marseille","lat":43.2465,"lon":5.38895,"is_reserved":false,"is_disabled":false,"rental_uris":{"android":"levelo://app?vid=8bcc0cac-e194-457b-af48-a1976a5d5edd","ios":"levelo://app?vid=8bcc0cac-e194-457b-af48-a1976a5d5edd"},"vehicle_type_id":"4","last_reported":1725962985,"current_range_meters":38800,"station_id":"ce4bhg12rcd13ifvqf60","pricing_plan_id":"cebpf4jnsgd1na2vs0mg"},{"bike_id":"d9663d21-c90b-4b46-821c-b724101c7b12","system_id":"levelo_inurba_marseille","lat":43.29835,"lon":5.3626,"is_reserved":false,"is_disabled":false,"rental_uris":{"android":"levelo://app?vid=d9663d21-c90b-4b46-821c-b724101c7b12","ios":"levelo://app?vid=d9663d21-c90b-4b46-821c-b724101c7b12"},"vehicle_type_id":"4","last_reported":1725962985,"current_range_meters":31200,"station_id":"ce4bgpp2rcd13ifvqc3g","pricing_plan_id":"cebpf4jnsgd1na2vs0mg"},{"bike_id":"69d87a96-62d5-48ac-a203-3fc99ced94d7","system_id":"levelo_inurba_marseille","lat":43.26947,"lon":5.38636,"is_reserved":false,"is_disabled":false,"rental_uris":{"android":"levelo://app?vid=69d87a96-62d5-48ac-a203-3fc99ced94d7","ios":"levelo://app?vid=69d87a96-62d5-48ac-a203-3fc99ced94d7"},"vehicle_type_id":"4","last_reported":1725962985,"current_range_meters":39200,"station_id":"ce4bhh92rcd13ifvqfh0","pricing_plan_id":"cebpf4jnsgd1na2vs0mg"},{"bike_id":"d12b0250-5c7f-4add-96f7-d571b6142981","system_id":"levelo_inurba_marseille","lat":43.34132,"lon":5.40908,"is_reserved":false,"is_disabled":false,"rental_uris":{"android":"levelo://app?vid=d12b0250-5c7f-4add-96f7-d571b6142981","ios":"levelo://app?vid=d12b0250-5c7f-4add-96f7-d571b6142981"},"vehicle_type_id":"4","last_reported":1725962985,"current_range_meters":28400,"station_id":"ce4bhqh2rcd13ifvqhlg","pricing_plan_id":"cebpf4jnsgd1na2vs0mg"},{"bike_id":"9f0a1eb3-ed63-4bc1-a966-5af9292852d5","system_id":"levelo_inurba_marseille","lat":43.29847,"lon":5.36278,"is_reserved":false,"is_disabled":false,"rental_uris":{"android":"levelo://app?vid=9f0a1eb3-ed63-4bc1-a966-5af9292852d5","ios":"levelo://app?vid=9f0a1eb3-ed63-4bc1-a966-5af9292852d5"},"vehicle_type_id":"4","last_reported":1725962985,"current_range_meters":35200,"station_id":"ce4bgpp2rcd13ifvqc3g","pricing_plan_id":"cebpf4jnsgd1na2vs0mg"},{"bike_id":"f715e76b-ad13-457f-b15f-b87bdbac5f61","system_id":"levelo_inurba_marseille","lat":43.28613,"lon":5.35094,"is_reserved":false,"is_disabled":false,"rental_uris":{"android":"levelo://app?vid=f715e76b-ad13-457f-b15f-b87bdbac5f61","ios":"levelo://app?vid=f715e76b-ad13-457f-b15f-b87bdbac5f61"},"vehicle_type_id":"4","last_reported":1725962985,"current_range_meters":27600,"station_id":"ce4bhch2rcd13ifvqeug","pricing_plan_id":"cebpf4jnsgd1na2vs0mg"},{"bike_id":"9c97f9ec-7a9d-41fa-833c-34ce56ba5dfe","system_id":"levelo_inurba_marseille","lat":43.2293,"lon":5.35375,"is_reserved":false,"is_disabled":false,"rental_uris":{"android":"levelo://app?vid=9c97f9ec-7a9d-41fa-833c-34ce56ba5dfe","ios":"levelo://app?vid=9c97f9ec-7a9d-41fa-833c-34ce56ba5dfe"},"vehicle_type_id":"4","last_reported":1725962985,"current_range_meters":6400,"station_id":"cpo3532slgdg3j2ikp40","pricing_plan_id":"cebpf4jnsgd1na2vs0mg"},{"bike_id":"74deabc1-d687-4294-9852-300975c87d9e","system_id":"levelo_inurba_marseille","lat":43.2408,"lon":5.37741,"is_reserved":false,"is_disabled":false,"rental_uris":{"android":"levelo://app?vid=74deabc1-d687-4294-9852-300975c87d9e","ios":"levelo://app?vid=74deabc1-d687-4294-9852-300975c87d9e"},"vehicle_type_id":"4","last_reported":1725962985,"current_range_meters":17600,"station_id":"ce4bhnp2rcd13ifvqgvg","pricing_plan_id":"cebpf4jnsgd1na2vs0mg"},{"bike_id":"6bc78a58-cf39-436d-963c-76da93ea5d85","system_id":"levelo_inurba_marseille","lat":43.33753,"lon":5.37428,"is_reserved":false,"is_disabled":false,"rental_uris":{"android":"levelo://app?vid=6bc78a58-cf39-436d-963c-76da93ea5d85","ios":"levelo://app?vid=6bc78a58-cf39-436d-963c-76da93ea5d85"},"vehicle_type_id":"4","last_reported":1725962985,"current_range_meters":24800,"station_id":"","pricing_plan_id":"cebpf4jnsgd1na2vs0mg"},{"bike_id":"a7894266-49d2-4cd2-9339-becc72377d92","system_id":"levelo_inurba_marseille","lat":43.28703,"lon":5.39978,"is_reserved":false,"is_disabled":false,"rental_uris":{"android":"levelo://app?vid=a7894266-49d2-4cd2-9339-becc72377d92","ios":"levelo://app?vid=a7894266-49d2-4cd2-9339-becc72377d92"},"vehicle_type_id":"4","last_reported":1725962985,"current_range_meters":34000,"station_id":"ce4bho92rcd13ifvqh3g","pricing_plan_id":"cebpf4jnsgd1na2vs0mg"},{"bike_id":"6a4b35b3-30a5-419b-91e8-99a378d108dc","system_id":"levelo_inurba_marseille","lat":43.337444,"lon":5.374475,"is_reserved":false,"is_disabled":false,"rental_uris":{"android":"levelo://app?vid=6a4b35b3-30a5-419b-91e8-99a378d108dc","ios":"levelo://app?vid=6a4b35b3-30a5-419b-91e8-99a378d108dc"},"vehicle_type_id":"4","last_reported":1725962985,"current_range_meters":38800,"station_id":"ce4bh2p2rcd13ifvqdi0","pricing_plan_id":"cebpf4jnsgd1na2vs0mg"},{"bike_id":"4490c6dd-a0b6-4c6a-8bd3-d2268595024a","system_id":"levelo_inurba_marseille","lat":43.2407,"lon":5.37755,"is_reserved":false,"is_disabled":false,"rental_uris":{"android":"levelo://app?vid=4490c6dd-a0b6-4c6a-8bd3-d2268595024a","ios":"levelo://app?vid=4490c6dd-a0b6-4c6a-8bd3-d2268595024a"},"vehicle_type_id":"4","last_reported":1725962985,"current_range_meters":8800,"station_id":"ce4bhnp2rcd13ifvqgvg","pricing_plan_id":"cebpf4jnsgd1na2vs0mg"},{"bike_id":"1a9dfcb8-d4cc-46d1-bada-7d344f8f428d","system_id":"levelo_inurba_marseille","lat":43.30551,"lon":5.36535,"is_reserved":false,"is_disabled":false,"rental_uris":{"android":"levelo://app?vid=1a9dfcb8-d4cc-46d1-bada-7d344f8f428d","ios":"levelo://app?vid=1a9dfcb8-d4cc-46d1-bada-7d344f8f428d"},"vehicle_type_id":"4","last_reported":1725962985,"current_range_meters":39200,"station_id":"ce4bgs12rcd13ifvqcag","pricing_plan_id":"cebpf4jnsgd1na2vs0mg"},{"bike_id":"0f8d4871-40aa-4918-ae57-55191cfaadca","system_id":"levelo_inurba_marseille","lat":43.24071,"lon":5.37733,"is_reserved":false,"is_disabled":false,"rental_uris":{"android":"levelo://app?vid=0f8d4871-40aa-4918-ae57-55191cfaadca","ios":"levelo://app?vid=0f8d4871-40aa-4918-ae57-55191cfaadca"},"vehicle_type_id":"4","last_reported":1725962985,"current_range_meters":18800,"station_id":"ce4bhnp2rcd13ifvqgvg","pricing_plan_id":"cebpf4jnsgd1na2vs0mg"},{"bike_id":"7bb5a6c7-6dd5-4a42-9215-dad1557690cc","system_id":"levelo_inurba_marseille","lat":43.32286,"lon":5.38276,"is_reserved":false,"is_disabled":false,"rental_uris":{"android":"levelo://app?vid=7bb5a6c7-6dd5-4a42-9215-dad1557690cc","ios":"levelo://app?vid=7bb5a6c7-6dd5-4a42-9215-dad1557690cc"},"vehicle_type_id":"4","last_reported":1725962985,"current_range_meters":36800,"station_id":"ce4bhr12rcd13ifvqhqg","pricing_plan_id":"cebpf4jnsgd1na2vs0mg"},{"bike_id":"f4adb485-c682-490d-83e8-6cc8af6d8518","system_id":"levelo_inurba_marseille","lat":43.3078,"lon":5.37644,"is_reserved":false,"is_disabled":false,"rental_uris":{"android":"levelo://app?vid=f4adb485-c682-490d-83e8-6cc8af6d8518","ios":"levelo://app?vid=f4adb485-c682-490d-83e8-6cc8af6d8518"},"vehicle_type_id":"4","last_reported":1725962985,"current_range_meters":4800,"station_id":"ce4bgv92rcd13ifvqcq0","pricing_plan_id":"cebpf4jnsgd1na2vs0mg"},{"bike_id":"d5e18ced-afc4-4f46-96df-ae0bc45ff21c","system_id":"levelo_inurba_marseille","lat":43.30147,"lon":5.38084,"is_reserved":false,"is_disabled":false,"rental_uris":{"android":"levelo://app?vid=d5e18ced-afc4-4f46-96df-ae0bc45ff21c","ios":"levelo://app?vid=d5e18ced-afc4-4f46-96df-ae0bc45ff21c"},"vehicle_type_id":"4","last_reported":1725962985,"current_range_meters":34000,"station_id":"ce4bgjp2rcd13ifvqbh0","pricing_plan_id":"cebpf4jnsgd1na2vs0mg"},{"bike_id":"c9dba97f-3c25-41d9-9c36-a66fe5515e16","system_id":"levelo_inurba_marseille","lat":43.25821,"lon":5.39434,"is_reserved":false,"is_disabled":false,"rental_uris":{"android":"levelo://app?vid=c9dba97f-3c25-41d9-9c36-a66fe5515e16","ios":"levelo://app?vid=c9dba97f-3c25-41d9-9c36-a66fe5515e16"},"vehicle_type_id":"4","last_reported":1725962985,"current_range_meters":36400,"station_id":"ce4bhip2rcd13ifvqft0","pricing_plan_id":"cebpf4jnsgd1na2vs0mg"},{"bike_id":"eeb049b6-0fb7-45a9-9efc-e612af9a2f25","system_id":"levelo_inurba_marseille","lat":43.30598,"lon":5.37222,"is_reserved":false,"is_disabled":false,"rental_uris":{"android":"levelo://app?vid=eeb049b6-0fb7-45a9-9efc-e612af9a2f25","ios":"levelo://app?vid=eeb049b6-0fb7-45a9-9efc-e612af9a2f25"},"vehicle_type_id":"4","last_reported":1725962985,"current_range_meters":33600,"station_id":"ce4bgqh2rcd13ifvqc4g","pricing_plan_id":"cebpf4jnsgd1na2vs0mg"},{"bike_id":"03adf265-5294-4cb4-9af1-99e88745ace6","system_id":"levelo_inurba_marseille","lat":43.29311,"lon":5.37172,"is_reserved":false,"is_disabled":false,"rental_uris":{"android":"levelo://app?vid=03adf265-5294-4cb4-9af1-99e88745ace6","ios":"levelo://app?vid=03adf265-5294-4cb4-9af1-99e88745ace6"},"vehicle_type_id":"4","last_reported":1725962985,"current_range_meters":38800,"station_id":"ce4bgh92rcd13ifvqb40","pricing_plan_id":"cebpf4jnsgd1na2vs0mg"},{"bike_id":"c3538b7d-34c1-412f-b548-e5e6ab2b40ef","system_id":"levelo_inurba_marseille","lat":43.29531,"lon":5.39391,"is_reserved":false,"is_disabled":false,"rental_uris":{"android":"levelo://app?vid=c3538b7d-34c1-412f-b548-e5e6ab2b40ef","ios":"levelo://app?vid=c3538b7d-34c1-412f-b548-e5e6ab2b40ef"},"vehicle_type_id":"4","last_reported":1725962985,"current_range_meters":27600,"station_id":"ce4bh292rcd13ifvqdf0","pricing_plan_id":"cebpf4jnsgd1na2vs0mg"},{"bike_id":"34ea09b7-c862-45ca-af37-ca74b5322a31","system_id":"levelo_inurba_marseille","lat":43.302749,"lon":5.377151,"is_reserved":false,"is_disabled":false,"rental_uris":{"android":"levelo://app?vid=34ea09b7-c862-45ca-af37-ca74b5322a31","ios":"levelo://app?vid=34ea09b7-c862-45ca-af37-ca74b5322a31"},"vehicle_type_id":"4","last_reported":1725962985,"current_range_meters":34000,"station_id":"ce4bguh2rcd13ifvqcj0","pricing_plan_id":"cebpf4jnsgd1na2vs0mg"},{"bike_id":"f39b2119-4a11-4daa-9c63-03c8da229918","system_id":"levelo_inurba_marseille","lat":43.27486,"lon":5.42455,"is_reserved":false,"is_disabled":false,"rental_uris":{"android":"levelo://app?vid=f39b2119-4a11-4daa-9c63-03c8da229918","ios":"levelo://app?vid=f39b2119-4a11-4daa-9c63-03c8da229918"},"vehicle_type_id":"4","last_reported":1725962985,"current_range_meters":4400,"station_id":"ce4bhn92rcd13ifvqgrg","pricing_plan_id":"cebpf4jnsgd1na2vs0mg"},{"bike_id":"47cbb08f-2c06-4732-9d13-3d24efe47c79","system_id":"levelo_inurba_marseille","lat":43.31222,"lon":5.3687,"is_reserved":false,"is_disabled":false,"rental_uris":{"android":"levelo://app?vid=47cbb08f-2c06-4732-9d13-3d24efe47c79","ios":"levelo://app?vid=47cbb08f-2c06-4732-9d13-3d24efe47c79"},"vehicle_type_id":"4","last_reported":1725962985,"current_range_meters":32000,"station_id":"ce4bgl92rcd13ifvqbq0","pricing_plan_id":"cebpf4jnsgd1na2vs0mg"},{"bike_id":"e79dc6d1-d6a3-467f-a9dd-348e2da1839e","system_id":"levelo_inurba_marseille","lat":43.25571,"lon":5.38232,"is_reserved":false,"is_disabled":false,"rental_uris":{"android":"levelo://app?vid=e79dc6d1-d6a3-467f-a9dd-348e2da1839e","ios":"levelo://app?vid=e79dc6d1-d6a3-467f-a9dd-348e2da1839e"},"vehicle_type_id":"4","last_reported":1725962985,"current_range_meters":30800,"station_id":"ce4bhih2rcd13ifvqfs0","pricing_plan_id":"cebpf4jnsgd1na2vs0mg"},{"bike_id":"46918be4-89f5-4bc3-8e45-c03577c77f12","system_id":"levelo_inurba_marseille","lat":43.2655,"lon":5.37289,"is_reserved":false,"is_disabled":false,"rental_uris":{"android":"levelo://app?vid=46918be4-89f5-4bc3-8e45-c03577c77f12","ios":"levelo://app?vid=46918be4-89f5-4bc3-8e45-c03577c77f12"},"vehicle_type_id":"4","last_reported":1725962985,"current_range_meters":2800,"station_id":"ce4bhg12rcd13ifvqf70","pricing_plan_id":"cebpf4jnsgd1na2vs0mg"},{"bike_id":"8fa562c0-61d1-4dd9-a1fd-6ca60e602a14","system_id":"levelo_inurba_marseille","lat":43.27947,"lon":5.41054,"is_reserved":false,"is_disabled":false,"rental_uris":{"android":"levelo://app?vid=8fa562c0-61d1-4dd9-a1fd-6ca60e602a14","ios":"levelo://app?vid=8fa562c0-61d1-4dd9-a1fd-6ca60e602a14"},"vehicle_type_id":"4","last_reported":1725962985,"current_range_meters":13600,"station_id":"ce4bhnp2rcd13ifvqh0g","pricing_plan_id":"cebpf4jnsgd1na2vs0mg"},{"bike_id":"70741a29-0553-4045-8001-e8b52992dc18","system_id":"levelo_inurba_marseille","lat":43.2985,"lon":5.36281,"is_reserved":false,"is_disabled":false,"rental_uris":{"android":"levelo://app?vid=70741a29-0553-4045-8001-e8b52992dc18","ios":"levelo://app?vid=70741a29-0553-4045-8001-e8b52992dc18"},"vehicle_type_id":"4","last_reported":1725962985,"current_range_meters":14400,"station_id":"ce4bgpp2rcd13ifvqc3g","pricing_plan_id":"cebpf4jnsgd1na2vs0mg"},{"bike_id":"7455bc20-60a5-48d2-9928-62fe204b368f","system_id":"levelo_inurba_marseille","lat":43.26559,"lon":5.39028,"is_reserved":false,"is_disabled":false,"rental_uris":{"android":"levelo://app?vid=7455bc20-60a5-48d2-9928-62fe204b368f","ios":"levelo://app?vid=7455bc20-60a5-48d2-9928-62fe204b368f"},"vehicle_type_id":"4","last_reported":1725962985,"current_range_meters":28800,"station_id":"ce4bhe12rcd13ifvqf30","pricing_plan_id":"cebpf4jnsgd1na2vs0mg"},{"bike_id":"79ce3a4b-4f07-4e66-9cda-0b24b038d7b2","system_id":"levelo_inurba_marseille","lat":43.29411,"lon":5.38612,"is_reserved":false,"is_disabled":false,"rental_uris":{"android":"levelo://app?vid=79ce3a4b-4f07-4e66-9cda-0b24b038d7b2","ios":"levelo://app?vid=79ce3a4b-4f07-4e66-9cda-0b24b038d7b2"},"vehicle_type_id":"4","last_reported":1725962985,"current_range_meters":19200,"station_id":"ce4bh2h2rcd13ifvqdh0","pricing_plan_id":"cebpf4jnsgd1na2vs0mg"},{"bike_id":"3114a5b2-7a72-4442-b882-2ec562eeeb8a","system_id":"levelo_inurba_marseille","lat":43.30602,"lon":5.37222,"is_reserved":false,"is_disabled":false,"rental_uris":{"android":"levelo://app?vid=3114a5b2-7a72-4442-b882-2ec562eeeb8a","ios":"levelo://app?vid=3114a5b2-7a72-4442-b882-2ec562eeeb8a"},"vehicle_type_id":"4","last_reported":1725962985,"current_range_meters":33200,"station_id":"ce4bgqh2rcd13ifvqc4g","pricing_plan_id":"cebpf4jnsgd1na2vs0mg"},{"bike_id":"b67357ee-48ea-4477-9752-bb18a5a0f543","system_id":"levelo_inurba_marseille","lat":43.3189,"lon":5.40738,"is_reserved":false,"is_disabled":false,"rental_uris":{"android":"levelo://app?vid=b67357ee-48ea-4477-9752-bb18a5a0f543","ios":"levelo://app?vid=b67357ee-48ea-4477-9752-bb18a5a0f543"},"vehicle_type_id":"4","last_reported":1725962985,"current_range_meters":9200,"station_id":"ce4bhq12rcd13ifvqhig","pricing_plan_id":"cebpf4jnsgd1na2vs0mg"},{"bike_id":"09cad808-4fa5-4af4-9582-fcade8a6b43f","system_id":"levelo_inurba_marseille","lat":43.27906,"lon":5.39579,"is_reserved":false,"is_disabled":false,"rental_uris":{"android":"levelo://app?vid=09cad808-4fa5-4af4-9582-fcade8a6b43f","ios":"levelo://app?vid=09cad808-4fa5-4af4-9582-fcade8a6b43f"},"vehicle_type_id":"4","last_reported":1725962985,"current_range_meters":28800,"station_id":"ce4bhf92rcd13ifvqf40","pricing_plan_id":"cebpf4jnsgd1na2vs0mg"},{"bike_id":"bf3f6b11-b600-497a-84fe-1a0c1f2f273f","system_id":"levelo_inurba_marseille","lat":43.3237,"lon":5.38926,"is_reserved":false,"is_disabled":false,"rental_uris":{"android":"levelo://app?vid=bf3f6b11-b600-497a-84fe-1a0c1f2f273f","ios":"levelo://app?vid=bf3f6b11-b600-497a-84fe-1a0c1f2f273f"},"vehicle_type_id":"4","last_reported":1725962985,"current_range_meters":19200,"station_id":"","pricing_plan_id":"cebpf4jnsgd1na2vs0mg"},{"bike_id":"0079c45c-cf4f-4265-bc8b-2a233973963f","system_id":"levelo_inurba_marseille","lat":43.29698,"lon":5.37699,"is_reserved":false,"is_disabled":false,"rental_uris":{"android":"levelo://app?vid=0079c45c-cf4f-4265-bc8b-2a233973963f","ios":"levelo://app?vid=0079c45c-cf4f-4265-bc8b-2a233973963f"},"vehicle_type_id":"4","last_reported":1725962985,"current_range_meters":35200,"station_id":"ce4bgkh2rcd13ifvqbl0","pricing_plan_id":"cebpf4jnsgd1na2vs0mg"},{"bike_id":"12db9cfe-630f-454d-95c7-6892d9c7bb48","system_id":"levelo_inurba_marseille","lat":43.24184,"lon":5.39719,"is_reserved":false,"is_disabled":false,"rental_uris":{"android":"levelo://app?vid=12db9cfe-630f-454d-95c7-6892d9c7bb48","ios":"levelo://app?vid=12db9cfe-630f-454d-95c7-6892d9c7bb48"},"vehicle_type_id":"4","last_reported":1725962985,"current_range_meters":5600,"station_id":"ce4bhn12rcd13ifvqgpg","pricing_plan_id":"cebpf4jnsgd1na2vs0mg"},{"bike_id":"db782b2a-4842-4fdf-a084-dd029534648d","system_id":"levelo_inurba_marseille","lat":43.304641,"lon":5.379077,"is_reserved":false,"is_disabled":false,"rental_uris":{"android":"levelo://app?vid=db782b2a-4842-4fdf-a084-dd029534648d","ios":"levelo://app?vid=db782b2a-4842-4fdf-a084-dd029534648d"},"vehicle_type_id":"4","last_reported":1725962985,"current_range_meters":14800,"station_id":"ce4bgup2rcd13ifvqcn0","pricing_plan_id":"cebpf4jnsgd1na2vs0mg"},{"bike_id":"6edf3869-ce40-4622-98ae-b491d4d63322","system_id":"levelo_inurba_marseille","lat":43.32287,"lon":5.38266,"is_reserved":false,"is_disabled":false,"rental_uris":{"android":"levelo://app?vid=6edf3869-ce40-4622-98ae-b491d4d63322","ios":"levelo://app?vid=6edf3869-ce40-4622-98ae-b491d4d63322"},"vehicle_type_id":"4","last_reported":1725962985,"current_range_meters":24000,"station_id":"ce4bhr12rcd13ifvqhqg","pricing_plan_id":"cebpf4jnsgd1na2vs0mg"},{"bike_id":"c751c2ca-b94f-4305-b133-7a17b4775307","system_id":"levelo_inurba_marseille","lat":43.24385,"lon":5.37054,"is_reserved":false,"is_disabled":false,"rental_uris":{"android":"levelo://app?vid=c751c2ca-b94f-4305-b133-7a17b4775307","ios":"levelo://app?vid=c751c2ca-b94f-4305-b133-7a17b4775307"},"vehicle_type_id":"4","last_reported":1725962985,"current_range_meters":35200,"station_id":"ce4bhhh2rcd13ifvqfk0","pricing_plan_id":"cebpf4jnsgd1na2vs0mg"},{"bike_id":"2fab2f64-f490-4758-921a-3009b4ba8bca","system_id":"levelo_inurba_marseille","lat":43.32284,"lon":5.38276,"is_reserved":false,"is_disabled":false,"rental_uris":{"android":"levelo://app?vid=2fab2f64-f490-4758-921a-3009b4ba8bca","ios":"levelo://app?vid=2fab2f64-f490-4758-921a-3009b4ba8bca"},"vehicle_type_id":"4","last_reported":1725962985,"current_range_meters":37600,"station_id":"ce4bhr12rcd13ifvqhqg","pricing_plan_id":"cebpf4jnsgd1na2vs0mg"},{"bike_id":"f7457afc-7b2d-4967-aa3c-2e73db815854","system_id":"levelo_inurba_marseille","lat":43.30777,"lon":5.37655,"is_reserved":false,"is_disabled":false,"rental_uris":{"android":"levelo://app?vid=f7457afc-7b2d-4967-aa3c-2e73db815854","ios":"levelo://app?vid=f7457afc-7b2d-4967-aa3c-2e73db815854"},"vehicle_type_id":"4","last_reported":1725962985,"current_range_meters":3200,"station_id":"ce4bgv92rcd13ifvqcq0","pricing_plan_id":"cebpf4jnsgd1na2vs0mg"},{"bike_id":"edac87a1-5f7e-4651-9c01-02b00a858d2b","system_id":"levelo_inurba_marseille","lat":43.27571,"lon":5.38418,"is_reserved":false,"is_disabled":false,"rental_uris":{"android":"levelo://app?vid=edac87a1-5f7e-4651-9c01-02b00a858d2b","ios":"levelo://app?vid=edac87a1-5f7e-4651-9c01-02b00a858d2b"},"vehicle_type_id":"4","last_reported":1725962985,"current_range_meters":23200,"station_id":"ce4bhh92rcd13ifvqfi0","pricing_plan_id":"cebpf4jnsgd1na2vs0mg"},{"bike_id":"ed20d286-dfd3-45ec-a14e-f3a2ef2461f4","system_id":"levelo_inurba_marseille","lat":43.29988,"lon":5.38477,"is_reserved":false,"is_disabled":false,"rental_uris":{"android":"levelo://app?vid=ed20d286-dfd3-45ec-a14e-f3a2ef2461f4","ios":"levelo://app?vid=ed20d286-dfd3-45ec-a14e-f3a2ef2461f4"},"vehicle_type_id":"4","last_reported":1725962985,"current_range_meters":37600,"station_id":"ce4bgj92rcd13ifvqbd0","pricing_plan_id":"cebpf4jnsgd1na2vs0mg"},{"bike_id":"d48e0dec-518d-4e84-94f6-11981c7616c0","system_id":"levelo_inurba_marseille","lat":43.24075,"lon":5.37758,"is_reserved":false,"is_disabled":false,"rental_uris":{"android":"levelo://app?vid=d48e0dec-518d-4e84-94f6-11981c7616c0","ios":"levelo://app?vid=d48e0dec-518d-4e84-94f6-11981c7616c0"},"vehicle_type_id":"4","last_reported":1725962985,"current_range_meters":27600,"station_id":"ce4bhnp2rcd13ifvqgvg","pricing_plan_id":"cebpf4jnsgd1na2vs0mg"},{"bike_id":"109a1101-907d-480f-b4f1-6cd46320c406","system_id":"levelo_inurba_marseille","lat":43.3054,"lon":5.36535,"is_reserved":false,"is_disabled":false,"rental_uris":{"android":"levelo://app?vid=109a1101-907d-480f-b4f1-6cd46320c406","ios":"levelo://app?vid=109a1101-907d-480f-b4f1-6cd46320c406"},"vehicle_type_id":"4","last_reported":1725962985,"current_range_meters":22000,"station_id":"ce4bgs12rcd13ifvqcag","pricing_plan_id":"cebpf4jnsgd1na2vs0mg"},{"bike_id":"72f833ca-370e-469e-a6b2-a3b2bf6fb689","system_id":"levelo_inurba_marseille","lat":43.33756,"lon":5.37435,"is_reserved":false,"is_disabled":false,"rental_uris":{"android":"levelo://app?vid=72f833ca-370e-469e-a6b2-a3b2bf6fb689","ios":"levelo://app?vid=72f833ca-370e-469e-a6b2-a3b2bf6fb689"},"vehicle_type_id":"4","last_reported":1725962985,"current_range_meters":36000,"station_id":"","pricing_plan_id":"cebpf4jnsgd1na2vs0mg"},{"bike_id":"33213214-87ce-482e-ac13-ffac3bcae723","system_id":"levelo_inurba_marseille","lat":43.29584,"lon":5.38108,"is_reserved":false,"is_disabled":false,"rental_uris":{"android":"levelo://app?vid=33213214-87ce-482e-ac13-ffac3bcae723","ios":"levelo://app?vid=33213214-87ce-482e-ac13-ffac3bcae723"},"vehicle_type_id":"4","last_reported":1725962985,"current_range_meters":12800,"station_id":"ce4bgl12rcd13ifvqbo0","pricing_plan_id":"cebpf4jnsgd1na2vs0mg"},{"bike_id":"8625df24-6ee1-46a4-bd44-cb45337f0548","system_id":"levelo_inurba_marseille","lat":43.29877,"lon":5.39728,"is_reserved":false,"is_disabled":false,"rental_uris":{"android":"levelo://app?vid=8625df24-6ee1-46a4-bd44-cb45337f0548","ios":"levelo://app?vid=8625df24-6ee1-46a4-bd44-cb45337f0548"},"vehicle_type_id":"4","last_reported":1725962985,"current_range_meters":22000,"station_id":"ce4bh0h2rcd13ifvqd50","pricing_plan_id":"cebpf4jnsgd1na2vs0mg"},{"bike_id":"97e6c8e4-f770-4de0-ba9b-deb2b2948e9c","system_id":"levelo_inurba_marseille","lat":43.25935,"lon":5.40904,"is_reserved":false,"is_disabled":false,"rental_uris":{"android":"levelo://app?vid=97e6c8e4-f770-4de0-ba9b-deb2b2948e9c","ios":"levelo://app?vid=97e6c8e4-f770-4de0-ba9b-deb2b2948e9c"},"vehicle_type_id":"4","last_reported":1725962985,"current_range_meters":17200,"station_id":"ce4bhm92rcd13ifvqglg","pricing_plan_id":"cebpf4jnsgd1na2vs0mg"},{"bike_id":"a56e0313-2f46-466c-b71e-0dddf2401d63","system_id":"levelo_inurba_marseille","lat":43.23051,"lon":5.35484,"is_reserved":false,"is_disabled":false,"rental_uris":{"android":"levelo://app?vid=a56e0313-2f46-466c-b71e-0dddf2401d63","ios":"levelo://app?vid=a56e0313-2f46-466c-b71e-0dddf2401d63"},"vehicle_type_id":"4","last_reported":1725962985,"current_range_meters":20400,"station_id":"cpo3342slgdg3j2ifvpg","pricing_plan_id":"cebpf4jnsgd1na2vs0mg"},{"bike_id":"b182df05-ebe1-4122-a462-3c5c0cc47e4a","system_id":"levelo_inurba_marseille","lat":43.28097,"lon":5.37842,"is_reserved":false,"is_disabled":false,"rental_uris":{"android":"levelo://app?vid=b182df05-ebe1-4122-a462-3c5c0cc47e4a","ios":"levelo://app?vid=b182df05-ebe1-4122-a462-3c5c0cc47e4a"},"vehicle_type_id":"4","last_reported":1725962985,"current_range_meters":19600,"station_id":"ce4bha12rcd13ifvqee0","pricing_plan_id":"cebpf4jnsgd1na2vs0mg"},{"bike_id":"2f66624b-8c0e-4d51-8d2d-6d9ca5e77fa9","system_id":"levelo_inurba_marseille","lat":43.304618,"lon":5.378975,"is_reserved":false,"is_disabled":false,"rental_uris":{"android":"levelo://app?vid=2f66624b-8c0e-4d51-8d2d-6d9ca5e77fa9","ios":"levelo://app?vid=2f66624b-8c0e-4d51-8d2d-6d9ca5e77fa9"},"vehicle_type_id":"4","last_reported":1725962985,"current_range_meters":26000,"station_id":"ce4bgup2rcd13ifvqcn0","pricing_plan_id":"cebpf4jnsgd1na2vs0mg"},{"bike_id":"1d82499c-a78f-4123-82d2-ca52e3982e4c","system_id":"levelo_inurba_marseille","lat":43.33767,"lon":5.37412,"is_reserved":false,"is_disabled":false,"rental_uris":{"android":"levelo://app?vid=1d82499c-a78f-4123-82d2-ca52e3982e4c","ios":"levelo://app?vid=1d82499c-a78f-4123-82d2-ca52e3982e4c"},"vehicle_type_id":"4","last_reported":1725962985,"current_range_meters":34000,"station_id":"","pricing_plan_id":"cebpf4jnsgd1na2vs0mg"},{"bike_id":"65f04ae2-5928-4790-984a-ab13e03897bd","system_id":"levelo_inurba_marseille","lat":43.23961,"lon":5.36629,"is_reserved":false,"is_disabled":false,"rental_uris":{"android":"levelo://app?vid=65f04ae2-5928-4790-984a-ab13e03897bd","ios":"levelo://app?vid=65f04ae2-5928-4790-984a-ab13e03897bd"},"vehicle_type_id":"4","last_reported":1725962985,"current_range_meters":2000,"station_id":"ce4bhi12rcd13ifvqfp0","pricing_plan_id":"cebpf4jnsgd1na2vs0mg"},{"bike_id":"59d2893a-d1ce-4346-9856-cf825097e6cb","system_id":"levelo_inurba_marseille","lat":43.23188,"lon":5.35554,"is_reserved":false,"is_disabled":false,"rental_uris":{"android":"levelo://app?vid=59d2893a-d1ce-4346-9856-cf825097e6cb","ios":"levelo://app?vid=59d2893a-d1ce-4346-9856-cf825097e6cb"},"vehicle_type_id":"4","last_reported":1725962985,"current_range_meters":23200,"station_id":"ce4bhu92rcd13ifvqi70","pricing_plan_id":"cebpf4jnsgd1na2vs0mg"},{"bike_id":"340e4376-2578-41a7-8b22-74d628f1e3d4","system_id":"levelo_inurba_marseille","lat":43.2668,"lon":5.38264,"is_reserved":false,"is_disabled":false,"rental_uris":{"android":"levelo://app?vid=340e4376-2578-41a7-8b22-74d628f1e3d4","ios":"levelo://app?vid=340e4376-2578-41a7-8b22-74d628f1e3d4"},"vehicle_type_id":"4","last_reported":1725962985,"current_range_meters":37600,"station_id":"ce4bhg92rcd13ifvqf90","pricing_plan_id":"cebpf4jnsgd1na2vs0mg"},{"bike_id":"45a1624e-6516-4350-bfa4-5b695cffef6a","system_id":"levelo_inurba_marseille","lat":43.22923,"lon":5.35375,"is_reserved":false,"is_disabled":false,"rental_uris":{"android":"levelo://app?vid=45a1624e-6516-4350-bfa4-5b695cffef6a","ios":"levelo://app?vid=45a1624e-6516-4350-bfa4-5b695cffef6a"},"vehicle_type_id":"4","last_reported":1725962985,"current_range_meters":36000,"station_id":"cpo3532slgdg3j2ikp40","pricing_plan_id":"cebpf4jnsgd1na2vs0mg"},{"bike_id":"fdcfd745-c154-4bd2-90b5-6f3754127509","system_id":"levelo_inurba_marseille","lat":43.30631,"lon":5.40083,"is_reserved":false,"is_disabled":false,"rental_uris":{"android":"levelo://app?vid=fdcfd745-c154-4bd2-90b5-6f3754127509","ios":"levelo://app?vid=fdcfd745-c154-4bd2-90b5-6f3754127509"},"vehicle_type_id":"4","last_reported":1725962985,"current_range_meters":33200,"station_id":"ce4bh112rcd13ifvqda0","pricing_plan_id":"cebpf4jnsgd1na2vs0mg"},{"bike_id":"4a1cb237-1220-47d5-81e2-342a5bf16cbb","system_id":"levelo_inurba_marseille","lat":43.26672,"lon":5.38269,"is_reserved":false,"is_disabled":false,"rental_uris":{"android":"levelo://app?vid=4a1cb237-1220-47d5-81e2-342a5bf16cbb","ios":"levelo://app?vid=4a1cb237-1220-47d5-81e2-342a5bf16cbb"},"vehicle_type_id":"4","last_reported":1725962985,"current_range_meters":6800,"station_id":"ce4bhg92rcd13ifvqf90","pricing_plan_id":"cebpf4jnsgd1na2vs0mg"},{"bike_id":"5b547e5c-9568-4487-8ab6-36f5b38b1b3e","system_id":"levelo_inurba_marseille","lat":43.32537,"lon":5.41433,"is_reserved":false,"is_disabled":false,"rental_uris":{"android":"levelo://app?vid=5b547e5c-9568-4487-8ab6-36f5b38b1b3e","ios":"levelo://app?vid=5b547e5c-9568-4487-8ab6-36f5b38b1b3e"},"vehicle_type_id":"4","last_reported":1725962985,"current_range_meters":32400,"station_id":"ce4bhq12rcd13ifvqhhg","pricing_plan_id":"cebpf4jnsgd1na2vs0mg"},{"bike_id":"9196df18-9a9c-4b51-98df-8f9e9ec66837","system_id":"levelo_inurba_marseille","lat":43.2997,"lon":5.3851,"is_reserved":false,"is_disabled":false,"rental_uris":{"android":"levelo://app?vid=9196df18-9a9c-4b51-98df-8f9e9ec66837","ios":"levelo://app?vid=9196df18-9a9c-4b51-98df-8f9e9ec66837"},"vehicle_type_id":"4","last_reported":1725962985,"current_range_meters":17600,"station_id":"ce4bgj92rcd13ifvqbd0","pricing_plan_id":"cebpf4jnsgd1na2vs0mg"},{"bike_id":"35b4ccbe-337e-42f5-b64b-d3d4516b0316","system_id":"levelo_inurba_marseille","lat":43.27491,"lon":5.42457,"is_reserved":false,"is_disabled":false,"rental_uris":{"android":"levelo://app?vid=35b4ccbe-337e-42f5-b64b-d3d4516b0316","ios":"levelo://app?vid=35b4ccbe-337e-42f5-b64b-d3d4516b0316"},"vehicle_type_id":"4","last_reported":1725962985,"current_range_meters":30400,"station_id":"ce4bhn92rcd13ifvqgrg","pricing_plan_id":"cebpf4jnsgd1na2vs0mg"},{"bike_id":"36957c4a-63f7-4ac2-b13f-75039c754322","system_id":"levelo_inurba_marseille","lat":43.31324,"lon":5.39697,"is_reserved":false,"is_disabled":false,"rental_uris":{"android":"levelo://app?vid=36957c4a-63f7-4ac2-b13f-75039c754322","ios":"levelo://app?vid=36957c4a-63f7-4ac2-b13f-75039c754322"},"vehicle_type_id":"4","last_reported":1725962985,"current_range_meters":38000,"station_id":"ce4bgvp2rcd13ifvqcu0","pricing_plan_id":"cebpf4jnsgd1na2vs0mg"},{"bike_id":"86af965d-dd49-4cce-8d0e-179a3a1140da","system_id":"levelo_inurba_marseille","lat":43.28147,"lon":5.42635,"is_reserved":false,"is_disabled":false,"rental_uris":{"android":"levelo://app?vid=86af965d-dd49-4cce-8d0e-179a3a1140da","ios":"levelo://app?vid=86af965d-dd49-4cce-8d0e-179a3a1140da"},"vehicle_type_id":"4","last_reported":1725962985,"current_range_meters":2000,"station_id":"ce4bhnh2rcd13ifvqgug","pricing_plan_id":"cebpf4jnsgd1na2vs0mg"},{"bike_id":"05cb5848-ebf7-46a9-a9d1-ab48b7d12f4e","system_id":"levelo_inurba_marseille","lat":43.337444,"lon":5.374475,"is_reserved":false,"is_disabled":false,"rental_uris":{"android":"levelo://app?vid=05cb5848-ebf7-46a9-a9d1-ab48b7d12f4e","ios":"levelo://app?vid=05cb5848-ebf7-46a9-a9d1-ab48b7d12f4e"},"vehicle_type_id":"4","last_reported":1725962985,"current_range_meters":33600,"station_id":"ce4bgj92rcd13ifvqbd0","pricing_plan_id":"cebpf4jnsgd1na2vs0mg"},{"bike_id":"414f5def-dd0c-49b8-9345-99091281a72f","system_id":"levelo_inurba_marseille","lat":43.26562,"lon":5.39007,"is_reserved":false,"is_disabled":false,"rental_uris":{"android":"levelo://app?vid=414f5def-dd0c-49b8-9345-99091281a72f","ios":"levelo://app?vid=414f5def-dd0c-49b8-9345-99091281a72f"},"vehicle_type_id":"4","last_reported":1725962985,"current_range_meters":28800,"station_id":"ce4bhe12rcd13ifvqf30","pricing_plan_id":"cebpf4jnsgd1na2vs0mg"},{"bike_id":"8a92911d-84cf-454f-a436-584aceecde9f","system_id":"levelo_inurba_marseille","lat":43.30328,"lon":5.394876,"is_reserved":false,"is_disabled":false,"rental_uris":{"android":"levelo://app?vid=8a92911d-84cf-454f-a436-584aceecde9f","ios":"levelo://app?vid=8a92911d-84cf-454f-a436-584aceecde9f"},"vehicle_type_id":"4","last_reported":1725962985,"current_range_meters":10000,"station_id":"","pricing_plan_id":"cebpf4jnsgd1na2vs0mg"},{"bike_id":"cec62b90-ad02-4595-b497-cd64d99bf98c","system_id":"levelo_inurba_marseille","lat":43.30533,"lon":5.36706,"is_reserved":false,"is_disabled":false,"rental_uris":{"android":"levelo://app?vid=cec62b90-ad02-4595-b497-cd64d99bf98c","ios":"levelo://app?vid=cec62b90-ad02-4595-b497-cd64d99bf98c"},"vehicle_type_id":"4","last_reported":1725962985,"current_range_meters":38800,"station_id":"ce4bgrp2rcd13ifvqc9g","pricing_plan_id":"cebpf4jnsgd1na2vs0mg"},{"bike_id":"c5dc93f6-8053-4f23-bb41-f2459549562a","system_id":"levelo_inurba_marseille","lat":43.30185,"lon":5.36615,"is_reserved":false,"is_disabled":false,"rental_uris":{"android":"levelo://app?vid=c5dc93f6-8053-4f23-bb41-f2459549562a","ios":"levelo://app?vid=c5dc93f6-8053-4f23-bb41-f2459549562a"},"vehicle_type_id":"4","last_reported":1725962985,"current_range_meters":37600,"station_id":"ce4bgrh2rcd13ifvqc8g","pricing_plan_id":"cebpf4jnsgd1na2vs0mg"},{"bike_id":"7d4236b0-d19b-4de7-acc4-1c5f7f5686c5","system_id":"levelo_inurba_marseille","lat":43.23148,"lon":5.43716,"is_reserved":false,"is_disabled":false,"rental_uris":{"android":"levelo://app?vid=7d4236b0-d19b-4de7-acc4-1c5f7f5686c5","ios":"levelo://app?vid=7d4236b0-d19b-4de7-acc4-1c5f7f5686c5"},"vehicle_type_id":"4","last_reported":1725962985,"current_range_meters":17600,"station_id":"ce4bhmp2rcd13ifvqgog","pricing_plan_id":"cebpf4jnsgd1na2vs0mg"},{"bike_id":"4e28ee3d-d1b1-4404-aed6-2f5cff9e1ef8","system_id":"levelo_inurba_marseille","lat":43.24064,"lon":5.37751,"is_reserved":false,"is_disabled":false,"rental_uris":{"android":"levelo://app?vid=4e28ee3d-d1b1-4404-aed6-2f5cff9e1ef8","ios":"levelo://app?vid=4e28ee3d-d1b1-4404-aed6-2f5cff9e1ef8"},"vehicle_type_id":"4","last_reported":1725962985,"current_range_meters":28400,"station_id":"ce4bhnp2rcd13ifvqgvg","pricing_plan_id":"cebpf4jnsgd1na2vs0mg"},{"bike_id":"c3e94df1-f397-498b-9b76-10c64047777c","system_id":"levelo_inurba_marseille","lat":43.32059,"lon":5.4153,"is_reserved":false,"is_disabled":false,"rental_uris":{"android":"levelo://app?vid=c3e94df1-f397-498b-9b76-10c64047777c","ios":"levelo://app?vid=c3e94df1-f397-498b-9b76-10c64047777c"},"vehicle_type_id":"4","last_reported":1725962985,"current_range_meters":28800,"station_id":"ce4bhq92rcd13ifvqhkg","pricing_plan_id":"cebpf4jnsgd1na2vs0mg"},{"bike_id":"146c1806-743d-4d81-b8ce-b5941ac15c8a","system_id":"levelo_inurba_marseille","lat":43.24171,"lon":5.39722,"is_reserved":false,"is_disabled":false,"rental_uris":{"android":"levelo://app?vid=146c1806-743d-4d81-b8ce-b5941ac15c8a","ios":"levelo://app?vid=146c1806-743d-4d81-b8ce-b5941ac15c8a"},"vehicle_type_id":"4","last_reported":1725962985,"current_range_meters":19200,"station_id":"ce4bhn12rcd13ifvqgpg","pricing_plan_id":"cebpf4jnsgd1na2vs0mg"},{"bike_id":"69908236-c089-462c-ae01-d50dff0bbe0f","system_id":"levelo_inurba_marseille","lat":43.26944,"lon":5.38636,"is_reserved":false,"is_disabled":false,"rental_uris":{"android":"levelo://app?vid=69908236-c089-462c-ae01-d50dff0bbe0f","ios":"levelo://app?vid=69908236-c089-462c-ae01-d50dff0bbe0f"},"vehicle_type_id":"4","last_reported":1725962985,"current_range_meters":14800,"station_id":"ce4bhh92rcd13ifvqfh0","pricing_plan_id":"cebpf4jnsgd1na2vs0mg"},{"bike_id":"f9775d8f-4220-4ed5-bf5f-6156401c86a7","system_id":"levelo_inurba_marseille","lat":43.33024,"lon":5.39045,"is_reserved":false,"is_disabled":false,"rental_uris":{"android":"levelo://app?vid=f9775d8f-4220-4ed5-bf5f-6156401c86a7","ios":"levelo://app?vid=f9775d8f-4220-4ed5-bf5f-6156401c86a7"},"vehicle_type_id":"4","last_reported":1725962985,"current_range_meters":38800,"station_id":"ce4bhr92rcd13ifvqhrg","pricing_plan_id":"cebpf4jnsgd1na2vs0mg"},{"bike_id":"6897eed4-2ba2-49f7-93db-4900d9e0f691","system_id":"levelo_inurba_marseille","lat":43.31358,"lon":5.36694,"is_reserved":false,"is_disabled":false,"rental_uris":{"android":"levelo://app?vid=6897eed4-2ba2-49f7-93db-4900d9e0f691","ios":"levelo://app?vid=6897eed4-2ba2-49f7-93db-4900d9e0f691"},"vehicle_type_id":"4","last_reported":1725962985,"current_range_meters":38800,"station_id":"ce4bgr92rcd13ifvqc6g","pricing_plan_id":"cebpf4jnsgd1na2vs0mg"},{"bike_id":"dbb073ab-dd15-4525-b75b-4ca3c2f4de0f","system_id":"levelo_inurba_marseille","lat":43.32536,"lon":5.41441,"is_reserved":false,"is_disabled":false,"rental_uris":{"android":"levelo://app?vid=dbb073ab-dd15-4525-b75b-4ca3c2f4de0f","ios":"levelo://app?vid=dbb073ab-dd15-4525-b75b-4ca3c2f4de0f"},"vehicle_type_id":"4","last_reported":1725962985,"current_range_meters":16800,"station_id":"ce4bhq12rcd13ifvqhhg","pricing_plan_id":"cebpf4jnsgd1na2vs0mg"},{"bike_id":"d7d8c95c-9a73-4f31-b7ca-0c01751303a0","system_id":"levelo_inurba_marseille","lat":43.23052,"lon":5.3549,"is_reserved":false,"is_disabled":false,"rental_uris":{"android":"levelo://app?vid=d7d8c95c-9a73-4f31-b7ca-0c01751303a0","ios":"levelo://app?vid=d7d8c95c-9a73-4f31-b7ca-0c01751303a0"},"vehicle_type_id":"4","last_reported":1725962985,"current_range_meters":11600,"station_id":"cpo3342slgdg3j2ifvpg","pricing_plan_id":"cebpf4jnsgd1na2vs0mg"},{"bike_id":"ae1eb74c-347c-482e-8930-4dc428cc17f0","system_id":"levelo_inurba_marseille","lat":43.34138,"lon":5.40895,"is_reserved":false,"is_disabled":false,"rental_uris":{"android":"levelo://app?vid=ae1eb74c-347c-482e-8930-4dc428cc17f0","ios":"levelo://app?vid=ae1eb74c-347c-482e-8930-4dc428cc17f0"},"vehicle_type_id":"4","last_reported":1725962985,"current_range_meters":32400,"station_id":"ce4bhqh2rcd13ifvqhlg","pricing_plan_id":"cebpf4jnsgd1na2vs0mg"},{"bike_id":"cf0e8986-f6a9-4f5b-9547-4ee9fd512e06","system_id":"levelo_inurba_marseille","lat":43.28176,"lon":5.40457,"is_reserved":false,"is_disabled":false,"rental_uris":{"android":"levelo://app?vid=cf0e8986-f6a9-4f5b-9547-4ee9fd512e06","ios":"levelo://app?vid=cf0e8986-f6a9-4f5b-9547-4ee9fd512e06"},"vehicle_type_id":"4","last_reported":1725962985,"current_range_meters":32400,"station_id":"","pricing_plan_id":"cebpf4jnsgd1na2vs0mg"},{"bike_id":"211d0445-91cf-4359-9cc6-2a0078f6c6c3","system_id":"levelo_inurba_marseille","lat":43.28931,"lon":5.384,"is_reserved":false,"is_disabled":false,"rental_uris":{"android":"levelo://app?vid=211d0445-91cf-4359-9cc6-2a0078f6c6c3","ios":"levelo://app?vid=211d0445-91cf-4359-9cc6-2a0078f6c6c3"},"vehicle_type_id":"4","last_reported":1725962985,"current_range_meters":8000,"station_id":"ce4bh612rcd13ifvqe6g","pricing_plan_id":"cebpf4jnsgd1na2vs0mg"},{"bike_id":"81eff286-73f5-44d2-a99b-953b9fc80768","system_id":"levelo_inurba_marseille","lat":43.24649,"lon":5.38888,"is_reserved":false,"is_disabled":false,"rental_uris":{"android":"levelo://app?vid=81eff286-73f5-44d2-a99b-953b9fc80768","ios":"levelo://app?vid=81eff286-73f5-44d2-a99b-953b9fc80768"},"vehicle_type_id":"4","last_reported":1725962985,"current_range_meters":28000,"station_id":"ce4bhg12rcd13ifvqf60","pricing_plan_id":"cebpf4jnsgd1na2vs0mg"},{"bike_id":"f02409e4-bdfe-4abb-b9ee-85a740c8bf04","system_id":"levelo_inurba_marseille","lat":43.27492,"lon":5.42454,"is_reserved":false,"is_disabled":false,"rental_uris":{"android":"levelo://app?vid=f02409e4-bdfe-4abb-b9ee-85a740c8bf04","ios":"levelo://app?vid=f02409e4-bdfe-4abb-b9ee-85a740c8bf04"},"vehicle_type_id":"4","last_reported":1725962985,"current_range_meters":12400,"station_id":"ce4bhn92rcd13ifvqgrg","pricing_plan_id":"cebpf4jnsgd1na2vs0mg"},