{"last_updated":1680019937,"ttl":30,"version":"2.2","data":{"bikes":[{"bike_id":"172025e3-00b4-41d9-bff9-82b62ea0febb","system_id":"levelo_inurba_marseille","lat":43.312247,"lon":5.368667,"is_reserved":false,"is_disabled":false,"rental_uris":{"android":"levelo://app?vid=172025e3-00b4-41d9-bff9-82b62ea0febb","ios":"levelo://app?vid=172025e3-00b4-41d9-bff9-82b62ea0febb"},"vehicle_type_id":"4","last_reported":1680019938,"current_range_meters":14800,"station_id":"","pricing_plan_id":"free"},{"bike_id":"f8969f0d-0b89-463e-adba-213c7cd7bd16","system_id":"levelo_inurba_marseille","lat":43.309096,"lon":5.368464,"is_reserved":false,"is_disabled":false,"rental_uris":{"android":"levelo://app?vid=f8969f0d-0b89-463e-adba-213c7cd7bd16","ios":"levelo://app?vid=f8969f0d-0b89-463e-adba-213c7cd7bd16"},"vehicle_type_id":"4","last_reported":1680019938,"current_range_meters":0,"station_id":"ce4bgn92rcd13ifvqbvg","pricing_plan_id":"free"},{"bike_id":"5f3777ae-ad4d-46de-9119-b611b164faf8","system_id":"levelo_inurba_marseille","lat":43.314824,"lon":5.373091,"is_reserved":false,"is_disabled":false,"rental_uris":{"android":"levelo://app?vid=5f3777ae-ad4d-46de-9119-b611b164faf8","ios":"levelo://app?vid=5f3777ae-ad4d-46de-9119-b611b164faf8"},"vehicle_type_id":"4","last_reported":1680019938,"current_range_meters":14000,"station_id":"","pricing_plan_id":"free"},{"bike_id":"23544212-aad4-4f90-902b-94bee1188b0a","system_id":"levelo_inurba_marseille","lat":43.314811,"lon":5.373104,"is_reserved":false,"is_disabled":false,"rental_uris":{"android":"levelo://app?vid=23544212-aad4-4f90-902b-94bee1188b0a","ios":"levelo://app?vid=23544212-aad4-4f90-902b-94bee1188b0a"},"vehicle_type_id":"4","last_reported":1680019938,"current_range_meters":19200,"station_id":"ce4bgt12rcd13ifvqcd0","pricing_plan_id":"free"},{"bike_id":"3655bf6f-35dd-43a2-a6a8-ede32fbeb7f6","system_id":"levelo_inurba_marseille","lat":43.305989,"lon":5.37225,"is_reserved":false,"is_disabled":false,"rental_uris":{"android":"levelo://app?vid=3655bf6f-35dd-43a2-a6a8-ede32fbeb7f6","ios":"levelo://app?vid=3655bf6f-35dd-43a2-a6a8-ede32fbeb7f6"},"vehicle_type_id":"4","last_reported":1680019938,"current_range_meters":0,"station_id":"ce4bgqh2rcd13ifvqc4g","pricing_plan_id":"free"},{"bike_id":"e287735d-58bc-4309-8c76-e31203bc9f2e","system_id":"levelo_inurba_marseille","lat":43.301939,"lon":5.366286,"is_reserved":false,"is_disabled":false,"rental_uris":{"android":"levelo://app?vid=e287735d-58bc-4309-8c76-e31203bc9f2e","ios":"levelo://app?vid=e287735d-58bc-4309-8c76-e31203bc9f2e"},"vehicle_type_id":"4","last_reported":1680019938,"current_range_meters":0,"station_id":"ce4bgrh2rcd13ifvqc8g","pricing_plan_id":"free"},{"bike_id":"6a22b85e-9024-4566-a063-a5315f38a062","system_id":"levelo_inurba_marseille","lat":43.295169,"lon":5.390426,"is_reserved":false,"is_disabled":false,"rental_uris":{"android":"levelo://app?vid=6a22b85e-9024-4566-a063-a5315f38a062","ios":"levelo://app?vid=6a22b85e-9024-4566-a063-a5315f38a062"},"vehicle_type_id":"4","last_reported":1680019938,"current_range_meters":6400,"station_id":"ce4bh3p2rcd13ifvqdp0","pricing_plan_id":"free"},{"bike_id":"5d3d416e-c440-47d6-a711-d91cdbeabe51","system_id":"levelo_inurba_marseille","lat":43.30143,"lon":5.37413,"is_reserved":false,"is_disabled":false,"rental_uris":{"android":"levelo://app?vid=5d3d416e-c440-47d6-a711-d91cdbeabe51","ios":"levelo://app?vid=5d3d416e-c440-47d6-a711-d91cdbeabe51"},"vehicle_type_id":"4","last_reported":1680019938,"current_range_meters":0,"station_id":"ce4bgs92rcd13ifvqcc0","pricing_plan_id":"free"},{"bike_id":"6b09ae73-bf90-46af-ab4e-0361de66f17f","system_id":"levelo_inurba_marseille","lat":43.299094,"lon":5.365415,"is_reserved":false,"is_disabled":false,"rental_uris":{"android":"levelo://app?vid=6b09ae73-bf90-46af-ab4e-0361de66f17f","ios":"levelo://app?vid=6b09ae73-bf90-46af-ab4e-0361de66f17f"},"vehicle_type_id":"4","last_reported":1680019938,"current_range_meters":11200,"station_id":"ce4bgm92rcd13ifvqbr0","pricing_plan_id":"free"},{"bike_id":"19f4de43-746b-444a-85c7-ee395e1cbc06","system_id":"levelo_inurba_marseille","lat":43.30533,"lon":5.3842,"is_reserved":false,"is_disabled":false,"rental_uris":{"android":"levelo://app?vid=19f4de43-746b-444a-85c7-ee395e1cbc06","ios":"levelo://app?vid=19f4de43-746b-444a-85c7-ee395e1cbc06"},"vehicle_type_id":"4","last_reported":1680019938,"current_range_meters":6800,"station_id":"ce4bgg92rcd13ifvqb30","pricing_plan_id":"free"},{"bike_id":"b7f89f0b-e8c1-45e4-96c4-acb856c9b01c","system_id":"levelo_inurba_marseille","lat":43.32827,"lon":5.36692,"is_reserved":false,"is_disabled":false,"rental_uris":{"android":"levelo://app?vid=b7f89f0b-e8c1-45e4-96c4-acb856c9b01c","ios":"levelo://app?vid=b7f89f0b-e8c1-45e4-96c4-acb856c9b01c"},"vehicle_type_id":"4","last_reported":1680019938,"current_range_meters":5600,"station_id":"ce4bhs92rcd13ifvqi0g","pricing_plan_id":"free"},{"bike_id":"c8cd3690-ee29-4baf-854a-92efd00d9c09","system_id":"levelo_inurba_marseille","lat":43.328281,"lon":5.366841,"is_reserved":false,"is_disabled":false,"rental_uris":{"android":"levelo://app?vid=c8cd3690-ee29-4baf-854a-92efd00d9c09","ios":"levelo://app?vid=c8cd3690-ee29-4baf-854a-92efd00d9c09"},"vehicle_type_id":"4","last_reported":1680019938,"current_range_meters":0,"station_id":"","pricing_plan_id":"free"},{"bike_id":"df22e8ea-87e7-411b-8d60-cf4f008750cc","system_id":"levelo_inurba_marseille","lat":43.328347,"lon":5.36698,"is_reserved":false,"is_disabled":false,"rental_uris":{"android":"levelo://app?vid=df22e8ea-87e7-411b-8d60-cf4f008750cc","ios":"levelo://app?vid=df22e8ea-87e7-411b-8d60-cf4f008750cc"},"vehicle_type_id":"4","last_reported":1680019938,"current_range_meters":0,"station_id":"ce4bhs92rcd13ifvqi0g","pricing_plan_id":"free"},{"bike_id":"0a6f9038-e349-42d5-aee4-2ba333388edc","system_id":"levelo_inurba_marseille","lat":43.29589,"lon":5.36752,"is_reserved":false,"is_disabled":false,"rental_uris":{"android":"levelo://app?vid=0a6f9038-e349-42d5-aee4-2ba333388edc","ios":"levelo://app?vid=0a6f9038-e349-42d5-aee4-2ba333388edc"},"vehicle_type_id":"4","last_reported":1680019938,"current_range_meters":0,"station_id":"ce4bgph2rcd13ifvqc2g","pricing_plan_id":"free"},{"bike_id":"7b913cd8-7fe0-4d1e-93e5-07cd7995e217","system_id":"levelo_inurba_marseille","lat":43.29573,"lon":5.367355,"is_reserved":false,"is_disabled":false,"rental_uris":{"android":"levelo://app?vid=7b913cd8-7fe0-4d1e-93e5-07cd7995e217","ios":"levelo://app?vid=7b913cd8-7fe0-4d1e-93e5-07cd7995e217"},"vehicle_type_id":"4","last_reported":1680019938,"current_range_meters":12800,"station_id":"ce4bgph2rcd13ifvqc2g","pricing_plan_id":"free"},{"bike_id":"22269f18-52ea-411e-9496-876e95b381c7","system_id":"levelo_inurba_marseille","lat":43.29573,"lon":5.367355,"is_reserved":false,"is_disabled":false,"rental_uris":{"android":"levelo://app?vid=22269f18-52ea-411e-9496-876e95b381c7","ios":"levelo://app?vid=22269f18-52ea-411e-9496-876e95b381c7"},"vehicle_type_id":"4","last_reported":1680019938,"current_range_meters":800,"station_id":"ce4bgph2rcd13ifvqc2g","pricing_plan_id":"free"},{"bike_id":"06f407f0-a780-4031-b026-5c9b777b0373","system_id":"levelo_inurba_marseille","lat":43.29573,"lon":5.367355,"is_reserved":false,"is_disabled":false,"rental_uris":{"android":"levelo://app?vid=06f407f0-a780-4031-b026-5c9b777b0373","ios":"levelo://app?vid=06f407f0-a780-4031-b026-5c9b777b0373"},"vehicle_type_id":"4","last_reported":1680019938,"current_range_meters":7600,"station_id":"ce4bgph2rcd13ifvqc2g","pricing_plan_id":"free"},{"bike_id":"8d653683-93c4-4c56-94b1-912ab2c6edc2","system_id":"levelo_inurba_marseille","lat":43.296131,"lon":5.370791,"is_reserved":false,"is_disabled":false,"rental_uris":{"android":"levelo://app?vid=8d653683-93c4-4c56-94b1-912ab2c6edc2","ios":"levelo://app?vid=8d653683-93c4-4c56-94b1-912ab2c6edc2"},"vehicle_type_id":"4","last_reported":1680019938,"current_range_meters":4400,"station_id":"ce4bgnh2rcd13ifvqc0g","pricing_plan_id":"free"},{"bike_id":"d59c3c89-c95d-4ebb-8668-5da8bdafce87","system_id":"levelo_inurba_marseille","lat":43.295764,"lon":5.3673,"is_reserved":false,"is_disabled":false,"rental_uris":{"android":"levelo://app?vid=d59c3c89-c95d-4ebb-8668-5da8bdafce87","ios":"levelo://app?vid=d59c3c89-c95d-4ebb-8668-5da8bdafce87"},"vehicle_type_id":"4","last_reported":1680019938,"current_range_meters":21600,"station_id":"","pricing_plan_id":"free"},{"bike_id":"51b81b6b-52e7-41b9-b9bd-87be3bdfc581","system_id":"levelo_inurba_marseille","lat":43.296921,"lon":5.376579,"is_reserved":false,"is_disabled":false,"rental_uris":{"android":"levelo://app?vid=51b81b6b-52e7-41b9-b9bd-87be3bdfc581","ios":"levelo://app?vid=51b81b6b-52e7-41b9-b9bd-87be3bdfc581"},"vehicle_type_id":"4","last_reported":1680019938,"current_range_meters":14800,"station_id":"ce4bgkh2rcd13ifvqbl0","pricing_plan_id":"free"},{"bike_id":"e90cdf5c-27b9-44cf-81ee-b4e3f84f934a","system_id":"levelo_inurba_marseille","lat":43.296921,"lon":5.376579,"is_reserved":false,"is_disabled":false,"rental_uris":{"android":"levelo://app?vid=e90cdf5c-27b9-44cf-81ee-b4e3f84f934a","ios":"levelo://app?vid=e90cdf5c-27b9-44cf-81ee-b4e3f84f934a"},"vehicle_type_id":"4","last_reported":1680019938,"current_range_meters":19200,"station_id":"ce4bgkh2rcd13ifvqbl0","pricing_plan_id":"free"},{"bike_id":"2fd714e4-aa4e-4bbc-b542-b35ada6f49dd","system_id":"levelo_inurba_marseille","lat":43.29708,"lon":5.37691,"is_reserved":false,"is_disabled":false,"rental_uris":{"android":"levelo://app?vid=2fd714e4-aa4e-4bbc-b542-b35ada6f49dd","ios":"levelo://app?vid=2fd714e4-aa4e-4bbc-b542-b35ada6f49dd"},"vehicle_type_id":"4","last_reported":1680019938,"current_range_meters":5600,"station_id":"","pricing_plan_id":"free"},{"bike_id":"4acbb3c0-a187-43b9-a47e-46ad060054e7","system_id":"levelo_inurba_marseille","lat":43.31759,"lon":5.39004,"is_reserved":false,"is_disabled":false,"rental_uris":{"android":"levelo://app?vid=4acbb3c0-a187-43b9-a47e-46ad060054e7","ios":"levelo://app?vid=4acbb3c0-a187-43b9-a47e-46ad060054e7"},"vehicle_type_id":"4","last_reported":1680019938,"current_range_meters":18400,"station_id":"ce4bhqp2rcd13ifvqhng","pricing_plan_id":"free"},{"bike_id":"899efe37-1289-4eb0-beeb-e7a3ab55331d","system_id":"levelo_inurba_marseille","lat":43.317557,"lon":5.390072,"is_reserved":false,"is_disabled":false,"rental_uris":{"android":"levelo://app?vid=899efe37-1289-4eb0-beeb-e7a3ab55331d","ios":"levelo://app?vid=899efe37-1289-4eb0-beeb-e7a3ab55331d"},"vehicle_type_id":"4","last_reported":1680019938,"current_range_meters":15200,"station_id":"","pricing_plan_id":"free"},{"bike_id":"d58dbafa-fcd1-44d7-8216-341e8f257307","system_id":"levelo_inurba_marseille","lat":43.31764,"lon":5.39005,"is_reserved":false,"is_disabled":false,"rental_uris":{"android":"levelo://app?vid=d58dbafa-fcd1-44d7-8216-341e8f257307","ios":"levelo://app?vid=d58dbafa-fcd1-44d7-8216-341e8f257307"},"vehicle_type_id":"4","last_reported":1680019938,"current_range_meters":17600,"station_id":"ce4bhqp2rcd13ifvqhng","pricing_plan_id":"free"},{"bike_id":"e0d52943-7258-422a-8211-7bfe8d44e9bc","system_id":"levelo_inurba_marseille","lat":43.317557,"lon":5.390173,"is_reserved":false,"is_disabled":false,"rental_uris":{"android":"levelo://app?vid=e0d52943-7258-422a-8211-7bfe8d44e9bc","ios":"levelo://app?vid=e0d52943-7258-422a-8211-7bfe8d44e9bc"},"vehicle_type_id":"4","last_reported":1680019938,"current_range_meters":0,"station_id":"ce4bhqp2rcd13ifvqhng","pricing_plan_id":"free"},{"bike_id":"ef8b451d-155f-4aec-be9d-a7604e8a58d4","system_id":"levelo_inurba_marseille","lat":43.29788,"lon":5.38118,"is_reserved":false,"is_disabled":false,"rental_uris":{"android":"levelo://app?vid=ef8b451d-155f-4aec-be9d-a7604e8a58d4","ios":"levelo://app?vid=ef8b451d-155f-4aec-be9d-a7604e8a58d4"},"vehicle_type_id":"4","last_reported":1680019938,"current_range_meters":0,"station_id":"ce4bgip2rcd13ifvqbb0","pricing_plan_id":"free"},{"bike_id":"76f24c2d-7222-4c8c-ba90-fcee49e5f0ca","system_id":"levelo_inurba_marseille","lat":43.302008,"lon":5.394694,"is_reserved":false,"is_disabled":false,"rental_uris":{"android":"levelo://app?vid=76f24c2d-7222-4c8c-ba90-fcee49e5f0ca","ios":"levelo://app?vid=76f24c2d-7222-4c8c-ba90-fcee49e5f0ca"},"vehicle_type_id":"4","last_reported":1680019938,"current_range_meters":0,"station_id":"ce4bh0p2rcd13ifvqd70","pricing_plan_id":"free"},{"bike_id":"132a6b3c-bd31-4e73-a929-228cd6a29051","system_id":"levelo_inurba_marseille","lat":43.295279,"lon":5.375048,"is_reserved":false,"is_disabled":false,"rental_uris":{"android":"levelo://app?vid=132a6b3c-bd31-4e73-a929-228cd6a29051","ios":"levelo://app?vid=132a6b3c-bd31-4e73-a929-228cd6a29051"},"vehicle_type_id":"4","last_reported":1680019938,"current_range_meters":0,"station_id":"ce4bgkp2rcd13ifvqbmg","pricing_plan_id":"free"},{"bike_id":"7ae05f50-7adb-446d-b631-f35bc97e1ab9","system_id":"levelo_inurba_marseille","lat":43.323825,"lon":5.38711,"is_reserved":false,"is_disabled":false,"rental_uris":{"android":"levelo://app?vid=7ae05f50-7adb-446d-b631-f35bc97e1ab9","ios":"levelo://app?vid=7ae05f50-7adb-446d-b631-f35bc97e1ab9"},"vehicle_type_id":"4","last_reported":1680019938,"current_range_meters":21200,"station_id":"ce4bhqp2rcd13ifvqhog","pricing_plan_id":"free"},{"bike_id":"c0d2e49c-742d-4299-afe1-171d653f2ebd","system_id":"levelo_inurba_marseille","lat":43.295279,"lon":5.375048,"is_reserved":false,"is_disabled":false,"rental_uris":{"android":"levelo://app?vid=c0d2e49c-742d-4299-afe1-171d653f2ebd","ios":"levelo://app?vid=c0d2e49c-742d-4299-afe1-171d653f2ebd"},"vehicle_type_id":"4","last_reported":1680019938,"current_range_meters":800,"station_id":"ce4bgkp2rcd13ifvqbmg","pricing_plan_id":"free"},{"bike_id":"fe732530-4e3c-4fa0-a1f3-a73a5e2f7e87","system_id":"levelo_inurba_marseille","lat":43.32367,"lon":5.38884,"is_reserved":false,"is_disabled":false,"rental_uris":{"android":"levelo://app?vid=fe732530-4e3c-4fa0-a1f3-a73a5e2f7e87","ios":"levelo://app?vid=fe732530-4e3c-4fa0-a1f3-a73a5e2f7e87"},"vehicle_type_id":"4","last_reported":1680019938,"current_range_meters":22400,"station_id":"ce4bhqp2rcd13ifvqhog","pricing_plan_id":"free"},{"bike_id":"3eb048d5-e97c-448d-b3ad-40c99974b52d","system_id":"levelo_inurba_marseille","lat":43.292263,"lon":5.360587,"is_reserved":false,"is_disabled":false,"rental_uris":{"android":"levelo://app?vid=3eb048d5-e97c-448d-b3ad-40c99974b52d","ios":"levelo://app?vid=3eb048d5-e97c-448d-b3ad-40c99974b52d"},"vehicle_type_id":"4","last_reported":1680019938,"current_range_meters":0,"station_id":"ce4bhbh2rcd13ifvqeqg","pricing_plan_id":"free"},{"bike_id":"0441c4d1-d3e9-4068-8a52-c5562117a96e","system_id":"levelo_inurba_marseille","lat":43.298755,"lon":5.388959,"is_reserved":false,"is_disabled":false,"rental_uris":{"android":"levelo://app?vid=0441c4d1-d3e9-4068-8a52-c5562117a96e","ios":"levelo://app?vid=0441c4d1-d3e9-4068-8a52-c5562117a96e"},"vehicle_type_id":"4","last_reported":1680019938,"current_range_meters":0,"station_id":"","pricing_plan_id":"free"},{"bike_id":"b5cf0e08-29c4-47df-b0b0-84d623d707cc","system_id":"levelo_inurba_marseille","lat":43.31325,"lon":5.39689,"is_reserved":false,"is_disabled":false,"rental_uris":{"android":"levelo://app?vid=b5cf0e08-29c4-47df-b0b0-84d623d707cc","ios":"levelo://app?vid=b5cf0e08-29c4-47df-b0b0-84d623d707cc"},"vehicle_type_id":"4","last_reported":1680019938,"current_range_meters":21200,"station_id":"ce4bgvp2rcd13ifvqcu0","pricing_plan_id":"free"},{"bike_id":"104adc31-583e-492b-b38e-39e2fbbff05c","system_id":"levelo_inurba_marseille","lat":43.313353,"lon":5.3969,"is_reserved":false,"is_disabled":false,"rental_uris":{"android":"levelo://app?vid=104adc31-583e-492b-b38e-39e2fbbff05c","ios":"levelo://app?vid=104adc31-583e-492b-b38e-39e2fbbff05c"},"vehicle_type_id":"4","last_reported":1680019938,"current_range_meters":24400,"station_id":"ce4bgvp2rcd13ifvqcu0","pricing_plan_id":"free"},{"bike_id":"afe6310c-bd6d-4438-bd7d-202f3b183b0d","system_id":"levelo_inurba_marseille","lat":43.309038,"lon":5.396546,"is_reserved":false,"is_disabled":false,"rental_uris":{"android":"levelo://app?vid=afe6310c-bd6d-4438-bd7d-202f3b183b0d","ios":"levelo://app?vid=afe6310c-bd6d-4438-bd7d-202f3b183b0d"},"vehicle_type_id":"4","last_reported":1680019938,"current_range_meters":3200,"station_id":"ce4bh012rcd13ifvqcv0","pricing_plan_id":"free"},{"bike_id":"38420bf0-8a50-459d-8f64-6fcd1975d043","system_id":"levelo_inurba_marseille","lat":43.313332,"lon":5.396929,"is_reserved":false,"is_disabled":false,"rental_uris":{"android":"levelo://app?vid=38420bf0-8a50-459d-8f64-6fcd1975d043","ios":"levelo://app?vid=38420bf0-8a50-459d-8f64-6fcd1975d043"},"vehicle_type_id":"4","last_reported":1680019938,"current_range_meters":4000,"station_id":"","pricing_plan_id":"free"},{"bike_id":"da9e756e-303b-447f-95c3-684e6e79b90e","system_id":"levelo_inurba_marseille","lat":43.309038,"lon":5.396546,"is_reserved":false,"is_disabled":false,"rental_uris":{"android":"levelo://app?vid=da9e756e-303b-447f-95c3-684e6e79b90e","ios":"levelo://app?vid=da9e756e-303b-447f-95c3-684e6e79b90e"},"vehicle_type_id":"4","last_reported":1680019938,"current_range_meters":0,"station_id":"ce4bh012rcd13ifvqcv0","pricing_plan_id":"free"},{"bike_id":"57165835-08bf-4c54-be9e-8f3bab331625","system_id":"levelo_inurba_marseille","lat":43.29073,"lon":5.37158,"is_reserved":false,"is_disabled":false,"rental_uris":{"android":"levelo://app?vid=57165835-08bf-4c54-be9e-8f3bab331625","ios":"levelo://app?vid=57165835-08bf-4c54-be9e-8f3bab331625"},"vehicle_type_id":"4","last_reported":1680019938,"current_range_meters":0,"station_id":"ce4bh5p2rcd13ifvqe4g","pricing_plan_id":"free"},{"bike_id":"00d3f9e3-9732-470e-9cae-c38d996799b3","system_id":"levelo_inurba_marseille","lat":43.302008,"lon":5.394694,"is_reserved":false,"is_disabled":false,"rental_uris":{"android":"levelo://app?vid=00d3f9e3-9732-470e-9cae-c38d996799b3","ios":"levelo://app?vid=00d3f9e3-9732-470e-9cae-c38d996799b3"},"vehicle_type_id":"4","last_reported":1680019938,"current_range_meters":22000,"station_id":"ce4bh0p2rcd13ifvqd70","pricing_plan_id":"free"},{"bike_id":"c7643d1a-e3bd-4366-ae49-92d3e811dc65","system_id":"levelo_inurba_marseille","lat":43.290542,"lon":5.359166,"is_reserved":false,"is_disabled":false,"rental_uris":{"android":"levelo://app?vid=c7643d1a-e3bd-4366-ae49-92d3e811dc65","ios":"levelo://app?vid=c7643d1a-e3bd-4366-ae49-92d3e811dc65"},"vehicle_type_id":"4","last_reported":1680019938,"current_range_meters":9200,"station_id":"ce4bha92rcd13ifvqeg0","pricing_plan_id":"free"},{"bike_id":"97467c82-9caf-41f5-9d90-85e32a7ac500","system_id":"levelo_inurba_marseille","lat":43.32968,"lon":5.389173,"is_reserved":false,"is_disabled":false,"rental_uris":{"android":"levelo://app?vid=97467c82-9caf-41f5-9d90-85e32a7ac500","ios":"levelo://app?vid=97467c82-9caf-41f5-9d90-85e32a7ac500"},"vehicle_type_id":"4","last_reported":1680019938,"current_range_meters":15600,"station_id":"ce4bhr92rcd13ifvqhrg","pricing_plan_id":"free"},{"bike_id":"5d859f26-2ac7-435c-b1a6-53969b83948c","system_id":"levelo_inurba_marseille","lat":43.289184,"lon":5.366408,"is_reserved":false,"is_disabled":false,"rental_uris":{"android":"levelo://app?vid=5d859f26-2ac7-435c-b1a6-53969b83948c","ios":"levelo://app?vid=5d859f26-2ac7-435c-b1a6-53969b83948c"},"vehicle_type_id":"4","last_reported":1680019938,"current_range_meters":12800,"station_id":"ce4bhap2rcd13ifvqek0","pricing_plan_id":"free"},{"bike_id":"ca998770-ecb9-48ea-95f9-7594d4bdde2b","system_id":"levelo_inurba_marseille","lat":43.330385,"lon":5.389155,"is_reserved":false,"is_disabled":false,"rental_uris":{"android":"levelo://app?vid=ca998770-ecb9-48ea-95f9-7594d4bdde2b","ios":"levelo://app?vid=ca998770-ecb9-48ea-95f9-7594d4bdde2b"},"vehicle_type_id":"4","last_reported":1680019938,"current_range_meters":6400,"station_id":"ce4bhr92rcd13ifvqhrg","pricing_plan_id":"free"},{"bike_id":"8ccbd18e-e8a0-4dfd-a96c-b3f37d925561","system_id":"levelo_inurba_marseille","lat":43.330442,"lon":5.389148,"is_reserved":false,"is_disabled":false,"rental_uris":{"android":"levelo://app?vid=8ccbd18e-e8a0-4dfd-a96c-b3f37d925561","ios":"levelo://app?vid=8ccbd18e-e8a0-4dfd-a96c-b3f37d925561"},"vehicle_type_id":"4","last_reported":1680019938,"current_range_meters":0,"station_id":"ce4bhr92rcd13ifvqhrg","pricing_plan_id":"free"},{"bike_id":"48bdff84-78dc-4f22-80b6-6c7f3a8364f8","system_id":"levelo_inurba_marseille","lat":43.330442,"lon":5.389148,"is_reserved":false,"is_disabled":false,"rental_uris":{"android":"levelo://app?vid=48bdff84-78dc-4f22-80b6-6c7f3a8364f8","ios":"levelo://app?vid=48bdff84-78dc-4f22-80b6-6c7f3a8364f8"},"vehicle_type_id":"4","last_reported":1680019938,"current_range_meters":0,"station_id":"ce4bhr92rcd13ifvqhrg","pricing_plan_id":"free"},{"bike_id":"8b2e4c94-bba9-4c61-bfdf-ba2dcce2e6cd","system_id":"levelo_inurba_marseille","lat":43.330442,"lon":5.389148,"is_reserved":false,"is_disabled":false,"rental_uris":{"android":"levelo://app?vid=8b2e4c94-bba9-4c61-bfdf-ba2dcce2e6cd","ios":"levelo://app?vid=8b2e4c94-bba9-4c61-bfdf-ba2dcce2e6cd"},"vehicle_type_id":"4","last_reported":1680019938,"current_range_meters":800,"station_id":"ce4bhr92rcd13ifvqhrg","pricing_plan_id":"free"},{"bike_id":"f2f1232b-915b-437e-b548-52c5e2406782","system_id":"levelo_inurba_marseille","lat":43.290104,"lon":5.356111,"is_reserved":false,"is_disabled":false,"rental_uris":{"android":"levelo://app?vid=f2f1232b-915b-437e-b548-52c5e2406782","ios":"levelo://app?vid=f2f1232b-915b-437e-b548-52c5e2406782"},"vehicle_type_id":"4","last_reported":1680019938,"current_range_meters":0,"station_id":"ce4bhb92rcd13ifvqen0","pricing_plan_id":"free"},{"bike_id":"497fbf1b-d9fa-4b57-841b-b83a2df3275f","system_id":"levelo_inurba_marseille","lat":43.289741,"lon":5.378306,"is_reserved":false,"is_disabled":false,"rental_uris":{"android":"levelo://app?vid=497fbf1b-d9fa-4b57-841b-b83a2df3275f","ios":"levelo://app?vid=497fbf1b-d9fa-4b57-841b-b83a2df3275f"},"vehicle_type_id":"4","last_reported":1680019938,"current_range_meters":0,"station_id":"ce4bh9p2rcd13ifvqed0","pricing_plan_id":"free"},{"bike_id":"059020e5-f196-4f54-98d4-932901c32840","system_id":"levelo_inurba_marseille","lat":43.309314,"lon":5.400459,"is_reserved":false,"is_disabled":false,"rental_uris":{"android":"levelo://app?vid=059020e5-f196-4f54-98d4-932901c32840","ios":"levelo://app?vid=059020e5-f196-4f54-98d4-932901c32840"},"vehicle_type_id":"4","last_reported":1680019938,"current_range_meters":6000,"station_id":"","pricing_plan_id":"free"},{"bike_id":"8ff50b8d-5d64-426e-b1d1-89f90bf8f2bb","system_id":"levelo_inurba_marseille","lat":43.301117,"lon":5.398795,"is_reserved":false,"is_disabled":false,"rental_uris":{"android":"levelo://app?vid=8ff50b8d-5d64-426e-b1d1-89f90bf8f2bb","ios":"levelo://app?vid=8ff50b8d-5d64-426e-b1d1-89f90bf8f2bb"},"vehicle_type_id":"4","last_reported":1680019938,"current_range_meters":400,"station_id":"ce4bh0h2rcd13ifvqd40","pricing_plan_id":"free"},{"bike_id":"cd8082d5-7b45-416b-b236-e9742a1eed48","system_id":"levelo_inurba_marseille","lat":43.33787,"lon":5.37457,"is_reserved":false,"is_disabled":false,"rental_uris":{"android":"levelo://app?vid=cd8082d5-7b45-416b-b236-e9742a1eed48","ios":"levelo://app?vid=cd8082d5-7b45-416b-b236-e9742a1eed48"},"vehicle_type_id":"4","last_reported":1680019938,"current_range_meters":21200,"station_id":"","pricing_plan_id":"free"},{"bike_id":"fc9ec5c7-1146-47b5-8aa4-4525f6c20e1f","system_id":"levelo_inurba_marseille","lat":43.301117,"lon":5.398795,"is_reserved":false,"is_disabled":false,"rental_uris":{"android":"levelo://app?vid=fc9ec5c7-1146-47b5-8aa4-4525f6c20e1f","ios":"levelo://app?vid=fc9ec5c7-1146-47b5-8aa4-4525f6c20e1f"},"vehicle_type_id":"4","last_reported":1680019938,"current_range_meters":2000,"station_id":"ce4bh0h2rcd13ifvqd40","pricing_plan_id":"free"},{"bike_id":"439e826b-6772-4bde-bff9-e94bd94080c3","system_id":"levelo_inurba_marseille","lat":43.295143,"lon":5.394087,"is_reserved":false,"is_disabled":false,"rental_uris":{"android":"levelo://app?vid=439e826b-6772-4bde-bff9-e94bd94080c3","ios":"levelo://app?vid=439e826b-6772-4bde-bff9-e94bd94080c3"},"vehicle_type_id":"4","last_reported":1680019938,"current_range_meters":0,"station_id":"ce4bh292rcd13ifvqdf0","pricing_plan_id":"free"},{"bike_id":"f5987665-9ac8-44e6-b7f9-94fd154bfa8c","system_id":"levelo_inurba_marseille","lat":43.284534,"lon":5.358662,"is_reserved":false,"is_disabled":false,"rental_uris":{"android":"levelo://app?vid=f5987665-9ac8-44e6-b7f9-94fd154bfa8c","ios":"levelo://app?vid=f5987665-9ac8-44e6-b7f9-94fd154bfa8c"},"vehicle_type_id":"4","last_reported":1680019938,"current_range_meters":4000,"station_id":"ce4bhah2rcd13ifvqei0","pricing_plan_id":"free"},{"bike_id":"734a407b-9df5-4a63-8b62-0313db25ebef","system_id":"levelo_inurba_marseille","lat":43.284534,"lon":5.358662,"is_reserved":false,"is_disabled":false,"rental_uris":{"android":"levelo://app?vid=734a407b-9df5-4a63-8b62-0313db25ebef","ios":"levelo://app?vid=734a407b-9df5-4a63-8b62-0313db25ebef"},"vehicle_type_id":"4","last_reported":1680019938,"current_range_meters":7600,"station_id":"ce4bhah2rcd13ifvqei0","pricing_plan_id":"free"},{"bike_id":"55caf718-a575-4cf9-8dc3-5baca5a984c5","system_id":"levelo_inurba_marseille","lat":43.284534,"lon":5.358662,"is_reserved":false,"is_disabled":false,"rental_uris":{"android":"levelo://app?vid=55caf718-a575-4cf9-8dc3-5baca5a984c5","ios":"levelo://app?vid=55caf718-a575-4cf9-8dc3-5baca5a984c5"},"vehicle_type_id":"4","last_reported":1680019938,"current_range_meters":31600,"station_id":"ce4bhah2rcd13ifvqei0","pricing_plan_id":"free"},{"bike_id":"7359fdc9-b9cd-4221-8636-9c0d542d4f5b","system_id":"levelo_inurba_marseille","lat":43.284534,"lon":5.358662,"is_reserved":false,"is_disabled":false,"rental_uris":{"android":"levelo://app?vid=7359fdc9-b9cd-4221-8636-9c0d542d4f5b","ios":"levelo://app?vid=7359fdc9-b9cd-4221-8636-9c0d542d4f5b"},"vehicle_type_id":"4","last_reported":1680019938,"current_range_meters":31600,"station_id":"ce4bhah2rcd13ifvqei0","pricing_plan_id":"free"},{"bike_id":"7ee4707e-c926-4e1a-93d6-20f6ecc70864","system_id":"levelo_inurba_marseille","lat":43.28459,"lon":5.358925,"is_reserved":false,"is_disabled":false,"rental_uris":{"android":"levelo://app?vid=7ee4707e-c926-4e1a-93d6-20f6ecc70864","ios":"levelo://app?vid=7ee4707e-c926-4e1a-93d6-20f6ecc70864"},"vehicle_type_id":"4","last_reported":1680019938,"current_range_meters":31600,"station_id":"ce4bhah2rcd13ifvqei0","pricing_plan_id":"free"},{"bike_id":"7a9060a1-2235-4dd5-8b7d-9938b38eb930","system_id":"levelo_inurba_marseille","lat":43.323364,"lon":5.40616,"is_reserved":false,"is_disabled":false,"rental_uris":{"android":"levelo://app?vid=7a9060a1-2235-4dd5-8b7d-9938b38eb930","ios":"levelo://app?vid=7a9060a1-2235-4dd5-8b7d-9938b38eb930"},"vehicle_type_id":"4","last_reported":1680019938,"current_range_meters":31600,"station_id":"ce4bhq92rcd13ifvqhjg","pricing_plan_id":"free"},{"bike_id":"986e5096-c55c-4a33-8aa2-bf7e10c74e75","system_id":"levelo_inurba_marseille","lat":43.323464,"lon":5.406297,"is_reserved":false,"is_disabled":false,"rental_uris":{"android":"levelo://app?vid=986e5096-c55c-4a33-8aa2-bf7e10c74e75","ios":"levelo://app?vid=986e5096-c55c-4a33-8aa2-bf7e10c74e75"},"vehicle_type_id":"4","last_reported":1680019938,"current_range_meters":22400,"station_id":"ce4bhq92rcd13ifvqhjg","pricing_plan_id":"free"},{"bike_id":"e1065c3a-4053-49f7-9082-ae74ee01dad3","system_id":"levelo_inurba_marseille","lat":43.284793,"lon":5.384119,"is_reserved":false,"is_disabled":false,"rental_uris":{"android":"levelo://app?vid=e1065c3a-4053-49f7-9082-ae74ee01dad3","ios":"levelo://app?vid=e1065c3a-4053-49f7-9082-ae74ee01dad3"},"vehicle_type_id":"4","last_reported":1680019938,"current_range_meters":18400,"station_id":"ce4bh512rcd13ifvqe3g","pricing_plan_id":"free"},{"bike_id":"e23b56c6-c5ec-4b60-a13d-fec0f699247a","system_id":"levelo_inurba_marseille","lat":43.28467,"lon":5.38422,"is_reserved":false,"is_disabled":false,"rental_uris":{"android":"levelo://app?vid=e23b56c6-c5ec-4b60-a13d-fec0f699247a","ios":"levelo://app?vid=e23b56c6-c5ec-4b60-a13d-fec0f699247a"},"vehicle_type_id":"4","last_reported":1680019938,"current_range_meters":19600,"station_id":"ce4bh512rcd13ifvqe3g","pricing_plan_id":"free"},{"bike_id":"e8cf9995-81fe-4679-989c-1ae5865f3a00","system_id":"levelo_inurba_marseille","lat":43.288501,"lon":5.393087,"is_reserved":false,"is_disabled":false,"rental_uris":{"android":"levelo://app?vid=e8cf9995-81fe-4679-989c-1ae5865f3a00","ios":"levelo://app?vid=e8cf9995-81fe-4679-989c-1ae5865f3a00"},"vehicle_type_id":"4","last_reported":1680019938,"current_range_meters":16000,"station_id":"ce4bh2p2rcd13ifvqdi0","pricing_plan_id":"free"},{"bike_id":"03e7b752-0f3a-4691-aee6-6dd509ef53a1","system_id":"levelo_inurba_marseille","lat":43.284219,"lon":5.3497,"is_reserved":false,"is_disabled":false,"rental_uris":{"android":"levelo://app?vid=03e7b752-0f3a-4691-aee6-6dd509ef53a1","ios":"levelo://app?vid=03e7b752-0f3a-4691-aee6-6dd509ef53a1"},"vehicle_type_id":"4","last_reported":1680019938,"current_range_meters":4800,"station_id":"ce4bhbh2rcd13ifvqepg","pricing_plan_id":"free"},{"bike_id":"ea42b48f-0c47-4bfe-bcf1-d2cd1f1012a3","system_id":"levelo_inurba_marseille","lat":43.292724,"lon":5.401131,"is_reserved":false,"is_disabled":false,"rental_uris":{"android":"levelo://app?vid=ea42b48f-0c47-4bfe-bcf1-d2cd1f1012a3","ios":"levelo://app?vid=ea42b48f-0c47-4bfe-bcf1-d2cd1f1012a3"},"vehicle_type_id":"4","last_reported":1680019938,"current_range_meters":0,"station_id":"ce4bh312rcd13ifvqdk0","pricing_plan_id":"free"},{"bike_id":"f1274349-6162-4888-a3d6-57855357849a","system_id":"levelo_inurba_marseille","lat":43.283701,"lon":5.386389,"is_reserved":false,"is_disabled":false,"rental_uris":{"android":"levelo://app?vid=f1274349-6162-4888-a3d6-57855357849a","ios":"levelo://app?vid=f1274349-6162-4888-a3d6-57855357849a"},"vehicle_type_id":"4","last_reported":1680019938,"current_range_meters":22000,"station_id":"ce4bh492rcd13ifvqdvg","pricing_plan_id":"free"},{"bike_id":"58a09c82-52a5-4bb9-980f-927a0d0fd437","system_id":"levelo_inurba_marseille","lat":43.296263,"lon":5.40601,"is_reserved":false,"is_disabled":false,"rental_uris":{"android":"levelo://app?vid=58a09c82-52a5-4bb9-980f-927a0d0fd437","ios":"levelo://app?vid=58a09c82-52a5-4bb9-980f-927a0d0fd437"},"vehicle_type_id":"4","last_reported":1680019938,"current_range_meters":0,"station_id":"ce4bh0h2rcd13ifvqd60","pricing_plan_id":"free"},{"bike_id":"f5242e33-ce95-4284-a3a3-e14c556591e7","system_id":"levelo_inurba_marseille","lat":43.29634,"lon":5.406,"is_reserved":false,"is_disabled":false,"rental_uris":{"android":"levelo://app?vid=f5242e33-ce95-4284-a3a3-e14c556591e7","ios":"levelo://app?vid=f5242e33-ce95-4284-a3a3-e14c556591e7"},"vehicle_type_id":"4","last_reported":1680019938,"current_range_meters":14400,"station_id":"ce4bh0h2rcd13ifvqd60","pricing_plan_id":"free"},{"bike_id":"cf06959f-f32e-4b0b-a41a-3269368ab60b","system_id":"levelo_inurba_marseille","lat":43.296263,"lon":5.40601,"is_reserved":false,"is_disabled":false,"rental_uris":{"android":"levelo://app?vid=cf06959f-f32e-4b0b-a41a-3269368ab60b","ios":"levelo://app?vid=cf06959f-f32e-4b0b-a41a-3269368ab60b"},"vehicle_type_id":"4","last_reported":1680019938,"current_range_meters":15200,"station_id":"ce4bh0h2rcd13ifvqd60","pricing_plan_id":"free"},{"bike_id":"2505bae8-f517-442a-a96a-445bd5416f37","system_id":"levelo_inurba_marseille","lat":43.28444,"lon":5.39182,"is_reserved":false,"is_disabled":false,"rental_uris":{"android":"levelo://app?vid=2505bae8-f517-442a-a96a-445bd5416f37","ios":"levelo://app?vid=2505bae8-f517-442a-a96a-445bd5416f37"},"vehicle_type_id":"4","last_reported":1680019938,"current_range_meters":0,"station_id":"","pricing_plan_id":"free"},{"bike_id":"c25dd2f8-9f28-44da-9e31-678ef0925c20","system_id":"levelo_inurba_marseille","lat":43.279159,"lon":5.380136,"is_reserved":false,"is_disabled":false,"rental_uris":{"android":"levelo://app?vid=c25dd2f8-9f28-44da-9e31-678ef0925c20","ios":"levelo://app?vid=c25dd2f8-9f28-44da-9e31-678ef0925c20"},"vehicle_type_id":"4","last_reported":1680019938,"current_range_meters":4800,"station_id":"","pricing_plan_id":"free"},{"bike_id":"f77ed285-b12c-44d4-8a1d-99d128fb8dd7","system_id":"levelo_inurba_marseille","lat":43.32031,"lon":5.415635,"is_reserved":false,"is_disabled":false,"rental_uris":{"android":"levelo://app?vid=f77ed285-b12c-44d4-8a1d-99d128fb8dd7","ios":"levelo://app?vid=f77ed285-b12c-44d4-8a1d-99d128fb8dd7"},"vehicle_type_id":"4","last_reported":1680019938,"current_range_meters":10400,"station_id":"","pricing_plan_id":"free"},{"bike_id":"0ee723e8-a240-4b03-a9b8-190be6e3ee30","system_id":"levelo_inurba_marseille","lat":43.292571,"lon":5.409107,"is_reserved":false,"is_disabled":false,"rental_uris":{"android":"levelo://app?vid=0ee723e8-a240-4b03-a9b8-190be6e3ee30","ios":"levelo://app?vid=0ee723e8-a240-4b03-a9b8-190be6e3ee30"},"vehicle_type_id":"4","last_reported":1680019938,"current_range_meters":11200,"station_id":"ce4bh192rcd13ifvqdc0","pricing_plan_id":"free"},{"bike_id":"60711bb2-457f-405b-993b-22eda97112d2","system_id":"levelo_inurba_marseille","lat":43.292571,"lon":5.409107,"is_reserved":false,"is_disabled":false,"rental_uris":{"android":"levelo://app?vid=60711bb2-457f-405b-993b-22eda97112d2","ios":"levelo://app?vid=60711bb2-457f-405b-993b-22eda97112d2"},"vehicle_type_id":"4","last_reported":1680019938,"current_range_meters":24400,"station_id":"ce4bh192rcd13ifvqdc0","pricing_plan_id":"free"},{"bike_id":"aba6ffc2-48f4-487a-a0ba-1d3fab60e47f","system_id":"levelo_inurba_marseille","lat":43.292571,"lon":5.409107,"is_reserved":false,"is_disabled":false,"rental_uris":{"android":"levelo://app?vid=aba6ffc2-48f4-487a-a0ba-1d3fab60e47f","ios":"levelo://app?vid=aba6ffc2-48f4-487a-a0ba-1d3fab60e47f"},"vehicle_type_id":"4","last_reported":1680019938,"current_range_meters":800,"station_id":"ce4bh192rcd13ifvqdc0","pricing_plan_id":"free"},{"bike_id":"437d8e22-8bc1-40ce-b9a4-aa5beffbd912","system_id":"levelo_inurba_marseille","lat":43.32539,"lon":5.41434,"is_reserved":false,"is_disabled":false,"rental_uris":{"android":"levelo://app?vid=437d8e22-8bc1-40ce-b9a4-aa5beffbd912","ios":"levelo://app?vid=437d8e22-8bc1-40ce-b9a4-aa5beffbd912"},"vehicle_type_id":"4","last_reported":1680019938,"current_range_meters":31600,"station_id":"ce4bhq12rcd13ifvqhhg","pricing_plan_id":"free"},{"bike_id":"348d490c-ff64-4773-a8a6-624c0dcf59b0","system_id":"levelo_inurba_marseille","lat":43.27618,"lon":5.361009,"is_reserved":false,"is_disabled":false,"rental_uris":{"android":"levelo://app?vid=348d490c-ff64-4773-a8a6-624c0dcf59b0","ios":"levelo://app?vid=348d490c-ff64-4773-a8a6-624c0dcf59b0"},"vehicle_type_id":"4","last_reported":1680019938,"current_range_meters":10000,"station_id":"ce4bgj92rcd13ifvqbe0","pricing_plan_id":"free"},{"bike_id":"586c0936-0dd4-49aa-bac5-ecfc9bd29e8c","system_id":"levelo_inurba_marseille","lat":43.292571,"lon":5.409107,"is_reserved":false,"is_disabled":false,"rental_uris":{"android":"levelo://app?vid=586c0936-0dd4-49aa-bac5-ecfc9bd29e8c","ios":"levelo://app?vid=586c0936-0dd4-49aa-bac5-ecfc9bd29e8c"},"vehicle_type_id":"4","last_reported":1680019938,"current_range_meters":29600,"station_id":"ce4bh192rcd13ifvqdc0","pricing_plan_id":"free"},{"bike_id":"75ef124a-66a2-44fb-8726-df82a8d8e760","system_id":"levelo_inurba_marseille","lat":43.280799,"lon":5.396596,"is_reserved":false,"is_disabled":false,"rental_uris":{"android":"levelo://app?vid=75ef124a-66a2-44fb-8726-df82a8d8e760","ios":"levelo://app?vid=75ef124a-66a2-44fb-8726-df82a8d8e760"},"vehicle_type_id":"4","last_reported":1680019938,"current_range_meters":2800,"station_id":"ce4bho12rcd13ifvqh2g","pricing_plan_id":"free"},{"bike_id":"0164c54b-1b45-4e5b-9e66-c96d85600f32","system_id":"levelo_inurba_marseille","lat":43.28077,"lon":5.39664,"is_reserved":false,"is_disabled":false,"rental_uris":{"android":"levelo://app?vid=0164c54b-1b45-4e5b-9e66-c96d85600f32","ios":"levelo://app?vid=0164c54b-1b45-4e5b-9e66-c96d85600f32"},"vehicle_type_id":"4","last_reported":1680019938,"current_range_meters":2000,"station_id":"ce4bho12rcd13ifvqh2g","pricing_plan_id":"free"},{"bike_id":"0916737b-ece8-4b1a-ba4a-d7e2f78350f2","system_id":"levelo_inurba_marseille","lat":43.27376,"lon":5.36257,"is_reserved":false,"is_disabled":false,"rental_uris":{"android":"levelo://app?vid=0916737b-ece8-4b1a-ba4a-d7e2f78350f2","ios":"levelo://app?vid=0916737b-ece8-4b1a-ba4a-d7e2f78350f2"},"vehicle_type_id":"4","last_reported":1680019938,"current_range_meters":2400,"station_id":"ce4bhbh2rcd13ifvqeo0","pricing_plan_id":"free"},{"bike_id":"38263a0b-b1fe-4f60-81c1-385d71b82a92","system_id":"levelo_inurba_marseille","lat":43.273613,"lon":5.362705,"is_reserved":false,"is_disabled":false,"rental_uris":{"android":"levelo://app?vid=38263a0b-b1fe-4f60-81c1-385d71b82a92","ios":"levelo://app?vid=38263a0b-b1fe-4f60-81c1-385d71b82a92"},"vehicle_type_id":"4","last_reported":1680019938,"current_range_meters":30400,"station_id":"ce4bhbh2rcd13ifvqeo0","pricing_plan_id":"free"},{"bike_id":"f388cbfd-270e-4474-8b74-e9f577d302ca","system_id":"levelo_inurba_marseille","lat":43.273753,"lon":5.362617,"is_reserved":false,"is_disabled":false,"rental_uris":{"android":"levelo://app?vid=f388cbfd-270e-4474-8b74-e9f577d302ca","ios":"levelo://app?vid=f388cbfd-270e-4474-8b74-e9f577d302ca"},"vehicle_type_id":"4","last_reported":1680019938,"current_range_meters":5200,"station_id":"","pricing_plan_id":"free"},{"bike_id":"efc2631b-37e2-4be5-bc04-272eadc4bd06","system_id":"levelo_inurba_marseille","lat":43.27375,"lon":5.36261,"is_reserved":false,"is_disabled":false,"rental_uris":{"android":"levelo://app?vid=efc2631b-37e2-4be5-bc04-272eadc4bd06","ios":"levelo://app?vid=efc2631b-37e2-4be5-bc04-272eadc4bd06"},"vehicle_type_id":"4","last_reported":1680019938,"current_range_meters":20000,"station_id":"","pricing_plan_id":"free"},{"bike_id":"2a2149c0-4986-4540-a56f-8b655f787db2","system_id":"levelo_inurba_marseille","lat":43.273613,"lon":5.362705,"is_reserved":false,"is_disabled":false,"rental_uris":{"android":"levelo://app?vid=2a2149c0-4986-4540-a56f-8b655f787db2","ios":"levelo://app?vid=2a2149c0-4986-4540-a56f-8b655f787db2"},"vehicle_type_id":"4","last_reported":1680019938,"current_range_meters":1200,"station_id":"ce4bhbh2rcd13ifvqeo0","pricing_plan_id":"free"},{"bike_id":"987d861f-40ea-4adc-a8d3-e6d5368c8e3d","system_id":"levelo_inurba_marseille","lat":43.273613,"lon":5.362705,"is_reserved":false,"is_disabled":false,"rental_uris":{"android":"levelo://app?vid=987d861f-40ea-4adc-a8d3-e6d5368c8e3d","ios":"levelo://app?vid=987d861f-40ea-4adc-a8d3-e6d5368c8e3d"},"vehicle_type_id":"4","last_reported":1680019938,"current_range_meters":31600,"station_id":"ce4bhbh2rcd13ifvqeo0","pricing_plan_id":"free"},{"bike_id":"846cce7c-e71e-4c09-9831-907639524d68","system_id":"levelo_inurba_marseille","lat":43.336057,"lon":5.410273,"is_reserved":false,"is_disabled":false,"rental_uris":{"android":"levelo://app?vid=846cce7c-e71e-4c09-9831-907639524d68","ios":"levelo://app?vid=846cce7c-e71e-4c09-9831-907639524d68"},"vehicle_type_id":"4","last_reported":1680019938,"current_range_meters":27200,"station_id":"","pricing_plan_id":"free"},{"bike_id":"f704dd54-7a41-4dfa-a439-fd7940de6f9c","system_id":"levelo_inurba_marseille","lat":43.33606,"lon":5.4103,"is_reserved":false,"is_disabled":false,"rental_uris":{"android":"levelo://app?vid=f704dd54-7a41-4dfa-a439-fd7940de6f9c","ios":"levelo://app?vid=f704dd54-7a41-4dfa-a439-fd7940de6f9c"},"vehicle_type_id":"4","last_reported":1680019938,"current_range_meters":24400,"station_id":"ce4bhqh2rcd13ifvqhmg","pricing_plan_id":"free"},{"bike_id":"2c07dfea-7cde-46f2-ab32-0a89f8b66276","system_id":"levelo_inurba_marseille","lat":43.33608,"lon":5.41029,"is_reserved":false,"is_disabled":false,"rental_uris":{"android":"levelo://app?vid=2c07dfea-7cde-46f2-ab32-0a89f8b66276","ios":"levelo://app?vid=2c07dfea-7cde-46f2-ab32-0a89f8b66276"},"vehicle_type_id":"4","last_reported":1680019938,"current_range_meters":0,"station_id":"ce4bhqh2rcd13ifvqhmg","pricing_plan_id":"free"},{"bike_id":"994e5993-bd19-4883-a0da-4d9b7969531b","system_id":"levelo_inurba_marseille","lat":43.33611,"lon":5.41037,"is_reserved":false,"is_disabled":false,"rental_uris":{"android":"levelo://app?vid=994e5993-bd19-4883-a0da-4d9b7969531b","ios":"levelo://app?vid=994e5993-bd19-4883-a0da-4d9b7969531b"},"vehicle_type_id":"4","last_reported":1680019938,"current_range_meters":11600,"station_id":"ce4bhqh2rcd13ifvqhmg","pricing_plan_id":"free"},{"bike_id":"6a4ababe-8e50-460a-b77d-89cc14af0f09","system_id":"levelo_inurba_marseille","lat":43.310785,"lon":5.424305,"is_reserved":false,"is_disabled":false,"rental_uris":{"android":"levelo://app?vid=6a4ababe-8e50-460a-b77d-89cc14af0f09","ios":"levelo://app?vid=6a4ababe-8e50-460a-b77d-89cc14af0f09"},"vehicle_type_id":"4","last_reported":1680019938,"current_range_meters":16400,"station_id":"ce4bhp92rcd13ifvqhag","pricing_plan_id":"free"},{"bike_id":"bdc6419b-fd01-48ff-b27d-2c6439be0a50","system_id":"levelo_inurba_marseille","lat":43.273125,"lon":5.390731,"is_reserved":false,"is_disabled":false,"rental_uris":{"android":"levelo://app?vid=bdc6419b-fd01-48ff-b27d-2c6439be0a50","ios":"levelo://app?vid=bdc6419b-fd01-48ff-b27d-2c6439be0a50"},"vehicle_type_id":"4","last_reported":1680019938,"current_range_meters":0,"station_id":"ce4bhgp2rcd13ifvqfe0","pricing_plan_id":"free"},{"bike_id":"856aafe5-953e-4d6f-a8da-95575e4aa288","system_id":"levelo_inurba_marseille","lat":43.27426,"lon":5.39421,"is_reserved":false,"is_disabled":false,"rental_uris":{"android":"levelo://app?vid=856aafe5-953e-4d6f-a8da-95575e4aa288","ios":"levelo://app?vid=856aafe5-953e-4d6f-a8da-95575e4aa288"},"vehicle_type_id":"4","last_reported":1680019938,"current_range_meters":22000,"station_id":"ce4bhdp2rcd13ifvqf20","pricing_plan_id":"free"},{"bike_id":"91c911e4-e368-4c3f-902c-01739c5ae4a4","system_id":"levelo_inurba_marseille","lat":43.27425,"lon":5.39428,"is_reserved":false,"is_disabled":false,"rental_uris":{"android":"levelo://app?vid=91c911e4-e368-4c3f-902c-01739c5ae4a4","ios":"levelo://app?vid=91c911e4-e368-4c3f-902c-01739c5ae4a4"},"vehicle_type_id":"4","last_reported":1680019938,"current_range_meters":400,"station_id":"","pricing_plan_id":"free"},{"bike_id":"716ebd90-5b67-4107-a19c-6cbfef9b9d97","system_id":"levelo_inurba_marseille","lat":43.278128,"lon":5.407195,"is_reserved":false,"is_disabled":false,"rental_uris":{"android":"levelo://app?vid=716ebd90-5b67-4107-a19c-6cbfef9b9d97","ios":"levelo://app?vid=716ebd90-5b67-4107-a19c-6cbfef9b9d97"},"vehicle_type_id":"4","last_reported":1680019938,"current_range_meters":8000,"station_id":"ce4bhnh2rcd13ifvqgtg","pricing_plan_id":"free"},{"bike_id":"35783b21-7d23-4fcb-b0b1-3dc9e3351516","system_id":"levelo_inurba_marseille","lat":43.278128,"lon":5.407195,"is_reserved":false,"is_disabled":false,"rental_uris":{"android":"levelo://app?vid=35783b21-7d23-4fcb-b0b1-3dc9e3351516","ios":"levelo://app?vid=35783b21-7d23-4fcb-b0b1-3dc9e3351516"},"vehicle_type_id":"4","last_reported":1680019938,"current_range_meters":0,"station_id":"ce4bhnh2rcd13ifvqgtg","pricing_plan_id":"free"},{"bike_id":"aa344eaf-8956-4459-acda-f3437c7f7680","system_id":"levelo_inurba_marseille","lat":43.289468,"lon":5.363719,"is_reserved":false,"is_disabled":false,"rental_uris":{"android":"levelo://app?vid=aa344eaf-8956-4459-acda-f3437c7f7680","ios":"levelo://app?vid=aa344eaf-8956-4459-acda-f3437c7f7680"},"vehicle_type_id":"4","last_reported":1680019938,"current_range_meters":3600,"station_id":"ce4bhc92rcd13ifvqetg","pricing_plan_id":"free"},{"bike_id":"7aaef62d-ff8b-4046-9f8e-881eb1121e74","system_id":"levelo_inurba_marseille","lat":43.269467,"lon":5.386439,"is_reserved":false,"is_disabled":false,"rental_uris":{"android":"levelo://app?vid=7aaef62d-ff8b-4046-9f8e-881eb1121e74","ios":"levelo://app?vid=7aaef62d-ff8b-4046-9f8e-881eb1121e74"},"vehicle_type_id":"4","last_reported":1680019938,"current_range_meters":0,"station_id":"ce4bhh92rcd13ifvqfh0","pricing_plan_id":"free"},{"bike_id":"af829002-bc31-4796-937f-87616e213a75","system_id":"levelo_inurba_marseille","lat":43.26785,"lon":5.394183,"is_reserved":false,"is_disabled":false,"rental_uris":{"android":"levelo://app?vid=af829002-bc31-4796-937f-87616e213a75","ios":"levelo://app?vid=af829002-bc31-4796-937f-87616e213a75"},"vehicle_type_id":"4","last_reported":1680019938,"current_range_meters":0,"station_id":"ce4bhh12rcd13ifvqfg0","pricing_plan_id":"free"},{"bike_id":"7fc42c40-c279-483b-9a7b-5f2e29e56695","system_id":"levelo_inurba_marseille","lat":43.265569,"lon":5.390047,"is_reserved":false,"is_disabled":false,"rental_uris":{"android":"levelo://app?vid=7fc42c40-c279-483b-9a7b-5f2e29e56695","ios":"levelo://app?vid=7fc42c40-c279-483b-9a7b-5f2e29e56695"},"vehicle_type_id":"4","last_reported":1680019938,"current_range_meters":20000,"station_id":"ce4bhe12rcd13ifvqf30","pricing_plan_id":"free"},{"bike_id":"92cfed6e-44d2-4ea0-9d5f-02640b598b0f","system_id":"levelo_inurba_marseille","lat":43.265569,"lon":5.390047,"is_reserved":false,"is_disabled":false,"rental_uris":{"android":"levelo://app?vid=92cfed6e-44d2-4ea0-9d5f-02640b598b0f","ios":"levelo://app?vid=92cfed6e-44d2-4ea0-9d5f-02640b598b0f"},"vehicle_type_id":"4","last_reported":1680019938,"current_range_meters":31200,"station_id":"ce4bhe12rcd13ifvqf30","pricing_plan_id":"free"},{"bike_id":"00db5917-623b-475e-aae0-9a8995a2069c","system_id":"levelo_inurba_marseille","lat":43.265569,"lon":5.390047,"is_reserved":false,"is_disabled":false,"rental_uris":{"android":"levelo://app?vid=00db5917-623b-475e-aae0-9a8995a2069c","ios":"levelo://app?vid=00db5917-623b-475e-aae0-9a8995a2069c"},"vehicle_type_id":"4","last_reported":1680019938,"current_range_meters":7200,"station_id":"ce4bhe12rcd13ifvqf30","pricing_plan_id":"free"},{"bike_id":"2b5a7634-974b-419b-9faa-d78ede0dad76","system_id":"levelo_inurba_marseille","lat":43.26939,"lon":5.40224,"is_reserved":false,"is_disabled":false,"rental_uris":{"android":"levelo://app?vid=2b5a7634-974b-419b-9faa-d78ede0dad76","ios":"levelo://app?vid=2b5a7634-974b-419b-9faa-d78ede0dad76"},"vehicle_type_id":"4","last_reported":1680019938,"current_range_meters":0,"station_id":"","pricing_plan_id":"free"},{"bike_id":"54d1d814-ded6-4d65-adc0-6ebd1325a2b4","system_id":"levelo_inurba_marseille","lat":43.331864,"lon":5.431794,"is_reserved":false,"is_disabled":false,"rental_uris":{"android":"levelo://app?vid=54d1d814-ded6-4d65-adc0-6ebd1325a2b4","ios":"levelo://app?vid=54d1d814-ded6-4d65-adc0-6ebd1325a2b4"},"vehicle_type_id":"4","last_reported":1680019938,"current_range_meters":800,"station_id":"","pricing_plan_id":"free"},{"bike_id":"a5355a68-dcfe-4eb7-8b3f-28b334ab83cb","system_id":"levelo_inurba_marseille","lat":43.267959,"lon":5.402687,"is_reserved":false,"is_disabled":false,"rental_uris":{"android":"levelo://app?vid=a5355a68-dcfe-4eb7-8b3f-28b334ab83cb","ios":"levelo://app?vid=a5355a68-dcfe-4eb7-8b3f-28b334ab83cb"},"vehicle_type_id":"4","last_reported":1680019938,"current_range_meters":28000,"station_id":"ce501612rcd8frsf0b60","pricing_plan_id":"free"},{"bike_id":"bead26f2-3d88-4273-ae5a-49cfb8759a2b","system_id":"levelo_inurba_marseille","lat":43.29901,"lon":5.43675,"is_reserved":false,"is_disabled":false,"rental_uris":{"android":"levelo://app?vid=bead26f2-3d88-4273-ae5a-49cfb8759a2b","ios":"levelo://app?vid=bead26f2-3d88-4273-ae5a-49cfb8759a2b"},"vehicle_type_id":"4","last_reported":1680019938,"current_range_meters":14800,"station_id":"","pricing_plan_id":"free"},{"bike_id":"f893f892-fb8d-40e7-8122-2697cffa37d6","system_id":"levelo_inurba_marseille","lat":43.2666,"lon":5.40729,"is_reserved":false,"is_disabled":false,"rental_uris":{"android":"levelo://app?vid=f893f892-fb8d-40e7-8122-2697cffa37d6","ios":"levelo://app?vid=f893f892-fb8d-40e7-8122-2697cffa37d6"},"vehicle_type_id":"4","last_reported":1680019938,"current_range_meters":6000,"station_id":"","pricing_plan_id":"free"},{"bike_id":"d74ec380-deb5-4ead-ac2b-a76b26768764","system_id":"levelo_inurba_marseille","lat":43.2607,"lon":5.393983,"is_reserved":false,"is_disabled":false,"rental_uris":{"android":"levelo://app?vid=d74ec380-deb5-4ead-ac2b-a76b26768764","ios":"levelo://app?vid=d74ec380-deb5-4ead-ac2b-a76b26768764"},"vehicle_type_id":"4","last_reported":1680019938,"current_range_meters":26000,"station_id":"ce4bhh92rcd13ifvqfj0","pricing_plan_id":"free"},{"bike_id":"2a8b3f31-602b-40d1-892b-e95505050312","system_id":"levelo_inurba_marseille","lat":43.2607,"lon":5.393983,"is_reserved":false,"is_disabled":false,"rental_uris":{"android":"levelo://app?vid=2a8b3f31-602b-40d1-892b-e95505050312","ios":"levelo://app?vid=2a8b3f31-602b-40d1-892b-e95505050312"},"vehicle_type_id":"4","last_reported":1680019938,"current_range_meters":22000,"station_id":"ce4bhh92rcd13ifvqfj0","pricing_plan_id":"free"},{"bike_id":"cefc9332-a2f2-4db8-970c-a29ef660abf3","system_id":"levelo_inurba_marseille","lat":43.255756,"lon":5.382303,"is_reserved":false,"is_disabled":false,"rental_uris":{"android":"levelo://app?vid=cefc9332-a2f2-4db8-970c-a29ef660abf3","ios":"levelo://app?vid=cefc9332-a2f2-4db8-970c-a29ef660abf3"},"vehicle_type_id":"4","last_reported":1680019938,"current_range_meters":13200,"station_id":"ce4bhih2rcd13ifvqfs0","pricing_plan_id":"free"},{"bike_id":"2043f004-c08d-4dc9-ab10-145a9e240bb1","system_id":"levelo_inurba_marseille","lat":43.254947,"lon":5.376454,"is_reserved":false,"is_disabled":false,"rental_uris":{"android":"levelo://app?vid=2043f004-c08d-4dc9-ab10-145a9e240bb1","ios":"levelo://app?vid=2043f004-c08d-4dc9-ab10-145a9e240bb1"},"vehicle_type_id":"4","last_reported":1680019938,"current_range_meters":2400,"station_id":"ce4bhh12rcd13ifvqff0","pricing_plan_id":"free"},{"bike_id":"36c202b2-58b9-4db8-a639-879943530ebb","system_id":"levelo_inurba_marseille","lat":43.27076,"lon":5.42281,"is_reserved":false,"is_disabled":false,"rental_uris":{"android":"levelo://app?vid=36c202b2-58b9-4db8-a639-879943530ebb","ios":"levelo://app?vid=36c202b2-58b9-4db8-a639-879943530ebb"},"vehicle_type_id":"4","last_reported":1680019938,"current_range_meters":18400,"station_id":"ce4bhk92rcd13ifvqgb0","pricing_plan_id":"free"},{"bike_id":"fee3b338-efe0-466b-8696-11e5a9d99c54","system_id":"levelo_inurba_marseille","lat":43.27075,"lon":5.42281,"is_reserved":false,"is_disabled":false,"rental_uris":{"android":"levelo://app?vid=fee3b338-efe0-466b-8696-11e5a9d99c54","ios":"levelo://app?vid=fee3b338-efe0-466b-8696-11e5a9d99c54"},"vehicle_type_id":"4","last_reported":1680019938,"current_range_meters":5600,"station_id":"ce4bhk92rcd13ifvqgb0","pricing_plan_id":"free"},{"bike_id":"2099a107-493e-4b1c-9b64-9063124edbc4","system_id":"levelo_inurba_marseille","lat":43.270721,"lon":5.422764,"is_reserved":false,"is_disabled":false,"rental_uris":{"android":"levelo://app?vid=2099a107-493e-4b1c-9b64-9063124edbc4","ios":"levelo://app?vid=2099a107-493e-4b1c-9b64-9063124edbc4"},"vehicle_type_id":"4","last_reported":1680019938,"current_range_meters":8800,"station_id":"ce4bhk92rcd13ifvqgb0","pricing_plan_id":"free"},{"bike_id":"0ce65f2d-9e80-40ee-8606-3299fe49e868","system_id":"levelo_inurba_marseille","lat":43.2587,"lon":5.399,"is_reserved":false,"is_disabled":false,"rental_uris":{"android":"levelo://app?vid=0ce65f2d-9e80-40ee-8606-3299fe49e868","ios":"levelo://app?vid=0ce65f2d-9e80-40ee-8606-3299fe49e868"},"vehicle_type_id":"4","last_reported":1680019938,"current_range_meters":23600,"station_id":"ce4bhl92rcd13ifvqghg","pricing_plan_id":"free"},{"bike_id":"0750d2cd-b7b4-4ce4-bed7-86810b3735c7","system_id":"levelo_inurba_marseille","lat":43.258658,"lon":5.398935,"is_reserved":false,"is_disabled":false,"rental_uris":{"android":"levelo://app?vid=0750d2cd-b7b4-4ce4-bed7-86810b3735c7","ios":"levelo://app?vid=0750d2cd-b7b4-4ce4-bed7-86810b3735c7"},"vehicle_type_id":"4","last_reported":1680019938,"current_range_meters":9200,"station_id":"ce4bhl92rcd13ifvqghg","pricing_plan_id":"free"},{"bike_id":"18e56c5d-3656-406f-b3fe-ac3771783201","system_id":"levelo_inurba_marseille","lat":43.25628,"lon":5.39758,"is_reserved":false,"is_disabled":false,"rental_uris":{"android":"levelo://app?vid=18e56c5d-3656-406f-b3fe-ac3771783201","ios":"levelo://app?vid=18e56c5d-3656-406f-b3fe-ac3771783201"},"vehicle_type_id":"4","last_reported":1680019938,"current_range_meters":0,"station_id":"","pricing_plan_id":"free"},{"bike_id":"7580a8d3-691f-4ed3-93f5-dfef24640515","system_id":"levelo_inurba_marseille","lat":43.25935,"lon":5.40911,"is_reserved":false,"is_disabled":false,"rental_uris":{"android":"levelo://app?vid=7580a8d3-691f-4ed3-93f5-dfef24640515","ios":"levelo://app?vid=7580a8d3-691f-4ed3-93f5-dfef24640515"},"vehicle_type_id":"4","last_reported":1680019938,"current_range_meters":8000,"station_id":"","pricing_plan_id":"free"},{"bike_id":"d1622ee9-0355-47e8-9554-985b2c4c7d21","system_id":"levelo_inurba_marseille","lat":43.2479,"lon":5.374457,"is_reserved":false,"is_disabled":false,"rental_uris":{"android":"levelo://app?vid=d1622ee9-0355-47e8-9554-985b2c4c7d21","ios":"levelo://app?vid=d1622ee9-0355-47e8-9554-985b2c4c7d21"},"vehicle_type_id":"4","last_reported":1680019938,"current_range_meters":20800,"station_id":"ce4bhgh2rcd13ifvqfb0","pricing_plan_id":"free"},{"bike_id":"ff0f1787-9360-4e14-8f1b-a251c5ce5849","system_id":"levelo_inurba_marseille","lat":43.2479,"lon":5.374457,"is_reserved":false,"is_disabled":false,"rental_uris":{"android":"levelo://app?vid=ff0f1787-9360-4e14-8f1b-a251c5ce5849","ios":"levelo://app?vid=ff0f1787-9360-4e14-8f1b-a251c5ce5849"},"vehicle_type_id":"4","last_reported":1680019938,"current_range_meters":4400,"station_id":"ce4bhgh2rcd13ifvqfb0","pricing_plan_id":"free"},{"bike_id":"b1cfd2c4-b6e4-4b7f-9bdf-c1d17add329d","system_id":"levelo_inurba_marseille","lat":43.24803,"lon":5.37455,"is_reserved":false,"is_disabled":false,"rental_uris":{"android":"levelo://app?vid=b1cfd2c4-b6e4-4b7f-9bdf-c1d17add329d","ios":"levelo://app?vid=b1cfd2c4-b6e4-4b7f-9bdf-c1d17add329d"},"vehicle_type_id":"4","last_reported":1680019938,"current_range_meters":0,"station_id":"ce4bhgh2rcd13ifvqfb0","pricing_plan_id":"free"},{"bike_id":"eadf0f07-17be-4d4a-9f06-5cb44276124c","system_id":"levelo_inurba_marseille","lat":43.250966,"lon":5.395186,"is_reserved":false,"is_disabled":false,"rental_uris":{"android":"levelo://app?vid=eadf0f07-17be-4d4a-9f06-5cb44276124c","ios":"levelo://app?vid=eadf0f07-17be-4d4a-9f06-5cb44276124c"},"vehicle_type_id":"4","last_reported":1680019938,"current_range_meters":27600,"station_id":"ce4bhm12rcd13ifvqgkg","pricing_plan_id":"free"},{"bike_id":"bbd0cec9-2c1c-4259-b687-256457173a90","system_id":"levelo_inurba_marseille","lat":43.24693,"lon":5.382096,"is_reserved":false,"is_disabled":false,"rental_uris":{"android":"levelo://app?vid=bbd0cec9-2c1c-4259-b687-256457173a90","ios":"levelo://app?vid=bbd0cec9-2c1c-4259-b687-256457173a90"},"vehicle_type_id":"4","last_reported":1680019938,"current_range_meters":2000,"station_id":"ce4bhih2rcd13ifvqfr0","pricing_plan_id":"free"},{"bike_id":"0b3c8d01-91ce-43a3-996f-e71c9972a988","system_id":"levelo_inurba_marseille","lat":43.24668,"lon":5.38166,"is_reserved":false,"is_disabled":false,"rental_uris":{"android":"levelo://app?vid=0b3c8d01-91ce-43a3-996f-e71c9972a988","ios":"levelo://app?vid=0b3c8d01-91ce-43a3-996f-e71c9972a988"},"vehicle_type_id":"4","last_reported":1680019938,"current_range_meters":24400,"station_id":"","pricing_plan_id":"free"},{"bike_id":"a5386d18-e550-4ad3-b473-ac2658a71176","system_id":"levelo_inurba_marseille","lat":43.25102,"lon":5.403214,"is_reserved":false,"is_disabled":false,"rental_uris":{"android":"levelo://app?vid=a5386d18-e550-4ad3-b473-ac2658a71176","ios":"levelo://app?vid=a5386d18-e550-4ad3-b473-ac2658a71176"},"vehicle_type_id":"4","last_reported":1680019938,"current_range_meters":7200,"station_id":"ce4bhlh2rcd13ifvqgig","pricing_plan_id":"free"},{"bike_id":"3ae7d356-b324-4cd1-b2a7-4d59f1c71c88","system_id":"levelo_inurba_marseille","lat":43.246461,"lon":5.389014,"is_reserved":false,"is_disabled":false,"rental_uris":{"android":"levelo://app?vid=3ae7d356-b324-4cd1-b2a7-4d59f1c71c88","ios":"levelo://app?vid=3ae7d356-b324-4cd1-b2a7-4d59f1c71c88"},"vehicle_type_id":"4","last_reported":1680019938,"current_range_meters":6000,"station_id":"ce4bhg12rcd13ifvqf60","pricing_plan_id":"free"},{"bike_id":"6909068b-f748-4760-8f20-bbca2a9b87e7","system_id":"levelo_inurba_marseille","lat":43.246461,"lon":5.389014,"is_reserved":false,"is_disabled":false,"rental_uris":{"android":"levelo://app?vid=6909068b-f748-4760-8f20-bbca2a9b87e7","ios":"levelo://app?vid=6909068b-f748-4760-8f20-bbca2a9b87e7"},"vehicle_type_id":"4","last_reported":1680019938,"current_range_meters":22400,"station_id":"ce4bhg12rcd13ifvqf60","pricing_plan_id":"free"},{"bike_id":"1dbd7b5c-a3bc-4684-8d0f-2aa61189fbd6","system_id":"levelo_inurba_marseille","lat":43.24647,"lon":5.38893,"is_reserved":false,"is_disabled":false,"rental_uris":{"android":"levelo://app?vid=1dbd7b5c-a3bc-4684-8d0f-2aa61189fbd6","ios":"levelo://app?vid=1dbd7b5c-a3bc-4684-8d0f-2aa61189fbd6"},"vehicle_type_id":"4","last_reported":1680019938,"current_range_meters":400,"station_id":"ce4bhg12rcd13ifvqf60","pricing_plan_id":"free"},{"bike_id":"911d9e1f-c63b-404e-8724-d855eb5f8bcd","system_id":"levelo_inurba_marseille","lat":43.2455,"lon":5.39524,"is_reserved":false,"is_disabled":false,"rental_uris":{"android":"levelo://app?vid=911d9e1f-c63b-404e-8724-d855eb5f8bcd","ios":"levelo://app?vid=911d9e1f-c63b-404e-8724-d855eb5f8bcd"},"vehicle_type_id":"4","last_reported":1680019938,"current_range_meters":400,"station_id":"ce4bhlp2rcd13ifvqgjg","pricing_plan_id":"free"},{"bike_id":"6f550209-68fd-46f1-ba4d-39e5d9eafc46","system_id":"levelo_inurba_marseille","lat":43.245581,"lon":5.395069,"is_reserved":false,"is_disabled":false,"rental_uris":{"android":"levelo://app?vid=6f550209-68fd-46f1-ba4d-39e5d9eafc46","ios":"levelo://app?vid=6f550209-68fd-46f1-ba4d-39e5d9eafc46"},"vehicle_type_id":"4","last_reported":1680019938,"current_range_meters":24000,"station_id":"ce4bhlp2rcd13ifvqgjg","pricing_plan_id":"free"},{"bike_id":"fbec3828-cbd0-49fa-935c-81cf478cc93f","system_id":"levelo_inurba_marseille","lat":43.28626,"lon":5.45839,"is_reserved":false,"is_disabled":false,"rental_uris":{"android":"levelo://app?vid=fbec3828-cbd0-49fa-935c-81cf478cc93f","ios":"levelo://app?vid=fbec3828-cbd0-49fa-935c-81cf478cc93f"},"vehicle_type_id":"4","last_reported":1680019938,"current_range_meters":16400,"station_id":"","pricing_plan_id":"free"},{"bike_id":"823bf066-386a-4d9a-a680-4933868ed500","system_id":"levelo_inurba_marseille","lat":43.239588,"lon":5.366238,"is_reserved":false,"is_disabled":false,"rental_uris":{"android":"levelo://app?vid=823bf066-386a-4d9a-a680-4933868ed500","ios":"levelo://app?vid=823bf066-386a-4d9a-a680-4933868ed500"},"vehicle_type_id":"4","last_reported":1680019938,"current_range_meters":18800,"station_id":"ce4bhi12rcd13ifvqfp0","pricing_plan_id":"free"},{"bike_id":"bc126bff-078a-434d-b04b-b1ee3cef5a29","system_id":"levelo_inurba_marseille","lat":43.243803,"lon":5.403006,"is_reserved":false,"is_disabled":false,"rental_uris":{"android":"levelo://app?vid=bc126bff-078a-434d-b04b-b1ee3cef5a29","ios":"levelo://app?vid=bc126bff-078a-434d-b04b-b1ee3cef5a29"},"vehicle_type_id":"4","last_reported":1680019938,"current_range_meters":2400,"station_id":"","pricing_plan_id":"free"},{"bike_id":"afa32105-5409-41a9-b0fe-d2fac594821b","system_id":"levelo_inurba_marseille","lat":43.28816,"lon":5.46638,"is_reserved":false,"is_disabled":false,"rental_uris":{"android":"levelo://app?vid=afa32105-5409-41a9-b0fe-d2fac594821b","ios":"levelo://app?vid=afa32105-5409-41a9-b0fe-d2fac594821b"},"vehicle_type_id":"4","last_reported":1680019938,"current_range_meters":0,"station_id":"","pricing_plan_id":"free"},{"bike_id":"15ca304b-77d2-4187-b0d4-f1676325e7d3","system_id":"levelo_inurba_marseille","lat":43.231919,"lon":5.355532,"is_reserved":false,"is_disabled":false,"rental_uris":{"android":"levelo://app?vid=15ca304b-77d2-4187-b0d4-f1676325e7d3","ios":"levelo://app?vid=15ca304b-77d2-4187-b0d4-f1676325e7d3"},"vehicle_type_id":"4","last_reported":1680019938,"current_range_meters":8400,"station_id":"ce4bhu92rcd13ifvqi70","pricing_plan_id":"free"},{"bike_id":"e4f8c274-36d7-4111-80af-756b54d4a4ef","system_id":"levelo_inurba_marseille","lat":43.231923,"lon":5.355545,"is_reserved":false,"is_disabled":false,"rental_uris":{"android":"levelo://app?vid=e4f8c274-36d7-4111-80af-756b54d4a4ef","ios":"levelo://app?vid=e4f8c274-36d7-4111-80af-756b54d4a4ef"},"vehicle_type_id":"4","last_reported":1680019938,"current_range_meters":13200,"station_id":"ce4bhu92rcd13ifvqi70","pricing_plan_id":"free"},{"bike_id":"2244a4c1-a21e-4f22-9095-de6a461adec4","system_id":"levelo_inurba_marseille","lat":43.231919,"lon":5.355532,"is_reserved":false,"is_disabled":false,"rental_uris":{"android":"levelo://app?vid=2244a4c1-a21e-4f22-9095-de6a461adec4","ios":"levelo://app?vid=2244a4c1-a21e-4f22-9095-de6a461adec4"},"vehicle_type_id":"4","last_reported":1680019938,"current_range_meters":22000,"station_id":"ce4bhu92rcd13ifvqi70","pricing_plan_id":"free"},{"bike_id":"eba12d81-c0d7-4ae6-bbb9-fa221825e389","system_id":"levelo_inurba_marseille","lat":43.284621,"lon":5.486919,"is_reserved":false,"is_disabled":false,"rental_uris":{"android":"levelo://app?vid=eba12d81-c0d7-4ae6-bbb9-fa221825e389","ios":"levelo://app?vid=eba12d81-c0d7-4ae6-bbb9-fa221825e389"},"vehicle_type_id":"4","last_reported":1680019938,"current_range_meters":0,"station_id":"","pricing_plan_id":"free"}]}}