{"last_updated":1761923352,"ttl":60,"version":"2.2","data":{"bikes":[{"bike_id":"6883ed1d-ec65-4d48-a080-106e3c08485e","system_id":"levelo_inurba_marseille","lat":43.26504,"lon":5.39538,"is_reserved":false,"is_disabled":false,"rental_uris":{"android":"levelo://app?vid=6883ed1d-ec65-4d48-a080-106e3c08485e","ios":"levelo://app?vid=6883ed1d-ec65-4d48-a080-106e3c08485e"},"vehicle_type_id":"4","last_reported":1761923352,"current_range_meters":2800,"station_id":"ce4bhi12rcd13ifvqfq0","pricing_plan_id":"cebpf4jnsgd1na2vs0mg"},{"bike_id":"fdf050b8-b3fa-449e-b039-5747dbce1232","system_id":"levelo_inurba_marseille","lat":43.29247,"lon":5.3687,"is_reserved":false,"is_disabled":false,"rental_uris":{"android":"levelo://app?vid=fdf050b8-b3fa-449e-b039-5747dbce1232","ios":"levelo://app?vid=fdf050b8-b3fa-449e-b039-5747dbce1232"},"vehicle_type_id":"4","last_reported":1761923352,"current_range_meters":2800,"station_id":"ce4bhbp2rcd13ifvqesg","pricing_plan_id":"cebpf4jnsgd1na2vs0mg"},{"bike_id":"379737e8-18a8-4859-8fb1-49a7bfb19205","system_id":"levelo_inurba_marseille","lat":43.28214,"lon":5.39059,"is_reserved":false,"is_disabled":false,"rental_uris":{"android":"levelo://app?vid=379737e8-18a8-4859-8fb1-49a7bfb19205","ios":"levelo://app?vid=379737e8-18a8-4859-8fb1-49a7bfb19205"},"vehicle_type_id":"4","last_reported":1761923352,"current_range_meters":2800,"station_id":"ce4bhn92rcd13ifvqgsg","pricing_plan_id":"cebpf4jnsgd1na2vs0mg"},{"bike_id":"184d4afd-9425-4c0a-a5ae-3927750773bf","system_id":"levelo_inurba_marseille","lat":43.21752,"lon":5.34603,"is_reserved":false,"is_disabled":false,"rental_uris":{"android":"levelo://app?vid=184d4afd-9425-4c0a-a5ae-3927750773bf","ios":"levelo://app?vid=184d4afd-9425-4c0a-a5ae-3927750773bf"},"vehicle_type_id":"4","last_reported":1761923352,"current_range_meters":2800,"station_id":"st_cvj6r9ubvosntc0bgbag","pricing_plan_id":"cebpf4jnsgd1na2vs0mg"},{"bike_id":"09155159-fd47-4e1b-9d5e-4d62a4b63bc5","system_id":"levelo_inurba_marseille","lat":43.25333,"lon":5.42176,"is_reserved":false,"is_disabled":false,"rental_uris":{"android":"levelo://app?vid=09155159-fd47-4e1b-9d5e-4d62a4b63bc5","ios":"levelo://app?vid=09155159-fd47-4e1b-9d5e-4d62a4b63bc5"},"vehicle_type_id":"4","last_reported":1761923352,"current_range_meters":2800,"station_id":"st_d2m65c5bi1j21697t3ng","pricing_plan_id":"cebpf4jnsgd1na2vs0mg"},{"bike_id":"4601621d-c717-424b-9642-cac5741d6865","system_id":"levelo_inurba_marseille","lat":43.291043,"lon":5.381375,"is_reserved":false,"is_disabled":false,"rental_uris":{"android":"levelo://app?vid=4601621d-c717-424b-9642-cac5741d6865","ios":"levelo://app?vid=4601621d-c717-424b-9642-cac5741d6865"},"vehicle_type_id":"4","last_reported":1761923352,"current_range_meters":3200,"station_id":"ce4bh512rcd13ifvqe2g","pricing_plan_id":"cebpf4jnsgd1na2vs0mg"},{"bike_id":"21b86db4-03a3-4c01-bb06-3bfb292690b6","system_id":"levelo_inurba_marseille","lat":43.2737,"lon":5.36261,"is_reserved":false,"is_disabled":false,"rental_uris":{"android":"levelo://app?vid=21b86db4-03a3-4c01-bb06-3bfb292690b6","ios":"levelo://app?vid=21b86db4-03a3-4c01-bb06-3bfb292690b6"},"vehicle_type_id":"4","last_reported":1761923352,"current_range_meters":3200,"station_id":"ce4bhbh2rcd13ifvqeo0","pricing_plan_id":"cebpf4jnsgd1na2vs0mg"},{"bike_id":"2455accb-ccd0-4523-ab08-5d95b84a82f8","system_id":"levelo_inurba_marseille","lat":43.304286,"lon":5.389024,"is_reserved":false,"is_disabled":false,"rental_uris":{"android":"levelo://app?vid=2455accb-ccd0-4523-ab08-5d95b84a82f8","ios":"levelo://app?vid=2455accb-ccd0-4523-ab08-5d95b84a82f8"},"vehicle_type_id":"4","last_reported":1761923352,"current_range_meters":3200,"station_id":"ce4bgk12rcd13ifvqbi0","pricing_plan_id":"cebpf4jnsgd1na2vs0mg"},{"bike_id":"cec9a579-b83d-49fe-8cd1-6628c9674691","system_id":"levelo_inurba_marseille","lat":43.31219,"lon":5.36864,"is_reserved":false,"is_disabled":false,"rental_uris":{"android":"levelo://app?vid=cec9a579-b83d-49fe-8cd1-6628c9674691","ios":"levelo://app?vid=cec9a579-b83d-49fe-8cd1-6628c9674691"},"vehicle_type_id":"4","last_reported":1761923352,"current_range_meters":3600,"station_id":"ce4bgl92rcd13ifvqbq0","pricing_plan_id":"cebpf4jnsgd1na2vs0mg"},{"bike_id":"cea68df1-a6f3-468a-a636-f2408cca0982","system_id":"levelo_inurba_marseille","lat":43.23192,"lon":5.3556,"is_reserved":false,"is_disabled":false,"rental_uris":{"android":"levelo://app?vid=cea68df1-a6f3-468a-a636-f2408cca0982","ios":"levelo://app?vid=cea68df1-a6f3-468a-a636-f2408cca0982"},"vehicle_type_id":"4","last_reported":1761923352,"current_range_meters":3600,"station_id":"ce4bhu92rcd13ifvqi70","pricing_plan_id":"cebpf4jnsgd1na2vs0mg"},{"bike_id":"d20c4d30-7835-4848-ad1c-4a6356b1e6a5","system_id":"levelo_inurba_marseille","lat":43.31328,"lon":5.39693,"is_reserved":false,"is_disabled":false,"rental_uris":{"android":"levelo://app?vid=d20c4d30-7835-4848-ad1c-4a6356b1e6a5","ios":"levelo://app?vid=d20c4d30-7835-4848-ad1c-4a6356b1e6a5"},"vehicle_type_id":"4","last_reported":1761923352,"current_range_meters":3600,"station_id":"ce4bgvp2rcd13ifvqcu0","pricing_plan_id":"cebpf4jnsgd1na2vs0mg"},{"bike_id":"465a950f-babe-4c10-9bda-1d99b3678051","system_id":"levelo_inurba_marseille","lat":43.29488,"lon":5.43314,"is_reserved":false,"is_disabled":false,"rental_uris":{"android":"levelo://app?vid=465a950f-babe-4c10-9bda-1d99b3678051","ios":"levelo://app?vid=465a950f-babe-4c10-9bda-1d99b3678051"},"vehicle_type_id":"4","last_reported":1761923352,"current_range_meters":3600,"station_id":"st_d3j5ugp08ojc73fj9d10","pricing_plan_id":"cebpf4jnsgd1na2vs0mg"},{"bike_id":"21f85c3a-d8ad-430c-8cc9-552ce7a31cd0","system_id":"levelo_inurba_marseille","lat":43.2655,"lon":5.39028,"is_reserved":false,"is_disabled":false,"rental_uris":{"android":"levelo://app?vid=21f85c3a-d8ad-430c-8cc9-552ce7a31cd0","ios":"levelo://app?vid=21f85c3a-d8ad-430c-8cc9-552ce7a31cd0"},"vehicle_type_id":"4","last_reported":1761923352,"current_range_meters":3600,"station_id":"ce4bhe12rcd13ifvqf30","pricing_plan_id":"cebpf4jnsgd1na2vs0mg"},{"bike_id":"afa4077a-36a7-4e0c-adbc-b6fea302c38c","system_id":"levelo_inurba_marseille","lat":43.267892,"lon":5.394115,"is_reserved":false,"is_disabled":false,"rental_uris":{"android":"levelo://app?vid=afa4077a-36a7-4e0c-adbc-b6fea302c38c","ios":"levelo://app?vid=afa4077a-36a7-4e0c-adbc-b6fea302c38c"},"vehicle_type_id":"4","last_reported":1761923352,"current_range_meters":4000,"station_id":"ce4bhh12rcd13ifvqfg0","pricing_plan_id":"cebpf4jnsgd1na2vs0mg"},{"bike_id":"a10a59de-5871-436a-be51-5ed8d4d4b315","system_id":"levelo_inurba_marseille","lat":43.27204,"lon":5.39181,"is_reserved":false,"is_disabled":false,"rental_uris":{"android":"levelo://app?vid=a10a59de-5871-436a-be51-5ed8d4d4b315","ios":"levelo://app?vid=a10a59de-5871-436a-be51-5ed8d4d4b315"},"vehicle_type_id":"4","last_reported":1761923352,"current_range_meters":4000,"station_id":"ce4bhhp2rcd13ifvqfm0","pricing_plan_id":"cebpf4jnsgd1na2vs0mg"},{"bike_id":"578383f1-2c1a-4a63-8744-3f60621281fa","system_id":"levelo_inurba_marseille","lat":43.29007,"lon":5.37589,"is_reserved":false,"is_disabled":false,"rental_uris":{"android":"levelo://app?vid=578383f1-2c1a-4a63-8744-3f60621281fa","ios":"levelo://app?vid=578383f1-2c1a-4a63-8744-3f60621281fa"},"vehicle_type_id":"4","last_reported":1761923352,"current_range_meters":4400,"station_id":"ce4bh692rcd13ifvqe90","pricing_plan_id":"cebpf4jnsgd1na2vs0mg"},{"bike_id":"80cde17b-197a-4666-8e1e-92c981f7a2d9","system_id":"levelo_inurba_marseille","lat":43.29524,"lon":5.42336,"is_reserved":false,"is_disabled":false,"rental_uris":{"android":"levelo://app?vid=80cde17b-197a-4666-8e1e-92c981f7a2d9","ios":"levelo://app?vid=80cde17b-197a-4666-8e1e-92c981f7a2d9"},"vehicle_type_id":"4","last_reported":1761923352,"current_range_meters":4400,"station_id":"ce4bhph2rcd13ifvqhdg","pricing_plan_id":"cebpf4jnsgd1na2vs0mg"},{"bike_id":"68618520-cfb3-423f-80d3-84d02ed9fa76","system_id":"levelo_inurba_marseille","lat":43.25583,"lon":5.38242,"is_reserved":false,"is_disabled":false,"rental_uris":{"android":"levelo://app?vid=68618520-cfb3-423f-80d3-84d02ed9fa76","ios":"levelo://app?vid=68618520-cfb3-423f-80d3-84d02ed9fa76"},"vehicle_type_id":"4","last_reported":1761923352,"current_range_meters":4400,"station_id":"ce4bhih2rcd13ifvqfs0","pricing_plan_id":"cebpf4jnsgd1na2vs0mg"},{"bike_id":"6277072e-c205-4611-9d3f-b0a7b32b64c5","system_id":"levelo_inurba_marseille","lat":43.3013,"lon":5.398502,"is_reserved":false,"is_disabled":false,"rental_uris":{"android":"levelo://app?vid=6277072e-c205-4611-9d3f-b0a7b32b64c5","ios":"levelo://app?vid=6277072e-c205-4611-9d3f-b0a7b32b64c5"},"vehicle_type_id":"4","last_reported":1761923352,"current_range_meters":4400,"station_id":"ce4bh0h2rcd13ifvqd40","pricing_plan_id":"cebpf4jnsgd1na2vs0mg"},{"bike_id":"4a75bcc7-9c13-4fa5-bcb2-30e0a9ca7a1a","system_id":"levelo_inurba_marseille","lat":43.29104,"lon":5.38127,"is_reserved":false,"is_disabled":false,"rental_uris":{"android":"levelo://app?vid=4a75bcc7-9c13-4fa5-bcb2-30e0a9ca7a1a","ios":"levelo://app?vid=4a75bcc7-9c13-4fa5-bcb2-30e0a9ca7a1a"},"vehicle_type_id":"4","last_reported":1761923352,"current_range_meters":5600,"station_id":"ce4bh512rcd13ifvqe2g","pricing_plan_id":"cebpf4jnsgd1na2vs0mg"},{"bike_id":"423854c6-12a7-4ce4-ab9c-adf54a6f0e73","system_id":"levelo_inurba_marseille","lat":43.309655,"lon":5.390287,"is_reserved":false,"is_disabled":false,"rental_uris":{"android":"levelo://app?vid=423854c6-12a7-4ce4-ab9c-adf54a6f0e73","ios":"levelo://app?vid=423854c6-12a7-4ce4-ab9c-adf54a6f0e73"},"vehicle_type_id":"4","last_reported":1761923352,"current_range_meters":5600,"station_id":"ce4bgup2rcd13ifvqco0","pricing_plan_id":"cebpf4jnsgd1na2vs0mg"},{"bike_id":"59c6ae7b-72c6-40ea-9c0e-c6354cfcdb31","system_id":"levelo_inurba_marseille","lat":43.29599,"lon":5.37724,"is_reserved":false,"is_disabled":false,"rental_uris":{"android":"levelo://app?vid=59c6ae7b-72c6-40ea-9c0e-c6354cfcdb31","ios":"levelo://app?vid=59c6ae7b-72c6-40ea-9c0e-c6354cfcdb31"},"vehicle_type_id":"4","last_reported":1761923352,"current_range_meters":5600,"station_id":"ce4bgi92rcd13ifvqb90","pricing_plan_id":"cebpf4jnsgd1na2vs0mg"},{"bike_id":"2c28eae7-ae69-4bbd-b543-da98b26b9927","system_id":"levelo_inurba_marseille","lat":43.30239,"lon":5.40083,"is_reserved":false,"is_disabled":false,"rental_uris":{"android":"levelo://app?vid=2c28eae7-ae69-4bbd-b543-da98b26b9927","ios":"levelo://app?vid=2c28eae7-ae69-4bbd-b543-da98b26b9927"},"vehicle_type_id":"4","last_reported":1761923352,"current_range_meters":6000,"station_id":"ce4bgvh2rcd13ifvqcs0","pricing_plan_id":"cebpf4jnsgd1na2vs0mg"},{"bike_id":"c44f6245-2421-495a-9bea-f35811081811","system_id":"levelo_inurba_marseille","lat":43.3014,"lon":5.39849,"is_reserved":false,"is_disabled":false,"rental_uris":{"android":"levelo://app?vid=c44f6245-2421-495a-9bea-f35811081811","ios":"levelo://app?vid=c44f6245-2421-495a-9bea-f35811081811"},"vehicle_type_id":"4","last_reported":1761923352,"current_range_meters":6000,"station_id":"ce4bh0h2rcd13ifvqd40","pricing_plan_id":"cebpf4jnsgd1na2vs0mg"},{"bike_id":"fcab4ddf-7c9a-4832-a957-af763c1f4abb","system_id":"levelo_inurba_marseille","lat":43.303754,"lon":5.424958,"is_reserved":false,"is_disabled":true,"rental_uris":{"android":"levelo://app?vid=fcab4ddf-7c9a-4832-a957-af763c1f4abb","ios":"levelo://app?vid=fcab4ddf-7c9a-4832-a957-af763c1f4abb"},"vehicle_type_id":"4","last_reported":1761923352,"current_range_meters":6400,"station_id":"","pricing_plan_id":"cebpf4jnsgd1na2vs0mg"},{"bike_id":"1bdb0524-fd2f-434a-9e83-4b7a1a09b5bb","system_id":"levelo_inurba_marseille","lat":43.33388,"lon":5.41127,"is_reserved":false,"is_disabled":false,"rental_uris":{"android":"levelo://app?vid=1bdb0524-fd2f-434a-9e83-4b7a1a09b5bb","ios":"levelo://app?vid=1bdb0524-fd2f-434a-9e83-4b7a1a09b5bb"},"vehicle_type_id":"4","last_reported":1761923352,"current_range_meters":6400,"station_id":"","pricing_plan_id":"cebpf4jnsgd1na2vs0mg"},{"bike_id":"0181abcb-06db-4986-9ddd-609f8594ba25","system_id":"levelo_inurba_marseille","lat":43.29535,"lon":5.3902,"is_reserved":false,"is_disabled":false,"rental_uris":{"android":"levelo://app?vid=0181abcb-06db-4986-9ddd-609f8594ba25","ios":"levelo://app?vid=0181abcb-06db-4986-9ddd-609f8594ba25"},"vehicle_type_id":"4","last_reported":1761923352,"current_range_meters":6800,"station_id":"","pricing_plan_id":"cebpf4jnsgd1na2vs0mg"},{"bike_id":"d66f0a2c-6a20-4c9c-9c48-a0af1bd64efa","system_id":"levelo_inurba_marseille","lat":43.21758,"lon":5.34583,"is_reserved":false,"is_disabled":false,"rental_uris":{"android":"levelo://app?vid=d66f0a2c-6a20-4c9c-9c48-a0af1bd64efa","ios":"levelo://app?vid=d66f0a2c-6a20-4c9c-9c48-a0af1bd64efa"},"vehicle_type_id":"4","last_reported":1761923352,"current_range_meters":6800,"station_id":"st_cvj6r9ubvosntc0bgbag","pricing_plan_id":"cebpf4jnsgd1na2vs0mg"},{"bike_id":"4ea5c8d3-596b-4c15-9f77-2d54d14bff42","system_id":"levelo_inurba_marseille","lat":43.29875,"lon":5.3844,"is_reserved":false,"is_disabled":false,"rental_uris":{"android":"levelo://app?vid=4ea5c8d3-596b-4c15-9f77-2d54d14bff42","ios":"levelo://app?vid=4ea5c8d3-596b-4c15-9f77-2d54d14bff42"},"vehicle_type_id":"4","last_reported":1761923352,"current_range_meters":7200,"station_id":"","pricing_plan_id":"cebpf4jnsgd1na2vs0mg"},{"bike_id":"6fff56e2-dc33-4322-9554-e738206d1bc0","system_id":"levelo_inurba_marseille","lat":43.21212,"lon":5.35066,"is_reserved":false,"is_disabled":false,"rental_uris":{"android":"levelo://app?vid=6fff56e2-dc33-4322-9554-e738206d1bc0","ios":"levelo://app?vid=6fff56e2-dc33-4322-9554-e738206d1bc0"},"vehicle_type_id":"4","last_reported":1761923352,"current_range_meters":7200,"station_id":"st_cvj6sg6p6f1abm77japg","pricing_plan_id":"cebpf4jnsgd1na2vs0mg"},{"bike_id":"acbe752e-349a-43de-be14-7865c3ef0730","system_id":"levelo_inurba_marseille","lat":43.27995,"lon":5.40016,"is_reserved":false,"is_disabled":false,"rental_uris":{"android":"levelo://app?vid=acbe752e-349a-43de-be14-7865c3ef0730","ios":"levelo://app?vid=acbe752e-349a-43de-be14-7865c3ef0730"},"vehicle_type_id":"4","last_reported":1761923352,"current_range_meters":7200,"station_id":"ce4bho92rcd13ifvqh4g","pricing_plan_id":"cebpf4jnsgd1na2vs0mg"},{"bike_id":"9038c29f-6a34-4120-bb79-f434e4a87b1c","system_id":"levelo_inurba_marseille","lat":43.23159,"lon":5.43708,"is_reserved":false,"is_disabled":false,"rental_uris":{"android":"levelo://app?vid=9038c29f-6a34-4120-bb79-f434e4a87b1c","ios":"levelo://app?vid=9038c29f-6a34-4120-bb79-f434e4a87b1c"},"vehicle_type_id":"4","last_reported":1761923352,"current_range_meters":7200,"station_id":"ce4bhmp2rcd13ifvqgog","pricing_plan_id":"cebpf4jnsgd1na2vs0mg"},{"bike_id":"dedcfb8a-3680-47c8-a0be-534a8c9c1cbf","system_id":"levelo_inurba_marseille","lat":43.27805,"lon":5.40731,"is_reserved":false,"is_disabled":false,"rental_uris":{"android":"levelo://app?vid=dedcfb8a-3680-47c8-a0be-534a8c9c1cbf","ios":"levelo://app?vid=dedcfb8a-3680-47c8-a0be-534a8c9c1cbf"},"vehicle_type_id":"4","last_reported":1761923352,"current_range_meters":7200,"station_id":"ce4bhnh2rcd13ifvqgtg","pricing_plan_id":"cebpf4jnsgd1na2vs0mg"},{"bike_id":"b9da4139-f426-4ae2-bc72-28d6fe879f0a","system_id":"levelo_inurba_marseille","lat":43.27204,"lon":5.39182,"is_reserved":false,"is_disabled":false,"rental_uris":{"android":"levelo://app?vid=b9da4139-f426-4ae2-bc72-28d6fe879f0a","ios":"levelo://app?vid=b9da4139-f426-4ae2-bc72-28d6fe879f0a"},"vehicle_type_id":"4","last_reported":1761923352,"current_range_meters":7200,"station_id":"ce4bhhp2rcd13ifvqfm0","pricing_plan_id":"cebpf4jnsgd1na2vs0mg"},{"bike_id":"b842f61a-3b9e-46d7-8109-51a8910c026a","system_id":"levelo_inurba_marseille","lat":43.21198,"lon":5.35088,"is_reserved":false,"is_disabled":false,"rental_uris":{"android":"levelo://app?vid=b842f61a-3b9e-46d7-8109-51a8910c026a","ios":"levelo://app?vid=b842f61a-3b9e-46d7-8109-51a8910c026a"},"vehicle_type_id":"4","last_reported":1761923352,"current_range_meters":8000,"station_id":"st_cvj6sg6p6f1abm77japg","pricing_plan_id":"cebpf4jnsgd1na2vs0mg"},{"bike_id":"2391958f-2f40-4da2-af29-ede1993f2e5d","system_id":"levelo_inurba_marseille","lat":43.26595,"lon":5.38969,"is_reserved":false,"is_disabled":false,"rental_uris":{"android":"levelo://app?vid=2391958f-2f40-4da2-af29-ede1993f2e5d","ios":"levelo://app?vid=2391958f-2f40-4da2-af29-ede1993f2e5d"},"vehicle_type_id":"4","last_reported":1761923352,"current_range_meters":8000,"station_id":"ce4bhe12rcd13ifvqf30","pricing_plan_id":"cebpf4jnsgd1na2vs0mg"},{"bike_id":"5eec6890-1f59-4fba-bd87-b302744fea18","system_id":"levelo_inurba_marseille","lat":43.288553,"lon":5.425202,"is_reserved":false,"is_disabled":false,"rental_uris":{"android":"levelo://app?vid=5eec6890-1f59-4fba-bd87-b302744fea18","ios":"levelo://app?vid=5eec6890-1f59-4fba-bd87-b302744fea18"},"vehicle_type_id":"4","last_reported":1761923352,"current_range_meters":8000,"station_id":"st_d3b462108ojc7389ooeg","pricing_plan_id":"cebpf4jnsgd1na2vs0mg"},{"bike_id":"4d42917f-5aa2-48e0-9a32-c7de63897b7f","system_id":"levelo_inurba_marseille","lat":43.26939,"lon":5.40256,"is_reserved":false,"is_disabled":false,"rental_uris":{"android":"levelo://app?vid=4d42917f-5aa2-48e0-9a32-c7de63897b7f","ios":"levelo://app?vid=4d42917f-5aa2-48e0-9a32-c7de63897b7f"},"vehicle_type_id":"4","last_reported":1761923352,"current_range_meters":8000,"station_id":"cjm6bp8fraef2m0cb0m0","pricing_plan_id":"cebpf4jnsgd1na2vs0mg"},{"bike_id":"7d97a784-1b7f-4f59-8609-b3354adb259d","system_id":"levelo_inurba_marseille","lat":43.26796,"lon":5.39438,"is_reserved":false,"is_disabled":false,"rental_uris":{"android":"levelo://app?vid=7d97a784-1b7f-4f59-8609-b3354adb259d","ios":"levelo://app?vid=7d97a784-1b7f-4f59-8609-b3354adb259d"},"vehicle_type_id":"4","last_reported":1761923352,"current_range_meters":8400,"station_id":"ce4bhh12rcd13ifvqfg0","pricing_plan_id":"cebpf4jnsgd1na2vs0mg"},{"bike_id":"688e0991-23bb-4f67-a97d-b9bb7704a66a","system_id":"levelo_inurba_marseille","lat":43.29255,"lon":5.39101,"is_reserved":false,"is_disabled":false,"rental_uris":{"android":"levelo://app?vid=688e0991-23bb-4f67-a97d-b9bb7704a66a","ios":"levelo://app?vid=688e0991-23bb-4f67-a97d-b9bb7704a66a"},"vehicle_type_id":"4","last_reported":1761923352,"current_range_meters":8400,"station_id":"","pricing_plan_id":"cebpf4jnsgd1na2vs0mg"},{"bike_id":"81283c87-a5a5-4400-a156-e1164d4124e6","system_id":"levelo_inurba_marseille","lat":43.31711,"lon":5.43705,"is_reserved":false,"is_disabled":false,"rental_uris":{"android":"levelo://app?vid=81283c87-a5a5-4400-a156-e1164d4124e6","ios":"levelo://app?vid=81283c87-a5a5-4400-a156-e1164d4124e6"},"vehicle_type_id":"4","last_reported":1761923352,"current_range_meters":8400,"station_id":"ce4bhp92rcd13ifvqhcg","pricing_plan_id":"cebpf4jnsgd1na2vs0mg"},{"bike_id":"7478e621-9444-4405-a87f-7fd5251a88f3","system_id":"levelo_inurba_marseille","lat":43.30967,"lon":5.39044,"is_reserved":false,"is_disabled":false,"rental_uris":{"android":"levelo://app?vid=7478e621-9444-4405-a87f-7fd5251a88f3","ios":"levelo://app?vid=7478e621-9444-4405-a87f-7fd5251a88f3"},"vehicle_type_id":"4","last_reported":1761923352,"current_range_meters":8400,"station_id":"ce4bgup2rcd13ifvqco0","pricing_plan_id":"cebpf4jnsgd1na2vs0mg"},{"bike_id":"27293f7c-1240-4b5e-85bc-bfdd4564b214","system_id":"levelo_inurba_marseille","lat":43.32462,"lon":5.36564,"is_reserved":false,"is_disabled":false,"rental_uris":{"android":"levelo://app?vid=27293f7c-1240-4b5e-85bc-bfdd4564b214","ios":"levelo://app?vid=27293f7c-1240-4b5e-85bc-bfdd4564b214"},"vehicle_type_id":"4","last_reported":1761923352,"current_range_meters":8800,"station_id":"ce4bhs12rcd13ifvqhvg","pricing_plan_id":"cebpf4jnsgd1na2vs0mg"},{"bike_id":"969a9f19-9968-4602-ab99-41f66a857e06","system_id":"levelo_inurba_marseille","lat":43.284115,"lon":5.375044,"is_reserved":false,"is_disabled":false,"rental_uris":{"android":"levelo://app?vid=969a9f19-9968-4602-ab99-41f66a857e06","ios":"levelo://app?vid=969a9f19-9968-4602-ab99-41f66a857e06"},"vehicle_type_id":"4","last_reported":1761923352,"current_range_meters":8800,"station_id":"ce4bh412rcd13ifvqds0","pricing_plan_id":"cebpf4jnsgd1na2vs0mg"},{"bike_id":"b41a26a2-4416-4670-92ef-4f9cf4633c3e","system_id":"levelo_inurba_marseille","lat":43.312396,"lon":5.368826,"is_reserved":false,"is_disabled":false,"rental_uris":{"android":"levelo://app?vid=b41a26a2-4416-4670-92ef-4f9cf4633c3e","ios":"levelo://app?vid=b41a26a2-4416-4670-92ef-4f9cf4633c3e"},"vehicle_type_id":"4","last_reported":1761923352,"current_range_meters":8800,"station_id":"ce4bgl92rcd13ifvqbq0","pricing_plan_id":"cebpf4jnsgd1na2vs0mg"},{"bike_id":"7cfdbbc4-ff84-4dcb-aadb-851bef97398b","system_id":"levelo_inurba_marseille","lat":43.27424,"lon":5.3942,"is_reserved":false,"is_disabled":false,"rental_uris":{"android":"levelo://app?vid=7cfdbbc4-ff84-4dcb-aadb-851bef97398b","ios":"levelo://app?vid=7cfdbbc4-ff84-4dcb-aadb-851bef97398b"},"vehicle_type_id":"4","last_reported":1761923352,"current_range_meters":8800,"station_id":"ce4bhdp2rcd13ifvqf20","pricing_plan_id":"cebpf4jnsgd1na2vs0mg"},{"bike_id":"8d5c729c-e054-439f-b535-b5780c1bcbed","system_id":"levelo_inurba_marseille","lat":43.29353,"lon":5.37834,"is_reserved":false,"is_disabled":false,"rental_uris":{"android":"levelo://app?vid=8d5c729c-e054-439f-b535-b5780c1bcbed","ios":"levelo://app?vid=8d5c729c-e054-439f-b535-b5780c1bcbed"},"vehicle_type_id":"4","last_reported":1761923352,"current_range_meters":8800,"station_id":"ce4bgjh2rcd13ifvqbf0","pricing_plan_id":"cebpf4jnsgd1na2vs0mg"},{"bike_id":"b944cab9-0f4b-415a-adfb-d925620f3b5d","system_id":"levelo_inurba_marseille","lat":43.25821,"lon":5.39452,"is_reserved":false,"is_disabled":false,"rental_uris":{"android":"levelo://app?vid=b944cab9-0f4b-415a-adfb-d925620f3b5d","ios":"levelo://app?vid=b944cab9-0f4b-415a-adfb-d925620f3b5d"},"vehicle_type_id":"4","last_reported":1761923352,"current_range_meters":8800,"station_id":"ce4bhip2rcd13ifvqft0","pricing_plan_id":"cebpf4jnsgd1na2vs0mg"},{"bike_id":"6647fba3-8c9f-4316-8e75-e5a829b7a5bd","system_id":"levelo_inurba_marseille","lat":43.23153,"lon":5.43738,"is_reserved":false,"is_disabled":false,"rental_uris":{"android":"levelo://app?vid=6647fba3-8c9f-4316-8e75-e5a829b7a5bd","ios":"levelo://app?vid=6647fba3-8c9f-4316-8e75-e5a829b7a5bd"},"vehicle_type_id":"4","last_reported":1761923352,"current_range_meters":8800,"station_id":"ce4bhmp2rcd13ifvqgog","pricing_plan_id":"cebpf4jnsgd1na2vs0mg"},{"bike_id":"dbbf01d5-146c-4703-b0d4-a6fb876476cb","system_id":"levelo_inurba_marseille","lat":43.21191,"lon":5.35075,"is_reserved":false,"is_disabled":false,"rental_uris":{"android":"levelo://app?vid=dbbf01d5-146c-4703-b0d4-a6fb876476cb","ios":"levelo://app?vid=dbbf01d5-146c-4703-b0d4-a6fb876476cb"},"vehicle_type_id":"4","last_reported":1761923352,"current_range_meters":8800,"station_id":"st_cvj6sg6p6f1abm77japg","pricing_plan_id":"cebpf4jnsgd1na2vs0mg"},{"bike_id":"0a29d0e9-591e-4805-a94c-1989ece67882","system_id":"levelo_inurba_marseille","lat":43.24547,"lon":5.39532,"is_reserved":false,"is_disabled":false,"rental_uris":{"android":"levelo://app?vid=0a29d0e9-591e-4805-a94c-1989ece67882","ios":"levelo://app?vid=0a29d0e9-591e-4805-a94c-1989ece67882"},"vehicle_type_id":"4","last_reported":1761923352,"current_range_meters":9200,"station_id":"ce4bhlp2rcd13ifvqgjg","pricing_plan_id":"cebpf4jnsgd1na2vs0mg"},{"bike_id":"eff1a7f4-9c07-430e-88d0-fae254cf0222","system_id":"levelo_inurba_marseille","lat":43.21749,"lon":5.34604,"is_reserved":false,"is_disabled":false,"rental_uris":{"android":"levelo://app?vid=eff1a7f4-9c07-430e-88d0-fae254cf0222","ios":"levelo://app?vid=eff1a7f4-9c07-430e-88d0-fae254cf0222"},"vehicle_type_id":"4","last_reported":1761923352,"current_range_meters":9200,"station_id":"st_cvj6r9ubvosntc0bgbag","pricing_plan_id":"cebpf4jnsgd1na2vs0mg"},{"bike_id":"1710ff84-d6fa-4f61-81ab-d4e6922d6eea","system_id":"levelo_inurba_marseille","lat":43.2706,"lon":5.40258,"is_reserved":false,"is_disabled":false,"rental_uris":{"android":"levelo://app?vid=1710ff84-d6fa-4f61-81ab-d4e6922d6eea","ios":"levelo://app?vid=1710ff84-d6fa-4f61-81ab-d4e6922d6eea"},"vehicle_type_id":"4","last_reported":1761923352,"current_range_meters":9200,"station_id":"ce4bhk92rcd13ifvqgc0","pricing_plan_id":"cebpf4jnsgd1na2vs0mg"},{"bike_id":"9da20755-632d-4e5f-9d7c-ad605fa18172","system_id":"levelo_inurba_marseille","lat":43.26202,"lon":5.37457,"is_reserved":false,"is_disabled":false,"rental_uris":{"android":"levelo://app?vid=9da20755-632d-4e5f-9d7c-ad605fa18172","ios":"levelo://app?vid=9da20755-632d-4e5f-9d7c-ad605fa18172"},"vehicle_type_id":"4","last_reported":1761923352,"current_range_meters":9200,"station_id":"ce4bhgp2rcd13ifvqfc0","pricing_plan_id":"cebpf4jnsgd1na2vs0mg"},{"bike_id":"d99505fe-d7a7-4e44-b7f5-f0065cd01a03","system_id":"levelo_inurba_marseille","lat":43.3337,"lon":5.42933,"is_reserved":false,"is_disabled":false,"rental_uris":{"android":"levelo://app?vid=d99505fe-d7a7-4e44-b7f5-f0065cd01a03","ios":"levelo://app?vid=d99505fe-d7a7-4e44-b7f5-f0065cd01a03"},"vehicle_type_id":"4","last_reported":1761923352,"current_range_meters":9600,"station_id":"","pricing_plan_id":"cebpf4jnsgd1na2vs0mg"},{"bike_id":"b96e1e9c-8865-415c-8d56-f54d72b12b5d","system_id":"levelo_inurba_marseille","lat":43.27417,"lon":5.39381,"is_reserved":false,"is_disabled":false,"rental_uris":{"android":"levelo://app?vid=b96e1e9c-8865-415c-8d56-f54d72b12b5d","ios":"levelo://app?vid=b96e1e9c-8865-415c-8d56-f54d72b12b5d"},"vehicle_type_id":"4","last_reported":1761923352,"current_range_meters":9600,"station_id":"ce4bhdp2rcd13ifvqf20","pricing_plan_id":"cebpf4jnsgd1na2vs0mg"},{"bike_id":"b7bf08da-3155-4ebd-90f6-2c65138a1e9a","system_id":"levelo_inurba_marseille","lat":43.21181,"lon":5.35091,"is_reserved":false,"is_disabled":false,"rental_uris":{"android":"levelo://app?vid=b7bf08da-3155-4ebd-90f6-2c65138a1e9a","ios":"levelo://app?vid=b7bf08da-3155-4ebd-90f6-2c65138a1e9a"},"vehicle_type_id":"4","last_reported":1761923352,"current_range_meters":9600,"station_id":"st_cvj6sg6p6f1abm77japg","pricing_plan_id":"cebpf4jnsgd1na2vs0mg"},{"bike_id":"ae672b5b-fab2-4dfa-9ece-35c6f288d851","system_id":"levelo_inurba_marseille","lat":43.24994,"lon":5.38951,"is_reserved":false,"is_disabled":false,"rental_uris":{"android":"levelo://app?vid=ae672b5b-fab2-4dfa-9ece-35c6f288d851","ios":"levelo://app?vid=ae672b5b-fab2-4dfa-9ece-35c6f288d851"},"vehicle_type_id":"4","last_reported":1761923352,"current_range_meters":9600,"station_id":"ce4bhgp2rcd13ifvqfd0","pricing_plan_id":"cebpf4jnsgd1na2vs0mg"},{"bike_id":"bfa3e7ed-80f6-4eb3-a6b6-7786fe03fc44","system_id":"levelo_inurba_marseille","lat":43.31361,"lon":5.36713,"is_reserved":false,"is_disabled":false,"rental_uris":{"android":"levelo://app?vid=bfa3e7ed-80f6-4eb3-a6b6-7786fe03fc44","ios":"levelo://app?vid=bfa3e7ed-80f6-4eb3-a6b6-7786fe03fc44"},"vehicle_type_id":"4","last_reported":1761923352,"current_range_meters":9600,"station_id":"","pricing_plan_id":"cebpf4jnsgd1na2vs0mg"},{"bike_id":"9b93b5e1-c939-4745-bf85-2d21945442dc","system_id":"levelo_inurba_marseille","lat":43.2999,"lon":5.36411,"is_reserved":false,"is_disabled":false,"rental_uris":{"android":"levelo://app?vid=9b93b5e1-c939-4745-bf85-2d21945442dc","ios":"levelo://app?vid=9b93b5e1-c939-4745-bf85-2d21945442dc"},"vehicle_type_id":"4","last_reported":1761923352,"current_range_meters":10000,"station_id":"","pricing_plan_id":"cebpf4jnsgd1na2vs0mg"},{"bike_id":"6d793f1a-bffd-4dca-8689-f30f1f050b48","system_id":"levelo_inurba_marseille","lat":43.28535,"lon":5.44108,"is_reserved":false,"is_disabled":false,"rental_uris":{"android":"levelo://app?vid=6d793f1a-bffd-4dca-8689-f30f1f050b48","ios":"levelo://app?vid=6d793f1a-bffd-4dca-8689-f30f1f050b48"},"vehicle_type_id":"4","last_reported":1761923352,"current_range_meters":10000,"station_id":"st_d3j3df2ikq2c7380ej80","pricing_plan_id":"cebpf4jnsgd1na2vs0mg"},{"bike_id":"a18dbf48-2c4d-4fa4-a4c5-c9871d73c9a0","system_id":"levelo_inurba_marseille","lat":43.301994,"lon":5.383462,"is_reserved":false,"is_disabled":false,"rental_uris":{"android":"levelo://app?vid=a18dbf48-2c4d-4fa4-a4c5-c9871d73c9a0","ios":"levelo://app?vid=a18dbf48-2c4d-4fa4-a4c5-c9871d73c9a0"},"vehicle_type_id":"4","last_reported":1761923352,"current_range_meters":10000,"station_id":"ce4bgup2rcd13ifvqcn0","pricing_plan_id":"cebpf4jnsgd1na2vs0mg"},{"bike_id":"c34deba7-47e1-4e31-9577-769fcefc995b","system_id":"levelo_inurba_marseille","lat":43.26568,"lon":5.39005,"is_reserved":false,"is_disabled":false,"rental_uris":{"android":"levelo://app?vid=c34deba7-47e1-4e31-9577-769fcefc995b","ios":"levelo://app?vid=c34deba7-47e1-4e31-9577-769fcefc995b"},"vehicle_type_id":"4","last_reported":1761923352,"current_range_meters":10000,"station_id":"ce4bhe12rcd13ifvqf30","pricing_plan_id":"cebpf4jnsgd1na2vs0mg"},{"bike_id":"b61e1e59-261f-4781-9885-10fc3dd1eaf7","system_id":"levelo_inurba_marseille","lat":43.30449,"lon":5.36913,"is_reserved":false,"is_disabled":false,"rental_uris":{"android":"levelo://app?vid=b61e1e59-261f-4781-9885-10fc3dd1eaf7","ios":"levelo://app?vid=b61e1e59-261f-4781-9885-10fc3dd1eaf7"},"vehicle_type_id":"4","last_reported":1761923352,"current_range_meters":10000,"station_id":"","pricing_plan_id":"cebpf4jnsgd1na2vs0mg"},{"bike_id":"ff80c186-bf89-4d44-b05c-527ca7a1211d","system_id":"levelo_inurba_marseille","lat":43.211795,"lon":5.351163,"is_reserved":false,"is_disabled":false,"rental_uris":{"android":"levelo://app?vid=ff80c186-bf89-4d44-b05c-527ca7a1211d","ios":"levelo://app?vid=ff80c186-bf89-4d44-b05c-527ca7a1211d"},"vehicle_type_id":"4","last_reported":1761923352,"current_range_meters":10000,"station_id":"ce4bhh12rcd13ifvqff0","pricing_plan_id":"cebpf4jnsgd1na2vs0mg"},{"bike_id":"0ed7bef9-4bc7-4377-ab19-7fc1a9a948d6","system_id":"levelo_inurba_marseille","lat":43.28202,"lon":5.39061,"is_reserved":false,"is_disabled":false,"rental_uris":{"android":"levelo://app?vid=0ed7bef9-4bc7-4377-ab19-7fc1a9a948d6","ios":"levelo://app?vid=0ed7bef9-4bc7-4377-ab19-7fc1a9a948d6"},"vehicle_type_id":"4","last_reported":1761923352,"current_range_meters":10000,"station_id":"ce4bhn92rcd13ifvqgsg","pricing_plan_id":"cebpf4jnsgd1na2vs0mg"},{"bike_id":"2662fe9b-aa47-4e6a-8505-64d896678582","system_id":"levelo_inurba_marseille","lat":43.22573,"lon":5.41625,"is_reserved":false,"is_disabled":false,"rental_uris":{"android":"levelo://app?vid=2662fe9b-aa47-4e6a-8505-64d896678582","ios":"levelo://app?vid=2662fe9b-aa47-4e6a-8505-64d896678582"},"vehicle_type_id":"4","last_reported":1761923352,"current_range_meters":10800,"station_id":"st_d2o4gvlbi1j2169b742g","pricing_plan_id":"cebpf4jnsgd1na2vs0mg"},{"bike_id":"ed4a0cf6-9d88-44b2-b78c-5723342d041e","system_id":"levelo_inurba_marseille","lat":43.30282,"lon":5.37712,"is_reserved":false,"is_disabled":false,"rental_uris":{"android":"levelo://app?vid=ed4a0cf6-9d88-44b2-b78c-5723342d041e","ios":"levelo://app?vid=ed4a0cf6-9d88-44b2-b78c-5723342d041e"},"vehicle_type_id":"4","last_reported":1761923352,"current_range_meters":10800,"station_id":"ce4bguh2rcd13ifvqcj0","pricing_plan_id":"cebpf4jnsgd1na2vs0mg"},{"bike_id":"06bd3920-933a-4962-b9fc-baaa064cc24b","system_id":"levelo_inurba_marseille","lat":43.27431,"lon":5.39422,"is_reserved":false,"is_disabled":false,"rental_uris":{"android":"levelo://app?vid=06bd3920-933a-4962-b9fc-baaa064cc24b","ios":"levelo://app?vid=06bd3920-933a-4962-b9fc-baaa064cc24b"},"vehicle_type_id":"4","last_reported":1761923352,"current_range_meters":10800,"station_id":"ce4bhdp2rcd13ifvqf20","pricing_plan_id":"cebpf4jnsgd1na2vs0mg"},{"bike_id":"ba2f5d82-dcc3-4a59-aa26-60cd6961908e","system_id":"levelo_inurba_marseille","lat":43.26565,"lon":5.40331,"is_reserved":false,"is_disabled":false,"rental_uris":{"android":"levelo://app?vid=ba2f5d82-dcc3-4a59-aa26-60cd6961908e","ios":"levelo://app?vid=ba2f5d82-dcc3-4a59-aa26-60cd6961908e"},"vehicle_type_id":"4","last_reported":1761923352,"current_range_meters":10800,"station_id":"ce4bhmp2rcd13ifvqgng","pricing_plan_id":"cebpf4jnsgd1na2vs0mg"},{"bike_id":"f7203077-dd7c-4aee-847d-fd4b2947a5c5","system_id":"levelo_inurba_marseille","lat":43.28539,"lon":5.44101,"is_reserved":false,"is_disabled":false,"rental_uris":{"android":"levelo://app?vid=f7203077-dd7c-4aee-847d-fd4b2947a5c5","ios":"levelo://app?vid=f7203077-dd7c-4aee-847d-fd4b2947a5c5"},"vehicle_type_id":"4","last_reported":1761923352,"current_range_meters":11200,"station_id":"st_d3j3df2ikq2c7380ej80","pricing_plan_id":"cebpf4jnsgd1na2vs0mg"},{"bike_id":"12c24c1a-5f34-4e4f-b6c0-f07cd6755b8d","system_id":"levelo_inurba_marseille","lat":43.24933,"lon":5.40521,"is_reserved":false,"is_disabled":false,"rental_uris":{"android":"levelo://app?vid=12c24c1a-5f34-4e4f-b6c0-f07cd6755b8d","ios":"levelo://app?vid=12c24c1a-5f34-4e4f-b6c0-f07cd6755b8d"},"vehicle_type_id":"4","last_reported":1761923352,"current_range_meters":11200,"station_id":"st_d2ngiaodas8pm72gd1h0","pricing_plan_id":"cebpf4jnsgd1na2vs0mg"},{"bike_id":"7a2c96b5-e688-4fa5-b2c2-6c1c59495c05","system_id":"levelo_inurba_marseille","lat":43.23193,"lon":5.35561,"is_reserved":false,"is_disabled":false,"rental_uris":{"android":"levelo://app?vid=7a2c96b5-e688-4fa5-b2c2-6c1c59495c05","ios":"levelo://app?vid=7a2c96b5-e688-4fa5-b2c2-6c1c59495c05"},"vehicle_type_id":"4","last_reported":1761923352,"current_range_meters":11200,"station_id":"ce4bhu92rcd13ifvqi70","pricing_plan_id":"cebpf4jnsgd1na2vs0mg"},{"bike_id":"7217468a-62cb-45c0-b83c-1bab7a4fff98","system_id":"levelo_inurba_marseille","lat":43.29892,"lon":5.38915,"is_reserved":false,"is_disabled":false,"rental_uris":{"android":"levelo://app?vid=7217468a-62cb-45c0-b83c-1bab7a4fff98","ios":"levelo://app?vid=7217468a-62cb-45c0-b83c-1bab7a4fff98"},"vehicle_type_id":"4","last_reported":1761923352,"current_range_meters":11200,"station_id":"ce4bh392rcd13ifvqdl0","pricing_plan_id":"cebpf4jnsgd1na2vs0mg"},{"bike_id":"60ef5c64-5d03-41c7-afc2-aafc3eb32b64","system_id":"levelo_inurba_marseille","lat":43.26134,"lon":5.40455,"is_reserved":false,"is_disabled":false,"rental_uris":{"android":"levelo://app?vid=60ef5c64-5d03-41c7-afc2-aafc3eb32b64","ios":"levelo://app?vid=60ef5c64-5d03-41c7-afc2-aafc3eb32b64"},"vehicle_type_id":"4","last_reported":1761923352,"current_range_meters":11200,"station_id":"","pricing_plan_id":"cebpf4jnsgd1na2vs0mg"},{"bike_id":"8a0ff850-cf9f-4e75-bc3f-994489f28f31","system_id":"levelo_inurba_marseille","lat":43.22533,"lon":5.41674,"is_reserved":false,"is_disabled":false,"rental_uris":{"android":"levelo://app?vid=8a0ff850-cf9f-4e75-bc3f-994489f28f31","ios":"levelo://app?vid=8a0ff850-cf9f-4e75-bc3f-994489f28f31"},"vehicle_type_id":"4","last_reported":1761923352,"current_range_meters":11200,"station_id":"st_d2o4gvlbi1j2169b742g","pricing_plan_id":"cebpf4jnsgd1na2vs0mg"},{"bike_id":"b8f404d3-62c4-4489-a471-d37212346558","system_id":"levelo_inurba_marseille","lat":43.31055,"lon":5.37865,"is_reserved":false,"is_disabled":false,"rental_uris":{"android":"levelo://app?vid=b8f404d3-62c4-4489-a471-d37212346558","ios":"levelo://app?vid=b8f404d3-62c4-4489-a471-d37212346558"},"vehicle_type_id":"4","last_reported":1761923352,"current_range_meters":11200,"station_id":"","pricing_plan_id":"cebpf4jnsgd1na2vs0mg"},{"bike_id":"5a335bf7-eb9a-4663-804a-c8456d060d25","system_id":"levelo_inurba_marseille","lat":43.290063,"lon":5.356212,"is_reserved":false,"is_disabled":false,"rental_uris":{"android":"levelo://app?vid=5a335bf7-eb9a-4663-804a-c8456d060d25","ios":"levelo://app?vid=5a335bf7-eb9a-4663-804a-c8456d060d25"},"vehicle_type_id":"4","last_reported":1761923352,"current_range_meters":11600,"station_id":"","pricing_plan_id":"cebpf4jnsgd1na2vs0mg"},{"bike_id":"7afafebc-9388-4b96-826a-eb1746b15f9a","system_id":"levelo_inurba_marseille","lat":43.27067,"lon":5.42281,"is_reserved":false,"is_disabled":false,"rental_uris":{"android":"levelo://app?vid=7afafebc-9388-4b96-826a-eb1746b15f9a","ios":"levelo://app?vid=7afafebc-9388-4b96-826a-eb1746b15f9a"},"vehicle_type_id":"4","last_reported":1761923352,"current_range_meters":11600,"station_id":"ce4bhk92rcd13ifvqgb0","pricing_plan_id":"cebpf4jnsgd1na2vs0mg"},{"bike_id":"0cd9a109-6a32-4e8f-bd3c-ce7d1a5d0c3c","system_id":"levelo_inurba_marseille","lat":43.306,"lon":5.37235,"is_reserved":false,"is_disabled":false,"rental_uris":{"android":"levelo://app?vid=0cd9a109-6a32-4e8f-bd3c-ce7d1a5d0c3c","ios":"levelo://app?vid=0cd9a109-6a32-4e8f-bd3c-ce7d1a5d0c3c"},"vehicle_type_id":"4","last_reported":1761923352,"current_range_meters":11600,"station_id":"ce4bgqh2rcd13ifvqc4g","pricing_plan_id":"cebpf4jnsgd1na2vs0mg"},{"bike_id":"b34cd5ff-8c48-4784-9394-12e2e3dcde9d","system_id":"levelo_inurba_marseille","lat":43.248041,"lon":5.374591,"is_reserved":false,"is_disabled":false,"rental_uris":{"android":"levelo://app?vid=b34cd5ff-8c48-4784-9394-12e2e3dcde9d","ios":"levelo://app?vid=b34cd5ff-8c48-4784-9394-12e2e3dcde9d"},"vehicle_type_id":"4","last_reported":1761923352,"current_range_meters":11600,"station_id":"ce4bhgh2rcd13ifvqfb0","pricing_plan_id":"cebpf4jnsgd1na2vs0mg"},{"bike_id":"2f477f8f-972b-406c-841a-14096d9c76ee","system_id":"levelo_inurba_marseille","lat":43.2972,"lon":5.42787,"is_reserved":false,"is_disabled":false,"rental_uris":{"android":"levelo://app?vid=2f477f8f-972b-406c-841a-14096d9c76ee","ios":"levelo://app?vid=2f477f8f-972b-406c-841a-14096d9c76ee"},"vehicle_type_id":"4","last_reported":1761923352,"current_range_meters":12000,"station_id":"st_d3md5207bmas73dh9klg","pricing_plan_id":"cebpf4jnsgd1na2vs0mg"},{"bike_id":"20fe1a9e-b863-4420-9106-db12a4cb7698","system_id":"levelo_inurba_marseille","lat":43.30419,"lon":5.41283,"is_reserved":false,"is_disabled":false,"rental_uris":{"android":"levelo://app?vid=20fe1a9e-b863-4420-9106-db12a4cb7698","ios":"levelo://app?vid=20fe1a9e-b863-4420-9106-db12a4cb7698"},"vehicle_type_id":"4","last_reported":1761923352,"current_range_meters":12000,"station_id":"ce4bhop2rcd13ifvqh8g","pricing_plan_id":"cebpf4jnsgd1na2vs0mg"},{"bike_id":"80c53fab-d9fd-4b9a-94e7-e3f3183e35da","system_id":"levelo_inurba_marseille","lat":43.3302,"lon":5.39048,"is_reserved":false,"is_disabled":false,"rental_uris":{"android":"levelo://app?vid=80c53fab-d9fd-4b9a-94e7-e3f3183e35da","ios":"levelo://app?vid=80c53fab-d9fd-4b9a-94e7-e3f3183e35da"},"vehicle_type_id":"4","last_reported":1761923352,"current_range_meters":12000,"station_id":"ce4bhr92rcd13ifvqhrg","pricing_plan_id":"cebpf4jnsgd1na2vs0mg"},{"bike_id":"691c2b46-dbe2-4ff8-a1e5-2e4aa9912ffd","system_id":"levelo_inurba_marseille","lat":43.30648,"lon":5.40098,"is_reserved":false,"is_disabled":false,"rental_uris":{"android":"levelo://app?vid=691c2b46-dbe2-4ff8-a1e5-2e4aa9912ffd","ios":"levelo://app?vid=691c2b46-dbe2-4ff8-a1e5-2e4aa9912ffd"},"vehicle_type_id":"4","last_reported":1761923352,"current_range_meters":12000,"station_id":"ce4bh112rcd13ifvqda0","pricing_plan_id":"cebpf4jnsgd1na2vs0mg"},{"bike_id":"52c9906d-aae6-424f-acd9-5d23ab6ce71f","system_id":"levelo_inurba_marseille","lat":43.246838,"lon":5.381536,"is_reserved":false,"is_disabled":false,"rental_uris":{"android":"levelo://app?vid=52c9906d-aae6-424f-acd9-5d23ab6ce71f","ios":"levelo://app?vid=52c9906d-aae6-424f-acd9-5d23ab6ce71f"},"vehicle_type_id":"4","last_reported":1761923352,"current_range_meters":12000,"station_id":"ce4bhih2rcd13ifvqfr0","pricing_plan_id":"cebpf4jnsgd1na2vs0mg"},{"bike_id":"a29f9194-49ce-494b-b782-b13eaaccb6fb","system_id":"levelo_inurba_marseille","lat":43.25499,"lon":5.37657,"is_reserved":false,"is_disabled":false,"rental_uris":{"android":"levelo://app?vid=a29f9194-49ce-494b-b782-b13eaaccb6fb","ios":"levelo://app?vid=a29f9194-49ce-494b-b782-b13eaaccb6fb"},"vehicle_type_id":"4","last_reported":1761923352,"current_range_meters":12000,"station_id":"ce4bhh12rcd13ifvqff0","pricing_plan_id":"cebpf4jnsgd1na2vs0mg"},{"bike_id":"0cce5814-a6c8-43a8-96e9-37f297aa621e","system_id":"levelo_inurba_marseille","lat":43.28475,"lon":5.48388,"is_reserved":false,"is_disabled":false,"rental_uris":{"android":"levelo://app?vid=0cce5814-a6c8-43a8-96e9-37f297aa621e","ios":"levelo://app?vid=0cce5814-a6c8-43a8-96e9-37f297aa621e"},"vehicle_type_id":"4","last_reported":1761923352,"current_range_meters":12000,"station_id":"st_d3svhcjqgbts73a3dn0g","pricing_plan_id":"cebpf4jnsgd1na2vs0mg"},{"bike_id":"70b7527d-67eb-4818-84c6-51aae343ca97","system_id":"levelo_inurba_marseille","lat":43.28458,"lon":5.48415,"is_reserved":false,"is_disabled":false,"rental_uris":{"android":"levelo://app?vid=70b7527d-67eb-4818-84c6-51aae343ca97","ios":"levelo://app?vid=70b7527d-67eb-4818-84c6-51aae343ca97"},"vehicle_type_id":"4","last_reported":1761923352,"current_range_meters":12400,"station_id":"st_d3svhcjqgbts73a3dn0g","pricing_plan_id":"cebpf4jnsgd1na2vs0mg"},{"bike_id":"1213ff01-604d-4b83-b3a2-60440c4b245e","system_id":"levelo_inurba_marseille","lat":43.237802,"lon":5.366279,"is_reserved":false,"is_disabled":false,"rental_uris":{"android":"levelo://app?vid=1213ff01-604d-4b83-b3a2-60440c4b245e","ios":"levelo://app?vid=1213ff01-604d-4b83-b3a2-60440c4b245e"},"vehicle_type_id":"4","last_reported":1761923352,"current_range_meters":12400,"station_id":"st_d3nk18o9ro0c73en2l3g","pricing_plan_id":"cebpf4jnsgd1na2vs0mg"},{"bike_id":"e1135270-58f9-4f2f-875e-5502dd691164","system_id":"levelo_inurba_marseille","lat":43.31219,"lon":5.36845,"is_reserved":false,"is_disabled":false,"rental_uris":{"android":"levelo://app?vid=e1135270-58f9-4f2f-875e-5502dd691164","ios":"levelo://app?vid=e1135270-58f9-4f2f-875e-5502dd691164"},"vehicle_type_id":"4","last_reported":1761923352,"current_range_meters":12400,"station_id":"ce4bgl92rcd13ifvqbq0","pricing_plan_id":"cebpf4jnsgd1na2vs0mg"},{"bike_id":"24c98aa2-82cb-48e3-b5c1-81731384f63d","system_id":"levelo_inurba_marseille","lat":43.31069,"lon":5.38357,"is_reserved":false,"is_disabled":false,"rental_uris":{"android":"levelo://app?vid=24c98aa2-82cb-48e3-b5c1-81731384f63d","ios":"levelo://app?vid=24c98aa2-82cb-48e3-b5c1-81731384f63d"},"vehicle_type_id":"4","last_reported":1761923352,"current_range_meters":12400,"station_id":"ce4bgv92rcd13ifvqcr0","pricing_plan_id":"cebpf4jnsgd1na2vs0mg"},{"bike_id":"b2bc4e07-1e69-4ce5-a6c0-2387cf615ee8","system_id":"levelo_inurba_marseille","lat":43.295988,"lon":5.381016,"is_reserved":false,"is_disabled":false,"rental_uris":{"android":"levelo://app?vid=b2bc4e07-1e69-4ce5-a6c0-2387cf615ee8","ios":"levelo://app?vid=b2bc4e07-1e69-4ce5-a6c0-2387cf615ee8"},"vehicle_type_id":"4","last_reported":1761923352,"current_range_meters":12800,"station_id":"ce4bgl12rcd13ifvqbo0","pricing_plan_id":"cebpf4jnsgd1na2vs0mg"},{"bike_id":"2a2feabc-1101-4140-aee3-30dcd7c2588d","system_id":"levelo_inurba_marseille","lat":43.31879,"lon":5.39993,"is_reserved":false,"is_disabled":false,"rental_uris":{"android":"levelo://app?vid=2a2feabc-1101-4140-aee3-30dcd7c2588d","ios":"levelo://app?vid=2a2feabc-1101-4140-aee3-30dcd7c2588d"},"vehicle_type_id":"4","last_reported":1761923352,"current_range_meters":12800,"station_id":"","pricing_plan_id":"cebpf4jnsgd1na2vs0mg"},{"bike_id":"e1374d14-ca8c-4d30-bf7a-1e91101e2cee","system_id":"levelo_inurba_marseille","lat":43.28549,"lon":5.44122,"is_reserved":false,"is_disabled":false,"rental_uris":{"android":"levelo://app?vid=e1374d14-ca8c-4d30-bf7a-1e91101e2cee","ios":"levelo://app?vid=e1374d14-ca8c-4d30-bf7a-1e91101e2cee"},"vehicle_type_id":"4","last_reported":1761923352,"current_range_meters":12800,"station_id":"st_d3j3df2ikq2c7380ej80","pricing_plan_id":"cebpf4jnsgd1na2vs0mg"},{"bike_id":"ee261a32-9de1-4b9e-a923-6c91e1e26176","system_id":"levelo_inurba_marseille","lat":43.28471,"lon":5.484,"is_reserved":false,"is_disabled":false,"rental_uris":{"android":"levelo://app?vid=ee261a32-9de1-4b9e-a923-6c91e1e26176","ios":"levelo://app?vid=ee261a32-9de1-4b9e-a923-6c91e1e26176"},"vehicle_type_id":"4","last_reported":1761923352,"current_range_meters":12800,"station_id":"st_d3svhcjqgbts73a3dn0g","pricing_plan_id":"cebpf4jnsgd1na2vs0mg"},{"bike_id":"96ad2f8e-1ff0-415a-a84a-9186f2a5baf6","system_id":"levelo_inurba_marseille","lat":43.29606,"lon":5.37672,"is_reserved":false,"is_disabled":false,"rental_uris":{"android":"levelo://app?vid=96ad2f8e-1ff0-415a-a84a-9186f2a5baf6","ios":"levelo://app?vid=96ad2f8e-1ff0-415a-a84a-9186f2a5baf6"},"vehicle_type_id":"4","last_reported":1761923352,"current_range_meters":12800,"station_id":"ce4bgi12rcd13ifvqb80","pricing_plan_id":"cebpf4jnsgd1na2vs0mg"},{"bike_id":"46835159-5dd5-4fc9-a732-591f6a5307e4","system_id":"levelo_inurba_marseille","lat":43.31351,"lon":5.37912,"is_reserved":false,"is_disabled":false,"rental_uris":{"android":"levelo://app?vid=46835159-5dd5-4fc9-a732-591f6a5307e4","ios":"levelo://app?vid=46835159-5dd5-4fc9-a732-591f6a5307e4"},"vehicle_type_id":"4","last_reported":1761923352,"current_range_meters":12800,"station_id":"","pricing_plan_id":"cebpf4jnsgd1na2vs0mg"},{"bike_id":"a4dac4fa-66e6-48be-a654-6e17cdc7ca0b","system_id":"levelo_inurba_marseille","lat":43.337571,"lon":5.374323,"is_reserved":false,"is_disabled":false,"rental_uris":{"android":"levelo://app?vid=a4dac4fa-66e6-48be-a654-6e17cdc7ca0b","ios":"levelo://app?vid=a4dac4fa-66e6-48be-a654-6e17cdc7ca0b"},"vehicle_type_id":"4","last_reported":1761923352,"current_range_meters":13600,"station_id":"","pricing_plan_id":"cebpf4jnsgd1na2vs0mg"},{"bike_id":"cce35d42-9aa8-4ca9-a1fa-8ef3b62afb50","system_id":"levelo_inurba_marseille","lat":43.29532,"lon":5.38539,"is_reserved":false,"is_disabled":false,"rental_uris":{"android":"levelo://app?vid=cce35d42-9aa8-4ca9-a1fa-8ef3b62afb50","ios":"levelo://app?vid=cce35d42-9aa8-4ca9-a1fa-8ef3b62afb50"},"vehicle_type_id":"4","last_reported":1761923352,"current_range_meters":13600,"station_id":"ce4bgih2rcd13ifvqba0","pricing_plan_id":"cebpf4jnsgd1na2vs0mg"},{"bike_id":"3a2fb279-1785-4672-8ece-1c5ceba7fad0","system_id":"levelo_inurba_marseille","lat":43.283833,"lon":5.375449,"is_reserved":false,"is_disabled":false,"rental_uris":{"android":"levelo://app?vid=3a2fb279-1785-4672-8ece-1c5ceba7fad0","ios":"levelo://app?vid=3a2fb279-1785-4672-8ece-1c5ceba7fad0"},"vehicle_type_id":"4","last_reported":1761923352,"current_range_meters":13600,"station_id":"ce4bgv12rcd13ifvqcp0","pricing_plan_id":"cebpf4jnsgd1na2vs0mg"},{"bike_id":"4cfbd1fb-f0c4-486f-aaf4-27e3fa552df9","system_id":"levelo_inurba_marseille","lat":43.30118,"lon":5.43122,"is_reserved":false,"is_disabled":false,"rental_uris":{"android":"levelo://app?vid=4cfbd1fb-f0c4-486f-aaf4-27e3fa552df9","ios":"levelo://app?vid=4cfbd1fb-f0c4-486f-aaf4-27e3fa552df9"},"vehicle_type_id":"4","last_reported":1761923352,"current_range_meters":14000,"station_id":"st_d3js3co5814s73ftftug","pricing_plan_id":"cebpf4jnsgd1na2vs0mg"},{"bike_id":"040bb8e7-fa9b-4593-89be-dcc92bf6660b","system_id":"levelo_inurba_marseille","lat":43.25567,"lon":5.38272,"is_reserved":false,"is_disabled":false,"rental_uris":{"android":"levelo://app?vid=040bb8e7-fa9b-4593-89be-dcc92bf6660b","ios":"levelo://app?vid=040bb8e7-fa9b-4593-89be-dcc92bf6660b"},"vehicle_type_id":"4","last_reported":1761923352,"current_range_meters":14000,"station_id":"ce4bhih2rcd13ifvqfs0","pricing_plan_id":"cebpf4jnsgd1na2vs0mg"},{"bike_id":"d622a861-f25d-4127-896f-c755034e4161","system_id":"levelo_inurba_marseille","lat":43.21195,"lon":5.35068,"is_reserved":false,"is_disabled":false,"rental_uris":{"android":"levelo://app?vid=d622a861-f25d-4127-896f-c755034e4161","ios":"levelo://app?vid=d622a861-f25d-4127-896f-c755034e4161"},"vehicle_type_id":"4","last_reported":1761923352,"current_range_meters":14000,"station_id":"st_cvj6sg6p6f1abm77japg","pricing_plan_id":"cebpf4jnsgd1na2vs0mg"},{"bike_id":"beb5aeba-4e4d-4667-9243-ae63f411ac6a","system_id":"levelo_inurba_marseille","lat":43.3054,"lon":5.36532,"is_reserved":false,"is_disabled":false,"rental_uris":{"android":"levelo://app?vid=beb5aeba-4e4d-4667-9243-ae63f411ac6a","ios":"levelo://app?vid=beb5aeba-4e4d-4667-9243-ae63f411ac6a"},"vehicle_type_id":"4","last_reported":1761923352,"current_range_meters":14000,"station_id":"ce4bgs12rcd13ifvqcag","pricing_plan_id":"cebpf4jnsgd1na2vs0mg"},{"bike_id":"8f815eb1-911c-461e-989e-e99b4d498ae3","system_id":"levelo_inurba_marseille","lat":43.29005,"lon":5.35616,"is_reserved":false,"is_disabled":false,"rental_uris":{"android":"levelo://app?vid=8f815eb1-911c-461e-989e-e99b4d498ae3","ios":"levelo://app?vid=8f815eb1-911c-461e-989e-e99b4d498ae3"},"vehicle_type_id":"4","last_reported":1761923352,"current_range_meters":14400,"station_id":"ce4bhb92rcd13ifvqen0","pricing_plan_id":"cebpf4jnsgd1na2vs0mg"},{"bike_id":"a4411a31-dc75-48de-8b4a-eee0e7dbe4d1","system_id":"levelo_inurba_marseille","lat":43.28153,"lon":5.42641,"is_reserved":false,"is_disabled":false,"rental_uris":{"android":"levelo://app?vid=a4411a31-dc75-48de-8b4a-eee0e7dbe4d1","ios":"levelo://app?vid=a4411a31-dc75-48de-8b4a-eee0e7dbe4d1"},"vehicle_type_id":"4","last_reported":1761923352,"current_range_meters":14400,"station_id":"ce4bhnh2rcd13ifvqgug","pricing_plan_id":"cebpf4jnsgd1na2vs0mg"},{"bike_id":"23da4118-5487-45c7-a4e7-7191559c8354","system_id":"levelo_inurba_marseille","lat":43.291742,"lon":5.37189,"is_reserved":false,"is_disabled":false,"rental_uris":{"android":"levelo://app?vid=23da4118-5487-45c7-a4e7-7191559c8354","ios":"levelo://app?vid=23da4118-5487-45c7-a4e7-7191559c8354"},"vehicle_type_id":"4","last_reported":1761923352,"current_range_meters":14400,"station_id":"ce4bha92rcd13ifvqeh0","pricing_plan_id":"cebpf4jnsgd1na2vs0mg"},{"bike_id":"c6cc2ad5-87f3-46b4-954a-6b3fc4efe701","system_id":"levelo_inurba_marseille","lat":43.29849,"lon":5.36295,"is_reserved":false,"is_disabled":false,"rental_uris":{"android":"levelo://app?vid=c6cc2ad5-87f3-46b4-954a-6b3fc4efe701","ios":"levelo://app?vid=c6cc2ad5-87f3-46b4-954a-6b3fc4efe701"},"vehicle_type_id":"4","last_reported":1761923352,"current_range_meters":14400,"station_id":"ce4bgpp2rcd13ifvqc3g","pricing_plan_id":"cebpf4jnsgd1na2vs0mg"},{"bike_id":"8a632559-d61b-4289-915b-e6215ea4bf27","system_id":"levelo_inurba_marseille","lat":43.32329,"lon":5.36571,"is_reserved":false,"is_disabled":false,"rental_uris":{"android":"levelo://app?vid=8a632559-d61b-4289-915b-e6215ea4bf27","ios":"levelo://app?vid=8a632559-d61b-4289-915b-e6215ea4bf27"},"vehicle_type_id":"4","last_reported":1761923352,"current_range_meters":14400,"station_id":"ce4bhsh2rcd13ifvqi2g","pricing_plan_id":"cebpf4jnsgd1na2vs0mg"},{"bike_id":"aad6a064-c048-4ba9-a156-1745b89548aa","system_id":"levelo_inurba_marseille","lat":43.28352,"lon":5.41073,"is_reserved":false,"is_disabled":false,"rental_uris":{"android":"levelo://app?vid=aad6a064-c048-4ba9-a156-1745b89548aa","ios":"levelo://app?vid=aad6a064-c048-4ba9-a156-1745b89548aa"},"vehicle_type_id":"4","last_reported":1761923352,"current_range_meters":14400,"station_id":"","pricing_plan_id":"cebpf4jnsgd1na2vs0mg"},{"bike_id":"3b8d8128-20c3-4189-8013-ffc8bbfec252","system_id":"levelo_inurba_marseille","lat":43.28604,"lon":5.35122,"is_reserved":false,"is_disabled":false,"rental_uris":{"android":"levelo://app?vid=3b8d8128-20c3-4189-8013-ffc8bbfec252","ios":"levelo://app?vid=3b8d8128-20c3-4189-8013-ffc8bbfec252"},"vehicle_type_id":"4","last_reported":1761923352,"current_range_meters":14400,"station_id":"ce4bhch2rcd13ifvqeug","pricing_plan_id":"cebpf4jnsgd1na2vs0mg"},{"bike_id":"b63efced-dfd6-4bd0-9ea2-3a66ae6e1808","system_id":"levelo_inurba_marseille","lat":43.29588,"lon":5.37749,"is_reserved":false,"is_disabled":false,"rental_uris":{"android":"levelo://app?vid=b63efced-dfd6-4bd0-9ea2-3a66ae6e1808","ios":"levelo://app?vid=b63efced-dfd6-4bd0-9ea2-3a66ae6e1808"},"vehicle_type_id":"4","last_reported":1761923352,"current_range_meters":14400,"station_id":"","pricing_plan_id":"cebpf4jnsgd1na2vs0mg"},{"bike_id":"7d887b3f-60e6-4448-ad15-0043959d1cba","system_id":"levelo_inurba_marseille","lat":43.26197,"lon":5.37934,"is_reserved":false,"is_disabled":false,"rental_uris":{"android":"levelo://app?vid=7d887b3f-60e6-4448-ad15-0043959d1cba","ios":"levelo://app?vid=7d887b3f-60e6-4448-ad15-0043959d1cba"},"vehicle_type_id":"4","last_reported":1761923352,"current_range_meters":14400,"station_id":"ce4bhjp2rcd13ifvqg90","pricing_plan_id":"cebpf4jnsgd1na2vs0mg"},{"bike_id":"90cc4e35-1e9a-4d48-878d-a3997094c0ce","system_id":"levelo_inurba_marseille","lat":43.24642,"lon":5.43141,"is_reserved":false,"is_disabled":false,"rental_uris":{"android":"levelo://app?vid=90cc4e35-1e9a-4d48-878d-a3997094c0ce","ios":"levelo://app?vid=90cc4e35-1e9a-4d48-878d-a3997094c0ce"},"vehicle_type_id":"4","last_reported":1761923352,"current_range_meters":14400,"station_id":"st_d2m6c4gdas8pm72e190g","pricing_plan_id":"cebpf4jnsgd1na2vs0mg"},{"bike_id":"7f71708b-0ea1-4389-ad9e-9eb55c6a6cb9","system_id":"levelo_inurba_marseille","lat":43.28861,"lon":5.4253,"is_reserved":false,"is_disabled":false,"rental_uris":{"android":"levelo://app?vid=7f71708b-0ea1-4389-ad9e-9eb55c6a6cb9","ios":"levelo://app?vid=7f71708b-0ea1-4389-ad9e-9eb55c6a6cb9"},"vehicle_type_id":"4","last_reported":1761923352,"current_range_meters":14400,"station_id":"st_d3b462108ojc7389ooeg","pricing_plan_id":"cebpf4jnsgd1na2vs0mg"},{"bike_id":"319b8584-93f2-449c-b056-ea3f20ebc971","system_id":"levelo_inurba_marseille","lat":43.28523,"lon":5.43038,"is_reserved":false,"is_disabled":false,"rental_uris":{"android":"levelo://app?vid=319b8584-93f2-449c-b056-ea3f20ebc971","ios":"levelo://app?vid=319b8584-93f2-449c-b056-ea3f20ebc971"},"vehicle_type_id":"4","last_reported":1761923352,"current_range_meters":14400,"station_id":"","pricing_plan_id":"cebpf4jnsgd1na2vs0mg"},{"bike_id":"5b1456bf-c4ee-43d7-8935-31ac6bf9ce09","system_id":"levelo_inurba_marseille","lat":43.279904,"lon":5.416715,"is_reserved":false,"is_disabled":false,"rental_uris":{"android":"levelo://app?vid=5b1456bf-c4ee-43d7-8935-31ac6bf9ce09","ios":"levelo://app?vid=5b1456bf-c4ee-43d7-8935-31ac6bf9ce09"},"vehicle_type_id":"4","last_reported":1761923352,"current_range_meters":14400,"station_id":"ce4bho12rcd13ifvqh1g","pricing_plan_id":"cebpf4jnsgd1na2vs0mg"},{"bike_id":"65b74a09-ca21-47cd-a089-1f1f9daa9aea","system_id":"levelo_inurba_marseille","lat":43.2993,"lon":5.36511,"is_reserved":false,"is_disabled":false,"rental_uris":{"android":"levelo://app?vid=65b74a09-ca21-47cd-a089-1f1f9daa9aea","ios":"levelo://app?vid=65b74a09-ca21-47cd-a089-1f1f9daa9aea"},"vehicle_type_id":"4","last_reported":1761923352,"current_range_meters":14800,"station_id":"ce4bgm92rcd13ifvqbr0","pricing_plan_id":"cebpf4jnsgd1na2vs0mg"},{"bike_id":"15d9d125-173a-4ac4-a7a2-3146c2f67efe","system_id":"levelo_inurba_marseille","lat":43.2827,"lon":5.3506,"is_reserved":false,"is_disabled":false,"rental_uris":{"android":"levelo://app?vid=15d9d125-173a-4ac4-a7a2-3146c2f67efe","ios":"levelo://app?vid=15d9d125-173a-4ac4-a7a2-3146c2f67efe"},"vehicle_type_id":"4","last_reported":1761923352,"current_range_meters":14800,"station_id":"ce4bhbp2rcd13ifvqerg","pricing_plan_id":"cebpf4jnsgd1na2vs0mg"},{"bike_id":"83a3c74e-1dc1-4fd5-bfbe-d1dfa0e5fa50","system_id":"levelo_inurba_marseille","lat":43.27667,"lon":5.3886,"is_reserved":false,"is_disabled":false,"rental_uris":{"android":"levelo://app?vid=83a3c74e-1dc1-4fd5-bfbe-d1dfa0e5fa50","ios":"levelo://app?vid=83a3c74e-1dc1-4fd5-bfbe-d1dfa0e5fa50"},"vehicle_type_id":"4","last_reported":1761923352,"current_range_meters":14800,"station_id":"ce4bhi12rcd13ifvqfo0","pricing_plan_id":"cebpf4jnsgd1na2vs0mg"},{"bike_id":"86f462dd-3fe1-470d-af97-c58d6c91d41a","system_id":"levelo_inurba_marseille","lat":43.29963,"lon":5.385,"is_reserved":false,"is_disabled":false,"rental_uris":{"android":"levelo://app?vid=86f462dd-3fe1-470d-af97-c58d6c91d41a","ios":"levelo://app?vid=86f462dd-3fe1-470d-af97-c58d6c91d41a"},"vehicle_type_id":"4","last_reported":1761923352,"current_range_meters":14800,"station_id":"ce4bgj92rcd13ifvqbd0","pricing_plan_id":"cebpf4jnsgd1na2vs0mg"},{"bike_id":"a74ca4e6-9019-4ce4-a364-7a22bd8e206a","system_id":"levelo_inurba_marseille","lat":43.26549,"lon":5.38547,"is_reserved":false,"is_disabled":false,"rental_uris":{"android":"levelo://app?vid=a74ca4e6-9019-4ce4-a364-7a22bd8e206a","ios":"levelo://app?vid=a74ca4e6-9019-4ce4-a364-7a22bd8e206a"},"vehicle_type_id":"4","last_reported":1761923352,"current_range_meters":14800,"station_id":"","pricing_plan_id":"cebpf4jnsgd1na2vs0mg"},{"bike_id":"cd728e76-be87-4544-bcd3-63b34a7e3ce3","system_id":"levelo_inurba_marseille","lat":43.28934,"lon":5.38393,"is_reserved":false,"is_disabled":false,"rental_uris":{"android":"levelo://app?vid=cd728e76-be87-4544-bcd3-63b34a7e3ce3","ios":"levelo://app?vid=cd728e76-be87-4544-bcd3-63b34a7e3ce3"},"vehicle_type_id":"4","last_reported":1761923352,"current_range_meters":14800,"station_id":"ce4bh612rcd13ifvqe6g","pricing_plan_id":"cebpf4jnsgd1na2vs0mg"},{"bike_id":"79b071ae-ed37-4840-a95b-3fb318f6fff5","system_id":"levelo_inurba_marseille","lat":43.295755,"lon":5.375163,"is_reserved":false,"is_disabled":false,"rental_uris":{"android":"levelo://app?vid=79b071ae-ed37-4840-a95b-3fb318f6fff5","ios":"levelo://app?vid=79b071ae-ed37-4840-a95b-3fb318f6fff5"},"vehicle_type_id":"4","last_reported":1761923352,"current_range_meters":14800,"station_id":"ce4bgh92rcd13ifvqb50","pricing_plan_id":"cebpf4jnsgd1na2vs0mg"},{"bike_id":"f24a33f3-5a12-43d0-ac5c-132160492f5c","system_id":"levelo_inurba_marseille","lat":43.24165,"lon":5.36395,"is_reserved":false,"is_disabled":false,"rental_uris":{"android":"levelo://app?vid=f24a33f3-5a12-43d0-ac5c-132160492f5c","ios":"levelo://app?vid=f24a33f3-5a12-43d0-ac5c-132160492f5c"},"vehicle_type_id":"4","last_reported":1761923352,"current_range_meters":14800,"station_id":"cpo36qri1sfpv3e86is0","pricing_plan_id":"cebpf4jnsgd1na2vs0mg"},{"bike_id":"0dc930ae-88e6-493c-ab95-8df0b3ac1f8b","system_id":"levelo_inurba_marseille","lat":43.29879,"lon":5.43673,"is_reserved":false,"is_disabled":false,"rental_uris":{"android":"levelo://app?vid=0dc930ae-88e6-493c-ab95-8df0b3ac1f8b","ios":"levelo://app?vid=0dc930ae-88e6-493c-ab95-8df0b3ac1f8b"},"vehicle_type_id":"4","last_reported":1761923352,"current_range_meters":15200,"station_id":"ce4bhpp2rcd13ifvqhfg","pricing_plan_id":"cebpf4jnsgd1na2vs0mg"},{"bike_id":"0ba9da42-64a1-4209-af52-e19dfbdee845","system_id":"levelo_inurba_marseille","lat":43.26778,"lon":5.39419,"is_reserved":false,"is_disabled":false,"rental_uris":{"android":"levelo://app?vid=0ba9da42-64a1-4209-af52-e19dfbdee845","ios":"levelo://app?vid=0ba9da42-64a1-4209-af52-e19dfbdee845"},"vehicle_type_id":"4","last_reported":1761923352,"current_range_meters":15200,"station_id":"ce4bhh12rcd13ifvqfg0","pricing_plan_id":"cebpf4jnsgd1na2vs0mg"},{"bike_id":"df37c6b0-72f2-45ef-918a-62fe29f4226c","system_id":"levelo_inurba_marseille","lat":43.26934,"lon":5.38921,"is_reserved":false,"is_disabled":false,"rental_uris":{"android":"levelo://app?vid=df37c6b0-72f2-45ef-918a-62fe29f4226c","ios":"levelo://app?vid=df37c6b0-72f2-45ef-918a-62fe29f4226c"},"vehicle_type_id":"4","last_reported":1761923352,"current_range_meters":15200,"station_id":"ce4bhhh2rcd13ifvqfl0","pricing_plan_id":"cebpf4jnsgd1na2vs0mg"},{"bike_id":"6cd59db7-cb12-4301-8385-22b87d7a5cfd","system_id":"levelo_inurba_marseille","lat":43.28547,"lon":5.44102,"is_reserved":false,"is_disabled":false,"rental_uris":{"android":"levelo://app?vid=6cd59db7-cb12-4301-8385-22b87d7a5cfd","ios":"levelo://app?vid=6cd59db7-cb12-4301-8385-22b87d7a5cfd"},"vehicle_type_id":"4","last_reported":1761923352,"current_range_meters":15200,"station_id":"st_d3j3df2ikq2c7380ej80","pricing_plan_id":"cebpf4jnsgd1na2vs0mg"},{"bike_id":"b78f33d0-c41d-4503-971b-811db3791839","system_id":"levelo_inurba_marseille","lat":43.27204,"lon":5.3918,"is_reserved":false,"is_disabled":false,"rental_uris":{"android":"levelo://app?vid=b78f33d0-c41d-4503-971b-811db3791839","ios":"levelo://app?vid=b78f33d0-c41d-4503-971b-811db3791839"},"vehicle_type_id":"4","last_reported":1761923352,"current_range_meters":15200,"station_id":"ce4bhhp2rcd13ifvqfm0","pricing_plan_id":"cebpf4jnsgd1na2vs0mg"},{"bike_id":"2fdc6bd2-3c6b-4dba-8adf-2b8ec22951eb","system_id":"levelo_inurba_marseille","lat":43.283489,"lon":5.38997,"is_reserved":false,"is_disabled":false,"rental_uris":{"android":"levelo://app?vid=2fdc6bd2-3c6b-4dba-8adf-2b8ec22951eb","ios":"levelo://app?vid=2fdc6bd2-3c6b-4dba-8adf-2b8ec22951eb"},"vehicle_type_id":"4","last_reported":1761923352,"current_range_meters":15200,"station_id":"ce4bho92rcd13ifvqh4g","pricing_plan_id":"cebpf4jnsgd1na2vs0mg"},{"bike_id":"b2ce8e73-e59b-4d30-b8e2-e59e2e1e3b22","system_id":"levelo_inurba_marseille","lat":43.33775,"lon":5.37482,"is_reserved":false,"is_disabled":false,"rental_uris":{"android":"levelo://app?vid=b2ce8e73-e59b-4d30-b8e2-e59e2e1e3b22","ios":"levelo://app?vid=b2ce8e73-e59b-4d30-b8e2-e59e2e1e3b22"},"vehicle_type_id":"4","last_reported":1761923352,"current_range_meters":16000,"station_id":"","pricing_plan_id":"cebpf4jnsgd1na2vs0mg"},{"bike_id":"aad731fe-f402-47a2-a9e2-d1ab53621c21","system_id":"levelo_inurba_marseille","lat":43.23793,"lon":5.36627,"is_reserved":false,"is_disabled":false,"rental_uris":{"android":"levelo://app?vid=aad731fe-f402-47a2-a9e2-d1ab53621c21","ios":"levelo://app?vid=aad731fe-f402-47a2-a9e2-d1ab53621c21"},"vehicle_type_id":"4","last_reported":1761923352,"current_range_meters":16000,"station_id":"st_d3nk18o9ro0c73en2l3g","pricing_plan_id":"cebpf4jnsgd1na2vs0mg"},{"bike_id":"ec8e4f97-d500-4b79-b9f1-140344d7f670","system_id":"levelo_inurba_marseille","lat":43.2315,"lon":5.43724,"is_reserved":false,"is_disabled":false,"rental_uris":{"android":"levelo://app?vid=ec8e4f97-d500-4b79-b9f1-140344d7f670","ios":"levelo://app?vid=ec8e4f97-d500-4b79-b9f1-140344d7f670"},"vehicle_type_id":"4","last_reported":1761923352,"current_range_meters":16000,"station_id":"ce4bhmp2rcd13ifvqgog","pricing_plan_id":"cebpf4jnsgd1na2vs0mg"},{"bike_id":"a9cdbb07-222c-4ae2-b8a0-add1896b5ebf","system_id":"levelo_inurba_marseille","lat":43.26088,"lon":5.39376,"is_reserved":false,"is_disabled":false,"rental_uris":{"android":"levelo://app?vid=a9cdbb07-222c-4ae2-b8a0-add1896b5ebf","ios":"levelo://app?vid=a9cdbb07-222c-4ae2-b8a0-add1896b5ebf"},"vehicle_type_id":"4","last_reported":1761923352,"current_range_meters":16400,"station_id":"ce4bhh92rcd13ifvqfj0","pricing_plan_id":"cebpf4jnsgd1na2vs0mg"},{"bike_id":"b1e81361-2b17-4ef1-8a58-6def5753471b","system_id":"levelo_inurba_marseille","lat":43.33753,"lon":5.37484,"is_reserved":false,"is_disabled":false,"rental_uris":{"android":"levelo://app?vid=b1e81361-2b17-4ef1-8a58-6def5753471b","ios":"levelo://app?vid=b1e81361-2b17-4ef1-8a58-6def5753471b"},"vehicle_type_id":"4","last_reported":1761923352,"current_range_meters":16400,"station_id":"","pricing_plan_id":"cebpf4jnsgd1na2vs0mg"},{"bike_id":"e7ead618-cc2b-4c53-bc61-330caff21889","system_id":"levelo_inurba_marseille","lat":43.253359,"lon":5.421622,"is_reserved":false,"is_disabled":false,"rental_uris":{"android":"levelo://app?vid=e7ead618-cc2b-4c53-bc61-330caff21889","ios":"levelo://app?vid=e7ead618-cc2b-4c53-bc61-330caff21889"},"vehicle_type_id":"4","last_reported":1761923352,"current_range_meters":16400,"station_id":"st_d2m65c5bi1j21697t3ng","pricing_plan_id":"cebpf4jnsgd1na2vs0mg"},{"bike_id":"52b117f2-4c01-4f66-887d-006722496528","system_id":"levelo_inurba_marseille","lat":43.30876,"lon":5.37157,"is_reserved":false,"is_disabled":false,"rental_uris":{"android":"levelo://app?vid=52b117f2-4c01-4f66-887d-006722496528","ios":"levelo://app?vid=52b117f2-4c01-4f66-887d-006722496528"},"vehicle_type_id":"4","last_reported":1761923352,"current_range_meters":16400,"station_id":"ce4bguh2rcd13ifvqckg","pricing_plan_id":"cebpf4jnsgd1na2vs0mg"},{"bike_id":"7706a1eb-2457-4a86-a54c-de9a5adc11d8","system_id":"levelo_inurba_marseille","lat":43.337444,"lon":5.374475,"is_reserved":false,"is_disabled":false,"rental_uris":{"android":"levelo://app?vid=7706a1eb-2457-4a86-a54c-de9a5adc11d8","ios":"levelo://app?vid=7706a1eb-2457-4a86-a54c-de9a5adc11d8"},"vehicle_type_id":"4","last_reported":1761923352,"current_range_meters":16800,"station_id":"ce4bhnh2rcd13ifvqgug","pricing_plan_id":"cebpf4jnsgd1na2vs0mg"},{"bike_id":"7045d3e0-f46c-4f70-b691-9508b2fd723c","system_id":"levelo_inurba_marseille","lat":43.28672,"lon":5.40013,"is_reserved":false,"is_disabled":false,"rental_uris":{"android":"levelo://app?vid=7045d3e0-f46c-4f70-b691-9508b2fd723c","ios":"levelo://app?vid=7045d3e0-f46c-4f70-b691-9508b2fd723c"},"vehicle_type_id":"4","last_reported":1761923352,"current_range_meters":16800,"station_id":"ce4bho92rcd13ifvqh3g","pricing_plan_id":"cebpf4jnsgd1na2vs0mg"},{"bike_id":"221afc35-e924-41a3-aaa6-6c1ca60a45d0","system_id":"levelo_inurba_marseille","lat":43.27618,"lon":5.36106,"is_reserved":false,"is_disabled":false,"rental_uris":{"android":"levelo://app?vid=221afc35-e924-41a3-aaa6-6c1ca60a45d0","ios":"levelo://app?vid=221afc35-e924-41a3-aaa6-6c1ca60a45d0"},"vehicle_type_id":"4","last_reported":1761923352,"current_range_meters":16800,"station_id":"ce4bgj92rcd13ifvqbe0","pricing_plan_id":"cebpf4jnsgd1na2vs0mg"},{"bike_id":"b0852786-bfa9-4864-916a-b4fd4b2d1be0","system_id":"levelo_inurba_marseille","lat":43.25511,"lon":5.37668,"is_reserved":false,"is_disabled":false,"rental_uris":{"android":"levelo://app?vid=b0852786-bfa9-4864-916a-b4fd4b2d1be0","ios":"levelo://app?vid=b0852786-bfa9-4864-916a-b4fd4b2d1be0"},"vehicle_type_id":"4","last_reported":1761923352,"current_range_meters":16800,"station_id":"ce4bhh12rcd13ifvqff0","pricing_plan_id":"cebpf4jnsgd1na2vs0mg"},{"bike_id":"719cab00-fc05-4a10-b7e7-f67576adad60","system_id":"levelo_inurba_marseille","lat":43.23152,"lon":5.43704,"is_reserved":false,"is_disabled":false,"rental_uris":{"android":"levelo://app?vid=719cab00-fc05-4a10-b7e7-f67576adad60","ios":"levelo://app?vid=719cab00-fc05-4a10-b7e7-f67576adad60"},"vehicle_type_id":"4","last_reported":1761923352,"current_range_meters":16800,"station_id":"ce4bhmp2rcd13ifvqgog","pricing_plan_id":"cebpf4jnsgd1na2vs0mg"},{"bike_id":"a048b4cb-9471-49dd-90a8-9d86ed61ba04","system_id":"levelo_inurba_marseille","lat":43.29031,"lon":5.3866,"is_reserved":false,"is_disabled":false,"rental_uris":{"android":"levelo://app?vid=a048b4cb-9471-49dd-90a8-9d86ed61ba04","ios":"levelo://app?vid=a048b4cb-9471-49dd-90a8-9d86ed61ba04"},"vehicle_type_id":"4","last_reported":1761923352,"current_range_meters":16800,"station_id":"ce4bh4p2rcd13ifvqe0g","pricing_plan_id":"cebpf4jnsgd1na2vs0mg"},{"bike_id":"8068d54c-f59a-48d0-b7bb-fe7e58873705","system_id":"levelo_inurba_marseille","lat":43.26062,"lon":5.39404,"is_reserved":false,"is_disabled":false,"rental_uris":{"android":"levelo://app?vid=8068d54c-f59a-48d0-b7bb-fe7e58873705","ios":"levelo://app?vid=8068d54c-f59a-48d0-b7bb-fe7e58873705"},"vehicle_type_id":"4","last_reported":1761923352,"current_range_meters":17200,"station_id":"ce4bhh92rcd13ifvqfj0","pricing_plan_id":"cebpf4jnsgd1na2vs0mg"},{"bike_id":"472a1028-9e29-4e6f-b089-eae1dc72cf56","system_id":"levelo_inurba_marseille","lat":43.23059,"lon":5.35496,"is_reserved":false,"is_disabled":false,"rental_uris":{"android":"levelo://app?vid=472a1028-9e29-4e6f-b089-eae1dc72cf56","ios":"levelo://app?vid=472a1028-9e29-4e6f-b089-eae1dc72cf56"},"vehicle_type_id":"4","last_reported":1761923352,"current_range_meters":17200,"station_id":"cpo3342slgdg3j2ifvpg","pricing_plan_id":"cebpf4jnsgd1na2vs0mg"},{"bike_id":"948327bb-168b-4321-89ff-3d83d88fb012","system_id":"levelo_inurba_marseille","lat":43.30131,"lon":5.37427,"is_reserved":false,"is_disabled":false,"rental_uris":{"android":"levelo://app?vid=948327bb-168b-4321-89ff-3d83d88fb012","ios":"levelo://app?vid=948327bb-168b-4321-89ff-3d83d88fb012"},"vehicle_type_id":"4","last_reported":1761923352,"current_range_meters":17200,"station_id":"ce4bgs92rcd13ifvqcc0","pricing_plan_id":"cebpf4jnsgd1na2vs0mg"},{"bike_id":"252ff558-e70b-4ae0-9044-acc668b445bb","system_id":"levelo_inurba_marseille","lat":43.21189,"lon":5.35077,"is_reserved":false,"is_disabled":false,"rental_uris":{"android":"levelo://app?vid=252ff558-e70b-4ae0-9044-acc668b445bb","ios":"levelo://app?vid=252ff558-e70b-4ae0-9044-acc668b445bb"},"vehicle_type_id":"4","last_reported":1761923352,"current_range_meters":17200,"station_id":"st_cvj6sg6p6f1abm77japg","pricing_plan_id":"cebpf4jnsgd1na2vs0mg"},{"bike_id":"c7bc1ad2-fe45-48b0-8a67-6573ab08cc72","system_id":"levelo_inurba_marseille","lat":43.29541,"lon":5.38545,"is_reserved":false,"is_disabled":false,"rental_uris":{"android":"levelo://app?vid=c7bc1ad2-fe45-48b0-8a67-6573ab08cc72","ios":"levelo://app?vid=c7bc1ad2-fe45-48b0-8a67-6573ab08cc72"},"vehicle_type_id":"4","last_reported":1761923352,"current_range_meters":17200,"station_id":"ce4bgih2rcd13ifvqba0","pricing_plan_id":"cebpf4jnsgd1na2vs0mg"},{"bike_id":"436c5184-4206-42f3-89dc-e8288cae5c96","system_id":"levelo_inurba_marseille","lat":43.25327,"lon":5.42172,"is_reserved":false,"is_disabled":false,"rental_uris":{"android":"levelo://app?vid=436c5184-4206-42f3-89dc-e8288cae5c96","ios":"levelo://app?vid=436c5184-4206-42f3-89dc-e8288cae5c96"},"vehicle_type_id":"4","last_reported":1761923352,"current_range_meters":17600,"station_id":"st_d2m65c5bi1j21697t3ng","pricing_plan_id":"cebpf4jnsgd1na2vs0mg"},{"bike_id":"aafcdc3e-7fbc-440c-8755-17a53301fced","system_id":"levelo_inurba_marseille","lat":43.23154,"lon":5.43707,"is_reserved":false,"is_disabled":false,"rental_uris":{"android":"levelo://app?vid=aafcdc3e-7fbc-440c-8755-17a53301fced","ios":"levelo://app?vid=aafcdc3e-7fbc-440c-8755-17a53301fced"},"vehicle_type_id":"4","last_reported":1761923352,"current_range_meters":17600,"station_id":"ce4bhmp2rcd13ifvqgog","pricing_plan_id":"cebpf4jnsgd1na2vs0mg"},{"bike_id":"c53f665d-4b0b-4ed2-884d-96941ca5c897","system_id":"levelo_inurba_marseille","lat":43.25501,"lon":5.37654,"is_reserved":false,"is_disabled":false,"rental_uris":{"android":"levelo://app?vid=c53f665d-4b0b-4ed2-884d-96941ca5c897","ios":"levelo://app?vid=c53f665d-4b0b-4ed2-884d-96941ca5c897"},"vehicle_type_id":"4","last_reported":1761923352,"current_range_meters":17600,"station_id":"ce4bhh12rcd13ifvqff0","pricing_plan_id":"cebpf4jnsgd1na2vs0mg"},{"bike_id":"e51d3de0-6e6b-47e8-9e53-55c70702e779","system_id":"levelo_inurba_marseille","lat":43.24086,"lon":5.37748,"is_reserved":false,"is_disabled":false,"rental_uris":{"android":"levelo://app?vid=e51d3de0-6e6b-47e8-9e53-55c70702e779","ios":"levelo://app?vid=e51d3de0-6e6b-47e8-9e53-55c70702e779"},"vehicle_type_id":"4","last_reported":1761923352,"current_range_meters":17600,"station_id":"ce4bhnp2rcd13ifvqgvg","pricing_plan_id":"cebpf4jnsgd1na2vs0mg"},{"bike_id":"e04f332d-b41c-47fd-b12f-6fdc7d63f429","system_id":"levelo_inurba_marseille","lat":43.30836,"lon":5.38324,"is_reserved":false,"is_disabled":false,"rental_uris":{"android":"levelo://app?vid=e04f332d-b41c-47fd-b12f-6fdc7d63f429","ios":"levelo://app?vid=e04f332d-b41c-47fd-b12f-6fdc7d63f429"},"vehicle_type_id":"4","last_reported":1761923352,"current_range_meters":17600,"station_id":"","pricing_plan_id":"cebpf4jnsgd1na2vs0mg"},{"bike_id":"30d57341-372e-4d6c-a43d-293d36a43df3","system_id":"levelo_inurba_marseille","lat":43.31068,"lon":5.38363,"is_reserved":false,"is_disabled":false,"rental_uris":{"android":"levelo://app?vid=30d57341-372e-4d6c-a43d-293d36a43df3","ios":"levelo://app?vid=30d57341-372e-4d6c-a43d-293d36a43df3"},"vehicle_type_id":"4","last_reported":1761923352,"current_range_meters":17600,"station_id":"ce4bgv92rcd13ifvqcr0","pricing_plan_id":"cebpf4jnsgd1na2vs0mg"},{"bike_id":"b3af6956-4399-4683-b864-112583080a3b","system_id":"levelo_inurba_marseille","lat":43.24546,"lon":5.3953,"is_reserved":false,"is_disabled":false,"rental_uris":{"android":"levelo://app?vid=b3af6956-4399-4683-b864-112583080a3b","ios":"levelo://app?vid=b3af6956-4399-4683-b864-112583080a3b"},"vehicle_type_id":"4","last_reported":1761923352,"current_range_meters":17600,"station_id":"ce4bhlp2rcd13ifvqgjg","pricing_plan_id":"cebpf4jnsgd1na2vs0mg"},{"bike_id":"5329277d-b696-4f32-9412-95d13ccb7cbb","system_id":"levelo_inurba_marseille","lat":43.29819,"lon":5.44086,"is_reserved":false,"is_disabled":false,"rental_uris":{"android":"levelo://app?vid=5329277d-b696-4f32-9412-95d13ccb7cbb","ios":"levelo://app?vid=5329277d-b696-4f32-9412-95d13ccb7cbb"},"vehicle_type_id":"4","last_reported":1761923352,"current_range_meters":17600,"station_id":"st_d3jp68qikq2c7381ktn0","pricing_plan_id":"cebpf4jnsgd1na2vs0mg"},{"bike_id":"c2807477-fd8d-44ed-9bdc-b3f90f0cbde0","system_id":"levelo_inurba_marseille","lat":43.31879,"lon":5.39995,"is_reserved":false,"is_disabled":false,"rental_uris":{"android":"levelo://app?vid=c2807477-fd8d-44ed-9bdc-b3f90f0cbde0","ios":"levelo://app?vid=c2807477-fd8d-44ed-9bdc-b3f90f0cbde0"},"vehicle_type_id":"4","last_reported":1761923352,"current_range_meters":17600,"station_id":"","pricing_plan_id":"cebpf4jnsgd1na2vs0mg"},{"bike_id":"a5e0a9e7-2930-4ebf-aa40-5e9ef3fa0368","system_id":"levelo_inurba_marseille","lat":43.23154,"lon":5.43717,"is_reserved":false,"is_disabled":false,"rental_uris":{"android":"levelo://app?vid=a5e0a9e7-2930-4ebf-aa40-5e9ef3fa0368","ios":"levelo://app?vid=a5e0a9e7-2930-4ebf-aa40-5e9ef3fa0368"},"vehicle_type_id":"4","last_reported":1761923352,"current_range_meters":17600,"station_id":"ce4bhmp2rcd13ifvqgog","pricing_plan_id":"cebpf4jnsgd1na2vs0mg"},{"bike_id":"4fd9f5aa-a2d3-48e0-aee2-704d6db584ac","system_id":"levelo_inurba_marseille","lat":43.254997,"lon":5.376498,"is_reserved":false,"is_disabled":false,"rental_uris":{"android":"levelo://app?vid=4fd9f5aa-a2d3-48e0-aee2-704d6db584ac","ios":"levelo://app?vid=4fd9f5aa-a2d3-48e0-aee2-704d6db584ac"},"vehicle_type_id":"4","last_reported":1761923352,"current_range_meters":17600,"station_id":"ce4bhh12rcd13ifvqff0","pricing_plan_id":"cebpf4jnsgd1na2vs0mg"},{"bike_id":"0b17cfc4-16c4-4d40-a79d-132a0ec9f992","system_id":"levelo_inurba_marseille","lat":43.31328,"lon":5.39698,"is_reserved":false,"is_disabled":false,"rental_uris":{"android":"levelo://app?vid=0b17cfc4-16c4-4d40-a79d-132a0ec9f992","ios":"levelo://app?vid=0b17cfc4-16c4-4d40-a79d-132a0ec9f992"},"vehicle_type_id":"4","last_reported":1761923352,"current_range_meters":17600,"station_id":"ce4bgvp2rcd13ifvqcu0","pricing_plan_id":"cebpf4jnsgd1na2vs0mg"},{"bike_id":"f7500e0f-f2a7-429c-a4ba-d4feaf2919f0","system_id":"levelo_inurba_marseille","lat":43.30527,"lon":5.36713,"is_reserved":false,"is_disabled":false,"rental_uris":{"android":"levelo://app?vid=f7500e0f-f2a7-429c-a4ba-d4feaf2919f0","ios":"levelo://app?vid=f7500e0f-f2a7-429c-a4ba-d4feaf2919f0"},"vehicle_type_id":"4","last_reported":1761923352,"current_range_meters":18000,"station_id":"ce4bgrp2rcd13ifvqc9g","pricing_plan_id":"cebpf4jnsgd1na2vs0mg"},{"bike_id":"06f19ec0-096f-4ec4-88d2-710ef5142db0","system_id":"levelo_inurba_marseille","lat":43.31353,"lon":5.3851,"is_reserved":false,"is_disabled":false,"rental_uris":{"android":"levelo://app?vid=06f19ec0-096f-4ec4-88d2-710ef5142db0","ios":"levelo://app?vid=06f19ec0-096f-4ec4-88d2-710ef5142db0"},"vehicle_type_id":"4","last_reported":1761923352,"current_range_meters":18000,"station_id":"ce4bgt92rcd13ifvqcf0","pricing_plan_id":"cebpf4jnsgd1na2vs0mg"},{"bike_id":"c04ea6ec-c85d-4b9a-aa74-f0de2415a6d2","system_id":"levelo_inurba_marseille","lat":43.3163,"lon":5.38277,"is_reserved":false,"is_disabled":false,"rental_uris":{"android":"levelo://app?vid=c04ea6ec-c85d-4b9a-aa74-f0de2415a6d2","ios":"levelo://app?vid=c04ea6ec-c85d-4b9a-aa74-f0de2415a6d2"},"vehicle_type_id":"4","last_reported":1761923352,"current_range_meters":18000,"station_id":"","pricing_plan_id":"cebpf4jnsgd1na2vs0mg"},{"bike_id":"fbcc5886-69e3-488f-96fd-e45314a075e6","system_id":"levelo_inurba_marseille","lat":43.28861,"lon":5.42524,"is_reserved":false,"is_disabled":false,"rental_uris":{"android":"levelo://app?vid=fbcc5886-69e3-488f-96fd-e45314a075e6","ios":"levelo://app?vid=fbcc5886-69e3-488f-96fd-e45314a075e6"},"vehicle_type_id":"4","last_reported":1761923352,"current_range_meters":18000,"station_id":"st_d3b462108ojc7389ooeg","pricing_plan_id":"cebpf4jnsgd1na2vs0mg"},{"bike_id":"e30a6103-e269-4203-90f6-50178fe5590f","system_id":"levelo_inurba_marseille","lat":43.23159,"lon":5.43712,"is_reserved":false,"is_disabled":false,"rental_uris":{"android":"levelo://app?vid=e30a6103-e269-4203-90f6-50178fe5590f","ios":"levelo://app?vid=e30a6103-e269-4203-90f6-50178fe5590f"},"vehicle_type_id":"4","last_reported":1761923352,"current_range_meters":18000,"station_id":"ce4bhmp2rcd13ifvqgog","pricing_plan_id":"cebpf4jnsgd1na2vs0mg"},{"bike_id":"df364058-e95e-4dbb-8ae6-89e9935c04c4","system_id":"levelo_inurba_marseille","lat":43.28468,"lon":5.38432,"is_reserved":false,"is_disabled":false,"rental_uris":{"android":"levelo://app?vid=df364058-e95e-4dbb-8ae6-89e9935c04c4","ios":"levelo://app?vid=df364058-e95e-4dbb-8ae6-89e9935c04c4"},"vehicle_type_id":"4","last_reported":1761923352,"current_range_meters":18000,"station_id":"ce4bh512rcd13ifvqe3g","pricing_plan_id":"cebpf4jnsgd1na2vs0mg"},{"bike_id":"93641f31-faad-4324-83aa-3f877176da49","system_id":"levelo_inurba_marseille","lat":43.30722,"lon":5.42462,"is_reserved":false,"is_disabled":false,"rental_uris":{"android":"levelo://app?vid=93641f31-faad-4324-83aa-3f877176da49","ios":"levelo://app?vid=93641f31-faad-4324-83aa-3f877176da49"},"vehicle_type_id":"4","last_reported":1761923352,"current_range_meters":18000,"station_id":"st_cvj6ca6bvosntc0bfgr0","pricing_plan_id":"cebpf4jnsgd1na2vs0mg"},{"bike_id":"8c43d01f-80f7-4458-9ef3-746a3c6690d7","system_id":"levelo_inurba_marseille","lat":43.29586,"lon":5.36739,"is_reserved":false,"is_disabled":false,"rental_uris":{"android":"levelo://app?vid=8c43d01f-80f7-4458-9ef3-746a3c6690d7","ios":"levelo://app?vid=8c43d01f-80f7-4458-9ef3-746a3c6690d7"},"vehicle_type_id":"4","last_reported":1761923352,"current_range_meters":18000,"station_id":"ce4bgph2rcd13ifvqc2g","pricing_plan_id":"cebpf4jnsgd1na2vs0mg"},{"bike_id":"ab5f919d-cbde-4e20-b8b8-241afce888f8","system_id":"levelo_inurba_marseille","lat":43.31996,"lon":5.38157,"is_reserved":false,"is_disabled":false,"rental_uris":{"android":"levelo://app?vid=ab5f919d-cbde-4e20-b8b8-241afce888f8","ios":"levelo://app?vid=ab5f919d-cbde-4e20-b8b8-241afce888f8"},"vehicle_type_id":"4","last_reported":1761923352,"current_range_meters":18800,"station_id":"ce4bhr12rcd13ifvqhpg","pricing_plan_id":"cebpf4jnsgd1na2vs0mg"},{"bike_id":"3ebf8817-86d5-43e8-88f2-8d2881496fa6","system_id":"levelo_inurba_marseille","lat":43.27948,"lon":5.436268,"is_reserved":false,"is_disabled":false,"rental_uris":{"android":"levelo://app?vid=3ebf8817-86d5-43e8-88f2-8d2881496fa6","ios":"levelo://app?vid=3ebf8817-86d5-43e8-88f2-8d2881496fa6"},"vehicle_type_id":"4","last_reported":1761923352,"current_range_meters":18800,"station_id":"","pricing_plan_id":"cebpf4jnsgd1na2vs0mg"},{"bike_id":"ebfb452f-d953-4d55-89f1-158485ccc478","system_id":"levelo_inurba_marseille","lat":43.2926,"lon":5.36857,"is_reserved":false,"is_disabled":false,"rental_uris":{"android":"levelo://app?vid=ebfb452f-d953-4d55-89f1-158485ccc478","ios":"levelo://app?vid=ebfb452f-d953-4d55-89f1-158485ccc478"},"vehicle_type_id":"4","last_reported":1761923352,"current_range_meters":18800,"station_id":"ce4bhbp2rcd13ifvqesg","pricing_plan_id":"cebpf4jnsgd1na2vs0mg"},{"bike_id":"3965660d-d019-448d-9ea6-ad76591ec156","system_id":"levelo_inurba_marseille","lat":43.32096,"lon":5.36817,"is_reserved":false,"is_disabled":false,"rental_uris":{"android":"levelo://app?vid=3965660d-d019-448d-9ea6-ad76591ec156","ios":"levelo://app?vid=3965660d-d019-448d-9ea6-ad76591ec156"},"vehicle_type_id":"4","last_reported":1761923352,"current_range_meters":18800,"station_id":"ce4bhrh2rcd13ifvqhug","pricing_plan_id":"cebpf4jnsgd1na2vs0mg"},{"bike_id":"037cb7e4-a70d-4a56-91a9-083a1b38d5d5","system_id":"levelo_inurba_marseille","lat":43.25008,"lon":5.38942,"is_reserved":false,"is_disabled":false,"rental_uris":{"android":"levelo://app?vid=037cb7e4-a70d-4a56-91a9-083a1b38d5d5","ios":"levelo://app?vid=037cb7e4-a70d-4a56-91a9-083a1b38d5d5"},"vehicle_type_id":"4","last_reported":1761923352,"current_range_meters":19200,"station_id":"ce4bhgp2rcd13ifvqfd0","pricing_plan_id":"cebpf4jnsgd1na2vs0mg"},{"bike_id":"7a47df47-527e-463a-95ae-8caba61102cd","system_id":"levelo_inurba_marseille","lat":43.26554,"lon":5.37301,"is_reserved":false,"is_disabled":false,"rental_uris":{"android":"levelo://app?vid=7a47df47-527e-463a-95ae-8caba61102cd","ios":"levelo://app?vid=7a47df47-527e-463a-95ae-8caba61102cd"},"vehicle_type_id":"4","last_reported":1761923352,"current_range_meters":19200,"station_id":"ce4bhg12rcd13ifvqf70","pricing_plan_id":"cebpf4jnsgd1na2vs0mg"},{"bike_id":"0089665c-d050-4f0d-8d27-e9a6af9208fc","system_id":"levelo_inurba_marseille","lat":43.30175,"lon":5.38041,"is_reserved":false,"is_disabled":false,"rental_uris":{"android":"levelo://app?vid=0089665c-d050-4f0d-8d27-e9a6af9208fc","ios":"levelo://app?vid=0089665c-d050-4f0d-8d27-e9a6af9208fc"},"vehicle_type_id":"4","last_reported":1761923352,"current_range_meters":19200,"station_id":"","pricing_plan_id":"cebpf4jnsgd1na2vs0mg"},{"bike_id":"3882c147-463d-4fec-830f-b93fd7e1d044","system_id":"levelo_inurba_marseille","lat":43.2977,"lon":5.37138,"is_reserved":false,"is_disabled":false,"rental_uris":{"android":"levelo://app?vid=3882c147-463d-4fec-830f-b93fd7e1d044","ios":"levelo://app?vid=3882c147-463d-4fec-830f-b93fd7e1d044"},"vehicle_type_id":"4","last_reported":1761923352,"current_range_meters":19600,"station_id":"","pricing_plan_id":"cebpf4jnsgd1na2vs0mg"},{"bike_id":"2819da96-e74b-4499-817d-c62867e34f4e","system_id":"levelo_inurba_marseille","lat":43.29841,"lon":5.36261,"is_reserved":false,"is_disabled":false,"rental_uris":{"android":"levelo://app?vid=2819da96-e74b-4499-817d-c62867e34f4e","ios":"levelo://app?vid=2819da96-e74b-4499-817d-c62867e34f4e"},"vehicle_type_id":"4","last_reported":1761923352,"current_range_meters":19600,"station_id":"ce4bgpp2rcd13ifvqc3g","pricing_plan_id":"cebpf4jnsgd1na2vs0mg"},{"bike_id":"06bde4a7-497c-469a-9516-37b9f9755e65","system_id":"levelo_inurba_marseille","lat":43.337444,"lon":5.374475,"is_reserved":false,"is_disabled":false,"rental_uris":{"android":"levelo://app?vid=06bde4a7-497c-469a-9516-37b9f9755e65","ios":"levelo://app?vid=06bde4a7-497c-469a-9516-37b9f9755e65"},"vehicle_type_id":"4","last_reported":1761923352,"current_range_meters":19600,"station_id":"ce4bhnh2rcd13ifvqgug","pricing_plan_id":"cebpf4jnsgd1na2vs0mg"},{"bike_id":"95a102e3-e40d-4bd2-aed9-9faa13227e80","system_id":"levelo_inurba_marseille","lat":43.303256,"lon":5.404432,"is_reserved":false,"is_disabled":false,"rental_uris":{"android":"levelo://app?vid=95a102e3-e40d-4bd2-aed9-9faa13227e80","ios":"levelo://app?vid=95a102e3-e40d-4bd2-aed9-9faa13227e80"},"vehicle_type_id":"4","last_reported":1761923352,"current_range_meters":19600,"station_id":"ce4bh012rcd13ifvqd10","pricing_plan_id":"cebpf4jnsgd1na2vs0mg"},{"bike_id":"192e66ef-089a-40ca-8236-0b363ccf47c4","system_id":"levelo_inurba_marseille","lat":43.28153,"lon":5.42642,"is_reserved":false,"is_disabled":false,"rental_uris":{"android":"levelo://app?vid=192e66ef-089a-40ca-8236-0b363ccf47c4","ios":"levelo://app?vid=192e66ef-089a-40ca-8236-0b363ccf47c4"},"vehicle_type_id":"4","last_reported":1761923352,"current_range_meters":19600,"station_id":"ce4bhnh2rcd13ifvqgug","pricing_plan_id":"cebpf4jnsgd1na2vs0mg"},{"bike_id":"d1b28965-8105-459b-96c1-51c3e27b8ee5","system_id":"levelo_inurba_marseille","lat":43.25334,"lon":5.4218,"is_reserved":false,"is_disabled":false,"rental_uris":{"android":"levelo://app?vid=d1b28965-8105-459b-96c1-51c3e27b8ee5","ios":"levelo://app?vid=d1b28965-8105-459b-96c1-51c3e27b8ee5"},"vehicle_type_id":"4","last_reported":1761923352,"current_range_meters":19600,"station_id":"st_d2m65c5bi1j21697t3ng","pricing_plan_id":"cebpf4jnsgd1na2vs0mg"},{"bike_id":"4cc68187-644c-4be8-99f8-789b6fa92ead","system_id":"levelo_inurba_marseille","lat":43.30418,"lon":5.39763,"is_reserved":false,"is_disabled":false,"rental_uris":{"android":"levelo://app?vid=4cc68187-644c-4be8-99f8-789b6fa92ead","ios":"levelo://app?vid=4cc68187-644c-4be8-99f8-789b6fa92ead"},"vehicle_type_id":"4","last_reported":1761923352,"current_range_meters":20000,"station_id":"ce4bh092rcd13ifvqd20","pricing_plan_id":"cebpf4jnsgd1na2vs0mg"},{"bike_id":"f6766c46-f552-4157-b3b3-39111dd8d08b","system_id":"levelo_inurba_marseille","lat":43.33772,"lon":5.37445,"is_reserved":false,"is_disabled":false,"rental_uris":{"android":"levelo://app?vid=f6766c46-f552-4157-b3b3-39111dd8d08b","ios":"levelo://app?vid=f6766c46-f552-4157-b3b3-39111dd8d08b"},"vehicle_type_id":"4","last_reported":1761923352,"current_range_meters":20000,"station_id":"ce4bh0h2rcd13ifvqd60","pricing_plan_id":"cebpf4jnsgd1na2vs0mg"},{"bike_id":"94084d75-b1ec-4cf5-8736-b1d0c7eed7ce","system_id":"levelo_inurba_marseille","lat":43.33042,"lon":5.39053,"is_reserved":false,"is_disabled":false,"rental_uris":{"android":"levelo://app?vid=94084d75-b1ec-4cf5-8736-b1d0c7eed7ce","ios":"levelo://app?vid=94084d75-b1ec-4cf5-8736-b1d0c7eed7ce"},"vehicle_type_id":"4","last_reported":1761923352,"current_range_meters":20000,"station_id":"ce4bhr92rcd13ifvqhrg","pricing_plan_id":"cebpf4jnsgd1na2vs0mg"},{"bike_id":"32632625-b281-4348-990f-071d78c42b84","system_id":"levelo_inurba_marseille","lat":43.26569,"lon":5.39014,"is_reserved":false,"is_disabled":false,"rental_uris":{"android":"levelo://app?vid=32632625-b281-4348-990f-071d78c42b84","ios":"levelo://app?vid=32632625-b281-4348-990f-071d78c42b84"},"vehicle_type_id":"4","last_reported":1761923352,"current_range_meters":20000,"station_id":"","pricing_plan_id":"cebpf4jnsgd1na2vs0mg"},{"bike_id":"3150b169-6d8b-4786-81cd-4b890da98702","system_id":"levelo_inurba_marseille","lat":43.23791,"lon":5.3662,"is_reserved":false,"is_disabled":false,"rental_uris":{"android":"levelo://app?vid=3150b169-6d8b-4786-81cd-4b890da98702","ios":"levelo://app?vid=3150b169-6d8b-4786-81cd-4b890da98702"},"vehicle_type_id":"4","last_reported":1761923352,"current_range_meters":20000,"station_id":"st_d3nk18o9ro0c73en2l3g","pricing_plan_id":"cebpf4jnsgd1na2vs0mg"},{"bike_id":"3121a0e2-8041-4bba-8ecc-3f5451b1a7cd","system_id":"levelo_inurba_marseille","lat":43.29936,"lon":5.36512,"is_reserved":false,"is_disabled":false,"rental_uris":{"android":"levelo://app?vid=3121a0e2-8041-4bba-8ecc-3f5451b1a7cd","ios":"levelo://app?vid=3121a0e2-8041-4bba-8ecc-3f5451b1a7cd"},"vehicle_type_id":"4","last_reported":1761923352,"current_range_meters":20000,"station_id":"ce4bgm92rcd13ifvqbr0","pricing_plan_id":"cebpf4jnsgd1na2vs0mg"},{"bike_id":"a5f9d115-2eb0-463d-bf65-9070eaddf3fb","system_id":"levelo_inurba_marseille","lat":43.23965,"lon":5.36631,"is_reserved":false,"is_disabled":false,"rental_uris":{"android":"levelo://app?vid=a5f9d115-2eb0-463d-bf65-9070eaddf3fb","ios":"levelo://app?vid=a5f9d115-2eb0-463d-bf65-9070eaddf3fb"},"vehicle_type_id":"4","last_reported":1761923352,"current_range_meters":20000,"station_id":"ce4bhi12rcd13ifvqfp0","pricing_plan_id":"cebpf4jnsgd1na2vs0mg"},{"bike_id":"41598790-345d-414f-9e87-720cb432f278","system_id":"levelo_inurba_marseille","lat":43.29477,"lon":5.36227,"is_reserved":false,"is_disabled":false,"rental_uris":{"android":"levelo://app?vid=41598790-345d-414f-9e87-720cb432f278","ios":"levelo://app?vid=41598790-345d-414f-9e87-720cb432f278"},"vehicle_type_id":"4","last_reported":1761923352,"current_range_meters":20000,"station_id":"","pricing_plan_id":"cebpf4jnsgd1na2vs0mg"},{"bike_id":"50c2c89c-4a9b-41f6-af05-b4e430e07029","system_id":"levelo_inurba_marseille","lat":43.246271,"lon":5.4315,"is_reserved":false,"is_disabled":false,"rental_uris":{"android":"levelo://app?vid=50c2c89c-4a9b-41f6-af05-b4e430e07029","ios":"levelo://app?vid=50c2c89c-4a9b-41f6-af05-b4e430e07029"},"vehicle_type_id":"4","last_reported":1761923352,"current_range_meters":20000,"station_id":"st_d2m6c4gdas8pm72e190g","pricing_plan_id":"cebpf4jnsgd1na2vs0mg"},{"bike_id":"1d29646a-da1f-4f66-b008-0838ffb2fa84","system_id":"levelo_inurba_marseille","lat":43.30001,"lon":5.37229,"is_reserved":false,"is_disabled":false,"rental_uris":{"android":"levelo://app?vid=1d29646a-da1f-4f66-b008-0838ffb2fa84","ios":"levelo://app?vid=1d29646a-da1f-4f66-b008-0838ffb2fa84"},"vehicle_type_id":"4","last_reported":1761923352,"current_range_meters":20000,"station_id":"ce4bgr92rcd13ifvqc7g","pricing_plan_id":"cebpf4jnsgd1na2vs0mg"},{"bike_id":"ab9bd489-255a-43b9-8b91-8e586b1d9069","system_id":"levelo_inurba_marseille","lat":43.25584,"lon":5.38237,"is_reserved":false,"is_disabled":false,"rental_uris":{"android":"levelo://app?vid=ab9bd489-255a-43b9-8b91-8e586b1d9069","ios":"levelo://app?vid=ab9bd489-255a-43b9-8b91-8e586b1d9069"},"vehicle_type_id":"4","last_reported":1761923352,"current_range_meters":20400,"station_id":"ce4bhih2rcd13ifvqfs0","pricing_plan_id":"cebpf4jnsgd1na2vs0mg"},{"bike_id":"4bd620c6-d0da-4f96-9ba9-833aa345df75","system_id":"levelo_inurba_marseille","lat":43.27184,"lon":5.36262,"is_reserved":false,"is_disabled":false,"rental_uris":{"android":"levelo://app?vid=4bd620c6-d0da-4f96-9ba9-833aa345df75","ios":"levelo://app?vid=4bd620c6-d0da-4f96-9ba9-833aa345df75"},"vehicle_type_id":"4","last_reported":1761923352,"current_range_meters":20400,"station_id":"","pricing_plan_id":"cebpf4jnsgd1na2vs0mg"},{"bike_id":"3ffbae57-8ecd-4e3d-96ad-932247e3fe54","system_id":"levelo_inurba_marseille","lat":43.32347,"lon":5.36768,"is_reserved":false,"is_disabled":false,"rental_uris":{"android":"levelo://app?vid=3ffbae57-8ecd-4e3d-96ad-932247e3fe54","ios":"levelo://app?vid=3ffbae57-8ecd-4e3d-96ad-932247e3fe54"},"vehicle_type_id":"4","last_reported":1761923352,"current_range_meters":20400,"station_id":"ce4bhsh2rcd13ifvqi2g","pricing_plan_id":"cebpf4jnsgd1na2vs0mg"},{"bike_id":"30fe1658-7a14-463b-a80e-7a1b304d6740","system_id":"levelo_inurba_marseille","lat":43.21198,"lon":5.35077,"is_reserved":false,"is_disabled":false,"rental_uris":{"android":"levelo://app?vid=30fe1658-7a14-463b-a80e-7a1b304d6740","ios":"levelo://app?vid=30fe1658-7a14-463b-a80e-7a1b304d6740"},"vehicle_type_id":"4","last_reported":1761923352,"current_range_meters":20400,"station_id":"st_cvj6sg6p6f1abm77japg","pricing_plan_id":"cebpf4jnsgd1na2vs0mg"},{"bike_id":"7c19b7e9-393b-4fa2-b057-4dd7dff08f6d","system_id":"levelo_inurba_marseille","lat":43.21195,"lon":5.35114,"is_reserved":false,"is_disabled":false,"rental_uris":{"android":"levelo://app?vid=7c19b7e9-393b-4fa2-b057-4dd7dff08f6d","ios":"levelo://app?vid=7c19b7e9-393b-4fa2-b057-4dd7dff08f6d"},"vehicle_type_id":"4","last_reported":1761923352,"current_range_meters":20400,"station_id":"st_cvj6sg6p6f1abm77japg","pricing_plan_id":"cebpf4jnsgd1na2vs0mg"},{"bike_id":"cc0d6697-bf7c-4001-828f-c5cf42c80c59","system_id":"levelo_inurba_marseille","lat":43.212,"lon":5.35066,"is_reserved":false,"is_disabled":false,"rental_uris":{"android":"levelo://app?vid=cc0d6697-bf7c-4001-828f-c5cf42c80c59","ios":"levelo://app?vid=cc0d6697-bf7c-4001-828f-c5cf42c80c59"},"vehicle_type_id":"4","last_reported":1761923352,"current_range_meters":20400,"station_id":"","pricing_plan_id":"cebpf4jnsgd1na2vs0mg"},{"bike_id":"3fad0693-36f3-4cf3-b043-014997d86966","system_id":"levelo_inurba_marseille","lat":43.29378,"lon":5.3785,"is_reserved":false,"is_disabled":false,"rental_uris":{"android":"levelo://app?vid=3fad0693-36f3-4cf3-b043-014997d86966","ios":"levelo://app?vid=3fad0693-36f3-4cf3-b043-014997d86966"},"vehicle_type_id":"4","last_reported":1761923352,"current_range_meters":20400,"station_id":"ce4bgjh2rcd13ifvqbf0","pricing_plan_id":"cebpf4jnsgd1na2vs0mg"},{"bike_id":"42ee845a-4e54-4f5b-8729-bb3ec7276302","system_id":"levelo_inurba_marseille","lat":43.29444,"lon":5.40129,"is_reserved":false,"is_disabled":false,"rental_uris":{"android":"levelo://app?vid=42ee845a-4e54-4f5b-8729-bb3ec7276302","ios":"levelo://app?vid=42ee845a-4e54-4f5b-8729-bb3ec7276302"},"vehicle_type_id":"4","last_reported":1761923352,"current_range_meters":20800,"station_id":"","pricing_plan_id":"cebpf4jnsgd1na2vs0mg"},{"bike_id":"f4138efc-7778-4d94-abf8-053b4cd27475","system_id":"levelo_inurba_marseille","lat":43.23197,"lon":5.35558,"is_reserved":false,"is_disabled":false,"rental_uris":{"android":"levelo://app?vid=f4138efc-7778-4d94-abf8-053b4cd27475","ios":"levelo://app?vid=f4138efc-7778-4d94-abf8-053b4cd27475"},"vehicle_type_id":"4","last_reported":1761923352,"current_range_meters":20800,"station_id":"ce4bhu92rcd13ifvqi70","pricing_plan_id":"cebpf4jnsgd1na2vs0mg"},{"bike_id":"f0b623d3-0945-4823-acd2-3859c939eb4d","system_id":"levelo_inurba_marseille","lat":43.27828,"lon":5.40727,"is_reserved":false,"is_disabled":false,"rental_uris":{"android":"levelo://app?vid=f0b623d3-0945-4823-acd2-3859c939eb4d","ios":"levelo://app?vid=f0b623d3-0945-4823-acd2-3859c939eb4d"},"vehicle_type_id":"4","last_reported":1761923352,"current_range_meters":20800,"station_id":"ce4bhnh2rcd13ifvqgtg","pricing_plan_id":"cebpf4jnsgd1na2vs0mg"},{"bike_id":"c311dcd7-8990-4d0c-b893-da6fc911ae2a","system_id":"levelo_inurba_marseille","lat":43.23188,"lon":5.39991,"is_reserved":false,"is_disabled":false,"rental_uris":{"android":"levelo://app?vid=c311dcd7-8990-4d0c-b893-da6fc911ae2a","ios":"levelo://app?vid=c311dcd7-8990-4d0c-b893-da6fc911ae2a"},"vehicle_type_id":"4","last_reported":1761923352,"current_range_meters":20800,"station_id":"ce4bhn12rcd13ifvqgqg","pricing_plan_id":"cebpf4jnsgd1na2vs0mg"},{"bike_id":"f4c38a56-4a35-49a9-bdea-5d14ae1ba768","system_id":"levelo_inurba_marseille","lat":43.29732,"lon":5.42806,"is_reserved":false,"is_disabled":false,"rental_uris":{"android":"levelo://app?vid=f4c38a56-4a35-49a9-bdea-5d14ae1ba768","ios":"levelo://app?vid=f4c38a56-4a35-49a9-bdea-5d14ae1ba768"},"vehicle_type_id":"4","last_reported":1761923352,"current_range_meters":20800,"station_id":"st_d3md5207bmas73dh9klg","pricing_plan_id":"cebpf4jnsgd1na2vs0mg"},{"bike_id":"23cb68a7-e48d-4be8-9b56-d51253ba7c2a","system_id":"levelo_inurba_marseille","lat":43.29007,"lon":5.35619,"is_reserved":false,"is_disabled":false,"rental_uris":{"android":"levelo://app?vid=23cb68a7-e48d-4be8-9b56-d51253ba7c2a","ios":"levelo://app?vid=23cb68a7-e48d-4be8-9b56-d51253ba7c2a"},"vehicle_type_id":"4","last_reported":1761923352,"current_range_meters":20800,"station_id":"ce4bhb92rcd13ifvqen0","pricing_plan_id":"cebpf4jnsgd1na2vs0mg"},{"bike_id":"9c1c5831-f78e-453f-8a28-90b58938513e","system_id":"levelo_inurba_marseille","lat":43.29006,"lon":5.37573,"is_reserved":false,"is_disabled":false,"rental_uris":{"android":"levelo://app?vid=9c1c5831-f78e-453f-8a28-90b58938513e","ios":"levelo://app?vid=9c1c5831-f78e-453f-8a28-90b58938513e"},"vehicle_type_id":"4","last_reported":1761923352,"current_range_meters":20800,"station_id":"ce4bh692rcd13ifvqe90","pricing_plan_id":"cebpf4jnsgd1na2vs0mg"},{"bike_id":"c815ba1d-3845-4118-98fc-d839aebeec0b","system_id":"levelo_inurba_marseille","lat":43.29535,"lon":5.38541,"is_reserved":false,"is_disabled":false,"rental_uris":{"android":"levelo://app?vid=c815ba1d-3845-4118-98fc-d839aebeec0b","ios":"levelo://app?vid=c815ba1d-3845-4118-98fc-d839aebeec0b"},"vehicle_type_id":"4","last_reported":1761923352,"current_range_meters":20800,"station_id":"ce4bgih2rcd13ifvqba0","pricing_plan_id":"cebpf4jnsgd1na2vs0mg"},{"bike_id":"e35e0abe-4c2a-4cc0-a145-913ed5b94495","system_id":"levelo_inurba_marseille","lat":43.24164,"lon":5.36434,"is_reserved":false,"is_disabled":false,"rental_uris":{"android":"levelo://app?vid=e35e0abe-4c2a-4cc0-a145-913ed5b94495","ios":"levelo://app?vid=e35e0abe-4c2a-4cc0-a145-913ed5b94495"},"vehicle_type_id":"4","last_reported":1761923352,"current_range_meters":20800,"station_id":"cpo36qri1sfpv3e86is0","pricing_plan_id":"cebpf4jnsgd1na2vs0mg"},{"bike_id":"06fc4c44-20ba-493c-8944-d78c73d93c94","system_id":"levelo_inurba_marseille","lat":43.3119,"lon":5.3936,"is_reserved":false,"is_disabled":false,"rental_uris":{"android":"levelo://app?vid=06fc4c44-20ba-493c-8944-d78c73d93c94","ios":"levelo://app?vid=06fc4c44-20ba-493c-8944-d78c73d93c94"},"vehicle_type_id":"4","last_reported":1761923352,"current_range_meters":20800,"station_id":"","pricing_plan_id":"cebpf4jnsgd1na2vs0mg"},{"bike_id":"a73a24c3-2218-4652-a302-2ad81b7034ad","system_id":"levelo_inurba_marseille","lat":43.318125,"lon":5.387606,"is_reserved":false,"is_disabled":false,"rental_uris":{"android":"levelo://app?vid=a73a24c3-2218-4652-a302-2ad81b7034ad","ios":"levelo://app?vid=a73a24c3-2218-4652-a302-2ad81b7034ad"},"vehicle_type_id":"4","last_reported":1761923352,"current_range_meters":20800,"station_id":"","pricing_plan_id":"cebpf4jnsgd1na2vs0mg"},{"bike_id":"e234df06-1f05-4887-b706-85c5b9955892","system_id":"levelo_inurba_marseille","lat":43.29899,"lon":5.36257,"is_reserved":false,"is_disabled":false,"rental_uris":{"android":"levelo://app?vid=e234df06-1f05-4887-b706-85c5b9955892","ios":"levelo://app?vid=e234df06-1f05-4887-b706-85c5b9955892"},"vehicle_type_id":"4","last_reported":1761923352,"current_range_meters":20800,"station_id":"","pricing_plan_id":"cebpf4jnsgd1na2vs0mg"},{"bike_id":"95aab240-e2f9-4959-bc6a-33034bc8db2f","system_id":"levelo_inurba_marseille","lat":43.30525,"lon":5.36713,"is_reserved":false,"is_disabled":false,"rental_uris":{"android":"levelo://app?vid=95aab240-e2f9-4959-bc6a-33034bc8db2f","ios":"levelo://app?vid=95aab240-e2f9-4959-bc6a-33034bc8db2f"},"vehicle_type_id":"4","last_reported":1761923352,"current_range_meters":20800,"station_id":"ce4bgrp2rcd13ifvqc9g","pricing_plan_id":"cebpf4jnsgd1na2vs0mg"},{"bike_id":"c64bc637-1f4d-405e-a5fb-8ca0c10fe7d4","system_id":"levelo_inurba_marseille","lat":43.30027,"lon":5.40404,"is_reserved":false,"is_disabled":false,"rental_uris":{"android":"levelo://app?vid=c64bc637-1f4d-405e-a5fb-8ca0c10fe7d4","ios":"levelo://app?vid=c64bc637-1f4d-405e-a5fb-8ca0c10fe7d4"},"vehicle_type_id":"4","last_reported":1761923352,"current_range_meters":20800,"station_id":"","pricing_plan_id":"cebpf4jnsgd1na2vs0mg"},{"bike_id":"52b04612-cd38-411f-a68e-6bb9cb24a90a","system_id":"levelo_inurba_marseille","lat":43.24156,"lon":5.36427,"is_reserved":false,"is_disabled":false,"rental_uris":{"android":"levelo://app?vid=52b04612-cd38-411f-a68e-6bb9cb24a90a","ios":"levelo://app?vid=52b04612-cd38-411f-a68e-6bb9cb24a90a"},"vehicle_type_id":"4","last_reported":1761923352,"current_range_meters":21600,"station_id":"cpo36qri1sfpv3e86is0","pricing_plan_id":"cebpf4jnsgd1na2vs0mg"},{"bike_id":"c1ad3c38-0ea7-4042-b92f-07af0f47ab84","system_id":"levelo_inurba_marseille","lat":43.27069,"lon":5.42275,"is_reserved":false,"is_disabled":false,"rental_uris":{"android":"levelo://app?vid=c1ad3c38-0ea7-4042-b92f-07af0f47ab84","ios":"levelo://app?vid=c1ad3c38-0ea7-4042-b92f-07af0f47ab84"},"vehicle_type_id":"4","last_reported":1761923352,"current_range_meters":21600,"station_id":"ce4bhk92rcd13ifvqgb0","pricing_plan_id":"cebpf4jnsgd1na2vs0mg"},{"bike_id":"cf7a8ce5-6096-4f39-86c5-cb2e7875b3f2","system_id":"levelo_inurba_marseille","lat":43.24525,"lon":5.39551,"is_reserved":false,"is_disabled":false,"rental_uris":{"android":"levelo://app?vid=cf7a8ce5-6096-4f39-86c5-cb2e7875b3f2","ios":"levelo://app?vid=cf7a8ce5-6096-4f39-86c5-cb2e7875b3f2"},"vehicle_type_id":"4","last_reported":1761923352,"current_range_meters":21600,"station_id":"","pricing_plan_id":"cebpf4jnsgd1na2vs0mg"},{"bike_id":"eae23f5a-f4b4-4746-a36d-7c691fb7278a","system_id":"levelo_inurba_marseille","lat":43.25868,"lon":5.39899,"is_reserved":false,"is_disabled":false,"rental_uris":{"android":"levelo://app?vid=eae23f5a-f4b4-4746-a36d-7c691fb7278a","ios":"levelo://app?vid=eae23f5a-f4b4-4746-a36d-7c691fb7278a"},"vehicle_type_id":"4","last_reported":1761923352,"current_range_meters":21600,"station_id":"ce4bhl92rcd13ifvqghg","pricing_plan_id":"cebpf4jnsgd1na2vs0mg"},{"bike_id":"0ce97f00-65a0-4d0c-b8ce-d9391ee3648a","system_id":"levelo_inurba_marseille","lat":43.291966,"lon":5.392992,"is_reserved":false,"is_disabled":false,"rental_uris":{"android":"levelo://app?vid=0ce97f00-65a0-4d0c-b8ce-d9391ee3648a","ios":"levelo://app?vid=0ce97f00-65a0-4d0c-b8ce-d9391ee3648a"},"vehicle_type_id":"4","last_reported":1761923352,"current_range_meters":21600,"station_id":"ce4bh192rcd13ifvqdd0","pricing_plan_id":"cebpf4jnsgd1na2vs0mg"},{"bike_id":"7776d34e-6db1-4a95-b64a-dfa1faf6c280","system_id":"levelo_inurba_marseille","lat":43.30197,"lon":5.36997,"is_reserved":false,"is_disabled":false,"rental_uris":{"android":"levelo://app?vid=7776d34e-6db1-4a95-b64a-dfa1faf6c280","ios":"levelo://app?vid=7776d34e-6db1-4a95-b64a-dfa1faf6c280"},"vehicle_type_id":"4","last_reported":1761923352,"current_range_meters":21600,"station_id":"","pricing_plan_id":"cebpf4jnsgd1na2vs0mg"},