{"last_updated":1722625588,"ttl":30,"version":"2.2","data":{"bikes":[{"bike_id":"beb29842-ed55-4b2d-8381-0e77c72ff93f","system_id":"levelo_inurba_marseille","lat":43.31447,"lon":5.3722,"is_reserved":false,"is_disabled":false,"rental_uris":{"android":"levelo://app?vid=beb29842-ed55-4b2d-8381-0e77c72ff93f","ios":"levelo://app?vid=beb29842-ed55-4b2d-8381-0e77c72ff93f"},"vehicle_type_id":"4","last_reported":1722625589,"current_range_meters":20000,"station_id":"","pricing_plan_id":"cebpf4jnsgd1na2vs0mg"},{"bike_id":"cb149846-35fb-4e94-8f7f-1fda099c522b","system_id":"levelo_inurba_marseille","lat":43.314811,"lon":5.373103,"is_reserved":false,"is_disabled":false,"rental_uris":{"android":"levelo://app?vid=cb149846-35fb-4e94-8f7f-1fda099c522b","ios":"levelo://app?vid=cb149846-35fb-4e94-8f7f-1fda099c522b"},"vehicle_type_id":"4","last_reported":1722625589,"current_range_meters":800,"station_id":"ce4bgt12rcd13ifvqcd0","pricing_plan_id":"cebpf4jnsgd1na2vs0mg"},{"bike_id":"cf19a87d-ab49-436e-b484-f81209ef74fd","system_id":"levelo_inurba_marseille","lat":43.309039,"lon":5.371797,"is_reserved":false,"is_disabled":false,"rental_uris":{"android":"levelo://app?vid=cf19a87d-ab49-436e-b484-f81209ef74fd","ios":"levelo://app?vid=cf19a87d-ab49-436e-b484-f81209ef74fd"},"vehicle_type_id":"4","last_reported":1722625589,"current_range_meters":0,"station_id":"ce4bguh2rcd13ifvqckg","pricing_plan_id":"cebpf4jnsgd1na2vs0mg"},{"bike_id":"69eebdea-6b88-4f2e-913a-0898de38fbcc","system_id":"levelo_inurba_marseille","lat":43.314068,"lon":5.374963,"is_reserved":false,"is_disabled":false,"rental_uris":{"android":"levelo://app?vid=69eebdea-6b88-4f2e-913a-0898de38fbcc","ios":"levelo://app?vid=69eebdea-6b88-4f2e-913a-0898de38fbcc"},"vehicle_type_id":"4","last_reported":1722625589,"current_range_meters":30000,"station_id":"","pricing_plan_id":"cebpf4jnsgd1na2vs0mg"},{"bike_id":"ee59dbfb-ea31-44c9-8e44-f349973276ce","system_id":"levelo_inurba_marseille","lat":43.30537,"lon":5.367345,"is_reserved":false,"is_disabled":false,"rental_uris":{"android":"levelo://app?vid=ee59dbfb-ea31-44c9-8e44-f349973276ce","ios":"levelo://app?vid=ee59dbfb-ea31-44c9-8e44-f349973276ce"},"vehicle_type_id":"4","last_reported":1722625589,"current_range_meters":0,"station_id":"ce4bgrp2rcd13ifvqc9g","pricing_plan_id":"cebpf4jnsgd1na2vs0mg"},{"bike_id":"3713e2ce-73f6-41c5-8b2c-bf46478d05d0","system_id":"levelo_inurba_marseille","lat":43.305714,"lon":5.365633,"is_reserved":false,"is_disabled":false,"rental_uris":{"android":"levelo://app?vid=3713e2ce-73f6-41c5-8b2c-bf46478d05d0","ios":"levelo://app?vid=3713e2ce-73f6-41c5-8b2c-bf46478d05d0"},"vehicle_type_id":"4","last_reported":1722625589,"current_range_meters":28800,"station_id":"ce4bgs12rcd13ifvqcag","pricing_plan_id":"cebpf4jnsgd1na2vs0mg"},{"bike_id":"813b1a27-6611-46cf-8e45-7f56a7859593","system_id":"levelo_inurba_marseille","lat":43.305714,"lon":5.365633,"is_reserved":false,"is_disabled":false,"rental_uris":{"android":"levelo://app?vid=813b1a27-6611-46cf-8e45-7f56a7859593","ios":"levelo://app?vid=813b1a27-6611-46cf-8e45-7f56a7859593"},"vehicle_type_id":"4","last_reported":1722625589,"current_range_meters":19600,"station_id":"ce4bgs12rcd13ifvqcag","pricing_plan_id":"cebpf4jnsgd1na2vs0mg"},{"bike_id":"4b910e2d-6317-4273-a9d0-795e0366663c","system_id":"levelo_inurba_marseille","lat":43.3123,"lon":5.377106,"is_reserved":false,"is_disabled":false,"rental_uris":{"android":"levelo://app?vid=4b910e2d-6317-4273-a9d0-795e0366663c","ios":"levelo://app?vid=4b910e2d-6317-4273-a9d0-795e0366663c"},"vehicle_type_id":"4","last_reported":1722625589,"current_range_meters":20000,"station_id":"ce4bgt92rcd13ifvqcg0","pricing_plan_id":"cebpf4jnsgd1na2vs0mg"},{"bike_id":"79299144-4b40-4936-af73-81b5a7b408e7","system_id":"levelo_inurba_marseille","lat":43.305368,"lon":5.367343,"is_reserved":false,"is_disabled":false,"rental_uris":{"android":"levelo://app?vid=79299144-4b40-4936-af73-81b5a7b408e7","ios":"levelo://app?vid=79299144-4b40-4936-af73-81b5a7b408e7"},"vehicle_type_id":"4","last_reported":1722625589,"current_range_meters":0,"station_id":"ce4bgrp2rcd13ifvqc9g","pricing_plan_id":"cebpf4jnsgd1na2vs0mg"},{"bike_id":"0a4ec73d-4232-444e-8408-7461a9e59554","system_id":"levelo_inurba_marseille","lat":43.311125,"lon":5.377624,"is_reserved":false,"is_disabled":false,"rental_uris":{"android":"levelo://app?vid=0a4ec73d-4232-444e-8408-7461a9e59554","ios":"levelo://app?vid=0a4ec73d-4232-444e-8408-7461a9e59554"},"vehicle_type_id":"4","last_reported":1722625589,"current_range_meters":17200,"station_id":"ce4bgt92rcd13ifvqcg0","pricing_plan_id":"cebpf4jnsgd1na2vs0mg"},{"bike_id":"357f05bf-f287-427f-99f7-cd801204cca4","system_id":"levelo_inurba_marseille","lat":43.31708,"lon":5.37746,"is_reserved":false,"is_disabled":false,"rental_uris":{"android":"levelo://app?vid=357f05bf-f287-427f-99f7-cd801204cca4","ios":"levelo://app?vid=357f05bf-f287-427f-99f7-cd801204cca4"},"vehicle_type_id":"4","last_reported":1722625589,"current_range_meters":0,"station_id":"ce4bgth2rcd13ifvqch0","pricing_plan_id":"cebpf4jnsgd1na2vs0mg"},{"bike_id":"6ae84527-6147-4032-a8a5-335036cb429e","system_id":"levelo_inurba_marseille","lat":43.317075,"lon":5.377367,"is_reserved":false,"is_disabled":false,"rental_uris":{"android":"levelo://app?vid=6ae84527-6147-4032-a8a5-335036cb429e","ios":"levelo://app?vid=6ae84527-6147-4032-a8a5-335036cb429e"},"vehicle_type_id":"4","last_reported":1722625589,"current_range_meters":27200,"station_id":"ce4bgth2rcd13ifvqch0","pricing_plan_id":"cebpf4jnsgd1na2vs0mg"},{"bike_id":"7c14d4b9-0373-42f4-98ca-5464de42dfc1","system_id":"levelo_inurba_marseille","lat":43.315289,"lon":5.380349,"is_reserved":false,"is_disabled":false,"rental_uris":{"android":"levelo://app?vid=7c14d4b9-0373-42f4-98ca-5464de42dfc1","ios":"levelo://app?vid=7c14d4b9-0373-42f4-98ca-5464de42dfc1"},"vehicle_type_id":"4","last_reported":1722625589,"current_range_meters":1600,"station_id":"ce4bhsp2rcd13ifvqi50","pricing_plan_id":"cebpf4jnsgd1na2vs0mg"},{"bike_id":"330eb64a-6394-47a7-a1cf-72f2abd24692","system_id":"levelo_inurba_marseille","lat":43.30304,"lon":5.368987,"is_reserved":false,"is_disabled":false,"rental_uris":{"android":"levelo://app?vid=330eb64a-6394-47a7-a1cf-72f2abd24692","ios":"levelo://app?vid=330eb64a-6394-47a7-a1cf-72f2abd24692"},"vehicle_type_id":"4","last_reported":1722625589,"current_range_meters":0,"station_id":"ce4bgqh2rcd13ifvqc5g","pricing_plan_id":"cebpf4jnsgd1na2vs0mg"},{"bike_id":"cabcdcb6-6be0-4d12-a4f8-65248cd85164","system_id":"levelo_inurba_marseille","lat":43.315289,"lon":5.380349,"is_reserved":false,"is_disabled":false,"rental_uris":{"android":"levelo://app?vid=cabcdcb6-6be0-4d12-a4f8-65248cd85164","ios":"levelo://app?vid=cabcdcb6-6be0-4d12-a4f8-65248cd85164"},"vehicle_type_id":"4","last_reported":1722625589,"current_range_meters":24400,"station_id":"ce4bhsp2rcd13ifvqi50","pricing_plan_id":"cebpf4jnsgd1na2vs0mg"},{"bike_id":"7be19837-fdc0-41b5-acdd-a784abf0d845","system_id":"levelo_inurba_marseille","lat":43.315289,"lon":5.380349,"is_reserved":false,"is_disabled":false,"rental_uris":{"android":"levelo://app?vid=7be19837-fdc0-41b5-acdd-a784abf0d845","ios":"levelo://app?vid=7be19837-fdc0-41b5-acdd-a784abf0d845"},"vehicle_type_id":"4","last_reported":1722625589,"current_range_meters":4400,"station_id":"ce4bhsp2rcd13ifvqi50","pricing_plan_id":"cebpf4jnsgd1na2vs0mg"},{"bike_id":"0392da51-dd98-404f-a200-aa574fe36b84","system_id":"levelo_inurba_marseille","lat":43.315289,"lon":5.380349,"is_reserved":false,"is_disabled":false,"rental_uris":{"android":"levelo://app?vid=0392da51-dd98-404f-a200-aa574fe36b84","ios":"levelo://app?vid=0392da51-dd98-404f-a200-aa574fe36b84"},"vehicle_type_id":"4","last_reported":1722625589,"current_range_meters":6800,"station_id":"ce4bhsp2rcd13ifvqi50","pricing_plan_id":"cebpf4jnsgd1na2vs0mg"},{"bike_id":"7d26f442-7c92-4f3d-8240-0ca62ad96ee4","system_id":"levelo_inurba_marseille","lat":43.32347,"lon":5.36478,"is_reserved":false,"is_disabled":false,"rental_uris":{"android":"levelo://app?vid=7d26f442-7c92-4f3d-8240-0ca62ad96ee4","ios":"levelo://app?vid=7d26f442-7c92-4f3d-8240-0ca62ad96ee4"},"vehicle_type_id":"4","last_reported":1722625589,"current_range_meters":29600,"station_id":"","pricing_plan_id":"cebpf4jnsgd1na2vs0mg"},{"bike_id":"78c98e4d-37af-4d49-9065-e4a90660e991","system_id":"levelo_inurba_marseille","lat":43.301939,"lon":5.366286,"is_reserved":false,"is_disabled":false,"rental_uris":{"android":"levelo://app?vid=78c98e4d-37af-4d49-9065-e4a90660e991","ios":"levelo://app?vid=78c98e4d-37af-4d49-9065-e4a90660e991"},"vehicle_type_id":"4","last_reported":1722625589,"current_range_meters":13600,"station_id":"ce4bgrh2rcd13ifvqc8g","pricing_plan_id":"cebpf4jnsgd1na2vs0mg"},{"bike_id":"26fabcb2-c4dc-4891-81fe-1bf9a194d7e9","system_id":"levelo_inurba_marseille","lat":43.304606,"lon":5.379026,"is_reserved":false,"is_disabled":false,"rental_uris":{"android":"levelo://app?vid=26fabcb2-c4dc-4891-81fe-1bf9a194d7e9","ios":"levelo://app?vid=26fabcb2-c4dc-4891-81fe-1bf9a194d7e9"},"vehicle_type_id":"4","last_reported":1722625589,"current_range_meters":0,"station_id":"ce4bgup2rcd13ifvqcn0","pricing_plan_id":"cebpf4jnsgd1na2vs0mg"},{"bike_id":"d4717a21-abd4-4059-864a-0ce695b32290","system_id":"levelo_inurba_marseille","lat":43.304606,"lon":5.379026,"is_reserved":false,"is_disabled":false,"rental_uris":{"android":"levelo://app?vid=d4717a21-abd4-4059-864a-0ce695b32290","ios":"levelo://app?vid=d4717a21-abd4-4059-864a-0ce695b32290"},"vehicle_type_id":"4","last_reported":1722625589,"current_range_meters":16800,"station_id":"ce4bgup2rcd13ifvqcn0","pricing_plan_id":"cebpf4jnsgd1na2vs0mg"},{"bike_id":"b950841e-a59c-47a5-8ded-1ed5f84f13f7","system_id":"levelo_inurba_marseille","lat":43.304606,"lon":5.379026,"is_reserved":false,"is_disabled":false,"rental_uris":{"android":"levelo://app?vid=b950841e-a59c-47a5-8ded-1ed5f84f13f7","ios":"levelo://app?vid=b950841e-a59c-47a5-8ded-1ed5f84f13f7"},"vehicle_type_id":"4","last_reported":1722625589,"current_range_meters":0,"station_id":"ce4bgup2rcd13ifvqcn0","pricing_plan_id":"cebpf4jnsgd1na2vs0mg"},{"bike_id":"cfbb5f88-214f-4b9d-a4eb-4496dbd9322a","system_id":"levelo_inurba_marseille","lat":43.324771,"lon":5.36557,"is_reserved":false,"is_disabled":false,"rental_uris":{"android":"levelo://app?vid=cfbb5f88-214f-4b9d-a4eb-4496dbd9322a","ios":"levelo://app?vid=cfbb5f88-214f-4b9d-a4eb-4496dbd9322a"},"vehicle_type_id":"4","last_reported":1722625589,"current_range_meters":31200,"station_id":"ce4bhs12rcd13ifvqhvg","pricing_plan_id":"cebpf4jnsgd1na2vs0mg"},{"bike_id":"d50f5eee-d5a0-407d-8e48-052c6677cd42","system_id":"levelo_inurba_marseille","lat":43.32479,"lon":5.36567,"is_reserved":false,"is_disabled":false,"rental_uris":{"android":"levelo://app?vid=d50f5eee-d5a0-407d-8e48-052c6677cd42","ios":"levelo://app?vid=d50f5eee-d5a0-407d-8e48-052c6677cd42"},"vehicle_type_id":"4","last_reported":1722625589,"current_range_meters":23200,"station_id":"ce4bhs12rcd13ifvqhvg","pricing_plan_id":"cebpf4jnsgd1na2vs0mg"},{"bike_id":"1a46b170-d8d1-48de-8d32-2ab9bdf50c35","system_id":"levelo_inurba_marseille","lat":43.324771,"lon":5.36557,"is_reserved":false,"is_disabled":false,"rental_uris":{"android":"levelo://app?vid=1a46b170-d8d1-48de-8d32-2ab9bdf50c35","ios":"levelo://app?vid=1a46b170-d8d1-48de-8d32-2ab9bdf50c35"},"vehicle_type_id":"4","last_reported":1722625589,"current_range_meters":16000,"station_id":"ce4bhs12rcd13ifvqhvg","pricing_plan_id":"cebpf4jnsgd1na2vs0mg"},{"bike_id":"c14aeb51-646d-4522-9b8b-74f57a5c0a12","system_id":"levelo_inurba_marseille","lat":43.324771,"lon":5.36557,"is_reserved":false,"is_disabled":false,"rental_uris":{"android":"levelo://app?vid=c14aeb51-646d-4522-9b8b-74f57a5c0a12","ios":"levelo://app?vid=c14aeb51-646d-4522-9b8b-74f57a5c0a12"},"vehicle_type_id":"4","last_reported":1722625589,"current_range_meters":4000,"station_id":"ce4bhs12rcd13ifvqhvg","pricing_plan_id":"cebpf4jnsgd1na2vs0mg"},{"bike_id":"75a25d88-d4f8-49f5-9b75-4c3b5365c690","system_id":"levelo_inurba_marseille","lat":43.32485,"lon":5.365637,"is_reserved":false,"is_disabled":false,"rental_uris":{"android":"levelo://app?vid=75a25d88-d4f8-49f5-9b75-4c3b5365c690","ios":"levelo://app?vid=75a25d88-d4f8-49f5-9b75-4c3b5365c690"},"vehicle_type_id":"4","last_reported":1722625589,"current_range_meters":11600,"station_id":"ce4bhs12rcd13ifvqhvg","pricing_plan_id":"cebpf4jnsgd1na2vs0mg"},{"bike_id":"7370f898-d05e-4325-a96c-8cb4ab59798f","system_id":"levelo_inurba_marseille","lat":43.324771,"lon":5.36557,"is_reserved":false,"is_disabled":false,"rental_uris":{"android":"levelo://app?vid=7370f898-d05e-4325-a96c-8cb4ab59798f","ios":"levelo://app?vid=7370f898-d05e-4325-a96c-8cb4ab59798f"},"vehicle_type_id":"4","last_reported":1722625589,"current_range_meters":28000,"station_id":"ce4bhs12rcd13ifvqhvg","pricing_plan_id":"cebpf4jnsgd1na2vs0mg"},{"bike_id":"8e38401a-6489-4adf-a565-c28dd1fcc7d9","system_id":"levelo_inurba_marseille","lat":43.310804,"lon":5.38359,"is_reserved":false,"is_disabled":false,"rental_uris":{"android":"levelo://app?vid=8e38401a-6489-4adf-a565-c28dd1fcc7d9","ios":"levelo://app?vid=8e38401a-6489-4adf-a565-c28dd1fcc7d9"},"vehicle_type_id":"4","last_reported":1722625589,"current_range_meters":22000,"station_id":"ce4bgv92rcd13ifvqcr0","pricing_plan_id":"cebpf4jnsgd1na2vs0mg"},{"bike_id":"1716bffb-7402-4c05-945a-ce26edc0f792","system_id":"levelo_inurba_marseille","lat":43.310804,"lon":5.38359,"is_reserved":false,"is_disabled":false,"rental_uris":{"android":"levelo://app?vid=1716bffb-7402-4c05-945a-ce26edc0f792","ios":"levelo://app?vid=1716bffb-7402-4c05-945a-ce26edc0f792"},"vehicle_type_id":"4","last_reported":1722625589,"current_range_meters":0,"station_id":"ce4bgv92rcd13ifvqcr0","pricing_plan_id":"cebpf4jnsgd1na2vs0mg"},{"bike_id":"7a9dc89f-6cd7-4702-bb6e-885a8d13c1a2","system_id":"levelo_inurba_marseille","lat":43.310804,"lon":5.38359,"is_reserved":false,"is_disabled":false,"rental_uris":{"android":"levelo://app?vid=7a9dc89f-6cd7-4702-bb6e-885a8d13c1a2","ios":"levelo://app?vid=7a9dc89f-6cd7-4702-bb6e-885a8d13c1a2"},"vehicle_type_id":"4","last_reported":1722625589,"current_range_meters":22800,"station_id":"ce4bgv92rcd13ifvqcr0","pricing_plan_id":"cebpf4jnsgd1na2vs0mg"},{"bike_id":"bf57a654-d4d3-4d02-b99a-362c42b413e6","system_id":"levelo_inurba_marseille","lat":43.310804,"lon":5.38359,"is_reserved":false,"is_disabled":false,"rental_uris":{"android":"levelo://app?vid=bf57a654-d4d3-4d02-b99a-362c42b413e6","ios":"levelo://app?vid=bf57a654-d4d3-4d02-b99a-362c42b413e6"},"vehicle_type_id":"4","last_reported":1722625589,"current_range_meters":5600,"station_id":"ce4bgv92rcd13ifvqcr0","pricing_plan_id":"cebpf4jnsgd1na2vs0mg"},{"bike_id":"0c265bb3-fcef-4e60-be41-873f8eed2727","system_id":"levelo_inurba_marseille","lat":43.302784,"lon":5.377158,"is_reserved":false,"is_disabled":false,"rental_uris":{"android":"levelo://app?vid=0c265bb3-fcef-4e60-be41-873f8eed2727","ios":"levelo://app?vid=0c265bb3-fcef-4e60-be41-873f8eed2727"},"vehicle_type_id":"4","last_reported":1722625589,"current_range_meters":0,"station_id":"ce4bguh2rcd13ifvqcj0","pricing_plan_id":"cebpf4jnsgd1na2vs0mg"},{"bike_id":"31b560a9-0071-4770-bc5f-9e58b1787fd5","system_id":"levelo_inurba_marseille","lat":43.302784,"lon":5.377158,"is_reserved":false,"is_disabled":false,"rental_uris":{"android":"levelo://app?vid=31b560a9-0071-4770-bc5f-9e58b1787fd5","ios":"levelo://app?vid=31b560a9-0071-4770-bc5f-9e58b1787fd5"},"vehicle_type_id":"4","last_reported":1722625589,"current_range_meters":3200,"station_id":"ce4bguh2rcd13ifvqcj0","pricing_plan_id":"cebpf4jnsgd1na2vs0mg"},{"bike_id":"153cd610-ec6e-4fd9-89bf-29fdeaebdb32","system_id":"levelo_inurba_marseille","lat":43.31099,"lon":5.383823,"is_reserved":false,"is_disabled":false,"rental_uris":{"android":"levelo://app?vid=153cd610-ec6e-4fd9-89bf-29fdeaebdb32","ios":"levelo://app?vid=153cd610-ec6e-4fd9-89bf-29fdeaebdb32"},"vehicle_type_id":"4","last_reported":1722625589,"current_range_meters":16000,"station_id":"ce4bgv92rcd13ifvqcr0","pricing_plan_id":"cebpf4jnsgd1na2vs0mg"},{"bike_id":"0f29d574-1ede-4b14-8d7e-1db58f728235","system_id":"levelo_inurba_marseille","lat":43.302784,"lon":5.377158,"is_reserved":false,"is_disabled":false,"rental_uris":{"android":"levelo://app?vid=0f29d574-1ede-4b14-8d7e-1db58f728235","ios":"levelo://app?vid=0f29d574-1ede-4b14-8d7e-1db58f728235"},"vehicle_type_id":"4","last_reported":1722625589,"current_range_meters":27600,"station_id":"ce4bguh2rcd13ifvqcj0","pricing_plan_id":"cebpf4jnsgd1na2vs0mg"},{"bike_id":"a78b5ce5-435a-4d29-a48a-fe7878d6f293","system_id":"levelo_inurba_marseille","lat":43.302784,"lon":5.377158,"is_reserved":false,"is_disabled":false,"rental_uris":{"android":"levelo://app?vid=a78b5ce5-435a-4d29-a48a-fe7878d6f293","ios":"levelo://app?vid=a78b5ce5-435a-4d29-a48a-fe7878d6f293"},"vehicle_type_id":"4","last_reported":1722625589,"current_range_meters":15600,"station_id":"ce4bguh2rcd13ifvqcj0","pricing_plan_id":"cebpf4jnsgd1na2vs0mg"},{"bike_id":"8e8c2be2-a825-4388-b516-444162309e43","system_id":"levelo_inurba_marseille","lat":43.301429,"lon":5.37413,"is_reserved":false,"is_disabled":false,"rental_uris":{"android":"levelo://app?vid=8e8c2be2-a825-4388-b516-444162309e43","ios":"levelo://app?vid=8e8c2be2-a825-4388-b516-444162309e43"},"vehicle_type_id":"4","last_reported":1722625589,"current_range_meters":14400,"station_id":"ce4bgs92rcd13ifvqcc0","pricing_plan_id":"cebpf4jnsgd1na2vs0mg"},{"bike_id":"651886fa-3b61-4449-b3cd-96bbb9d06444","system_id":"levelo_inurba_marseille","lat":43.30143,"lon":5.37413,"is_reserved":false,"is_disabled":false,"rental_uris":{"android":"levelo://app?vid=651886fa-3b61-4449-b3cd-96bbb9d06444","ios":"levelo://app?vid=651886fa-3b61-4449-b3cd-96bbb9d06444"},"vehicle_type_id":"4","last_reported":1722625589,"current_range_meters":2800,"station_id":"ce4bgs92rcd13ifvqcc0","pricing_plan_id":"cebpf4jnsgd1na2vs0mg"},{"bike_id":"468d1d5d-3fcc-4b92-9efc-c13d437ba07c","system_id":"levelo_inurba_marseille","lat":43.30612,"lon":5.3822,"is_reserved":false,"is_disabled":false,"rental_uris":{"android":"levelo://app?vid=468d1d5d-3fcc-4b92-9efc-c13d437ba07c","ios":"levelo://app?vid=468d1d5d-3fcc-4b92-9efc-c13d437ba07c"},"vehicle_type_id":"4","last_reported":1722625589,"current_range_meters":20000,"station_id":"","pricing_plan_id":"cebpf4jnsgd1na2vs0mg"},{"bike_id":"b65918fa-a957-4ba6-99eb-62acd4c9b7f0","system_id":"levelo_inurba_marseille","lat":43.31361,"lon":5.38487,"is_reserved":false,"is_disabled":false,"rental_uris":{"android":"levelo://app?vid=b65918fa-a957-4ba6-99eb-62acd4c9b7f0","ios":"levelo://app?vid=b65918fa-a957-4ba6-99eb-62acd4c9b7f0"},"vehicle_type_id":"4","last_reported":1722625589,"current_range_meters":7600,"station_id":"ce4bgt92rcd13ifvqcf0","pricing_plan_id":"cebpf4jnsgd1na2vs0mg"},{"bike_id":"a7bba4e1-c5d9-4cc1-b080-7f8e20af4489","system_id":"levelo_inurba_marseille","lat":43.313571,"lon":5.384829,"is_reserved":false,"is_disabled":false,"rental_uris":{"android":"levelo://app?vid=a7bba4e1-c5d9-4cc1-b080-7f8e20af4489","ios":"levelo://app?vid=a7bba4e1-c5d9-4cc1-b080-7f8e20af4489"},"vehicle_type_id":"4","last_reported":1722625589,"current_range_meters":27600,"station_id":"ce4bgt92rcd13ifvqcf0","pricing_plan_id":"cebpf4jnsgd1na2vs0mg"},{"bike_id":"d8412952-053a-4864-aea5-7c9a5c16ebf2","system_id":"levelo_inurba_marseille","lat":43.313571,"lon":5.384829,"is_reserved":false,"is_disabled":false,"rental_uris":{"android":"levelo://app?vid=d8412952-053a-4864-aea5-7c9a5c16ebf2","ios":"levelo://app?vid=d8412952-053a-4864-aea5-7c9a5c16ebf2"},"vehicle_type_id":"4","last_reported":1722625589,"current_range_meters":2400,"station_id":"ce4bgt92rcd13ifvqcf0","pricing_plan_id":"cebpf4jnsgd1na2vs0mg"},{"bike_id":"7ba192ee-6965-4383-9ef5-f81117b78aa6","system_id":"levelo_inurba_marseille","lat":43.313571,"lon":5.384829,"is_reserved":false,"is_disabled":false,"rental_uris":{"android":"levelo://app?vid=7ba192ee-6965-4383-9ef5-f81117b78aa6","ios":"levelo://app?vid=7ba192ee-6965-4383-9ef5-f81117b78aa6"},"vehicle_type_id":"4","last_reported":1722625589,"current_range_meters":24800,"station_id":"ce4bgt92rcd13ifvqcf0","pricing_plan_id":"cebpf4jnsgd1na2vs0mg"},{"bike_id":"cc4707aa-6ddb-42e6-b9e3-51a1f40608fc","system_id":"levelo_inurba_marseille","lat":43.313571,"lon":5.384829,"is_reserved":false,"is_disabled":false,"rental_uris":{"android":"levelo://app?vid=cc4707aa-6ddb-42e6-b9e3-51a1f40608fc","ios":"levelo://app?vid=cc4707aa-6ddb-42e6-b9e3-51a1f40608fc"},"vehicle_type_id":"4","last_reported":1722625589,"current_range_meters":800,"station_id":"ce4bgt92rcd13ifvqcf0","pricing_plan_id":"cebpf4jnsgd1na2vs0mg"},{"bike_id":"db0e6572-c961-4d00-ba05-d9939a1869f6","system_id":"levelo_inurba_marseille","lat":43.313571,"lon":5.384829,"is_reserved":false,"is_disabled":false,"rental_uris":{"android":"levelo://app?vid=db0e6572-c961-4d00-ba05-d9939a1869f6","ios":"levelo://app?vid=db0e6572-c961-4d00-ba05-d9939a1869f6"},"vehicle_type_id":"4","last_reported":1722625589,"current_range_meters":5200,"station_id":"ce4bgt92rcd13ifvqcf0","pricing_plan_id":"cebpf4jnsgd1na2vs0mg"},{"bike_id":"b6dd07f6-eb76-49cd-b5bf-3928fb8d3663","system_id":"levelo_inurba_marseille","lat":43.313571,"lon":5.384829,"is_reserved":false,"is_disabled":false,"rental_uris":{"android":"levelo://app?vid=b6dd07f6-eb76-49cd-b5bf-3928fb8d3663","ios":"levelo://app?vid=b6dd07f6-eb76-49cd-b5bf-3928fb8d3663"},"vehicle_type_id":"4","last_reported":1722625589,"current_range_meters":15600,"station_id":"ce4bgt92rcd13ifvqcf0","pricing_plan_id":"cebpf4jnsgd1na2vs0mg"},{"bike_id":"c97dca7a-9729-4e25-9079-3e68ac230fa5","system_id":"levelo_inurba_marseille","lat":43.313571,"lon":5.384829,"is_reserved":false,"is_disabled":false,"rental_uris":{"android":"levelo://app?vid=c97dca7a-9729-4e25-9079-3e68ac230fa5","ios":"levelo://app?vid=c97dca7a-9729-4e25-9079-3e68ac230fa5"},"vehicle_type_id":"4","last_reported":1722625589,"current_range_meters":2400,"station_id":"ce4bgt92rcd13ifvqcf0","pricing_plan_id":"cebpf4jnsgd1na2vs0mg"},{"bike_id":"06952ecf-86a3-4804-b5d3-cedfb3491854","system_id":"levelo_inurba_marseille","lat":43.31363,"lon":5.38505,"is_reserved":false,"is_disabled":false,"rental_uris":{"android":"levelo://app?vid=06952ecf-86a3-4804-b5d3-cedfb3491854","ios":"levelo://app?vid=06952ecf-86a3-4804-b5d3-cedfb3491854"},"vehicle_type_id":"4","last_reported":1722625589,"current_range_meters":12400,"station_id":"ce4bgt92rcd13ifvqcf0","pricing_plan_id":"cebpf4jnsgd1na2vs0mg"},{"bike_id":"8b7f1ffe-1ecc-452c-a19f-aae4c8eba9a6","system_id":"levelo_inurba_marseille","lat":43.299724,"lon":5.371829,"is_reserved":false,"is_disabled":false,"rental_uris":{"android":"levelo://app?vid=8b7f1ffe-1ecc-452c-a19f-aae4c8eba9a6","ios":"levelo://app?vid=8b7f1ffe-1ecc-452c-a19f-aae4c8eba9a6"},"vehicle_type_id":"4","last_reported":1722625589,"current_range_meters":2800,"station_id":"ce4bgr92rcd13ifvqc7g","pricing_plan_id":"cebpf4jnsgd1na2vs0mg"},{"bike_id":"edc4c5e2-9384-41bc-8654-2c4cffed7988","system_id":"levelo_inurba_marseille","lat":43.299763,"lon":5.371733,"is_reserved":false,"is_disabled":false,"rental_uris":{"android":"levelo://app?vid=edc4c5e2-9384-41bc-8654-2c4cffed7988","ios":"levelo://app?vid=edc4c5e2-9384-41bc-8654-2c4cffed7988"},"vehicle_type_id":"4","last_reported":1722625589,"current_range_meters":0,"station_id":"ce4bgr92rcd13ifvqc7g","pricing_plan_id":"cebpf4jnsgd1na2vs0mg"},{"bike_id":"7bfc29a5-2fa8-4d6b-82e0-c3feab350dac","system_id":"levelo_inurba_marseille","lat":43.299222,"lon":5.365554,"is_reserved":false,"is_disabled":false,"rental_uris":{"android":"levelo://app?vid=7bfc29a5-2fa8-4d6b-82e0-c3feab350dac","ios":"levelo://app?vid=7bfc29a5-2fa8-4d6b-82e0-c3feab350dac"},"vehicle_type_id":"4","last_reported":1722625589,"current_range_meters":20400,"station_id":"ce4bgm92rcd13ifvqbr0","pricing_plan_id":"cebpf4jnsgd1na2vs0mg"},{"bike_id":"4c306cd9-ac09-4afa-b2ea-321bc317bfed","system_id":"levelo_inurba_marseille","lat":43.319935,"lon":5.381699,"is_reserved":false,"is_disabled":false,"rental_uris":{"android":"levelo://app?vid=4c306cd9-ac09-4afa-b2ea-321bc317bfed","ios":"levelo://app?vid=4c306cd9-ac09-4afa-b2ea-321bc317bfed"},"vehicle_type_id":"4","last_reported":1722625589,"current_range_meters":28800,"station_id":"ce4bhr12rcd13ifvqhpg","pricing_plan_id":"cebpf4jnsgd1na2vs0mg"},{"bike_id":"66271360-f295-4ed7-b4c9-61cb098a4201","system_id":"levelo_inurba_marseille","lat":43.301767,"lon":5.380282,"is_reserved":false,"is_disabled":false,"rental_uris":{"android":"levelo://app?vid=66271360-f295-4ed7-b4c9-61cb098a4201","ios":"levelo://app?vid=66271360-f295-4ed7-b4c9-61cb098a4201"},"vehicle_type_id":"4","last_reported":1722625589,"current_range_meters":23200,"station_id":"","pricing_plan_id":"cebpf4jnsgd1na2vs0mg"},{"bike_id":"b4cb6f7a-7728-448d-94aa-024bc5e107e5","system_id":"levelo_inurba_marseille","lat":43.311722,"lon":5.387247,"is_reserved":false,"is_disabled":false,"rental_uris":{"android":"levelo://app?vid=b4cb6f7a-7728-448d-94aa-024bc5e107e5","ios":"levelo://app?vid=b4cb6f7a-7728-448d-94aa-024bc5e107e5"},"vehicle_type_id":"4","last_reported":1722625589,"current_range_meters":6000,"station_id":"ce4bgv12rcd13ifvqcp0","pricing_plan_id":"cebpf4jnsgd1na2vs0mg"},{"bike_id":"34165e58-720d-442e-b352-9c978d4ee477","system_id":"levelo_inurba_marseille","lat":43.311722,"lon":5.387247,"is_reserved":false,"is_disabled":false,"rental_uris":{"android":"levelo://app?vid=34165e58-720d-442e-b352-9c978d4ee477","ios":"levelo://app?vid=34165e58-720d-442e-b352-9c978d4ee477"},"vehicle_type_id":"4","last_reported":1722625589,"current_range_meters":24800,"station_id":"ce4bgv12rcd13ifvqcp0","pricing_plan_id":"cebpf4jnsgd1na2vs0mg"},{"bike_id":"a5f9341a-5e60-4282-9e15-189af61d4bd9","system_id":"levelo_inurba_marseille","lat":43.29926,"lon":5.375,"is_reserved":false,"is_disabled":false,"rental_uris":{"android":"levelo://app?vid=a5f9341a-5e60-4282-9e15-189af61d4bd9","ios":"levelo://app?vid=a5f9341a-5e60-4282-9e15-189af61d4bd9"},"vehicle_type_id":"4","last_reported":1722625589,"current_range_meters":3600,"station_id":"","pricing_plan_id":"cebpf4jnsgd1na2vs0mg"},{"bike_id":"2f405d20-1a5a-43c4-91be-ababa2f6504d","system_id":"levelo_inurba_marseille","lat":43.311722,"lon":5.387247,"is_reserved":false,"is_disabled":false,"rental_uris":{"android":"levelo://app?vid=2f405d20-1a5a-43c4-91be-ababa2f6504d","ios":"levelo://app?vid=2f405d20-1a5a-43c4-91be-ababa2f6504d"},"vehicle_type_id":"4","last_reported":1722625589,"current_range_meters":24000,"station_id":"ce4bgv12rcd13ifvqcp0","pricing_plan_id":"cebpf4jnsgd1na2vs0mg"},{"bike_id":"cb671d34-7884-4271-bccb-8d3a1c413876","system_id":"levelo_inurba_marseille","lat":43.3117,"lon":5.38711,"is_reserved":false,"is_disabled":false,"rental_uris":{"android":"levelo://app?vid=cb671d34-7884-4271-bccb-8d3a1c413876","ios":"levelo://app?vid=cb671d34-7884-4271-bccb-8d3a1c413876"},"vehicle_type_id":"4","last_reported":1722625589,"current_range_meters":22400,"station_id":"ce4bgv12rcd13ifvqcp0","pricing_plan_id":"cebpf4jnsgd1na2vs0mg"},{"bike_id":"a1511a88-ed88-4856-9354-1992a7dd80a5","system_id":"levelo_inurba_marseille","lat":43.311722,"lon":5.387247,"is_reserved":false,"is_disabled":false,"rental_uris":{"android":"levelo://app?vid=a1511a88-ed88-4856-9354-1992a7dd80a5","ios":"levelo://app?vid=a1511a88-ed88-4856-9354-1992a7dd80a5"},"vehicle_type_id":"4","last_reported":1722625589,"current_range_meters":16800,"station_id":"ce4bgv12rcd13ifvqcp0","pricing_plan_id":"cebpf4jnsgd1na2vs0mg"},{"bike_id":"0202d1c8-1e17-4de1-b483-3075ce04e1ce","system_id":"levelo_inurba_marseille","lat":43.311722,"lon":5.387247,"is_reserved":false,"is_disabled":false,"rental_uris":{"android":"levelo://app?vid=0202d1c8-1e17-4de1-b483-3075ce04e1ce","ios":"levelo://app?vid=0202d1c8-1e17-4de1-b483-3075ce04e1ce"},"vehicle_type_id":"4","last_reported":1722625589,"current_range_meters":7600,"station_id":"ce4bgv12rcd13ifvqcp0","pricing_plan_id":"cebpf4jnsgd1na2vs0mg"},{"bike_id":"1b2fe4e0-3989-4b54-8b84-678492e9ab05","system_id":"levelo_inurba_marseille","lat":43.31176,"lon":5.38715,"is_reserved":false,"is_disabled":false,"rental_uris":{"android":"levelo://app?vid=1b2fe4e0-3989-4b54-8b84-678492e9ab05","ios":"levelo://app?vid=1b2fe4e0-3989-4b54-8b84-678492e9ab05"},"vehicle_type_id":"4","last_reported":1722625589,"current_range_meters":10000,"station_id":"ce4bgv12rcd13ifvqcp0","pricing_plan_id":"cebpf4jnsgd1na2vs0mg"},{"bike_id":"d23f59e2-d3d2-41c4-92df-3d913cf4ca4e","system_id":"levelo_inurba_marseille","lat":43.311722,"lon":5.387247,"is_reserved":false,"is_disabled":false,"rental_uris":{"android":"levelo://app?vid=d23f59e2-d3d2-41c4-92df-3d913cf4ca4e","ios":"levelo://app?vid=d23f59e2-d3d2-41c4-92df-3d913cf4ca4e"},"vehicle_type_id":"4","last_reported":1722625589,"current_range_meters":15200,"station_id":"ce4bgv12rcd13ifvqcp0","pricing_plan_id":"cebpf4jnsgd1na2vs0mg"},{"bike_id":"d8dafeb7-d132-41e8-9e79-86b19b0e7cc5","system_id":"levelo_inurba_marseille","lat":43.311722,"lon":5.387247,"is_reserved":false,"is_disabled":false,"rental_uris":{"android":"levelo://app?vid=d8dafeb7-d132-41e8-9e79-86b19b0e7cc5","ios":"levelo://app?vid=d8dafeb7-d132-41e8-9e79-86b19b0e7cc5"},"vehicle_type_id":"4","last_reported":1722625589,"current_range_meters":3600,"station_id":"ce4bgv12rcd13ifvqcp0","pricing_plan_id":"cebpf4jnsgd1na2vs0mg"},{"bike_id":"1db1f782-6026-4e49-8b1c-11ece072fbd4","system_id":"levelo_inurba_marseille","lat":43.311727,"lon":5.38718,"is_reserved":false,"is_disabled":false,"rental_uris":{"android":"levelo://app?vid=1db1f782-6026-4e49-8b1c-11ece072fbd4","ios":"levelo://app?vid=1db1f782-6026-4e49-8b1c-11ece072fbd4"},"vehicle_type_id":"4","last_reported":1722625589,"current_range_meters":23600,"station_id":"","pricing_plan_id":"cebpf4jnsgd1na2vs0mg"},{"bike_id":"825a5f53-7fda-4d42-ab8d-06fffc597a6b","system_id":"levelo_inurba_marseille","lat":43.311722,"lon":5.387247,"is_reserved":false,"is_disabled":false,"rental_uris":{"android":"levelo://app?vid=825a5f53-7fda-4d42-ab8d-06fffc597a6b","ios":"levelo://app?vid=825a5f53-7fda-4d42-ab8d-06fffc597a6b"},"vehicle_type_id":"4","last_reported":1722625589,"current_range_meters":14000,"station_id":"ce4bgv12rcd13ifvqcp0","pricing_plan_id":"cebpf4jnsgd1na2vs0mg"},{"bike_id":"70740b2b-b1c6-4ee4-bed0-087b43ef0801","system_id":"levelo_inurba_marseille","lat":43.30234,"lon":5.38139,"is_reserved":false,"is_disabled":false,"rental_uris":{"android":"levelo://app?vid=70740b2b-b1c6-4ee4-bed0-087b43ef0801","ios":"levelo://app?vid=70740b2b-b1c6-4ee4-bed0-087b43ef0801"},"vehicle_type_id":"4","last_reported":1722625589,"current_range_meters":25600,"station_id":"","pricing_plan_id":"cebpf4jnsgd1na2vs0mg"},{"bike_id":"604d3e3b-dcdf-4533-8054-51d50eeac1a6","system_id":"levelo_inurba_marseille","lat":43.299243,"lon":5.37481,"is_reserved":false,"is_disabled":false,"rental_uris":{"android":"levelo://app?vid=604d3e3b-dcdf-4533-8054-51d50eeac1a6","ios":"levelo://app?vid=604d3e3b-dcdf-4533-8054-51d50eeac1a6"},"vehicle_type_id":"4","last_reported":1722625589,"current_range_meters":0,"station_id":"ce4bgjh2rcd13ifvqbg0","pricing_plan_id":"cebpf4jnsgd1na2vs0mg"},{"bike_id":"0428445b-204f-485b-a108-3171aa3bbdf3","system_id":"levelo_inurba_marseille","lat":43.311722,"lon":5.387247,"is_reserved":false,"is_disabled":false,"rental_uris":{"android":"levelo://app?vid=0428445b-204f-485b-a108-3171aa3bbdf3","ios":"levelo://app?vid=0428445b-204f-485b-a108-3171aa3bbdf3"},"vehicle_type_id":"4","last_reported":1722625589,"current_range_meters":2400,"station_id":"ce4bgv12rcd13ifvqcp0","pricing_plan_id":"cebpf4jnsgd1na2vs0mg"},{"bike_id":"26565238-a131-468b-a9ce-e59d85cf3fc4","system_id":"levelo_inurba_marseille","lat":43.297774,"lon":5.370875,"is_reserved":false,"is_disabled":false,"rental_uris":{"android":"levelo://app?vid=26565238-a131-468b-a9ce-e59d85cf3fc4","ios":"levelo://app?vid=26565238-a131-468b-a9ce-e59d85cf3fc4"},"vehicle_type_id":"4","last_reported":1722625589,"current_range_meters":6000,"station_id":"ce4bgop2rcd13ifvqc1g","pricing_plan_id":"cebpf4jnsgd1na2vs0mg"},{"bike_id":"b5455404-2a92-4b7b-9391-258a73965290","system_id":"levelo_inurba_marseille","lat":43.297794,"lon":5.370888,"is_reserved":false,"is_disabled":false,"rental_uris":{"android":"levelo://app?vid=b5455404-2a92-4b7b-9391-258a73965290","ios":"levelo://app?vid=b5455404-2a92-4b7b-9391-258a73965290"},"vehicle_type_id":"4","last_reported":1722625589,"current_range_meters":1200,"station_id":"ce4bgop2rcd13ifvqc1g","pricing_plan_id":"cebpf4jnsgd1na2vs0mg"},{"bike_id":"7bff8d13-17a5-40cb-8bf6-f30983ef8a25","system_id":"levelo_inurba_marseille","lat":43.322872,"lon":5.382756,"is_reserved":false,"is_disabled":false,"rental_uris":{"android":"levelo://app?vid=7bff8d13-17a5-40cb-8bf6-f30983ef8a25","ios":"levelo://app?vid=7bff8d13-17a5-40cb-8bf6-f30983ef8a25"},"vehicle_type_id":"4","last_reported":1722625589,"current_range_meters":30000,"station_id":"ce4bhr12rcd13ifvqhqg","pricing_plan_id":"cebpf4jnsgd1na2vs0mg"},{"bike_id":"56e8bfaf-8ee2-427e-9b5c-f58a627fcfe1","system_id":"levelo_inurba_marseille","lat":43.322872,"lon":5.382756,"is_reserved":false,"is_disabled":false,"rental_uris":{"android":"levelo://app?vid=56e8bfaf-8ee2-427e-9b5c-f58a627fcfe1","ios":"levelo://app?vid=56e8bfaf-8ee2-427e-9b5c-f58a627fcfe1"},"vehicle_type_id":"4","last_reported":1722625589,"current_range_meters":21600,"station_id":"ce4bhr12rcd13ifvqhqg","pricing_plan_id":"cebpf4jnsgd1na2vs0mg"},{"bike_id":"fc39d6c5-b91f-4fed-afbf-56e96501acaa","system_id":"levelo_inurba_marseille","lat":43.297163,"lon":5.365866,"is_reserved":false,"is_disabled":false,"rental_uris":{"android":"levelo://app?vid=fc39d6c5-b91f-4fed-afbf-56e96501acaa","ios":"levelo://app?vid=fc39d6c5-b91f-4fed-afbf-56e96501acaa"},"vehicle_type_id":"4","last_reported":1722625589,"current_range_meters":0,"station_id":"ce4bgn12rcd13ifvqbt0","pricing_plan_id":"cebpf4jnsgd1na2vs0mg"},{"bike_id":"0c7cfaee-57f4-4411-b518-4869fd83014c","system_id":"levelo_inurba_marseille","lat":43.297163,"lon":5.365866,"is_reserved":false,"is_disabled":false,"rental_uris":{"android":"levelo://app?vid=0c7cfaee-57f4-4411-b518-4869fd83014c","ios":"levelo://app?vid=0c7cfaee-57f4-4411-b518-4869fd83014c"},"vehicle_type_id":"4","last_reported":1722625589,"current_range_meters":4400,"station_id":"ce4bgn12rcd13ifvqbt0","pricing_plan_id":"cebpf4jnsgd1na2vs0mg"},{"bike_id":"4f094c8e-b0c9-47f6-b2b5-e3c592c3ac38","system_id":"levelo_inurba_marseille","lat":43.297163,"lon":5.365866,"is_reserved":false,"is_disabled":false,"rental_uris":{"android":"levelo://app?vid=4f094c8e-b0c9-47f6-b2b5-e3c592c3ac38","ios":"levelo://app?vid=4f094c8e-b0c9-47f6-b2b5-e3c592c3ac38"},"vehicle_type_id":"4","last_reported":1722625589,"current_range_meters":0,"station_id":"ce4bgn12rcd13ifvqbt0","pricing_plan_id":"cebpf4jnsgd1na2vs0mg"},{"bike_id":"4088396a-8bc6-4c03-87f7-e7b2444d1388","system_id":"levelo_inurba_marseille","lat":43.297163,"lon":5.365866,"is_reserved":false,"is_disabled":false,"rental_uris":{"android":"levelo://app?vid=4088396a-8bc6-4c03-87f7-e7b2444d1388","ios":"levelo://app?vid=4088396a-8bc6-4c03-87f7-e7b2444d1388"},"vehicle_type_id":"4","last_reported":1722625589,"current_range_meters":20000,"station_id":"ce4bgn12rcd13ifvqbt0","pricing_plan_id":"cebpf4jnsgd1na2vs0mg"},{"bike_id":"953b69be-39c0-47c3-a594-dea76f046d3c","system_id":"levelo_inurba_marseille","lat":43.300587,"lon":5.380869,"is_reserved":false,"is_disabled":false,"rental_uris":{"android":"levelo://app?vid=953b69be-39c0-47c3-a594-dea76f046d3c","ios":"levelo://app?vid=953b69be-39c0-47c3-a594-dea76f046d3c"},"vehicle_type_id":"4","last_reported":1722625589,"current_range_meters":0,"station_id":"","pricing_plan_id":"cebpf4jnsgd1na2vs0mg"},{"bike_id":"2914a6ce-7a25-4971-bc58-7eb345d80670","system_id":"levelo_inurba_marseille","lat":43.32936,"lon":5.36597,"is_reserved":false,"is_disabled":false,"rental_uris":{"android":"levelo://app?vid=2914a6ce-7a25-4971-bc58-7eb345d80670","ios":"levelo://app?vid=2914a6ce-7a25-4971-bc58-7eb345d80670"},"vehicle_type_id":"4","last_reported":1722625589,"current_range_meters":30800,"station_id":"","pricing_plan_id":"cebpf4jnsgd1na2vs0mg"},{"bike_id":"da018900-ac60-498d-952c-1f09af1c7116","system_id":"levelo_inurba_marseille","lat":43.29573,"lon":5.367355,"is_reserved":false,"is_disabled":false,"rental_uris":{"android":"levelo://app?vid=da018900-ac60-498d-952c-1f09af1c7116","ios":"levelo://app?vid=da018900-ac60-498d-952c-1f09af1c7116"},"vehicle_type_id":"4","last_reported":1722625589,"current_range_meters":5200,"station_id":"ce4bgph2rcd13ifvqc2g","pricing_plan_id":"cebpf4jnsgd1na2vs0mg"},{"bike_id":"7e426212-efff-479c-af52-b04f96b63094","system_id":"levelo_inurba_marseille","lat":43.30956,"lon":5.39012,"is_reserved":false,"is_disabled":false,"rental_uris":{"android":"levelo://app?vid=7e426212-efff-479c-af52-b04f96b63094","ios":"levelo://app?vid=7e426212-efff-479c-af52-b04f96b63094"},"vehicle_type_id":"4","last_reported":1722625589,"current_range_meters":8000,"station_id":"ce4bgup2rcd13ifvqco0","pricing_plan_id":"cebpf4jnsgd1na2vs0mg"},{"bike_id":"cd6bf046-5413-4906-b5cf-b855571e7eec","system_id":"levelo_inurba_marseille","lat":43.296935,"lon":5.376544,"is_reserved":false,"is_disabled":false,"rental_uris":{"android":"levelo://app?vid=cd6bf046-5413-4906-b5cf-b855571e7eec","ios":"levelo://app?vid=cd6bf046-5413-4906-b5cf-b855571e7eec"},"vehicle_type_id":"4","last_reported":1722625589,"current_range_meters":3600,"station_id":"ce4bgkh2rcd13ifvqbl0","pricing_plan_id":"cebpf4jnsgd1na2vs0mg"},{"bike_id":"11cb74f7-108a-43ab-bcb2-0b90f9653c1a","system_id":"levelo_inurba_marseille","lat":43.309469,"lon":5.390131,"is_reserved":false,"is_disabled":false,"rental_uris":{"android":"levelo://app?vid=11cb74f7-108a-43ab-bcb2-0b90f9653c1a","ios":"levelo://app?vid=11cb74f7-108a-43ab-bcb2-0b90f9653c1a"},"vehicle_type_id":"4","last_reported":1722625589,"current_range_meters":28800,"station_id":"ce4bgup2rcd13ifvqco0","pricing_plan_id":"cebpf4jnsgd1na2vs0mg"},{"bike_id":"0c17a258-d51c-4427-9693-ba8e6af652d8","system_id":"levelo_inurba_marseille","lat":43.299028,"lon":5.381509,"is_reserved":false,"is_disabled":false,"rental_uris":{"android":"levelo://app?vid=0c17a258-d51c-4427-9693-ba8e6af652d8","ios":"levelo://app?vid=0c17a258-d51c-4427-9693-ba8e6af652d8"},"vehicle_type_id":"4","last_reported":1722625589,"current_range_meters":22800,"station_id":"ce4bgj12rcd13ifvqbc0","pricing_plan_id":"cebpf4jnsgd1na2vs0mg"},{"bike_id":"af4c5504-79d9-4d78-8660-63b1744a8aef","system_id":"levelo_inurba_marseille","lat":43.30954,"lon":5.39019,"is_reserved":false,"is_disabled":false,"rental_uris":{"android":"levelo://app?vid=af4c5504-79d9-4d78-8660-63b1744a8aef","ios":"levelo://app?vid=af4c5504-79d9-4d78-8660-63b1744a8aef"},"vehicle_type_id":"4","last_reported":1722625589,"current_range_meters":28800,"station_id":"ce4bgup2rcd13ifvqco0","pricing_plan_id":"cebpf4jnsgd1na2vs0mg"},{"bike_id":"237e475a-9670-4eea-96b2-d63cbf4712bf","system_id":"levelo_inurba_marseille","lat":43.309535,"lon":5.390191,"is_reserved":false,"is_disabled":false,"rental_uris":{"android":"levelo://app?vid=237e475a-9670-4eea-96b2-d63cbf4712bf","ios":"levelo://app?vid=237e475a-9670-4eea-96b2-d63cbf4712bf"},"vehicle_type_id":"4","last_reported":1722625589,"current_range_meters":16800,"station_id":"ce4bgup2rcd13ifvqco0","pricing_plan_id":"cebpf4jnsgd1na2vs0mg"},{"bike_id":"df826f2f-144d-46e7-bdf4-8f030a162f09","system_id":"levelo_inurba_marseille","lat":43.30953,"lon":5.39019,"is_reserved":false,"is_disabled":false,"rental_uris":{"android":"levelo://app?vid=df826f2f-144d-46e7-bdf4-8f030a162f09","ios":"levelo://app?vid=df826f2f-144d-46e7-bdf4-8f030a162f09"},"vehicle_type_id":"4","last_reported":1722625589,"current_range_meters":25200,"station_id":"ce4bgup2rcd13ifvqco0","pricing_plan_id":"cebpf4jnsgd1na2vs0mg"},{"bike_id":"40335bf4-624b-4ae3-ae0e-385fea04b9f2","system_id":"levelo_inurba_marseille","lat":43.30945,"lon":5.39017,"is_reserved":false,"is_disabled":false,"rental_uris":{"android":"levelo://app?vid=40335bf4-624b-4ae3-ae0e-385fea04b9f2","ios":"levelo://app?vid=40335bf4-624b-4ae3-ae0e-385fea04b9f2"},"vehicle_type_id":"4","last_reported":1722625589,"current_range_meters":22800,"station_id":"ce4bgup2rcd13ifvqco0","pricing_plan_id":"cebpf4jnsgd1na2vs0mg"},{"bike_id":"4491ea77-e1f0-4320-8a37-cde172b99204","system_id":"levelo_inurba_marseille","lat":43.30954,"lon":5.3902,"is_reserved":false,"is_disabled":false,"rental_uris":{"android":"levelo://app?vid=4491ea77-e1f0-4320-8a37-cde172b99204","ios":"levelo://app?vid=4491ea77-e1f0-4320-8a37-cde172b99204"},"vehicle_type_id":"4","last_reported":1722625589,"current_range_meters":9600,"station_id":"ce4bgup2rcd13ifvqco0","pricing_plan_id":"cebpf4jnsgd1na2vs0mg"},{"bike_id":"d526a01b-ccdf-49cd-9788-5d3f634dfc4d","system_id":"levelo_inurba_marseille","lat":43.299028,"lon":5.381509,"is_reserved":false,"is_disabled":false,"rental_uris":{"android":"levelo://app?vid=d526a01b-ccdf-49cd-9788-5d3f634dfc4d","ios":"levelo://app?vid=d526a01b-ccdf-49cd-9788-5d3f634dfc4d"},"vehicle_type_id":"4","last_reported":1722625589,"current_range_meters":0,"station_id":"ce4bgj12rcd13ifvqbc0","pricing_plan_id":"cebpf4jnsgd1na2vs0mg"},{"bike_id":"b38d4ded-1928-440e-8f76-30ef3da3a44f","system_id":"levelo_inurba_marseille","lat":43.299028,"lon":5.381509,"is_reserved":false,"is_disabled":false,"rental_uris":{"android":"levelo://app?vid=b38d4ded-1928-440e-8f76-30ef3da3a44f","ios":"levelo://app?vid=b38d4ded-1928-440e-8f76-30ef3da3a44f"},"vehicle_type_id":"4","last_reported":1722625589,"current_range_meters":28800,"station_id":"ce4bgj12rcd13ifvqbc0","pricing_plan_id":"cebpf4jnsgd1na2vs0mg"},{"bike_id":"7df090f4-b07d-47b5-ac77-695a54029562","system_id":"levelo_inurba_marseille","lat":43.30957,"lon":5.39023,"is_reserved":false,"is_disabled":false,"rental_uris":{"android":"levelo://app?vid=7df090f4-b07d-47b5-ac77-695a54029562","ios":"levelo://app?vid=7df090f4-b07d-47b5-ac77-695a54029562"},"vehicle_type_id":"4","last_reported":1722625589,"current_range_meters":24800,"station_id":"ce4bgup2rcd13ifvqco0","pricing_plan_id":"cebpf4jnsgd1na2vs0mg"},{"bike_id":"197e10b1-48c1-495b-b873-9bc4ae87424d","system_id":"levelo_inurba_marseille","lat":43.30949,"lon":5.39021,"is_reserved":false,"is_disabled":false,"rental_uris":{"android":"levelo://app?vid=197e10b1-48c1-495b-b873-9bc4ae87424d","ios":"levelo://app?vid=197e10b1-48c1-495b-b873-9bc4ae87424d"},"vehicle_type_id":"4","last_reported":1722625589,"current_range_meters":26400,"station_id":"ce4bgup2rcd13ifvqco0","pricing_plan_id":"cebpf4jnsgd1na2vs0mg"},{"bike_id":"fffc8b06-963b-4dfb-b256-b1090bab6369","system_id":"levelo_inurba_marseille","lat":43.30955,"lon":5.39023,"is_reserved":false,"is_disabled":false,"rental_uris":{"android":"levelo://app?vid=fffc8b06-963b-4dfb-b256-b1090bab6369","ios":"levelo://app?vid=fffc8b06-963b-4dfb-b256-b1090bab6369"},"vehicle_type_id":"4","last_reported":1722625589,"current_range_meters":4800,"station_id":"ce4bgup2rcd13ifvqco0","pricing_plan_id":"cebpf4jnsgd1na2vs0mg"},{"bike_id":"93a178b6-6043-4436-9976-826f3ea35099","system_id":"levelo_inurba_marseille","lat":43.30956,"lon":5.39024,"is_reserved":false,"is_disabled":false,"rental_uris":{"android":"levelo://app?vid=93a178b6-6043-4436-9976-826f3ea35099","ios":"levelo://app?vid=93a178b6-6043-4436-9976-826f3ea35099"},"vehicle_type_id":"4","last_reported":1722625589,"current_range_meters":31200,"station_id":"ce4bgup2rcd13ifvqco0","pricing_plan_id":"cebpf4jnsgd1na2vs0mg"},{"bike_id":"8fa413d0-a56a-40ed-ae4f-0257f99fb25c","system_id":"levelo_inurba_marseille","lat":43.296921,"lon":5.376579,"is_reserved":false,"is_disabled":false,"rental_uris":{"android":"levelo://app?vid=8fa413d0-a56a-40ed-ae4f-0257f99fb25c","ios":"levelo://app?vid=8fa413d0-a56a-40ed-ae4f-0257f99fb25c"},"vehicle_type_id":"4","last_reported":1722625589,"current_range_meters":20400,"station_id":"ce4bgkh2rcd13ifvqbl0","pricing_plan_id":"cebpf4jnsgd1na2vs0mg"},{"bike_id":"51f2958b-e731-4e7a-b16d-cc24b4646cce","system_id":"levelo_inurba_marseille","lat":43.30956,"lon":5.39026,"is_reserved":false,"is_disabled":false,"rental_uris":{"android":"levelo://app?vid=51f2958b-e731-4e7a-b16d-cc24b4646cce","ios":"levelo://app?vid=51f2958b-e731-4e7a-b16d-cc24b4646cce"},"vehicle_type_id":"4","last_reported":1722625589,"current_range_meters":27200,"station_id":"ce4bgup2rcd13ifvqco0","pricing_plan_id":"cebpf4jnsgd1na2vs0mg"},{"bike_id":"d2493fd4-c995-49a6-a61f-7217989f6c19","system_id":"levelo_inurba_marseille","lat":43.30955,"lon":5.39026,"is_reserved":false,"is_disabled":false,"rental_uris":{"android":"levelo://app?vid=d2493fd4-c995-49a6-a61f-7217989f6c19","ios":"levelo://app?vid=d2493fd4-c995-49a6-a61f-7217989f6c19"},"vehicle_type_id":"4","last_reported":1722625589,"current_range_meters":25200,"station_id":"ce4bgup2rcd13ifvqco0","pricing_plan_id":"cebpf4jnsgd1na2vs0mg"},{"bike_id":"4fa058fb-81d9-47a6-80fe-be441de87445","system_id":"levelo_inurba_marseille","lat":43.309589,"lon":5.390258,"is_reserved":false,"is_disabled":false,"rental_uris":{"android":"levelo://app?vid=4fa058fb-81d9-47a6-80fe-be441de87445","ios":"levelo://app?vid=4fa058fb-81d9-47a6-80fe-be441de87445"},"vehicle_type_id":"4","last_reported":1722625589,"current_range_meters":2800,"station_id":"ce4bgup2rcd13ifvqco0","pricing_plan_id":"cebpf4jnsgd1na2vs0mg"},{"bike_id":"0bffb550-3b98-4b6d-80da-86ba8aa7454c","system_id":"levelo_inurba_marseille","lat":43.30947,"lon":5.39026,"is_reserved":false,"is_disabled":false,"rental_uris":{"android":"levelo://app?vid=0bffb550-3b98-4b6d-80da-86ba8aa7454c","ios":"levelo://app?vid=0bffb550-3b98-4b6d-80da-86ba8aa7454c"},"vehicle_type_id":"4","last_reported":1722625589,"current_range_meters":24400,"station_id":"ce4bgup2rcd13ifvqco0","pricing_plan_id":"cebpf4jnsgd1na2vs0mg"},{"bike_id":"56097baf-ff93-415c-8b09-7b238134ca52","system_id":"levelo_inurba_marseille","lat":43.30958,"lon":5.39029,"is_reserved":false,"is_disabled":false,"rental_uris":{"android":"levelo://app?vid=56097baf-ff93-415c-8b09-7b238134ca52","ios":"levelo://app?vid=56097baf-ff93-415c-8b09-7b238134ca52"},"vehicle_type_id":"4","last_reported":1722625589,"current_range_meters":13600,"station_id":"ce4bgup2rcd13ifvqco0","pricing_plan_id":"cebpf4jnsgd1na2vs0mg"},{"bike_id":"a2159eea-769b-41ae-bb23-9a3bef66d598","system_id":"levelo_inurba_marseille","lat":43.309589,"lon":5.390258,"is_reserved":false,"is_disabled":false,"rental_uris":{"android":"levelo://app?vid=a2159eea-769b-41ae-bb23-9a3bef66d598","ios":"levelo://app?vid=a2159eea-769b-41ae-bb23-9a3bef66d598"},"vehicle_type_id":"4","last_reported":1722625589,"current_range_meters":30800,"station_id":"ce4bgup2rcd13ifvqco0","pricing_plan_id":"cebpf4jnsgd1na2vs0mg"},{"bike_id":"7e39b3cc-61a0-41b7-82ff-a69505f72f9e","system_id":"levelo_inurba_marseille","lat":43.309589,"lon":5.390258,"is_reserved":false,"is_disabled":false,"rental_uris":{"android":"levelo://app?vid=7e39b3cc-61a0-41b7-82ff-a69505f72f9e","ios":"levelo://app?vid=7e39b3cc-61a0-41b7-82ff-a69505f72f9e"},"vehicle_type_id":"4","last_reported":1722625589,"current_range_meters":18000,"station_id":"ce4bgup2rcd13ifvqco0","pricing_plan_id":"cebpf4jnsgd1na2vs0mg"},{"bike_id":"2ca389c5-21e6-45f7-a7b0-0bd853c780db","system_id":"levelo_inurba_marseille","lat":43.30956,"lon":5.39029,"is_reserved":false,"is_disabled":false,"rental_uris":{"android":"levelo://app?vid=2ca389c5-21e6-45f7-a7b0-0bd853c780db","ios":"levelo://app?vid=2ca389c5-21e6-45f7-a7b0-0bd853c780db"},"vehicle_type_id":"4","last_reported":1722625589,"current_range_meters":26000,"station_id":"ce4bgup2rcd13ifvqco0","pricing_plan_id":"cebpf4jnsgd1na2vs0mg"},{"bike_id":"096cd5ae-fda0-481f-b4a6-8f590fe364f3","system_id":"levelo_inurba_marseille","lat":43.30955,"lon":5.39029,"is_reserved":false,"is_disabled":false,"rental_uris":{"android":"levelo://app?vid=096cd5ae-fda0-481f-b4a6-8f590fe364f3","ios":"levelo://app?vid=096cd5ae-fda0-481f-b4a6-8f590fe364f3"},"vehicle_type_id":"4","last_reported":1722625589,"current_range_meters":31200,"station_id":"ce4bgup2rcd13ifvqco0","pricing_plan_id":"cebpf4jnsgd1na2vs0mg"},{"bike_id":"c8b38e8d-250e-422f-8632-714a85889c4c","system_id":"levelo_inurba_marseille","lat":43.30951,"lon":5.39028,"is_reserved":false,"is_disabled":false,"rental_uris":{"android":"levelo://app?vid=c8b38e8d-250e-422f-8632-714a85889c4c","ios":"levelo://app?vid=c8b38e8d-250e-422f-8632-714a85889c4c"},"vehicle_type_id":"4","last_reported":1722625589,"current_range_meters":29200,"station_id":"ce4bgup2rcd13ifvqco0","pricing_plan_id":"cebpf4jnsgd1na2vs0mg"},{"bike_id":"909f248b-32a0-443c-9c6d-ae9446252353","system_id":"levelo_inurba_marseille","lat":43.30951,"lon":5.39028,"is_reserved":false,"is_disabled":false,"rental_uris":{"android":"levelo://app?vid=909f248b-32a0-443c-9c6d-ae9446252353","ios":"levelo://app?vid=909f248b-32a0-443c-9c6d-ae9446252353"},"vehicle_type_id":"4","last_reported":1722625589,"current_range_meters":2400,"station_id":"ce4bgup2rcd13ifvqco0","pricing_plan_id":"cebpf4jnsgd1na2vs0mg"},{"bike_id":"cf70bd58-2d31-4e92-adf4-f1b3b227559f","system_id":"levelo_inurba_marseille","lat":43.309589,"lon":5.390258,"is_reserved":false,"is_disabled":false,"rental_uris":{"android":"levelo://app?vid=cf70bd58-2d31-4e92-adf4-f1b3b227559f","ios":"levelo://app?vid=cf70bd58-2d31-4e92-adf4-f1b3b227559f"},"vehicle_type_id":"4","last_reported":1722625589,"current_range_meters":30000,"station_id":"ce4bgup2rcd13ifvqco0","pricing_plan_id":"cebpf4jnsgd1na2vs0mg"},{"bike_id":"4f6b8da5-e09e-40ce-93c3-9738d907684f","system_id":"levelo_inurba_marseille","lat":43.309589,"lon":5.390258,"is_reserved":false,"is_disabled":false,"rental_uris":{"android":"levelo://app?vid=4f6b8da5-e09e-40ce-93c3-9738d907684f","ios":"levelo://app?vid=4f6b8da5-e09e-40ce-93c3-9738d907684f"},"vehicle_type_id":"4","last_reported":1722625589,"current_range_meters":26000,"station_id":"ce4bgup2rcd13ifvqco0","pricing_plan_id":"cebpf4jnsgd1na2vs0mg"},{"bike_id":"f74370c3-2179-432f-9e4a-686d6ad6935c","system_id":"levelo_inurba_marseille","lat":43.3095,"lon":5.39029,"is_reserved":false,"is_disabled":false,"rental_uris":{"android":"levelo://app?vid=f74370c3-2179-432f-9e4a-686d6ad6935c","ios":"levelo://app?vid=f74370c3-2179-432f-9e4a-686d6ad6935c"},"vehicle_type_id":"4","last_reported":1722625589,"current_range_meters":5600,"station_id":"ce4bgup2rcd13ifvqco0","pricing_plan_id":"cebpf4jnsgd1na2vs0mg"},{"bike_id":"e74b83a8-2c2b-4898-9fef-04995e271356","system_id":"levelo_inurba_marseille","lat":43.309589,"lon":5.390258,"is_reserved":false,"is_disabled":false,"rental_uris":{"android":"levelo://app?vid=e74b83a8-2c2b-4898-9fef-04995e271356","ios":"levelo://app?vid=e74b83a8-2c2b-4898-9fef-04995e271356"},"vehicle_type_id":"4","last_reported":1722625589,"current_range_meters":19200,"station_id":"ce4bgup2rcd13ifvqco0","pricing_plan_id":"cebpf4jnsgd1na2vs0mg"},{"bike_id":"953870d6-f391-4c7f-8930-97c7da6e598b","system_id":"levelo_inurba_marseille","lat":43.30961,"lon":5.39032,"is_reserved":false,"is_disabled":false,"rental_uris":{"android":"levelo://app?vid=953870d6-f391-4c7f-8930-97c7da6e598b","ios":"levelo://app?vid=953870d6-f391-4c7f-8930-97c7da6e598b"},"vehicle_type_id":"4","last_reported":1722625589,"current_range_meters":31200,"station_id":"ce4bgup2rcd13ifvqco0","pricing_plan_id":"cebpf4jnsgd1na2vs0mg"},{"bike_id":"99b1fd25-0c95-4ec5-920f-21ce059e2ef3","system_id":"levelo_inurba_marseille","lat":43.309589,"lon":5.390258,"is_reserved":false,"is_disabled":false,"rental_uris":{"android":"levelo://app?vid=99b1fd25-0c95-4ec5-920f-21ce059e2ef3","ios":"levelo://app?vid=99b1fd25-0c95-4ec5-920f-21ce059e2ef3"},"vehicle_type_id":"4","last_reported":1722625589,"current_range_meters":10400,"station_id":"ce4bgup2rcd13ifvqco0","pricing_plan_id":"cebpf4jnsgd1na2vs0mg"},{"bike_id":"86271625-0bce-40da-bf5b-2e8f6d62e3df","system_id":"levelo_inurba_marseille","lat":43.309589,"lon":5.390258,"is_reserved":false,"is_disabled":false,"rental_uris":{"android":"levelo://app?vid=86271625-0bce-40da-bf5b-2e8f6d62e3df","ios":"levelo://app?vid=86271625-0bce-40da-bf5b-2e8f6d62e3df"},"vehicle_type_id":"4","last_reported":1722625589,"current_range_meters":6400,"station_id":"ce4bgup2rcd13ifvqco0","pricing_plan_id":"cebpf4jnsgd1na2vs0mg"},{"bike_id":"689f0014-e821-4725-b298-96875190a183","system_id":"levelo_inurba_marseille","lat":43.309589,"lon":5.390258,"is_reserved":false,"is_disabled":false,"rental_uris":{"android":"levelo://app?vid=689f0014-e821-4725-b298-96875190a183","ios":"levelo://app?vid=689f0014-e821-4725-b298-96875190a183"},"vehicle_type_id":"4","last_reported":1722625589,"current_range_meters":25600,"station_id":"ce4bgup2rcd13ifvqco0","pricing_plan_id":"cebpf4jnsgd1na2vs0mg"},{"bike_id":"d0dbf59d-c6ce-43d0-bf6e-343e8c4c095a","system_id":"levelo_inurba_marseille","lat":43.30954,"lon":5.39032,"is_reserved":false,"is_disabled":false,"rental_uris":{"android":"levelo://app?vid=d0dbf59d-c6ce-43d0-bf6e-343e8c4c095a","ios":"levelo://app?vid=d0dbf59d-c6ce-43d0-bf6e-343e8c4c095a"},"vehicle_type_id":"4","last_reported":1722625589,"current_range_meters":8000,"station_id":"ce4bgup2rcd13ifvqco0","pricing_plan_id":"cebpf4jnsgd1na2vs0mg"},{"bike_id":"81dc0114-7586-43ed-9069-32958509e2ff","system_id":"levelo_inurba_marseille","lat":43.309589,"lon":5.390258,"is_reserved":false,"is_disabled":false,"rental_uris":{"android":"levelo://app?vid=81dc0114-7586-43ed-9069-32958509e2ff","ios":"levelo://app?vid=81dc0114-7586-43ed-9069-32958509e2ff"},"vehicle_type_id":"4","last_reported":1722625589,"current_range_meters":2400,"station_id":"ce4bgup2rcd13ifvqco0","pricing_plan_id":"cebpf4jnsgd1na2vs0mg"},{"bike_id":"b495903b-3c26-4953-9531-509f950f0ec9","system_id":"levelo_inurba_marseille","lat":43.309589,"lon":5.390258,"is_reserved":false,"is_disabled":false,"rental_uris":{"android":"levelo://app?vid=b495903b-3c26-4953-9531-509f950f0ec9","ios":"levelo://app?vid=b495903b-3c26-4953-9531-509f950f0ec9"},"vehicle_type_id":"4","last_reported":1722625589,"current_range_meters":15200,"station_id":"ce4bgup2rcd13ifvqco0","pricing_plan_id":"cebpf4jnsgd1na2vs0mg"},{"bike_id":"cb328d28-6a19-4f58-a39e-3be51a82ec67","system_id":"levelo_inurba_marseille","lat":43.309589,"lon":5.390258,"is_reserved":false,"is_disabled":false,"rental_uris":{"android":"levelo://app?vid=cb328d28-6a19-4f58-a39e-3be51a82ec67","ios":"levelo://app?vid=cb328d28-6a19-4f58-a39e-3be51a82ec67"},"vehicle_type_id":"4","last_reported":1722625589,"current_range_meters":15200,"station_id":"ce4bgup2rcd13ifvqco0","pricing_plan_id":"cebpf4jnsgd1na2vs0mg"},{"bike_id":"4923842b-2e26-44c9-b6a9-1cfdddbf21e5","system_id":"levelo_inurba_marseille","lat":43.309589,"lon":5.390258,"is_reserved":false,"is_disabled":false,"rental_uris":{"android":"levelo://app?vid=4923842b-2e26-44c9-b6a9-1cfdddbf21e5","ios":"levelo://app?vid=4923842b-2e26-44c9-b6a9-1cfdddbf21e5"},"vehicle_type_id":"4","last_reported":1722625589,"current_range_meters":16400,"station_id":"ce4bgup2rcd13ifvqco0","pricing_plan_id":"cebpf4jnsgd1na2vs0mg"},{"bike_id":"246cd1e9-68d5-43cd-9e0d-76da18891f6b","system_id":"levelo_inurba_marseille","lat":43.30948,"lon":5.39032,"is_reserved":false,"is_disabled":false,"rental_uris":{"android":"levelo://app?vid=246cd1e9-68d5-43cd-9e0d-76da18891f6b","ios":"levelo://app?vid=246cd1e9-68d5-43cd-9e0d-76da18891f6b"},"vehicle_type_id":"4","last_reported":1722625589,"current_range_meters":31200,"station_id":"ce4bgup2rcd13ifvqco0","pricing_plan_id":"cebpf4jnsgd1na2vs0mg"},{"bike_id":"2ae8d666-01da-42c0-ab11-b926644bc09f","system_id":"levelo_inurba_marseille","lat":43.309589,"lon":5.390258,"is_reserved":false,"is_disabled":false,"rental_uris":{"android":"levelo://app?vid=2ae8d666-01da-42c0-ab11-b926644bc09f","ios":"levelo://app?vid=2ae8d666-01da-42c0-ab11-b926644bc09f"},"vehicle_type_id":"4","last_reported":1722625589,"current_range_meters":25600,"station_id":"ce4bgup2rcd13ifvqco0","pricing_plan_id":"cebpf4jnsgd1na2vs0mg"},{"bike_id":"bff7a398-b519-4a7d-910b-96d8ad7ca40b","system_id":"levelo_inurba_marseille","lat":43.309589,"lon":5.390258,"is_reserved":false,"is_disabled":false,"rental_uris":{"android":"levelo://app?vid=bff7a398-b519-4a7d-910b-96d8ad7ca40b","ios":"levelo://app?vid=bff7a398-b519-4a7d-910b-96d8ad7ca40b"},"vehicle_type_id":"4","last_reported":1722625589,"current_range_meters":31200,"station_id":"ce4bgup2rcd13ifvqco0","pricing_plan_id":"cebpf4jnsgd1na2vs0mg"},{"bike_id":"78eb6882-7798-48a8-b923-d63376f5eb2b","system_id":"levelo_inurba_marseille","lat":43.309589,"lon":5.390258,"is_reserved":false,"is_disabled":false,"rental_uris":{"android":"levelo://app?vid=78eb6882-7798-48a8-b923-d63376f5eb2b","ios":"levelo://app?vid=78eb6882-7798-48a8-b923-d63376f5eb2b"},"vehicle_type_id":"4","last_reported":1722625589,"current_range_meters":6800,"station_id":"ce4bgup2rcd13ifvqco0","pricing_plan_id":"cebpf4jnsgd1na2vs0mg"},{"bike_id":"a95d7059-5111-4d28-8401-c56681bd6c4a","system_id":"levelo_inurba_marseille","lat":43.309589,"lon":5.390258,"is_reserved":false,"is_disabled":false,"rental_uris":{"android":"levelo://app?vid=a95d7059-5111-4d28-8401-c56681bd6c4a","ios":"levelo://app?vid=a95d7059-5111-4d28-8401-c56681bd6c4a"},"vehicle_type_id":"4","last_reported":1722625589,"current_range_meters":3600,"station_id":"ce4bgup2rcd13ifvqco0","pricing_plan_id":"cebpf4jnsgd1na2vs0mg"},{"bike_id":"3c9f107e-3601-4d6a-ae55-adbb998353c1","system_id":"levelo_inurba_marseille","lat":43.30953,"lon":5.39035,"is_reserved":false,"is_disabled":false,"rental_uris":{"android":"levelo://app?vid=3c9f107e-3601-4d6a-ae55-adbb998353c1","ios":"levelo://app?vid=3c9f107e-3601-4d6a-ae55-adbb998353c1"},"vehicle_type_id":"4","last_reported":1722625589,"current_range_meters":22400,"station_id":"ce4bgup2rcd13ifvqco0","pricing_plan_id":"cebpf4jnsgd1na2vs0mg"},{"bike_id":"854fbb72-89c7-4519-be4a-dd84f9b5f76b","system_id":"levelo_inurba_marseille","lat":43.30952,"lon":5.39036,"is_reserved":false,"is_disabled":false,"rental_uris":{"android":"levelo://app?vid=854fbb72-89c7-4519-be4a-dd84f9b5f76b","ios":"levelo://app?vid=854fbb72-89c7-4519-be4a-dd84f9b5f76b"},"vehicle_type_id":"4","last_reported":1722625589,"current_range_meters":3600,"station_id":"ce4bgup2rcd13ifvqco0","pricing_plan_id":"cebpf4jnsgd1na2vs0mg"},{"bike_id":"c582b85d-2f20-4dfb-98f6-bae93ba13d5e","system_id":"levelo_inurba_marseille","lat":43.309589,"lon":5.390258,"is_reserved":false,"is_disabled":false,"rental_uris":{"android":"levelo://app?vid=c582b85d-2f20-4dfb-98f6-bae93ba13d5e","ios":"levelo://app?vid=c582b85d-2f20-4dfb-98f6-bae93ba13d5e"},"vehicle_type_id":"4","last_reported":1722625589,"current_range_meters":23200,"station_id":"ce4bgup2rcd13ifvqco0","pricing_plan_id":"cebpf4jnsgd1na2vs0mg"},{"bike_id":"087f7cdb-f04e-4bcf-8cb5-36ff7f76efb4","system_id":"levelo_inurba_marseille","lat":43.30948,"lon":5.39038,"is_reserved":false,"is_disabled":false,"rental_uris":{"android":"levelo://app?vid=087f7cdb-f04e-4bcf-8cb5-36ff7f76efb4","ios":"levelo://app?vid=087f7cdb-f04e-4bcf-8cb5-36ff7f76efb4"},"vehicle_type_id":"4","last_reported":1722625589,"current_range_meters":31200,"station_id":"ce4bgup2rcd13ifvqco0","pricing_plan_id":"cebpf4jnsgd1na2vs0mg"},{"bike_id":"b4a4a34b-42ed-44aa-b548-c8f0bc6c6223","system_id":"levelo_inurba_marseille","lat":43.30951,"lon":5.39039,"is_reserved":false,"is_disabled":false,"rental_uris":{"android":"levelo://app?vid=b4a4a34b-42ed-44aa-b548-c8f0bc6c6223","ios":"levelo://app?vid=b4a4a34b-42ed-44aa-b548-c8f0bc6c6223"},"vehicle_type_id":"4","last_reported":1722625589,"current_range_meters":24400,"station_id":"ce4bgup2rcd13ifvqco0","pricing_plan_id":"cebpf4jnsgd1na2vs0mg"},{"bike_id":"8e3bf011-2794-4f8d-8b06-f8ae3803c30b","system_id":"levelo_inurba_marseille","lat":43.309589,"lon":5.390258,"is_reserved":false,"is_disabled":false,"rental_uris":{"android":"levelo://app?vid=8e3bf011-2794-4f8d-8b06-f8ae3803c30b","ios":"levelo://app?vid=8e3bf011-2794-4f8d-8b06-f8ae3803c30b"},"vehicle_type_id":"4","last_reported":1722625589,"current_range_meters":8000,"station_id":"ce4bgup2rcd13ifvqco0","pricing_plan_id":"cebpf4jnsgd1na2vs0mg"},{"bike_id":"3e73fcda-ed96-4dec-9e11-24a3430c1a63","system_id":"levelo_inurba_marseille","lat":43.30953,"lon":5.39041,"is_reserved":false,"is_disabled":false,"rental_uris":{"android":"levelo://app?vid=3e73fcda-ed96-4dec-9e11-24a3430c1a63","ios":"levelo://app?vid=3e73fcda-ed96-4dec-9e11-24a3430c1a63"},"vehicle_type_id":"4","last_reported":1722625589,"current_range_meters":28800,"station_id":"ce4bgup2rcd13ifvqco0","pricing_plan_id":"cebpf4jnsgd1na2vs0mg"},{"bike_id":"eae31a12-3e72-42b2-b0c6-a379794f81d9","system_id":"levelo_inurba_marseille","lat":43.309589,"lon":5.390258,"is_reserved":false,"is_disabled":false,"rental_uris":{"android":"levelo://app?vid=eae31a12-3e72-42b2-b0c6-a379794f81d9","ios":"levelo://app?vid=eae31a12-3e72-42b2-b0c6-a379794f81d9"},"vehicle_type_id":"4","last_reported":1722625589,"current_range_meters":3600,"station_id":"ce4bgup2rcd13ifvqco0","pricing_plan_id":"cebpf4jnsgd1na2vs0mg"},{"bike_id":"503285b0-5a6b-4455-96a1-b245289991ef","system_id":"levelo_inurba_marseille","lat":43.30952,"lon":5.39043,"is_reserved":false,"is_disabled":false,"rental_uris":{"android":"levelo://app?vid=503285b0-5a6b-4455-96a1-b245289991ef","ios":"levelo://app?vid=503285b0-5a6b-4455-96a1-b245289991ef"},"vehicle_type_id":"4","last_reported":1722625589,"current_range_meters":26400,"station_id":"ce4bgup2rcd13ifvqco0","pricing_plan_id":"cebpf4jnsgd1na2vs0mg"},{"bike_id":"132943f1-b5fc-42d7-b446-bfc0a422ca63","system_id":"levelo_inurba_marseille","lat":43.309589,"lon":5.390258,"is_reserved":false,"is_disabled":false,"rental_uris":{"android":"levelo://app?vid=132943f1-b5fc-42d7-b446-bfc0a422ca63","ios":"levelo://app?vid=132943f1-b5fc-42d7-b446-bfc0a422ca63"},"vehicle_type_id":"4","last_reported":1722625589,"current_range_meters":21200,"station_id":"ce4bgup2rcd13ifvqco0","pricing_plan_id":"cebpf4jnsgd1na2vs0mg"},{"bike_id":"edbc18ee-b71e-40ea-866e-b6f9d7fe861b","system_id":"levelo_inurba_marseille","lat":43.30965,"lon":5.39048,"is_reserved":false,"is_disabled":false,"rental_uris":{"android":"levelo://app?vid=edbc18ee-b71e-40ea-866e-b6f9d7fe861b","ios":"levelo://app?vid=edbc18ee-b71e-40ea-866e-b6f9d7fe861b"},"vehicle_type_id":"4","last_reported":1722625589,"current_range_meters":31200,"station_id":"ce4bgup2rcd13ifvqco0","pricing_plan_id":"cebpf4jnsgd1na2vs0mg"},{"bike_id":"b5535162-de6f-49b2-815a-db9bc250a153","system_id":"levelo_inurba_marseille","lat":43.309589,"lon":5.390258,"is_reserved":false,"is_disabled":false,"rental_uris":{"android":"levelo://app?vid=b5535162-de6f-49b2-815a-db9bc250a153","ios":"levelo://app?vid=b5535162-de6f-49b2-815a-db9bc250a153"},"vehicle_type_id":"4","last_reported":1722625589,"current_range_meters":31200,"station_id":"ce4bgup2rcd13ifvqco0","pricing_plan_id":"cebpf4jnsgd1na2vs0mg"},{"bike_id":"668adb6c-8cb5-4c06-bb03-9a913d4d8693","system_id":"levelo_inurba_marseille","lat":43.309589,"lon":5.390258,"is_reserved":false,"is_disabled":false,"rental_uris":{"android":"levelo://app?vid=668adb6c-8cb5-4c06-bb03-9a913d4d8693","ios":"levelo://app?vid=668adb6c-8cb5-4c06-bb03-9a913d4d8693"},"vehicle_type_id":"4","last_reported":1722625589,"current_range_meters":26800,"station_id":"ce4bgup2rcd13ifvqco0","pricing_plan_id":"cebpf4jnsgd1na2vs0mg"},{"bike_id":"16487a69-71f0-4271-8cb3-ff19db0755cc","system_id":"levelo_inurba_marseille","lat":43.30955,"lon":5.39049,"is_reserved":false,"is_disabled":false,"rental_uris":{"android":"levelo://app?vid=16487a69-71f0-4271-8cb3-ff19db0755cc","ios":"levelo://app?vid=16487a69-71f0-4271-8cb3-ff19db0755cc"},"vehicle_type_id":"4","last_reported":1722625589,"current_range_meters":12000,"station_id":"ce4bgup2rcd13ifvqco0","pricing_plan_id":"cebpf4jnsgd1na2vs0mg"},{"bike_id":"a8d728f6-0bfa-440d-b222-97dd68325184","system_id":"levelo_inurba_marseille","lat":43.298037,"lon":5.381066,"is_reserved":false,"is_disabled":false,"rental_uris":{"android":"levelo://app?vid=a8d728f6-0bfa-440d-b222-97dd68325184","ios":"levelo://app?vid=a8d728f6-0bfa-440d-b222-97dd68325184"},"vehicle_type_id":"4","last_reported":1722625589,"current_range_meters":3600,"station_id":"ce4bgip2rcd13ifvqbb0","pricing_plan_id":"cebpf4jnsgd1na2vs0mg"},{"bike_id":"6d35c23d-e057-44cb-a1ef-f0022ba4b38c","system_id":"levelo_inurba_marseille","lat":43.29901,"lon":5.38282,"is_reserved":false,"is_disabled":false,"rental_uris":{"android":"levelo://app?vid=6d35c23d-e057-44cb-a1ef-f0022ba4b38c","ios":"levelo://app?vid=6d35c23d-e057-44cb-a1ef-f0022ba4b38c"},"vehicle_type_id":"4","last_reported":1722625589,"current_range_meters":0,"station_id":"","pricing_plan_id":"cebpf4jnsgd1na2vs0mg"},{"bike_id":"cd5de2cd-6c9e-4258-bb19-45acedb11a77","system_id":"levelo_inurba_marseille","lat":43.29579,"lon":5.37511,"is_reserved":false,"is_disabled":false,"rental_uris":{"android":"levelo://app?vid=cd5de2cd-6c9e-4258-bb19-45acedb11a77","ios":"levelo://app?vid=cd5de2cd-6c9e-4258-bb19-45acedb11a77"},"vehicle_type_id":"4","last_reported":1722625589,"current_range_meters":0,"station_id":"ce4bgh92rcd13ifvqb50","pricing_plan_id":"cebpf4jnsgd1na2vs0mg"},{"bike_id":"a97d5ebf-2606-4e51-b775-a8e943123148","system_id":"levelo_inurba_marseille","lat":43.29578,"lon":5.37519,"is_reserved":false,"is_disabled":false,"rental_uris":{"android":"levelo://app?vid=a97d5ebf-2606-4e51-b775-a8e943123148","ios":"levelo://app?vid=a97d5ebf-2606-4e51-b775-a8e943123148"},"vehicle_type_id":"4","last_reported":1722625589,"current_range_meters":6400,"station_id":"ce4bgh92rcd13ifvqb50","pricing_plan_id":"cebpf4jnsgd1na2vs0mg"},{"bike_id":"8fa6bb18-48cb-4106-8673-1a785cfc2f0e","system_id":"levelo_inurba_marseille","lat":43.29574,"lon":5.37525,"is_reserved":false,"is_disabled":false,"rental_uris":{"android":"levelo://app?vid=8fa6bb18-48cb-4106-8673-1a785cfc2f0e","ios":"levelo://app?vid=8fa6bb18-48cb-4106-8673-1a785cfc2f0e"},"vehicle_type_id":"4","last_reported":1722625589,"current_range_meters":0,"station_id":"ce4bgh92rcd13ifvqb50","pricing_plan_id":"cebpf4jnsgd1na2vs0mg"},{"bike_id":"d9d87ad1-c8e0-41f4-ab12-aa2273b8965d","system_id":"levelo_inurba_marseille","lat":43.295748,"lon":5.37522,"is_reserved":false,"is_disabled":false,"rental_uris":{"android":"levelo://app?vid=d9d87ad1-c8e0-41f4-ab12-aa2273b8965d","ios":"levelo://app?vid=d9d87ad1-c8e0-41f4-ab12-aa2273b8965d"},"vehicle_type_id":"4","last_reported":1722625589,"current_range_meters":0,"station_id":"ce4bgh92rcd13ifvqb50","pricing_plan_id":"cebpf4jnsgd1na2vs0mg"},{"bike_id":"1ef25a45-1cf8-4940-9c4f-1c13edc22386","system_id":"levelo_inurba_marseille","lat":43.30441,"lon":5.38895,"is_reserved":false,"is_disabled":false,"rental_uris":{"android":"levelo://app?vid=1ef25a45-1cf8-4940-9c4f-1c13edc22386","ios":"levelo://app?vid=1ef25a45-1cf8-4940-9c4f-1c13edc22386"},"vehicle_type_id":"4","last_reported":1722625589,"current_range_meters":0,"station_id":"ce4bgk12rcd13ifvqbi0","pricing_plan_id":"cebpf4jnsgd1na2vs0mg"},{"bike_id":"b5263cb6-18ad-4d6d-83e6-888376b58798","system_id":"levelo_inurba_marseille","lat":43.295667,"lon":5.375123,"is_reserved":false,"is_disabled":false,"rental_uris":{"android":"levelo://app?vid=b5263cb6-18ad-4d6d-83e6-888376b58798","ios":"levelo://app?vid=b5263cb6-18ad-4d6d-83e6-888376b58798"},"vehicle_type_id":"4","last_reported":1722625589,"current_range_meters":0,"station_id":"ce4bgh92rcd13ifvqb50","pricing_plan_id":"cebpf4jnsgd1na2vs0mg"},{"bike_id":"681cc565-feb1-47b6-8810-fa91b74bbf70","system_id":"levelo_inurba_marseille","lat":43.29687,"lon":5.378947,"is_reserved":false,"is_disabled":false,"rental_uris":{"android":"levelo://app?vid=681cc565-feb1-47b6-8810-fa91b74bbf70","ios":"levelo://app?vid=681cc565-feb1-47b6-8810-fa91b74bbf70"},"vehicle_type_id":"4","last_reported":1722625589,"current_range_meters":23200,"station_id":"","pricing_plan_id":"cebpf4jnsgd1na2vs0mg"},{"bike_id":"39623ce5-91e8-4e6c-b44b-91f364491533","system_id":"levelo_inurba_marseille","lat":43.296263,"lon":5.377094,"is_reserved":false,"is_disabled":false,"rental_uris":{"android":"levelo://app?vid=39623ce5-91e8-4e6c-b44b-91f364491533","ios":"levelo://app?vid=39623ce5-91e8-4e6c-b44b-91f364491533"},"vehicle_type_id":"4","last_reported":1722625589,"current_range_meters":5200,"station_id":"ce4bgi92rcd13ifvqb90","pricing_plan_id":"cebpf4jnsgd1na2vs0mg"},{"bike_id":"1a4d4476-4df9-48cb-8414-5c25c57e20c7","system_id":"levelo_inurba_marseille","lat":43.29608,"lon":5.37729,"is_reserved":false,"is_disabled":false,"rental_uris":{"android":"levelo://app?vid=1a4d4476-4df9-48cb-8414-5c25c57e20c7","ios":"levelo://app?vid=1a4d4476-4df9-48cb-8414-5c25c57e20c7"},"vehicle_type_id":"4","last_reported":1722625589,"current_range_meters":15200,"station_id":"ce4bgi92rcd13ifvqb90","pricing_plan_id":"cebpf4jnsgd1na2vs0mg"},{"bike_id":"d7c4c084-1aa3-429b-b245-7db76cad3d6b","system_id":"levelo_inurba_marseille","lat":43.296277,"lon":5.377108,"is_reserved":false,"is_disabled":false,"rental_uris":{"android":"levelo://app?vid=d7c4c084-1aa3-429b-b245-7db76cad3d6b","ios":"levelo://app?vid=d7c4c084-1aa3-429b-b245-7db76cad3d6b"},"vehicle_type_id":"4","last_reported":1722625589,"current_range_meters":26000,"station_id":"ce4bgi92rcd13ifvqb90","pricing_plan_id":"cebpf4jnsgd1na2vs0mg"},{"bike_id":"c2c1eebb-1c76-4579-9ade-1e8bab075582","system_id":"levelo_inurba_marseille","lat":43.299707,"lon":5.384859,"is_reserved":false,"is_disabled":false,"rental_uris":{"android":"levelo://app?vid=c2c1eebb-1c76-4579-9ade-1e8bab075582","ios":"levelo://app?vid=c2c1eebb-1c76-4579-9ade-1e8bab075582"},"vehicle_type_id":"4","last_reported":1722625589,"current_range_meters":14400,"station_id":"ce4bgj92rcd13ifvqbd0","pricing_plan_id":"cebpf4jnsgd1na2vs0mg"},{"bike_id":"a85dc584-e331-44ec-8b64-b74c90f8dcef","system_id":"levelo_inurba_marseille","lat":43.299707,"lon":5.384859,"is_reserved":false,"is_disabled":false,"rental_uris":{"android":"levelo://app?vid=a85dc584-e331-44ec-8b64-b74c90f8dcef","ios":"levelo://app?vid=a85dc584-e331-44ec-8b64-b74c90f8dcef"},"vehicle_type_id":"4","last_reported":1722625589,"current_range_meters":27200,"station_id":"ce4bgj92rcd13ifvqbd0","pricing_plan_id":"cebpf4jnsgd1na2vs0mg"},{"bike_id":"f603af39-0ac6-4dce-8321-6f302dceedac","system_id":"levelo_inurba_marseille","lat":43.299707,"lon":5.384859,"is_reserved":false,"is_disabled":false,"rental_uris":{"android":"levelo://app?vid=f603af39-0ac6-4dce-8321-6f302dceedac","ios":"levelo://app?vid=f603af39-0ac6-4dce-8321-6f302dceedac"},"vehicle_type_id":"4","last_reported":1722625589,"current_range_meters":18000,"station_id":"ce4bgj92rcd13ifvqbd0","pricing_plan_id":"cebpf4jnsgd1na2vs0mg"},{"bike_id":"d3dc5fb5-ed20-4855-892e-a292ca0764e2","system_id":"levelo_inurba_marseille","lat":43.29529,"lon":5.37495,"is_reserved":false,"is_disabled":false,"rental_uris":{"android":"levelo://app?vid=d3dc5fb5-ed20-4855-892e-a292ca0764e2","ios":"levelo://app?vid=d3dc5fb5-ed20-4855-892e-a292ca0764e2"},"vehicle_type_id":"4","last_reported":1722625589,"current_range_meters":0,"station_id":"ce4bgkp2rcd13ifvqbmg","pricing_plan_id":"cebpf4jnsgd1na2vs0mg"},{"bike_id":"88466bda-3323-43bd-a788-fa8580727ad1","system_id":"levelo_inurba_marseille","lat":43.299707,"lon":5.384859,"is_reserved":false,"is_disabled":false,"rental_uris":{"android":"levelo://app?vid=88466bda-3323-43bd-a788-fa8580727ad1","ios":"levelo://app?vid=88466bda-3323-43bd-a788-fa8580727ad1"},"vehicle_type_id":"4","last_reported":1722625589,"current_range_meters":0,"station_id":"ce4bgj92rcd13ifvqbd0","pricing_plan_id":"cebpf4jnsgd1na2vs0mg"},{"bike_id":"d27a7f3b-04f0-4a09-8270-d12e20228893","system_id":"levelo_inurba_marseille","lat":43.295279,"lon":5.375048,"is_reserved":false,"is_disabled":false,"rental_uris":{"android":"levelo://app?vid=d27a7f3b-04f0-4a09-8270-d12e20228893","ios":"levelo://app?vid=d27a7f3b-04f0-4a09-8270-d12e20228893"},"vehicle_type_id":"4","last_reported":1722625589,"current_range_meters":7600,"station_id":"ce4bgkp2rcd13ifvqbmg","pricing_plan_id":"cebpf4jnsgd1na2vs0mg"},{"bike_id":"6773c880-182c-4e18-8cb3-0aee92096517","system_id":"levelo_inurba_marseille","lat":43.299707,"lon":5.384859,"is_reserved":false,"is_disabled":false,"rental_uris":{"android":"levelo://app?vid=6773c880-182c-4e18-8cb3-0aee92096517","ios":"levelo://app?vid=6773c880-182c-4e18-8cb3-0aee92096517"},"vehicle_type_id":"4","last_reported":1722625589,"current_range_meters":0,"station_id":"ce4bgj92rcd13ifvqbd0","pricing_plan_id":"cebpf4jnsgd1na2vs0mg"},{"bike_id":"9729a99a-40a1-45c5-a0bf-fab8f0e937e0","system_id":"levelo_inurba_marseille","lat":43.29969,"lon":5.38488,"is_reserved":false,"is_disabled":false,"rental_uris":{"android":"levelo://app?vid=9729a99a-40a1-45c5-a0bf-fab8f0e937e0","ios":"levelo://app?vid=9729a99a-40a1-45c5-a0bf-fab8f0e937e0"},"vehicle_type_id":"4","last_reported":1722625589,"current_range_meters":22800,"station_id":"ce4bgj92rcd13ifvqbd0","pricing_plan_id":"cebpf4jnsgd1na2vs0mg"},{"bike_id":"f509e0bb-1586-4dc1-9aea-c90e0df2a9e9","system_id":"levelo_inurba_marseille","lat":43.299717,"lon":5.384845,"is_reserved":false,"is_disabled":false,"rental_uris":{"android":"levelo://app?vid=f509e0bb-1586-4dc1-9aea-c90e0df2a9e9","ios":"levelo://app?vid=f509e0bb-1586-4dc1-9aea-c90e0df2a9e9"},"vehicle_type_id":"4","last_reported":1722625589,"current_range_meters":4000,"station_id":"ce4bgj92rcd13ifvqbd0","pricing_plan_id":"cebpf4jnsgd1na2vs0mg"},{"bike_id":"0bc552b8-ac98-4144-a24e-551967c8247d","system_id":"levelo_inurba_marseille","lat":43.299717,"lon":5.384845,"is_reserved":false,"is_disabled":false,"rental_uris":{"android":"levelo://app?vid=0bc552b8-ac98-4144-a24e-551967c8247d","ios":"levelo://app?vid=0bc552b8-ac98-4144-a24e-551967c8247d"},"vehicle_type_id":"4","last_reported":1722625589,"current_range_meters":0,"station_id":"ce4bgj92rcd13ifvqbd0","pricing_plan_id":"cebpf4jnsgd1na2vs0mg"},{"bike_id":"0dfd9624-3254-411d-b1bf-e98dbc221586","system_id":"levelo_inurba_marseille","lat":43.299717,"lon":5.384845,"is_reserved":false,"is_disabled":false,"rental_uris":{"android":"levelo://app?vid=0dfd9624-3254-411d-b1bf-e98dbc221586","ios":"levelo://app?vid=0dfd9624-3254-411d-b1bf-e98dbc221586"},"vehicle_type_id":"4","last_reported":1722625589,"current_range_meters":15600,"station_id":"ce4bgj92rcd13ifvqbd0","pricing_plan_id":"cebpf4jnsgd1na2vs0mg"},{"bike_id":"03a75a78-a467-417f-acb3-06764ca66957","system_id":"levelo_inurba_marseille","lat":43.299717,"lon":5.384845,"is_reserved":false,"is_disabled":false,"rental_uris":{"android":"levelo://app?vid=03a75a78-a467-417f-acb3-06764ca66957","ios":"levelo://app?vid=03a75a78-a467-417f-acb3-06764ca66957"},"vehicle_type_id":"4","last_reported":1722625589,"current_range_meters":25200,"station_id":"ce4bgj92rcd13ifvqbd0","pricing_plan_id":"cebpf4jnsgd1na2vs0mg"},{"bike_id":"547a3e6a-ec01-4e0f-86da-b949fa42788d","system_id":"levelo_inurba_marseille","lat":43.299717,"lon":5.384845,"is_reserved":false,"is_disabled":false,"rental_uris":{"android":"levelo://app?vid=547a3e6a-ec01-4e0f-86da-b949fa42788d","ios":"levelo://app?vid=547a3e6a-ec01-4e0f-86da-b949fa42788d"},"vehicle_type_id":"4","last_reported":1722625589,"current_range_meters":9200,"station_id":"ce4bgj92rcd13ifvqbd0","pricing_plan_id":"cebpf4jnsgd1na2vs0mg"},{"bike_id":"6dabb033-ac98-4f34-a651-d6be713fcb02","system_id":"levelo_inurba_marseille","lat":43.30958,"lon":5.39226,"is_reserved":false,"is_disabled":false,"rental_uris":{"android":"levelo://app?vid=6dabb033-ac98-4f34-a651-d6be713fcb02","ios":"levelo://app?vid=6dabb033-ac98-4f34-a651-d6be713fcb02"},"vehicle_type_id":"4","last_reported":1722625589,"current_range_meters":19200,"station_id":"","pricing_plan_id":"cebpf4jnsgd1na2vs0mg"},{"bike_id":"f6a220f6-fdd6-4d36-9e7c-09322db21603","system_id":"levelo_inurba_marseille","lat":43.29646,"lon":5.38003,"is_reserved":false,"is_disabled":false,"rental_uris":{"android":"levelo://app?vid=f6a220f6-fdd6-4d36-9e7c-09322db21603","ios":"levelo://app?vid=f6a220f6-fdd6-4d36-9e7c-09322db21603"},"vehicle_type_id":"4","last_reported":1722625589,"current_range_meters":13600,"station_id":"","pricing_plan_id":"cebpf4jnsgd1na2vs0mg"},{"bike_id":"2bd90397-f413-4d3e-ab38-4109b1f0f1b0","system_id":"levelo_inurba_marseille","lat":43.301396,"lon":5.387812,"is_reserved":false,"is_disabled":false,"rental_uris":{"android":"levelo://app?vid=2bd90397-f413-4d3e-ab38-4109b1f0f1b0","ios":"levelo://app?vid=2bd90397-f413-4d3e-ab38-4109b1f0f1b0"},"vehicle_type_id":"4","last_reported":1722625589,"current_range_meters":8000,"station_id":"ce4bghh2rcd13ifvqb60","pricing_plan_id":"cebpf4jnsgd1na2vs0mg"},{"bike_id":"8d04932c-f75b-4dd7-bfd1-0b427b029a05","system_id":"levelo_inurba_marseille","lat":43.32367,"lon":5.388836,"is_reserved":false,"is_disabled":false,"rental_uris":{"android":"levelo://app?vid=8d04932c-f75b-4dd7-bfd1-0b427b029a05","ios":"levelo://app?vid=8d04932c-f75b-4dd7-bfd1-0b427b029a05"},"vehicle_type_id":"4","last_reported":1722625589,"current_range_meters":4400,"station_id":"ce4bhqp2rcd13ifvqhog","pricing_plan_id":"cebpf4jnsgd1na2vs0mg"},{"bike_id":"0009eb61-2553-4477-91e3-ab94c3850384","system_id":"levelo_inurba_marseille","lat":43.32367,"lon":5.388836,"is_reserved":false,"is_disabled":false,"rental_uris":{"android":"levelo://app?vid=0009eb61-2553-4477-91e3-ab94c3850384","ios":"levelo://app?vid=0009eb61-2553-4477-91e3-ab94c3850384"},"vehicle_type_id":"4","last_reported":1722625589,"current_range_meters":27200,"station_id":"ce4bhqp2rcd13ifvqhog","pricing_plan_id":"cebpf4jnsgd1na2vs0mg"},{"bike_id":"b8cf7acb-f378-4900-8cfe-63394b76ec47","system_id":"levelo_inurba_marseille","lat":43.32367,"lon":5.388836,"is_reserved":false,"is_disabled":false,"rental_uris":{"android":"levelo://app?vid=b8cf7acb-f378-4900-8cfe-63394b76ec47","ios":"levelo://app?vid=b8cf7acb-f378-4900-8cfe-63394b76ec47"},"vehicle_type_id":"4","last_reported":1722625589,"current_range_meters":26400,"station_id":"ce4bhqp2rcd13ifvqhog","pricing_plan_id":"cebpf4jnsgd1na2vs0mg"},{"bike_id":"2a7fdbca-6296-4df7-8529-49300be1471d","system_id":"levelo_inurba_marseille","lat":43.32367,"lon":5.388836,"is_reserved":false,"is_disabled":false,"rental_uris":{"android":"levelo://app?vid=2a7fdbca-6296-4df7-8529-49300be1471d","ios":"levelo://app?vid=2a7fdbca-6296-4df7-8529-49300be1471d"},"vehicle_type_id":"4","last_reported":1722625589,"current_range_meters":13600,"station_id":"ce4bhqp2rcd13ifvqhog","pricing_plan_id":"cebpf4jnsgd1na2vs0mg"},{"bike_id":"0f356bba-3894-4a3c-b3cc-acfe51054859","system_id":"levelo_inurba_marseille","lat":43.32367,"lon":5.388836,"is_reserved":false,"is_disabled":false,"rental_uris":{"android":"levelo://app?vid=0f356bba-3894-4a3c-b3cc-acfe51054859","ios":"levelo://app?vid=0f356bba-3894-4a3c-b3cc-acfe51054859"},"vehicle_type_id":"4","last_reported":1722625589,"current_range_meters":21200,"station_id":"ce4bhqp2rcd13ifvqhog","pricing_plan_id":"cebpf4jnsgd1na2vs0mg"},{"bike_id":"ce1d46c3-7a87-468d-93ef-7de440451ad5","system_id":"levelo_inurba_marseille","lat":43.32367,"lon":5.388836,"is_reserved":false,"is_disabled":false,"rental_uris":{"android":"levelo://app?vid=ce1d46c3-7a87-468d-93ef-7de440451ad5","ios":"levelo://app?vid=ce1d46c3-7a87-468d-93ef-7de440451ad5"},"vehicle_type_id":"4","last_reported":1722625589,"current_range_meters":17600,"station_id":"ce4bhqp2rcd13ifvqhog","pricing_plan_id":"cebpf4jnsgd1na2vs0mg"},{"bike_id":"fa278f9c-60f8-4985-89af-c8214d663c7c","system_id":"levelo_inurba_marseille","lat":43.323821,"lon":5.388808,"is_reserved":false,"is_disabled":false,"rental_uris":{"android":"levelo://app?vid=fa278f9c-60f8-4985-89af-c8214d663c7c","ios":"levelo://app?vid=fa278f9c-60f8-4985-89af-c8214d663c7c"},"vehicle_type_id":"4","last_reported":1722625589,"current_range_meters":30800,"station_id":"","pricing_plan_id":"cebpf4jnsgd1na2vs0mg"},{"bike_id":"9cdaad92-5307-4b7f-9b5f-fa92e62b3abf","system_id":"levelo_inurba_marseille","lat":43.291994,"lon":5.357886,"is_reserved":false,"is_disabled":false,"rental_uris":{"android":"levelo://app?vid=9cdaad92-5307-4b7f-9b5f-fa92e62b3abf","ios":"levelo://app?vid=9cdaad92-5307-4b7f-9b5f-fa92e62b3abf"},"vehicle_type_id":"4","last_reported":1722625589,"current_range_meters":0,"station_id":"ce4bhb12rcd13ifvqel0","pricing_plan_id":"cebpf4jnsgd1na2vs0mg"},{"bike_id":"8cb1e866-7783-454b-8c11-289b6f3952ac","system_id":"levelo_inurba_marseille","lat":43.29602,"lon":5.381084,"is_reserved":false,"is_disabled":false,"rental_uris":{"android":"levelo://app?vid=8cb1e866-7783-454b-8c11-289b6f3952ac","ios":"levelo://app?vid=8cb1e866-7783-454b-8c11-289b6f3952ac"},"vehicle_type_id":"4","last_reported":1722625589,"current_range_meters":6800,"station_id":"ce4bgl12rcd13ifvqbo0","pricing_plan_id":"cebpf4jnsgd1na2vs0mg"},{"bike_id":"b24e55f3-67bf-4c74-ae7b-be871bfd0875","system_id":"levelo_inurba_marseille","lat":43.29601,"lon":5.381084,"is_reserved":false,"is_disabled":false,"rental_uris":{"android":"levelo://app?vid=b24e55f3-67bf-4c74-ae7b-be871bfd0875","ios":"levelo://app?vid=b24e55f3-67bf-4c74-ae7b-be871bfd0875"},"vehicle_type_id":"4","last_reported":1722625589,"current_range_meters":30000,"station_id":"ce4bgl12rcd13ifvqbo0","pricing_plan_id":"cebpf4jnsgd1na2vs0mg"},{"bike_id":"ff13a550-4e00-4d55-8a12-b166001a162d","system_id":"levelo_inurba_marseille","lat":43.29602,"lon":5.381084,"is_reserved":false,"is_disabled":false,"rental_uris":{"android":"levelo://app?vid=ff13a550-4e00-4d55-8a12-b166001a162d","ios":"levelo://app?vid=ff13a550-4e00-4d55-8a12-b166001a162d"},"vehicle_type_id":"4","last_reported":1722625589,"current_range_meters":6800,"station_id":"ce4bgl12rcd13ifvqbo0","pricing_plan_id":"cebpf4jnsgd1na2vs0mg"},{"bike_id":"69de66e4-9356-454e-addd-3e293526380e","system_id":"levelo_inurba_marseille","lat":43.32406,"lon":5.3893,"is_reserved":false,"is_disabled":false,"rental_uris":{"android":"levelo://app?vid=69de66e4-9356-454e-addd-3e293526380e","ios":"levelo://app?vid=69de66e4-9356-454e-addd-3e293526380e"},"vehicle_type_id":"4","last_reported":1722625589,"current_range_meters":4000,"station_id":"","pricing_plan_id":"cebpf4jnsgd1na2vs0mg"},{"bike_id":"98ae2a7c-35e2-42cb-98eb-af8e770e67de","system_id":"levelo_inurba_marseille","lat":43.2931,"lon":5.37178,"is_reserved":false,"is_disabled":false,"rental_uris":{"android":"levelo://app?vid=98ae2a7c-35e2-42cb-98eb-af8e770e67de","ios":"levelo://app?vid=98ae2a7c-35e2-42cb-98eb-af8e770e67de"},"vehicle_type_id":"4","last_reported":1722625589,"current_range_meters":31200,"station_id":"ce4bgh92rcd13ifvqb40","pricing_plan_id":"cebpf4jnsgd1na2vs0mg"},{"bike_id":"4b9a9f37-9af3-421d-bedf-b15a87ed85cc","system_id":"levelo_inurba_marseille","lat":43.2931,"lon":5.37183,"is_reserved":false,"is_disabled":false,"rental_uris":{"android":"levelo://app?vid=4b9a9f37-9af3-421d-bedf-b15a87ed85cc","ios":"levelo://app?vid=4b9a9f37-9af3-421d-bedf-b15a87ed85cc"},"vehicle_type_id":"4","last_reported":1722625589,"current_range_meters":25200,"station_id":"ce4bgh92rcd13ifvqb40","pricing_plan_id":"cebpf4jnsgd1na2vs0mg"},{"bike_id":"8f89250c-6161-4459-9f7f-c928c3471fa0","system_id":"levelo_inurba_marseille","lat":43.2928,"lon":5.36843,"is_reserved":false,"is_disabled":false,"rental_uris":{"android":"levelo://app?vid=8f89250c-6161-4459-9f7f-c928c3471fa0","ios":"levelo://app?vid=8f89250c-6161-4459-9f7f-c928c3471fa0"},"vehicle_type_id":"4","last_reported":1722625589,"current_range_meters":3600,"station_id":"ce4bhbp2rcd13ifvqesg","pricing_plan_id":"cebpf4jnsgd1na2vs0mg"},{"bike_id":"f236f207-5e64-4fda-9af9-bb1c5b08d8b8","system_id":"levelo_inurba_marseille","lat":43.29307,"lon":5.3718,"is_reserved":false,"is_disabled":false,"rental_uris":{"android":"levelo://app?vid=f236f207-5e64-4fda-9af9-bb1c5b08d8b8","ios":"levelo://app?vid=f236f207-5e64-4fda-9af9-bb1c5b08d8b8"},"vehicle_type_id":"4","last_reported":1722625589,"current_range_meters":31200,"station_id":"ce4bgh92rcd13ifvqb40","pricing_plan_id":"cebpf4jnsgd1na2vs0mg"},{"bike_id":"b05ef611-907a-4e27-a5b6-b48f4edadbfb","system_id":"levelo_inurba_marseille","lat":43.29306,"lon":5.37175,"is_reserved":false,"is_disabled":false,"rental_uris":{"android":"levelo://app?vid=b05ef611-907a-4e27-a5b6-b48f4edadbfb","ios":"levelo://app?vid=b05ef611-907a-4e27-a5b6-b48f4edadbfb"},"vehicle_type_id":"4","last_reported":1722625589,"current_range_meters":28000,"station_id":"ce4bgh92rcd13ifvqb40","pricing_plan_id":"cebpf4jnsgd1na2vs0mg"},{"bike_id":"b277cdcb-d67c-401c-86b6-51796c4a15f4","system_id":"levelo_inurba_marseille","lat":43.29277,"lon":5.36838,"is_reserved":false,"is_disabled":false,"rental_uris":{"android":"levelo://app?vid=b277cdcb-d67c-401c-86b6-51796c4a15f4","ios":"levelo://app?vid=b277cdcb-d67c-401c-86b6-51796c4a15f4"},"vehicle_type_id":"4","last_reported":1722625589,"current_range_meters":0,"station_id":"ce4bhbp2rcd13ifvqesg","pricing_plan_id":"cebpf4jnsgd1na2vs0mg"},{"bike_id":"bfd99200-c0fb-446d-b711-199d340dbb56","system_id":"levelo_inurba_marseille","lat":43.293046,"lon":5.371771,"is_reserved":false,"is_disabled":false,"rental_uris":{"android":"levelo://app?vid=bfd99200-c0fb-446d-b711-199d340dbb56","ios":"levelo://app?vid=bfd99200-c0fb-446d-b711-199d340dbb56"},"vehicle_type_id":"4","last_reported":1722625589,"current_range_meters":12800,"station_id":"","pricing_plan_id":"cebpf4jnsgd1na2vs0mg"},{"bike_id":"f7f96407-75cc-4652-9435-efe7dfc16cf9","system_id":"levelo_inurba_marseille","lat":43.293033,"lon":5.371697,"is_reserved":false,"is_disabled":false,"rental_uris":{"android":"levelo://app?vid=f7f96407-75cc-4652-9435-efe7dfc16cf9","ios":"levelo://app?vid=f7f96407-75cc-4652-9435-efe7dfc16cf9"},"vehicle_type_id":"4","last_reported":1722625589,"current_range_meters":31200,"station_id":"ce4bgh92rcd13ifvqb40","pricing_plan_id":"cebpf4jnsgd1na2vs0mg"},{"bike_id":"9eb16948-b776-4592-8a3f-c02f3c348d4f","system_id":"levelo_inurba_marseille","lat":43.29275,"lon":5.36848,"is_reserved":false,"is_disabled":false,"rental_uris":{"android":"levelo://app?vid=9eb16948-b776-4592-8a3f-c02f3c348d4f","ios":"levelo://app?vid=9eb16948-b776-4592-8a3f-c02f3c348d4f"},"vehicle_type_id":"4","last_reported":1722625589,"current_range_meters":13600,"station_id":"ce4bhbp2rcd13ifvqesg","pricing_plan_id":"cebpf4jnsgd1na2vs0mg"},{"bike_id":"5c40b6e3-74bf-4554-a49a-246e0199a6f0","system_id":"levelo_inurba_marseille","lat":43.29275,"lon":5.36852,"is_reserved":false,"is_disabled":false,"rental_uris":{"android":"levelo://app?vid=5c40b6e3-74bf-4554-a49a-246e0199a6f0","ios":"levelo://app?vid=5c40b6e3-74bf-4554-a49a-246e0199a6f0"},"vehicle_type_id":"4","last_reported":1722625589,"current_range_meters":10000,"station_id":"ce4bhbp2rcd13ifvqesg","pricing_plan_id":"cebpf4jnsgd1na2vs0mg"},{"bike_id":"b09587e8-702b-4f31-9b59-4fdfc1373fa5","system_id":"levelo_inurba_marseille","lat":43.29274,"lon":5.36835,"is_reserved":false,"is_disabled":false,"rental_uris":{"android":"levelo://app?vid=b09587e8-702b-4f31-9b59-4fdfc1373fa5","ios":"levelo://app?vid=b09587e8-702b-4f31-9b59-4fdfc1373fa5"},"vehicle_type_id":"4","last_reported":1722625589,"current_range_meters":6000,"station_id":"ce4bhbp2rcd13ifvqesg","pricing_plan_id":"cebpf4jnsgd1na2vs0mg"},{"bike_id":"61c08974-f703-48b0-987c-1926ca620fb5","system_id":"levelo_inurba_marseille","lat":43.29274,"lon":5.36842,"is_reserved":false,"is_disabled":false,"rental_uris":{"android":"levelo://app?vid=61c08974-f703-48b0-987c-1926ca620fb5","ios":"levelo://app?vid=61c08974-f703-48b0-987c-1926ca620fb5"},"vehicle_type_id":"4","last_reported":1722625589,"current_range_meters":28400,"station_id":"ce4bhbp2rcd13ifvqesg","pricing_plan_id":"cebpf4jnsgd1na2vs0mg"},{"bike_id":"fa727b8c-d766-497b-83b1-805410dac3b3","system_id":"levelo_inurba_marseille","lat":43.29301,"lon":5.3718,"is_reserved":false,"is_disabled":false,"rental_uris":{"android":"levelo://app?vid=fa727b8c-d766-497b-83b1-805410dac3b3","ios":"levelo://app?vid=fa727b8c-d766-497b-83b1-805410dac3b3"},"vehicle_type_id":"4","last_reported":1722625589,"current_range_meters":31200,"station_id":"ce4bgh92rcd13ifvqb40","pricing_plan_id":"cebpf4jnsgd1na2vs0mg"},{"bike_id":"7c86fab8-87f0-4bb1-9e53-3b0e917b10ce","system_id":"levelo_inurba_marseille","lat":43.293,"lon":5.37181,"is_reserved":false,"is_disabled":false,"rental_uris":{"android":"levelo://app?vid=7c86fab8-87f0-4bb1-9e53-3b0e917b10ce","ios":"levelo://app?vid=7c86fab8-87f0-4bb1-9e53-3b0e917b10ce"},"vehicle_type_id":"4","last_reported":1722625589,"current_range_meters":31200,"station_id":"ce4bgh92rcd13ifvqb40","pricing_plan_id":"cebpf4jnsgd1na2vs0mg"},{"bike_id":"f6d8b518-5a96-43db-b0df-9f743146926d","system_id":"levelo_inurba_marseille","lat":43.29271,"lon":5.36846,"is_reserved":false,"is_disabled":false,"rental_uris":{"android":"levelo://app?vid=f6d8b518-5a96-43db-b0df-9f743146926d","ios":"levelo://app?vid=f6d8b518-5a96-43db-b0df-9f743146926d"},"vehicle_type_id":"4","last_reported":1722625589,"current_range_meters":0,"station_id":"ce4bhbp2rcd13ifvqesg","pricing_plan_id":"cebpf4jnsgd1na2vs0mg"},{"bike_id":"316706a4-3b20-4670-8055-05e1e7196584","system_id":"levelo_inurba_marseille","lat":43.293,"lon":5.37187,"is_reserved":false,"is_disabled":false,"rental_uris":{"android":"levelo://app?vid=316706a4-3b20-4670-8055-05e1e7196584","ios":"levelo://app?vid=316706a4-3b20-4670-8055-05e1e7196584"},"vehicle_type_id":"4","last_reported":1722625589,"current_range_meters":20400,"station_id":"ce4bgh92rcd13ifvqb40","pricing_plan_id":"cebpf4jnsgd1na2vs0mg"},{"bike_id":"df6af1c6-62b7-4692-a524-647de233e320","system_id":"levelo_inurba_marseille","lat":43.292749,"lon":5.368398,"is_reserved":false,"is_disabled":false,"rental_uris":{"android":"levelo://app?vid=df6af1c6-62b7-4692-a524-647de233e320","ios":"levelo://app?vid=df6af1c6-62b7-4692-a524-647de233e320"},"vehicle_type_id":"4","last_reported":1722625589,"current_range_meters":11200,"station_id":"ce4bhbp2rcd13ifvqesg","pricing_plan_id":"cebpf4jnsgd1na2vs0mg"},{"bike_id":"204f25ca-76b8-48d0-8f2c-cca2b8685524","system_id":"levelo_inurba_marseille","lat":43.293009,"lon":5.374584,"is_reserved":false,"is_disabled":false,"rental_uris":{"android":"levelo://app?vid=204f25ca-76b8-48d0-8f2c-cca2b8685524","ios":"levelo://app?vid=204f25ca-76b8-48d0-8f2c-cca2b8685524"},"vehicle_type_id":"4","last_reported":1722625589,"current_range_meters":1200,"station_id":"ce4bgi12rcd13ifvqb70","pricing_plan_id":"cebpf4jnsgd1na2vs0mg"},{"bike_id":"6fb5ac60-9586-42fa-8f5c-ee7042ebada3","system_id":"levelo_inurba_marseille","lat":43.29303,"lon":5.37444,"is_reserved":false,"is_disabled":false,"rental_uris":{"android":"levelo://app?vid=6fb5ac60-9586-42fa-8f5c-ee7042ebada3","ios":"levelo://app?vid=6fb5ac60-9586-42fa-8f5c-ee7042ebada3"},"vehicle_type_id":"4","last_reported":1722625589,"current_range_meters":0,"station_id":"ce4bgi12rcd13ifvqb70","pricing_plan_id":"cebpf4jnsgd1na2vs0mg"},{"bike_id":"d3998019-323d-4727-a41c-b10e94a80f62","system_id":"levelo_inurba_marseille","lat":43.293009,"lon":5.374584,"is_reserved":false,"is_disabled":false,"rental_uris":{"android":"levelo://app?vid=d3998019-323d-4727-a41c-b10e94a80f62","ios":"levelo://app?vid=d3998019-323d-4727-a41c-b10e94a80f62"},"vehicle_type_id":"4","last_reported":1722625589,"current_range_meters":28400,"station_id":"ce4bgi12rcd13ifvqb70","pricing_plan_id":"cebpf4jnsgd1na2vs0mg"},{"bike_id":"a1cb7884-d7f9-472b-bfbe-7d7fe0ac18ca","system_id":"levelo_inurba_marseille","lat":43.293009,"lon":5.374584,"is_reserved":false,"is_disabled":false,"rental_uris":{"android":"levelo://app?vid=a1cb7884-d7f9-472b-bfbe-7d7fe0ac18ca","ios":"levelo://app?vid=a1cb7884-d7f9-472b-bfbe-7d7fe0ac18ca"},"vehicle_type_id":"4","last_reported":1722625589,"current_range_meters":8800,"station_id":"ce4bgi12rcd13ifvqb70","pricing_plan_id":"cebpf4jnsgd1na2vs0mg"},{"bike_id":"181028cb-1934-4039-a0ff-4642b407efbd","system_id":"levelo_inurba_marseille","lat":43.293009,"lon":5.374584,"is_reserved":false,"is_disabled":false,"rental_uris":{"android":"levelo://app?vid=181028cb-1934-4039-a0ff-4642b407efbd","ios":"levelo://app?vid=181028cb-1934-4039-a0ff-4642b407efbd"},"vehicle_type_id":"4","last_reported":1722625589,"current_range_meters":8400,"station_id":"ce4bgi12rcd13ifvqb70","pricing_plan_id":"cebpf4jnsgd1na2vs0mg"},{"bike_id":"9df2a9fc-9dde-41a2-a60f-e851170d61a8","system_id":"levelo_inurba_marseille","lat":43.293009,"lon":5.374584,"is_reserved":false,"is_disabled":false,"rental_uris":{"android":"levelo://app?vid=9df2a9fc-9dde-41a2-a60f-e851170d61a8","ios":"levelo://app?vid=9df2a9fc-9dde-41a2-a60f-e851170d61a8"},"vehicle_type_id":"4","last_reported":1722625589,"current_range_meters":0,"station_id":"ce4bgi12rcd13ifvqb70","pricing_plan_id":"cebpf4jnsgd1na2vs0mg"},{"bike_id":"4466bb11-2f31-4a28-9ddf-654206bb6227","system_id":"levelo_inurba_marseille","lat":43.293009,"lon":5.374584,"is_reserved":false,"is_disabled":false,"rental_uris":{"android":"levelo://app?vid=4466bb11-2f31-4a28-9ddf-654206bb6227","ios":"levelo://app?vid=4466bb11-2f31-4a28-9ddf-654206bb6227"},"vehicle_type_id":"4","last_reported":1722625589,"current_range_meters":13200,"station_id":"ce4bgi12rcd13ifvqb70","pricing_plan_id":"cebpf4jnsgd1na2vs0mg"},{"bike_id":"562d4a33-155c-4032-8571-52d98434140d","system_id":"levelo_inurba_marseille","lat":43.305994,"lon":5.393687,"is_reserved":false,"is_disabled":false,"rental_uris":{"android":"levelo://app?vid=562d4a33-155c-4032-8571-52d98434140d","ios":"levelo://app?vid=562d4a33-155c-4032-8571-52d98434140d"},"vehicle_type_id":"4","last_reported":1722625589,"current_range_meters":0,"station_id":"ce4bh0p2rcd13ifvqd80","pricing_plan_id":"cebpf4jnsgd1na2vs0mg"},{"bike_id":"1945a8ff-c352-455b-88e3-433fb0ce583d","system_id":"levelo_inurba_marseille","lat":43.305994,"lon":5.393687,"is_reserved":false,"is_disabled":false,"rental_uris":{"android":"levelo://app?vid=1945a8ff-c352-455b-88e3-433fb0ce583d","ios":"levelo://app?vid=1945a8ff-c352-455b-88e3-433fb0ce583d"},"vehicle_type_id":"4","last_reported":1722625589,"current_range_meters":14000,"station_id":"ce4bh0p2rcd13ifvqd80","pricing_plan_id":"cebpf4jnsgd1na2vs0mg"},{"bike_id":"cad43cb7-3e07-4fb6-8766-be8174594b72","system_id":"levelo_inurba_marseille","lat":43.305994,"lon":5.393687,"is_reserved":false,"is_disabled":false,"rental_uris":{"android":"levelo://app?vid=cad43cb7-3e07-4fb6-8766-be8174594b72","ios":"levelo://app?vid=cad43cb7-3e07-4fb6-8766-be8174594b72"},"vehicle_type_id":"4","last_reported":1722625589,"current_range_meters":0,"station_id":"ce4bh0p2rcd13ifvqd80","pricing_plan_id":"cebpf4jnsgd1na2vs0mg"},{"bike_id":"d096b90f-7f3e-45d9-a1b6-8172c5241647","system_id":"levelo_inurba_marseille","lat":43.293009,"lon":5.374584,"is_reserved":false,"is_disabled":false,"rental_uris":{"android":"levelo://app?vid=d096b90f-7f3e-45d9-a1b6-8172c5241647","ios":"levelo://app?vid=d096b90f-7f3e-45d9-a1b6-8172c5241647"},"vehicle_type_id":"4","last_reported":1722625589,"current_range_meters":24000,"station_id":"ce4bgi12rcd13ifvqb70","pricing_plan_id":"cebpf4jnsgd1na2vs0mg"},{"bike_id":"54fd94c3-22f8-487d-898c-00a479ee8e45","system_id":"levelo_inurba_marseille","lat":43.293009,"lon":5.374584,"is_reserved":false,"is_disabled":false,"rental_uris":{"android":"levelo://app?vid=54fd94c3-22f8-487d-898c-00a479ee8e45","ios":"levelo://app?vid=54fd94c3-22f8-487d-898c-00a479ee8e45"},"vehicle_type_id":"4","last_reported":1722625589,"current_range_meters":20000,"station_id":"ce4bgi12rcd13ifvqb70","pricing_plan_id":"cebpf4jnsgd1na2vs0mg"},{"bike_id":"f869fca0-0ab0-4f5b-a91c-b5e587329c49","system_id":"levelo_inurba_marseille","lat":43.29219,"lon":5.36047,"is_reserved":false,"is_disabled":false,"rental_uris":{"android":"levelo://app?vid=f869fca0-0ab0-4f5b-a91c-b5e587329c49","ios":"levelo://app?vid=f869fca0-0ab0-4f5b-a91c-b5e587329c49"},"vehicle_type_id":"4","last_reported":1722625589,"current_range_meters":22400,"station_id":"ce4bhbh2rcd13ifvqeqg","pricing_plan_id":"cebpf4jnsgd1na2vs0mg"},{"bike_id":"a55c8685-a27a-4f1b-ab3c-75aa83615d5a","system_id":"levelo_inurba_marseille","lat":43.29215,"lon":5.36048,"is_reserved":false,"is_disabled":false,"rental_uris":{"android":"levelo://app?vid=a55c8685-a27a-4f1b-ab3c-75aa83615d5a","ios":"levelo://app?vid=a55c8685-a27a-4f1b-ab3c-75aa83615d5a"},"vehicle_type_id":"4","last_reported":1722625589,"current_range_meters":17200,"station_id":"ce4bhbh2rcd13ifvqeqg","pricing_plan_id":"cebpf4jnsgd1na2vs0mg"},{"bike_id":"64c86650-5c28-47f4-a40a-8eead41d8f75","system_id":"levelo_inurba_marseille","lat":43.292311,"lon":5.360731,"is_reserved":false,"is_disabled":false,"rental_uris":{"android":"levelo://app?vid=64c86650-5c28-47f4-a40a-8eead41d8f75","ios":"levelo://app?vid=64c86650-5c28-47f4-a40a-8eead41d8f75"},"vehicle_type_id":"4","last_reported":1722625589,"current_range_meters":25600,"station_id":"ce4bhbh2rcd13ifvqeqg","pricing_plan_id":"cebpf4jnsgd1na2vs0mg"},{"bike_id":"9372b74e-c002-40ea-a8fa-feaaeb6a7520","system_id":"levelo_inurba_marseille","lat":43.29209,"lon":5.36049,"is_reserved":false,"is_disabled":false,"rental_uris":{"android":"levelo://app?vid=9372b74e-c002-40ea-a8fa-feaaeb6a7520","ios":"levelo://app?vid=9372b74e-c002-40ea-a8fa-feaaeb6a7520"},"vehicle_type_id":"4","last_reported":1722625589,"current_range_meters":31200,"station_id":"ce4bhbh2rcd13ifvqeqg","pricing_plan_id":"cebpf4jnsgd1na2vs0mg"},{"bike_id":"2ace0b2e-fe6c-4654-a7af-4222cefc0839","system_id":"levelo_inurba_marseille","lat":43.298764,"lon":5.388973,"is_reserved":false,"is_disabled":false,"rental_uris":{"android":"levelo://app?vid=2ace0b2e-fe6c-4654-a7af-4222cefc0839","ios":"levelo://app?vid=2ace0b2e-fe6c-4654-a7af-4222cefc0839"},"vehicle_type_id":"4","last_reported":1722625589,"current_range_meters":2000,"station_id":"ce4bh392rcd13ifvqdl0","pricing_plan_id":"cebpf4jnsgd1na2vs0mg"},{"bike_id":"c60ae143-ad65-46c2-8717-0fbc6a05c619","system_id":"levelo_inurba_marseille","lat":43.29259,"lon":5.37617,"is_reserved":false,"is_disabled":false,"rental_uris":{"android":"levelo://app?vid=c60ae143-ad65-46c2-8717-0fbc6a05c619","ios":"levelo://app?vid=c60ae143-ad65-46c2-8717-0fbc6a05c619"},"vehicle_type_id":"4","last_reported":1722625589,"current_range_meters":0,"station_id":"ce4bgi12rcd13ifvqb80","pricing_plan_id":"cebpf4jnsgd1na2vs0mg"},{"bike_id":"c570014c-b839-4635-b51d-594fffdbc97e","system_id":"levelo_inurba_marseille","lat":43.291675,"lon":5.371583,"is_reserved":false,"is_disabled":false,"rental_uris":{"android":"levelo://app?vid=c570014c-b839-4635-b51d-594fffdbc97e","ios":"levelo://app?vid=c570014c-b839-4635-b51d-594fffdbc97e"},"vehicle_type_id":"4","last_reported":1722625589,"current_range_meters":24800,"station_id":"ce4bha92rcd13ifvqeh0","pricing_plan_id":"cebpf4jnsgd1na2vs0mg"},{"bike_id":"2e5d2cb4-f4de-4833-bde4-130e616f1b2b","system_id":"levelo_inurba_marseille","lat":43.309038,"lon":5.396546,"is_reserved":false,"is_disabled":false,"rental_uris":{"android":"levelo://app?vid=2e5d2cb4-f4de-4833-bde4-130e616f1b2b","ios":"levelo://app?vid=2e5d2cb4-f4de-4833-bde4-130e616f1b2b"},"vehicle_type_id":"4","last_reported":1722625589,"current_range_meters":31600,"station_id":"ce4bh012rcd13ifvqcv0","pricing_plan_id":"cebpf4jnsgd1na2vs0mg"},{"bike_id":"9496f9f0-20ba-463d-a4ac-021de2fa5428","system_id":"levelo_inurba_marseille","lat":43.309038,"lon":5.396546,"is_reserved":false,"is_disabled":false,"rental_uris":{"android":"levelo://app?vid=9496f9f0-20ba-463d-a4ac-021de2fa5428","ios":"levelo://app?vid=9496f9f0-20ba-463d-a4ac-021de2fa5428"},"vehicle_type_id":"4","last_reported":1722625589,"current_range_meters":11200,"station_id":"ce4bh012rcd13ifvqcv0","pricing_plan_id":"cebpf4jnsgd1na2vs0mg"},{"bike_id":"1f17d4f9-8f8a-4bd6-a8ee-90df31b22f23","system_id":"levelo_inurba_marseille","lat":43.292005,"lon":5.357875,"is_reserved":false,"is_disabled":false,"rental_uris":{"android":"levelo://app?vid=1f17d4f9-8f8a-4bd6-a8ee-90df31b22f23","ios":"levelo://app?vid=1f17d4f9-8f8a-4bd6-a8ee-90df31b22f23"},"vehicle_type_id":"4","last_reported":1722625589,"current_range_meters":31200,"station_id":"ce4bhb12rcd13ifvqel0","pricing_plan_id":"cebpf4jnsgd1na2vs0mg"},{"bike_id":"716ce898-2ee2-4350-8014-4aefd3581253","system_id":"levelo_inurba_marseille","lat":43.291994,"lon":5.357886,"is_reserved":false,"is_disabled":false,"rental_uris":{"android":"levelo://app?vid=716ce898-2ee2-4350-8014-4aefd3581253","ios":"levelo://app?vid=716ce898-2ee2-4350-8014-4aefd3581253"},"vehicle_type_id":"4","last_reported":1722625589,"current_range_meters":28000,"station_id":"ce4bhb12rcd13ifvqel0","pricing_plan_id":"cebpf4jnsgd1na2vs0mg"},