{"last_updated":1747229008,"ttl":60,"version":"2.2","data":{"bikes":[{"bike_id":"c0b9fd4f-e181-46ce-b0bf-f5119973334f","system_id":"levelo_inurba_marseille","lat":43.33771,"lon":5.37424,"is_reserved":false,"is_disabled":false,"rental_uris":{"android":"levelo://app?vid=c0b9fd4f-e181-46ce-b0bf-f5119973334f","ios":"levelo://app?vid=c0b9fd4f-e181-46ce-b0bf-f5119973334f"},"vehicle_type_id":"4","last_reported":1747229008,"current_range_meters":19200,"station_id":"","pricing_plan_id":"cebpf4jnsgd1na2vs0mg"},{"bike_id":"3fae8334-a9d0-4ed3-aa20-0276813b60f6","system_id":"levelo_inurba_marseille","lat":43.26826,"lon":5.38477,"is_reserved":false,"is_disabled":true,"rental_uris":{"android":"levelo://app?vid=3fae8334-a9d0-4ed3-aa20-0276813b60f6","ios":"levelo://app?vid=3fae8334-a9d0-4ed3-aa20-0276813b60f6"},"vehicle_type_id":"4","last_reported":1747229008,"current_range_meters":0,"station_id":"","pricing_plan_id":"cebpf4jnsgd1na2vs0mg"},{"bike_id":"fc2577e7-1497-425b-9d4f-ab8d7dc843c6","system_id":"levelo_inurba_marseille","lat":43.33771,"lon":5.37485,"is_reserved":false,"is_disabled":true,"rental_uris":{"android":"levelo://app?vid=fc2577e7-1497-425b-9d4f-ab8d7dc843c6","ios":"levelo://app?vid=fc2577e7-1497-425b-9d4f-ab8d7dc843c6"},"vehicle_type_id":"4","last_reported":1747229008,"current_range_meters":0,"station_id":"","pricing_plan_id":"cebpf4jnsgd1na2vs0mg"},{"bike_id":"bce6dd6c-5f15-4ae5-8f21-e71db397b253","system_id":"levelo_inurba_marseille","lat":43.305465,"lon":5.365433,"is_reserved":false,"is_disabled":true,"rental_uris":{"android":"levelo://app?vid=bce6dd6c-5f15-4ae5-8f21-e71db397b253","ios":"levelo://app?vid=bce6dd6c-5f15-4ae5-8f21-e71db397b253"},"vehicle_type_id":"4","last_reported":1747229008,"current_range_meters":0,"station_id":"","pricing_plan_id":"cebpf4jnsgd1na2vs0mg"},{"bike_id":"6347b4a4-5dba-428e-b8ac-9084a2f0a08b","system_id":"levelo_inurba_marseille","lat":43.30765,"lon":5.37238,"is_reserved":false,"is_disabled":true,"rental_uris":{"android":"levelo://app?vid=6347b4a4-5dba-428e-b8ac-9084a2f0a08b","ios":"levelo://app?vid=6347b4a4-5dba-428e-b8ac-9084a2f0a08b"},"vehicle_type_id":"4","last_reported":1747229008,"current_range_meters":0,"station_id":"","pricing_plan_id":"cebpf4jnsgd1na2vs0mg"},{"bike_id":"0fedde00-40eb-40d2-8fc2-e61ecce46b7b","system_id":"levelo_inurba_marseille","lat":43.28303,"lon":5.43237,"is_reserved":false,"is_disabled":true,"rental_uris":{"android":"levelo://app?vid=0fedde00-40eb-40d2-8fc2-e61ecce46b7b","ios":"levelo://app?vid=0fedde00-40eb-40d2-8fc2-e61ecce46b7b"},"vehicle_type_id":"4","last_reported":1747229008,"current_range_meters":0,"station_id":"","pricing_plan_id":"cebpf4jnsgd1na2vs0mg"},{"bike_id":"16e98c4e-da7f-4160-a41d-37f546e0efaa","system_id":"levelo_inurba_marseille","lat":43.29669,"lon":5.36187,"is_reserved":false,"is_disabled":true,"rental_uris":{"android":"levelo://app?vid=16e98c4e-da7f-4160-a41d-37f546e0efaa","ios":"levelo://app?vid=16e98c4e-da7f-4160-a41d-37f546e0efaa"},"vehicle_type_id":"4","last_reported":1747229008,"current_range_meters":0,"station_id":"","pricing_plan_id":"cebpf4jnsgd1na2vs0mg"},{"bike_id":"792567c6-0442-4011-aff0-9c05e25deb48","system_id":"levelo_inurba_marseille","lat":43.28071,"lon":5.44168,"is_reserved":false,"is_disabled":true,"rental_uris":{"android":"levelo://app?vid=792567c6-0442-4011-aff0-9c05e25deb48","ios":"levelo://app?vid=792567c6-0442-4011-aff0-9c05e25deb48"},"vehicle_type_id":"4","last_reported":1747229008,"current_range_meters":0,"station_id":"","pricing_plan_id":"cebpf4jnsgd1na2vs0mg"},{"bike_id":"508aac16-cad6-4241-9e9f-800c1a369a9e","system_id":"levelo_inurba_marseille","lat":43.337444,"lon":5.374475,"is_reserved":false,"is_disabled":true,"rental_uris":{"android":"levelo://app?vid=508aac16-cad6-4241-9e9f-800c1a369a9e","ios":"levelo://app?vid=508aac16-cad6-4241-9e9f-800c1a369a9e"},"vehicle_type_id":"4","last_reported":1747229008,"current_range_meters":0,"station_id":"","pricing_plan_id":"cebpf4jnsgd1na2vs0mg"},{"bike_id":"f0a49a95-3732-41af-9316-4c7a479b49b8","system_id":"levelo_inurba_marseille","lat":43.29377,"lon":5.37837,"is_reserved":false,"is_disabled":true,"rental_uris":{"android":"levelo://app?vid=f0a49a95-3732-41af-9316-4c7a479b49b8","ios":"levelo://app?vid=f0a49a95-3732-41af-9316-4c7a479b49b8"},"vehicle_type_id":"4","last_reported":1747229008,"current_range_meters":0,"station_id":"ce4bgjh2rcd13ifvqbf0","pricing_plan_id":"cebpf4jnsgd1na2vs0mg"},{"bike_id":"177c7af2-6223-4cdb-834a-639d12cc9917","system_id":"levelo_inurba_marseille","lat":43.31329,"lon":5.39692,"is_reserved":false,"is_disabled":true,"rental_uris":{"android":"levelo://app?vid=177c7af2-6223-4cdb-834a-639d12cc9917","ios":"levelo://app?vid=177c7af2-6223-4cdb-834a-639d12cc9917"},"vehicle_type_id":"4","last_reported":1747229008,"current_range_meters":0,"station_id":"ce4bgvp2rcd13ifvqcu0","pricing_plan_id":"cebpf4jnsgd1na2vs0mg"},{"bike_id":"747b9b26-81a3-4050-9e25-5d1c77a3ec45","system_id":"levelo_inurba_marseille","lat":43.29869,"lon":5.39726,"is_reserved":false,"is_disabled":true,"rental_uris":{"android":"levelo://app?vid=747b9b26-81a3-4050-9e25-5d1c77a3ec45","ios":"levelo://app?vid=747b9b26-81a3-4050-9e25-5d1c77a3ec45"},"vehicle_type_id":"4","last_reported":1747229008,"current_range_meters":0,"station_id":"ce4bh0h2rcd13ifvqd50","pricing_plan_id":"cebpf4jnsgd1na2vs0mg"},{"bike_id":"c8bf2846-f8d3-4ce9-9df7-605182febd75","system_id":"levelo_inurba_marseille","lat":43.2901,"lon":5.35625,"is_reserved":false,"is_disabled":true,"rental_uris":{"android":"levelo://app?vid=c8bf2846-f8d3-4ce9-9df7-605182febd75","ios":"levelo://app?vid=c8bf2846-f8d3-4ce9-9df7-605182febd75"},"vehicle_type_id":"4","last_reported":1747229008,"current_range_meters":0,"station_id":"ce4bhb92rcd13ifvqen0","pricing_plan_id":"cebpf4jnsgd1na2vs0mg"},{"bike_id":"db38499b-8902-4f44-94c1-28b83ec37988","system_id":"levelo_inurba_marseille","lat":43.28422,"lon":5.349842,"is_reserved":false,"is_disabled":true,"rental_uris":{"android":"levelo://app?vid=db38499b-8902-4f44-94c1-28b83ec37988","ios":"levelo://app?vid=db38499b-8902-4f44-94c1-28b83ec37988"},"vehicle_type_id":"4","last_reported":1747229008,"current_range_meters":0,"station_id":"ce4bhbh2rcd13ifvqepg","pricing_plan_id":"cebpf4jnsgd1na2vs0mg"},{"bike_id":"56b96fda-1e00-4926-b4b0-b4a75d574bc0","system_id":"levelo_inurba_marseille","lat":43.283569,"lon":5.350208,"is_reserved":false,"is_disabled":true,"rental_uris":{"android":"levelo://app?vid=56b96fda-1e00-4926-b4b0-b4a75d574bc0","ios":"levelo://app?vid=56b96fda-1e00-4926-b4b0-b4a75d574bc0"},"vehicle_type_id":"4","last_reported":1747229008,"current_range_meters":0,"station_id":"ce4bhbp2rcd13ifvqerg","pricing_plan_id":"cebpf4jnsgd1na2vs0mg"},{"bike_id":"f3fd69d4-efb4-47cf-98ad-2a450a9fc845","system_id":"levelo_inurba_marseille","lat":43.2794,"lon":5.3871,"is_reserved":false,"is_disabled":true,"rental_uris":{"android":"levelo://app?vid=f3fd69d4-efb4-47cf-98ad-2a450a9fc845","ios":"levelo://app?vid=f3fd69d4-efb4-47cf-98ad-2a450a9fc845"},"vehicle_type_id":"4","last_reported":1747229008,"current_range_meters":0,"station_id":"ce4bhg12rcd13ifvqf80","pricing_plan_id":"cebpf4jnsgd1na2vs0mg"},{"bike_id":"1bd120ab-991a-4293-bb2f-ced1d0b0de2c","system_id":"levelo_inurba_marseille","lat":43.26033,"lon":5.37547,"is_reserved":false,"is_disabled":true,"rental_uris":{"android":"levelo://app?vid=1bd120ab-991a-4293-bb2f-ced1d0b0de2c","ios":"levelo://app?vid=1bd120ab-991a-4293-bb2f-ced1d0b0de2c"},"vehicle_type_id":"4","last_reported":1747229008,"current_range_meters":0,"station_id":"ce4bhgh2rcd13ifvqfa0","pricing_plan_id":"cebpf4jnsgd1na2vs0mg"},{"bike_id":"dd5afc4c-eda4-4bab-8439-649d9a2e7b12","system_id":"levelo_inurba_marseille","lat":43.24672,"lon":5.38163,"is_reserved":false,"is_disabled":true,"rental_uris":{"android":"levelo://app?vid=dd5afc4c-eda4-4bab-8439-649d9a2e7b12","ios":"levelo://app?vid=dd5afc4c-eda4-4bab-8439-649d9a2e7b12"},"vehicle_type_id":"4","last_reported":1747229008,"current_range_meters":0,"station_id":"ce4bhih2rcd13ifvqfr0","pricing_plan_id":"cebpf4jnsgd1na2vs0mg"},{"bike_id":"38f8894c-49bd-4722-a892-cadada920c9a","system_id":"levelo_inurba_marseille","lat":43.2465,"lon":5.38176,"is_reserved":false,"is_disabled":true,"rental_uris":{"android":"levelo://app?vid=38f8894c-49bd-4722-a892-cadada920c9a","ios":"levelo://app?vid=38f8894c-49bd-4722-a892-cadada920c9a"},"vehicle_type_id":"4","last_reported":1747229008,"current_range_meters":0,"station_id":"ce4bhih2rcd13ifvqfr0","pricing_plan_id":"cebpf4jnsgd1na2vs0mg"},{"bike_id":"51126e49-ee95-4ad1-b661-8d5d30d59a54","system_id":"levelo_inurba_marseille","lat":43.2455,"lon":5.395247,"is_reserved":false,"is_disabled":true,"rental_uris":{"android":"levelo://app?vid=51126e49-ee95-4ad1-b661-8d5d30d59a54","ios":"levelo://app?vid=51126e49-ee95-4ad1-b661-8d5d30d59a54"},"vehicle_type_id":"4","last_reported":1747229008,"current_range_meters":0,"station_id":"ce4bhlp2rcd13ifvqgjg","pricing_plan_id":"cebpf4jnsgd1na2vs0mg"},{"bike_id":"7d648bb7-ab7e-409a-add7-d4a17f03de12","system_id":"levelo_inurba_marseille","lat":43.23161,"lon":5.43707,"is_reserved":false,"is_disabled":true,"rental_uris":{"android":"levelo://app?vid=7d648bb7-ab7e-409a-add7-d4a17f03de12","ios":"levelo://app?vid=7d648bb7-ab7e-409a-add7-d4a17f03de12"},"vehicle_type_id":"4","last_reported":1747229008,"current_range_meters":0,"station_id":"ce4bhmp2rcd13ifvqgog","pricing_plan_id":"cebpf4jnsgd1na2vs0mg"},{"bike_id":"42c08b64-4a79-44a8-ab3a-2d88c81ccd1c","system_id":"levelo_inurba_marseille","lat":43.24187,"lon":5.39717,"is_reserved":false,"is_disabled":true,"rental_uris":{"android":"levelo://app?vid=42c08b64-4a79-44a8-ab3a-2d88c81ccd1c","ios":"levelo://app?vid=42c08b64-4a79-44a8-ab3a-2d88c81ccd1c"},"vehicle_type_id":"4","last_reported":1747229008,"current_range_meters":0,"station_id":"ce4bhn12rcd13ifvqgpg","pricing_plan_id":"cebpf4jnsgd1na2vs0mg"},{"bike_id":"c221aa29-1dc1-4606-b072-b00f186718e2","system_id":"levelo_inurba_marseille","lat":43.24182,"lon":5.39727,"is_reserved":false,"is_disabled":true,"rental_uris":{"android":"levelo://app?vid=c221aa29-1dc1-4606-b072-b00f186718e2","ios":"levelo://app?vid=c221aa29-1dc1-4606-b072-b00f186718e2"},"vehicle_type_id":"4","last_reported":1747229008,"current_range_meters":0,"station_id":"ce4bhn12rcd13ifvqgpg","pricing_plan_id":"cebpf4jnsgd1na2vs0mg"},{"bike_id":"b888f7f8-4b39-4d74-94cd-1eb33d886fec","system_id":"levelo_inurba_marseille","lat":43.2408,"lon":5.37788,"is_reserved":false,"is_disabled":true,"rental_uris":{"android":"levelo://app?vid=b888f7f8-4b39-4d74-94cd-1eb33d886fec","ios":"levelo://app?vid=b888f7f8-4b39-4d74-94cd-1eb33d886fec"},"vehicle_type_id":"4","last_reported":1747229008,"current_range_meters":0,"station_id":"ce4bhnp2rcd13ifvqgvg","pricing_plan_id":"cebpf4jnsgd1na2vs0mg"},{"bike_id":"0369cb03-431e-43dd-a7d8-59867b32f763","system_id":"levelo_inurba_marseille","lat":43.24079,"lon":5.37758,"is_reserved":false,"is_disabled":true,"rental_uris":{"android":"levelo://app?vid=0369cb03-431e-43dd-a7d8-59867b32f763","ios":"levelo://app?vid=0369cb03-431e-43dd-a7d8-59867b32f763"},"vehicle_type_id":"4","last_reported":1747229008,"current_range_meters":0,"station_id":"ce4bhnp2rcd13ifvqgvg","pricing_plan_id":"cebpf4jnsgd1na2vs0mg"},{"bike_id":"97854dde-f062-4862-9117-fc2c99e80cfa","system_id":"levelo_inurba_marseille","lat":43.27941,"lon":5.41037,"is_reserved":false,"is_disabled":true,"rental_uris":{"android":"levelo://app?vid=97854dde-f062-4862-9117-fc2c99e80cfa","ios":"levelo://app?vid=97854dde-f062-4862-9117-fc2c99e80cfa"},"vehicle_type_id":"4","last_reported":1747229008,"current_range_meters":0,"station_id":"ce4bhnp2rcd13ifvqh0g","pricing_plan_id":"cebpf4jnsgd1na2vs0mg"},{"bike_id":"c3bd47c1-a96b-4fd7-92c8-ca87441c8d4f","system_id":"levelo_inurba_marseille","lat":43.32982,"lon":5.39036,"is_reserved":false,"is_disabled":true,"rental_uris":{"android":"levelo://app?vid=c3bd47c1-a96b-4fd7-92c8-ca87441c8d4f","ios":"levelo://app?vid=c3bd47c1-a96b-4fd7-92c8-ca87441c8d4f"},"vehicle_type_id":"4","last_reported":1747229008,"current_range_meters":0,"station_id":"ce4bhr92rcd13ifvqhrg","pricing_plan_id":"cebpf4jnsgd1na2vs0mg"},{"bike_id":"45e24bd4-3817-4dbc-9031-58182e1f11e3","system_id":"levelo_inurba_marseille","lat":43.314913,"lon":5.373053,"is_reserved":false,"is_disabled":true,"rental_uris":{"android":"levelo://app?vid=45e24bd4-3817-4dbc-9031-58182e1f11e3","ios":"levelo://app?vid=45e24bd4-3817-4dbc-9031-58182e1f11e3"},"vehicle_type_id":"4","last_reported":1747229008,"current_range_meters":400,"station_id":"ce4bgt12rcd13ifvqcd0","pricing_plan_id":"cebpf4jnsgd1na2vs0mg"},{"bike_id":"e876153d-33aa-423d-8b5f-ca18240901ac","system_id":"levelo_inurba_marseille","lat":43.30887,"lon":5.39655,"is_reserved":false,"is_disabled":true,"rental_uris":{"android":"levelo://app?vid=e876153d-33aa-423d-8b5f-ca18240901ac","ios":"levelo://app?vid=e876153d-33aa-423d-8b5f-ca18240901ac"},"vehicle_type_id":"4","last_reported":1747229008,"current_range_meters":400,"station_id":"ce4bh012rcd13ifvqcv0","pricing_plan_id":"cebpf4jnsgd1na2vs0mg"},{"bike_id":"2b5752d3-fffb-467b-9ae7-86a7cea05ab1","system_id":"levelo_inurba_marseille","lat":43.29417,"lon":5.38622,"is_reserved":false,"is_disabled":true,"rental_uris":{"android":"levelo://app?vid=2b5752d3-fffb-467b-9ae7-86a7cea05ab1","ios":"levelo://app?vid=2b5752d3-fffb-467b-9ae7-86a7cea05ab1"},"vehicle_type_id":"4","last_reported":1747229008,"current_range_meters":800,"station_id":"ce4bh2h2rcd13ifvqdh0","pricing_plan_id":"cebpf4jnsgd1na2vs0mg"},{"bike_id":"a0488bdd-6c92-48e5-9406-f214bc24df9b","system_id":"levelo_inurba_marseille","lat":43.290055,"lon":5.356192,"is_reserved":false,"is_disabled":true,"rental_uris":{"android":"levelo://app?vid=a0488bdd-6c92-48e5-9406-f214bc24df9b","ios":"levelo://app?vid=a0488bdd-6c92-48e5-9406-f214bc24df9b"},"vehicle_type_id":"4","last_reported":1747229008,"current_range_meters":800,"station_id":"ce4bhb92rcd13ifvqen0","pricing_plan_id":"cebpf4jnsgd1na2vs0mg"},{"bike_id":"8f41c9be-8ba2-412b-a997-1284eb17cc72","system_id":"levelo_inurba_marseille","lat":43.288955,"lon":5.357822,"is_reserved":false,"is_disabled":true,"rental_uris":{"android":"levelo://app?vid=8f41c9be-8ba2-412b-a997-1284eb17cc72","ios":"levelo://app?vid=8f41c9be-8ba2-412b-a997-1284eb17cc72"},"vehicle_type_id":"4","last_reported":1747229008,"current_range_meters":800,"station_id":"ce4bhbh2rcd13ifvqepg","pricing_plan_id":"cebpf4jnsgd1na2vs0mg"},{"bike_id":"06af2ae3-9c85-488d-9cf8-f0c29c4b01c7","system_id":"levelo_inurba_marseille","lat":43.24083,"lon":5.37761,"is_reserved":false,"is_disabled":true,"rental_uris":{"android":"levelo://app?vid=06af2ae3-9c85-488d-9cf8-f0c29c4b01c7","ios":"levelo://app?vid=06af2ae3-9c85-488d-9cf8-f0c29c4b01c7"},"vehicle_type_id":"4","last_reported":1747229008,"current_range_meters":800,"station_id":"ce4bhnp2rcd13ifvqgvg","pricing_plan_id":"cebpf4jnsgd1na2vs0mg"},{"bike_id":"15cd4811-8703-488a-aa5d-b820b7ef7855","system_id":"levelo_inurba_marseille","lat":43.27997,"lon":5.40014,"is_reserved":false,"is_disabled":true,"rental_uris":{"android":"levelo://app?vid=15cd4811-8703-488a-aa5d-b820b7ef7855","ios":"levelo://app?vid=15cd4811-8703-488a-aa5d-b820b7ef7855"},"vehicle_type_id":"4","last_reported":1747229008,"current_range_meters":800,"station_id":"ce4bho92rcd13ifvqh4g","pricing_plan_id":"cebpf4jnsgd1na2vs0mg"},{"bike_id":"247c06e8-f51e-4606-bbf6-5b9e69c22d67","system_id":"levelo_inurba_marseille","lat":43.2885,"lon":5.39305,"is_reserved":false,"is_disabled":true,"rental_uris":{"android":"levelo://app?vid=247c06e8-f51e-4606-bbf6-5b9e69c22d67","ios":"levelo://app?vid=247c06e8-f51e-4606-bbf6-5b9e69c22d67"},"vehicle_type_id":"4","last_reported":1747229008,"current_range_meters":1200,"station_id":"ce4bh2p2rcd13ifvqdi0","pricing_plan_id":"cebpf4jnsgd1na2vs0mg"},{"bike_id":"94523846-cc23-41a3-bec2-c16b9924389c","system_id":"levelo_inurba_marseille","lat":43.29005,"lon":5.35606,"is_reserved":false,"is_disabled":true,"rental_uris":{"android":"levelo://app?vid=94523846-cc23-41a3-bec2-c16b9924389c","ios":"levelo://app?vid=94523846-cc23-41a3-bec2-c16b9924389c"},"vehicle_type_id":"4","last_reported":1747229008,"current_range_meters":1200,"station_id":"ce4bhb92rcd13ifvqen0","pricing_plan_id":"cebpf4jnsgd1na2vs0mg"},{"bike_id":"2b34012d-c6d3-4a2c-9a90-6747abedfd1d","system_id":"levelo_inurba_marseille","lat":43.265583,"lon":5.3728,"is_reserved":false,"is_disabled":true,"rental_uris":{"android":"levelo://app?vid=2b34012d-c6d3-4a2c-9a90-6747abedfd1d","ios":"levelo://app?vid=2b34012d-c6d3-4a2c-9a90-6747abedfd1d"},"vehicle_type_id":"4","last_reported":1747229008,"current_range_meters":1200,"station_id":"ce4bhg12rcd13ifvqf70","pricing_plan_id":"cebpf4jnsgd1na2vs0mg"},{"bike_id":"d18edaf7-6be4-4d90-9ec1-326c2ce1b436","system_id":"levelo_inurba_marseille","lat":43.270657,"lon":5.42275,"is_reserved":false,"is_disabled":true,"rental_uris":{"android":"levelo://app?vid=d18edaf7-6be4-4d90-9ec1-326c2ce1b436","ios":"levelo://app?vid=d18edaf7-6be4-4d90-9ec1-326c2ce1b436"},"vehicle_type_id":"4","last_reported":1747229008,"current_range_meters":1200,"station_id":"ce4bhk92rcd13ifvqgb0","pricing_plan_id":"cebpf4jnsgd1na2vs0mg"},{"bike_id":"b971afa3-79a3-4e91-a7db-b0ba33dbf77a","system_id":"levelo_inurba_marseille","lat":43.30907,"lon":5.36842,"is_reserved":false,"is_disabled":true,"rental_uris":{"android":"levelo://app?vid=b971afa3-79a3-4e91-a7db-b0ba33dbf77a","ios":"levelo://app?vid=b971afa3-79a3-4e91-a7db-b0ba33dbf77a"},"vehicle_type_id":"4","last_reported":1747229008,"current_range_meters":1600,"station_id":"ce4bgn92rcd13ifvqbvg","pricing_plan_id":"cebpf4jnsgd1na2vs0mg"},{"bike_id":"bfefbbdd-26f8-4d2d-b1b8-b5f98128077d","system_id":"levelo_inurba_marseille","lat":43.2942,"lon":5.3863,"is_reserved":false,"is_disabled":true,"rental_uris":{"android":"levelo://app?vid=bfefbbdd-26f8-4d2d-b1b8-b5f98128077d","ios":"levelo://app?vid=bfefbbdd-26f8-4d2d-b1b8-b5f98128077d"},"vehicle_type_id":"4","last_reported":1747229008,"current_range_meters":2000,"station_id":"ce4bh2h2rcd13ifvqdh0","pricing_plan_id":"cebpf4jnsgd1na2vs0mg"},{"bike_id":"c035103b-5a06-4109-ab53-d59e108e51a0","system_id":"levelo_inurba_marseille","lat":43.284327,"lon":5.374982,"is_reserved":false,"is_disabled":true,"rental_uris":{"android":"levelo://app?vid=c035103b-5a06-4109-ab53-d59e108e51a0","ios":"levelo://app?vid=c035103b-5a06-4109-ab53-d59e108e51a0"},"vehicle_type_id":"4","last_reported":1747229008,"current_range_meters":2000,"station_id":"ce4bh412rcd13ifvqds0","pricing_plan_id":"cebpf4jnsgd1na2vs0mg"},{"bike_id":"a87e42b4-afd7-427d-8926-7e3ac047ef29","system_id":"levelo_inurba_marseille","lat":43.29199,"lon":5.35804,"is_reserved":false,"is_disabled":true,"rental_uris":{"android":"levelo://app?vid=a87e42b4-afd7-427d-8926-7e3ac047ef29","ios":"levelo://app?vid=a87e42b4-afd7-427d-8926-7e3ac047ef29"},"vehicle_type_id":"4","last_reported":1747229008,"current_range_meters":2000,"station_id":"ce4bhb12rcd13ifvqel0","pricing_plan_id":"cebpf4jnsgd1na2vs0mg"},{"bike_id":"a2d4ea75-c49f-4ff9-b305-f027ee87e375","system_id":"levelo_inurba_marseille","lat":43.24397,"lon":5.37047,"is_reserved":false,"is_disabled":true,"rental_uris":{"android":"levelo://app?vid=a2d4ea75-c49f-4ff9-b305-f027ee87e375","ios":"levelo://app?vid=a2d4ea75-c49f-4ff9-b305-f027ee87e375"},"vehicle_type_id":"4","last_reported":1747229008,"current_range_meters":2000,"station_id":"ce4bhhh2rcd13ifvqfk0","pricing_plan_id":"cebpf4jnsgd1na2vs0mg"},{"bike_id":"e76a9c43-f0e7-403f-8cf6-3be6673b4e0b","system_id":"levelo_inurba_marseille","lat":43.2509,"lon":5.39515,"is_reserved":false,"is_disabled":true,"rental_uris":{"android":"levelo://app?vid=e76a9c43-f0e7-403f-8cf6-3be6673b4e0b","ios":"levelo://app?vid=e76a9c43-f0e7-403f-8cf6-3be6673b4e0b"},"vehicle_type_id":"4","last_reported":1747229008,"current_range_meters":2000,"station_id":"ce4bhm12rcd13ifvqgkg","pricing_plan_id":"cebpf4jnsgd1na2vs0mg"},{"bike_id":"3258aabf-e93b-4fd4-ab99-b09fdcd4f532","system_id":"levelo_inurba_marseille","lat":43.29282,"lon":5.36847,"is_reserved":false,"is_disabled":false,"rental_uris":{"android":"levelo://app?vid=3258aabf-e93b-4fd4-ab99-b09fdcd4f532","ios":"levelo://app?vid=3258aabf-e93b-4fd4-ab99-b09fdcd4f532"},"vehicle_type_id":"4","last_reported":1747229008,"current_range_meters":2800,"station_id":"ce4bhbp2rcd13ifvqesg","pricing_plan_id":"cebpf4jnsgd1na2vs0mg"},{"bike_id":"57ddeb2b-38aa-457b-9ea6-1c47cf7c50f9","system_id":"levelo_inurba_marseille","lat":43.28845,"lon":5.38265,"is_reserved":false,"is_disabled":false,"rental_uris":{"android":"levelo://app?vid=57ddeb2b-38aa-457b-9ea6-1c47cf7c50f9","ios":"levelo://app?vid=57ddeb2b-38aa-457b-9ea6-1c47cf7c50f9"},"vehicle_type_id":"4","last_reported":1747229008,"current_range_meters":3200,"station_id":"","pricing_plan_id":"cebpf4jnsgd1na2vs0mg"},{"bike_id":"2b03c32b-cc60-40f7-bc55-905566c7cfb0","system_id":"levelo_inurba_marseille","lat":43.31523,"lon":5.37292,"is_reserved":false,"is_disabled":false,"rental_uris":{"android":"levelo://app?vid=2b03c32b-cc60-40f7-bc55-905566c7cfb0","ios":"levelo://app?vid=2b03c32b-cc60-40f7-bc55-905566c7cfb0"},"vehicle_type_id":"4","last_reported":1747229008,"current_range_meters":3200,"station_id":"ce4bgt12rcd13ifvqcd0","pricing_plan_id":"cebpf4jnsgd1na2vs0mg"},{"bike_id":"ab606039-2f93-4559-9df5-5411572fd0b9","system_id":"levelo_inurba_marseille","lat":43.25498,"lon":5.37647,"is_reserved":false,"is_disabled":false,"rental_uris":{"android":"levelo://app?vid=ab606039-2f93-4559-9df5-5411572fd0b9","ios":"levelo://app?vid=ab606039-2f93-4559-9df5-5411572fd0b9"},"vehicle_type_id":"4","last_reported":1747229008,"current_range_meters":3600,"station_id":"ce4bhh12rcd13ifvqff0","pricing_plan_id":"cebpf4jnsgd1na2vs0mg"},{"bike_id":"19fc2f8c-ea22-42ec-af91-af4030e0c429","system_id":"levelo_inurba_marseille","lat":43.23144,"lon":5.43716,"is_reserved":false,"is_disabled":false,"rental_uris":{"android":"levelo://app?vid=19fc2f8c-ea22-42ec-af91-af4030e0c429","ios":"levelo://app?vid=19fc2f8c-ea22-42ec-af91-af4030e0c429"},"vehicle_type_id":"4","last_reported":1747229008,"current_range_meters":3600,"station_id":"ce4bhmp2rcd13ifvqgog","pricing_plan_id":"cebpf4jnsgd1na2vs0mg"},{"bike_id":"67a567a4-02f6-4765-8edd-b50f62329482","system_id":"levelo_inurba_marseille","lat":43.30154,"lon":5.37422,"is_reserved":false,"is_disabled":false,"rental_uris":{"android":"levelo://app?vid=67a567a4-02f6-4765-8edd-b50f62329482","ios":"levelo://app?vid=67a567a4-02f6-4765-8edd-b50f62329482"},"vehicle_type_id":"4","last_reported":1747229008,"current_range_meters":4000,"station_id":"ce4bgs92rcd13ifvqcc0","pricing_plan_id":"cebpf4jnsgd1na2vs0mg"},{"bike_id":"a051d70c-2377-4d90-800b-c2f187b206cb","system_id":"levelo_inurba_marseille","lat":43.2928,"lon":5.36839,"is_reserved":false,"is_disabled":false,"rental_uris":{"android":"levelo://app?vid=a051d70c-2377-4d90-800b-c2f187b206cb","ios":"levelo://app?vid=a051d70c-2377-4d90-800b-c2f187b206cb"},"vehicle_type_id":"4","last_reported":1747229008,"current_range_meters":4000,"station_id":"ce4bhbp2rcd13ifvqesg","pricing_plan_id":"cebpf4jnsgd1na2vs0mg"},{"bike_id":"09677921-190c-4f88-90bc-02c85fa251ac","system_id":"levelo_inurba_marseille","lat":43.29025,"lon":5.38645,"is_reserved":false,"is_disabled":false,"rental_uris":{"android":"levelo://app?vid=09677921-190c-4f88-90bc-02c85fa251ac","ios":"levelo://app?vid=09677921-190c-4f88-90bc-02c85fa251ac"},"vehicle_type_id":"4","last_reported":1747229008,"current_range_meters":4400,"station_id":"ce4bh4p2rcd13ifvqe0g","pricing_plan_id":"cebpf4jnsgd1na2vs0mg"},{"bike_id":"98e76218-e7bb-4934-83a9-6bc2ed07afd7","system_id":"levelo_inurba_marseille","lat":43.28615,"lon":5.35108,"is_reserved":false,"is_disabled":false,"rental_uris":{"android":"levelo://app?vid=98e76218-e7bb-4934-83a9-6bc2ed07afd7","ios":"levelo://app?vid=98e76218-e7bb-4934-83a9-6bc2ed07afd7"},"vehicle_type_id":"4","last_reported":1747229008,"current_range_meters":4400,"station_id":"ce4bhch2rcd13ifvqeug","pricing_plan_id":"cebpf4jnsgd1na2vs0mg"},{"bike_id":"a0c329d9-983c-46df-8418-51236113916b","system_id":"levelo_inurba_marseille","lat":43.28618,"lon":5.35101,"is_reserved":false,"is_disabled":false,"rental_uris":{"android":"levelo://app?vid=a0c329d9-983c-46df-8418-51236113916b","ios":"levelo://app?vid=a0c329d9-983c-46df-8418-51236113916b"},"vehicle_type_id":"4","last_reported":1747229008,"current_range_meters":4400,"station_id":"ce4bhch2rcd13ifvqeug","pricing_plan_id":"cebpf4jnsgd1na2vs0mg"},{"bike_id":"3909c733-c2d4-4df4-aba1-1c12a723fd60","system_id":"levelo_inurba_marseille","lat":43.26035,"lon":5.3755,"is_reserved":false,"is_disabled":false,"rental_uris":{"android":"levelo://app?vid=3909c733-c2d4-4df4-aba1-1c12a723fd60","ios":"levelo://app?vid=3909c733-c2d4-4df4-aba1-1c12a723fd60"},"vehicle_type_id":"4","last_reported":1747229008,"current_range_meters":4400,"station_id":"ce4bhgh2rcd13ifvqfa0","pricing_plan_id":"cebpf4jnsgd1na2vs0mg"},{"bike_id":"7d659a94-5e57-42b8-952a-c3403ac394fe","system_id":"levelo_inurba_marseille","lat":43.25499,"lon":5.3765,"is_reserved":false,"is_disabled":false,"rental_uris":{"android":"levelo://app?vid=7d659a94-5e57-42b8-952a-c3403ac394fe","ios":"levelo://app?vid=7d659a94-5e57-42b8-952a-c3403ac394fe"},"vehicle_type_id":"4","last_reported":1747229008,"current_range_meters":4400,"station_id":"ce4bhh12rcd13ifvqff0","pricing_plan_id":"cebpf4jnsgd1na2vs0mg"},{"bike_id":"e42e17e5-d574-40b9-811b-e914acd6632f","system_id":"levelo_inurba_marseille","lat":43.23057,"lon":5.35498,"is_reserved":false,"is_disabled":false,"rental_uris":{"android":"levelo://app?vid=e42e17e5-d574-40b9-811b-e914acd6632f","ios":"levelo://app?vid=e42e17e5-d574-40b9-811b-e914acd6632f"},"vehicle_type_id":"4","last_reported":1747229008,"current_range_meters":4400,"station_id":"cpo3342slgdg3j2ifvpg","pricing_plan_id":"cebpf4jnsgd1na2vs0mg"},{"bike_id":"b4f0ad8c-c745-4e34-84d7-29fc6ad67df3","system_id":"levelo_inurba_marseille","lat":43.30195,"lon":5.36619,"is_reserved":false,"is_disabled":false,"rental_uris":{"android":"levelo://app?vid=b4f0ad8c-c745-4e34-84d7-29fc6ad67df3","ios":"levelo://app?vid=b4f0ad8c-c745-4e34-84d7-29fc6ad67df3"},"vehicle_type_id":"4","last_reported":1747229008,"current_range_meters":4800,"station_id":"ce4bgrh2rcd13ifvqc8g","pricing_plan_id":"cebpf4jnsgd1na2vs0mg"},{"bike_id":"5aba40c2-8545-49d4-8508-c21b7bd4ce21","system_id":"levelo_inurba_marseille","lat":43.29635,"lon":5.40599,"is_reserved":false,"is_disabled":false,"rental_uris":{"android":"levelo://app?vid=5aba40c2-8545-49d4-8508-c21b7bd4ce21","ios":"levelo://app?vid=5aba40c2-8545-49d4-8508-c21b7bd4ce21"},"vehicle_type_id":"4","last_reported":1747229008,"current_range_meters":4800,"station_id":"ce4bh0h2rcd13ifvqd60","pricing_plan_id":"cebpf4jnsgd1na2vs0mg"},{"bike_id":"379d28d0-d55f-4348-8c40-e127c223867f","system_id":"levelo_inurba_marseille","lat":43.29075,"lon":5.37161,"is_reserved":false,"is_disabled":true,"rental_uris":{"android":"levelo://app?vid=379d28d0-d55f-4348-8c40-e127c223867f","ios":"levelo://app?vid=379d28d0-d55f-4348-8c40-e127c223867f"},"vehicle_type_id":"4","last_reported":1747229008,"current_range_meters":4800,"station_id":"ce4bh5p2rcd13ifvqe4g","pricing_plan_id":"cebpf4jnsgd1na2vs0mg"},{"bike_id":"9047bd70-f5d9-45e5-a1ac-0900d0e1623b","system_id":"levelo_inurba_marseille","lat":43.2927,"lon":5.38455,"is_reserved":false,"is_disabled":false,"rental_uris":{"android":"levelo://app?vid=9047bd70-f5d9-45e5-a1ac-0900d0e1623b","ios":"levelo://app?vid=9047bd70-f5d9-45e5-a1ac-0900d0e1623b"},"vehicle_type_id":"4","last_reported":1747229008,"current_range_meters":4800,"station_id":"ce4bh692rcd13ifvqea0","pricing_plan_id":"cebpf4jnsgd1na2vs0mg"},{"bike_id":"abd2d0e7-30e8-4558-96d2-368c8d24e524","system_id":"levelo_inurba_marseille","lat":43.296,"lon":5.38107,"is_reserved":false,"is_disabled":false,"rental_uris":{"android":"levelo://app?vid=abd2d0e7-30e8-4558-96d2-368c8d24e524","ios":"levelo://app?vid=abd2d0e7-30e8-4558-96d2-368c8d24e524"},"vehicle_type_id":"4","last_reported":1747229008,"current_range_meters":5600,"station_id":"ce4bgl12rcd13ifvqbo0","pricing_plan_id":"cebpf4jnsgd1na2vs0mg"},{"bike_id":"088cb9a3-1cd7-4147-8d15-c569f31fdbd1","system_id":"levelo_inurba_marseille","lat":43.29881,"lon":5.38914,"is_reserved":false,"is_disabled":false,"rental_uris":{"android":"levelo://app?vid=088cb9a3-1cd7-4147-8d15-c569f31fdbd1","ios":"levelo://app?vid=088cb9a3-1cd7-4147-8d15-c569f31fdbd1"},"vehicle_type_id":"4","last_reported":1747229008,"current_range_meters":6000,"station_id":"ce4bh392rcd13ifvqdl0","pricing_plan_id":"cebpf4jnsgd1na2vs0mg"},{"bike_id":"22314cb5-11f2-4604-a5a5-9d4d7504b3d9","system_id":"levelo_inurba_marseille","lat":43.23165,"lon":5.4371,"is_reserved":false,"is_disabled":false,"rental_uris":{"android":"levelo://app?vid=22314cb5-11f2-4604-a5a5-9d4d7504b3d9","ios":"levelo://app?vid=22314cb5-11f2-4604-a5a5-9d4d7504b3d9"},"vehicle_type_id":"4","last_reported":1747229008,"current_range_meters":6000,"station_id":"ce4bhmp2rcd13ifvqgog","pricing_plan_id":"cebpf4jnsgd1na2vs0mg"},{"bike_id":"bd52e1e0-642a-47ed-a4fe-a3c29efb5932","system_id":"levelo_inurba_marseille","lat":43.2175,"lon":5.34604,"is_reserved":false,"is_disabled":false,"rental_uris":{"android":"levelo://app?vid=bd52e1e0-642a-47ed-a4fe-a3c29efb5932","ios":"levelo://app?vid=bd52e1e0-642a-47ed-a4fe-a3c29efb5932"},"vehicle_type_id":"4","last_reported":1747229008,"current_range_meters":6000,"station_id":"st_cvj6r9ubvosntc0bgbag","pricing_plan_id":"cebpf4jnsgd1na2vs0mg"},{"bike_id":"ce4325af-2448-4172-bdec-81d552ee0b62","system_id":"levelo_inurba_marseille","lat":43.26183,"lon":5.42018,"is_reserved":false,"is_disabled":false,"rental_uris":{"android":"levelo://app?vid=ce4325af-2448-4172-bdec-81d552ee0b62","ios":"levelo://app?vid=ce4325af-2448-4172-bdec-81d552ee0b62"},"vehicle_type_id":"4","last_reported":1747229008,"current_range_meters":6400,"station_id":"","pricing_plan_id":"cebpf4jnsgd1na2vs0mg"},{"bike_id":"42c75913-066a-4caa-b631-46d5b313b37c","system_id":"levelo_inurba_marseille","lat":43.2958,"lon":5.36739,"is_reserved":false,"is_disabled":false,"rental_uris":{"android":"levelo://app?vid=42c75913-066a-4caa-b631-46d5b313b37c","ios":"levelo://app?vid=42c75913-066a-4caa-b631-46d5b313b37c"},"vehicle_type_id":"4","last_reported":1747229008,"current_range_meters":6400,"station_id":"ce4bgph2rcd13ifvqc2g","pricing_plan_id":"cebpf4jnsgd1na2vs0mg"},{"bike_id":"91ec453e-4b86-48c2-940e-6a9d67d81d13","system_id":"levelo_inurba_marseille","lat":43.23966,"lon":5.36644,"is_reserved":false,"is_disabled":false,"rental_uris":{"android":"levelo://app?vid=91ec453e-4b86-48c2-940e-6a9d67d81d13","ios":"levelo://app?vid=91ec453e-4b86-48c2-940e-6a9d67d81d13"},"vehicle_type_id":"4","last_reported":1747229008,"current_range_meters":6400,"station_id":"ce4bhi12rcd13ifvqfp0","pricing_plan_id":"cebpf4jnsgd1na2vs0mg"},{"bike_id":"56bea2d5-1851-4bc0-b9ec-2abbd891bd8c","system_id":"levelo_inurba_marseille","lat":43.24161,"lon":5.36404,"is_reserved":false,"is_disabled":false,"rental_uris":{"android":"levelo://app?vid=56bea2d5-1851-4bc0-b9ec-2abbd891bd8c","ios":"levelo://app?vid=56bea2d5-1851-4bc0-b9ec-2abbd891bd8c"},"vehicle_type_id":"4","last_reported":1747229008,"current_range_meters":6400,"station_id":"cpo36qri1sfpv3e86is0","pricing_plan_id":"cebpf4jnsgd1na2vs0mg"},{"bike_id":"3b763487-9989-4bfd-963d-7d6731a25421","system_id":"levelo_inurba_marseille","lat":43.305448,"lon":5.366893,"is_reserved":false,"is_disabled":false,"rental_uris":{"android":"levelo://app?vid=3b763487-9989-4bfd-963d-7d6731a25421","ios":"levelo://app?vid=3b763487-9989-4bfd-963d-7d6731a25421"},"vehicle_type_id":"4","last_reported":1747229008,"current_range_meters":6800,"station_id":"ce4bgrp2rcd13ifvqc9g","pricing_plan_id":"cebpf4jnsgd1na2vs0mg"},{"bike_id":"743dd6ab-c4e1-408b-9474-c6f2c1432b8c","system_id":"levelo_inurba_marseille","lat":43.30523,"lon":5.36534,"is_reserved":false,"is_disabled":false,"rental_uris":{"android":"levelo://app?vid=743dd6ab-c4e1-408b-9474-c6f2c1432b8c","ios":"levelo://app?vid=743dd6ab-c4e1-408b-9474-c6f2c1432b8c"},"vehicle_type_id":"4","last_reported":1747229008,"current_range_meters":6800,"station_id":"ce4bgs12rcd13ifvqcag","pricing_plan_id":"cebpf4jnsgd1na2vs0mg"},{"bike_id":"134a89ce-f753-43dc-889c-6928be5ff929","system_id":"levelo_inurba_marseille","lat":43.25867,"lon":5.39894,"is_reserved":false,"is_disabled":false,"rental_uris":{"android":"levelo://app?vid=134a89ce-f753-43dc-889c-6928be5ff929","ios":"levelo://app?vid=134a89ce-f753-43dc-889c-6928be5ff929"},"vehicle_type_id":"4","last_reported":1747229008,"current_range_meters":6800,"station_id":"ce4bhl92rcd13ifvqghg","pricing_plan_id":"cebpf4jnsgd1na2vs0mg"},{"bike_id":"cf77ecea-ae96-45a1-95ab-6a75b51383e0","system_id":"levelo_inurba_marseille","lat":43.245112,"lon":5.395471,"is_reserved":false,"is_disabled":false,"rental_uris":{"android":"levelo://app?vid=cf77ecea-ae96-45a1-95ab-6a75b51383e0","ios":"levelo://app?vid=cf77ecea-ae96-45a1-95ab-6a75b51383e0"},"vehicle_type_id":"4","last_reported":1747229008,"current_range_meters":6800,"station_id":"ce4bhlp2rcd13ifvqgjg","pricing_plan_id":"cebpf4jnsgd1na2vs0mg"},{"bike_id":"93cbfbfc-6591-4301-8eed-9baad3765e77","system_id":"levelo_inurba_marseille","lat":43.304057,"lon":5.41093,"is_reserved":false,"is_disabled":false,"rental_uris":{"android":"levelo://app?vid=93cbfbfc-6591-4301-8eed-9baad3765e77","ios":"levelo://app?vid=93cbfbfc-6591-4301-8eed-9baad3765e77"},"vehicle_type_id":"4","last_reported":1747229008,"current_range_meters":6800,"station_id":"ce4bhop2rcd13ifvqh8g","pricing_plan_id":"cebpf4jnsgd1na2vs0mg"},{"bike_id":"c0e3712f-33bb-466a-9906-8f7372f57966","system_id":"levelo_inurba_marseille","lat":43.31761,"lon":5.39017,"is_reserved":false,"is_disabled":false,"rental_uris":{"android":"levelo://app?vid=c0e3712f-33bb-466a-9906-8f7372f57966","ios":"levelo://app?vid=c0e3712f-33bb-466a-9906-8f7372f57966"},"vehicle_type_id":"4","last_reported":1747229008,"current_range_meters":6800,"station_id":"ce4bhqp2rcd13ifvqhng","pricing_plan_id":"cebpf4jnsgd1na2vs0mg"},{"bike_id":"5de1e8df-cec1-47cf-b554-41f6e726d337","system_id":"levelo_inurba_marseille","lat":43.27417,"lon":5.40611,"is_reserved":false,"is_disabled":false,"rental_uris":{"android":"levelo://app?vid=5de1e8df-cec1-47cf-b554-41f6e726d337","ios":"levelo://app?vid=5de1e8df-cec1-47cf-b554-41f6e726d337"},"vehicle_type_id":"4","last_reported":1747229008,"current_range_meters":7200,"station_id":"","pricing_plan_id":"cebpf4jnsgd1na2vs0mg"},{"bike_id":"367b852d-7d5a-459c-a4fd-b7302e74b50f","system_id":"levelo_inurba_marseille","lat":43.26555,"lon":5.37287,"is_reserved":false,"is_disabled":false,"rental_uris":{"android":"levelo://app?vid=367b852d-7d5a-459c-a4fd-b7302e74b50f","ios":"levelo://app?vid=367b852d-7d5a-459c-a4fd-b7302e74b50f"},"vehicle_type_id":"4","last_reported":1747229008,"current_range_meters":7200,"station_id":"ce4bhg12rcd13ifvqf70","pricing_plan_id":"cebpf4jnsgd1na2vs0mg"},{"bike_id":"198ae4a1-8e7f-4d16-af7e-2f5d78ab2403","system_id":"levelo_inurba_marseille","lat":43.250122,"lon":5.389481,"is_reserved":false,"is_disabled":false,"rental_uris":{"android":"levelo://app?vid=198ae4a1-8e7f-4d16-af7e-2f5d78ab2403","ios":"levelo://app?vid=198ae4a1-8e7f-4d16-af7e-2f5d78ab2403"},"vehicle_type_id":"4","last_reported":1747229008,"current_range_meters":7200,"station_id":"ce4bhgp2rcd13ifvqfd0","pricing_plan_id":"cebpf4jnsgd1na2vs0mg"},{"bike_id":"6393e2c6-933e-4b66-a767-c66a3857ec0a","system_id":"levelo_inurba_marseille","lat":43.30357,"lon":5.41877,"is_reserved":false,"is_disabled":false,"rental_uris":{"android":"levelo://app?vid=6393e2c6-933e-4b66-a767-c66a3857ec0a","ios":"levelo://app?vid=6393e2c6-933e-4b66-a767-c66a3857ec0a"},"vehicle_type_id":"4","last_reported":1747229008,"current_range_meters":7200,"station_id":"ce4bhop2rcd13ifvqh7g","pricing_plan_id":"cebpf4jnsgd1na2vs0mg"},{"bike_id":"6aab7bff-643c-4885-b812-839ddc3e34c7","system_id":"levelo_inurba_marseille","lat":43.30797,"lon":5.37649,"is_reserved":false,"is_disabled":false,"rental_uris":{"android":"levelo://app?vid=6aab7bff-643c-4885-b812-839ddc3e34c7","ios":"levelo://app?vid=6aab7bff-643c-4885-b812-839ddc3e34c7"},"vehicle_type_id":"4","last_reported":1747229008,"current_range_meters":8000,"station_id":"ce4bgv92rcd13ifvqcq0","pricing_plan_id":"cebpf4jnsgd1na2vs0mg"},{"bike_id":"bac7b9ad-3b05-4080-b536-c5c280bb0d70","system_id":"levelo_inurba_marseille","lat":43.29202,"lon":5.35798,"is_reserved":false,"is_disabled":false,"rental_uris":{"android":"levelo://app?vid=bac7b9ad-3b05-4080-b536-c5c280bb0d70","ios":"levelo://app?vid=bac7b9ad-3b05-4080-b536-c5c280bb0d70"},"vehicle_type_id":"4","last_reported":1747229008,"current_range_meters":8000,"station_id":"ce4bhb12rcd13ifvqel0","pricing_plan_id":"cebpf4jnsgd1na2vs0mg"},{"bike_id":"7f18d2a1-bc13-4e6c-a1f1-f9b52c903651","system_id":"levelo_inurba_marseille","lat":43.27317,"lon":5.39073,"is_reserved":false,"is_disabled":false,"rental_uris":{"android":"levelo://app?vid=7f18d2a1-bc13-4e6c-a1f1-f9b52c903651","ios":"levelo://app?vid=7f18d2a1-bc13-4e6c-a1f1-f9b52c903651"},"vehicle_type_id":"4","last_reported":1747229008,"current_range_meters":8000,"station_id":"ce4bhgp2rcd13ifvqfe0","pricing_plan_id":"cebpf4jnsgd1na2vs0mg"},{"bike_id":"f37b7848-b34f-4203-8cd6-ee4ac88ff930","system_id":"levelo_inurba_marseille","lat":43.23956,"lon":5.36627,"is_reserved":false,"is_disabled":false,"rental_uris":{"android":"levelo://app?vid=f37b7848-b34f-4203-8cd6-ee4ac88ff930","ios":"levelo://app?vid=f37b7848-b34f-4203-8cd6-ee4ac88ff930"},"vehicle_type_id":"4","last_reported":1747229008,"current_range_meters":8000,"station_id":"ce4bhi12rcd13ifvqfp0","pricing_plan_id":"cebpf4jnsgd1na2vs0mg"},{"bike_id":"bf9a4507-0806-4935-903f-73e55376c212","system_id":"levelo_inurba_marseille","lat":43.30906,"lon":5.37283,"is_reserved":false,"is_disabled":false,"rental_uris":{"android":"levelo://app?vid=bf9a4507-0806-4935-903f-73e55376c212","ios":"levelo://app?vid=bf9a4507-0806-4935-903f-73e55376c212"},"vehicle_type_id":"4","last_reported":1747229008,"current_range_meters":8400,"station_id":"","pricing_plan_id":"cebpf4jnsgd1na2vs0mg"},{"bike_id":"decf4eb4-71d8-4583-ab06-e3fcdcd52b82","system_id":"levelo_inurba_marseille","lat":43.29363,"lon":5.37818,"is_reserved":false,"is_disabled":false,"rental_uris":{"android":"levelo://app?vid=decf4eb4-71d8-4583-ab06-e3fcdcd52b82","ios":"levelo://app?vid=decf4eb4-71d8-4583-ab06-e3fcdcd52b82"},"vehicle_type_id":"4","last_reported":1747229008,"current_range_meters":8400,"station_id":"ce4bgjh2rcd13ifvqbf0","pricing_plan_id":"cebpf4jnsgd1na2vs0mg"},{"bike_id":"75576a8f-9d63-4bf9-830f-2391eba1c9d2","system_id":"levelo_inurba_marseille","lat":43.31112,"lon":5.37781,"is_reserved":false,"is_disabled":false,"rental_uris":{"android":"levelo://app?vid=75576a8f-9d63-4bf9-830f-2391eba1c9d2","ios":"levelo://app?vid=75576a8f-9d63-4bf9-830f-2391eba1c9d2"},"vehicle_type_id":"4","last_reported":1747229008,"current_range_meters":8400,"station_id":"ce4bgt92rcd13ifvqcg0","pricing_plan_id":"cebpf4jnsgd1na2vs0mg"},{"bike_id":"09da7d3a-84fd-4bd6-ba3d-2fe582dd2688","system_id":"levelo_inurba_marseille","lat":43.246527,"lon":5.38888,"is_reserved":false,"is_disabled":false,"rental_uris":{"android":"levelo://app?vid=09da7d3a-84fd-4bd6-ba3d-2fe582dd2688","ios":"levelo://app?vid=09da7d3a-84fd-4bd6-ba3d-2fe582dd2688"},"vehicle_type_id":"4","last_reported":1747229008,"current_range_meters":8400,"station_id":"ce4bhg12rcd13ifvqf60","pricing_plan_id":"cebpf4jnsgd1na2vs0mg"},{"bike_id":"e722aa06-3d09-44a2-adbd-d9bfca2fdbf8","system_id":"levelo_inurba_marseille","lat":43.26556,"lon":5.37284,"is_reserved":false,"is_disabled":false,"rental_uris":{"android":"levelo://app?vid=e722aa06-3d09-44a2-adbd-d9bfca2fdbf8","ios":"levelo://app?vid=e722aa06-3d09-44a2-adbd-d9bfca2fdbf8"},"vehicle_type_id":"4","last_reported":1747229008,"current_range_meters":8800,"station_id":"ce4bhg12rcd13ifvqf70","pricing_plan_id":"cebpf4jnsgd1na2vs0mg"},{"bike_id":"6ec4bb85-84ec-4027-b206-4e608baac030","system_id":"levelo_inurba_marseille","lat":43.280757,"lon":5.39652,"is_reserved":false,"is_disabled":false,"rental_uris":{"android":"levelo://app?vid=6ec4bb85-84ec-4027-b206-4e608baac030","ios":"levelo://app?vid=6ec4bb85-84ec-4027-b206-4e608baac030"},"vehicle_type_id":"4","last_reported":1747229008,"current_range_meters":8800,"station_id":"ce4bho12rcd13ifvqh2g","pricing_plan_id":"cebpf4jnsgd1na2vs0mg"},{"bike_id":"59af256a-7624-40fc-aea1-4d80b2b595fc","system_id":"levelo_inurba_marseille","lat":43.31099,"lon":5.40062,"is_reserved":false,"is_disabled":false,"rental_uris":{"android":"levelo://app?vid=59af256a-7624-40fc-aea1-4d80b2b595fc","ios":"levelo://app?vid=59af256a-7624-40fc-aea1-4d80b2b595fc"},"vehicle_type_id":"4","last_reported":1747229008,"current_range_meters":9200,"station_id":"","pricing_plan_id":"cebpf4jnsgd1na2vs0mg"},{"bike_id":"6c5e2750-bf55-4812-bb81-a9df60873a61","system_id":"levelo_inurba_marseille","lat":43.29639,"lon":5.36185,"is_reserved":false,"is_disabled":false,"rental_uris":{"android":"levelo://app?vid=6c5e2750-bf55-4812-bb81-a9df60873a61","ios":"levelo://app?vid=6c5e2750-bf55-4812-bb81-a9df60873a61"},"vehicle_type_id":"4","last_reported":1747229008,"current_range_meters":9200,"station_id":"","pricing_plan_id":"cebpf4jnsgd1na2vs0mg"},{"bike_id":"1f8dc911-40cf-4891-a3dd-b30f24c9fa87","system_id":"levelo_inurba_marseille","lat":43.23204,"lon":5.43737,"is_reserved":false,"is_disabled":false,"rental_uris":{"android":"levelo://app?vid=1f8dc911-40cf-4891-a3dd-b30f24c9fa87","ios":"levelo://app?vid=1f8dc911-40cf-4891-a3dd-b30f24c9fa87"},"vehicle_type_id":"4","last_reported":1747229008,"current_range_meters":9200,"station_id":"","pricing_plan_id":"cebpf4jnsgd1na2vs0mg"},{"bike_id":"ef5b0bf1-0684-4968-a602-c7c1b71ba552","system_id":"levelo_inurba_marseille","lat":43.31366,"lon":5.38485,"is_reserved":false,"is_disabled":false,"rental_uris":{"android":"levelo://app?vid=ef5b0bf1-0684-4968-a602-c7c1b71ba552","ios":"levelo://app?vid=ef5b0bf1-0684-4968-a602-c7c1b71ba552"},"vehicle_type_id":"4","last_reported":1747229008,"current_range_meters":9200,"station_id":"ce4bgt92rcd13ifvqcf0","pricing_plan_id":"cebpf4jnsgd1na2vs0mg"},{"bike_id":"4cc64465-6c97-4dba-9dd4-f3c8ed30da99","system_id":"levelo_inurba_marseille","lat":43.27374,"lon":5.36258,"is_reserved":false,"is_disabled":false,"rental_uris":{"android":"levelo://app?vid=4cc64465-6c97-4dba-9dd4-f3c8ed30da99","ios":"levelo://app?vid=4cc64465-6c97-4dba-9dd4-f3c8ed30da99"},"vehicle_type_id":"4","last_reported":1747229008,"current_range_meters":9200,"station_id":"ce4bhbh2rcd13ifvqeo0","pricing_plan_id":"cebpf4jnsgd1na2vs0mg"},{"bike_id":"fbaba51b-749c-4fa9-a769-89a077dbcbea","system_id":"levelo_inurba_marseille","lat":43.270766,"lon":5.422781,"is_reserved":false,"is_disabled":false,"rental_uris":{"android":"levelo://app?vid=fbaba51b-749c-4fa9-a769-89a077dbcbea","ios":"levelo://app?vid=fbaba51b-749c-4fa9-a769-89a077dbcbea"},"vehicle_type_id":"4","last_reported":1747229008,"current_range_meters":9200,"station_id":"ce4bhk92rcd13ifvqgb0","pricing_plan_id":"cebpf4jnsgd1na2vs0mg"},{"bike_id":"df01bf56-fa20-408c-a8ef-c07192a995ae","system_id":"levelo_inurba_marseille","lat":43.23156,"lon":5.43724,"is_reserved":false,"is_disabled":false,"rental_uris":{"android":"levelo://app?vid=df01bf56-fa20-408c-a8ef-c07192a995ae","ios":"levelo://app?vid=df01bf56-fa20-408c-a8ef-c07192a995ae"},"vehicle_type_id":"4","last_reported":1747229008,"current_range_meters":9200,"station_id":"ce4bhmp2rcd13ifvqgog","pricing_plan_id":"cebpf4jnsgd1na2vs0mg"},{"bike_id":"e6ae43cc-bfd1-4764-9a04-fdcacfe6e804","system_id":"levelo_inurba_marseille","lat":43.325338,"lon":5.414362,"is_reserved":false,"is_disabled":false,"rental_uris":{"android":"levelo://app?vid=e6ae43cc-bfd1-4764-9a04-fdcacfe6e804","ios":"levelo://app?vid=e6ae43cc-bfd1-4764-9a04-fdcacfe6e804"},"vehicle_type_id":"4","last_reported":1747229008,"current_range_meters":9200,"station_id":"ce4bhq12rcd13ifvqhhg","pricing_plan_id":"cebpf4jnsgd1na2vs0mg"},{"bike_id":"d559a899-b1bd-4a71-a12e-4458bcd0cdbf","system_id":"levelo_inurba_marseille","lat":43.2306,"lon":5.35496,"is_reserved":false,"is_disabled":false,"rental_uris":{"android":"levelo://app?vid=d559a899-b1bd-4a71-a12e-4458bcd0cdbf","ios":"levelo://app?vid=d559a899-b1bd-4a71-a12e-4458bcd0cdbf"},"vehicle_type_id":"4","last_reported":1747229008,"current_range_meters":9600,"station_id":"cpo3342slgdg3j2ifvpg","pricing_plan_id":"cebpf4jnsgd1na2vs0mg"},{"bike_id":"2d9c08c0-bf40-45c9-b1a8-d15c183a79bf","system_id":"levelo_inurba_marseille","lat":43.24179,"lon":5.39729,"is_reserved":false,"is_disabled":false,"rental_uris":{"android":"levelo://app?vid=2d9c08c0-bf40-45c9-b1a8-d15c183a79bf","ios":"levelo://app?vid=2d9c08c0-bf40-45c9-b1a8-d15c183a79bf"},"vehicle_type_id":"4","last_reported":1747229008,"current_range_meters":10000,"station_id":"ce4bhn12rcd13ifvqgpg","pricing_plan_id":"cebpf4jnsgd1na2vs0mg"},{"bike_id":"8ff063c0-9caf-47e3-9d22-ee46d7491a86","system_id":"levelo_inurba_marseille","lat":43.27938,"lon":5.41052,"is_reserved":false,"is_disabled":false,"rental_uris":{"android":"levelo://app?vid=8ff063c0-9caf-47e3-9d22-ee46d7491a86","ios":"levelo://app?vid=8ff063c0-9caf-47e3-9d22-ee46d7491a86"},"vehicle_type_id":"4","last_reported":1747229008,"current_range_meters":10000,"station_id":"ce4bhnp2rcd13ifvqh0g","pricing_plan_id":"cebpf4jnsgd1na2vs0mg"},{"bike_id":"3faf053c-e846-4d83-83ee-8fd51efc38bb","system_id":"levelo_inurba_marseille","lat":43.321097,"lon":5.367657,"is_reserved":false,"is_disabled":false,"rental_uris":{"android":"levelo://app?vid=3faf053c-e846-4d83-83ee-8fd51efc38bb","ios":"levelo://app?vid=3faf053c-e846-4d83-83ee-8fd51efc38bb"},"vehicle_type_id":"4","last_reported":1747229008,"current_range_meters":10000,"station_id":"ce4bhrh2rcd13ifvqhug","pricing_plan_id":"cebpf4jnsgd1na2vs0mg"},{"bike_id":"3e2545e8-4b1a-413c-8c69-6ace6a43b265","system_id":"levelo_inurba_marseille","lat":43.23203,"lon":5.39939,"is_reserved":false,"is_disabled":false,"rental_uris":{"android":"levelo://app?vid=3e2545e8-4b1a-413c-8c69-6ace6a43b265","ios":"levelo://app?vid=3e2545e8-4b1a-413c-8c69-6ace6a43b265"},"vehicle_type_id":"4","last_reported":1747229008,"current_range_meters":10800,"station_id":"","pricing_plan_id":"cebpf4jnsgd1na2vs0mg"},{"bike_id":"5d38b368-e8c2-426d-a1b4-3b80c3fe947c","system_id":"levelo_inurba_marseille","lat":43.28704,"lon":5.39995,"is_reserved":false,"is_disabled":false,"rental_uris":{"android":"levelo://app?vid=5d38b368-e8c2-426d-a1b4-3b80c3fe947c","ios":"levelo://app?vid=5d38b368-e8c2-426d-a1b4-3b80c3fe947c"},"vehicle_type_id":"4","last_reported":1747229008,"current_range_meters":10800,"station_id":"ce4bho92rcd13ifvqh3g","pricing_plan_id":"cebpf4jnsgd1na2vs0mg"},{"bike_id":"ac2d63e1-97f3-4ec1-b8b7-f1be48b399e7","system_id":"levelo_inurba_marseille","lat":43.31227,"lon":5.36884,"is_reserved":false,"is_disabled":false,"rental_uris":{"android":"levelo://app?vid=ac2d63e1-97f3-4ec1-b8b7-f1be48b399e7","ios":"levelo://app?vid=ac2d63e1-97f3-4ec1-b8b7-f1be48b399e7"},"vehicle_type_id":"4","last_reported":1747229008,"current_range_meters":11200,"station_id":"ce4bgl92rcd13ifvqbq0","pricing_plan_id":"cebpf4jnsgd1na2vs0mg"},{"bike_id":"940b3909-b6f0-4f89-adfd-175725c0aab3","system_id":"levelo_inurba_marseille","lat":43.2596,"lon":5.40883,"is_reserved":false,"is_disabled":false,"rental_uris":{"android":"levelo://app?vid=940b3909-b6f0-4f89-adfd-175725c0aab3","ios":"levelo://app?vid=940b3909-b6f0-4f89-adfd-175725c0aab3"},"vehicle_type_id":"4","last_reported":1747229008,"current_range_meters":11200,"station_id":"ce4bhm92rcd13ifvqglg","pricing_plan_id":"cebpf4jnsgd1na2vs0mg"},{"bike_id":"45cd3168-9d91-47df-b3a8-3a2e83ff8fd8","system_id":"levelo_inurba_marseille","lat":43.23155,"lon":5.43704,"is_reserved":false,"is_disabled":false,"rental_uris":{"android":"levelo://app?vid=45cd3168-9d91-47df-b3a8-3a2e83ff8fd8","ios":"levelo://app?vid=45cd3168-9d91-47df-b3a8-3a2e83ff8fd8"},"vehicle_type_id":"4","last_reported":1747229008,"current_range_meters":11200,"station_id":"ce4bhmp2rcd13ifvqgog","pricing_plan_id":"cebpf4jnsgd1na2vs0mg"},{"bike_id":"f6e26417-3a0d-48ce-b9e1-c4ad9fc09c21","system_id":"levelo_inurba_marseille","lat":43.33722,"lon":5.39191,"is_reserved":false,"is_disabled":false,"rental_uris":{"android":"levelo://app?vid=f6e26417-3a0d-48ce-b9e1-c4ad9fc09c21","ios":"levelo://app?vid=f6e26417-3a0d-48ce-b9e1-c4ad9fc09c21"},"vehicle_type_id":"4","last_reported":1747229008,"current_range_meters":11200,"station_id":"ce4bhr92rcd13ifvqhsg","pricing_plan_id":"cebpf4jnsgd1na2vs0mg"},{"bike_id":"c7ffd9d8-e432-4311-81a2-ac376f211393","system_id":"levelo_inurba_marseille","lat":43.2695,"lon":5.40262,"is_reserved":false,"is_disabled":false,"rental_uris":{"android":"levelo://app?vid=c7ffd9d8-e432-4311-81a2-ac376f211393","ios":"levelo://app?vid=c7ffd9d8-e432-4311-81a2-ac376f211393"},"vehicle_type_id":"4","last_reported":1747229008,"current_range_meters":11200,"station_id":"cjm6bp8fraef2m0cb0m0","pricing_plan_id":"cebpf4jnsgd1na2vs0mg"},{"bike_id":"388201aa-71aa-422e-9076-11533a906ac3","system_id":"levelo_inurba_marseille","lat":43.27206,"lon":5.39187,"is_reserved":false,"is_disabled":false,"rental_uris":{"android":"levelo://app?vid=388201aa-71aa-422e-9076-11533a906ac3","ios":"levelo://app?vid=388201aa-71aa-422e-9076-11533a906ac3"},"vehicle_type_id":"4","last_reported":1747229008,"current_range_meters":11600,"station_id":"ce4bhhp2rcd13ifvqfm0","pricing_plan_id":"cebpf4jnsgd1na2vs0mg"},{"bike_id":"8f9c3147-ea48-42c0-8b59-f0e5d4a42769","system_id":"levelo_inurba_marseille","lat":43.25125,"lon":5.40322,"is_reserved":false,"is_disabled":false,"rental_uris":{"android":"levelo://app?vid=8f9c3147-ea48-42c0-8b59-f0e5d4a42769","ios":"levelo://app?vid=8f9c3147-ea48-42c0-8b59-f0e5d4a42769"},"vehicle_type_id":"4","last_reported":1747229008,"current_range_meters":11600,"station_id":"ce4bhlh2rcd13ifvqgig","pricing_plan_id":"cebpf4jnsgd1na2vs0mg"},{"bike_id":"bcbff71b-0ea3-4cad-a316-476cba6cddf3","system_id":"levelo_inurba_marseille","lat":43.325227,"lon":5.409523,"is_reserved":false,"is_disabled":false,"rental_uris":{"android":"levelo://app?vid=bcbff71b-0ea3-4cad-a316-476cba6cddf3","ios":"levelo://app?vid=bcbff71b-0ea3-4cad-a316-476cba6cddf3"},"vehicle_type_id":"4","last_reported":1747229008,"current_range_meters":11600,"station_id":"ce4bhqh2rcd13ifvqhlg","pricing_plan_id":"cebpf4jnsgd1na2vs0mg"},{"bike_id":"39aa1628-822e-4ce2-a2a5-c0f8adefac2f","system_id":"levelo_inurba_marseille","lat":43.33727,"lon":5.3919,"is_reserved":false,"is_disabled":false,"rental_uris":{"android":"levelo://app?vid=39aa1628-822e-4ce2-a2a5-c0f8adefac2f","ios":"levelo://app?vid=39aa1628-822e-4ce2-a2a5-c0f8adefac2f"},"vehicle_type_id":"4","last_reported":1747229008,"current_range_meters":11600,"station_id":"ce4bhr92rcd13ifvqhsg","pricing_plan_id":"cebpf4jnsgd1na2vs0mg"},{"bike_id":"40115fd5-f59f-4b0c-9552-a95b14ed5e7f","system_id":"levelo_inurba_marseille","lat":43.30923,"lon":5.36895,"is_reserved":false,"is_disabled":false,"rental_uris":{"android":"levelo://app?vid=40115fd5-f59f-4b0c-9552-a95b14ed5e7f","ios":"levelo://app?vid=40115fd5-f59f-4b0c-9552-a95b14ed5e7f"},"vehicle_type_id":"4","last_reported":1747229008,"current_range_meters":12000,"station_id":"ce4bgn92rcd13ifvqbvg","pricing_plan_id":"cebpf4jnsgd1na2vs0mg"},{"bike_id":"6155aa51-0781-43aa-a5ad-8be58ee4cba1","system_id":"levelo_inurba_marseille","lat":43.26679,"lon":5.3826,"is_reserved":false,"is_disabled":false,"rental_uris":{"android":"levelo://app?vid=6155aa51-0781-43aa-a5ad-8be58ee4cba1","ios":"levelo://app?vid=6155aa51-0781-43aa-a5ad-8be58ee4cba1"},"vehicle_type_id":"4","last_reported":1747229008,"current_range_meters":12000,"station_id":"ce4bhg92rcd13ifvqf90","pricing_plan_id":"cebpf4jnsgd1na2vs0mg"},{"bike_id":"7718ffff-6747-4d52-9278-fbf1cd90f641","system_id":"levelo_inurba_marseille","lat":43.2621,"lon":5.37439,"is_reserved":false,"is_disabled":false,"rental_uris":{"android":"levelo://app?vid=7718ffff-6747-4d52-9278-fbf1cd90f641","ios":"levelo://app?vid=7718ffff-6747-4d52-9278-fbf1cd90f641"},"vehicle_type_id":"4","last_reported":1747229008,"current_range_meters":12000,"station_id":"ce4bhgp2rcd13ifvqfc0","pricing_plan_id":"cebpf4jnsgd1na2vs0mg"},{"bike_id":"8a829d03-9c9d-41b1-9a22-a533b5602cda","system_id":"levelo_inurba_marseille","lat":43.29307,"lon":5.37169,"is_reserved":false,"is_disabled":false,"rental_uris":{"android":"levelo://app?vid=8a829d03-9c9d-41b1-9a22-a533b5602cda","ios":"levelo://app?vid=8a829d03-9c9d-41b1-9a22-a533b5602cda"},"vehicle_type_id":"4","last_reported":1747229008,"current_range_meters":12400,"station_id":"","pricing_plan_id":"cebpf4jnsgd1na2vs0mg"},{"bike_id":"6be8fd10-0924-4294-89a8-d965ffad87cd","system_id":"levelo_inurba_marseille","lat":43.298599,"lon":5.397306,"is_reserved":false,"is_disabled":false,"rental_uris":{"android":"levelo://app?vid=6be8fd10-0924-4294-89a8-d965ffad87cd","ios":"levelo://app?vid=6be8fd10-0924-4294-89a8-d965ffad87cd"},"vehicle_type_id":"4","last_reported":1747229008,"current_range_meters":12400,"station_id":"ce4bh0h2rcd13ifvqd50","pricing_plan_id":"cebpf4jnsgd1na2vs0mg"},{"bike_id":"fa7eb952-5a4d-4c3a-8371-ce3eca68d8f2","system_id":"levelo_inurba_marseille","lat":43.26695,"lon":5.38263,"is_reserved":false,"is_disabled":false,"rental_uris":{"android":"levelo://app?vid=fa7eb952-5a4d-4c3a-8371-ce3eca68d8f2","ios":"levelo://app?vid=fa7eb952-5a4d-4c3a-8371-ce3eca68d8f2"},"vehicle_type_id":"4","last_reported":1747229008,"current_range_meters":12400,"station_id":"ce4bhg92rcd13ifvqf90","pricing_plan_id":"cebpf4jnsgd1na2vs0mg"},{"bike_id":"e8010cb5-1ce3-44b2-b006-74ca7e5834ce","system_id":"levelo_inurba_marseille","lat":43.23157,"lon":5.43712,"is_reserved":false,"is_disabled":false,"rental_uris":{"android":"levelo://app?vid=e8010cb5-1ce3-44b2-b006-74ca7e5834ce","ios":"levelo://app?vid=e8010cb5-1ce3-44b2-b006-74ca7e5834ce"},"vehicle_type_id":"4","last_reported":1747229008,"current_range_meters":12400,"station_id":"ce4bhmp2rcd13ifvqgog","pricing_plan_id":"cebpf4jnsgd1na2vs0mg"},{"bike_id":"790ff7b8-740f-4af6-9f14-f0470d7f37e2","system_id":"levelo_inurba_marseille","lat":43.28611,"lon":5.37058,"is_reserved":false,"is_disabled":false,"rental_uris":{"android":"levelo://app?vid=790ff7b8-740f-4af6-9f14-f0470d7f37e2","ios":"levelo://app?vid=790ff7b8-740f-4af6-9f14-f0470d7f37e2"},"vehicle_type_id":"4","last_reported":1747229008,"current_range_meters":12400,"station_id":"ce4bht12rcd13ifvqi60","pricing_plan_id":"cebpf4jnsgd1na2vs0mg"},{"bike_id":"1e297e0e-a907-489c-9a22-1dfb89bfb64f","system_id":"levelo_inurba_marseille","lat":43.29233,"lon":5.3642,"is_reserved":false,"is_disabled":false,"rental_uris":{"android":"levelo://app?vid=1e297e0e-a907-489c-9a22-1dfb89bfb64f","ios":"levelo://app?vid=1e297e0e-a907-489c-9a22-1dfb89bfb64f"},"vehicle_type_id":"4","last_reported":1747229008,"current_range_meters":12800,"station_id":"","pricing_plan_id":"cebpf4jnsgd1na2vs0mg"},{"bike_id":"1b5e4474-eefb-42f6-b5ef-fa6f9e781a48","system_id":"levelo_inurba_marseille","lat":43.29905,"lon":5.37471,"is_reserved":false,"is_disabled":false,"rental_uris":{"android":"levelo://app?vid=1b5e4474-eefb-42f6-b5ef-fa6f9e781a48","ios":"levelo://app?vid=1b5e4474-eefb-42f6-b5ef-fa6f9e781a48"},"vehicle_type_id":"4","last_reported":1747229008,"current_range_meters":12800,"station_id":"ce4bgjh2rcd13ifvqbg0","pricing_plan_id":"cebpf4jnsgd1na2vs0mg"},{"bike_id":"905e2290-2ea4-4c48-9fb6-5f5bfbea177c","system_id":"levelo_inurba_marseille","lat":43.26207,"lon":5.37931,"is_reserved":false,"is_disabled":false,"rental_uris":{"android":"levelo://app?vid=905e2290-2ea4-4c48-9fb6-5f5bfbea177c","ios":"levelo://app?vid=905e2290-2ea4-4c48-9fb6-5f5bfbea177c"},"vehicle_type_id":"4","last_reported":1747229008,"current_range_meters":12800,"station_id":"ce4bhjp2rcd13ifvqg90","pricing_plan_id":"cebpf4jnsgd1na2vs0mg"},{"bike_id":"fd622b0a-a4a2-46ba-badf-b8f1c656321c","system_id":"levelo_inurba_marseille","lat":43.27051,"lon":5.40261,"is_reserved":false,"is_disabled":false,"rental_uris":{"android":"levelo://app?vid=fd622b0a-a4a2-46ba-badf-b8f1c656321c","ios":"levelo://app?vid=fd622b0a-a4a2-46ba-badf-b8f1c656321c"},"vehicle_type_id":"4","last_reported":1747229008,"current_range_meters":12800,"station_id":"ce4bhk92rcd13ifvqgc0","pricing_plan_id":"cebpf4jnsgd1na2vs0mg"},{"bike_id":"1dffea47-932b-472d-a926-7c8a262923fb","system_id":"levelo_inurba_marseille","lat":43.25955,"lon":5.40909,"is_reserved":false,"is_disabled":false,"rental_uris":{"android":"levelo://app?vid=1dffea47-932b-472d-a926-7c8a262923fb","ios":"levelo://app?vid=1dffea47-932b-472d-a926-7c8a262923fb"},"vehicle_type_id":"4","last_reported":1747229008,"current_range_meters":12800,"station_id":"ce4bhm92rcd13ifvqglg","pricing_plan_id":"cebpf4jnsgd1na2vs0mg"},{"bike_id":"ef8b8435-5a14-4516-ac5d-8d497e1e85ba","system_id":"levelo_inurba_marseille","lat":43.25926,"lon":5.4091,"is_reserved":false,"is_disabled":false,"rental_uris":{"android":"levelo://app?vid=ef8b8435-5a14-4516-ac5d-8d497e1e85ba","ios":"levelo://app?vid=ef8b8435-5a14-4516-ac5d-8d497e1e85ba"},"vehicle_type_id":"4","last_reported":1747229008,"current_range_meters":12800,"station_id":"ce4bhm92rcd13ifvqglg","pricing_plan_id":"cebpf4jnsgd1na2vs0mg"},{"bike_id":"6c54c676-e24f-4e38-8639-6f64a518d41b","system_id":"levelo_inurba_marseille","lat":43.2841,"lon":5.37497,"is_reserved":false,"is_disabled":false,"rental_uris":{"android":"levelo://app?vid=6c54c676-e24f-4e38-8639-6f64a518d41b","ios":"levelo://app?vid=6c54c676-e24f-4e38-8639-6f64a518d41b"},"vehicle_type_id":"4","last_reported":1747229008,"current_range_meters":13600,"station_id":"ce4bh412rcd13ifvqds0","pricing_plan_id":"cebpf4jnsgd1na2vs0mg"},{"bike_id":"4b9e106d-a4cd-4b43-b97a-ca269dedd597","system_id":"levelo_inurba_marseille","lat":43.255043,"lon":5.376513,"is_reserved":false,"is_disabled":false,"rental_uris":{"android":"levelo://app?vid=4b9e106d-a4cd-4b43-b97a-ca269dedd597","ios":"levelo://app?vid=4b9e106d-a4cd-4b43-b97a-ca269dedd597"},"vehicle_type_id":"4","last_reported":1747229008,"current_range_meters":13600,"station_id":"ce4bhh12rcd13ifvqff0","pricing_plan_id":"cebpf4jnsgd1na2vs0mg"},{"bike_id":"c8a113fc-3c48-44df-866d-b4837de84715","system_id":"levelo_inurba_marseille","lat":43.28003,"lon":5.4001,"is_reserved":false,"is_disabled":false,"rental_uris":{"android":"levelo://app?vid=c8a113fc-3c48-44df-866d-b4837de84715","ios":"levelo://app?vid=c8a113fc-3c48-44df-866d-b4837de84715"},"vehicle_type_id":"4","last_reported":1747229008,"current_range_meters":13600,"station_id":"ce4bho92rcd13ifvqh4g","pricing_plan_id":"cebpf4jnsgd1na2vs0mg"},{"bike_id":"29da195a-23e3-480c-b01e-b147eecbc0a4","system_id":"levelo_inurba_marseille","lat":43.27371,"lon":5.36253,"is_reserved":false,"is_disabled":false,"rental_uris":{"android":"levelo://app?vid=29da195a-23e3-480c-b01e-b147eecbc0a4","ios":"levelo://app?vid=29da195a-23e3-480c-b01e-b147eecbc0a4"},"vehicle_type_id":"4","last_reported":1747229008,"current_range_meters":14000,"station_id":"ce4bhbh2rcd13ifvqeo0","pricing_plan_id":"cebpf4jnsgd1na2vs0mg"},{"bike_id":"2c490b09-9ed4-4246-ac43-a1e4d478d526","system_id":"levelo_inurba_marseille","lat":43.26057,"lon":5.39395,"is_reserved":false,"is_disabled":false,"rental_uris":{"android":"levelo://app?vid=2c490b09-9ed4-4246-ac43-a1e4d478d526","ios":"levelo://app?vid=2c490b09-9ed4-4246-ac43-a1e4d478d526"},"vehicle_type_id":"4","last_reported":1747229008,"current_range_meters":14000,"station_id":"ce4bhh92rcd13ifvqfj0","pricing_plan_id":"cebpf4jnsgd1na2vs0mg"},{"bike_id":"2a9b2fab-b301-42ee-9ed7-3ebf422d8233","system_id":"levelo_inurba_marseille","lat":43.32379,"lon":5.38875,"is_reserved":false,"is_disabled":false,"rental_uris":{"android":"levelo://app?vid=2a9b2fab-b301-42ee-9ed7-3ebf422d8233","ios":"levelo://app?vid=2a9b2fab-b301-42ee-9ed7-3ebf422d8233"},"vehicle_type_id":"4","last_reported":1747229008,"current_range_meters":14000,"station_id":"ce4bhqp2rcd13ifvqhog","pricing_plan_id":"cebpf4jnsgd1na2vs0mg"},{"bike_id":"2a07fbe5-8150-407d-939a-5ef83f9848b1","system_id":"levelo_inurba_marseille","lat":43.314875,"lon":5.37307,"is_reserved":false,"is_disabled":false,"rental_uris":{"android":"levelo://app?vid=2a07fbe5-8150-407d-939a-5ef83f9848b1","ios":"levelo://app?vid=2a07fbe5-8150-407d-939a-5ef83f9848b1"},"vehicle_type_id":"4","last_reported":1747229008,"current_range_meters":14400,"station_id":"ce4bgt12rcd13ifvqcd0","pricing_plan_id":"cebpf4jnsgd1na2vs0mg"},{"bike_id":"6830f7f6-3c98-4cc6-8c5b-f238a3af6608","system_id":"levelo_inurba_marseille","lat":43.313813,"lon":5.38507,"is_reserved":false,"is_disabled":false,"rental_uris":{"android":"levelo://app?vid=6830f7f6-3c98-4cc6-8c5b-f238a3af6608","ios":"levelo://app?vid=6830f7f6-3c98-4cc6-8c5b-f238a3af6608"},"vehicle_type_id":"4","last_reported":1747229008,"current_range_meters":14400,"station_id":"ce4bgt92rcd13ifvqcf0","pricing_plan_id":"cebpf4jnsgd1na2vs0mg"},{"bike_id":"b2268ae9-368a-4180-9ccf-c55a0264697d","system_id":"levelo_inurba_marseille","lat":43.28989,"lon":5.35593,"is_reserved":false,"is_disabled":false,"rental_uris":{"android":"levelo://app?vid=b2268ae9-368a-4180-9ccf-c55a0264697d","ios":"levelo://app?vid=b2268ae9-368a-4180-9ccf-c55a0264697d"},"vehicle_type_id":"4","last_reported":1747229008,"current_range_meters":14400,"station_id":"ce4bhb92rcd13ifvqen0","pricing_plan_id":"cebpf4jnsgd1na2vs0mg"},{"bike_id":"1feda3f1-70ba-4895-83be-f925da859e67","system_id":"levelo_inurba_marseille","lat":43.25866,"lon":5.39921,"is_reserved":false,"is_disabled":false,"rental_uris":{"android":"levelo://app?vid=1feda3f1-70ba-4895-83be-f925da859e67","ios":"levelo://app?vid=1feda3f1-70ba-4895-83be-f925da859e67"},"vehicle_type_id":"4","last_reported":1747229008,"current_range_meters":14400,"station_id":"ce4bhl92rcd13ifvqghg","pricing_plan_id":"cebpf4jnsgd1na2vs0mg"},{"bike_id":"5533707b-6b0e-4756-95e6-d9fcd5942b34","system_id":"levelo_inurba_marseille","lat":43.29005,"lon":5.35608,"is_reserved":false,"is_disabled":false,"rental_uris":{"android":"levelo://app?vid=5533707b-6b0e-4756-95e6-d9fcd5942b34","ios":"levelo://app?vid=5533707b-6b0e-4756-95e6-d9fcd5942b34"},"vehicle_type_id":"4","last_reported":1747229008,"current_range_meters":14800,"station_id":"ce4bhb92rcd13ifvqen0","pricing_plan_id":"cebpf4jnsgd1na2vs0mg"},{"bike_id":"1650302b-497b-4bbd-8c2a-9edef6b2a9c9","system_id":"levelo_inurba_marseille","lat":43.28425,"lon":5.34977,"is_reserved":false,"is_disabled":false,"rental_uris":{"android":"levelo://app?vid=1650302b-497b-4bbd-8c2a-9edef6b2a9c9","ios":"levelo://app?vid=1650302b-497b-4bbd-8c2a-9edef6b2a9c9"},"vehicle_type_id":"4","last_reported":1747229008,"current_range_meters":14800,"station_id":"ce4bhbh2rcd13ifvqepg","pricing_plan_id":"cebpf4jnsgd1na2vs0mg"},{"bike_id":"38d315c2-941e-43c0-8581-6c7da533ebf2","system_id":"levelo_inurba_marseille","lat":43.26777,"lon":5.39423,"is_reserved":false,"is_disabled":false,"rental_uris":{"android":"levelo://app?vid=38d315c2-941e-43c0-8581-6c7da533ebf2","ios":"levelo://app?vid=38d315c2-941e-43c0-8581-6c7da533ebf2"},"vehicle_type_id":"4","last_reported":1747229008,"current_range_meters":14800,"station_id":"ce4bhh12rcd13ifvqfg0","pricing_plan_id":"cebpf4jnsgd1na2vs0mg"},{"bike_id":"515c97de-e2ae-4e96-b5cf-eee0e5d4c19b","system_id":"levelo_inurba_marseille","lat":43.23062,"lon":5.3549,"is_reserved":false,"is_disabled":false,"rental_uris":{"android":"levelo://app?vid=515c97de-e2ae-4e96-b5cf-eee0e5d4c19b","ios":"levelo://app?vid=515c97de-e2ae-4e96-b5cf-eee0e5d4c19b"},"vehicle_type_id":"4","last_reported":1747229008,"current_range_meters":14800,"station_id":"cpo3342slgdg3j2ifvpg","pricing_plan_id":"cebpf4jnsgd1na2vs0mg"},{"bike_id":"7dd5407a-0116-447b-9d72-f8be81484083","system_id":"levelo_inurba_marseille","lat":43.30553,"lon":5.36547,"is_reserved":false,"is_disabled":false,"rental_uris":{"android":"levelo://app?vid=7dd5407a-0116-447b-9d72-f8be81484083","ios":"levelo://app?vid=7dd5407a-0116-447b-9d72-f8be81484083"},"vehicle_type_id":"4","last_reported":1747229008,"current_range_meters":15200,"station_id":"ce4bgs12rcd13ifvqcag","pricing_plan_id":"cebpf4jnsgd1na2vs0mg"},{"bike_id":"15128022-74fb-45da-a2ef-cdc6f77f18f5","system_id":"levelo_inurba_marseille","lat":43.30145,"lon":5.37423,"is_reserved":false,"is_disabled":false,"rental_uris":{"android":"levelo://app?vid=15128022-74fb-45da-a2ef-cdc6f77f18f5","ios":"levelo://app?vid=15128022-74fb-45da-a2ef-cdc6f77f18f5"},"vehicle_type_id":"4","last_reported":1747229008,"current_range_meters":15200,"station_id":"ce4bgs92rcd13ifvqcc0","pricing_plan_id":"cebpf4jnsgd1na2vs0mg"},{"bike_id":"6c8a3147-daa6-4a05-9d88-8b548c68ee0c","system_id":"levelo_inurba_marseille","lat":43.298804,"lon":5.389098,"is_reserved":false,"is_disabled":false,"rental_uris":{"android":"levelo://app?vid=6c8a3147-daa6-4a05-9d88-8b548c68ee0c","ios":"levelo://app?vid=6c8a3147-daa6-4a05-9d88-8b548c68ee0c"},"vehicle_type_id":"4","last_reported":1747229008,"current_range_meters":15200,"station_id":"ce4bh392rcd13ifvqdl0","pricing_plan_id":"cebpf4jnsgd1na2vs0mg"},{"bike_id":"69757105-9188-4d0d-87fa-3cb5b4a9e6c7","system_id":"levelo_inurba_marseille","lat":43.231527,"lon":5.437178,"is_reserved":false,"is_disabled":false,"rental_uris":{"android":"levelo://app?vid=69757105-9188-4d0d-87fa-3cb5b4a9e6c7","ios":"levelo://app?vid=69757105-9188-4d0d-87fa-3cb5b4a9e6c7"},"vehicle_type_id":"4","last_reported":1747229008,"current_range_meters":15200,"station_id":"ce4bhmp2rcd13ifvqgog","pricing_plan_id":"cebpf4jnsgd1na2vs0mg"},{"bike_id":"7353fb17-84ff-4001-b0eb-77f7c02cefdb","system_id":"levelo_inurba_marseille","lat":43.31068,"lon":5.38353,"is_reserved":false,"is_disabled":false,"rental_uris":{"android":"levelo://app?vid=7353fb17-84ff-4001-b0eb-77f7c02cefdb","ios":"levelo://app?vid=7353fb17-84ff-4001-b0eb-77f7c02cefdb"},"vehicle_type_id":"4","last_reported":1747229008,"current_range_meters":16000,"station_id":"ce4bgv92rcd13ifvqcr0","pricing_plan_id":"cebpf4jnsgd1na2vs0mg"},{"bike_id":"c25a4203-8f6c-43f6-8ccb-a05a3664329a","system_id":"levelo_inurba_marseille","lat":43.28027,"lon":5.36936,"is_reserved":false,"is_disabled":false,"rental_uris":{"android":"levelo://app?vid=c25a4203-8f6c-43f6-8ccb-a05a3664329a","ios":"levelo://app?vid=c25a4203-8f6c-43f6-8ccb-a05a3664329a"},"vehicle_type_id":"4","last_reported":1747229008,"current_range_meters":16400,"station_id":"ce4bha12rcd13ifvqef0","pricing_plan_id":"cebpf4jnsgd1na2vs0mg"},{"bike_id":"66cd005a-e437-47f5-a4a5-e69cbbf6cf73","system_id":"levelo_inurba_marseille","lat":43.25501,"lon":5.37648,"is_reserved":false,"is_disabled":false,"rental_uris":{"android":"levelo://app?vid=66cd005a-e437-47f5-a4a5-e69cbbf6cf73","ios":"levelo://app?vid=66cd005a-e437-47f5-a4a5-e69cbbf6cf73"},"vehicle_type_id":"4","last_reported":1747229008,"current_range_meters":16400,"station_id":"ce4bhh12rcd13ifvqff0","pricing_plan_id":"cebpf4jnsgd1na2vs0mg"},{"bike_id":"523d7554-8537-47c6-bdd2-3488212ffae1","system_id":"levelo_inurba_marseille","lat":43.23178,"lon":5.39984,"is_reserved":false,"is_disabled":false,"rental_uris":{"android":"levelo://app?vid=523d7554-8537-47c6-bdd2-3488212ffae1","ios":"levelo://app?vid=523d7554-8537-47c6-bdd2-3488212ffae1"},"vehicle_type_id":"4","last_reported":1747229008,"current_range_meters":16400,"station_id":"ce4bhn12rcd13ifvqgqg","pricing_plan_id":"cebpf4jnsgd1na2vs0mg"},{"bike_id":"dc53ac2c-033a-4bd1-9d45-c92b72b8ce0a","system_id":"levelo_inurba_marseille","lat":43.280782,"lon":5.396574,"is_reserved":false,"is_disabled":false,"rental_uris":{"android":"levelo://app?vid=dc53ac2c-033a-4bd1-9d45-c92b72b8ce0a","ios":"levelo://app?vid=dc53ac2c-033a-4bd1-9d45-c92b72b8ce0a"},"vehicle_type_id":"4","last_reported":1747229008,"current_range_meters":16400,"station_id":"ce4bho12rcd13ifvqh2g","pricing_plan_id":"cebpf4jnsgd1na2vs0mg"},{"bike_id":"1d942bfe-9c5f-4ec2-b628-6b4c07d42b6d","system_id":"levelo_inurba_marseille","lat":43.26254,"lon":5.37466,"is_reserved":false,"is_disabled":false,"rental_uris":{"android":"levelo://app?vid=1d942bfe-9c5f-4ec2-b628-6b4c07d42b6d","ios":"levelo://app?vid=1d942bfe-9c5f-4ec2-b628-6b4c07d42b6d"},"vehicle_type_id":"4","last_reported":1747229008,"current_range_meters":16800,"station_id":"","pricing_plan_id":"cebpf4jnsgd1na2vs0mg"},{"bike_id":"071bae66-a3c2-407f-a4ef-b9866a42fb1d","system_id":"levelo_inurba_marseille","lat":43.3124,"lon":5.36854,"is_reserved":false,"is_disabled":false,"rental_uris":{"android":"levelo://app?vid=071bae66-a3c2-407f-a4ef-b9866a42fb1d","ios":"levelo://app?vid=071bae66-a3c2-407f-a4ef-b9866a42fb1d"},"vehicle_type_id":"4","last_reported":1747229008,"current_range_meters":16800,"station_id":"ce4bgl92rcd13ifvqbq0","pricing_plan_id":"cebpf4jnsgd1na2vs0mg"},{"bike_id":"edbd9ae7-c1d8-4f98-8917-db8f73299126","system_id":"levelo_inurba_marseille","lat":43.28477,"lon":5.38425,"is_reserved":false,"is_disabled":false,"rental_uris":{"android":"levelo://app?vid=edbd9ae7-c1d8-4f98-8917-db8f73299126","ios":"levelo://app?vid=edbd9ae7-c1d8-4f98-8917-db8f73299126"},"vehicle_type_id":"4","last_reported":1747229008,"current_range_meters":16800,"station_id":"ce4bh512rcd13ifvqe3g","pricing_plan_id":"cebpf4jnsgd1na2vs0mg"},{"bike_id":"690f74d4-763d-485e-9c79-fc957afae451","system_id":"levelo_inurba_marseille","lat":43.29001,"lon":5.35605,"is_reserved":false,"is_disabled":false,"rental_uris":{"android":"levelo://app?vid=690f74d4-763d-485e-9c79-fc957afae451","ios":"levelo://app?vid=690f74d4-763d-485e-9c79-fc957afae451"},"vehicle_type_id":"4","last_reported":1747229008,"current_range_meters":16800,"station_id":"ce4bhb92rcd13ifvqen0","pricing_plan_id":"cebpf4jnsgd1na2vs0mg"},{"bike_id":"81df83bd-96fe-4025-8404-279d0c4d21a9","system_id":"levelo_inurba_marseille","lat":43.25932,"lon":5.40899,"is_reserved":false,"is_disabled":false,"rental_uris":{"android":"levelo://app?vid=81df83bd-96fe-4025-8404-279d0c4d21a9","ios":"levelo://app?vid=81df83bd-96fe-4025-8404-279d0c4d21a9"},"vehicle_type_id":"4","last_reported":1747229008,"current_range_meters":16800,"station_id":"ce4bhm92rcd13ifvqglg","pricing_plan_id":"cebpf4jnsgd1na2vs0mg"},{"bike_id":"5b2bf2cc-e79c-4a99-a91f-20d49657d90b","system_id":"levelo_inurba_marseille","lat":43.24184,"lon":5.39758,"is_reserved":false,"is_disabled":false,"rental_uris":{"android":"levelo://app?vid=5b2bf2cc-e79c-4a99-a91f-20d49657d90b","ios":"levelo://app?vid=5b2bf2cc-e79c-4a99-a91f-20d49657d90b"},"vehicle_type_id":"4","last_reported":1747229008,"current_range_meters":16800,"station_id":"ce4bhn12rcd13ifvqgpg","pricing_plan_id":"cebpf4jnsgd1na2vs0mg"},{"bike_id":"a0fd54c0-4c17-41ee-9f2f-af0a81d9b4a1","system_id":"levelo_inurba_marseille","lat":43.33722,"lon":5.39188,"is_reserved":false,"is_disabled":false,"rental_uris":{"android":"levelo://app?vid=a0fd54c0-4c17-41ee-9f2f-af0a81d9b4a1","ios":"levelo://app?vid=a0fd54c0-4c17-41ee-9f2f-af0a81d9b4a1"},"vehicle_type_id":"4","last_reported":1747229008,"current_range_meters":16800,"station_id":"ce4bhr92rcd13ifvqhsg","pricing_plan_id":"cebpf4jnsgd1na2vs0mg"},{"bike_id":"fb7b4516-ae7f-4a46-86d9-19e5841ce0f7","system_id":"levelo_inurba_marseille","lat":43.29689,"lon":5.37306,"is_reserved":false,"is_disabled":false,"rental_uris":{"android":"levelo://app?vid=fb7b4516-ae7f-4a46-86d9-19e5841ce0f7","ios":"levelo://app?vid=fb7b4516-ae7f-4a46-86d9-19e5841ce0f7"},"vehicle_type_id":"4","last_reported":1747229008,"current_range_meters":17200,"station_id":"ce4bgk12rcd13ifvqbj0","pricing_plan_id":"cebpf4jnsgd1na2vs0mg"},{"bike_id":"6ed6b045-5fdd-4b23-810c-9f519910480c","system_id":"levelo_inurba_marseille","lat":43.30909,"lon":5.3686,"is_reserved":false,"is_disabled":false,"rental_uris":{"android":"levelo://app?vid=6ed6b045-5fdd-4b23-810c-9f519910480c","ios":"levelo://app?vid=6ed6b045-5fdd-4b23-810c-9f519910480c"},"vehicle_type_id":"4","last_reported":1747229008,"current_range_meters":17200,"station_id":"ce4bgn92rcd13ifvqbvg","pricing_plan_id":"cebpf4jnsgd1na2vs0mg"},{"bike_id":"1c229b1e-735d-4d5e-b7b3-e790544859ae","system_id":"levelo_inurba_marseille","lat":43.30325,"lon":5.40433,"is_reserved":false,"is_disabled":false,"rental_uris":{"android":"levelo://app?vid=1c229b1e-735d-4d5e-b7b3-e790544859ae","ios":"levelo://app?vid=1c229b1e-735d-4d5e-b7b3-e790544859ae"},"vehicle_type_id":"4","last_reported":1747229008,"current_range_meters":17200,"station_id":"ce4bh012rcd13ifvqd10","pricing_plan_id":"cebpf4jnsgd1na2vs0mg"},{"bike_id":"22e5aaee-7e79-465c-9291-a4fa02440904","system_id":"levelo_inurba_marseille","lat":43.283478,"lon":5.381019,"is_reserved":false,"is_disabled":false,"rental_uris":{"android":"levelo://app?vid=22e5aaee-7e79-465c-9291-a4fa02440904","ios":"levelo://app?vid=22e5aaee-7e79-465c-9291-a4fa02440904"},"vehicle_type_id":"4","last_reported":1747229008,"current_range_meters":17200,"station_id":"ce4bh412rcd13ifvqdr0","pricing_plan_id":"cebpf4jnsgd1na2vs0mg"},{"bike_id":"6bc0278b-06f1-472e-8694-34661a69b0b5","system_id":"levelo_inurba_marseille","lat":43.28461,"lon":5.3588,"is_reserved":false,"is_disabled":false,"rental_uris":{"android":"levelo://app?vid=6bc0278b-06f1-472e-8694-34661a69b0b5","ios":"levelo://app?vid=6bc0278b-06f1-472e-8694-34661a69b0b5"},"vehicle_type_id":"4","last_reported":1747229008,"current_range_meters":17200,"station_id":"ce4bhah2rcd13ifvqei0","pricing_plan_id":"cebpf4jnsgd1na2vs0mg"},{"bike_id":"117b8371-4e6f-42c9-8aca-1d981673017f","system_id":"levelo_inurba_marseille","lat":43.28468,"lon":5.35891,"is_reserved":false,"is_disabled":false,"rental_uris":{"android":"levelo://app?vid=117b8371-4e6f-42c9-8aca-1d981673017f","ios":"levelo://app?vid=117b8371-4e6f-42c9-8aca-1d981673017f"},"vehicle_type_id":"4","last_reported":1747229008,"current_range_meters":17200,"station_id":"ce4bhah2rcd13ifvqei0","pricing_plan_id":"cebpf4jnsgd1na2vs0mg"},{"bike_id":"cc54b01a-4cd7-4641-9e7b-10c99b929fcf","system_id":"levelo_inurba_marseille","lat":43.27206,"lon":5.3918,"is_reserved":false,"is_disabled":false,"rental_uris":{"android":"levelo://app?vid=cc54b01a-4cd7-4641-9e7b-10c99b929fcf","ios":"levelo://app?vid=cc54b01a-4cd7-4641-9e7b-10c99b929fcf"},"vehicle_type_id":"4","last_reported":1747229008,"current_range_meters":17200,"station_id":"ce4bhhp2rcd13ifvqfm0","pricing_plan_id":"cebpf4jnsgd1na2vs0mg"},{"bike_id":"7a906d5d-d156-472a-a645-d2ee30c1fbc8","system_id":"levelo_inurba_marseille","lat":43.33618,"lon":5.4102,"is_reserved":false,"is_disabled":false,"rental_uris":{"android":"levelo://app?vid=7a906d5d-d156-472a-a645-d2ee30c1fbc8","ios":"levelo://app?vid=7a906d5d-d156-472a-a645-d2ee30c1fbc8"},"vehicle_type_id":"4","last_reported":1747229008,"current_range_meters":17200,"station_id":"ce4bhqh2rcd13ifvqhmg","pricing_plan_id":"cebpf4jnsgd1na2vs0mg"},{"bike_id":"16c6b493-da0f-44c8-8270-19e6f664cdd9","system_id":"levelo_inurba_marseille","lat":43.33724,"lon":5.39195,"is_reserved":false,"is_disabled":false,"rental_uris":{"android":"levelo://app?vid=16c6b493-da0f-44c8-8270-19e6f664cdd9","ios":"levelo://app?vid=16c6b493-da0f-44c8-8270-19e6f664cdd9"},"vehicle_type_id":"4","last_reported":1747229008,"current_range_meters":17200,"station_id":"ce4bhr92rcd13ifvqhsg","pricing_plan_id":"cebpf4jnsgd1na2vs0mg"},{"bike_id":"dfeeb7f6-ffba-44df-a1bc-b186a25a37b1","system_id":"levelo_inurba_marseille","lat":43.31708,"lon":5.37742,"is_reserved":false,"is_disabled":false,"rental_uris":{"android":"levelo://app?vid=dfeeb7f6-ffba-44df-a1bc-b186a25a37b1","ios":"levelo://app?vid=dfeeb7f6-ffba-44df-a1bc-b186a25a37b1"},"vehicle_type_id":"4","last_reported":1747229008,"current_range_meters":17600,"station_id":"ce4bgth2rcd13ifvqch0","pricing_plan_id":"cebpf4jnsgd1na2vs0mg"},{"bike_id":"bdf290b2-a11c-4e6d-ad5f-9d31c1c7aa79","system_id":"levelo_inurba_marseille","lat":43.25113,"lon":5.40328,"is_reserved":false,"is_disabled":false,"rental_uris":{"android":"levelo://app?vid=bdf290b2-a11c-4e6d-ad5f-9d31c1c7aa79","ios":"levelo://app?vid=bdf290b2-a11c-4e6d-ad5f-9d31c1c7aa79"},"vehicle_type_id":"4","last_reported":1747229008,"current_range_meters":17600,"station_id":"ce4bhlh2rcd13ifvqgig","pricing_plan_id":"cebpf4jnsgd1na2vs0mg"},{"bike_id":"ecd26ce9-592b-4c5c-a9e0-2196cc8eccdb","system_id":"levelo_inurba_marseille","lat":43.23185,"lon":5.39997,"is_reserved":false,"is_disabled":false,"rental_uris":{"android":"levelo://app?vid=ecd26ce9-592b-4c5c-a9e0-2196cc8eccdb","ios":"levelo://app?vid=ecd26ce9-592b-4c5c-a9e0-2196cc8eccdb"},"vehicle_type_id":"4","last_reported":1747229008,"current_range_meters":17600,"station_id":"ce4bhn12rcd13ifvqgqg","pricing_plan_id":"cebpf4jnsgd1na2vs0mg"},{"bike_id":"11132d48-d9b3-47ce-9d91-93cbfc68ba64","system_id":"levelo_inurba_marseille","lat":43.21191,"lon":5.35065,"is_reserved":false,"is_disabled":false,"rental_uris":{"android":"levelo://app?vid=11132d48-d9b3-47ce-9d91-93cbfc68ba64","ios":"levelo://app?vid=11132d48-d9b3-47ce-9d91-93cbfc68ba64"},"vehicle_type_id":"4","last_reported":1747229008,"current_range_meters":17600,"station_id":"st_cvj6sg6p6f1abm77japg","pricing_plan_id":"cebpf4jnsgd1na2vs0mg"},{"bike_id":"d74dda0c-2ae8-4a20-aee3-80ba3b692d64","system_id":"levelo_inurba_marseille","lat":43.30517,"lon":5.37182,"is_reserved":false,"is_disabled":false,"rental_uris":{"android":"levelo://app?vid=d74dda0c-2ae8-4a20-aee3-80ba3b692d64","ios":"levelo://app?vid=d74dda0c-2ae8-4a20-aee3-80ba3b692d64"},"vehicle_type_id":"4","last_reported":1747229008,"current_range_meters":18000,"station_id":"","pricing_plan_id":"cebpf4jnsgd1na2vs0mg"},{"bike_id":"4d7dc3ff-0182-47f2-bfe7-87a29f3693ad","system_id":"levelo_inurba_marseille","lat":43.3149,"lon":5.37309,"is_reserved":false,"is_disabled":false,"rental_uris":{"android":"levelo://app?vid=4d7dc3ff-0182-47f2-bfe7-87a29f3693ad","ios":"levelo://app?vid=4d7dc3ff-0182-47f2-bfe7-87a29f3693ad"},"vehicle_type_id":"4","last_reported":1747229008,"current_range_meters":18000,"station_id":"ce4bgt12rcd13ifvqcd0","pricing_plan_id":"cebpf4jnsgd1na2vs0mg"},{"bike_id":"32ec5185-ddf9-4df7-bb64-92cf79abea54","system_id":"levelo_inurba_marseille","lat":43.30428,"lon":5.39759,"is_reserved":false,"is_disabled":false,"rental_uris":{"android":"levelo://app?vid=32ec5185-ddf9-4df7-bb64-92cf79abea54","ios":"levelo://app?vid=32ec5185-ddf9-4df7-bb64-92cf79abea54"},"vehicle_type_id":"4","last_reported":1747229008,"current_range_meters":18000,"station_id":"ce4bh092rcd13ifvqd20","pricing_plan_id":"cebpf4jnsgd1na2vs0mg"},{"bike_id":"b46a7628-1290-4073-b21b-ae42dd6d20b5","system_id":"levelo_inurba_marseille","lat":43.27453,"lon":5.39413,"is_reserved":false,"is_disabled":false,"rental_uris":{"android":"levelo://app?vid=b46a7628-1290-4073-b21b-ae42dd6d20b5","ios":"levelo://app?vid=b46a7628-1290-4073-b21b-ae42dd6d20b5"},"vehicle_type_id":"4","last_reported":1747229008,"current_range_meters":18000,"station_id":"ce4bhdp2rcd13ifvqf20","pricing_plan_id":"cebpf4jnsgd1na2vs0mg"},{"bike_id":"0a41f867-9e4f-4d2a-bc2e-ffc9fda63c73","system_id":"levelo_inurba_marseille","lat":43.26563,"lon":5.373,"is_reserved":false,"is_disabled":false,"rental_uris":{"android":"levelo://app?vid=0a41f867-9e4f-4d2a-bc2e-ffc9fda63c73","ios":"levelo://app?vid=0a41f867-9e4f-4d2a-bc2e-ffc9fda63c73"},"vehicle_type_id":"4","last_reported":1747229008,"current_range_meters":18000,"station_id":"ce4bhg12rcd13ifvqf70","pricing_plan_id":"cebpf4jnsgd1na2vs0mg"},{"bike_id":"83579664-ba89-4192-a06b-7c1498833543","system_id":"levelo_inurba_marseille","lat":43.26687,"lon":5.38269,"is_reserved":false,"is_disabled":false,"rental_uris":{"android":"levelo://app?vid=83579664-ba89-4192-a06b-7c1498833543","ios":"levelo://app?vid=83579664-ba89-4192-a06b-7c1498833543"},"vehicle_type_id":"4","last_reported":1747229008,"current_range_meters":18000,"station_id":"ce4bhg92rcd13ifvqf90","pricing_plan_id":"cebpf4jnsgd1na2vs0mg"},{"bike_id":"157f42dc-0b08-4c6e-8d19-88b4f5639111","system_id":"levelo_inurba_marseille","lat":43.27565,"lon":5.38401,"is_reserved":false,"is_disabled":false,"rental_uris":{"android":"levelo://app?vid=157f42dc-0b08-4c6e-8d19-88b4f5639111","ios":"levelo://app?vid=157f42dc-0b08-4c6e-8d19-88b4f5639111"},"vehicle_type_id":"4","last_reported":1747229008,"current_range_meters":18000,"station_id":"ce4bhh92rcd13ifvqfi0","pricing_plan_id":"cebpf4jnsgd1na2vs0mg"},{"bike_id":"fdf5099d-3cb8-4fb5-90c4-f9dcbc7c2a8c","system_id":"levelo_inurba_marseille","lat":43.259332,"lon":5.408991,"is_reserved":false,"is_disabled":false,"rental_uris":{"android":"levelo://app?vid=fdf5099d-3cb8-4fb5-90c4-f9dcbc7c2a8c","ios":"levelo://app?vid=fdf5099d-3cb8-4fb5-90c4-f9dcbc7c2a8c"},"vehicle_type_id":"4","last_reported":1747229008,"current_range_meters":18000,"station_id":"ce4bhm92rcd13ifvqglg","pricing_plan_id":"cebpf4jnsgd1na2vs0mg"},{"bike_id":"c785251c-780d-4a50-9ca1-3185167bc6d2","system_id":"levelo_inurba_marseille","lat":43.23151,"lon":5.43719,"is_reserved":false,"is_disabled":false,"rental_uris":{"android":"levelo://app?vid=c785251c-780d-4a50-9ca1-3185167bc6d2","ios":"levelo://app?vid=c785251c-780d-4a50-9ca1-3185167bc6d2"},"vehicle_type_id":"4","last_reported":1747229008,"current_range_meters":18000,"station_id":"ce4bhmp2rcd13ifvqgog","pricing_plan_id":"cebpf4jnsgd1na2vs0mg"},{"bike_id":"9ee09f37-f45e-4608-a481-d82a0a8baa03","system_id":"levelo_inurba_marseille","lat":43.27809,"lon":5.40709,"is_reserved":false,"is_disabled":false,"rental_uris":{"android":"levelo://app?vid=9ee09f37-f45e-4608-a481-d82a0a8baa03","ios":"levelo://app?vid=9ee09f37-f45e-4608-a481-d82a0a8baa03"},"vehicle_type_id":"4","last_reported":1747229008,"current_range_meters":18000,"station_id":"ce4bhnh2rcd13ifvqgtg","pricing_plan_id":"cebpf4jnsgd1na2vs0mg"},{"bike_id":"ab0c5f0c-9d45-4fd1-8f85-84db8377a976","system_id":"levelo_inurba_marseille","lat":43.32048,"lon":5.41537,"is_reserved":false,"is_disabled":false,"rental_uris":{"android":"levelo://app?vid=ab0c5f0c-9d45-4fd1-8f85-84db8377a976","ios":"levelo://app?vid=ab0c5f0c-9d45-4fd1-8f85-84db8377a976"},"vehicle_type_id":"4","last_reported":1747229008,"current_range_meters":18000,"station_id":"ce4bhq92rcd13ifvqhkg","pricing_plan_id":"cebpf4jnsgd1na2vs0mg"},{"bike_id":"ac0112c9-313e-422c-910b-a3523b05b0c9","system_id":"levelo_inurba_marseille","lat":43.23052,"lon":5.35479,"is_reserved":false,"is_disabled":false,"rental_uris":{"android":"levelo://app?vid=ac0112c9-313e-422c-910b-a3523b05b0c9","ios":"levelo://app?vid=ac0112c9-313e-422c-910b-a3523b05b0c9"},"vehicle_type_id":"4","last_reported":1747229008,"current_range_meters":18000,"station_id":"cpo3342slgdg3j2ifvpg","pricing_plan_id":"cebpf4jnsgd1na2vs0mg"},{"bike_id":"629a8527-e38c-4fd2-b359-c64b0e1ecb75","system_id":"levelo_inurba_marseille","lat":43.30953,"lon":5.39031,"is_reserved":false,"is_disabled":false,"rental_uris":{"android":"levelo://app?vid=629a8527-e38c-4fd2-b359-c64b0e1ecb75","ios":"levelo://app?vid=629a8527-e38c-4fd2-b359-c64b0e1ecb75"},"vehicle_type_id":"4","last_reported":1747229008,"current_range_meters":18800,"station_id":"ce4bgup2rcd13ifvqco0","pricing_plan_id":"cebpf4jnsgd1na2vs0mg"},{"bike_id":"92f7c03e-a511-43da-acb8-e1c0e476db27","system_id":"levelo_inurba_marseille","lat":43.28491,"lon":5.38442,"is_reserved":false,"is_disabled":false,"rental_uris":{"android":"levelo://app?vid=92f7c03e-a511-43da-acb8-e1c0e476db27","ios":"levelo://app?vid=92f7c03e-a511-43da-acb8-e1c0e476db27"},"vehicle_type_id":"4","last_reported":1747229008,"current_range_meters":18800,"station_id":"ce4bh512rcd13ifvqe3g","pricing_plan_id":"cebpf4jnsgd1na2vs0mg"},{"bike_id":"7495cbd9-e733-4e7b-822f-d573c7cb6fab","system_id":"levelo_inurba_marseille","lat":43.28414,"lon":5.34983,"is_reserved":false,"is_disabled":false,"rental_uris":{"android":"levelo://app?vid=7495cbd9-e733-4e7b-822f-d573c7cb6fab","ios":"levelo://app?vid=7495cbd9-e733-4e7b-822f-d573c7cb6fab"},"vehicle_type_id":"4","last_reported":1747229008,"current_range_meters":18800,"station_id":"ce4bhbh2rcd13ifvqepg","pricing_plan_id":"cebpf4jnsgd1na2vs0mg"},{"bike_id":"848a305e-a782-426b-b344-ae683f56e5ca","system_id":"levelo_inurba_marseille","lat":43.286199,"lon":5.351004,"is_reserved":false,"is_disabled":false,"rental_uris":{"android":"levelo://app?vid=848a305e-a782-426b-b344-ae683f56e5ca","ios":"levelo://app?vid=848a305e-a782-426b-b344-ae683f56e5ca"},"vehicle_type_id":"4","last_reported":1747229008,"current_range_meters":18800,"station_id":"ce4bhch2rcd13ifvqeug","pricing_plan_id":"cebpf4jnsgd1na2vs0mg"},{"bike_id":"50ed959c-0f11-4615-92ad-8bae5d12375f","system_id":"levelo_inurba_marseille","lat":43.23064,"lon":5.35487,"is_reserved":false,"is_disabled":false,"rental_uris":{"android":"levelo://app?vid=50ed959c-0f11-4615-92ad-8bae5d12375f","ios":"levelo://app?vid=50ed959c-0f11-4615-92ad-8bae5d12375f"},"vehicle_type_id":"4","last_reported":1747229008,"current_range_meters":18800,"station_id":"cpo3342slgdg3j2ifvpg","pricing_plan_id":"cebpf4jnsgd1na2vs0mg"},{"bike_id":"59522c92-ae68-47cb-8192-6c1f292c4785","system_id":"levelo_inurba_marseille","lat":43.28417,"lon":5.34983,"is_reserved":false,"is_disabled":false,"rental_uris":{"android":"levelo://app?vid=59522c92-ae68-47cb-8192-6c1f292c4785","ios":"levelo://app?vid=59522c92-ae68-47cb-8192-6c1f292c4785"},"vehicle_type_id":"4","last_reported":1747229008,"current_range_meters":19200,"station_id":"ce4bhbh2rcd13ifvqepg","pricing_plan_id":"cebpf4jnsgd1na2vs0mg"},{"bike_id":"2ecb114f-5d75-4c5d-8f1f-6d26727f9732","system_id":"levelo_inurba_marseille","lat":43.2864,"lon":5.35124,"is_reserved":false,"is_disabled":false,"rental_uris":{"android":"levelo://app?vid=2ecb114f-5d75-4c5d-8f1f-6d26727f9732","ios":"levelo://app?vid=2ecb114f-5d75-4c5d-8f1f-6d26727f9732"},"vehicle_type_id":"4","last_reported":1747229008,"current_range_meters":19200,"station_id":"ce4bhch2rcd13ifvqeug","pricing_plan_id":"cebpf4jnsgd1na2vs0mg"},{"bike_id":"38211f5a-9e6b-43fb-a533-35898239b6a3","system_id":"levelo_inurba_marseille","lat":43.239631,"lon":5.366259,"is_reserved":false,"is_disabled":false,"rental_uris":{"android":"levelo://app?vid=38211f5a-9e6b-43fb-a533-35898239b6a3","ios":"levelo://app?vid=38211f5a-9e6b-43fb-a533-35898239b6a3"},"vehicle_type_id":"4","last_reported":1747229008,"current_range_meters":19200,"station_id":"ce4bhi12rcd13ifvqfp0","pricing_plan_id":"cebpf4jnsgd1na2vs0mg"},{"bike_id":"70136c98-e1a2-4944-bc03-8f5e5e059d96","system_id":"levelo_inurba_marseille","lat":43.23143,"lon":5.43731,"is_reserved":false,"is_disabled":false,"rental_uris":{"android":"levelo://app?vid=70136c98-e1a2-4944-bc03-8f5e5e059d96","ios":"levelo://app?vid=70136c98-e1a2-4944-bc03-8f5e5e059d96"},"vehicle_type_id":"4","last_reported":1747229008,"current_range_meters":19200,"station_id":"ce4bhmp2rcd13ifvqgog","pricing_plan_id":"cebpf4jnsgd1na2vs0mg"},{"bike_id":"4269a203-34b5-408c-9237-8b2f72169f12","system_id":"levelo_inurba_marseille","lat":43.23177,"lon":5.43726,"is_reserved":false,"is_disabled":false,"rental_uris":{"android":"levelo://app?vid=4269a203-34b5-408c-9237-8b2f72169f12","ios":"levelo://app?vid=4269a203-34b5-408c-9237-8b2f72169f12"},"vehicle_type_id":"4","last_reported":1747229008,"current_range_meters":19200,"station_id":"ce4bhmp2rcd13ifvqgog","pricing_plan_id":"cebpf4jnsgd1na2vs0mg"},{"bike_id":"297a85b0-fa8c-489e-bd98-6fd7f3aae510","system_id":"levelo_inurba_marseille","lat":43.24192,"lon":5.3973,"is_reserved":false,"is_disabled":false,"rental_uris":{"android":"levelo://app?vid=297a85b0-fa8c-489e-bd98-6fd7f3aae510","ios":"levelo://app?vid=297a85b0-fa8c-489e-bd98-6fd7f3aae510"},"vehicle_type_id":"4","last_reported":1747229008,"current_range_meters":19200,"station_id":"ce4bhn12rcd13ifvqgpg","pricing_plan_id":"cebpf4jnsgd1na2vs0mg"},{"bike_id":"74e465a6-62f1-45be-9144-40f0ae71c9e6","system_id":"levelo_inurba_marseille","lat":43.323611,"lon":5.367456,"is_reserved":false,"is_disabled":false,"rental_uris":{"android":"levelo://app?vid=74e465a6-62f1-45be-9144-40f0ae71c9e6","ios":"levelo://app?vid=74e465a6-62f1-45be-9144-40f0ae71c9e6"},"vehicle_type_id":"4","last_reported":1747229008,"current_range_meters":19200,"station_id":"ce4bhsh2rcd13ifvqi2g","pricing_plan_id":"cebpf4jnsgd1na2vs0mg"},{"bike_id":"1def4d9e-ba54-4554-8279-72b57c0de750","system_id":"levelo_inurba_marseille","lat":43.337444,"lon":5.374475,"is_reserved":false,"is_disabled":false,"rental_uris":{"android":"levelo://app?vid=1def4d9e-ba54-4554-8279-72b57c0de750","ios":"levelo://app?vid=1def4d9e-ba54-4554-8279-72b57c0de750"},"vehicle_type_id":"4","last_reported":1747229008,"current_range_meters":19600,"station_id":"","pricing_plan_id":"cebpf4jnsgd1na2vs0mg"},{"bike_id":"236fe8a1-bb49-4378-9a13-707d1ea97db2","system_id":"levelo_inurba_marseille","lat":43.32116,"lon":5.36817,"is_reserved":false,"is_disabled":false,"rental_uris":{"android":"levelo://app?vid=236fe8a1-bb49-4378-9a13-707d1ea97db2","ios":"levelo://app?vid=236fe8a1-bb49-4378-9a13-707d1ea97db2"},"vehicle_type_id":"4","last_reported":1747229008,"current_range_meters":19600,"station_id":"","pricing_plan_id":"cebpf4jnsgd1na2vs0mg"},{"bike_id":"ac469627-41cc-4a57-afcb-3811b8483c9c","system_id":"levelo_inurba_marseille","lat":43.298605,"lon":5.397296,"is_reserved":false,"is_disabled":false,"rental_uris":{"android":"levelo://app?vid=ac469627-41cc-4a57-afcb-3811b8483c9c","ios":"levelo://app?vid=ac469627-41cc-4a57-afcb-3811b8483c9c"},"vehicle_type_id":"4","last_reported":1747229008,"current_range_meters":19600,"station_id":"ce4bh0h2rcd13ifvqd50","pricing_plan_id":"cebpf4jnsgd1na2vs0mg"},{"bike_id":"70f79412-4199-43ab-8745-58b9934f85b4","system_id":"levelo_inurba_marseille","lat":43.29876,"lon":5.39729,"is_reserved":false,"is_disabled":false,"rental_uris":{"android":"levelo://app?vid=70f79412-4199-43ab-8745-58b9934f85b4","ios":"levelo://app?vid=70f79412-4199-43ab-8745-58b9934f85b4"},"vehicle_type_id":"4","last_reported":1747229008,"current_range_meters":19600,"station_id":"ce4bh0h2rcd13ifvqd50","pricing_plan_id":"cebpf4jnsgd1na2vs0mg"},{"bike_id":"abea7a21-4e5d-416a-b704-514263bba595","system_id":"levelo_inurba_marseille","lat":43.24667,"lon":5.38169,"is_reserved":false,"is_disabled":false,"rental_uris":{"android":"levelo://app?vid=abea7a21-4e5d-416a-b704-514263bba595","ios":"levelo://app?vid=abea7a21-4e5d-416a-b704-514263bba595"},"vehicle_type_id":"4","last_reported":1747229008,"current_range_meters":19600,"station_id":"ce4bhih2rcd13ifvqfr0","pricing_plan_id":"cebpf4jnsgd1na2vs0mg"},{"bike_id":"4c7f0685-2f36-442e-95cb-287f421392f9","system_id":"levelo_inurba_marseille","lat":43.258681,"lon":5.398991,"is_reserved":false,"is_disabled":false,"rental_uris":{"android":"levelo://app?vid=4c7f0685-2f36-442e-95cb-287f421392f9","ios":"levelo://app?vid=4c7f0685-2f36-442e-95cb-287f421392f9"},"vehicle_type_id":"4","last_reported":1747229008,"current_range_meters":19600,"station_id":"ce4bhl92rcd13ifvqghg","pricing_plan_id":"cebpf4jnsgd1na2vs0mg"},{"bike_id":"5766e2cb-0f22-44c2-aff4-fafe3037b8fc","system_id":"levelo_inurba_marseille","lat":43.25121,"lon":5.40328,"is_reserved":false,"is_disabled":false,"rental_uris":{"android":"levelo://app?vid=5766e2cb-0f22-44c2-aff4-fafe3037b8fc","ios":"levelo://app?vid=5766e2cb-0f22-44c2-aff4-fafe3037b8fc"},"vehicle_type_id":"4","last_reported":1747229008,"current_range_meters":19600,"station_id":"ce4bhlh2rcd13ifvqgig","pricing_plan_id":"cebpf4jnsgd1na2vs0mg"},{"bike_id":"0c139302-ba80-4a2f-9a2c-8f684bc2a58e","system_id":"levelo_inurba_marseille","lat":43.24547,"lon":5.39533,"is_reserved":false,"is_disabled":false,"rental_uris":{"android":"levelo://app?vid=0c139302-ba80-4a2f-9a2c-8f684bc2a58e","ios":"levelo://app?vid=0c139302-ba80-4a2f-9a2c-8f684bc2a58e"},"vehicle_type_id":"4","last_reported":1747229008,"current_range_meters":19600,"station_id":"ce4bhlp2rcd13ifvqgjg","pricing_plan_id":"cebpf4jnsgd1na2vs0mg"},{"bike_id":"4536c555-c953-45c4-9458-f5ba24a96d50","system_id":"levelo_inurba_marseille","lat":43.28077,"lon":5.39658,"is_reserved":false,"is_disabled":false,"rental_uris":{"android":"levelo://app?vid=4536c555-c953-45c4-9458-f5ba24a96d50","ios":"levelo://app?vid=4536c555-c953-45c4-9458-f5ba24a96d50"},"vehicle_type_id":"4","last_reported":1747229008,"current_range_meters":19600,"station_id":"ce4bho12rcd13ifvqh2g","pricing_plan_id":"cebpf4jnsgd1na2vs0mg"},{"bike_id":"4bf5ce02-59c5-428f-a5c8-351ac81a0899","system_id":"levelo_inurba_marseille","lat":43.32542,"lon":5.41431,"is_reserved":false,"is_disabled":false,"rental_uris":{"android":"levelo://app?vid=4bf5ce02-59c5-428f-a5c8-351ac81a0899","ios":"levelo://app?vid=4bf5ce02-59c5-428f-a5c8-351ac81a0899"},"vehicle_type_id":"4","last_reported":1747229008,"current_range_meters":19600,"station_id":"ce4bhq12rcd13ifvqhhg","pricing_plan_id":"cebpf4jnsgd1na2vs0mg"},{"bike_id":"c7a04d74-e3ce-4ff7-9775-633d4a219686","system_id":"levelo_inurba_marseille","lat":43.30552,"lon":5.36563,"is_reserved":false,"is_disabled":false,"rental_uris":{"android":"levelo://app?vid=c7a04d74-e3ce-4ff7-9775-633d4a219686","ios":"levelo://app?vid=c7a04d74-e3ce-4ff7-9775-633d4a219686"},"vehicle_type_id":"4","last_reported":1747229008,"current_range_meters":20000,"station_id":"ce4bgs12rcd13ifvqcag","pricing_plan_id":"cebpf4jnsgd1na2vs0mg"},{"bike_id":"1d940051-e06b-421f-a00f-2f1acfbc81c8","system_id":"levelo_inurba_marseille","lat":43.30953,"lon":5.39039,"is_reserved":false,"is_disabled":false,"rental_uris":{"android":"levelo://app?vid=1d940051-e06b-421f-a00f-2f1acfbc81c8","ios":"levelo://app?vid=1d940051-e06b-421f-a00f-2f1acfbc81c8"},"vehicle_type_id":"4","last_reported":1747229008,"current_range_meters":20000,"station_id":"ce4bgup2rcd13ifvqco0","pricing_plan_id":"cebpf4jnsgd1na2vs0mg"},{"bike_id":"27187d16-8a5f-4940-a158-7618e067147d","system_id":"levelo_inurba_marseille","lat":43.28836,"lon":5.39307,"is_reserved":false,"is_disabled":false,"rental_uris":{"android":"levelo://app?vid=27187d16-8a5f-4940-a158-7618e067147d","ios":"levelo://app?vid=27187d16-8a5f-4940-a158-7618e067147d"},"vehicle_type_id":"4","last_reported":1747229008,"current_range_meters":20000,"station_id":"ce4bh2p2rcd13ifvqdi0","pricing_plan_id":"cebpf4jnsgd1na2vs0mg"},{"bike_id":"a18b7cbb-cd4a-4a43-80f9-027b5b1335ad","system_id":"levelo_inurba_marseille","lat":43.28038,"lon":5.36944,"is_reserved":false,"is_disabled":false,"rental_uris":{"android":"levelo://app?vid=a18b7cbb-cd4a-4a43-80f9-027b5b1335ad","ios":"levelo://app?vid=a18b7cbb-cd4a-4a43-80f9-027b5b1335ad"},"vehicle_type_id":"4","last_reported":1747229008,"current_range_meters":20000,"station_id":"ce4bha12rcd13ifvqef0","pricing_plan_id":"cebpf4jnsgd1na2vs0mg"},{"bike_id":"ea8b28a8-7224-4d79-9e76-e4b910a382c9","system_id":"levelo_inurba_marseille","lat":43.27373,"lon":5.3625,"is_reserved":false,"is_disabled":false,"rental_uris":{"android":"levelo://app?vid=ea8b28a8-7224-4d79-9e76-e4b910a382c9","ios":"levelo://app?vid=ea8b28a8-7224-4d79-9e76-e4b910a382c9"},"vehicle_type_id":"4","last_reported":1747229008,"current_range_meters":20000,"station_id":"ce4bhbh2rcd13ifvqeo0","pricing_plan_id":"cebpf4jnsgd1na2vs0mg"},{"bike_id":"d70a394b-e40a-459a-b5df-ab0f03f3fb36","system_id":"levelo_inurba_marseille","lat":43.32544,"lon":5.41471,"is_reserved":false,"is_disabled":false,"rental_uris":{"android":"levelo://app?vid=d70a394b-e40a-459a-b5df-ab0f03f3fb36","ios":"levelo://app?vid=d70a394b-e40a-459a-b5df-ab0f03f3fb36"},"vehicle_type_id":"4","last_reported":1747229008,"current_range_meters":20000,"station_id":"ce4bhq12rcd13ifvqhhg","pricing_plan_id":"cebpf4jnsgd1na2vs0mg"},{"bike_id":"1ae0b734-22b3-4b50-80d3-c63698279b7b","system_id":"levelo_inurba_marseille","lat":43.30577,"lon":5.37114,"is_reserved":false,"is_disabled":false,"rental_uris":{"android":"levelo://app?vid=1ae0b734-22b3-4b50-80d3-c63698279b7b","ios":"levelo://app?vid=1ae0b734-22b3-4b50-80d3-c63698279b7b"},"vehicle_type_id":"4","last_reported":1747229008,"current_range_meters":20400,"station_id":"","pricing_plan_id":"cebpf4jnsgd1na2vs0mg"},{"bike_id":"13c9dde3-370f-4898-921a-52334846866b","system_id":"levelo_inurba_marseille","lat":43.312163,"lon":5.36858,"is_reserved":false,"is_disabled":false,"rental_uris":{"android":"levelo://app?vid=13c9dde3-370f-4898-921a-52334846866b","ios":"levelo://app?vid=13c9dde3-370f-4898-921a-52334846866b"},"vehicle_type_id":"4","last_reported":1747229008,"current_range_meters":20400,"station_id":"ce4bgl92rcd13ifvqbq0","pricing_plan_id":"cebpf4jnsgd1na2vs0mg"},{"bike_id":"3510939f-7cd9-4aa4-b8cb-9520e70f17e7","system_id":"levelo_inurba_marseille","lat":43.284209,"lon":5.349908,"is_reserved":false,"is_disabled":false,"rental_uris":{"android":"levelo://app?vid=3510939f-7cd9-4aa4-b8cb-9520e70f17e7","ios":"levelo://app?vid=3510939f-7cd9-4aa4-b8cb-9520e70f17e7"},"vehicle_type_id":"4","last_reported":1747229008,"current_range_meters":20400,"station_id":"ce4bhbh2rcd13ifvqepg","pricing_plan_id":"cebpf4jnsgd1na2vs0mg"},{"bike_id":"515d906f-ffb9-4b90-b1dd-97294c491cbb","system_id":"levelo_inurba_marseille","lat":43.26508,"lon":5.39538,"is_reserved":false,"is_disabled":false,"rental_uris":{"android":"levelo://app?vid=515d906f-ffb9-4b90-b1dd-97294c491cbb","ios":"levelo://app?vid=515d906f-ffb9-4b90-b1dd-97294c491cbb"},"vehicle_type_id":"4","last_reported":1747229008,"current_range_meters":20400,"station_id":"ce4bhi12rcd13ifvqfq0","pricing_plan_id":"cebpf4jnsgd1na2vs0mg"},{"bike_id":"fa867dee-f910-4811-b768-920f9cc38bd0","system_id":"levelo_inurba_marseille","lat":43.2509,"lon":5.39523,"is_reserved":false,"is_disabled":false,"rental_uris":{"android":"levelo://app?vid=fa867dee-f910-4811-b768-920f9cc38bd0","ios":"levelo://app?vid=fa867dee-f910-4811-b768-920f9cc38bd0"},"vehicle_type_id":"4","last_reported":1747229008,"current_range_meters":20400,"station_id":"ce4bhm12rcd13ifvqgkg","pricing_plan_id":"cebpf4jnsgd1na2vs0mg"},{"bike_id":"6bc1d36e-d8b0-4110-8132-86b93eaa93a4","system_id":"levelo_inurba_marseille","lat":43.31757,"lon":5.39013,"is_reserved":false,"is_disabled":false,"rental_uris":{"android":"levelo://app?vid=6bc1d36e-d8b0-4110-8132-86b93eaa93a4","ios":"levelo://app?vid=6bc1d36e-d8b0-4110-8132-86b93eaa93a4"},"vehicle_type_id":"4","last_reported":1747229008,"current_range_meters":20400,"station_id":"ce4bhqp2rcd13ifvqhng","pricing_plan_id":"cebpf4jnsgd1na2vs0mg"},{"bike_id":"802636f1-6541-4cd1-af59-db2f450336a1","system_id":"levelo_inurba_marseille","lat":43.33027,"lon":5.39045,"is_reserved":false,"is_disabled":false,"rental_uris":{"android":"levelo://app?vid=802636f1-6541-4cd1-af59-db2f450336a1","ios":"levelo://app?vid=802636f1-6541-4cd1-af59-db2f450336a1"},"vehicle_type_id":"4","last_reported":1747229008,"current_range_meters":20400,"station_id":"ce4bhr92rcd13ifvqhrg","pricing_plan_id":"cebpf4jnsgd1na2vs0mg"},{"bike_id":"9a402898-f116-408b-8709-c62dd77d2b5d","system_id":"levelo_inurba_marseille","lat":43.29355,"lon":5.42827,"is_reserved":false,"is_disabled":false,"rental_uris":{"android":"levelo://app?vid=9a402898-f116-408b-8709-c62dd77d2b5d","ios":"levelo://app?vid=9a402898-f116-408b-8709-c62dd77d2b5d"},"vehicle_type_id":"4","last_reported":1747229008,"current_range_meters":20800,"station_id":"","pricing_plan_id":"cebpf4jnsgd1na2vs0mg"},{"bike_id":"109d9723-76e0-4255-be7b-ac39d3cd0307","system_id":"levelo_inurba_marseille","lat":43.21225,"lon":5.35071,"is_reserved":false,"is_disabled":false,"rental_uris":{"android":"levelo://app?vid=109d9723-76e0-4255-be7b-ac39d3cd0307","ios":"levelo://app?vid=109d9723-76e0-4255-be7b-ac39d3cd0307"},"vehicle_type_id":"4","last_reported":1747229008,"current_range_meters":20800,"station_id":"","pricing_plan_id":"cebpf4jnsgd1na2vs0mg"},{"bike_id":"b9026631-8249-45d9-a6f3-0ed63b696871","system_id":"levelo_inurba_marseille","lat":43.312245,"lon":5.368617,"is_reserved":false,"is_disabled":false,"rental_uris":{"android":"levelo://app?vid=b9026631-8249-45d9-a6f3-0ed63b696871","ios":"levelo://app?vid=b9026631-8249-45d9-a6f3-0ed63b696871"},"vehicle_type_id":"4","last_reported":1747229008,"current_range_meters":20800,"station_id":"ce4bgl92rcd13ifvqbq0","pricing_plan_id":"cebpf4jnsgd1na2vs0mg"},{"bike_id":"28e3094c-d5e3-4d9c-9411-6c152673ffae","system_id":"levelo_inurba_marseille","lat":43.29973,"lon":5.37175,"is_reserved":false,"is_disabled":false,"rental_uris":{"android":"levelo://app?vid=28e3094c-d5e3-4d9c-9411-6c152673ffae","ios":"levelo://app?vid=28e3094c-d5e3-4d9c-9411-6c152673ffae"},"vehicle_type_id":"4","last_reported":1747229008,"current_range_meters":20800,"station_id":"ce4bgr92rcd13ifvqc7g","pricing_plan_id":"cebpf4jnsgd1na2vs0mg"},