{"last_updated":1728641331,"ttl":60,"version":"2.2","data":{"bikes":[{"bike_id":"5cccc6d4-ad74-493d-bd01-c1d07b00da47","system_id":"levelo_inurba_marseille","lat":43.29274,"lon":5.3845,"is_reserved":false,"is_disabled":false,"rental_uris":{"android":"levelo://app?vid=5cccc6d4-ad74-493d-bd01-c1d07b00da47","ios":"levelo://app?vid=5cccc6d4-ad74-493d-bd01-c1d07b00da47"},"vehicle_type_id":"4","last_reported":1728641331,"current_range_meters":32800,"station_id":"ce4bh692rcd13ifvqea0","pricing_plan_id":"cebpf4jnsgd1na2vs0mg"},{"bike_id":"c34082b9-8125-4e21-96ba-89284316e611","system_id":"levelo_inurba_marseille","lat":43.23154,"lon":5.43701,"is_reserved":false,"is_disabled":false,"rental_uris":{"android":"levelo://app?vid=c34082b9-8125-4e21-96ba-89284316e611","ios":"levelo://app?vid=c34082b9-8125-4e21-96ba-89284316e611"},"vehicle_type_id":"4","last_reported":1728641331,"current_range_meters":33200,"station_id":"ce4bhmp2rcd13ifvqgog","pricing_plan_id":"cebpf4jnsgd1na2vs0mg"},{"bike_id":"6b905015-0ce8-4496-801e-5ecf06c1c6f9","system_id":"levelo_inurba_marseille","lat":43.30425,"lon":5.3975,"is_reserved":false,"is_disabled":false,"rental_uris":{"android":"levelo://app?vid=6b905015-0ce8-4496-801e-5ecf06c1c6f9","ios":"levelo://app?vid=6b905015-0ce8-4496-801e-5ecf06c1c6f9"},"vehicle_type_id":"4","last_reported":1728641331,"current_range_meters":38000,"station_id":"ce4bh092rcd13ifvqd20","pricing_plan_id":"cebpf4jnsgd1na2vs0mg"},{"bike_id":"51dd5005-a195-4642-bd5f-8cbea71cb3b3","system_id":"levelo_inurba_marseille","lat":43.22927,"lon":5.35375,"is_reserved":false,"is_disabled":false,"rental_uris":{"android":"levelo://app?vid=51dd5005-a195-4642-bd5f-8cbea71cb3b3","ios":"levelo://app?vid=51dd5005-a195-4642-bd5f-8cbea71cb3b3"},"vehicle_type_id":"4","last_reported":1728641331,"current_range_meters":6400,"station_id":"cpo3532slgdg3j2ikp40","pricing_plan_id":"cebpf4jnsgd1na2vs0mg"},{"bike_id":"85709be4-f4e5-4c4c-8307-b370c03ff4b2","system_id":"levelo_inurba_marseille","lat":43.279,"lon":5.38003,"is_reserved":false,"is_disabled":false,"rental_uris":{"android":"levelo://app?vid=85709be4-f4e5-4c4c-8307-b370c03ff4b2","ios":"levelo://app?vid=85709be4-f4e5-4c4c-8307-b370c03ff4b2"},"vehicle_type_id":"4","last_reported":1728641331,"current_range_meters":26800,"station_id":"ce4bhf92rcd13ifvqf50","pricing_plan_id":"cebpf4jnsgd1na2vs0mg"},{"bike_id":"81a94aa0-1345-4656-900c-180819b6bae9","system_id":"levelo_inurba_marseille","lat":43.33611,"lon":5.410218,"is_reserved":false,"is_disabled":false,"rental_uris":{"android":"levelo://app?vid=81a94aa0-1345-4656-900c-180819b6bae9","ios":"levelo://app?vid=81a94aa0-1345-4656-900c-180819b6bae9"},"vehicle_type_id":"4","last_reported":1728641331,"current_range_meters":36000,"station_id":"ce4bhqh2rcd13ifvqhmg","pricing_plan_id":"cebpf4jnsgd1na2vs0mg"},{"bike_id":"e01e312d-fe15-4856-95a6-18d9436753c7","system_id":"levelo_inurba_marseille","lat":43.29225,"lon":5.36079,"is_reserved":false,"is_disabled":false,"rental_uris":{"android":"levelo://app?vid=e01e312d-fe15-4856-95a6-18d9436753c7","ios":"levelo://app?vid=e01e312d-fe15-4856-95a6-18d9436753c7"},"vehicle_type_id":"4","last_reported":1728641331,"current_range_meters":18800,"station_id":"ce4bhbh2rcd13ifvqeqg","pricing_plan_id":"cebpf4jnsgd1na2vs0mg"},{"bike_id":"4f1ac9db-36fd-4126-b3cc-b859636a6a29","system_id":"levelo_inurba_marseille","lat":43.22928,"lon":5.35375,"is_reserved":false,"is_disabled":false,"rental_uris":{"android":"levelo://app?vid=4f1ac9db-36fd-4126-b3cc-b859636a6a29","ios":"levelo://app?vid=4f1ac9db-36fd-4126-b3cc-b859636a6a29"},"vehicle_type_id":"4","last_reported":1728641331,"current_range_meters":13600,"station_id":"cpo3532slgdg3j2ikp40","pricing_plan_id":"cebpf4jnsgd1na2vs0mg"},{"bike_id":"c45d268e-694c-4c29-957e-db29c7ece015","system_id":"levelo_inurba_marseille","lat":43.28034,"lon":5.36949,"is_reserved":false,"is_disabled":false,"rental_uris":{"android":"levelo://app?vid=c45d268e-694c-4c29-957e-db29c7ece015","ios":"levelo://app?vid=c45d268e-694c-4c29-957e-db29c7ece015"},"vehicle_type_id":"4","last_reported":1728641331,"current_range_meters":37600,"station_id":"ce4bha12rcd13ifvqef0","pricing_plan_id":"cebpf4jnsgd1na2vs0mg"},{"bike_id":"77689480-1102-4362-9bd6-4215d753152c","system_id":"levelo_inurba_marseille","lat":43.24078,"lon":5.37754,"is_reserved":false,"is_disabled":false,"rental_uris":{"android":"levelo://app?vid=77689480-1102-4362-9bd6-4215d753152c","ios":"levelo://app?vid=77689480-1102-4362-9bd6-4215d753152c"},"vehicle_type_id":"4","last_reported":1728641331,"current_range_meters":17600,"station_id":"ce4bhnp2rcd13ifvqgvg","pricing_plan_id":"cebpf4jnsgd1na2vs0mg"},{"bike_id":"92cce829-7c8c-49f2-bc3d-a6a6683f1916","system_id":"levelo_inurba_marseille","lat":43.264928,"lon":5.395465,"is_reserved":false,"is_disabled":false,"rental_uris":{"android":"levelo://app?vid=92cce829-7c8c-49f2-bc3d-a6a6683f1916","ios":"levelo://app?vid=92cce829-7c8c-49f2-bc3d-a6a6683f1916"},"vehicle_type_id":"4","last_reported":1728641331,"current_range_meters":38800,"station_id":"ce4bhhp2rcd13ifvqfm0","pricing_plan_id":"cebpf4jnsgd1na2vs0mg"},{"bike_id":"b2a7a425-b454-490b-9781-624294a233a1","system_id":"levelo_inurba_marseille","lat":43.302917,"lon":5.36891,"is_reserved":false,"is_disabled":false,"rental_uris":{"android":"levelo://app?vid=b2a7a425-b454-490b-9781-624294a233a1","ios":"levelo://app?vid=b2a7a425-b454-490b-9781-624294a233a1"},"vehicle_type_id":"4","last_reported":1728641331,"current_range_meters":18800,"station_id":"ce4bgqh2rcd13ifvqc5g","pricing_plan_id":"cebpf4jnsgd1na2vs0mg"},{"bike_id":"4467b12f-f4e9-4f00-b440-80e1eb47234c","system_id":"levelo_inurba_marseille","lat":43.29677,"lon":5.3729,"is_reserved":false,"is_disabled":false,"rental_uris":{"android":"levelo://app?vid=4467b12f-f4e9-4f00-b440-80e1eb47234c","ios":"levelo://app?vid=4467b12f-f4e9-4f00-b440-80e1eb47234c"},"vehicle_type_id":"4","last_reported":1728641331,"current_range_meters":9600,"station_id":"ce4bgk12rcd13ifvqbj0","pricing_plan_id":"cebpf4jnsgd1na2vs0mg"},{"bike_id":"4c266db5-d4c7-40e4-951c-3fd46103f110","system_id":"levelo_inurba_marseille","lat":43.27071,"lon":5.42279,"is_reserved":false,"is_disabled":false,"rental_uris":{"android":"levelo://app?vid=4c266db5-d4c7-40e4-951c-3fd46103f110","ios":"levelo://app?vid=4c266db5-d4c7-40e4-951c-3fd46103f110"},"vehicle_type_id":"4","last_reported":1728641331,"current_range_meters":19200,"station_id":"ce4bhk92rcd13ifvqgb0","pricing_plan_id":"cebpf4jnsgd1na2vs0mg"},{"bike_id":"7e07121e-7968-487b-96e4-ba8bf9090d89","system_id":"levelo_inurba_marseille","lat":43.26556,"lon":5.37282,"is_reserved":false,"is_disabled":false,"rental_uris":{"android":"levelo://app?vid=7e07121e-7968-487b-96e4-ba8bf9090d89","ios":"levelo://app?vid=7e07121e-7968-487b-96e4-ba8bf9090d89"},"vehicle_type_id":"4","last_reported":1728641331,"current_range_meters":24000,"station_id":"ce4bhg12rcd13ifvqf70","pricing_plan_id":"cebpf4jnsgd1na2vs0mg"},{"bike_id":"5ce2a66a-b949-4239-ae17-6ee1644fc5f2","system_id":"levelo_inurba_marseille","lat":43.254943,"lon":5.37646,"is_reserved":false,"is_disabled":false,"rental_uris":{"android":"levelo://app?vid=5ce2a66a-b949-4239-ae17-6ee1644fc5f2","ios":"levelo://app?vid=5ce2a66a-b949-4239-ae17-6ee1644fc5f2"},"vehicle_type_id":"4","last_reported":1728641331,"current_range_meters":15200,"station_id":"ce4bhh12rcd13ifvqff0","pricing_plan_id":"cebpf4jnsgd1na2vs0mg"},{"bike_id":"6cb2fd54-0aca-4f7d-aadb-bc057dc4fb59","system_id":"levelo_inurba_marseille","lat":43.23058,"lon":5.3549,"is_reserved":false,"is_disabled":false,"rental_uris":{"android":"levelo://app?vid=6cb2fd54-0aca-4f7d-aadb-bc057dc4fb59","ios":"levelo://app?vid=6cb2fd54-0aca-4f7d-aadb-bc057dc4fb59"},"vehicle_type_id":"4","last_reported":1728641331,"current_range_meters":28400,"station_id":"cpo3342slgdg3j2ifvpg","pricing_plan_id":"cebpf4jnsgd1na2vs0mg"},{"bike_id":"32a0beee-2ad6-4725-91d5-f3e90c03c869","system_id":"levelo_inurba_marseille","lat":43.28943,"lon":5.39637,"is_reserved":false,"is_disabled":false,"rental_uris":{"android":"levelo://app?vid=32a0beee-2ad6-4725-91d5-f3e90c03c869","ios":"levelo://app?vid=32a0beee-2ad6-4725-91d5-f3e90c03c869"},"vehicle_type_id":"4","last_reported":1728641331,"current_range_meters":12000,"station_id":"ce4bh3h2rcd13ifvqdn0","pricing_plan_id":"cebpf4jnsgd1na2vs0mg"},{"bike_id":"2f161ffd-0e86-4e18-b3bd-984cb77eecc3","system_id":"levelo_inurba_marseille","lat":43.30098,"lon":5.38673,"is_reserved":false,"is_disabled":false,"rental_uris":{"android":"levelo://app?vid=2f161ffd-0e86-4e18-b3bd-984cb77eecc3","ios":"levelo://app?vid=2f161ffd-0e86-4e18-b3bd-984cb77eecc3"},"vehicle_type_id":"4","last_reported":1728641331,"current_range_meters":19600,"station_id":"ce4bh012rcd13ifvqcv0","pricing_plan_id":"cebpf4jnsgd1na2vs0mg"},{"bike_id":"6829a20b-a9a8-4dd6-ba6c-3e317f623d08","system_id":"levelo_inurba_marseille","lat":43.30545,"lon":5.36693,"is_reserved":false,"is_disabled":false,"rental_uris":{"android":"levelo://app?vid=6829a20b-a9a8-4dd6-ba6c-3e317f623d08","ios":"levelo://app?vid=6829a20b-a9a8-4dd6-ba6c-3e317f623d08"},"vehicle_type_id":"4","last_reported":1728641331,"current_range_meters":39200,"station_id":"ce4bgrp2rcd13ifvqc9g","pricing_plan_id":"cebpf4jnsgd1na2vs0mg"},{"bike_id":"1aeb4897-70a0-4551-a71d-42119fc01eed","system_id":"levelo_inurba_marseille","lat":43.25185,"lon":5.4029,"is_reserved":false,"is_disabled":false,"rental_uris":{"android":"levelo://app?vid=1aeb4897-70a0-4551-a71d-42119fc01eed","ios":"levelo://app?vid=1aeb4897-70a0-4551-a71d-42119fc01eed"},"vehicle_type_id":"4","last_reported":1728641331,"current_range_meters":35200,"station_id":"","pricing_plan_id":"cebpf4jnsgd1na2vs0mg"},{"bike_id":"34ce14c0-f173-4074-8103-4e09e52b3938","system_id":"levelo_inurba_marseille","lat":43.26199,"lon":5.37919,"is_reserved":false,"is_disabled":false,"rental_uris":{"android":"levelo://app?vid=34ce14c0-f173-4074-8103-4e09e52b3938","ios":"levelo://app?vid=34ce14c0-f173-4074-8103-4e09e52b3938"},"vehicle_type_id":"4","last_reported":1728641331,"current_range_meters":38000,"station_id":"ce4bhjp2rcd13ifvqg90","pricing_plan_id":"cebpf4jnsgd1na2vs0mg"},{"bike_id":"b294664d-bf5f-431c-8dc6-ec31666f0fb6","system_id":"levelo_inurba_marseille","lat":43.27207,"lon":5.39177,"is_reserved":false,"is_disabled":false,"rental_uris":{"android":"levelo://app?vid=b294664d-bf5f-431c-8dc6-ec31666f0fb6","ios":"levelo://app?vid=b294664d-bf5f-431c-8dc6-ec31666f0fb6"},"vehicle_type_id":"4","last_reported":1728641331,"current_range_meters":26800,"station_id":"ce4bhhp2rcd13ifvqfm0","pricing_plan_id":"cebpf4jnsgd1na2vs0mg"},{"bike_id":"5c89462a-42e9-4fe1-a27a-2bc821d0f4d0","system_id":"levelo_inurba_marseille","lat":43.304255,"lon":5.397277,"is_reserved":false,"is_disabled":false,"rental_uris":{"android":"levelo://app?vid=5c89462a-42e9-4fe1-a27a-2bc821d0f4d0","ios":"levelo://app?vid=5c89462a-42e9-4fe1-a27a-2bc821d0f4d0"},"vehicle_type_id":"4","last_reported":1728641331,"current_range_meters":8800,"station_id":"ce4bh092rcd13ifvqd20","pricing_plan_id":"cebpf4jnsgd1na2vs0mg"},{"bike_id":"3d28e407-78b0-4910-80a4-994e71ca33cb","system_id":"levelo_inurba_marseille","lat":43.28432,"lon":5.39178,"is_reserved":false,"is_disabled":false,"rental_uris":{"android":"levelo://app?vid=3d28e407-78b0-4910-80a4-994e71ca33cb","ios":"levelo://app?vid=3d28e407-78b0-4910-80a4-994e71ca33cb"},"vehicle_type_id":"4","last_reported":1728641331,"current_range_meters":10800,"station_id":"ce4bhoh2rcd13ifvqh5g","pricing_plan_id":"cebpf4jnsgd1na2vs0mg"},{"bike_id":"0d9cff96-a0c0-41a9-9cc3-2b1c5a475ebd","system_id":"levelo_inurba_marseille","lat":43.29498,"lon":5.39031,"is_reserved":false,"is_disabled":false,"rental_uris":{"android":"levelo://app?vid=0d9cff96-a0c0-41a9-9cc3-2b1c5a475ebd","ios":"levelo://app?vid=0d9cff96-a0c0-41a9-9cc3-2b1c5a475ebd"},"vehicle_type_id":"4","last_reported":1728641331,"current_range_meters":34800,"station_id":"ce4bh3p2rcd13ifvqdp0","pricing_plan_id":"cebpf4jnsgd1na2vs0mg"},{"bike_id":"e40e4121-cb5b-400e-b737-26eb2766fa21","system_id":"levelo_inurba_marseille","lat":43.304341,"lon":5.397354,"is_reserved":false,"is_disabled":false,"rental_uris":{"android":"levelo://app?vid=e40e4121-cb5b-400e-b737-26eb2766fa21","ios":"levelo://app?vid=e40e4121-cb5b-400e-b737-26eb2766fa21"},"vehicle_type_id":"4","last_reported":1728641331,"current_range_meters":28400,"station_id":"","pricing_plan_id":"cebpf4jnsgd1na2vs0mg"},{"bike_id":"cff5374c-aa07-46df-a0b1-ce6c4e44bddd","system_id":"levelo_inurba_marseille","lat":43.26678,"lon":5.38272,"is_reserved":false,"is_disabled":false,"rental_uris":{"android":"levelo://app?vid=cff5374c-aa07-46df-a0b1-ce6c4e44bddd","ios":"levelo://app?vid=cff5374c-aa07-46df-a0b1-ce6c4e44bddd"},"vehicle_type_id":"4","last_reported":1728641331,"current_range_meters":29600,"station_id":"ce4bhg92rcd13ifvqf90","pricing_plan_id":"cebpf4jnsgd1na2vs0mg"},{"bike_id":"e7a6466f-afd6-4c6d-abec-adeedca741ed","system_id":"levelo_inurba_marseille","lat":43.2958,"lon":5.36745,"is_reserved":false,"is_disabled":false,"rental_uris":{"android":"levelo://app?vid=e7a6466f-afd6-4c6d-abec-adeedca741ed","ios":"levelo://app?vid=e7a6466f-afd6-4c6d-abec-adeedca741ed"},"vehicle_type_id":"4","last_reported":1728641331,"current_range_meters":26000,"station_id":"ce4bgph2rcd13ifvqc2g","pricing_plan_id":"cebpf4jnsgd1na2vs0mg"},{"bike_id":"6d514f78-fa9b-4da2-a228-3142817e295f","system_id":"levelo_inurba_marseille","lat":43.28846,"lon":5.39316,"is_reserved":false,"is_disabled":false,"rental_uris":{"android":"levelo://app?vid=6d514f78-fa9b-4da2-a228-3142817e295f","ios":"levelo://app?vid=6d514f78-fa9b-4da2-a228-3142817e295f"},"vehicle_type_id":"4","last_reported":1728641331,"current_range_meters":19200,"station_id":"ce4bh2p2rcd13ifvqdi0","pricing_plan_id":"cebpf4jnsgd1na2vs0mg"},{"bike_id":"03b66326-d41d-4d92-a949-51b77b73151a","system_id":"levelo_inurba_marseille","lat":43.30421,"lon":5.39751,"is_reserved":false,"is_disabled":false,"rental_uris":{"android":"levelo://app?vid=03b66326-d41d-4d92-a949-51b77b73151a","ios":"levelo://app?vid=03b66326-d41d-4d92-a949-51b77b73151a"},"vehicle_type_id":"4","last_reported":1728641331,"current_range_meters":37600,"station_id":"ce4bh092rcd13ifvqd20","pricing_plan_id":"cebpf4jnsgd1na2vs0mg"},{"bike_id":"e05e04f4-e651-424c-a6aa-8f864e46be12","system_id":"levelo_inurba_marseille","lat":43.28413,"lon":5.34984,"is_reserved":false,"is_disabled":false,"rental_uris":{"android":"levelo://app?vid=e05e04f4-e651-424c-a6aa-8f864e46be12","ios":"levelo://app?vid=e05e04f4-e651-424c-a6aa-8f864e46be12"},"vehicle_type_id":"4","last_reported":1728641331,"current_range_meters":6400,"station_id":"ce4bhbh2rcd13ifvqepg","pricing_plan_id":"cebpf4jnsgd1na2vs0mg"},{"bike_id":"a0efacd8-e569-45d0-a5c7-9ef3274c0675","system_id":"levelo_inurba_marseille","lat":43.23154,"lon":5.43702,"is_reserved":false,"is_disabled":false,"rental_uris":{"android":"levelo://app?vid=a0efacd8-e569-45d0-a5c7-9ef3274c0675","ios":"levelo://app?vid=a0efacd8-e569-45d0-a5c7-9ef3274c0675"},"vehicle_type_id":"4","last_reported":1728641331,"current_range_meters":26800,"station_id":"ce4bhmp2rcd13ifvqgog","pricing_plan_id":"cebpf4jnsgd1na2vs0mg"},{"bike_id":"9f1d00cc-b20d-4df4-945b-9367ef123217","system_id":"levelo_inurba_marseille","lat":43.27812,"lon":5.40708,"is_reserved":false,"is_disabled":false,"rental_uris":{"android":"levelo://app?vid=9f1d00cc-b20d-4df4-945b-9367ef123217","ios":"levelo://app?vid=9f1d00cc-b20d-4df4-945b-9367ef123217"},"vehicle_type_id":"4","last_reported":1728641331,"current_range_meters":25200,"station_id":"ce4bhnh2rcd13ifvqgtg","pricing_plan_id":"cebpf4jnsgd1na2vs0mg"},{"bike_id":"0e50b1a9-5b5b-425a-b7a5-0f784e28ba59","system_id":"levelo_inurba_marseille","lat":43.26683,"lon":5.38273,"is_reserved":false,"is_disabled":false,"rental_uris":{"android":"levelo://app?vid=0e50b1a9-5b5b-425a-b7a5-0f784e28ba59","ios":"levelo://app?vid=0e50b1a9-5b5b-425a-b7a5-0f784e28ba59"},"vehicle_type_id":"4","last_reported":1728641331,"current_range_meters":9200,"station_id":"ce4bhg92rcd13ifvqf90","pricing_plan_id":"cebpf4jnsgd1na2vs0mg"},{"bike_id":"176756b9-005a-42ff-89bd-9859c13243a6","system_id":"levelo_inurba_marseille","lat":43.29298,"lon":5.37441,"is_reserved":false,"is_disabled":false,"rental_uris":{"android":"levelo://app?vid=176756b9-005a-42ff-89bd-9859c13243a6","ios":"levelo://app?vid=176756b9-005a-42ff-89bd-9859c13243a6"},"vehicle_type_id":"4","last_reported":1728641331,"current_range_meters":38400,"station_id":"ce4bgi12rcd13ifvqb70","pricing_plan_id":"cebpf4jnsgd1na2vs0mg"},{"bike_id":"7291c016-fd15-439a-9cd2-6f03dbf02c9a","system_id":"levelo_inurba_marseille","lat":43.313629,"lon":5.384951,"is_reserved":false,"is_disabled":false,"rental_uris":{"android":"levelo://app?vid=7291c016-fd15-439a-9cd2-6f03dbf02c9a","ios":"levelo://app?vid=7291c016-fd15-439a-9cd2-6f03dbf02c9a"},"vehicle_type_id":"4","last_reported":1728641331,"current_range_meters":18800,"station_id":"ce4bgt92rcd13ifvqcf0","pricing_plan_id":"cebpf4jnsgd1na2vs0mg"},{"bike_id":"1f414c8b-63c3-44b5-9ced-9e0bb0817876","system_id":"levelo_inurba_marseille","lat":43.23178,"lon":5.39982,"is_reserved":false,"is_disabled":false,"rental_uris":{"android":"levelo://app?vid=1f414c8b-63c3-44b5-9ced-9e0bb0817876","ios":"levelo://app?vid=1f414c8b-63c3-44b5-9ced-9e0bb0817876"},"vehicle_type_id":"4","last_reported":1728641331,"current_range_meters":9200,"station_id":"ce4bhn12rcd13ifvqgqg","pricing_plan_id":"cebpf4jnsgd1na2vs0mg"},{"bike_id":"67e9ef0f-8547-4728-8a7c-e03a846295ea","system_id":"levelo_inurba_marseille","lat":43.337444,"lon":5.374475,"is_reserved":false,"is_disabled":false,"rental_uris":{"android":"levelo://app?vid=67e9ef0f-8547-4728-8a7c-e03a846295ea","ios":"levelo://app?vid=67e9ef0f-8547-4728-8a7c-e03a846295ea"},"vehicle_type_id":"4","last_reported":1728641331,"current_range_meters":27200,"station_id":"ce4bgup2rcd13ifvqco0","pricing_plan_id":"cebpf4jnsgd1na2vs0mg"},{"bike_id":"315f75cd-17ed-4586-83f4-fd7ca751b850","system_id":"levelo_inurba_marseille","lat":43.302108,"lon":5.394652,"is_reserved":false,"is_disabled":false,"rental_uris":{"android":"levelo://app?vid=315f75cd-17ed-4586-83f4-fd7ca751b850","ios":"levelo://app?vid=315f75cd-17ed-4586-83f4-fd7ca751b850"},"vehicle_type_id":"4","last_reported":1728641331,"current_range_meters":20800,"station_id":"ce4bh0p2rcd13ifvqd70","pricing_plan_id":"cebpf4jnsgd1na2vs0mg"},{"bike_id":"132c9252-5824-41a3-9290-f39fb72b5686","system_id":"levelo_inurba_marseille","lat":43.29531,"lon":5.38554,"is_reserved":false,"is_disabled":false,"rental_uris":{"android":"levelo://app?vid=132c9252-5824-41a3-9290-f39fb72b5686","ios":"levelo://app?vid=132c9252-5824-41a3-9290-f39fb72b5686"},"vehicle_type_id":"4","last_reported":1728641331,"current_range_meters":16800,"station_id":"ce4bgih2rcd13ifvqba0","pricing_plan_id":"cebpf4jnsgd1na2vs0mg"},{"bike_id":"04e41830-0067-4ac7-8ffb-9bb116d05008","system_id":"levelo_inurba_marseille","lat":43.24075,"lon":5.37762,"is_reserved":false,"is_disabled":false,"rental_uris":{"android":"levelo://app?vid=04e41830-0067-4ac7-8ffb-9bb116d05008","ios":"levelo://app?vid=04e41830-0067-4ac7-8ffb-9bb116d05008"},"vehicle_type_id":"4","last_reported":1728641331,"current_range_meters":10800,"station_id":"ce4bhnp2rcd13ifvqgvg","pricing_plan_id":"cebpf4jnsgd1na2vs0mg"},{"bike_id":"0f26fbcc-6594-4e72-bd84-0b3e53dc6ed8","system_id":"levelo_inurba_marseille","lat":43.29561,"lon":5.37493,"is_reserved":false,"is_disabled":false,"rental_uris":{"android":"levelo://app?vid=0f26fbcc-6594-4e72-bd84-0b3e53dc6ed8","ios":"levelo://app?vid=0f26fbcc-6594-4e72-bd84-0b3e53dc6ed8"},"vehicle_type_id":"4","last_reported":1728641331,"current_range_meters":26800,"station_id":"ce4bgh92rcd13ifvqb50","pricing_plan_id":"cebpf4jnsgd1na2vs0mg"},{"bike_id":"c5c42fee-437e-4f04-9d24-da62b61527b5","system_id":"levelo_inurba_marseille","lat":43.337444,"lon":5.374475,"is_reserved":false,"is_disabled":false,"rental_uris":{"android":"levelo://app?vid=c5c42fee-437e-4f04-9d24-da62b61527b5","ios":"levelo://app?vid=c5c42fee-437e-4f04-9d24-da62b61527b5"},"vehicle_type_id":"4","last_reported":1728641331,"current_range_meters":31200,"station_id":"","pricing_plan_id":"cebpf4jnsgd1na2vs0mg"},{"bike_id":"257d4e5b-f84f-4ec9-a8b0-5ba4d08f9d7b","system_id":"levelo_inurba_marseille","lat":43.2942,"lon":5.38622,"is_reserved":false,"is_disabled":false,"rental_uris":{"android":"levelo://app?vid=257d4e5b-f84f-4ec9-a8b0-5ba4d08f9d7b","ios":"levelo://app?vid=257d4e5b-f84f-4ec9-a8b0-5ba4d08f9d7b"},"vehicle_type_id":"4","last_reported":1728641331,"current_range_meters":17600,"station_id":"ce4bh2h2rcd13ifvqdh0","pricing_plan_id":"cebpf4jnsgd1na2vs0mg"},{"bike_id":"63f1a603-d2fe-49f7-85fe-4c172c551f9e","system_id":"levelo_inurba_marseille","lat":43.29528,"lon":5.39042,"is_reserved":false,"is_disabled":false,"rental_uris":{"android":"levelo://app?vid=63f1a603-d2fe-49f7-85fe-4c172c551f9e","ios":"levelo://app?vid=63f1a603-d2fe-49f7-85fe-4c172c551f9e"},"vehicle_type_id":"4","last_reported":1728641331,"current_range_meters":34800,"station_id":"ce4bh3p2rcd13ifvqdp0","pricing_plan_id":"cebpf4jnsgd1na2vs0mg"},{"bike_id":"eb7735f1-d4e9-4a28-8bb3-1332ddd3908f","system_id":"levelo_inurba_marseille","lat":43.29531,"lon":5.39046,"is_reserved":false,"is_disabled":false,"rental_uris":{"android":"levelo://app?vid=eb7735f1-d4e9-4a28-8bb3-1332ddd3908f","ios":"levelo://app?vid=eb7735f1-d4e9-4a28-8bb3-1332ddd3908f"},"vehicle_type_id":"4","last_reported":1728641331,"current_range_meters":24000,"station_id":"ce4bh3p2rcd13ifvqdp0","pricing_plan_id":"cebpf4jnsgd1na2vs0mg"},{"bike_id":"c4c93f34-128e-4af1-a3c5-46d82d2220f0","system_id":"levelo_inurba_marseille","lat":43.27621,"lon":5.36109,"is_reserved":false,"is_disabled":false,"rental_uris":{"android":"levelo://app?vid=c4c93f34-128e-4af1-a3c5-46d82d2220f0","ios":"levelo://app?vid=c4c93f34-128e-4af1-a3c5-46d82d2220f0"},"vehicle_type_id":"4","last_reported":1728641331,"current_range_meters":39200,"station_id":"ce4bgj92rcd13ifvqbe0","pricing_plan_id":"cebpf4jnsgd1na2vs0mg"},{"bike_id":"aa790d9f-4a10-4c3d-a2db-37343788ecf5","system_id":"levelo_inurba_marseille","lat":43.29225,"lon":5.36064,"is_reserved":false,"is_disabled":false,"rental_uris":{"android":"levelo://app?vid=aa790d9f-4a10-4c3d-a2db-37343788ecf5","ios":"levelo://app?vid=aa790d9f-4a10-4c3d-a2db-37343788ecf5"},"vehicle_type_id":"4","last_reported":1728641331,"current_range_meters":38400,"station_id":"ce4bhbh2rcd13ifvqeqg","pricing_plan_id":"cebpf4jnsgd1na2vs0mg"},{"bike_id":"c2709d8c-182c-4c66-9678-32143d413767","system_id":"levelo_inurba_marseille","lat":43.22934,"lon":5.35381,"is_reserved":false,"is_disabled":false,"rental_uris":{"android":"levelo://app?vid=c2709d8c-182c-4c66-9678-32143d413767","ios":"levelo://app?vid=c2709d8c-182c-4c66-9678-32143d413767"},"vehicle_type_id":"4","last_reported":1728641331,"current_range_meters":32000,"station_id":"cpo3532slgdg3j2ikp40","pricing_plan_id":"cebpf4jnsgd1na2vs0mg"},{"bike_id":"ec34c4fa-c532-4c4a-b25c-44887bdf6964","system_id":"levelo_inurba_marseille","lat":43.23969,"lon":5.36628,"is_reserved":false,"is_disabled":false,"rental_uris":{"android":"levelo://app?vid=ec34c4fa-c532-4c4a-b25c-44887bdf6964","ios":"levelo://app?vid=ec34c4fa-c532-4c4a-b25c-44887bdf6964"},"vehicle_type_id":"4","last_reported":1728641331,"current_range_meters":28400,"station_id":"ce4bhi12rcd13ifvqfp0","pricing_plan_id":"cebpf4jnsgd1na2vs0mg"},{"bike_id":"bb415eeb-a786-470c-932f-3eb2e7a3d4dd","system_id":"levelo_inurba_marseille","lat":43.33616,"lon":5.41031,"is_reserved":false,"is_disabled":false,"rental_uris":{"android":"levelo://app?vid=bb415eeb-a786-470c-932f-3eb2e7a3d4dd","ios":"levelo://app?vid=bb415eeb-a786-470c-932f-3eb2e7a3d4dd"},"vehicle_type_id":"4","last_reported":1728641331,"current_range_meters":25200,"station_id":"ce4bhqh2rcd13ifvqhmg","pricing_plan_id":"cebpf4jnsgd1na2vs0mg"},{"bike_id":"843e8910-1929-496a-bc6c-734abbe1836f","system_id":"levelo_inurba_marseille","lat":43.31084,"lon":5.42429,"is_reserved":false,"is_disabled":false,"rental_uris":{"android":"levelo://app?vid=843e8910-1929-496a-bc6c-734abbe1836f","ios":"levelo://app?vid=843e8910-1929-496a-bc6c-734abbe1836f"},"vehicle_type_id":"4","last_reported":1728641331,"current_range_meters":26000,"station_id":"ce4bhp92rcd13ifvqhag","pricing_plan_id":"cebpf4jnsgd1na2vs0mg"},{"bike_id":"ed53c3a3-64cf-42c5-ba33-1b7d69b6ede7","system_id":"levelo_inurba_marseille","lat":43.2481,"lon":5.3746,"is_reserved":false,"is_disabled":false,"rental_uris":{"android":"levelo://app?vid=ed53c3a3-64cf-42c5-ba33-1b7d69b6ede7","ios":"levelo://app?vid=ed53c3a3-64cf-42c5-ba33-1b7d69b6ede7"},"vehicle_type_id":"4","last_reported":1728641331,"current_range_meters":38800,"station_id":"ce4bhgh2rcd13ifvqfb0","pricing_plan_id":"cebpf4jnsgd1na2vs0mg"},{"bike_id":"14b07fed-aacd-4f67-bc2e-4b35e6570c46","system_id":"levelo_inurba_marseille","lat":43.29203,"lon":5.40019,"is_reserved":false,"is_disabled":false,"rental_uris":{"android":"levelo://app?vid=14b07fed-aacd-4f67-bc2e-4b35e6570c46","ios":"levelo://app?vid=14b07fed-aacd-4f67-bc2e-4b35e6570c46"},"vehicle_type_id":"4","last_reported":1728641331,"current_range_meters":8800,"station_id":"","pricing_plan_id":"cebpf4jnsgd1na2vs0mg"},{"bike_id":"9dede6fa-581f-43f2-bf59-19a81581c626","system_id":"levelo_inurba_marseille","lat":43.31481,"lon":5.37315,"is_reserved":false,"is_disabled":false,"rental_uris":{"android":"levelo://app?vid=9dede6fa-581f-43f2-bf59-19a81581c626","ios":"levelo://app?vid=9dede6fa-581f-43f2-bf59-19a81581c626"},"vehicle_type_id":"4","last_reported":1728641331,"current_range_meters":18800,"station_id":"ce4bgt12rcd13ifvqcd0","pricing_plan_id":"cebpf4jnsgd1na2vs0mg"},{"bike_id":"15d17ad8-8082-42ca-9529-21626d10a661","system_id":"levelo_inurba_marseille","lat":43.29896,"lon":5.43673,"is_reserved":false,"is_disabled":false,"rental_uris":{"android":"levelo://app?vid=15d17ad8-8082-42ca-9529-21626d10a661","ios":"levelo://app?vid=15d17ad8-8082-42ca-9529-21626d10a661"},"vehicle_type_id":"4","last_reported":1728641331,"current_range_meters":22800,"station_id":"ce4bhpp2rcd13ifvqhfg","pricing_plan_id":"cebpf4jnsgd1na2vs0mg"},{"bike_id":"526dd2e5-da1d-4e52-89f0-003a34f65a94","system_id":"levelo_inurba_marseille","lat":43.25584,"lon":5.38226,"is_reserved":false,"is_disabled":false,"rental_uris":{"android":"levelo://app?vid=526dd2e5-da1d-4e52-89f0-003a34f65a94","ios":"levelo://app?vid=526dd2e5-da1d-4e52-89f0-003a34f65a94"},"vehicle_type_id":"4","last_reported":1728641331,"current_range_meters":11600,"station_id":"ce4bhih2rcd13ifvqfs0","pricing_plan_id":"cebpf4jnsgd1na2vs0mg"},{"bike_id":"2f5f3f97-7515-4583-a368-fc4adf2cf4d5","system_id":"levelo_inurba_marseille","lat":43.34143,"lon":5.40899,"is_reserved":false,"is_disabled":false,"rental_uris":{"android":"levelo://app?vid=2f5f3f97-7515-4583-a368-fc4adf2cf4d5","ios":"levelo://app?vid=2f5f3f97-7515-4583-a368-fc4adf2cf4d5"},"vehicle_type_id":"4","last_reported":1728641331,"current_range_meters":27600,"station_id":"ce4bhqh2rcd13ifvqhlg","pricing_plan_id":"cebpf4jnsgd1na2vs0mg"},{"bike_id":"49845bee-8ac7-4231-80dd-f79420d6d9be","system_id":"levelo_inurba_marseille","lat":43.28444,"lon":5.39187,"is_reserved":false,"is_disabled":false,"rental_uris":{"android":"levelo://app?vid=49845bee-8ac7-4231-80dd-f79420d6d9be","ios":"levelo://app?vid=49845bee-8ac7-4231-80dd-f79420d6d9be"},"vehicle_type_id":"4","last_reported":1728641331,"current_range_meters":30000,"station_id":"ce4bhoh2rcd13ifvqh5g","pricing_plan_id":"cebpf4jnsgd1na2vs0mg"},{"bike_id":"878be9ee-7132-4a72-9079-f3dbf3553c44","system_id":"levelo_inurba_marseille","lat":43.33606,"lon":5.4103,"is_reserved":false,"is_disabled":false,"rental_uris":{"android":"levelo://app?vid=878be9ee-7132-4a72-9079-f3dbf3553c44","ios":"levelo://app?vid=878be9ee-7132-4a72-9079-f3dbf3553c44"},"vehicle_type_id":"4","last_reported":1728641331,"current_range_meters":9200,"station_id":"ce4bhqh2rcd13ifvqhmg","pricing_plan_id":"cebpf4jnsgd1na2vs0mg"},{"bike_id":"71afc88c-f31a-4d35-8f41-3a6da9afe2a7","system_id":"levelo_inurba_marseille","lat":43.33724,"lon":5.39185,"is_reserved":false,"is_disabled":false,"rental_uris":{"android":"levelo://app?vid=71afc88c-f31a-4d35-8f41-3a6da9afe2a7","ios":"levelo://app?vid=71afc88c-f31a-4d35-8f41-3a6da9afe2a7"},"vehicle_type_id":"4","last_reported":1728641331,"current_range_meters":28800,"station_id":"ce4bhr92rcd13ifvqhsg","pricing_plan_id":"cebpf4jnsgd1na2vs0mg"},{"bike_id":"50aa4af7-94b4-48c9-959d-eeec3eaec001","system_id":"levelo_inurba_marseille","lat":43.23189,"lon":5.35541,"is_reserved":false,"is_disabled":false,"rental_uris":{"android":"levelo://app?vid=50aa4af7-94b4-48c9-959d-eeec3eaec001","ios":"levelo://app?vid=50aa4af7-94b4-48c9-959d-eeec3eaec001"},"vehicle_type_id":"4","last_reported":1728641331,"current_range_meters":38000,"station_id":"ce4bhu92rcd13ifvqi70","pricing_plan_id":"cebpf4jnsgd1na2vs0mg"},{"bike_id":"dade3d2f-3f22-4b1e-92c9-4504fc72033e","system_id":"levelo_inurba_marseille","lat":43.26945,"lon":5.386255,"is_reserved":false,"is_disabled":false,"rental_uris":{"android":"levelo://app?vid=dade3d2f-3f22-4b1e-92c9-4504fc72033e","ios":"levelo://app?vid=dade3d2f-3f22-4b1e-92c9-4504fc72033e"},"vehicle_type_id":"4","last_reported":1728641331,"current_range_meters":27600,"station_id":"ce4bhh92rcd13ifvqfh0","pricing_plan_id":"cebpf4jnsgd1na2vs0mg"},{"bike_id":"38811800-990c-4b4f-93b0-519c6d818a43","system_id":"levelo_inurba_marseille","lat":43.33605,"lon":5.41027,"is_reserved":false,"is_disabled":false,"rental_uris":{"android":"levelo://app?vid=38811800-990c-4b4f-93b0-519c6d818a43","ios":"levelo://app?vid=38811800-990c-4b4f-93b0-519c6d818a43"},"vehicle_type_id":"4","last_reported":1728641331,"current_range_meters":37600,"station_id":"ce4bhqh2rcd13ifvqhmg","pricing_plan_id":"cebpf4jnsgd1na2vs0mg"},{"bike_id":"f635b368-2162-4390-ba08-8066fb5a281c","system_id":"levelo_inurba_marseille","lat":43.28722,"lon":5.36099,"is_reserved":false,"is_disabled":false,"rental_uris":{"android":"levelo://app?vid=f635b368-2162-4390-ba08-8066fb5a281c","ios":"levelo://app?vid=f635b368-2162-4390-ba08-8066fb5a281c"},"vehicle_type_id":"4","last_reported":1728641331,"current_range_meters":20800,"station_id":"cki0cbj6b192h4jlfktg","pricing_plan_id":"cebpf4jnsgd1na2vs0mg"},{"bike_id":"38a4ab24-c72a-4a14-9d24-e17526af307d","system_id":"levelo_inurba_marseille","lat":43.29782,"lon":5.37104,"is_reserved":false,"is_disabled":false,"rental_uris":{"android":"levelo://app?vid=38a4ab24-c72a-4a14-9d24-e17526af307d","ios":"levelo://app?vid=38a4ab24-c72a-4a14-9d24-e17526af307d"},"vehicle_type_id":"4","last_reported":1728641331,"current_range_meters":24800,"station_id":"ce4bgop2rcd13ifvqc1g","pricing_plan_id":"cebpf4jnsgd1na2vs0mg"},{"bike_id":"e78251a7-1b20-4e2f-bd9d-b431a65e58b0","system_id":"levelo_inurba_marseille","lat":43.23151,"lon":5.43712,"is_reserved":false,"is_disabled":false,"rental_uris":{"android":"levelo://app?vid=e78251a7-1b20-4e2f-bd9d-b431a65e58b0","ios":"levelo://app?vid=e78251a7-1b20-4e2f-bd9d-b431a65e58b0"},"vehicle_type_id":"4","last_reported":1728641331,"current_range_meters":17600,"station_id":"ce4bhmp2rcd13ifvqgog","pricing_plan_id":"cebpf4jnsgd1na2vs0mg"},{"bike_id":"84c30ed3-60f2-43c6-a6ef-72b2abd8f6b1","system_id":"levelo_inurba_marseille","lat":43.26687,"lon":5.38265,"is_reserved":false,"is_disabled":false,"rental_uris":{"android":"levelo://app?vid=84c30ed3-60f2-43c6-a6ef-72b2abd8f6b1","ios":"levelo://app?vid=84c30ed3-60f2-43c6-a6ef-72b2abd8f6b1"},"vehicle_type_id":"4","last_reported":1728641331,"current_range_meters":33600,"station_id":"ce4bhg92rcd13ifvqf90","pricing_plan_id":"cebpf4jnsgd1na2vs0mg"},{"bike_id":"3d819519-2feb-41f9-9ba5-7980c2cc54aa","system_id":"levelo_inurba_marseille","lat":43.30541,"lon":5.36528,"is_reserved":false,"is_disabled":false,"rental_uris":{"android":"levelo://app?vid=3d819519-2feb-41f9-9ba5-7980c2cc54aa","ios":"levelo://app?vid=3d819519-2feb-41f9-9ba5-7980c2cc54aa"},"vehicle_type_id":"4","last_reported":1728641331,"current_range_meters":40000,"station_id":"ce4bgs12rcd13ifvqcag","pricing_plan_id":"cebpf4jnsgd1na2vs0mg"},{"bike_id":"c6938137-c0d6-4ace-b751-67f074547a5a","system_id":"levelo_inurba_marseille","lat":43.23151,"lon":5.43711,"is_reserved":false,"is_disabled":false,"rental_uris":{"android":"levelo://app?vid=c6938137-c0d6-4ace-b751-67f074547a5a","ios":"levelo://app?vid=c6938137-c0d6-4ace-b751-67f074547a5a"},"vehicle_type_id":"4","last_reported":1728641331,"current_range_meters":14800,"station_id":"ce4bhmp2rcd13ifvqgog","pricing_plan_id":"cebpf4jnsgd1na2vs0mg"},{"bike_id":"6d9d9c19-4ef1-4247-82d8-7f374dab15a3","system_id":"levelo_inurba_marseille","lat":43.29009,"lon":5.35607,"is_reserved":false,"is_disabled":false,"rental_uris":{"android":"levelo://app?vid=6d9d9c19-4ef1-4247-82d8-7f374dab15a3","ios":"levelo://app?vid=6d9d9c19-4ef1-4247-82d8-7f374dab15a3"},"vehicle_type_id":"4","last_reported":1728641331,"current_range_meters":32000,"station_id":"ce4bhb92rcd13ifvqen0","pricing_plan_id":"cebpf4jnsgd1na2vs0mg"},{"bike_id":"7c512273-1b1d-461f-a4be-dd0ccda8c83c","system_id":"levelo_inurba_marseille","lat":43.27813,"lon":5.40708,"is_reserved":false,"is_disabled":false,"rental_uris":{"android":"levelo://app?vid=7c512273-1b1d-461f-a4be-dd0ccda8c83c","ios":"levelo://app?vid=7c512273-1b1d-461f-a4be-dd0ccda8c83c"},"vehicle_type_id":"4","last_reported":1728641331,"current_range_meters":38000,"station_id":"ce4bhnh2rcd13ifvqgtg","pricing_plan_id":"cebpf4jnsgd1na2vs0mg"},{"bike_id":"58babe19-98e3-4f15-a81d-ba2957c9848b","system_id":"levelo_inurba_marseille","lat":43.26207,"lon":5.37441,"is_reserved":false,"is_disabled":false,"rental_uris":{"android":"levelo://app?vid=58babe19-98e3-4f15-a81d-ba2957c9848b","ios":"levelo://app?vid=58babe19-98e3-4f15-a81d-ba2957c9848b"},"vehicle_type_id":"4","last_reported":1728641331,"current_range_meters":36000,"station_id":"ce4bhgp2rcd13ifvqfc0","pricing_plan_id":"cebpf4jnsgd1na2vs0mg"},{"bike_id":"cb54d05c-20cd-4e40-a8cc-3b29344313f6","system_id":"levelo_inurba_marseille","lat":43.30881,"lon":5.39658,"is_reserved":false,"is_disabled":false,"rental_uris":{"android":"levelo://app?vid=cb54d05c-20cd-4e40-a8cc-3b29344313f6","ios":"levelo://app?vid=cb54d05c-20cd-4e40-a8cc-3b29344313f6"},"vehicle_type_id":"4","last_reported":1728641331,"current_range_meters":28000,"station_id":"ce4bh012rcd13ifvqcv0","pricing_plan_id":"cebpf4jnsgd1na2vs0mg"},{"bike_id":"47717afc-4238-43f1-b35b-a62124556ff4","system_id":"levelo_inurba_marseille","lat":43.25865,"lon":5.39895,"is_reserved":false,"is_disabled":false,"rental_uris":{"android":"levelo://app?vid=47717afc-4238-43f1-b35b-a62124556ff4","ios":"levelo://app?vid=47717afc-4238-43f1-b35b-a62124556ff4"},"vehicle_type_id":"4","last_reported":1728641331,"current_range_meters":9200,"station_id":"ce4bhl92rcd13ifvqghg","pricing_plan_id":"cebpf4jnsgd1na2vs0mg"},{"bike_id":"e49452fd-0278-4968-b0f4-dde754bdddb9","system_id":"levelo_inurba_marseille","lat":43.337444,"lon":5.374475,"is_reserved":false,"is_disabled":false,"rental_uris":{"android":"levelo://app?vid=e49452fd-0278-4968-b0f4-dde754bdddb9","ios":"levelo://app?vid=e49452fd-0278-4968-b0f4-dde754bdddb9"},"vehicle_type_id":"4","last_reported":1728641331,"current_range_meters":23200,"station_id":"ce4bh0h2rcd13ifvqd40","pricing_plan_id":"cebpf4jnsgd1na2vs0mg"},{"bike_id":"cea95fcd-5510-4e29-a295-74e45d2353a1","system_id":"levelo_inurba_marseille","lat":43.2862,"lon":5.35099,"is_reserved":false,"is_disabled":false,"rental_uris":{"android":"levelo://app?vid=cea95fcd-5510-4e29-a295-74e45d2353a1","ios":"levelo://app?vid=cea95fcd-5510-4e29-a295-74e45d2353a1"},"vehicle_type_id":"4","last_reported":1728641331,"current_range_meters":7200,"station_id":"ce4bhch2rcd13ifvqeug","pricing_plan_id":"cebpf4jnsgd1na2vs0mg"},{"bike_id":"343b0b71-e8a5-4e03-beee-c377c4b682ad","system_id":"levelo_inurba_marseille","lat":43.25812,"lon":5.39431,"is_reserved":false,"is_disabled":false,"rental_uris":{"android":"levelo://app?vid=343b0b71-e8a5-4e03-beee-c377c4b682ad","ios":"levelo://app?vid=343b0b71-e8a5-4e03-beee-c377c4b682ad"},"vehicle_type_id":"4","last_reported":1728641331,"current_range_meters":19600,"station_id":"ce4bhip2rcd13ifvqft0","pricing_plan_id":"cebpf4jnsgd1na2vs0mg"},{"bike_id":"684d88b2-eb8c-4e05-ae37-d1d8a22b101a","system_id":"levelo_inurba_marseille","lat":43.23146,"lon":5.43727,"is_reserved":false,"is_disabled":false,"rental_uris":{"android":"levelo://app?vid=684d88b2-eb8c-4e05-ae37-d1d8a22b101a","ios":"levelo://app?vid=684d88b2-eb8c-4e05-ae37-d1d8a22b101a"},"vehicle_type_id":"4","last_reported":1728641331,"current_range_meters":29600,"station_id":"ce4bhmp2rcd13ifvqgog","pricing_plan_id":"cebpf4jnsgd1na2vs0mg"},{"bike_id":"ff68b789-7173-415f-860f-fb58c1b9d01d","system_id":"levelo_inurba_marseille","lat":43.22929,"lon":5.3538,"is_reserved":false,"is_disabled":false,"rental_uris":{"android":"levelo://app?vid=ff68b789-7173-415f-860f-fb58c1b9d01d","ios":"levelo://app?vid=ff68b789-7173-415f-860f-fb58c1b9d01d"},"vehicle_type_id":"4","last_reported":1728641331,"current_range_meters":31200,"station_id":"cpo3532slgdg3j2ikp40","pricing_plan_id":"cebpf4jnsgd1na2vs0mg"},{"bike_id":"d09a9fcf-fb9f-4373-a651-bf0e08460105","system_id":"levelo_inurba_marseille","lat":43.27173,"lon":5.40985,"is_reserved":false,"is_disabled":false,"rental_uris":{"android":"levelo://app?vid=d09a9fcf-fb9f-4373-a651-bf0e08460105","ios":"levelo://app?vid=d09a9fcf-fb9f-4373-a651-bf0e08460105"},"vehicle_type_id":"4","last_reported":1728641331,"current_range_meters":37600,"station_id":"ce4bhl12rcd13ifvqgf0","pricing_plan_id":"cebpf4jnsgd1na2vs0mg"},{"bike_id":"6cb5b02c-2401-484a-8b7d-b4d2106d6b08","system_id":"levelo_inurba_marseille","lat":43.2319,"lon":5.35554,"is_reserved":false,"is_disabled":false,"rental_uris":{"android":"levelo://app?vid=6cb5b02c-2401-484a-8b7d-b4d2106d6b08","ios":"levelo://app?vid=6cb5b02c-2401-484a-8b7d-b4d2106d6b08"},"vehicle_type_id":"4","last_reported":1728641331,"current_range_meters":36400,"station_id":"ce4bhu92rcd13ifvqi70","pricing_plan_id":"cebpf4jnsgd1na2vs0mg"},{"bike_id":"c417019c-5367-4191-a213-8153b6c2ea08","system_id":"levelo_inurba_marseille","lat":43.32476,"lon":5.36572,"is_reserved":false,"is_disabled":false,"rental_uris":{"android":"levelo://app?vid=c417019c-5367-4191-a213-8153b6c2ea08","ios":"levelo://app?vid=c417019c-5367-4191-a213-8153b6c2ea08"},"vehicle_type_id":"4","last_reported":1728641331,"current_range_meters":25600,"station_id":"ce4bhs12rcd13ifvqhvg","pricing_plan_id":"cebpf4jnsgd1na2vs0mg"},{"bike_id":"dbdea400-ecb0-42d7-9d78-9ecb4a3af4da","system_id":"levelo_inurba_marseille","lat":43.337444,"lon":5.374475,"is_reserved":false,"is_disabled":false,"rental_uris":{"android":"levelo://app?vid=dbdea400-ecb0-42d7-9d78-9ecb4a3af4da","ios":"levelo://app?vid=dbdea400-ecb0-42d7-9d78-9ecb4a3af4da"},"vehicle_type_id":"4","last_reported":1728641331,"current_range_meters":13600,"station_id":"ce4bh092rcd13ifvqd20","pricing_plan_id":"cebpf4jnsgd1na2vs0mg"},{"bike_id":"70e8d9e5-8396-4d7d-be39-1fc17a440db7","system_id":"levelo_inurba_marseille","lat":43.3361,"lon":5.41019,"is_reserved":false,"is_disabled":false,"rental_uris":{"android":"levelo://app?vid=70e8d9e5-8396-4d7d-be39-1fc17a440db7","ios":"levelo://app?vid=70e8d9e5-8396-4d7d-be39-1fc17a440db7"},"vehicle_type_id":"4","last_reported":1728641331,"current_range_meters":39200,"station_id":"ce4bhqh2rcd13ifvqhmg","pricing_plan_id":"cebpf4jnsgd1na2vs0mg"},{"bike_id":"ac975a99-947c-44b2-8c20-bedd2ae6720b","system_id":"levelo_inurba_marseille","lat":43.30536,"lon":5.36549,"is_reserved":false,"is_disabled":false,"rental_uris":{"android":"levelo://app?vid=ac975a99-947c-44b2-8c20-bedd2ae6720b","ios":"levelo://app?vid=ac975a99-947c-44b2-8c20-bedd2ae6720b"},"vehicle_type_id":"4","last_reported":1728641331,"current_range_meters":35600,"station_id":"ce4bgs12rcd13ifvqcag","pricing_plan_id":"cebpf4jnsgd1na2vs0mg"},{"bike_id":"7feda03c-1689-4827-a0fb-310bf8a90726","system_id":"levelo_inurba_marseille","lat":43.250032,"lon":5.38922,"is_reserved":false,"is_disabled":false,"rental_uris":{"android":"levelo://app?vid=7feda03c-1689-4827-a0fb-310bf8a90726","ios":"levelo://app?vid=7feda03c-1689-4827-a0fb-310bf8a90726"},"vehicle_type_id":"4","last_reported":1728641331,"current_range_meters":38800,"station_id":"ce4bhgp2rcd13ifvqfd0","pricing_plan_id":"cebpf4jnsgd1na2vs0mg"},{"bike_id":"f80c2e75-b47f-4161-9783-8454957aba75","system_id":"levelo_inurba_marseille","lat":43.32108,"lon":5.36767,"is_reserved":false,"is_disabled":false,"rental_uris":{"android":"levelo://app?vid=f80c2e75-b47f-4161-9783-8454957aba75","ios":"levelo://app?vid=f80c2e75-b47f-4161-9783-8454957aba75"},"vehicle_type_id":"4","last_reported":1728641331,"current_range_meters":5600,"station_id":"ce4bhrh2rcd13ifvqhug","pricing_plan_id":"cebpf4jnsgd1na2vs0mg"},{"bike_id":"ed32651f-42f9-48bb-8935-383872e3d9e6","system_id":"levelo_inurba_marseille","lat":43.27942,"lon":5.41048,"is_reserved":false,"is_disabled":false,"rental_uris":{"android":"levelo://app?vid=ed32651f-42f9-48bb-8935-383872e3d9e6","ios":"levelo://app?vid=ed32651f-42f9-48bb-8935-383872e3d9e6"},"vehicle_type_id":"4","last_reported":1728641331,"current_range_meters":5600,"station_id":"ce4bhnp2rcd13ifvqh0g","pricing_plan_id":"cebpf4jnsgd1na2vs0mg"},{"bike_id":"1e7c24c5-f168-4fe2-8d12-81b41a0903b5","system_id":"levelo_inurba_marseille","lat":43.27674,"lon":5.38863,"is_reserved":false,"is_disabled":false,"rental_uris":{"android":"levelo://app?vid=1e7c24c5-f168-4fe2-8d12-81b41a0903b5","ios":"levelo://app?vid=1e7c24c5-f168-4fe2-8d12-81b41a0903b5"},"vehicle_type_id":"4","last_reported":1728641331,"current_range_meters":38400,"station_id":"ce4bhi12rcd13ifvqfo0","pricing_plan_id":"cebpf4jnsgd1na2vs0mg"},{"bike_id":"0b5b3704-17fc-4599-a425-4a7cb06c8b32","system_id":"levelo_inurba_marseille","lat":43.2314,"lon":5.43715,"is_reserved":false,"is_disabled":false,"rental_uris":{"android":"levelo://app?vid=0b5b3704-17fc-4599-a425-4a7cb06c8b32","ios":"levelo://app?vid=0b5b3704-17fc-4599-a425-4a7cb06c8b32"},"vehicle_type_id":"4","last_reported":1728641331,"current_range_meters":6400,"station_id":"ce4bhmp2rcd13ifvqgog","pricing_plan_id":"cebpf4jnsgd1na2vs0mg"},{"bike_id":"a9a9c221-5070-4158-8cfd-fdde4b98e8f7","system_id":"levelo_inurba_marseille","lat":43.23176,"lon":5.39982,"is_reserved":false,"is_disabled":false,"rental_uris":{"android":"levelo://app?vid=a9a9c221-5070-4158-8cfd-fdde4b98e8f7","ios":"levelo://app?vid=a9a9c221-5070-4158-8cfd-fdde4b98e8f7"},"vehicle_type_id":"4","last_reported":1728641331,"current_range_meters":11600,"station_id":"ce4bhn12rcd13ifvqgqg","pricing_plan_id":"cebpf4jnsgd1na2vs0mg"},{"bike_id":"608abe2b-e6c6-4788-a441-a4579be1f717","system_id":"levelo_inurba_marseille","lat":43.29575,"lon":5.36735,"is_reserved":false,"is_disabled":false,"rental_uris":{"android":"levelo://app?vid=608abe2b-e6c6-4788-a441-a4579be1f717","ios":"levelo://app?vid=608abe2b-e6c6-4788-a441-a4579be1f717"},"vehicle_type_id":"4","last_reported":1728641331,"current_range_meters":38800,"station_id":"ce4bgph2rcd13ifvqc2g","pricing_plan_id":"cebpf4jnsgd1na2vs0mg"},{"bike_id":"aea5ff72-47c5-4fe1-a025-5ecb93309ff2","system_id":"levelo_inurba_marseille","lat":43.27069,"lon":5.42277,"is_reserved":false,"is_disabled":false,"rental_uris":{"android":"levelo://app?vid=aea5ff72-47c5-4fe1-a025-5ecb93309ff2","ios":"levelo://app?vid=aea5ff72-47c5-4fe1-a025-5ecb93309ff2"},"vehicle_type_id":"4","last_reported":1728641331,"current_range_meters":8800,"station_id":"ce4bhk92rcd13ifvqgb0","pricing_plan_id":"cebpf4jnsgd1na2vs0mg"},{"bike_id":"b933402b-d1ca-49a8-bbf7-fb19281d941c","system_id":"levelo_inurba_marseille","lat":43.2319,"lon":5.35555,"is_reserved":false,"is_disabled":false,"rental_uris":{"android":"levelo://app?vid=b933402b-d1ca-49a8-bbf7-fb19281d941c","ios":"levelo://app?vid=b933402b-d1ca-49a8-bbf7-fb19281d941c"},"vehicle_type_id":"4","last_reported":1728641331,"current_range_meters":27600,"station_id":"ce4bhu92rcd13ifvqi70","pricing_plan_id":"cebpf4jnsgd1na2vs0mg"},{"bike_id":"f5025c91-10ce-417c-b0cc-aa63fb454c26","system_id":"levelo_inurba_marseille","lat":43.24654,"lon":5.38894,"is_reserved":false,"is_disabled":false,"rental_uris":{"android":"levelo://app?vid=f5025c91-10ce-417c-b0cc-aa63fb454c26","ios":"levelo://app?vid=f5025c91-10ce-417c-b0cc-aa63fb454c26"},"vehicle_type_id":"4","last_reported":1728641331,"current_range_meters":36000,"station_id":"ce4bhg12rcd13ifvqf60","pricing_plan_id":"cebpf4jnsgd1na2vs0mg"},{"bike_id":"c2aa5632-0343-4f3e-bf1c-87dfcffb0325","system_id":"levelo_inurba_marseille","lat":43.3133,"lon":5.39691,"is_reserved":false,"is_disabled":false,"rental_uris":{"android":"levelo://app?vid=c2aa5632-0343-4f3e-bf1c-87dfcffb0325","ios":"levelo://app?vid=c2aa5632-0343-4f3e-bf1c-87dfcffb0325"},"vehicle_type_id":"4","last_reported":1728641331,"current_range_meters":36800,"station_id":"ce4bgvp2rcd13ifvqcu0","pricing_plan_id":"cebpf4jnsgd1na2vs0mg"},{"bike_id":"cd45505e-4f15-4de5-b459-7125bc5c1cef","system_id":"levelo_inurba_marseille","lat":43.30414,"lon":5.41276,"is_reserved":false,"is_disabled":false,"rental_uris":{"android":"levelo://app?vid=cd45505e-4f15-4de5-b459-7125bc5c1cef","ios":"levelo://app?vid=cd45505e-4f15-4de5-b459-7125bc5c1cef"},"vehicle_type_id":"4","last_reported":1728641331,"current_range_meters":37600,"station_id":"ce4bhop2rcd13ifvqh8g","pricing_plan_id":"cebpf4jnsgd1na2vs0mg"},{"bike_id":"1bf39129-7013-4caa-8d33-ef279b792ee7","system_id":"levelo_inurba_marseille","lat":43.25575,"lon":5.38239,"is_reserved":false,"is_disabled":false,"rental_uris":{"android":"levelo://app?vid=1bf39129-7013-4caa-8d33-ef279b792ee7","ios":"levelo://app?vid=1bf39129-7013-4caa-8d33-ef279b792ee7"},"vehicle_type_id":"4","last_reported":1728641331,"current_range_meters":7200,"station_id":"ce4bhih2rcd13ifvqfs0","pricing_plan_id":"cebpf4jnsgd1na2vs0mg"},{"bike_id":"e0e54892-9e24-42b9-8b78-0c7ef30b1879","system_id":"levelo_inurba_marseille","lat":43.29567,"lon":5.37493,"is_reserved":false,"is_disabled":false,"rental_uris":{"android":"levelo://app?vid=e0e54892-9e24-42b9-8b78-0c7ef30b1879","ios":"levelo://app?vid=e0e54892-9e24-42b9-8b78-0c7ef30b1879"},"vehicle_type_id":"4","last_reported":1728641331,"current_range_meters":19600,"station_id":"ce4bgh92rcd13ifvqb50","pricing_plan_id":"cebpf4jnsgd1na2vs0mg"},{"bike_id":"31976e81-9cc0-455d-93cf-052ff67948dc","system_id":"levelo_inurba_marseille","lat":43.27054,"lon":5.40262,"is_reserved":false,"is_disabled":false,"rental_uris":{"android":"levelo://app?vid=31976e81-9cc0-455d-93cf-052ff67948dc","ios":"levelo://app?vid=31976e81-9cc0-455d-93cf-052ff67948dc"},"vehicle_type_id":"4","last_reported":1728641331,"current_range_meters":11600,"station_id":"ce4bhk92rcd13ifvqgc0","pricing_plan_id":"cebpf4jnsgd1na2vs0mg"},{"bike_id":"25f5ad3f-b338-4c25-bbde-1e49cca3a07c","system_id":"levelo_inurba_marseille","lat":43.27805,"lon":5.40713,"is_reserved":false,"is_disabled":false,"rental_uris":{"android":"levelo://app?vid=25f5ad3f-b338-4c25-bbde-1e49cca3a07c","ios":"levelo://app?vid=25f5ad3f-b338-4c25-bbde-1e49cca3a07c"},"vehicle_type_id":"4","last_reported":1728641331,"current_range_meters":33200,"station_id":"ce4bhnh2rcd13ifvqgtg","pricing_plan_id":"cebpf4jnsgd1na2vs0mg"},{"bike_id":"1e2b2861-7287-41f4-b0d5-46f398bb9db4","system_id":"levelo_inurba_marseille","lat":43.29562,"lon":5.3674,"is_reserved":false,"is_disabled":false,"rental_uris":{"android":"levelo://app?vid=1e2b2861-7287-41f4-b0d5-46f398bb9db4","ios":"levelo://app?vid=1e2b2861-7287-41f4-b0d5-46f398bb9db4"},"vehicle_type_id":"4","last_reported":1728641331,"current_range_meters":38800,"station_id":"ce4bgph2rcd13ifvqc2g","pricing_plan_id":"cebpf4jnsgd1na2vs0mg"},{"bike_id":"1430f6f2-73dd-42ca-8307-5f209eb4a512","system_id":"levelo_inurba_marseille","lat":43.29444,"lon":5.37628,"is_reserved":false,"is_disabled":false,"rental_uris":{"android":"levelo://app?vid=1430f6f2-73dd-42ca-8307-5f209eb4a512","ios":"levelo://app?vid=1430f6f2-73dd-42ca-8307-5f209eb4a512"},"vehicle_type_id":"4","last_reported":1728641331,"current_range_meters":7200,"station_id":"","pricing_plan_id":"cebpf4jnsgd1na2vs0mg"},{"bike_id":"c8d3d81c-45e0-4054-94fa-09ab440fffac","system_id":"levelo_inurba_marseille","lat":43.30805,"lon":5.43525,"is_reserved":false,"is_disabled":false,"rental_uris":{"android":"levelo://app?vid=c8d3d81c-45e0-4054-94fa-09ab440fffac","ios":"levelo://app?vid=c8d3d81c-45e0-4054-94fa-09ab440fffac"},"vehicle_type_id":"4","last_reported":1728641331,"current_range_meters":27600,"station_id":"ce4bhph2rcd13ifvqheg","pricing_plan_id":"cebpf4jnsgd1na2vs0mg"},{"bike_id":"484a4c63-4ef1-4433-b27a-9a9ca5ad2f9a","system_id":"levelo_inurba_marseille","lat":43.22932,"lon":5.35371,"is_reserved":false,"is_disabled":false,"rental_uris":{"android":"levelo://app?vid=484a4c63-4ef1-4433-b27a-9a9ca5ad2f9a","ios":"levelo://app?vid=484a4c63-4ef1-4433-b27a-9a9ca5ad2f9a"},"vehicle_type_id":"4","last_reported":1728641331,"current_range_meters":17200,"station_id":"cpo3532slgdg3j2ikp40","pricing_plan_id":"cebpf4jnsgd1na2vs0mg"},{"bike_id":"5bd0dc9b-7a34-42bf-be07-b69766c58828","system_id":"levelo_inurba_marseille","lat":43.269674,"lon":5.386921,"is_reserved":false,"is_disabled":false,"rental_uris":{"android":"levelo://app?vid=5bd0dc9b-7a34-42bf-be07-b69766c58828","ios":"levelo://app?vid=5bd0dc9b-7a34-42bf-be07-b69766c58828"},"vehicle_type_id":"4","last_reported":1728641331,"current_range_meters":6800,"station_id":"ce4bhhp2rcd13ifvqfm0","pricing_plan_id":"cebpf4jnsgd1na2vs0mg"},{"bike_id":"bf9a8dbd-a3ff-4226-a25b-1015d3103cd4","system_id":"levelo_inurba_marseille","lat":43.3035,"lon":5.41873,"is_reserved":false,"is_disabled":false,"rental_uris":{"android":"levelo://app?vid=bf9a8dbd-a3ff-4226-a25b-1015d3103cd4","ios":"levelo://app?vid=bf9a8dbd-a3ff-4226-a25b-1015d3103cd4"},"vehicle_type_id":"4","last_reported":1728641331,"current_range_meters":8000,"station_id":"ce4bhop2rcd13ifvqh7g","pricing_plan_id":"cebpf4jnsgd1na2vs0mg"},{"bike_id":"77d13cda-27f2-4024-8daa-784aa417f74a","system_id":"levelo_inurba_marseille","lat":43.23185,"lon":5.39976,"is_reserved":false,"is_disabled":false,"rental_uris":{"android":"levelo://app?vid=77d13cda-27f2-4024-8daa-784aa417f74a","ios":"levelo://app?vid=77d13cda-27f2-4024-8daa-784aa417f74a"},"vehicle_type_id":"4","last_reported":1728641331,"current_range_meters":15200,"station_id":"ce4bhn12rcd13ifvqgqg","pricing_plan_id":"cebpf4jnsgd1na2vs0mg"},{"bike_id":"544afb48-1f79-4020-a327-5b6a2938dd06","system_id":"levelo_inurba_marseille","lat":43.24644,"lon":5.38897,"is_reserved":false,"is_disabled":false,"rental_uris":{"android":"levelo://app?vid=544afb48-1f79-4020-a327-5b6a2938dd06","ios":"levelo://app?vid=544afb48-1f79-4020-a327-5b6a2938dd06"},"vehicle_type_id":"4","last_reported":1728641331,"current_range_meters":22000,"station_id":"ce4bhg12rcd13ifvqf60","pricing_plan_id":"cebpf4jnsgd1na2vs0mg"},{"bike_id":"7c79150e-0f7c-40fc-825f-79ffb305337b","system_id":"levelo_inurba_marseille","lat":43.27073,"lon":5.42279,"is_reserved":false,"is_disabled":false,"rental_uris":{"android":"levelo://app?vid=7c79150e-0f7c-40fc-825f-79ffb305337b","ios":"levelo://app?vid=7c79150e-0f7c-40fc-825f-79ffb305337b"},"vehicle_type_id":"4","last_reported":1728641331,"current_range_meters":4400,"station_id":"ce4bhk92rcd13ifvqgb0","pricing_plan_id":"cebpf4jnsgd1na2vs0mg"},{"bike_id":"1a77e98a-356c-44c1-a180-5d2a812667a3","system_id":"levelo_inurba_marseille","lat":43.29848,"lon":5.38095,"is_reserved":false,"is_disabled":false,"rental_uris":{"android":"levelo://app?vid=1a77e98a-356c-44c1-a180-5d2a812667a3","ios":"levelo://app?vid=1a77e98a-356c-44c1-a180-5d2a812667a3"},"vehicle_type_id":"4","last_reported":1728641331,"current_range_meters":31200,"station_id":"","pricing_plan_id":"cebpf4jnsgd1na2vs0mg"},{"bike_id":"c92fba34-aea6-4d2c-b710-21b825d7faaa","system_id":"levelo_inurba_marseille","lat":43.30547,"lon":5.36697,"is_reserved":false,"is_disabled":false,"rental_uris":{"android":"levelo://app?vid=c92fba34-aea6-4d2c-b710-21b825d7faaa","ios":"levelo://app?vid=c92fba34-aea6-4d2c-b710-21b825d7faaa"},"vehicle_type_id":"4","last_reported":1728641331,"current_range_meters":40000,"station_id":"ce4bgrp2rcd13ifvqc9g","pricing_plan_id":"cebpf4jnsgd1na2vs0mg"},{"bike_id":"7df16f71-a118-49e2-8bd0-a356e3a3cd9c","system_id":"levelo_inurba_marseille","lat":43.29525,"lon":5.39037,"is_reserved":false,"is_disabled":false,"rental_uris":{"android":"levelo://app?vid=7df16f71-a118-49e2-8bd0-a356e3a3cd9c","ios":"levelo://app?vid=7df16f71-a118-49e2-8bd0-a356e3a3cd9c"},"vehicle_type_id":"4","last_reported":1728641331,"current_range_meters":24400,"station_id":"ce4bh3p2rcd13ifvqdp0","pricing_plan_id":"cebpf4jnsgd1na2vs0mg"},{"bike_id":"fae29e7c-c2de-4174-9419-6f352ecd9f02","system_id":"levelo_inurba_marseille","lat":43.29226,"lon":5.36073,"is_reserved":false,"is_disabled":false,"rental_uris":{"android":"levelo://app?vid=fae29e7c-c2de-4174-9419-6f352ecd9f02","ios":"levelo://app?vid=fae29e7c-c2de-4174-9419-6f352ecd9f02"},"vehicle_type_id":"4","last_reported":1728641331,"current_range_meters":25200,"station_id":"ce4bhbh2rcd13ifvqeqg","pricing_plan_id":"cebpf4jnsgd1na2vs0mg"},{"bike_id":"a31ec7e0-1ec0-4930-b2a0-60e76dc75ce3","system_id":"levelo_inurba_marseille","lat":43.24081,"lon":5.37756,"is_reserved":false,"is_disabled":false,"rental_uris":{"android":"levelo://app?vid=a31ec7e0-1ec0-4930-b2a0-60e76dc75ce3","ios":"levelo://app?vid=a31ec7e0-1ec0-4930-b2a0-60e76dc75ce3"},"vehicle_type_id":"4","last_reported":1728641331,"current_range_meters":14800,"station_id":"ce4bhnp2rcd13ifvqgvg","pricing_plan_id":"cebpf4jnsgd1na2vs0mg"},{"bike_id":"5a5649e8-a9bc-4d0f-be41-ed6fc56a9baf","system_id":"levelo_inurba_marseille","lat":43.22925,"lon":5.35374,"is_reserved":false,"is_disabled":false,"rental_uris":{"android":"levelo://app?vid=5a5649e8-a9bc-4d0f-be41-ed6fc56a9baf","ios":"levelo://app?vid=5a5649e8-a9bc-4d0f-be41-ed6fc56a9baf"},"vehicle_type_id":"4","last_reported":1728641331,"current_range_meters":37600,"station_id":"cpo3532slgdg3j2ikp40","pricing_plan_id":"cebpf4jnsgd1na2vs0mg"},{"bike_id":"104dce3b-2862-44f7-bb64-f1cb1800c635","system_id":"levelo_inurba_marseille","lat":43.33603,"lon":5.41028,"is_reserved":false,"is_disabled":false,"rental_uris":{"android":"levelo://app?vid=104dce3b-2862-44f7-bb64-f1cb1800c635","ios":"levelo://app?vid=104dce3b-2862-44f7-bb64-f1cb1800c635"},"vehicle_type_id":"4","last_reported":1728641331,"current_range_meters":39200,"station_id":"ce4bhqh2rcd13ifvqhmg","pricing_plan_id":"cebpf4jnsgd1na2vs0mg"},{"bike_id":"82c9cef6-1a13-4e6a-be16-a5ccbe3fdd2d","system_id":"levelo_inurba_marseille","lat":43.24388,"lon":5.37055,"is_reserved":false,"is_disabled":false,"rental_uris":{"android":"levelo://app?vid=82c9cef6-1a13-4e6a-be16-a5ccbe3fdd2d","ios":"levelo://app?vid=82c9cef6-1a13-4e6a-be16-a5ccbe3fdd2d"},"vehicle_type_id":"4","last_reported":1728641331,"current_range_meters":30000,"station_id":"ce4bhhh2rcd13ifvqfk0","pricing_plan_id":"cebpf4jnsgd1na2vs0mg"},{"bike_id":"b285d103-fe38-4482-b3f7-8a9158a2500b","system_id":"levelo_inurba_marseille","lat":43.30417,"lon":5.41295,"is_reserved":false,"is_disabled":false,"rental_uris":{"android":"levelo://app?vid=b285d103-fe38-4482-b3f7-8a9158a2500b","ios":"levelo://app?vid=b285d103-fe38-4482-b3f7-8a9158a2500b"},"vehicle_type_id":"4","last_reported":1728641331,"current_range_meters":27600,"station_id":"ce4bhop2rcd13ifvqh8g","pricing_plan_id":"cebpf4jnsgd1na2vs0mg"},{"bike_id":"fea68042-6912-4946-948b-ae6c942d18e2","system_id":"levelo_inurba_marseille","lat":43.25001,"lon":5.38928,"is_reserved":false,"is_disabled":false,"rental_uris":{"android":"levelo://app?vid=fea68042-6912-4946-948b-ae6c942d18e2","ios":"levelo://app?vid=fea68042-6912-4946-948b-ae6c942d18e2"},"vehicle_type_id":"4","last_reported":1728641331,"current_range_meters":26800,"station_id":"ce4bhgp2rcd13ifvqfd0","pricing_plan_id":"cebpf4jnsgd1na2vs0mg"},{"bike_id":"902ad807-4876-46e3-bafa-e1fe60d33574","system_id":"levelo_inurba_marseille","lat":43.337444,"lon":5.374475,"is_reserved":false,"is_disabled":false,"rental_uris":{"android":"levelo://app?vid=902ad807-4876-46e3-bafa-e1fe60d33574","ios":"levelo://app?vid=902ad807-4876-46e3-bafa-e1fe60d33574"},"vehicle_type_id":"4","last_reported":1728641331,"current_range_meters":19600,"station_id":"ce4bgup2rcd13ifvqco0","pricing_plan_id":"cebpf4jnsgd1na2vs0mg"},{"bike_id":"8fb2b431-bcb9-46ba-80fb-e26e84592fc5","system_id":"levelo_inurba_marseille","lat":43.23188,"lon":5.35553,"is_reserved":false,"is_disabled":false,"rental_uris":{"android":"levelo://app?vid=8fb2b431-bcb9-46ba-80fb-e26e84592fc5","ios":"levelo://app?vid=8fb2b431-bcb9-46ba-80fb-e26e84592fc5"},"vehicle_type_id":"4","last_reported":1728641331,"current_range_meters":36800,"station_id":"ce4bhu92rcd13ifvqi70","pricing_plan_id":"cebpf4jnsgd1na2vs0mg"},{"bike_id":"f5fc4112-9f04-4de6-9453-bb7d04602be7","system_id":"levelo_inurba_marseille","lat":43.29596,"lon":5.3811,"is_reserved":false,"is_disabled":false,"rental_uris":{"android":"levelo://app?vid=f5fc4112-9f04-4de6-9453-bb7d04602be7","ios":"levelo://app?vid=f5fc4112-9f04-4de6-9453-bb7d04602be7"},"vehicle_type_id":"4","last_reported":1728641331,"current_range_meters":9200,"station_id":"ce4bgl12rcd13ifvqbo0","pricing_plan_id":"cebpf4jnsgd1na2vs0mg"},{"bike_id":"6a3331e5-0407-4552-8e76-c0551c1540ee","system_id":"levelo_inurba_marseille","lat":43.29516,"lon":5.39043,"is_reserved":false,"is_disabled":false,"rental_uris":{"android":"levelo://app?vid=6a3331e5-0407-4552-8e76-c0551c1540ee","ios":"levelo://app?vid=6a3331e5-0407-4552-8e76-c0551c1540ee"},"vehicle_type_id":"4","last_reported":1728641331,"current_range_meters":37600,"station_id":"ce4bh3p2rcd13ifvqdp0","pricing_plan_id":"cebpf4jnsgd1na2vs0mg"},{"bike_id":"90f2ecaa-b005-44cd-baeb-fbbc685b37eb","system_id":"levelo_inurba_marseille","lat":43.26549,"lon":5.38997,"is_reserved":false,"is_disabled":false,"rental_uris":{"android":"levelo://app?vid=90f2ecaa-b005-44cd-baeb-fbbc685b37eb","ios":"levelo://app?vid=90f2ecaa-b005-44cd-baeb-fbbc685b37eb"},"vehicle_type_id":"4","last_reported":1728641331,"current_range_meters":38800,"station_id":"ce4bhe12rcd13ifvqf30","pricing_plan_id":"cebpf4jnsgd1na2vs0mg"},{"bike_id":"2e57e480-a324-489b-8946-f7d9d9edcf00","system_id":"levelo_inurba_marseille","lat":43.336136,"lon":5.410269,"is_reserved":false,"is_disabled":false,"rental_uris":{"android":"levelo://app?vid=2e57e480-a324-489b-8946-f7d9d9edcf00","ios":"levelo://app?vid=2e57e480-a324-489b-8946-f7d9d9edcf00"},"vehicle_type_id":"4","last_reported":1728641331,"current_range_meters":39200,"station_id":"ce4bhqh2rcd13ifvqhmg","pricing_plan_id":"cebpf4jnsgd1na2vs0mg"},{"bike_id":"6547a504-53f3-4741-88a3-352e70fa82a1","system_id":"levelo_inurba_marseille","lat":43.29264,"lon":5.38416,"is_reserved":false,"is_disabled":false,"rental_uris":{"android":"levelo://app?vid=6547a504-53f3-4741-88a3-352e70fa82a1","ios":"levelo://app?vid=6547a504-53f3-4741-88a3-352e70fa82a1"},"vehicle_type_id":"4","last_reported":1728641331,"current_range_meters":2000,"station_id":"ce4bh692rcd13ifvqea0","pricing_plan_id":"cebpf4jnsgd1na2vs0mg"},{"bike_id":"183a8287-7bd9-40ed-9b0e-970dadb83cda","system_id":"levelo_inurba_marseille","lat":43.29281,"lon":5.40117,"is_reserved":false,"is_disabled":false,"rental_uris":{"android":"levelo://app?vid=183a8287-7bd9-40ed-9b0e-970dadb83cda","ios":"levelo://app?vid=183a8287-7bd9-40ed-9b0e-970dadb83cda"},"vehicle_type_id":"4","last_reported":1728641331,"current_range_meters":27600,"station_id":"ce4bh312rcd13ifvqdk0","pricing_plan_id":"cebpf4jnsgd1na2vs0mg"},{"bike_id":"edc976c4-a61b-4651-bb75-035f1fe9cfc3","system_id":"levelo_inurba_marseille","lat":43.23149,"lon":5.43724,"is_reserved":false,"is_disabled":false,"rental_uris":{"android":"levelo://app?vid=edc976c4-a61b-4651-bb75-035f1fe9cfc3","ios":"levelo://app?vid=edc976c4-a61b-4651-bb75-035f1fe9cfc3"},"vehicle_type_id":"4","last_reported":1728641331,"current_range_meters":16800,"station_id":"ce4bhmp2rcd13ifvqgog","pricing_plan_id":"cebpf4jnsgd1na2vs0mg"},{"bike_id":"337833c4-ffe9-4b55-b748-c33b3f846b77","system_id":"levelo_inurba_marseille","lat":43.30424,"lon":5.39749,"is_reserved":false,"is_disabled":false,"rental_uris":{"android":"levelo://app?vid=337833c4-ffe9-4b55-b748-c33b3f846b77","ios":"levelo://app?vid=337833c4-ffe9-4b55-b748-c33b3f846b77"},"vehicle_type_id":"4","last_reported":1728641331,"current_range_meters":24800,"station_id":"ce4bh092rcd13ifvqd20","pricing_plan_id":"cebpf4jnsgd1na2vs0mg"},{"bike_id":"e89f8245-bb6f-4d5f-a195-40210ffd070a","system_id":"levelo_inurba_marseille","lat":43.29161,"lon":5.37184,"is_reserved":false,"is_disabled":false,"rental_uris":{"android":"levelo://app?vid=e89f8245-bb6f-4d5f-a195-40210ffd070a","ios":"levelo://app?vid=e89f8245-bb6f-4d5f-a195-40210ffd070a"},"vehicle_type_id":"4","last_reported":1728641331,"current_range_meters":24800,"station_id":"ce4bha92rcd13ifvqeh0","pricing_plan_id":"cebpf4jnsgd1na2vs0mg"},{"bike_id":"95023dd5-5723-4077-bb2e-62aa5e328d15","system_id":"levelo_inurba_marseille","lat":43.27203,"lon":5.39196,"is_reserved":false,"is_disabled":false,"rental_uris":{"android":"levelo://app?vid=95023dd5-5723-4077-bb2e-62aa5e328d15","ios":"levelo://app?vid=95023dd5-5723-4077-bb2e-62aa5e328d15"},"vehicle_type_id":"4","last_reported":1728641331,"current_range_meters":19600,"station_id":"ce4bhhp2rcd13ifvqfm0","pricing_plan_id":"cebpf4jnsgd1na2vs0mg"},{"bike_id":"0019986f-e4dc-4adf-9298-d8b037497574","system_id":"levelo_inurba_marseille","lat":43.25107,"lon":5.40319,"is_reserved":false,"is_disabled":false,"rental_uris":{"android":"levelo://app?vid=0019986f-e4dc-4adf-9298-d8b037497574","ios":"levelo://app?vid=0019986f-e4dc-4adf-9298-d8b037497574"},"vehicle_type_id":"4","last_reported":1728641331,"current_range_meters":2800,"station_id":"ce4bhlh2rcd13ifvqgig","pricing_plan_id":"cebpf4jnsgd1na2vs0mg"},{"bike_id":"20515aae-ad06-45fb-90ca-9179cbce0bfa","system_id":"levelo_inurba_marseille","lat":43.2919,"lon":5.39306,"is_reserved":false,"is_disabled":false,"rental_uris":{"android":"levelo://app?vid=20515aae-ad06-45fb-90ca-9179cbce0bfa","ios":"levelo://app?vid=20515aae-ad06-45fb-90ca-9179cbce0bfa"},"vehicle_type_id":"4","last_reported":1728641331,"current_range_meters":27200,"station_id":"ce4bh192rcd13ifvqdd0","pricing_plan_id":"cebpf4jnsgd1na2vs0mg"},{"bike_id":"5c402a9f-4bc8-47ac-958c-03a3792c0b4e","system_id":"levelo_inurba_marseille","lat":43.337444,"lon":5.374475,"is_reserved":false,"is_disabled":false,"rental_uris":{"android":"levelo://app?vid=5c402a9f-4bc8-47ac-958c-03a3792c0b4e","ios":"levelo://app?vid=5c402a9f-4bc8-47ac-958c-03a3792c0b4e"},"vehicle_type_id":"4","last_reported":1728641331,"current_range_meters":9200,"station_id":"ce4bh192rcd13ifvqdb0","pricing_plan_id":"cebpf4jnsgd1na2vs0mg"},{"bike_id":"a16567ee-8663-415e-88a2-3a019332e0dc","system_id":"levelo_inurba_marseille","lat":43.25574,"lon":5.38235,"is_reserved":false,"is_disabled":false,"rental_uris":{"android":"levelo://app?vid=a16567ee-8663-415e-88a2-3a019332e0dc","ios":"levelo://app?vid=a16567ee-8663-415e-88a2-3a019332e0dc"},"vehicle_type_id":"4","last_reported":1728641331,"current_range_meters":28400,"station_id":"ce4bhih2rcd13ifvqfs0","pricing_plan_id":"cebpf4jnsgd1na2vs0mg"},{"bike_id":"e0571d82-2a11-4d38-a480-f1deab8c002b","system_id":"levelo_inurba_marseille","lat":43.301483,"lon":5.380869,"is_reserved":false,"is_disabled":false,"rental_uris":{"android":"levelo://app?vid=e0571d82-2a11-4d38-a480-f1deab8c002b","ios":"levelo://app?vid=e0571d82-2a11-4d38-a480-f1deab8c002b"},"vehicle_type_id":"4","last_reported":1728641331,"current_range_meters":37600,"station_id":"ce4bguh2rcd13ifvqckg","pricing_plan_id":"cebpf4jnsgd1na2vs0mg"},{"bike_id":"358fda18-0b7c-4258-a5fc-a803fe7e30b1","system_id":"levelo_inurba_marseille","lat":43.28264,"lon":5.35049,"is_reserved":false,"is_disabled":false,"rental_uris":{"android":"levelo://app?vid=358fda18-0b7c-4258-a5fc-a803fe7e30b1","ios":"levelo://app?vid=358fda18-0b7c-4258-a5fc-a803fe7e30b1"},"vehicle_type_id":"4","last_reported":1728641331,"current_range_meters":38000,"station_id":"ce4bhbp2rcd13ifvqerg","pricing_plan_id":"cebpf4jnsgd1na2vs0mg"},{"bike_id":"866026d9-f486-472b-8422-aa308d45f74e","system_id":"levelo_inurba_marseille","lat":43.33744,"lon":5.37448,"is_reserved":false,"is_disabled":false,"rental_uris":{"android":"levelo://app?vid=866026d9-f486-472b-8422-aa308d45f74e","ios":"levelo://app?vid=866026d9-f486-472b-8422-aa308d45f74e"},"vehicle_type_id":"4","last_reported":1728641331,"current_range_meters":27200,"station_id":"","pricing_plan_id":"cebpf4jnsgd1na2vs0mg"},{"bike_id":"9b1c9d31-699f-48c4-a4c5-022bb4f21971","system_id":"levelo_inurba_marseille","lat":43.2315,"lon":5.43706,"is_reserved":false,"is_disabled":false,"rental_uris":{"android":"levelo://app?vid=9b1c9d31-699f-48c4-a4c5-022bb4f21971","ios":"levelo://app?vid=9b1c9d31-699f-48c4-a4c5-022bb4f21971"},"vehicle_type_id":"4","last_reported":1728641331,"current_range_meters":28800,"station_id":"ce4bhmp2rcd13ifvqgog","pricing_plan_id":"cebpf4jnsgd1na2vs0mg"},{"bike_id":"aa75c41c-1391-4d5a-b0ad-fb29c317877d","system_id":"levelo_inurba_marseille","lat":43.23063,"lon":5.35493,"is_reserved":false,"is_disabled":false,"rental_uris":{"android":"levelo://app?vid=aa75c41c-1391-4d5a-b0ad-fb29c317877d","ios":"levelo://app?vid=aa75c41c-1391-4d5a-b0ad-fb29c317877d"},"vehicle_type_id":"4","last_reported":1728641331,"current_range_meters":7200,"station_id":"cpo3342slgdg3j2ifvpg","pricing_plan_id":"cebpf4jnsgd1na2vs0mg"},{"bike_id":"9c0ec623-8e49-4cd2-ba63-9838b48409de","system_id":"levelo_inurba_marseille","lat":43.28943,"lon":5.38393,"is_reserved":false,"is_disabled":false,"rental_uris":{"android":"levelo://app?vid=9c0ec623-8e49-4cd2-ba63-9838b48409de","ios":"levelo://app?vid=9c0ec623-8e49-4cd2-ba63-9838b48409de"},"vehicle_type_id":"4","last_reported":1728641331,"current_range_meters":29600,"station_id":"ce4bh612rcd13ifvqe6g","pricing_plan_id":"cebpf4jnsgd1na2vs0mg"},{"bike_id":"587e7843-2440-4b82-8eeb-1f23ea1ee6e5","system_id":"levelo_inurba_marseille","lat":43.273604,"lon":5.393307,"is_reserved":false,"is_disabled":false,"rental_uris":{"android":"levelo://app?vid=587e7843-2440-4b82-8eeb-1f23ea1ee6e5","ios":"levelo://app?vid=587e7843-2440-4b82-8eeb-1f23ea1ee6e5"},"vehicle_type_id":"4","last_reported":1728641331,"current_range_meters":38400,"station_id":"ce4bhdp2rcd13ifvqf20","pricing_plan_id":"cebpf4jnsgd1na2vs0mg"},{"bike_id":"6ac0c957-14ec-463a-9313-78cac548e912","system_id":"levelo_inurba_marseille","lat":43.30542,"lon":5.36697,"is_reserved":false,"is_disabled":false,"rental_uris":{"android":"levelo://app?vid=6ac0c957-14ec-463a-9313-78cac548e912","ios":"levelo://app?vid=6ac0c957-14ec-463a-9313-78cac548e912"},"vehicle_type_id":"4","last_reported":1728641331,"current_range_meters":31200,"station_id":"ce4bgrp2rcd13ifvqc9g","pricing_plan_id":"cebpf4jnsgd1na2vs0mg"},{"bike_id":"3bd04d24-eb1f-4c1a-9b06-8a083056d297","system_id":"levelo_inurba_marseille","lat":43.25864,"lon":5.39892,"is_reserved":false,"is_disabled":false,"rental_uris":{"android":"levelo://app?vid=3bd04d24-eb1f-4c1a-9b06-8a083056d297","ios":"levelo://app?vid=3bd04d24-eb1f-4c1a-9b06-8a083056d297"},"vehicle_type_id":"4","last_reported":1728641331,"current_range_meters":22400,"station_id":"ce4bhl92rcd13ifvqghg","pricing_plan_id":"cebpf4jnsgd1na2vs0mg"},{"bike_id":"215f7dd5-6c27-420c-899f-dd33221146a7","system_id":"levelo_inurba_marseille","lat":43.2315,"lon":5.43709,"is_reserved":false,"is_disabled":false,"rental_uris":{"android":"levelo://app?vid=215f7dd5-6c27-420c-899f-dd33221146a7","ios":"levelo://app?vid=215f7dd5-6c27-420c-899f-dd33221146a7"},"vehicle_type_id":"4","last_reported":1728641331,"current_range_meters":6800,"station_id":"ce4bhmp2rcd13ifvqgog","pricing_plan_id":"cebpf4jnsgd1na2vs0mg"},{"bike_id":"d4e7c199-5b07-4cc4-b4e1-e0fc91d98728","system_id":"levelo_inurba_marseille","lat":43.25579,"lon":5.38239,"is_reserved":false,"is_disabled":false,"rental_uris":{"android":"levelo://app?vid=d4e7c199-5b07-4cc4-b4e1-e0fc91d98728","ios":"levelo://app?vid=d4e7c199-5b07-4cc4-b4e1-e0fc91d98728"},"vehicle_type_id":"4","last_reported":1728641331,"current_range_meters":38000,"station_id":"ce4bhih2rcd13ifvqfs0","pricing_plan_id":"cebpf4jnsgd1na2vs0mg"},{"bike_id":"b1009450-6152-462c-a724-90df51eeb6db","system_id":"levelo_inurba_marseille","lat":43.32382,"lon":5.38917,"is_reserved":false,"is_disabled":false,"rental_uris":{"android":"levelo://app?vid=b1009450-6152-462c-a724-90df51eeb6db","ios":"levelo://app?vid=b1009450-6152-462c-a724-90df51eeb6db"},"vehicle_type_id":"4","last_reported":1728641331,"current_range_meters":6400,"station_id":"ce4bhqp2rcd13ifvqhog","pricing_plan_id":"cebpf4jnsgd1na2vs0mg"},{"bike_id":"e7ff8a71-08f6-4d85-81cd-23e686b45531","system_id":"levelo_inurba_marseille","lat":43.23196,"lon":5.35553,"is_reserved":false,"is_disabled":false,"rental_uris":{"android":"levelo://app?vid=e7ff8a71-08f6-4d85-81cd-23e686b45531","ios":"levelo://app?vid=e7ff8a71-08f6-4d85-81cd-23e686b45531"},"vehicle_type_id":"4","last_reported":1728641331,"current_range_meters":26000,"station_id":"ce4bhu92rcd13ifvqi70","pricing_plan_id":"cebpf4jnsgd1na2vs0mg"},{"bike_id":"19f5f42a-6adc-4145-8932-c12d978bc3e8","system_id":"levelo_inurba_marseille","lat":43.29849,"lon":5.36276,"is_reserved":false,"is_disabled":false,"rental_uris":{"android":"levelo://app?vid=19f5f42a-6adc-4145-8932-c12d978bc3e8","ios":"levelo://app?vid=19f5f42a-6adc-4145-8932-c12d978bc3e8"},"vehicle_type_id":"4","last_reported":1728641331,"current_range_meters":14400,"station_id":"ce4bgpp2rcd13ifvqc3g","pricing_plan_id":"cebpf4jnsgd1na2vs0mg"},{"bike_id":"e57eee6e-49c8-4cfb-a61d-0bf39603ab36","system_id":"levelo_inurba_marseille","lat":43.25501,"lon":5.37646,"is_reserved":false,"is_disabled":false,"rental_uris":{"android":"levelo://app?vid=e57eee6e-49c8-4cfb-a61d-0bf39603ab36","ios":"levelo://app?vid=e57eee6e-49c8-4cfb-a61d-0bf39603ab36"},"vehicle_type_id":"4","last_reported":1728641331,"current_range_meters":10000,"station_id":"ce4bhh12rcd13ifvqff0","pricing_plan_id":"cebpf4jnsgd1na2vs0mg"},{"bike_id":"ac88c9c3-7b97-4b15-9d64-52646be3df0e","system_id":"levelo_inurba_marseille","lat":43.300559,"lon":5.374383,"is_reserved":false,"is_disabled":false,"rental_uris":{"android":"levelo://app?vid=ac88c9c3-7b97-4b15-9d64-52646be3df0e","ios":"levelo://app?vid=ac88c9c3-7b97-4b15-9d64-52646be3df0e"},"vehicle_type_id":"4","last_reported":1728641331,"current_range_meters":9200,"station_id":"","pricing_plan_id":"cebpf4jnsgd1na2vs0mg"},{"bike_id":"11a075ed-a735-4edf-b098-91a8ea65b1fd","system_id":"levelo_inurba_marseille","lat":43.269867,"lon":5.392972,"is_reserved":false,"is_disabled":false,"rental_uris":{"android":"levelo://app?vid=11a075ed-a735-4edf-b098-91a8ea65b1fd","ios":"levelo://app?vid=11a075ed-a735-4edf-b098-91a8ea65b1fd"},"vehicle_type_id":"4","last_reported":1728641331,"current_range_meters":37600,"station_id":"ce4bh192rcd13ifvqdd0","pricing_plan_id":"cebpf4jnsgd1na2vs0mg"},{"bike_id":"2624cadc-20e3-425f-99de-41302338f5b6","system_id":"levelo_inurba_marseille","lat":43.23184,"lon":5.39975,"is_reserved":false,"is_disabled":false,"rental_uris":{"android":"levelo://app?vid=2624cadc-20e3-425f-99de-41302338f5b6","ios":"levelo://app?vid=2624cadc-20e3-425f-99de-41302338f5b6"},"vehicle_type_id":"4","last_reported":1728641331,"current_range_meters":36400,"station_id":"ce4bhn12rcd13ifvqgqg","pricing_plan_id":"cebpf4jnsgd1na2vs0mg"},{"bike_id":"6fb583d7-a1fe-4d3e-ad1c-36fa96c6814e","system_id":"levelo_inurba_marseille","lat":43.26208,"lon":5.37443,"is_reserved":false,"is_disabled":false,"rental_uris":{"android":"levelo://app?vid=6fb583d7-a1fe-4d3e-ad1c-36fa96c6814e","ios":"levelo://app?vid=6fb583d7-a1fe-4d3e-ad1c-36fa96c6814e"},"vehicle_type_id":"4","last_reported":1728641331,"current_range_meters":19200,"station_id":"ce4bhgp2rcd13ifvqfc0","pricing_plan_id":"cebpf4jnsgd1na2vs0mg"},{"bike_id":"b8a87ab0-d055-4a8f-adad-dfa9d208369b","system_id":"levelo_inurba_marseille","lat":43.33749,"lon":5.37443,"is_reserved":false,"is_disabled":false,"rental_uris":{"android":"levelo://app?vid=b8a87ab0-d055-4a8f-adad-dfa9d208369b","ios":"levelo://app?vid=b8a87ab0-d055-4a8f-adad-dfa9d208369b"},"vehicle_type_id":"4","last_reported":1728641331,"current_range_meters":30800,"station_id":"","pricing_plan_id":"cebpf4jnsgd1na2vs0mg"},{"bike_id":"e8b356b2-207d-449d-9811-d5deb7267288","system_id":"levelo_inurba_marseille","lat":43.27051,"lon":5.40262,"is_reserved":false,"is_disabled":false,"rental_uris":{"android":"levelo://app?vid=e8b356b2-207d-449d-9811-d5deb7267288","ios":"levelo://app?vid=e8b356b2-207d-449d-9811-d5deb7267288"},"vehicle_type_id":"4","last_reported":1728641331,"current_range_meters":24000,"station_id":"ce4bhk92rcd13ifvqgc0","pricing_plan_id":"cebpf4jnsgd1na2vs0mg"},{"bike_id":"27f8191e-039f-4a9a-ad73-a7d8ee72025b","system_id":"levelo_inurba_marseille","lat":43.27209,"lon":5.39187,"is_reserved":false,"is_disabled":false,"rental_uris":{"android":"levelo://app?vid=27f8191e-039f-4a9a-ad73-a7d8ee72025b","ios":"levelo://app?vid=27f8191e-039f-4a9a-ad73-a7d8ee72025b"},"vehicle_type_id":"4","last_reported":1728641331,"current_range_meters":19600,"station_id":"ce4bhhp2rcd13ifvqfm0","pricing_plan_id":"cebpf4jnsgd1na2vs0mg"},{"bike_id":"b01a1585-c8c3-4589-8156-a9557ffcd4d2","system_id":"levelo_inurba_marseille","lat":43.27554,"lon":5.38434,"is_reserved":false,"is_disabled":false,"rental_uris":{"android":"levelo://app?vid=b01a1585-c8c3-4589-8156-a9557ffcd4d2","ios":"levelo://app?vid=b01a1585-c8c3-4589-8156-a9557ffcd4d2"},"vehicle_type_id":"4","last_reported":1728641331,"current_range_meters":37600,"station_id":"ce4bhh92rcd13ifvqfi0","pricing_plan_id":"cebpf4jnsgd1na2vs0mg"},{"bike_id":"b3a4c503-3f0b-4831-93cd-884712e78b73","system_id":"levelo_inurba_marseille","lat":43.29847,"lon":5.36275,"is_reserved":false,"is_disabled":false,"rental_uris":{"android":"levelo://app?vid=b3a4c503-3f0b-4831-93cd-884712e78b73","ios":"levelo://app?vid=b3a4c503-3f0b-4831-93cd-884712e78b73"},"vehicle_type_id":"4","last_reported":1728641331,"current_range_meters":39200,"station_id":"ce4bgpp2rcd13ifvqc3g","pricing_plan_id":"cebpf4jnsgd1na2vs0mg"},{"bike_id":"22dcc678-f216-466a-abdf-3ad4607c130e","system_id":"levelo_inurba_marseille","lat":43.2894,"lon":5.3664,"is_reserved":false,"is_disabled":false,"rental_uris":{"android":"levelo://app?vid=22dcc678-f216-466a-abdf-3ad4607c130e","ios":"levelo://app?vid=22dcc678-f216-466a-abdf-3ad4607c130e"},"vehicle_type_id":"4","last_reported":1728641331,"current_range_meters":39200,"station_id":"ce4bhap2rcd13ifvqek0","pricing_plan_id":"cebpf4jnsgd1na2vs0mg"},{"bike_id":"ce04f614-a320-42df-8776-6146f8ec634d","system_id":"levelo_inurba_marseille","lat":43.25576,"lon":5.38235,"is_reserved":false,"is_disabled":false,"rental_uris":{"android":"levelo://app?vid=ce04f614-a320-42df-8776-6146f8ec634d","ios":"levelo://app?vid=ce04f614-a320-42df-8776-6146f8ec634d"},"vehicle_type_id":"4","last_reported":1728641331,"current_range_meters":37600,"station_id":"ce4bhih2rcd13ifvqfs0","pricing_plan_id":"cebpf4jnsgd1na2vs0mg"},{"bike_id":"31d0db0e-bef6-49bb-9ed6-4328dc531c70","system_id":"levelo_inurba_marseille","lat":43.30534,"lon":5.36533,"is_reserved":false,"is_disabled":false,"rental_uris":{"android":"levelo://app?vid=31d0db0e-bef6-49bb-9ed6-4328dc531c70","ios":"levelo://app?vid=31d0db0e-bef6-49bb-9ed6-4328dc531c70"},"vehicle_type_id":"4","last_reported":1728641331,"current_range_meters":33600,"station_id":"ce4bgs12rcd13ifvqcag","pricing_plan_id":"cebpf4jnsgd1na2vs0mg"},{"bike_id":"fc61aa43-e00e-4e24-89d5-66bbcedfb26f","system_id":"levelo_inurba_marseille","lat":43.28485,"lon":5.38556,"is_reserved":false,"is_disabled":false,"rental_uris":{"android":"levelo://app?vid=fc61aa43-e00e-4e24-89d5-66bbcedfb26f","ios":"levelo://app?vid=fc61aa43-e00e-4e24-89d5-66bbcedfb26f"},"vehicle_type_id":"4","last_reported":1728641331,"current_range_meters":14800,"station_id":"ce4bh8p2rcd13ifvqeb0","pricing_plan_id":"cebpf4jnsgd1na2vs0mg"},{"bike_id":"250295e3-b711-4b59-a0ba-ec9634c32ffc","system_id":"levelo_inurba_marseille","lat":43.31355,"lon":5.38496,"is_reserved":false,"is_disabled":false,"rental_uris":{"android":"levelo://app?vid=250295e3-b711-4b59-a0ba-ec9634c32ffc","ios":"levelo://app?vid=250295e3-b711-4b59-a0ba-ec9634c32ffc"},"vehicle_type_id":"4","last_reported":1728641331,"current_range_meters":5600,"station_id":"ce4bgt92rcd13ifvqcf0","pricing_plan_id":"cebpf4jnsgd1na2vs0mg"},{"bike_id":"a95529f2-2129-4a9b-a5db-1cf3f96206f6","system_id":"levelo_inurba_marseille","lat":43.26804,"lon":5.40262,"is_reserved":false,"is_disabled":false,"rental_uris":{"android":"levelo://app?vid=a95529f2-2129-4a9b-a5db-1cf3f96206f6","ios":"levelo://app?vid=a95529f2-2129-4a9b-a5db-1cf3f96206f6"},"vehicle_type_id":"4","last_reported":1728641331,"current_range_meters":28400,"station_id":"ce501612rcd8frsf0b60","pricing_plan_id":"cebpf4jnsgd1na2vs0mg"},{"bike_id":"655a4d1b-b7f3-48ec-bed6-2092bfff8cb7","system_id":"levelo_inurba_marseille","lat":43.29564,"lon":5.37506,"is_reserved":false,"is_disabled":false,"rental_uris":{"android":"levelo://app?vid=655a4d1b-b7f3-48ec-bed6-2092bfff8cb7","ios":"levelo://app?vid=655a4d1b-b7f3-48ec-bed6-2092bfff8cb7"},"vehicle_type_id":"4","last_reported":1728641331,"current_range_meters":18800,"station_id":"ce4bgh92rcd13ifvqb50","pricing_plan_id":"cebpf4jnsgd1na2vs0mg"},{"bike_id":"a63c97c3-ebea-49ea-bee8-7810aed349f3","system_id":"levelo_inurba_marseille","lat":43.24545,"lon":5.39523,"is_reserved":false,"is_disabled":false,"rental_uris":{"android":"levelo://app?vid=a63c97c3-ebea-49ea-bee8-7810aed349f3","ios":"levelo://app?vid=a63c97c3-ebea-49ea-bee8-7810aed349f3"},"vehicle_type_id":"4","last_reported":1728641331,"current_range_meters":14800,"station_id":"","pricing_plan_id":"cebpf4jnsgd1na2vs0mg"},{"bike_id":"49c3d6f4-ddb7-464b-bcd2-30360f8be357","system_id":"levelo_inurba_marseille","lat":43.29197,"lon":5.39323,"is_reserved":false,"is_disabled":false,"rental_uris":{"android":"levelo://app?vid=49c3d6f4-ddb7-464b-bcd2-30360f8be357","ios":"levelo://app?vid=49c3d6f4-ddb7-464b-bcd2-30360f8be357"},"vehicle_type_id":"4","last_reported":1728641331,"current_range_meters":30400,"station_id":"ce4bh192rcd13ifvqdd0","pricing_plan_id":"cebpf4jnsgd1na2vs0mg"},{"bike_id":"de7fa45a-92d0-49ce-8032-caa83b8bf7b2","system_id":"levelo_inurba_marseille","lat":43.309485,"lon":5.39032,"is_reserved":false,"is_disabled":false,"rental_uris":{"android":"levelo://app?vid=de7fa45a-92d0-49ce-8032-caa83b8bf7b2","ios":"levelo://app?vid=de7fa45a-92d0-49ce-8032-caa83b8bf7b2"},"vehicle_type_id":"4","last_reported":1728641331,"current_range_meters":2000,"station_id":"ce4bgup2rcd13ifvqco0","pricing_plan_id":"cebpf4jnsgd1na2vs0mg"},{"bike_id":"136491cc-89e8-4974-b6a2-56ae98595dc1","system_id":"levelo_inurba_marseille","lat":43.24547,"lon":5.39529,"is_reserved":false,"is_disabled":false,"rental_uris":{"android":"levelo://app?vid=136491cc-89e8-4974-b6a2-56ae98595dc1","ios":"levelo://app?vid=136491cc-89e8-4974-b6a2-56ae98595dc1"},"vehicle_type_id":"4","last_reported":1728641331,"current_range_meters":9200,"station_id":"ce4bhlp2rcd13ifvqgjg","pricing_plan_id":"cebpf4jnsgd1na2vs0mg"},{"bike_id":"4b1cacd4-dfcc-45a2-8f94-9d4a3da630fc","system_id":"levelo_inurba_marseille","lat":43.29525,"lon":5.39043,"is_reserved":false,"is_disabled":false,"rental_uris":{"android":"levelo://app?vid=4b1cacd4-dfcc-45a2-8f94-9d4a3da630fc","ios":"levelo://app?vid=4b1cacd4-dfcc-45a2-8f94-9d4a3da630fc"},"vehicle_type_id":"4","last_reported":1728641331,"current_range_meters":38800,"station_id":"ce4bh3p2rcd13ifvqdp0","pricing_plan_id":"cebpf4jnsgd1na2vs0mg"},{"bike_id":"e212f44c-99f6-4105-8ce6-acd7dc896983","system_id":"levelo_inurba_marseille","lat":43.29258,"lon":5.40902,"is_reserved":false,"is_disabled":false,"rental_uris":{"android":"levelo://app?vid=e212f44c-99f6-4105-8ce6-acd7dc896983","ios":"levelo://app?vid=e212f44c-99f6-4105-8ce6-acd7dc896983"},"vehicle_type_id":"4","last_reported":1728641331,"current_range_meters":38400,"station_id":"ce4bh192rcd13ifvqdc0","pricing_plan_id":"cebpf4jnsgd1na2vs0mg"},{"bike_id":"f7fca811-7bd9-4603-8d52-d827efffd549","system_id":"levelo_inurba_marseille","lat":43.26939,"lon":5.38914,"is_reserved":false,"is_disabled":false,"rental_uris":{"android":"levelo://app?vid=f7fca811-7bd9-4603-8d52-d827efffd549","ios":"levelo://app?vid=f7fca811-7bd9-4603-8d52-d827efffd549"},"vehicle_type_id":"4","last_reported":1728641331,"current_range_meters":37600,"station_id":"ce4bhhh2rcd13ifvqfl0","pricing_plan_id":"cebpf4jnsgd1na2vs0mg"},{"bike_id":"4258e283-c9b2-4abb-b0da-fbaa438577cb","system_id":"levelo_inurba_marseille","lat":43.23156,"lon":5.43701,"is_reserved":false,"is_disabled":false,"rental_uris":{"android":"levelo://app?vid=4258e283-c9b2-4abb-b0da-fbaa438577cb","ios":"levelo://app?vid=4258e283-c9b2-4abb-b0da-fbaa438577cb"},"vehicle_type_id":"4","last_reported":1728641331,"current_range_meters":6400,"station_id":"ce4bhmp2rcd13ifvqgog","pricing_plan_id":"cebpf4jnsgd1na2vs0mg"},{"bike_id":"cb257378-68a1-44f9-a594-23fe6ddc6793","system_id":"levelo_inurba_marseille","lat":43.23157,"lon":5.43701,"is_reserved":false,"is_disabled":false,"rental_uris":{"android":"levelo://app?vid=cb257378-68a1-44f9-a594-23fe6ddc6793","ios":"levelo://app?vid=cb257378-68a1-44f9-a594-23fe6ddc6793"},"vehicle_type_id":"4","last_reported":1728641331,"current_range_meters":11200,"station_id":"ce4bhmp2rcd13ifvqgog","pricing_plan_id":"cebpf4jnsgd1na2vs0mg"},{"bike_id":"171a17ea-8e73-4cac-aa94-957ccaf9c2d4","system_id":"levelo_inurba_marseille","lat":43.29701,"lon":5.36612,"is_reserved":false,"is_disabled":false,"rental_uris":{"android":"levelo://app?vid=171a17ea-8e73-4cac-aa94-957ccaf9c2d4","ios":"levelo://app?vid=171a17ea-8e73-4cac-aa94-957ccaf9c2d4"},"vehicle_type_id":"4","last_reported":1728641331,"current_range_meters":39200,"station_id":"ce4bgn12rcd13ifvqbt0","pricing_plan_id":"cebpf4jnsgd1na2vs0mg"},{"bike_id":"dde0db13-fee0-42a8-8640-d220b73e066f","system_id":"levelo_inurba_marseille","lat":43.27059,"lon":5.40256,"is_reserved":false,"is_disabled":false,"rental_uris":{"android":"levelo://app?vid=dde0db13-fee0-42a8-8640-d220b73e066f","ios":"levelo://app?vid=dde0db13-fee0-42a8-8640-d220b73e066f"},"vehicle_type_id":"4","last_reported":1728641331,"current_range_meters":14800,"station_id":"ce4bhk92rcd13ifvqgc0","pricing_plan_id":"cebpf4jnsgd1na2vs0mg"},{"bike_id":"d6a085e4-bfbf-4510-968c-e4cc0766c2f4","system_id":"levelo_inurba_marseille","lat":43.30267,"lon":5.3769,"is_reserved":false,"is_disabled":false,"rental_uris":{"android":"levelo://app?vid=d6a085e4-bfbf-4510-968c-e4cc0766c2f4","ios":"levelo://app?vid=d6a085e4-bfbf-4510-968c-e4cc0766c2f4"},"vehicle_type_id":"4","last_reported":1728641331,"current_range_meters":39200,"station_id":"ce4bguh2rcd13ifvqcj0","pricing_plan_id":"cebpf4jnsgd1na2vs0mg"},{"bike_id":"d3515cc2-9931-4d17-a2b9-231072d9e4d2","system_id":"levelo_inurba_marseille","lat":43.23193,"lon":5.35541,"is_reserved":false,"is_disabled":false,"rental_uris":{"android":"levelo://app?vid=d3515cc2-9931-4d17-a2b9-231072d9e4d2","ios":"levelo://app?vid=d3515cc2-9931-4d17-a2b9-231072d9e4d2"},"vehicle_type_id":"4","last_reported":1728641331,"current_range_meters":24800,"station_id":"ce4bhu92rcd13ifvqi70","pricing_plan_id":"cebpf4jnsgd1na2vs0mg"},{"bike_id":"18eaa42a-f6e0-4fe8-928e-2c506eb424d9","system_id":"levelo_inurba_marseille","lat":43.302745,"lon":5.376981,"is_reserved":false,"is_disabled":false,"rental_uris":{"android":"levelo://app?vid=18eaa42a-f6e0-4fe8-928e-2c506eb424d9","ios":"levelo://app?vid=18eaa42a-f6e0-4fe8-928e-2c506eb424d9"},"vehicle_type_id":"4","last_reported":1728641331,"current_range_meters":12000,"station_id":"ce4bguh2rcd13ifvqcj0","pricing_plan_id":"cebpf4jnsgd1na2vs0mg"},{"bike_id":"5e9b747e-82e9-4343-9a7e-19f72fd473f0","system_id":"levelo_inurba_marseille","lat":43.23147,"lon":5.43705,"is_reserved":false,"is_disabled":false,"rental_uris":{"android":"levelo://app?vid=5e9b747e-82e9-4343-9a7e-19f72fd473f0","ios":"levelo://app?vid=5e9b747e-82e9-4343-9a7e-19f72fd473f0"},"vehicle_type_id":"4","last_reported":1728641331,"current_range_meters":20000,"station_id":"ce4bhmp2rcd13ifvqgog","pricing_plan_id":"cebpf4jnsgd1na2vs0mg"},{"bike_id":"42c58507-4efb-4724-96f7-31b2e55784d3","system_id":"levelo_inurba_marseille","lat":43.33016,"lon":5.39046,"is_reserved":false,"is_disabled":false,"rental_uris":{"android":"levelo://app?vid=42c58507-4efb-4724-96f7-31b2e55784d3","ios":"levelo://app?vid=42c58507-4efb-4724-96f7-31b2e55784d3"},"vehicle_type_id":"4","last_reported":1728641331,"current_range_meters":20000,"station_id":"ce4bhr92rcd13ifvqhrg","pricing_plan_id":"cebpf4jnsgd1na2vs0mg"},{"bike_id":"9c9d3e5e-f3fe-413d-8096-4c7ce46087fe","system_id":"levelo_inurba_marseille","lat":43.30968,"lon":5.39038,"is_reserved":false,"is_disabled":false,"rental_uris":{"android":"levelo://app?vid=9c9d3e5e-f3fe-413d-8096-4c7ce46087fe","ios":"levelo://app?vid=9c9d3e5e-f3fe-413d-8096-4c7ce46087fe"},"vehicle_type_id":"4","last_reported":1728641331,"current_range_meters":30400,"station_id":"ce4bh192rcd13ifvqdb0","pricing_plan_id":"cebpf4jnsgd1na2vs0mg"},{"bike_id":"c07239a3-c3ac-44ed-ad3c-af5eec4d7f39","system_id":"levelo_inurba_marseille","lat":43.24069,"lon":5.37765,"is_reserved":false,"is_disabled":false,"rental_uris":{"android":"levelo://app?vid=c07239a3-c3ac-44ed-ad3c-af5eec4d7f39","ios":"levelo://app?vid=c07239a3-c3ac-44ed-ad3c-af5eec4d7f39"},"vehicle_type_id":"4","last_reported":1728641331,"current_range_meters":38800,"station_id":"ce4bhnp2rcd13ifvqgvg","pricing_plan_id":"cebpf4jnsgd1na2vs0mg"},{"bike_id":"b1ee32c1-9e4f-448e-bf1d-da31c0376c74","system_id":"levelo_inurba_marseille","lat":43.340118,"lon":5.409916,"is_reserved":false,"is_disabled":false,"rental_uris":{"android":"levelo://app?vid=b1ee32c1-9e4f-448e-bf1d-da31c0376c74","ios":"levelo://app?vid=b1ee32c1-9e4f-448e-bf1d-da31c0376c74"},"vehicle_type_id":"4","last_reported":1728641331,"current_range_meters":28000,"station_id":"","pricing_plan_id":"cebpf4jnsgd1na2vs0mg"},{"bike_id":"e9074a87-d53d-44e0-bb77-4fe33bdcf2eb","system_id":"levelo_inurba_marseille","lat":43.320496,"lon":5.367776,"is_reserved":false,"is_disabled":false,"rental_uris":{"android":"levelo://app?vid=e9074a87-d53d-44e0-bb77-4fe33bdcf2eb","ios":"levelo://app?vid=e9074a87-d53d-44e0-bb77-4fe33bdcf2eb"},"vehicle_type_id":"4","last_reported":1728641331,"current_range_meters":24400,"station_id":"ce4bhrh2rcd13ifvqhug","pricing_plan_id":"cebpf4jnsgd1na2vs0mg"},{"bike_id":"7858b192-65d3-490d-b219-385e990d2d17","system_id":"levelo_inurba_marseille","lat":43.32063,"lon":5.41553,"is_reserved":false,"is_disabled":false,"rental_uris":{"android":"levelo://app?vid=7858b192-65d3-490d-b219-385e990d2d17","ios":"levelo://app?vid=7858b192-65d3-490d-b219-385e990d2d17"},"vehicle_type_id":"4","last_reported":1728641331,"current_range_meters":19600,"station_id":"ce4bhq92rcd13ifvqhkg","pricing_plan_id":"cebpf4jnsgd1na2vs0mg"},{"bike_id":"163fded5-1afd-47cc-a3f9-ad6a7b2c0331","system_id":"levelo_inurba_marseille","lat":43.28441,"lon":5.39204,"is_reserved":false,"is_disabled":false,"rental_uris":{"android":"levelo://app?vid=163fded5-1afd-47cc-a3f9-ad6a7b2c0331","ios":"levelo://app?vid=163fded5-1afd-47cc-a3f9-ad6a7b2c0331"},"vehicle_type_id":"4","last_reported":1728641331,"current_range_meters":20400,"station_id":"ce4bhoh2rcd13ifvqh5g","pricing_plan_id":"cebpf4jnsgd1na2vs0mg"},{"bike_id":"36fa4e2b-8e76-4d37-8994-d1c38de82630","system_id":"levelo_inurba_marseille","lat":43.29282,"lon":5.40106,"is_reserved":false,"is_disabled":false,"rental_uris":{"android":"levelo://app?vid=36fa4e2b-8e76-4d37-8994-d1c38de82630","ios":"levelo://app?vid=36fa4e2b-8e76-4d37-8994-d1c38de82630"},"vehicle_type_id":"4","last_reported":1728641331,"current_range_meters":34000,"station_id":"ce4bh312rcd13ifvqdk0","pricing_plan_id":"cebpf4jnsgd1na2vs0mg"},{"bike_id":"d1ad463b-46ba-4714-b18c-de24a29c8a24","system_id":"levelo_inurba_marseille","lat":43.29564,"lon":5.37505,"is_reserved":false,"is_disabled":false,"rental_uris":{"android":"levelo://app?vid=d1ad463b-46ba-4714-b18c-de24a29c8a24","ios":"levelo://app?vid=d1ad463b-46ba-4714-b18c-de24a29c8a24"},"vehicle_type_id":"4","last_reported":1728641331,"current_range_meters":9600,"station_id":"ce4bgh92rcd13ifvqb50","pricing_plan_id":"cebpf4jnsgd1na2vs0mg"},{"bike_id":"90b63397-94ec-473c-b727-3556cfeebba8","system_id":"levelo_inurba_marseille","lat":43.2902,"lon":5.38638,"is_reserved":false,"is_disabled":false,"rental_uris":{"android":"levelo://app?vid=90b63397-94ec-473c-b727-3556cfeebba8","ios":"levelo://app?vid=90b63397-94ec-473c-b727-3556cfeebba8"},"vehicle_type_id":"4","last_reported":1728641331,"current_range_meters":38800,"station_id":"ce4bh4p2rcd13ifvqe0g","pricing_plan_id":"cebpf4jnsgd1na2vs0mg"},{"bike_id":"923d3c71-6951-4229-b2c8-6a6a95c52d25","system_id":"levelo_inurba_marseille","lat":43.29866,"lon":5.39737,"is_reserved":false,"is_disabled":false,"rental_uris":{"android":"levelo://app?vid=923d3c71-6951-4229-b2c8-6a6a95c52d25","ios":"levelo://app?vid=923d3c71-6951-4229-b2c8-6a6a95c52d25"},"vehicle_type_id":"4","last_reported":1728641331,"current_range_meters":16400,"station_id":"ce4bh0h2rcd13ifvqd50","pricing_plan_id":"cebpf4jnsgd1na2vs0mg"},{"bike_id":"ce00d0c5-2761-4bd5-bb15-f24d9d844de4","system_id":"levelo_inurba_marseille","lat":43.30331,"lon":5.40434,"is_reserved":false,"is_disabled":false,"rental_uris":{"android":"levelo://app?vid=ce00d0c5-2761-4bd5-bb15-f24d9d844de4","ios":"levelo://app?vid=ce00d0c5-2761-4bd5-bb15-f24d9d844de4"},"vehicle_type_id":"4","last_reported":1728641331,"current_range_meters":30800,"station_id":"ce4bh012rcd13ifvqd10","pricing_plan_id":"cebpf4jnsgd1na2vs0mg"},{"bike_id":"c462ac31-e294-4267-bc1b-a4f664716350","system_id":"levelo_inurba_marseille","lat":43.23191,"lon":5.35542,"is_reserved":false,"is_disabled":false,"rental_uris":{"android":"levelo://app?vid=c462ac31-e294-4267-bc1b-a4f664716350","ios":"levelo://app?vid=c462ac31-e294-4267-bc1b-a4f664716350"},"vehicle_type_id":"4","last_reported":1728641331,"current_range_meters":28000,"station_id":"ce4bhu92rcd13ifvqi70","pricing_plan_id":"cebpf4jnsgd1na2vs0mg"},{"bike_id":"df37e778-64f1-4bf1-a355-00b2cd20b0d9","system_id":"levelo_inurba_marseille","lat":43.23055,"lon":5.3549,"is_reserved":false,"is_disabled":false,"rental_uris":{"android":"levelo://app?vid=df37e778-64f1-4bf1-a355-00b2cd20b0d9","ios":"levelo://app?vid=df37e778-64f1-4bf1-a355-00b2cd20b0d9"},"vehicle_type_id":"4","last_reported":1728641331,"current_range_meters":24400,"station_id":"cpo3342slgdg3j2ifvpg","pricing_plan_id":"cebpf4jnsgd1na2vs0mg"},{"bike_id":"b67111f6-9e9e-42a7-8b30-84eb820c6966","system_id":"levelo_inurba_marseille","lat":43.26683,"lon":5.38268,"is_reserved":false,"is_disabled":false,"rental_uris":{"android":"levelo://app?vid=b67111f6-9e9e-42a7-8b30-84eb820c6966","ios":"levelo://app?vid=b67111f6-9e9e-42a7-8b30-84eb820c6966"},"vehicle_type_id":"4","last_reported":1728641331,"current_range_meters":38000,"station_id":"ce4bhg92rcd13ifvqf90","pricing_plan_id":"cebpf4jnsgd1na2vs0mg"},{"bike_id":"2ecaabcb-b714-4711-89d9-52a02f40e48b","system_id":"levelo_inurba_marseille","lat":43.3053,"lon":5.36538,"is_reserved":false,"is_disabled":false,"rental_uris":{"android":"levelo://app?vid=2ecaabcb-b714-4711-89d9-52a02f40e48b","ios":"levelo://app?vid=2ecaabcb-b714-4711-89d9-52a02f40e48b"},"vehicle_type_id":"4","last_reported":1728641331,"current_range_meters":14800,"station_id":"ce4bgs12rcd13ifvqcag","pricing_plan_id":"cebpf4jnsgd1na2vs0mg"},{"bike_id":"49f356a6-ccc5-4bfd-9e11-b1fb9fef8278","system_id":"levelo_inurba_marseille","lat":43.25581,"lon":5.38238,"is_reserved":false,"is_disabled":false,"rental_uris":{"android":"levelo://app?vid=49f356a6-ccc5-4bfd-9e11-b1fb9fef8278","ios":"levelo://app?vid=49f356a6-ccc5-4bfd-9e11-b1fb9fef8278"},"vehicle_type_id":"4","last_reported":1728641331,"current_range_meters":36400,"station_id":"ce4bhih2rcd13ifvqfs0","pricing_plan_id":"cebpf4jnsgd1na2vs0mg"},{"bike_id":"0e3b1a78-ac1f-49cf-b597-605e1fb8dbb5","system_id":"levelo_inurba_marseille","lat":43.26026,"lon":5.37552,"is_reserved":false,"is_disabled":false,"rental_uris":{"android":"levelo://app?vid=0e3b1a78-ac1f-49cf-b597-605e1fb8dbb5","ios":"levelo://app?vid=0e3b1a78-ac1f-49cf-b597-605e1fb8dbb5"},"vehicle_type_id":"4","last_reported":1728641331,"current_range_meters":29600,"station_id":"ce4bhgh2rcd13ifvqfa0","pricing_plan_id":"cebpf4jnsgd1na2vs0mg"},{"bike_id":"643ab375-f5d3-4985-942b-7e55f7caa8f9","system_id":"levelo_inurba_marseille","lat":43.25581,"lon":5.38222,"is_reserved":false,"is_disabled":false,"rental_uris":{"android":"levelo://app?vid=643ab375-f5d3-4985-942b-7e55f7caa8f9","ios":"levelo://app?vid=643ab375-f5d3-4985-942b-7e55f7caa8f9"},"vehicle_type_id":"4","last_reported":1728641331,"current_range_meters":17600,"station_id":"ce4bhih2rcd13ifvqfs0","pricing_plan_id":"cebpf4jnsgd1na2vs0mg"},{"bike_id":"5eb3150d-d8e1-436d-abca-d5a86b1294cb","system_id":"levelo_inurba_marseille","lat":43.27811,"lon":5.40709,"is_reserved":false,"is_disabled":false,"rental_uris":{"android":"levelo://app?vid=5eb3150d-d8e1-436d-abca-d5a86b1294cb","ios":"levelo://app?vid=5eb3150d-d8e1-436d-abca-d5a86b1294cb"},"vehicle_type_id":"4","last_reported":1728641331,"current_range_meters":25600,"station_id":"ce4bhnh2rcd13ifvqgtg","pricing_plan_id":"cebpf4jnsgd1na2vs0mg"},{"bike_id":"c22ea7a7-77e5-49db-9a77-60b2ada9172e","system_id":"levelo_inurba_marseille","lat":43.2408,"lon":5.37755,"is_reserved":false,"is_disabled":false,"rental_uris":{"android":"levelo://app?vid=c22ea7a7-77e5-49db-9a77-60b2ada9172e","ios":"levelo://app?vid=c22ea7a7-77e5-49db-9a77-60b2ada9172e"},"vehicle_type_id":"4","last_reported":1728641331,"current_range_meters":18800,"station_id":"ce4bhnp2rcd13ifvqgvg","pricing_plan_id":"cebpf4jnsgd1na2vs0mg"},{"bike_id":"1365da9a-2932-4135-a25b-89462b0bf35d","system_id":"levelo_inurba_marseille","lat":43.24077,"lon":5.37751,"is_reserved":false,"is_disabled":false,"rental_uris":{"android":"levelo://app?vid=1365da9a-2932-4135-a25b-89462b0bf35d","ios":"levelo://app?vid=1365da9a-2932-4135-a25b-89462b0bf35d"},"vehicle_type_id":"4","last_reported":1728641331,"current_range_meters":14000,"station_id":"ce4bhnp2rcd13ifvqgvg","pricing_plan_id":"cebpf4jnsgd1na2vs0mg"},{"bike_id":"996a65f6-5305-4709-8cb2-4bb7c607ec99","system_id":"levelo_inurba_marseille","lat":43.33022,"lon":5.39038,"is_reserved":false,"is_disabled":false,"rental_uris":{"android":"levelo://app?vid=996a65f6-5305-4709-8cb2-4bb7c607ec99","ios":"levelo://app?vid=996a65f6-5305-4709-8cb2-4bb7c607ec99"},"vehicle_type_id":"4","last_reported":1728641331,"current_range_meters":27600,"station_id":"ce4bhr92rcd13ifvqhrg","pricing_plan_id":"cebpf4jnsgd1na2vs0mg"},{"bike_id":"eab29b50-e10c-4eaf-8bb9-df69841bdc46","system_id":"levelo_inurba_marseille","lat":43.3361,"lon":5.41034,"is_reserved":false,"is_disabled":false,"rental_uris":{"android":"levelo://app?vid=eab29b50-e10c-4eaf-8bb9-df69841bdc46","ios":"levelo://app?vid=eab29b50-e10c-4eaf-8bb9-df69841bdc46"},"vehicle_type_id":"4","last_reported":1728641331,"current_range_meters":4800,"station_id":"ce4bhqh2rcd13ifvqhmg","pricing_plan_id":"cebpf4jnsgd1na2vs0mg"},{"bike_id":"5c705715-cd8b-4c84-be31-fd0b78feaa52","system_id":"levelo_inurba_marseille","lat":43.27173,"lon":5.40991,"is_reserved":false,"is_disabled":false,"rental_uris":{"android":"levelo://app?vid=5c705715-cd8b-4c84-be31-fd0b78feaa52","ios":"levelo://app?vid=5c705715-cd8b-4c84-be31-fd0b78feaa52"},"vehicle_type_id":"4","last_reported":1728641331,"current_range_meters":32400,"station_id":"ce4bhl12rcd13ifvqgf0","pricing_plan_id":"cebpf4jnsgd1na2vs0mg"},{"bike_id":"29b293be-f03d-4469-837e-5982b9f088a9","system_id":"levelo_inurba_marseille","lat":43.26683,"lon":5.38272,"is_reserved":false,"is_disabled":false,"rental_uris":{"android":"levelo://app?vid=29b293be-f03d-4469-837e-5982b9f088a9","ios":"levelo://app?vid=29b293be-f03d-4469-837e-5982b9f088a9"},"vehicle_type_id":"4","last_reported":1728641331,"current_range_meters":25200,"station_id":"ce4bhg92rcd13ifvqf90","pricing_plan_id":"cebpf4jnsgd1na2vs0mg"},{"bike_id":"0836332e-da9d-4101-a421-1c9693fae546","system_id":"levelo_inurba_marseille","lat":43.33615,"lon":5.41031,"is_reserved":false,"is_disabled":false,"rental_uris":{"android":"levelo://app?vid=0836332e-da9d-4101-a421-1c9693fae546","ios":"levelo://app?vid=0836332e-da9d-4101-a421-1c9693fae546"},"vehicle_type_id":"4","last_reported":1728641331,"current_range_meters":39200,"station_id":"ce4bhqh2rcd13ifvqhmg","pricing_plan_id":"cebpf4jnsgd1na2vs0mg"},{"bike_id":"9c74a907-f10e-4bad-8b00-0f2dac92b618","system_id":"levelo_inurba_marseille","lat":43.31529,"lon":5.38039,"is_reserved":false,"is_disabled":false,"rental_uris":{"android":"levelo://app?vid=9c74a907-f10e-4bad-8b00-0f2dac92b618","ios":"levelo://app?vid=9c74a907-f10e-4bad-8b00-0f2dac92b618"},"vehicle_type_id":"4","last_reported":1728641331,"current_range_meters":17200,"station_id":"ce4bhsp2rcd13ifvqi50","pricing_plan_id":"cebpf4jnsgd1na2vs0mg"},{"bike_id":"7e01d483-5561-40ac-9439-e4f0df242084","system_id":"levelo_inurba_marseille","lat":43.28615,"lon":5.35102,"is_reserved":false,"is_disabled":false,"rental_uris":{"android":"levelo://app?vid=7e01d483-5561-40ac-9439-e4f0df242084","ios":"levelo://app?vid=7e01d483-5561-40ac-9439-e4f0df242084"},"vehicle_type_id":"4","last_reported":1728641331,"current_range_meters":38000,"station_id":"ce4bhch2rcd13ifvqeug","pricing_plan_id":"cebpf4jnsgd1na2vs0mg"},{"bike_id":"6f52a303-c7a1-4b34-846f-7d73ecef9b3c","system_id":"levelo_inurba_marseille","lat":43.26569,"lon":5.390323,"is_reserved":false,"is_disabled":false,"rental_uris":{"android":"levelo://app?vid=6f52a303-c7a1-4b34-846f-7d73ecef9b3c","ios":"levelo://app?vid=6f52a303-c7a1-4b34-846f-7d73ecef9b3c"},"vehicle_type_id":"4","last_reported":1728641331,"current_range_meters":28800,"station_id":"ce4bhe12rcd13ifvqf30","pricing_plan_id":"cebpf4jnsgd1na2vs0mg"},{"bike_id":"9cf3db70-1431-4372-b452-2d0770d0c15d","system_id":"levelo_inurba_marseille","lat":43.23194,"lon":5.35553,"is_reserved":false,"is_disabled":false,"rental_uris":{"android":"levelo://app?vid=9cf3db70-1431-4372-b452-2d0770d0c15d","ios":"levelo://app?vid=9cf3db70-1431-4372-b452-2d0770d0c15d"},"vehicle_type_id":"4","last_reported":1728641331,"current_range_meters":38400,"station_id":"ce4bhu92rcd13ifvqi70","pricing_plan_id":"cebpf4jnsgd1na2vs0mg"},{"bike_id":"b1026b4d-e5ba-4f7c-82cf-fe6f10443ec9","system_id":"levelo_inurba_marseille","lat":43.30278,"lon":5.37699,"is_reserved":false,"is_disabled":false,"rental_uris":{"android":"levelo://app?vid=b1026b4d-e5ba-4f7c-82cf-fe6f10443ec9","ios":"levelo://app?vid=b1026b4d-e5ba-4f7c-82cf-fe6f10443ec9"},"vehicle_type_id":"4","last_reported":1728641331,"current_range_meters":39200,"station_id":"ce4bguh2rcd13ifvqcj0","pricing_plan_id":"cebpf4jnsgd1na2vs0mg"},{"bike_id":"b2dca88d-02c1-45a6-9d9c-1a202ef254e4","system_id":"levelo_inurba_marseille","lat":43.26028,"lon":5.3755,"is_reserved":false,"is_disabled":false,"rental_uris":{"android":"levelo://app?vid=b2dca88d-02c1-45a6-9d9c-1a202ef254e4","ios":"levelo://app?vid=b2dca88d-02c1-45a6-9d9c-1a202ef254e4"},"vehicle_type_id":"4","last_reported":1728641331,"current_range_meters":19200,"station_id":"ce4bhgh2rcd13ifvqfa0","pricing_plan_id":"cebpf4jnsgd1na2vs0mg"},{"bike_id":"517d5065-ea3f-41b9-aa0e-025e5cfbbc86","system_id":"levelo_inurba_marseille","lat":43.2885,"lon":5.35857,"is_reserved":false,"is_disabled":false,"rental_uris":{"android":"levelo://app?vid=517d5065-ea3f-41b9-aa0e-025e5cfbbc86","ios":"levelo://app?vid=517d5065-ea3f-41b9-aa0e-025e5cfbbc86"},"vehicle_type_id":"4","last_reported":1728641331,"current_range_meters":38800,"station_id":"ce4bhb12rcd13ifvqem0","pricing_plan_id":"cebpf4jnsgd1na2vs0mg"},{"bike_id":"7b6baa85-f647-4dbc-bee4-af88f44a8bf2","system_id":"levelo_inurba_marseille","lat":43.22926,"lon":5.35375,"is_reserved":false,"is_disabled":false,"rental_uris":{"android":"levelo://app?vid=7b6baa85-f647-4dbc-bee4-af88f44a8bf2","ios":"levelo://app?vid=7b6baa85-f647-4dbc-bee4-af88f44a8bf2"},"vehicle_type_id":"4","last_reported":1728641331,"current_range_meters":24800,"station_id":"cpo3532slgdg3j2ikp40","pricing_plan_id":"cebpf4jnsgd1na2vs0mg"},