{"last_updated":1738948048,"ttl":60,"version":"2.2","data":{"bikes":[{"bike_id":"b8740638-8b15-4e39-9dd8-3d88c6eff33f","system_id":"levelo_inurba_marseille","lat":43.31228,"lon":5.36856,"is_reserved":false,"is_disabled":true,"rental_uris":{"android":"levelo://app?vid=b8740638-8b15-4e39-9dd8-3d88c6eff33f","ios":"levelo://app?vid=b8740638-8b15-4e39-9dd8-3d88c6eff33f"},"vehicle_type_id":"4","last_reported":1738948048,"current_range_meters":38800,"station_id":"ce4bgl92rcd13ifvqbq0","pricing_plan_id":"cebpf4jnsgd1na2vs0mg"},{"bike_id":"406db8f0-8e4b-408d-85b3-4bad63d3d82e","system_id":"levelo_inurba_marseille","lat":43.29255,"lon":5.409,"is_reserved":false,"is_disabled":false,"rental_uris":{"android":"levelo://app?vid=406db8f0-8e4b-408d-85b3-4bad63d3d82e","ios":"levelo://app?vid=406db8f0-8e4b-408d-85b3-4bad63d3d82e"},"vehicle_type_id":"4","last_reported":1738948048,"current_range_meters":22800,"station_id":"ce4bh192rcd13ifvqdc0","pricing_plan_id":"cebpf4jnsgd1na2vs0mg"},{"bike_id":"ccdc6efe-ebdd-4ab0-9036-6ff3200f0168","system_id":"levelo_inurba_marseille","lat":43.27184,"lon":5.40993,"is_reserved":false,"is_disabled":true,"rental_uris":{"android":"levelo://app?vid=ccdc6efe-ebdd-4ab0-9036-6ff3200f0168","ios":"levelo://app?vid=ccdc6efe-ebdd-4ab0-9036-6ff3200f0168"},"vehicle_type_id":"4","last_reported":1738948048,"current_range_meters":30000,"station_id":"ce4bhl12rcd13ifvqgf0","pricing_plan_id":"cebpf4jnsgd1na2vs0mg"},{"bike_id":"e932ddf5-19e4-4e33-971e-74988182dafa","system_id":"levelo_inurba_marseille","lat":43.292,"lon":5.357877,"is_reserved":false,"is_disabled":false,"rental_uris":{"android":"levelo://app?vid=e932ddf5-19e4-4e33-971e-74988182dafa","ios":"levelo://app?vid=e932ddf5-19e4-4e33-971e-74988182dafa"},"vehicle_type_id":"4","last_reported":1738948048,"current_range_meters":24800,"station_id":"ce4bhb12rcd13ifvqel0","pricing_plan_id":"cebpf4jnsgd1na2vs0mg"},{"bike_id":"7fd9115d-f34e-427b-8a96-e06214023140","system_id":"levelo_inurba_marseille","lat":43.31495,"lon":5.3731,"is_reserved":false,"is_disabled":false,"rental_uris":{"android":"levelo://app?vid=7fd9115d-f34e-427b-8a96-e06214023140","ios":"levelo://app?vid=7fd9115d-f34e-427b-8a96-e06214023140"},"vehicle_type_id":"4","last_reported":1738948048,"current_range_meters":20800,"station_id":"ce4bgt12rcd13ifvqcd0","pricing_plan_id":"cebpf4jnsgd1na2vs0mg"},{"bike_id":"cfa7f1cc-5150-48ed-843c-f6960ddad1e1","system_id":"levelo_inurba_marseille","lat":43.26488,"lon":5.39542,"is_reserved":false,"is_disabled":true,"rental_uris":{"android":"levelo://app?vid=cfa7f1cc-5150-48ed-843c-f6960ddad1e1","ios":"levelo://app?vid=cfa7f1cc-5150-48ed-843c-f6960ddad1e1"},"vehicle_type_id":"4","last_reported":1738948048,"current_range_meters":18800,"station_id":"ce4bhi12rcd13ifvqfq0","pricing_plan_id":"cebpf4jnsgd1na2vs0mg"},{"bike_id":"03dd4dd6-8faa-4f9b-884c-b7798fa6ee55","system_id":"levelo_inurba_marseille","lat":43.29521,"lon":5.39404,"is_reserved":false,"is_disabled":false,"rental_uris":{"android":"levelo://app?vid=03dd4dd6-8faa-4f9b-884c-b7798fa6ee55","ios":"levelo://app?vid=03dd4dd6-8faa-4f9b-884c-b7798fa6ee55"},"vehicle_type_id":"4","last_reported":1738948048,"current_range_meters":16400,"station_id":"ce4bh292rcd13ifvqdf0","pricing_plan_id":"cebpf4jnsgd1na2vs0mg"},{"bike_id":"6b7fc38a-5e19-4029-9e7b-d290f7068a2e","system_id":"levelo_inurba_marseille","lat":43.27941,"lon":5.41041,"is_reserved":false,"is_disabled":false,"rental_uris":{"android":"levelo://app?vid=6b7fc38a-5e19-4029-9e7b-d290f7068a2e","ios":"levelo://app?vid=6b7fc38a-5e19-4029-9e7b-d290f7068a2e"},"vehicle_type_id":"4","last_reported":1738948048,"current_range_meters":24000,"station_id":"ce4bhnp2rcd13ifvqh0g","pricing_plan_id":"cebpf4jnsgd1na2vs0mg"},{"bike_id":"0b370460-2bdc-4346-a1f4-7aeb9dd2a707","system_id":"levelo_inurba_marseille","lat":43.28632,"lon":5.39138,"is_reserved":false,"is_disabled":true,"rental_uris":{"android":"levelo://app?vid=0b370460-2bdc-4346-a1f4-7aeb9dd2a707","ios":"levelo://app?vid=0b370460-2bdc-4346-a1f4-7aeb9dd2a707"},"vehicle_type_id":"4","last_reported":1738948048,"current_range_meters":14000,"station_id":"","pricing_plan_id":"cebpf4jnsgd1na2vs0mg"},{"bike_id":"aabcc0ce-fbb7-4577-90d3-cdb7d018adbc","system_id":"levelo_inurba_marseille","lat":43.28152,"lon":5.42641,"is_reserved":false,"is_disabled":false,"rental_uris":{"android":"levelo://app?vid=aabcc0ce-fbb7-4577-90d3-cdb7d018adbc","ios":"levelo://app?vid=aabcc0ce-fbb7-4577-90d3-cdb7d018adbc"},"vehicle_type_id":"4","last_reported":1738948048,"current_range_meters":9200,"station_id":"ce4bhnh2rcd13ifvqgug","pricing_plan_id":"cebpf4jnsgd1na2vs0mg"},{"bike_id":"943ac723-5281-47cb-aec0-616933fe5d80","system_id":"levelo_inurba_marseille","lat":43.306007,"lon":5.372166,"is_reserved":false,"is_disabled":false,"rental_uris":{"android":"levelo://app?vid=943ac723-5281-47cb-aec0-616933fe5d80","ios":"levelo://app?vid=943ac723-5281-47cb-aec0-616933fe5d80"},"vehicle_type_id":"4","last_reported":1738948048,"current_range_meters":38800,"station_id":"ce4bgqh2rcd13ifvqc4g","pricing_plan_id":"cebpf4jnsgd1na2vs0mg"},{"bike_id":"ffdb6efc-7928-43a7-a4b4-0c9c4eb25b66","system_id":"levelo_inurba_marseille","lat":43.26937,"lon":5.40253,"is_reserved":false,"is_disabled":false,"rental_uris":{"android":"levelo://app?vid=ffdb6efc-7928-43a7-a4b4-0c9c4eb25b66","ios":"levelo://app?vid=ffdb6efc-7928-43a7-a4b4-0c9c4eb25b66"},"vehicle_type_id":"4","last_reported":1738948048,"current_range_meters":38800,"station_id":"cjm6bp8fraef2m0cb0m0","pricing_plan_id":"cebpf4jnsgd1na2vs0mg"},{"bike_id":"0e3e205c-def0-409b-93d1-6bd9975a7ce8","system_id":"levelo_inurba_marseille","lat":43.33752,"lon":5.37467,"is_reserved":false,"is_disabled":false,"rental_uris":{"android":"levelo://app?vid=0e3e205c-def0-409b-93d1-6bd9975a7ce8","ios":"levelo://app?vid=0e3e205c-def0-409b-93d1-6bd9975a7ce8"},"vehicle_type_id":"4","last_reported":1738948048,"current_range_meters":6000,"station_id":"","pricing_plan_id":"cebpf4jnsgd1na2vs0mg"},{"bike_id":"1a04bf90-1508-4077-924d-e62c674b15bc","system_id":"levelo_inurba_marseille","lat":43.26562,"lon":5.37289,"is_reserved":false,"is_disabled":false,"rental_uris":{"android":"levelo://app?vid=1a04bf90-1508-4077-924d-e62c674b15bc","ios":"levelo://app?vid=1a04bf90-1508-4077-924d-e62c674b15bc"},"vehicle_type_id":"4","last_reported":1738948048,"current_range_meters":38800,"station_id":"ce4bhg12rcd13ifvqf70","pricing_plan_id":"cebpf4jnsgd1na2vs0mg"},{"bike_id":"6a3bf5dc-6406-4053-977a-019d33b4193c","system_id":"levelo_inurba_marseille","lat":43.28413,"lon":5.37515,"is_reserved":false,"is_disabled":true,"rental_uris":{"android":"levelo://app?vid=6a3bf5dc-6406-4053-977a-019d33b4193c","ios":"levelo://app?vid=6a3bf5dc-6406-4053-977a-019d33b4193c"},"vehicle_type_id":"4","last_reported":1738948048,"current_range_meters":31200,"station_id":"ce4bh412rcd13ifvqds0","pricing_plan_id":"cebpf4jnsgd1na2vs0mg"},{"bike_id":"31012f46-6ad1-4f89-83ae-90be5fd931d1","system_id":"levelo_inurba_marseille","lat":43.28072,"lon":5.39634,"is_reserved":false,"is_disabled":false,"rental_uris":{"android":"levelo://app?vid=31012f46-6ad1-4f89-83ae-90be5fd931d1","ios":"levelo://app?vid=31012f46-6ad1-4f89-83ae-90be5fd931d1"},"vehicle_type_id":"4","last_reported":1738948048,"current_range_meters":28800,"station_id":"ce4bho12rcd13ifvqh2g","pricing_plan_id":"cebpf4jnsgd1na2vs0mg"},{"bike_id":"45a92107-6702-4621-ac29-0fce6e6bc287","system_id":"levelo_inurba_marseille","lat":43.2896,"lon":5.36399,"is_reserved":false,"is_disabled":false,"rental_uris":{"android":"levelo://app?vid=45a92107-6702-4621-ac29-0fce6e6bc287","ios":"levelo://app?vid=45a92107-6702-4621-ac29-0fce6e6bc287"},"vehicle_type_id":"4","last_reported":1738948048,"current_range_meters":27200,"station_id":"ce4bhc92rcd13ifvqetg","pricing_plan_id":"cebpf4jnsgd1na2vs0mg"},{"bike_id":"0c0fcc14-e57f-4050-8302-b8acbc556c82","system_id":"levelo_inurba_marseille","lat":43.31265,"lon":5.40168,"is_reserved":false,"is_disabled":false,"rental_uris":{"android":"levelo://app?vid=0c0fcc14-e57f-4050-8302-b8acbc556c82","ios":"levelo://app?vid=0c0fcc14-e57f-4050-8302-b8acbc556c82"},"vehicle_type_id":"4","last_reported":1738948048,"current_range_meters":10000,"station_id":"ce4bh092rcd13ifvqd30","pricing_plan_id":"cebpf4jnsgd1na2vs0mg"},{"bike_id":"06bd393d-f5d8-4be6-8764-159361d0b0da","system_id":"levelo_inurba_marseille","lat":43.31726,"lon":5.37769,"is_reserved":false,"is_disabled":false,"rental_uris":{"android":"levelo://app?vid=06bd393d-f5d8-4be6-8764-159361d0b0da","ios":"levelo://app?vid=06bd393d-f5d8-4be6-8764-159361d0b0da"},"vehicle_type_id":"4","last_reported":1738948048,"current_range_meters":25200,"station_id":"ce4bgth2rcd13ifvqch0","pricing_plan_id":"cebpf4jnsgd1na2vs0mg"},{"bike_id":"3528aa62-06b4-44de-92de-1aa1318d56b7","system_id":"levelo_inurba_marseille","lat":43.26209,"lon":5.37439,"is_reserved":false,"is_disabled":false,"rental_uris":{"android":"levelo://app?vid=3528aa62-06b4-44de-92de-1aa1318d56b7","ios":"levelo://app?vid=3528aa62-06b4-44de-92de-1aa1318d56b7"},"vehicle_type_id":"4","last_reported":1738948048,"current_range_meters":35600,"station_id":"ce4bhgp2rcd13ifvqfc0","pricing_plan_id":"cebpf4jnsgd1na2vs0mg"},{"bike_id":"5deb610f-f630-4c7c-be42-0c35c32fca42","system_id":"levelo_inurba_marseille","lat":43.26944,"lon":5.40253,"is_reserved":false,"is_disabled":false,"rental_uris":{"android":"levelo://app?vid=5deb610f-f630-4c7c-be42-0c35c32fca42","ios":"levelo://app?vid=5deb610f-f630-4c7c-be42-0c35c32fca42"},"vehicle_type_id":"4","last_reported":1738948048,"current_range_meters":27600,"station_id":"cjm6bp8fraef2m0cb0m0","pricing_plan_id":"cebpf4jnsgd1na2vs0mg"},{"bike_id":"608b32fc-53be-40e2-9344-f18ccef6764a","system_id":"levelo_inurba_marseille","lat":43.24804,"lon":5.37454,"is_reserved":false,"is_disabled":false,"rental_uris":{"android":"levelo://app?vid=608b32fc-53be-40e2-9344-f18ccef6764a","ios":"levelo://app?vid=608b32fc-53be-40e2-9344-f18ccef6764a"},"vehicle_type_id":"4","last_reported":1738948048,"current_range_meters":27600,"station_id":"ce4bhgh2rcd13ifvqfb0","pricing_plan_id":"cebpf4jnsgd1na2vs0mg"},{"bike_id":"b14feff6-424d-43a9-a2e2-58713c3ad09c","system_id":"levelo_inurba_marseille","lat":43.27808,"lon":5.40711,"is_reserved":false,"is_disabled":false,"rental_uris":{"android":"levelo://app?vid=b14feff6-424d-43a9-a2e2-58713c3ad09c","ios":"levelo://app?vid=b14feff6-424d-43a9-a2e2-58713c3ad09c"},"vehicle_type_id":"4","last_reported":1738948048,"current_range_meters":3600,"station_id":"ce4bhnh2rcd13ifvqgtg","pricing_plan_id":"cebpf4jnsgd1na2vs0mg"},{"bike_id":"1960e03b-59ba-4348-bd99-f7dca286c2fa","system_id":"levelo_inurba_marseille","lat":43.28607,"lon":5.35116,"is_reserved":false,"is_disabled":false,"rental_uris":{"android":"levelo://app?vid=1960e03b-59ba-4348-bd99-f7dca286c2fa","ios":"levelo://app?vid=1960e03b-59ba-4348-bd99-f7dca286c2fa"},"vehicle_type_id":"4","last_reported":1738948048,"current_range_meters":38800,"station_id":"ce4bhch2rcd13ifvqeug","pricing_plan_id":"cebpf4jnsgd1na2vs0mg"},{"bike_id":"2d6a2e4c-47bb-4bf8-8e22-1e9c987f8b16","system_id":"levelo_inurba_marseille","lat":43.23968,"lon":5.36637,"is_reserved":false,"is_disabled":false,"rental_uris":{"android":"levelo://app?vid=2d6a2e4c-47bb-4bf8-8e22-1e9c987f8b16","ios":"levelo://app?vid=2d6a2e4c-47bb-4bf8-8e22-1e9c987f8b16"},"vehicle_type_id":"4","last_reported":1738948048,"current_range_meters":16800,"station_id":"ce4bhi12rcd13ifvqfp0","pricing_plan_id":"cebpf4jnsgd1na2vs0mg"},{"bike_id":"984e66a9-958a-4ad4-8afe-42d9883f12f4","system_id":"levelo_inurba_marseille","lat":43.317,"lon":5.37761,"is_reserved":false,"is_disabled":false,"rental_uris":{"android":"levelo://app?vid=984e66a9-958a-4ad4-8afe-42d9883f12f4","ios":"levelo://app?vid=984e66a9-958a-4ad4-8afe-42d9883f12f4"},"vehicle_type_id":"4","last_reported":1738948048,"current_range_meters":38800,"station_id":"ce4bgth2rcd13ifvqch0","pricing_plan_id":"cebpf4jnsgd1na2vs0mg"},{"bike_id":"098d220b-e449-43ea-8d6d-9fc78e0abad9","system_id":"levelo_inurba_marseille","lat":43.22935,"lon":5.35375,"is_reserved":false,"is_disabled":false,"rental_uris":{"android":"levelo://app?vid=098d220b-e449-43ea-8d6d-9fc78e0abad9","ios":"levelo://app?vid=098d220b-e449-43ea-8d6d-9fc78e0abad9"},"vehicle_type_id":"4","last_reported":1738948048,"current_range_meters":38800,"station_id":"cpo3532slgdg3j2ikp40","pricing_plan_id":"cebpf4jnsgd1na2vs0mg"},{"bike_id":"5e3590b5-85bb-4400-9aed-619e4148d2fa","system_id":"levelo_inurba_marseille","lat":43.29371,"lon":5.37871,"is_reserved":false,"is_disabled":false,"rental_uris":{"android":"levelo://app?vid=5e3590b5-85bb-4400-9aed-619e4148d2fa","ios":"levelo://app?vid=5e3590b5-85bb-4400-9aed-619e4148d2fa"},"vehicle_type_id":"4","last_reported":1738948048,"current_range_meters":10800,"station_id":"ce4bgjh2rcd13ifvqbf0","pricing_plan_id":"cebpf4jnsgd1na2vs0mg"},{"bike_id":"25265f47-6177-48e9-b4ee-d5d5e25bf867","system_id":"levelo_inurba_marseille","lat":43.25718,"lon":5.4112,"is_reserved":false,"is_disabled":false,"rental_uris":{"android":"levelo://app?vid=25265f47-6177-48e9-b4ee-d5d5e25bf867","ios":"levelo://app?vid=25265f47-6177-48e9-b4ee-d5d5e25bf867"},"vehicle_type_id":"4","last_reported":1738948048,"current_range_meters":17200,"station_id":"ce4bhkp2rcd13ifvqgd0","pricing_plan_id":"cebpf4jnsgd1na2vs0mg"},{"bike_id":"dd833579-84b0-4839-89ea-03d9e4d3eaf3","system_id":"levelo_inurba_marseille","lat":43.27373,"lon":5.36254,"is_reserved":false,"is_disabled":false,"rental_uris":{"android":"levelo://app?vid=dd833579-84b0-4839-89ea-03d9e4d3eaf3","ios":"levelo://app?vid=dd833579-84b0-4839-89ea-03d9e4d3eaf3"},"vehicle_type_id":"4","last_reported":1738948048,"current_range_meters":18000,"station_id":"ce4bhbh2rcd13ifvqeo0","pricing_plan_id":"cebpf4jnsgd1na2vs0mg"},{"bike_id":"8134c42b-15c7-43df-91b1-9cea8c89299b","system_id":"levelo_inurba_marseille","lat":43.2587,"lon":5.39913,"is_reserved":false,"is_disabled":false,"rental_uris":{"android":"levelo://app?vid=8134c42b-15c7-43df-91b1-9cea8c89299b","ios":"levelo://app?vid=8134c42b-15c7-43df-91b1-9cea8c89299b"},"vehicle_type_id":"4","last_reported":1738948048,"current_range_meters":38000,"station_id":"ce4bhl92rcd13ifvqghg","pricing_plan_id":"cebpf4jnsgd1na2vs0mg"},{"bike_id":"109d8d07-d605-45c4-912d-3e7b38f9a9ae","system_id":"levelo_inurba_marseille","lat":43.24176,"lon":5.36397,"is_reserved":false,"is_disabled":false,"rental_uris":{"android":"levelo://app?vid=109d8d07-d605-45c4-912d-3e7b38f9a9ae","ios":"levelo://app?vid=109d8d07-d605-45c4-912d-3e7b38f9a9ae"},"vehicle_type_id":"4","last_reported":1738948048,"current_range_meters":17600,"station_id":"cpo36qri1sfpv3e86is0","pricing_plan_id":"cebpf4jnsgd1na2vs0mg"},{"bike_id":"a3893d23-c97d-4112-8209-a382373f5a94","system_id":"levelo_inurba_marseille","lat":43.30438,"lon":5.38912,"is_reserved":false,"is_disabled":false,"rental_uris":{"android":"levelo://app?vid=a3893d23-c97d-4112-8209-a382373f5a94","ios":"levelo://app?vid=a3893d23-c97d-4112-8209-a382373f5a94"},"vehicle_type_id":"4","last_reported":1738948048,"current_range_meters":10000,"station_id":"ce4bgk12rcd13ifvqbi0","pricing_plan_id":"cebpf4jnsgd1na2vs0mg"},{"bike_id":"e0ac6ade-67fe-4cce-9c68-eef5b3ef9fe9","system_id":"levelo_inurba_marseille","lat":43.28085,"lon":5.39636,"is_reserved":false,"is_disabled":false,"rental_uris":{"android":"levelo://app?vid=e0ac6ade-67fe-4cce-9c68-eef5b3ef9fe9","ios":"levelo://app?vid=e0ac6ade-67fe-4cce-9c68-eef5b3ef9fe9"},"vehicle_type_id":"4","last_reported":1738948048,"current_range_meters":39200,"station_id":"ce4bho12rcd13ifvqh2g","pricing_plan_id":"cebpf4jnsgd1na2vs0mg"},{"bike_id":"2ebd233c-fd15-4f13-9700-c155c053523f","system_id":"levelo_inurba_marseille","lat":43.25904,"lon":5.40874,"is_reserved":false,"is_disabled":true,"rental_uris":{"android":"levelo://app?vid=2ebd233c-fd15-4f13-9700-c155c053523f","ios":"levelo://app?vid=2ebd233c-fd15-4f13-9700-c155c053523f"},"vehicle_type_id":"4","last_reported":1738948048,"current_range_meters":27600,"station_id":"ce4bhm92rcd13ifvqglg","pricing_plan_id":"cebpf4jnsgd1na2vs0mg"},{"bike_id":"af40deb1-f640-4b70-95d2-0b44fe79a0b8","system_id":"levelo_inurba_marseille","lat":43.2695,"lon":5.40262,"is_reserved":false,"is_disabled":false,"rental_uris":{"android":"levelo://app?vid=af40deb1-f640-4b70-95d2-0b44fe79a0b8","ios":"levelo://app?vid=af40deb1-f640-4b70-95d2-0b44fe79a0b8"},"vehicle_type_id":"4","last_reported":1738948048,"current_range_meters":20000,"station_id":"cjm6bp8fraef2m0cb0m0","pricing_plan_id":"cebpf4jnsgd1na2vs0mg"},{"bike_id":"6850b23e-5e80-4fd6-856a-27e743c90765","system_id":"levelo_inurba_marseille","lat":43.29851,"lon":5.36261,"is_reserved":false,"is_disabled":false,"rental_uris":{"android":"levelo://app?vid=6850b23e-5e80-4fd6-856a-27e743c90765","ios":"levelo://app?vid=6850b23e-5e80-4fd6-856a-27e743c90765"},"vehicle_type_id":"4","last_reported":1738948048,"current_range_meters":36800,"station_id":"ce4bgpp2rcd13ifvqc3g","pricing_plan_id":"cebpf4jnsgd1na2vs0mg"},{"bike_id":"da42ddbd-b08b-41f4-b5ea-594da99eb78a","system_id":"levelo_inurba_marseille","lat":43.30457,"lon":5.39868,"is_reserved":false,"is_disabled":true,"rental_uris":{"android":"levelo://app?vid=da42ddbd-b08b-41f4-b5ea-594da99eb78a","ios":"levelo://app?vid=da42ddbd-b08b-41f4-b5ea-594da99eb78a"},"vehicle_type_id":"4","last_reported":1738948048,"current_range_meters":800,"station_id":"","pricing_plan_id":"cebpf4jnsgd1na2vs0mg"},{"bike_id":"1b068509-d731-4a9f-834b-80d35b08bfb2","system_id":"levelo_inurba_marseille","lat":43.28031,"lon":5.36948,"is_reserved":false,"is_disabled":false,"rental_uris":{"android":"levelo://app?vid=1b068509-d731-4a9f-834b-80d35b08bfb2","ios":"levelo://app?vid=1b068509-d731-4a9f-834b-80d35b08bfb2"},"vehicle_type_id":"4","last_reported":1738948048,"current_range_meters":30800,"station_id":"ce4bha12rcd13ifvqef0","pricing_plan_id":"cebpf4jnsgd1na2vs0mg"},{"bike_id":"c13ae62e-d5d6-4d3f-b979-0be4fe4644ed","system_id":"levelo_inurba_marseille","lat":43.24662,"lon":5.38158,"is_reserved":false,"is_disabled":false,"rental_uris":{"android":"levelo://app?vid=c13ae62e-d5d6-4d3f-b979-0be4fe4644ed","ios":"levelo://app?vid=c13ae62e-d5d6-4d3f-b979-0be4fe4644ed"},"vehicle_type_id":"4","last_reported":1738948048,"current_range_meters":24800,"station_id":"ce4bhih2rcd13ifvqfr0","pricing_plan_id":"cebpf4jnsgd1na2vs0mg"},{"bike_id":"e2e45959-6fb0-43e0-b711-cad9f816d2c3","system_id":"levelo_inurba_marseille","lat":43.30667,"lon":5.4007,"is_reserved":false,"is_disabled":false,"rental_uris":{"android":"levelo://app?vid=e2e45959-6fb0-43e0-b711-cad9f816d2c3","ios":"levelo://app?vid=e2e45959-6fb0-43e0-b711-cad9f816d2c3"},"vehicle_type_id":"4","last_reported":1738948048,"current_range_meters":38800,"station_id":"ce4bh112rcd13ifvqda0","pricing_plan_id":"cebpf4jnsgd1na2vs0mg"},{"bike_id":"bc9a4b67-fd92-40f9-a908-42a03d95f8de","system_id":"levelo_inurba_marseille","lat":43.30326,"lon":5.40442,"is_reserved":false,"is_disabled":false,"rental_uris":{"android":"levelo://app?vid=bc9a4b67-fd92-40f9-a908-42a03d95f8de","ios":"levelo://app?vid=bc9a4b67-fd92-40f9-a908-42a03d95f8de"},"vehicle_type_id":"4","last_reported":1738948048,"current_range_meters":39200,"station_id":"ce4bh012rcd13ifvqd10","pricing_plan_id":"cebpf4jnsgd1na2vs0mg"},{"bike_id":"36cb4c7f-d448-4d49-b84c-9dffbab52a7a","system_id":"levelo_inurba_marseille","lat":43.27372,"lon":5.36259,"is_reserved":false,"is_disabled":false,"rental_uris":{"android":"levelo://app?vid=36cb4c7f-d448-4d49-b84c-9dffbab52a7a","ios":"levelo://app?vid=36cb4c7f-d448-4d49-b84c-9dffbab52a7a"},"vehicle_type_id":"4","last_reported":1738948048,"current_range_meters":17600,"station_id":"ce4bhbh2rcd13ifvqeo0","pricing_plan_id":"cebpf4jnsgd1na2vs0mg"},{"bike_id":"048cb054-e0ae-41a0-ba3b-a29b817fe400","system_id":"levelo_inurba_marseille","lat":43.29092,"lon":5.38146,"is_reserved":false,"is_disabled":false,"rental_uris":{"android":"levelo://app?vid=048cb054-e0ae-41a0-ba3b-a29b817fe400","ios":"levelo://app?vid=048cb054-e0ae-41a0-ba3b-a29b817fe400"},"vehicle_type_id":"4","last_reported":1738948048,"current_range_meters":38400,"station_id":"ce4bh512rcd13ifvqe2g","pricing_plan_id":"cebpf4jnsgd1na2vs0mg"},{"bike_id":"6986b042-d67b-490d-a174-01e67df97cbc","system_id":"levelo_inurba_marseille","lat":43.2842,"lon":5.34985,"is_reserved":false,"is_disabled":false,"rental_uris":{"android":"levelo://app?vid=6986b042-d67b-490d-a174-01e67df97cbc","ios":"levelo://app?vid=6986b042-d67b-490d-a174-01e67df97cbc"},"vehicle_type_id":"4","last_reported":1738948048,"current_range_meters":38000,"station_id":"ce4bhbh2rcd13ifvqepg","pricing_plan_id":"cebpf4jnsgd1na2vs0mg"},{"bike_id":"6fcdd030-2bc2-4ae6-a6fb-6b8417f36d6e","system_id":"levelo_inurba_marseille","lat":43.30137,"lon":5.37387,"is_reserved":false,"is_disabled":false,"rental_uris":{"android":"levelo://app?vid=6fcdd030-2bc2-4ae6-a6fb-6b8417f36d6e","ios":"levelo://app?vid=6fcdd030-2bc2-4ae6-a6fb-6b8417f36d6e"},"vehicle_type_id":"4","last_reported":1738948048,"current_range_meters":26000,"station_id":"ce4bgs92rcd13ifvqcc0","pricing_plan_id":"cebpf4jnsgd1na2vs0mg"},{"bike_id":"89912e32-c5f0-448f-82d2-e236e4d6d653","system_id":"levelo_inurba_marseille","lat":43.27794,"lon":5.39876,"is_reserved":false,"is_disabled":true,"rental_uris":{"android":"levelo://app?vid=89912e32-c5f0-448f-82d2-e236e4d6d653","ios":"levelo://app?vid=89912e32-c5f0-448f-82d2-e236e4d6d653"},"vehicle_type_id":"4","last_reported":1738948048,"current_range_meters":4000,"station_id":"","pricing_plan_id":"cebpf4jnsgd1na2vs0mg"},{"bike_id":"002db939-6173-4d3f-867b-5d61ac7450c1","system_id":"levelo_inurba_marseille","lat":43.269401,"lon":5.402461,"is_reserved":false,"is_disabled":false,"rental_uris":{"android":"levelo://app?vid=002db939-6173-4d3f-867b-5d61ac7450c1","ios":"levelo://app?vid=002db939-6173-4d3f-867b-5d61ac7450c1"},"vehicle_type_id":"4","last_reported":1738948048,"current_range_meters":12400,"station_id":"cjm6bp8fraef2m0cb0m0","pricing_plan_id":"cebpf4jnsgd1na2vs0mg"},{"bike_id":"3b86e687-1ddd-4ff0-a327-4f5133a9f2af","system_id":"levelo_inurba_marseille","lat":43.29986,"lon":5.37187,"is_reserved":false,"is_disabled":false,"rental_uris":{"android":"levelo://app?vid=3b86e687-1ddd-4ff0-a327-4f5133a9f2af","ios":"levelo://app?vid=3b86e687-1ddd-4ff0-a327-4f5133a9f2af"},"vehicle_type_id":"4","last_reported":1738948048,"current_range_meters":38800,"station_id":"ce4bgr92rcd13ifvqc7g","pricing_plan_id":"cebpf4jnsgd1na2vs0mg"},{"bike_id":"0bf01347-6573-47e0-a521-b69a20d13beb","system_id":"levelo_inurba_marseille","lat":43.30798,"lon":5.43527,"is_reserved":false,"is_disabled":false,"rental_uris":{"android":"levelo://app?vid=0bf01347-6573-47e0-a521-b69a20d13beb","ios":"levelo://app?vid=0bf01347-6573-47e0-a521-b69a20d13beb"},"vehicle_type_id":"4","last_reported":1738948048,"current_range_meters":39200,"station_id":"ce4bhph2rcd13ifvqheg","pricing_plan_id":"cebpf4jnsgd1na2vs0mg"},{"bike_id":"116707f4-f2a2-4a81-9014-8eb026e78f3a","system_id":"levelo_inurba_marseille","lat":43.29873,"lon":5.38902,"is_reserved":false,"is_disabled":false,"rental_uris":{"android":"levelo://app?vid=116707f4-f2a2-4a81-9014-8eb026e78f3a","ios":"levelo://app?vid=116707f4-f2a2-4a81-9014-8eb026e78f3a"},"vehicle_type_id":"4","last_reported":1738948048,"current_range_meters":11200,"station_id":"ce4bh392rcd13ifvqdl0","pricing_plan_id":"cebpf4jnsgd1na2vs0mg"},{"bike_id":"fb5a704f-a51b-458c-a6e9-f5586a789b94","system_id":"levelo_inurba_marseille","lat":43.24172,"lon":5.36428,"is_reserved":false,"is_disabled":false,"rental_uris":{"android":"levelo://app?vid=fb5a704f-a51b-458c-a6e9-f5586a789b94","ios":"levelo://app?vid=fb5a704f-a51b-458c-a6e9-f5586a789b94"},"vehicle_type_id":"4","last_reported":1738948048,"current_range_meters":38800,"station_id":"cpo36qri1sfpv3e86is0","pricing_plan_id":"cebpf4jnsgd1na2vs0mg"},{"bike_id":"f1c1e8ea-c768-43eb-bbb3-77dbe638329d","system_id":"levelo_inurba_marseille","lat":43.32288,"lon":5.38278,"is_reserved":false,"is_disabled":false,"rental_uris":{"android":"levelo://app?vid=f1c1e8ea-c768-43eb-bbb3-77dbe638329d","ios":"levelo://app?vid=f1c1e8ea-c768-43eb-bbb3-77dbe638329d"},"vehicle_type_id":"4","last_reported":1738948048,"current_range_meters":13600,"station_id":"ce4bhr12rcd13ifvqhqg","pricing_plan_id":"cebpf4jnsgd1na2vs0mg"},{"bike_id":"8d797448-0a09-4463-9803-677908ee7f27","system_id":"levelo_inurba_marseille","lat":43.27942,"lon":5.41039,"is_reserved":false,"is_disabled":false,"rental_uris":{"android":"levelo://app?vid=8d797448-0a09-4463-9803-677908ee7f27","ios":"levelo://app?vid=8d797448-0a09-4463-9803-677908ee7f27"},"vehicle_type_id":"4","last_reported":1738948048,"current_range_meters":16800,"station_id":"ce4bhnp2rcd13ifvqh0g","pricing_plan_id":"cebpf4jnsgd1na2vs0mg"},{"bike_id":"b73937ba-05e4-41c7-8959-6f24613e2797","system_id":"levelo_inurba_marseille","lat":43.22938,"lon":5.35367,"is_reserved":false,"is_disabled":false,"rental_uris":{"android":"levelo://app?vid=b73937ba-05e4-41c7-8959-6f24613e2797","ios":"levelo://app?vid=b73937ba-05e4-41c7-8959-6f24613e2797"},"vehicle_type_id":"4","last_reported":1738948048,"current_range_meters":33200,"station_id":"cpo3532slgdg3j2ikp40","pricing_plan_id":"cebpf4jnsgd1na2vs0mg"},{"bike_id":"3632cb82-c279-442b-a0fe-509fff44586a","system_id":"levelo_inurba_marseille","lat":43.30314,"lon":5.36895,"is_reserved":false,"is_disabled":false,"rental_uris":{"android":"levelo://app?vid=3632cb82-c279-442b-a0fe-509fff44586a","ios":"levelo://app?vid=3632cb82-c279-442b-a0fe-509fff44586a"},"vehicle_type_id":"4","last_reported":1738948048,"current_range_meters":16400,"station_id":"ce4bgqh2rcd13ifvqc5g","pricing_plan_id":"cebpf4jnsgd1na2vs0mg"},{"bike_id":"a8dac3b1-f81b-41aa-aa13-194af634b028","system_id":"levelo_inurba_marseille","lat":43.29629,"lon":5.40593,"is_reserved":false,"is_disabled":false,"rental_uris":{"android":"levelo://app?vid=a8dac3b1-f81b-41aa-aa13-194af634b028","ios":"levelo://app?vid=a8dac3b1-f81b-41aa-aa13-194af634b028"},"vehicle_type_id":"4","last_reported":1738948048,"current_range_meters":16000,"station_id":"ce4bh0h2rcd13ifvqd60","pricing_plan_id":"cebpf4jnsgd1na2vs0mg"},{"bike_id":"ab54e2d0-4c2c-486a-84c7-811ed9008ddc","system_id":"levelo_inurba_marseille","lat":43.27855,"lon":5.42535,"is_reserved":false,"is_disabled":true,"rental_uris":{"android":"levelo://app?vid=ab54e2d0-4c2c-486a-84c7-811ed9008ddc","ios":"levelo://app?vid=ab54e2d0-4c2c-486a-84c7-811ed9008ddc"},"vehicle_type_id":"4","last_reported":1738948048,"current_range_meters":0,"station_id":"","pricing_plan_id":"cebpf4jnsgd1na2vs0mg"},{"bike_id":"c972ec3d-acc0-4480-9b9b-9859fc01da4f","system_id":"levelo_inurba_marseille","lat":43.29969,"lon":5.385,"is_reserved":false,"is_disabled":false,"rental_uris":{"android":"levelo://app?vid=c972ec3d-acc0-4480-9b9b-9859fc01da4f","ios":"levelo://app?vid=c972ec3d-acc0-4480-9b9b-9859fc01da4f"},"vehicle_type_id":"4","last_reported":1738948048,"current_range_meters":32800,"station_id":"ce4bgj92rcd13ifvqbd0","pricing_plan_id":"cebpf4jnsgd1na2vs0mg"},{"bike_id":"94e6fd1b-f6e0-4156-9ba2-91bbf6a9d72c","system_id":"levelo_inurba_marseille","lat":43.27567,"lon":5.38428,"is_reserved":false,"is_disabled":false,"rental_uris":{"android":"levelo://app?vid=94e6fd1b-f6e0-4156-9ba2-91bbf6a9d72c","ios":"levelo://app?vid=94e6fd1b-f6e0-4156-9ba2-91bbf6a9d72c"},"vehicle_type_id":"4","last_reported":1738948048,"current_range_meters":12000,"station_id":"ce4bhh92rcd13ifvqfi0","pricing_plan_id":"cebpf4jnsgd1na2vs0mg"},{"bike_id":"2eebc95d-8a24-45d3-afdc-38de874c660d","system_id":"levelo_inurba_marseille","lat":43.30773,"lon":5.37422,"is_reserved":false,"is_disabled":false,"rental_uris":{"android":"levelo://app?vid=2eebc95d-8a24-45d3-afdc-38de874c660d","ios":"levelo://app?vid=2eebc95d-8a24-45d3-afdc-38de874c660d"},"vehicle_type_id":"4","last_reported":1738948048,"current_range_meters":17200,"station_id":"","pricing_plan_id":"cebpf4jnsgd1na2vs0mg"},{"bike_id":"6835673f-f138-4499-8bdd-83c3f3bccf33","system_id":"levelo_inurba_marseille","lat":43.27992,"lon":5.40009,"is_reserved":false,"is_disabled":false,"rental_uris":{"android":"levelo://app?vid=6835673f-f138-4499-8bdd-83c3f3bccf33","ios":"levelo://app?vid=6835673f-f138-4499-8bdd-83c3f3bccf33"},"vehicle_type_id":"4","last_reported":1738948048,"current_range_meters":38400,"station_id":"ce4bho92rcd13ifvqh4g","pricing_plan_id":"cebpf4jnsgd1na2vs0mg"},{"bike_id":"bb1bab95-412e-41ba-879a-c483b6ec0924","system_id":"levelo_inurba_marseille","lat":43.2781,"lon":5.40711,"is_reserved":false,"is_disabled":false,"rental_uris":{"android":"levelo://app?vid=bb1bab95-412e-41ba-879a-c483b6ec0924","ios":"levelo://app?vid=bb1bab95-412e-41ba-879a-c483b6ec0924"},"vehicle_type_id":"4","last_reported":1738948048,"current_range_meters":17200,"station_id":"ce4bhnh2rcd13ifvqgtg","pricing_plan_id":"cebpf4jnsgd1na2vs0mg"},{"bike_id":"22e2ae1d-8b8d-4b67-b51a-612a07d817eb","system_id":"levelo_inurba_marseille","lat":43.30434,"lon":5.40103,"is_reserved":false,"is_disabled":false,"rental_uris":{"android":"levelo://app?vid=22e2ae1d-8b8d-4b67-b51a-612a07d817eb","ios":"levelo://app?vid=22e2ae1d-8b8d-4b67-b51a-612a07d817eb"},"vehicle_type_id":"4","last_reported":1738948048,"current_range_meters":3200,"station_id":"","pricing_plan_id":"cebpf4jnsgd1na2vs0mg"},{"bike_id":"363f89dc-7a31-4716-bf7c-5e8b960f961f","system_id":"levelo_inurba_marseille","lat":43.3109,"lon":5.42434,"is_reserved":false,"is_disabled":false,"rental_uris":{"android":"levelo://app?vid=363f89dc-7a31-4716-bf7c-5e8b960f961f","ios":"levelo://app?vid=363f89dc-7a31-4716-bf7c-5e8b960f961f"},"vehicle_type_id":"4","last_reported":1738948048,"current_range_meters":38800,"station_id":"ce4bhp92rcd13ifvqhag","pricing_plan_id":"cebpf4jnsgd1na2vs0mg"},{"bike_id":"cf1ec810-f7ec-419a-8ceb-08d76d0efda3","system_id":"levelo_inurba_marseille","lat":43.26556,"lon":5.37281,"is_reserved":false,"is_disabled":false,"rental_uris":{"android":"levelo://app?vid=cf1ec810-f7ec-419a-8ceb-08d76d0efda3","ios":"levelo://app?vid=cf1ec810-f7ec-419a-8ceb-08d76d0efda3"},"vehicle_type_id":"4","last_reported":1738948048,"current_range_meters":22800,"station_id":"ce4bhg12rcd13ifvqf70","pricing_plan_id":"cebpf4jnsgd1na2vs0mg"},{"bike_id":"d3f02aa3-e748-4574-967e-21ed1b351547","system_id":"levelo_inurba_marseille","lat":43.30656,"lon":5.40095,"is_reserved":false,"is_disabled":false,"rental_uris":{"android":"levelo://app?vid=d3f02aa3-e748-4574-967e-21ed1b351547","ios":"levelo://app?vid=d3f02aa3-e748-4574-967e-21ed1b351547"},"vehicle_type_id":"4","last_reported":1738948048,"current_range_meters":34000,"station_id":"ce4bh112rcd13ifvqda0","pricing_plan_id":"cebpf4jnsgd1na2vs0mg"},{"bike_id":"18a1d3de-61bb-4d55-a1af-61d4bc68ccd4","system_id":"levelo_inurba_marseille","lat":43.29451,"lon":5.37888,"is_reserved":false,"is_disabled":false,"rental_uris":{"android":"levelo://app?vid=18a1d3de-61bb-4d55-a1af-61d4bc68ccd4","ios":"levelo://app?vid=18a1d3de-61bb-4d55-a1af-61d4bc68ccd4"},"vehicle_type_id":"4","last_reported":1738948048,"current_range_meters":15200,"station_id":"ce4bhn92rcd13ifvqgrg","pricing_plan_id":"cebpf4jnsgd1na2vs0mg"},{"bike_id":"b8829ab2-1487-4b8c-ae59-08c14afad745","system_id":"levelo_inurba_marseille","lat":43.323615,"lon":5.388783,"is_reserved":false,"is_disabled":false,"rental_uris":{"android":"levelo://app?vid=b8829ab2-1487-4b8c-ae59-08c14afad745","ios":"levelo://app?vid=b8829ab2-1487-4b8c-ae59-08c14afad745"},"vehicle_type_id":"4","last_reported":1738948048,"current_range_meters":19200,"station_id":"ce4bhqp2rcd13ifvqhog","pricing_plan_id":"cebpf4jnsgd1na2vs0mg"},{"bike_id":"d65380ba-057e-48c7-ba20-2dd40a327322","system_id":"levelo_inurba_marseille","lat":43.254962,"lon":5.37657,"is_reserved":false,"is_disabled":false,"rental_uris":{"android":"levelo://app?vid=d65380ba-057e-48c7-ba20-2dd40a327322","ios":"levelo://app?vid=d65380ba-057e-48c7-ba20-2dd40a327322"},"vehicle_type_id":"4","last_reported":1738948048,"current_range_meters":8400,"station_id":"ce4bhh12rcd13ifvqff0","pricing_plan_id":"cebpf4jnsgd1na2vs0mg"},{"bike_id":"fa6c8753-6b54-4a06-8659-fb48c9fd01a0","system_id":"levelo_inurba_marseille","lat":43.29974,"lon":5.38494,"is_reserved":false,"is_disabled":false,"rental_uris":{"android":"levelo://app?vid=fa6c8753-6b54-4a06-8659-fb48c9fd01a0","ios":"levelo://app?vid=fa6c8753-6b54-4a06-8659-fb48c9fd01a0"},"vehicle_type_id":"4","last_reported":1738948048,"current_range_meters":20800,"station_id":"ce4bgj92rcd13ifvqbd0","pricing_plan_id":"cebpf4jnsgd1na2vs0mg"},{"bike_id":"99edfd39-ea2c-4152-9a67-579e3aa4a733","system_id":"levelo_inurba_marseille","lat":43.239658,"lon":5.366364,"is_reserved":false,"is_disabled":false,"rental_uris":{"android":"levelo://app?vid=99edfd39-ea2c-4152-9a67-579e3aa4a733","ios":"levelo://app?vid=99edfd39-ea2c-4152-9a67-579e3aa4a733"},"vehicle_type_id":"4","last_reported":1738948048,"current_range_meters":37600,"station_id":"ce4bhi12rcd13ifvqfp0","pricing_plan_id":"cebpf4jnsgd1na2vs0mg"},{"bike_id":"412348d0-e316-46bb-8138-df0a547a79ea","system_id":"levelo_inurba_marseille","lat":43.30888,"lon":5.39646,"is_reserved":false,"is_disabled":false,"rental_uris":{"android":"levelo://app?vid=412348d0-e316-46bb-8138-df0a547a79ea","ios":"levelo://app?vid=412348d0-e316-46bb-8138-df0a547a79ea"},"vehicle_type_id":"4","last_reported":1738948048,"current_range_meters":24000,"station_id":"ce4bh012rcd13ifvqcv0","pricing_plan_id":"cebpf4jnsgd1na2vs0mg"},{"bike_id":"0d32a4c1-c1b1-4898-9ae8-285f646c73f1","system_id":"levelo_inurba_marseille","lat":43.29974,"lon":5.38499,"is_reserved":false,"is_disabled":false,"rental_uris":{"android":"levelo://app?vid=0d32a4c1-c1b1-4898-9ae8-285f646c73f1","ios":"levelo://app?vid=0d32a4c1-c1b1-4898-9ae8-285f646c73f1"},"vehicle_type_id":"4","last_reported":1738948048,"current_range_meters":12400,"station_id":"ce4bgj92rcd13ifvqbd0","pricing_plan_id":"cebpf4jnsgd1na2vs0mg"},{"bike_id":"defe4b26-8227-4bee-9f58-c93ef8babb39","system_id":"levelo_inurba_marseille","lat":43.30139,"lon":5.39845,"is_reserved":false,"is_disabled":false,"rental_uris":{"android":"levelo://app?vid=defe4b26-8227-4bee-9f58-c93ef8babb39","ios":"levelo://app?vid=defe4b26-8227-4bee-9f58-c93ef8babb39"},"vehicle_type_id":"4","last_reported":1738948048,"current_range_meters":8800,"station_id":"ce4bh0h2rcd13ifvqd40","pricing_plan_id":"cebpf4jnsgd1na2vs0mg"},{"bike_id":"9b3684d5-481d-4327-8cfd-bf763b2c60b5","system_id":"levelo_inurba_marseille","lat":43.28938,"lon":5.36415,"is_reserved":false,"is_disabled":false,"rental_uris":{"android":"levelo://app?vid=9b3684d5-481d-4327-8cfd-bf763b2c60b5","ios":"levelo://app?vid=9b3684d5-481d-4327-8cfd-bf763b2c60b5"},"vehicle_type_id":"4","last_reported":1738948048,"current_range_meters":10800,"station_id":"ce4bhc92rcd13ifvqetg","pricing_plan_id":"cebpf4jnsgd1na2vs0mg"},{"bike_id":"1cfe21f7-6157-4ffb-a163-41af87f64a95","system_id":"levelo_inurba_marseille","lat":43.28466,"lon":5.35884,"is_reserved":false,"is_disabled":false,"rental_uris":{"android":"levelo://app?vid=1cfe21f7-6157-4ffb-a163-41af87f64a95","ios":"levelo://app?vid=1cfe21f7-6157-4ffb-a163-41af87f64a95"},"vehicle_type_id":"4","last_reported":1738948048,"current_range_meters":39200,"station_id":"ce4bhah2rcd13ifvqei0","pricing_plan_id":"cebpf4jnsgd1na2vs0mg"},{"bike_id":"aabe1f0b-89a1-4652-9d45-ac5bc92d0c24","system_id":"levelo_inurba_marseille","lat":43.30139,"lon":5.37415,"is_reserved":false,"is_disabled":false,"rental_uris":{"android":"levelo://app?vid=aabe1f0b-89a1-4652-9d45-ac5bc92d0c24","ios":"levelo://app?vid=aabe1f0b-89a1-4652-9d45-ac5bc92d0c24"},"vehicle_type_id":"4","last_reported":1738948048,"current_range_meters":38800,"station_id":"ce4bgs92rcd13ifvqcc0","pricing_plan_id":"cebpf4jnsgd1na2vs0mg"},{"bike_id":"d33f71c7-e060-41c4-b0ca-d2804682339d","system_id":"levelo_inurba_marseille","lat":43.2929,"lon":5.40135,"is_reserved":false,"is_disabled":false,"rental_uris":{"android":"levelo://app?vid=d33f71c7-e060-41c4-b0ca-d2804682339d","ios":"levelo://app?vid=d33f71c7-e060-41c4-b0ca-d2804682339d"},"vehicle_type_id":"4","last_reported":1738948048,"current_range_meters":2800,"station_id":"ce4bh312rcd13ifvqdk0","pricing_plan_id":"cebpf4jnsgd1na2vs0mg"},{"bike_id":"c5afe4ed-432e-4c43-8e07-8a9cecbd1a94","system_id":"levelo_inurba_marseille","lat":43.29272,"lon":5.38436,"is_reserved":false,"is_disabled":false,"rental_uris":{"android":"levelo://app?vid=c5afe4ed-432e-4c43-8e07-8a9cecbd1a94","ios":"levelo://app?vid=c5afe4ed-432e-4c43-8e07-8a9cecbd1a94"},"vehicle_type_id":"4","last_reported":1738948048,"current_range_meters":38800,"station_id":"ce4bh692rcd13ifvqea0","pricing_plan_id":"cebpf4jnsgd1na2vs0mg"},{"bike_id":"061ad218-5e14-42ca-9e7e-ab9e18d283ef","system_id":"levelo_inurba_marseille","lat":43.25864,"lon":5.39914,"is_reserved":false,"is_disabled":false,"rental_uris":{"android":"levelo://app?vid=061ad218-5e14-42ca-9e7e-ab9e18d283ef","ios":"levelo://app?vid=061ad218-5e14-42ca-9e7e-ab9e18d283ef"},"vehicle_type_id":"4","last_reported":1738948048,"current_range_meters":22800,"station_id":"ce4bhl92rcd13ifvqghg","pricing_plan_id":"cebpf4jnsgd1na2vs0mg"},{"bike_id":"201ecfc8-9896-48c6-91ea-b68110b20dcc","system_id":"levelo_inurba_marseille","lat":43.27837,"lon":5.39207,"is_reserved":false,"is_disabled":true,"rental_uris":{"android":"levelo://app?vid=201ecfc8-9896-48c6-91ea-b68110b20dcc","ios":"levelo://app?vid=201ecfc8-9896-48c6-91ea-b68110b20dcc"},"vehicle_type_id":"4","last_reported":1738948048,"current_range_meters":800,"station_id":"ce4bhjp2rcd13ifvqga0","pricing_plan_id":"cebpf4jnsgd1na2vs0mg"},{"bike_id":"f67b7531-6c63-4f46-a9d4-4fdf588facb0","system_id":"levelo_inurba_marseille","lat":43.278656,"lon":5.406185,"is_reserved":false,"is_disabled":true,"rental_uris":{"android":"levelo://app?vid=f67b7531-6c63-4f46-a9d4-4fdf588facb0","ios":"levelo://app?vid=f67b7531-6c63-4f46-a9d4-4fdf588facb0"},"vehicle_type_id":"4","last_reported":1738948048,"current_range_meters":0,"station_id":"","pricing_plan_id":"cebpf4jnsgd1na2vs0mg"},{"bike_id":"ccc0d99a-4f06-4847-88ea-bfbf26a9a708","system_id":"levelo_inurba_marseille","lat":43.273743,"lon":5.362555,"is_reserved":false,"is_disabled":false,"rental_uris":{"android":"levelo://app?vid=ccc0d99a-4f06-4847-88ea-bfbf26a9a708","ios":"levelo://app?vid=ccc0d99a-4f06-4847-88ea-bfbf26a9a708"},"vehicle_type_id":"4","last_reported":1738948048,"current_range_meters":38800,"station_id":"ce4bhbh2rcd13ifvqeo0","pricing_plan_id":"cebpf4jnsgd1na2vs0mg"},{"bike_id":"1047ff1d-49b3-4860-859b-cb306bbb0b1e","system_id":"levelo_inurba_marseille","lat":43.25708,"lon":5.41783,"is_reserved":false,"is_disabled":false,"rental_uris":{"android":"levelo://app?vid=1047ff1d-49b3-4860-859b-cb306bbb0b1e","ios":"levelo://app?vid=1047ff1d-49b3-4860-859b-cb306bbb0b1e"},"vehicle_type_id":"4","last_reported":1738948048,"current_range_meters":7200,"station_id":"","pricing_plan_id":"cebpf4jnsgd1na2vs0mg"},{"bike_id":"a1ff6a73-36b2-4a61-a88f-8f0cc16371c7","system_id":"levelo_inurba_marseille","lat":43.26235,"lon":5.40452,"is_reserved":false,"is_disabled":false,"rental_uris":{"android":"levelo://app?vid=a1ff6a73-36b2-4a61-a88f-8f0cc16371c7","ios":"levelo://app?vid=a1ff6a73-36b2-4a61-a88f-8f0cc16371c7"},"vehicle_type_id":"4","last_reported":1738948048,"current_range_meters":36800,"station_id":"ce4bhmh2rcd13ifvqgmg","pricing_plan_id":"cebpf4jnsgd1na2vs0mg"},{"bike_id":"5a2d5dfd-03ec-4fe4-9110-6cf9df6cb751","system_id":"levelo_inurba_marseille","lat":43.28704,"lon":5.37951,"is_reserved":false,"is_disabled":true,"rental_uris":{"android":"levelo://app?vid=5a2d5dfd-03ec-4fe4-9110-6cf9df6cb751","ios":"levelo://app?vid=5a2d5dfd-03ec-4fe4-9110-6cf9df6cb751"},"vehicle_type_id":"4","last_reported":1738948048,"current_range_meters":26000,"station_id":"ce4bh9p2rcd13ifvqec0","pricing_plan_id":"cebpf4jnsgd1na2vs0mg"},{"bike_id":"359b6247-0c56-4066-9203-ed98a21ba5b2","system_id":"levelo_inurba_marseille","lat":43.27562,"lon":5.38418,"is_reserved":false,"is_disabled":false,"rental_uris":{"android":"levelo://app?vid=359b6247-0c56-4066-9203-ed98a21ba5b2","ios":"levelo://app?vid=359b6247-0c56-4066-9203-ed98a21ba5b2"},"vehicle_type_id":"4","last_reported":1738948048,"current_range_meters":38800,"station_id":"ce4bhh92rcd13ifvqfi0","pricing_plan_id":"cebpf4jnsgd1na2vs0mg"},{"bike_id":"114998f0-dfb0-494f-8117-273cb0fabd56","system_id":"levelo_inurba_marseille","lat":43.23189,"lon":5.39974,"is_reserved":false,"is_disabled":false,"rental_uris":{"android":"levelo://app?vid=114998f0-dfb0-494f-8117-273cb0fabd56","ios":"levelo://app?vid=114998f0-dfb0-494f-8117-273cb0fabd56"},"vehicle_type_id":"4","last_reported":1738948048,"current_range_meters":38800,"station_id":"ce4bhn12rcd13ifvqgqg","pricing_plan_id":"cebpf4jnsgd1na2vs0mg"},{"bike_id":"55c531ba-cb99-413a-81f9-84f3b3d5979e","system_id":"levelo_inurba_marseille","lat":43.22931,"lon":5.35373,"is_reserved":false,"is_disabled":false,"rental_uris":{"android":"levelo://app?vid=55c531ba-cb99-413a-81f9-84f3b3d5979e","ios":"levelo://app?vid=55c531ba-cb99-413a-81f9-84f3b3d5979e"},"vehicle_type_id":"4","last_reported":1738948048,"current_range_meters":24800,"station_id":"cpo3532slgdg3j2ikp40","pricing_plan_id":"cebpf4jnsgd1na2vs0mg"},{"bike_id":"ca04b332-f243-45cd-9b6f-ab30fdbd9d21","system_id":"levelo_inurba_marseille","lat":43.29692,"lon":5.373,"is_reserved":false,"is_disabled":false,"rental_uris":{"android":"levelo://app?vid=ca04b332-f243-45cd-9b6f-ab30fdbd9d21","ios":"levelo://app?vid=ca04b332-f243-45cd-9b6f-ab30fdbd9d21"},"vehicle_type_id":"4","last_reported":1738948048,"current_range_meters":38800,"station_id":"ce4bgk12rcd13ifvqbj0","pricing_plan_id":"cebpf4jnsgd1na2vs0mg"},{"bike_id":"6a3ebbcf-ee39-47ea-b689-f3b066371aa9","system_id":"levelo_inurba_marseille","lat":43.30707,"lon":5.3729,"is_reserved":false,"is_disabled":false,"rental_uris":{"android":"levelo://app?vid=6a3ebbcf-ee39-47ea-b689-f3b066371aa9","ios":"levelo://app?vid=6a3ebbcf-ee39-47ea-b689-f3b066371aa9"},"vehicle_type_id":"4","last_reported":1738948048,"current_range_meters":6400,"station_id":"","pricing_plan_id":"cebpf4jnsgd1na2vs0mg"},{"bike_id":"eeb1626b-d9a7-4181-8530-ac28fa96e047","system_id":"levelo_inurba_marseille","lat":43.29042,"lon":5.35924,"is_reserved":false,"is_disabled":false,"rental_uris":{"android":"levelo://app?vid=eeb1626b-d9a7-4181-8530-ac28fa96e047","ios":"levelo://app?vid=eeb1626b-d9a7-4181-8530-ac28fa96e047"},"vehicle_type_id":"4","last_reported":1738948048,"current_range_meters":38800,"station_id":"ce4bha92rcd13ifvqeg0","pricing_plan_id":"cebpf4jnsgd1na2vs0mg"},{"bike_id":"0dba0b4e-00b9-4aa5-819d-784446054c60","system_id":"levelo_inurba_marseille","lat":43.25118,"lon":5.40324,"is_reserved":false,"is_disabled":false,"rental_uris":{"android":"levelo://app?vid=0dba0b4e-00b9-4aa5-819d-784446054c60","ios":"levelo://app?vid=0dba0b4e-00b9-4aa5-819d-784446054c60"},"vehicle_type_id":"4","last_reported":1738948048,"current_range_meters":24000,"station_id":"ce4bhlh2rcd13ifvqgig","pricing_plan_id":"cebpf4jnsgd1na2vs0mg"},{"bike_id":"42b00d6b-70d0-4750-bdd2-377deb18497e","system_id":"levelo_inurba_marseille","lat":43.22937,"lon":5.3539,"is_reserved":false,"is_disabled":false,"rental_uris":{"android":"levelo://app?vid=42b00d6b-70d0-4750-bdd2-377deb18497e","ios":"levelo://app?vid=42b00d6b-70d0-4750-bdd2-377deb18497e"},"vehicle_type_id":"4","last_reported":1738948048,"current_range_meters":27600,"station_id":"cpo3532slgdg3j2ikp40","pricing_plan_id":"cebpf4jnsgd1na2vs0mg"},{"bike_id":"aabb1cdc-f06b-4055-9f74-754a33430498","system_id":"levelo_inurba_marseille","lat":43.30928,"lon":5.40164,"is_reserved":false,"is_disabled":false,"rental_uris":{"android":"levelo://app?vid=aabb1cdc-f06b-4055-9f74-754a33430498","ios":"levelo://app?vid=aabb1cdc-f06b-4055-9f74-754a33430498"},"vehicle_type_id":"4","last_reported":1738948048,"current_range_meters":35600,"station_id":"ce4bgvp2rcd13ifvqct0","pricing_plan_id":"cebpf4jnsgd1na2vs0mg"},{"bike_id":"f94595e5-e9de-47d8-823f-245135f16db9","system_id":"levelo_inurba_marseille","lat":43.28154,"lon":5.42641,"is_reserved":false,"is_disabled":false,"rental_uris":{"android":"levelo://app?vid=f94595e5-e9de-47d8-823f-245135f16db9","ios":"levelo://app?vid=f94595e5-e9de-47d8-823f-245135f16db9"},"vehicle_type_id":"4","last_reported":1738948048,"current_range_meters":24000,"station_id":"ce4bhnh2rcd13ifvqgug","pricing_plan_id":"cebpf4jnsgd1na2vs0mg"},{"bike_id":"f1bbac45-5b32-4b97-b4ef-d7ee065546b1","system_id":"levelo_inurba_marseille","lat":43.26024,"lon":5.37532,"is_reserved":false,"is_disabled":false,"rental_uris":{"android":"levelo://app?vid=f1bbac45-5b32-4b97-b4ef-d7ee065546b1","ios":"levelo://app?vid=f1bbac45-5b32-4b97-b4ef-d7ee065546b1"},"vehicle_type_id":"4","last_reported":1738948048,"current_range_meters":37600,"station_id":"ce4bhgh2rcd13ifvqfa0","pricing_plan_id":"cebpf4jnsgd1na2vs0mg"},{"bike_id":"7020bf9b-9a86-4a4d-944f-d3f78aa3c7a9","system_id":"levelo_inurba_marseille","lat":43.27848,"lon":5.39205,"is_reserved":false,"is_disabled":false,"rental_uris":{"android":"levelo://app?vid=7020bf9b-9a86-4a4d-944f-d3f78aa3c7a9","ios":"levelo://app?vid=7020bf9b-9a86-4a4d-944f-d3f78aa3c7a9"},"vehicle_type_id":"4","last_reported":1738948048,"current_range_meters":22000,"station_id":"ce4bhjp2rcd13ifvqga0","pricing_plan_id":"cebpf4jnsgd1na2vs0mg"},{"bike_id":"9cc351d0-b757-44f1-8586-41f1b0047380","system_id":"levelo_inurba_marseille","lat":43.28474,"lon":5.38423,"is_reserved":false,"is_disabled":false,"rental_uris":{"android":"levelo://app?vid=9cc351d0-b757-44f1-8586-41f1b0047380","ios":"levelo://app?vid=9cc351d0-b757-44f1-8586-41f1b0047380"},"vehicle_type_id":"4","last_reported":1738948048,"current_range_meters":38400,"station_id":"ce4bh512rcd13ifvqe3g","pricing_plan_id":"cebpf4jnsgd1na2vs0mg"},{"bike_id":"337833d8-44a7-4116-bded-9b3146bf2772","system_id":"levelo_inurba_marseille","lat":43.2989,"lon":5.38147,"is_reserved":false,"is_disabled":false,"rental_uris":{"android":"levelo://app?vid=337833d8-44a7-4116-bded-9b3146bf2772","ios":"levelo://app?vid=337833d8-44a7-4116-bded-9b3146bf2772"},"vehicle_type_id":"4","last_reported":1738948048,"current_range_meters":35600,"station_id":"ce4bgj12rcd13ifvqbc0","pricing_plan_id":"cebpf4jnsgd1na2vs0mg"},{"bike_id":"3c434100-0ec7-4174-be49-81df709efba1","system_id":"levelo_inurba_marseille","lat":43.26497,"lon":5.39542,"is_reserved":false,"is_disabled":false,"rental_uris":{"android":"levelo://app?vid=3c434100-0ec7-4174-be49-81df709efba1","ios":"levelo://app?vid=3c434100-0ec7-4174-be49-81df709efba1"},"vehicle_type_id":"4","last_reported":1738948048,"current_range_meters":24800,"station_id":"ce4bhi12rcd13ifvqfq0","pricing_plan_id":"cebpf4jnsgd1na2vs0mg"},{"bike_id":"c6fc4b4a-5347-4905-8d96-67ea4d004656","system_id":"levelo_inurba_marseille","lat":43.23175,"lon":5.35553,"is_reserved":false,"is_disabled":false,"rental_uris":{"android":"levelo://app?vid=c6fc4b4a-5347-4905-8d96-67ea4d004656","ios":"levelo://app?vid=c6fc4b4a-5347-4905-8d96-67ea4d004656"},"vehicle_type_id":"4","last_reported":1738948048,"current_range_meters":10000,"station_id":"ce4bhu92rcd13ifvqi70","pricing_plan_id":"cebpf4jnsgd1na2vs0mg"},{"bike_id":"1da8b17b-ad28-4780-a711-431647c244ed","system_id":"levelo_inurba_marseille","lat":43.23971,"lon":5.36617,"is_reserved":false,"is_disabled":false,"rental_uris":{"android":"levelo://app?vid=1da8b17b-ad28-4780-a711-431647c244ed","ios":"levelo://app?vid=1da8b17b-ad28-4780-a711-431647c244ed"},"vehicle_type_id":"4","last_reported":1738948048,"current_range_meters":28000,"station_id":"ce4bhi12rcd13ifvqfp0","pricing_plan_id":"cebpf4jnsgd1na2vs0mg"},{"bike_id":"b1db3003-a515-433c-b006-a61b3558f325","system_id":"levelo_inurba_marseille","lat":43.30208,"lon":5.39469,"is_reserved":false,"is_disabled":true,"rental_uris":{"android":"levelo://app?vid=b1db3003-a515-433c-b006-a61b3558f325","ios":"levelo://app?vid=b1db3003-a515-433c-b006-a61b3558f325"},"vehicle_type_id":"4","last_reported":1738948048,"current_range_meters":38800,"station_id":"ce4bh0p2rcd13ifvqd70","pricing_plan_id":"cebpf4jnsgd1na2vs0mg"},{"bike_id":"5d788cb8-a84b-4d61-a0d1-1cbd0b8db1d2","system_id":"levelo_inurba_marseille","lat":43.29785,"lon":5.39339,"is_reserved":false,"is_disabled":false,"rental_uris":{"android":"levelo://app?vid=5d788cb8-a84b-4d61-a0d1-1cbd0b8db1d2","ios":"levelo://app?vid=5d788cb8-a84b-4d61-a0d1-1cbd0b8db1d2"},"vehicle_type_id":"4","last_reported":1738948048,"current_range_meters":32000,"station_id":"chh1huq6cuj3fo74tm60","pricing_plan_id":"cebpf4jnsgd1na2vs0mg"},{"bike_id":"719a0c7c-2400-4767-8b28-1c8221683083","system_id":"levelo_inurba_marseille","lat":43.25569,"lon":5.38257,"is_reserved":false,"is_disabled":false,"rental_uris":{"android":"levelo://app?vid=719a0c7c-2400-4767-8b28-1c8221683083","ios":"levelo://app?vid=719a0c7c-2400-4767-8b28-1c8221683083"},"vehicle_type_id":"4","last_reported":1738948048,"current_range_meters":23200,"station_id":"ce4bhih2rcd13ifvqfs0","pricing_plan_id":"cebpf4jnsgd1na2vs0mg"},{"bike_id":"7304a879-dcd8-48c5-97f7-5b44ad939847","system_id":"levelo_inurba_marseille","lat":43.2942,"lon":5.38628,"is_reserved":false,"is_disabled":false,"rental_uris":{"android":"levelo://app?vid=7304a879-dcd8-48c5-97f7-5b44ad939847","ios":"levelo://app?vid=7304a879-dcd8-48c5-97f7-5b44ad939847"},"vehicle_type_id":"4","last_reported":1738948048,"current_range_meters":24400,"station_id":"ce4bh2h2rcd13ifvqdh0","pricing_plan_id":"cebpf4jnsgd1na2vs0mg"},{"bike_id":"d32646a2-a245-4773-a94b-5f319b6425fa","system_id":"levelo_inurba_marseille","lat":43.29916,"lon":5.38151,"is_reserved":false,"is_disabled":false,"rental_uris":{"android":"levelo://app?vid=d32646a2-a245-4773-a94b-5f319b6425fa","ios":"levelo://app?vid=d32646a2-a245-4773-a94b-5f319b6425fa"},"vehicle_type_id":"4","last_reported":1738948048,"current_range_meters":26800,"station_id":"ce4bgj12rcd13ifvqbc0","pricing_plan_id":"cebpf4jnsgd1na2vs0mg"},{"bike_id":"e408d721-1719-4f3b-bfb2-ee76b97560c7","system_id":"levelo_inurba_marseille","lat":43.24647,"lon":5.38911,"is_reserved":false,"is_disabled":false,"rental_uris":{"android":"levelo://app?vid=e408d721-1719-4f3b-bfb2-ee76b97560c7","ios":"levelo://app?vid=e408d721-1719-4f3b-bfb2-ee76b97560c7"},"vehicle_type_id":"4","last_reported":1738948048,"current_range_meters":38800,"station_id":"ce4bhg12rcd13ifvqf60","pricing_plan_id":"cebpf4jnsgd1na2vs0mg"},{"bike_id":"4ce0983f-2b7d-40d5-81f8-bfab26a50cb7","system_id":"levelo_inurba_marseille","lat":43.30303,"lon":5.36854,"is_reserved":false,"is_disabled":false,"rental_uris":{"android":"levelo://app?vid=4ce0983f-2b7d-40d5-81f8-bfab26a50cb7","ios":"levelo://app?vid=4ce0983f-2b7d-40d5-81f8-bfab26a50cb7"},"vehicle_type_id":"4","last_reported":1738948048,"current_range_meters":24800,"station_id":"ce4bgqh2rcd13ifvqc5g","pricing_plan_id":"cebpf4jnsgd1na2vs0mg"},{"bike_id":"b535402c-25ad-4274-bf8f-573a8931886f","system_id":"levelo_inurba_marseille","lat":43.3303,"lon":5.39047,"is_reserved":false,"is_disabled":false,"rental_uris":{"android":"levelo://app?vid=b535402c-25ad-4274-bf8f-573a8931886f","ios":"levelo://app?vid=b535402c-25ad-4274-bf8f-573a8931886f"},"vehicle_type_id":"4","last_reported":1738948048,"current_range_meters":39200,"station_id":"ce4bhr92rcd13ifvqhrg","pricing_plan_id":"cebpf4jnsgd1na2vs0mg"},{"bike_id":"481cf27f-9954-4b97-9f0b-63676b43b84e","system_id":"levelo_inurba_marseille","lat":43.29879,"lon":5.43672,"is_reserved":false,"is_disabled":false,"rental_uris":{"android":"levelo://app?vid=481cf27f-9954-4b97-9f0b-63676b43b84e","ios":"levelo://app?vid=481cf27f-9954-4b97-9f0b-63676b43b84e"},"vehicle_type_id":"4","last_reported":1738948048,"current_range_meters":38000,"station_id":"ce4bhpp2rcd13ifvqhfg","pricing_plan_id":"cebpf4jnsgd1na2vs0mg"},{"bike_id":"1b9af83a-8575-4979-a0e4-4edb2ed08023","system_id":"levelo_inurba_marseille","lat":43.26497,"lon":5.3955,"is_reserved":false,"is_disabled":false,"rental_uris":{"android":"levelo://app?vid=1b9af83a-8575-4979-a0e4-4edb2ed08023","ios":"levelo://app?vid=1b9af83a-8575-4979-a0e4-4edb2ed08023"},"vehicle_type_id":"4","last_reported":1738948048,"current_range_meters":38800,"station_id":"ce4bhi12rcd13ifvqfq0","pricing_plan_id":"cebpf4jnsgd1na2vs0mg"},{"bike_id":"e276fae3-80cb-4c80-85e8-3b33730dc37e","system_id":"levelo_inurba_marseille","lat":43.24809,"lon":5.37459,"is_reserved":false,"is_disabled":false,"rental_uris":{"android":"levelo://app?vid=e276fae3-80cb-4c80-85e8-3b33730dc37e","ios":"levelo://app?vid=e276fae3-80cb-4c80-85e8-3b33730dc37e"},"vehicle_type_id":"4","last_reported":1738948048,"current_range_meters":30800,"station_id":"ce4bhgh2rcd13ifvqfb0","pricing_plan_id":"cebpf4jnsgd1na2vs0mg"},{"bike_id":"ae0106a6-97d8-40c7-90aa-4fa50520ee95","system_id":"levelo_inurba_marseille","lat":43.26568,"lon":5.3901,"is_reserved":false,"is_disabled":false,"rental_uris":{"android":"levelo://app?vid=ae0106a6-97d8-40c7-90aa-4fa50520ee95","ios":"levelo://app?vid=ae0106a6-97d8-40c7-90aa-4fa50520ee95"},"vehicle_type_id":"4","last_reported":1738948048,"current_range_meters":38800,"station_id":"ce4bhe12rcd13ifvqf30","pricing_plan_id":"cebpf4jnsgd1na2vs0mg"},{"bike_id":"a330b22d-0f54-4873-a2f2-619467d1043a","system_id":"levelo_inurba_marseille","lat":43.29099,"lon":5.38123,"is_reserved":false,"is_disabled":false,"rental_uris":{"android":"levelo://app?vid=a330b22d-0f54-4873-a2f2-619467d1043a","ios":"levelo://app?vid=a330b22d-0f54-4873-a2f2-619467d1043a"},"vehicle_type_id":"4","last_reported":1738948048,"current_range_meters":38800,"station_id":"ce4bh512rcd13ifvqe2g","pricing_plan_id":"cebpf4jnsgd1na2vs0mg"},{"bike_id":"d335b8c5-dd1e-458f-80c2-4f63a19623b3","system_id":"levelo_inurba_marseille","lat":43.309,"lon":5.36858,"is_reserved":false,"is_disabled":false,"rental_uris":{"android":"levelo://app?vid=d335b8c5-dd1e-458f-80c2-4f63a19623b3","ios":"levelo://app?vid=d335b8c5-dd1e-458f-80c2-4f63a19623b3"},"vehicle_type_id":"4","last_reported":1738948048,"current_range_meters":38400,"station_id":"ce4bgn92rcd13ifvqbvg","pricing_plan_id":"cebpf4jnsgd1na2vs0mg"},{"bike_id":"0197f52a-7fe4-448e-93cf-8bdd2aecb08b","system_id":"levelo_inurba_marseille","lat":43.27629,"lon":5.36127,"is_reserved":false,"is_disabled":false,"rental_uris":{"android":"levelo://app?vid=0197f52a-7fe4-448e-93cf-8bdd2aecb08b","ios":"levelo://app?vid=0197f52a-7fe4-448e-93cf-8bdd2aecb08b"},"vehicle_type_id":"4","last_reported":1738948048,"current_range_meters":19600,"station_id":"ce4bgj92rcd13ifvqbe0","pricing_plan_id":"cebpf4jnsgd1na2vs0mg"},{"bike_id":"a91c5270-c4b1-443a-b905-f09967a56981","system_id":"levelo_inurba_marseille","lat":43.26563,"lon":5.37296,"is_reserved":false,"is_disabled":false,"rental_uris":{"android":"levelo://app?vid=a91c5270-c4b1-443a-b905-f09967a56981","ios":"levelo://app?vid=a91c5270-c4b1-443a-b905-f09967a56981"},"vehicle_type_id":"4","last_reported":1738948048,"current_range_meters":14000,"station_id":"ce4bhg12rcd13ifvqf70","pricing_plan_id":"cebpf4jnsgd1na2vs0mg"},{"bike_id":"9563d2a6-bf60-4758-bc3e-9491576f38e3","system_id":"levelo_inurba_marseille","lat":43.31639,"lon":5.389585,"is_reserved":false,"is_disabled":false,"rental_uris":{"android":"levelo://app?vid=9563d2a6-bf60-4758-bc3e-9491576f38e3","ios":"levelo://app?vid=9563d2a6-bf60-4758-bc3e-9491576f38e3"},"vehicle_type_id":"4","last_reported":1738948048,"current_range_meters":38000,"station_id":"","pricing_plan_id":"cebpf4jnsgd1na2vs0mg"},{"bike_id":"32887e9d-4771-43e2-8f58-176ec9a34460","system_id":"levelo_inurba_marseille","lat":43.26796,"lon":5.39418,"is_reserved":false,"is_disabled":false,"rental_uris":{"android":"levelo://app?vid=32887e9d-4771-43e2-8f58-176ec9a34460","ios":"levelo://app?vid=32887e9d-4771-43e2-8f58-176ec9a34460"},"vehicle_type_id":"4","last_reported":1738948048,"current_range_meters":18000,"station_id":"ce4bhh12rcd13ifvqfg0","pricing_plan_id":"cebpf4jnsgd1na2vs0mg"},{"bike_id":"befb5b6b-67f1-40f2-b4f1-f2e1c95c0f34","system_id":"levelo_inurba_marseille","lat":43.28857,"lon":5.35865,"is_reserved":false,"is_disabled":false,"rental_uris":{"android":"levelo://app?vid=befb5b6b-67f1-40f2-b4f1-f2e1c95c0f34","ios":"levelo://app?vid=befb5b6b-67f1-40f2-b4f1-f2e1c95c0f34"},"vehicle_type_id":"4","last_reported":1738948048,"current_range_meters":34000,"station_id":"ce4bhb12rcd13ifvqem0","pricing_plan_id":"cebpf4jnsgd1na2vs0mg"},{"bike_id":"cbf36858-68f2-47f8-b58b-07ec04118b03","system_id":"levelo_inurba_marseille","lat":43.30155,"lon":5.37398,"is_reserved":false,"is_disabled":false,"rental_uris":{"android":"levelo://app?vid=cbf36858-68f2-47f8-b58b-07ec04118b03","ios":"levelo://app?vid=cbf36858-68f2-47f8-b58b-07ec04118b03"},"vehicle_type_id":"4","last_reported":1738948048,"current_range_meters":30000,"station_id":"ce4bgs92rcd13ifvqcc0","pricing_plan_id":"cebpf4jnsgd1na2vs0mg"},{"bike_id":"3b75b516-4642-45e0-9d74-da501cd5a80d","system_id":"levelo_inurba_marseille","lat":43.23198,"lon":5.35555,"is_reserved":false,"is_disabled":false,"rental_uris":{"android":"levelo://app?vid=3b75b516-4642-45e0-9d74-da501cd5a80d","ios":"levelo://app?vid=3b75b516-4642-45e0-9d74-da501cd5a80d"},"vehicle_type_id":"4","last_reported":1738948048,"current_range_meters":37600,"station_id":"ce4bhu92rcd13ifvqi70","pricing_plan_id":"cebpf4jnsgd1na2vs0mg"},{"bike_id":"48e4415f-4bfa-4dd7-b8c6-72b96454ae71","system_id":"levelo_inurba_marseille","lat":43.26811,"lon":5.40268,"is_reserved":false,"is_disabled":false,"rental_uris":{"android":"levelo://app?vid=48e4415f-4bfa-4dd7-b8c6-72b96454ae71","ios":"levelo://app?vid=48e4415f-4bfa-4dd7-b8c6-72b96454ae71"},"vehicle_type_id":"4","last_reported":1738948048,"current_range_meters":38800,"station_id":"ce501612rcd8frsf0b60","pricing_plan_id":"cebpf4jnsgd1na2vs0mg"},{"bike_id":"55fbd09e-a460-42ad-bb5c-c327db2aa52f","system_id":"levelo_inurba_marseille","lat":43.27053,"lon":5.40265,"is_reserved":false,"is_disabled":false,"rental_uris":{"android":"levelo://app?vid=55fbd09e-a460-42ad-bb5c-c327db2aa52f","ios":"levelo://app?vid=55fbd09e-a460-42ad-bb5c-c327db2aa52f"},"vehicle_type_id":"4","last_reported":1738948048,"current_range_meters":32000,"station_id":"ce4bhk92rcd13ifvqgc0","pricing_plan_id":"cebpf4jnsgd1na2vs0mg"},{"bike_id":"d55f6823-3781-4183-b012-fb4af38e6693","system_id":"levelo_inurba_marseille","lat":43.31135,"lon":5.37779,"is_reserved":false,"is_disabled":false,"rental_uris":{"android":"levelo://app?vid=d55f6823-3781-4183-b012-fb4af38e6693","ios":"levelo://app?vid=d55f6823-3781-4183-b012-fb4af38e6693"},"vehicle_type_id":"4","last_reported":1738948048,"current_range_meters":37600,"station_id":"ce4bgt92rcd13ifvqcg0","pricing_plan_id":"cebpf4jnsgd1na2vs0mg"},{"bike_id":"52fa6073-143a-4860-9d36-10416dcfe482","system_id":"levelo_inurba_marseille","lat":43.24808,"lon":5.37463,"is_reserved":false,"is_disabled":false,"rental_uris":{"android":"levelo://app?vid=52fa6073-143a-4860-9d36-10416dcfe482","ios":"levelo://app?vid=52fa6073-143a-4860-9d36-10416dcfe482"},"vehicle_type_id":"4","last_reported":1738948048,"current_range_meters":36000,"station_id":"ce4bhgh2rcd13ifvqfb0","pricing_plan_id":"cebpf4jnsgd1na2vs0mg"},{"bike_id":"64e1c73b-fcff-487f-95d8-4a19ebe32bf9","system_id":"levelo_inurba_marseille","lat":43.32327,"lon":5.40618,"is_reserved":false,"is_disabled":false,"rental_uris":{"android":"levelo://app?vid=64e1c73b-fcff-487f-95d8-4a19ebe32bf9","ios":"levelo://app?vid=64e1c73b-fcff-487f-95d8-4a19ebe32bf9"},"vehicle_type_id":"4","last_reported":1738948048,"current_range_meters":38000,"station_id":"ce4bhq92rcd13ifvqhjg","pricing_plan_id":"cebpf4jnsgd1na2vs0mg"},{"bike_id":"0e457a1f-76f3-427f-ae6e-5314a6b1df1b","system_id":"levelo_inurba_marseille","lat":43.32347,"lon":5.40609,"is_reserved":false,"is_disabled":false,"rental_uris":{"android":"levelo://app?vid=0e457a1f-76f3-427f-ae6e-5314a6b1df1b","ios":"levelo://app?vid=0e457a1f-76f3-427f-ae6e-5314a6b1df1b"},"vehicle_type_id":"4","last_reported":1738948048,"current_range_meters":38800,"station_id":"ce4bhq92rcd13ifvqhjg","pricing_plan_id":"cebpf4jnsgd1na2vs0mg"},{"bike_id":"011b1ff5-8260-43da-bf93-1de435b97c01","system_id":"levelo_inurba_marseille","lat":43.295735,"lon":5.422525,"is_reserved":false,"is_disabled":false,"rental_uris":{"android":"levelo://app?vid=011b1ff5-8260-43da-bf93-1de435b97c01","ios":"levelo://app?vid=011b1ff5-8260-43da-bf93-1de435b97c01"},"vehicle_type_id":"4","last_reported":1738948048,"current_range_meters":20000,"station_id":"","pricing_plan_id":"cebpf4jnsgd1na2vs0mg"},{"bike_id":"ed2947c7-416b-4f25-b15f-def172dbc755","system_id":"levelo_inurba_marseille","lat":43.30583,"lon":5.36581,"is_reserved":false,"is_disabled":false,"rental_uris":{"android":"levelo://app?vid=ed2947c7-416b-4f25-b15f-def172dbc755","ios":"levelo://app?vid=ed2947c7-416b-4f25-b15f-def172dbc755"},"vehicle_type_id":"4","last_reported":1738948048,"current_range_meters":35600,"station_id":"ce4bgs12rcd13ifvqcag","pricing_plan_id":"cebpf4jnsgd1na2vs0mg"},{"bike_id":"81281811-51de-442e-9f1c-6ab5a3e95c02","system_id":"levelo_inurba_marseille","lat":43.28669,"lon":5.38665,"is_reserved":false,"is_disabled":false,"rental_uris":{"android":"levelo://app?vid=81281811-51de-442e-9f1c-6ab5a3e95c02","ios":"levelo://app?vid=81281811-51de-442e-9f1c-6ab5a3e95c02"},"vehicle_type_id":"4","last_reported":1738948048,"current_range_meters":22800,"station_id":"ce4bh492rcd13ifvqdug","pricing_plan_id":"cebpf4jnsgd1na2vs0mg"},{"bike_id":"b81e067b-3fa1-4524-a38e-5101da97fe9a","system_id":"levelo_inurba_marseille","lat":43.27323,"lon":5.39076,"is_reserved":false,"is_disabled":false,"rental_uris":{"android":"levelo://app?vid=b81e067b-3fa1-4524-a38e-5101da97fe9a","ios":"levelo://app?vid=b81e067b-3fa1-4524-a38e-5101da97fe9a"},"vehicle_type_id":"4","last_reported":1738948048,"current_range_meters":27600,"station_id":"ce4bhgp2rcd13ifvqfe0","pricing_plan_id":"cebpf4jnsgd1na2vs0mg"},{"bike_id":"350a5600-fe62-4be8-8f40-8fea97d838a4","system_id":"levelo_inurba_marseille","lat":43.3236,"lon":5.38888,"is_reserved":false,"is_disabled":false,"rental_uris":{"android":"levelo://app?vid=350a5600-fe62-4be8-8f40-8fea97d838a4","ios":"levelo://app?vid=350a5600-fe62-4be8-8f40-8fea97d838a4"},"vehicle_type_id":"4","last_reported":1738948048,"current_range_meters":36400,"station_id":"ce4bhqp2rcd13ifvqhog","pricing_plan_id":"cebpf4jnsgd1na2vs0mg"},{"bike_id":"bdc5d626-e490-4879-a167-c63f77c8a1da","system_id":"levelo_inurba_marseille","lat":43.28657,"lon":5.36348,"is_reserved":false,"is_disabled":false,"rental_uris":{"android":"levelo://app?vid=bdc5d626-e490-4879-a167-c63f77c8a1da","ios":"levelo://app?vid=bdc5d626-e490-4879-a167-c63f77c8a1da"},"vehicle_type_id":"4","last_reported":1738948048,"current_range_meters":28800,"station_id":"ce4bhah2rcd13ifvqej0","pricing_plan_id":"cebpf4jnsgd1na2vs0mg"},{"bike_id":"b9f6953b-deb3-4c85-8260-f7a2e1494b80","system_id":"levelo_inurba_marseille","lat":43.30665,"lon":5.4009,"is_reserved":false,"is_disabled":false,"rental_uris":{"android":"levelo://app?vid=b9f6953b-deb3-4c85-8260-f7a2e1494b80","ios":"levelo://app?vid=b9f6953b-deb3-4c85-8260-f7a2e1494b80"},"vehicle_type_id":"4","last_reported":1738948048,"current_range_meters":30000,"station_id":"ce4bh112rcd13ifvqda0","pricing_plan_id":"cebpf4jnsgd1na2vs0mg"},{"bike_id":"972dbeeb-3a96-4741-88de-d79eb1cc010a","system_id":"levelo_inurba_marseille","lat":43.296112,"lon":5.377169,"is_reserved":false,"is_disabled":false,"rental_uris":{"android":"levelo://app?vid=972dbeeb-3a96-4741-88de-d79eb1cc010a","ios":"levelo://app?vid=972dbeeb-3a96-4741-88de-d79eb1cc010a"},"vehicle_type_id":"4","last_reported":1738948048,"current_range_meters":36000,"station_id":"ce4bgi92rcd13ifvqb90","pricing_plan_id":"cebpf4jnsgd1na2vs0mg"},{"bike_id":"c5789181-d252-4c46-b75d-908f3a6a38fe","system_id":"levelo_inurba_marseille","lat":43.33727,"lon":5.39188,"is_reserved":false,"is_disabled":false,"rental_uris":{"android":"levelo://app?vid=c5789181-d252-4c46-b75d-908f3a6a38fe","ios":"levelo://app?vid=c5789181-d252-4c46-b75d-908f3a6a38fe"},"vehicle_type_id":"4","last_reported":1738948048,"current_range_meters":39200,"station_id":"ce4bhr92rcd13ifvqhsg","pricing_plan_id":"cebpf4jnsgd1na2vs0mg"},{"bike_id":"54176d77-619c-41bd-a805-33e4e05edcc8","system_id":"levelo_inurba_marseille","lat":43.30599,"lon":5.3723,"is_reserved":false,"is_disabled":false,"rental_uris":{"android":"levelo://app?vid=54176d77-619c-41bd-a805-33e4e05edcc8","ios":"levelo://app?vid=54176d77-619c-41bd-a805-33e4e05edcc8"},"vehicle_type_id":"4","last_reported":1738948048,"current_range_meters":34800,"station_id":"ce4bgqh2rcd13ifvqc4g","pricing_plan_id":"cebpf4jnsgd1na2vs0mg"},{"bike_id":"b8a288ef-4349-437d-a22a-753084f41b03","system_id":"levelo_inurba_marseille","lat":43.31782,"lon":5.39014,"is_reserved":false,"is_disabled":false,"rental_uris":{"android":"levelo://app?vid=b8a288ef-4349-437d-a22a-753084f41b03","ios":"levelo://app?vid=b8a288ef-4349-437d-a22a-753084f41b03"},"vehicle_type_id":"4","last_reported":1738948048,"current_range_meters":38400,"station_id":"ce4bhqp2rcd13ifvqhng","pricing_plan_id":"cebpf4jnsgd1na2vs0mg"},{"bike_id":"4b346763-af4b-47bb-8f20-016bb4fee202","system_id":"levelo_inurba_marseille","lat":43.27811,"lon":5.40708,"is_reserved":false,"is_disabled":false,"rental_uris":{"android":"levelo://app?vid=4b346763-af4b-47bb-8f20-016bb4fee202","ios":"levelo://app?vid=4b346763-af4b-47bb-8f20-016bb4fee202"},"vehicle_type_id":"4","last_reported":1738948048,"current_range_meters":38800,"station_id":"ce4bhnh2rcd13ifvqgtg","pricing_plan_id":"cebpf4jnsgd1na2vs0mg"},{"bike_id":"45268913-6378-40ac-a827-a5a99084f726","system_id":"levelo_inurba_marseille","lat":43.31322,"lon":5.39709,"is_reserved":false,"is_disabled":false,"rental_uris":{"android":"levelo://app?vid=45268913-6378-40ac-a827-a5a99084f726","ios":"levelo://app?vid=45268913-6378-40ac-a827-a5a99084f726"},"vehicle_type_id":"4","last_reported":1738948048,"current_range_meters":37600,"station_id":"ce4bgvp2rcd13ifvqcu0","pricing_plan_id":"cebpf4jnsgd1na2vs0mg"},{"bike_id":"d6ba4340-da13-4b9a-9fa6-901f73e2edaa","system_id":"levelo_inurba_marseille","lat":43.28108,"lon":5.37841,"is_reserved":false,"is_disabled":false,"rental_uris":{"android":"levelo://app?vid=d6ba4340-da13-4b9a-9fa6-901f73e2edaa","ios":"levelo://app?vid=d6ba4340-da13-4b9a-9fa6-901f73e2edaa"},"vehicle_type_id":"4","last_reported":1738948048,"current_range_meters":29600,"station_id":"ce4bha12rcd13ifvqee0","pricing_plan_id":"cebpf4jnsgd1na2vs0mg"},{"bike_id":"50f13211-65c5-41d7-976f-bd52ce948940","system_id":"levelo_inurba_marseille","lat":43.31687,"lon":5.40476,"is_reserved":false,"is_disabled":false,"rental_uris":{"android":"levelo://app?vid=50f13211-65c5-41d7-976f-bd52ce948940","ios":"levelo://app?vid=50f13211-65c5-41d7-976f-bd52ce948940"},"vehicle_type_id":"4","last_reported":1738948048,"current_range_meters":32800,"station_id":"ce4bh012rcd13ifvqd00","pricing_plan_id":"cebpf4jnsgd1na2vs0mg"},{"bike_id":"c1c13ec3-de48-45d2-bcd6-89185efdb5e0","system_id":"levelo_inurba_marseille","lat":43.29621,"lon":5.37161,"is_reserved":false,"is_disabled":false,"rental_uris":{"android":"levelo://app?vid=c1c13ec3-de48-45d2-bcd6-89185efdb5e0","ios":"levelo://app?vid=c1c13ec3-de48-45d2-bcd6-89185efdb5e0"},"vehicle_type_id":"4","last_reported":1738948048,"current_range_meters":36800,"station_id":"ce4bgnh2rcd13ifvqc0g","pricing_plan_id":"cebpf4jnsgd1na2vs0mg"},{"bike_id":"9df291fb-1aaa-46e9-b45f-323e94d6df84","system_id":"levelo_inurba_marseille","lat":43.29625,"lon":5.37142,"is_reserved":false,"is_disabled":false,"rental_uris":{"android":"levelo://app?vid=9df291fb-1aaa-46e9-b45f-323e94d6df84","ios":"levelo://app?vid=9df291fb-1aaa-46e9-b45f-323e94d6df84"},"vehicle_type_id":"4","last_reported":1738948048,"current_range_meters":36800,"station_id":"ce4bgnh2rcd13ifvqc0g","pricing_plan_id":"cebpf4jnsgd1na2vs0mg"},{"bike_id":"33f37d6b-08fe-4642-b4da-79d2133e4243","system_id":"levelo_inurba_marseille","lat":43.27317,"lon":5.42313,"is_reserved":false,"is_disabled":true,"rental_uris":{"android":"levelo://app?vid=33f37d6b-08fe-4642-b4da-79d2133e4243","ios":"levelo://app?vid=33f37d6b-08fe-4642-b4da-79d2133e4243"},"vehicle_type_id":"4","last_reported":1738948048,"current_range_meters":0,"station_id":"","pricing_plan_id":"cebpf4jnsgd1na2vs0mg"},{"bike_id":"5091929c-de45-458d-9469-52f642cabb7f","system_id":"levelo_inurba_marseille","lat":43.25495,"lon":5.3765,"is_reserved":false,"is_disabled":false,"rental_uris":{"android":"levelo://app?vid=5091929c-de45-458d-9469-52f642cabb7f","ios":"levelo://app?vid=5091929c-de45-458d-9469-52f642cabb7f"},"vehicle_type_id":"4","last_reported":1738948048,"current_range_meters":38400,"station_id":"ce4bhh12rcd13ifvqff0","pricing_plan_id":"cebpf4jnsgd1na2vs0mg"},{"bike_id":"10498f6b-01c8-4f11-8439-79270cb5ef36","system_id":"levelo_inurba_marseille","lat":43.30134,"lon":5.39862,"is_reserved":false,"is_disabled":false,"rental_uris":{"android":"levelo://app?vid=10498f6b-01c8-4f11-8439-79270cb5ef36","ios":"levelo://app?vid=10498f6b-01c8-4f11-8439-79270cb5ef36"},"vehicle_type_id":"4","last_reported":1738948048,"current_range_meters":38400,"station_id":"ce4bh0h2rcd13ifvqd40","pricing_plan_id":"cebpf4jnsgd1na2vs0mg"},{"bike_id":"d94da8e2-a1f1-46e4-bb51-ac3d4a761980","system_id":"levelo_inurba_marseille","lat":43.258275,"lon":5.394283,"is_reserved":false,"is_disabled":false,"rental_uris":{"android":"levelo://app?vid=d94da8e2-a1f1-46e4-bb51-ac3d4a761980","ios":"levelo://app?vid=d94da8e2-a1f1-46e4-bb51-ac3d4a761980"},"vehicle_type_id":"4","last_reported":1738948048,"current_range_meters":38800,"station_id":"ce4bhip2rcd13ifvqft0","pricing_plan_id":"cebpf4jnsgd1na2vs0mg"},{"bike_id":"67ef5439-137d-4d4a-a77f-f622aa949487","system_id":"levelo_inurba_marseille","lat":43.27459,"lon":5.38351,"is_reserved":false,"is_disabled":false,"rental_uris":{"android":"levelo://app?vid=67ef5439-137d-4d4a-a77f-f622aa949487","ios":"levelo://app?vid=67ef5439-137d-4d4a-a77f-f622aa949487"},"vehicle_type_id":"4","last_reported":1738948048,"current_range_meters":36000,"station_id":"ce4bhf92rcd13ifvqf50","pricing_plan_id":"cebpf4jnsgd1na2vs0mg"},{"bike_id":"7f8c63f0-ae26-41a9-951c-614dbedf8833","system_id":"levelo_inurba_marseille","lat":43.29684,"lon":5.3729,"is_reserved":false,"is_disabled":false,"rental_uris":{"android":"levelo://app?vid=7f8c63f0-ae26-41a9-951c-614dbedf8833","ios":"levelo://app?vid=7f8c63f0-ae26-41a9-951c-614dbedf8833"},"vehicle_type_id":"4","last_reported":1738948048,"current_range_meters":38800,"station_id":"ce4bho92rcd13ifvqh3g","pricing_plan_id":"cebpf4jnsgd1na2vs0mg"},{"bike_id":"616062e4-19db-444e-bc13-a16a639c15cb","system_id":"levelo_inurba_marseille","lat":43.30648,"lon":5.40093,"is_reserved":false,"is_disabled":true,"rental_uris":{"android":"levelo://app?vid=616062e4-19db-444e-bc13-a16a639c15cb","ios":"levelo://app?vid=616062e4-19db-444e-bc13-a16a639c15cb"},"vehicle_type_id":"4","last_reported":1738948048,"current_range_meters":6800,"station_id":"ce4bh112rcd13ifvqda0","pricing_plan_id":"cebpf4jnsgd1na2vs0mg"},{"bike_id":"adea3fe0-0d5f-493f-bc7a-8db19cd779cc","system_id":"levelo_inurba_marseille","lat":43.26179,"lon":5.37893,"is_reserved":false,"is_disabled":false,"rental_uris":{"android":"levelo://app?vid=adea3fe0-0d5f-493f-bc7a-8db19cd779cc","ios":"levelo://app?vid=adea3fe0-0d5f-493f-bc7a-8db19cd779cc"},"vehicle_type_id":"4","last_reported":1738948048,"current_range_meters":35600,"station_id":"ce4bhjp2rcd13ifvqg90","pricing_plan_id":"cebpf4jnsgd1na2vs0mg"},{"bike_id":"23f9b21d-b112-4272-b167-bf5b7ee979bb","system_id":"levelo_inurba_marseille","lat":43.31169,"lon":5.38715,"is_reserved":false,"is_disabled":false,"rental_uris":{"android":"levelo://app?vid=23f9b21d-b112-4272-b167-bf5b7ee979bb","ios":"levelo://app?vid=23f9b21d-b112-4272-b167-bf5b7ee979bb"},"vehicle_type_id":"4","last_reported":1738948048,"current_range_meters":29600,"station_id":"ce4bgv12rcd13ifvqcp0","pricing_plan_id":"cebpf4jnsgd1na2vs0mg"},{"bike_id":"5dc9f8b1-e43e-4139-9ccb-a188b00cd4df","system_id":"levelo_inurba_marseille","lat":43.24998,"lon":5.3892,"is_reserved":false,"is_disabled":false,"rental_uris":{"android":"levelo://app?vid=5dc9f8b1-e43e-4139-9ccb-a188b00cd4df","ios":"levelo://app?vid=5dc9f8b1-e43e-4139-9ccb-a188b00cd4df"},"vehicle_type_id":"4","last_reported":1738948048,"current_range_meters":38800,"station_id":"ce4bhgp2rcd13ifvqfd0","pricing_plan_id":"cebpf4jnsgd1na2vs0mg"},{"bike_id":"2e45d347-f2a9-4c8e-b5da-d3e56e0bf649","system_id":"levelo_inurba_marseille","lat":43.23186,"lon":5.39986,"is_reserved":false,"is_disabled":false,"rental_uris":{"android":"levelo://app?vid=2e45d347-f2a9-4c8e-b5da-d3e56e0bf649","ios":"levelo://app?vid=2e45d347-f2a9-4c8e-b5da-d3e56e0bf649"},"vehicle_type_id":"4","last_reported":1738948048,"current_range_meters":10000,"station_id":"ce4bhn12rcd13ifvqgqg","pricing_plan_id":"cebpf4jnsgd1na2vs0mg"},{"bike_id":"d1e17cfb-e005-4e59-9e11-0d275ce81c85","system_id":"levelo_inurba_marseille","lat":43.28657,"lon":5.3867,"is_reserved":false,"is_disabled":false,"rental_uris":{"android":"levelo://app?vid=d1e17cfb-e005-4e59-9e11-0d275ce81c85","ios":"levelo://app?vid=d1e17cfb-e005-4e59-9e11-0d275ce81c85"},"vehicle_type_id":"4","last_reported":1738948048,"current_range_meters":39200,"station_id":"ce4bh492rcd13ifvqdug","pricing_plan_id":"cebpf4jnsgd1na2vs0mg"},{"bike_id":"65038b47-202a-4264-b11c-821096b99e6f","system_id":"levelo_inurba_marseille","lat":43.23153,"lon":5.4372,"is_reserved":false,"is_disabled":true,"rental_uris":{"android":"levelo://app?vid=65038b47-202a-4264-b11c-821096b99e6f","ios":"levelo://app?vid=65038b47-202a-4264-b11c-821096b99e6f"},"vehicle_type_id":"4","last_reported":1738948048,"current_range_meters":0,"station_id":"ce4bhmp2rcd13ifvqgog","pricing_plan_id":"cebpf4jnsgd1na2vs0mg"},{"bike_id":"d0fcc52e-95dd-49bd-8349-de6f928c4529","system_id":"levelo_inurba_marseille","lat":43.29095,"lon":5.38151,"is_reserved":false,"is_disabled":false,"rental_uris":{"android":"levelo://app?vid=d0fcc52e-95dd-49bd-8349-de6f928c4529","ios":"levelo://app?vid=d0fcc52e-95dd-49bd-8349-de6f928c4529"},"vehicle_type_id":"4","last_reported":1738948048,"current_range_meters":20400,"station_id":"ce4bh512rcd13ifvqe2g","pricing_plan_id":"cebpf4jnsgd1na2vs0mg"},{"bike_id":"fd741a2c-6090-4746-8e0c-a3bcf67c55a8","system_id":"levelo_inurba_marseille","lat":43.23154,"lon":5.43698,"is_reserved":false,"is_disabled":true,"rental_uris":{"android":"levelo://app?vid=fd741a2c-6090-4746-8e0c-a3bcf67c55a8","ios":"levelo://app?vid=fd741a2c-6090-4746-8e0c-a3bcf67c55a8"},"vehicle_type_id":"4","last_reported":1738948048,"current_range_meters":0,"station_id":"ce4bhmp2rcd13ifvqgog","pricing_plan_id":"cebpf4jnsgd1na2vs0mg"},{"bike_id":"f2df57fd-48fb-42b4-9b53-5e639c9b06ad","system_id":"levelo_inurba_marseille","lat":43.32373,"lon":5.3888,"is_reserved":false,"is_disabled":false,"rental_uris":{"android":"levelo://app?vid=f2df57fd-48fb-42b4-9b53-5e639c9b06ad","ios":"levelo://app?vid=f2df57fd-48fb-42b4-9b53-5e639c9b06ad"},"vehicle_type_id":"4","last_reported":1738948048,"current_range_meters":37600,"station_id":"ce4bhqp2rcd13ifvqhog","pricing_plan_id":"cebpf4jnsgd1na2vs0mg"},{"bike_id":"7fb54ed2-79d9-4b01-906b-923e9f169a4e","system_id":"levelo_inurba_marseille","lat":43.27947,"lon":5.41054,"is_reserved":false,"is_disabled":false,"rental_uris":{"android":"levelo://app?vid=7fb54ed2-79d9-4b01-906b-923e9f169a4e","ios":"levelo://app?vid=7fb54ed2-79d9-4b01-906b-923e9f169a4e"},"vehicle_type_id":"4","last_reported":1738948048,"current_range_meters":23200,"station_id":"ce4bhnp2rcd13ifvqh0g","pricing_plan_id":"cebpf4jnsgd1na2vs0mg"},{"bike_id":"0db2bfd7-2ca1-4f77-9597-ebb3b2c72fef","system_id":"levelo_inurba_marseille","lat":43.27368,"lon":5.36256,"is_reserved":false,"is_disabled":false,"rental_uris":{"android":"levelo://app?vid=0db2bfd7-2ca1-4f77-9597-ebb3b2c72fef","ios":"levelo://app?vid=0db2bfd7-2ca1-4f77-9597-ebb3b2c72fef"},"vehicle_type_id":"4","last_reported":1738948048,"current_range_meters":21600,"station_id":"ce4bhbh2rcd13ifvqeo0","pricing_plan_id":"cebpf4jnsgd1na2vs0mg"},{"bike_id":"38bb7a7b-be18-4dbb-a77c-5a07a1316439","system_id":"levelo_inurba_marseille","lat":43.29161,"lon":5.3716,"is_reserved":false,"is_disabled":false,"rental_uris":{"android":"levelo://app?vid=38bb7a7b-be18-4dbb-a77c-5a07a1316439","ios":"levelo://app?vid=38bb7a7b-be18-4dbb-a77c-5a07a1316439"},"vehicle_type_id":"4","last_reported":1738948048,"current_range_meters":13600,"station_id":"ce4bha92rcd13ifvqeh0","pricing_plan_id":"cebpf4jnsgd1na2vs0mg"},{"bike_id":"59db9156-837c-4bef-bdf0-6cb05d00fb23","system_id":"levelo_inurba_marseille","lat":43.24158,"lon":5.3642,"is_reserved":false,"is_disabled":false,"rental_uris":{"android":"levelo://app?vid=59db9156-837c-4bef-bdf0-6cb05d00fb23","ios":"levelo://app?vid=59db9156-837c-4bef-bdf0-6cb05d00fb23"},"vehicle_type_id":"4","last_reported":1738948048,"current_range_meters":30400,"station_id":"cpo36qri1sfpv3e86is0","pricing_plan_id":"cebpf4jnsgd1na2vs0mg"},{"bike_id":"19c91191-64ee-4803-94d7-14a4a66340df","system_id":"levelo_inurba_marseille","lat":43.31713,"lon":5.42411,"is_reserved":false,"is_disabled":true,"rental_uris":{"android":"levelo://app?vid=19c91191-64ee-4803-94d7-14a4a66340df","ios":"levelo://app?vid=19c91191-64ee-4803-94d7-14a4a66340df"},"vehicle_type_id":"4","last_reported":1738948048,"current_range_meters":0,"station_id":"ce4bhp92rcd13ifvqhbg","pricing_plan_id":"cebpf4jnsgd1na2vs0mg"},{"bike_id":"253b4999-41c5-4f79-8ef7-b17022cf04e3","system_id":"levelo_inurba_marseille","lat":43.33015,"lon":5.39048,"is_reserved":false,"is_disabled":false,"rental_uris":{"android":"levelo://app?vid=253b4999-41c5-4f79-8ef7-b17022cf04e3","ios":"levelo://app?vid=253b4999-41c5-4f79-8ef7-b17022cf04e3"},"vehicle_type_id":"4","last_reported":1738948048,"current_range_meters":38000,"station_id":"ce4bhr92rcd13ifvqhrg","pricing_plan_id":"cebpf4jnsgd1na2vs0mg"},{"bike_id":"bee40947-4d81-44c7-ab89-9c2629d87e72","system_id":"levelo_inurba_marseille","lat":43.2809,"lon":5.37838,"is_reserved":false,"is_disabled":false,"rental_uris":{"android":"levelo://app?vid=bee40947-4d81-44c7-ab89-9c2629d87e72","ios":"levelo://app?vid=bee40947-4d81-44c7-ab89-9c2629d87e72"},"vehicle_type_id":"4","last_reported":1738948048,"current_range_meters":31200,"station_id":"ce4bha12rcd13ifvqee0","pricing_plan_id":"cebpf4jnsgd1na2vs0mg"},{"bike_id":"de295655-2dda-46a2-bf20-1c646117ad88","system_id":"levelo_inurba_marseille","lat":43.30801,"lon":5.43525,"is_reserved":false,"is_disabled":false,"rental_uris":{"android":"levelo://app?vid=de295655-2dda-46a2-bf20-1c646117ad88","ios":"levelo://app?vid=de295655-2dda-46a2-bf20-1c646117ad88"},"vehicle_type_id":"4","last_reported":1738948048,"current_range_meters":36800,"station_id":"ce4bhph2rcd13ifvqheg","pricing_plan_id":"cebpf4jnsgd1na2vs0mg"},{"bike_id":"641a9b9b-7e7d-4604-bb5d-170e7e48c169","system_id":"levelo_inurba_marseille","lat":43.29924,"lon":5.36551,"is_reserved":false,"is_disabled":false,"rental_uris":{"android":"levelo://app?vid=641a9b9b-7e7d-4604-bb5d-170e7e48c169","ios":"levelo://app?vid=641a9b9b-7e7d-4604-bb5d-170e7e48c169"},"vehicle_type_id":"4","last_reported":1738948048,"current_range_meters":10000,"station_id":"ce4bgm92rcd13ifvqbr0","pricing_plan_id":"cebpf4jnsgd1na2vs0mg"},{"bike_id":"c2254ed0-0838-424f-99f8-8eb5410c1ec3","system_id":"levelo_inurba_marseille","lat":43.24126,"lon":5.36331,"is_reserved":false,"is_disabled":false,"rental_uris":{"android":"levelo://app?vid=c2254ed0-0838-424f-99f8-8eb5410c1ec3","ios":"levelo://app?vid=c2254ed0-0838-424f-99f8-8eb5410c1ec3"},"vehicle_type_id":"4","last_reported":1738948048,"current_range_meters":28800,"station_id":"","pricing_plan_id":"cebpf4jnsgd1na2vs0mg"},{"bike_id":"63502e7d-71b3-44d6-b82d-6352b6e3809f","system_id":"levelo_inurba_marseille","lat":43.25855,"lon":5.39428,"is_reserved":false,"is_disabled":false,"rental_uris":{"android":"levelo://app?vid=63502e7d-71b3-44d6-b82d-6352b6e3809f","ios":"levelo://app?vid=63502e7d-71b3-44d6-b82d-6352b6e3809f"},"vehicle_type_id":"4","last_reported":1738948048,"current_range_meters":36400,"station_id":"ce4bhip2rcd13ifvqft0","pricing_plan_id":"cebpf4jnsgd1na2vs0mg"},{"bike_id":"380c96ee-7379-4bed-8e77-805de6bc6e4b","system_id":"levelo_inurba_marseille","lat":43.2885,"lon":5.35851,"is_reserved":false,"is_disabled":false,"rental_uris":{"android":"levelo://app?vid=380c96ee-7379-4bed-8e77-805de6bc6e4b","ios":"levelo://app?vid=380c96ee-7379-4bed-8e77-805de6bc6e4b"},"vehicle_type_id":"4","last_reported":1738948048,"current_range_meters":27200,"station_id":"ce4bhb12rcd13ifvqem0","pricing_plan_id":"cebpf4jnsgd1na2vs0mg"},{"bike_id":"5d1dacf3-3fa1-40ba-8373-ce163dd2d283","system_id":"levelo_inurba_marseille","lat":43.26197,"lon":5.37941,"is_reserved":false,"is_disabled":false,"rental_uris":{"android":"levelo://app?vid=5d1dacf3-3fa1-40ba-8373-ce163dd2d283","ios":"levelo://app?vid=5d1dacf3-3fa1-40ba-8373-ce163dd2d283"},"vehicle_type_id":"4","last_reported":1738948048,"current_range_meters":38800,"station_id":"ce4bhjp2rcd13ifvqg90","pricing_plan_id":"cebpf4jnsgd1na2vs0mg"},{"bike_id":"37db5fc9-0f62-46fc-91e6-628868788ccc","system_id":"levelo_inurba_marseille","lat":43.29003,"lon":5.35611,"is_reserved":false,"is_disabled":false,"rental_uris":{"android":"levelo://app?vid=37db5fc9-0f62-46fc-91e6-628868788ccc","ios":"levelo://app?vid=37db5fc9-0f62-46fc-91e6-628868788ccc"},"vehicle_type_id":"4","last_reported":1738948048,"current_range_meters":39200,"station_id":"ce4bhb92rcd13ifvqen0","pricing_plan_id":"cebpf4jnsgd1na2vs0mg"},{"bike_id":"6ff781d1-2621-44d1-b299-83b571f09432","system_id":"levelo_inurba_marseille","lat":43.32377,"lon":5.38885,"is_reserved":false,"is_disabled":false,"rental_uris":{"android":"levelo://app?vid=6ff781d1-2621-44d1-b299-83b571f09432","ios":"levelo://app?vid=6ff781d1-2621-44d1-b299-83b571f09432"},"vehicle_type_id":"4","last_reported":1738948048,"current_range_meters":20400,"station_id":"ce4bhqp2rcd13ifvqhog","pricing_plan_id":"cebpf4jnsgd1na2vs0mg"},{"bike_id":"a2e733be-b3e3-470d-b20e-7d85b62390d1","system_id":"levelo_inurba_marseille","lat":43.30097,"lon":5.39085,"is_reserved":false,"is_disabled":false,"rental_uris":{"android":"levelo://app?vid=a2e733be-b3e3-470d-b20e-7d85b62390d1","ios":"levelo://app?vid=a2e733be-b3e3-470d-b20e-7d85b62390d1"},"vehicle_type_id":"4","last_reported":1738948048,"current_range_meters":25200,"station_id":"ce4bh192rcd13ifvqdb0","pricing_plan_id":"cebpf4jnsgd1na2vs0mg"},{"bike_id":"1db9afee-6230-4a4d-a32c-dd215fe18059","system_id":"levelo_inurba_marseille","lat":43.30419,"lon":5.41281,"is_reserved":false,"is_disabled":false,"rental_uris":{"android":"levelo://app?vid=1db9afee-6230-4a4d-a32c-dd215fe18059","ios":"levelo://app?vid=1db9afee-6230-4a4d-a32c-dd215fe18059"},"vehicle_type_id":"4","last_reported":1738948048,"current_range_meters":12800,"station_id":"ce4bhop2rcd13ifvqh8g","pricing_plan_id":"cebpf4jnsgd1na2vs0mg"},{"bike_id":"c2db0185-ce32-49f5-8fda-37150814e569","system_id":"levelo_inurba_marseille","lat":43.25494,"lon":5.37654,"is_reserved":false,"is_disabled":false,"rental_uris":{"android":"levelo://app?vid=c2db0185-ce32-49f5-8fda-37150814e569","ios":"levelo://app?vid=c2db0185-ce32-49f5-8fda-37150814e569"},"vehicle_type_id":"4","last_reported":1738948048,"current_range_meters":24800,"station_id":"ce4bhh12rcd13ifvqff0","pricing_plan_id":"cebpf4jnsgd1na2vs0mg"},{"bike_id":"8bec6f5e-e450-4c2b-8557-aced9db82d7a","system_id":"levelo_inurba_marseille","lat":43.25719,"lon":5.41108,"is_reserved":false,"is_disabled":false,"rental_uris":{"android":"levelo://app?vid=8bec6f5e-e450-4c2b-8557-aced9db82d7a","ios":"levelo://app?vid=8bec6f5e-e450-4c2b-8557-aced9db82d7a"},"vehicle_type_id":"4","last_reported":1738948048,"current_range_meters":38400,"station_id":"ce4bhkp2rcd13ifvqgd0","pricing_plan_id":"cebpf4jnsgd1na2vs0mg"},{"bike_id":"013966e3-238f-4f27-83d7-59548e859f1f","system_id":"levelo_inurba_marseille","lat":43.29595,"lon":5.36749,"is_reserved":false,"is_disabled":false,"rental_uris":{"android":"levelo://app?vid=013966e3-238f-4f27-83d7-59548e859f1f","ios":"levelo://app?vid=013966e3-238f-4f27-83d7-59548e859f1f"},"vehicle_type_id":"4","last_reported":1738948048,"current_range_meters":38800,"station_id":"ce4bgph2rcd13ifvqc2g","pricing_plan_id":"cebpf4jnsgd1na2vs0mg"},{"bike_id":"8545995d-adff-45fc-bdba-aae4d102c701","system_id":"levelo_inurba_marseille","lat":43.31331,"lon":5.397,"is_reserved":false,"is_disabled":false,"rental_uris":{"android":"levelo://app?vid=8545995d-adff-45fc-bdba-aae4d102c701","ios":"levelo://app?vid=8545995d-adff-45fc-bdba-aae4d102c701"},"vehicle_type_id":"4","last_reported":1738948048,"current_range_meters":14800,"station_id":"ce4bgvp2rcd13ifvqcu0","pricing_plan_id":"cebpf4jnsgd1na2vs0mg"},{"bike_id":"304f5463-bf22-4bb9-b968-b1a5382f31ec","system_id":"levelo_inurba_marseille","lat":43.27973,"lon":5.3874,"is_reserved":false,"is_disabled":false,"rental_uris":{"android":"levelo://app?vid=304f5463-bf22-4bb9-b968-b1a5382f31ec","ios":"levelo://app?vid=304f5463-bf22-4bb9-b968-b1a5382f31ec"},"vehicle_type_id":"4","last_reported":1738948048,"current_range_meters":20000,"station_id":"ce4bhg12rcd13ifvqf80","pricing_plan_id":"cebpf4jnsgd1na2vs0mg"},{"bike_id":"957f8b7e-d828-49bc-a82c-23988c526e55","system_id":"levelo_inurba_marseille","lat":43.28942,"lon":5.36619,"is_reserved":false,"is_disabled":true,"rental_uris":{"android":"levelo://app?vid=957f8b7e-d828-49bc-a82c-23988c526e55","ios":"levelo://app?vid=957f8b7e-d828-49bc-a82c-23988c526e55"},"vehicle_type_id":"4","last_reported":1738948048,"current_range_meters":38400,"station_id":"ce4bhap2rcd13ifvqek0","pricing_plan_id":"cebpf4jnsgd1na2vs0mg"},{"bike_id":"48ed3541-35d0-41d4-bd88-6de5fae1e15a","system_id":"levelo_inurba_marseille","lat":43.31753,"lon":5.39013,"is_reserved":false,"is_disabled":false,"rental_uris":{"android":"levelo://app?vid=48ed3541-35d0-41d4-bd88-6de5fae1e15a","ios":"levelo://app?vid=48ed3541-35d0-41d4-bd88-6de5fae1e15a"},"vehicle_type_id":"4","last_reported":1738948048,"current_range_meters":21600,"station_id":"","pricing_plan_id":"cebpf4jnsgd1na2vs0mg"},{"bike_id":"f761df35-c0ba-4efa-9656-e869d826662f","system_id":"levelo_inurba_marseille","lat":43.29855,"lon":5.36284,"is_reserved":false,"is_disabled":true,"rental_uris":{"android":"levelo://app?vid=f761df35-c0ba-4efa-9656-e869d826662f","ios":"levelo://app?vid=f761df35-c0ba-4efa-9656-e869d826662f"},"vehicle_type_id":"4","last_reported":1738948048,"current_range_meters":35600,"station_id":"ce4bgpp2rcd13ifvqc3g","pricing_plan_id":"cebpf4jnsgd1na2vs0mg"},{"bike_id":"4102fc6c-e365-41e0-9416-211e5673c09f","system_id":"levelo_inurba_marseille","lat":43.28705,"lon":5.37396,"is_reserved":false,"is_disabled":false,"rental_uris":{"android":"levelo://app?vid=4102fc6c-e365-41e0-9416-211e5673c09f","ios":"levelo://app?vid=4102fc6c-e365-41e0-9416-211e5673c09f"},"vehicle_type_id":"4","last_reported":1738948048,"current_range_meters":17200,"station_id":"ce4bh3p2rcd13ifvqdq0","pricing_plan_id":"cebpf4jnsgd1na2vs0mg"},{"bike_id":"826ab98d-0da8-4d31-b2a6-6ec434732aa9","system_id":"levelo_inurba_marseille","lat":43.28921,"lon":5.38378,"is_reserved":false,"is_disabled":true,"rental_uris":{"android":"levelo://app?vid=826ab98d-0da8-4d31-b2a6-6ec434732aa9","ios":"levelo://app?vid=826ab98d-0da8-4d31-b2a6-6ec434732aa9"},"vehicle_type_id":"4","last_reported":1738948048,"current_range_meters":17200,"station_id":"ce4bh612rcd13ifvqe6g","pricing_plan_id":"cebpf4jnsgd1na2vs0mg"},{"bike_id":"d500967c-a637-47b7-8459-04fe7cbc336f","system_id":"levelo_inurba_marseille","lat":43.26214,"lon":5.37443,"is_reserved":false,"is_disabled":false,"rental_uris":{"android":"levelo://app?vid=d500967c-a637-47b7-8459-04fe7cbc336f","ios":"levelo://app?vid=d500967c-a637-47b7-8459-04fe7cbc336f"},"vehicle_type_id":"4","last_reported":1738948048,"current_range_meters":20800,"station_id":"ce4bhgp2rcd13ifvqfc0","pricing_plan_id":"cebpf4jnsgd1na2vs0mg"},{"bike_id":"ee53bf4d-5df7-4671-b431-859242ae1eb0","system_id":"levelo_inurba_marseille","lat":43.28476,"lon":5.38427,"is_reserved":false,"is_disabled":false,"rental_uris":{"android":"levelo://app?vid=ee53bf4d-5df7-4671-b431-859242ae1eb0","ios":"levelo://app?vid=ee53bf4d-5df7-4671-b431-859242ae1eb0"},"vehicle_type_id":"4","last_reported":1738948048,"current_range_meters":36000,"station_id":"ce4bh512rcd13ifvqe3g","pricing_plan_id":"cebpf4jnsgd1na2vs0mg"},{"bike_id":"bec99846-c6d9-4983-8a05-58ed5efc4a7e","system_id":"levelo_inurba_marseille","lat":43.3054,"lon":5.36695,"is_reserved":false,"is_disabled":false,"rental_uris":{"android":"levelo://app?vid=bec99846-c6d9-4983-8a05-58ed5efc4a7e","ios":"levelo://app?vid=bec99846-c6d9-4983-8a05-58ed5efc4a7e"},"vehicle_type_id":"4","last_reported":1738948048,"current_range_meters":39200,"station_id":"ce4bgrp2rcd13ifvqc9g","pricing_plan_id":"cebpf4jnsgd1na2vs0mg"},{"bike_id":"e82fa571-a0a5-482d-a191-562866bf1df5","system_id":"levelo_inurba_marseille","lat":43.27372,"lon":5.36261,"is_reserved":false,"is_disabled":false,"rental_uris":{"android":"levelo://app?vid=e82fa571-a0a5-482d-a191-562866bf1df5","ios":"levelo://app?vid=e82fa571-a0a5-482d-a191-562866bf1df5"},"vehicle_type_id":"4","last_reported":1738948048,"current_range_meters":37600,"station_id":"ce4bhbh2rcd13ifvqeo0","pricing_plan_id":"cebpf4jnsgd1na2vs0mg"},{"bike_id":"54821b8f-03ba-4360-abc1-91db00db4644","system_id":"levelo_inurba_marseille","lat":43.25498,"lon":5.37663,"is_reserved":false,"is_disabled":false,"rental_uris":{"android":"levelo://app?vid=54821b8f-03ba-4360-abc1-91db00db4644","ios":"levelo://app?vid=54821b8f-03ba-4360-abc1-91db00db4644"},"vehicle_type_id":"4","last_reported":1738948048,"current_range_meters":39200,"station_id":"ce4bhh12rcd13ifvqff0","pricing_plan_id":"cebpf4jnsgd1na2vs0mg"},{"bike_id":"a6e1b439-04e4-421f-a5a6-259ce9531499","system_id":"levelo_inurba_marseille","lat":43.27059,"lon":5.40272,"is_reserved":false,"is_disabled":false,"rental_uris":{"android":"levelo://app?vid=a6e1b439-04e4-421f-a5a6-259ce9531499","ios":"levelo://app?vid=a6e1b439-04e4-421f-a5a6-259ce9531499"},"vehicle_type_id":"4","last_reported":1738948048,"current_range_meters":34000,"station_id":"ce4bhk92rcd13ifvqgc0","pricing_plan_id":"cebpf4jnsgd1na2vs0mg"},{"bike_id":"3d9e8870-3e96-498e-8528-7cac12a72a04","system_id":"levelo_inurba_marseille","lat":43.26559,"lon":5.37309,"is_reserved":false,"is_disabled":false,"rental_uris":{"android":"levelo://app?vid=3d9e8870-3e96-498e-8528-7cac12a72a04","ios":"levelo://app?vid=3d9e8870-3e96-498e-8528-7cac12a72a04"},"vehicle_type_id":"4","last_reported":1738948048,"current_range_meters":12000,"station_id":"ce4bhg12rcd13ifvqf70","pricing_plan_id":"cebpf4jnsgd1na2vs0mg"},{"bike_id":"ded50ad8-17a2-4113-82e5-140c43410296","system_id":"levelo_inurba_marseille","lat":43.29048,"lon":5.35918,"is_reserved":false,"is_disabled":false,"rental_uris":{"android":"levelo://app?vid=ded50ad8-17a2-4113-82e5-140c43410296","ios":"levelo://app?vid=ded50ad8-17a2-4113-82e5-140c43410296"},"vehicle_type_id":"4","last_reported":1738948048,"current_range_meters":36400,"station_id":"ce4bha92rcd13ifvqeg0","pricing_plan_id":"cebpf4jnsgd1na2vs0mg"},{"bike_id":"1dba89a1-d260-49d1-8650-00e7250d754c","system_id":"levelo_inurba_marseille","lat":43.30687,"lon":5.40102,"is_reserved":false,"is_disabled":false,"rental_uris":{"android":"levelo://app?vid=1dba89a1-d260-49d1-8650-00e7250d754c","ios":"levelo://app?vid=1dba89a1-d260-49d1-8650-00e7250d754c"},"vehicle_type_id":"4","last_reported":1738948048,"current_range_meters":36800,"station_id":"ce4bh112rcd13ifvqda0","pricing_plan_id":"cebpf4jnsgd1na2vs0mg"},{"bike_id":"617c8a11-05d4-4638-8182-754b4aecd1f8","system_id":"levelo_inurba_marseille","lat":43.25575,"lon":5.3825,"is_reserved":false,"is_disabled":false,"rental_uris":{"android":"levelo://app?vid=617c8a11-05d4-4638-8182-754b4aecd1f8","ios":"levelo://app?vid=617c8a11-05d4-4638-8182-754b4aecd1f8"},"vehicle_type_id":"4","last_reported":1738948048,"current_range_meters":10000,"station_id":"ce4bhih2rcd13ifvqfs0","pricing_plan_id":"cebpf4jnsgd1na2vs0mg"},{"bike_id":"57859d69-4479-428d-b028-6d897066896b","system_id":"levelo_inurba_marseille","lat":43.303,"lon":5.39224,"is_reserved":false,"is_disabled":false,"rental_uris":{"android":"levelo://app?vid=57859d69-4479-428d-b028-6d897066896b","ios":"levelo://app?vid=57859d69-4479-428d-b028-6d897066896b"},"vehicle_type_id":"4","last_reported":1738948048,"current_range_meters":18800,"station_id":"ce4bgkh2rcd13ifvqbk0","pricing_plan_id":"cebpf4jnsgd1na2vs0mg"},{"bike_id":"2b81af3c-387b-426d-aec4-b8105fa9a8d1","system_id":"levelo_inurba_marseille","lat":43.29507,"lon":5.393947,"is_reserved":false,"is_disabled":true,"rental_uris":{"android":"levelo://app?vid=2b81af3c-387b-426d-aec4-b8105fa9a8d1","ios":"levelo://app?vid=2b81af3c-387b-426d-aec4-b8105fa9a8d1"},"vehicle_type_id":"4","last_reported":1738948048,"current_range_meters":37600,"station_id":"ce4bh292rcd13ifvqdf0","pricing_plan_id":"cebpf4jnsgd1na2vs0mg"},{"bike_id":"d39a2685-ff1f-4a95-b7fe-802902b67914","system_id":"levelo_inurba_marseille","lat":43.321019,"lon":5.367782,"is_reserved":false,"is_disabled":false,"rental_uris":{"android":"levelo://app?vid=d39a2685-ff1f-4a95-b7fe-802902b67914","ios":"levelo://app?vid=d39a2685-ff1f-4a95-b7fe-802902b67914"},"vehicle_type_id":"4","last_reported":1738948048,"current_range_meters":24400,"station_id":"ce4bhrh2rcd13ifvqhug","pricing_plan_id":"cebpf4jnsgd1na2vs0mg"},{"bike_id":"543d8763-bc39-4d19-b4de-d83833e1353b","system_id":"levelo_inurba_marseille","lat":43.26234,"lon":5.40465,"is_reserved":false,"is_disabled":false,"rental_uris":{"android":"levelo://app?vid=543d8763-bc39-4d19-b4de-d83833e1353b","ios":"levelo://app?vid=543d8763-bc39-4d19-b4de-d83833e1353b"},"vehicle_type_id":"4","last_reported":1738948048,"current_range_meters":11600,"station_id":"ce4bhmh2rcd13ifvqgmg","pricing_plan_id":"cebpf4jnsgd1na2vs0mg"},{"bike_id":"65b93af7-02d1-426c-8b10-b3c3784727fa","system_id":"levelo_inurba_marseille","lat":43.30305,"lon":5.39203,"is_reserved":false,"is_disabled":false,"rental_uris":{"android":"levelo://app?vid=65b93af7-02d1-426c-8b10-b3c3784727fa","ios":"levelo://app?vid=65b93af7-02d1-426c-8b10-b3c3784727fa"},"vehicle_type_id":"4","last_reported":1738948048,"current_range_meters":38800,"station_id":"ce4bgkh2rcd13ifvqbk0","pricing_plan_id":"cebpf4jnsgd1na2vs0mg"},{"bike_id":"8eecc113-9b29-4d7f-9f10-17488720aa4b","system_id":"levelo_inurba_marseille","lat":43.28724,"lon":5.36081,"is_reserved":false,"is_disabled":false,"rental_uris":{"android":"levelo://app?vid=8eecc113-9b29-4d7f-9f10-17488720aa4b","ios":"levelo://app?vid=8eecc113-9b29-4d7f-9f10-17488720aa4b"},"vehicle_type_id":"4","last_reported":1738948048,"current_range_meters":27200,"station_id":"cki0cbj6b192h4jlfktg","pricing_plan_id":"cebpf4jnsgd1na2vs0mg"},{"bike_id":"6c90a2b3-10d9-4684-8d66-cc42765932bd","system_id":"levelo_inurba_marseille","lat":43.29981,"lon":5.38488,"is_reserved":false,"is_disabled":false,"rental_uris":{"android":"levelo://app?vid=6c90a2b3-10d9-4684-8d66-cc42765932bd","ios":"levelo://app?vid=6c90a2b3-10d9-4684-8d66-cc42765932bd"},"vehicle_type_id":"4","last_reported":1738948048,"current_range_meters":39200,"station_id":"ce4bgj92rcd13ifvqbd0","pricing_plan_id":"cebpf4jnsgd1na2vs0mg"},{"bike_id":"93addc78-ce17-413c-815b-67b735177823","system_id":"levelo_inurba_marseille","lat":43.28724,"lon":5.36088,"is_reserved":false,"is_disabled":false,"rental_uris":{"android":"levelo://app?vid=93addc78-ce17-413c-815b-67b735177823","ios":"levelo://app?vid=93addc78-ce17-413c-815b-67b735177823"},"vehicle_type_id":"4","last_reported":1738948048,"current_range_meters":11600,"station_id":"cki0cbj6b192h4jlfktg","pricing_plan_id":"cebpf4jnsgd1na2vs0mg"},{"bike_id":"6d51e93d-dbaa-4f16-99c4-8492278e95a6","system_id":"levelo_inurba_marseille","lat":43.33728,"lon":5.3918,"is_reserved":false,"is_disabled":false,"rental_uris":{"android":"levelo://app?vid=6d51e93d-dbaa-4f16-99c4-8492278e95a6","ios":"levelo://app?vid=6d51e93d-dbaa-4f16-99c4-8492278e95a6"},"vehicle_type_id":"4","last_reported":1738948048,"current_range_meters":36400,"station_id":"ce4bhr92rcd13ifvqhsg","pricing_plan_id":"cebpf4jnsgd1na2vs0mg"},{"bike_id":"0702c3c5-fcc9-40e5-999c-2b4e45e1a590","system_id":"levelo_inurba_marseille","lat":43.298827,"lon":5.397587,"is_reserved":false,"is_disabled":false,"rental_uris":{"android":"levelo://app?vid=0702c3c5-fcc9-40e5-999c-2b4e45e1a590","ios":"levelo://app?vid=0702c3c5-fcc9-40e5-999c-2b4e45e1a590"},"vehicle_type_id":"4","last_reported":1738948048,"current_range_meters":39200,"station_id":"ce4bh0h2rcd13ifvqd50","pricing_plan_id":"cebpf4jnsgd1na2vs0mg"},{"bike_id":"7ffc0f4b-2320-4cbd-b643-523dab446d45","system_id":"levelo_inurba_marseille","lat":43.25004,"lon":5.38948,"is_reserved":false,"is_disabled":false,"rental_uris":{"android":"levelo://app?vid=7ffc0f4b-2320-4cbd-b643-523dab446d45","ios":"levelo://app?vid=7ffc0f4b-2320-4cbd-b643-523dab446d45"},"vehicle_type_id":"4","last_reported":1738948048,"current_range_meters":35600,"station_id":"ce4bhgp2rcd13ifvqfd0","pricing_plan_id":"cebpf4jnsgd1na2vs0mg"},{"bike_id":"c42f278d-db31-410e-97b0-9e8cb5755544","system_id":"levelo_inurba_marseille","lat":43.29544,"lon":5.37521,"is_reserved":false,"is_disabled":true,"rental_uris":{"android":"levelo://app?vid=c42f278d-db31-410e-97b0-9e8cb5755544","ios":"levelo://app?vid=c42f278d-db31-410e-97b0-9e8cb5755544"},"vehicle_type_id":"4","last_reported":1738948048,"current_range_meters":30800,"station_id":"ce4bgkp2rcd13ifvqbmg","pricing_plan_id":"cebpf4jnsgd1na2vs0mg"},{"bike_id":"c05477f4-f193-46db-80e2-b6c99233322e","system_id":"levelo_inurba_marseille","lat":43.25818,"lon":5.39436,"is_reserved":false,"is_disabled":false,"rental_uris":{"android":"levelo://app?vid=c05477f4-f193-46db-80e2-b6c99233322e","ios":"levelo://app?vid=c05477f4-f193-46db-80e2-b6c99233322e"},"vehicle_type_id":"4","last_reported":1738948048,"current_range_meters":38800,"station_id":"ce4bhip2rcd13ifvqft0","pricing_plan_id":"cebpf4jnsgd1na2vs0mg"},{"bike_id":"eb6fef38-6527-4040-b4f6-dfc22fae7a77","system_id":"levelo_inurba_marseille","lat":43.31714,"lon":5.37758,"is_reserved":false,"is_disabled":false,"rental_uris":{"android":"levelo://app?vid=eb6fef38-6527-4040-b4f6-dfc22fae7a77","ios":"levelo://app?vid=eb6fef38-6527-4040-b4f6-dfc22fae7a77"},"vehicle_type_id":"4","last_reported":1738948048,"current_range_meters":36000,"station_id":"ce4bgth2rcd13ifvqch0","pricing_plan_id":"cebpf4jnsgd1na2vs0mg"},{"bike_id":"d5fd3457-cd91-4858-ac08-0b3a32187866","system_id":"levelo_inurba_marseille","lat":43.29076,"lon":5.37183,"is_reserved":false,"is_disabled":false,"rental_uris":{"android":"levelo://app?vid=d5fd3457-cd91-4858-ac08-0b3a32187866","ios":"levelo://app?vid=d5fd3457-cd91-4858-ac08-0b3a32187866"},"vehicle_type_id":"4","last_reported":1738948048,"current_range_meters":5600,"station_id":"ce4bh5p2rcd13ifvqe4g","pricing_plan_id":"cebpf4jnsgd1na2vs0mg"},{"bike_id":"337f10b6-fa3c-4b7a-ba68-d42b9849dd7b","system_id":"levelo_inurba_marseille","lat":43.297705,"lon":5.380948,"is_reserved":false,"is_disabled":true,"rental_uris":{"android":"levelo://app?vid=337f10b6-fa3c-4b7a-ba68-d42b9849dd7b","ios":"levelo://app?vid=337f10b6-fa3c-4b7a-ba68-d42b9849dd7b"},"vehicle_type_id":"4","last_reported":1738948048,"current_range_meters":10000,"station_id":"ce4bgip2rcd13ifvqbb0","pricing_plan_id":"cebpf4jnsgd1na2vs0mg"},{"bike_id":"7239d879-3922-48a7-8df7-4f61198f9d5e","system_id":"levelo_inurba_marseille","lat":43.30436,"lon":5.3889,"is_reserved":false,"is_disabled":true,"rental_uris":{"android":"levelo://app?vid=7239d879-3922-48a7-8df7-4f61198f9d5e","ios":"levelo://app?vid=7239d879-3922-48a7-8df7-4f61198f9d5e"},"vehicle_type_id":"4","last_reported":1738948048,"current_range_meters":8000,"station_id":"ce4bgk12rcd13ifvqbi0","pricing_plan_id":"cebpf4jnsgd1na2vs0mg"},{"bike_id":"ae6e867f-ea24-455e-b0c4-bb456385ca29","system_id":"levelo_inurba_marseille","lat":43.27205,"lon":5.39187,"is_reserved":false,"is_disabled":true,"rental_uris":{"android":"levelo://app?vid=ae6e867f-ea24-455e-b0c4-bb456385ca29","ios":"levelo://app?vid=ae6e867f-ea24-455e-b0c4-bb456385ca29"},"vehicle_type_id":"4","last_reported":1738948048,"current_range_meters":800,"station_id":"ce4bhhp2rcd13ifvqfm0","pricing_plan_id":"cebpf4jnsgd1na2vs0mg"},