{"last_updated":1739110011,"ttl":60,"version":"2.2","data":{"bikes":[{"bike_id":"e5b37ce9-fb7a-4f7f-ab4f-03eea98d5a6a","system_id":"levelo_inurba_marseille","lat":43.29849,"lon":5.36289,"is_reserved":false,"is_disabled":false,"rental_uris":{"android":"levelo://app?vid=e5b37ce9-fb7a-4f7f-ab4f-03eea98d5a6a","ios":"levelo://app?vid=e5b37ce9-fb7a-4f7f-ab4f-03eea98d5a6a"},"vehicle_type_id":"4","last_reported":1739110011,"current_range_meters":34800,"station_id":"ce4bgpp2rcd13ifvqc3g","pricing_plan_id":"cebpf4jnsgd1na2vs0mg"},{"bike_id":"8bf9c0d5-b42b-43f3-ac16-58c6303bc32c","system_id":"levelo_inurba_marseille","lat":43.27069,"lon":5.4227,"is_reserved":false,"is_disabled":false,"rental_uris":{"android":"levelo://app?vid=8bf9c0d5-b42b-43f3-ac16-58c6303bc32c","ios":"levelo://app?vid=8bf9c0d5-b42b-43f3-ac16-58c6303bc32c"},"vehicle_type_id":"4","last_reported":1739110011,"current_range_meters":16400,"station_id":"ce4bhk92rcd13ifvqgb0","pricing_plan_id":"cebpf4jnsgd1na2vs0mg"},{"bike_id":"24e6347d-30fc-429d-a054-000bdfd80c76","system_id":"levelo_inurba_marseille","lat":43.28273,"lon":5.35059,"is_reserved":false,"is_disabled":false,"rental_uris":{"android":"levelo://app?vid=24e6347d-30fc-429d-a054-000bdfd80c76","ios":"levelo://app?vid=24e6347d-30fc-429d-a054-000bdfd80c76"},"vehicle_type_id":"4","last_reported":1739110011,"current_range_meters":35600,"station_id":"ce4bhbp2rcd13ifvqerg","pricing_plan_id":"cebpf4jnsgd1na2vs0mg"},{"bike_id":"34676ef4-60e9-4311-8d66-ce1b585f1849","system_id":"levelo_inurba_marseille","lat":43.30644,"lon":5.40059,"is_reserved":false,"is_disabled":false,"rental_uris":{"android":"levelo://app?vid=34676ef4-60e9-4311-8d66-ce1b585f1849","ios":"levelo://app?vid=34676ef4-60e9-4311-8d66-ce1b585f1849"},"vehicle_type_id":"4","last_reported":1739110011,"current_range_meters":38800,"station_id":"ce4bh112rcd13ifvqda0","pricing_plan_id":"cebpf4jnsgd1na2vs0mg"},{"bike_id":"cfa7f1cc-5150-48ed-843c-f6960ddad1e1","system_id":"levelo_inurba_marseille","lat":43.26494,"lon":5.39548,"is_reserved":false,"is_disabled":true,"rental_uris":{"android":"levelo://app?vid=cfa7f1cc-5150-48ed-843c-f6960ddad1e1","ios":"levelo://app?vid=cfa7f1cc-5150-48ed-843c-f6960ddad1e1"},"vehicle_type_id":"4","last_reported":1739110011,"current_range_meters":9200,"station_id":"ce4bhi12rcd13ifvqfq0","pricing_plan_id":"cebpf4jnsgd1na2vs0mg"},{"bike_id":"1f646f5c-1a9e-4dbf-b2ea-7cf6f988d58a","system_id":"levelo_inurba_marseille","lat":43.24662,"lon":5.38165,"is_reserved":false,"is_disabled":false,"rental_uris":{"android":"levelo://app?vid=1f646f5c-1a9e-4dbf-b2ea-7cf6f988d58a","ios":"levelo://app?vid=1f646f5c-1a9e-4dbf-b2ea-7cf6f988d58a"},"vehicle_type_id":"4","last_reported":1739110011,"current_range_meters":30800,"station_id":"ce4bhih2rcd13ifvqfr0","pricing_plan_id":"cebpf4jnsgd1na2vs0mg"},{"bike_id":"e06bad01-5d50-47d2-96c7-a75ef9dc120d","system_id":"levelo_inurba_marseille","lat":43.33765,"lon":5.37474,"is_reserved":false,"is_disabled":false,"rental_uris":{"android":"levelo://app?vid=e06bad01-5d50-47d2-96c7-a75ef9dc120d","ios":"levelo://app?vid=e06bad01-5d50-47d2-96c7-a75ef9dc120d"},"vehicle_type_id":"4","last_reported":1739110011,"current_range_meters":20400,"station_id":"","pricing_plan_id":"cebpf4jnsgd1na2vs0mg"},{"bike_id":"776aadf6-ee97-4be7-b948-331af9e9d054","system_id":"levelo_inurba_marseille","lat":43.255097,"lon":5.376767,"is_reserved":false,"is_disabled":false,"rental_uris":{"android":"levelo://app?vid=776aadf6-ee97-4be7-b948-331af9e9d054","ios":"levelo://app?vid=776aadf6-ee97-4be7-b948-331af9e9d054"},"vehicle_type_id":"4","last_reported":1739110011,"current_range_meters":16000,"station_id":"ce4bhh12rcd13ifvqff0","pricing_plan_id":"cebpf4jnsgd1na2vs0mg"},{"bike_id":"b6babe7b-0ae1-456b-b497-e3419479a893","system_id":"levelo_inurba_marseille","lat":43.32464,"lon":5.43501,"is_reserved":false,"is_disabled":false,"rental_uris":{"android":"levelo://app?vid=b6babe7b-0ae1-456b-b497-e3419479a893","ios":"levelo://app?vid=b6babe7b-0ae1-456b-b497-e3419479a893"},"vehicle_type_id":"4","last_reported":1739110011,"current_range_meters":28800,"station_id":"","pricing_plan_id":"cebpf4jnsgd1na2vs0mg"},{"bike_id":"9fea41fc-8f0f-48ab-9af0-fa75d6ad7f05","system_id":"levelo_inurba_marseille","lat":43.29584,"lon":5.36727,"is_reserved":false,"is_disabled":false,"rental_uris":{"android":"levelo://app?vid=9fea41fc-8f0f-48ab-9af0-fa75d6ad7f05","ios":"levelo://app?vid=9fea41fc-8f0f-48ab-9af0-fa75d6ad7f05"},"vehicle_type_id":"4","last_reported":1739110011,"current_range_meters":37600,"station_id":"ce4bgph2rcd13ifvqc2g","pricing_plan_id":"cebpf4jnsgd1na2vs0mg"},{"bike_id":"952ab6ee-c71f-431a-a116-28c771dc3a24","system_id":"levelo_inurba_marseille","lat":43.27941,"lon":5.41046,"is_reserved":false,"is_disabled":true,"rental_uris":{"android":"levelo://app?vid=952ab6ee-c71f-431a-a116-28c771dc3a24","ios":"levelo://app?vid=952ab6ee-c71f-431a-a116-28c771dc3a24"},"vehicle_type_id":"4","last_reported":1739110011,"current_range_meters":0,"station_id":"ce4bhnp2rcd13ifvqh0g","pricing_plan_id":"cebpf4jnsgd1na2vs0mg"},{"bike_id":"775acb38-5b67-40a7-8531-66c2f856ba4d","system_id":"levelo_inurba_marseille","lat":43.30151,"lon":5.38092,"is_reserved":false,"is_disabled":false,"rental_uris":{"android":"levelo://app?vid=775acb38-5b67-40a7-8531-66c2f856ba4d","ios":"levelo://app?vid=775acb38-5b67-40a7-8531-66c2f856ba4d"},"vehicle_type_id":"4","last_reported":1739110011,"current_range_meters":38800,"station_id":"ce4bgjp2rcd13ifvqbh0","pricing_plan_id":"cebpf4jnsgd1na2vs0mg"},{"bike_id":"1363bcc9-ac62-46aa-9a9a-4d66160c03ac","system_id":"levelo_inurba_marseille","lat":43.2733,"lon":5.39111,"is_reserved":false,"is_disabled":false,"rental_uris":{"android":"levelo://app?vid=1363bcc9-ac62-46aa-9a9a-4d66160c03ac","ios":"levelo://app?vid=1363bcc9-ac62-46aa-9a9a-4d66160c03ac"},"vehicle_type_id":"4","last_reported":1739110011,"current_range_meters":16800,"station_id":"ce4bhgp2rcd13ifvqfe0","pricing_plan_id":"cebpf4jnsgd1na2vs0mg"},{"bike_id":"36e53cc6-0052-4492-bb77-b33fe90983d1","system_id":"levelo_inurba_marseille","lat":43.28624,"lon":5.35104,"is_reserved":false,"is_disabled":false,"rental_uris":{"android":"levelo://app?vid=36e53cc6-0052-4492-bb77-b33fe90983d1","ios":"levelo://app?vid=36e53cc6-0052-4492-bb77-b33fe90983d1"},"vehicle_type_id":"4","last_reported":1739110011,"current_range_meters":30000,"station_id":"ce4bhch2rcd13ifvqeug","pricing_plan_id":"cebpf4jnsgd1na2vs0mg"},{"bike_id":"b1aee307-69da-426e-b1be-3716851e3284","system_id":"levelo_inurba_marseille","lat":43.2962,"lon":5.37718,"is_reserved":false,"is_disabled":false,"rental_uris":{"android":"levelo://app?vid=b1aee307-69da-426e-b1be-3716851e3284","ios":"levelo://app?vid=b1aee307-69da-426e-b1be-3716851e3284"},"vehicle_type_id":"4","last_reported":1739110011,"current_range_meters":25200,"station_id":"ce4bgi92rcd13ifvqb90","pricing_plan_id":"cebpf4jnsgd1na2vs0mg"},{"bike_id":"949ecb89-56e4-4c04-a100-83de2f0eaaf9","system_id":"levelo_inurba_marseille","lat":43.27828,"lon":5.40713,"is_reserved":false,"is_disabled":false,"rental_uris":{"android":"levelo://app?vid=949ecb89-56e4-4c04-a100-83de2f0eaaf9","ios":"levelo://app?vid=949ecb89-56e4-4c04-a100-83de2f0eaaf9"},"vehicle_type_id":"4","last_reported":1739110011,"current_range_meters":24800,"station_id":"ce4bhnh2rcd13ifvqgtg","pricing_plan_id":"cebpf4jnsgd1na2vs0mg"},{"bike_id":"9d897177-23f8-4ec6-9c3d-62210334eb7b","system_id":"levelo_inurba_marseille","lat":43.2842,"lon":5.37509,"is_reserved":false,"is_disabled":false,"rental_uris":{"android":"levelo://app?vid=9d897177-23f8-4ec6-9c3d-62210334eb7b","ios":"levelo://app?vid=9d897177-23f8-4ec6-9c3d-62210334eb7b"},"vehicle_type_id":"4","last_reported":1739110011,"current_range_meters":25600,"station_id":"ce4bh412rcd13ifvqds0","pricing_plan_id":"cebpf4jnsgd1na2vs0mg"},{"bike_id":"f3d79bbb-3f95-477c-9c9b-88c1b756415c","system_id":"levelo_inurba_marseille","lat":43.27067,"lon":5.42294,"is_reserved":false,"is_disabled":false,"rental_uris":{"android":"levelo://app?vid=f3d79bbb-3f95-477c-9c9b-88c1b756415c","ios":"levelo://app?vid=f3d79bbb-3f95-477c-9c9b-88c1b756415c"},"vehicle_type_id":"4","last_reported":1739110011,"current_range_meters":16800,"station_id":"ce4bhk92rcd13ifvqgb0","pricing_plan_id":"cebpf4jnsgd1na2vs0mg"},{"bike_id":"8ec06531-f19f-4d99-a1a4-6dcbffd70e75","system_id":"levelo_inurba_marseille","lat":43.27566,"lon":5.38422,"is_reserved":false,"is_disabled":false,"rental_uris":{"android":"levelo://app?vid=8ec06531-f19f-4d99-a1a4-6dcbffd70e75","ios":"levelo://app?vid=8ec06531-f19f-4d99-a1a4-6dcbffd70e75"},"vehicle_type_id":"4","last_reported":1739110011,"current_range_meters":31200,"station_id":"ce4bhh92rcd13ifvqfi0","pricing_plan_id":"cebpf4jnsgd1na2vs0mg"},{"bike_id":"3aa61ce3-8b66-4952-ac7c-56aac6bd2418","system_id":"levelo_inurba_marseille","lat":43.29717,"lon":5.37697,"is_reserved":false,"is_disabled":false,"rental_uris":{"android":"levelo://app?vid=3aa61ce3-8b66-4952-ac7c-56aac6bd2418","ios":"levelo://app?vid=3aa61ce3-8b66-4952-ac7c-56aac6bd2418"},"vehicle_type_id":"4","last_reported":1739110011,"current_range_meters":38000,"station_id":"ce4bgkh2rcd13ifvqbl0","pricing_plan_id":"cebpf4jnsgd1na2vs0mg"},{"bike_id":"cc5be222-f5b9-4564-8357-792e36ef3901","system_id":"levelo_inurba_marseille","lat":43.28031,"lon":5.36945,"is_reserved":false,"is_disabled":false,"rental_uris":{"android":"levelo://app?vid=cc5be222-f5b9-4564-8357-792e36ef3901","ios":"levelo://app?vid=cc5be222-f5b9-4564-8357-792e36ef3901"},"vehicle_type_id":"4","last_reported":1739110011,"current_range_meters":38800,"station_id":"ce4bha12rcd13ifvqef0","pricing_plan_id":"cebpf4jnsgd1na2vs0mg"},{"bike_id":"bf1166a6-6d02-4b59-a461-8ee8d9697ddf","system_id":"levelo_inurba_marseille","lat":43.23967,"lon":5.36636,"is_reserved":false,"is_disabled":false,"rental_uris":{"android":"levelo://app?vid=bf1166a6-6d02-4b59-a461-8ee8d9697ddf","ios":"levelo://app?vid=bf1166a6-6d02-4b59-a461-8ee8d9697ddf"},"vehicle_type_id":"4","last_reported":1739110011,"current_range_meters":38800,"station_id":"ce4bhi12rcd13ifvqfp0","pricing_plan_id":"cebpf4jnsgd1na2vs0mg"},{"bike_id":"84632040-162e-400f-b949-c724d6e1e087","system_id":"levelo_inurba_marseille","lat":43.26224,"lon":5.37432,"is_reserved":false,"is_disabled":false,"rental_uris":{"android":"levelo://app?vid=84632040-162e-400f-b949-c724d6e1e087","ios":"levelo://app?vid=84632040-162e-400f-b949-c724d6e1e087"},"vehicle_type_id":"4","last_reported":1739110011,"current_range_meters":26800,"station_id":"ce4bhgp2rcd13ifvqfc0","pricing_plan_id":"cebpf4jnsgd1na2vs0mg"},{"bike_id":"0863691f-945d-4989-90a5-f43ee2d9ae8a","system_id":"levelo_inurba_marseille","lat":43.24797,"lon":5.37453,"is_reserved":false,"is_disabled":false,"rental_uris":{"android":"levelo://app?vid=0863691f-945d-4989-90a5-f43ee2d9ae8a","ios":"levelo://app?vid=0863691f-945d-4989-90a5-f43ee2d9ae8a"},"vehicle_type_id":"4","last_reported":1739110011,"current_range_meters":28000,"station_id":"ce4bhgh2rcd13ifvqfb0","pricing_plan_id":"cebpf4jnsgd1na2vs0mg"},{"bike_id":"c7214087-f338-4aa0-87d4-4c782ee32a35","system_id":"levelo_inurba_marseille","lat":43.23968,"lon":5.36614,"is_reserved":false,"is_disabled":false,"rental_uris":{"android":"levelo://app?vid=c7214087-f338-4aa0-87d4-4c782ee32a35","ios":"levelo://app?vid=c7214087-f338-4aa0-87d4-4c782ee32a35"},"vehicle_type_id":"4","last_reported":1739110011,"current_range_meters":11600,"station_id":"ce4bhi12rcd13ifvqfp0","pricing_plan_id":"cebpf4jnsgd1na2vs0mg"},{"bike_id":"9232cd87-0823-43a9-b923-e060fb0c5759","system_id":"levelo_inurba_marseille","lat":43.29558,"lon":5.42284,"is_reserved":false,"is_disabled":false,"rental_uris":{"android":"levelo://app?vid=9232cd87-0823-43a9-b923-e060fb0c5759","ios":"levelo://app?vid=9232cd87-0823-43a9-b923-e060fb0c5759"},"vehicle_type_id":"4","last_reported":1739110011,"current_range_meters":37600,"station_id":"ce4bhph2rcd13ifvqhdg","pricing_plan_id":"cebpf4jnsgd1na2vs0mg"},{"bike_id":"d4487369-0195-444c-afeb-c4fba3a9e41f","system_id":"levelo_inurba_marseille","lat":43.23968,"lon":5.36619,"is_reserved":false,"is_disabled":false,"rental_uris":{"android":"levelo://app?vid=d4487369-0195-444c-afeb-c4fba3a9e41f","ios":"levelo://app?vid=d4487369-0195-444c-afeb-c4fba3a9e41f"},"vehicle_type_id":"4","last_reported":1739110011,"current_range_meters":10000,"station_id":"ce4bhi12rcd13ifvqfp0","pricing_plan_id":"cebpf4jnsgd1na2vs0mg"},{"bike_id":"1b91739e-6bd2-4273-8c8f-c0534d5b551b","system_id":"levelo_inurba_marseille","lat":43.23969,"lon":5.36596,"is_reserved":false,"is_disabled":false,"rental_uris":{"android":"levelo://app?vid=1b91739e-6bd2-4273-8c8f-c0534d5b551b","ios":"levelo://app?vid=1b91739e-6bd2-4273-8c8f-c0534d5b551b"},"vehicle_type_id":"4","last_reported":1739110011,"current_range_meters":29600,"station_id":"ce4bhi12rcd13ifvqfp0","pricing_plan_id":"cebpf4jnsgd1na2vs0mg"},{"bike_id":"284eeab3-4df9-4c7d-9c06-e43a8783d1eb","system_id":"levelo_inurba_marseille","lat":43.29505,"lon":5.37499,"is_reserved":false,"is_disabled":false,"rental_uris":{"android":"levelo://app?vid=284eeab3-4df9-4c7d-9c06-e43a8783d1eb","ios":"levelo://app?vid=284eeab3-4df9-4c7d-9c06-e43a8783d1eb"},"vehicle_type_id":"4","last_reported":1739110011,"current_range_meters":16000,"station_id":"ce4bgkp2rcd13ifvqbmg","pricing_plan_id":"cebpf4jnsgd1na2vs0mg"},{"bike_id":"131a231e-f87b-4a19-b215-3c107c31e242","system_id":"levelo_inurba_marseille","lat":43.27328,"lon":5.39105,"is_reserved":false,"is_disabled":false,"rental_uris":{"android":"levelo://app?vid=131a231e-f87b-4a19-b215-3c107c31e242","ios":"levelo://app?vid=131a231e-f87b-4a19-b215-3c107c31e242"},"vehicle_type_id":"4","last_reported":1739110011,"current_range_meters":25600,"station_id":"ce4bhgp2rcd13ifvqfe0","pricing_plan_id":"cebpf4jnsgd1na2vs0mg"},{"bike_id":"ebcc5714-777a-40f0-9a66-e5dbfbc13137","system_id":"levelo_inurba_marseille","lat":43.28457,"lon":5.35886,"is_reserved":false,"is_disabled":false,"rental_uris":{"android":"levelo://app?vid=ebcc5714-777a-40f0-9a66-e5dbfbc13137","ios":"levelo://app?vid=ebcc5714-777a-40f0-9a66-e5dbfbc13137"},"vehicle_type_id":"4","last_reported":1739110011,"current_range_meters":9200,"station_id":"ce4bhah2rcd13ifvqei0","pricing_plan_id":"cebpf4jnsgd1na2vs0mg"},{"bike_id":"2d6a2e4c-47bb-4bf8-8e22-1e9c987f8b16","system_id":"levelo_inurba_marseille","lat":43.23961,"lon":5.3664,"is_reserved":false,"is_disabled":false,"rental_uris":{"android":"levelo://app?vid=2d6a2e4c-47bb-4bf8-8e22-1e9c987f8b16","ios":"levelo://app?vid=2d6a2e4c-47bb-4bf8-8e22-1e9c987f8b16"},"vehicle_type_id":"4","last_reported":1739110011,"current_range_meters":8000,"station_id":"ce4bhi12rcd13ifvqfp0","pricing_plan_id":"cebpf4jnsgd1na2vs0mg"},{"bike_id":"c2a3b6b7-e7de-44c9-8c29-2719a13276b8","system_id":"levelo_inurba_marseille","lat":43.29692,"lon":5.36588,"is_reserved":false,"is_disabled":false,"rental_uris":{"android":"levelo://app?vid=c2a3b6b7-e7de-44c9-8c29-2719a13276b8","ios":"levelo://app?vid=c2a3b6b7-e7de-44c9-8c29-2719a13276b8"},"vehicle_type_id":"4","last_reported":1739110011,"current_range_meters":10000,"station_id":"ce4bgn12rcd13ifvqbt0","pricing_plan_id":"cebpf4jnsgd1na2vs0mg"},{"bike_id":"098d220b-e449-43ea-8d6d-9fc78e0abad9","system_id":"levelo_inurba_marseille","lat":43.2295,"lon":5.35389,"is_reserved":false,"is_disabled":false,"rental_uris":{"android":"levelo://app?vid=098d220b-e449-43ea-8d6d-9fc78e0abad9","ios":"levelo://app?vid=098d220b-e449-43ea-8d6d-9fc78e0abad9"},"vehicle_type_id":"4","last_reported":1739110011,"current_range_meters":38800,"station_id":"cpo3532slgdg3j2ikp40","pricing_plan_id":"cebpf4jnsgd1na2vs0mg"},{"bike_id":"206b044f-638d-4c7a-aa69-bbee71179c84","system_id":"levelo_inurba_marseille","lat":43.293746,"lon":5.378576,"is_reserved":false,"is_disabled":false,"rental_uris":{"android":"levelo://app?vid=206b044f-638d-4c7a-aa69-bbee71179c84","ios":"levelo://app?vid=206b044f-638d-4c7a-aa69-bbee71179c84"},"vehicle_type_id":"4","last_reported":1739110011,"current_range_meters":38000,"station_id":"ce4bgjh2rcd13ifvqbf0","pricing_plan_id":"cebpf4jnsgd1na2vs0mg"},{"bike_id":"891a4e48-f5a6-4259-abe6-95f26a633430","system_id":"levelo_inurba_marseille","lat":43.292,"lon":5.35792,"is_reserved":false,"is_disabled":false,"rental_uris":{"android":"levelo://app?vid=891a4e48-f5a6-4259-abe6-95f26a633430","ios":"levelo://app?vid=891a4e48-f5a6-4259-abe6-95f26a633430"},"vehicle_type_id":"4","last_reported":1739110011,"current_range_meters":36000,"station_id":"ce4bhb12rcd13ifvqel0","pricing_plan_id":"cebpf4jnsgd1na2vs0mg"},{"bike_id":"6e4211e5-f61d-48a8-9a3a-370ad923a5ac","system_id":"levelo_inurba_marseille","lat":43.25099,"lon":5.39498,"is_reserved":false,"is_disabled":false,"rental_uris":{"android":"levelo://app?vid=6e4211e5-f61d-48a8-9a3a-370ad923a5ac","ios":"levelo://app?vid=6e4211e5-f61d-48a8-9a3a-370ad923a5ac"},"vehicle_type_id":"4","last_reported":1739110011,"current_range_meters":29600,"station_id":"ce4bhm12rcd13ifvqgkg","pricing_plan_id":"cebpf4jnsgd1na2vs0mg"},{"bike_id":"156ea94b-36f5-4ee3-b1b2-16c507ebbc8e","system_id":"levelo_inurba_marseille","lat":43.23964,"lon":5.36641,"is_reserved":false,"is_disabled":false,"rental_uris":{"android":"levelo://app?vid=156ea94b-36f5-4ee3-b1b2-16c507ebbc8e","ios":"levelo://app?vid=156ea94b-36f5-4ee3-b1b2-16c507ebbc8e"},"vehicle_type_id":"4","last_reported":1739110011,"current_range_meters":35200,"station_id":"ce4bhi12rcd13ifvqfp0","pricing_plan_id":"cebpf4jnsgd1na2vs0mg"},{"bike_id":"109d8d07-d605-45c4-912d-3e7b38f9a9ae","system_id":"levelo_inurba_marseille","lat":43.24168,"lon":5.36388,"is_reserved":false,"is_disabled":false,"rental_uris":{"android":"levelo://app?vid=109d8d07-d605-45c4-912d-3e7b38f9a9ae","ios":"levelo://app?vid=109d8d07-d605-45c4-912d-3e7b38f9a9ae"},"vehicle_type_id":"4","last_reported":1739110011,"current_range_meters":38800,"station_id":"cpo36qri1sfpv3e86is0","pricing_plan_id":"cebpf4jnsgd1na2vs0mg"},{"bike_id":"eeada6f9-bc17-47bf-a657-75c63cc565ad","system_id":"levelo_inurba_marseille","lat":43.28998,"lon":5.35617,"is_reserved":false,"is_disabled":true,"rental_uris":{"android":"levelo://app?vid=eeada6f9-bc17-47bf-a657-75c63cc565ad","ios":"levelo://app?vid=eeada6f9-bc17-47bf-a657-75c63cc565ad"},"vehicle_type_id":"4","last_reported":1739110011,"current_range_meters":38400,"station_id":"ce4bhb92rcd13ifvqen0","pricing_plan_id":"cebpf4jnsgd1na2vs0mg"},{"bike_id":"2ebd233c-fd15-4f13-9700-c155c053523f","system_id":"levelo_inurba_marseille","lat":43.25934,"lon":5.40895,"is_reserved":false,"is_disabled":true,"rental_uris":{"android":"levelo://app?vid=2ebd233c-fd15-4f13-9700-c155c053523f","ios":"levelo://app?vid=2ebd233c-fd15-4f13-9700-c155c053523f"},"vehicle_type_id":"4","last_reported":1739110011,"current_range_meters":18800,"station_id":"ce4bhm92rcd13ifvqglg","pricing_plan_id":"cebpf4jnsgd1na2vs0mg"},{"bike_id":"b76b80a4-ff95-4c8b-ba39-e983a8872cf2","system_id":"levelo_inurba_marseille","lat":43.30152,"lon":5.38085,"is_reserved":false,"is_disabled":false,"rental_uris":{"android":"levelo://app?vid=b76b80a4-ff95-4c8b-ba39-e983a8872cf2","ios":"levelo://app?vid=b76b80a4-ff95-4c8b-ba39-e983a8872cf2"},"vehicle_type_id":"4","last_reported":1739110011,"current_range_meters":30000,"station_id":"ce4bgjp2rcd13ifvqbh0","pricing_plan_id":"cebpf4jnsgd1na2vs0mg"},{"bike_id":"74ce1f30-7087-4781-a72b-9acb38ea1cbd","system_id":"levelo_inurba_marseille","lat":43.29799,"lon":5.38096,"is_reserved":false,"is_disabled":false,"rental_uris":{"android":"levelo://app?vid=74ce1f30-7087-4781-a72b-9acb38ea1cbd","ios":"levelo://app?vid=74ce1f30-7087-4781-a72b-9acb38ea1cbd"},"vehicle_type_id":"4","last_reported":1739110011,"current_range_meters":29600,"station_id":"ce4bgip2rcd13ifvqbb0","pricing_plan_id":"cebpf4jnsgd1na2vs0mg"},{"bike_id":"eaa1ee80-0cf5-4c60-941a-bc49899172ba","system_id":"levelo_inurba_marseille","lat":43.3015,"lon":5.38085,"is_reserved":false,"is_disabled":false,"rental_uris":{"android":"levelo://app?vid=eaa1ee80-0cf5-4c60-941a-bc49899172ba","ios":"levelo://app?vid=eaa1ee80-0cf5-4c60-941a-bc49899172ba"},"vehicle_type_id":"4","last_reported":1739110011,"current_range_meters":36800,"station_id":"ce4bgjp2rcd13ifvqbh0","pricing_plan_id":"cebpf4jnsgd1na2vs0mg"},{"bike_id":"c13ae62e-d5d6-4d3f-b979-0be4fe4644ed","system_id":"levelo_inurba_marseille","lat":43.24652,"lon":5.38156,"is_reserved":false,"is_disabled":false,"rental_uris":{"android":"levelo://app?vid=c13ae62e-d5d6-4d3f-b979-0be4fe4644ed","ios":"levelo://app?vid=c13ae62e-d5d6-4d3f-b979-0be4fe4644ed"},"vehicle_type_id":"4","last_reported":1739110011,"current_range_meters":15200,"station_id":"ce4bhih2rcd13ifvqfr0","pricing_plan_id":"cebpf4jnsgd1na2vs0mg"},{"bike_id":"52903de9-70f0-4e1d-962c-f2dd54b59ea4","system_id":"levelo_inurba_marseille","lat":43.28712,"lon":5.3609,"is_reserved":false,"is_disabled":false,"rental_uris":{"android":"levelo://app?vid=52903de9-70f0-4e1d-962c-f2dd54b59ea4","ios":"levelo://app?vid=52903de9-70f0-4e1d-962c-f2dd54b59ea4"},"vehicle_type_id":"4","last_reported":1739110011,"current_range_meters":28000,"station_id":"cki0cbj6b192h4jlfktg","pricing_plan_id":"cebpf4jnsgd1na2vs0mg"},{"bike_id":"a5a002b6-a257-47c5-aa17-011a49f423c9","system_id":"levelo_inurba_marseille","lat":43.25582,"lon":5.38223,"is_reserved":false,"is_disabled":false,"rental_uris":{"android":"levelo://app?vid=a5a002b6-a257-47c5-aa17-011a49f423c9","ios":"levelo://app?vid=a5a002b6-a257-47c5-aa17-011a49f423c9"},"vehicle_type_id":"4","last_reported":1739110011,"current_range_meters":25200,"station_id":"ce4bhih2rcd13ifvqfs0","pricing_plan_id":"cebpf4jnsgd1na2vs0mg"},{"bike_id":"1d9b9c9d-363a-40b7-904e-bb37859e7849","system_id":"levelo_inurba_marseille","lat":43.248035,"lon":5.374851,"is_reserved":false,"is_disabled":false,"rental_uris":{"android":"levelo://app?vid=1d9b9c9d-363a-40b7-904e-bb37859e7849","ios":"levelo://app?vid=1d9b9c9d-363a-40b7-904e-bb37859e7849"},"vehicle_type_id":"4","last_reported":1739110011,"current_range_meters":24000,"station_id":"ce4bhgh2rcd13ifvqfb0","pricing_plan_id":"cebpf4jnsgd1na2vs0mg"},{"bike_id":"0e21fd9b-c8ed-40f7-93de-fef88c8b1a35","system_id":"levelo_inurba_marseille","lat":43.23063,"lon":5.35498,"is_reserved":false,"is_disabled":false,"rental_uris":{"android":"levelo://app?vid=0e21fd9b-c8ed-40f7-93de-fef88c8b1a35","ios":"levelo://app?vid=0e21fd9b-c8ed-40f7-93de-fef88c8b1a35"},"vehicle_type_id":"4","last_reported":1739110011,"current_range_meters":37600,"station_id":"cpo3342slgdg3j2ifvpg","pricing_plan_id":"cebpf4jnsgd1na2vs0mg"},{"bike_id":"f805c866-e4f1-4866-9b53-ff9d19041415","system_id":"levelo_inurba_marseille","lat":43.29554,"lon":5.42255,"is_reserved":false,"is_disabled":false,"rental_uris":{"android":"levelo://app?vid=f805c866-e4f1-4866-9b53-ff9d19041415","ios":"levelo://app?vid=f805c866-e4f1-4866-9b53-ff9d19041415"},"vehicle_type_id":"4","last_reported":1739110011,"current_range_meters":19200,"station_id":"ce4bhph2rcd13ifvqhdg","pricing_plan_id":"cebpf4jnsgd1na2vs0mg"},{"bike_id":"89912e32-c5f0-448f-82d2-e236e4d6d653","system_id":"levelo_inurba_marseille","lat":43.28261,"lon":5.40793,"is_reserved":false,"is_disabled":true,"rental_uris":{"android":"levelo://app?vid=89912e32-c5f0-448f-82d2-e236e4d6d653","ios":"levelo://app?vid=89912e32-c5f0-448f-82d2-e236e4d6d653"},"vehicle_type_id":"4","last_reported":1739110011,"current_range_meters":0,"station_id":"","pricing_plan_id":"cebpf4jnsgd1na2vs0mg"},{"bike_id":"ae690fe6-32ff-46d9-b82e-285fa5c95144","system_id":"levelo_inurba_marseille","lat":43.26801,"lon":5.3941,"is_reserved":false,"is_disabled":false,"rental_uris":{"android":"levelo://app?vid=ae690fe6-32ff-46d9-b82e-285fa5c95144","ios":"levelo://app?vid=ae690fe6-32ff-46d9-b82e-285fa5c95144"},"vehicle_type_id":"4","last_reported":1739110011,"current_range_meters":20800,"station_id":"ce4bhh12rcd13ifvqfg0","pricing_plan_id":"cebpf4jnsgd1na2vs0mg"},{"bike_id":"062024d1-2bb5-402b-8705-9a5647beec8a","system_id":"levelo_inurba_marseille","lat":43.298587,"lon":5.363053,"is_reserved":false,"is_disabled":false,"rental_uris":{"android":"levelo://app?vid=062024d1-2bb5-402b-8705-9a5647beec8a","ios":"levelo://app?vid=062024d1-2bb5-402b-8705-9a5647beec8a"},"vehicle_type_id":"4","last_reported":1739110011,"current_range_meters":17600,"station_id":"ce4bgpp2rcd13ifvqc3g","pricing_plan_id":"cebpf4jnsgd1na2vs0mg"},{"bike_id":"e7e14db6-3bef-453a-aab6-06ade3cdd6b0","system_id":"levelo_inurba_marseille","lat":43.24404,"lon":5.44112,"is_reserved":false,"is_disabled":true,"rental_uris":{"android":"levelo://app?vid=e7e14db6-3bef-453a-aab6-06ade3cdd6b0","ios":"levelo://app?vid=e7e14db6-3bef-453a-aab6-06ade3cdd6b0"},"vehicle_type_id":"4","last_reported":1739110011,"current_range_meters":0,"station_id":"","pricing_plan_id":"cebpf4jnsgd1na2vs0mg"},{"bike_id":"54f8e3ef-3807-437e-9738-7425b11f66eb","system_id":"levelo_inurba_marseille","lat":43.29619,"lon":5.37154,"is_reserved":false,"is_disabled":false,"rental_uris":{"android":"levelo://app?vid=54f8e3ef-3807-437e-9738-7425b11f66eb","ios":"levelo://app?vid=54f8e3ef-3807-437e-9738-7425b11f66eb"},"vehicle_type_id":"4","last_reported":1739110011,"current_range_meters":18000,"station_id":"ce4bgnh2rcd13ifvqc0g","pricing_plan_id":"cebpf4jnsgd1na2vs0mg"},{"bike_id":"fb5a704f-a51b-458c-a6e9-f5586a789b94","system_id":"levelo_inurba_marseille","lat":43.24175,"lon":5.36423,"is_reserved":false,"is_disabled":false,"rental_uris":{"android":"levelo://app?vid=fb5a704f-a51b-458c-a6e9-f5586a789b94","ios":"levelo://app?vid=fb5a704f-a51b-458c-a6e9-f5586a789b94"},"vehicle_type_id":"4","last_reported":1739110011,"current_range_meters":33600,"station_id":"cpo36qri1sfpv3e86is0","pricing_plan_id":"cebpf4jnsgd1na2vs0mg"},{"bike_id":"bfd84249-0515-4ab9-801d-3a8bb75b155d","system_id":"levelo_inurba_marseille","lat":43.2754,"lon":5.38432,"is_reserved":false,"is_disabled":false,"rental_uris":{"android":"levelo://app?vid=bfd84249-0515-4ab9-801d-3a8bb75b155d","ios":"levelo://app?vid=bfd84249-0515-4ab9-801d-3a8bb75b155d"},"vehicle_type_id":"4","last_reported":1739110011,"current_range_meters":37600,"station_id":"ce4bhh92rcd13ifvqfi0","pricing_plan_id":"cebpf4jnsgd1na2vs0mg"},{"bike_id":"badda3c4-70ef-41fb-b835-c3b6b3ba2d76","system_id":"levelo_inurba_marseille","lat":43.26492,"lon":5.39558,"is_reserved":false,"is_disabled":false,"rental_uris":{"android":"levelo://app?vid=badda3c4-70ef-41fb-b835-c3b6b3ba2d76","ios":"levelo://app?vid=badda3c4-70ef-41fb-b835-c3b6b3ba2d76"},"vehicle_type_id":"4","last_reported":1739110011,"current_range_meters":36000,"station_id":"ce4bhi12rcd13ifvqfq0","pricing_plan_id":"cebpf4jnsgd1na2vs0mg"},{"bike_id":"ab54e2d0-4c2c-486a-84c7-811ed9008ddc","system_id":"levelo_inurba_marseille","lat":43.27953,"lon":5.42362,"is_reserved":false,"is_disabled":true,"rental_uris":{"android":"levelo://app?vid=ab54e2d0-4c2c-486a-84c7-811ed9008ddc","ios":"levelo://app?vid=ab54e2d0-4c2c-486a-84c7-811ed9008ddc"},"vehicle_type_id":"4","last_reported":1739110011,"current_range_meters":0,"station_id":"","pricing_plan_id":"cebpf4jnsgd1na2vs0mg"},{"bike_id":"04e9976f-fc67-4b3f-9a5f-08268a5eb49c","system_id":"levelo_inurba_marseille","lat":43.29415,"lon":5.38617,"is_reserved":false,"is_disabled":true,"rental_uris":{"android":"levelo://app?vid=04e9976f-fc67-4b3f-9a5f-08268a5eb49c","ios":"levelo://app?vid=04e9976f-fc67-4b3f-9a5f-08268a5eb49c"},"vehicle_type_id":"4","last_reported":1739110011,"current_range_meters":36800,"station_id":"ce4bh2h2rcd13ifvqdh0","pricing_plan_id":"cebpf4jnsgd1na2vs0mg"},{"bike_id":"c446fe99-7ab5-4250-9743-1aee425c6247","system_id":"levelo_inurba_marseille","lat":43.25579,"lon":5.38239,"is_reserved":false,"is_disabled":false,"rental_uris":{"android":"levelo://app?vid=c446fe99-7ab5-4250-9743-1aee425c6247","ios":"levelo://app?vid=c446fe99-7ab5-4250-9743-1aee425c6247"},"vehicle_type_id":"4","last_reported":1739110011,"current_range_meters":25200,"station_id":"ce4bhih2rcd13ifvqfs0","pricing_plan_id":"cebpf4jnsgd1na2vs0mg"},{"bike_id":"cbccc61a-25e9-4647-b1e3-7a80faf94196","system_id":"levelo_inurba_marseille","lat":43.28728,"lon":5.39999,"is_reserved":false,"is_disabled":true,"rental_uris":{"android":"levelo://app?vid=cbccc61a-25e9-4647-b1e3-7a80faf94196","ios":"levelo://app?vid=cbccc61a-25e9-4647-b1e3-7a80faf94196"},"vehicle_type_id":"4","last_reported":1739110011,"current_range_meters":38400,"station_id":"ce4bho92rcd13ifvqh3g","pricing_plan_id":"cebpf4jnsgd1na2vs0mg"},{"bike_id":"b5135d91-2dbc-4326-bda2-20e06e74cbe2","system_id":"levelo_inurba_marseille","lat":43.29584,"lon":5.37026,"is_reserved":false,"is_disabled":false,"rental_uris":{"android":"levelo://app?vid=b5135d91-2dbc-4326-bda2-20e06e74cbe2","ios":"levelo://app?vid=b5135d91-2dbc-4326-bda2-20e06e74cbe2"},"vehicle_type_id":"4","last_reported":1739110011,"current_range_meters":16400,"station_id":"","pricing_plan_id":"cebpf4jnsgd1na2vs0mg"},{"bike_id":"bb1bab95-412e-41ba-879a-c483b6ec0924","system_id":"levelo_inurba_marseille","lat":43.27831,"lon":5.40723,"is_reserved":false,"is_disabled":false,"rental_uris":{"android":"levelo://app?vid=bb1bab95-412e-41ba-879a-c483b6ec0924","ios":"levelo://app?vid=bb1bab95-412e-41ba-879a-c483b6ec0924"},"vehicle_type_id":"4","last_reported":1739110011,"current_range_meters":9200,"station_id":"ce4bhnh2rcd13ifvqgtg","pricing_plan_id":"cebpf4jnsgd1na2vs0mg"},{"bike_id":"6e358927-ff7d-49ba-8b74-937ec069bd4e","system_id":"levelo_inurba_marseille","lat":43.28619,"lon":5.35104,"is_reserved":false,"is_disabled":false,"rental_uris":{"android":"levelo://app?vid=6e358927-ff7d-49ba-8b74-937ec069bd4e","ios":"levelo://app?vid=6e358927-ff7d-49ba-8b74-937ec069bd4e"},"vehicle_type_id":"4","last_reported":1739110011,"current_range_meters":16400,"station_id":"ce4bhch2rcd13ifvqeug","pricing_plan_id":"cebpf4jnsgd1na2vs0mg"},{"bike_id":"3600cf6e-b370-46a9-a53c-871abbc03398","system_id":"levelo_inurba_marseille","lat":43.28268,"lon":5.3508,"is_reserved":false,"is_disabled":true,"rental_uris":{"android":"levelo://app?vid=3600cf6e-b370-46a9-a53c-871abbc03398","ios":"levelo://app?vid=3600cf6e-b370-46a9-a53c-871abbc03398"},"vehicle_type_id":"4","last_reported":1739110011,"current_range_meters":38800,"station_id":"ce4bhbp2rcd13ifvqerg","pricing_plan_id":"cebpf4jnsgd1na2vs0mg"},{"bike_id":"9ee17cc6-94b6-42f9-a180-22e25ec3ed8d","system_id":"levelo_inurba_marseille","lat":43.28705,"lon":5.37389,"is_reserved":false,"is_disabled":true,"rental_uris":{"android":"levelo://app?vid=9ee17cc6-94b6-42f9-a180-22e25ec3ed8d","ios":"levelo://app?vid=9ee17cc6-94b6-42f9-a180-22e25ec3ed8d"},"vehicle_type_id":"4","last_reported":1739110011,"current_range_meters":8400,"station_id":"ce4bh3p2rcd13ifvqdq0","pricing_plan_id":"cebpf4jnsgd1na2vs0mg"},{"bike_id":"599ac96d-0531-436c-8d87-3a3fbbacb74c","system_id":"levelo_inurba_marseille","lat":43.23154,"lon":5.43698,"is_reserved":false,"is_disabled":true,"rental_uris":{"android":"levelo://app?vid=599ac96d-0531-436c-8d87-3a3fbbacb74c","ios":"levelo://app?vid=599ac96d-0531-436c-8d87-3a3fbbacb74c"},"vehicle_type_id":"4","last_reported":1739110011,"current_range_meters":800,"station_id":"ce4bhmp2rcd13ifvqgog","pricing_plan_id":"cebpf4jnsgd1na2vs0mg"},{"bike_id":"6e55f6b2-de3d-41aa-9621-b9d4915806e6","system_id":"levelo_inurba_marseille","lat":43.2826,"lon":5.35055,"is_reserved":false,"is_disabled":false,"rental_uris":{"android":"levelo://app?vid=6e55f6b2-de3d-41aa-9621-b9d4915806e6","ios":"levelo://app?vid=6e55f6b2-de3d-41aa-9621-b9d4915806e6"},"vehicle_type_id":"4","last_reported":1739110011,"current_range_meters":30800,"station_id":"ce4bhbp2rcd13ifvqerg","pricing_plan_id":"cebpf4jnsgd1na2vs0mg"},{"bike_id":"4913b8b5-d6bb-4003-9626-2e55d74c370d","system_id":"levelo_inurba_marseille","lat":43.2395,"lon":5.36633,"is_reserved":false,"is_disabled":false,"rental_uris":{"android":"levelo://app?vid=4913b8b5-d6bb-4003-9626-2e55d74c370d","ios":"levelo://app?vid=4913b8b5-d6bb-4003-9626-2e55d74c370d"},"vehicle_type_id":"4","last_reported":1739110011,"current_range_meters":10800,"station_id":"ce4bhi12rcd13ifvqfp0","pricing_plan_id":"cebpf4jnsgd1na2vs0mg"},{"bike_id":"f63f0aff-2b4d-4c3e-81f4-d1b485596d1b","system_id":"levelo_inurba_marseille","lat":43.29303,"lon":5.37186,"is_reserved":false,"is_disabled":false,"rental_uris":{"android":"levelo://app?vid=f63f0aff-2b4d-4c3e-81f4-d1b485596d1b","ios":"levelo://app?vid=f63f0aff-2b4d-4c3e-81f4-d1b485596d1b"},"vehicle_type_id":"4","last_reported":1739110011,"current_range_meters":13600,"station_id":"ce4bgh92rcd13ifvqb40","pricing_plan_id":"cebpf4jnsgd1na2vs0mg"},{"bike_id":"187375a2-49e4-46d1-b02c-429ac3db4d24","system_id":"levelo_inurba_marseille","lat":43.28602,"lon":5.35109,"is_reserved":false,"is_disabled":false,"rental_uris":{"android":"levelo://app?vid=187375a2-49e4-46d1-b02c-429ac3db4d24","ios":"levelo://app?vid=187375a2-49e4-46d1-b02c-429ac3db4d24"},"vehicle_type_id":"4","last_reported":1739110011,"current_range_meters":24000,"station_id":"ce4bhch2rcd13ifvqeug","pricing_plan_id":"cebpf4jnsgd1na2vs0mg"},{"bike_id":"0ccae692-16fa-48e3-88e0-236b5491d838","system_id":"levelo_inurba_marseille","lat":43.33753,"lon":5.39174,"is_reserved":false,"is_disabled":false,"rental_uris":{"android":"levelo://app?vid=0ccae692-16fa-48e3-88e0-236b5491d838","ios":"levelo://app?vid=0ccae692-16fa-48e3-88e0-236b5491d838"},"vehicle_type_id":"4","last_reported":1739110011,"current_range_meters":38800,"station_id":"ce4bhr92rcd13ifvqhsg","pricing_plan_id":"cebpf4jnsgd1na2vs0mg"},{"bike_id":"3387e857-76e8-4fc1-a1cf-94655f3cc3c6","system_id":"levelo_inurba_marseille","lat":43.23956,"lon":5.3663,"is_reserved":false,"is_disabled":false,"rental_uris":{"android":"levelo://app?vid=3387e857-76e8-4fc1-a1cf-94655f3cc3c6","ios":"levelo://app?vid=3387e857-76e8-4fc1-a1cf-94655f3cc3c6"},"vehicle_type_id":"4","last_reported":1739110011,"current_range_meters":27600,"station_id":"ce4bhi12rcd13ifvqfp0","pricing_plan_id":"cebpf4jnsgd1na2vs0mg"},{"bike_id":"c5b8b027-9bf6-441c-a68a-dc9052c14d78","system_id":"levelo_inurba_marseille","lat":43.25635,"lon":5.38147,"is_reserved":false,"is_disabled":false,"rental_uris":{"android":"levelo://app?vid=c5b8b027-9bf6-441c-a68a-dc9052c14d78","ios":"levelo://app?vid=c5b8b027-9bf6-441c-a68a-dc9052c14d78"},"vehicle_type_id":"4","last_reported":1739110011,"current_range_meters":27600,"station_id":"ce4bhih2rcd13ifvqfs0","pricing_plan_id":"cebpf4jnsgd1na2vs0mg"},{"bike_id":"fb4ff991-8c44-4e6e-9881-23d19b1c7472","system_id":"levelo_inurba_marseille","lat":43.29097,"lon":5.38141,"is_reserved":false,"is_disabled":true,"rental_uris":{"android":"levelo://app?vid=fb4ff991-8c44-4e6e-9881-23d19b1c7472","ios":"levelo://app?vid=fb4ff991-8c44-4e6e-9881-23d19b1c7472"},"vehicle_type_id":"4","last_reported":1739110011,"current_range_meters":36400,"station_id":"ce4bh512rcd13ifvqe2g","pricing_plan_id":"cebpf4jnsgd1na2vs0mg"},{"bike_id":"11462a5d-f3b5-4ed0-8ffe-90ff24433c8c","system_id":"levelo_inurba_marseille","lat":43.28423,"lon":5.34986,"is_reserved":false,"is_disabled":false,"rental_uris":{"android":"levelo://app?vid=11462a5d-f3b5-4ed0-8ffe-90ff24433c8c","ios":"levelo://app?vid=11462a5d-f3b5-4ed0-8ffe-90ff24433c8c"},"vehicle_type_id":"4","last_reported":1739110011,"current_range_meters":25600,"station_id":"ce4bhbh2rcd13ifvqepg","pricing_plan_id":"cebpf4jnsgd1na2vs0mg"},{"bike_id":"5bbe3b48-bb99-43e1-855c-4fcddccfbfa8","system_id":"levelo_inurba_marseille","lat":43.29274,"lon":5.40113,"is_reserved":false,"is_disabled":false,"rental_uris":{"android":"levelo://app?vid=5bbe3b48-bb99-43e1-855c-4fcddccfbfa8","ios":"levelo://app?vid=5bbe3b48-bb99-43e1-855c-4fcddccfbfa8"},"vehicle_type_id":"4","last_reported":1739110011,"current_range_meters":25200,"station_id":"ce4bh312rcd13ifvqdk0","pricing_plan_id":"cebpf4jnsgd1na2vs0mg"},{"bike_id":"767abe10-f6fd-4a71-a21f-02aadb380fdf","system_id":"levelo_inurba_marseille","lat":43.29516,"lon":5.375,"is_reserved":false,"is_disabled":true,"rental_uris":{"android":"levelo://app?vid=767abe10-f6fd-4a71-a21f-02aadb380fdf","ios":"levelo://app?vid=767abe10-f6fd-4a71-a21f-02aadb380fdf"},"vehicle_type_id":"4","last_reported":1739110011,"current_range_meters":32400,"station_id":"ce4bgkp2rcd13ifvqbmg","pricing_plan_id":"cebpf4jnsgd1na2vs0mg"},{"bike_id":"0e83b365-6dc2-4bd3-a9f0-472f67dc989e","system_id":"levelo_inurba_marseille","lat":43.25002,"lon":5.38927,"is_reserved":false,"is_disabled":false,"rental_uris":{"android":"levelo://app?vid=0e83b365-6dc2-4bd3-a9f0-472f67dc989e","ios":"levelo://app?vid=0e83b365-6dc2-4bd3-a9f0-472f67dc989e"},"vehicle_type_id":"4","last_reported":1739110011,"current_range_meters":38800,"station_id":"ce4bhgp2rcd13ifvqfd0","pricing_plan_id":"cebpf4jnsgd1na2vs0mg"},{"bike_id":"262d9a53-2997-44d9-bd6f-d49fa495e433","system_id":"levelo_inurba_marseille","lat":43.23195,"lon":5.35558,"is_reserved":false,"is_disabled":false,"rental_uris":{"android":"levelo://app?vid=262d9a53-2997-44d9-bd6f-d49fa495e433","ios":"levelo://app?vid=262d9a53-2997-44d9-bd6f-d49fa495e433"},"vehicle_type_id":"4","last_reported":1739110011,"current_range_meters":38800,"station_id":"ce4bhu92rcd13ifvqi70","pricing_plan_id":"cebpf4jnsgd1na2vs0mg"},{"bike_id":"f67b7531-6c63-4f46-a9d4-4fdf588facb0","system_id":"levelo_inurba_marseille","lat":43.27874,"lon":5.40597,"is_reserved":false,"is_disabled":true,"rental_uris":{"android":"levelo://app?vid=f67b7531-6c63-4f46-a9d4-4fdf588facb0","ios":"levelo://app?vid=f67b7531-6c63-4f46-a9d4-4fdf588facb0"},"vehicle_type_id":"4","last_reported":1739110011,"current_range_meters":0,"station_id":"","pricing_plan_id":"cebpf4jnsgd1na2vs0mg"},{"bike_id":"28bc2108-0dbe-4972-a4ae-3060201c5ec2","system_id":"levelo_inurba_marseille","lat":43.28422,"lon":5.3499,"is_reserved":false,"is_disabled":false,"rental_uris":{"android":"levelo://app?vid=28bc2108-0dbe-4972-a4ae-3060201c5ec2","ios":"levelo://app?vid=28bc2108-0dbe-4972-a4ae-3060201c5ec2"},"vehicle_type_id":"4","last_reported":1739110011,"current_range_meters":23200,"station_id":"ce4bhbh2rcd13ifvqepg","pricing_plan_id":"cebpf4jnsgd1na2vs0mg"},{"bike_id":"7f31d7c4-4ea2-4b54-86ad-d037d2abec18","system_id":"levelo_inurba_marseille","lat":43.25494,"lon":5.37637,"is_reserved":false,"is_disabled":false,"rental_uris":{"android":"levelo://app?vid=7f31d7c4-4ea2-4b54-86ad-d037d2abec18","ios":"levelo://app?vid=7f31d7c4-4ea2-4b54-86ad-d037d2abec18"},"vehicle_type_id":"4","last_reported":1739110011,"current_range_meters":3600,"station_id":"ce4bhh12rcd13ifvqff0","pricing_plan_id":"cebpf4jnsgd1na2vs0mg"},{"bike_id":"a1ff6a73-36b2-4a61-a88f-8f0cc16371c7","system_id":"levelo_inurba_marseille","lat":43.26217,"lon":5.40457,"is_reserved":false,"is_disabled":false,"rental_uris":{"android":"levelo://app?vid=a1ff6a73-36b2-4a61-a88f-8f0cc16371c7","ios":"levelo://app?vid=a1ff6a73-36b2-4a61-a88f-8f0cc16371c7"},"vehicle_type_id":"4","last_reported":1739110011,"current_range_meters":28400,"station_id":"ce4bhmh2rcd13ifvqgmg","pricing_plan_id":"cebpf4jnsgd1na2vs0mg"},{"bike_id":"74dda318-1b0b-46a6-82cc-20741b70a914","system_id":"levelo_inurba_marseille","lat":43.29308,"lon":5.37464,"is_reserved":false,"is_disabled":true,"rental_uris":{"android":"levelo://app?vid=74dda318-1b0b-46a6-82cc-20741b70a914","ios":"levelo://app?vid=74dda318-1b0b-46a6-82cc-20741b70a914"},"vehicle_type_id":"4","last_reported":1739110011,"current_range_meters":21600,"station_id":"ce4bgi12rcd13ifvqb70","pricing_plan_id":"cebpf4jnsgd1na2vs0mg"},{"bike_id":"488c0f88-f522-4244-bd79-131e248eb6f1","system_id":"levelo_inurba_marseille","lat":43.27377,"lon":5.3626,"is_reserved":false,"is_disabled":false,"rental_uris":{"android":"levelo://app?vid=488c0f88-f522-4244-bd79-131e248eb6f1","ios":"levelo://app?vid=488c0f88-f522-4244-bd79-131e248eb6f1"},"vehicle_type_id":"4","last_reported":1739110011,"current_range_meters":23200,"station_id":"ce4bhbh2rcd13ifvqeo0","pricing_plan_id":"cebpf4jnsgd1na2vs0mg"},{"bike_id":"1c006256-7530-4a56-a25d-dca64c3573d8","system_id":"levelo_inurba_marseille","lat":43.28707,"lon":5.39965,"is_reserved":false,"is_disabled":true,"rental_uris":{"android":"levelo://app?vid=1c006256-7530-4a56-a25d-dca64c3573d8","ios":"levelo://app?vid=1c006256-7530-4a56-a25d-dca64c3573d8"},"vehicle_type_id":"4","last_reported":1739110011,"current_range_meters":38800,"station_id":"ce4bho92rcd13ifvqh3g","pricing_plan_id":"cebpf4jnsgd1na2vs0mg"},{"bike_id":"c9e319fb-3ae8-4934-b4bc-31daa2dac128","system_id":"levelo_inurba_marseille","lat":43.23199,"lon":5.35551,"is_reserved":false,"is_disabled":false,"rental_uris":{"android":"levelo://app?vid=c9e319fb-3ae8-4934-b4bc-31daa2dac128","ios":"levelo://app?vid=c9e319fb-3ae8-4934-b4bc-31daa2dac128"},"vehicle_type_id":"4","last_reported":1739110011,"current_range_meters":11200,"station_id":"ce4bhu92rcd13ifvqi70","pricing_plan_id":"cebpf4jnsgd1na2vs0mg"},{"bike_id":"eeb1626b-d9a7-4181-8530-ac28fa96e047","system_id":"levelo_inurba_marseille","lat":43.2904,"lon":5.35915,"is_reserved":false,"is_disabled":false,"rental_uris":{"android":"levelo://app?vid=eeb1626b-d9a7-4181-8530-ac28fa96e047","ios":"levelo://app?vid=eeb1626b-d9a7-4181-8530-ac28fa96e047"},"vehicle_type_id":"4","last_reported":1739110011,"current_range_meters":30800,"station_id":"ce4bha92rcd13ifvqeg0","pricing_plan_id":"cebpf4jnsgd1na2vs0mg"},{"bike_id":"5c7479b7-7263-4b4c-a3b1-0d7fb0f411f8","system_id":"levelo_inurba_marseille","lat":43.3033,"lon":5.40424,"is_reserved":false,"is_disabled":true,"rental_uris":{"android":"levelo://app?vid=5c7479b7-7263-4b4c-a3b1-0d7fb0f411f8","ios":"levelo://app?vid=5c7479b7-7263-4b4c-a3b1-0d7fb0f411f8"},"vehicle_type_id":"4","last_reported":1739110011,"current_range_meters":36800,"station_id":"ce4bh012rcd13ifvqd10","pricing_plan_id":"cebpf4jnsgd1na2vs0mg"},{"bike_id":"23644462-c1de-4e99-a2e9-4d0c9cf86788","system_id":"levelo_inurba_marseille","lat":43.31257,"lon":5.36877,"is_reserved":false,"is_disabled":false,"rental_uris":{"android":"levelo://app?vid=23644462-c1de-4e99-a2e9-4d0c9cf86788","ios":"levelo://app?vid=23644462-c1de-4e99-a2e9-4d0c9cf86788"},"vehicle_type_id":"4","last_reported":1739110011,"current_range_meters":30400,"station_id":"ce4bgl92rcd13ifvqbq0","pricing_plan_id":"cebpf4jnsgd1na2vs0mg"},{"bike_id":"c3830605-578f-4c68-8b10-5553553277a4","system_id":"levelo_inurba_marseille","lat":43.29222,"lon":5.36052,"is_reserved":false,"is_disabled":false,"rental_uris":{"android":"levelo://app?vid=c3830605-578f-4c68-8b10-5553553277a4","ios":"levelo://app?vid=c3830605-578f-4c68-8b10-5553553277a4"},"vehicle_type_id":"4","last_reported":1739110011,"current_range_meters":38800,"station_id":"ce4bhbh2rcd13ifvqeqg","pricing_plan_id":"cebpf4jnsgd1na2vs0mg"},{"bike_id":"cc47104a-37c3-4201-9fd3-ee2c515962ad","system_id":"levelo_inurba_marseille","lat":43.2963,"lon":5.37723,"is_reserved":false,"is_disabled":false,"rental_uris":{"android":"levelo://app?vid=cc47104a-37c3-4201-9fd3-ee2c515962ad","ios":"levelo://app?vid=cc47104a-37c3-4201-9fd3-ee2c515962ad"},"vehicle_type_id":"4","last_reported":1739110011,"current_range_meters":22400,"station_id":"ce4bgi92rcd13ifvqb90","pricing_plan_id":"cebpf4jnsgd1na2vs0mg"},{"bike_id":"22669ad6-c05b-49c6-864d-bb442ac14c15","system_id":"levelo_inurba_marseille","lat":43.25931,"lon":5.40872,"is_reserved":false,"is_disabled":false,"rental_uris":{"android":"levelo://app?vid=22669ad6-c05b-49c6-864d-bb442ac14c15","ios":"levelo://app?vid=22669ad6-c05b-49c6-864d-bb442ac14c15"},"vehicle_type_id":"4","last_reported":1739110011,"current_range_meters":30400,"station_id":"ce4bhm92rcd13ifvqglg","pricing_plan_id":"cebpf4jnsgd1na2vs0mg"},{"bike_id":"fcdeb4c3-a370-4bbe-b810-04bff6eb26bd","system_id":"levelo_inurba_marseille","lat":43.26212,"lon":5.37437,"is_reserved":false,"is_disabled":false,"rental_uris":{"android":"levelo://app?vid=fcdeb4c3-a370-4bbe-b810-04bff6eb26bd","ios":"levelo://app?vid=fcdeb4c3-a370-4bbe-b810-04bff6eb26bd"},"vehicle_type_id":"4","last_reported":1739110011,"current_range_meters":16000,"station_id":"ce4bhgp2rcd13ifvqfc0","pricing_plan_id":"cebpf4jnsgd1na2vs0mg"},{"bike_id":"d65f63cc-0642-4df2-b1d3-b11f204a36a0","system_id":"levelo_inurba_marseille","lat":43.30148,"lon":5.38109,"is_reserved":false,"is_disabled":false,"rental_uris":{"android":"levelo://app?vid=d65f63cc-0642-4df2-b1d3-b11f204a36a0","ios":"levelo://app?vid=d65f63cc-0642-4df2-b1d3-b11f204a36a0"},"vehicle_type_id":"4","last_reported":1739110011,"current_range_meters":20800,"station_id":"ce4bgjp2rcd13ifvqbh0","pricing_plan_id":"cebpf4jnsgd1na2vs0mg"},{"bike_id":"6ea97db6-ec42-4dde-89e3-9620a3436d7b","system_id":"levelo_inurba_marseille","lat":43.29717,"lon":5.36603,"is_reserved":false,"is_disabled":false,"rental_uris":{"android":"levelo://app?vid=6ea97db6-ec42-4dde-89e3-9620a3436d7b","ios":"levelo://app?vid=6ea97db6-ec42-4dde-89e3-9620a3436d7b"},"vehicle_type_id":"4","last_reported":1739110011,"current_range_meters":30800,"station_id":"ce4bgn12rcd13ifvqbt0","pricing_plan_id":"cebpf4jnsgd1na2vs0mg"},{"bike_id":"c6fc4b4a-5347-4905-8d96-67ea4d004656","system_id":"levelo_inurba_marseille","lat":43.23192,"lon":5.35552,"is_reserved":false,"is_disabled":false,"rental_uris":{"android":"levelo://app?vid=c6fc4b4a-5347-4905-8d96-67ea4d004656","ios":"levelo://app?vid=c6fc4b4a-5347-4905-8d96-67ea4d004656"},"vehicle_type_id":"4","last_reported":1739110011,"current_range_meters":38800,"station_id":"ce4bhu92rcd13ifvqi70","pricing_plan_id":"cebpf4jnsgd1na2vs0mg"},{"bike_id":"1da8b17b-ad28-4780-a711-431647c244ed","system_id":"levelo_inurba_marseille","lat":43.23963,"lon":5.36622,"is_reserved":false,"is_disabled":false,"rental_uris":{"android":"levelo://app?vid=1da8b17b-ad28-4780-a711-431647c244ed","ios":"levelo://app?vid=1da8b17b-ad28-4780-a711-431647c244ed"},"vehicle_type_id":"4","last_reported":1739110011,"current_range_meters":20000,"station_id":"ce4bhi12rcd13ifvqfp0","pricing_plan_id":"cebpf4jnsgd1na2vs0mg"},{"bike_id":"4db540f8-cd4b-4806-a4df-b0cc3cd38217","system_id":"levelo_inurba_marseille","lat":43.27072,"lon":5.4228,"is_reserved":false,"is_disabled":false,"rental_uris":{"android":"levelo://app?vid=4db540f8-cd4b-4806-a4df-b0cc3cd38217","ios":"levelo://app?vid=4db540f8-cd4b-4806-a4df-b0cc3cd38217"},"vehicle_type_id":"4","last_reported":1739110011,"current_range_meters":26800,"station_id":"ce4bhk92rcd13ifvqgb0","pricing_plan_id":"cebpf4jnsgd1na2vs0mg"},{"bike_id":"7243d2a0-8cbd-4c75-9acd-ba6045d97ce5","system_id":"levelo_inurba_marseille","lat":43.232,"lon":5.35567,"is_reserved":false,"is_disabled":false,"rental_uris":{"android":"levelo://app?vid=7243d2a0-8cbd-4c75-9acd-ba6045d97ce5","ios":"levelo://app?vid=7243d2a0-8cbd-4c75-9acd-ba6045d97ce5"},"vehicle_type_id":"4","last_reported":1739110011,"current_range_meters":26800,"station_id":"ce4bhu92rcd13ifvqi70","pricing_plan_id":"cebpf4jnsgd1na2vs0mg"},{"bike_id":"f78952aa-a1e4-42f8-b5d2-31338580d315","system_id":"levelo_inurba_marseille","lat":43.23977,"lon":5.36586,"is_reserved":false,"is_disabled":false,"rental_uris":{"android":"levelo://app?vid=f78952aa-a1e4-42f8-b5d2-31338580d315","ios":"levelo://app?vid=f78952aa-a1e4-42f8-b5d2-31338580d315"},"vehicle_type_id":"4","last_reported":1739110011,"current_range_meters":11200,"station_id":"ce4bhi12rcd13ifvqfp0","pricing_plan_id":"cebpf4jnsgd1na2vs0mg"},{"bike_id":"985ea620-1838-4cc4-9f45-6622855b2de9","system_id":"levelo_inurba_marseille","lat":43.27998,"lon":5.4001,"is_reserved":false,"is_disabled":false,"rental_uris":{"android":"levelo://app?vid=985ea620-1838-4cc4-9f45-6622855b2de9","ios":"levelo://app?vid=985ea620-1838-4cc4-9f45-6622855b2de9"},"vehicle_type_id":"4","last_reported":1739110011,"current_range_meters":38400,"station_id":"ce4bho92rcd13ifvqh4g","pricing_plan_id":"cebpf4jnsgd1na2vs0mg"},{"bike_id":"b62dea62-0007-4bca-a1b0-d88bfab77dea","system_id":"levelo_inurba_marseille","lat":43.32481,"lon":5.36566,"is_reserved":false,"is_disabled":false,"rental_uris":{"android":"levelo://app?vid=b62dea62-0007-4bca-a1b0-d88bfab77dea","ios":"levelo://app?vid=b62dea62-0007-4bca-a1b0-d88bfab77dea"},"vehicle_type_id":"4","last_reported":1739110011,"current_range_meters":30400,"station_id":"ce4bhs12rcd13ifvqhvg","pricing_plan_id":"cebpf4jnsgd1na2vs0mg"},{"bike_id":"7997f132-65d2-48f4-bc19-7c1b4370a57c","system_id":"levelo_inurba_marseille","lat":43.27514,"lon":5.38455,"is_reserved":false,"is_disabled":false,"rental_uris":{"android":"levelo://app?vid=7997f132-65d2-48f4-bc19-7c1b4370a57c","ios":"levelo://app?vid=7997f132-65d2-48f4-bc19-7c1b4370a57c"},"vehicle_type_id":"4","last_reported":1739110011,"current_range_meters":27600,"station_id":"ce4bhhp2rcd13ifvqfm0","pricing_plan_id":"cebpf4jnsgd1na2vs0mg"},{"bike_id":"e897fb4c-c9e2-42ca-8ce0-bf3216e4eddd","system_id":"levelo_inurba_marseille","lat":43.26499,"lon":5.39537,"is_reserved":false,"is_disabled":false,"rental_uris":{"android":"levelo://app?vid=e897fb4c-c9e2-42ca-8ce0-bf3216e4eddd","ios":"levelo://app?vid=e897fb4c-c9e2-42ca-8ce0-bf3216e4eddd"},"vehicle_type_id":"4","last_reported":1739110011,"current_range_meters":25600,"station_id":"ce4bhi12rcd13ifvqfq0","pricing_plan_id":"cebpf4jnsgd1na2vs0mg"},{"bike_id":"b5bd88a6-2dbd-4008-898e-ffa26e3e4d24","system_id":"levelo_inurba_marseille","lat":43.26495,"lon":5.39532,"is_reserved":false,"is_disabled":false,"rental_uris":{"android":"levelo://app?vid=b5bd88a6-2dbd-4008-898e-ffa26e3e4d24","ios":"levelo://app?vid=b5bd88a6-2dbd-4008-898e-ffa26e3e4d24"},"vehicle_type_id":"4","last_reported":1739110011,"current_range_meters":38800,"station_id":"ce4bhi12rcd13ifvqfq0","pricing_plan_id":"cebpf4jnsgd1na2vs0mg"},{"bike_id":"c8467e20-c52a-4fa4-90f2-f69c646cb59f","system_id":"levelo_inurba_marseille","lat":43.308,"lon":5.43511,"is_reserved":false,"is_disabled":false,"rental_uris":{"android":"levelo://app?vid=c8467e20-c52a-4fa4-90f2-f69c646cb59f","ios":"levelo://app?vid=c8467e20-c52a-4fa4-90f2-f69c646cb59f"},"vehicle_type_id":"4","last_reported":1739110011,"current_range_meters":24800,"station_id":"ce4bhph2rcd13ifvqheg","pricing_plan_id":"cebpf4jnsgd1na2vs0mg"},{"bike_id":"8e23ca53-8441-437b-83d1-b66bbe688f88","system_id":"levelo_inurba_marseille","lat":43.26809,"lon":5.40263,"is_reserved":false,"is_disabled":false,"rental_uris":{"android":"levelo://app?vid=8e23ca53-8441-437b-83d1-b66bbe688f88","ios":"levelo://app?vid=8e23ca53-8441-437b-83d1-b66bbe688f88"},"vehicle_type_id":"4","last_reported":1739110011,"current_range_meters":38800,"station_id":"ce501612rcd8frsf0b60","pricing_plan_id":"cebpf4jnsgd1na2vs0mg"},{"bike_id":"2ceac124-3981-41ba-88bd-6e918853c153","system_id":"levelo_inurba_marseille","lat":43.25005,"lon":5.38926,"is_reserved":false,"is_disabled":false,"rental_uris":{"android":"levelo://app?vid=2ceac124-3981-41ba-88bd-6e918853c153","ios":"levelo://app?vid=2ceac124-3981-41ba-88bd-6e918853c153"},"vehicle_type_id":"4","last_reported":1739110011,"current_range_meters":38800,"station_id":"ce4bhgp2rcd13ifvqfd0","pricing_plan_id":"cebpf4jnsgd1na2vs0mg"},{"bike_id":"22a5c6e1-bb6b-4333-8051-e7583e5afc36","system_id":"levelo_inurba_marseille","lat":43.29437,"lon":5.39778,"is_reserved":false,"is_disabled":true,"rental_uris":{"android":"levelo://app?vid=22a5c6e1-bb6b-4333-8051-e7583e5afc36","ios":"levelo://app?vid=22a5c6e1-bb6b-4333-8051-e7583e5afc36"},"vehicle_type_id":"4","last_reported":1739110011,"current_range_meters":38800,"station_id":"ce4bh3h2rcd13ifvqdo0","pricing_plan_id":"cebpf4jnsgd1na2vs0mg"},{"bike_id":"85222e7d-56bd-44fa-bfc5-bdac06ef13bd","system_id":"levelo_inurba_marseille","lat":43.2956,"lon":5.37526,"is_reserved":false,"is_disabled":false,"rental_uris":{"android":"levelo://app?vid=85222e7d-56bd-44fa-bfc5-bdac06ef13bd","ios":"levelo://app?vid=85222e7d-56bd-44fa-bfc5-bdac06ef13bd"},"vehicle_type_id":"4","last_reported":1739110011,"current_range_meters":38000,"station_id":"ce4bgh92rcd13ifvqb50","pricing_plan_id":"cebpf4jnsgd1na2vs0mg"},{"bike_id":"5c3e58d0-3647-4d94-8959-cff21bd78632","system_id":"levelo_inurba_marseille","lat":43.29718,"lon":5.36598,"is_reserved":false,"is_disabled":false,"rental_uris":{"android":"levelo://app?vid=5c3e58d0-3647-4d94-8959-cff21bd78632","ios":"levelo://app?vid=5c3e58d0-3647-4d94-8959-cff21bd78632"},"vehicle_type_id":"4","last_reported":1739110011,"current_range_meters":38000,"station_id":"ce4bgn12rcd13ifvqbt0","pricing_plan_id":"cebpf4jnsgd1na2vs0mg"},{"bike_id":"d3dc503a-566b-48b4-9ecf-98d664aebd95","system_id":"levelo_inurba_marseille","lat":43.26559,"lon":5.37292,"is_reserved":false,"is_disabled":false,"rental_uris":{"android":"levelo://app?vid=d3dc503a-566b-48b4-9ecf-98d664aebd95","ios":"levelo://app?vid=d3dc503a-566b-48b4-9ecf-98d664aebd95"},"vehicle_type_id":"4","last_reported":1739110011,"current_range_meters":38000,"station_id":"ce4bhg12rcd13ifvqf70","pricing_plan_id":"cebpf4jnsgd1na2vs0mg"},{"bike_id":"fd7f60dd-1b52-46f9-9b6b-de4b0fe7477f","system_id":"levelo_inurba_marseille","lat":43.27057,"lon":5.42281,"is_reserved":false,"is_disabled":true,"rental_uris":{"android":"levelo://app?vid=fd7f60dd-1b52-46f9-9b6b-de4b0fe7477f","ios":"levelo://app?vid=fd7f60dd-1b52-46f9-9b6b-de4b0fe7477f"},"vehicle_type_id":"4","last_reported":1739110011,"current_range_meters":34000,"station_id":"ce4bhk92rcd13ifvqgb0","pricing_plan_id":"cebpf4jnsgd1na2vs0mg"},{"bike_id":"b77293ea-57bc-4088-ba4a-87100c2d79e0","system_id":"levelo_inurba_marseille","lat":43.26554,"lon":5.37292,"is_reserved":false,"is_disabled":false,"rental_uris":{"android":"levelo://app?vid=b77293ea-57bc-4088-ba4a-87100c2d79e0","ios":"levelo://app?vid=b77293ea-57bc-4088-ba4a-87100c2d79e0"},"vehicle_type_id":"4","last_reported":1739110011,"current_range_meters":38800,"station_id":"ce4bhg12rcd13ifvqf70","pricing_plan_id":"cebpf4jnsgd1na2vs0mg"},{"bike_id":"71af4c3a-fa26-4039-9ee7-f5d24e009142","system_id":"levelo_inurba_marseille","lat":43.24809,"lon":5.37449,"is_reserved":false,"is_disabled":false,"rental_uris":{"android":"levelo://app?vid=71af4c3a-fa26-4039-9ee7-f5d24e009142","ios":"levelo://app?vid=71af4c3a-fa26-4039-9ee7-f5d24e009142"},"vehicle_type_id":"4","last_reported":1739110011,"current_range_meters":38800,"station_id":"ce4bhgh2rcd13ifvqfb0","pricing_plan_id":"cebpf4jnsgd1na2vs0mg"},{"bike_id":"ab718d08-fa73-4b37-8fd0-bd8c0a26cdbd","system_id":"levelo_inurba_marseille","lat":43.27619,"lon":5.36116,"is_reserved":false,"is_disabled":false,"rental_uris":{"android":"levelo://app?vid=ab718d08-fa73-4b37-8fd0-bd8c0a26cdbd","ios":"levelo://app?vid=ab718d08-fa73-4b37-8fd0-bd8c0a26cdbd"},"vehicle_type_id":"4","last_reported":1739110011,"current_range_meters":3200,"station_id":"ce4bgj92rcd13ifvqbe0","pricing_plan_id":"cebpf4jnsgd1na2vs0mg"},{"bike_id":"9f45478a-3985-4aea-8edf-f7612efd1751","system_id":"levelo_inurba_marseille","lat":43.29617,"lon":5.37729,"is_reserved":false,"is_disabled":false,"rental_uris":{"android":"levelo://app?vid=9f45478a-3985-4aea-8edf-f7612efd1751","ios":"levelo://app?vid=9f45478a-3985-4aea-8edf-f7612efd1751"},"vehicle_type_id":"4","last_reported":1739110011,"current_range_meters":10000,"station_id":"ce4bgi92rcd13ifvqb90","pricing_plan_id":"cebpf4jnsgd1na2vs0mg"},{"bike_id":"87a01686-3731-4c8e-8803-2fd0dd76d9bc","system_id":"levelo_inurba_marseille","lat":43.27073,"lon":5.42274,"is_reserved":false,"is_disabled":false,"rental_uris":{"android":"levelo://app?vid=87a01686-3731-4c8e-8803-2fd0dd76d9bc","ios":"levelo://app?vid=87a01686-3731-4c8e-8803-2fd0dd76d9bc"},"vehicle_type_id":"4","last_reported":1739110011,"current_range_meters":28000,"station_id":"ce4bhk92rcd13ifvqgb0","pricing_plan_id":"cebpf4jnsgd1na2vs0mg"},{"bike_id":"86e7fe57-f8b6-4306-adb2-c48a1d6d6515","system_id":"levelo_inurba_marseille","lat":43.2573,"lon":5.41097,"is_reserved":false,"is_disabled":false,"rental_uris":{"android":"levelo://app?vid=86e7fe57-f8b6-4306-adb2-c48a1d6d6515","ios":"levelo://app?vid=86e7fe57-f8b6-4306-adb2-c48a1d6d6515"},"vehicle_type_id":"4","last_reported":1739110011,"current_range_meters":39200,"station_id":"ce4bhkp2rcd13ifvqgd0","pricing_plan_id":"cebpf4jnsgd1na2vs0mg"},{"bike_id":"d415889a-22fd-4ab7-92c1-35f95d3136f8","system_id":"levelo_inurba_marseille","lat":43.3133,"lon":5.39692,"is_reserved":false,"is_disabled":false,"rental_uris":{"android":"levelo://app?vid=d415889a-22fd-4ab7-92c1-35f95d3136f8","ios":"levelo://app?vid=d415889a-22fd-4ab7-92c1-35f95d3136f8"},"vehicle_type_id":"4","last_reported":1739110011,"current_range_meters":35200,"station_id":"ce4bgvp2rcd13ifvqcu0","pricing_plan_id":"cebpf4jnsgd1na2vs0mg"},{"bike_id":"6a14739a-b5fc-42d5-9b40-b808b7ab9afe","system_id":"levelo_inurba_marseille","lat":43.24662,"lon":5.38156,"is_reserved":false,"is_disabled":false,"rental_uris":{"android":"levelo://app?vid=6a14739a-b5fc-42d5-9b40-b808b7ab9afe","ios":"levelo://app?vid=6a14739a-b5fc-42d5-9b40-b808b7ab9afe"},"vehicle_type_id":"4","last_reported":1739110011,"current_range_meters":35600,"station_id":"ce4bhih2rcd13ifvqfr0","pricing_plan_id":"cebpf4jnsgd1na2vs0mg"},{"bike_id":"d5fd2a14-8ff1-4b6e-a72e-8f7d6ba6ec2f","system_id":"levelo_inurba_marseille","lat":43.2828,"lon":5.350798,"is_reserved":false,"is_disabled":false,"rental_uris":{"android":"levelo://app?vid=d5fd2a14-8ff1-4b6e-a72e-8f7d6ba6ec2f","ios":"levelo://app?vid=d5fd2a14-8ff1-4b6e-a72e-8f7d6ba6ec2f"},"vehicle_type_id":"4","last_reported":1739110011,"current_range_meters":22400,"station_id":"ce4bhbp2rcd13ifvqerg","pricing_plan_id":"cebpf4jnsgd1na2vs0mg"},{"bike_id":"53275268-a068-4479-882c-79c5d0e2ba82","system_id":"levelo_inurba_marseille","lat":43.29567,"lon":5.37517,"is_reserved":false,"is_disabled":false,"rental_uris":{"android":"levelo://app?vid=53275268-a068-4479-882c-79c5d0e2ba82","ios":"levelo://app?vid=53275268-a068-4479-882c-79c5d0e2ba82"},"vehicle_type_id":"4","last_reported":1739110011,"current_range_meters":26000,"station_id":"ce4bgh92rcd13ifvqb50","pricing_plan_id":"cebpf4jnsgd1na2vs0mg"},{"bike_id":"c6f92ca4-91f7-4b27-a97d-0ada5b4e29ae","system_id":"levelo_inurba_marseille","lat":43.2467,"lon":5.38159,"is_reserved":false,"is_disabled":false,"rental_uris":{"android":"levelo://app?vid=c6f92ca4-91f7-4b27-a97d-0ada5b4e29ae","ios":"levelo://app?vid=c6f92ca4-91f7-4b27-a97d-0ada5b4e29ae"},"vehicle_type_id":"4","last_reported":1739110011,"current_range_meters":24800,"station_id":"ce4bhih2rcd13ifvqfr0","pricing_plan_id":"cebpf4jnsgd1na2vs0mg"},{"bike_id":"dc2380f1-2eb7-46a3-ae22-c9e2fe5ac43b","system_id":"levelo_inurba_marseille","lat":43.282684,"lon":5.350679,"is_reserved":false,"is_disabled":false,"rental_uris":{"android":"levelo://app?vid=dc2380f1-2eb7-46a3-ae22-c9e2fe5ac43b","ios":"levelo://app?vid=dc2380f1-2eb7-46a3-ae22-c9e2fe5ac43b"},"vehicle_type_id":"4","last_reported":1739110011,"current_range_meters":34800,"station_id":"ce4bhbp2rcd13ifvqerg","pricing_plan_id":"cebpf4jnsgd1na2vs0mg"},{"bike_id":"f335f4ea-f372-4b4d-97e9-cf4e01ad5b70","system_id":"levelo_inurba_marseille","lat":43.32241,"lon":5.38955,"is_reserved":false,"is_disabled":false,"rental_uris":{"android":"levelo://app?vid=f335f4ea-f372-4b4d-97e9-cf4e01ad5b70","ios":"levelo://app?vid=f335f4ea-f372-4b4d-97e9-cf4e01ad5b70"},"vehicle_type_id":"4","last_reported":1739110011,"current_range_meters":17600,"station_id":"","pricing_plan_id":"cebpf4jnsgd1na2vs0mg"},{"bike_id":"110b5397-d612-4b43-9970-8f955358b259","system_id":"levelo_inurba_marseille","lat":43.2397,"lon":5.3663,"is_reserved":false,"is_disabled":false,"rental_uris":{"android":"levelo://app?vid=110b5397-d612-4b43-9970-8f955358b259","ios":"levelo://app?vid=110b5397-d612-4b43-9970-8f955358b259"},"vehicle_type_id":"4","last_reported":1739110011,"current_range_meters":38800,"station_id":"ce4bhi12rcd13ifvqfp0","pricing_plan_id":"cebpf4jnsgd1na2vs0mg"},{"bike_id":"f0b4d83a-ec44-4250-ba55-361ddd77b4ad","system_id":"levelo_inurba_marseille","lat":43.29702,"lon":5.36607,"is_reserved":false,"is_disabled":false,"rental_uris":{"android":"levelo://app?vid=f0b4d83a-ec44-4250-ba55-361ddd77b4ad","ios":"levelo://app?vid=f0b4d83a-ec44-4250-ba55-361ddd77b4ad"},"vehicle_type_id":"4","last_reported":1739110011,"current_range_meters":21600,"station_id":"ce4bgn12rcd13ifvqbt0","pricing_plan_id":"cebpf4jnsgd1na2vs0mg"},{"bike_id":"c5d44a3a-c0d4-413d-abd6-5d633623f413","system_id":"levelo_inurba_marseille","lat":43.31235,"lon":5.36863,"is_reserved":false,"is_disabled":false,"rental_uris":{"android":"levelo://app?vid=c5d44a3a-c0d4-413d-abd6-5d633623f413","ios":"levelo://app?vid=c5d44a3a-c0d4-413d-abd6-5d633623f413"},"vehicle_type_id":"4","last_reported":1739110011,"current_range_meters":38800,"station_id":"ce4bgl92rcd13ifvqbq0","pricing_plan_id":"cebpf4jnsgd1na2vs0mg"},{"bike_id":"7c3d3c88-5e30-4ebd-9017-7ce0346cbbb6","system_id":"levelo_inurba_marseille","lat":43.250017,"lon":5.389296,"is_reserved":false,"is_disabled":false,"rental_uris":{"android":"levelo://app?vid=7c3d3c88-5e30-4ebd-9017-7ce0346cbbb6","ios":"levelo://app?vid=7c3d3c88-5e30-4ebd-9017-7ce0346cbbb6"},"vehicle_type_id":"4","last_reported":1739110011,"current_range_meters":25200,"station_id":"ce4bhgp2rcd13ifvqfd0","pricing_plan_id":"cebpf4jnsgd1na2vs0mg"},{"bike_id":"c5789181-d252-4c46-b75d-908f3a6a38fe","system_id":"levelo_inurba_marseille","lat":43.33733,"lon":5.39195,"is_reserved":false,"is_disabled":false,"rental_uris":{"android":"levelo://app?vid=c5789181-d252-4c46-b75d-908f3a6a38fe","ios":"levelo://app?vid=c5789181-d252-4c46-b75d-908f3a6a38fe"},"vehicle_type_id":"4","last_reported":1739110011,"current_range_meters":39200,"station_id":"ce4bhr92rcd13ifvqhsg","pricing_plan_id":"cebpf4jnsgd1na2vs0mg"},{"bike_id":"9e5f50df-d4f5-436f-8a70-7dc1b321b465","system_id":"levelo_inurba_marseille","lat":43.31362,"lon":5.38498,"is_reserved":false,"is_disabled":false,"rental_uris":{"android":"levelo://app?vid=9e5f50df-d4f5-436f-8a70-7dc1b321b465","ios":"levelo://app?vid=9e5f50df-d4f5-436f-8a70-7dc1b321b465"},"vehicle_type_id":"4","last_reported":1739110011,"current_range_meters":38000,"station_id":"ce4bgt92rcd13ifvqcf0","pricing_plan_id":"cebpf4jnsgd1na2vs0mg"},{"bike_id":"8f56f3ae-801d-4fc2-89e7-bb87cedd525d","system_id":"levelo_inurba_marseille","lat":43.28371,"lon":5.38624,"is_reserved":false,"is_disabled":false,"rental_uris":{"android":"levelo://app?vid=8f56f3ae-801d-4fc2-89e7-bb87cedd525d","ios":"levelo://app?vid=8f56f3ae-801d-4fc2-89e7-bb87cedd525d"},"vehicle_type_id":"4","last_reported":1739110011,"current_range_meters":38400,"station_id":"ce4bh492rcd13ifvqdvg","pricing_plan_id":"cebpf4jnsgd1na2vs0mg"},{"bike_id":"8f1c9400-5055-4669-ad03-6cb4aa6e03af","system_id":"levelo_inurba_marseille","lat":43.29027,"lon":5.38648,"is_reserved":false,"is_disabled":false,"rental_uris":{"android":"levelo://app?vid=8f1c9400-5055-4669-ad03-6cb4aa6e03af","ios":"levelo://app?vid=8f1c9400-5055-4669-ad03-6cb4aa6e03af"},"vehicle_type_id":"4","last_reported":1739110011,"current_range_meters":13600,"station_id":"ce4bh4p2rcd13ifvqe0g","pricing_plan_id":"cebpf4jnsgd1na2vs0mg"},{"bike_id":"0465b098-501d-4eaa-9851-ecad7c11e06c","system_id":"levelo_inurba_marseille","lat":43.27816,"lon":5.40712,"is_reserved":false,"is_disabled":false,"rental_uris":{"android":"levelo://app?vid=0465b098-501d-4eaa-9851-ecad7c11e06c","ios":"levelo://app?vid=0465b098-501d-4eaa-9851-ecad7c11e06c"},"vehicle_type_id":"4","last_reported":1739110011,"current_range_meters":38800,"station_id":"ce4bhnh2rcd13ifvqgtg","pricing_plan_id":"cebpf4jnsgd1na2vs0mg"},{"bike_id":"a3017e08-da34-45be-bc47-d338c3dee81a","system_id":"levelo_inurba_marseille","lat":43.26611,"lon":5.39367,"is_reserved":false,"is_disabled":false,"rental_uris":{"android":"levelo://app?vid=a3017e08-da34-45be-bc47-d338c3dee81a","ios":"levelo://app?vid=a3017e08-da34-45be-bc47-d338c3dee81a"},"vehicle_type_id":"4","last_reported":1739110011,"current_range_meters":38400,"station_id":"","pricing_plan_id":"cebpf4jnsgd1na2vs0mg"},{"bike_id":"a0e4aa32-2930-4b3f-a9c9-c8d667116e7d","system_id":"levelo_inurba_marseille","lat":43.30326,"lon":5.39605,"is_reserved":false,"is_disabled":false,"rental_uris":{"android":"levelo://app?vid=a0e4aa32-2930-4b3f-a9c9-c8d667116e7d","ios":"levelo://app?vid=a0e4aa32-2930-4b3f-a9c9-c8d667116e7d"},"vehicle_type_id":"4","last_reported":1739110011,"current_range_meters":24800,"station_id":"","pricing_plan_id":"cebpf4jnsgd1na2vs0mg"},{"bike_id":"09710415-4dac-4e4c-a5b2-403eafa59e89","system_id":"levelo_inurba_marseille","lat":43.23965,"lon":5.36631,"is_reserved":false,"is_disabled":false,"rental_uris":{"android":"levelo://app?vid=09710415-4dac-4e4c-a5b2-403eafa59e89","ios":"levelo://app?vid=09710415-4dac-4e4c-a5b2-403eafa59e89"},"vehicle_type_id":"4","last_reported":1739110011,"current_range_meters":35200,"station_id":"ce4bhi12rcd13ifvqfp0","pricing_plan_id":"cebpf4jnsgd1na2vs0mg"},{"bike_id":"cda70a47-1966-4606-a6ee-e81748054c04","system_id":"levelo_inurba_marseille","lat":43.2396,"lon":5.36625,"is_reserved":false,"is_disabled":false,"rental_uris":{"android":"levelo://app?vid=cda70a47-1966-4606-a6ee-e81748054c04","ios":"levelo://app?vid=cda70a47-1966-4606-a6ee-e81748054c04"},"vehicle_type_id":"4","last_reported":1739110011,"current_range_meters":31200,"station_id":"ce4bhi12rcd13ifvqfp0","pricing_plan_id":"cebpf4jnsgd1na2vs0mg"},{"bike_id":"11fb8b8a-e2f0-4df9-8d01-2d7793fba192","system_id":"levelo_inurba_marseille","lat":43.27321,"lon":5.39044,"is_reserved":false,"is_disabled":false,"rental_uris":{"android":"levelo://app?vid=11fb8b8a-e2f0-4df9-8d01-2d7793fba192","ios":"levelo://app?vid=11fb8b8a-e2f0-4df9-8d01-2d7793fba192"},"vehicle_type_id":"4","last_reported":1739110011,"current_range_meters":38800,"station_id":"ce4bhgp2rcd13ifvqfe0","pricing_plan_id":"cebpf4jnsgd1na2vs0mg"},{"bike_id":"c8c5ba2f-dce8-4eb8-8ee9-e29f6727ff1c","system_id":"levelo_inurba_marseille","lat":43.28452,"lon":5.35879,"is_reserved":false,"is_disabled":false,"rental_uris":{"android":"levelo://app?vid=c8c5ba2f-dce8-4eb8-8ee9-e29f6727ff1c","ios":"levelo://app?vid=c8c5ba2f-dce8-4eb8-8ee9-e29f6727ff1c"},"vehicle_type_id":"4","last_reported":1739110011,"current_range_meters":38800,"station_id":"ce4bhah2rcd13ifvqei0","pricing_plan_id":"cebpf4jnsgd1na2vs0mg"},{"bike_id":"118b1d9a-bc00-428d-ac60-6949e2e1ff6b","system_id":"levelo_inurba_marseille","lat":43.24798,"lon":5.37458,"is_reserved":false,"is_disabled":false,"rental_uris":{"android":"levelo://app?vid=118b1d9a-bc00-428d-ac60-6949e2e1ff6b","ios":"levelo://app?vid=118b1d9a-bc00-428d-ac60-6949e2e1ff6b"},"vehicle_type_id":"4","last_reported":1739110011,"current_range_meters":28400,"station_id":"ce4bhgh2rcd13ifvqfb0","pricing_plan_id":"cebpf4jnsgd1na2vs0mg"},{"bike_id":"5b73234d-d960-47f9-a6fb-915bd204e3d0","system_id":"levelo_inurba_marseille","lat":43.27379,"lon":5.3626,"is_reserved":false,"is_disabled":true,"rental_uris":{"android":"levelo://app?vid=5b73234d-d960-47f9-a6fb-915bd204e3d0","ios":"levelo://app?vid=5b73234d-d960-47f9-a6fb-915bd204e3d0"},"vehicle_type_id":"4","last_reported":1739110011,"current_range_meters":0,"station_id":"ce4bhbh2rcd13ifvqeo0","pricing_plan_id":"cebpf4jnsgd1na2vs0mg"},{"bike_id":"eb0a12a6-e45a-4fcd-bcf3-2180277e33c2","system_id":"levelo_inurba_marseille","lat":43.30537,"lon":5.36554,"is_reserved":false,"is_disabled":false,"rental_uris":{"android":"levelo://app?vid=eb0a12a6-e45a-4fcd-bcf3-2180277e33c2","ios":"levelo://app?vid=eb0a12a6-e45a-4fcd-bcf3-2180277e33c2"},"vehicle_type_id":"4","last_reported":1739110011,"current_range_meters":36000,"station_id":"ce4bgs12rcd13ifvqcag","pricing_plan_id":"cebpf4jnsgd1na2vs0mg"},{"bike_id":"656b3b3b-ebfa-4345-b7c9-9eedd9381155","system_id":"levelo_inurba_marseille","lat":43.30803,"lon":5.40002,"is_reserved":false,"is_disabled":false,"rental_uris":{"android":"levelo://app?vid=656b3b3b-ebfa-4345-b7c9-9eedd9381155","ios":"levelo://app?vid=656b3b3b-ebfa-4345-b7c9-9eedd9381155"},"vehicle_type_id":"4","last_reported":1739110011,"current_range_meters":11600,"station_id":"","pricing_plan_id":"cebpf4jnsgd1na2vs0mg"},{"bike_id":"f572c4d0-7db4-4c29-925c-f9578f18219d","system_id":"levelo_inurba_marseille","lat":43.28422,"lon":5.34984,"is_reserved":false,"is_disabled":false,"rental_uris":{"android":"levelo://app?vid=f572c4d0-7db4-4c29-925c-f9578f18219d","ios":"levelo://app?vid=f572c4d0-7db4-4c29-925c-f9578f18219d"},"vehicle_type_id":"4","last_reported":1739110011,"current_range_meters":26000,"station_id":"ce4bhbh2rcd13ifvqepg","pricing_plan_id":"cebpf4jnsgd1na2vs0mg"},{"bike_id":"b80e9c7c-86aa-4d1b-b541-7d2a0b5bd48e","system_id":"levelo_inurba_marseille","lat":43.30877,"lon":5.3778,"is_reserved":false,"is_disabled":false,"rental_uris":{"android":"levelo://app?vid=b80e9c7c-86aa-4d1b-b541-7d2a0b5bd48e","ios":"levelo://app?vid=b80e9c7c-86aa-4d1b-b541-7d2a0b5bd48e"},"vehicle_type_id":"4","last_reported":1739110011,"current_range_meters":32800,"station_id":"","pricing_plan_id":"cebpf4jnsgd1na2vs0mg"},{"bike_id":"30d601e1-649f-4d37-95b4-e5953d4def41","system_id":"levelo_inurba_marseille","lat":43.28409,"lon":5.37513,"is_reserved":false,"is_disabled":false,"rental_uris":{"android":"levelo://app?vid=30d601e1-649f-4d37-95b4-e5953d4def41","ios":"levelo://app?vid=30d601e1-649f-4d37-95b4-e5953d4def41"},"vehicle_type_id":"4","last_reported":1739110011,"current_range_meters":22000,"station_id":"ce4bh412rcd13ifvqds0","pricing_plan_id":"cebpf4jnsgd1na2vs0mg"},{"bike_id":"b51e142c-de4a-4e92-bd38-22dc3a4cd001","system_id":"levelo_inurba_marseille","lat":43.26576,"lon":5.38993,"is_reserved":false,"is_disabled":false,"rental_uris":{"android":"levelo://app?vid=b51e142c-de4a-4e92-bd38-22dc3a4cd001","ios":"levelo://app?vid=b51e142c-de4a-4e92-bd38-22dc3a4cd001"},"vehicle_type_id":"4","last_reported":1739110011,"current_range_meters":17200,"station_id":"ce4bho92rcd13ifvqh3g","pricing_plan_id":"cebpf4jnsgd1na2vs0mg"},{"bike_id":"64e8e2e3-8984-4256-ae2a-ac9cd49207f0","system_id":"levelo_inurba_marseille","lat":43.28278,"lon":5.35075,"is_reserved":false,"is_disabled":false,"rental_uris":{"android":"levelo://app?vid=64e8e2e3-8984-4256-ae2a-ac9cd49207f0","ios":"levelo://app?vid=64e8e2e3-8984-4256-ae2a-ac9cd49207f0"},"vehicle_type_id":"4","last_reported":1739110011,"current_range_meters":37600,"station_id":"ce4bhbp2rcd13ifvqerg","pricing_plan_id":"cebpf4jnsgd1na2vs0mg"},{"bike_id":"29a1bb8a-9b1b-4830-ad9b-0aa0522ba3de","system_id":"levelo_inurba_marseille","lat":43.30462,"lon":5.3791,"is_reserved":false,"is_disabled":false,"rental_uris":{"android":"levelo://app?vid=29a1bb8a-9b1b-4830-ad9b-0aa0522ba3de","ios":"levelo://app?vid=29a1bb8a-9b1b-4830-ad9b-0aa0522ba3de"},"vehicle_type_id":"4","last_reported":1739110011,"current_range_meters":31200,"station_id":"ce4bgup2rcd13ifvqcn0","pricing_plan_id":"cebpf4jnsgd1na2vs0mg"},{"bike_id":"7f2deb56-183c-436c-981c-cfbcfece13e6","system_id":"levelo_inurba_marseille","lat":43.239629,"lon":5.366217,"is_reserved":false,"is_disabled":false,"rental_uris":{"android":"levelo://app?vid=7f2deb56-183c-436c-981c-cfbcfece13e6","ios":"levelo://app?vid=7f2deb56-183c-436c-981c-cfbcfece13e6"},"vehicle_type_id":"4","last_reported":1739110011,"current_range_meters":36000,"station_id":"ce4bhi12rcd13ifvqfp0","pricing_plan_id":"cebpf4jnsgd1na2vs0mg"},{"bike_id":"aac5a4ca-b8d0-4641-93c3-6c5e80d60918","system_id":"levelo_inurba_marseille","lat":43.31215,"lon":5.36856,"is_reserved":false,"is_disabled":false,"rental_uris":{"android":"levelo://app?vid=aac5a4ca-b8d0-4641-93c3-6c5e80d60918","ios":"levelo://app?vid=aac5a4ca-b8d0-4641-93c3-6c5e80d60918"},"vehicle_type_id":"4","last_reported":1739110011,"current_range_meters":38400,"station_id":"ce4bgl92rcd13ifvqbq0","pricing_plan_id":"cebpf4jnsgd1na2vs0mg"},{"bike_id":"a5a14ac8-8c40-406c-865a-09ed98e25470","system_id":"levelo_inurba_marseille","lat":43.23196,"lon":5.35547,"is_reserved":false,"is_disabled":false,"rental_uris":{"android":"levelo://app?vid=a5a14ac8-8c40-406c-865a-09ed98e25470","ios":"levelo://app?vid=a5a14ac8-8c40-406c-865a-09ed98e25470"},"vehicle_type_id":"4","last_reported":1739110011,"current_range_meters":13600,"station_id":"ce4bhu92rcd13ifvqi70","pricing_plan_id":"cebpf4jnsgd1na2vs0mg"},{"bike_id":"5223a8ab-1759-4199-88f8-4ead011cc81e","system_id":"levelo_inurba_marseille","lat":43.27546,"lon":5.38407,"is_reserved":false,"is_disabled":false,"rental_uris":{"android":"levelo://app?vid=5223a8ab-1759-4199-88f8-4ead011cc81e","ios":"levelo://app?vid=5223a8ab-1759-4199-88f8-4ead011cc81e"},"vehicle_type_id":"4","last_reported":1739110011,"current_range_meters":38800,"station_id":"ce4bhh92rcd13ifvqfi0","pricing_plan_id":"cebpf4jnsgd1na2vs0mg"},{"bike_id":"abed809c-e7f0-4d2e-ba0b-e3aca6e38076","system_id":"levelo_inurba_marseille","lat":43.26932,"lon":5.40254,"is_reserved":false,"is_disabled":false,"rental_uris":{"android":"levelo://app?vid=abed809c-e7f0-4d2e-ba0b-e3aca6e38076","ios":"levelo://app?vid=abed809c-e7f0-4d2e-ba0b-e3aca6e38076"},"vehicle_type_id":"4","last_reported":1739110011,"current_range_meters":25600,"station_id":"cjm6bp8fraef2m0cb0m0","pricing_plan_id":"cebpf4jnsgd1na2vs0mg"},{"bike_id":"87f55178-b221-4f5a-9b43-4df846d42ec8","system_id":"levelo_inurba_marseille","lat":43.32285,"lon":5.38272,"is_reserved":false,"is_disabled":false,"rental_uris":{"android":"levelo://app?vid=87f55178-b221-4f5a-9b43-4df846d42ec8","ios":"levelo://app?vid=87f55178-b221-4f5a-9b43-4df846d42ec8"},"vehicle_type_id":"4","last_reported":1739110011,"current_range_meters":28400,"station_id":"ce4bhr12rcd13ifvqhqg","pricing_plan_id":"cebpf4jnsgd1na2vs0mg"},{"bike_id":"fab3bb2d-1af4-4e3a-a38c-c7500631c9b2","system_id":"levelo_inurba_marseille","lat":43.23181,"lon":5.39985,"is_reserved":false,"is_disabled":false,"rental_uris":{"android":"levelo://app?vid=fab3bb2d-1af4-4e3a-a38c-c7500631c9b2","ios":"levelo://app?vid=fab3bb2d-1af4-4e3a-a38c-c7500631c9b2"},"vehicle_type_id":"4","last_reported":1739110011,"current_range_meters":37600,"station_id":"ce4bhn12rcd13ifvqgqg","pricing_plan_id":"cebpf4jnsgd1na2vs0mg"},{"bike_id":"345641d2-d207-4bf0-bfd4-a40e71a94cb5","system_id":"levelo_inurba_marseille","lat":43.25083,"lon":5.39523,"is_reserved":false,"is_disabled":false,"rental_uris":{"android":"levelo://app?vid=345641d2-d207-4bf0-bfd4-a40e71a94cb5","ios":"levelo://app?vid=345641d2-d207-4bf0-bfd4-a40e71a94cb5"},"vehicle_type_id":"4","last_reported":1739110011,"current_range_meters":23200,"station_id":"ce4bhm12rcd13ifvqgkg","pricing_plan_id":"cebpf4jnsgd1na2vs0mg"},{"bike_id":"59db9156-837c-4bef-bdf0-6cb05d00fb23","system_id":"levelo_inurba_marseille","lat":43.24166,"lon":5.36404,"is_reserved":false,"is_disabled":false,"rental_uris":{"android":"levelo://app?vid=59db9156-837c-4bef-bdf0-6cb05d00fb23","ios":"levelo://app?vid=59db9156-837c-4bef-bdf0-6cb05d00fb23"},"vehicle_type_id":"4","last_reported":1739110011,"current_range_meters":24000,"station_id":"cpo36qri1sfpv3e86is0","pricing_plan_id":"cebpf4jnsgd1na2vs0mg"},{"bike_id":"f1e9b514-8d63-4512-92a1-4bc9d87c157b","system_id":"levelo_inurba_marseille","lat":43.31698,"lon":5.43712,"is_reserved":false,"is_disabled":true,"rental_uris":{"android":"levelo://app?vid=f1e9b514-8d63-4512-92a1-4bc9d87c157b","ios":"levelo://app?vid=f1e9b514-8d63-4512-92a1-4bc9d87c157b"},"vehicle_type_id":"4","last_reported":1739110011,"current_range_meters":400,"station_id":"ce4bhp92rcd13ifvqhcg","pricing_plan_id":"cebpf4jnsgd1na2vs0mg"},{"bike_id":"a0074d74-cecf-48cb-88d9-dfdc2b2fa810","system_id":"levelo_inurba_marseille","lat":43.23958,"lon":5.36624,"is_reserved":false,"is_disabled":false,"rental_uris":{"android":"levelo://app?vid=a0074d74-cecf-48cb-88d9-dfdc2b2fa810","ios":"levelo://app?vid=a0074d74-cecf-48cb-88d9-dfdc2b2fa810"},"vehicle_type_id":"4","last_reported":1739110011,"current_range_meters":17200,"station_id":"ce4bhi12rcd13ifvqfp0","pricing_plan_id":"cebpf4jnsgd1na2vs0mg"},{"bike_id":"fc8d00e4-07c7-4fd1-8ff2-0a261feae6ed","system_id":"levelo_inurba_marseille","lat":43.28605,"lon":5.35125,"is_reserved":false,"is_disabled":false,"rental_uris":{"android":"levelo://app?vid=fc8d00e4-07c7-4fd1-8ff2-0a261feae6ed","ios":"levelo://app?vid=fc8d00e4-07c7-4fd1-8ff2-0a261feae6ed"},"vehicle_type_id":"4","last_reported":1739110011,"current_range_meters":36800,"station_id":"ce4bhch2rcd13ifvqeug","pricing_plan_id":"cebpf4jnsgd1na2vs0mg"},{"bike_id":"7e424a35-8cf7-4c71-b98f-4231461d22a0","system_id":"levelo_inurba_marseille","lat":43.27504,"lon":5.38962,"is_reserved":false,"is_disabled":false,"rental_uris":{"android":"levelo://app?vid=7e424a35-8cf7-4c71-b98f-4231461d22a0","ios":"levelo://app?vid=7e424a35-8cf7-4c71-b98f-4231461d22a0"},"vehicle_type_id":"4","last_reported":1739110011,"current_range_meters":34000,"station_id":"","pricing_plan_id":"cebpf4jnsgd1na2vs0mg"},{"bike_id":"5bdf4a7a-73e7-421a-9397-7f985b521133","system_id":"levelo_inurba_marseille","lat":43.28459,"lon":5.35888,"is_reserved":false,"is_disabled":false,"rental_uris":{"android":"levelo://app?vid=5bdf4a7a-73e7-421a-9397-7f985b521133","ios":"levelo://app?vid=5bdf4a7a-73e7-421a-9397-7f985b521133"},"vehicle_type_id":"4","last_reported":1739110011,"current_range_meters":38800,"station_id":"ce4bhah2rcd13ifvqei0","pricing_plan_id":"cebpf4jnsgd1na2vs0mg"},{"bike_id":"9189e0cd-d5d1-46a9-97ed-08ec6d7d8cc9","system_id":"levelo_inurba_marseille","lat":43.29976,"lon":5.384832,"is_reserved":false,"is_disabled":true,"rental_uris":{"android":"levelo://app?vid=9189e0cd-d5d1-46a9-97ed-08ec6d7d8cc9","ios":"levelo://app?vid=9189e0cd-d5d1-46a9-97ed-08ec6d7d8cc9"},"vehicle_type_id":"4","last_reported":1739110011,"current_range_meters":38800,"station_id":"ce4bgj92rcd13ifvqbd0","pricing_plan_id":"cebpf4jnsgd1na2vs0mg"},{"bike_id":"688cb102-28ba-4c7e-885f-41414f9433e9","system_id":"levelo_inurba_marseille","lat":43.25573,"lon":5.38235,"is_reserved":false,"is_disabled":false,"rental_uris":{"android":"levelo://app?vid=688cb102-28ba-4c7e-885f-41414f9433e9","ios":"levelo://app?vid=688cb102-28ba-4c7e-885f-41414f9433e9"},"vehicle_type_id":"4","last_reported":1739110011,"current_range_meters":18000,"station_id":"ce4bhih2rcd13ifvqfs0","pricing_plan_id":"cebpf4jnsgd1na2vs0mg"},{"bike_id":"9c3ed8fb-7268-418c-ac09-3f255c9e9b5e","system_id":"levelo_inurba_marseille","lat":43.28037,"lon":5.36932,"is_reserved":false,"is_disabled":false,"rental_uris":{"android":"levelo://app?vid=9c3ed8fb-7268-418c-ac09-3f255c9e9b5e","ios":"levelo://app?vid=9c3ed8fb-7268-418c-ac09-3f255c9e9b5e"},"vehicle_type_id":"4","last_reported":1739110011,"current_range_meters":37600,"station_id":"ce4bha12rcd13ifvqef0","pricing_plan_id":"cebpf4jnsgd1na2vs0mg"},{"bike_id":"e2be00ad-04df-4f75-a9ef-afe10741e7b5","system_id":"levelo_inurba_marseille","lat":43.24805,"lon":5.3745,"is_reserved":false,"is_disabled":false,"rental_uris":{"android":"levelo://app?vid=e2be00ad-04df-4f75-a9ef-afe10741e7b5","ios":"levelo://app?vid=e2be00ad-04df-4f75-a9ef-afe10741e7b5"},"vehicle_type_id":"4","last_reported":1739110011,"current_range_meters":22000,"station_id":"ce4bhgh2rcd13ifvqfb0","pricing_plan_id":"cebpf4jnsgd1na2vs0mg"},{"bike_id":"7a230c4d-3963-4b09-8c58-f19ddcbd8c5e","system_id":"levelo_inurba_marseille","lat":43.28618,"lon":5.37055,"is_reserved":false,"is_disabled":false,"rental_uris":{"android":"levelo://app?vid=7a230c4d-3963-4b09-8c58-f19ddcbd8c5e","ios":"levelo://app?vid=7a230c4d-3963-4b09-8c58-f19ddcbd8c5e"},"vehicle_type_id":"4","last_reported":1739110011,"current_range_meters":37600,"station_id":"ce4bht12rcd13ifvqi60","pricing_plan_id":"cebpf4jnsgd1na2vs0mg"},{"bike_id":"6ff781d1-2621-44d1-b299-83b571f09432","system_id":"levelo_inurba_marseille","lat":43.34065,"lon":5.38506,"is_reserved":false,"is_disabled":true,"rental_uris":{"android":"levelo://app?vid=6ff781d1-2621-44d1-b299-83b571f09432","ios":"levelo://app?vid=6ff781d1-2621-44d1-b299-83b571f09432"},"vehicle_type_id":"4","last_reported":1739110011,"current_range_meters":0,"station_id":"","pricing_plan_id":"cebpf4jnsgd1na2vs0mg"},{"bike_id":"f2354b3b-9398-430a-991c-0c108e9a4c6a","system_id":"levelo_inurba_marseille","lat":43.30299,"lon":5.39202,"is_reserved":false,"is_disabled":true,"rental_uris":{"android":"levelo://app?vid=f2354b3b-9398-430a-991c-0c108e9a4c6a","ios":"levelo://app?vid=f2354b3b-9398-430a-991c-0c108e9a4c6a"},"vehicle_type_id":"4","last_reported":1739110011,"current_range_meters":38400,"station_id":"ce4bgkh2rcd13ifvqbk0","pricing_plan_id":"cebpf4jnsgd1na2vs0mg"},{"bike_id":"023da4ba-3275-433f-9c20-6aa1fe5c1824","system_id":"levelo_inurba_marseille","lat":43.24054,"lon":5.37742,"is_reserved":false,"is_disabled":false,"rental_uris":{"android":"levelo://app?vid=023da4ba-3275-433f-9c20-6aa1fe5c1824","ios":"levelo://app?vid=023da4ba-3275-433f-9c20-6aa1fe5c1824"},"vehicle_type_id":"4","last_reported":1739110011,"current_range_meters":35200,"station_id":"ce4bhnp2rcd13ifvqgvg","pricing_plan_id":"cebpf4jnsgd1na2vs0mg"},{"bike_id":"02c20e57-669d-4efa-b9c7-8be49a8574b8","system_id":"levelo_inurba_marseille","lat":43.26564,"lon":5.39013,"is_reserved":false,"is_disabled":false,"rental_uris":{"android":"levelo://app?vid=02c20e57-669d-4efa-b9c7-8be49a8574b8","ios":"levelo://app?vid=02c20e57-669d-4efa-b9c7-8be49a8574b8"},"vehicle_type_id":"4","last_reported":1739110011,"current_range_meters":26800,"station_id":"ce4bhe12rcd13ifvqf30","pricing_plan_id":"cebpf4jnsgd1na2vs0mg"},{"bike_id":"3bcef26d-4f99-41ca-8731-0ea17f115ba4","system_id":"levelo_inurba_marseille","lat":43.28408,"lon":5.34984,"is_reserved":false,"is_disabled":false,"rental_uris":{"android":"levelo://app?vid=3bcef26d-4f99-41ca-8731-0ea17f115ba4","ios":"levelo://app?vid=3bcef26d-4f99-41ca-8731-0ea17f115ba4"},"vehicle_type_id":"4","last_reported":1739110011,"current_range_meters":7200,"station_id":"ce4bhbh2rcd13ifvqepg","pricing_plan_id":"cebpf4jnsgd1na2vs0mg"},{"bike_id":"8b7462f7-c2ad-41dd-952a-c87db968195c","system_id":"levelo_inurba_marseille","lat":43.29253,"lon":5.384283,"is_reserved":false,"is_disabled":false,"rental_uris":{"android":"levelo://app?vid=8b7462f7-c2ad-41dd-952a-c87db968195c","ios":"levelo://app?vid=8b7462f7-c2ad-41dd-952a-c87db968195c"},"vehicle_type_id":"4","last_reported":1739110011,"current_range_meters":36400,"station_id":"ce4bh692rcd13ifvqea0","pricing_plan_id":"cebpf4jnsgd1na2vs0mg"},{"bike_id":"03dc0a60-23d6-429c-a406-0c86a8f516e4","system_id":"levelo_inurba_marseille","lat":43.24181,"lon":5.39706,"is_reserved":false,"is_disabled":false,"rental_uris":{"android":"levelo://app?vid=03dc0a60-23d6-429c-a406-0c86a8f516e4","ios":"levelo://app?vid=03dc0a60-23d6-429c-a406-0c86a8f516e4"},"vehicle_type_id":"4","last_reported":1739110011,"current_range_meters":32800,"station_id":"ce4bhn12rcd13ifvqgpg","pricing_plan_id":"cebpf4jnsgd1na2vs0mg"},{"bike_id":"e7c9102f-de83-43c3-a871-1b6285552687","system_id":"levelo_inurba_marseille","lat":43.30155,"lon":5.38088,"is_reserved":false,"is_disabled":false,"rental_uris":{"android":"levelo://app?vid=e7c9102f-de83-43c3-a871-1b6285552687","ios":"levelo://app?vid=e7c9102f-de83-43c3-a871-1b6285552687"},"vehicle_type_id":"4","last_reported":1739110011,"current_range_meters":34800,"station_id":"ce4bgjp2rcd13ifvqbh0","pricing_plan_id":"cebpf4jnsgd1na2vs0mg"},{"bike_id":"b1689668-635c-4bda-bace-ce8e5ef9d9f6","system_id":"levelo_inurba_marseille","lat":43.23211,"lon":5.35571,"is_reserved":false,"is_disabled":false,"rental_uris":{"android":"levelo://app?vid=b1689668-635c-4bda-bace-ce8e5ef9d9f6","ios":"levelo://app?vid=b1689668-635c-4bda-bace-ce8e5ef9d9f6"},"vehicle_type_id":"4","last_reported":1739110011,"current_range_meters":24400,"station_id":"ce4bhu92rcd13ifvqi70","pricing_plan_id":"cebpf4jnsgd1na2vs0mg"},{"bike_id":"4eb76448-eaf5-41bb-bffe-e4bd1b60aaf0","system_id":"levelo_inurba_marseille","lat":43.26563,"lon":5.37289,"is_reserved":false,"is_disabled":true,"rental_uris":{"android":"levelo://app?vid=4eb76448-eaf5-41bb-bffe-e4bd1b60aaf0","ios":"levelo://app?vid=4eb76448-eaf5-41bb-bffe-e4bd1b60aaf0"},"vehicle_type_id":"4","last_reported":1739110011,"current_range_meters":36400,"station_id":"ce4bhg12rcd13ifvqf70","pricing_plan_id":"cebpf4jnsgd1na2vs0mg"},{"bike_id":"e2200dc8-d2f7-4f30-b1b2-4f395de74e61","system_id":"levelo_inurba_marseille","lat":43.31134,"lon":5.3777,"is_reserved":false,"is_disabled":false,"rental_uris":{"android":"levelo://app?vid=e2200dc8-d2f7-4f30-b1b2-4f395de74e61","ios":"levelo://app?vid=e2200dc8-d2f7-4f30-b1b2-4f395de74e61"},"vehicle_type_id":"4","last_reported":1739110011,"current_range_meters":25600,"station_id":"ce4bgt92rcd13ifvqcg0","pricing_plan_id":"cebpf4jnsgd1na2vs0mg"},{"bike_id":"6dc8aad2-7037-4229-8043-78cd60c32539","system_id":"levelo_inurba_marseille","lat":43.23952,"lon":5.36632,"is_reserved":false,"is_disabled":false,"rental_uris":{"android":"levelo://app?vid=6dc8aad2-7037-4229-8043-78cd60c32539","ios":"levelo://app?vid=6dc8aad2-7037-4229-8043-78cd60c32539"},"vehicle_type_id":"4","last_reported":1739110011,"current_range_meters":38800,"station_id":"ce4bhi12rcd13ifvqfp0","pricing_plan_id":"cebpf4jnsgd1na2vs0mg"},{"bike_id":"0a06b704-41b4-4692-8743-9ddb9a636234","system_id":"levelo_inurba_marseille","lat":43.27565,"lon":5.38424,"is_reserved":false,"is_disabled":false,"rental_uris":{"android":"levelo://app?vid=0a06b704-41b4-4692-8743-9ddb9a636234","ios":"levelo://app?vid=0a06b704-41b4-4692-8743-9ddb9a636234"},"vehicle_type_id":"4","last_reported":1739110011,"current_range_meters":25200,"station_id":"ce4bhh92rcd13ifvqfi0","pricing_plan_id":"cebpf4jnsgd1na2vs0mg"},{"bike_id":"8ddd874c-bcbd-4d0e-89f0-ef8d6d33b4fd","system_id":"levelo_inurba_marseille","lat":43.30327,"lon":5.40427,"is_reserved":false,"is_disabled":false,"rental_uris":{"android":"levelo://app?vid=8ddd874c-bcbd-4d0e-89f0-ef8d6d33b4fd","ios":"levelo://app?vid=8ddd874c-bcbd-4d0e-89f0-ef8d6d33b4fd"},"vehicle_type_id":"4","last_reported":1739110011,"current_range_meters":31200,"station_id":"ce4bh012rcd13ifvqd10","pricing_plan_id":"cebpf4jnsgd1na2vs0mg"},{"bike_id":"891e205f-edb6-4417-95d0-d323fb0f946a","system_id":"levelo_inurba_marseille","lat":43.30548,"lon":5.36716,"is_reserved":false,"is_disabled":false,"rental_uris":{"android":"levelo://app?vid=891e205f-edb6-4417-95d0-d323fb0f946a","ios":"levelo://app?vid=891e205f-edb6-4417-95d0-d323fb0f946a"},"vehicle_type_id":"4","last_reported":1739110011,"current_range_meters":36000,"station_id":"ce4bgrp2rcd13ifvqc9g","pricing_plan_id":"cebpf4jnsgd1na2vs0mg"},{"bike_id":"ffe0f4ec-452b-455a-97e3-ecc9f5ed121c","system_id":"levelo_inurba_marseille","lat":43.29875,"lon":5.38914,"is_reserved":false,"is_disabled":true,"rental_uris":{"android":"levelo://app?vid=ffe0f4ec-452b-455a-97e3-ecc9f5ed121c","ios":"levelo://app?vid=ffe0f4ec-452b-455a-97e3-ecc9f5ed121c"},"vehicle_type_id":"4","last_reported":1739110011,"current_range_meters":35200,"station_id":"ce4bh392rcd13ifvqdl0","pricing_plan_id":"cebpf4jnsgd1na2vs0mg"},{"bike_id":"eac92a11-b105-4bc2-8604-5ba66229799a","system_id":"levelo_inurba_marseille","lat":43.30646,"lon":5.40094,"is_reserved":false,"is_disabled":false,"rental_uris":{"android":"levelo://app?vid=eac92a11-b105-4bc2-8604-5ba66229799a","ios":"levelo://app?vid=eac92a11-b105-4bc2-8604-5ba66229799a"},"vehicle_type_id":"4","last_reported":1739110011,"current_range_meters":18800,"station_id":"ce4bh112rcd13ifvqda0","pricing_plan_id":"cebpf4jnsgd1na2vs0mg"},{"bike_id":"54821b8f-03ba-4360-abc1-91db00db4644","system_id":"levelo_inurba_marseille","lat":43.25501,"lon":5.37659,"is_reserved":false,"is_disabled":false,"rental_uris":{"android":"levelo://app?vid=54821b8f-03ba-4360-abc1-91db00db4644","ios":"levelo://app?vid=54821b8f-03ba-4360-abc1-91db00db4644"},"vehicle_type_id":"4","last_reported":1739110011,"current_range_meters":38800,"station_id":"ce4bhh12rcd13ifvqff0","pricing_plan_id":"cebpf4jnsgd1na2vs0mg"},{"bike_id":"48cfa1b6-cea4-46a9-9cd0-36a8c7915375","system_id":"levelo_inurba_marseille","lat":43.27055,"lon":5.40263,"is_reserved":false,"is_disabled":false,"rental_uris":{"android":"levelo://app?vid=48cfa1b6-cea4-46a9-9cd0-36a8c7915375","ios":"levelo://app?vid=48cfa1b6-cea4-46a9-9cd0-36a8c7915375"},"vehicle_type_id":"4","last_reported":1739110011,"current_range_meters":38800,"station_id":"ce4bhk92rcd13ifvqgc0","pricing_plan_id":"cebpf4jnsgd1na2vs0mg"},{"bike_id":"66a32674-0e22-4208-bc59-e57e45db52af","system_id":"levelo_inurba_marseille","lat":43.24997,"lon":5.38933,"is_reserved":false,"is_disabled":false,"rental_uris":{"android":"levelo://app?vid=66a32674-0e22-4208-bc59-e57e45db52af","ios":"levelo://app?vid=66a32674-0e22-4208-bc59-e57e45db52af"},"vehicle_type_id":"4","last_reported":1739110011,"current_range_meters":28000,"station_id":"ce4bhgp2rcd13ifvqfd0","pricing_plan_id":"cebpf4jnsgd1na2vs0mg"},{"bike_id":"bf6b4f8a-ebdf-4a97-96a5-34d838a6edf6","system_id":"levelo_inurba_marseille","lat":43.23188,"lon":5.35558,"is_reserved":false,"is_disabled":false,"rental_uris":{"android":"levelo://app?vid=bf6b4f8a-ebdf-4a97-96a5-34d838a6edf6","ios":"levelo://app?vid=bf6b4f8a-ebdf-4a97-96a5-34d838a6edf6"},"vehicle_type_id":"4","last_reported":1739110011,"current_range_meters":25200,"station_id":"ce4bhu92rcd13ifvqi70","pricing_plan_id":"cebpf4jnsgd1na2vs0mg"},{"bike_id":"811b596f-d366-4ba7-8bb7-6aab07e70a55","system_id":"levelo_inurba_marseille","lat":43.28276,"lon":5.35065,"is_reserved":false,"is_disabled":false,"rental_uris":{"android":"levelo://app?vid=811b596f-d366-4ba7-8bb7-6aab07e70a55","ios":"levelo://app?vid=811b596f-d366-4ba7-8bb7-6aab07e70a55"},"vehicle_type_id":"4","last_reported":1739110011,"current_range_meters":15200,"station_id":"ce4bhbp2rcd13ifvqerg","pricing_plan_id":"cebpf4jnsgd1na2vs0mg"},{"bike_id":"add99ff6-f54a-4f52-b2a1-c4071c3f0d53","system_id":"levelo_inurba_marseille","lat":43.26682,"lon":5.38269,"is_reserved":false,"is_disabled":false,"rental_uris":{"android":"levelo://app?vid=add99ff6-f54a-4f52-b2a1-c4071c3f0d53","ios":"levelo://app?vid=add99ff6-f54a-4f52-b2a1-c4071c3f0d53"},"vehicle_type_id":"4","last_reported":1739110011,"current_range_meters":27200,"station_id":"ce4bhg92rcd13ifvqf90","pricing_plan_id":"cebpf4jnsgd1na2vs0mg"},{"bike_id":"d8f62340-4eca-4551-9614-e0d9ad9e8911","system_id":"levelo_inurba_marseille","lat":43.26947,"lon":5.38633,"is_reserved":false,"is_disabled":false,"rental_uris":{"android":"levelo://app?vid=d8f62340-4eca-4551-9614-e0d9ad9e8911","ios":"levelo://app?vid=d8f62340-4eca-4551-9614-e0d9ad9e8911"},"vehicle_type_id":"4","last_reported":1739110011,"current_range_meters":14400,"station_id":"ce4bhh92rcd13ifvqfh0","pricing_plan_id":"cebpf4jnsgd1na2vs0mg"},{"bike_id":"25abaf33-067a-4b80-89fd-6dd825a080ab","system_id":"levelo_inurba_marseille","lat":43.30149,"lon":5.38099,"is_reserved":false,"is_disabled":false,"rental_uris":{"android":"levelo://app?vid=25abaf33-067a-4b80-89fd-6dd825a080ab","ios":"levelo://app?vid=25abaf33-067a-4b80-89fd-6dd825a080ab"},"vehicle_type_id":"4","last_reported":1739110011,"current_range_meters":38800,"station_id":"ce4bgjp2rcd13ifvqbh0","pricing_plan_id":"cebpf4jnsgd1na2vs0mg"},{"bike_id":"c54adf54-2f88-445c-8d8e-45419eb2600c","system_id":"levelo_inurba_marseille","lat":43.30655,"lon":5.37326,"is_reserved":false,"is_disabled":false,"rental_uris":{"android":"levelo://app?vid=c54adf54-2f88-445c-8d8e-45419eb2600c","ios":"levelo://app?vid=c54adf54-2f88-445c-8d8e-45419eb2600c"},"vehicle_type_id":"4","last_reported":1739110011,"current_range_meters":8000,"station_id":"","pricing_plan_id":"cebpf4jnsgd1na2vs0mg"},{"bike_id":"06b81e0b-f59f-442b-8367-23cebd52cf43","system_id":"levelo_inurba_marseille","lat":43.27421,"lon":5.3941,"is_reserved":false,"is_disabled":false,"rental_uris":{"android":"levelo://app?vid=06b81e0b-f59f-442b-8367-23cebd52cf43","ios":"levelo://app?vid=06b81e0b-f59f-442b-8367-23cebd52cf43"},"vehicle_type_id":"4","last_reported":1739110011,"current_range_meters":38800,"station_id":"ce4bhdp2rcd13ifvqf20","pricing_plan_id":"cebpf4jnsgd1na2vs0mg"},{"bike_id":"455a36df-3663-418c-af3b-ce691823bf7f","system_id":"levelo_inurba_marseille","lat":43.30153,"lon":5.38086,"is_reserved":false,"is_disabled":false,"rental_uris":{"android":"levelo://app?vid=455a36df-3663-418c-af3b-ce691823bf7f","ios":"levelo://app?vid=455a36df-3663-418c-af3b-ce691823bf7f"},"vehicle_type_id":"4","last_reported":1739110011,"current_range_meters":38800,"station_id":"ce4bgjp2rcd13ifvqbh0","pricing_plan_id":"cebpf4jnsgd1na2vs0mg"},{"bike_id":"be61678a-055f-4cad-87b0-c5a707ca2316","system_id":"levelo_inurba_marseille","lat":43.28613,"lon":5.35099,"is_reserved":false,"is_disabled":false,"rental_uris":{"android":"levelo://app?vid=be61678a-055f-4cad-87b0-c5a707ca2316","ios":"levelo://app?vid=be61678a-055f-4cad-87b0-c5a707ca2316"},"vehicle_type_id":"4","last_reported":1739110011,"current_range_meters":33600,"station_id":"ce4bhch2rcd13ifvqeug","pricing_plan_id":"cebpf4jnsgd1na2vs0mg"},{"bike_id":"f9438944-6d7f-4d99-b575-fb4f3f5cf680","system_id":"levelo_inurba_marseille","lat":43.24815,"lon":5.37463,"is_reserved":false,"is_disabled":false,"rental_uris":{"android":"levelo://app?vid=f9438944-6d7f-4d99-b575-fb4f3f5cf680","ios":"levelo://app?vid=f9438944-6d7f-4d99-b575-fb4f3f5cf680"},"vehicle_type_id":"4","last_reported":1739110011,"current_range_meters":8400,"station_id":"ce4bhgh2rcd13ifvqfb0","pricing_plan_id":"cebpf4jnsgd1na2vs0mg"},{"bike_id":"4cb4f860-8345-491a-98c6-a257f85a3d80","system_id":"levelo_inurba_marseille","lat":43.27618,"lon":5.36107,"is_reserved":false,"is_disabled":false,"rental_uris":{"android":"levelo://app?vid=4cb4f860-8345-491a-98c6-a257f85a3d80","ios":"levelo://app?vid=4cb4f860-8345-491a-98c6-a257f85a3d80"},"vehicle_type_id":"4","last_reported":1739110011,"current_range_meters":22800,"station_id":"ce4bgj92rcd13ifvqbe0","pricing_plan_id":"cebpf4jnsgd1na2vs0mg"},{"bike_id":"49ad4b8c-5d5c-4a58-a784-a97fe60e5f1d","system_id":"levelo_inurba_marseille","lat":43.269397,"lon":5.402564,"is_reserved":false,"is_disabled":false,"rental_uris":{"android":"levelo://app?vid=49ad4b8c-5d5c-4a58-a784-a97fe60e5f1d","ios":"levelo://app?vid=49ad4b8c-5d5c-4a58-a784-a97fe60e5f1d"},"vehicle_type_id":"4","last_reported":1739110011,"current_range_meters":36800,"station_id":"cjm6bp8fraef2m0cb0m0","pricing_plan_id":"cebpf4jnsgd1na2vs0mg"},{"bike_id":"e6dda405-8e36-41fa-be31-4f4a06e7f526","system_id":"levelo_inurba_marseille","lat":43.25499,"lon":5.3765,"is_reserved":false,"is_disabled":false,"rental_uris":{"android":"levelo://app?vid=e6dda405-8e36-41fa-be31-4f4a06e7f526","ios":"levelo://app?vid=e6dda405-8e36-41fa-be31-4f4a06e7f526"},"vehicle_type_id":"4","last_reported":1739110011,"current_range_meters":32400,"station_id":"ce4bhh12rcd13ifvqff0","pricing_plan_id":"cebpf4jnsgd1na2vs0mg"},{"bike_id":"e17f3310-eae7-4f09-9d2d-669ea948e270","system_id":"levelo_inurba_marseille","lat":43.29862,"lon":5.38903,"is_reserved":false,"is_disabled":true,"rental_uris":{"android":"levelo://app?vid=e17f3310-eae7-4f09-9d2d-669ea948e270","ios":"levelo://app?vid=e17f3310-eae7-4f09-9d2d-669ea948e270"},"vehicle_type_id":"4","last_reported":1739110011,"current_range_meters":0,"station_id":"ce4bh392rcd13ifvqdl0","pricing_plan_id":"cebpf4jnsgd1na2vs0mg"},{"bike_id":"707b2b72-41ef-485b-b15d-e8aef174c383","system_id":"levelo_inurba_marseille","lat":43.26953,"lon":5.38635,"is_reserved":false,"is_disabled":false,"rental_uris":{"android":"levelo://app?vid=707b2b72-41ef-485b-b15d-e8aef174c383","ios":"levelo://app?vid=707b2b72-41ef-485b-b15d-e8aef174c383"},"vehicle_type_id":"4","last_reported":1739110011,"current_range_meters":35600,"station_id":"ce4bhh92rcd13ifvqfh0","pricing_plan_id":"cebpf4jnsgd1na2vs0mg"},{"bike_id":"78169cd8-e25e-4ad0-a456-203638a9077d","system_id":"levelo_inurba_marseille","lat":43.27991,"lon":5.4,"is_reserved":false,"is_disabled":false,"rental_uris":{"android":"levelo://app?vid=78169cd8-e25e-4ad0-a456-203638a9077d","ios":"levelo://app?vid=78169cd8-e25e-4ad0-a456-203638a9077d"},"vehicle_type_id":"4","last_reported":1739110011,"current_range_meters":38000,"station_id":"ce4bho92rcd13ifvqh4g","pricing_plan_id":"cebpf4jnsgd1na2vs0mg"},{"bike_id":"7e6b9390-8e14-4072-a1d2-f883af888cf5","system_id":"levelo_inurba_marseille","lat":43.27313,"lon":5.39083,"is_reserved":false,"is_disabled":false,"rental_uris":{"android":"levelo://app?vid=7e6b9390-8e14-4072-a1d2-f883af888cf5","ios":"levelo://app?vid=7e6b9390-8e14-4072-a1d2-f883af888cf5"},"vehicle_type_id":"4","last_reported":1739110011,"current_range_meters":38800,"station_id":"ce4bhgp2rcd13ifvqfe0","pricing_plan_id":"cebpf4jnsgd1na2vs0mg"},{"bike_id":"f62baaa0-acf5-4024-a37e-cd8e38fe69fd","system_id":"levelo_inurba_marseille","lat":43.337444,"lon":5.374475,"is_reserved":false,"is_disabled":true,"rental_uris":{"android":"levelo://app?vid=f62baaa0-acf5-4024-a37e-cd8e38fe69fd","ios":"levelo://app?vid=f62baaa0-acf5-4024-a37e-cd8e38fe69fd"},"vehicle_type_id":"4","last_reported":1739110011,"current_range_meters":0,"station_id":"","pricing_plan_id":"cebpf4jnsgd1na2vs0mg"},{"bike_id":"166aa644-780e-474f-90e2-8b51ecdc1412","system_id":"levelo_inurba_marseille","lat":43.29938,"lon":5.3654,"is_reserved":false,"is_disabled":false,"rental_uris":{"android":"levelo://app?vid=166aa644-780e-474f-90e2-8b51ecdc1412","ios":"levelo://app?vid=166aa644-780e-474f-90e2-8b51ecdc1412"},"vehicle_type_id":"4","last_reported":1739110011,"current_range_meters":30800,"station_id":"ce4bgm92rcd13ifvqbr0","pricing_plan_id":"cebpf4jnsgd1na2vs0mg"},{"bike_id":"4519c319-a4ff-4245-ac2a-9b296944e8ef","system_id":"levelo_inurba_marseille","lat":43.2319,"lon":5.35541,"is_reserved":false,"is_disabled":false,"rental_uris":{"android":"levelo://app?vid=4519c319-a4ff-4245-ac2a-9b296944e8ef","ios":"levelo://app?vid=4519c319-a4ff-4245-ac2a-9b296944e8ef"},"vehicle_type_id":"4","last_reported":1739110011,"current_range_meters":38800,"station_id":"ce4bhu92rcd13ifvqi70","pricing_plan_id":"cebpf4jnsgd1na2vs0mg"},{"bike_id":"bc980828-17a3-413b-92a3-0433d268317c","system_id":"levelo_inurba_marseille","lat":43.29932,"lon":5.36551,"is_reserved":false,"is_disabled":false,"rental_uris":{"android":"levelo://app?vid=bc980828-17a3-413b-92a3-0433d268317c","ios":"levelo://app?vid=bc980828-17a3-413b-92a3-0433d268317c"},"vehicle_type_id":"4","last_reported":1739110011,"current_range_meters":34800,"station_id":"ce4bgm92rcd13ifvqbr0","pricing_plan_id":"cebpf4jnsgd1na2vs0mg"},{"bike_id":"bfd37acc-b4b8-4331-8580-5ec2c7bf7c46","system_id":"levelo_inurba_marseille","lat":43.28445,"lon":5.39187,"is_reserved":false,"is_disabled":true,"rental_uris":{"android":"levelo://app?vid=bfd37acc-b4b8-4331-8580-5ec2c7bf7c46","ios":"levelo://app?vid=bfd37acc-b4b8-4331-8580-5ec2c7bf7c46"},"vehicle_type_id":"4","last_reported":1739110011,"current_range_meters":30000,"station_id":"ce4bhoh2rcd13ifvqh5g","pricing_plan_id":"cebpf4jnsgd1na2vs0mg"},{"bike_id":"9b576e5f-6615-4246-8689-04dc3ff04627","system_id":"levelo_inurba_marseille","lat":43.25721,"lon":5.41096,"is_reserved":false,"is_disabled":false,"rental_uris":{"android":"levelo://app?vid=9b576e5f-6615-4246-8689-04dc3ff04627","ios":"levelo://app?vid=9b576e5f-6615-4246-8689-04dc3ff04627"},"vehicle_type_id":"4","last_reported":1739110011,"current_range_meters":4000,"station_id":"ce4bhkp2rcd13ifvqgd0","pricing_plan_id":"cebpf4jnsgd1na2vs0mg"},{"bike_id":"5760f0af-9e2f-49c1-8322-6cf02db662ec","system_id":"levelo_inurba_marseille","lat":43.23187,"lon":5.35565,"is_reserved":false,"is_disabled":false,"rental_uris":{"android":"levelo://app?vid=5760f0af-9e2f-49c1-8322-6cf02db662ec","ios":"levelo://app?vid=5760f0af-9e2f-49c1-8322-6cf02db662ec"},"vehicle_type_id":"4","last_reported":1739110011,"current_range_meters":8000,"station_id":"ce4bhu92rcd13ifvqi70","pricing_plan_id":"cebpf4jnsgd1na2vs0mg"},{"bike_id":"b16ab861-594a-49d0-a10d-df596d56dccf","system_id":"levelo_inurba_marseille","lat":43.25505,"lon":5.37655,"is_reserved":false,"is_disabled":false,"rental_uris":{"android":"levelo://app?vid=b16ab861-594a-49d0-a10d-df596d56dccf","ios":"levelo://app?vid=b16ab861-594a-49d0-a10d-df596d56dccf"},"vehicle_type_id":"4","last_reported":1739110011,"current_range_meters":19600,"station_id":"ce4bhh12rcd13ifvqff0","pricing_plan_id":"cebpf4jnsgd1na2vs0mg"},{"bike_id":"80c665f0-22f8-4a46-b289-15d26a2bbba1","system_id":"levelo_inurba_marseille","lat":43.29269,"lon":5.36846,"is_reserved":false,"is_disabled":true,"rental_uris":{"android":"levelo://app?vid=80c665f0-22f8-4a46-b289-15d26a2bbba1","ios":"levelo://app?vid=80c665f0-22f8-4a46-b289-15d26a2bbba1"},"vehicle_type_id":"4","last_reported":1739110011,"current_range_meters":32400,"station_id":"ce4bhbp2rcd13ifvqesg","pricing_plan_id":"cebpf4jnsgd1na2vs0mg"},