{"last_updated":1761958553,"ttl":60,"version":"2.2","data":{"bikes":[{"bike_id":"6bfb3d7d-5696-40b9-a32f-b1ef6685eb56","system_id":"levelo_inurba_marseille","lat":43.23184,"lon":5.35535,"is_reserved":false,"is_disabled":false,"rental_uris":{"android":"levelo://app?vid=6bfb3d7d-5696-40b9-a32f-b1ef6685eb56","ios":"levelo://app?vid=6bfb3d7d-5696-40b9-a32f-b1ef6685eb56"},"vehicle_type_id":"4","last_reported":1761958553,"current_range_meters":2800,"station_id":"ce4bhu92rcd13ifvqi70","pricing_plan_id":"cebpf4jnsgd1na2vs0mg"},{"bike_id":"b94abec6-6a81-4a7f-819c-f3daba663384","system_id":"levelo_inurba_marseille","lat":43.28999,"lon":5.35642,"is_reserved":false,"is_disabled":false,"rental_uris":{"android":"levelo://app?vid=b94abec6-6a81-4a7f-819c-f3daba663384","ios":"levelo://app?vid=b94abec6-6a81-4a7f-819c-f3daba663384"},"vehicle_type_id":"4","last_reported":1761958553,"current_range_meters":2800,"station_id":"ce4bhb92rcd13ifvqen0","pricing_plan_id":"cebpf4jnsgd1na2vs0mg"},{"bike_id":"c27dfb1b-1df1-438b-8d9f-cf9dc7410ad0","system_id":"levelo_inurba_marseille","lat":43.24799,"lon":5.37452,"is_reserved":false,"is_disabled":false,"rental_uris":{"android":"levelo://app?vid=c27dfb1b-1df1-438b-8d9f-cf9dc7410ad0","ios":"levelo://app?vid=c27dfb1b-1df1-438b-8d9f-cf9dc7410ad0"},"vehicle_type_id":"4","last_reported":1761958553,"current_range_meters":2800,"station_id":"ce4bhgh2rcd13ifvqfb0","pricing_plan_id":"cebpf4jnsgd1na2vs0mg"},{"bike_id":"1bdb0524-fd2f-434a-9e83-4b7a1a09b5bb","system_id":"levelo_inurba_marseille","lat":43.33393,"lon":5.41115,"is_reserved":false,"is_disabled":false,"rental_uris":{"android":"levelo://app?vid=1bdb0524-fd2f-434a-9e83-4b7a1a09b5bb","ios":"levelo://app?vid=1bdb0524-fd2f-434a-9e83-4b7a1a09b5bb"},"vehicle_type_id":"4","last_reported":1761958553,"current_range_meters":3200,"station_id":"","pricing_plan_id":"cebpf4jnsgd1na2vs0mg"},{"bike_id":"4e04ed7f-b04f-4871-addf-4668bd5f0482","system_id":"levelo_inurba_marseille","lat":43.28411,"lon":5.37512,"is_reserved":false,"is_disabled":false,"rental_uris":{"android":"levelo://app?vid=4e04ed7f-b04f-4871-addf-4668bd5f0482","ios":"levelo://app?vid=4e04ed7f-b04f-4871-addf-4668bd5f0482"},"vehicle_type_id":"4","last_reported":1761958553,"current_range_meters":3600,"station_id":"ce4bh412rcd13ifvqds0","pricing_plan_id":"cebpf4jnsgd1na2vs0mg"},{"bike_id":"4dc67512-40de-4942-ada5-8d92426b73c5","system_id":"levelo_inurba_marseille","lat":43.23193,"lon":5.35555,"is_reserved":false,"is_disabled":false,"rental_uris":{"android":"levelo://app?vid=4dc67512-40de-4942-ada5-8d92426b73c5","ios":"levelo://app?vid=4dc67512-40de-4942-ada5-8d92426b73c5"},"vehicle_type_id":"4","last_reported":1761958553,"current_range_meters":3600,"station_id":"ce4bhu92rcd13ifvqi70","pricing_plan_id":"cebpf4jnsgd1na2vs0mg"},{"bike_id":"7429e722-0140-4583-bd6d-6fc4e8aad56b","system_id":"levelo_inurba_marseille","lat":43.30538,"lon":5.37065,"is_reserved":false,"is_disabled":false,"rental_uris":{"android":"levelo://app?vid=7429e722-0140-4583-bd6d-6fc4e8aad56b","ios":"levelo://app?vid=7429e722-0140-4583-bd6d-6fc4e8aad56b"},"vehicle_type_id":"4","last_reported":1761958553,"current_range_meters":4000,"station_id":"","pricing_plan_id":"cebpf4jnsgd1na2vs0mg"},{"bike_id":"e2e234d1-ec3f-47be-89ec-bb04c1f6a91d","system_id":"levelo_inurba_marseille","lat":43.31118,"lon":5.3777,"is_reserved":false,"is_disabled":false,"rental_uris":{"android":"levelo://app?vid=e2e234d1-ec3f-47be-89ec-bb04c1f6a91d","ios":"levelo://app?vid=e2e234d1-ec3f-47be-89ec-bb04c1f6a91d"},"vehicle_type_id":"4","last_reported":1761958553,"current_range_meters":4400,"station_id":"ce4bgt92rcd13ifvqcg0","pricing_plan_id":"cebpf4jnsgd1na2vs0mg"},{"bike_id":"6fff56e2-dc33-4322-9554-e738206d1bc0","system_id":"levelo_inurba_marseille","lat":43.21196,"lon":5.3507,"is_reserved":false,"is_disabled":false,"rental_uris":{"android":"levelo://app?vid=6fff56e2-dc33-4322-9554-e738206d1bc0","ios":"levelo://app?vid=6fff56e2-dc33-4322-9554-e738206d1bc0"},"vehicle_type_id":"4","last_reported":1761958553,"current_range_meters":4800,"station_id":"st_cvj6sg6p6f1abm77japg","pricing_plan_id":"cebpf4jnsgd1na2vs0mg"},{"bike_id":"d8c40e7f-7c49-43e3-8df6-ee4dc968a404","system_id":"levelo_inurba_marseille","lat":43.285065,"lon":5.359897,"is_reserved":false,"is_disabled":false,"rental_uris":{"android":"levelo://app?vid=d8c40e7f-7c49-43e3-8df6-ee4dc968a404","ios":"levelo://app?vid=d8c40e7f-7c49-43e3-8df6-ee4dc968a404"},"vehicle_type_id":"4","last_reported":1761958553,"current_range_meters":4800,"station_id":"ce4bhah2rcd13ifvqei0","pricing_plan_id":"cebpf4jnsgd1na2vs0mg"},{"bike_id":"353707cb-ee13-454e-93fa-cd045a63e5fb","system_id":"levelo_inurba_marseille","lat":43.285741,"lon":5.370908,"is_reserved":false,"is_disabled":false,"rental_uris":{"android":"levelo://app?vid=353707cb-ee13-454e-93fa-cd045a63e5fb","ios":"levelo://app?vid=353707cb-ee13-454e-93fa-cd045a63e5fb"},"vehicle_type_id":"4","last_reported":1761958553,"current_range_meters":4800,"station_id":"ce4bht12rcd13ifvqi60","pricing_plan_id":"cebpf4jnsgd1na2vs0mg"},{"bike_id":"94c4116b-3d46-4503-ad13-11e4a7c4d39b","system_id":"levelo_inurba_marseille","lat":43.279858,"lon":5.416595,"is_reserved":false,"is_disabled":false,"rental_uris":{"android":"levelo://app?vid=94c4116b-3d46-4503-ad13-11e4a7c4d39b","ios":"levelo://app?vid=94c4116b-3d46-4503-ad13-11e4a7c4d39b"},"vehicle_type_id":"4","last_reported":1761958553,"current_range_meters":4800,"station_id":"ce4bho12rcd13ifvqh1g","pricing_plan_id":"cebpf4jnsgd1na2vs0mg"},{"bike_id":"cf23487d-e129-4524-afd6-124971a910ea","system_id":"levelo_inurba_marseille","lat":43.27965,"lon":5.41002,"is_reserved":false,"is_disabled":true,"rental_uris":{"android":"levelo://app?vid=cf23487d-e129-4524-afd6-124971a910ea","ios":"levelo://app?vid=cf23487d-e129-4524-afd6-124971a910ea"},"vehicle_type_id":"4","last_reported":1761958553,"current_range_meters":4800,"station_id":"ce4bhnp2rcd13ifvqh0g","pricing_plan_id":"cebpf4jnsgd1na2vs0mg"},{"bike_id":"ee1ff393-541d-4524-b4e6-d39057451046","system_id":"levelo_inurba_marseille","lat":43.29583,"lon":5.40045,"is_reserved":false,"is_disabled":false,"rental_uris":{"android":"levelo://app?vid=ee1ff393-541d-4524-b4e6-d39057451046","ios":"levelo://app?vid=ee1ff393-541d-4524-b4e6-d39057451046"},"vehicle_type_id":"4","last_reported":1761958553,"current_range_meters":4800,"station_id":"","pricing_plan_id":"cebpf4jnsgd1na2vs0mg"},{"bike_id":"3f9d89b0-a3c3-4b72-9969-08e348af8256","system_id":"levelo_inurba_marseille","lat":43.29809,"lon":5.4023,"is_reserved":false,"is_disabled":false,"rental_uris":{"android":"levelo://app?vid=3f9d89b0-a3c3-4b72-9969-08e348af8256","ios":"levelo://app?vid=3f9d89b0-a3c3-4b72-9969-08e348af8256"},"vehicle_type_id":"4","last_reported":1761958553,"current_range_meters":5600,"station_id":"","pricing_plan_id":"cebpf4jnsgd1na2vs0mg"},{"bike_id":"af08d418-d15a-4e76-8f79-f83662392e2b","system_id":"levelo_inurba_marseille","lat":43.24811,"lon":5.37459,"is_reserved":false,"is_disabled":false,"rental_uris":{"android":"levelo://app?vid=af08d418-d15a-4e76-8f79-f83662392e2b","ios":"levelo://app?vid=af08d418-d15a-4e76-8f79-f83662392e2b"},"vehicle_type_id":"4","last_reported":1761958553,"current_range_meters":5600,"station_id":"ce4bhgh2rcd13ifvqfb0","pricing_plan_id":"cebpf4jnsgd1na2vs0mg"},{"bike_id":"2ced2152-41af-4e41-82cb-7e0c7506396f","system_id":"levelo_inurba_marseille","lat":43.26568,"lon":5.37309,"is_reserved":false,"is_disabled":false,"rental_uris":{"android":"levelo://app?vid=2ced2152-41af-4e41-82cb-7e0c7506396f","ios":"levelo://app?vid=2ced2152-41af-4e41-82cb-7e0c7506396f"},"vehicle_type_id":"4","last_reported":1761958553,"current_range_meters":6000,"station_id":"ce4bhg12rcd13ifvqf70","pricing_plan_id":"cebpf4jnsgd1na2vs0mg"},{"bike_id":"fec63e26-853d-4367-87a3-f2b7b5a55fc0","system_id":"levelo_inurba_marseille","lat":43.29306,"lon":5.37453,"is_reserved":false,"is_disabled":false,"rental_uris":{"android":"levelo://app?vid=fec63e26-853d-4367-87a3-f2b7b5a55fc0","ios":"levelo://app?vid=fec63e26-853d-4367-87a3-f2b7b5a55fc0"},"vehicle_type_id":"4","last_reported":1761958553,"current_range_meters":6000,"station_id":"ce4bgi12rcd13ifvqb70","pricing_plan_id":"cebpf4jnsgd1na2vs0mg"},{"bike_id":"75de79a0-082b-4195-913b-8044af6adb75","system_id":"levelo_inurba_marseille","lat":43.27814,"lon":5.40719,"is_reserved":false,"is_disabled":false,"rental_uris":{"android":"levelo://app?vid=75de79a0-082b-4195-913b-8044af6adb75","ios":"levelo://app?vid=75de79a0-082b-4195-913b-8044af6adb75"},"vehicle_type_id":"4","last_reported":1761958553,"current_range_meters":6000,"station_id":"ce4bhnh2rcd13ifvqgtg","pricing_plan_id":"cebpf4jnsgd1na2vs0mg"},{"bike_id":"6e92805b-9499-4ad4-bb3b-bdc7e9a84715","system_id":"levelo_inurba_marseille","lat":43.28694,"lon":5.3738,"is_reserved":false,"is_disabled":false,"rental_uris":{"android":"levelo://app?vid=6e92805b-9499-4ad4-bb3b-bdc7e9a84715","ios":"levelo://app?vid=6e92805b-9499-4ad4-bb3b-bdc7e9a84715"},"vehicle_type_id":"4","last_reported":1761958553,"current_range_meters":6400,"station_id":"ce4bh3p2rcd13ifvqdq0","pricing_plan_id":"cebpf4jnsgd1na2vs0mg"},{"bike_id":"b190f1fd-7f83-49e9-853d-1dab375c2c63","system_id":"levelo_inurba_marseille","lat":43.25068,"lon":5.37505,"is_reserved":false,"is_disabled":false,"rental_uris":{"android":"levelo://app?vid=b190f1fd-7f83-49e9-853d-1dab375c2c63","ios":"levelo://app?vid=b190f1fd-7f83-49e9-853d-1dab375c2c63"},"vehicle_type_id":"4","last_reported":1761958553,"current_range_meters":6400,"station_id":"","pricing_plan_id":"cebpf4jnsgd1na2vs0mg"},{"bike_id":"700a0638-38c5-48ba-a188-e9410b926bb8","system_id":"levelo_inurba_marseille","lat":43.29383,"lon":5.3997,"is_reserved":false,"is_disabled":false,"rental_uris":{"android":"levelo://app?vid=700a0638-38c5-48ba-a188-e9410b926bb8","ios":"levelo://app?vid=700a0638-38c5-48ba-a188-e9410b926bb8"},"vehicle_type_id":"4","last_reported":1761958553,"current_range_meters":6800,"station_id":"","pricing_plan_id":"cebpf4jnsgd1na2vs0mg"},{"bike_id":"f2287fbd-65b0-4975-b44b-578b0e69e1ef","system_id":"levelo_inurba_marseille","lat":43.31119,"lon":5.37758,"is_reserved":false,"is_disabled":false,"rental_uris":{"android":"levelo://app?vid=f2287fbd-65b0-4975-b44b-578b0e69e1ef","ios":"levelo://app?vid=f2287fbd-65b0-4975-b44b-578b0e69e1ef"},"vehicle_type_id":"4","last_reported":1761958553,"current_range_meters":6800,"station_id":"ce4bgt92rcd13ifvqcg0","pricing_plan_id":"cebpf4jnsgd1na2vs0mg"},{"bike_id":"4db8d737-678f-4b25-a27d-6ee58f3a7bfe","system_id":"levelo_inurba_marseille","lat":43.258204,"lon":5.394355,"is_reserved":false,"is_disabled":false,"rental_uris":{"android":"levelo://app?vid=4db8d737-678f-4b25-a27d-6ee58f3a7bfe","ios":"levelo://app?vid=4db8d737-678f-4b25-a27d-6ee58f3a7bfe"},"vehicle_type_id":"4","last_reported":1761958553,"current_range_meters":6800,"station_id":"ce4bhip2rcd13ifvqft0","pricing_plan_id":"cebpf4jnsgd1na2vs0mg"},{"bike_id":"da503111-5feb-4a8e-b697-ab299317bc1a","system_id":"levelo_inurba_marseille","lat":43.28502,"lon":5.36656,"is_reserved":false,"is_disabled":false,"rental_uris":{"android":"levelo://app?vid=da503111-5feb-4a8e-b697-ab299317bc1a","ios":"levelo://app?vid=da503111-5feb-4a8e-b697-ab299317bc1a"},"vehicle_type_id":"4","last_reported":1761958553,"current_range_meters":6800,"station_id":"","pricing_plan_id":"cebpf4jnsgd1na2vs0mg"},{"bike_id":"b48e6787-a8ef-4c96-aca9-afb3d4b57520","system_id":"levelo_inurba_marseille","lat":43.29718,"lon":5.36621,"is_reserved":false,"is_disabled":false,"rental_uris":{"android":"levelo://app?vid=b48e6787-a8ef-4c96-aca9-afb3d4b57520","ios":"levelo://app?vid=b48e6787-a8ef-4c96-aca9-afb3d4b57520"},"vehicle_type_id":"4","last_reported":1761958553,"current_range_meters":6800,"station_id":"ce4bgn12rcd13ifvqbt0","pricing_plan_id":"cebpf4jnsgd1na2vs0mg"},{"bike_id":"8954b8f5-d147-4d14-97cc-f682fb11f9d2","system_id":"levelo_inurba_marseille","lat":43.28482,"lon":5.38415,"is_reserved":false,"is_disabled":false,"rental_uris":{"android":"levelo://app?vid=8954b8f5-d147-4d14-97cc-f682fb11f9d2","ios":"levelo://app?vid=8954b8f5-d147-4d14-97cc-f682fb11f9d2"},"vehicle_type_id":"4","last_reported":1761958553,"current_range_meters":6800,"station_id":"ce4bh512rcd13ifvqe3g","pricing_plan_id":"cebpf4jnsgd1na2vs0mg"},{"bike_id":"688e0991-23bb-4f67-a97d-b9bb7704a66a","system_id":"levelo_inurba_marseille","lat":43.29255,"lon":5.39101,"is_reserved":false,"is_disabled":false,"rental_uris":{"android":"levelo://app?vid=688e0991-23bb-4f67-a97d-b9bb7704a66a","ios":"levelo://app?vid=688e0991-23bb-4f67-a97d-b9bb7704a66a"},"vehicle_type_id":"4","last_reported":1761958553,"current_range_meters":7200,"station_id":"","pricing_plan_id":"cebpf4jnsgd1na2vs0mg"},{"bike_id":"c4aa9d59-3ee0-47ad-afd6-964ca21413f9","system_id":"levelo_inurba_marseille","lat":43.29178,"lon":5.35629,"is_reserved":false,"is_disabled":false,"rental_uris":{"android":"levelo://app?vid=c4aa9d59-3ee0-47ad-afd6-964ca21413f9","ios":"levelo://app?vid=c4aa9d59-3ee0-47ad-afd6-964ca21413f9"},"vehicle_type_id":"4","last_reported":1761958553,"current_range_meters":7200,"station_id":"","pricing_plan_id":"cebpf4jnsgd1na2vs0mg"},{"bike_id":"4605b908-9b97-4f52-bf86-714389a43d8a","system_id":"levelo_inurba_marseille","lat":43.26565,"lon":5.37307,"is_reserved":false,"is_disabled":false,"rental_uris":{"android":"levelo://app?vid=4605b908-9b97-4f52-bf86-714389a43d8a","ios":"levelo://app?vid=4605b908-9b97-4f52-bf86-714389a43d8a"},"vehicle_type_id":"4","last_reported":1761958553,"current_range_meters":7200,"station_id":"ce4bhg12rcd13ifvqf70","pricing_plan_id":"cebpf4jnsgd1na2vs0mg"},{"bike_id":"e17c31b8-c0cd-4c6e-bdf9-6644a8ff85e2","system_id":"levelo_inurba_marseille","lat":43.2961,"lon":5.3811,"is_reserved":false,"is_disabled":true,"rental_uris":{"android":"levelo://app?vid=e17c31b8-c0cd-4c6e-bdf9-6644a8ff85e2","ios":"levelo://app?vid=e17c31b8-c0cd-4c6e-bdf9-6644a8ff85e2"},"vehicle_type_id":"4","last_reported":1761958553,"current_range_meters":7200,"station_id":"ce4bgl12rcd13ifvqbo0","pricing_plan_id":"cebpf4jnsgd1na2vs0mg"},{"bike_id":"fe9526a7-901c-4b59-8db6-0645e6c2eed5","system_id":"levelo_inurba_marseille","lat":43.23193,"lon":5.35546,"is_reserved":false,"is_disabled":false,"rental_uris":{"android":"levelo://app?vid=fe9526a7-901c-4b59-8db6-0645e6c2eed5","ios":"levelo://app?vid=fe9526a7-901c-4b59-8db6-0645e6c2eed5"},"vehicle_type_id":"4","last_reported":1761958553,"current_range_meters":7200,"station_id":"ce4bhu92rcd13ifvqi70","pricing_plan_id":"cebpf4jnsgd1na2vs0mg"},{"bike_id":"3dab03ab-b250-4b40-b286-0668266ab52e","system_id":"levelo_inurba_marseille","lat":43.28864,"lon":5.42523,"is_reserved":false,"is_disabled":false,"rental_uris":{"android":"levelo://app?vid=3dab03ab-b250-4b40-b286-0668266ab52e","ios":"levelo://app?vid=3dab03ab-b250-4b40-b286-0668266ab52e"},"vehicle_type_id":"4","last_reported":1761958553,"current_range_meters":8000,"station_id":"st_d3b462108ojc7389ooeg","pricing_plan_id":"cebpf4jnsgd1na2vs0mg"},{"bike_id":"cdcac2c4-8b73-4d2e-a190-a01486717078","system_id":"levelo_inurba_marseille","lat":43.25586,"lon":5.38231,"is_reserved":false,"is_disabled":false,"rental_uris":{"android":"levelo://app?vid=cdcac2c4-8b73-4d2e-a190-a01486717078","ios":"levelo://app?vid=cdcac2c4-8b73-4d2e-a190-a01486717078"},"vehicle_type_id":"4","last_reported":1761958553,"current_range_meters":8000,"station_id":"ce4bhih2rcd13ifvqfs0","pricing_plan_id":"cebpf4jnsgd1na2vs0mg"},{"bike_id":"f2f1709e-6687-4ad6-9408-47bae2a53053","system_id":"levelo_inurba_marseille","lat":43.24166,"lon":5.36387,"is_reserved":false,"is_disabled":false,"rental_uris":{"android":"levelo://app?vid=f2f1709e-6687-4ad6-9408-47bae2a53053","ios":"levelo://app?vid=f2f1709e-6687-4ad6-9408-47bae2a53053"},"vehicle_type_id":"4","last_reported":1761958553,"current_range_meters":8000,"station_id":"cpo36qri1sfpv3e86is0","pricing_plan_id":"cebpf4jnsgd1na2vs0mg"},{"bike_id":"94174092-9b6d-46e9-983e-bf71025b5112","system_id":"levelo_inurba_marseille","lat":43.27917,"lon":5.39586,"is_reserved":false,"is_disabled":false,"rental_uris":{"android":"levelo://app?vid=94174092-9b6d-46e9-983e-bf71025b5112","ios":"levelo://app?vid=94174092-9b6d-46e9-983e-bf71025b5112"},"vehicle_type_id":"4","last_reported":1761958553,"current_range_meters":8000,"station_id":"ce4bhf92rcd13ifvqf40","pricing_plan_id":"cebpf4jnsgd1na2vs0mg"},{"bike_id":"6318a75a-2cf3-4ecd-821a-317a3477e953","system_id":"levelo_inurba_marseille","lat":43.25522,"lon":5.3765,"is_reserved":false,"is_disabled":false,"rental_uris":{"android":"levelo://app?vid=6318a75a-2cf3-4ecd-821a-317a3477e953","ios":"levelo://app?vid=6318a75a-2cf3-4ecd-821a-317a3477e953"},"vehicle_type_id":"4","last_reported":1761958553,"current_range_meters":8400,"station_id":"ce4bhh12rcd13ifvqff0","pricing_plan_id":"cebpf4jnsgd1na2vs0mg"},{"bike_id":"bbd730cd-ef9c-49c2-a146-510dca5c6660","system_id":"levelo_inurba_marseille","lat":43.29579,"lon":5.40046,"is_reserved":false,"is_disabled":false,"rental_uris":{"android":"levelo://app?vid=bbd730cd-ef9c-49c2-a146-510dca5c6660","ios":"levelo://app?vid=bbd730cd-ef9c-49c2-a146-510dca5c6660"},"vehicle_type_id":"4","last_reported":1761958553,"current_range_meters":8400,"station_id":"","pricing_plan_id":"cebpf4jnsgd1na2vs0mg"},{"bike_id":"ab575d37-9763-4677-a12f-1d5c69f93770","system_id":"levelo_inurba_marseille","lat":43.31377,"lon":5.38538,"is_reserved":false,"is_disabled":false,"rental_uris":{"android":"levelo://app?vid=ab575d37-9763-4677-a12f-1d5c69f93770","ios":"levelo://app?vid=ab575d37-9763-4677-a12f-1d5c69f93770"},"vehicle_type_id":"4","last_reported":1761958553,"current_range_meters":8400,"station_id":"ce4bgt92rcd13ifvqcf0","pricing_plan_id":"cebpf4jnsgd1na2vs0mg"},{"bike_id":"a8a9c0cd-4608-4387-8078-d11714d7ed15","system_id":"levelo_inurba_marseille","lat":43.290772,"lon":5.355878,"is_reserved":false,"is_disabled":false,"rental_uris":{"android":"levelo://app?vid=a8a9c0cd-4608-4387-8078-d11714d7ed15","ios":"levelo://app?vid=a8a9c0cd-4608-4387-8078-d11714d7ed15"},"vehicle_type_id":"4","last_reported":1761958553,"current_range_meters":8400,"station_id":"ce4bhbh2rcd13ifvqeqg","pricing_plan_id":"cebpf4jnsgd1na2vs0mg"},{"bike_id":"b7bf08da-3155-4ebd-90f6-2c65138a1e9a","system_id":"levelo_inurba_marseille","lat":43.21199,"lon":5.3507,"is_reserved":false,"is_disabled":false,"rental_uris":{"android":"levelo://app?vid=b7bf08da-3155-4ebd-90f6-2c65138a1e9a","ios":"levelo://app?vid=b7bf08da-3155-4ebd-90f6-2c65138a1e9a"},"vehicle_type_id":"4","last_reported":1761958553,"current_range_meters":8400,"station_id":"st_cvj6sg6p6f1abm77japg","pricing_plan_id":"cebpf4jnsgd1na2vs0mg"},{"bike_id":"a18dbf48-2c4d-4fa4-a4c5-c9871d73c9a0","system_id":"levelo_inurba_marseille","lat":43.301994,"lon":5.383462,"is_reserved":false,"is_disabled":false,"rental_uris":{"android":"levelo://app?vid=a18dbf48-2c4d-4fa4-a4c5-c9871d73c9a0","ios":"levelo://app?vid=a18dbf48-2c4d-4fa4-a4c5-c9871d73c9a0"},"vehicle_type_id":"4","last_reported":1761958553,"current_range_meters":8400,"station_id":"ce4bgup2rcd13ifvqcn0","pricing_plan_id":"cebpf4jnsgd1na2vs0mg"},{"bike_id":"2d529197-22ba-4ef7-9d97-11566ca86a69","system_id":"levelo_inurba_marseille","lat":43.24814,"lon":5.37423,"is_reserved":false,"is_disabled":false,"rental_uris":{"android":"levelo://app?vid=2d529197-22ba-4ef7-9d97-11566ca86a69","ios":"levelo://app?vid=2d529197-22ba-4ef7-9d97-11566ca86a69"},"vehicle_type_id":"4","last_reported":1761958553,"current_range_meters":8400,"station_id":"ce4bhgh2rcd13ifvqfb0","pricing_plan_id":"cebpf4jnsgd1na2vs0mg"},{"bike_id":"eb2adf7c-8740-4978-a7c2-2dda7ed54401","system_id":"levelo_inurba_marseille","lat":43.27905,"lon":5.38011,"is_reserved":false,"is_disabled":false,"rental_uris":{"android":"levelo://app?vid=eb2adf7c-8740-4978-a7c2-2dda7ed54401","ios":"levelo://app?vid=eb2adf7c-8740-4978-a7c2-2dda7ed54401"},"vehicle_type_id":"4","last_reported":1761958553,"current_range_meters":8400,"station_id":"ce4bhf92rcd13ifvqf50","pricing_plan_id":"cebpf4jnsgd1na2vs0mg"},{"bike_id":"d99505fe-d7a7-4e44-b7f5-f0065cd01a03","system_id":"levelo_inurba_marseille","lat":43.33391,"lon":5.42913,"is_reserved":false,"is_disabled":false,"rental_uris":{"android":"levelo://app?vid=d99505fe-d7a7-4e44-b7f5-f0065cd01a03","ios":"levelo://app?vid=d99505fe-d7a7-4e44-b7f5-f0065cd01a03"},"vehicle_type_id":"4","last_reported":1761958553,"current_range_meters":8800,"station_id":"","pricing_plan_id":"cebpf4jnsgd1na2vs0mg"},{"bike_id":"9b93b5e1-c939-4745-bf85-2d21945442dc","system_id":"levelo_inurba_marseille","lat":43.29992,"lon":5.36396,"is_reserved":false,"is_disabled":false,"rental_uris":{"android":"levelo://app?vid=9b93b5e1-c939-4745-bf85-2d21945442dc","ios":"levelo://app?vid=9b93b5e1-c939-4745-bf85-2d21945442dc"},"vehicle_type_id":"4","last_reported":1761958553,"current_range_meters":8800,"station_id":"","pricing_plan_id":"cebpf4jnsgd1na2vs0mg"},{"bike_id":"25357b7d-0ed7-41a6-ae72-c8d1515068ab","system_id":"levelo_inurba_marseille","lat":43.25503,"lon":5.37656,"is_reserved":false,"is_disabled":false,"rental_uris":{"android":"levelo://app?vid=25357b7d-0ed7-41a6-ae72-c8d1515068ab","ios":"levelo://app?vid=25357b7d-0ed7-41a6-ae72-c8d1515068ab"},"vehicle_type_id":"4","last_reported":1761958553,"current_range_meters":8800,"station_id":"ce4bhh12rcd13ifvqff0","pricing_plan_id":"cebpf4jnsgd1na2vs0mg"},{"bike_id":"0da87212-9ab6-482a-902b-b235462079f0","system_id":"levelo_inurba_marseille","lat":43.24163,"lon":5.36405,"is_reserved":false,"is_disabled":false,"rental_uris":{"android":"levelo://app?vid=0da87212-9ab6-482a-902b-b235462079f0","ios":"levelo://app?vid=0da87212-9ab6-482a-902b-b235462079f0"},"vehicle_type_id":"4","last_reported":1761958553,"current_range_meters":8800,"station_id":"cpo36qri1sfpv3e86is0","pricing_plan_id":"cebpf4jnsgd1na2vs0mg"},{"bike_id":"102debe8-d8ff-44e6-be22-080165e1ba68","system_id":"levelo_inurba_marseille","lat":43.25083,"lon":5.39509,"is_reserved":false,"is_disabled":false,"rental_uris":{"android":"levelo://app?vid=102debe8-d8ff-44e6-be22-080165e1ba68","ios":"levelo://app?vid=102debe8-d8ff-44e6-be22-080165e1ba68"},"vehicle_type_id":"4","last_reported":1761958553,"current_range_meters":8800,"station_id":"ce4bhm12rcd13ifvqgkg","pricing_plan_id":"cebpf4jnsgd1na2vs0mg"},{"bike_id":"f8dbe4c5-bee5-434d-894e-7d6ef9c4f975","system_id":"levelo_inurba_marseille","lat":43.29258,"lon":5.40111,"is_reserved":false,"is_disabled":true,"rental_uris":{"android":"levelo://app?vid=f8dbe4c5-bee5-434d-894e-7d6ef9c4f975","ios":"levelo://app?vid=f8dbe4c5-bee5-434d-894e-7d6ef9c4f975"},"vehicle_type_id":"4","last_reported":1761958553,"current_range_meters":8800,"station_id":"ce4bh312rcd13ifvqdk0","pricing_plan_id":"cebpf4jnsgd1na2vs0mg"},{"bike_id":"a2367324-9ad7-49e5-83d9-430c8d56b751","system_id":"levelo_inurba_marseille","lat":43.30875,"lon":5.39641,"is_reserved":false,"is_disabled":false,"rental_uris":{"android":"levelo://app?vid=a2367324-9ad7-49e5-83d9-430c8d56b751","ios":"levelo://app?vid=a2367324-9ad7-49e5-83d9-430c8d56b751"},"vehicle_type_id":"4","last_reported":1761958553,"current_range_meters":8800,"station_id":"ce4bh012rcd13ifvqcv0","pricing_plan_id":"cebpf4jnsgd1na2vs0mg"},{"bike_id":"27b58bba-4fdb-4e9c-8f5c-a58f80bc78d3","system_id":"levelo_inurba_marseille","lat":43.240822,"lon":5.377487,"is_reserved":false,"is_disabled":false,"rental_uris":{"android":"levelo://app?vid=27b58bba-4fdb-4e9c-8f5c-a58f80bc78d3","ios":"levelo://app?vid=27b58bba-4fdb-4e9c-8f5c-a58f80bc78d3"},"vehicle_type_id":"4","last_reported":1761958553,"current_range_meters":8800,"station_id":"ce4bhnp2rcd13ifvqgvg","pricing_plan_id":"cebpf4jnsgd1na2vs0mg"},{"bike_id":"405db191-f97f-4dbf-a293-ab5426eb6faa","system_id":"levelo_inurba_marseille","lat":43.26939,"lon":5.4025,"is_reserved":false,"is_disabled":false,"rental_uris":{"android":"levelo://app?vid=405db191-f97f-4dbf-a293-ab5426eb6faa","ios":"levelo://app?vid=405db191-f97f-4dbf-a293-ab5426eb6faa"},"vehicle_type_id":"4","last_reported":1761958553,"current_range_meters":8800,"station_id":"cjm6bp8fraef2m0cb0m0","pricing_plan_id":"cebpf4jnsgd1na2vs0mg"},{"bike_id":"097b562b-210e-4b98-abb7-7d3a2bd9b2f3","system_id":"levelo_inurba_marseille","lat":43.31356,"lon":5.38485,"is_reserved":false,"is_disabled":false,"rental_uris":{"android":"levelo://app?vid=097b562b-210e-4b98-abb7-7d3a2bd9b2f3","ios":"levelo://app?vid=097b562b-210e-4b98-abb7-7d3a2bd9b2f3"},"vehicle_type_id":"4","last_reported":1761958553,"current_range_meters":8800,"station_id":"ce4bgt92rcd13ifvqcf0","pricing_plan_id":"cebpf4jnsgd1na2vs0mg"},{"bike_id":"3e3c097e-e8eb-41b2-9026-a9cca2105f47","system_id":"levelo_inurba_marseille","lat":43.2606,"lon":5.39397,"is_reserved":false,"is_disabled":false,"rental_uris":{"android":"levelo://app?vid=3e3c097e-e8eb-41b2-9026-a9cca2105f47","ios":"levelo://app?vid=3e3c097e-e8eb-41b2-9026-a9cca2105f47"},"vehicle_type_id":"4","last_reported":1761958553,"current_range_meters":9200,"station_id":"ce4bhh92rcd13ifvqfj0","pricing_plan_id":"cebpf4jnsgd1na2vs0mg"},{"bike_id":"b156628e-7a11-4b72-b3fe-53d3c99d75ab","system_id":"levelo_inurba_marseille","lat":43.28364,"lon":5.3863,"is_reserved":false,"is_disabled":false,"rental_uris":{"android":"levelo://app?vid=b156628e-7a11-4b72-b3fe-53d3c99d75ab","ios":"levelo://app?vid=b156628e-7a11-4b72-b3fe-53d3c99d75ab"},"vehicle_type_id":"4","last_reported":1761958553,"current_range_meters":9600,"station_id":"ce4bh492rcd13ifvqdvg","pricing_plan_id":"cebpf4jnsgd1na2vs0mg"},{"bike_id":"cc32f72c-d167-4e79-b6e4-010481b5da6e","system_id":"levelo_inurba_marseille","lat":43.29962,"lon":5.37168,"is_reserved":false,"is_disabled":false,"rental_uris":{"android":"levelo://app?vid=cc32f72c-d167-4e79-b6e4-010481b5da6e","ios":"levelo://app?vid=cc32f72c-d167-4e79-b6e4-010481b5da6e"},"vehicle_type_id":"4","last_reported":1761958553,"current_range_meters":9600,"station_id":"ce4bgr92rcd13ifvqc7g","pricing_plan_id":"cebpf4jnsgd1na2vs0mg"},{"bike_id":"078bb7b2-22df-47df-826b-88124d3ca89b","system_id":"levelo_inurba_marseille","lat":43.30193,"lon":5.40041,"is_reserved":false,"is_disabled":false,"rental_uris":{"android":"levelo://app?vid=078bb7b2-22df-47df-826b-88124d3ca89b","ios":"levelo://app?vid=078bb7b2-22df-47df-826b-88124d3ca89b"},"vehicle_type_id":"4","last_reported":1761958553,"current_range_meters":9600,"station_id":"ce4bgvh2rcd13ifvqcs0","pricing_plan_id":"cebpf4jnsgd1na2vs0mg"},{"bike_id":"0d4a7cfc-30b6-4ff3-ac9d-f921038f16ad","system_id":"levelo_inurba_marseille","lat":43.2861,"lon":5.35107,"is_reserved":false,"is_disabled":false,"rental_uris":{"android":"levelo://app?vid=0d4a7cfc-30b6-4ff3-ac9d-f921038f16ad","ios":"levelo://app?vid=0d4a7cfc-30b6-4ff3-ac9d-f921038f16ad"},"vehicle_type_id":"4","last_reported":1761958553,"current_range_meters":9600,"station_id":"ce4bhch2rcd13ifvqeug","pricing_plan_id":"cebpf4jnsgd1na2vs0mg"},{"bike_id":"606952e0-a5e4-4188-b21c-a58bda72510b","system_id":"levelo_inurba_marseille","lat":43.269488,"lon":5.386362,"is_reserved":false,"is_disabled":false,"rental_uris":{"android":"levelo://app?vid=606952e0-a5e4-4188-b21c-a58bda72510b","ios":"levelo://app?vid=606952e0-a5e4-4188-b21c-a58bda72510b"},"vehicle_type_id":"4","last_reported":1761958553,"current_range_meters":9600,"station_id":"ce4bhh92rcd13ifvqfh0","pricing_plan_id":"cebpf4jnsgd1na2vs0mg"},{"bike_id":"021be82d-943f-439e-b8bf-06076e9900b9","system_id":"levelo_inurba_marseille","lat":43.26212,"lon":5.37439,"is_reserved":false,"is_disabled":false,"rental_uris":{"android":"levelo://app?vid=021be82d-943f-439e-b8bf-06076e9900b9","ios":"levelo://app?vid=021be82d-943f-439e-b8bf-06076e9900b9"},"vehicle_type_id":"4","last_reported":1761958553,"current_range_meters":9600,"station_id":"ce4bhgp2rcd13ifvqfc0","pricing_plan_id":"cebpf4jnsgd1na2vs0mg"},{"bike_id":"c925aeee-394b-48bb-8345-09778ae3b0d5","system_id":"levelo_inurba_marseille","lat":43.31193,"lon":5.38688,"is_reserved":false,"is_disabled":false,"rental_uris":{"android":"levelo://app?vid=c925aeee-394b-48bb-8345-09778ae3b0d5","ios":"levelo://app?vid=c925aeee-394b-48bb-8345-09778ae3b0d5"},"vehicle_type_id":"4","last_reported":1761958553,"current_range_meters":10000,"station_id":"ce4bgv12rcd13ifvqcp0","pricing_plan_id":"cebpf4jnsgd1na2vs0mg"},{"bike_id":"a56a8a64-8aaf-4f2b-9086-ab5ca516b670","system_id":"levelo_inurba_marseille","lat":43.24674,"lon":5.38154,"is_reserved":false,"is_disabled":false,"rental_uris":{"android":"levelo://app?vid=a56a8a64-8aaf-4f2b-9086-ab5ca516b670","ios":"levelo://app?vid=a56a8a64-8aaf-4f2b-9086-ab5ca516b670"},"vehicle_type_id":"4","last_reported":1761958553,"current_range_meters":10000,"station_id":"ce4bhih2rcd13ifvqfr0","pricing_plan_id":"cebpf4jnsgd1na2vs0mg"},{"bike_id":"e297479c-85e6-460f-b98f-391dc046fc6e","system_id":"levelo_inurba_marseille","lat":43.30256,"lon":5.40081,"is_reserved":false,"is_disabled":false,"rental_uris":{"android":"levelo://app?vid=e297479c-85e6-460f-b98f-391dc046fc6e","ios":"levelo://app?vid=e297479c-85e6-460f-b98f-391dc046fc6e"},"vehicle_type_id":"4","last_reported":1761958553,"current_range_meters":10000,"station_id":"ce4bgvh2rcd13ifvqcs0","pricing_plan_id":"cebpf4jnsgd1na2vs0mg"},{"bike_id":"17145337-1bd5-49e4-a4ec-e3fbcb2b543a","system_id":"levelo_inurba_marseille","lat":43.254955,"lon":5.376487,"is_reserved":false,"is_disabled":false,"rental_uris":{"android":"levelo://app?vid=17145337-1bd5-49e4-a4ec-e3fbcb2b543a","ios":"levelo://app?vid=17145337-1bd5-49e4-a4ec-e3fbcb2b543a"},"vehicle_type_id":"4","last_reported":1761958553,"current_range_meters":10000,"station_id":"ce4bhh12rcd13ifvqff0","pricing_plan_id":"cebpf4jnsgd1na2vs0mg"},{"bike_id":"70b7527d-67eb-4818-84c6-51aae343ca97","system_id":"levelo_inurba_marseille","lat":43.28476,"lon":5.48397,"is_reserved":false,"is_disabled":false,"rental_uris":{"android":"levelo://app?vid=70b7527d-67eb-4818-84c6-51aae343ca97","ios":"levelo://app?vid=70b7527d-67eb-4818-84c6-51aae343ca97"},"vehicle_type_id":"4","last_reported":1761958553,"current_range_meters":10000,"station_id":"st_d3svhcjqgbts73a3dn0g","pricing_plan_id":"cebpf4jnsgd1na2vs0mg"},{"bike_id":"745abb82-a14b-4704-a874-4f2291079f40","system_id":"levelo_inurba_marseille","lat":43.30801,"lon":5.3815,"is_reserved":false,"is_disabled":false,"rental_uris":{"android":"levelo://app?vid=745abb82-a14b-4704-a874-4f2291079f40","ios":"levelo://app?vid=745abb82-a14b-4704-a874-4f2291079f40"},"vehicle_type_id":"4","last_reported":1761958553,"current_range_meters":10800,"station_id":"ce4bgt12rcd13ifvqce0","pricing_plan_id":"cebpf4jnsgd1na2vs0mg"},{"bike_id":"1213ff01-604d-4b83-b3a2-60440c4b245e","system_id":"levelo_inurba_marseille","lat":43.2379,"lon":5.36621,"is_reserved":false,"is_disabled":false,"rental_uris":{"android":"levelo://app?vid=1213ff01-604d-4b83-b3a2-60440c4b245e","ios":"levelo://app?vid=1213ff01-604d-4b83-b3a2-60440c4b245e"},"vehicle_type_id":"4","last_reported":1761958553,"current_range_meters":10800,"station_id":"st_d3nk18o9ro0c73en2l3g","pricing_plan_id":"cebpf4jnsgd1na2vs0mg"},{"bike_id":"e2530a1e-30f6-479a-ab87-35e55c0ae7a3","system_id":"levelo_inurba_marseille","lat":43.31243,"lon":5.36825,"is_reserved":false,"is_disabled":false,"rental_uris":{"android":"levelo://app?vid=e2530a1e-30f6-479a-ab87-35e55c0ae7a3","ios":"levelo://app?vid=e2530a1e-30f6-479a-ab87-35e55c0ae7a3"},"vehicle_type_id":"4","last_reported":1761958553,"current_range_meters":11200,"station_id":"ce4bgl92rcd13ifvqbq0","pricing_plan_id":"cebpf4jnsgd1na2vs0mg"},{"bike_id":"c9151577-23c5-4661-b7fe-eeed8e9bedf3","system_id":"levelo_inurba_marseille","lat":43.287184,"lon":5.375738,"is_reserved":false,"is_disabled":false,"rental_uris":{"android":"levelo://app?vid=c9151577-23c5-4661-b7fe-eeed8e9bedf3","ios":"levelo://app?vid=c9151577-23c5-4661-b7fe-eeed8e9bedf3"},"vehicle_type_id":"4","last_reported":1761958553,"current_range_meters":11200,"station_id":"ce4bgup2rcd13ifvqco0","pricing_plan_id":"cebpf4jnsgd1na2vs0mg"},{"bike_id":"22a1d899-ecc1-4a63-b9cd-830fba2caf10","system_id":"levelo_inurba_marseille","lat":43.23192,"lon":5.39976,"is_reserved":false,"is_disabled":false,"rental_uris":{"android":"levelo://app?vid=22a1d899-ecc1-4a63-b9cd-830fba2caf10","ios":"levelo://app?vid=22a1d899-ecc1-4a63-b9cd-830fba2caf10"},"vehicle_type_id":"4","last_reported":1761958553,"current_range_meters":11200,"station_id":"ce4bhn12rcd13ifvqgqg","pricing_plan_id":"cebpf4jnsgd1na2vs0mg"},{"bike_id":"96ad2f8e-1ff0-415a-a84a-9186f2a5baf6","system_id":"levelo_inurba_marseille","lat":43.29606,"lon":5.37672,"is_reserved":false,"is_disabled":false,"rental_uris":{"android":"levelo://app?vid=96ad2f8e-1ff0-415a-a84a-9186f2a5baf6","ios":"levelo://app?vid=96ad2f8e-1ff0-415a-a84a-9186f2a5baf6"},"vehicle_type_id":"4","last_reported":1761958553,"current_range_meters":11200,"station_id":"ce4bgi12rcd13ifvqb80","pricing_plan_id":"cebpf4jnsgd1na2vs0mg"},{"bike_id":"3b0ed919-3f15-4150-9bb7-c2e454e63927","system_id":"levelo_inurba_marseille","lat":43.246623,"lon":5.381663,"is_reserved":false,"is_disabled":false,"rental_uris":{"android":"levelo://app?vid=3b0ed919-3f15-4150-9bb7-c2e454e63927","ios":"levelo://app?vid=3b0ed919-3f15-4150-9bb7-c2e454e63927"},"vehicle_type_id":"4","last_reported":1761958553,"current_range_meters":11200,"station_id":"ce4bhih2rcd13ifvqfr0","pricing_plan_id":"cebpf4jnsgd1na2vs0mg"},{"bike_id":"cc8f9ca6-7801-47cf-b663-98adf7f4f7e3","system_id":"levelo_inurba_marseille","lat":43.28281,"lon":5.35063,"is_reserved":false,"is_disabled":false,"rental_uris":{"android":"levelo://app?vid=cc8f9ca6-7801-47cf-b663-98adf7f4f7e3","ios":"levelo://app?vid=cc8f9ca6-7801-47cf-b663-98adf7f4f7e3"},"vehicle_type_id":"4","last_reported":1761958553,"current_range_meters":11200,"station_id":"ce4bhbp2rcd13ifvqerg","pricing_plan_id":"cebpf4jnsgd1na2vs0mg"},{"bike_id":"42e986d2-36be-4b0e-87e8-71dc3f97c04d","system_id":"levelo_inurba_marseille","lat":43.24689,"lon":5.3815,"is_reserved":false,"is_disabled":false,"rental_uris":{"android":"levelo://app?vid=42e986d2-36be-4b0e-87e8-71dc3f97c04d","ios":"levelo://app?vid=42e986d2-36be-4b0e-87e8-71dc3f97c04d"},"vehicle_type_id":"4","last_reported":1761958553,"current_range_meters":11600,"station_id":"ce4bhih2rcd13ifvqfr0","pricing_plan_id":"cebpf4jnsgd1na2vs0mg"},{"bike_id":"a4dac4fa-66e6-48be-a654-6e17cdc7ca0b","system_id":"levelo_inurba_marseille","lat":43.337571,"lon":5.374323,"is_reserved":false,"is_disabled":false,"rental_uris":{"android":"levelo://app?vid=a4dac4fa-66e6-48be-a654-6e17cdc7ca0b","ios":"levelo://app?vid=a4dac4fa-66e6-48be-a654-6e17cdc7ca0b"},"vehicle_type_id":"4","last_reported":1761958553,"current_range_meters":11600,"station_id":"","pricing_plan_id":"cebpf4jnsgd1na2vs0mg"},{"bike_id":"43d05971-03b2-4d6c-865b-26f14123d065","system_id":"levelo_inurba_marseille","lat":43.25086,"lon":5.39525,"is_reserved":false,"is_disabled":false,"rental_uris":{"android":"levelo://app?vid=43d05971-03b2-4d6c-865b-26f14123d065","ios":"levelo://app?vid=43d05971-03b2-4d6c-865b-26f14123d065"},"vehicle_type_id":"4","last_reported":1761958553,"current_range_meters":11600,"station_id":"ce4bhm12rcd13ifvqgkg","pricing_plan_id":"cebpf4jnsgd1na2vs0mg"},{"bike_id":"f71afa96-ae6f-49a1-b300-a49ff4213441","system_id":"levelo_inurba_marseille","lat":43.336094,"lon":5.410368,"is_reserved":false,"is_disabled":false,"rental_uris":{"android":"levelo://app?vid=f71afa96-ae6f-49a1-b300-a49ff4213441","ios":"levelo://app?vid=f71afa96-ae6f-49a1-b300-a49ff4213441"},"vehicle_type_id":"4","last_reported":1761958553,"current_range_meters":11600,"station_id":"ce4bhqh2rcd13ifvqhmg","pricing_plan_id":"cebpf4jnsgd1na2vs0mg"},{"bike_id":"a4411a31-dc75-48de-8b4a-eee0e7dbe4d1","system_id":"levelo_inurba_marseille","lat":43.28151,"lon":5.42633,"is_reserved":false,"is_disabled":false,"rental_uris":{"android":"levelo://app?vid=a4411a31-dc75-48de-8b4a-eee0e7dbe4d1","ios":"levelo://app?vid=a4411a31-dc75-48de-8b4a-eee0e7dbe4d1"},"vehicle_type_id":"4","last_reported":1761958553,"current_range_meters":12000,"station_id":"ce4bhnh2rcd13ifvqgug","pricing_plan_id":"cebpf4jnsgd1na2vs0mg"},{"bike_id":"bb3cb886-0537-42d3-95c2-7584d58ebffd","system_id":"levelo_inurba_marseille","lat":43.23187,"lon":5.35567,"is_reserved":false,"is_disabled":false,"rental_uris":{"android":"levelo://app?vid=bb3cb886-0537-42d3-95c2-7584d58ebffd","ios":"levelo://app?vid=bb3cb886-0537-42d3-95c2-7584d58ebffd"},"vehicle_type_id":"4","last_reported":1761958553,"current_range_meters":12000,"station_id":"ce4bhu92rcd13ifvqi70","pricing_plan_id":"cebpf4jnsgd1na2vs0mg"},{"bike_id":"2dca1a62-0369-4e00-bc3d-5af920a8bddd","system_id":"levelo_inurba_marseille","lat":43.30616,"lon":5.37222,"is_reserved":false,"is_disabled":false,"rental_uris":{"android":"levelo://app?vid=2dca1a62-0369-4e00-bc3d-5af920a8bddd","ios":"levelo://app?vid=2dca1a62-0369-4e00-bc3d-5af920a8bddd"},"vehicle_type_id":"4","last_reported":1761958553,"current_range_meters":12000,"station_id":"ce4bgqh2rcd13ifvqc4g","pricing_plan_id":"cebpf4jnsgd1na2vs0mg"},{"bike_id":"d6c56db3-aec5-49fd-a6f6-0b9a32ee2b77","system_id":"levelo_inurba_marseille","lat":43.26541,"lon":5.39053,"is_reserved":false,"is_disabled":false,"rental_uris":{"android":"levelo://app?vid=d6c56db3-aec5-49fd-a6f6-0b9a32ee2b77","ios":"levelo://app?vid=d6c56db3-aec5-49fd-a6f6-0b9a32ee2b77"},"vehicle_type_id":"4","last_reported":1761958553,"current_range_meters":12400,"station_id":"ce4bhe12rcd13ifvqf30","pricing_plan_id":"cebpf4jnsgd1na2vs0mg"},{"bike_id":"3a8851b0-bea2-4b80-afc7-0c6751111e32","system_id":"levelo_inurba_marseille","lat":43.28868,"lon":5.4252,"is_reserved":false,"is_disabled":false,"rental_uris":{"android":"levelo://app?vid=3a8851b0-bea2-4b80-afc7-0c6751111e32","ios":"levelo://app?vid=3a8851b0-bea2-4b80-afc7-0c6751111e32"},"vehicle_type_id":"4","last_reported":1761958553,"current_range_meters":12400,"station_id":"st_d3b462108ojc7389ooeg","pricing_plan_id":"cebpf4jnsgd1na2vs0mg"},{"bike_id":"889348ec-9960-493c-b211-f12bb61b86aa","system_id":"levelo_inurba_marseille","lat":43.28349,"lon":5.38094,"is_reserved":false,"is_disabled":false,"rental_uris":{"android":"levelo://app?vid=889348ec-9960-493c-b211-f12bb61b86aa","ios":"levelo://app?vid=889348ec-9960-493c-b211-f12bb61b86aa"},"vehicle_type_id":"4","last_reported":1761958553,"current_range_meters":12400,"station_id":"ce4bh412rcd13ifvqdr0","pricing_plan_id":"cebpf4jnsgd1na2vs0mg"},{"bike_id":"fd4ce9f4-b592-4cc5-acf9-1c794ff3f3cd","system_id":"levelo_inurba_marseille","lat":43.27957,"lon":5.41033,"is_reserved":false,"is_disabled":false,"rental_uris":{"android":"levelo://app?vid=fd4ce9f4-b592-4cc5-acf9-1c794ff3f3cd","ios":"levelo://app?vid=fd4ce9f4-b592-4cc5-acf9-1c794ff3f3cd"},"vehicle_type_id":"4","last_reported":1761958553,"current_range_meters":12400,"station_id":"ce4bhnp2rcd13ifvqh0g","pricing_plan_id":"cebpf4jnsgd1na2vs0mg"},{"bike_id":"4d23c425-a082-40df-9a3d-4f372c0b2209","system_id":"levelo_inurba_marseille","lat":43.25125,"lon":5.40327,"is_reserved":false,"is_disabled":false,"rental_uris":{"android":"levelo://app?vid=4d23c425-a082-40df-9a3d-4f372c0b2209","ios":"levelo://app?vid=4d23c425-a082-40df-9a3d-4f372c0b2209"},"vehicle_type_id":"4","last_reported":1761958553,"current_range_meters":12400,"station_id":"ce4bhlh2rcd13ifvqgig","pricing_plan_id":"cebpf4jnsgd1na2vs0mg"},{"bike_id":"aad6a064-c048-4ba9-a156-1745b89548aa","system_id":"levelo_inurba_marseille","lat":43.283141,"lon":5.41096,"is_reserved":false,"is_disabled":false,"rental_uris":{"android":"levelo://app?vid=aad6a064-c048-4ba9-a156-1745b89548aa","ios":"levelo://app?vid=aad6a064-c048-4ba9-a156-1745b89548aa"},"vehicle_type_id":"4","last_reported":1761958553,"current_range_meters":12400,"station_id":"","pricing_plan_id":"cebpf4jnsgd1na2vs0mg"},{"bike_id":"2f154124-4eed-4b8f-9009-1dec76e51fda","system_id":"levelo_inurba_marseille","lat":43.27917,"lon":5.39577,"is_reserved":false,"is_disabled":false,"rental_uris":{"android":"levelo://app?vid=2f154124-4eed-4b8f-9009-1dec76e51fda","ios":"levelo://app?vid=2f154124-4eed-4b8f-9009-1dec76e51fda"},"vehicle_type_id":"4","last_reported":1761958553,"current_range_meters":12400,"station_id":"ce4bhf92rcd13ifvqf40","pricing_plan_id":"cebpf4jnsgd1na2vs0mg"},{"bike_id":"a74ca4e6-9019-4ce4-a364-7a22bd8e206a","system_id":"levelo_inurba_marseille","lat":43.26488,"lon":5.3848,"is_reserved":false,"is_disabled":false,"rental_uris":{"android":"levelo://app?vid=a74ca4e6-9019-4ce4-a364-7a22bd8e206a","ios":"levelo://app?vid=a74ca4e6-9019-4ce4-a364-7a22bd8e206a"},"vehicle_type_id":"4","last_reported":1761958553,"current_range_meters":12400,"station_id":"","pricing_plan_id":"cebpf4jnsgd1na2vs0mg"},{"bike_id":"8af50f59-99ab-4eb1-9462-3633f4920544","system_id":"levelo_inurba_marseille","lat":43.284163,"lon":5.375056,"is_reserved":false,"is_disabled":false,"rental_uris":{"android":"levelo://app?vid=8af50f59-99ab-4eb1-9462-3633f4920544","ios":"levelo://app?vid=8af50f59-99ab-4eb1-9462-3633f4920544"},"vehicle_type_id":"4","last_reported":1761958553,"current_range_meters":12400,"station_id":"ce4bh412rcd13ifvqds0","pricing_plan_id":"cebpf4jnsgd1na2vs0mg"},{"bike_id":"dacea13e-ff7f-4447-9d68-7558315e0463","system_id":"levelo_inurba_marseille","lat":43.30408,"lon":5.36723,"is_reserved":false,"is_disabled":false,"rental_uris":{"android":"levelo://app?vid=dacea13e-ff7f-4447-9d68-7558315e0463","ios":"levelo://app?vid=dacea13e-ff7f-4447-9d68-7558315e0463"},"vehicle_type_id":"4","last_reported":1761958553,"current_range_meters":12400,"station_id":"","pricing_plan_id":"cebpf4jnsgd1na2vs0mg"},{"bike_id":"6cd59db7-cb12-4301-8385-22b87d7a5cfd","system_id":"levelo_inurba_marseille","lat":43.28528,"lon":5.4412,"is_reserved":false,"is_disabled":false,"rental_uris":{"android":"levelo://app?vid=6cd59db7-cb12-4301-8385-22b87d7a5cfd","ios":"levelo://app?vid=6cd59db7-cb12-4301-8385-22b87d7a5cfd"},"vehicle_type_id":"4","last_reported":1761958553,"current_range_meters":12800,"station_id":"st_d3j3df2ikq2c7380ej80","pricing_plan_id":"cebpf4jnsgd1na2vs0mg"},{"bike_id":"1cc34d80-eaa7-4640-81c2-702e30483e9f","system_id":"levelo_inurba_marseille","lat":43.24393,"lon":5.37065,"is_reserved":false,"is_disabled":false,"rental_uris":{"android":"levelo://app?vid=1cc34d80-eaa7-4640-81c2-702e30483e9f","ios":"levelo://app?vid=1cc34d80-eaa7-4640-81c2-702e30483e9f"},"vehicle_type_id":"4","last_reported":1761958553,"current_range_meters":12800,"station_id":"ce4bhhh2rcd13ifvqfk0","pricing_plan_id":"cebpf4jnsgd1na2vs0mg"},{"bike_id":"5c79c23d-3702-4612-9965-06b9e21bc089","system_id":"levelo_inurba_marseille","lat":43.29471,"lon":5.38224,"is_reserved":false,"is_disabled":false,"rental_uris":{"android":"levelo://app?vid=5c79c23d-3702-4612-9965-06b9e21bc089","ios":"levelo://app?vid=5c79c23d-3702-4612-9965-06b9e21bc089"},"vehicle_type_id":"4","last_reported":1761958553,"current_range_meters":13600,"station_id":"","pricing_plan_id":"cebpf4jnsgd1na2vs0mg"},{"bike_id":"729f742f-248e-45d7-affd-40d01b9a55a8","system_id":"levelo_inurba_marseille","lat":43.31756,"lon":5.39013,"is_reserved":false,"is_disabled":false,"rental_uris":{"android":"levelo://app?vid=729f742f-248e-45d7-affd-40d01b9a55a8","ios":"levelo://app?vid=729f742f-248e-45d7-affd-40d01b9a55a8"},"vehicle_type_id":"4","last_reported":1761958553,"current_range_meters":13600,"station_id":"ce4bhqp2rcd13ifvqhng","pricing_plan_id":"cebpf4jnsgd1na2vs0mg"},{"bike_id":"a1c166ae-c81a-490e-ac0b-24b4b30fd03e","system_id":"levelo_inurba_marseille","lat":43.25493,"lon":5.37661,"is_reserved":false,"is_disabled":false,"rental_uris":{"android":"levelo://app?vid=a1c166ae-c81a-490e-ac0b-24b4b30fd03e","ios":"levelo://app?vid=a1c166ae-c81a-490e-ac0b-24b4b30fd03e"},"vehicle_type_id":"4","last_reported":1761958553,"current_range_meters":13600,"station_id":"ce4bhh12rcd13ifvqff0","pricing_plan_id":"cebpf4jnsgd1na2vs0mg"},{"bike_id":"52b117f2-4c01-4f66-887d-006722496528","system_id":"levelo_inurba_marseille","lat":43.30866,"lon":5.37148,"is_reserved":false,"is_disabled":false,"rental_uris":{"android":"levelo://app?vid=52b117f2-4c01-4f66-887d-006722496528","ios":"levelo://app?vid=52b117f2-4c01-4f66-887d-006722496528"},"vehicle_type_id":"4","last_reported":1761958553,"current_range_meters":13600,"station_id":"ce4bguh2rcd13ifvqckg","pricing_plan_id":"cebpf4jnsgd1na2vs0mg"},{"bike_id":"62af57a3-c3eb-4969-9f71-9b44820859fb","system_id":"levelo_inurba_marseille","lat":43.28564,"lon":5.39494,"is_reserved":false,"is_disabled":false,"rental_uris":{"android":"levelo://app?vid=62af57a3-c3eb-4969-9f71-9b44820859fb","ios":"levelo://app?vid=62af57a3-c3eb-4969-9f71-9b44820859fb"},"vehicle_type_id":"4","last_reported":1761958553,"current_range_meters":13600,"station_id":"ce4bh292rcd13ifvqdg0","pricing_plan_id":"cebpf4jnsgd1na2vs0mg"},{"bike_id":"5bb4d00a-4c6d-478d-a663-14122c4dc811","system_id":"levelo_inurba_marseille","lat":43.2481,"lon":5.37465,"is_reserved":false,"is_disabled":false,"rental_uris":{"android":"levelo://app?vid=5bb4d00a-4c6d-478d-a663-14122c4dc811","ios":"levelo://app?vid=5bb4d00a-4c6d-478d-a663-14122c4dc811"},"vehicle_type_id":"4","last_reported":1761958553,"current_range_meters":13600,"station_id":"ce4bhgh2rcd13ifvqfb0","pricing_plan_id":"cebpf4jnsgd1na2vs0mg"},{"bike_id":"b2ce8e73-e59b-4d30-b8e2-e59e2e1e3b22","system_id":"levelo_inurba_marseille","lat":43.33775,"lon":5.37482,"is_reserved":false,"is_disabled":false,"rental_uris":{"android":"levelo://app?vid=b2ce8e73-e59b-4d30-b8e2-e59e2e1e3b22","ios":"levelo://app?vid=b2ce8e73-e59b-4d30-b8e2-e59e2e1e3b22"},"vehicle_type_id":"4","last_reported":1761958553,"current_range_meters":14000,"station_id":"","pricing_plan_id":"cebpf4jnsgd1na2vs0mg"},{"bike_id":"030a5fcc-9b6c-4a25-9e92-1e9bddafe40e","system_id":"levelo_inurba_marseille","lat":43.30181,"lon":5.36618,"is_reserved":false,"is_disabled":false,"rental_uris":{"android":"levelo://app?vid=030a5fcc-9b6c-4a25-9e92-1e9bddafe40e","ios":"levelo://app?vid=030a5fcc-9b6c-4a25-9e92-1e9bddafe40e"},"vehicle_type_id":"4","last_reported":1761958553,"current_range_meters":14000,"station_id":"ce4bgrh2rcd13ifvqc8g","pricing_plan_id":"cebpf4jnsgd1na2vs0mg"},{"bike_id":"bd82922f-56a5-4e15-9901-b7b0e56399a7","system_id":"levelo_inurba_marseille","lat":43.23174,"lon":5.35553,"is_reserved":false,"is_disabled":false,"rental_uris":{"android":"levelo://app?vid=bd82922f-56a5-4e15-9901-b7b0e56399a7","ios":"levelo://app?vid=bd82922f-56a5-4e15-9901-b7b0e56399a7"},"vehicle_type_id":"4","last_reported":1761958553,"current_range_meters":14000,"station_id":"ce4bhu92rcd13ifvqi70","pricing_plan_id":"cebpf4jnsgd1na2vs0mg"},{"bike_id":"d8356dfd-c7d9-4199-8812-ddb6aafea96f","system_id":"levelo_inurba_marseille","lat":43.27839,"lon":5.39197,"is_reserved":false,"is_disabled":false,"rental_uris":{"android":"levelo://app?vid=d8356dfd-c7d9-4199-8812-ddb6aafea96f","ios":"levelo://app?vid=d8356dfd-c7d9-4199-8812-ddb6aafea96f"},"vehicle_type_id":"4","last_reported":1761958553,"current_range_meters":14000,"station_id":"ce4bhjp2rcd13ifvqga0","pricing_plan_id":"cebpf4jnsgd1na2vs0mg"},{"bike_id":"3e0ee96b-8fbf-40c7-b23e-bbfbbf69c224","system_id":"levelo_inurba_marseille","lat":43.2853,"lon":5.44096,"is_reserved":false,"is_disabled":false,"rental_uris":{"android":"levelo://app?vid=3e0ee96b-8fbf-40c7-b23e-bbfbbf69c224","ios":"levelo://app?vid=3e0ee96b-8fbf-40c7-b23e-bbfbbf69c224"},"vehicle_type_id":"4","last_reported":1761958553,"current_range_meters":14000,"station_id":"st_d3j3df2ikq2c7380ej80","pricing_plan_id":"cebpf4jnsgd1na2vs0mg"},{"bike_id":"1e602980-d4b1-4437-b9fb-60ccd103cf61","system_id":"levelo_inurba_marseille","lat":43.3137,"lon":5.38491,"is_reserved":false,"is_disabled":false,"rental_uris":{"android":"levelo://app?vid=1e602980-d4b1-4437-b9fb-60ccd103cf61","ios":"levelo://app?vid=1e602980-d4b1-4437-b9fb-60ccd103cf61"},"vehicle_type_id":"4","last_reported":1761958553,"current_range_meters":14400,"station_id":"ce4bgt92rcd13ifvqcf0","pricing_plan_id":"cebpf4jnsgd1na2vs0mg"},{"bike_id":"b1e81361-2b17-4ef1-8a58-6def5753471b","system_id":"levelo_inurba_marseille","lat":43.33753,"lon":5.37484,"is_reserved":false,"is_disabled":false,"rental_uris":{"android":"levelo://app?vid=b1e81361-2b17-4ef1-8a58-6def5753471b","ios":"levelo://app?vid=b1e81361-2b17-4ef1-8a58-6def5753471b"},"vehicle_type_id":"4","last_reported":1761958553,"current_range_meters":14400,"station_id":"","pricing_plan_id":"cebpf4jnsgd1na2vs0mg"},{"bike_id":"1cc27e92-5b1b-4735-9092-d8d6c4d267f6","system_id":"levelo_inurba_marseille","lat":43.29272,"lon":5.40112,"is_reserved":false,"is_disabled":false,"rental_uris":{"android":"levelo://app?vid=1cc27e92-5b1b-4735-9092-d8d6c4d267f6","ios":"levelo://app?vid=1cc27e92-5b1b-4735-9092-d8d6c4d267f6"},"vehicle_type_id":"4","last_reported":1761958553,"current_range_meters":14400,"station_id":"ce4bh312rcd13ifvqdk0","pricing_plan_id":"cebpf4jnsgd1na2vs0mg"},{"bike_id":"e97bd841-a757-4f02-af2a-2c6920cfa105","system_id":"levelo_inurba_marseille","lat":43.2816,"lon":5.42614,"is_reserved":false,"is_disabled":false,"rental_uris":{"android":"levelo://app?vid=e97bd841-a757-4f02-af2a-2c6920cfa105","ios":"levelo://app?vid=e97bd841-a757-4f02-af2a-2c6920cfa105"},"vehicle_type_id":"4","last_reported":1761958553,"current_range_meters":14800,"station_id":"ce4bhnh2rcd13ifvqgug","pricing_plan_id":"cebpf4jnsgd1na2vs0mg"},{"bike_id":"afd815ae-3a82-4532-aec3-0e49f63bd32e","system_id":"levelo_inurba_marseille","lat":43.34142,"lon":5.40899,"is_reserved":false,"is_disabled":false,"rental_uris":{"android":"levelo://app?vid=afd815ae-3a82-4532-aec3-0e49f63bd32e","ios":"levelo://app?vid=afd815ae-3a82-4532-aec3-0e49f63bd32e"},"vehicle_type_id":"4","last_reported":1761958553,"current_range_meters":14800,"station_id":"ce4bhqh2rcd13ifvqhlg","pricing_plan_id":"cebpf4jnsgd1na2vs0mg"},{"bike_id":"def0eca1-9cef-4d35-b650-a9591c45b0b8","system_id":"levelo_inurba_marseille","lat":43.288147,"lon":5.391652,"is_reserved":false,"is_disabled":false,"rental_uris":{"android":"levelo://app?vid=def0eca1-9cef-4d35-b650-a9591c45b0b8","ios":"levelo://app?vid=def0eca1-9cef-4d35-b650-a9591c45b0b8"},"vehicle_type_id":"4","last_reported":1761958553,"current_range_meters":14800,"station_id":"","pricing_plan_id":"cebpf4jnsgd1na2vs0mg"},{"bike_id":"8e61a1b0-b51e-4808-89e8-bacdad2c9db4","system_id":"levelo_inurba_marseille","lat":43.275689,"lon":5.384186,"is_reserved":false,"is_disabled":false,"rental_uris":{"android":"levelo://app?vid=8e61a1b0-b51e-4808-89e8-bacdad2c9db4","ios":"levelo://app?vid=8e61a1b0-b51e-4808-89e8-bacdad2c9db4"},"vehicle_type_id":"4","last_reported":1761958553,"current_range_meters":14800,"station_id":"ce4bhh92rcd13ifvqfi0","pricing_plan_id":"cebpf4jnsgd1na2vs0mg"},{"bike_id":"bfc82e72-9c79-45c9-abc5-9f0f0b9628b2","system_id":"levelo_inurba_marseille","lat":43.27373,"lon":5.3625,"is_reserved":false,"is_disabled":false,"rental_uris":{"android":"levelo://app?vid=bfc82e72-9c79-45c9-abc5-9f0f0b9628b2","ios":"levelo://app?vid=bfc82e72-9c79-45c9-abc5-9f0f0b9628b2"},"vehicle_type_id":"4","last_reported":1761958553,"current_range_meters":14800,"station_id":"ce4bhbh2rcd13ifvqeo0","pricing_plan_id":"cebpf4jnsgd1na2vs0mg"},{"bike_id":"b8260940-1349-485d-9243-33fa537b4fce","system_id":"levelo_inurba_marseille","lat":43.27953,"lon":5.41034,"is_reserved":false,"is_disabled":false,"rental_uris":{"android":"levelo://app?vid=b8260940-1349-485d-9243-33fa537b4fce","ios":"levelo://app?vid=b8260940-1349-485d-9243-33fa537b4fce"},"vehicle_type_id":"4","last_reported":1761958553,"current_range_meters":14800,"station_id":"ce4bhnp2rcd13ifvqh0g","pricing_plan_id":"cebpf4jnsgd1na2vs0mg"},{"bike_id":"ab5faa7e-2a4f-41e4-b146-0dfc28efea12","system_id":"levelo_inurba_marseille","lat":43.23192,"lon":5.35551,"is_reserved":false,"is_disabled":false,"rental_uris":{"android":"levelo://app?vid=ab5faa7e-2a4f-41e4-b146-0dfc28efea12","ios":"levelo://app?vid=ab5faa7e-2a4f-41e4-b146-0dfc28efea12"},"vehicle_type_id":"4","last_reported":1761958553,"current_range_meters":14800,"station_id":"ce4bhu92rcd13ifvqi70","pricing_plan_id":"cebpf4jnsgd1na2vs0mg"},{"bike_id":"c43da4ca-4a27-413f-8de1-73fb68abccf6","system_id":"levelo_inurba_marseille","lat":43.27993,"lon":5.40013,"is_reserved":false,"is_disabled":false,"rental_uris":{"android":"levelo://app?vid=c43da4ca-4a27-413f-8de1-73fb68abccf6","ios":"levelo://app?vid=c43da4ca-4a27-413f-8de1-73fb68abccf6"},"vehicle_type_id":"4","last_reported":1761958553,"current_range_meters":14800,"station_id":"ce4bho92rcd13ifvqh4g","pricing_plan_id":"cebpf4jnsgd1na2vs0mg"},{"bike_id":"f13402d6-bcfe-43c6-9455-f54d46eee62e","system_id":"levelo_inurba_marseille","lat":43.30419,"lon":5.36724,"is_reserved":false,"is_disabled":false,"rental_uris":{"android":"levelo://app?vid=f13402d6-bcfe-43c6-9455-f54d46eee62e","ios":"levelo://app?vid=f13402d6-bcfe-43c6-9455-f54d46eee62e"},"vehicle_type_id":"4","last_reported":1761958553,"current_range_meters":14800,"station_id":"","pricing_plan_id":"cebpf4jnsgd1na2vs0mg"},{"bike_id":"6df5d1b3-a573-47f0-acd9-dcc1039518a8","system_id":"levelo_inurba_marseille","lat":43.27941,"lon":5.41031,"is_reserved":false,"is_disabled":false,"rental_uris":{"android":"levelo://app?vid=6df5d1b3-a573-47f0-acd9-dcc1039518a8","ios":"levelo://app?vid=6df5d1b3-a573-47f0-acd9-dcc1039518a8"},"vehicle_type_id":"4","last_reported":1761958553,"current_range_meters":14800,"station_id":"ce4bhnp2rcd13ifvqh0g","pricing_plan_id":"cebpf4jnsgd1na2vs0mg"},{"bike_id":"6aaff9e0-0edb-4f2c-9c5e-2873e2d30dbb","system_id":"levelo_inurba_marseille","lat":43.293,"lon":5.3746,"is_reserved":false,"is_disabled":false,"rental_uris":{"android":"levelo://app?vid=6aaff9e0-0edb-4f2c-9c5e-2873e2d30dbb","ios":"levelo://app?vid=6aaff9e0-0edb-4f2c-9c5e-2873e2d30dbb"},"vehicle_type_id":"4","last_reported":1761958553,"current_range_meters":15200,"station_id":"ce4bgi12rcd13ifvqb70","pricing_plan_id":"cebpf4jnsgd1na2vs0mg"},{"bike_id":"59937c54-4c0c-4f9d-9b4e-15557fcda509","system_id":"levelo_inurba_marseille","lat":43.27951,"lon":5.43618,"is_reserved":false,"is_disabled":false,"rental_uris":{"android":"levelo://app?vid=59937c54-4c0c-4f9d-9b4e-15557fcda509","ios":"levelo://app?vid=59937c54-4c0c-4f9d-9b4e-15557fcda509"},"vehicle_type_id":"4","last_reported":1761958553,"current_range_meters":15200,"station_id":"","pricing_plan_id":"cebpf4jnsgd1na2vs0mg"},{"bike_id":"bc07b032-c111-4013-a329-8517aed552f3","system_id":"levelo_inurba_marseille","lat":43.25115,"lon":5.40316,"is_reserved":false,"is_disabled":false,"rental_uris":{"android":"levelo://app?vid=bc07b032-c111-4013-a329-8517aed552f3","ios":"levelo://app?vid=bc07b032-c111-4013-a329-8517aed552f3"},"vehicle_type_id":"4","last_reported":1761958553,"current_range_meters":15200,"station_id":"ce4bhlh2rcd13ifvqgig","pricing_plan_id":"cebpf4jnsgd1na2vs0mg"},{"bike_id":"472a1028-9e29-4e6f-b089-eae1dc72cf56","system_id":"levelo_inurba_marseille","lat":43.23067,"lon":5.35496,"is_reserved":false,"is_disabled":false,"rental_uris":{"android":"levelo://app?vid=472a1028-9e29-4e6f-b089-eae1dc72cf56","ios":"levelo://app?vid=472a1028-9e29-4e6f-b089-eae1dc72cf56"},"vehicle_type_id":"4","last_reported":1761958553,"current_range_meters":15200,"station_id":"cpo3342slgdg3j2ifvpg","pricing_plan_id":"cebpf4jnsgd1na2vs0mg"},{"bike_id":"c2807477-fd8d-44ed-9bdc-b3f90f0cbde0","system_id":"levelo_inurba_marseille","lat":43.31876,"lon":5.39981,"is_reserved":false,"is_disabled":false,"rental_uris":{"android":"levelo://app?vid=c2807477-fd8d-44ed-9bdc-b3f90f0cbde0","ios":"levelo://app?vid=c2807477-fd8d-44ed-9bdc-b3f90f0cbde0"},"vehicle_type_id":"4","last_reported":1761958553,"current_range_meters":15200,"station_id":"","pricing_plan_id":"cebpf4jnsgd1na2vs0mg"},{"bike_id":"2b0057d1-3a46-49e4-b4c6-9129f2aa7c1f","system_id":"levelo_inurba_marseille","lat":43.29534,"lon":5.38519,"is_reserved":false,"is_disabled":true,"rental_uris":{"android":"levelo://app?vid=2b0057d1-3a46-49e4-b4c6-9129f2aa7c1f","ios":"levelo://app?vid=2b0057d1-3a46-49e4-b4c6-9129f2aa7c1f"},"vehicle_type_id":"4","last_reported":1761958553,"current_range_meters":16000,"station_id":"ce4bgih2rcd13ifvqba0","pricing_plan_id":"cebpf4jnsgd1na2vs0mg"},{"bike_id":"51c02004-b7af-4fea-b0a6-0669e7b94d3c","system_id":"levelo_inurba_marseille","lat":43.33527,"lon":5.40947,"is_reserved":false,"is_disabled":false,"rental_uris":{"android":"levelo://app?vid=51c02004-b7af-4fea-b0a6-0669e7b94d3c","ios":"levelo://app?vid=51c02004-b7af-4fea-b0a6-0669e7b94d3c"},"vehicle_type_id":"4","last_reported":1761958553,"current_range_meters":16000,"station_id":"","pricing_plan_id":"cebpf4jnsgd1na2vs0mg"},{"bike_id":"e04f332d-b41c-47fd-b12f-6fdc7d63f429","system_id":"levelo_inurba_marseille","lat":43.30843,"lon":5.38308,"is_reserved":false,"is_disabled":false,"rental_uris":{"android":"levelo://app?vid=e04f332d-b41c-47fd-b12f-6fdc7d63f429","ios":"levelo://app?vid=e04f332d-b41c-47fd-b12f-6fdc7d63f429"},"vehicle_type_id":"4","last_reported":1761958553,"current_range_meters":16000,"station_id":"","pricing_plan_id":"cebpf4jnsgd1na2vs0mg"},{"bike_id":"ced8b747-e5ab-4e7a-b1f4-22a1ebc20f6f","system_id":"levelo_inurba_marseille","lat":43.30773,"lon":5.37644,"is_reserved":false,"is_disabled":true,"rental_uris":{"android":"levelo://app?vid=ced8b747-e5ab-4e7a-b1f4-22a1ebc20f6f","ios":"levelo://app?vid=ced8b747-e5ab-4e7a-b1f4-22a1ebc20f6f"},"vehicle_type_id":"4","last_reported":1761958553,"current_range_meters":16000,"station_id":"ce4bgv92rcd13ifvqcq0","pricing_plan_id":"cebpf4jnsgd1na2vs0mg"},{"bike_id":"0a2eee3c-a62f-4e0d-b4b8-a0562c475577","system_id":"levelo_inurba_marseille","lat":43.3088,"lon":5.39653,"is_reserved":false,"is_disabled":false,"rental_uris":{"android":"levelo://app?vid=0a2eee3c-a62f-4e0d-b4b8-a0562c475577","ios":"levelo://app?vid=0a2eee3c-a62f-4e0d-b4b8-a0562c475577"},"vehicle_type_id":"4","last_reported":1761958553,"current_range_meters":16000,"station_id":"ce4bh012rcd13ifvqcv0","pricing_plan_id":"cebpf4jnsgd1na2vs0mg"},{"bike_id":"c1e8c087-96dd-4e5f-a8ee-9ef9f322b2d7","system_id":"levelo_inurba_marseille","lat":43.31119,"lon":5.37773,"is_reserved":false,"is_disabled":false,"rental_uris":{"android":"levelo://app?vid=c1e8c087-96dd-4e5f-a8ee-9ef9f322b2d7","ios":"levelo://app?vid=c1e8c087-96dd-4e5f-a8ee-9ef9f322b2d7"},"vehicle_type_id":"4","last_reported":1761958553,"current_range_meters":16000,"station_id":"ce4bgt92rcd13ifvqcg0","pricing_plan_id":"cebpf4jnsgd1na2vs0mg"},{"bike_id":"74b15735-564b-4f09-952a-ba8cccb96884","system_id":"levelo_inurba_marseille","lat":43.30924,"lon":5.40182,"is_reserved":false,"is_disabled":false,"rental_uris":{"android":"levelo://app?vid=74b15735-564b-4f09-952a-ba8cccb96884","ios":"levelo://app?vid=74b15735-564b-4f09-952a-ba8cccb96884"},"vehicle_type_id":"4","last_reported":1761958553,"current_range_meters":16000,"station_id":"","pricing_plan_id":"cebpf4jnsgd1na2vs0mg"},{"bike_id":"a75cc865-d00a-43c3-99ea-a59d0a1d4639","system_id":"levelo_inurba_marseille","lat":43.31362,"lon":5.385,"is_reserved":false,"is_disabled":false,"rental_uris":{"android":"levelo://app?vid=a75cc865-d00a-43c3-99ea-a59d0a1d4639","ios":"levelo://app?vid=a75cc865-d00a-43c3-99ea-a59d0a1d4639"},"vehicle_type_id":"4","last_reported":1761958553,"current_range_meters":16400,"station_id":"ce4bgt92rcd13ifvqcf0","pricing_plan_id":"cebpf4jnsgd1na2vs0mg"},{"bike_id":"ae3598c3-d5d8-4133-922b-9187802cb4d8","system_id":"levelo_inurba_marseille","lat":43.32102,"lon":5.36777,"is_reserved":false,"is_disabled":false,"rental_uris":{"android":"levelo://app?vid=ae3598c3-d5d8-4133-922b-9187802cb4d8","ios":"levelo://app?vid=ae3598c3-d5d8-4133-922b-9187802cb4d8"},"vehicle_type_id":"4","last_reported":1761958553,"current_range_meters":16400,"station_id":"ce4bhrh2rcd13ifvqhug","pricing_plan_id":"cebpf4jnsgd1na2vs0mg"},{"bike_id":"6da830a8-111a-4fc5-a34c-ced64d9d2dc3","system_id":"levelo_inurba_marseille","lat":43.30592,"lon":5.39361,"is_reserved":false,"is_disabled":true,"rental_uris":{"android":"levelo://app?vid=6da830a8-111a-4fc5-a34c-ced64d9d2dc3","ios":"levelo://app?vid=6da830a8-111a-4fc5-a34c-ced64d9d2dc3"},"vehicle_type_id":"4","last_reported":1761958553,"current_range_meters":16400,"station_id":"ce4bh0p2rcd13ifvqd80","pricing_plan_id":"cebpf4jnsgd1na2vs0mg"},{"bike_id":"dd2143fa-4756-44bc-ad97-cd5e50f531b2","system_id":"levelo_inurba_marseille","lat":43.28942,"lon":5.39624,"is_reserved":false,"is_disabled":false,"rental_uris":{"android":"levelo://app?vid=dd2143fa-4756-44bc-ad97-cd5e50f531b2","ios":"levelo://app?vid=dd2143fa-4756-44bc-ad97-cd5e50f531b2"},"vehicle_type_id":"4","last_reported":1761958553,"current_range_meters":16400,"station_id":"ce4bh3h2rcd13ifvqdn0","pricing_plan_id":"cebpf4jnsgd1na2vs0mg"},{"bike_id":"c04ea6ec-c85d-4b9a-aa74-f0de2415a6d2","system_id":"levelo_inurba_marseille","lat":43.315418,"lon":5.383647,"is_reserved":false,"is_disabled":false,"rental_uris":{"android":"levelo://app?vid=c04ea6ec-c85d-4b9a-aa74-f0de2415a6d2","ios":"levelo://app?vid=c04ea6ec-c85d-4b9a-aa74-f0de2415a6d2"},"vehicle_type_id":"4","last_reported":1761958553,"current_range_meters":16400,"station_id":"","pricing_plan_id":"cebpf4jnsgd1na2vs0mg"},{"bike_id":"fbcc5886-69e3-488f-96fd-e45314a075e6","system_id":"levelo_inurba_marseille","lat":43.28857,"lon":5.42517,"is_reserved":false,"is_disabled":false,"rental_uris":{"android":"levelo://app?vid=fbcc5886-69e3-488f-96fd-e45314a075e6","ios":"levelo://app?vid=fbcc5886-69e3-488f-96fd-e45314a075e6"},"vehicle_type_id":"4","last_reported":1761958553,"current_range_meters":16400,"station_id":"st_d3b462108ojc7389ooeg","pricing_plan_id":"cebpf4jnsgd1na2vs0mg"},{"bike_id":"6d7e4a5e-682f-4255-a967-c8df9fe491ae","system_id":"levelo_inurba_marseille","lat":43.29912,"lon":5.37477,"is_reserved":false,"is_disabled":false,"rental_uris":{"android":"levelo://app?vid=6d7e4a5e-682f-4255-a967-c8df9fe491ae","ios":"levelo://app?vid=6d7e4a5e-682f-4255-a967-c8df9fe491ae"},"vehicle_type_id":"4","last_reported":1761958553,"current_range_meters":16400,"station_id":"ce4bgjh2rcd13ifvqbg0","pricing_plan_id":"cebpf4jnsgd1na2vs0mg"},{"bike_id":"7a9e1e86-52dc-42e4-a53b-236a591ba00d","system_id":"levelo_inurba_marseille","lat":43.288233,"lon":5.363785,"is_reserved":false,"is_disabled":false,"rental_uris":{"android":"levelo://app?vid=7a9e1e86-52dc-42e4-a53b-236a591ba00d","ios":"levelo://app?vid=7a9e1e86-52dc-42e4-a53b-236a591ba00d"},"vehicle_type_id":"4","last_reported":1761958553,"current_range_meters":16800,"station_id":"","pricing_plan_id":"cebpf4jnsgd1na2vs0mg"},{"bike_id":"cd34d17f-3532-46cd-94d6-9f325351c996","system_id":"levelo_inurba_marseille","lat":43.26561,"lon":5.40322,"is_reserved":false,"is_disabled":false,"rental_uris":{"android":"levelo://app?vid=cd34d17f-3532-46cd-94d6-9f325351c996","ios":"levelo://app?vid=cd34d17f-3532-46cd-94d6-9f325351c996"},"vehicle_type_id":"4","last_reported":1761958553,"current_range_meters":16800,"station_id":"ce4bhmp2rcd13ifvqgng","pricing_plan_id":"cebpf4jnsgd1na2vs0mg"},{"bike_id":"68dfe5bf-96d8-40ed-a701-d1cafa21ceb7","system_id":"levelo_inurba_marseille","lat":43.30566,"lon":5.38947,"is_reserved":false,"is_disabled":false,"rental_uris":{"android":"levelo://app?vid=68dfe5bf-96d8-40ed-a701-d1cafa21ceb7","ios":"levelo://app?vid=68dfe5bf-96d8-40ed-a701-d1cafa21ceb7"},"vehicle_type_id":"4","last_reported":1761958553,"current_range_meters":16800,"station_id":"ce4bgk12rcd13ifvqbi0","pricing_plan_id":"cebpf4jnsgd1na2vs0mg"},{"bike_id":"3708e1d2-c0c2-45b9-9650-3c749e33056e","system_id":"levelo_inurba_marseille","lat":43.25091,"lon":5.39529,"is_reserved":false,"is_disabled":false,"rental_uris":{"android":"levelo://app?vid=3708e1d2-c0c2-45b9-9650-3c749e33056e","ios":"levelo://app?vid=3708e1d2-c0c2-45b9-9650-3c749e33056e"},"vehicle_type_id":"4","last_reported":1761958553,"current_range_meters":16800,"station_id":"ce4bhm12rcd13ifvqgkg","pricing_plan_id":"cebpf4jnsgd1na2vs0mg"},{"bike_id":"5fa0adeb-5a6a-4138-bcab-9981afe6dbd3","system_id":"levelo_inurba_marseille","lat":43.29276,"lon":5.40115,"is_reserved":false,"is_disabled":false,"rental_uris":{"android":"levelo://app?vid=5fa0adeb-5a6a-4138-bcab-9981afe6dbd3","ios":"levelo://app?vid=5fa0adeb-5a6a-4138-bcab-9981afe6dbd3"},"vehicle_type_id":"4","last_reported":1761958553,"current_range_meters":16800,"station_id":"ce4bh312rcd13ifvqdk0","pricing_plan_id":"cebpf4jnsgd1na2vs0mg"},{"bike_id":"80417833-bc8f-4e6a-b93a-983e69344d84","system_id":"levelo_inurba_marseille","lat":43.27691,"lon":5.38875,"is_reserved":false,"is_disabled":false,"rental_uris":{"android":"levelo://app?vid=80417833-bc8f-4e6a-b93a-983e69344d84","ios":"levelo://app?vid=80417833-bc8f-4e6a-b93a-983e69344d84"},"vehicle_type_id":"4","last_reported":1761958553,"current_range_meters":17200,"station_id":"ce4bhi12rcd13ifvqfo0","pricing_plan_id":"cebpf4jnsgd1na2vs0mg"},{"bike_id":"05db6029-4093-4a5e-894e-d1964fdfc93a","system_id":"levelo_inurba_marseille","lat":43.230603,"lon":5.354905,"is_reserved":false,"is_disabled":false,"rental_uris":{"android":"levelo://app?vid=05db6029-4093-4a5e-894e-d1964fdfc93a","ios":"levelo://app?vid=05db6029-4093-4a5e-894e-d1964fdfc93a"},"vehicle_type_id":"4","last_reported":1761958553,"current_range_meters":17200,"station_id":"cpo3342slgdg3j2ifvpg","pricing_plan_id":"cebpf4jnsgd1na2vs0mg"},{"bike_id":"05a43803-6330-4f9d-8f80-87bc3917bace","system_id":"levelo_inurba_marseille","lat":43.24363,"lon":5.37052,"is_reserved":false,"is_disabled":false,"rental_uris":{"android":"levelo://app?vid=05a43803-6330-4f9d-8f80-87bc3917bace","ios":"levelo://app?vid=05a43803-6330-4f9d-8f80-87bc3917bace"},"vehicle_type_id":"4","last_reported":1761958553,"current_range_meters":17200,"station_id":"ce4bhhh2rcd13ifvqfk0","pricing_plan_id":"cebpf4jnsgd1na2vs0mg"},{"bike_id":"c3de4193-b30f-4c53-a743-4e3a738e9dde","system_id":"levelo_inurba_marseille","lat":43.26674,"lon":5.38259,"is_reserved":false,"is_disabled":false,"rental_uris":{"android":"levelo://app?vid=c3de4193-b30f-4c53-a743-4e3a738e9dde","ios":"levelo://app?vid=c3de4193-b30f-4c53-a743-4e3a738e9dde"},"vehicle_type_id":"4","last_reported":1761958553,"current_range_meters":17200,"station_id":"ce4bhg92rcd13ifvqf90","pricing_plan_id":"cebpf4jnsgd1na2vs0mg"},{"bike_id":"0089665c-d050-4f0d-8d27-e9a6af9208fc","system_id":"levelo_inurba_marseille","lat":43.30178,"lon":5.38001,"is_reserved":false,"is_disabled":false,"rental_uris":{"android":"levelo://app?vid=0089665c-d050-4f0d-8d27-e9a6af9208fc","ios":"levelo://app?vid=0089665c-d050-4f0d-8d27-e9a6af9208fc"},"vehicle_type_id":"4","last_reported":1761958553,"current_range_meters":17200,"station_id":"","pricing_plan_id":"cebpf4jnsgd1na2vs0mg"},{"bike_id":"0c3bfe72-1bfa-4fe4-8ec1-abc531b0b6c5","system_id":"levelo_inurba_marseille","lat":43.26559,"lon":5.37299,"is_reserved":false,"is_disabled":true,"rental_uris":{"android":"levelo://app?vid=0c3bfe72-1bfa-4fe4-8ec1-abc531b0b6c5","ios":"levelo://app?vid=0c3bfe72-1bfa-4fe4-8ec1-abc531b0b6c5"},"vehicle_type_id":"4","last_reported":1761958553,"current_range_meters":17200,"station_id":"ce4bhg12rcd13ifvqf70","pricing_plan_id":"cebpf4jnsgd1na2vs0mg"},{"bike_id":"252ff558-e70b-4ae0-9044-acc668b445bb","system_id":"levelo_inurba_marseille","lat":43.21193,"lon":5.35069,"is_reserved":false,"is_disabled":false,"rental_uris":{"android":"levelo://app?vid=252ff558-e70b-4ae0-9044-acc668b445bb","ios":"levelo://app?vid=252ff558-e70b-4ae0-9044-acc668b445bb"},"vehicle_type_id":"4","last_reported":1761958553,"current_range_meters":17200,"station_id":"st_cvj6sg6p6f1abm77japg","pricing_plan_id":"cebpf4jnsgd1na2vs0mg"},{"bike_id":"7dc69f2c-a186-4073-bb3b-8609d27ab1bc","system_id":"levelo_inurba_marseille","lat":43.2971,"lon":5.36974,"is_reserved":false,"is_disabled":false,"rental_uris":{"android":"levelo://app?vid=7dc69f2c-a186-4073-bb3b-8609d27ab1bc","ios":"levelo://app?vid=7dc69f2c-a186-4073-bb3b-8609d27ab1bc"},"vehicle_type_id":"4","last_reported":1761958553,"current_range_meters":17200,"station_id":"","pricing_plan_id":"cebpf4jnsgd1na2vs0mg"},{"bike_id":"d39ef76e-c445-47ee-94c6-367a5ac3aecc","system_id":"levelo_inurba_marseille","lat":43.24077,"lon":5.37755,"is_reserved":false,"is_disabled":false,"rental_uris":{"android":"levelo://app?vid=d39ef76e-c445-47ee-94c6-367a5ac3aecc","ios":"levelo://app?vid=d39ef76e-c445-47ee-94c6-367a5ac3aecc"},"vehicle_type_id":"4","last_reported":1761958553,"current_range_meters":17200,"station_id":"ce4bhnp2rcd13ifvqgvg","pricing_plan_id":"cebpf4jnsgd1na2vs0mg"},{"bike_id":"bfd47976-4b12-4a3a-abee-96cc29a7d071","system_id":"levelo_inurba_marseille","lat":43.29489,"lon":5.43302,"is_reserved":false,"is_disabled":false,"rental_uris":{"android":"levelo://app?vid=bfd47976-4b12-4a3a-abee-96cc29a7d071","ios":"levelo://app?vid=bfd47976-4b12-4a3a-abee-96cc29a7d071"},"vehicle_type_id":"4","last_reported":1761958553,"current_range_meters":17600,"station_id":"st_d3j5ugp08ojc73fj9d10","pricing_plan_id":"cebpf4jnsgd1na2vs0mg"},{"bike_id":"f4589041-f9a1-491a-8fcf-31939b20fa5a","system_id":"levelo_inurba_marseille","lat":43.27209,"lon":5.39156,"is_reserved":false,"is_disabled":false,"rental_uris":{"android":"levelo://app?vid=f4589041-f9a1-491a-8fcf-31939b20fa5a","ios":"levelo://app?vid=f4589041-f9a1-491a-8fcf-31939b20fa5a"},"vehicle_type_id":"4","last_reported":1761958553,"current_range_meters":17600,"station_id":"ce4bhhp2rcd13ifvqfm0","pricing_plan_id":"cebpf4jnsgd1na2vs0mg"},{"bike_id":"073cea40-86e7-4c96-a7c3-2239c8214c9c","system_id":"levelo_inurba_marseille","lat":43.30426,"lon":5.36764,"is_reserved":false,"is_disabled":false,"rental_uris":{"android":"levelo://app?vid=073cea40-86e7-4c96-a7c3-2239c8214c9c","ios":"levelo://app?vid=073cea40-86e7-4c96-a7c3-2239c8214c9c"},"vehicle_type_id":"4","last_reported":1761958553,"current_range_meters":17600,"station_id":"","pricing_plan_id":"cebpf4jnsgd1na2vs0mg"},{"bike_id":"2364e999-1098-4387-8f74-ea863c4609ea","system_id":"levelo_inurba_marseille","lat":43.298617,"lon":5.403734,"is_reserved":false,"is_disabled":false,"rental_uris":{"android":"levelo://app?vid=2364e999-1098-4387-8f74-ea863c4609ea","ios":"levelo://app?vid=2364e999-1098-4387-8f74-ea863c4609ea"},"vehicle_type_id":"4","last_reported":1761958553,"current_range_meters":18000,"station_id":"ce4bh112rcd13ifvqd90","pricing_plan_id":"cebpf4jnsgd1na2vs0mg"},{"bike_id":"f4c38a56-4a35-49a9-bdea-5d14ae1ba768","system_id":"levelo_inurba_marseille","lat":43.29747,"lon":5.42782,"is_reserved":false,"is_disabled":false,"rental_uris":{"android":"levelo://app?vid=f4c38a56-4a35-49a9-bdea-5d14ae1ba768","ios":"levelo://app?vid=f4c38a56-4a35-49a9-bdea-5d14ae1ba768"},"vehicle_type_id":"4","last_reported":1761958553,"current_range_meters":18000,"station_id":"st_d3md5207bmas73dh9klg","pricing_plan_id":"cebpf4jnsgd1na2vs0mg"},{"bike_id":"94084d75-b1ec-4cf5-8736-b1d0c7eed7ce","system_id":"levelo_inurba_marseille","lat":43.33012,"lon":5.39034,"is_reserved":false,"is_disabled":false,"rental_uris":{"android":"levelo://app?vid=94084d75-b1ec-4cf5-8736-b1d0c7eed7ce","ios":"levelo://app?vid=94084d75-b1ec-4cf5-8736-b1d0c7eed7ce"},"vehicle_type_id":"4","last_reported":1761958553,"current_range_meters":18000,"station_id":"ce4bhr92rcd13ifvqhrg","pricing_plan_id":"cebpf4jnsgd1na2vs0mg"},{"bike_id":"d00299ec-dcff-40c1-a0e0-35732b299879","system_id":"levelo_inurba_marseille","lat":43.295254,"lon":5.375084,"is_reserved":false,"is_disabled":false,"rental_uris":{"android":"levelo://app?vid=d00299ec-dcff-40c1-a0e0-35732b299879","ios":"levelo://app?vid=d00299ec-dcff-40c1-a0e0-35732b299879"},"vehicle_type_id":"4","last_reported":1761958553,"current_range_meters":18000,"station_id":"ce4bgkp2rcd13ifvqbmg","pricing_plan_id":"cebpf4jnsgd1na2vs0mg"},{"bike_id":"f8840158-3c1d-490b-81e4-a560dcb65e09","system_id":"levelo_inurba_marseille","lat":43.24677,"lon":5.38146,"is_reserved":false,"is_disabled":false,"rental_uris":{"android":"levelo://app?vid=f8840158-3c1d-490b-81e4-a560dcb65e09","ios":"levelo://app?vid=f8840158-3c1d-490b-81e4-a560dcb65e09"},"vehicle_type_id":"4","last_reported":1761958553,"current_range_meters":18000,"station_id":"ce4bhih2rcd13ifvqfr0","pricing_plan_id":"cebpf4jnsgd1na2vs0mg"},{"bike_id":"32632625-b281-4348-990f-071d78c42b84","system_id":"levelo_inurba_marseille","lat":43.26569,"lon":5.39014,"is_reserved":false,"is_disabled":false,"rental_uris":{"android":"levelo://app?vid=32632625-b281-4348-990f-071d78c42b84","ios":"levelo://app?vid=32632625-b281-4348-990f-071d78c42b84"},"vehicle_type_id":"4","last_reported":1761958553,"current_range_meters":18000,"station_id":"","pricing_plan_id":"cebpf4jnsgd1na2vs0mg"},{"bike_id":"c274c728-5187-4b93-b3bd-63dca5de025b","system_id":"levelo_inurba_marseille","lat":43.27496,"lon":5.4245,"is_reserved":false,"is_disabled":false,"rental_uris":{"android":"levelo://app?vid=c274c728-5187-4b93-b3bd-63dca5de025b","ios":"levelo://app?vid=c274c728-5187-4b93-b3bd-63dca5de025b"},"vehicle_type_id":"4","last_reported":1761958553,"current_range_meters":18000,"station_id":"ce4bhn92rcd13ifvqgrg","pricing_plan_id":"cebpf4jnsgd1na2vs0mg"},{"bike_id":"9ee030a8-2096-47dc-9a00-9b0afd75e3d0","system_id":"levelo_inurba_marseille","lat":43.32655,"lon":5.40983,"is_reserved":false,"is_disabled":false,"rental_uris":{"android":"levelo://app?vid=9ee030a8-2096-47dc-9a00-9b0afd75e3d0","ios":"levelo://app?vid=9ee030a8-2096-47dc-9a00-9b0afd75e3d0"},"vehicle_type_id":"4","last_reported":1761958553,"current_range_meters":18000,"station_id":"ce4bhpp2rcd13ifvqhgg","pricing_plan_id":"cebpf4jnsgd1na2vs0mg"},{"bike_id":"cc0d6697-bf7c-4001-828f-c5cf42c80c59","system_id":"levelo_inurba_marseille","lat":43.21191,"lon":5.35082,"is_reserved":false,"is_disabled":false,"rental_uris":{"android":"levelo://app?vid=cc0d6697-bf7c-4001-828f-c5cf42c80c59","ios":"levelo://app?vid=cc0d6697-bf7c-4001-828f-c5cf42c80c59"},"vehicle_type_id":"4","last_reported":1761958553,"current_range_meters":18000,"station_id":"","pricing_plan_id":"cebpf4jnsgd1na2vs0mg"},{"bike_id":"0f8025ab-aeba-4bc5-9454-dfb329fedc5d","system_id":"levelo_inurba_marseille","lat":43.30583,"lon":5.39356,"is_reserved":false,"is_disabled":false,"rental_uris":{"android":"levelo://app?vid=0f8025ab-aeba-4bc5-9454-dfb329fedc5d","ios":"levelo://app?vid=0f8025ab-aeba-4bc5-9454-dfb329fedc5d"},"vehicle_type_id":"4","last_reported":1761958553,"current_range_meters":18000,"station_id":"ce4bh0p2rcd13ifvqd80","pricing_plan_id":"cebpf4jnsgd1na2vs0mg"},{"bike_id":"81bfe2b2-5e19-404f-88f2-82960f21bac9","system_id":"levelo_inurba_marseille","lat":43.31117,"lon":5.37758,"is_reserved":false,"is_disabled":false,"rental_uris":{"android":"levelo://app?vid=81bfe2b2-5e19-404f-88f2-82960f21bac9","ios":"levelo://app?vid=81bfe2b2-5e19-404f-88f2-82960f21bac9"},"vehicle_type_id":"4","last_reported":1761958553,"current_range_meters":18000,"station_id":"ce4bgt92rcd13ifvqcg0","pricing_plan_id":"cebpf4jnsgd1na2vs0mg"},{"bike_id":"642b169d-ee5d-4dcc-a7a9-f3b3364598c7","system_id":"levelo_inurba_marseille","lat":43.318882,"lon":5.407381,"is_reserved":false,"is_disabled":false,"rental_uris":{"android":"levelo://app?vid=642b169d-ee5d-4dcc-a7a9-f3b3364598c7","ios":"levelo://app?vid=642b169d-ee5d-4dcc-a7a9-f3b3364598c7"},"vehicle_type_id":"4","last_reported":1761958553,"current_range_meters":18800,"station_id":"ce4bhq12rcd13ifvqhig","pricing_plan_id":"cebpf4jnsgd1na2vs0mg"},{"bike_id":"528e3c88-b623-43f9-a15b-cba9eb4d6f1a","system_id":"levelo_inurba_marseille","lat":43.28484,"lon":5.48385,"is_reserved":false,"is_disabled":false,"rental_uris":{"android":"levelo://app?vid=528e3c88-b623-43f9-a15b-cba9eb4d6f1a","ios":"levelo://app?vid=528e3c88-b623-43f9-a15b-cba9eb4d6f1a"},"vehicle_type_id":"4","last_reported":1761958553,"current_range_meters":18800,"station_id":"st_d3svhcjqgbts73a3dn0g","pricing_plan_id":"cebpf4jnsgd1na2vs0mg"},{"bike_id":"2a7de728-887e-4184-a666-2104dfd8a9ef","system_id":"levelo_inurba_marseille","lat":43.27319,"lon":5.39068,"is_reserved":false,"is_disabled":false,"rental_uris":{"android":"levelo://app?vid=2a7de728-887e-4184-a666-2104dfd8a9ef","ios":"levelo://app?vid=2a7de728-887e-4184-a666-2104dfd8a9ef"},"vehicle_type_id":"4","last_reported":1761958553,"current_range_meters":18800,"station_id":"ce4bhgp2rcd13ifvqfe0","pricing_plan_id":"cebpf4jnsgd1na2vs0mg"},{"bike_id":"7776d34e-6db1-4a95-b64a-dfa1faf6c280","system_id":"levelo_inurba_marseille","lat":43.30153,"lon":5.36965,"is_reserved":false,"is_disabled":false,"rental_uris":{"android":"levelo://app?vid=7776d34e-6db1-4a95-b64a-dfa1faf6c280","ios":"levelo://app?vid=7776d34e-6db1-4a95-b64a-dfa1faf6c280"},"vehicle_type_id":"4","last_reported":1761958553,"current_range_meters":18800,"station_id":"","pricing_plan_id":"cebpf4jnsgd1na2vs0mg"},{"bike_id":"92c4ecea-a870-4734-96b0-1c8b639bde58","system_id":"levelo_inurba_marseille","lat":43.25333,"lon":5.42176,"is_reserved":false,"is_disabled":false,"rental_uris":{"android":"levelo://app?vid=92c4ecea-a870-4734-96b0-1c8b639bde58","ios":"levelo://app?vid=92c4ecea-a870-4734-96b0-1c8b639bde58"},"vehicle_type_id":"4","last_reported":1761958553,"current_range_meters":18800,"station_id":"st_d2m65c5bi1j21697t3ng","pricing_plan_id":"cebpf4jnsgd1na2vs0mg"},{"bike_id":"33ae0dab-3749-43ff-9793-2b7dc4ecf75d","system_id":"levelo_inurba_marseille","lat":43.25331,"lon":5.42172,"is_reserved":false,"is_disabled":false,"rental_uris":{"android":"levelo://app?vid=33ae0dab-3749-43ff-9793-2b7dc4ecf75d","ios":"levelo://app?vid=33ae0dab-3749-43ff-9793-2b7dc4ecf75d"},"vehicle_type_id":"4","last_reported":1761958553,"current_range_meters":18800,"station_id":"st_d2m65c5bi1j21697t3ng","pricing_plan_id":"cebpf4jnsgd1na2vs0mg"},{"bike_id":"41598790-345d-414f-9e87-720cb432f278","system_id":"levelo_inurba_marseille","lat":43.29477,"lon":5.36227,"is_reserved":false,"is_disabled":false,"rental_uris":{"android":"levelo://app?vid=41598790-345d-414f-9e87-720cb432f278","ios":"levelo://app?vid=41598790-345d-414f-9e87-720cb432f278"},"vehicle_type_id":"4","last_reported":1761958553,"current_range_meters":18800,"station_id":"","pricing_plan_id":"cebpf4jnsgd1na2vs0mg"},{"bike_id":"50c2c89c-4a9b-41f6-af05-b4e430e07029","system_id":"levelo_inurba_marseille","lat":43.24633,"lon":5.43139,"is_reserved":false,"is_disabled":false,"rental_uris":{"android":"levelo://app?vid=50c2c89c-4a9b-41f6-af05-b4e430e07029","ios":"levelo://app?vid=50c2c89c-4a9b-41f6-af05-b4e430e07029"},"vehicle_type_id":"4","last_reported":1761958553,"current_range_meters":18800,"station_id":"st_d2m6c4gdas8pm72e190g","pricing_plan_id":"cebpf4jnsgd1na2vs0mg"},{"bike_id":"7c19b7e9-393b-4fa2-b057-4dd7dff08f6d","system_id":"levelo_inurba_marseille","lat":43.21228,"lon":5.35064,"is_reserved":false,"is_disabled":false,"rental_uris":{"android":"levelo://app?vid=7c19b7e9-393b-4fa2-b057-4dd7dff08f6d","ios":"levelo://app?vid=7c19b7e9-393b-4fa2-b057-4dd7dff08f6d"},"vehicle_type_id":"4","last_reported":1761958553,"current_range_meters":18800,"station_id":"","pricing_plan_id":"cebpf4jnsgd1na2vs0mg"},{"bike_id":"1d29646a-da1f-4f66-b008-0838ffb2fa84","system_id":"levelo_inurba_marseille","lat":43.29998,"lon":5.3723,"is_reserved":false,"is_disabled":false,"rental_uris":{"android":"levelo://app?vid=1d29646a-da1f-4f66-b008-0838ffb2fa84","ios":"levelo://app?vid=1d29646a-da1f-4f66-b008-0838ffb2fa84"},"vehicle_type_id":"4","last_reported":1761958553,"current_range_meters":18800,"station_id":"ce4bgr92rcd13ifvqc7g","pricing_plan_id":"cebpf4jnsgd1na2vs0mg"},{"bike_id":"23a3e0bb-dabb-4740-a641-7db3be8a8c83","system_id":"levelo_inurba_marseille","lat":43.25508,"lon":5.37651,"is_reserved":false,"is_disabled":false,"rental_uris":{"android":"levelo://app?vid=23a3e0bb-dabb-4740-a641-7db3be8a8c83","ios":"levelo://app?vid=23a3e0bb-dabb-4740-a641-7db3be8a8c83"},"vehicle_type_id":"4","last_reported":1761958553,"current_range_meters":19200,"station_id":"ce4bhh12rcd13ifvqff0","pricing_plan_id":"cebpf4jnsgd1na2vs0mg"},{"bike_id":"1510912d-5500-4029-8c52-09b2dbc632be","system_id":"levelo_inurba_marseille","lat":43.29444,"lon":5.40129,"is_reserved":false,"is_disabled":true,"rental_uris":{"android":"levelo://app?vid=1510912d-5500-4029-8c52-09b2dbc632be","ios":"levelo://app?vid=1510912d-5500-4029-8c52-09b2dbc632be"},"vehicle_type_id":"4","last_reported":1761958553,"current_range_meters":19200,"station_id":"","pricing_plan_id":"cebpf4jnsgd1na2vs0mg"},{"bike_id":"52b04612-cd38-411f-a68e-6bb9cb24a90a","system_id":"levelo_inurba_marseille","lat":43.24161,"lon":5.36389,"is_reserved":false,"is_disabled":false,"rental_uris":{"android":"levelo://app?vid=52b04612-cd38-411f-a68e-6bb9cb24a90a","ios":"levelo://app?vid=52b04612-cd38-411f-a68e-6bb9cb24a90a"},"vehicle_type_id":"4","last_reported":1761958553,"current_range_meters":19200,"station_id":"cpo36qri1sfpv3e86is0","pricing_plan_id":"cebpf4jnsgd1na2vs0mg"},{"bike_id":"1407ca8e-dc3a-4c83-932b-399155c17789","system_id":"levelo_inurba_marseille","lat":43.27899,"lon":5.38001,"is_reserved":false,"is_disabled":false,"rental_uris":{"android":"levelo://app?vid=1407ca8e-dc3a-4c83-932b-399155c17789","ios":"levelo://app?vid=1407ca8e-dc3a-4c83-932b-399155c17789"},"vehicle_type_id":"4","last_reported":1761958553,"current_range_meters":19200,"station_id":"ce4bhf92rcd13ifvqf50","pricing_plan_id":"cebpf4jnsgd1na2vs0mg"},{"bike_id":"e0de6d7b-607c-464b-b377-7df5f2e43785","system_id":"levelo_inurba_marseille","lat":43.24704,"lon":5.39283,"is_reserved":false,"is_disabled":false,"rental_uris":{"android":"levelo://app?vid=e0de6d7b-607c-464b-b377-7df5f2e43785","ios":"levelo://app?vid=e0de6d7b-607c-464b-b377-7df5f2e43785"},"vehicle_type_id":"4","last_reported":1761958553,"current_range_meters":19200,"station_id":"","pricing_plan_id":"cebpf4jnsgd1na2vs0mg"},{"bike_id":"bd787a0f-baf0-43a5-a3f2-abe77af6fb04","system_id":"levelo_inurba_marseille","lat":43.31122,"lon":5.37767,"is_reserved":false,"is_disabled":false,"rental_uris":{"android":"levelo://app?vid=bd787a0f-baf0-43a5-a3f2-abe77af6fb04","ios":"levelo://app?vid=bd787a0f-baf0-43a5-a3f2-abe77af6fb04"},"vehicle_type_id":"4","last_reported":1761958553,"current_range_meters":19200,"station_id":"ce4bgt92rcd13ifvqcg0","pricing_plan_id":"cebpf4jnsgd1na2vs0mg"},{"bike_id":"a5cb859b-d1f6-4546-b44d-58f2af5faab8","system_id":"levelo_inurba_marseille","lat":43.30167,"lon":5.38102,"is_reserved":false,"is_disabled":true,"rental_uris":{"android":"levelo://app?vid=a5cb859b-d1f6-4546-b44d-58f2af5faab8","ios":"levelo://app?vid=a5cb859b-d1f6-4546-b44d-58f2af5faab8"},"vehicle_type_id":"4","last_reported":1761958553,"current_range_meters":19200,"station_id":"ce4bgjp2rcd13ifvqbh0","pricing_plan_id":"cebpf4jnsgd1na2vs0mg"},{"bike_id":"578a57cc-dd8f-4b86-9eea-c52481c8e90f","system_id":"levelo_inurba_marseille","lat":43.21192,"lon":5.35065,"is_reserved":false,"is_disabled":false,"rental_uris":{"android":"levelo://app?vid=578a57cc-dd8f-4b86-9eea-c52481c8e90f","ios":"levelo://app?vid=578a57cc-dd8f-4b86-9eea-c52481c8e90f"},"vehicle_type_id":"4","last_reported":1761958553,"current_range_meters":19200,"station_id":"st_cvj6sg6p6f1abm77japg","pricing_plan_id":"cebpf4jnsgd1na2vs0mg"},{"bike_id":"2121d93e-1ff7-4b4a-aeb3-67e995b28b26","system_id":"levelo_inurba_marseille","lat":43.27059,"lon":5.40253,"is_reserved":false,"is_disabled":false,"rental_uris":{"android":"levelo://app?vid=2121d93e-1ff7-4b4a-aeb3-67e995b28b26","ios":"levelo://app?vid=2121d93e-1ff7-4b4a-aeb3-67e995b28b26"},"vehicle_type_id":"4","last_reported":1761958553,"current_range_meters":19200,"station_id":"ce4bhk92rcd13ifvqgc0","pricing_plan_id":"cebpf4jnsgd1na2vs0mg"},{"bike_id":"315045c2-e441-4ab0-88a2-e3cf317c7ed8","system_id":"levelo_inurba_marseille","lat":43.28025,"lon":5.41662,"is_reserved":false,"is_disabled":false,"rental_uris":{"android":"levelo://app?vid=315045c2-e441-4ab0-88a2-e3cf317c7ed8","ios":"levelo://app?vid=315045c2-e441-4ab0-88a2-e3cf317c7ed8"},"vehicle_type_id":"4","last_reported":1761958553,"current_range_meters":19200,"station_id":"ce4bho12rcd13ifvqh1g","pricing_plan_id":"cebpf4jnsgd1na2vs0mg"},{"bike_id":"4bfae429-bb38-474c-aae5-f80a4780311e","system_id":"levelo_inurba_marseille","lat":43.302597,"lon":5.40079,"is_reserved":false,"is_disabled":false,"rental_uris":{"android":"levelo://app?vid=4bfae429-bb38-474c-aae5-f80a4780311e","ios":"levelo://app?vid=4bfae429-bb38-474c-aae5-f80a4780311e"},"vehicle_type_id":"4","last_reported":1761958553,"current_range_meters":19200,"station_id":"","pricing_plan_id":"cebpf4jnsgd1na2vs0mg"},{"bike_id":"a73a24c3-2218-4652-a302-2ad81b7034ad","system_id":"levelo_inurba_marseille","lat":43.3181,"lon":5.38742,"is_reserved":false,"is_disabled":false,"rental_uris":{"android":"levelo://app?vid=a73a24c3-2218-4652-a302-2ad81b7034ad","ios":"levelo://app?vid=a73a24c3-2218-4652-a302-2ad81b7034ad"},"vehicle_type_id":"4","last_reported":1761958553,"current_range_meters":19200,"station_id":"","pricing_plan_id":"cebpf4jnsgd1na2vs0mg"},{"bike_id":"1fec0e50-44c2-4a2c-9fb9-e5dd3388b0ac","system_id":"levelo_inurba_marseille","lat":43.26058,"lon":5.39398,"is_reserved":false,"is_disabled":false,"rental_uris":{"android":"levelo://app?vid=1fec0e50-44c2-4a2c-9fb9-e5dd3388b0ac","ios":"levelo://app?vid=1fec0e50-44c2-4a2c-9fb9-e5dd3388b0ac"},"vehicle_type_id":"4","last_reported":1761958553,"current_range_meters":19200,"station_id":"ce4bhh92rcd13ifvqfj0","pricing_plan_id":"cebpf4jnsgd1na2vs0mg"},{"bike_id":"ba541a52-7e4e-4241-9791-ae6f1fb03dcd","system_id":"levelo_inurba_marseille","lat":43.32024,"lon":5.41566,"is_reserved":false,"is_disabled":false,"rental_uris":{"android":"levelo://app?vid=ba541a52-7e4e-4241-9791-ae6f1fb03dcd","ios":"levelo://app?vid=ba541a52-7e4e-4241-9791-ae6f1fb03dcd"},"vehicle_type_id":"4","last_reported":1761958553,"current_range_meters":19200,"station_id":"ce4bhq92rcd13ifvqhkg","pricing_plan_id":"cebpf4jnsgd1na2vs0mg"},{"bike_id":"565cc599-e2e4-4d0e-aef3-effc6ee3ffe7","system_id":"levelo_inurba_marseille","lat":43.27948,"lon":5.41033,"is_reserved":false,"is_disabled":false,"rental_uris":{"android":"levelo://app?vid=565cc599-e2e4-4d0e-aef3-effc6ee3ffe7","ios":"levelo://app?vid=565cc599-e2e4-4d0e-aef3-effc6ee3ffe7"},"vehicle_type_id":"4","last_reported":1761958553,"current_range_meters":19600,"station_id":"ce4bhnp2rcd13ifvqh0g","pricing_plan_id":"cebpf4jnsgd1na2vs0mg"},{"bike_id":"ca1c6f85-d443-4313-a831-599c357916ba","system_id":"levelo_inurba_marseille","lat":43.323567,"lon":5.36758,"is_reserved":false,"is_disabled":false,"rental_uris":{"android":"levelo://app?vid=ca1c6f85-d443-4313-a831-599c357916ba","ios":"levelo://app?vid=ca1c6f85-d443-4313-a831-599c357916ba"},"vehicle_type_id":"4","last_reported":1761958553,"current_range_meters":19600,"station_id":"","pricing_plan_id":"cebpf4jnsgd1na2vs0mg"},{"bike_id":"04cab6af-2d4e-4d90-b080-e48fef5ad7de","system_id":"levelo_inurba_marseille","lat":43.31077,"lon":5.38352,"is_reserved":false,"is_disabled":false,"rental_uris":{"android":"levelo://app?vid=04cab6af-2d4e-4d90-b080-e48fef5ad7de","ios":"levelo://app?vid=04cab6af-2d4e-4d90-b080-e48fef5ad7de"},"vehicle_type_id":"4","last_reported":1761958553,"current_range_meters":19600,"station_id":"ce4bgv92rcd13ifvqcr0","pricing_plan_id":"cebpf4jnsgd1na2vs0mg"},{"bike_id":"5f6c0a8d-e2ad-48fd-b50a-a8d4b3fee249","system_id":"levelo_inurba_marseille","lat":43.31326,"lon":5.39715,"is_reserved":false,"is_disabled":false,"rental_uris":{"android":"levelo://app?vid=5f6c0a8d-e2ad-48fd-b50a-a8d4b3fee249","ios":"levelo://app?vid=5f6c0a8d-e2ad-48fd-b50a-a8d4b3fee249"},"vehicle_type_id":"4","last_reported":1761958553,"current_range_meters":19600,"station_id":"ce4bgvp2rcd13ifvqcu0","pricing_plan_id":"cebpf4jnsgd1na2vs0mg"},{"bike_id":"7011b04a-149a-441e-9cdd-3fe5ef87badc","system_id":"levelo_inurba_marseille","lat":43.29284,"lon":5.40113,"is_reserved":false,"is_disabled":false,"rental_uris":{"android":"levelo://app?vid=7011b04a-149a-441e-9cdd-3fe5ef87badc","ios":"levelo://app?vid=7011b04a-149a-441e-9cdd-3fe5ef87badc"},"vehicle_type_id":"4","last_reported":1761958553,"current_range_meters":19600,"station_id":"ce4bh312rcd13ifvqdk0","pricing_plan_id":"cebpf4jnsgd1na2vs0mg"},{"bike_id":"6ed35159-3be2-4bda-bd2a-442bc863eea1","system_id":"levelo_inurba_marseille","lat":43.24165,"lon":5.3973,"is_reserved":false,"is_disabled":false,"rental_uris":{"android":"levelo://app?vid=6ed35159-3be2-4bda-bd2a-442bc863eea1","ios":"levelo://app?vid=6ed35159-3be2-4bda-bd2a-442bc863eea1"},"vehicle_type_id":"4","last_reported":1761958553,"current_range_meters":19600,"station_id":"ce4bhn12rcd13ifvqgpg","pricing_plan_id":"cebpf4jnsgd1na2vs0mg"},{"bike_id":"868c6691-3362-43e2-b6ff-6c24d3b3abbc","system_id":"levelo_inurba_marseille","lat":43.297127,"lon":5.36615,"is_reserved":false,"is_disabled":false,"rental_uris":{"android":"levelo://app?vid=868c6691-3362-43e2-b6ff-6c24d3b3abbc","ios":"levelo://app?vid=868c6691-3362-43e2-b6ff-6c24d3b3abbc"},"vehicle_type_id":"4","last_reported":1761958553,"current_range_meters":19600,"station_id":"ce4bgn12rcd13ifvqbt0","pricing_plan_id":"cebpf4jnsgd1na2vs0mg"},{"bike_id":"c311d06a-36a2-4cf8-97af-3971cfd0603c","system_id":"levelo_inurba_marseille","lat":43.27818,"lon":5.39561,"is_reserved":false,"is_disabled":false,"rental_uris":{"android":"levelo://app?vid=c311d06a-36a2-4cf8-97af-3971cfd0603c","ios":"levelo://app?vid=c311d06a-36a2-4cf8-97af-3971cfd0603c"},"vehicle_type_id":"4","last_reported":1761958553,"current_range_meters":19600,"station_id":"","pricing_plan_id":"cebpf4jnsgd1na2vs0mg"},{"bike_id":"daadb3f8-5114-4334-b2b3-8a9b109e0220","system_id":"levelo_inurba_marseille","lat":43.24988,"lon":5.38919,"is_reserved":false,"is_disabled":false,"rental_uris":{"android":"levelo://app?vid=daadb3f8-5114-4334-b2b3-8a9b109e0220","ios":"levelo://app?vid=daadb3f8-5114-4334-b2b3-8a9b109e0220"},"vehicle_type_id":"4","last_reported":1761958553,"current_range_meters":19600,"station_id":"ce4bhgp2rcd13ifvqfd0","pricing_plan_id":"cebpf4jnsgd1na2vs0mg"},{"bike_id":"79c3e17b-6b52-40f3-829f-6b443681b1d3","system_id":"levelo_inurba_marseille","lat":43.28107,"lon":5.39653,"is_reserved":false,"is_disabled":false,"rental_uris":{"android":"levelo://app?vid=79c3e17b-6b52-40f3-829f-6b443681b1d3","ios":"levelo://app?vid=79c3e17b-6b52-40f3-829f-6b443681b1d3"},"vehicle_type_id":"4","last_reported":1761958553,"current_range_meters":20000,"station_id":"ce4bho12rcd13ifvqh2g","pricing_plan_id":"cebpf4jnsgd1na2vs0mg"},{"bike_id":"c7d57f9b-8ba9-4435-ac3b-54d333c0b4c7","system_id":"levelo_inurba_marseille","lat":43.323467,"lon":5.367383,"is_reserved":false,"is_disabled":false,"rental_uris":{"android":"levelo://app?vid=c7d57f9b-8ba9-4435-ac3b-54d333c0b4c7","ios":"levelo://app?vid=c7d57f9b-8ba9-4435-ac3b-54d333c0b4c7"},"vehicle_type_id":"4","last_reported":1761958553,"current_range_meters":20000,"station_id":"ce4bhsh2rcd13ifvqi2g","pricing_plan_id":"cebpf4jnsgd1na2vs0mg"},{"bike_id":"f1e62cfe-6ece-46c2-af90-f6b7ec06994f","system_id":"levelo_inurba_marseille","lat":43.30795,"lon":5.3815,"is_reserved":false,"is_disabled":false,"rental_uris":{"android":"levelo://app?vid=f1e62cfe-6ece-46c2-af90-f6b7ec06994f","ios":"levelo://app?vid=f1e62cfe-6ece-46c2-af90-f6b7ec06994f"},"vehicle_type_id":"4","last_reported":1761958553,"current_range_meters":20000,"station_id":"ce4bgt12rcd13ifvqce0","pricing_plan_id":"cebpf4jnsgd1na2vs0mg"},{"bike_id":"137b611e-0d30-42e5-bd0e-4ca1b1f19b3a","system_id":"levelo_inurba_marseille","lat":43.27996,"lon":5.40004,"is_reserved":false,"is_disabled":false,"rental_uris":{"android":"levelo://app?vid=137b611e-0d30-42e5-bd0e-4ca1b1f19b3a","ios":"levelo://app?vid=137b611e-0d30-42e5-bd0e-4ca1b1f19b3a"},"vehicle_type_id":"4","last_reported":1761958553,"current_range_meters":20000,"station_id":"ce4bho92rcd13ifvqh4g","pricing_plan_id":"cebpf4jnsgd1na2vs0mg"},{"bike_id":"7b0eaa70-7657-4098-8e47-f6fae1ad1d21","system_id":"levelo_inurba_marseille","lat":43.258608,"lon":5.399079,"is_reserved":false,"is_disabled":false,"rental_uris":{"android":"levelo://app?vid=7b0eaa70-7657-4098-8e47-f6fae1ad1d21","ios":"levelo://app?vid=7b0eaa70-7657-4098-8e47-f6fae1ad1d21"},"vehicle_type_id":"4","last_reported":1761958553,"current_range_meters":20000,"station_id":"ce4bhl92rcd13ifvqghg","pricing_plan_id":"cebpf4jnsgd1na2vs0mg"},{"bike_id":"a37c4baf-d413-4495-b904-664f6d824310","system_id":"levelo_inurba_marseille","lat":43.31191,"lon":5.38735,"is_reserved":false,"is_disabled":false,"rental_uris":{"android":"levelo://app?vid=a37c4baf-d413-4495-b904-664f6d824310","ios":"levelo://app?vid=a37c4baf-d413-4495-b904-664f6d824310"},"vehicle_type_id":"4","last_reported":1761958553,"current_range_meters":20000,"station_id":"ce4bgv12rcd13ifvqcp0","pricing_plan_id":"cebpf4jnsgd1na2vs0mg"},{"bike_id":"baac65c3-b3b0-465b-81d8-77cf747e3890","system_id":"levelo_inurba_marseille","lat":43.23151,"lon":5.43721,"is_reserved":false,"is_disabled":false,"rental_uris":{"android":"levelo://app?vid=baac65c3-b3b0-465b-81d8-77cf747e3890","ios":"levelo://app?vid=baac65c3-b3b0-465b-81d8-77cf747e3890"},"vehicle_type_id":"4","last_reported":1761958553,"current_range_meters":20000,"station_id":"ce4bhmp2rcd13ifvqgog","pricing_plan_id":"cebpf4jnsgd1na2vs0mg"},{"bike_id":"d5eb59cf-36d6-4c3a-9725-c70745ca2eb3","system_id":"levelo_inurba_marseille","lat":43.230476,"lon":5.354887,"is_reserved":false,"is_disabled":false,"rental_uris":{"android":"levelo://app?vid=d5eb59cf-36d6-4c3a-9725-c70745ca2eb3","ios":"levelo://app?vid=d5eb59cf-36d6-4c3a-9725-c70745ca2eb3"},"vehicle_type_id":"4","last_reported":1761958553,"current_range_meters":20000,"station_id":"","pricing_plan_id":"cebpf4jnsgd1na2vs0mg"},{"bike_id":"a88c0b3b-374f-4852-9490-eff627f91ef1","system_id":"levelo_inurba_marseille","lat":43.23184,"lon":5.39985,"is_reserved":false,"is_disabled":false,"rental_uris":{"android":"levelo://app?vid=a88c0b3b-374f-4852-9490-eff627f91ef1","ios":"levelo://app?vid=a88c0b3b-374f-4852-9490-eff627f91ef1"},"vehicle_type_id":"4","last_reported":1761958553,"current_range_meters":20400,"station_id":"ce4bhn12rcd13ifvqgqg","pricing_plan_id":"cebpf4jnsgd1na2vs0mg"},{"bike_id":"e1b68ed9-bb9a-4be5-a74f-2da5938aeb2a","system_id":"levelo_inurba_marseille","lat":43.27812,"lon":5.40703,"is_reserved":false,"is_disabled":false,"rental_uris":{"android":"levelo://app?vid=e1b68ed9-bb9a-4be5-a74f-2da5938aeb2a","ios":"levelo://app?vid=e1b68ed9-bb9a-4be5-a74f-2da5938aeb2a"},"vehicle_type_id":"4","last_reported":1761958553,"current_range_meters":20400,"station_id":"ce4bhnh2rcd13ifvqgtg","pricing_plan_id":"cebpf4jnsgd1na2vs0mg"},{"bike_id":"84f1bfac-8d21-499b-b8e1-fdc8049e10ac","system_id":"levelo_inurba_marseille","lat":43.3126,"lon":5.37754,"is_reserved":false,"is_disabled":false,"rental_uris":{"android":"levelo://app?vid=84f1bfac-8d21-499b-b8e1-fdc8049e10ac","ios":"levelo://app?vid=84f1bfac-8d21-499b-b8e1-fdc8049e10ac"},"vehicle_type_id":"4","last_reported":1761958553,"current_range_meters":20400,"station_id":"","pricing_plan_id":"cebpf4jnsgd1na2vs0mg"},{"bike_id":"2cb8edf4-93a6-4f66-afc5-404e8daea8b2","system_id":"levelo_inurba_marseille","lat":43.288571,"lon":5.393191,"is_reserved":false,"is_disabled":false,"rental_uris":{"android":"levelo://app?vid=2cb8edf4-93a6-4f66-afc5-404e8daea8b2","ios":"levelo://app?vid=2cb8edf4-93a6-4f66-afc5-404e8daea8b2"},"vehicle_type_id":"4","last_reported":1761958553,"current_range_meters":20400,"station_id":"ce4bh2p2rcd13ifvqdi0","pricing_plan_id":"cebpf4jnsgd1na2vs0mg"},{"bike_id":"708ba87a-b6fe-412b-b52f-b23f135c4cda","system_id":"levelo_inurba_marseille","lat":43.268085,"lon":5.402571,"is_reserved":false,"is_disabled":false,"rental_uris":{"android":"levelo://app?vid=708ba87a-b6fe-412b-b52f-b23f135c4cda","ios":"levelo://app?vid=708ba87a-b6fe-412b-b52f-b23f135c4cda"},"vehicle_type_id":"4","last_reported":1761958553,"current_range_meters":20400,"station_id":"ce501612rcd8frsf0b60","pricing_plan_id":"cebpf4jnsgd1na2vs0mg"},{"bike_id":"00ab1c5f-431d-4d34-80a0-929f00594bde","system_id":"levelo_inurba_marseille","lat":43.307987,"lon":5.38156,"is_reserved":false,"is_disabled":false,"rental_uris":{"android":"levelo://app?vid=00ab1c5f-431d-4d34-80a0-929f00594bde","ios":"levelo://app?vid=00ab1c5f-431d-4d34-80a0-929f00594bde"},"vehicle_type_id":"4","last_reported":1761958553,"current_range_meters":20400,"station_id":"ce4bgt12rcd13ifvqce0","pricing_plan_id":"cebpf4jnsgd1na2vs0mg"},{"bike_id":"6cdd2d31-7a50-4066-9776-30f793653d6a","system_id":"levelo_inurba_marseille","lat":43.24641,"lon":5.43139,"is_reserved":false,"is_disabled":false,"rental_uris":{"android":"levelo://app?vid=6cdd2d31-7a50-4066-9776-30f793653d6a","ios":"levelo://app?vid=6cdd2d31-7a50-4066-9776-30f793653d6a"},"vehicle_type_id":"4","last_reported":1761958553,"current_range_meters":20400,"station_id":"st_d2m6c4gdas8pm72e190g","pricing_plan_id":"cebpf4jnsgd1na2vs0mg"},{"bike_id":"2a32e756-8076-4328-a472-196c9c9d4e25","system_id":"levelo_inurba_marseille","lat":43.286028,"lon":5.370706,"is_reserved":false,"is_disabled":false,"rental_uris":{"android":"levelo://app?vid=2a32e756-8076-4328-a472-196c9c9d4e25","ios":"levelo://app?vid=2a32e756-8076-4328-a472-196c9c9d4e25"},"vehicle_type_id":"4","last_reported":1761958553,"current_range_meters":20400,"station_id":"ce4bht12rcd13ifvqi60","pricing_plan_id":"cebpf4jnsgd1na2vs0mg"},{"bike_id":"265c2221-a1bf-414e-84fa-d82aabbf0b6f","system_id":"levelo_inurba_marseille","lat":43.29968,"lon":5.37169,"is_reserved":false,"is_disabled":false,"rental_uris":{"android":"levelo://app?vid=265c2221-a1bf-414e-84fa-d82aabbf0b6f","ios":"levelo://app?vid=265c2221-a1bf-414e-84fa-d82aabbf0b6f"},"vehicle_type_id":"4","last_reported":1761958553,"current_range_meters":20800,"station_id":"ce4bgr92rcd13ifvqc7g","pricing_plan_id":"cebpf4jnsgd1na2vs0mg"},{"bike_id":"aa470cf9-90e1-4c51-a330-5363d023f48a","system_id":"levelo_inurba_marseille","lat":43.250858,"lon":5.395261,"is_reserved":false,"is_disabled":false,"rental_uris":{"android":"levelo://app?vid=aa470cf9-90e1-4c51-a330-5363d023f48a","ios":"levelo://app?vid=aa470cf9-90e1-4c51-a330-5363d023f48a"},"vehicle_type_id":"4","last_reported":1761958553,"current_range_meters":20800,"station_id":"ce4bhm12rcd13ifvqgkg","pricing_plan_id":"cebpf4jnsgd1na2vs0mg"},{"bike_id":"f0baa8de-80ab-46d8-bc55-25cecfd22c6b","system_id":"levelo_inurba_marseille","lat":43.24548,"lon":5.39519,"is_reserved":false,"is_disabled":false,"rental_uris":{"android":"levelo://app?vid=f0baa8de-80ab-46d8-bc55-25cecfd22c6b","ios":"levelo://app?vid=f0baa8de-80ab-46d8-bc55-25cecfd22c6b"},"vehicle_type_id":"4","last_reported":1761958553,"current_range_meters":20800,"station_id":"ce4bhlp2rcd13ifvqgjg","pricing_plan_id":"cebpf4jnsgd1na2vs0mg"},{"bike_id":"07cbe35b-6e7f-454d-9748-b294edb7ed66","system_id":"levelo_inurba_marseille","lat":43.28664,"lon":5.36351,"is_reserved":false,"is_disabled":false,"rental_uris":{"android":"levelo://app?vid=07cbe35b-6e7f-454d-9748-b294edb7ed66","ios":"levelo://app?vid=07cbe35b-6e7f-454d-9748-b294edb7ed66"},"vehicle_type_id":"4","last_reported":1761958553,"current_range_meters":21600,"station_id":"ce4bhah2rcd13ifvqej0","pricing_plan_id":"cebpf4jnsgd1na2vs0mg"},{"bike_id":"21379b4d-7fd4-4610-90d0-7c7774b718a6","system_id":"levelo_inurba_marseille","lat":43.256648,"lon":5.409097,"is_reserved":false,"is_disabled":false,"rental_uris":{"android":"levelo://app?vid=21379b4d-7fd4-4610-90d0-7c7774b718a6","ios":"levelo://app?vid=21379b4d-7fd4-4610-90d0-7c7774b718a6"},"vehicle_type_id":"4","last_reported":1761958553,"current_range_meters":21600,"station_id":"ce4bhkp2rcd13ifvqgd0","pricing_plan_id":"cebpf4jnsgd1na2vs0mg"},{"bike_id":"1af74fe3-6ad6-4b8f-af9a-1a1810def892","system_id":"levelo_inurba_marseille","lat":43.28145,"lon":5.42633,"is_reserved":false,"is_disabled":false,"rental_uris":{"android":"levelo://app?vid=1af74fe3-6ad6-4b8f-af9a-1a1810def892","ios":"levelo://app?vid=1af74fe3-6ad6-4b8f-af9a-1a1810def892"},"vehicle_type_id":"4","last_reported":1761958553,"current_range_meters":21600,"station_id":"ce4bhnh2rcd13ifvqgug","pricing_plan_id":"cebpf4jnsgd1na2vs0mg"},{"bike_id":"2168936e-b6ee-4d02-a9d6-1f545f2fa90f","system_id":"levelo_inurba_marseille","lat":43.28179,"lon":5.39066,"is_reserved":false,"is_disabled":false,"rental_uris":{"android":"levelo://app?vid=2168936e-b6ee-4d02-a9d6-1f545f2fa90f","ios":"levelo://app?vid=2168936e-b6ee-4d02-a9d6-1f545f2fa90f"},"vehicle_type_id":"4","last_reported":1761958553,"current_range_meters":21600,"station_id":"","pricing_plan_id":"cebpf4jnsgd1na2vs0mg"},