{"last_updated":1680195976,"ttl":30,"version":"2.2","data":{"bikes":[{"bike_id":"4a71c2ba-58f3-40ca-b99e-533115d2c3ee","system_id":"levelo_inurba_marseille","lat":43.30909,"lon":5.37187,"is_reserved":false,"is_disabled":false,"rental_uris":{"android":"levelo://app?vid=4a71c2ba-58f3-40ca-b99e-533115d2c3ee","ios":"levelo://app?vid=4a71c2ba-58f3-40ca-b99e-533115d2c3ee"},"vehicle_type_id":"4","last_reported":1680195977,"current_range_meters":4000,"station_id":"","pricing_plan_id":"free"},{"bike_id":"b31901a8-d801-4a77-a032-87a0d59c7554","system_id":"levelo_inurba_marseille","lat":43.31519,"lon":5.37314,"is_reserved":false,"is_disabled":false,"rental_uris":{"android":"levelo://app?vid=b31901a8-d801-4a77-a032-87a0d59c7554","ios":"levelo://app?vid=b31901a8-d801-4a77-a032-87a0d59c7554"},"vehicle_type_id":"4","last_reported":1680195977,"current_range_meters":8400,"station_id":"","pricing_plan_id":"free"},{"bike_id":"78708cac-3f2c-4f4e-8577-3c1ba7dbe05f","system_id":"levelo_inurba_marseille","lat":43.32123,"lon":5.36776,"is_reserved":false,"is_disabled":false,"rental_uris":{"android":"levelo://app?vid=78708cac-3f2c-4f4e-8577-3c1ba7dbe05f","ios":"levelo://app?vid=78708cac-3f2c-4f4e-8577-3c1ba7dbe05f"},"vehicle_type_id":"4","last_reported":1680195977,"current_range_meters":10800,"station_id":"","pricing_plan_id":"free"},{"bike_id":"b80a3e34-f7be-4f96-b757-58d1df620384","system_id":"levelo_inurba_marseille","lat":43.317075,"lon":5.377367,"is_reserved":false,"is_disabled":false,"rental_uris":{"android":"levelo://app?vid=b80a3e34-f7be-4f96-b757-58d1df620384","ios":"levelo://app?vid=b80a3e34-f7be-4f96-b757-58d1df620384"},"vehicle_type_id":"4","last_reported":1680195977,"current_range_meters":4000,"station_id":"ce4bgth2rcd13ifvqch0","pricing_plan_id":"free"},{"bike_id":"9ec21339-a254-4829-b879-b233889b24c4","system_id":"levelo_inurba_marseille","lat":43.317075,"lon":5.377367,"is_reserved":false,"is_disabled":false,"rental_uris":{"android":"levelo://app?vid=9ec21339-a254-4829-b879-b233889b24c4","ios":"levelo://app?vid=9ec21339-a254-4829-b879-b233889b24c4"},"vehicle_type_id":"4","last_reported":1680195977,"current_range_meters":2000,"station_id":"ce4bgth2rcd13ifvqch0","pricing_plan_id":"free"},{"bike_id":"b04f696a-67af-4657-99a7-9e713dd10ee6","system_id":"levelo_inurba_marseille","lat":43.30197,"lon":5.36626,"is_reserved":false,"is_disabled":false,"rental_uris":{"android":"levelo://app?vid=b04f696a-67af-4657-99a7-9e713dd10ee6","ios":"levelo://app?vid=b04f696a-67af-4657-99a7-9e713dd10ee6"},"vehicle_type_id":"4","last_reported":1680195977,"current_range_meters":17200,"station_id":"","pricing_plan_id":"free"},{"bike_id":"84e62c1a-2460-4451-83c8-5c42c44d2f35","system_id":"levelo_inurba_marseille","lat":43.31344,"lon":5.3826,"is_reserved":false,"is_disabled":false,"rental_uris":{"android":"levelo://app?vid=84e62c1a-2460-4451-83c8-5c42c44d2f35","ios":"levelo://app?vid=84e62c1a-2460-4451-83c8-5c42c44d2f35"},"vehicle_type_id":"4","last_reported":1680195977,"current_range_meters":18400,"station_id":"","pricing_plan_id":"free"},{"bike_id":"1755b3b7-5f07-4af1-bb78-5b098590e513","system_id":"levelo_inurba_marseille","lat":43.308012,"lon":5.381511,"is_reserved":false,"is_disabled":false,"rental_uris":{"android":"levelo://app?vid=1755b3b7-5f07-4af1-bb78-5b098590e513","ios":"levelo://app?vid=1755b3b7-5f07-4af1-bb78-5b098590e513"},"vehicle_type_id":"4","last_reported":1680195977,"current_range_meters":7200,"station_id":"ce4bgt12rcd13ifvqce0","pricing_plan_id":"free"},{"bike_id":"89cd0bfc-4c29-45b5-bafd-f4f9860739d5","system_id":"levelo_inurba_marseille","lat":43.308012,"lon":5.381511,"is_reserved":false,"is_disabled":false,"rental_uris":{"android":"levelo://app?vid=89cd0bfc-4c29-45b5-bafd-f4f9860739d5","ios":"levelo://app?vid=89cd0bfc-4c29-45b5-bafd-f4f9860739d5"},"vehicle_type_id":"4","last_reported":1680195977,"current_range_meters":19600,"station_id":"ce4bgt12rcd13ifvqce0","pricing_plan_id":"free"},{"bike_id":"18176bb9-85e6-4c17-805a-b7afa5ce7db7","system_id":"levelo_inurba_marseille","lat":43.30143,"lon":5.37413,"is_reserved":false,"is_disabled":false,"rental_uris":{"android":"levelo://app?vid=18176bb9-85e6-4c17-805a-b7afa5ce7db7","ios":"levelo://app?vid=18176bb9-85e6-4c17-805a-b7afa5ce7db7"},"vehicle_type_id":"4","last_reported":1680195977,"current_range_meters":2400,"station_id":"ce4bgs92rcd13ifvqcc0","pricing_plan_id":"free"},{"bike_id":"cc53e611-7992-48cb-a2a5-d7c6eea6aa91","system_id":"levelo_inurba_marseille","lat":43.30143,"lon":5.37413,"is_reserved":false,"is_disabled":false,"rental_uris":{"android":"levelo://app?vid=cc53e611-7992-48cb-a2a5-d7c6eea6aa91","ios":"levelo://app?vid=cc53e611-7992-48cb-a2a5-d7c6eea6aa91"},"vehicle_type_id":"4","last_reported":1680195977,"current_range_meters":22000,"station_id":"ce4bgs92rcd13ifvqcc0","pricing_plan_id":"free"},{"bike_id":"813465e8-446f-43dd-9081-04c1313a2495","system_id":"levelo_inurba_marseille","lat":43.31321,"lon":5.38444,"is_reserved":false,"is_disabled":false,"rental_uris":{"android":"levelo://app?vid=813465e8-446f-43dd-9081-04c1313a2495","ios":"levelo://app?vid=813465e8-446f-43dd-9081-04c1313a2495"},"vehicle_type_id":"4","last_reported":1680195977,"current_range_meters":5200,"station_id":"","pricing_plan_id":"free"},{"bike_id":"d5b35936-c81d-4f0f-a7f0-5f301b685061","system_id":"levelo_inurba_marseille","lat":43.299094,"lon":5.365415,"is_reserved":false,"is_disabled":false,"rental_uris":{"android":"levelo://app?vid=d5b35936-c81d-4f0f-a7f0-5f301b685061","ios":"levelo://app?vid=d5b35936-c81d-4f0f-a7f0-5f301b685061"},"vehicle_type_id":"4","last_reported":1680195977,"current_range_meters":0,"station_id":"ce4bgm92rcd13ifvqbr0","pricing_plan_id":"free"},{"bike_id":"b732a7a4-ca52-455e-af53-752105b15006","system_id":"levelo_inurba_marseille","lat":43.30564,"lon":5.3843,"is_reserved":false,"is_disabled":false,"rental_uris":{"android":"levelo://app?vid=b732a7a4-ca52-455e-af53-752105b15006","ios":"levelo://app?vid=b732a7a4-ca52-455e-af53-752105b15006"},"vehicle_type_id":"4","last_reported":1680195977,"current_range_meters":7600,"station_id":"","pricing_plan_id":"free"},{"bike_id":"e882e34d-f22b-42d5-bcc5-8feaac5d94db","system_id":"levelo_inurba_marseille","lat":43.31168,"lon":5.38725,"is_reserved":false,"is_disabled":false,"rental_uris":{"android":"levelo://app?vid=e882e34d-f22b-42d5-bcc5-8feaac5d94db","ios":"levelo://app?vid=e882e34d-f22b-42d5-bcc5-8feaac5d94db"},"vehicle_type_id":"4","last_reported":1680195977,"current_range_meters":16400,"station_id":"ce4bgv12rcd13ifvqcp0","pricing_plan_id":"free"},{"bike_id":"e7a8b77a-c00c-4783-b456-9e2daf18de89","system_id":"levelo_inurba_marseille","lat":43.328371,"lon":5.366912,"is_reserved":false,"is_disabled":false,"rental_uris":{"android":"levelo://app?vid=e7a8b77a-c00c-4783-b456-9e2daf18de89","ios":"levelo://app?vid=e7a8b77a-c00c-4783-b456-9e2daf18de89"},"vehicle_type_id":"4","last_reported":1680195977,"current_range_meters":22400,"station_id":"ce4bhs92rcd13ifvqi0g","pricing_plan_id":"free"},{"bike_id":"cb751ee3-e1fa-46ff-964f-14847b8e1f99","system_id":"levelo_inurba_marseille","lat":43.328371,"lon":5.366912,"is_reserved":false,"is_disabled":false,"rental_uris":{"android":"levelo://app?vid=cb751ee3-e1fa-46ff-964f-14847b8e1f99","ios":"levelo://app?vid=cb751ee3-e1fa-46ff-964f-14847b8e1f99"},"vehicle_type_id":"4","last_reported":1680195977,"current_range_meters":0,"station_id":"ce4bhs92rcd13ifvqi0g","pricing_plan_id":"free"},{"bike_id":"0de76309-5711-4fb9-935d-6754bc9bd0d9","system_id":"levelo_inurba_marseille","lat":43.299028,"lon":5.381509,"is_reserved":false,"is_disabled":false,"rental_uris":{"android":"levelo://app?vid=0de76309-5711-4fb9-935d-6754bc9bd0d9","ios":"levelo://app?vid=0de76309-5711-4fb9-935d-6754bc9bd0d9"},"vehicle_type_id":"4","last_reported":1680195977,"current_range_meters":0,"station_id":"ce4bgj12rcd13ifvqbc0","pricing_plan_id":"free"},{"bike_id":"35d852f4-463a-4a08-ad1e-35882cccd267","system_id":"levelo_inurba_marseille","lat":43.309589,"lon":5.390258,"is_reserved":false,"is_disabled":false,"rental_uris":{"android":"levelo://app?vid=35d852f4-463a-4a08-ad1e-35882cccd267","ios":"levelo://app?vid=35d852f4-463a-4a08-ad1e-35882cccd267"},"vehicle_type_id":"4","last_reported":1680195977,"current_range_meters":1200,"station_id":"ce4bgup2rcd13ifvqco0","pricing_plan_id":"free"},{"bike_id":"f500ce15-f8b7-4671-b833-8ad886426502","system_id":"levelo_inurba_marseille","lat":43.309591,"lon":5.390401,"is_reserved":false,"is_disabled":false,"rental_uris":{"android":"levelo://app?vid=f500ce15-f8b7-4671-b833-8ad886426502","ios":"levelo://app?vid=f500ce15-f8b7-4671-b833-8ad886426502"},"vehicle_type_id":"4","last_reported":1680195977,"current_range_meters":0,"station_id":"ce4bgup2rcd13ifvqco0","pricing_plan_id":"free"},{"bike_id":"6804bfa2-ed73-42bf-b355-596c9219213d","system_id":"levelo_inurba_marseille","lat":43.317557,"lon":5.390173,"is_reserved":false,"is_disabled":false,"rental_uris":{"android":"levelo://app?vid=6804bfa2-ed73-42bf-b355-596c9219213d","ios":"levelo://app?vid=6804bfa2-ed73-42bf-b355-596c9219213d"},"vehicle_type_id":"4","last_reported":1680195977,"current_range_meters":0,"station_id":"ce4bhqp2rcd13ifvqhng","pricing_plan_id":"free"},{"bike_id":"8d86c7f2-a273-40a3-b425-5af56987c5e0","system_id":"levelo_inurba_marseille","lat":43.29569,"lon":5.37521,"is_reserved":false,"is_disabled":false,"rental_uris":{"android":"levelo://app?vid=8d86c7f2-a273-40a3-b425-5af56987c5e0","ios":"levelo://app?vid=8d86c7f2-a273-40a3-b425-5af56987c5e0"},"vehicle_type_id":"4","last_reported":1680195977,"current_range_meters":0,"station_id":"ce4bgh92rcd13ifvqb50","pricing_plan_id":"free"},{"bike_id":"ed999e1a-51f2-440e-ba46-4756101caa4c","system_id":"levelo_inurba_marseille","lat":43.29566,"lon":5.37515,"is_reserved":false,"is_disabled":false,"rental_uris":{"android":"levelo://app?vid=ed999e1a-51f2-440e-ba46-4756101caa4c","ios":"levelo://app?vid=ed999e1a-51f2-440e-ba46-4756101caa4c"},"vehicle_type_id":"4","last_reported":1680195977,"current_range_meters":24000,"station_id":"ce4bgh92rcd13ifvqb50","pricing_plan_id":"free"},{"bike_id":"e420d9a7-7ad0-451d-814e-5a940cf87d9a","system_id":"levelo_inurba_marseille","lat":43.29568,"lon":5.37523,"is_reserved":false,"is_disabled":false,"rental_uris":{"android":"levelo://app?vid=e420d9a7-7ad0-451d-814e-5a940cf87d9a","ios":"levelo://app?vid=e420d9a7-7ad0-451d-814e-5a940cf87d9a"},"vehicle_type_id":"4","last_reported":1680195977,"current_range_meters":10000,"station_id":"ce4bgh92rcd13ifvqb50","pricing_plan_id":"free"},{"bike_id":"f133f4b7-60dc-4bda-96c2-ad14268f1690","system_id":"levelo_inurba_marseille","lat":43.299724,"lon":5.384848,"is_reserved":false,"is_disabled":false,"rental_uris":{"android":"levelo://app?vid=f133f4b7-60dc-4bda-96c2-ad14268f1690","ios":"levelo://app?vid=f133f4b7-60dc-4bda-96c2-ad14268f1690"},"vehicle_type_id":"4","last_reported":1680195977,"current_range_meters":4000,"station_id":"ce4bgj92rcd13ifvqbd0","pricing_plan_id":"free"},{"bike_id":"0f06d5a7-ac9f-4b9a-86f4-2772deb29817","system_id":"levelo_inurba_marseille","lat":43.299717,"lon":5.384845,"is_reserved":false,"is_disabled":false,"rental_uris":{"android":"levelo://app?vid=0f06d5a7-ac9f-4b9a-86f4-2772deb29817","ios":"levelo://app?vid=0f06d5a7-ac9f-4b9a-86f4-2772deb29817"},"vehicle_type_id":"4","last_reported":1680195977,"current_range_meters":18000,"station_id":"ce4bgj92rcd13ifvqbd0","pricing_plan_id":"free"},{"bike_id":"695d81e1-b758-4dfb-95c2-c9cae417fcca","system_id":"levelo_inurba_marseille","lat":43.32367,"lon":5.388836,"is_reserved":false,"is_disabled":false,"rental_uris":{"android":"levelo://app?vid=695d81e1-b758-4dfb-95c2-c9cae417fcca","ios":"levelo://app?vid=695d81e1-b758-4dfb-95c2-c9cae417fcca"},"vehicle_type_id":"4","last_reported":1680195977,"current_range_meters":22000,"station_id":"ce4bhqp2rcd13ifvqhog","pricing_plan_id":"free"},{"bike_id":"68998cb8-b6bc-4041-9036-1c857c30a67d","system_id":"levelo_inurba_marseille","lat":43.32367,"lon":5.388836,"is_reserved":false,"is_disabled":false,"rental_uris":{"android":"levelo://app?vid=68998cb8-b6bc-4041-9036-1c857c30a67d","ios":"levelo://app?vid=68998cb8-b6bc-4041-9036-1c857c30a67d"},"vehicle_type_id":"4","last_reported":1680195977,"current_range_meters":17600,"station_id":"ce4bhqp2rcd13ifvqhog","pricing_plan_id":"free"},{"bike_id":"98d89e02-2c65-4a76-803e-c6248d79b23f","system_id":"levelo_inurba_marseille","lat":43.32367,"lon":5.388836,"is_reserved":false,"is_disabled":false,"rental_uris":{"android":"levelo://app?vid=98d89e02-2c65-4a76-803e-c6248d79b23f","ios":"levelo://app?vid=98d89e02-2c65-4a76-803e-c6248d79b23f"},"vehicle_type_id":"4","last_reported":1680195977,"current_range_meters":4800,"station_id":"ce4bhqp2rcd13ifvqhog","pricing_plan_id":"free"},{"bike_id":"f773ae5a-e60a-432a-a5a9-62b7c00e1874","system_id":"levelo_inurba_marseille","lat":43.30024,"lon":5.38851,"is_reserved":false,"is_disabled":false,"rental_uris":{"android":"levelo://app?vid=f773ae5a-e60a-432a-a5a9-62b7c00e1874","ios":"levelo://app?vid=f773ae5a-e60a-432a-a5a9-62b7c00e1874"},"vehicle_type_id":"4","last_reported":1680195977,"current_range_meters":0,"station_id":"","pricing_plan_id":"free"},{"bike_id":"a73d54bf-4526-4e4e-9641-c27fccabef7c","system_id":"levelo_inurba_marseille","lat":43.29894,"lon":5.3885,"is_reserved":false,"is_disabled":false,"rental_uris":{"android":"levelo://app?vid=a73d54bf-4526-4e4e-9641-c27fccabef7c","ios":"levelo://app?vid=a73d54bf-4526-4e4e-9641-c27fccabef7c"},"vehicle_type_id":"4","last_reported":1680195977,"current_range_meters":0,"station_id":"","pricing_plan_id":"free"},{"bike_id":"33468710-07de-4821-a1f0-14f237585c26","system_id":"levelo_inurba_marseille","lat":43.2923,"lon":5.36053,"is_reserved":false,"is_disabled":false,"rental_uris":{"android":"levelo://app?vid=33468710-07de-4821-a1f0-14f237585c26","ios":"levelo://app?vid=33468710-07de-4821-a1f0-14f237585c26"},"vehicle_type_id":"4","last_reported":1680195977,"current_range_meters":800,"station_id":"ce4bhbh2rcd13ifvqeqg","pricing_plan_id":"free"},{"bike_id":"a565a33a-e46c-48b1-a70b-6f1a55cc5dc9","system_id":"levelo_inurba_marseille","lat":43.29447,"lon":5.38309,"is_reserved":false,"is_disabled":false,"rental_uris":{"android":"levelo://app?vid=a565a33a-e46c-48b1-a70b-6f1a55cc5dc9","ios":"levelo://app?vid=a565a33a-e46c-48b1-a70b-6f1a55cc5dc9"},"vehicle_type_id":"4","last_reported":1680195977,"current_range_meters":0,"station_id":"","pricing_plan_id":"free"},{"bike_id":"8377d257-901b-4ca1-8143-ccd575009970","system_id":"levelo_inurba_marseille","lat":43.290624,"lon":5.359245,"is_reserved":false,"is_disabled":false,"rental_uris":{"android":"levelo://app?vid=8377d257-901b-4ca1-8143-ccd575009970","ios":"levelo://app?vid=8377d257-901b-4ca1-8143-ccd575009970"},"vehicle_type_id":"4","last_reported":1680195977,"current_range_meters":12400,"station_id":"ce4bha92rcd13ifvqeg0","pricing_plan_id":"free"},{"bike_id":"e9901672-b62d-4368-972b-30693364c1fc","system_id":"levelo_inurba_marseille","lat":43.30685,"lon":5.39741,"is_reserved":false,"is_disabled":false,"rental_uris":{"android":"levelo://app?vid=e9901672-b62d-4368-972b-30693364c1fc","ios":"levelo://app?vid=e9901672-b62d-4368-972b-30693364c1fc"},"vehicle_type_id":"4","last_reported":1680195977,"current_range_meters":0,"station_id":"","pricing_plan_id":"free"},{"bike_id":"7ee62918-a838-4751-a68f-55c3c8e75d0b","system_id":"levelo_inurba_marseille","lat":43.290624,"lon":5.359245,"is_reserved":false,"is_disabled":false,"rental_uris":{"android":"levelo://app?vid=7ee62918-a838-4751-a68f-55c3c8e75d0b","ios":"levelo://app?vid=7ee62918-a838-4751-a68f-55c3c8e75d0b"},"vehicle_type_id":"4","last_reported":1680195977,"current_range_meters":14400,"station_id":"ce4bha92rcd13ifvqeg0","pricing_plan_id":"free"},{"bike_id":"21a73891-9597-4192-aeb9-c9dc7d2e7c1a","system_id":"levelo_inurba_marseille","lat":43.290319,"lon":5.375732,"is_reserved":false,"is_disabled":false,"rental_uris":{"android":"levelo://app?vid=21a73891-9597-4192-aeb9-c9dc7d2e7c1a","ios":"levelo://app?vid=21a73891-9597-4192-aeb9-c9dc7d2e7c1a"},"vehicle_type_id":"4","last_reported":1680195977,"current_range_meters":14800,"station_id":"ce4bh692rcd13ifvqe90","pricing_plan_id":"free"},{"bike_id":"b2c0c6a6-b0b1-4b6d-b518-f1dbee08c428","system_id":"levelo_inurba_marseille","lat":43.33043,"lon":5.38916,"is_reserved":false,"is_disabled":false,"rental_uris":{"android":"levelo://app?vid=b2c0c6a6-b0b1-4b6d-b518-f1dbee08c428","ios":"levelo://app?vid=b2c0c6a6-b0b1-4b6d-b518-f1dbee08c428"},"vehicle_type_id":"4","last_reported":1680195977,"current_range_meters":0,"station_id":"ce4bhr92rcd13ifvqhrg","pricing_plan_id":"free"},{"bike_id":"71793fa7-5409-48c2-b048-5c1f212e846d","system_id":"levelo_inurba_marseille","lat":43.33045,"lon":5.38915,"is_reserved":false,"is_disabled":false,"rental_uris":{"android":"levelo://app?vid=71793fa7-5409-48c2-b048-5c1f212e846d","ios":"levelo://app?vid=71793fa7-5409-48c2-b048-5c1f212e846d"},"vehicle_type_id":"4","last_reported":1680195977,"current_range_meters":20800,"station_id":"ce4bhr92rcd13ifvqhrg","pricing_plan_id":"free"},{"bike_id":"e414d4e1-0e32-48b2-a861-6208ac0066e7","system_id":"levelo_inurba_marseille","lat":43.288935,"lon":5.361244,"is_reserved":false,"is_disabled":false,"rental_uris":{"android":"levelo://app?vid=e414d4e1-0e32-48b2-a861-6208ac0066e7","ios":"levelo://app?vid=e414d4e1-0e32-48b2-a861-6208ac0066e7"},"vehicle_type_id":"4","last_reported":1680195977,"current_range_meters":0,"station_id":"","pricing_plan_id":"free"},{"bike_id":"f6289d99-d334-4f65-9a13-405a4e0175cc","system_id":"levelo_inurba_marseille","lat":43.28856,"lon":5.358371,"is_reserved":false,"is_disabled":false,"rental_uris":{"android":"levelo://app?vid=f6289d99-d334-4f65-9a13-405a4e0175cc","ios":"levelo://app?vid=f6289d99-d334-4f65-9a13-405a4e0175cc"},"vehicle_type_id":"4","last_reported":1680195977,"current_range_meters":800,"station_id":"ce4bhb12rcd13ifvqem0","pricing_plan_id":"free"},{"bike_id":"a829c41b-4504-4600-bac7-40456c920997","system_id":"levelo_inurba_marseille","lat":43.28856,"lon":5.358371,"is_reserved":false,"is_disabled":false,"rental_uris":{"android":"levelo://app?vid=a829c41b-4504-4600-bac7-40456c920997","ios":"levelo://app?vid=a829c41b-4504-4600-bac7-40456c920997"},"vehicle_type_id":"4","last_reported":1680195977,"current_range_meters":26400,"station_id":"ce4bhb12rcd13ifvqem0","pricing_plan_id":"free"},{"bike_id":"d5c80345-9752-4c5b-a446-e48285e22a61","system_id":"levelo_inurba_marseille","lat":43.33755,"lon":5.37451,"is_reserved":false,"is_disabled":false,"rental_uris":{"android":"levelo://app?vid=d5c80345-9752-4c5b-a446-e48285e22a61","ios":"levelo://app?vid=d5c80345-9752-4c5b-a446-e48285e22a61"},"vehicle_type_id":"4","last_reported":1680195977,"current_range_meters":23600,"station_id":"","pricing_plan_id":"free"},{"bike_id":"4d7d8f4e-94e5-48ee-afdc-3d4a29d22db8","system_id":"levelo_inurba_marseille","lat":43.306412,"lon":5.401035,"is_reserved":false,"is_disabled":false,"rental_uris":{"android":"levelo://app?vid=4d7d8f4e-94e5-48ee-afdc-3d4a29d22db8","ios":"levelo://app?vid=4d7d8f4e-94e5-48ee-afdc-3d4a29d22db8"},"vehicle_type_id":"4","last_reported":1680195977,"current_range_meters":18400,"station_id":"ce4bh112rcd13ifvqda0","pricing_plan_id":"free"},{"bike_id":"62170590-df8b-4b75-8c40-cba5946c770a","system_id":"levelo_inurba_marseille","lat":43.306412,"lon":5.401035,"is_reserved":false,"is_disabled":false,"rental_uris":{"android":"levelo://app?vid=62170590-df8b-4b75-8c40-cba5946c770a","ios":"levelo://app?vid=62170590-df8b-4b75-8c40-cba5946c770a"},"vehicle_type_id":"4","last_reported":1680195977,"current_range_meters":0,"station_id":"ce4bh112rcd13ifvqda0","pricing_plan_id":"free"},{"bike_id":"7ea5c5d1-1599-49e2-821e-335cd8dda03b","system_id":"levelo_inurba_marseille","lat":43.33769,"lon":5.37449,"is_reserved":false,"is_disabled":false,"rental_uris":{"android":"levelo://app?vid=7ea5c5d1-1599-49e2-821e-335cd8dda03b","ios":"levelo://app?vid=7ea5c5d1-1599-49e2-821e-335cd8dda03b"},"vehicle_type_id":"4","last_reported":1680195977,"current_range_meters":0,"station_id":"","pricing_plan_id":"free"},{"bike_id":"85d20920-3ce5-4cf8-ad79-776f98bef38d","system_id":"levelo_inurba_marseille","lat":43.286593,"lon":5.363346,"is_reserved":false,"is_disabled":false,"rental_uris":{"android":"levelo://app?vid=85d20920-3ce5-4cf8-ad79-776f98bef38d","ios":"levelo://app?vid=85d20920-3ce5-4cf8-ad79-776f98bef38d"},"vehicle_type_id":"4","last_reported":1680195977,"current_range_meters":0,"station_id":"ce4bhah2rcd13ifvqej0","pricing_plan_id":"free"},{"bike_id":"b77fdb1c-b569-477b-9749-1c47858d8b49","system_id":"levelo_inurba_marseille","lat":43.29532,"lon":5.39403,"is_reserved":false,"is_disabled":false,"rental_uris":{"android":"levelo://app?vid=b77fdb1c-b569-477b-9749-1c47858d8b49","ios":"levelo://app?vid=b77fdb1c-b569-477b-9749-1c47858d8b49"},"vehicle_type_id":"4","last_reported":1680195977,"current_range_meters":800,"station_id":"","pricing_plan_id":"free"},{"bike_id":"01379693-07a8-4ce6-b7d5-5d373022d966","system_id":"levelo_inurba_marseille","lat":43.28612,"lon":5.3707,"is_reserved":false,"is_disabled":false,"rental_uris":{"android":"levelo://app?vid=01379693-07a8-4ce6-b7d5-5d373022d966","ios":"levelo://app?vid=01379693-07a8-4ce6-b7d5-5d373022d966"},"vehicle_type_id":"4","last_reported":1680195977,"current_range_meters":18800,"station_id":"ce4bht12rcd13ifvqi60","pricing_plan_id":"free"},{"bike_id":"cd461050-34ca-4310-9d60-c792a8453f95","system_id":"levelo_inurba_marseille","lat":43.316517,"lon":5.404375,"is_reserved":false,"is_disabled":false,"rental_uris":{"android":"levelo://app?vid=cd461050-34ca-4310-9d60-c792a8453f95","ios":"levelo://app?vid=cd461050-34ca-4310-9d60-c792a8453f95"},"vehicle_type_id":"4","last_reported":1680195977,"current_range_meters":1200,"station_id":"ce4bh012rcd13ifvqd00","pricing_plan_id":"free"},{"bike_id":"4173e7d0-a426-4595-b96b-bac363f56dee","system_id":"levelo_inurba_marseille","lat":43.316517,"lon":5.404375,"is_reserved":false,"is_disabled":false,"rental_uris":{"android":"levelo://app?vid=4173e7d0-a426-4595-b96b-bac363f56dee","ios":"levelo://app?vid=4173e7d0-a426-4595-b96b-bac363f56dee"},"vehicle_type_id":"4","last_reported":1680195977,"current_range_meters":2000,"station_id":"ce4bh012rcd13ifvqd00","pricing_plan_id":"free"},{"bike_id":"86fdca0b-ad91-4fd4-8cfa-47d7d54af2c3","system_id":"levelo_inurba_marseille","lat":43.284534,"lon":5.358662,"is_reserved":false,"is_disabled":false,"rental_uris":{"android":"levelo://app?vid=86fdca0b-ad91-4fd4-8cfa-47d7d54af2c3","ios":"levelo://app?vid=86fdca0b-ad91-4fd4-8cfa-47d7d54af2c3"},"vehicle_type_id":"4","last_reported":1680195977,"current_range_meters":6800,"station_id":"ce4bhah2rcd13ifvqei0","pricing_plan_id":"free"},{"bike_id":"c0e8bcfc-2017-4a1f-b6ec-5c5be158d15a","system_id":"levelo_inurba_marseille","lat":43.29574,"lon":5.39976,"is_reserved":false,"is_disabled":false,"rental_uris":{"android":"levelo://app?vid=c0e8bcfc-2017-4a1f-b6ec-5c5be158d15a","ios":"levelo://app?vid=c0e8bcfc-2017-4a1f-b6ec-5c5be158d15a"},"vehicle_type_id":"4","last_reported":1680195977,"current_range_meters":25600,"station_id":"ce4bh312rcd13ifvqdj0","pricing_plan_id":"free"},{"bike_id":"2e763200-5169-41a1-830e-3904a613fa22","system_id":"levelo_inurba_marseille","lat":43.286595,"lon":5.386795,"is_reserved":false,"is_disabled":false,"rental_uris":{"android":"levelo://app?vid=2e763200-5169-41a1-830e-3904a613fa22","ios":"levelo://app?vid=2e763200-5169-41a1-830e-3904a613fa22"},"vehicle_type_id":"4","last_reported":1680195977,"current_range_meters":0,"station_id":"ce4bh492rcd13ifvqdug","pricing_plan_id":"free"},{"bike_id":"ed8f152a-471b-4438-918c-a72431e25526","system_id":"levelo_inurba_marseille","lat":43.286595,"lon":5.386795,"is_reserved":false,"is_disabled":false,"rental_uris":{"android":"levelo://app?vid=ed8f152a-471b-4438-918c-a72431e25526","ios":"levelo://app?vid=ed8f152a-471b-4438-918c-a72431e25526"},"vehicle_type_id":"4","last_reported":1680195977,"current_range_meters":1600,"station_id":"ce4bh492rcd13ifvqdug","pricing_plan_id":"free"},{"bike_id":"6ee97076-d4cc-4c0e-83aa-01f63c242de5","system_id":"levelo_inurba_marseille","lat":43.323464,"lon":5.406297,"is_reserved":false,"is_disabled":false,"rental_uris":{"android":"levelo://app?vid=6ee97076-d4cc-4c0e-83aa-01f63c242de5","ios":"levelo://app?vid=6ee97076-d4cc-4c0e-83aa-01f63c242de5"},"vehicle_type_id":"4","last_reported":1680195977,"current_range_meters":8000,"station_id":"ce4bhq92rcd13ifvqhjg","pricing_plan_id":"free"},{"bike_id":"d2fadb79-1053-4b3b-8859-d383e8fa2361","system_id":"levelo_inurba_marseille","lat":43.323464,"lon":5.406297,"is_reserved":false,"is_disabled":false,"rental_uris":{"android":"levelo://app?vid=d2fadb79-1053-4b3b-8859-d383e8fa2361","ios":"levelo://app?vid=d2fadb79-1053-4b3b-8859-d383e8fa2361"},"vehicle_type_id":"4","last_reported":1680195977,"current_range_meters":0,"station_id":"ce4bhq92rcd13ifvqhjg","pricing_plan_id":"free"},{"bike_id":"aaa0218c-5870-40d7-9a9f-66b124eeb831","system_id":"levelo_inurba_marseille","lat":43.323464,"lon":5.406297,"is_reserved":false,"is_disabled":false,"rental_uris":{"android":"levelo://app?vid=aaa0218c-5870-40d7-9a9f-66b124eeb831","ios":"levelo://app?vid=aaa0218c-5870-40d7-9a9f-66b124eeb831"},"vehicle_type_id":"4","last_reported":1680195977,"current_range_meters":10000,"station_id":"ce4bhq92rcd13ifvqhjg","pricing_plan_id":"free"},{"bike_id":"4001514d-066b-40c6-8beb-542556b73272","system_id":"levelo_inurba_marseille","lat":43.33717,"lon":5.391857,"is_reserved":false,"is_disabled":false,"rental_uris":{"android":"levelo://app?vid=4001514d-066b-40c6-8beb-542556b73272","ios":"levelo://app?vid=4001514d-066b-40c6-8beb-542556b73272"},"vehicle_type_id":"4","last_reported":1680195977,"current_range_meters":0,"station_id":"ce4bhr92rcd13ifvqhsg","pricing_plan_id":"free"},{"bike_id":"4279f8d2-1db4-42ca-882e-ecb05f34c6db","system_id":"levelo_inurba_marseille","lat":43.323464,"lon":5.406297,"is_reserved":false,"is_disabled":false,"rental_uris":{"android":"levelo://app?vid=4279f8d2-1db4-42ca-882e-ecb05f34c6db","ios":"levelo://app?vid=4279f8d2-1db4-42ca-882e-ecb05f34c6db"},"vehicle_type_id":"4","last_reported":1680195977,"current_range_meters":18400,"station_id":"ce4bhq92rcd13ifvqhjg","pricing_plan_id":"free"},{"bike_id":"7e607369-1416-4686-85a9-20a56f28f5d4","system_id":"levelo_inurba_marseille","lat":43.284219,"lon":5.3497,"is_reserved":false,"is_disabled":false,"rental_uris":{"android":"levelo://app?vid=7e607369-1416-4686-85a9-20a56f28f5d4","ios":"levelo://app?vid=7e607369-1416-4686-85a9-20a56f28f5d4"},"vehicle_type_id":"4","last_reported":1680195977,"current_range_meters":31200,"station_id":"ce4bhbh2rcd13ifvqepg","pricing_plan_id":"free"},{"bike_id":"c94b5359-4512-4bf7-9f70-c9a2517ca937","system_id":"levelo_inurba_marseille","lat":43.292724,"lon":5.401131,"is_reserved":false,"is_disabled":false,"rental_uris":{"android":"levelo://app?vid=c94b5359-4512-4bf7-9f70-c9a2517ca937","ios":"levelo://app?vid=c94b5359-4512-4bf7-9f70-c9a2517ca937"},"vehicle_type_id":"4","last_reported":1680195977,"current_range_meters":0,"station_id":"ce4bh312rcd13ifvqdk0","pricing_plan_id":"free"},{"bike_id":"5732f31c-3c1f-44b0-8119-d7d88caf7e66","system_id":"levelo_inurba_marseille","lat":43.28035,"lon":5.36954,"is_reserved":false,"is_disabled":false,"rental_uris":{"android":"levelo://app?vid=5732f31c-3c1f-44b0-8119-d7d88caf7e66","ios":"levelo://app?vid=5732f31c-3c1f-44b0-8119-d7d88caf7e66"},"vehicle_type_id":"4","last_reported":1680195977,"current_range_meters":0,"station_id":"ce4bha12rcd13ifvqef0","pricing_plan_id":"free"},{"bike_id":"b457b6bf-c3c0-4d16-ae8f-f569f59be7b5","system_id":"levelo_inurba_marseille","lat":43.296263,"lon":5.40601,"is_reserved":false,"is_disabled":false,"rental_uris":{"android":"levelo://app?vid=b457b6bf-c3c0-4d16-ae8f-f569f59be7b5","ios":"levelo://app?vid=b457b6bf-c3c0-4d16-ae8f-f569f59be7b5"},"vehicle_type_id":"4","last_reported":1680195977,"current_range_meters":400,"station_id":"ce4bh0h2rcd13ifvqd60","pricing_plan_id":"free"},{"bike_id":"fc902a4f-d505-4b7e-9821-51cffb3ee39f","system_id":"levelo_inurba_marseille","lat":43.296263,"lon":5.40601,"is_reserved":false,"is_disabled":false,"rental_uris":{"android":"levelo://app?vid=fc902a4f-d505-4b7e-9821-51cffb3ee39f","ios":"levelo://app?vid=fc902a4f-d505-4b7e-9821-51cffb3ee39f"},"vehicle_type_id":"4","last_reported":1680195977,"current_range_meters":19200,"station_id":"ce4bh0h2rcd13ifvqd60","pricing_plan_id":"free"},{"bike_id":"b46dcf2f-19df-4b2d-9d4c-cb55d4b7ae02","system_id":"levelo_inurba_marseille","lat":43.296263,"lon":5.40601,"is_reserved":false,"is_disabled":false,"rental_uris":{"android":"levelo://app?vid=b46dcf2f-19df-4b2d-9d4c-cb55d4b7ae02","ios":"levelo://app?vid=b46dcf2f-19df-4b2d-9d4c-cb55d4b7ae02"},"vehicle_type_id":"4","last_reported":1680195977,"current_range_meters":1600,"station_id":"ce4bh0h2rcd13ifvqd60","pricing_plan_id":"free"},{"bike_id":"a810c640-a31b-477e-90e8-0a3ed367018d","system_id":"levelo_inurba_marseille","lat":43.296263,"lon":5.40601,"is_reserved":false,"is_disabled":false,"rental_uris":{"android":"levelo://app?vid=a810c640-a31b-477e-90e8-0a3ed367018d","ios":"levelo://app?vid=a810c640-a31b-477e-90e8-0a3ed367018d"},"vehicle_type_id":"4","last_reported":1680195977,"current_range_meters":21600,"station_id":"ce4bh0h2rcd13ifvqd60","pricing_plan_id":"free"},{"bike_id":"37ae0608-a5ed-4351-828d-6ee8b8d7ddde","system_id":"levelo_inurba_marseille","lat":43.30419,"lon":5.41282,"is_reserved":false,"is_disabled":false,"rental_uris":{"android":"levelo://app?vid=37ae0608-a5ed-4351-828d-6ee8b8d7ddde","ios":"levelo://app?vid=37ae0608-a5ed-4351-828d-6ee8b8d7ddde"},"vehicle_type_id":"4","last_reported":1680195977,"current_range_meters":4800,"station_id":"ce4bhop2rcd13ifvqh8g","pricing_plan_id":"free"},{"bike_id":"13490b76-c779-42ee-82c1-dc23f8413544","system_id":"levelo_inurba_marseille","lat":43.304302,"lon":5.413588,"is_reserved":false,"is_disabled":false,"rental_uris":{"android":"levelo://app?vid=13490b76-c779-42ee-82c1-dc23f8413544","ios":"levelo://app?vid=13490b76-c779-42ee-82c1-dc23f8413544"},"vehicle_type_id":"4","last_reported":1680195977,"current_range_meters":18000,"station_id":"ce4bhph2rcd13ifvqheg","pricing_plan_id":"free"},{"bike_id":"fe9ae5d7-4364-4c58-b52c-50dec0d143c8","system_id":"levelo_inurba_marseille","lat":43.320045,"lon":5.415048,"is_reserved":false,"is_disabled":false,"rental_uris":{"android":"levelo://app?vid=fe9ae5d7-4364-4c58-b52c-50dec0d143c8","ios":"levelo://app?vid=fe9ae5d7-4364-4c58-b52c-50dec0d143c8"},"vehicle_type_id":"4","last_reported":1680195977,"current_range_meters":0,"station_id":"ce4bhq92rcd13ifvqhkg","pricing_plan_id":"free"},{"bike_id":"65ebfe3a-b6b5-48ba-a98f-2465fb740094","system_id":"levelo_inurba_marseille","lat":43.279742,"lon":5.38744,"is_reserved":false,"is_disabled":false,"rental_uris":{"android":"levelo://app?vid=65ebfe3a-b6b5-48ba-a98f-2465fb740094","ios":"levelo://app?vid=65ebfe3a-b6b5-48ba-a98f-2465fb740094"},"vehicle_type_id":"4","last_reported":1680195977,"current_range_meters":0,"station_id":"ce4bhg12rcd13ifvqf80","pricing_plan_id":"free"},{"bike_id":"f4af069f-ed06-426e-9fb4-a4906094e98a","system_id":"levelo_inurba_marseille","lat":43.27618,"lon":5.361009,"is_reserved":false,"is_disabled":false,"rental_uris":{"android":"levelo://app?vid=f4af069f-ed06-426e-9fb4-a4906094e98a","ios":"levelo://app?vid=f4af069f-ed06-426e-9fb4-a4906094e98a"},"vehicle_type_id":"4","last_reported":1680195977,"current_range_meters":26400,"station_id":"ce4bgj92rcd13ifvqbe0","pricing_plan_id":"free"},{"bike_id":"ed6047da-dcfe-4b03-a429-54f6d4477288","system_id":"levelo_inurba_marseille","lat":43.27616,"lon":5.36118,"is_reserved":false,"is_disabled":false,"rental_uris":{"android":"levelo://app?vid=ed6047da-dcfe-4b03-a429-54f6d4477288","ios":"levelo://app?vid=ed6047da-dcfe-4b03-a429-54f6d4477288"},"vehicle_type_id":"4","last_reported":1680195977,"current_range_meters":7200,"station_id":"ce4bgj92rcd13ifvqbe0","pricing_plan_id":"free"},{"bike_id":"23125fc5-5737-4b0e-b804-ff323d30b7ac","system_id":"levelo_inurba_marseille","lat":43.33262,"lon":5.4112,"is_reserved":false,"is_disabled":false,"rental_uris":{"android":"levelo://app?vid=23125fc5-5737-4b0e-b804-ff323d30b7ac","ios":"levelo://app?vid=23125fc5-5737-4b0e-b804-ff323d30b7ac"},"vehicle_type_id":"4","last_reported":1680195977,"current_range_meters":0,"station_id":"","pricing_plan_id":"free"},{"bike_id":"480d57ca-ce35-4efc-ae09-738dfdc74758","system_id":"levelo_inurba_marseille","lat":43.273609,"lon":5.362708,"is_reserved":false,"is_disabled":false,"rental_uris":{"android":"levelo://app?vid=480d57ca-ce35-4efc-ae09-738dfdc74758","ios":"levelo://app?vid=480d57ca-ce35-4efc-ae09-738dfdc74758"},"vehicle_type_id":"4","last_reported":1680195977,"current_range_meters":29200,"station_id":"ce4bhbh2rcd13ifvqeo0","pricing_plan_id":"free"},{"bike_id":"587ccd61-57c3-4298-8757-c179650c8940","system_id":"levelo_inurba_marseille","lat":43.33612,"lon":5.410321,"is_reserved":false,"is_disabled":false,"rental_uris":{"android":"levelo://app?vid=587ccd61-57c3-4298-8757-c179650c8940","ios":"levelo://app?vid=587ccd61-57c3-4298-8757-c179650c8940"},"vehicle_type_id":"4","last_reported":1680195977,"current_range_meters":0,"station_id":"ce4bhqh2rcd13ifvqhmg","pricing_plan_id":"free"},{"bike_id":"c04d9c5b-2b6c-4918-8064-21772858e6e2","system_id":"levelo_inurba_marseille","lat":43.33608,"lon":5.41033,"is_reserved":false,"is_disabled":false,"rental_uris":{"android":"levelo://app?vid=c04d9c5b-2b6c-4918-8064-21772858e6e2","ios":"levelo://app?vid=c04d9c5b-2b6c-4918-8064-21772858e6e2"},"vehicle_type_id":"4","last_reported":1680195977,"current_range_meters":0,"station_id":"ce4bhqh2rcd13ifvqhmg","pricing_plan_id":"free"},{"bike_id":"98753251-b90b-46a2-8db9-07bd6b7b0d53","system_id":"levelo_inurba_marseille","lat":43.33612,"lon":5.410321,"is_reserved":false,"is_disabled":false,"rental_uris":{"android":"levelo://app?vid=98753251-b90b-46a2-8db9-07bd6b7b0d53","ios":"levelo://app?vid=98753251-b90b-46a2-8db9-07bd6b7b0d53"},"vehicle_type_id":"4","last_reported":1680195977,"current_range_meters":4800,"station_id":"ce4bhqh2rcd13ifvqhmg","pricing_plan_id":"free"},{"bike_id":"af06d3af-8e08-4b84-af98-aae45cf85ba5","system_id":"levelo_inurba_marseille","lat":43.336134,"lon":5.410341,"is_reserved":false,"is_disabled":false,"rental_uris":{"android":"levelo://app?vid=af06d3af-8e08-4b84-af98-aae45cf85ba5","ios":"levelo://app?vid=af06d3af-8e08-4b84-af98-aae45cf85ba5"},"vehicle_type_id":"4","last_reported":1680195977,"current_range_meters":7200,"station_id":"ce4bhqh2rcd13ifvqhmg","pricing_plan_id":"free"},{"bike_id":"9d910d87-381f-4ef8-b067-33fed4d114c6","system_id":"levelo_inurba_marseille","lat":43.336134,"lon":5.410341,"is_reserved":false,"is_disabled":false,"rental_uris":{"android":"levelo://app?vid=9d910d87-381f-4ef8-b067-33fed4d114c6","ios":"levelo://app?vid=9d910d87-381f-4ef8-b067-33fed4d114c6"},"vehicle_type_id":"4","last_reported":1680195977,"current_range_meters":3200,"station_id":"ce4bhqh2rcd13ifvqhmg","pricing_plan_id":"free"},{"bike_id":"3169ae12-7893-48a4-89ed-f6f7d0355a8b","system_id":"levelo_inurba_marseille","lat":43.304096,"lon":5.425385,"is_reserved":false,"is_disabled":false,"rental_uris":{"android":"levelo://app?vid=3169ae12-7893-48a4-89ed-f6f7d0355a8b","ios":"levelo://app?vid=3169ae12-7893-48a4-89ed-f6f7d0355a8b"},"vehicle_type_id":"4","last_reported":1680195977,"current_range_meters":1200,"station_id":"ce4bhoh2rcd13ifvqh6g","pricing_plan_id":"free"},{"bike_id":"41bc78d7-b793-4722-99a6-98a269e822d5","system_id":"levelo_inurba_marseille","lat":43.29554,"lon":5.42279,"is_reserved":false,"is_disabled":false,"rental_uris":{"android":"levelo://app?vid=41bc78d7-b793-4722-99a6-98a269e822d5","ios":"levelo://app?vid=41bc78d7-b793-4722-99a6-98a269e822d5"},"vehicle_type_id":"4","last_reported":1680195977,"current_range_meters":2800,"station_id":"ce4bhph2rcd13ifvqhdg","pricing_plan_id":"free"},{"bike_id":"95cd623f-c882-4377-a3da-a5104bdb3f9c","system_id":"levelo_inurba_marseille","lat":43.27205,"lon":5.39197,"is_reserved":false,"is_disabled":false,"rental_uris":{"android":"levelo://app?vid=95cd623f-c882-4377-a3da-a5104bdb3f9c","ios":"levelo://app?vid=95cd623f-c882-4377-a3da-a5104bdb3f9c"},"vehicle_type_id":"4","last_reported":1680195977,"current_range_meters":12400,"station_id":"ce4bhhp2rcd13ifvqfm0","pricing_plan_id":"free"},{"bike_id":"f13b5a65-5cfb-49ac-b723-19acc957459f","system_id":"levelo_inurba_marseille","lat":43.278128,"lon":5.407195,"is_reserved":false,"is_disabled":false,"rental_uris":{"android":"levelo://app?vid=f13b5a65-5cfb-49ac-b723-19acc957459f","ios":"levelo://app?vid=f13b5a65-5cfb-49ac-b723-19acc957459f"},"vehicle_type_id":"4","last_reported":1680195977,"current_range_meters":0,"station_id":"ce4bhnh2rcd13ifvqgtg","pricing_plan_id":"free"},{"bike_id":"48d3e434-999f-4b7c-a1a8-08e18270eac8","system_id":"levelo_inurba_marseille","lat":43.32549,"lon":5.42695,"is_reserved":false,"is_disabled":false,"rental_uris":{"android":"levelo://app?vid=48d3e434-999f-4b7c-a1a8-08e18270eac8","ios":"levelo://app?vid=48d3e434-999f-4b7c-a1a8-08e18270eac8"},"vehicle_type_id":"4","last_reported":1680195977,"current_range_meters":20000,"station_id":"","pricing_plan_id":"free"},{"bike_id":"817abe00-a3e4-45a1-bb5d-24d0794a3aa4","system_id":"levelo_inurba_marseille","lat":43.265714,"lon":5.372891,"is_reserved":false,"is_disabled":false,"rental_uris":{"android":"levelo://app?vid=817abe00-a3e4-45a1-bb5d-24d0794a3aa4","ios":"levelo://app?vid=817abe00-a3e4-45a1-bb5d-24d0794a3aa4"},"vehicle_type_id":"4","last_reported":1680195977,"current_range_meters":0,"station_id":"ce4bhg12rcd13ifvqf70","pricing_plan_id":"free"},{"bike_id":"fb32a0a2-69b2-4bae-89d2-ee79f9331e97","system_id":"levelo_inurba_marseille","lat":43.26559,"lon":5.37283,"is_reserved":false,"is_disabled":false,"rental_uris":{"android":"levelo://app?vid=fb32a0a2-69b2-4bae-89d2-ee79f9331e97","ios":"levelo://app?vid=fb32a0a2-69b2-4bae-89d2-ee79f9331e97"},"vehicle_type_id":"4","last_reported":1680195977,"current_range_meters":14000,"station_id":"ce4bhg12rcd13ifvqf70","pricing_plan_id":"free"},{"bike_id":"3ada7da0-bbc0-4e9f-a8f4-ebf90150f6fb","system_id":"levelo_inurba_marseille","lat":43.265714,"lon":5.372891,"is_reserved":false,"is_disabled":false,"rental_uris":{"android":"levelo://app?vid=3ada7da0-bbc0-4e9f-a8f4-ebf90150f6fb","ios":"levelo://app?vid=3ada7da0-bbc0-4e9f-a8f4-ebf90150f6fb"},"vehicle_type_id":"4","last_reported":1680195977,"current_range_meters":6000,"station_id":"ce4bhg12rcd13ifvqf70","pricing_plan_id":"free"},{"bike_id":"8dc4ff50-258e-4f7f-8345-14e4098c9169","system_id":"levelo_inurba_marseille","lat":43.26794,"lon":5.39411,"is_reserved":false,"is_disabled":false,"rental_uris":{"android":"levelo://app?vid=8dc4ff50-258e-4f7f-8345-14e4098c9169","ios":"levelo://app?vid=8dc4ff50-258e-4f7f-8345-14e4098c9169"},"vehicle_type_id":"4","last_reported":1680195977,"current_range_meters":400,"station_id":"ce4bhh12rcd13ifvqfg0","pricing_plan_id":"free"},{"bike_id":"8c75a200-881c-4482-9415-ad90ff15af3a","system_id":"levelo_inurba_marseille","lat":43.267966,"lon":5.393976,"is_reserved":false,"is_disabled":false,"rental_uris":{"android":"levelo://app?vid=8c75a200-881c-4482-9415-ad90ff15af3a","ios":"levelo://app?vid=8c75a200-881c-4482-9415-ad90ff15af3a"},"vehicle_type_id":"4","last_reported":1680195977,"current_range_meters":0,"station_id":"ce4bhh12rcd13ifvqfg0","pricing_plan_id":"free"},{"bike_id":"3f48d300-3a5a-4762-9c3c-e5bfe6052062","system_id":"levelo_inurba_marseille","lat":43.28255,"lon":5.42314,"is_reserved":false,"is_disabled":false,"rental_uris":{"android":"levelo://app?vid=3f48d300-3a5a-4762-9c3c-e5bfe6052062","ios":"levelo://app?vid=3f48d300-3a5a-4762-9c3c-e5bfe6052062"},"vehicle_type_id":"4","last_reported":1680195977,"current_range_meters":0,"station_id":"","pricing_plan_id":"free"},{"bike_id":"c8ea8206-901a-488c-ac4b-8b1e01485d14","system_id":"levelo_inurba_marseille","lat":43.331864,"lon":5.431794,"is_reserved":false,"is_disabled":false,"rental_uris":{"android":"levelo://app?vid=c8ea8206-901a-488c-ac4b-8b1e01485d14","ios":"levelo://app?vid=c8ea8206-901a-488c-ac4b-8b1e01485d14"},"vehicle_type_id":"4","last_reported":1680195977,"current_range_meters":0,"station_id":"","pricing_plan_id":"free"},{"bike_id":"b186eae3-2cd8-42ec-8970-8f5b1d7995f0","system_id":"levelo_inurba_marseille","lat":43.26189,"lon":5.37447,"is_reserved":false,"is_disabled":false,"rental_uris":{"android":"levelo://app?vid=b186eae3-2cd8-42ec-8970-8f5b1d7995f0","ios":"levelo://app?vid=b186eae3-2cd8-42ec-8970-8f5b1d7995f0"},"vehicle_type_id":"4","last_reported":1680195977,"current_range_meters":15600,"station_id":"","pricing_plan_id":"free"},{"bike_id":"e0a59e9e-7c6c-43f7-9ad6-7e9bb01c4493","system_id":"levelo_inurba_marseille","lat":43.298768,"lon":5.43643,"is_reserved":false,"is_disabled":false,"rental_uris":{"android":"levelo://app?vid=e0a59e9e-7c6c-43f7-9ad6-7e9bb01c4493","ios":"levelo://app?vid=e0a59e9e-7c6c-43f7-9ad6-7e9bb01c4493"},"vehicle_type_id":"4","last_reported":1680195977,"current_range_meters":0,"station_id":"ce4bhpp2rcd13ifvqhfg","pricing_plan_id":"free"},{"bike_id":"63652c41-153d-4bb2-a0c5-c5cb489f3380","system_id":"levelo_inurba_marseille","lat":43.298768,"lon":5.43643,"is_reserved":false,"is_disabled":false,"rental_uris":{"android":"levelo://app?vid=63652c41-153d-4bb2-a0c5-c5cb489f3380","ios":"levelo://app?vid=63652c41-153d-4bb2-a0c5-c5cb489f3380"},"vehicle_type_id":"4","last_reported":1680195977,"current_range_meters":23600,"station_id":"ce4bhpp2rcd13ifvqhfg","pricing_plan_id":"free"},{"bike_id":"776dcd76-755e-4ce1-85d6-3d2dac63d11f","system_id":"levelo_inurba_marseille","lat":43.2607,"lon":5.393983,"is_reserved":false,"is_disabled":false,"rental_uris":{"android":"levelo://app?vid=776dcd76-755e-4ce1-85d6-3d2dac63d11f","ios":"levelo://app?vid=776dcd76-755e-4ce1-85d6-3d2dac63d11f"},"vehicle_type_id":"4","last_reported":1680195977,"current_range_meters":5200,"station_id":"ce4bhh92rcd13ifvqfj0","pricing_plan_id":"free"},{"bike_id":"624970d3-1439-446c-8aae-2fd47f859b48","system_id":"levelo_inurba_marseille","lat":43.255756,"lon":5.382303,"is_reserved":false,"is_disabled":false,"rental_uris":{"android":"levelo://app?vid=624970d3-1439-446c-8aae-2fd47f859b48","ios":"levelo://app?vid=624970d3-1439-446c-8aae-2fd47f859b48"},"vehicle_type_id":"4","last_reported":1680195977,"current_range_meters":13600,"station_id":"ce4bhih2rcd13ifvqfs0","pricing_plan_id":"free"},{"bike_id":"7fd7bf52-c244-43a7-812b-641cdcc9a154","system_id":"levelo_inurba_marseille","lat":43.255756,"lon":5.382303,"is_reserved":false,"is_disabled":false,"rental_uris":{"android":"levelo://app?vid=7fd7bf52-c244-43a7-812b-641cdcc9a154","ios":"levelo://app?vid=7fd7bf52-c244-43a7-812b-641cdcc9a154"},"vehicle_type_id":"4","last_reported":1680195977,"current_range_meters":800,"station_id":"ce4bhih2rcd13ifvqfs0","pricing_plan_id":"free"},{"bike_id":"71241858-0662-40aa-a906-e6cec28d6a4f","system_id":"levelo_inurba_marseille","lat":43.25578,"lon":5.38227,"is_reserved":false,"is_disabled":false,"rental_uris":{"android":"levelo://app?vid=71241858-0662-40aa-a906-e6cec28d6a4f","ios":"levelo://app?vid=71241858-0662-40aa-a906-e6cec28d6a4f"},"vehicle_type_id":"4","last_reported":1680195977,"current_range_meters":0,"station_id":"ce4bhih2rcd13ifvqfs0","pricing_plan_id":"free"},{"bike_id":"6d047652-0f97-4d06-82d6-9fe2cfdf1afa","system_id":"levelo_inurba_marseille","lat":43.254947,"lon":5.376454,"is_reserved":false,"is_disabled":false,"rental_uris":{"android":"levelo://app?vid=6d047652-0f97-4d06-82d6-9fe2cfdf1afa","ios":"levelo://app?vid=6d047652-0f97-4d06-82d6-9fe2cfdf1afa"},"vehicle_type_id":"4","last_reported":1680195977,"current_range_meters":0,"station_id":"ce4bhh12rcd13ifvqff0","pricing_plan_id":"free"},{"bike_id":"2a551db9-0219-41bd-a6ff-9a7fbd76a5bc","system_id":"levelo_inurba_marseille","lat":43.27068,"lon":5.42281,"is_reserved":false,"is_disabled":false,"rental_uris":{"android":"levelo://app?vid=2a551db9-0219-41bd-a6ff-9a7fbd76a5bc","ios":"levelo://app?vid=2a551db9-0219-41bd-a6ff-9a7fbd76a5bc"},"vehicle_type_id":"4","last_reported":1680195977,"current_range_meters":4400,"station_id":"","pricing_plan_id":"free"},{"bike_id":"13c56c38-257e-4188-b3f1-556f22b4235f","system_id":"levelo_inurba_marseille","lat":43.2479,"lon":5.374457,"is_reserved":false,"is_disabled":false,"rental_uris":{"android":"levelo://app?vid=13c56c38-257e-4188-b3f1-556f22b4235f","ios":"levelo://app?vid=13c56c38-257e-4188-b3f1-556f22b4235f"},"vehicle_type_id":"4","last_reported":1680195977,"current_range_meters":19200,"station_id":"ce4bhgh2rcd13ifvqfb0","pricing_plan_id":"free"},{"bike_id":"4701f1c0-3fac-4984-baaf-bb13d9d44fec","system_id":"levelo_inurba_marseille","lat":43.250966,"lon":5.395186,"is_reserved":false,"is_disabled":false,"rental_uris":{"android":"levelo://app?vid=4701f1c0-3fac-4984-baaf-bb13d9d44fec","ios":"levelo://app?vid=4701f1c0-3fac-4984-baaf-bb13d9d44fec"},"vehicle_type_id":"4","last_reported":1680195977,"current_range_meters":25600,"station_id":"ce4bhm12rcd13ifvqgkg","pricing_plan_id":"free"},{"bike_id":"c4f5aa25-9d61-4421-9218-49cab131209c","system_id":"levelo_inurba_marseille","lat":43.25083,"lon":5.39518,"is_reserved":false,"is_disabled":false,"rental_uris":{"android":"levelo://app?vid=c4f5aa25-9d61-4421-9218-49cab131209c","ios":"levelo://app?vid=c4f5aa25-9d61-4421-9218-49cab131209c"},"vehicle_type_id":"4","last_reported":1680195977,"current_range_meters":16400,"station_id":"ce4bhm12rcd13ifvqgkg","pricing_plan_id":"free"},{"bike_id":"3a49008e-7a4a-40ba-9288-c1af5826f913","system_id":"levelo_inurba_marseille","lat":43.2479,"lon":5.374457,"is_reserved":false,"is_disabled":false,"rental_uris":{"android":"levelo://app?vid=3a49008e-7a4a-40ba-9288-c1af5826f913","ios":"levelo://app?vid=3a49008e-7a4a-40ba-9288-c1af5826f913"},"vehicle_type_id":"4","last_reported":1680195977,"current_range_meters":3200,"station_id":"ce4bhgh2rcd13ifvqfb0","pricing_plan_id":"free"},{"bike_id":"1a00eb43-a5d2-4b8f-9baa-bb7ca79336c0","system_id":"levelo_inurba_marseille","lat":43.25102,"lon":5.403214,"is_reserved":false,"is_disabled":false,"rental_uris":{"android":"levelo://app?vid=1a00eb43-a5d2-4b8f-9baa-bb7ca79336c0","ios":"levelo://app?vid=1a00eb43-a5d2-4b8f-9baa-bb7ca79336c0"},"vehicle_type_id":"4","last_reported":1680195977,"current_range_meters":2000,"station_id":"ce4bhlh2rcd13ifvqgig","pricing_plan_id":"free"},{"bike_id":"08a3ce3b-b476-4c76-81d8-82423eb20a9d","system_id":"levelo_inurba_marseille","lat":43.24693,"lon":5.382096,"is_reserved":false,"is_disabled":false,"rental_uris":{"android":"levelo://app?vid=08a3ce3b-b476-4c76-81d8-82423eb20a9d","ios":"levelo://app?vid=08a3ce3b-b476-4c76-81d8-82423eb20a9d"},"vehicle_type_id":"4","last_reported":1680195977,"current_range_meters":16000,"station_id":"ce4bhih2rcd13ifvqfr0","pricing_plan_id":"free"},{"bike_id":"209824f9-06d7-416b-85de-9e922e1aa32a","system_id":"levelo_inurba_marseille","lat":43.25102,"lon":5.403214,"is_reserved":false,"is_disabled":false,"rental_uris":{"android":"levelo://app?vid=209824f9-06d7-416b-85de-9e922e1aa32a","ios":"levelo://app?vid=209824f9-06d7-416b-85de-9e922e1aa32a"},"vehicle_type_id":"4","last_reported":1680195977,"current_range_meters":29600,"station_id":"ce4bhlh2rcd13ifvqgig","pricing_plan_id":"free"},{"bike_id":"0584bee1-152f-4f88-8765-cbc6e3c6336f","system_id":"levelo_inurba_marseille","lat":43.25102,"lon":5.403214,"is_reserved":false,"is_disabled":false,"rental_uris":{"android":"levelo://app?vid=0584bee1-152f-4f88-8765-cbc6e3c6336f","ios":"levelo://app?vid=0584bee1-152f-4f88-8765-cbc6e3c6336f"},"vehicle_type_id":"4","last_reported":1680195977,"current_range_meters":20000,"station_id":"ce4bhlh2rcd13ifvqgig","pricing_plan_id":"free"},{"bike_id":"ed93e097-3212-41fa-b79e-1dca7ed7274c","system_id":"levelo_inurba_marseille","lat":43.25102,"lon":5.403214,"is_reserved":false,"is_disabled":false,"rental_uris":{"android":"levelo://app?vid=ed93e097-3212-41fa-b79e-1dca7ed7274c","ios":"levelo://app?vid=ed93e097-3212-41fa-b79e-1dca7ed7274c"},"vehicle_type_id":"4","last_reported":1680195977,"current_range_meters":2000,"station_id":"ce4bhlh2rcd13ifvqgig","pricing_plan_id":"free"},{"bike_id":"27e9fbb3-146c-446b-9db1-ac0bac31ec37","system_id":"levelo_inurba_marseille","lat":43.25102,"lon":5.403214,"is_reserved":false,"is_disabled":false,"rental_uris":{"android":"levelo://app?vid=27e9fbb3-146c-446b-9db1-ac0bac31ec37","ios":"levelo://app?vid=27e9fbb3-146c-446b-9db1-ac0bac31ec37"},"vehicle_type_id":"4","last_reported":1680195977,"current_range_meters":23600,"station_id":"ce4bhlh2rcd13ifvqgig","pricing_plan_id":"free"},{"bike_id":"f51ff8db-98da-45b6-8ec4-4f9b3134ac0c","system_id":"levelo_inurba_marseille","lat":43.246461,"lon":5.389014,"is_reserved":false,"is_disabled":false,"rental_uris":{"android":"levelo://app?vid=f51ff8db-98da-45b6-8ec4-4f9b3134ac0c","ios":"levelo://app?vid=f51ff8db-98da-45b6-8ec4-4f9b3134ac0c"},"vehicle_type_id":"4","last_reported":1680195977,"current_range_meters":18000,"station_id":"ce4bhg12rcd13ifvqf60","pricing_plan_id":"free"},{"bike_id":"cd7d66c1-3cd2-4ee8-a665-beb69fee065c","system_id":"levelo_inurba_marseille","lat":43.246467,"lon":5.388984,"is_reserved":false,"is_disabled":false,"rental_uris":{"android":"levelo://app?vid=cd7d66c1-3cd2-4ee8-a665-beb69fee065c","ios":"levelo://app?vid=cd7d66c1-3cd2-4ee8-a665-beb69fee065c"},"vehicle_type_id":"4","last_reported":1680195977,"current_range_meters":12800,"station_id":"ce4bhg12rcd13ifvqf60","pricing_plan_id":"free"},{"bike_id":"dd4534c2-2c57-47fe-b862-8c47ae1a0bab","system_id":"levelo_inurba_marseille","lat":43.24392,"lon":5.37068,"is_reserved":false,"is_disabled":false,"rental_uris":{"android":"levelo://app?vid=dd4534c2-2c57-47fe-b862-8c47ae1a0bab","ios":"levelo://app?vid=dd4534c2-2c57-47fe-b862-8c47ae1a0bab"},"vehicle_type_id":"4","last_reported":1680195977,"current_range_meters":19600,"station_id":"ce4bhhh2rcd13ifvqfk0","pricing_plan_id":"free"},{"bike_id":"16aed1eb-3b3e-48ed-90bc-015fff8897c2","system_id":"levelo_inurba_marseille","lat":43.245581,"lon":5.395069,"is_reserved":false,"is_disabled":false,"rental_uris":{"android":"levelo://app?vid=16aed1eb-3b3e-48ed-90bc-015fff8897c2","ios":"levelo://app?vid=16aed1eb-3b3e-48ed-90bc-015fff8897c2"},"vehicle_type_id":"4","last_reported":1680195977,"current_range_meters":29600,"station_id":"ce4bhlp2rcd13ifvqgjg","pricing_plan_id":"free"},{"bike_id":"226c96f6-8198-4df9-a319-6c29415a0645","system_id":"levelo_inurba_marseille","lat":43.245581,"lon":5.395069,"is_reserved":false,"is_disabled":false,"rental_uris":{"android":"levelo://app?vid=226c96f6-8198-4df9-a319-6c29415a0645","ios":"levelo://app?vid=226c96f6-8198-4df9-a319-6c29415a0645"},"vehicle_type_id":"4","last_reported":1680195977,"current_range_meters":30800,"station_id":"ce4bhlp2rcd13ifvqgjg","pricing_plan_id":"free"},{"bike_id":"efe6e80a-dc25-4525-8da5-9a6e423f535b","system_id":"levelo_inurba_marseille","lat":43.240623,"lon":5.377642,"is_reserved":false,"is_disabled":false,"rental_uris":{"android":"levelo://app?vid=efe6e80a-dc25-4525-8da5-9a6e423f535b","ios":"levelo://app?vid=efe6e80a-dc25-4525-8da5-9a6e423f535b"},"vehicle_type_id":"4","last_reported":1680195977,"current_range_meters":8000,"station_id":"ce4bhnp2rcd13ifvqgvg","pricing_plan_id":"free"},{"bike_id":"c5be67f4-c338-4049-84bd-424f54878256","system_id":"levelo_inurba_marseille","lat":43.239588,"lon":5.366238,"is_reserved":false,"is_disabled":false,"rental_uris":{"android":"levelo://app?vid=c5be67f4-c338-4049-84bd-424f54878256","ios":"levelo://app?vid=c5be67f4-c338-4049-84bd-424f54878256"},"vehicle_type_id":"4","last_reported":1680195977,"current_range_meters":9600,"station_id":"ce4bhi12rcd13ifvqfp0","pricing_plan_id":"free"},{"bike_id":"2553e504-d446-41c6-b318-5052bc8255c8","system_id":"levelo_inurba_marseille","lat":43.28509,"lon":5.45987,"is_reserved":false,"is_disabled":false,"rental_uris":{"android":"levelo://app?vid=2553e504-d446-41c6-b318-5052bc8255c8","ios":"levelo://app?vid=2553e504-d446-41c6-b318-5052bc8255c8"},"vehicle_type_id":"4","last_reported":1680195977,"current_range_meters":20400,"station_id":"","pricing_plan_id":"free"},{"bike_id":"a9d03b0f-ccae-4caa-8668-c0bd74848087","system_id":"levelo_inurba_marseille","lat":43.239588,"lon":5.366238,"is_reserved":false,"is_disabled":false,"rental_uris":{"android":"levelo://app?vid=a9d03b0f-ccae-4caa-8668-c0bd74848087","ios":"levelo://app?vid=a9d03b0f-ccae-4caa-8668-c0bd74848087"},"vehicle_type_id":"4","last_reported":1680195977,"current_range_meters":28400,"station_id":"ce4bhi12rcd13ifvqfp0","pricing_plan_id":"free"},{"bike_id":"aaeda10d-6058-456d-aaef-e9782220fe84","system_id":"levelo_inurba_marseille","lat":43.239588,"lon":5.366238,"is_reserved":false,"is_disabled":false,"rental_uris":{"android":"levelo://app?vid=aaeda10d-6058-456d-aaef-e9782220fe84","ios":"levelo://app?vid=aaeda10d-6058-456d-aaef-e9782220fe84"},"vehicle_type_id":"4","last_reported":1680195977,"current_range_meters":0,"station_id":"ce4bhi12rcd13ifvqfp0","pricing_plan_id":"free"},{"bike_id":"c3a68517-b6ec-4f22-bbf5-894ef83951df","system_id":"levelo_inurba_marseille","lat":43.241782,"lon":5.397264,"is_reserved":false,"is_disabled":false,"rental_uris":{"android":"levelo://app?vid=c3a68517-b6ec-4f22-bbf5-894ef83951df","ios":"levelo://app?vid=c3a68517-b6ec-4f22-bbf5-894ef83951df"},"vehicle_type_id":"4","last_reported":1680195977,"current_range_meters":26400,"station_id":"ce4bhn12rcd13ifvqgpg","pricing_plan_id":"free"},{"bike_id":"61d344a3-3981-49a7-a16b-9cc4a970d1b6","system_id":"levelo_inurba_marseille","lat":43.241782,"lon":5.397264,"is_reserved":false,"is_disabled":false,"rental_uris":{"android":"levelo://app?vid=61d344a3-3981-49a7-a16b-9cc4a970d1b6","ios":"levelo://app?vid=61d344a3-3981-49a7-a16b-9cc4a970d1b6"},"vehicle_type_id":"4","last_reported":1680195977,"current_range_meters":12400,"station_id":"ce4bhn12rcd13ifvqgpg","pricing_plan_id":"free"},{"bike_id":"770ada93-0740-48ad-89c6-030106b65646","system_id":"levelo_inurba_marseille","lat":43.241782,"lon":5.397264,"is_reserved":false,"is_disabled":false,"rental_uris":{"android":"levelo://app?vid=770ada93-0740-48ad-89c6-030106b65646","ios":"levelo://app?vid=770ada93-0740-48ad-89c6-030106b65646"},"vehicle_type_id":"4","last_reported":1680195977,"current_range_meters":30800,"station_id":"ce4bhn12rcd13ifvqgpg","pricing_plan_id":"free"},{"bike_id":"e7b530a9-a474-4c94-ba4c-e04b35db7de1","system_id":"levelo_inurba_marseille","lat":43.241782,"lon":5.397264,"is_reserved":false,"is_disabled":false,"rental_uris":{"android":"levelo://app?vid=e7b530a9-a474-4c94-ba4c-e04b35db7de1","ios":"levelo://app?vid=e7b530a9-a474-4c94-ba4c-e04b35db7de1"},"vehicle_type_id":"4","last_reported":1680195977,"current_range_meters":30400,"station_id":"ce4bhn12rcd13ifvqgpg","pricing_plan_id":"free"},{"bike_id":"e44ffb74-01eb-4474-9b66-86769a6cc0ef","system_id":"levelo_inurba_marseille","lat":43.241782,"lon":5.397264,"is_reserved":false,"is_disabled":false,"rental_uris":{"android":"levelo://app?vid=e44ffb74-01eb-4474-9b66-86769a6cc0ef","ios":"levelo://app?vid=e44ffb74-01eb-4474-9b66-86769a6cc0ef"},"vehicle_type_id":"4","last_reported":1680195977,"current_range_meters":1200,"station_id":"ce4bhn12rcd13ifvqgpg","pricing_plan_id":"free"},{"bike_id":"cdf1a6d7-ba8d-44c7-be27-8adff974abfe","system_id":"levelo_inurba_marseille","lat":43.241782,"lon":5.397264,"is_reserved":false,"is_disabled":false,"rental_uris":{"android":"levelo://app?vid=cdf1a6d7-ba8d-44c7-be27-8adff974abfe","ios":"levelo://app?vid=cdf1a6d7-ba8d-44c7-be27-8adff974abfe"},"vehicle_type_id":"4","last_reported":1680195977,"current_range_meters":15200,"station_id":"ce4bhn12rcd13ifvqgpg","pricing_plan_id":"free"},{"bike_id":"cbe633fd-959f-41b1-b446-01799316d3ee","system_id":"levelo_inurba_marseille","lat":43.241782,"lon":5.397264,"is_reserved":false,"is_disabled":false,"rental_uris":{"android":"levelo://app?vid=cbe633fd-959f-41b1-b446-01799316d3ee","ios":"levelo://app?vid=cbe633fd-959f-41b1-b446-01799316d3ee"},"vehicle_type_id":"4","last_reported":1680195977,"current_range_meters":31200,"station_id":"ce4bhn12rcd13ifvqgpg","pricing_plan_id":"free"}]}}