{"last_updated":1706371632,"ttl":30,"version":"2.2","data":{"bikes":[{"bike_id":"48a44e10-395a-4ae8-953e-4dec4fbfa773","system_id":"levelo_inurba_marseille","lat":43.305714,"lon":5.365633,"is_reserved":false,"is_disabled":false,"rental_uris":{"android":"levelo://app?vid=48a44e10-395a-4ae8-953e-4dec4fbfa773","ios":"levelo://app?vid=48a44e10-395a-4ae8-953e-4dec4fbfa773"},"vehicle_type_id":"4","last_reported":1706371632,"current_range_meters":0,"station_id":"ce4bgs12rcd13ifvqcag","pricing_plan_id":"free"},{"bike_id":"61633d22-f786-43bf-8b03-07c3f027239b","system_id":"levelo_inurba_marseille","lat":43.30495,"lon":5.36755,"is_reserved":false,"is_disabled":false,"rental_uris":{"android":"levelo://app?vid=61633d22-f786-43bf-8b03-07c3f027239b","ios":"levelo://app?vid=61633d22-f786-43bf-8b03-07c3f027239b"},"vehicle_type_id":"4","last_reported":1706371632,"current_range_meters":0,"station_id":"","pricing_plan_id":"free"},{"bike_id":"96a1aa84-8101-471f-976b-0319fd257f16","system_id":"levelo_inurba_marseille","lat":43.31122,"lon":5.3776,"is_reserved":false,"is_disabled":false,"rental_uris":{"android":"levelo://app?vid=96a1aa84-8101-471f-976b-0319fd257f16","ios":"levelo://app?vid=96a1aa84-8101-471f-976b-0319fd257f16"},"vehicle_type_id":"4","last_reported":1706371632,"current_range_meters":0,"station_id":"ce4bgt92rcd13ifvqcg0","pricing_plan_id":"free"},{"bike_id":"c5e8d027-f8fd-474e-9e04-a56fe22cd0c5","system_id":"levelo_inurba_marseille","lat":43.311131,"lon":5.377651,"is_reserved":false,"is_disabled":false,"rental_uris":{"android":"levelo://app?vid=c5e8d027-f8fd-474e-9e04-a56fe22cd0c5","ios":"levelo://app?vid=c5e8d027-f8fd-474e-9e04-a56fe22cd0c5"},"vehicle_type_id":"4","last_reported":1706371632,"current_range_meters":1200,"station_id":"ce4bgt92rcd13ifvqcg0","pricing_plan_id":"free"},{"bike_id":"3bc7d444-d5f3-4b44-bb37-806ac9b53907","system_id":"levelo_inurba_marseille","lat":43.311131,"lon":5.377651,"is_reserved":false,"is_disabled":false,"rental_uris":{"android":"levelo://app?vid=3bc7d444-d5f3-4b44-bb37-806ac9b53907","ios":"levelo://app?vid=3bc7d444-d5f3-4b44-bb37-806ac9b53907"},"vehicle_type_id":"4","last_reported":1706371632,"current_range_meters":0,"station_id":"ce4bgt92rcd13ifvqcg0","pricing_plan_id":"free"},{"bike_id":"2c9bc55b-7862-4fee-93cf-332da9ff1878","system_id":"levelo_inurba_marseille","lat":43.317075,"lon":5.377367,"is_reserved":false,"is_disabled":false,"rental_uris":{"android":"levelo://app?vid=2c9bc55b-7862-4fee-93cf-332da9ff1878","ios":"levelo://app?vid=2c9bc55b-7862-4fee-93cf-332da9ff1878"},"vehicle_type_id":"4","last_reported":1706371632,"current_range_meters":22400,"station_id":"ce4bgth2rcd13ifvqch0","pricing_plan_id":"free"},{"bike_id":"b83daeb9-a39c-4884-86e2-16a37c651f7f","system_id":"levelo_inurba_marseille","lat":43.32006,"lon":5.37615,"is_reserved":false,"is_disabled":false,"rental_uris":{"android":"levelo://app?vid=b83daeb9-a39c-4884-86e2-16a37c651f7f","ios":"levelo://app?vid=b83daeb9-a39c-4884-86e2-16a37c651f7f"},"vehicle_type_id":"4","last_reported":1706371632,"current_range_meters":10000,"station_id":"","pricing_plan_id":"free"},{"bike_id":"4afbbe4a-0ee1-4949-8f82-7dc1de3dcfc7","system_id":"levelo_inurba_marseille","lat":43.30143,"lon":5.37413,"is_reserved":false,"is_disabled":false,"rental_uris":{"android":"levelo://app?vid=4afbbe4a-0ee1-4949-8f82-7dc1de3dcfc7","ios":"levelo://app?vid=4afbbe4a-0ee1-4949-8f82-7dc1de3dcfc7"},"vehicle_type_id":"4","last_reported":1706371632,"current_range_meters":5200,"station_id":"ce4bgs92rcd13ifvqcc0","pricing_plan_id":"free"},{"bike_id":"d462dd8f-aec3-445c-89f6-947e7a4e9853","system_id":"levelo_inurba_marseille","lat":43.304606,"lon":5.379026,"is_reserved":false,"is_disabled":false,"rental_uris":{"android":"levelo://app?vid=d462dd8f-aec3-445c-89f6-947e7a4e9853","ios":"levelo://app?vid=d462dd8f-aec3-445c-89f6-947e7a4e9853"},"vehicle_type_id":"4","last_reported":1706371632,"current_range_meters":0,"station_id":"ce4bgup2rcd13ifvqcn0","pricing_plan_id":"free"},{"bike_id":"86d4df1c-8a93-45a8-af3f-2f4e9388b4dd","system_id":"levelo_inurba_marseille","lat":43.30293,"lon":5.376976,"is_reserved":false,"is_disabled":false,"rental_uris":{"android":"levelo://app?vid=86d4df1c-8a93-45a8-af3f-2f4e9388b4dd","ios":"levelo://app?vid=86d4df1c-8a93-45a8-af3f-2f4e9388b4dd"},"vehicle_type_id":"4","last_reported":1706371632,"current_range_meters":0,"station_id":"ce4bguh2rcd13ifvqcj0","pricing_plan_id":"free"},{"bike_id":"03c73d5a-f2b1-40b9-ad0d-2120d6d55b2d","system_id":"levelo_inurba_marseille","lat":43.301429,"lon":5.37413,"is_reserved":false,"is_disabled":false,"rental_uris":{"android":"levelo://app?vid=03c73d5a-f2b1-40b9-ad0d-2120d6d55b2d","ios":"levelo://app?vid=03c73d5a-f2b1-40b9-ad0d-2120d6d55b2d"},"vehicle_type_id":"4","last_reported":1706371632,"current_range_meters":5200,"station_id":"ce4bgs92rcd13ifvqcc0","pricing_plan_id":"free"},{"bike_id":"0989d14c-1dd6-4888-b055-3a6a24ac3bb7","system_id":"levelo_inurba_marseille","lat":43.303774,"lon":5.379126,"is_reserved":false,"is_disabled":false,"rental_uris":{"android":"levelo://app?vid=0989d14c-1dd6-4888-b055-3a6a24ac3bb7","ios":"levelo://app?vid=0989d14c-1dd6-4888-b055-3a6a24ac3bb7"},"vehicle_type_id":"4","last_reported":1706371632,"current_range_meters":4800,"station_id":"ce4bgup2rcd13ifvqcn0","pricing_plan_id":"free"},{"bike_id":"ae7ab608-8fac-4c0d-9f43-8ffacb07a49d","system_id":"levelo_inurba_marseille","lat":43.319935,"lon":5.381699,"is_reserved":false,"is_disabled":false,"rental_uris":{"android":"levelo://app?vid=ae7ab608-8fac-4c0d-9f43-8ffacb07a49d","ios":"levelo://app?vid=ae7ab608-8fac-4c0d-9f43-8ffacb07a49d"},"vehicle_type_id":"4","last_reported":1706371632,"current_range_meters":2800,"station_id":"ce4bhr12rcd13ifvqhpg","pricing_plan_id":"free"},{"bike_id":"be024971-d37d-482d-8c1c-a4d0be70068c","system_id":"levelo_inurba_marseille","lat":43.319935,"lon":5.381699,"is_reserved":false,"is_disabled":false,"rental_uris":{"android":"levelo://app?vid=be024971-d37d-482d-8c1c-a4d0be70068c","ios":"levelo://app?vid=be024971-d37d-482d-8c1c-a4d0be70068c"},"vehicle_type_id":"4","last_reported":1706371632,"current_range_meters":800,"station_id":"ce4bhr12rcd13ifvqhpg","pricing_plan_id":"free"},{"bike_id":"fbd1c7c8-59f4-40f3-bd13-92a41198f404","system_id":"levelo_inurba_marseille","lat":43.319935,"lon":5.381699,"is_reserved":false,"is_disabled":false,"rental_uris":{"android":"levelo://app?vid=fbd1c7c8-59f4-40f3-bd13-92a41198f404","ios":"levelo://app?vid=fbd1c7c8-59f4-40f3-bd13-92a41198f404"},"vehicle_type_id":"4","last_reported":1706371632,"current_range_meters":16000,"station_id":"ce4bhr12rcd13ifvqhpg","pricing_plan_id":"free"},{"bike_id":"5f7ec9ca-defa-4048-96f4-b62ebd1a927a","system_id":"levelo_inurba_marseille","lat":43.319935,"lon":5.381699,"is_reserved":false,"is_disabled":false,"rental_uris":{"android":"levelo://app?vid=5f7ec9ca-defa-4048-96f4-b62ebd1a927a","ios":"levelo://app?vid=5f7ec9ca-defa-4048-96f4-b62ebd1a927a"},"vehicle_type_id":"4","last_reported":1706371632,"current_range_meters":18800,"station_id":"ce4bhr12rcd13ifvqhpg","pricing_plan_id":"free"},{"bike_id":"a79daa46-3aa8-4e55-9c43-3e7b897ab602","system_id":"levelo_inurba_marseille","lat":43.319935,"lon":5.381699,"is_reserved":false,"is_disabled":false,"rental_uris":{"android":"levelo://app?vid=a79daa46-3aa8-4e55-9c43-3e7b897ab602","ios":"levelo://app?vid=a79daa46-3aa8-4e55-9c43-3e7b897ab602"},"vehicle_type_id":"4","last_reported":1706371632,"current_range_meters":31200,"station_id":"ce4bhr12rcd13ifvqhpg","pricing_plan_id":"free"},{"bike_id":"fdf75031-5a5a-459e-8e28-38e6903d5fe1","system_id":"levelo_inurba_marseille","lat":43.298433,"lon":5.362774,"is_reserved":false,"is_disabled":false,"rental_uris":{"android":"levelo://app?vid=fdf75031-5a5a-459e-8e28-38e6903d5fe1","ios":"levelo://app?vid=fdf75031-5a5a-459e-8e28-38e6903d5fe1"},"vehicle_type_id":"4","last_reported":1706371632,"current_range_meters":6000,"station_id":"ce4bgpp2rcd13ifvqc3g","pricing_plan_id":"free"},{"bike_id":"8395fb97-a9be-445e-bd02-9ca4340ba417","system_id":"levelo_inurba_marseille","lat":43.298433,"lon":5.362774,"is_reserved":false,"is_disabled":false,"rental_uris":{"android":"levelo://app?vid=8395fb97-a9be-445e-bd02-9ca4340ba417","ios":"levelo://app?vid=8395fb97-a9be-445e-bd02-9ca4340ba417"},"vehicle_type_id":"4","last_reported":1706371632,"current_range_meters":22800,"station_id":"ce4bgpp2rcd13ifvqc3g","pricing_plan_id":"free"},{"bike_id":"965a5dab-e227-4efc-b518-9780186a9de9","system_id":"levelo_inurba_marseille","lat":43.322865,"lon":5.382605,"is_reserved":false,"is_disabled":false,"rental_uris":{"android":"levelo://app?vid=965a5dab-e227-4efc-b518-9780186a9de9","ios":"levelo://app?vid=965a5dab-e227-4efc-b518-9780186a9de9"},"vehicle_type_id":"4","last_reported":1706371632,"current_range_meters":23200,"station_id":"ce4bhr12rcd13ifvqhqg","pricing_plan_id":"free"},{"bike_id":"33542c6d-c41f-4851-b94b-770063eb2e53","system_id":"levelo_inurba_marseille","lat":43.29779,"lon":5.37109,"is_reserved":false,"is_disabled":false,"rental_uris":{"android":"levelo://app?vid=33542c6d-c41f-4851-b94b-770063eb2e53","ios":"levelo://app?vid=33542c6d-c41f-4851-b94b-770063eb2e53"},"vehicle_type_id":"4","last_reported":1706371632,"current_range_meters":0,"station_id":"ce4bgop2rcd13ifvqc1g","pricing_plan_id":"free"},{"bike_id":"acf3637e-7670-4218-9abc-b943f822ca90","system_id":"levelo_inurba_marseille","lat":43.297794,"lon":5.370888,"is_reserved":false,"is_disabled":false,"rental_uris":{"android":"levelo://app?vid=acf3637e-7670-4218-9abc-b943f822ca90","ios":"levelo://app?vid=acf3637e-7670-4218-9abc-b943f822ca90"},"vehicle_type_id":"4","last_reported":1706371632,"current_range_meters":0,"station_id":"ce4bgop2rcd13ifvqc1g","pricing_plan_id":"free"},{"bike_id":"123d69ac-fa94-4d24-ac1b-25f5421f74b7","system_id":"levelo_inurba_marseille","lat":43.297794,"lon":5.370888,"is_reserved":false,"is_disabled":false,"rental_uris":{"android":"levelo://app?vid=123d69ac-fa94-4d24-ac1b-25f5421f74b7","ios":"levelo://app?vid=123d69ac-fa94-4d24-ac1b-25f5421f74b7"},"vehicle_type_id":"4","last_reported":1706371632,"current_range_meters":13200,"station_id":"ce4bgop2rcd13ifvqc1g","pricing_plan_id":"free"},{"bike_id":"5e98879a-df25-42d7-a72e-59c9369b5f46","system_id":"levelo_inurba_marseille","lat":43.32291,"lon":5.38268,"is_reserved":false,"is_disabled":false,"rental_uris":{"android":"levelo://app?vid=5e98879a-df25-42d7-a72e-59c9369b5f46","ios":"levelo://app?vid=5e98879a-df25-42d7-a72e-59c9369b5f46"},"vehicle_type_id":"4","last_reported":1706371632,"current_range_meters":31200,"station_id":"ce4bhr12rcd13ifvqhqg","pricing_plan_id":"free"},{"bike_id":"c0bacbb9-2761-4491-a8c1-93af05373d9b","system_id":"levelo_inurba_marseille","lat":43.32829,"lon":5.36677,"is_reserved":false,"is_disabled":false,"rental_uris":{"android":"levelo://app?vid=c0bacbb9-2761-4491-a8c1-93af05373d9b","ios":"levelo://app?vid=c0bacbb9-2761-4491-a8c1-93af05373d9b"},"vehicle_type_id":"4","last_reported":1706371632,"current_range_meters":19600,"station_id":"ce4bhs92rcd13ifvqi0g","pricing_plan_id":"free"},{"bike_id":"12edd8fe-ac42-424b-86a0-ddbc64b4f114","system_id":"levelo_inurba_marseille","lat":43.328325,"lon":5.36678,"is_reserved":false,"is_disabled":false,"rental_uris":{"android":"levelo://app?vid=12edd8fe-ac42-424b-86a0-ddbc64b4f114","ios":"levelo://app?vid=12edd8fe-ac42-424b-86a0-ddbc64b4f114"},"vehicle_type_id":"4","last_reported":1706371632,"current_range_meters":17600,"station_id":"ce4bhs92rcd13ifvqi0g","pricing_plan_id":"free"},{"bike_id":"cd351fb0-0c10-441e-b663-13e0753783f9","system_id":"levelo_inurba_marseille","lat":43.297163,"lon":5.365866,"is_reserved":false,"is_disabled":false,"rental_uris":{"android":"levelo://app?vid=cd351fb0-0c10-441e-b663-13e0753783f9","ios":"levelo://app?vid=cd351fb0-0c10-441e-b663-13e0753783f9"},"vehicle_type_id":"4","last_reported":1706371632,"current_range_meters":3200,"station_id":"ce4bgn12rcd13ifvqbt0","pricing_plan_id":"free"},{"bike_id":"54d8abe6-746b-4be6-9341-8f323a368dcf","system_id":"levelo_inurba_marseille","lat":43.29709,"lon":5.36609,"is_reserved":false,"is_disabled":false,"rental_uris":{"android":"levelo://app?vid=54d8abe6-746b-4be6-9341-8f323a368dcf","ios":"levelo://app?vid=54d8abe6-746b-4be6-9341-8f323a368dcf"},"vehicle_type_id":"4","last_reported":1706371632,"current_range_meters":0,"station_id":"ce4bgn12rcd13ifvqbt0","pricing_plan_id":"free"},{"bike_id":"31c884b6-24f3-4ad2-b153-4d91b407eb8c","system_id":"levelo_inurba_marseille","lat":43.32842,"lon":5.36679,"is_reserved":false,"is_disabled":false,"rental_uris":{"android":"levelo://app?vid=31c884b6-24f3-4ad2-b153-4d91b407eb8c","ios":"levelo://app?vid=31c884b6-24f3-4ad2-b153-4d91b407eb8c"},"vehicle_type_id":"4","last_reported":1706371632,"current_range_meters":20800,"station_id":"ce4bhs92rcd13ifvqi0g","pricing_plan_id":"free"},{"bike_id":"07c9f368-b93e-4cd9-8f15-ccc387409422","system_id":"levelo_inurba_marseille","lat":43.297163,"lon":5.365866,"is_reserved":false,"is_disabled":false,"rental_uris":{"android":"levelo://app?vid=07c9f368-b93e-4cd9-8f15-ccc387409422","ios":"levelo://app?vid=07c9f368-b93e-4cd9-8f15-ccc387409422"},"vehicle_type_id":"4","last_reported":1706371632,"current_range_meters":400,"station_id":"ce4bgn12rcd13ifvqbt0","pricing_plan_id":"free"},{"bike_id":"df96db3b-d159-4546-a1d3-a47f7001ab0c","system_id":"levelo_inurba_marseille","lat":43.2968,"lon":5.37291,"is_reserved":false,"is_disabled":false,"rental_uris":{"android":"levelo://app?vid=df96db3b-d159-4546-a1d3-a47f7001ab0c","ios":"levelo://app?vid=df96db3b-d159-4546-a1d3-a47f7001ab0c"},"vehicle_type_id":"4","last_reported":1706371632,"current_range_meters":14400,"station_id":"ce4bgk12rcd13ifvqbj0","pricing_plan_id":"free"},{"bike_id":"7255aebe-ec50-43d3-b40b-f9fde967cc88","system_id":"levelo_inurba_marseille","lat":43.308861,"lon":5.389372,"is_reserved":false,"is_disabled":false,"rental_uris":{"android":"levelo://app?vid=7255aebe-ec50-43d3-b40b-f9fde967cc88","ios":"levelo://app?vid=7255aebe-ec50-43d3-b40b-f9fde967cc88"},"vehicle_type_id":"4","last_reported":1706371632,"current_range_meters":2800,"station_id":"ce4bgup2rcd13ifvqco0","pricing_plan_id":"free"},{"bike_id":"419770a0-4a5f-4b49-a4bc-fe1f93efa0b5","system_id":"levelo_inurba_marseille","lat":43.29573,"lon":5.367355,"is_reserved":false,"is_disabled":false,"rental_uris":{"android":"levelo://app?vid=419770a0-4a5f-4b49-a4bc-fe1f93efa0b5","ios":"levelo://app?vid=419770a0-4a5f-4b49-a4bc-fe1f93efa0b5"},"vehicle_type_id":"4","last_reported":1706371632,"current_range_meters":0,"station_id":"ce4bgph2rcd13ifvqc2g","pricing_plan_id":"free"},{"bike_id":"71b21087-280b-4abd-952d-ef3a6f8878ad","system_id":"levelo_inurba_marseille","lat":43.296131,"lon":5.370773,"is_reserved":false,"is_disabled":false,"rental_uris":{"android":"levelo://app?vid=71b21087-280b-4abd-952d-ef3a6f8878ad","ios":"levelo://app?vid=71b21087-280b-4abd-952d-ef3a6f8878ad"},"vehicle_type_id":"4","last_reported":1706371632,"current_range_meters":12400,"station_id":"ce4bgnh2rcd13ifvqc0g","pricing_plan_id":"free"},{"bike_id":"fc531ee9-362f-4011-a258-849536836755","system_id":"levelo_inurba_marseille","lat":43.29573,"lon":5.367355,"is_reserved":false,"is_disabled":false,"rental_uris":{"android":"levelo://app?vid=fc531ee9-362f-4011-a258-849536836755","ios":"levelo://app?vid=fc531ee9-362f-4011-a258-849536836755"},"vehicle_type_id":"4","last_reported":1706371632,"current_range_meters":24400,"station_id":"ce4bgph2rcd13ifvqc2g","pricing_plan_id":"free"},{"bike_id":"32a9e5df-9827-4284-adcb-8da03ef94e69","system_id":"levelo_inurba_marseille","lat":43.299028,"lon":5.381509,"is_reserved":false,"is_disabled":false,"rental_uris":{"android":"levelo://app?vid=32a9e5df-9827-4284-adcb-8da03ef94e69","ios":"levelo://app?vid=32a9e5df-9827-4284-adcb-8da03ef94e69"},"vehicle_type_id":"4","last_reported":1706371632,"current_range_meters":2800,"station_id":"ce4bgj12rcd13ifvqbc0","pricing_plan_id":"free"},{"bike_id":"874192d0-ee4d-4d40-97a3-7f245ebf7791","system_id":"levelo_inurba_marseille","lat":43.299028,"lon":5.381509,"is_reserved":false,"is_disabled":false,"rental_uris":{"android":"levelo://app?vid=874192d0-ee4d-4d40-97a3-7f245ebf7791","ios":"levelo://app?vid=874192d0-ee4d-4d40-97a3-7f245ebf7791"},"vehicle_type_id":"4","last_reported":1706371632,"current_range_meters":16400,"station_id":"ce4bgj12rcd13ifvqbc0","pricing_plan_id":"free"},{"bike_id":"07e0ac5c-6a0f-4109-82be-72ead34e3227","system_id":"levelo_inurba_marseille","lat":43.296935,"lon":5.376544,"is_reserved":false,"is_disabled":false,"rental_uris":{"android":"levelo://app?vid=07e0ac5c-6a0f-4109-82be-72ead34e3227","ios":"levelo://app?vid=07e0ac5c-6a0f-4109-82be-72ead34e3227"},"vehicle_type_id":"4","last_reported":1706371632,"current_range_meters":0,"station_id":"ce4bgkh2rcd13ifvqbl0","pricing_plan_id":"free"},{"bike_id":"5849c8f1-de07-480c-ab10-c023b55280ba","system_id":"levelo_inurba_marseille","lat":43.322172,"lon":5.386906,"is_reserved":false,"is_disabled":false,"rental_uris":{"android":"levelo://app?vid=5849c8f1-de07-480c-ab10-c023b55280ba","ios":"levelo://app?vid=5849c8f1-de07-480c-ab10-c023b55280ba"},"vehicle_type_id":"4","last_reported":1706371632,"current_range_meters":2000,"station_id":"","pricing_plan_id":"free"},{"bike_id":"6de30225-fad5-40de-90ac-efaa3f5a1fd1","system_id":"levelo_inurba_marseille","lat":43.317557,"lon":5.390173,"is_reserved":false,"is_disabled":false,"rental_uris":{"android":"levelo://app?vid=6de30225-fad5-40de-90ac-efaa3f5a1fd1","ios":"levelo://app?vid=6de30225-fad5-40de-90ac-efaa3f5a1fd1"},"vehicle_type_id":"4","last_reported":1706371632,"current_range_meters":26400,"station_id":"ce4bhqp2rcd13ifvqhng","pricing_plan_id":"free"},{"bike_id":"063ae696-1031-40cd-b414-8f83f1463831","system_id":"levelo_inurba_marseille","lat":43.304274,"lon":5.388873,"is_reserved":false,"is_disabled":false,"rental_uris":{"android":"levelo://app?vid=063ae696-1031-40cd-b414-8f83f1463831","ios":"levelo://app?vid=063ae696-1031-40cd-b414-8f83f1463831"},"vehicle_type_id":"4","last_reported":1706371632,"current_range_meters":1200,"station_id":"ce4bgk12rcd13ifvqbi0","pricing_plan_id":"free"},{"bike_id":"8037cd40-e9f6-466a-9cd2-c50ad29fac0c","system_id":"levelo_inurba_marseille","lat":43.298037,"lon":5.381066,"is_reserved":false,"is_disabled":false,"rental_uris":{"android":"levelo://app?vid=8037cd40-e9f6-466a-9cd2-c50ad29fac0c","ios":"levelo://app?vid=8037cd40-e9f6-466a-9cd2-c50ad29fac0c"},"vehicle_type_id":"4","last_reported":1706371632,"current_range_meters":0,"station_id":"ce4bgip2rcd13ifvqbb0","pricing_plan_id":"free"},{"bike_id":"aff64a82-d836-4696-80a3-08637f7dcf61","system_id":"levelo_inurba_marseille","lat":43.296263,"lon":5.377094,"is_reserved":false,"is_disabled":false,"rental_uris":{"android":"levelo://app?vid=aff64a82-d836-4696-80a3-08637f7dcf61","ios":"levelo://app?vid=aff64a82-d836-4696-80a3-08637f7dcf61"},"vehicle_type_id":"4","last_reported":1706371632,"current_range_meters":0,"station_id":"ce4bgi92rcd13ifvqb90","pricing_plan_id":"free"},{"bike_id":"5e8e14a7-d782-492a-b141-7042a9e7d4d8","system_id":"levelo_inurba_marseille","lat":43.296277,"lon":5.377108,"is_reserved":false,"is_disabled":false,"rental_uris":{"android":"levelo://app?vid=5e8e14a7-d782-492a-b141-7042a9e7d4d8","ios":"levelo://app?vid=5e8e14a7-d782-492a-b141-7042a9e7d4d8"},"vehicle_type_id":"4","last_reported":1706371632,"current_range_meters":5200,"station_id":"ce4bgi92rcd13ifvqb90","pricing_plan_id":"free"},{"bike_id":"ec75fde9-9d1b-456b-aac4-f6dcc72ef5ab","system_id":"levelo_inurba_marseille","lat":43.296263,"lon":5.377094,"is_reserved":false,"is_disabled":false,"rental_uris":{"android":"levelo://app?vid=ec75fde9-9d1b-456b-aac4-f6dcc72ef5ab","ios":"levelo://app?vid=ec75fde9-9d1b-456b-aac4-f6dcc72ef5ab"},"vehicle_type_id":"4","last_reported":1706371632,"current_range_meters":22000,"station_id":"ce4bgi92rcd13ifvqb90","pricing_plan_id":"free"},{"bike_id":"2240309d-8ce5-431c-9676-3c0003756570","system_id":"levelo_inurba_marseille","lat":43.32367,"lon":5.388836,"is_reserved":false,"is_disabled":false,"rental_uris":{"android":"levelo://app?vid=2240309d-8ce5-431c-9676-3c0003756570","ios":"levelo://app?vid=2240309d-8ce5-431c-9676-3c0003756570"},"vehicle_type_id":"4","last_reported":1706371632,"current_range_meters":0,"station_id":"ce4bhqp2rcd13ifvqhog","pricing_plan_id":"free"},{"bike_id":"74dc548a-33d0-4526-be26-b8322bda79eb","system_id":"levelo_inurba_marseille","lat":43.2932,"lon":5.37148,"is_reserved":false,"is_disabled":false,"rental_uris":{"android":"levelo://app?vid=74dc548a-33d0-4526-be26-b8322bda79eb","ios":"levelo://app?vid=74dc548a-33d0-4526-be26-b8322bda79eb"},"vehicle_type_id":"4","last_reported":1706371632,"current_range_meters":0,"station_id":"ce4bgh92rcd13ifvqb40","pricing_plan_id":"free"},{"bike_id":"3a41380b-25dc-4231-864f-ddeb7e31f658","system_id":"levelo_inurba_marseille","lat":43.30088,"lon":5.39066,"is_reserved":false,"is_disabled":false,"rental_uris":{"android":"levelo://app?vid=3a41380b-25dc-4231-864f-ddeb7e31f658","ios":"levelo://app?vid=3a41380b-25dc-4231-864f-ddeb7e31f658"},"vehicle_type_id":"4","last_reported":1706371632,"current_range_meters":18800,"station_id":"ce4bh192rcd13ifvqdb0","pricing_plan_id":"free"},{"bike_id":"2b7b869b-1b15-4816-a608-c6c5e37c2fe6","system_id":"levelo_inurba_marseille","lat":43.29231,"lon":5.36049,"is_reserved":false,"is_disabled":false,"rental_uris":{"android":"levelo://app?vid=2b7b869b-1b15-4816-a608-c6c5e37c2fe6","ios":"levelo://app?vid=2b7b869b-1b15-4816-a608-c6c5e37c2fe6"},"vehicle_type_id":"4","last_reported":1706371632,"current_range_meters":0,"station_id":"ce4bhbh2rcd13ifvqeqg","pricing_plan_id":"free"},{"bike_id":"fd31f7ff-1f7c-4d5a-9bda-4abb29f526af","system_id":"levelo_inurba_marseille","lat":43.29228,"lon":5.36067,"is_reserved":false,"is_disabled":false,"rental_uris":{"android":"levelo://app?vid=fd31f7ff-1f7c-4d5a-9bda-4abb29f526af","ios":"levelo://app?vid=fd31f7ff-1f7c-4d5a-9bda-4abb29f526af"},"vehicle_type_id":"4","last_reported":1706371632,"current_range_meters":2000,"station_id":"","pricing_plan_id":"free"},{"bike_id":"3078fd77-6139-4fd9-bb50-56c434d525f1","system_id":"levelo_inurba_marseille","lat":43.30089,"lon":5.39071,"is_reserved":false,"is_disabled":false,"rental_uris":{"android":"levelo://app?vid=3078fd77-6139-4fd9-bb50-56c434d525f1","ios":"levelo://app?vid=3078fd77-6139-4fd9-bb50-56c434d525f1"},"vehicle_type_id":"4","last_reported":1706371632,"current_range_meters":5200,"station_id":"ce4bh192rcd13ifvqdb0","pricing_plan_id":"free"},{"bike_id":"9474ce1d-d39a-4a91-b48f-3bd4d0e0ec57","system_id":"levelo_inurba_marseille","lat":43.29225,"lon":5.36054,"is_reserved":false,"is_disabled":false,"rental_uris":{"android":"levelo://app?vid=9474ce1d-d39a-4a91-b48f-3bd4d0e0ec57","ios":"levelo://app?vid=9474ce1d-d39a-4a91-b48f-3bd4d0e0ec57"},"vehicle_type_id":"4","last_reported":1706371632,"current_range_meters":25200,"station_id":"ce4bhbh2rcd13ifvqeqg","pricing_plan_id":"free"},{"bike_id":"37e5f76f-bca8-493a-ae40-6babe16f31fc","system_id":"levelo_inurba_marseille","lat":43.29223,"lon":5.36058,"is_reserved":false,"is_disabled":false,"rental_uris":{"android":"levelo://app?vid=37e5f76f-bca8-493a-ae40-6babe16f31fc","ios":"levelo://app?vid=37e5f76f-bca8-493a-ae40-6babe16f31fc"},"vehicle_type_id":"4","last_reported":1706371632,"current_range_meters":2800,"station_id":"ce4bhbh2rcd13ifvqeqg","pricing_plan_id":"free"},{"bike_id":"ce90bdc0-4acd-46d2-98b1-5ae38ae6cc7a","system_id":"levelo_inurba_marseille","lat":43.30084,"lon":5.39081,"is_reserved":false,"is_disabled":false,"rental_uris":{"android":"levelo://app?vid=ce90bdc0-4acd-46d2-98b1-5ae38ae6cc7a","ios":"levelo://app?vid=ce90bdc0-4acd-46d2-98b1-5ae38ae6cc7a"},"vehicle_type_id":"4","last_reported":1706371632,"current_range_meters":5600,"station_id":"ce4bh192rcd13ifvqdb0","pricing_plan_id":"free"},{"bike_id":"2cdd5039-e8ec-441b-9bd5-4c34b690b828","system_id":"levelo_inurba_marseille","lat":43.304931,"lon":5.394201,"is_reserved":false,"is_disabled":false,"rental_uris":{"android":"levelo://app?vid=2cdd5039-e8ec-441b-9bd5-4c34b690b828","ios":"levelo://app?vid=2cdd5039-e8ec-441b-9bd5-4c34b690b828"},"vehicle_type_id":"4","last_reported":1706371632,"current_range_meters":19600,"station_id":"","pricing_plan_id":"free"},{"bike_id":"073f6e6c-bf50-499a-b759-c5f2c518a3d8","system_id":"levelo_inurba_marseille","lat":43.298764,"lon":5.388973,"is_reserved":false,"is_disabled":false,"rental_uris":{"android":"levelo://app?vid=073f6e6c-bf50-499a-b759-c5f2c518a3d8","ios":"levelo://app?vid=073f6e6c-bf50-499a-b759-c5f2c518a3d8"},"vehicle_type_id":"4","last_reported":1706371632,"current_range_meters":12400,"station_id":"ce4bh392rcd13ifvqdl0","pricing_plan_id":"free"},{"bike_id":"bd5dc765-1fac-4926-8e87-65c9bf9ab6dc","system_id":"levelo_inurba_marseille","lat":43.313291,"lon":5.396838,"is_reserved":false,"is_disabled":false,"rental_uris":{"android":"levelo://app?vid=bd5dc765-1fac-4926-8e87-65c9bf9ab6dc","ios":"levelo://app?vid=bd5dc765-1fac-4926-8e87-65c9bf9ab6dc"},"vehicle_type_id":"4","last_reported":1706371632,"current_range_meters":15600,"station_id":"ce4bgvp2rcd13ifvqcu0","pricing_plan_id":"free"},{"bike_id":"ba84cdb5-b3fa-4bb3-b12e-dcfcb311a1d1","system_id":"levelo_inurba_marseille","lat":43.29529,"lon":5.385581,"is_reserved":false,"is_disabled":false,"rental_uris":{"android":"levelo://app?vid=ba84cdb5-b3fa-4bb3-b12e-dcfcb311a1d1","ios":"levelo://app?vid=ba84cdb5-b3fa-4bb3-b12e-dcfcb311a1d1"},"vehicle_type_id":"4","last_reported":1706371632,"current_range_meters":19600,"station_id":"ce4bgih2rcd13ifvqba0","pricing_plan_id":"free"},{"bike_id":"3c2551b7-0bf2-4638-9e15-2dfbe4997efd","system_id":"levelo_inurba_marseille","lat":43.302008,"lon":5.394694,"is_reserved":false,"is_disabled":false,"rental_uris":{"android":"levelo://app?vid=3c2551b7-0bf2-4638-9e15-2dfbe4997efd","ios":"levelo://app?vid=3c2551b7-0bf2-4638-9e15-2dfbe4997efd"},"vehicle_type_id":"4","last_reported":1706371632,"current_range_meters":23200,"station_id":"ce4bh0p2rcd13ifvqd70","pricing_plan_id":"free"},{"bike_id":"be470bb2-77b0-433a-9afe-7d1db00aa078","system_id":"levelo_inurba_marseille","lat":43.290441,"lon":5.359123,"is_reserved":false,"is_disabled":false,"rental_uris":{"android":"levelo://app?vid=be470bb2-77b0-433a-9afe-7d1db00aa078","ios":"levelo://app?vid=be470bb2-77b0-433a-9afe-7d1db00aa078"},"vehicle_type_id":"4","last_reported":1706371632,"current_range_meters":28800,"station_id":"","pricing_plan_id":"free"},{"bike_id":"9b1eba24-41b0-47bd-8358-0f0cfdb0d385","system_id":"levelo_inurba_marseille","lat":43.289184,"lon":5.366408,"is_reserved":false,"is_disabled":false,"rental_uris":{"android":"levelo://app?vid=9b1eba24-41b0-47bd-8358-0f0cfdb0d385","ios":"levelo://app?vid=9b1eba24-41b0-47bd-8358-0f0cfdb0d385"},"vehicle_type_id":"4","last_reported":1706371632,"current_range_meters":28800,"station_id":"ce4bhap2rcd13ifvqek0","pricing_plan_id":"free"},{"bike_id":"7f8e47be-b8b7-4bde-bcce-53001b7e8303","system_id":"levelo_inurba_marseille","lat":43.289184,"lon":5.366408,"is_reserved":false,"is_disabled":false,"rental_uris":{"android":"levelo://app?vid=7f8e47be-b8b7-4bde-bcce-53001b7e8303","ios":"levelo://app?vid=7f8e47be-b8b7-4bde-bcce-53001b7e8303"},"vehicle_type_id":"4","last_reported":1706371632,"current_range_meters":0,"station_id":"ce4bhap2rcd13ifvqek0","pricing_plan_id":"free"},{"bike_id":"ecff1a9a-6490-40ad-9dea-dbe45d03f2e2","system_id":"levelo_inurba_marseille","lat":43.289184,"lon":5.366408,"is_reserved":false,"is_disabled":false,"rental_uris":{"android":"levelo://app?vid=ecff1a9a-6490-40ad-9dea-dbe45d03f2e2","ios":"levelo://app?vid=ecff1a9a-6490-40ad-9dea-dbe45d03f2e2"},"vehicle_type_id":"4","last_reported":1706371632,"current_range_meters":400,"station_id":"ce4bhap2rcd13ifvqek0","pricing_plan_id":"free"},{"bike_id":"36fdf3a9-6637-4abe-9106-b80fdb7b6025","system_id":"levelo_inurba_marseille","lat":43.33604,"lon":5.37444,"is_reserved":false,"is_disabled":false,"rental_uris":{"android":"levelo://app?vid=36fdf3a9-6637-4abe-9106-b80fdb7b6025","ios":"levelo://app?vid=36fdf3a9-6637-4abe-9106-b80fdb7b6025"},"vehicle_type_id":"4","last_reported":1706371632,"current_range_meters":27600,"station_id":"","pricing_plan_id":"free"},{"bike_id":"0feddbd0-2a4a-47a2-9688-bbc4091f8e7a","system_id":"levelo_inurba_marseille","lat":43.290104,"lon":5.356111,"is_reserved":false,"is_disabled":false,"rental_uris":{"android":"levelo://app?vid=0feddbd0-2a4a-47a2-9688-bbc4091f8e7a","ios":"levelo://app?vid=0feddbd0-2a4a-47a2-9688-bbc4091f8e7a"},"vehicle_type_id":"4","last_reported":1706371632,"current_range_meters":0,"station_id":"ce4bhb92rcd13ifvqen0","pricing_plan_id":"free"},{"bike_id":"489559c7-c73b-4576-804c-01e990d26d58","system_id":"levelo_inurba_marseille","lat":43.290995,"lon":5.381361,"is_reserved":false,"is_disabled":false,"rental_uris":{"android":"levelo://app?vid=489559c7-c73b-4576-804c-01e990d26d58","ios":"levelo://app?vid=489559c7-c73b-4576-804c-01e990d26d58"},"vehicle_type_id":"4","last_reported":1706371632,"current_range_meters":1600,"station_id":"ce4bh512rcd13ifvqe2g","pricing_plan_id":"free"},{"bike_id":"e7bc585e-c88b-458e-a4d7-5760678a9a0a","system_id":"levelo_inurba_marseille","lat":43.29782,"lon":5.39324,"is_reserved":false,"is_disabled":false,"rental_uris":{"android":"levelo://app?vid=e7bc585e-c88b-458e-a4d7-5760678a9a0a","ios":"levelo://app?vid=e7bc585e-c88b-458e-a4d7-5760678a9a0a"},"vehicle_type_id":"4","last_reported":1706371632,"current_range_meters":23600,"station_id":"chh1huq6cuj3fo74tm60","pricing_plan_id":"free"},{"bike_id":"e8f0f838-f056-41f8-85a1-5de264c0c340","system_id":"levelo_inurba_marseille","lat":43.290995,"lon":5.381361,"is_reserved":false,"is_disabled":false,"rental_uris":{"android":"levelo://app?vid=e8f0f838-f056-41f8-85a1-5de264c0c340","ios":"levelo://app?vid=e8f0f838-f056-41f8-85a1-5de264c0c340"},"vehicle_type_id":"4","last_reported":1706371632,"current_range_meters":4000,"station_id":"ce4bh512rcd13ifvqe2g","pricing_plan_id":"free"},{"bike_id":"83f804a2-db6c-437a-aea5-c3a9c57eb049","system_id":"levelo_inurba_marseille","lat":43.330442,"lon":5.389148,"is_reserved":false,"is_disabled":false,"rental_uris":{"android":"levelo://app?vid=83f804a2-db6c-437a-aea5-c3a9c57eb049","ios":"levelo://app?vid=83f804a2-db6c-437a-aea5-c3a9c57eb049"},"vehicle_type_id":"4","last_reported":1706371632,"current_range_meters":2000,"station_id":"ce4bhr92rcd13ifvqhrg","pricing_plan_id":"free"},{"bike_id":"88b10c6e-2924-46a0-a765-5007894683fd","system_id":"levelo_inurba_marseille","lat":43.312609,"lon":5.401662,"is_reserved":false,"is_disabled":false,"rental_uris":{"android":"levelo://app?vid=88b10c6e-2924-46a0-a765-5007894683fd","ios":"levelo://app?vid=88b10c6e-2924-46a0-a765-5007894683fd"},"vehicle_type_id":"4","last_reported":1706371632,"current_range_meters":4800,"station_id":"ce4bh092rcd13ifvqd30","pricing_plan_id":"free"},{"bike_id":"85c14be9-7795-4184-924e-90f554064656","system_id":"levelo_inurba_marseille","lat":43.312609,"lon":5.401662,"is_reserved":false,"is_disabled":false,"rental_uris":{"android":"levelo://app?vid=85c14be9-7795-4184-924e-90f554064656","ios":"levelo://app?vid=85c14be9-7795-4184-924e-90f554064656"},"vehicle_type_id":"4","last_reported":1706371632,"current_range_meters":13600,"station_id":"ce4bh092rcd13ifvqd30","pricing_plan_id":"free"},{"bike_id":"2f92130f-4565-4832-92af-addb104268df","system_id":"levelo_inurba_marseille","lat":43.309371,"lon":5.401449,"is_reserved":false,"is_disabled":false,"rental_uris":{"android":"levelo://app?vid=2f92130f-4565-4832-92af-addb104268df","ios":"levelo://app?vid=2f92130f-4565-4832-92af-addb104268df"},"vehicle_type_id":"4","last_reported":1706371632,"current_range_meters":10400,"station_id":"ce4bgvp2rcd13ifvqct0","pricing_plan_id":"free"},{"bike_id":"a563cdbf-78b8-441c-8dce-8da1c3325b92","system_id":"levelo_inurba_marseille","lat":43.33754,"lon":5.37457,"is_reserved":false,"is_disabled":false,"rental_uris":{"android":"levelo://app?vid=a563cdbf-78b8-441c-8dce-8da1c3325b92","ios":"levelo://app?vid=a563cdbf-78b8-441c-8dce-8da1c3325b92"},"vehicle_type_id":"4","last_reported":1706371632,"current_range_meters":18400,"station_id":"","pricing_plan_id":"free"},{"bike_id":"a9554a78-0f9d-4cdd-9ecd-598bb2d54931","system_id":"levelo_inurba_marseille","lat":43.33758,"lon":5.3748,"is_reserved":false,"is_disabled":false,"rental_uris":{"android":"levelo://app?vid=a9554a78-0f9d-4cdd-9ecd-598bb2d54931","ios":"levelo://app?vid=a9554a78-0f9d-4cdd-9ecd-598bb2d54931"},"vehicle_type_id":"4","last_reported":1706371632,"current_range_meters":31200,"station_id":"","pricing_plan_id":"free"},{"bike_id":"b7f12eab-e0a6-499e-87ec-2b4381c4602a","system_id":"levelo_inurba_marseille","lat":43.337584,"lon":5.374867,"is_reserved":false,"is_disabled":false,"rental_uris":{"android":"levelo://app?vid=b7f12eab-e0a6-499e-87ec-2b4381c4602a","ios":"levelo://app?vid=b7f12eab-e0a6-499e-87ec-2b4381c4602a"},"vehicle_type_id":"4","last_reported":1706371632,"current_range_meters":23600,"station_id":"","pricing_plan_id":"free"},{"bike_id":"b7d3b81d-d85a-44b5-a0c7-8f9c9f74639e","system_id":"levelo_inurba_marseille","lat":43.33765,"lon":5.374672,"is_reserved":false,"is_disabled":false,"rental_uris":{"android":"levelo://app?vid=b7d3b81d-d85a-44b5-a0c7-8f9c9f74639e","ios":"levelo://app?vid=b7d3b81d-d85a-44b5-a0c7-8f9c9f74639e"},"vehicle_type_id":"4","last_reported":1706371632,"current_range_meters":30400,"station_id":"","pricing_plan_id":"free"},{"bike_id":"02cc1ce4-717f-4b60-a8ae-e32a4e8fb56c","system_id":"levelo_inurba_marseille","lat":43.33764,"lon":5.37491,"is_reserved":false,"is_disabled":false,"rental_uris":{"android":"levelo://app?vid=02cc1ce4-717f-4b60-a8ae-e32a4e8fb56c","ios":"levelo://app?vid=02cc1ce4-717f-4b60-a8ae-e32a4e8fb56c"},"vehicle_type_id":"4","last_reported":1706371632,"current_range_meters":12400,"station_id":"","pricing_plan_id":"free"},{"bike_id":"bd7c49e0-243f-4049-bc25-2de8f060bb29","system_id":"levelo_inurba_marseille","lat":43.337681,"lon":5.374739,"is_reserved":false,"is_disabled":false,"rental_uris":{"android":"levelo://app?vid=bd7c49e0-243f-4049-bc25-2de8f060bb29","ios":"levelo://app?vid=bd7c49e0-243f-4049-bc25-2de8f060bb29"},"vehicle_type_id":"4","last_reported":1706371632,"current_range_meters":24400,"station_id":"","pricing_plan_id":"free"},{"bike_id":"1facbbf3-baac-42f8-85eb-cb1e36f3e4b9","system_id":"levelo_inurba_marseille","lat":43.33771,"lon":5.37493,"is_reserved":false,"is_disabled":false,"rental_uris":{"android":"levelo://app?vid=1facbbf3-baac-42f8-85eb-cb1e36f3e4b9","ios":"levelo://app?vid=1facbbf3-baac-42f8-85eb-cb1e36f3e4b9"},"vehicle_type_id":"4","last_reported":1706371632,"current_range_meters":19200,"station_id":"","pricing_plan_id":"free"},{"bike_id":"eaeff2f9-be33-4cbc-b315-c230be10dd9b","system_id":"levelo_inurba_marseille","lat":43.33774,"lon":5.37488,"is_reserved":false,"is_disabled":false,"rental_uris":{"android":"levelo://app?vid=eaeff2f9-be33-4cbc-b315-c230be10dd9b","ios":"levelo://app?vid=eaeff2f9-be33-4cbc-b315-c230be10dd9b"},"vehicle_type_id":"4","last_reported":1706371632,"current_range_meters":10400,"station_id":"","pricing_plan_id":"free"},{"bike_id":"876ab886-8d61-4145-970e-4ef1d32f939e","system_id":"levelo_inurba_marseille","lat":43.309371,"lon":5.401449,"is_reserved":false,"is_disabled":false,"rental_uris":{"android":"levelo://app?vid=876ab886-8d61-4145-970e-4ef1d32f939e","ios":"levelo://app?vid=876ab886-8d61-4145-970e-4ef1d32f939e"},"vehicle_type_id":"4","last_reported":1706371632,"current_range_meters":24800,"station_id":"ce4bgvp2rcd13ifvqct0","pricing_plan_id":"free"},{"bike_id":"d05242cc-b297-4885-9c54-f67282e02f69","system_id":"levelo_inurba_marseille","lat":43.286593,"lon":5.363346,"is_reserved":false,"is_disabled":false,"rental_uris":{"android":"levelo://app?vid=d05242cc-b297-4885-9c54-f67282e02f69","ios":"levelo://app?vid=d05242cc-b297-4885-9c54-f67282e02f69"},"vehicle_type_id":"4","last_reported":1706371632,"current_range_meters":28000,"station_id":"ce4bhah2rcd13ifvqej0","pricing_plan_id":"free"},{"bike_id":"9bd09551-88e8-4236-acfa-652bcaa85369","system_id":"levelo_inurba_marseille","lat":43.286593,"lon":5.363346,"is_reserved":false,"is_disabled":false,"rental_uris":{"android":"levelo://app?vid=9bd09551-88e8-4236-acfa-652bcaa85369","ios":"levelo://app?vid=9bd09551-88e8-4236-acfa-652bcaa85369"},"vehicle_type_id":"4","last_reported":1706371632,"current_range_meters":4400,"station_id":"ce4bhah2rcd13ifvqej0","pricing_plan_id":"free"},{"bike_id":"ec871637-4d61-4fbc-953d-ae64dc38e9d9","system_id":"levelo_inurba_marseille","lat":43.286591,"lon":5.363346,"is_reserved":false,"is_disabled":false,"rental_uris":{"android":"levelo://app?vid=ec871637-4d61-4fbc-953d-ae64dc38e9d9","ios":"levelo://app?vid=ec871637-4d61-4fbc-953d-ae64dc38e9d9"},"vehicle_type_id":"4","last_reported":1706371632,"current_range_meters":4400,"station_id":"ce4bhah2rcd13ifvqej0","pricing_plan_id":"free"},{"bike_id":"919b8e21-b15b-4ddf-9b8b-ce6d294622bd","system_id":"levelo_inurba_marseille","lat":43.302759,"lon":5.400793,"is_reserved":false,"is_disabled":false,"rental_uris":{"android":"levelo://app?vid=919b8e21-b15b-4ddf-9b8b-ce6d294622bd","ios":"levelo://app?vid=919b8e21-b15b-4ddf-9b8b-ce6d294622bd"},"vehicle_type_id":"4","last_reported":1706371632,"current_range_meters":400,"station_id":"ce4bgvh2rcd13ifvqcs0","pricing_plan_id":"free"},{"bike_id":"aa661ea3-84bf-4c44-b9f5-f60a4e0d4eeb","system_id":"levelo_inurba_marseille","lat":43.302759,"lon":5.400793,"is_reserved":false,"is_disabled":false,"rental_uris":{"android":"levelo://app?vid=aa661ea3-84bf-4c44-b9f5-f60a4e0d4eeb","ios":"levelo://app?vid=aa661ea3-84bf-4c44-b9f5-f60a4e0d4eeb"},"vehicle_type_id":"4","last_reported":1706371632,"current_range_meters":7200,"station_id":"ce4bgvh2rcd13ifvqcs0","pricing_plan_id":"free"},{"bike_id":"183bb1c1-398f-466c-b05d-327ac4efc436","system_id":"levelo_inurba_marseille","lat":43.302511,"lon":5.400653,"is_reserved":false,"is_disabled":false,"rental_uris":{"android":"levelo://app?vid=183bb1c1-398f-466c-b05d-327ac4efc436","ios":"levelo://app?vid=183bb1c1-398f-466c-b05d-327ac4efc436"},"vehicle_type_id":"4","last_reported":1706371632,"current_range_meters":14400,"station_id":"ce4bgth2rcd13ifvqch0","pricing_plan_id":"free"},{"bike_id":"2f316fa6-3170-4d79-8806-b6a8debc63f9","system_id":"levelo_inurba_marseille","lat":43.302622,"lon":5.400767,"is_reserved":false,"is_disabled":false,"rental_uris":{"android":"levelo://app?vid=2f316fa6-3170-4d79-8806-b6a8debc63f9","ios":"levelo://app?vid=2f316fa6-3170-4d79-8806-b6a8debc63f9"},"vehicle_type_id":"4","last_reported":1706371632,"current_range_meters":0,"station_id":"ce4bgvh2rcd13ifvqcs0","pricing_plan_id":"free"},{"bike_id":"b6fa7eef-f2a0-40fc-ae0b-a09f93b631b3","system_id":"levelo_inurba_marseille","lat":43.286039,"lon":5.370679,"is_reserved":false,"is_disabled":false,"rental_uris":{"android":"levelo://app?vid=b6fa7eef-f2a0-40fc-ae0b-a09f93b631b3","ios":"levelo://app?vid=b6fa7eef-f2a0-40fc-ae0b-a09f93b631b3"},"vehicle_type_id":"4","last_reported":1706371632,"current_range_meters":22800,"station_id":"ce4bht12rcd13ifvqi60","pricing_plan_id":"free"},{"bike_id":"b8162574-a33b-40b7-8d39-ab489852be72","system_id":"levelo_inurba_marseille","lat":43.30256,"lon":5.40076,"is_reserved":false,"is_disabled":false,"rental_uris":{"android":"levelo://app?vid=b8162574-a33b-40b7-8d39-ab489852be72","ios":"levelo://app?vid=b8162574-a33b-40b7-8d39-ab489852be72"},"vehicle_type_id":"4","last_reported":1706371632,"current_range_meters":0,"station_id":"ce4bgvh2rcd13ifvqcs0","pricing_plan_id":"free"},{"bike_id":"374c0890-483c-4e61-aafc-6cb7254b00cd","system_id":"levelo_inurba_marseille","lat":43.286039,"lon":5.370679,"is_reserved":false,"is_disabled":false,"rental_uris":{"android":"levelo://app?vid=374c0890-483c-4e61-aafc-6cb7254b00cd","ios":"levelo://app?vid=374c0890-483c-4e61-aafc-6cb7254b00cd"},"vehicle_type_id":"4","last_reported":1706371632,"current_range_meters":18400,"station_id":"ce4bht12rcd13ifvqi60","pricing_plan_id":"free"},{"bike_id":"2fe24097-b1c2-4583-ba1f-cf8501171a4c","system_id":"levelo_inurba_marseille","lat":43.338808,"lon":5.378023,"is_reserved":false,"is_disabled":false,"rental_uris":{"android":"levelo://app?vid=2fe24097-b1c2-4583-ba1f-cf8501171a4c","ios":"levelo://app?vid=2fe24097-b1c2-4583-ba1f-cf8501171a4c"},"vehicle_type_id":"4","last_reported":1706371632,"current_range_meters":16800,"station_id":"","pricing_plan_id":"free"},{"bike_id":"d8a09bdf-083c-43c8-84b1-e994aa94a9b5","system_id":"levelo_inurba_marseille","lat":43.316821,"lon":5.404737,"is_reserved":false,"is_disabled":false,"rental_uris":{"android":"levelo://app?vid=d8a09bdf-083c-43c8-84b1-e994aa94a9b5","ios":"levelo://app?vid=d8a09bdf-083c-43c8-84b1-e994aa94a9b5"},"vehicle_type_id":"4","last_reported":1706371632,"current_range_meters":26000,"station_id":"ce4bh012rcd13ifvqd00","pricing_plan_id":"free"},{"bike_id":"e1d40199-9ed1-491e-a579-b9bb2ab59b75","system_id":"levelo_inurba_marseille","lat":43.291994,"lon":5.392907,"is_reserved":false,"is_disabled":false,"rental_uris":{"android":"levelo://app?vid=e1d40199-9ed1-491e-a579-b9bb2ab59b75","ios":"levelo://app?vid=e1d40199-9ed1-491e-a579-b9bb2ab59b75"},"vehicle_type_id":"4","last_reported":1706371632,"current_range_meters":0,"station_id":"ce4bh192rcd13ifvqdd0","pricing_plan_id":"free"},{"bike_id":"b75be3d1-456f-4987-80e1-2d4d7e67b6ec","system_id":"levelo_inurba_marseille","lat":43.291994,"lon":5.392907,"is_reserved":false,"is_disabled":false,"rental_uris":{"android":"levelo://app?vid=b75be3d1-456f-4987-80e1-2d4d7e67b6ec","ios":"levelo://app?vid=b75be3d1-456f-4987-80e1-2d4d7e67b6ec"},"vehicle_type_id":"4","last_reported":1706371632,"current_range_meters":7200,"station_id":"ce4bh192rcd13ifvqdd0","pricing_plan_id":"free"},{"bike_id":"778555b0-d1e0-431f-9db5-c755cc49a886","system_id":"levelo_inurba_marseille","lat":43.291994,"lon":5.392907,"is_reserved":false,"is_disabled":false,"rental_uris":{"android":"levelo://app?vid=778555b0-d1e0-431f-9db5-c755cc49a886","ios":"levelo://app?vid=778555b0-d1e0-431f-9db5-c755cc49a886"},"vehicle_type_id":"4","last_reported":1706371632,"current_range_meters":4000,"station_id":"ce4bh192rcd13ifvqdd0","pricing_plan_id":"free"},{"bike_id":"6ce3d3e1-744a-47c0-b20a-8c54db5d9f1f","system_id":"levelo_inurba_marseille","lat":43.284664,"lon":5.358897,"is_reserved":false,"is_disabled":false,"rental_uris":{"android":"levelo://app?vid=6ce3d3e1-744a-47c0-b20a-8c54db5d9f1f","ios":"levelo://app?vid=6ce3d3e1-744a-47c0-b20a-8c54db5d9f1f"},"vehicle_type_id":"4","last_reported":1706371632,"current_range_meters":5200,"station_id":"ce4bhah2rcd13ifvqei0","pricing_plan_id":"free"},{"bike_id":"c58bc56b-5d9e-4b2a-be7c-cde77e1464b1","system_id":"levelo_inurba_marseille","lat":43.284538,"lon":5.358657,"is_reserved":false,"is_disabled":false,"rental_uris":{"android":"levelo://app?vid=c58bc56b-5d9e-4b2a-be7c-cde77e1464b1","ios":"levelo://app?vid=c58bc56b-5d9e-4b2a-be7c-cde77e1464b1"},"vehicle_type_id":"4","last_reported":1706371632,"current_range_meters":800,"station_id":"ce4bhah2rcd13ifvqei0","pricing_plan_id":"free"},{"bike_id":"59181654-9411-4a79-afe4-17453649b49c","system_id":"levelo_inurba_marseille","lat":43.284538,"lon":5.358657,"is_reserved":false,"is_disabled":false,"rental_uris":{"android":"levelo://app?vid=59181654-9411-4a79-afe4-17453649b49c","ios":"levelo://app?vid=59181654-9411-4a79-afe4-17453649b49c"},"vehicle_type_id":"4","last_reported":1706371632,"current_range_meters":7600,"station_id":"ce4bhah2rcd13ifvqei0","pricing_plan_id":"free"},{"bike_id":"0559b75d-664b-48e8-8aba-03a4b1976f8e","system_id":"levelo_inurba_marseille","lat":43.284538,"lon":5.358657,"is_reserved":false,"is_disabled":false,"rental_uris":{"android":"levelo://app?vid=0559b75d-664b-48e8-8aba-03a4b1976f8e","ios":"levelo://app?vid=0559b75d-664b-48e8-8aba-03a4b1976f8e"},"vehicle_type_id":"4","last_reported":1706371632,"current_range_meters":1200,"station_id":"ce4bhah2rcd13ifvqei0","pricing_plan_id":"free"},{"bike_id":"2108e2fe-d57a-44d3-9d9e-194cf6c0a069","system_id":"levelo_inurba_marseille","lat":43.2846,"lon":5.35887,"is_reserved":false,"is_disabled":false,"rental_uris":{"android":"levelo://app?vid=2108e2fe-d57a-44d3-9d9e-194cf6c0a069","ios":"levelo://app?vid=2108e2fe-d57a-44d3-9d9e-194cf6c0a069"},"vehicle_type_id":"4","last_reported":1706371632,"current_range_meters":800,"station_id":"ce4bhah2rcd13ifvqei0","pricing_plan_id":"free"},{"bike_id":"5a9b8f72-f2aa-4c13-a2ba-c065d24acb82","system_id":"levelo_inurba_marseille","lat":43.316828,"lon":5.404723,"is_reserved":false,"is_disabled":false,"rental_uris":{"android":"levelo://app?vid=5a9b8f72-f2aa-4c13-a2ba-c065d24acb82","ios":"levelo://app?vid=5a9b8f72-f2aa-4c13-a2ba-c065d24acb82"},"vehicle_type_id":"4","last_reported":1706371632,"current_range_meters":18000,"station_id":"ce4bh012rcd13ifvqd00","pricing_plan_id":"free"},{"bike_id":"d7e5e590-fcb7-4a01-b3d0-873a40779604","system_id":"levelo_inurba_marseille","lat":43.294314,"lon":5.397498,"is_reserved":false,"is_disabled":false,"rental_uris":{"android":"levelo://app?vid=d7e5e590-fcb7-4a01-b3d0-873a40779604","ios":"levelo://app?vid=d7e5e590-fcb7-4a01-b3d0-873a40779604"},"vehicle_type_id":"4","last_reported":1706371632,"current_range_meters":13200,"station_id":"ce4bh3h2rcd13ifvqdo0","pricing_plan_id":"free"},{"bike_id":"a9a9a90e-e9e5-4823-8724-9e170f7a8d2d","system_id":"levelo_inurba_marseille","lat":43.28625,"lon":5.35095,"is_reserved":false,"is_disabled":false,"rental_uris":{"android":"levelo://app?vid=a9a9a90e-e9e5-4823-8724-9e170f7a8d2d","ios":"levelo://app?vid=a9a9a90e-e9e5-4823-8724-9e170f7a8d2d"},"vehicle_type_id":"4","last_reported":1706371632,"current_range_meters":0,"station_id":"ce4bhch2rcd13ifvqeug","pricing_plan_id":"free"},{"bike_id":"944218a6-0138-4b8b-9698-e69628dd4c10","system_id":"levelo_inurba_marseille","lat":43.28621,"lon":5.35107,"is_reserved":false,"is_disabled":false,"rental_uris":{"android":"levelo://app?vid=944218a6-0138-4b8b-9698-e69628dd4c10","ios":"levelo://app?vid=944218a6-0138-4b8b-9698-e69628dd4c10"},"vehicle_type_id":"4","last_reported":1706371632,"current_range_meters":0,"station_id":"ce4bhch2rcd13ifvqeug","pricing_plan_id":"free"},{"bike_id":"09f5388e-0783-4268-ac23-86913e6feb93","system_id":"levelo_inurba_marseille","lat":43.285856,"lon":5.350771,"is_reserved":false,"is_disabled":false,"rental_uris":{"android":"levelo://app?vid=09f5388e-0783-4268-ac23-86913e6feb93","ios":"levelo://app?vid=09f5388e-0783-4268-ac23-86913e6feb93"},"vehicle_type_id":"4","last_reported":1706371632,"current_range_meters":3200,"station_id":"ce4bhch2rcd13ifvqeug","pricing_plan_id":"free"},{"bike_id":"235de286-a15f-4b56-8c08-c5312b08ad47","system_id":"levelo_inurba_marseille","lat":43.285856,"lon":5.350771,"is_reserved":false,"is_disabled":false,"rental_uris":{"android":"levelo://app?vid=235de286-a15f-4b56-8c08-c5312b08ad47","ios":"levelo://app?vid=235de286-a15f-4b56-8c08-c5312b08ad47"},"vehicle_type_id":"4","last_reported":1706371632,"current_range_meters":8400,"station_id":"ce4bhch2rcd13ifvqeug","pricing_plan_id":"free"},{"bike_id":"595587ea-a9b7-40ef-9e5b-cffdf6ce5c06","system_id":"levelo_inurba_marseille","lat":43.285856,"lon":5.350771,"is_reserved":false,"is_disabled":false,"rental_uris":{"android":"levelo://app?vid=595587ea-a9b7-40ef-9e5b-cffdf6ce5c06","ios":"levelo://app?vid=595587ea-a9b7-40ef-9e5b-cffdf6ce5c06"},"vehicle_type_id":"4","last_reported":1706371632,"current_range_meters":26000,"station_id":"ce4bhch2rcd13ifvqeug","pricing_plan_id":"free"},{"bike_id":"5f945c1f-f854-4d1f-9448-3b1df14551aa","system_id":"levelo_inurba_marseille","lat":43.2861,"lon":5.3511,"is_reserved":false,"is_disabled":false,"rental_uris":{"android":"levelo://app?vid=5f945c1f-f854-4d1f-9448-3b1df14551aa","ios":"levelo://app?vid=5f945c1f-f854-4d1f-9448-3b1df14551aa"},"vehicle_type_id":"4","last_reported":1706371632,"current_range_meters":0,"station_id":"ce4bhch2rcd13ifvqeug","pricing_plan_id":"free"},{"bike_id":"e7923a80-92a0-4fe9-9cfc-f2bbf6fd5967","system_id":"levelo_inurba_marseille","lat":43.285856,"lon":5.350771,"is_reserved":false,"is_disabled":false,"rental_uris":{"android":"levelo://app?vid=e7923a80-92a0-4fe9-9cfc-f2bbf6fd5967","ios":"levelo://app?vid=e7923a80-92a0-4fe9-9cfc-f2bbf6fd5967"},"vehicle_type_id":"4","last_reported":1706371632,"current_range_meters":20000,"station_id":"ce4bhch2rcd13ifvqeug","pricing_plan_id":"free"},{"bike_id":"fd2e2799-edf7-4899-a0f2-8256a1673311","system_id":"levelo_inurba_marseille","lat":43.286039,"lon":5.370681,"is_reserved":false,"is_disabled":false,"rental_uris":{"android":"levelo://app?vid=fd2e2799-edf7-4899-a0f2-8256a1673311","ios":"levelo://app?vid=fd2e2799-edf7-4899-a0f2-8256a1673311"},"vehicle_type_id":"4","last_reported":1706371632,"current_range_meters":0,"station_id":"ce4bht12rcd13ifvqi60","pricing_plan_id":"free"},{"bike_id":"29c971f3-912e-4f79-8c22-d20e1f4b5d74","system_id":"levelo_inurba_marseille","lat":43.33723,"lon":5.39185,"is_reserved":false,"is_disabled":false,"rental_uris":{"android":"levelo://app?vid=29c971f3-912e-4f79-8c22-d20e1f4b5d74","ios":"levelo://app?vid=29c971f3-912e-4f79-8c22-d20e1f4b5d74"},"vehicle_type_id":"4","last_reported":1706371632,"current_range_meters":19600,"station_id":"ce4bhr92rcd13ifvqhsg","pricing_plan_id":"free"},{"bike_id":"f08fe900-ae1d-40fb-b85c-080faa6a8cce","system_id":"levelo_inurba_marseille","lat":43.323464,"lon":5.406297,"is_reserved":false,"is_disabled":false,"rental_uris":{"android":"levelo://app?vid=f08fe900-ae1d-40fb-b85c-080faa6a8cce","ios":"levelo://app?vid=f08fe900-ae1d-40fb-b85c-080faa6a8cce"},"vehicle_type_id":"4","last_reported":1706371632,"current_range_meters":31200,"station_id":"ce4bhq92rcd13ifvqhjg","pricing_plan_id":"free"},{"bike_id":"23182893-9e18-480a-8378-283164dbf867","system_id":"levelo_inurba_marseille","lat":43.323464,"lon":5.406297,"is_reserved":false,"is_disabled":false,"rental_uris":{"android":"levelo://app?vid=23182893-9e18-480a-8378-283164dbf867","ios":"levelo://app?vid=23182893-9e18-480a-8378-283164dbf867"},"vehicle_type_id":"4","last_reported":1706371632,"current_range_meters":3600,"station_id":"ce4bhq92rcd13ifvqhjg","pricing_plan_id":"free"},{"bike_id":"de6be41c-5ca3-4eda-a71b-f70775739141","system_id":"levelo_inurba_marseille","lat":43.284793,"lon":5.384113,"is_reserved":false,"is_disabled":false,"rental_uris":{"android":"levelo://app?vid=de6be41c-5ca3-4eda-a71b-f70775739141","ios":"levelo://app?vid=de6be41c-5ca3-4eda-a71b-f70775739141"},"vehicle_type_id":"4","last_reported":1706371632,"current_range_meters":2000,"station_id":"ce4bh512rcd13ifvqe3g","pricing_plan_id":"free"},{"bike_id":"2c6e41c0-c1e5-428f-89c1-5a0b7b0fbb78","system_id":"levelo_inurba_marseille","lat":43.28471,"lon":5.38421,"is_reserved":false,"is_disabled":false,"rental_uris":{"android":"levelo://app?vid=2c6e41c0-c1e5-428f-89c1-5a0b7b0fbb78","ios":"levelo://app?vid=2c6e41c0-c1e5-428f-89c1-5a0b7b0fbb78"},"vehicle_type_id":"4","last_reported":1706371632,"current_range_meters":2800,"station_id":"ce4bh512rcd13ifvqe3g","pricing_plan_id":"free"},{"bike_id":"7cfb0501-abc8-44b3-8f4d-a910ac5da017","system_id":"levelo_inurba_marseille","lat":43.297946,"lon":5.404063,"is_reserved":false,"is_disabled":false,"rental_uris":{"android":"levelo://app?vid=7cfb0501-abc8-44b3-8f4d-a910ac5da017","ios":"levelo://app?vid=7cfb0501-abc8-44b3-8f4d-a910ac5da017"},"vehicle_type_id":"4","last_reported":1706371632,"current_range_meters":11600,"station_id":"ce4bh112rcd13ifvqd90","pricing_plan_id":"free"},{"bike_id":"cc5cca8e-a7a7-4535-b04b-8db905e41eb6","system_id":"levelo_inurba_marseille","lat":43.29799,"lon":5.40407,"is_reserved":false,"is_disabled":false,"rental_uris":{"android":"levelo://app?vid=cc5cca8e-a7a7-4535-b04b-8db905e41eb6","ios":"levelo://app?vid=cc5cca8e-a7a7-4535-b04b-8db905e41eb6"},"vehicle_type_id":"4","last_reported":1706371632,"current_range_meters":9600,"station_id":"","pricing_plan_id":"free"},{"bike_id":"461205b5-2dd0-4d82-b209-940a7519ed50","system_id":"levelo_inurba_marseille","lat":43.288501,"lon":5.393087,"is_reserved":false,"is_disabled":false,"rental_uris":{"android":"levelo://app?vid=461205b5-2dd0-4d82-b209-940a7519ed50","ios":"levelo://app?vid=461205b5-2dd0-4d82-b209-940a7519ed50"},"vehicle_type_id":"4","last_reported":1706371632,"current_range_meters":22400,"station_id":"ce4bh2p2rcd13ifvqdi0","pricing_plan_id":"free"},{"bike_id":"0fda2f2b-b327-4a98-9d0f-ab7eedf8474b","system_id":"levelo_inurba_marseille","lat":43.284219,"lon":5.3497,"is_reserved":false,"is_disabled":false,"rental_uris":{"android":"levelo://app?vid=0fda2f2b-b327-4a98-9d0f-ab7eedf8474b","ios":"levelo://app?vid=0fda2f2b-b327-4a98-9d0f-ab7eedf8474b"},"vehicle_type_id":"4","last_reported":1706371632,"current_range_meters":8800,"station_id":"ce4bhbh2rcd13ifvqepg","pricing_plan_id":"free"},{"bike_id":"7b8e08b1-f894-4972-a3db-df34ab5949ad","system_id":"levelo_inurba_marseille","lat":43.284214,"lon":5.349706,"is_reserved":false,"is_disabled":false,"rental_uris":{"android":"levelo://app?vid=7b8e08b1-f894-4972-a3db-df34ab5949ad","ios":"levelo://app?vid=7b8e08b1-f894-4972-a3db-df34ab5949ad"},"vehicle_type_id":"4","last_reported":1706371632,"current_range_meters":18800,"station_id":"ce4bhbh2rcd13ifvqepg","pricing_plan_id":"free"},{"bike_id":"2be7a22f-f4b7-48a6-96ba-7fc49ff17fc4","system_id":"levelo_inurba_marseille","lat":43.284214,"lon":5.349706,"is_reserved":false,"is_disabled":false,"rental_uris":{"android":"levelo://app?vid=2be7a22f-f4b7-48a6-96ba-7fc49ff17fc4","ios":"levelo://app?vid=2be7a22f-f4b7-48a6-96ba-7fc49ff17fc4"},"vehicle_type_id":"4","last_reported":1706371632,"current_range_meters":19200,"station_id":"ce4bhbh2rcd13ifvqepg","pricing_plan_id":"free"},{"bike_id":"1d04d198-cd72-4d4a-9128-5411f3f5513d","system_id":"levelo_inurba_marseille","lat":43.28429,"lon":5.34991,"is_reserved":false,"is_disabled":false,"rental_uris":{"android":"levelo://app?vid=1d04d198-cd72-4d4a-9128-5411f3f5513d","ios":"levelo://app?vid=1d04d198-cd72-4d4a-9128-5411f3f5513d"},"vehicle_type_id":"4","last_reported":1706371632,"current_range_meters":16400,"station_id":"ce4bhbh2rcd13ifvqepg","pricing_plan_id":"free"},{"bike_id":"b8e137ba-5330-4d57-974c-1f4843a4d601","system_id":"levelo_inurba_marseille","lat":43.284214,"lon":5.349706,"is_reserved":false,"is_disabled":false,"rental_uris":{"android":"levelo://app?vid=b8e137ba-5330-4d57-974c-1f4843a4d601","ios":"levelo://app?vid=b8e137ba-5330-4d57-974c-1f4843a4d601"},"vehicle_type_id":"4","last_reported":1706371632,"current_range_meters":0,"station_id":"ce4bhbh2rcd13ifvqepg","pricing_plan_id":"free"},{"bike_id":"2e78da9d-3201-4b44-bacd-f76c16d4d164","system_id":"levelo_inurba_marseille","lat":43.28427,"lon":5.34988,"is_reserved":false,"is_disabled":false,"rental_uris":{"android":"levelo://app?vid=2e78da9d-3201-4b44-bacd-f76c16d4d164","ios":"levelo://app?vid=2e78da9d-3201-4b44-bacd-f76c16d4d164"},"vehicle_type_id":"4","last_reported":1706371632,"current_range_meters":12000,"station_id":"ce4bhbh2rcd13ifvqepg","pricing_plan_id":"free"},{"bike_id":"1c7fda76-9fb1-4a7d-a516-4655d6fafbfc","system_id":"levelo_inurba_marseille","lat":43.284272,"lon":5.34983,"is_reserved":false,"is_disabled":false,"rental_uris":{"android":"levelo://app?vid=1c7fda76-9fb1-4a7d-a516-4655d6fafbfc","ios":"levelo://app?vid=1c7fda76-9fb1-4a7d-a516-4655d6fafbfc"},"vehicle_type_id":"4","last_reported":1706371632,"current_range_meters":8000,"station_id":"ce4bhbh2rcd13ifvqepg","pricing_plan_id":"free"},{"bike_id":"ad9e898d-6b37-4a8e-8d0d-1417dba7880a","system_id":"levelo_inurba_marseille","lat":43.28426,"lon":5.34982,"is_reserved":false,"is_disabled":false,"rental_uris":{"android":"levelo://app?vid=ad9e898d-6b37-4a8e-8d0d-1417dba7880a","ios":"levelo://app?vid=ad9e898d-6b37-4a8e-8d0d-1417dba7880a"},"vehicle_type_id":"4","last_reported":1706371632,"current_range_meters":2400,"station_id":"ce4bhbh2rcd13ifvqepg","pricing_plan_id":"free"},{"bike_id":"910314c0-d079-4145-896e-6475b6752f9d","system_id":"levelo_inurba_marseille","lat":43.284219,"lon":5.3497,"is_reserved":false,"is_disabled":false,"rental_uris":{"android":"levelo://app?vid=910314c0-d079-4145-896e-6475b6752f9d","ios":"levelo://app?vid=910314c0-d079-4145-896e-6475b6752f9d"},"vehicle_type_id":"4","last_reported":1706371632,"current_range_meters":1600,"station_id":"ce4bhbh2rcd13ifvqepg","pricing_plan_id":"free"},{"bike_id":"92c20233-919e-485f-8391-041485e14939","system_id":"levelo_inurba_marseille","lat":43.284219,"lon":5.3497,"is_reserved":false,"is_disabled":false,"rental_uris":{"android":"levelo://app?vid=92c20233-919e-485f-8391-041485e14939","ios":"levelo://app?vid=92c20233-919e-485f-8391-041485e14939"},"vehicle_type_id":"4","last_reported":1706371632,"current_range_meters":24400,"station_id":"ce4bhbh2rcd13ifvqepg","pricing_plan_id":"free"},{"bike_id":"98eb34fb-fdf0-4105-a920-cf10472e81d8","system_id":"levelo_inurba_marseille","lat":43.284242,"lon":5.34983,"is_reserved":false,"is_disabled":false,"rental_uris":{"android":"levelo://app?vid=98eb34fb-fdf0-4105-a920-cf10472e81d8","ios":"levelo://app?vid=98eb34fb-fdf0-4105-a920-cf10472e81d8"},"vehicle_type_id":"4","last_reported":1706371632,"current_range_meters":15200,"station_id":"ce4bhbh2rcd13ifvqepg","pricing_plan_id":"free"},{"bike_id":"521da81a-b628-479a-8d95-18f7b4f66f1d","system_id":"levelo_inurba_marseille","lat":43.284214,"lon":5.349706,"is_reserved":false,"is_disabled":false,"rental_uris":{"android":"levelo://app?vid=521da81a-b628-479a-8d95-18f7b4f66f1d","ios":"levelo://app?vid=521da81a-b628-479a-8d95-18f7b4f66f1d"},"vehicle_type_id":"4","last_reported":1706371632,"current_range_meters":18000,"station_id":"ce4bhbh2rcd13ifvqepg","pricing_plan_id":"free"},{"bike_id":"7790ad9b-3184-4ac4-a52e-29cc27f5a8f4","system_id":"levelo_inurba_marseille","lat":43.28419,"lon":5.34991,"is_reserved":false,"is_disabled":false,"rental_uris":{"android":"levelo://app?vid=7790ad9b-3184-4ac4-a52e-29cc27f5a8f4","ios":"levelo://app?vid=7790ad9b-3184-4ac4-a52e-29cc27f5a8f4"},"vehicle_type_id":"4","last_reported":1706371632,"current_range_meters":1600,"station_id":"ce4bhbh2rcd13ifvqepg","pricing_plan_id":"free"},{"bike_id":"0b75ab23-3097-4cbc-8c4a-39caad89c765","system_id":"levelo_inurba_marseille","lat":43.284214,"lon":5.349706,"is_reserved":false,"is_disabled":false,"rental_uris":{"android":"levelo://app?vid=0b75ab23-3097-4cbc-8c4a-39caad89c765","ios":"levelo://app?vid=0b75ab23-3097-4cbc-8c4a-39caad89c765"},"vehicle_type_id":"4","last_reported":1706371632,"current_range_meters":6800,"station_id":"ce4bhbh2rcd13ifvqepg","pricing_plan_id":"free"},{"bike_id":"4eae59f1-45e4-45ef-bb68-da9ab1fd31df","system_id":"levelo_inurba_marseille","lat":43.284219,"lon":5.3497,"is_reserved":false,"is_disabled":false,"rental_uris":{"android":"levelo://app?vid=4eae59f1-45e4-45ef-bb68-da9ab1fd31df","ios":"levelo://app?vid=4eae59f1-45e4-45ef-bb68-da9ab1fd31df"},"vehicle_type_id":"4","last_reported":1706371632,"current_range_meters":30800,"station_id":"ce4bhbh2rcd13ifvqepg","pricing_plan_id":"free"},{"bike_id":"d7f38616-fac4-4771-b7ac-b8cdcb5c43bd","system_id":"levelo_inurba_marseille","lat":43.284214,"lon":5.349706,"is_reserved":false,"is_disabled":false,"rental_uris":{"android":"levelo://app?vid=d7f38616-fac4-4771-b7ac-b8cdcb5c43bd","ios":"levelo://app?vid=d7f38616-fac4-4771-b7ac-b8cdcb5c43bd"},"vehicle_type_id":"4","last_reported":1706371632,"current_range_meters":25200,"station_id":"ce4bhbh2rcd13ifvqepg","pricing_plan_id":"free"},{"bike_id":"a2de38c2-e9fd-4583-a83c-b75d572287cf","system_id":"levelo_inurba_marseille","lat":43.28416,"lon":5.34996,"is_reserved":false,"is_disabled":false,"rental_uris":{"android":"levelo://app?vid=a2de38c2-e9fd-4583-a83c-b75d572287cf","ios":"levelo://app?vid=a2de38c2-e9fd-4583-a83c-b75d572287cf"},"vehicle_type_id":"4","last_reported":1706371632,"current_range_meters":19200,"station_id":"ce4bhbh2rcd13ifvqepg","pricing_plan_id":"free"},{"bike_id":"8546a425-5059-4910-92dd-3bda65811ba9","system_id":"levelo_inurba_marseille","lat":43.284219,"lon":5.3497,"is_reserved":false,"is_disabled":false,"rental_uris":{"android":"levelo://app?vid=8546a425-5059-4910-92dd-3bda65811ba9","ios":"levelo://app?vid=8546a425-5059-4910-92dd-3bda65811ba9"},"vehicle_type_id":"4","last_reported":1706371632,"current_range_meters":12400,"station_id":"ce4bhbh2rcd13ifvqepg","pricing_plan_id":"free"},{"bike_id":"fb3806ee-d358-4682-bd48-b6f7f51ab441","system_id":"levelo_inurba_marseille","lat":43.284219,"lon":5.3497,"is_reserved":false,"is_disabled":false,"rental_uris":{"android":"levelo://app?vid=fb3806ee-d358-4682-bd48-b6f7f51ab441","ios":"levelo://app?vid=fb3806ee-d358-4682-bd48-b6f7f51ab441"},"vehicle_type_id":"4","last_reported":1706371632,"current_range_meters":23200,"station_id":"ce4bhbh2rcd13ifvqepg","pricing_plan_id":"free"},{"bike_id":"74817e67-ed82-4315-84c9-ddd7438e74b4","system_id":"levelo_inurba_marseille","lat":43.284219,"lon":5.3497,"is_reserved":false,"is_disabled":false,"rental_uris":{"android":"levelo://app?vid=74817e67-ed82-4315-84c9-ddd7438e74b4","ios":"levelo://app?vid=74817e67-ed82-4315-84c9-ddd7438e74b4"},"vehicle_type_id":"4","last_reported":1706371632,"current_range_meters":2400,"station_id":"ce4bhbh2rcd13ifvqepg","pricing_plan_id":"free"},{"bike_id":"11dee39c-7ee2-439e-b4f5-03bd3c494c1c","system_id":"levelo_inurba_marseille","lat":43.284179,"lon":5.349836,"is_reserved":false,"is_disabled":false,"rental_uris":{"android":"levelo://app?vid=11dee39c-7ee2-439e-b4f5-03bd3c494c1c","ios":"levelo://app?vid=11dee39c-7ee2-439e-b4f5-03bd3c494c1c"},"vehicle_type_id":"4","last_reported":1706371632,"current_range_meters":11200,"station_id":"ce4bhbh2rcd13ifvqepg","pricing_plan_id":"free"},{"bike_id":"d0114db0-d38e-4e30-8ef0-61b4aaaee3c4","system_id":"levelo_inurba_marseille","lat":43.284217,"lon":5.349697,"is_reserved":false,"is_disabled":false,"rental_uris":{"android":"levelo://app?vid=d0114db0-d38e-4e30-8ef0-61b4aaaee3c4","ios":"levelo://app?vid=d0114db0-d38e-4e30-8ef0-61b4aaaee3c4"},"vehicle_type_id":"4","last_reported":1706371632,"current_range_meters":20000,"station_id":"ce4bhbh2rcd13ifvqepg","pricing_plan_id":"free"},{"bike_id":"dedadc2a-21a1-45bc-b78c-1738e1ebe399","system_id":"levelo_inurba_marseille","lat":43.28419,"lon":5.34975,"is_reserved":false,"is_disabled":false,"rental_uris":{"android":"levelo://app?vid=dedadc2a-21a1-45bc-b78c-1738e1ebe399","ios":"levelo://app?vid=dedadc2a-21a1-45bc-b78c-1738e1ebe399"},"vehicle_type_id":"4","last_reported":1706371632,"current_range_meters":8400,"station_id":"ce4bhbh2rcd13ifvqepg","pricing_plan_id":"free"},{"bike_id":"898eeaa3-4723-489a-b2c4-625997b263c1","system_id":"levelo_inurba_marseille","lat":43.284131,"lon":5.349824,"is_reserved":false,"is_disabled":false,"rental_uris":{"android":"levelo://app?vid=898eeaa3-4723-489a-b2c4-625997b263c1","ios":"levelo://app?vid=898eeaa3-4723-489a-b2c4-625997b263c1"},"vehicle_type_id":"4","last_reported":1706371632,"current_range_meters":28400,"station_id":"ce4bhbh2rcd13ifvqepg","pricing_plan_id":"free"},{"bike_id":"176ed79b-52ad-4d56-92e3-3953f799e831","system_id":"levelo_inurba_marseille","lat":43.284219,"lon":5.3497,"is_reserved":false,"is_disabled":false,"rental_uris":{"android":"levelo://app?vid=176ed79b-52ad-4d56-92e3-3953f799e831","ios":"levelo://app?vid=176ed79b-52ad-4d56-92e3-3953f799e831"},"vehicle_type_id":"4","last_reported":1706371632,"current_range_meters":2800,"station_id":"ce4bhbh2rcd13ifvqepg","pricing_plan_id":"free"},{"bike_id":"56716407-257a-45b0-bce5-45aa14f568c9","system_id":"levelo_inurba_marseille","lat":43.284214,"lon":5.349706,"is_reserved":false,"is_disabled":false,"rental_uris":{"android":"levelo://app?vid=56716407-257a-45b0-bce5-45aa14f568c9","ios":"levelo://app?vid=56716407-257a-45b0-bce5-45aa14f568c9"},"vehicle_type_id":"4","last_reported":1706371632,"current_range_meters":15600,"station_id":"ce4bhbh2rcd13ifvqepg","pricing_plan_id":"free"},{"bike_id":"04f3adda-9bd4-4e61-90cd-ac0be4ccfaa4","system_id":"levelo_inurba_marseille","lat":43.284214,"lon":5.349706,"is_reserved":false,"is_disabled":false,"rental_uris":{"android":"levelo://app?vid=04f3adda-9bd4-4e61-90cd-ac0be4ccfaa4","ios":"levelo://app?vid=04f3adda-9bd4-4e61-90cd-ac0be4ccfaa4"},"vehicle_type_id":"4","last_reported":1706371632,"current_range_meters":20000,"station_id":"ce4bhbh2rcd13ifvqepg","pricing_plan_id":"free"},{"bike_id":"b41bcd76-cb12-4b33-95cd-9444d1e23578","system_id":"levelo_inurba_marseille","lat":43.293556,"lon":5.401561,"is_reserved":false,"is_disabled":false,"rental_uris":{"android":"levelo://app?vid=b41bcd76-cb12-4b33-95cd-9444d1e23578","ios":"levelo://app?vid=b41bcd76-cb12-4b33-95cd-9444d1e23578"},"vehicle_type_id":"4","last_reported":1706371632,"current_range_meters":9600,"station_id":"","pricing_plan_id":"free"},{"bike_id":"6df8b163-8bcf-47c4-aa35-73986d49019c","system_id":"levelo_inurba_marseille","lat":43.282754,"lon":5.350519,"is_reserved":false,"is_disabled":false,"rental_uris":{"android":"levelo://app?vid=6df8b163-8bcf-47c4-aa35-73986d49019c","ios":"levelo://app?vid=6df8b163-8bcf-47c4-aa35-73986d49019c"},"vehicle_type_id":"4","last_reported":1706371632,"current_range_meters":15600,"station_id":"ce4bhbp2rcd13ifvqerg","pricing_plan_id":"free"},{"bike_id":"6726b2d2-2d56-4ba1-b438-b2bd5ec49630","system_id":"levelo_inurba_marseille","lat":43.283502,"lon":5.386471,"is_reserved":false,"is_disabled":false,"rental_uris":{"android":"levelo://app?vid=6726b2d2-2d56-4ba1-b438-b2bd5ec49630","ios":"levelo://app?vid=6726b2d2-2d56-4ba1-b438-b2bd5ec49630"},"vehicle_type_id":"4","last_reported":1706371632,"current_range_meters":15200,"station_id":"ce4bh492rcd13ifvqdvg","pricing_plan_id":"free"},{"bike_id":"c37c3f22-f080-4c9b-b141-3c09c17c5012","system_id":"levelo_inurba_marseille","lat":43.282757,"lon":5.350623,"is_reserved":false,"is_disabled":false,"rental_uris":{"android":"levelo://app?vid=c37c3f22-f080-4c9b-b141-3c09c17c5012","ios":"levelo://app?vid=c37c3f22-f080-4c9b-b141-3c09c17c5012"},"vehicle_type_id":"4","last_reported":1706371632,"current_range_meters":0,"station_id":"ce4bhbp2rcd13ifvqerg","pricing_plan_id":"free"},{"bike_id":"e69c68aa-1d75-4a7a-8c5b-30c7ad0fb322","system_id":"levelo_inurba_marseille","lat":43.283502,"lon":5.386471,"is_reserved":false,"is_disabled":false,"rental_uris":{"android":"levelo://app?vid=e69c68aa-1d75-4a7a-8c5b-30c7ad0fb322","ios":"levelo://app?vid=e69c68aa-1d75-4a7a-8c5b-30c7ad0fb322"},"vehicle_type_id":"4","last_reported":1706371632,"current_range_meters":14800,"station_id":"ce4bh492rcd13ifvqdvg","pricing_plan_id":"free"},{"bike_id":"80bb12b6-bbca-4c03-802c-590faa287f52","system_id":"levelo_inurba_marseille","lat":43.282744,"lon":5.350533,"is_reserved":false,"is_disabled":false,"rental_uris":{"android":"levelo://app?vid=80bb12b6-bbca-4c03-802c-590faa287f52","ios":"levelo://app?vid=80bb12b6-bbca-4c03-802c-590faa287f52"},"vehicle_type_id":"4","last_reported":1706371632,"current_range_meters":22800,"station_id":"ce4bhbp2rcd13ifvqerg","pricing_plan_id":"free"},{"bike_id":"83991c66-2e84-4837-b91f-2f42b4754bc3","system_id":"levelo_inurba_marseille","lat":43.28262,"lon":5.35065,"is_reserved":false,"is_disabled":false,"rental_uris":{"android":"levelo://app?vid=83991c66-2e84-4837-b91f-2f42b4754bc3","ios":"levelo://app?vid=83991c66-2e84-4837-b91f-2f42b4754bc3"},"vehicle_type_id":"4","last_reported":1706371632,"current_range_meters":0,"station_id":"","pricing_plan_id":"free"},{"bike_id":"87a6fa74-f6d5-4b81-bcac-be55c380a6e7","system_id":"levelo_inurba_marseille","lat":43.28039,"lon":5.369297,"is_reserved":false,"is_disabled":false,"rental_uris":{"android":"levelo://app?vid=87a6fa74-f6d5-4b81-bcac-be55c380a6e7","ios":"levelo://app?vid=87a6fa74-f6d5-4b81-bcac-be55c380a6e7"},"vehicle_type_id":"4","last_reported":1706371632,"current_range_meters":4000,"station_id":"ce4bha12rcd13ifvqef0","pricing_plan_id":"free"},{"bike_id":"99f0f768-936d-438f-bfb4-bb3e57f3c013","system_id":"levelo_inurba_marseille","lat":43.28039,"lon":5.369297,"is_reserved":false,"is_disabled":false,"rental_uris":{"android":"levelo://app?vid=99f0f768-936d-438f-bfb4-bb3e57f3c013","ios":"levelo://app?vid=99f0f768-936d-438f-bfb4-bb3e57f3c013"},"vehicle_type_id":"4","last_reported":1706371632,"current_range_meters":1600,"station_id":"ce4bha12rcd13ifvqef0","pricing_plan_id":"free"},{"bike_id":"fb678a14-6da8-40eb-991a-695f7e337c0a","system_id":"levelo_inurba_marseille","lat":43.280382,"lon":5.369291,"is_reserved":false,"is_disabled":false,"rental_uris":{"android":"levelo://app?vid=fb678a14-6da8-40eb-991a-695f7e337c0a","ios":"levelo://app?vid=fb678a14-6da8-40eb-991a-695f7e337c0a"},"vehicle_type_id":"4","last_reported":1706371632,"current_range_meters":10400,"station_id":"ce4bha12rcd13ifvqef0","pricing_plan_id":"free"},{"bike_id":"9303710e-5522-4811-b75a-196593693af0","system_id":"levelo_inurba_marseille","lat":43.280382,"lon":5.369291,"is_reserved":false,"is_disabled":false,"rental_uris":{"android":"levelo://app?vid=9303710e-5522-4811-b75a-196593693af0","ios":"levelo://app?vid=9303710e-5522-4811-b75a-196593693af0"},"vehicle_type_id":"4","last_reported":1706371632,"current_range_meters":2400,"station_id":"ce4bha12rcd13ifvqef0","pricing_plan_id":"free"},{"bike_id":"07683d0c-1a46-4989-a9b5-5a0fdfbcc1df","system_id":"levelo_inurba_marseille","lat":43.281044,"lon":5.378308,"is_reserved":false,"is_disabled":false,"rental_uris":{"android":"levelo://app?vid=07683d0c-1a46-4989-a9b5-5a0fdfbcc1df","ios":"levelo://app?vid=07683d0c-1a46-4989-a9b5-5a0fdfbcc1df"},"vehicle_type_id":"4","last_reported":1706371632,"current_range_meters":27600,"station_id":"ce4bha12rcd13ifvqee0","pricing_plan_id":"free"},{"bike_id":"c311ea8c-5511-4c27-bfb7-8fd64310a88e","system_id":"levelo_inurba_marseille","lat":43.28007,"lon":5.36526,"is_reserved":false,"is_disabled":false,"rental_uris":{"android":"levelo://app?vid=c311ea8c-5511-4c27-bfb7-8fd64310a88e","ios":"levelo://app?vid=c311ea8c-5511-4c27-bfb7-8fd64310a88e"},"vehicle_type_id":"4","last_reported":1706371632,"current_range_meters":26000,"station_id":"","pricing_plan_id":"free"},{"bike_id":"825a8688-3800-4c86-a361-cac2cc67c4f3","system_id":"levelo_inurba_marseille","lat":43.281044,"lon":5.378308,"is_reserved":false,"is_disabled":false,"rental_uris":{"android":"levelo://app?vid=825a8688-3800-4c86-a361-cac2cc67c4f3","ios":"levelo://app?vid=825a8688-3800-4c86-a361-cac2cc67c4f3"},"vehicle_type_id":"4","last_reported":1706371632,"current_range_meters":16000,"station_id":"ce4bha12rcd13ifvqee0","pricing_plan_id":"free"},{"bike_id":"4e27b28c-9879-42ba-b152-c2b7e1af5315","system_id":"levelo_inurba_marseille","lat":43.29041,"lon":5.399634,"is_reserved":false,"is_disabled":false,"rental_uris":{"android":"levelo://app?vid=4e27b28c-9879-42ba-b152-c2b7e1af5315","ios":"levelo://app?vid=4e27b28c-9879-42ba-b152-c2b7e1af5315"},"vehicle_type_id":"4","last_reported":1706371632,"current_range_meters":10400,"station_id":"ce4bh392rcd13ifvqdm0","pricing_plan_id":"free"},{"bike_id":"02692ca7-72b7-466a-8973-8ad9e623becf","system_id":"levelo_inurba_marseille","lat":43.296263,"lon":5.40601,"is_reserved":false,"is_disabled":false,"rental_uris":{"android":"levelo://app?vid=02692ca7-72b7-466a-8973-8ad9e623becf","ios":"levelo://app?vid=02692ca7-72b7-466a-8973-8ad9e623becf"},"vehicle_type_id":"4","last_reported":1706371632,"current_range_meters":0,"station_id":"ce4bh0h2rcd13ifvqd60","pricing_plan_id":"free"},{"bike_id":"30188856-a45e-40ad-8f88-459e7a0e3d79","system_id":"levelo_inurba_marseille","lat":43.296263,"lon":5.40601,"is_reserved":false,"is_disabled":false,"rental_uris":{"android":"levelo://app?vid=30188856-a45e-40ad-8f88-459e7a0e3d79","ios":"levelo://app?vid=30188856-a45e-40ad-8f88-459e7a0e3d79"},"vehicle_type_id":"4","last_reported":1706371632,"current_range_meters":400,"station_id":"ce4bh0h2rcd13ifvqd60","pricing_plan_id":"free"},{"bike_id":"e85c009c-07d7-4bc5-8d3e-6f907a0c1f26","system_id":"levelo_inurba_marseille","lat":43.28447,"lon":5.39187,"is_reserved":false,"is_disabled":false,"rental_uris":{"android":"levelo://app?vid=e85c009c-07d7-4bc5-8d3e-6f907a0c1f26","ios":"levelo://app?vid=e85c009c-07d7-4bc5-8d3e-6f907a0c1f26"},"vehicle_type_id":"4","last_reported":1706371632,"current_range_meters":2400,"station_id":"ce4bhoh2rcd13ifvqh5g","pricing_plan_id":"free"},{"bike_id":"79d9d5cc-5403-4c5f-84fe-24b91c084e4c","system_id":"levelo_inurba_marseille","lat":43.285742,"lon":5.395004,"is_reserved":false,"is_disabled":false,"rental_uris":{"android":"levelo://app?vid=79d9d5cc-5403-4c5f-84fe-24b91c084e4c","ios":"levelo://app?vid=79d9d5cc-5403-4c5f-84fe-24b91c084e4c"},"vehicle_type_id":"4","last_reported":1706371632,"current_range_meters":13200,"station_id":"ce4bh292rcd13ifvqdg0","pricing_plan_id":"free"},{"bike_id":"7b2e6cc4-d84f-4dd1-98b9-fc9f8c3a9992","system_id":"levelo_inurba_marseille","lat":43.28284,"lon":5.39098,"is_reserved":false,"is_disabled":false,"rental_uris":{"android":"levelo://app?vid=7b2e6cc4-d84f-4dd1-98b9-fc9f8c3a9992","ios":"levelo://app?vid=7b2e6cc4-d84f-4dd1-98b9-fc9f8c3a9992"},"vehicle_type_id":"4","last_reported":1706371632,"current_range_meters":0,"station_id":"","pricing_plan_id":"free"},{"bike_id":"bea833ee-df22-48b5-b98a-b3e9f22ec019","system_id":"levelo_inurba_marseille","lat":43.279087,"lon":5.380114,"is_reserved":false,"is_disabled":false,"rental_uris":{"android":"levelo://app?vid=bea833ee-df22-48b5-b98a-b3e9f22ec019","ios":"levelo://app?vid=bea833ee-df22-48b5-b98a-b3e9f22ec019"},"vehicle_type_id":"4","last_reported":1706371632,"current_range_meters":8800,"station_id":"ce4bhf92rcd13ifvqf50","pricing_plan_id":"free"},{"bike_id":"48b2ba7f-e5af-4149-b75f-ceb4a8c1b8ec","system_id":"levelo_inurba_marseille","lat":43.279087,"lon":5.380114,"is_reserved":false,"is_disabled":false,"rental_uris":{"android":"levelo://app?vid=48b2ba7f-e5af-4149-b75f-ceb4a8c1b8ec","ios":"levelo://app?vid=48b2ba7f-e5af-4149-b75f-ceb4a8c1b8ec"},"vehicle_type_id":"4","last_reported":1706371632,"current_range_meters":24800,"station_id":"ce4bhf92rcd13ifvqf50","pricing_plan_id":"free"},{"bike_id":"09b6ee3e-51fd-4add-b1f5-fb3703f213ce","system_id":"levelo_inurba_marseille","lat":43.320045,"lon":5.415046,"is_reserved":false,"is_disabled":false,"rental_uris":{"android":"levelo://app?vid=09b6ee3e-51fd-4add-b1f5-fb3703f213ce","ios":"levelo://app?vid=09b6ee3e-51fd-4add-b1f5-fb3703f213ce"},"vehicle_type_id":"4","last_reported":1706371632,"current_range_meters":8000,"station_id":"ce4bhq92rcd13ifvqhkg","pricing_plan_id":"free"},{"bike_id":"f83a3a7e-1d78-42cc-a2d9-6a1634b4b2ae","system_id":"levelo_inurba_marseille","lat":43.320045,"lon":5.415046,"is_reserved":false,"is_disabled":false,"rental_uris":{"android":"levelo://app?vid=f83a3a7e-1d78-42cc-a2d9-6a1634b4b2ae","ios":"levelo://app?vid=f83a3a7e-1d78-42cc-a2d9-6a1634b4b2ae"},"vehicle_type_id":"4","last_reported":1706371632,"current_range_meters":31600,"station_id":"ce4bhq92rcd13ifvqhkg","pricing_plan_id":"free"},{"bike_id":"4977dd65-369e-417b-9c52-fe977a945b82","system_id":"levelo_inurba_marseille","lat":43.320045,"lon":5.415048,"is_reserved":false,"is_disabled":false,"rental_uris":{"android":"levelo://app?vid=4977dd65-369e-417b-9c52-fe977a945b82","ios":"levelo://app?vid=4977dd65-369e-417b-9c52-fe977a945b82"},"vehicle_type_id":"4","last_reported":1706371632,"current_range_meters":29600,"station_id":"ce4bhq92rcd13ifvqhkg","pricing_plan_id":"free"},{"bike_id":"fcf5ad55-9d29-48f4-b96b-b5827880831a","system_id":"levelo_inurba_marseille","lat":43.320451,"lon":5.415505,"is_reserved":false,"is_disabled":false,"rental_uris":{"android":"levelo://app?vid=fcf5ad55-9d29-48f4-b96b-b5827880831a","ios":"levelo://app?vid=fcf5ad55-9d29-48f4-b96b-b5827880831a"},"vehicle_type_id":"4","last_reported":1706371632,"current_range_meters":17200,"station_id":"ce4bhq92rcd13ifvqhkg","pricing_plan_id":"free"},{"bike_id":"410ad0b2-5708-4305-a395-1da6af6b782d","system_id":"levelo_inurba_marseille","lat":43.320045,"lon":5.415046,"is_reserved":false,"is_disabled":false,"rental_uris":{"android":"levelo://app?vid=410ad0b2-5708-4305-a395-1da6af6b782d","ios":"levelo://app?vid=410ad0b2-5708-4305-a395-1da6af6b782d"},"vehicle_type_id":"4","last_reported":1706371632,"current_range_meters":23200,"station_id":"ce4bhq92rcd13ifvqhkg","pricing_plan_id":"free"},{"bike_id":"d0e33b91-a1fc-4c6e-928a-1ff79b844f3e","system_id":"levelo_inurba_marseille","lat":43.320512,"lon":5.415848,"is_reserved":false,"is_disabled":false,"rental_uris":{"android":"levelo://app?vid=d0e33b91-a1fc-4c6e-928a-1ff79b844f3e","ios":"levelo://app?vid=d0e33b91-a1fc-4c6e-928a-1ff79b844f3e"},"vehicle_type_id":"4","last_reported":1706371632,"current_range_meters":28000,"station_id":"ce4bhq92rcd13ifvqhkg","pricing_plan_id":"free"},{"bike_id":"f32134a7-23ab-4bd2-9f18-8d28a84754d3","system_id":"levelo_inurba_marseille","lat":43.276179,"lon":5.361009,"is_reserved":false,"is_disabled":false,"rental_uris":{"android":"levelo://app?vid=f32134a7-23ab-4bd2-9f18-8d28a84754d3","ios":"levelo://app?vid=f32134a7-23ab-4bd2-9f18-8d28a84754d3"},"vehicle_type_id":"4","last_reported":1706371632,"current_range_meters":24400,"station_id":"ce4bgj92rcd13ifvqbe0","pricing_plan_id":"free"},{"bike_id":"239540cd-7c62-42a3-bb49-9dfa3eafc143","system_id":"levelo_inurba_marseille","lat":43.27618,"lon":5.361009,"is_reserved":false,"is_disabled":false,"rental_uris":{"android":"levelo://app?vid=239540cd-7c62-42a3-bb49-9dfa3eafc143","ios":"levelo://app?vid=239540cd-7c62-42a3-bb49-9dfa3eafc143"},"vehicle_type_id":"4","last_reported":1706371632,"current_range_meters":16800,"station_id":"ce4bgj92rcd13ifvqbe0","pricing_plan_id":"free"},{"bike_id":"95d1494b-79a8-4a75-944d-fb0d89dbcf6c","system_id":"levelo_inurba_marseille","lat":43.27618,"lon":5.361009,"is_reserved":false,"is_disabled":false,"rental_uris":{"android":"levelo://app?vid=95d1494b-79a8-4a75-944d-fb0d89dbcf6c","ios":"levelo://app?vid=95d1494b-79a8-4a75-944d-fb0d89dbcf6c"},"vehicle_type_id":"4","last_reported":1706371632,"current_range_meters":400,"station_id":"ce4bgj92rcd13ifvqbe0","pricing_plan_id":"free"},{"bike_id":"a47de7ae-2fef-4856-9b82-61e67a476fca","system_id":"levelo_inurba_marseille","lat":43.27618,"lon":5.361009,"is_reserved":false,"is_disabled":false,"rental_uris":{"android":"levelo://app?vid=a47de7ae-2fef-4856-9b82-61e67a476fca","ios":"levelo://app?vid=a47de7ae-2fef-4856-9b82-61e67a476fca"},"vehicle_type_id":"4","last_reported":1706371632,"current_range_meters":11600,"station_id":"ce4bgj92rcd13ifvqbe0","pricing_plan_id":"free"},{"bike_id":"411c0c3f-2d7d-4772-901e-fa5fdb322cd2","system_id":"levelo_inurba_marseille","lat":43.276179,"lon":5.361009,"is_reserved":false,"is_disabled":false,"rental_uris":{"android":"levelo://app?vid=411c0c3f-2d7d-4772-901e-fa5fdb322cd2","ios":"levelo://app?vid=411c0c3f-2d7d-4772-901e-fa5fdb322cd2"},"vehicle_type_id":"4","last_reported":1706371632,"current_range_meters":8000,"station_id":"ce4bgj92rcd13ifvqbe0","pricing_plan_id":"free"},{"bike_id":"c9c95dab-6810-4a87-b02a-a06f14da5599","system_id":"levelo_inurba_marseille","lat":43.27618,"lon":5.361009,"is_reserved":false,"is_disabled":false,"rental_uris":{"android":"levelo://app?vid=c9c95dab-6810-4a87-b02a-a06f14da5599","ios":"levelo://app?vid=c9c95dab-6810-4a87-b02a-a06f14da5599"},"vehicle_type_id":"4","last_reported":1706371632,"current_range_meters":19600,"station_id":"ce4bgj92rcd13ifvqbe0","pricing_plan_id":"free"},{"bike_id":"36aa6dc0-3360-4aa3-bede-9b3b0d2d6ed7","system_id":"levelo_inurba_marseille","lat":43.303837,"lon":5.418724,"is_reserved":false,"is_disabled":false,"rental_uris":{"android":"levelo://app?vid=36aa6dc0-3360-4aa3-bede-9b3b0d2d6ed7","ios":"levelo://app?vid=36aa6dc0-3360-4aa3-bede-9b3b0d2d6ed7"},"vehicle_type_id":"4","last_reported":1706371632,"current_range_meters":4400,"station_id":"ce4bhop2rcd13ifvqh7g","pricing_plan_id":"free"},{"bike_id":"bfb9e5a5-ec04-4f00-bd49-dbf99747adc5","system_id":"levelo_inurba_marseille","lat":43.278399,"lon":5.392139,"is_reserved":false,"is_disabled":false,"rental_uris":{"android":"levelo://app?vid=bfb9e5a5-ec04-4f00-bd49-dbf99747adc5","ios":"levelo://app?vid=bfb9e5a5-ec04-4f00-bd49-dbf99747adc5"},"vehicle_type_id":"4","last_reported":1706371632,"current_range_meters":14000,"station_id":"ce4bhjp2rcd13ifvqga0","pricing_plan_id":"free"},{"bike_id":"fecf969f-d050-4d3b-aa81-32e0fd7f0eb5","system_id":"levelo_inurba_marseille","lat":43.273613,"lon":5.362705,"is_reserved":false,"is_disabled":false,"rental_uris":{"android":"levelo://app?vid=fecf969f-d050-4d3b-aa81-32e0fd7f0eb5","ios":"levelo://app?vid=fecf969f-d050-4d3b-aa81-32e0fd7f0eb5"},"vehicle_type_id":"4","last_reported":1706371632,"current_range_meters":5600,"station_id":"ce4bhbh2rcd13ifvqeo0","pricing_plan_id":"free"},{"bike_id":"d3ed1802-3642-4645-8a08-1420a357a1a1","system_id":"levelo_inurba_marseille","lat":43.336057,"lon":5.41017,"is_reserved":false,"is_disabled":false,"rental_uris":{"android":"levelo://app?vid=d3ed1802-3642-4645-8a08-1420a357a1a1","ios":"levelo://app?vid=d3ed1802-3642-4645-8a08-1420a357a1a1"},"vehicle_type_id":"4","last_reported":1706371632,"current_range_meters":0,"station_id":"ce4bhqh2rcd13ifvqhmg","pricing_plan_id":"free"},{"bike_id":"0126c5c0-c955-42fe-9493-e8bd5ecc0047","system_id":"levelo_inurba_marseille","lat":43.273609,"lon":5.362708,"is_reserved":false,"is_disabled":false,"rental_uris":{"android":"levelo://app?vid=0126c5c0-c955-42fe-9493-e8bd5ecc0047","ios":"levelo://app?vid=0126c5c0-c955-42fe-9493-e8bd5ecc0047"},"vehicle_type_id":"4","last_reported":1706371632,"current_range_meters":2000,"station_id":"ce4bhbh2rcd13ifvqeo0","pricing_plan_id":"free"},{"bike_id":"77b4913a-5d61-483d-91ea-1e230a236d5a","system_id":"levelo_inurba_marseille","lat":43.273613,"lon":5.362705,"is_reserved":false,"is_disabled":false,"rental_uris":{"android":"levelo://app?vid=77b4913a-5d61-483d-91ea-1e230a236d5a","ios":"levelo://app?vid=77b4913a-5d61-483d-91ea-1e230a236d5a"},"vehicle_type_id":"4","last_reported":1706371632,"current_range_meters":0,"station_id":"ce4bhbh2rcd13ifvqeo0","pricing_plan_id":"free"},{"bike_id":"11ea6f74-54f0-4257-917e-d94d1d958a16","system_id":"levelo_inurba_marseille","lat":43.275625,"lon":5.384392,"is_reserved":false,"is_disabled":false,"rental_uris":{"android":"levelo://app?vid=11ea6f74-54f0-4257-917e-d94d1d958a16","ios":"levelo://app?vid=11ea6f74-54f0-4257-917e-d94d1d958a16"},"vehicle_type_id":"4","last_reported":1706371632,"current_range_meters":10000,"station_id":"ce4bhh92rcd13ifvqfi0","pricing_plan_id":"free"},{"bike_id":"586742c5-31b8-4324-a2f1-69d5676d9018","system_id":"levelo_inurba_marseille","lat":43.275625,"lon":5.384392,"is_reserved":false,"is_disabled":false,"rental_uris":{"android":"levelo://app?vid=586742c5-31b8-4324-a2f1-69d5676d9018","ios":"levelo://app?vid=586742c5-31b8-4324-a2f1-69d5676d9018"},"vehicle_type_id":"4","last_reported":1706371632,"current_range_meters":10800,"station_id":"ce4bhh92rcd13ifvqfi0","pricing_plan_id":"free"},{"bike_id":"47e1d2c3-0629-436f-bb41-44554e63c6da","system_id":"levelo_inurba_marseille","lat":43.336134,"lon":5.410341,"is_reserved":false,"is_disabled":false,"rental_uris":{"android":"levelo://app?vid=47e1d2c3-0629-436f-bb41-44554e63c6da","ios":"levelo://app?vid=47e1d2c3-0629-436f-bb41-44554e63c6da"},"vehicle_type_id":"4","last_reported":1706371632,"current_range_meters":22000,"station_id":"ce4bhqh2rcd13ifvqhmg","pricing_plan_id":"free"},{"bike_id":"4e8fb507-5b3b-49f4-9f75-234c3edc917e","system_id":"levelo_inurba_marseille","lat":43.280034,"lon":5.40013,"is_reserved":false,"is_disabled":false,"rental_uris":{"android":"levelo://app?vid=4e8fb507-5b3b-49f4-9f75-234c3edc917e","ios":"levelo://app?vid=4e8fb507-5b3b-49f4-9f75-234c3edc917e"},"vehicle_type_id":"4","last_reported":1706371632,"current_range_meters":11200,"station_id":"ce4bho92rcd13ifvqh4g","pricing_plan_id":"free"},{"bike_id":"6f46a34b-d5d1-4592-8607-98eec5146735","system_id":"levelo_inurba_marseille","lat":43.283703,"lon":5.40711,"is_reserved":false,"is_disabled":false,"rental_uris":{"android":"levelo://app?vid=6f46a34b-d5d1-4592-8607-98eec5146735","ios":"levelo://app?vid=6f46a34b-d5d1-4592-8607-98eec5146735"},"vehicle_type_id":"4","last_reported":1706371632,"current_range_meters":6400,"station_id":"","pricing_plan_id":"free"},{"bike_id":"b405bd32-ee50-44b9-a138-d42531903ea8","system_id":"levelo_inurba_marseille","lat":43.317121,"lon":5.423936,"is_reserved":false,"is_disabled":false,"rental_uris":{"android":"levelo://app?vid=b405bd32-ee50-44b9-a138-d42531903ea8","ios":"levelo://app?vid=b405bd32-ee50-44b9-a138-d42531903ea8"},"vehicle_type_id":"4","last_reported":1706371632,"current_range_meters":25600,"station_id":"ce4bhp92rcd13ifvqhbg","pricing_plan_id":"free"},{"bike_id":"76a1444e-7429-4c72-9ae5-313749a04157","system_id":"levelo_inurba_marseille","lat":43.31089,"lon":5.42432,"is_reserved":false,"is_disabled":false,"rental_uris":{"android":"levelo://app?vid=76a1444e-7429-4c72-9ae5-313749a04157","ios":"levelo://app?vid=76a1444e-7429-4c72-9ae5-313749a04157"},"vehicle_type_id":"4","last_reported":1706371632,"current_range_meters":18000,"station_id":"ce4bhp92rcd13ifvqhag","pricing_plan_id":"free"},{"bike_id":"ee875769-e8b7-4caa-b3b8-2dad519b3fb1","system_id":"levelo_inurba_marseille","lat":43.310785,"lon":5.424305,"is_reserved":false,"is_disabled":false,"rental_uris":{"android":"levelo://app?vid=ee875769-e8b7-4caa-b3b8-2dad519b3fb1","ios":"levelo://app?vid=ee875769-e8b7-4caa-b3b8-2dad519b3fb1"},"vehicle_type_id":"4","last_reported":1706371632,"current_range_meters":10800,"station_id":"ce4bhp92rcd13ifvqhag","pricing_plan_id":"free"},{"bike_id":"b8c3fe23-c8f7-44c7-bf83-cdff259156cc","system_id":"levelo_inurba_marseille","lat":43.275625,"lon":5.384392,"is_reserved":false,"is_disabled":false,"rental_uris":{"android":"levelo://app?vid=b8c3fe23-c8f7-44c7-bf83-cdff259156cc","ios":"levelo://app?vid=b8c3fe23-c8f7-44c7-bf83-cdff259156cc"},"vehicle_type_id":"4","last_reported":1706371632,"current_range_meters":5200,"station_id":"ce4bhh92rcd13ifvqfi0","pricing_plan_id":"free"},{"bike_id":"e6523b6f-3652-4b06-ab5c-4f8ef4b34bfb","system_id":"levelo_inurba_marseille","lat":43.274103,"lon":5.394016,"is_reserved":false,"is_disabled":false,"rental_uris":{"android":"levelo://app?vid=e6523b6f-3652-4b06-ab5c-4f8ef4b34bfb","ios":"levelo://app?vid=e6523b6f-3652-4b06-ab5c-4f8ef4b34bfb"},"vehicle_type_id":"4","last_reported":1706371632,"current_range_meters":11600,"station_id":"ce4bhdp2rcd13ifvqf20","pricing_plan_id":"free"},{"bike_id":"428e9ebb-4c6c-4926-9333-a63455688530","system_id":"levelo_inurba_marseille","lat":43.295523,"lon":5.422926,"is_reserved":false,"is_disabled":false,"rental_uris":{"android":"levelo://app?vid=428e9ebb-4c6c-4926-9333-a63455688530","ios":"levelo://app?vid=428e9ebb-4c6c-4926-9333-a63455688530"},"vehicle_type_id":"4","last_reported":1706371632,"current_range_meters":800,"station_id":"ce4bhph2rcd13ifvqhdg","pricing_plan_id":"free"},{"bike_id":"6666f0d6-84fe-4029-b53c-8f911fde6ae1","system_id":"levelo_inurba_marseille","lat":43.29556,"lon":5.42284,"is_reserved":false,"is_disabled":false,"rental_uris":{"android":"levelo://app?vid=6666f0d6-84fe-4029-b53c-8f911fde6ae1","ios":"levelo://app?vid=6666f0d6-84fe-4029-b53c-8f911fde6ae1"},"vehicle_type_id":"4","last_reported":1706371632,"current_range_meters":6800,"station_id":"ce4bhph2rcd13ifvqhdg","pricing_plan_id":"free"},{"bike_id":"1e8a4928-2087-4f36-a906-ef996ea4d5ed","system_id":"levelo_inurba_marseille","lat":43.295523,"lon":5.422926,"is_reserved":false,"is_disabled":false,"rental_uris":{"android":"levelo://app?vid=1e8a4928-2087-4f36-a906-ef996ea4d5ed","ios":"levelo://app?vid=1e8a4928-2087-4f36-a906-ef996ea4d5ed"},"vehicle_type_id":"4","last_reported":1706371632,"current_range_meters":31200,"station_id":"ce4bhph2rcd13ifvqhdg","pricing_plan_id":"free"},{"bike_id":"b14eccbe-4a04-4adc-9837-27b973fdae43","system_id":"levelo_inurba_marseille","lat":43.29554,"lon":5.42284,"is_reserved":false,"is_disabled":false,"rental_uris":{"android":"levelo://app?vid=b14eccbe-4a04-4adc-9837-27b973fdae43","ios":"levelo://app?vid=b14eccbe-4a04-4adc-9837-27b973fdae43"},"vehicle_type_id":"4","last_reported":1706371632,"current_range_meters":6000,"station_id":"ce4bhph2rcd13ifvqhdg","pricing_plan_id":"free"},{"bike_id":"5b8abb81-a8e3-4bf5-9691-1cf67236940c","system_id":"levelo_inurba_marseille","lat":43.295523,"lon":5.422926,"is_reserved":false,"is_disabled":false,"rental_uris":{"android":"levelo://app?vid=5b8abb81-a8e3-4bf5-9691-1cf67236940c","ios":"levelo://app?vid=5b8abb81-a8e3-4bf5-9691-1cf67236940c"},"vehicle_type_id":"4","last_reported":1706371632,"current_range_meters":27200,"station_id":"ce4bhph2rcd13ifvqhdg","pricing_plan_id":"free"},{"bike_id":"79aba3fd-e7b6-41fe-974b-a11d6cc1ed17","system_id":"levelo_inurba_marseille","lat":43.29521,"lon":5.42268,"is_reserved":false,"is_disabled":false,"rental_uris":{"android":"levelo://app?vid=79aba3fd-e7b6-41fe-974b-a11d6cc1ed17","ios":"levelo://app?vid=79aba3fd-e7b6-41fe-974b-a11d6cc1ed17"},"vehicle_type_id":"4","last_reported":1706371632,"current_range_meters":21600,"station_id":"ce4bhph2rcd13ifvqhdg","pricing_plan_id":"free"},{"bike_id":"fabab4ad-2a67-4731-85f1-a2be16539793","system_id":"levelo_inurba_marseille","lat":43.295523,"lon":5.422926,"is_reserved":false,"is_disabled":false,"rental_uris":{"android":"levelo://app?vid=fabab4ad-2a67-4731-85f1-a2be16539793","ios":"levelo://app?vid=fabab4ad-2a67-4731-85f1-a2be16539793"},"vehicle_type_id":"4","last_reported":1706371632,"current_range_meters":28000,"station_id":"ce4bhph2rcd13ifvqhdg","pricing_plan_id":"free"},{"bike_id":"2acd6984-b76d-4d22-bc0e-645145b57d0e","system_id":"levelo_inurba_marseille","lat":43.295523,"lon":5.422926,"is_reserved":false,"is_disabled":false,"rental_uris":{"android":"levelo://app?vid=2acd6984-b76d-4d22-bc0e-645145b57d0e","ios":"levelo://app?vid=2acd6984-b76d-4d22-bc0e-645145b57d0e"},"vehicle_type_id":"4","last_reported":1706371632,"current_range_meters":19600,"station_id":"ce4bhph2rcd13ifvqhdg","pricing_plan_id":"free"},{"bike_id":"a7bf88be-1b59-4a19-93ab-f25512fea5e1","system_id":"levelo_inurba_marseille","lat":43.29556,"lon":5.42292,"is_reserved":false,"is_disabled":false,"rental_uris":{"android":"levelo://app?vid=a7bf88be-1b59-4a19-93ab-f25512fea5e1","ios":"levelo://app?vid=a7bf88be-1b59-4a19-93ab-f25512fea5e1"},"vehicle_type_id":"4","last_reported":1706371632,"current_range_meters":1600,"station_id":"ce4bhph2rcd13ifvqhdg","pricing_plan_id":"free"},{"bike_id":"18197367-0b27-4ae5-ae0e-7b5cdec2c880","system_id":"levelo_inurba_marseille","lat":43.29543,"lon":5.4229,"is_reserved":false,"is_disabled":false,"rental_uris":{"android":"levelo://app?vid=18197367-0b27-4ae5-ae0e-7b5cdec2c880","ios":"levelo://app?vid=18197367-0b27-4ae5-ae0e-7b5cdec2c880"},"vehicle_type_id":"4","last_reported":1706371632,"current_range_meters":4000,"station_id":"ce4bhph2rcd13ifvqhdg","pricing_plan_id":"free"},{"bike_id":"c4a3a465-473a-4339-9801-b2c3cd795ae5","system_id":"levelo_inurba_marseille","lat":43.272124,"lon":5.391768,"is_reserved":false,"is_disabled":false,"rental_uris":{"android":"levelo://app?vid=c4a3a465-473a-4339-9801-b2c3cd795ae5","ios":"levelo://app?vid=c4a3a465-473a-4339-9801-b2c3cd795ae5"},"vehicle_type_id":"4","last_reported":1706371632,"current_range_meters":7200,"station_id":"ce4bhhp2rcd13ifvqfm0","pricing_plan_id":"free"},{"bike_id":"ce8546be-7ea0-4f38-904b-567ba5b62295","system_id":"levelo_inurba_marseille","lat":43.272124,"lon":5.391768,"is_reserved":false,"is_disabled":false,"rental_uris":{"android":"levelo://app?vid=ce8546be-7ea0-4f38-904b-567ba5b62295","ios":"levelo://app?vid=ce8546be-7ea0-4f38-904b-567ba5b62295"},"vehicle_type_id":"4","last_reported":1706371632,"current_range_meters":0,"station_id":"ce4bhhp2rcd13ifvqfm0","pricing_plan_id":"free"},{"bike_id":"93f50f2f-6f0f-4403-9e81-74538b6ef3c3","system_id":"levelo_inurba_marseille","lat":43.272118,"lon":5.391758,"is_reserved":false,"is_disabled":false,"rental_uris":{"android":"levelo://app?vid=93f50f2f-6f0f-4403-9e81-74538b6ef3c3","ios":"levelo://app?vid=93f50f2f-6f0f-4403-9e81-74538b6ef3c3"},"vehicle_type_id":"4","last_reported":1706371632,"current_range_meters":1600,"station_id":"ce4bhhp2rcd13ifvqfm0","pricing_plan_id":"free"},{"bike_id":"321cf2bf-9b3b-4b5b-a7f2-738da660f7a4","system_id":"levelo_inurba_marseille","lat":43.269467,"lon":5.386439,"is_reserved":false,"is_disabled":false,"rental_uris":{"android":"levelo://app?vid=321cf2bf-9b3b-4b5b-a7f2-738da660f7a4","ios":"levelo://app?vid=321cf2bf-9b3b-4b5b-a7f2-738da660f7a4"},"vehicle_type_id":"4","last_reported":1706371632,"current_range_meters":18800,"station_id":"ce4bhh92rcd13ifvqfh0","pricing_plan_id":"free"},{"bike_id":"d041e9f9-acec-4e6a-9269-b64be6be4c9b","system_id":"levelo_inurba_marseille","lat":43.269467,"lon":5.386439,"is_reserved":false,"is_disabled":false,"rental_uris":{"android":"levelo://app?vid=d041e9f9-acec-4e6a-9269-b64be6be4c9b","ios":"levelo://app?vid=d041e9f9-acec-4e6a-9269-b64be6be4c9b"},"vehicle_type_id":"4","last_reported":1706371632,"current_range_meters":21200,"station_id":"ce4bhh92rcd13ifvqfh0","pricing_plan_id":"free"},{"bike_id":"98c6896a-f7f7-4763-8b2e-fdfa67908b1f","system_id":"levelo_inurba_marseille","lat":43.269319,"lon":5.389397,"is_reserved":false,"is_disabled":false,"rental_uris":{"android":"levelo://app?vid=98c6896a-f7f7-4763-8b2e-fdfa67908b1f","ios":"levelo://app?vid=98c6896a-f7f7-4763-8b2e-fdfa67908b1f"},"vehicle_type_id":"4","last_reported":1706371632,"current_range_meters":0,"station_id":"ce4bhhh2rcd13ifvqfl0","pricing_plan_id":"free"},{"bike_id":"6ca1b4e0-b769-491a-9b00-99203c806b4b","system_id":"levelo_inurba_marseille","lat":43.269319,"lon":5.389397,"is_reserved":false,"is_disabled":false,"rental_uris":{"android":"levelo://app?vid=6ca1b4e0-b769-491a-9b00-99203c806b4b","ios":"levelo://app?vid=6ca1b4e0-b769-491a-9b00-99203c806b4b"},"vehicle_type_id":"4","last_reported":1706371632,"current_range_meters":10000,"station_id":"ce4bhhh2rcd13ifvqfl0","pricing_plan_id":"free"},{"bike_id":"0a54a9ff-96e6-45f6-8107-f6c5889b2c47","system_id":"levelo_inurba_marseille","lat":43.26681,"lon":5.382694,"is_reserved":false,"is_disabled":false,"rental_uris":{"android":"levelo://app?vid=0a54a9ff-96e6-45f6-8107-f6c5889b2c47","ios":"levelo://app?vid=0a54a9ff-96e6-45f6-8107-f6c5889b2c47"},"vehicle_type_id":"4","last_reported":1706371632,"current_range_meters":23600,"station_id":"ce4bhg92rcd13ifvqf90","pricing_plan_id":"free"},{"bike_id":"7166b8fb-fcc4-48a4-858c-582a2bf93780","system_id":"levelo_inurba_marseille","lat":43.26681,"lon":5.382694,"is_reserved":false,"is_disabled":false,"rental_uris":{"android":"levelo://app?vid=7166b8fb-fcc4-48a4-858c-582a2bf93780","ios":"levelo://app?vid=7166b8fb-fcc4-48a4-858c-582a2bf93780"},"vehicle_type_id":"4","last_reported":1706371632,"current_range_meters":3600,"station_id":"ce4bhg92rcd13ifvqf90","pricing_plan_id":"free"},{"bike_id":"e673c698-cc8c-443a-bc31-f5b1982d40bf","system_id":"levelo_inurba_marseille","lat":43.26681,"lon":5.382694,"is_reserved":false,"is_disabled":false,"rental_uris":{"android":"levelo://app?vid=e673c698-cc8c-443a-bc31-f5b1982d40bf","ios":"levelo://app?vid=e673c698-cc8c-443a-bc31-f5b1982d40bf"},"vehicle_type_id":"4","last_reported":1706371632,"current_range_meters":18800,"station_id":"ce4bhg92rcd13ifvqf90","pricing_plan_id":"free"},{"bike_id":"edec81a6-8545-417c-94d3-cbf637455d56","system_id":"levelo_inurba_marseille","lat":43.26675,"lon":5.38262,"is_reserved":false,"is_disabled":false,"rental_uris":{"android":"levelo://app?vid=edec81a6-8545-417c-94d3-cbf637455d56","ios":"levelo://app?vid=edec81a6-8545-417c-94d3-cbf637455d56"},"vehicle_type_id":"4","last_reported":1706371632,"current_range_meters":3200,"station_id":"","pricing_plan_id":"free"},{"bike_id":"f8c657a5-2994-4aa2-b0f7-2de34349734d","system_id":"levelo_inurba_marseille","lat":43.27998,"lon":5.41662,"is_reserved":false,"is_disabled":false,"rental_uris":{"android":"levelo://app?vid=f8c657a5-2994-4aa2-b0f7-2de34349734d","ios":"levelo://app?vid=f8c657a5-2994-4aa2-b0f7-2de34349734d"},"vehicle_type_id":"4","last_reported":1706371632,"current_range_meters":29200,"station_id":"ce4bho12rcd13ifvqh1g","pricing_plan_id":"free"},{"bike_id":"194ba551-6320-4e4f-aeee-b4a0a08a4015","system_id":"levelo_inurba_marseille","lat":43.27987,"lon":5.41663,"is_reserved":false,"is_disabled":false,"rental_uris":{"android":"levelo://app?vid=194ba551-6320-4e4f-aeee-b4a0a08a4015","ios":"levelo://app?vid=194ba551-6320-4e4f-aeee-b4a0a08a4015"},"vehicle_type_id":"4","last_reported":1706371632,"current_range_meters":24800,"station_id":"ce4bho12rcd13ifvqh1g","pricing_plan_id":"free"},{"bike_id":"330c5234-d582-417a-9b2e-1e5e5669724c","system_id":"levelo_inurba_marseille","lat":43.26788,"lon":5.39417,"is_reserved":false,"is_disabled":false,"rental_uris":{"android":"levelo://app?vid=330c5234-d582-417a-9b2e-1e5e5669724c","ios":"levelo://app?vid=330c5234-d582-417a-9b2e-1e5e5669724c"},"vehicle_type_id":"4","last_reported":1706371632,"current_range_meters":2400,"station_id":"ce4bhh12rcd13ifvqfg0","pricing_plan_id":"free"},{"bike_id":"0c589ef9-7ee4-4ea8-bc65-d4f891cd51b2","system_id":"levelo_inurba_marseille","lat":43.267865,"lon":5.394135,"is_reserved":false,"is_disabled":false,"rental_uris":{"android":"levelo://app?vid=0c589ef9-7ee4-4ea8-bc65-d4f891cd51b2","ios":"levelo://app?vid=0c589ef9-7ee4-4ea8-bc65-d4f891cd51b2"},"vehicle_type_id":"4","last_reported":1706371632,"current_range_meters":15600,"station_id":"ce4bhh12rcd13ifvqfg0","pricing_plan_id":"free"},{"bike_id":"6d5d81b2-9825-456a-a6e0-98c7ca2e1457","system_id":"levelo_inurba_marseille","lat":43.267966,"lon":5.393976,"is_reserved":false,"is_disabled":false,"rental_uris":{"android":"levelo://app?vid=6d5d81b2-9825-456a-a6e0-98c7ca2e1457","ios":"levelo://app?vid=6d5d81b2-9825-456a-a6e0-98c7ca2e1457"},"vehicle_type_id":"4","last_reported":1706371632,"current_range_meters":5200,"station_id":"ce4bhh12rcd13ifvqfg0","pricing_plan_id":"free"},{"bike_id":"e515107f-d284-4a36-a195-f165f6207fc2","system_id":"levelo_inurba_marseille","lat":43.308051,"lon":5.43527,"is_reserved":false,"is_disabled":false,"rental_uris":{"android":"levelo://app?vid=e515107f-d284-4a36-a195-f165f6207fc2","ios":"levelo://app?vid=e515107f-d284-4a36-a195-f165f6207fc2"},"vehicle_type_id":"4","last_reported":1706371632,"current_range_meters":22800,"station_id":"ce4bhph2rcd13ifvqheg","pricing_plan_id":"free"},{"bike_id":"6e523f1e-25fe-40c0-b225-17fdae5aabf3","system_id":"levelo_inurba_marseille","lat":43.265571,"lon":5.390032,"is_reserved":false,"is_disabled":false,"rental_uris":{"android":"levelo://app?vid=6e523f1e-25fe-40c0-b225-17fdae5aabf3","ios":"levelo://app?vid=6e523f1e-25fe-40c0-b225-17fdae5aabf3"},"vehicle_type_id":"4","last_reported":1706371632,"current_range_meters":0,"station_id":"ce4bhe12rcd13ifvqf30","pricing_plan_id":"free"},{"bike_id":"c08c4e4c-bebc-441d-86ad-038b11f003d7","system_id":"levelo_inurba_marseille","lat":43.265569,"lon":5.390047,"is_reserved":false,"is_disabled":false,"rental_uris":{"android":"levelo://app?vid=c08c4e4c-bebc-441d-86ad-038b11f003d7","ios":"levelo://app?vid=c08c4e4c-bebc-441d-86ad-038b11f003d7"},"vehicle_type_id":"4","last_reported":1706371632,"current_range_meters":23200,"station_id":"ce4bhe12rcd13ifvqf30","pricing_plan_id":"free"},{"bike_id":"bfb51e01-a02c-4e15-a67e-b59508a7dcc8","system_id":"levelo_inurba_marseille","lat":43.265569,"lon":5.390047,"is_reserved":false,"is_disabled":false,"rental_uris":{"android":"levelo://app?vid=bfb51e01-a02c-4e15-a67e-b59508a7dcc8","ios":"levelo://app?vid=bfb51e01-a02c-4e15-a67e-b59508a7dcc8"},"vehicle_type_id":"4","last_reported":1706371632,"current_range_meters":7200,"station_id":"ce4bhe12rcd13ifvqf30","pricing_plan_id":"free"},{"bike_id":"e9cd6078-623f-40df-8342-62d187803eb2","system_id":"levelo_inurba_marseille","lat":43.261782,"lon":5.374515,"is_reserved":false,"is_disabled":false,"rental_uris":{"android":"levelo://app?vid=e9cd6078-623f-40df-8342-62d187803eb2","ios":"levelo://app?vid=e9cd6078-623f-40df-8342-62d187803eb2"},"vehicle_type_id":"4","last_reported":1706371632,"current_range_meters":11200,"station_id":"ce4bhgp2rcd13ifvqfc0","pricing_plan_id":"free"},