{"last_updated":1739124643,"ttl":60,"version":"2.2","data":{"bikes":[{"bike_id":"e5b37ce9-fb7a-4f7f-ab4f-03eea98d5a6a","system_id":"levelo_inurba_marseille","lat":43.29851,"lon":5.36284,"is_reserved":false,"is_disabled":false,"rental_uris":{"android":"levelo://app?vid=e5b37ce9-fb7a-4f7f-ab4f-03eea98d5a6a","ios":"levelo://app?vid=e5b37ce9-fb7a-4f7f-ab4f-03eea98d5a6a"},"vehicle_type_id":"4","last_reported":1739124643,"current_range_meters":34000,"station_id":"ce4bgpp2rcd13ifvqc3g","pricing_plan_id":"cebpf4jnsgd1na2vs0mg"},{"bike_id":"117e9334-c7f8-48ae-b6e7-52b7a1edc087","system_id":"levelo_inurba_marseille","lat":43.26557,"lon":5.37284,"is_reserved":false,"is_disabled":true,"rental_uris":{"android":"levelo://app?vid=117e9334-c7f8-48ae-b6e7-52b7a1edc087","ios":"levelo://app?vid=117e9334-c7f8-48ae-b6e7-52b7a1edc087"},"vehicle_type_id":"4","last_reported":1739124643,"current_range_meters":0,"station_id":"ce4bhg12rcd13ifvqf70","pricing_plan_id":"cebpf4jnsgd1na2vs0mg"},{"bike_id":"08501e7f-afe1-46d3-a9a4-b46d823e49fa","system_id":"levelo_inurba_marseille","lat":43.28696,"lon":5.37387,"is_reserved":false,"is_disabled":false,"rental_uris":{"android":"levelo://app?vid=08501e7f-afe1-46d3-a9a4-b46d823e49fa","ios":"levelo://app?vid=08501e7f-afe1-46d3-a9a4-b46d823e49fa"},"vehicle_type_id":"4","last_reported":1739124643,"current_range_meters":26000,"station_id":"ce4bh3p2rcd13ifvqdq0","pricing_plan_id":"cebpf4jnsgd1na2vs0mg"},{"bike_id":"5ac602bc-020b-438d-96ee-73df276101d2","system_id":"levelo_inurba_marseille","lat":43.30533,"lon":5.38423,"is_reserved":false,"is_disabled":false,"rental_uris":{"android":"levelo://app?vid=5ac602bc-020b-438d-96ee-73df276101d2","ios":"levelo://app?vid=5ac602bc-020b-438d-96ee-73df276101d2"},"vehicle_type_id":"4","last_reported":1739124643,"current_range_meters":19200,"station_id":"ce4bgg92rcd13ifvqb30","pricing_plan_id":"cebpf4jnsgd1na2vs0mg"},{"bike_id":"cfa7f1cc-5150-48ed-843c-f6960ddad1e1","system_id":"levelo_inurba_marseille","lat":43.26479,"lon":5.39554,"is_reserved":false,"is_disabled":true,"rental_uris":{"android":"levelo://app?vid=cfa7f1cc-5150-48ed-843c-f6960ddad1e1","ios":"levelo://app?vid=cfa7f1cc-5150-48ed-843c-f6960ddad1e1"},"vehicle_type_id":"4","last_reported":1739124643,"current_range_meters":8400,"station_id":"ce4bhi12rcd13ifvqfq0","pricing_plan_id":"cebpf4jnsgd1na2vs0mg"},{"bike_id":"943d8209-048e-421e-aa38-0e2000721ff4","system_id":"levelo_inurba_marseille","lat":43.30128,"lon":5.38783,"is_reserved":false,"is_disabled":false,"rental_uris":{"android":"levelo://app?vid=943d8209-048e-421e-aa38-0e2000721ff4","ios":"levelo://app?vid=943d8209-048e-421e-aa38-0e2000721ff4"},"vehicle_type_id":"4","last_reported":1739124643,"current_range_meters":38400,"station_id":"ce4bhoh2rcd13ifvqh6g","pricing_plan_id":"cebpf4jnsgd1na2vs0mg"},{"bike_id":"e06bad01-5d50-47d2-96c7-a75ef9dc120d","system_id":"levelo_inurba_marseille","lat":43.33786,"lon":5.37486,"is_reserved":false,"is_disabled":false,"rental_uris":{"android":"levelo://app?vid=e06bad01-5d50-47d2-96c7-a75ef9dc120d","ios":"levelo://app?vid=e06bad01-5d50-47d2-96c7-a75ef9dc120d"},"vehicle_type_id":"4","last_reported":1739124643,"current_range_meters":18800,"station_id":"","pricing_plan_id":"cebpf4jnsgd1na2vs0mg"},{"bike_id":"a7cfb898-c168-4772-adb6-d7ea991ef424","system_id":"levelo_inurba_marseille","lat":43.24389,"lon":5.37056,"is_reserved":false,"is_disabled":false,"rental_uris":{"android":"levelo://app?vid=a7cfb898-c168-4772-adb6-d7ea991ef424","ios":"levelo://app?vid=a7cfb898-c168-4772-adb6-d7ea991ef424"},"vehicle_type_id":"4","last_reported":1739124643,"current_range_meters":3200,"station_id":"ce4bhhh2rcd13ifvqfk0","pricing_plan_id":"cebpf4jnsgd1na2vs0mg"},{"bike_id":"acb26672-e5da-4020-b3f2-47214024593c","system_id":"levelo_inurba_marseille","lat":43.28474,"lon":5.38405,"is_reserved":false,"is_disabled":false,"rental_uris":{"android":"levelo://app?vid=acb26672-e5da-4020-b3f2-47214024593c","ios":"levelo://app?vid=acb26672-e5da-4020-b3f2-47214024593c"},"vehicle_type_id":"4","last_reported":1739124643,"current_range_meters":9600,"station_id":"ce4bh512rcd13ifvqe3g","pricing_plan_id":"cebpf4jnsgd1na2vs0mg"},{"bike_id":"87edcbec-3ace-44f0-bfe2-9f6b913a8da8","system_id":"levelo_inurba_marseille","lat":43.29521,"lon":5.39047,"is_reserved":false,"is_disabled":false,"rental_uris":{"android":"levelo://app?vid=87edcbec-3ace-44f0-bfe2-9f6b913a8da8","ios":"levelo://app?vid=87edcbec-3ace-44f0-bfe2-9f6b913a8da8"},"vehicle_type_id":"4","last_reported":1739124643,"current_range_meters":39200,"station_id":"ce4bh3p2rcd13ifvqdp0","pricing_plan_id":"cebpf4jnsgd1na2vs0mg"},{"bike_id":"b225a116-2b93-4007-b200-ac7139df231c","system_id":"levelo_inurba_marseille","lat":43.28474,"lon":5.35888,"is_reserved":false,"is_disabled":true,"rental_uris":{"android":"levelo://app?vid=b225a116-2b93-4007-b200-ac7139df231c","ios":"levelo://app?vid=b225a116-2b93-4007-b200-ac7139df231c"},"vehicle_type_id":"4","last_reported":1739124643,"current_range_meters":0,"station_id":"ce4bhah2rcd13ifvqei0","pricing_plan_id":"cebpf4jnsgd1na2vs0mg"},{"bike_id":"952ab6ee-c71f-431a-a116-28c771dc3a24","system_id":"levelo_inurba_marseille","lat":43.27939,"lon":5.4104,"is_reserved":false,"is_disabled":true,"rental_uris":{"android":"levelo://app?vid=952ab6ee-c71f-431a-a116-28c771dc3a24","ios":"levelo://app?vid=952ab6ee-c71f-431a-a116-28c771dc3a24"},"vehicle_type_id":"4","last_reported":1739124643,"current_range_meters":0,"station_id":"ce4bhnp2rcd13ifvqh0g","pricing_plan_id":"cebpf4jnsgd1na2vs0mg"},{"bike_id":"628060d6-9a4a-4661-b890-990e8eb209fa","system_id":"levelo_inurba_marseille","lat":43.29258,"lon":5.38448,"is_reserved":false,"is_disabled":false,"rental_uris":{"android":"levelo://app?vid=628060d6-9a4a-4661-b890-990e8eb209fa","ios":"levelo://app?vid=628060d6-9a4a-4661-b890-990e8eb209fa"},"vehicle_type_id":"4","last_reported":1739124643,"current_range_meters":39200,"station_id":"ce4bh692rcd13ifvqea0","pricing_plan_id":"cebpf4jnsgd1na2vs0mg"},{"bike_id":"25cd21ab-5bba-4a40-9c37-3d5e8d25d5a3","system_id":"levelo_inurba_marseille","lat":43.24803,"lon":5.37459,"is_reserved":false,"is_disabled":false,"rental_uris":{"android":"levelo://app?vid=25cd21ab-5bba-4a40-9c37-3d5e8d25d5a3","ios":"levelo://app?vid=25cd21ab-5bba-4a40-9c37-3d5e8d25d5a3"},"vehicle_type_id":"4","last_reported":1739124643,"current_range_meters":32000,"station_id":"ce4bhgh2rcd13ifvqfb0","pricing_plan_id":"cebpf4jnsgd1na2vs0mg"},{"bike_id":"2828de65-50e9-4bc5-a1c8-80d8c8b1c451","system_id":"levelo_inurba_marseille","lat":43.28453,"lon":5.35886,"is_reserved":false,"is_disabled":false,"rental_uris":{"android":"levelo://app?vid=2828de65-50e9-4bc5-a1c8-80d8c8b1c451","ios":"levelo://app?vid=2828de65-50e9-4bc5-a1c8-80d8c8b1c451"},"vehicle_type_id":"4","last_reported":1739124643,"current_range_meters":8000,"station_id":"ce4bhah2rcd13ifvqei0","pricing_plan_id":"cebpf4jnsgd1na2vs0mg"},{"bike_id":"1b516083-7142-4596-8591-4acfa89a635a","system_id":"levelo_inurba_marseille","lat":43.24669,"lon":5.38157,"is_reserved":false,"is_disabled":false,"rental_uris":{"android":"levelo://app?vid=1b516083-7142-4596-8591-4acfa89a635a","ios":"levelo://app?vid=1b516083-7142-4596-8591-4acfa89a635a"},"vehicle_type_id":"4","last_reported":1739124643,"current_range_meters":32000,"station_id":"ce4bhih2rcd13ifvqfr0","pricing_plan_id":"cebpf4jnsgd1na2vs0mg"},{"bike_id":"ad133f6a-2286-4493-a7cc-07a27efe882a","system_id":"levelo_inurba_marseille","lat":43.31684,"lon":5.40478,"is_reserved":false,"is_disabled":true,"rental_uris":{"android":"levelo://app?vid=ad133f6a-2286-4493-a7cc-07a27efe882a","ios":"levelo://app?vid=ad133f6a-2286-4493-a7cc-07a27efe882a"},"vehicle_type_id":"4","last_reported":1739124643,"current_range_meters":1200,"station_id":"ce4bh012rcd13ifvqd00","pricing_plan_id":"cebpf4jnsgd1na2vs0mg"},{"bike_id":"937b8c20-ae82-4448-9e77-8f7a7a92492a","system_id":"levelo_inurba_marseille","lat":43.31683,"lon":5.40473,"is_reserved":false,"is_disabled":true,"rental_uris":{"android":"levelo://app?vid=937b8c20-ae82-4448-9e77-8f7a7a92492a","ios":"levelo://app?vid=937b8c20-ae82-4448-9e77-8f7a7a92492a"},"vehicle_type_id":"4","last_reported":1739124643,"current_range_meters":0,"station_id":"ce4bh012rcd13ifvqd00","pricing_plan_id":"cebpf4jnsgd1na2vs0mg"},{"bike_id":"949ecb89-56e4-4c04-a100-83de2f0eaaf9","system_id":"levelo_inurba_marseille","lat":43.27807,"lon":5.40718,"is_reserved":false,"is_disabled":false,"rental_uris":{"android":"levelo://app?vid=949ecb89-56e4-4c04-a100-83de2f0eaaf9","ios":"levelo://app?vid=949ecb89-56e4-4c04-a100-83de2f0eaaf9"},"vehicle_type_id":"4","last_reported":1739124643,"current_range_meters":24000,"station_id":"ce4bhnh2rcd13ifvqgtg","pricing_plan_id":"cebpf4jnsgd1na2vs0mg"},{"bike_id":"eb195ab6-3bbe-4106-9460-2e502a80f530","system_id":"levelo_inurba_marseille","lat":43.29834,"lon":5.3811,"is_reserved":false,"is_disabled":false,"rental_uris":{"android":"levelo://app?vid=eb195ab6-3bbe-4106-9460-2e502a80f530","ios":"levelo://app?vid=eb195ab6-3bbe-4106-9460-2e502a80f530"},"vehicle_type_id":"4","last_reported":1739124643,"current_range_meters":24000,"station_id":"ce4bgip2rcd13ifvqbb0","pricing_plan_id":"cebpf4jnsgd1na2vs0mg"},{"bike_id":"f601bf7c-5f74-4563-a92a-d114947f6394","system_id":"levelo_inurba_marseille","lat":43.27217,"lon":5.39175,"is_reserved":false,"is_disabled":false,"rental_uris":{"android":"levelo://app?vid=f601bf7c-5f74-4563-a92a-d114947f6394","ios":"levelo://app?vid=f601bf7c-5f74-4563-a92a-d114947f6394"},"vehicle_type_id":"4","last_reported":1739124643,"current_range_meters":10000,"station_id":"ce4bhhp2rcd13ifvqfm0","pricing_plan_id":"cebpf4jnsgd1na2vs0mg"},{"bike_id":"f557d381-ea91-4e30-9afd-f13077e0bbe9","system_id":"levelo_inurba_marseille","lat":43.29003,"lon":5.35612,"is_reserved":false,"is_disabled":false,"rental_uris":{"android":"levelo://app?vid=f557d381-ea91-4e30-9afd-f13077e0bbe9","ios":"levelo://app?vid=f557d381-ea91-4e30-9afd-f13077e0bbe9"},"vehicle_type_id":"4","last_reported":1739124643,"current_range_meters":38800,"station_id":"ce4bhb92rcd13ifvqen0","pricing_plan_id":"cebpf4jnsgd1na2vs0mg"},{"bike_id":"aab763e9-75a7-4064-93a9-45b457e5e525","system_id":"levelo_inurba_marseille","lat":43.29531,"lon":5.38551,"is_reserved":false,"is_disabled":false,"rental_uris":{"android":"levelo://app?vid=aab763e9-75a7-4064-93a9-45b457e5e525","ios":"levelo://app?vid=aab763e9-75a7-4064-93a9-45b457e5e525"},"vehicle_type_id":"4","last_reported":1739124643,"current_range_meters":24000,"station_id":"ce4bgih2rcd13ifvqba0","pricing_plan_id":"cebpf4jnsgd1na2vs0mg"},{"bike_id":"736e9e15-ec3b-4ea5-84a4-fcc59671cbf2","system_id":"levelo_inurba_marseille","lat":43.29782,"lon":5.39343,"is_reserved":false,"is_disabled":false,"rental_uris":{"android":"levelo://app?vid=736e9e15-ec3b-4ea5-84a4-fcc59671cbf2","ios":"levelo://app?vid=736e9e15-ec3b-4ea5-84a4-fcc59671cbf2"},"vehicle_type_id":"4","last_reported":1739124643,"current_range_meters":19600,"station_id":"chh1huq6cuj3fo74tm60","pricing_plan_id":"cebpf4jnsgd1na2vs0mg"},{"bike_id":"cc5be222-f5b9-4564-8357-792e36ef3901","system_id":"levelo_inurba_marseille","lat":43.28039,"lon":5.36939,"is_reserved":false,"is_disabled":false,"rental_uris":{"android":"levelo://app?vid=cc5be222-f5b9-4564-8357-792e36ef3901","ios":"levelo://app?vid=cc5be222-f5b9-4564-8357-792e36ef3901"},"vehicle_type_id":"4","last_reported":1739124643,"current_range_meters":38800,"station_id":"ce4bha12rcd13ifvqef0","pricing_plan_id":"cebpf4jnsgd1na2vs0mg"},{"bike_id":"bf1166a6-6d02-4b59-a461-8ee8d9697ddf","system_id":"levelo_inurba_marseille","lat":43.23961,"lon":5.36638,"is_reserved":false,"is_disabled":false,"rental_uris":{"android":"levelo://app?vid=bf1166a6-6d02-4b59-a461-8ee8d9697ddf","ios":"levelo://app?vid=bf1166a6-6d02-4b59-a461-8ee8d9697ddf"},"vehicle_type_id":"4","last_reported":1739124643,"current_range_meters":38800,"station_id":"ce4bhi12rcd13ifvqfp0","pricing_plan_id":"cebpf4jnsgd1na2vs0mg"},{"bike_id":"a18990a8-dc58-41fb-8493-c3e0083eb5a0","system_id":"levelo_inurba_marseille","lat":43.26217,"lon":5.37446,"is_reserved":false,"is_disabled":false,"rental_uris":{"android":"levelo://app?vid=a18990a8-dc58-41fb-8493-c3e0083eb5a0","ios":"levelo://app?vid=a18990a8-dc58-41fb-8493-c3e0083eb5a0"},"vehicle_type_id":"4","last_reported":1739124643,"current_range_meters":25600,"station_id":"ce4bhgp2rcd13ifvqfc0","pricing_plan_id":"cebpf4jnsgd1na2vs0mg"},{"bike_id":"b41e5dba-64c8-4784-94c9-049bbcef3aec","system_id":"levelo_inurba_marseille","lat":43.29271,"lon":5.36846,"is_reserved":false,"is_disabled":true,"rental_uris":{"android":"levelo://app?vid=b41e5dba-64c8-4784-94c9-049bbcef3aec","ios":"levelo://app?vid=b41e5dba-64c8-4784-94c9-049bbcef3aec"},"vehicle_type_id":"4","last_reported":1739124643,"current_range_meters":0,"station_id":"ce4bhbp2rcd13ifvqesg","pricing_plan_id":"cebpf4jnsgd1na2vs0mg"},{"bike_id":"c7214087-f338-4aa0-87d4-4c782ee32a35","system_id":"levelo_inurba_marseille","lat":43.23953,"lon":5.36642,"is_reserved":false,"is_disabled":false,"rental_uris":{"android":"levelo://app?vid=c7214087-f338-4aa0-87d4-4c782ee32a35","ios":"levelo://app?vid=c7214087-f338-4aa0-87d4-4c782ee32a35"},"vehicle_type_id":"4","last_reported":1739124643,"current_range_meters":10800,"station_id":"ce4bhi12rcd13ifvqfp0","pricing_plan_id":"cebpf4jnsgd1na2vs0mg"},{"bike_id":"9232cd87-0823-43a9-b923-e060fb0c5759","system_id":"levelo_inurba_marseille","lat":43.295481,"lon":5.422957,"is_reserved":false,"is_disabled":false,"rental_uris":{"android":"levelo://app?vid=9232cd87-0823-43a9-b923-e060fb0c5759","ios":"levelo://app?vid=9232cd87-0823-43a9-b923-e060fb0c5759"},"vehicle_type_id":"4","last_reported":1739124643,"current_range_meters":36800,"station_id":"ce4bhph2rcd13ifvqhdg","pricing_plan_id":"cebpf4jnsgd1na2vs0mg"},{"bike_id":"9fc8715c-1f2d-42c5-9ab4-6c7456cd97de","system_id":"levelo_inurba_marseille","lat":43.26583,"lon":5.39284,"is_reserved":false,"is_disabled":false,"rental_uris":{"android":"levelo://app?vid=9fc8715c-1f2d-42c5-9ab4-6c7456cd97de","ios":"levelo://app?vid=9fc8715c-1f2d-42c5-9ab4-6c7456cd97de"},"vehicle_type_id":"4","last_reported":1739124643,"current_range_meters":9200,"station_id":"","pricing_plan_id":"cebpf4jnsgd1na2vs0mg"},{"bike_id":"65a7c23e-796e-448a-9c20-43066b092b67","system_id":"levelo_inurba_marseille","lat":43.23959,"lon":5.36638,"is_reserved":false,"is_disabled":false,"rental_uris":{"android":"levelo://app?vid=65a7c23e-796e-448a-9c20-43066b092b67","ios":"levelo://app?vid=65a7c23e-796e-448a-9c20-43066b092b67"},"vehicle_type_id":"4","last_reported":1739124643,"current_range_meters":28400,"station_id":"ce4bhi12rcd13ifvqfp0","pricing_plan_id":"cebpf4jnsgd1na2vs0mg"},{"bike_id":"55ba3a08-bea6-437b-ad0a-1c5cf017ba77","system_id":"levelo_inurba_marseille","lat":43.31163,"lon":5.38722,"is_reserved":false,"is_disabled":false,"rental_uris":{"android":"levelo://app?vid=55ba3a08-bea6-437b-ad0a-1c5cf017ba77","ios":"levelo://app?vid=55ba3a08-bea6-437b-ad0a-1c5cf017ba77"},"vehicle_type_id":"4","last_reported":1739124643,"current_range_meters":38800,"station_id":"ce4bgv12rcd13ifvqcp0","pricing_plan_id":"cebpf4jnsgd1na2vs0mg"},{"bike_id":"2a1c9d4e-b987-4101-9d91-0ba238bcf302","system_id":"levelo_inurba_marseille","lat":43.27215,"lon":5.39188,"is_reserved":false,"is_disabled":false,"rental_uris":{"android":"levelo://app?vid=2a1c9d4e-b987-4101-9d91-0ba238bcf302","ios":"levelo://app?vid=2a1c9d4e-b987-4101-9d91-0ba238bcf302"},"vehicle_type_id":"4","last_reported":1739124643,"current_range_meters":24800,"station_id":"ce4bhhp2rcd13ifvqfm0","pricing_plan_id":"cebpf4jnsgd1na2vs0mg"},{"bike_id":"daa783c3-6fe6-49f9-b6e8-a98c99d76460","system_id":"levelo_inurba_marseille","lat":43.29869,"lon":5.39735,"is_reserved":false,"is_disabled":false,"rental_uris":{"android":"levelo://app?vid=daa783c3-6fe6-49f9-b6e8-a98c99d76460","ios":"levelo://app?vid=daa783c3-6fe6-49f9-b6e8-a98c99d76460"},"vehicle_type_id":"4","last_reported":1739124643,"current_range_meters":11600,"station_id":"ce4bh0h2rcd13ifvqd50","pricing_plan_id":"cebpf4jnsgd1na2vs0mg"},{"bike_id":"2d6a2e4c-47bb-4bf8-8e22-1e9c987f8b16","system_id":"levelo_inurba_marseille","lat":43.23965,"lon":5.36633,"is_reserved":false,"is_disabled":false,"rental_uris":{"android":"levelo://app?vid=2d6a2e4c-47bb-4bf8-8e22-1e9c987f8b16","ios":"levelo://app?vid=2d6a2e4c-47bb-4bf8-8e22-1e9c987f8b16"},"vehicle_type_id":"4","last_reported":1739124643,"current_range_meters":7200,"station_id":"ce4bhi12rcd13ifvqfp0","pricing_plan_id":"cebpf4jnsgd1na2vs0mg"},{"bike_id":"1c74561b-a6f6-4c2e-bc62-f72ba306b05e","system_id":"levelo_inurba_marseille","lat":43.2844,"lon":5.39176,"is_reserved":false,"is_disabled":false,"rental_uris":{"android":"levelo://app?vid=1c74561b-a6f6-4c2e-bc62-f72ba306b05e","ios":"levelo://app?vid=1c74561b-a6f6-4c2e-bc62-f72ba306b05e"},"vehicle_type_id":"4","last_reported":1739124643,"current_range_meters":38800,"station_id":"ce4bhoh2rcd13ifvqh5g","pricing_plan_id":"cebpf4jnsgd1na2vs0mg"},{"bike_id":"cb68165f-b5e8-41a8-8609-186d1fb5f35c","system_id":"levelo_inurba_marseille","lat":43.29039,"lon":5.37563,"is_reserved":false,"is_disabled":false,"rental_uris":{"android":"levelo://app?vid=cb68165f-b5e8-41a8-8609-186d1fb5f35c","ios":"levelo://app?vid=cb68165f-b5e8-41a8-8609-186d1fb5f35c"},"vehicle_type_id":"4","last_reported":1739124643,"current_range_meters":32000,"station_id":"ce4bh692rcd13ifvqe90","pricing_plan_id":"cebpf4jnsgd1na2vs0mg"},{"bike_id":"a5082754-1051-4856-a2dc-58e06b82d8f5","system_id":"levelo_inurba_marseille","lat":43.313629,"lon":5.385011,"is_reserved":false,"is_disabled":false,"rental_uris":{"android":"levelo://app?vid=a5082754-1051-4856-a2dc-58e06b82d8f5","ios":"levelo://app?vid=a5082754-1051-4856-a2dc-58e06b82d8f5"},"vehicle_type_id":"4","last_reported":1739124643,"current_range_meters":34000,"station_id":"ce4bgt92rcd13ifvqcf0","pricing_plan_id":"cebpf4jnsgd1na2vs0mg"},{"bike_id":"c53aabef-2f2b-4451-8277-85a4bfc94fb8","system_id":"levelo_inurba_marseille","lat":43.28465,"lon":5.38415,"is_reserved":false,"is_disabled":false,"rental_uris":{"android":"levelo://app?vid=c53aabef-2f2b-4451-8277-85a4bfc94fb8","ios":"levelo://app?vid=c53aabef-2f2b-4451-8277-85a4bfc94fb8"},"vehicle_type_id":"4","last_reported":1739124643,"current_range_meters":29600,"station_id":"ce4bh512rcd13ifvqe3g","pricing_plan_id":"cebpf4jnsgd1na2vs0mg"},{"bike_id":"ecdc2c1c-a479-46bb-a6b7-dbc77a937bb6","system_id":"levelo_inurba_marseille","lat":43.29387,"lon":5.37845,"is_reserved":false,"is_disabled":false,"rental_uris":{"android":"levelo://app?vid=ecdc2c1c-a479-46bb-a6b7-dbc77a937bb6","ios":"levelo://app?vid=ecdc2c1c-a479-46bb-a6b7-dbc77a937bb6"},"vehicle_type_id":"4","last_reported":1739124643,"current_range_meters":37600,"station_id":"ce4bgjh2rcd13ifvqbf0","pricing_plan_id":"cebpf4jnsgd1na2vs0mg"},{"bike_id":"3ba26bce-5451-4186-8570-150535f6ec60","system_id":"levelo_inurba_marseille","lat":43.29185,"lon":5.358,"is_reserved":false,"is_disabled":true,"rental_uris":{"android":"levelo://app?vid=3ba26bce-5451-4186-8570-150535f6ec60","ios":"levelo://app?vid=3ba26bce-5451-4186-8570-150535f6ec60"},"vehicle_type_id":"4","last_reported":1739124643,"current_range_meters":39200,"station_id":"ce4bhb12rcd13ifvqel0","pricing_plan_id":"cebpf4jnsgd1na2vs0mg"},{"bike_id":"4a4bde4d-ebaf-497c-9433-602988098783","system_id":"levelo_inurba_marseille","lat":43.25077,"lon":5.39514,"is_reserved":false,"is_disabled":false,"rental_uris":{"android":"levelo://app?vid=4a4bde4d-ebaf-497c-9433-602988098783","ios":"levelo://app?vid=4a4bde4d-ebaf-497c-9433-602988098783"},"vehicle_type_id":"4","last_reported":1739124643,"current_range_meters":24800,"station_id":"ce4bhm12rcd13ifvqgkg","pricing_plan_id":"cebpf4jnsgd1na2vs0mg"},{"bike_id":"b6b4d61a-d36c-4100-8c0a-e3487f481f52","system_id":"levelo_inurba_marseille","lat":43.26554,"lon":5.37285,"is_reserved":false,"is_disabled":true,"rental_uris":{"android":"levelo://app?vid=b6b4d61a-d36c-4100-8c0a-e3487f481f52","ios":"levelo://app?vid=b6b4d61a-d36c-4100-8c0a-e3487f481f52"},"vehicle_type_id":"4","last_reported":1739124643,"current_range_meters":33600,"station_id":"ce4bhg12rcd13ifvqf70","pricing_plan_id":"cebpf4jnsgd1na2vs0mg"},{"bike_id":"cbaf70f6-6a39-4b18-8e74-7e8e028a22ea","system_id":"levelo_inurba_marseille","lat":43.25862,"lon":5.39899,"is_reserved":false,"is_disabled":false,"rental_uris":{"android":"levelo://app?vid=cbaf70f6-6a39-4b18-8e74-7e8e028a22ea","ios":"levelo://app?vid=cbaf70f6-6a39-4b18-8e74-7e8e028a22ea"},"vehicle_type_id":"4","last_reported":1739124643,"current_range_meters":34000,"station_id":"ce4bhl92rcd13ifvqghg","pricing_plan_id":"cebpf4jnsgd1na2vs0mg"},{"bike_id":"eeada6f9-bc17-47bf-a657-75c63cc565ad","system_id":"levelo_inurba_marseille","lat":43.29,"lon":5.35618,"is_reserved":false,"is_disabled":true,"rental_uris":{"android":"levelo://app?vid=eeada6f9-bc17-47bf-a657-75c63cc565ad","ios":"levelo://app?vid=eeada6f9-bc17-47bf-a657-75c63cc565ad"},"vehicle_type_id":"4","last_reported":1739124643,"current_range_meters":38000,"station_id":"ce4bhb92rcd13ifvqen0","pricing_plan_id":"cebpf4jnsgd1na2vs0mg"},{"bike_id":"e7e7f2cf-8b83-4ec2-bb16-151ce031c8b3","system_id":"levelo_inurba_marseille","lat":43.33024,"lon":5.39042,"is_reserved":false,"is_disabled":false,"rental_uris":{"android":"levelo://app?vid=e7e7f2cf-8b83-4ec2-bb16-151ce031c8b3","ios":"levelo://app?vid=e7e7f2cf-8b83-4ec2-bb16-151ce031c8b3"},"vehicle_type_id":"4","last_reported":1739124643,"current_range_meters":30000,"station_id":"ce4bhr92rcd13ifvqhrg","pricing_plan_id":"cebpf4jnsgd1na2vs0mg"},{"bike_id":"2ebd233c-fd15-4f13-9700-c155c053523f","system_id":"levelo_inurba_marseille","lat":43.25922,"lon":5.40917,"is_reserved":false,"is_disabled":true,"rental_uris":{"android":"levelo://app?vid=2ebd233c-fd15-4f13-9700-c155c053523f","ios":"levelo://app?vid=2ebd233c-fd15-4f13-9700-c155c053523f"},"vehicle_type_id":"4","last_reported":1739124643,"current_range_meters":17600,"station_id":"ce4bhm92rcd13ifvqglg","pricing_plan_id":"cebpf4jnsgd1na2vs0mg"},{"bike_id":"0de50350-ec29-43fe-9d69-64305045bebf","system_id":"levelo_inurba_marseille","lat":43.3021,"lon":5.39483,"is_reserved":false,"is_disabled":false,"rental_uris":{"android":"levelo://app?vid=0de50350-ec29-43fe-9d69-64305045bebf","ios":"levelo://app?vid=0de50350-ec29-43fe-9d69-64305045bebf"},"vehicle_type_id":"4","last_reported":1739124643,"current_range_meters":24000,"station_id":"ce4bh0p2rcd13ifvqd70","pricing_plan_id":"cebpf4jnsgd1na2vs0mg"},{"bike_id":"de9d362b-1d25-46c9-9024-4b8baa1f47f1","system_id":"levelo_inurba_marseille","lat":43.28712,"lon":5.37398,"is_reserved":false,"is_disabled":false,"rental_uris":{"android":"levelo://app?vid=de9d362b-1d25-46c9-9024-4b8baa1f47f1","ios":"levelo://app?vid=de9d362b-1d25-46c9-9024-4b8baa1f47f1"},"vehicle_type_id":"4","last_reported":1739124643,"current_range_meters":22800,"station_id":"ce4bh3p2rcd13ifvqdq0","pricing_plan_id":"cebpf4jnsgd1na2vs0mg"},{"bike_id":"79d9cec2-d562-4c8c-9305-2ec72f6aa9f2","system_id":"levelo_inurba_marseille","lat":43.27938,"lon":5.41053,"is_reserved":false,"is_disabled":false,"rental_uris":{"android":"levelo://app?vid=79d9cec2-d562-4c8c-9305-2ec72f6aa9f2","ios":"levelo://app?vid=79d9cec2-d562-4c8c-9305-2ec72f6aa9f2"},"vehicle_type_id":"4","last_reported":1739124643,"current_range_meters":16400,"station_id":"ce4bhnp2rcd13ifvqh0g","pricing_plan_id":"cebpf4jnsgd1na2vs0mg"},{"bike_id":"d3fc1892-4ecc-4415-880c-665bb9b87473","system_id":"levelo_inurba_marseille","lat":43.290325,"lon":5.35922,"is_reserved":false,"is_disabled":false,"rental_uris":{"android":"levelo://app?vid=d3fc1892-4ecc-4415-880c-665bb9b87473","ios":"levelo://app?vid=d3fc1892-4ecc-4415-880c-665bb9b87473"},"vehicle_type_id":"4","last_reported":1739124643,"current_range_meters":38800,"station_id":"ce4bha92rcd13ifvqeg0","pricing_plan_id":"cebpf4jnsgd1na2vs0mg"},{"bike_id":"c13ae62e-d5d6-4d3f-b979-0be4fe4644ed","system_id":"levelo_inurba_marseille","lat":43.24664,"lon":5.38155,"is_reserved":false,"is_disabled":false,"rental_uris":{"android":"levelo://app?vid=c13ae62e-d5d6-4d3f-b979-0be4fe4644ed","ios":"levelo://app?vid=c13ae62e-d5d6-4d3f-b979-0be4fe4644ed"},"vehicle_type_id":"4","last_reported":1739124643,"current_range_meters":14000,"station_id":"ce4bhih2rcd13ifvqfr0","pricing_plan_id":"cebpf4jnsgd1na2vs0mg"},{"bike_id":"54f824a9-c6c7-4503-a444-7fbb0785598b","system_id":"levelo_inurba_marseille","lat":43.29014,"lon":5.3863,"is_reserved":false,"is_disabled":false,"rental_uris":{"android":"levelo://app?vid=54f824a9-c6c7-4503-a444-7fbb0785598b","ios":"levelo://app?vid=54f824a9-c6c7-4503-a444-7fbb0785598b"},"vehicle_type_id":"4","last_reported":1739124643,"current_range_meters":14400,"station_id":"ce4bh4p2rcd13ifvqe0g","pricing_plan_id":"cebpf4jnsgd1na2vs0mg"},{"bike_id":"2ba197c5-59fe-4a9c-ba96-b1806efdcd97","system_id":"levelo_inurba_marseille","lat":43.24176,"lon":5.39722,"is_reserved":false,"is_disabled":false,"rental_uris":{"android":"levelo://app?vid=2ba197c5-59fe-4a9c-ba96-b1806efdcd97","ios":"levelo://app?vid=2ba197c5-59fe-4a9c-ba96-b1806efdcd97"},"vehicle_type_id":"4","last_reported":1739124643,"current_range_meters":8800,"station_id":"ce4bhn12rcd13ifvqgpg","pricing_plan_id":"cebpf4jnsgd1na2vs0mg"},{"bike_id":"1d9b9c9d-363a-40b7-904e-bb37859e7849","system_id":"levelo_inurba_marseille","lat":43.24811,"lon":5.3746,"is_reserved":false,"is_disabled":false,"rental_uris":{"android":"levelo://app?vid=1d9b9c9d-363a-40b7-904e-bb37859e7849","ios":"levelo://app?vid=1d9b9c9d-363a-40b7-904e-bb37859e7849"},"vehicle_type_id":"4","last_reported":1739124643,"current_range_meters":23200,"station_id":"ce4bhgh2rcd13ifvqfb0","pricing_plan_id":"cebpf4jnsgd1na2vs0mg"},{"bike_id":"d673d385-256b-4786-9ff8-e7f9b22ac5f8","system_id":"levelo_inurba_marseille","lat":43.23957,"lon":5.36622,"is_reserved":false,"is_disabled":false,"rental_uris":{"android":"levelo://app?vid=d673d385-256b-4786-9ff8-e7f9b22ac5f8","ios":"levelo://app?vid=d673d385-256b-4786-9ff8-e7f9b22ac5f8"},"vehicle_type_id":"4","last_reported":1739124643,"current_range_meters":36800,"station_id":"ce4bhi12rcd13ifvqfp0","pricing_plan_id":"cebpf4jnsgd1na2vs0mg"},{"bike_id":"c3d215cc-c108-4709-b8a1-eeff1630731d","system_id":"levelo_inurba_marseille","lat":43.29419,"lon":5.38624,"is_reserved":false,"is_disabled":true,"rental_uris":{"android":"levelo://app?vid=c3d215cc-c108-4709-b8a1-eeff1630731d","ios":"levelo://app?vid=c3d215cc-c108-4709-b8a1-eeff1630731d"},"vehicle_type_id":"4","last_reported":1739124643,"current_range_meters":0,"station_id":"ce4bh2h2rcd13ifvqdh0","pricing_plan_id":"cebpf4jnsgd1na2vs0mg"},{"bike_id":"c3297162-1cce-4aee-9ab9-0cb6b8c8d4b6","system_id":"levelo_inurba_marseille","lat":43.29537,"lon":5.4228,"is_reserved":false,"is_disabled":false,"rental_uris":{"android":"levelo://app?vid=c3297162-1cce-4aee-9ab9-0cb6b8c8d4b6","ios":"levelo://app?vid=c3297162-1cce-4aee-9ab9-0cb6b8c8d4b6"},"vehicle_type_id":"4","last_reported":1739124643,"current_range_meters":33600,"station_id":"ce4bhph2rcd13ifvqhdg","pricing_plan_id":"cebpf4jnsgd1na2vs0mg"},{"bike_id":"89912e32-c5f0-448f-82d2-e236e4d6d653","system_id":"levelo_inurba_marseille","lat":43.28253,"lon":5.40761,"is_reserved":false,"is_disabled":true,"rental_uris":{"android":"levelo://app?vid=89912e32-c5f0-448f-82d2-e236e4d6d653","ios":"levelo://app?vid=89912e32-c5f0-448f-82d2-e236e4d6d653"},"vehicle_type_id":"4","last_reported":1739124643,"current_range_meters":0,"station_id":"","pricing_plan_id":"cebpf4jnsgd1na2vs0mg"},{"bike_id":"e7e14db6-3bef-453a-aab6-06ade3cdd6b0","system_id":"levelo_inurba_marseille","lat":43.24405,"lon":5.44109,"is_reserved":false,"is_disabled":true,"rental_uris":{"android":"levelo://app?vid=e7e14db6-3bef-453a-aab6-06ade3cdd6b0","ios":"levelo://app?vid=e7e14db6-3bef-453a-aab6-06ade3cdd6b0"},"vehicle_type_id":"4","last_reported":1739124643,"current_range_meters":0,"station_id":"","pricing_plan_id":"cebpf4jnsgd1na2vs0mg"},{"bike_id":"fb5a704f-a51b-458c-a6e9-f5586a789b94","system_id":"levelo_inurba_marseille","lat":43.24176,"lon":5.36378,"is_reserved":false,"is_disabled":false,"rental_uris":{"android":"levelo://app?vid=fb5a704f-a51b-458c-a6e9-f5586a789b94","ios":"levelo://app?vid=fb5a704f-a51b-458c-a6e9-f5586a789b94"},"vehicle_type_id":"4","last_reported":1739124643,"current_range_meters":32800,"station_id":"cpo36qri1sfpv3e86is0","pricing_plan_id":"cebpf4jnsgd1na2vs0mg"},{"bike_id":"99a2797b-392c-45fd-b5b4-178139f4e513","system_id":"levelo_inurba_marseille","lat":43.28944,"lon":5.36414,"is_reserved":false,"is_disabled":false,"rental_uris":{"android":"levelo://app?vid=99a2797b-392c-45fd-b5b4-178139f4e513","ios":"levelo://app?vid=99a2797b-392c-45fd-b5b4-178139f4e513"},"vehicle_type_id":"4","last_reported":1739124643,"current_range_meters":12000,"station_id":"ce4bhc92rcd13ifvqetg","pricing_plan_id":"cebpf4jnsgd1na2vs0mg"},{"bike_id":"bfd84249-0515-4ab9-801d-3a8bb75b155d","system_id":"levelo_inurba_marseille","lat":43.27569,"lon":5.38447,"is_reserved":false,"is_disabled":false,"rental_uris":{"android":"levelo://app?vid=bfd84249-0515-4ab9-801d-3a8bb75b155d","ios":"levelo://app?vid=bfd84249-0515-4ab9-801d-3a8bb75b155d"},"vehicle_type_id":"4","last_reported":1739124643,"current_range_meters":36800,"station_id":"ce4bhh92rcd13ifvqfi0","pricing_plan_id":"cebpf4jnsgd1na2vs0mg"},{"bike_id":"badda3c4-70ef-41fb-b835-c3b6b3ba2d76","system_id":"levelo_inurba_marseille","lat":43.2648,"lon":5.39541,"is_reserved":false,"is_disabled":false,"rental_uris":{"android":"levelo://app?vid=badda3c4-70ef-41fb-b835-c3b6b3ba2d76","ios":"levelo://app?vid=badda3c4-70ef-41fb-b835-c3b6b3ba2d76"},"vehicle_type_id":"4","last_reported":1739124643,"current_range_meters":38800,"station_id":"ce4bhi12rcd13ifvqfq0","pricing_plan_id":"cebpf4jnsgd1na2vs0mg"},{"bike_id":"a9f65387-f128-48a1-bc09-415b86ce9420","system_id":"levelo_inurba_marseille","lat":43.28412,"lon":5.37514,"is_reserved":false,"is_disabled":false,"rental_uris":{"android":"levelo://app?vid=a9f65387-f128-48a1-bc09-415b86ce9420","ios":"levelo://app?vid=a9f65387-f128-48a1-bc09-415b86ce9420"},"vehicle_type_id":"4","last_reported":1739124643,"current_range_meters":10000,"station_id":"ce4bh412rcd13ifvqds0","pricing_plan_id":"cebpf4jnsgd1na2vs0mg"},{"bike_id":"ab54e2d0-4c2c-486a-84c7-811ed9008ddc","system_id":"levelo_inurba_marseille","lat":43.27961,"lon":5.42346,"is_reserved":false,"is_disabled":true,"rental_uris":{"android":"levelo://app?vid=ab54e2d0-4c2c-486a-84c7-811ed9008ddc","ios":"levelo://app?vid=ab54e2d0-4c2c-486a-84c7-811ed9008ddc"},"vehicle_type_id":"4","last_reported":1739124643,"current_range_meters":0,"station_id":"","pricing_plan_id":"cebpf4jnsgd1na2vs0mg"},{"bike_id":"04e9976f-fc67-4b3f-9a5f-08268a5eb49c","system_id":"levelo_inurba_marseille","lat":43.294148,"lon":5.38613,"is_reserved":false,"is_disabled":true,"rental_uris":{"android":"levelo://app?vid=04e9976f-fc67-4b3f-9a5f-08268a5eb49c","ios":"levelo://app?vid=04e9976f-fc67-4b3f-9a5f-08268a5eb49c"},"vehicle_type_id":"4","last_reported":1739124643,"current_range_meters":36400,"station_id":"ce4bh2h2rcd13ifvqdh0","pricing_plan_id":"cebpf4jnsgd1na2vs0mg"},{"bike_id":"544caf86-2bf3-4dec-a3d0-dfe91b4aa2a6","system_id":"levelo_inurba_marseille","lat":43.29518,"lon":5.39036,"is_reserved":false,"is_disabled":false,"rental_uris":{"android":"levelo://app?vid=544caf86-2bf3-4dec-a3d0-dfe91b4aa2a6","ios":"levelo://app?vid=544caf86-2bf3-4dec-a3d0-dfe91b4aa2a6"},"vehicle_type_id":"4","last_reported":1739124643,"current_range_meters":10800,"station_id":"ce4bh3p2rcd13ifvqdp0","pricing_plan_id":"cebpf4jnsgd1na2vs0mg"},{"bike_id":"61b62a5a-5bc2-487b-b92d-7b20142491cd","system_id":"levelo_inurba_marseille","lat":43.28732,"lon":5.40035,"is_reserved":false,"is_disabled":true,"rental_uris":{"android":"levelo://app?vid=61b62a5a-5bc2-487b-b92d-7b20142491cd","ios":"levelo://app?vid=61b62a5a-5bc2-487b-b92d-7b20142491cd"},"vehicle_type_id":"4","last_reported":1739124643,"current_range_meters":38000,"station_id":"ce4bho92rcd13ifvqh3g","pricing_plan_id":"cebpf4jnsgd1na2vs0mg"},{"bike_id":"b5135d91-2dbc-4326-bda2-20e06e74cbe2","system_id":"levelo_inurba_marseille","lat":43.29584,"lon":5.37026,"is_reserved":false,"is_disabled":false,"rental_uris":{"android":"levelo://app?vid=b5135d91-2dbc-4326-bda2-20e06e74cbe2","ios":"levelo://app?vid=b5135d91-2dbc-4326-bda2-20e06e74cbe2"},"vehicle_type_id":"4","last_reported":1739124643,"current_range_meters":15200,"station_id":"","pricing_plan_id":"cebpf4jnsgd1na2vs0mg"},{"bike_id":"5f229fed-aae8-48ce-b343-9a1b79d579b2","system_id":"levelo_inurba_marseille","lat":43.26676,"lon":5.38271,"is_reserved":false,"is_disabled":false,"rental_uris":{"android":"levelo://app?vid=5f229fed-aae8-48ce-b343-9a1b79d579b2","ios":"levelo://app?vid=5f229fed-aae8-48ce-b343-9a1b79d579b2"},"vehicle_type_id":"4","last_reported":1739124643,"current_range_meters":35600,"station_id":"ce4bhg92rcd13ifvqf90","pricing_plan_id":"cebpf4jnsgd1na2vs0mg"},{"bike_id":"bb1bab95-412e-41ba-879a-c483b6ec0924","system_id":"levelo_inurba_marseille","lat":43.278162,"lon":5.407181,"is_reserved":false,"is_disabled":false,"rental_uris":{"android":"levelo://app?vid=bb1bab95-412e-41ba-879a-c483b6ec0924","ios":"levelo://app?vid=bb1bab95-412e-41ba-879a-c483b6ec0924"},"vehicle_type_id":"4","last_reported":1739124643,"current_range_meters":8400,"station_id":"ce4bhnh2rcd13ifvqgtg","pricing_plan_id":"cebpf4jnsgd1na2vs0mg"},{"bike_id":"d32d93c2-c2da-4831-bc10-4e8421f31d3d","system_id":"levelo_inurba_marseille","lat":43.29725,"lon":5.38547,"is_reserved":false,"is_disabled":false,"rental_uris":{"android":"levelo://app?vid=d32d93c2-c2da-4831-bc10-4e8421f31d3d","ios":"levelo://app?vid=d32d93c2-c2da-4831-bc10-4e8421f31d3d"},"vehicle_type_id":"4","last_reported":1739124643,"current_range_meters":38000,"station_id":"","pricing_plan_id":"cebpf4jnsgd1na2vs0mg"},{"bike_id":"b421e0f2-523c-4e3e-a81c-0b58fb04e82a","system_id":"levelo_inurba_marseille","lat":43.30268,"lon":5.37681,"is_reserved":false,"is_disabled":false,"rental_uris":{"android":"levelo://app?vid=b421e0f2-523c-4e3e-a81c-0b58fb04e82a","ios":"levelo://app?vid=b421e0f2-523c-4e3e-a81c-0b58fb04e82a"},"vehicle_type_id":"4","last_reported":1739124643,"current_range_meters":7200,"station_id":"ce4bguh2rcd13ifvqcj0","pricing_plan_id":"cebpf4jnsgd1na2vs0mg"},{"bike_id":"3600cf6e-b370-46a9-a53c-871abbc03398","system_id":"levelo_inurba_marseille","lat":43.28271,"lon":5.35063,"is_reserved":false,"is_disabled":true,"rental_uris":{"android":"levelo://app?vid=3600cf6e-b370-46a9-a53c-871abbc03398","ios":"levelo://app?vid=3600cf6e-b370-46a9-a53c-871abbc03398"},"vehicle_type_id":"4","last_reported":1739124643,"current_range_meters":38800,"station_id":"ce4bhbp2rcd13ifvqerg","pricing_plan_id":"cebpf4jnsgd1na2vs0mg"},{"bike_id":"9ee17cc6-94b6-42f9-a180-22e25ec3ed8d","system_id":"levelo_inurba_marseille","lat":43.28704,"lon":5.37378,"is_reserved":false,"is_disabled":true,"rental_uris":{"android":"levelo://app?vid=9ee17cc6-94b6-42f9-a180-22e25ec3ed8d","ios":"levelo://app?vid=9ee17cc6-94b6-42f9-a180-22e25ec3ed8d"},"vehicle_type_id":"4","last_reported":1739124643,"current_range_meters":38800,"station_id":"ce4bh3p2rcd13ifvqdq0","pricing_plan_id":"cebpf4jnsgd1na2vs0mg"},{"bike_id":"f9dde9d4-a53a-4289-ab4e-7e52a5ff0166","system_id":"levelo_inurba_marseille","lat":43.24549,"lon":5.43746,"is_reserved":false,"is_disabled":false,"rental_uris":{"android":"levelo://app?vid=f9dde9d4-a53a-4289-ab4e-7e52a5ff0166","ios":"levelo://app?vid=f9dde9d4-a53a-4289-ab4e-7e52a5ff0166"},"vehicle_type_id":"4","last_reported":1739124643,"current_range_meters":8400,"station_id":"","pricing_plan_id":"cebpf4jnsgd1na2vs0mg"},{"bike_id":"74e6bda3-26a1-463c-b806-0fbe25a13427","system_id":"levelo_inurba_marseille","lat":43.31349,"lon":5.38487,"is_reserved":false,"is_disabled":false,"rental_uris":{"android":"levelo://app?vid=74e6bda3-26a1-463c-b806-0fbe25a13427","ios":"levelo://app?vid=74e6bda3-26a1-463c-b806-0fbe25a13427"},"vehicle_type_id":"4","last_reported":1739124643,"current_range_meters":15200,"station_id":"ce4bgt92rcd13ifvqcf0","pricing_plan_id":"cebpf4jnsgd1na2vs0mg"},{"bike_id":"192df136-5dc5-43df-9014-3d79c87ff1d2","system_id":"levelo_inurba_marseille","lat":43.26059,"lon":5.39401,"is_reserved":false,"is_disabled":true,"rental_uris":{"android":"levelo://app?vid=192df136-5dc5-43df-9014-3d79c87ff1d2","ios":"levelo://app?vid=192df136-5dc5-43df-9014-3d79c87ff1d2"},"vehicle_type_id":"4","last_reported":1739124643,"current_range_meters":1200,"station_id":"ce4bhh92rcd13ifvqfj0","pricing_plan_id":"cebpf4jnsgd1na2vs0mg"},{"bike_id":"d106e773-8b67-4ef4-87ba-c46e5d8d3b3e","system_id":"levelo_inurba_marseille","lat":43.29521,"lon":5.39041,"is_reserved":false,"is_disabled":false,"rental_uris":{"android":"levelo://app?vid=d106e773-8b67-4ef4-87ba-c46e5d8d3b3e","ios":"levelo://app?vid=d106e773-8b67-4ef4-87ba-c46e5d8d3b3e"},"vehicle_type_id":"4","last_reported":1739124643,"current_range_meters":33200,"station_id":"ce4bh3p2rcd13ifvqdp0","pricing_plan_id":"cebpf4jnsgd1na2vs0mg"},{"bike_id":"4913b8b5-d6bb-4003-9626-2e55d74c370d","system_id":"levelo_inurba_marseille","lat":43.23963,"lon":5.36644,"is_reserved":false,"is_disabled":false,"rental_uris":{"android":"levelo://app?vid=4913b8b5-d6bb-4003-9626-2e55d74c370d","ios":"levelo://app?vid=4913b8b5-d6bb-4003-9626-2e55d74c370d"},"vehicle_type_id":"4","last_reported":1739124643,"current_range_meters":9600,"station_id":"ce4bhi12rcd13ifvqfp0","pricing_plan_id":"cebpf4jnsgd1na2vs0mg"},{"bike_id":"5fdb6860-5ee3-463b-aea0-6848b9ff5ddc","system_id":"levelo_inurba_marseille","lat":43.26215,"lon":5.40473,"is_reserved":false,"is_disabled":false,"rental_uris":{"android":"levelo://app?vid=5fdb6860-5ee3-463b-aea0-6848b9ff5ddc","ios":"levelo://app?vid=5fdb6860-5ee3-463b-aea0-6848b9ff5ddc"},"vehicle_type_id":"4","last_reported":1739124643,"current_range_meters":22400,"station_id":"ce4bhmh2rcd13ifvqgmg","pricing_plan_id":"cebpf4jnsgd1na2vs0mg"},{"bike_id":"805090a0-2458-4cc3-9f68-ea47777c32e1","system_id":"levelo_inurba_marseille","lat":43.26933,"lon":5.38918,"is_reserved":false,"is_disabled":false,"rental_uris":{"android":"levelo://app?vid=805090a0-2458-4cc3-9f68-ea47777c32e1","ios":"levelo://app?vid=805090a0-2458-4cc3-9f68-ea47777c32e1"},"vehicle_type_id":"4","last_reported":1739124643,"current_range_meters":38000,"station_id":"ce4bhhh2rcd13ifvqfl0","pricing_plan_id":"cebpf4jnsgd1na2vs0mg"},{"bike_id":"b9803138-f8d8-4259-b449-b42032b5f85d","system_id":"levelo_inurba_marseille","lat":43.30134,"lon":5.39856,"is_reserved":false,"is_disabled":false,"rental_uris":{"android":"levelo://app?vid=b9803138-f8d8-4259-b449-b42032b5f85d","ios":"levelo://app?vid=b9803138-f8d8-4259-b449-b42032b5f85d"},"vehicle_type_id":"4","last_reported":1739124643,"current_range_meters":32000,"station_id":"ce4bh0h2rcd13ifvqd40","pricing_plan_id":"cebpf4jnsgd1na2vs0mg"},{"bike_id":"ad0e719a-8f6d-411c-b994-d08ba46647bb","system_id":"levelo_inurba_marseille","lat":43.29522,"lon":5.39411,"is_reserved":false,"is_disabled":false,"rental_uris":{"android":"levelo://app?vid=ad0e719a-8f6d-411c-b994-d08ba46647bb","ios":"levelo://app?vid=ad0e719a-8f6d-411c-b994-d08ba46647bb"},"vehicle_type_id":"4","last_reported":1739124643,"current_range_meters":39200,"station_id":"ce4bh292rcd13ifvqdf0","pricing_plan_id":"cebpf4jnsgd1na2vs0mg"},{"bike_id":"0ccae692-16fa-48e3-88e0-236b5491d838","system_id":"levelo_inurba_marseille","lat":43.33731,"lon":5.39192,"is_reserved":false,"is_disabled":false,"rental_uris":{"android":"levelo://app?vid=0ccae692-16fa-48e3-88e0-236b5491d838","ios":"levelo://app?vid=0ccae692-16fa-48e3-88e0-236b5491d838"},"vehicle_type_id":"4","last_reported":1739124643,"current_range_meters":38800,"station_id":"ce4bhr92rcd13ifvqhsg","pricing_plan_id":"cebpf4jnsgd1na2vs0mg"},{"bike_id":"3387e857-76e8-4fc1-a1cf-94655f3cc3c6","system_id":"levelo_inurba_marseille","lat":43.2397,"lon":5.36644,"is_reserved":false,"is_disabled":false,"rental_uris":{"android":"levelo://app?vid=3387e857-76e8-4fc1-a1cf-94655f3cc3c6","ios":"levelo://app?vid=3387e857-76e8-4fc1-a1cf-94655f3cc3c6"},"vehicle_type_id":"4","last_reported":1739124643,"current_range_meters":27200,"station_id":"ce4bhi12rcd13ifvqfp0","pricing_plan_id":"cebpf4jnsgd1na2vs0mg"},{"bike_id":"230fddc0-8b7a-4068-8eb6-d81206bd8cef","system_id":"levelo_inurba_marseille","lat":43.30133,"lon":5.38776,"is_reserved":false,"is_disabled":false,"rental_uris":{"android":"levelo://app?vid=230fddc0-8b7a-4068-8eb6-d81206bd8cef","ios":"levelo://app?vid=230fddc0-8b7a-4068-8eb6-d81206bd8cef"},"vehicle_type_id":"4","last_reported":1739124643,"current_range_meters":7200,"station_id":"ce4bghh2rcd13ifvqb60","pricing_plan_id":"cebpf4jnsgd1na2vs0mg"},{"bike_id":"fb4ff991-8c44-4e6e-9881-23d19b1c7472","system_id":"levelo_inurba_marseille","lat":43.29083,"lon":5.38148,"is_reserved":false,"is_disabled":true,"rental_uris":{"android":"levelo://app?vid=fb4ff991-8c44-4e6e-9881-23d19b1c7472","ios":"levelo://app?vid=fb4ff991-8c44-4e6e-9881-23d19b1c7472"},"vehicle_type_id":"4","last_reported":1739124643,"current_range_meters":35600,"station_id":"ce4bh512rcd13ifvqe2g","pricing_plan_id":"cebpf4jnsgd1na2vs0mg"},{"bike_id":"a5e98377-243e-431b-9df6-8c74828c4aae","system_id":"levelo_inurba_marseille","lat":43.27069,"lon":5.42285,"is_reserved":false,"is_disabled":false,"rental_uris":{"android":"levelo://app?vid=a5e98377-243e-431b-9df6-8c74828c4aae","ios":"levelo://app?vid=a5e98377-243e-431b-9df6-8c74828c4aae"},"vehicle_type_id":"4","last_reported":1739124643,"current_range_meters":17600,"station_id":"ce4bhk92rcd13ifvqgb0","pricing_plan_id":"cebpf4jnsgd1na2vs0mg"},{"bike_id":"96fe1668-af51-4478-b65e-c78b039aaaeb","system_id":"levelo_inurba_marseille","lat":43.29527,"lon":5.37501,"is_reserved":false,"is_disabled":true,"rental_uris":{"android":"levelo://app?vid=96fe1668-af51-4478-b65e-c78b039aaaeb","ios":"levelo://app?vid=96fe1668-af51-4478-b65e-c78b039aaaeb"},"vehicle_type_id":"4","last_reported":1739124643,"current_range_meters":31200,"station_id":"ce4bgkp2rcd13ifvqbmg","pricing_plan_id":"cebpf4jnsgd1na2vs0mg"},{"bike_id":"1cae3079-5996-4a39-a418-56d74f7a43d1","system_id":"levelo_inurba_marseille","lat":43.29934,"lon":5.38163,"is_reserved":false,"is_disabled":false,"rental_uris":{"android":"levelo://app?vid=1cae3079-5996-4a39-a418-56d74f7a43d1","ios":"levelo://app?vid=1cae3079-5996-4a39-a418-56d74f7a43d1"},"vehicle_type_id":"4","last_reported":1739124643,"current_range_meters":27600,"station_id":"ce4bgj12rcd13ifvqbc0","pricing_plan_id":"cebpf4jnsgd1na2vs0mg"},{"bike_id":"4c9c8777-d005-4a22-b914-8a051fe7670d","system_id":"levelo_inurba_marseille","lat":43.2466,"lon":5.38161,"is_reserved":false,"is_disabled":false,"rental_uris":{"android":"levelo://app?vid=4c9c8777-d005-4a22-b914-8a051fe7670d","ios":"levelo://app?vid=4c9c8777-d005-4a22-b914-8a051fe7670d"},"vehicle_type_id":"4","last_reported":1739124643,"current_range_meters":6800,"station_id":"ce4bhih2rcd13ifvqfr0","pricing_plan_id":"cebpf4jnsgd1na2vs0mg"},{"bike_id":"858d4d3f-0096-413d-9dd0-25b0dae9857d","system_id":"levelo_inurba_marseille","lat":43.28474,"lon":5.3843,"is_reserved":false,"is_disabled":false,"rental_uris":{"android":"levelo://app?vid=858d4d3f-0096-413d-9dd0-25b0dae9857d","ios":"levelo://app?vid=858d4d3f-0096-413d-9dd0-25b0dae9857d"},"vehicle_type_id":"4","last_reported":1739124643,"current_range_meters":30400,"station_id":"ce4bh512rcd13ifvqe3g","pricing_plan_id":"cebpf4jnsgd1na2vs0mg"},{"bike_id":"5eb59fd4-34c7-4030-bbe2-18e35f7c6137","system_id":"levelo_inurba_marseille","lat":43.27559,"lon":5.38423,"is_reserved":false,"is_disabled":false,"rental_uris":{"android":"levelo://app?vid=5eb59fd4-34c7-4030-bbe2-18e35f7c6137","ios":"levelo://app?vid=5eb59fd4-34c7-4030-bbe2-18e35f7c6137"},"vehicle_type_id":"4","last_reported":1739124643,"current_range_meters":22400,"station_id":"ce4bhh92rcd13ifvqfi0","pricing_plan_id":"cebpf4jnsgd1na2vs0mg"},{"bike_id":"f67b7531-6c63-4f46-a9d4-4fdf588facb0","system_id":"levelo_inurba_marseille","lat":43.27874,"lon":5.40597,"is_reserved":false,"is_disabled":true,"rental_uris":{"android":"levelo://app?vid=f67b7531-6c63-4f46-a9d4-4fdf588facb0","ios":"levelo://app?vid=f67b7531-6c63-4f46-a9d4-4fdf588facb0"},"vehicle_type_id":"4","last_reported":1739124643,"current_range_meters":0,"station_id":"","pricing_plan_id":"cebpf4jnsgd1na2vs0mg"},{"bike_id":"289c2fab-4d88-4735-bec0-552e772516e2","system_id":"levelo_inurba_marseille","lat":43.29529,"lon":5.39412,"is_reserved":false,"is_disabled":false,"rental_uris":{"android":"levelo://app?vid=289c2fab-4d88-4735-bec0-552e772516e2","ios":"levelo://app?vid=289c2fab-4d88-4735-bec0-552e772516e2"},"vehicle_type_id":"4","last_reported":1739124643,"current_range_meters":10800,"station_id":"ce4bh292rcd13ifvqdf0","pricing_plan_id":"cebpf4jnsgd1na2vs0mg"},{"bike_id":"0b8b03a1-3d98-40ad-8759-9e3d3635efba","system_id":"levelo_inurba_marseille","lat":43.2455,"lon":5.39525,"is_reserved":false,"is_disabled":false,"rental_uris":{"android":"levelo://app?vid=0b8b03a1-3d98-40ad-8759-9e3d3635efba","ios":"levelo://app?vid=0b8b03a1-3d98-40ad-8759-9e3d3635efba"},"vehicle_type_id":"4","last_reported":1739124643,"current_range_meters":17200,"station_id":"ce4bhlp2rcd13ifvqgjg","pricing_plan_id":"cebpf4jnsgd1na2vs0mg"},{"bike_id":"a62d4b31-dd09-4a55-af2d-b0e9cc56862e","system_id":"levelo_inurba_marseille","lat":43.26214,"lon":5.37442,"is_reserved":false,"is_disabled":false,"rental_uris":{"android":"levelo://app?vid=a62d4b31-dd09-4a55-af2d-b0e9cc56862e","ios":"levelo://app?vid=a62d4b31-dd09-4a55-af2d-b0e9cc56862e"},"vehicle_type_id":"4","last_reported":1739124643,"current_range_meters":23200,"station_id":"ce4bhgp2rcd13ifvqfc0","pricing_plan_id":"cebpf4jnsgd1na2vs0mg"},{"bike_id":"74dda318-1b0b-46a6-82cc-20741b70a914","system_id":"levelo_inurba_marseille","lat":43.2931,"lon":5.37446,"is_reserved":false,"is_disabled":true,"rental_uris":{"android":"levelo://app?vid=74dda318-1b0b-46a6-82cc-20741b70a914","ios":"levelo://app?vid=74dda318-1b0b-46a6-82cc-20741b70a914"},"vehicle_type_id":"4","last_reported":1739124643,"current_range_meters":20000,"station_id":"ce4bgi12rcd13ifvqb70","pricing_plan_id":"cebpf4jnsgd1na2vs0mg"},{"bike_id":"2c90030e-40b3-4f0d-b698-c5b1ed56c0ad","system_id":"levelo_inurba_marseille","lat":43.28662,"lon":5.38677,"is_reserved":false,"is_disabled":false,"rental_uris":{"android":"levelo://app?vid=2c90030e-40b3-4f0d-b698-c5b1ed56c0ad","ios":"levelo://app?vid=2c90030e-40b3-4f0d-b698-c5b1ed56c0ad"},"vehicle_type_id":"4","last_reported":1739124643,"current_range_meters":16400,"station_id":"ce4bh492rcd13ifvqdug","pricing_plan_id":"cebpf4jnsgd1na2vs0mg"},{"bike_id":"c1df0cc1-b80b-4538-8d1e-39ca9283f673","system_id":"levelo_inurba_marseille","lat":43.25484,"lon":5.37655,"is_reserved":false,"is_disabled":false,"rental_uris":{"android":"levelo://app?vid=c1df0cc1-b80b-4538-8d1e-39ca9283f673","ios":"levelo://app?vid=c1df0cc1-b80b-4538-8d1e-39ca9283f673"},"vehicle_type_id":"4","last_reported":1739124643,"current_range_meters":38800,"station_id":"ce4bhh12rcd13ifvqff0","pricing_plan_id":"cebpf4jnsgd1na2vs0mg"},{"bike_id":"ae95820a-fcec-404f-bf16-0dffa9c86fed","system_id":"levelo_inurba_marseille","lat":43.28944,"lon":5.36402,"is_reserved":false,"is_disabled":false,"rental_uris":{"android":"levelo://app?vid=ae95820a-fcec-404f-bf16-0dffa9c86fed","ios":"levelo://app?vid=ae95820a-fcec-404f-bf16-0dffa9c86fed"},"vehicle_type_id":"4","last_reported":1739124643,"current_range_meters":16000,"station_id":"ce4bhc92rcd13ifvqetg","pricing_plan_id":"cebpf4jnsgd1na2vs0mg"},{"bike_id":"1c006256-7530-4a56-a25d-dca64c3573d8","system_id":"levelo_inurba_marseille","lat":43.28697,"lon":5.39977,"is_reserved":false,"is_disabled":true,"rental_uris":{"android":"levelo://app?vid=1c006256-7530-4a56-a25d-dca64c3573d8","ios":"levelo://app?vid=1c006256-7530-4a56-a25d-dca64c3573d8"},"vehicle_type_id":"4","last_reported":1739124643,"current_range_meters":38800,"station_id":"ce4bho92rcd13ifvqh3g","pricing_plan_id":"cebpf4jnsgd1na2vs0mg"},{"bike_id":"028e5bc2-b679-4b6c-a013-843d23405193","system_id":"levelo_inurba_marseille","lat":43.28698,"lon":5.37398,"is_reserved":false,"is_disabled":true,"rental_uris":{"android":"levelo://app?vid=028e5bc2-b679-4b6c-a013-843d23405193","ios":"levelo://app?vid=028e5bc2-b679-4b6c-a013-843d23405193"},"vehicle_type_id":"4","last_reported":1739124643,"current_range_meters":0,"station_id":"ce4bh3p2rcd13ifvqdq0","pricing_plan_id":"cebpf4jnsgd1na2vs0mg"},{"bike_id":"1fd8bc52-5626-4408-a638-b144452061ee","system_id":"levelo_inurba_marseille","lat":43.29069,"lon":5.37143,"is_reserved":false,"is_disabled":false,"rental_uris":{"android":"levelo://app?vid=1fd8bc52-5626-4408-a638-b144452061ee","ios":"levelo://app?vid=1fd8bc52-5626-4408-a638-b144452061ee"},"vehicle_type_id":"4","last_reported":1739124643,"current_range_meters":35600,"station_id":"ce4bh5p2rcd13ifvqe4g","pricing_plan_id":"cebpf4jnsgd1na2vs0mg"},{"bike_id":"5c7479b7-7263-4b4c-a3b1-0d7fb0f411f8","system_id":"levelo_inurba_marseille","lat":43.303172,"lon":5.404462,"is_reserved":false,"is_disabled":true,"rental_uris":{"android":"levelo://app?vid=5c7479b7-7263-4b4c-a3b1-0d7fb0f411f8","ios":"levelo://app?vid=5c7479b7-7263-4b4c-a3b1-0d7fb0f411f8"},"vehicle_type_id":"4","last_reported":1739124643,"current_range_meters":36800,"station_id":"ce4bh012rcd13ifvqd10","pricing_plan_id":"cebpf4jnsgd1na2vs0mg"},{"bike_id":"dbce0a2c-d399-453d-9b14-9a6cf741b605","system_id":"levelo_inurba_marseille","lat":43.32337,"lon":5.40622,"is_reserved":false,"is_disabled":false,"rental_uris":{"android":"levelo://app?vid=dbce0a2c-d399-453d-9b14-9a6cf741b605","ios":"levelo://app?vid=dbce0a2c-d399-453d-9b14-9a6cf741b605"},"vehicle_type_id":"4","last_reported":1739124643,"current_range_meters":23200,"station_id":"ce4bhq92rcd13ifvqhjg","pricing_plan_id":"cebpf4jnsgd1na2vs0mg"},{"bike_id":"5dec2fdf-46a6-4d2a-a8dd-9a8ec1a948d3","system_id":"levelo_inurba_marseille","lat":43.23195,"lon":5.35549,"is_reserved":false,"is_disabled":false,"rental_uris":{"android":"levelo://app?vid=5dec2fdf-46a6-4d2a-a8dd-9a8ec1a948d3","ios":"levelo://app?vid=5dec2fdf-46a6-4d2a-a8dd-9a8ec1a948d3"},"vehicle_type_id":"4","last_reported":1739124643,"current_range_meters":38800,"station_id":"ce4bhu92rcd13ifvqi70","pricing_plan_id":"cebpf4jnsgd1na2vs0mg"},{"bike_id":"b74ebcec-7bb4-4052-a43c-14e6ab9b4b18","system_id":"levelo_inurba_marseille","lat":43.29709,"lon":5.37695,"is_reserved":false,"is_disabled":false,"rental_uris":{"android":"levelo://app?vid=b74ebcec-7bb4-4052-a43c-14e6ab9b4b18","ios":"levelo://app?vid=b74ebcec-7bb4-4052-a43c-14e6ab9b4b18"},"vehicle_type_id":"4","last_reported":1739124643,"current_range_meters":34000,"station_id":"ce4bgkh2rcd13ifvqbl0","pricing_plan_id":"cebpf4jnsgd1na2vs0mg"},{"bike_id":"c3830605-578f-4c68-8b10-5553553277a4","system_id":"levelo_inurba_marseille","lat":43.29202,"lon":5.36047,"is_reserved":false,"is_disabled":false,"rental_uris":{"android":"levelo://app?vid=c3830605-578f-4c68-8b10-5553553277a4","ios":"levelo://app?vid=c3830605-578f-4c68-8b10-5553553277a4"},"vehicle_type_id":"4","last_reported":1739124643,"current_range_meters":38800,"station_id":"ce4bhbh2rcd13ifvqeqg","pricing_plan_id":"cebpf4jnsgd1na2vs0mg"},{"bike_id":"22669ad6-c05b-49c6-864d-bb442ac14c15","system_id":"levelo_inurba_marseille","lat":43.259355,"lon":5.408833,"is_reserved":false,"is_disabled":false,"rental_uris":{"android":"levelo://app?vid=22669ad6-c05b-49c6-864d-bb442ac14c15","ios":"levelo://app?vid=22669ad6-c05b-49c6-864d-bb442ac14c15"},"vehicle_type_id":"4","last_reported":1739124643,"current_range_meters":29600,"station_id":"ce4bhm92rcd13ifvqglg","pricing_plan_id":"cebpf4jnsgd1na2vs0mg"},{"bike_id":"5c55719c-bf56-4316-adc3-30111af87656","system_id":"levelo_inurba_marseille","lat":43.2305,"lon":5.35491,"is_reserved":false,"is_disabled":false,"rental_uris":{"android":"levelo://app?vid=5c55719c-bf56-4316-adc3-30111af87656","ios":"levelo://app?vid=5c55719c-bf56-4316-adc3-30111af87656"},"vehicle_type_id":"4","last_reported":1739124643,"current_range_meters":38800,"station_id":"cpo3342slgdg3j2ifvpg","pricing_plan_id":"cebpf4jnsgd1na2vs0mg"},{"bike_id":"c2b542d5-20ee-4d02-a9e4-f66e0540bcfb","system_id":"levelo_inurba_marseille","lat":43.24176,"lon":5.39736,"is_reserved":false,"is_disabled":false,"rental_uris":{"android":"levelo://app?vid=c2b542d5-20ee-4d02-a9e4-f66e0540bcfb","ios":"levelo://app?vid=c2b542d5-20ee-4d02-a9e4-f66e0540bcfb"},"vehicle_type_id":"4","last_reported":1739124643,"current_range_meters":11600,"station_id":"ce4bhn12rcd13ifvqgpg","pricing_plan_id":"cebpf4jnsgd1na2vs0mg"},{"bike_id":"1da8b17b-ad28-4780-a711-431647c244ed","system_id":"levelo_inurba_marseille","lat":43.23963,"lon":5.36613,"is_reserved":false,"is_disabled":false,"rental_uris":{"android":"levelo://app?vid=1da8b17b-ad28-4780-a711-431647c244ed","ios":"levelo://app?vid=1da8b17b-ad28-4780-a711-431647c244ed"},"vehicle_type_id":"4","last_reported":1739124643,"current_range_meters":19600,"station_id":"ce4bhi12rcd13ifvqfp0","pricing_plan_id":"cebpf4jnsgd1na2vs0mg"},{"bike_id":"7243d2a0-8cbd-4c75-9acd-ba6045d97ce5","system_id":"levelo_inurba_marseille","lat":43.23186,"lon":5.35564,"is_reserved":false,"is_disabled":false,"rental_uris":{"android":"levelo://app?vid=7243d2a0-8cbd-4c75-9acd-ba6045d97ce5","ios":"levelo://app?vid=7243d2a0-8cbd-4c75-9acd-ba6045d97ce5"},"vehicle_type_id":"4","last_reported":1739124643,"current_range_meters":25600,"station_id":"ce4bhu92rcd13ifvqi70","pricing_plan_id":"cebpf4jnsgd1na2vs0mg"},{"bike_id":"f78952aa-a1e4-42f8-b5d2-31338580d315","system_id":"levelo_inurba_marseille","lat":43.23964,"lon":5.36629,"is_reserved":false,"is_disabled":false,"rental_uris":{"android":"levelo://app?vid=f78952aa-a1e4-42f8-b5d2-31338580d315","ios":"levelo://app?vid=f78952aa-a1e4-42f8-b5d2-31338580d315"},"vehicle_type_id":"4","last_reported":1739124643,"current_range_meters":10800,"station_id":"ce4bhi12rcd13ifvqfp0","pricing_plan_id":"cebpf4jnsgd1na2vs0mg"},{"bike_id":"f2d50267-98d9-493b-8957-63594a0dadcc","system_id":"levelo_inurba_marseille","lat":43.2305,"lon":5.35491,"is_reserved":false,"is_disabled":false,"rental_uris":{"android":"levelo://app?vid=f2d50267-98d9-493b-8957-63594a0dadcc","ios":"levelo://app?vid=f2d50267-98d9-493b-8957-63594a0dadcc"},"vehicle_type_id":"4","last_reported":1739124643,"current_range_meters":38800,"station_id":"cpo3342slgdg3j2ifvpg","pricing_plan_id":"cebpf4jnsgd1na2vs0mg"},{"bike_id":"985ea620-1838-4cc4-9f45-6622855b2de9","system_id":"levelo_inurba_marseille","lat":43.28011,"lon":5.39979,"is_reserved":false,"is_disabled":false,"rental_uris":{"android":"levelo://app?vid=985ea620-1838-4cc4-9f45-6622855b2de9","ios":"levelo://app?vid=985ea620-1838-4cc4-9f45-6622855b2de9"},"vehicle_type_id":"4","last_reported":1739124643,"current_range_meters":38000,"station_id":"ce4bho92rcd13ifvqh4g","pricing_plan_id":"cebpf4jnsgd1na2vs0mg"},{"bike_id":"b62dea62-0007-4bca-a1b0-d88bfab77dea","system_id":"levelo_inurba_marseille","lat":43.3247,"lon":5.36567,"is_reserved":false,"is_disabled":false,"rental_uris":{"android":"levelo://app?vid=b62dea62-0007-4bca-a1b0-d88bfab77dea","ios":"levelo://app?vid=b62dea62-0007-4bca-a1b0-d88bfab77dea"},"vehicle_type_id":"4","last_reported":1739124643,"current_range_meters":28400,"station_id":"ce4bhs12rcd13ifvqhvg","pricing_plan_id":"cebpf4jnsgd1na2vs0mg"},{"bike_id":"4d6ce251-9441-4028-a830-0345b804192b","system_id":"levelo_inurba_marseille","lat":43.29522,"lon":5.39033,"is_reserved":false,"is_disabled":false,"rental_uris":{"android":"levelo://app?vid=4d6ce251-9441-4028-a830-0345b804192b","ios":"levelo://app?vid=4d6ce251-9441-4028-a830-0345b804192b"},"vehicle_type_id":"4","last_reported":1739124643,"current_range_meters":10800,"station_id":"ce4bh3p2rcd13ifvqdp0","pricing_plan_id":"cebpf4jnsgd1na2vs0mg"},{"bike_id":"0d51248c-a1e0-4c77-b88e-f9bf728fa344","system_id":"levelo_inurba_marseille","lat":43.25079,"lon":5.39519,"is_reserved":false,"is_disabled":false,"rental_uris":{"android":"levelo://app?vid=0d51248c-a1e0-4c77-b88e-f9bf728fa344","ios":"levelo://app?vid=0d51248c-a1e0-4c77-b88e-f9bf728fa344"},"vehicle_type_id":"4","last_reported":1739124643,"current_range_meters":4800,"station_id":"ce4bhm12rcd13ifvqgkg","pricing_plan_id":"cebpf4jnsgd1na2vs0mg"},{"bike_id":"98514ce6-c9a0-445d-988e-9d038e3f1731","system_id":"levelo_inurba_marseille","lat":43.24072,"lon":5.37757,"is_reserved":false,"is_disabled":false,"rental_uris":{"android":"levelo://app?vid=98514ce6-c9a0-445d-988e-9d038e3f1731","ios":"levelo://app?vid=98514ce6-c9a0-445d-988e-9d038e3f1731"},"vehicle_type_id":"4","last_reported":1739124643,"current_range_meters":38400,"station_id":"ce4bhnp2rcd13ifvqgvg","pricing_plan_id":"cebpf4jnsgd1na2vs0mg"},{"bike_id":"aa35cf0f-c960-445f-a08f-f629c019d1a0","system_id":"levelo_inurba_marseille","lat":43.33728,"lon":5.3918,"is_reserved":false,"is_disabled":false,"rental_uris":{"android":"levelo://app?vid=aa35cf0f-c960-445f-a08f-f629c019d1a0","ios":"levelo://app?vid=aa35cf0f-c960-445f-a08f-f629c019d1a0"},"vehicle_type_id":"4","last_reported":1739124643,"current_range_meters":37600,"station_id":"ce4bhr92rcd13ifvqhsg","pricing_plan_id":"cebpf4jnsgd1na2vs0mg"},{"bike_id":"37d64f3b-b611-4db2-83b7-5ac06449b2ce","system_id":"levelo_inurba_marseille","lat":43.30793,"lon":5.38151,"is_reserved":false,"is_disabled":false,"rental_uris":{"android":"levelo://app?vid=37d64f3b-b611-4db2-83b7-5ac06449b2ce","ios":"levelo://app?vid=37d64f3b-b611-4db2-83b7-5ac06449b2ce"},"vehicle_type_id":"4","last_reported":1739124643,"current_range_meters":38800,"station_id":"ce4bgt12rcd13ifvqce0","pricing_plan_id":"cebpf4jnsgd1na2vs0mg"},{"bike_id":"847c6a31-e9b4-472a-a4ac-05a8b1063248","system_id":"levelo_inurba_marseille","lat":43.31329,"lon":5.39693,"is_reserved":false,"is_disabled":false,"rental_uris":{"android":"levelo://app?vid=847c6a31-e9b4-472a-a4ac-05a8b1063248","ios":"levelo://app?vid=847c6a31-e9b4-472a-a4ac-05a8b1063248"},"vehicle_type_id":"4","last_reported":1739124643,"current_range_meters":38800,"station_id":"ce4bgvp2rcd13ifvqcu0","pricing_plan_id":"cebpf4jnsgd1na2vs0mg"},{"bike_id":"c84332ea-e161-46ea-ab9f-dfb9372a0504","system_id":"levelo_inurba_marseille","lat":43.27311,"lon":5.39082,"is_reserved":false,"is_disabled":false,"rental_uris":{"android":"levelo://app?vid=c84332ea-e161-46ea-ab9f-dfb9372a0504","ios":"levelo://app?vid=c84332ea-e161-46ea-ab9f-dfb9372a0504"},"vehicle_type_id":"4","last_reported":1739124643,"current_range_meters":34000,"station_id":"ce4bhgp2rcd13ifvqfe0","pricing_plan_id":"cebpf4jnsgd1na2vs0mg"},{"bike_id":"28ed31a8-6c1a-4b9a-86f8-9e47918e920c","system_id":"levelo_inurba_marseille","lat":43.24649,"lon":5.38909,"is_reserved":false,"is_disabled":false,"rental_uris":{"android":"levelo://app?vid=28ed31a8-6c1a-4b9a-86f8-9e47918e920c","ios":"levelo://app?vid=28ed31a8-6c1a-4b9a-86f8-9e47918e920c"},"vehicle_type_id":"4","last_reported":1739124643,"current_range_meters":38000,"station_id":"ce4bhg12rcd13ifvqf60","pricing_plan_id":"cebpf4jnsgd1na2vs0mg"},{"bike_id":"22a5c6e1-bb6b-4333-8051-e7583e5afc36","system_id":"levelo_inurba_marseille","lat":43.29451,"lon":5.39763,"is_reserved":false,"is_disabled":true,"rental_uris":{"android":"levelo://app?vid=22a5c6e1-bb6b-4333-8051-e7583e5afc36","ios":"levelo://app?vid=22a5c6e1-bb6b-4333-8051-e7583e5afc36"},"vehicle_type_id":"4","last_reported":1739124643,"current_range_meters":38000,"station_id":"ce4bh3h2rcd13ifvqdo0","pricing_plan_id":"cebpf4jnsgd1na2vs0mg"},{"bike_id":"e922a998-68bd-49a9-b7e7-19716fa09a9c","system_id":"levelo_inurba_marseille","lat":43.29971,"lon":5.37172,"is_reserved":false,"is_disabled":false,"rental_uris":{"android":"levelo://app?vid=e922a998-68bd-49a9-b7e7-19716fa09a9c","ios":"levelo://app?vid=e922a998-68bd-49a9-b7e7-19716fa09a9c"},"vehicle_type_id":"4","last_reported":1739124643,"current_range_meters":39200,"station_id":"ce4bgr92rcd13ifvqc7g","pricing_plan_id":"cebpf4jnsgd1na2vs0mg"},{"bike_id":"3acdbd7b-d5de-4cb2-b3ca-5916b021fd2b","system_id":"levelo_inurba_marseille","lat":43.28934,"lon":5.36636,"is_reserved":false,"is_disabled":false,"rental_uris":{"android":"levelo://app?vid=3acdbd7b-d5de-4cb2-b3ca-5916b021fd2b","ios":"levelo://app?vid=3acdbd7b-d5de-4cb2-b3ca-5916b021fd2b"},"vehicle_type_id":"4","last_reported":1739124643,"current_range_meters":38400,"station_id":"ce4bhap2rcd13ifvqek0","pricing_plan_id":"cebpf4jnsgd1na2vs0mg"},{"bike_id":"65913fd2-b29f-48fa-b945-f7a4ac432b6b","system_id":"levelo_inurba_marseille","lat":43.29045,"lon":5.35908,"is_reserved":false,"is_disabled":false,"rental_uris":{"android":"levelo://app?vid=65913fd2-b29f-48fa-b945-f7a4ac432b6b","ios":"levelo://app?vid=65913fd2-b29f-48fa-b945-f7a4ac432b6b"},"vehicle_type_id":"4","last_reported":1739124643,"current_range_meters":38800,"station_id":"ce4bha92rcd13ifvqeg0","pricing_plan_id":"cebpf4jnsgd1na2vs0mg"},{"bike_id":"fd7f60dd-1b52-46f9-9b6b-de4b0fe7477f","system_id":"levelo_inurba_marseille","lat":43.27066,"lon":5.42271,"is_reserved":false,"is_disabled":true,"rental_uris":{"android":"levelo://app?vid=fd7f60dd-1b52-46f9-9b6b-de4b0fe7477f","ios":"levelo://app?vid=fd7f60dd-1b52-46f9-9b6b-de4b0fe7477f"},"vehicle_type_id":"4","last_reported":1739124643,"current_range_meters":33200,"station_id":"ce4bhk92rcd13ifvqgb0","pricing_plan_id":"cebpf4jnsgd1na2vs0mg"},{"bike_id":"2a256a54-1e9f-4d2e-856a-c49046f7dde9","system_id":"levelo_inurba_marseille","lat":43.26057,"lon":5.39396,"is_reserved":false,"is_disabled":false,"rental_uris":{"android":"levelo://app?vid=2a256a54-1e9f-4d2e-856a-c49046f7dde9","ios":"levelo://app?vid=2a256a54-1e9f-4d2e-856a-c49046f7dde9"},"vehicle_type_id":"4","last_reported":1739124643,"current_range_meters":39200,"station_id":"ce4bhh92rcd13ifvqfj0","pricing_plan_id":"cebpf4jnsgd1na2vs0mg"},{"bike_id":"71af4c3a-fa26-4039-9ee7-f5d24e009142","system_id":"levelo_inurba_marseille","lat":43.24803,"lon":5.374623,"is_reserved":false,"is_disabled":false,"rental_uris":{"android":"levelo://app?vid=71af4c3a-fa26-4039-9ee7-f5d24e009142","ios":"levelo://app?vid=71af4c3a-fa26-4039-9ee7-f5d24e009142"},"vehicle_type_id":"4","last_reported":1739124643,"current_range_meters":39200,"station_id":"ce4bhgh2rcd13ifvqfb0","pricing_plan_id":"cebpf4jnsgd1na2vs0mg"},{"bike_id":"3fd911fa-972b-47c7-ae20-976ecb944f91","system_id":"levelo_inurba_marseille","lat":43.27039,"lon":5.3879,"is_reserved":false,"is_disabled":false,"rental_uris":{"android":"levelo://app?vid=3fd911fa-972b-47c7-ae20-976ecb944f91","ios":"levelo://app?vid=3fd911fa-972b-47c7-ae20-976ecb944f91"},"vehicle_type_id":"4","last_reported":1739124643,"current_range_meters":35600,"station_id":"ce4bh512rcd13ifvqe3g","pricing_plan_id":"cebpf4jnsgd1na2vs0mg"},{"bike_id":"b108129b-a98c-44dc-9179-6b5664963c24","system_id":"levelo_inurba_marseille","lat":43.23965,"lon":5.36627,"is_reserved":false,"is_disabled":true,"rental_uris":{"android":"levelo://app?vid=b108129b-a98c-44dc-9179-6b5664963c24","ios":"levelo://app?vid=b108129b-a98c-44dc-9179-6b5664963c24"},"vehicle_type_id":"4","last_reported":1739124643,"current_range_meters":0,"station_id":"ce4bhi12rcd13ifvqfp0","pricing_plan_id":"cebpf4jnsgd1na2vs0mg"},{"bike_id":"04ae322a-59ff-4ef4-ba79-8fb37ff4827b","system_id":"levelo_inurba_marseille","lat":43.29021,"lon":5.38128,"is_reserved":false,"is_disabled":false,"rental_uris":{"android":"levelo://app?vid=04ae322a-59ff-4ef4-ba79-8fb37ff4827b","ios":"levelo://app?vid=04ae322a-59ff-4ef4-ba79-8fb37ff4827b"},"vehicle_type_id":"4","last_reported":1739124643,"current_range_meters":36800,"station_id":"ce4bh4p2rcd13ifvqe1g","pricing_plan_id":"cebpf4jnsgd1na2vs0mg"},{"bike_id":"6a14739a-b5fc-42d5-9b40-b808b7ab9afe","system_id":"levelo_inurba_marseille","lat":43.24671,"lon":5.3814,"is_reserved":false,"is_disabled":false,"rental_uris":{"android":"levelo://app?vid=6a14739a-b5fc-42d5-9b40-b808b7ab9afe","ios":"levelo://app?vid=6a14739a-b5fc-42d5-9b40-b808b7ab9afe"},"vehicle_type_id":"4","last_reported":1739124643,"current_range_meters":34800,"station_id":"ce4bhih2rcd13ifvqfr0","pricing_plan_id":"cebpf4jnsgd1na2vs0mg"},{"bike_id":"985fd5ff-400c-4d62-8731-66bd04cc9d2b","system_id":"levelo_inurba_marseille","lat":43.26216,"lon":5.37445,"is_reserved":false,"is_disabled":false,"rental_uris":{"android":"levelo://app?vid=985fd5ff-400c-4d62-8731-66bd04cc9d2b","ios":"levelo://app?vid=985fd5ff-400c-4d62-8731-66bd04cc9d2b"},"vehicle_type_id":"4","last_reported":1739124643,"current_range_meters":22400,"station_id":"ce4bhgp2rcd13ifvqfc0","pricing_plan_id":"cebpf4jnsgd1na2vs0mg"},{"bike_id":"9da2535f-e77c-4f48-aae1-c197f0a0daad","system_id":"levelo_inurba_marseille","lat":43.2798,"lon":5.41681,"is_reserved":false,"is_disabled":true,"rental_uris":{"android":"levelo://app?vid=9da2535f-e77c-4f48-aae1-c197f0a0daad","ios":"levelo://app?vid=9da2535f-e77c-4f48-aae1-c197f0a0daad"},"vehicle_type_id":"4","last_reported":1739124643,"current_range_meters":0,"station_id":"ce4bho12rcd13ifvqh1g","pricing_plan_id":"cebpf4jnsgd1na2vs0mg"},{"bike_id":"5425370a-849f-4d61-bc72-4fb9feb4d0a2","system_id":"levelo_inurba_marseille","lat":43.29861,"lon":5.39738,"is_reserved":false,"is_disabled":false,"rental_uris":{"android":"levelo://app?vid=5425370a-849f-4d61-bc72-4fb9feb4d0a2","ios":"levelo://app?vid=5425370a-849f-4d61-bc72-4fb9feb4d0a2"},"vehicle_type_id":"4","last_reported":1739124643,"current_range_meters":31200,"station_id":"ce4bh0h2rcd13ifvqd50","pricing_plan_id":"cebpf4jnsgd1na2vs0mg"},{"bike_id":"90a5fdf9-2767-48e9-a623-49e0156266d8","system_id":"levelo_inurba_marseille","lat":43.29675,"lon":5.37296,"is_reserved":false,"is_disabled":false,"rental_uris":{"android":"levelo://app?vid=90a5fdf9-2767-48e9-a623-49e0156266d8","ios":"levelo://app?vid=90a5fdf9-2767-48e9-a623-49e0156266d8"},"vehicle_type_id":"4","last_reported":1739124643,"current_range_meters":35600,"station_id":"ce4bgk12rcd13ifvqbj0","pricing_plan_id":"cebpf4jnsgd1na2vs0mg"},{"bike_id":"29c9ba85-0135-4611-af6c-b8dee113d319","system_id":"levelo_inurba_marseille","lat":43.26942,"lon":5.3864,"is_reserved":false,"is_disabled":false,"rental_uris":{"android":"levelo://app?vid=29c9ba85-0135-4611-af6c-b8dee113d319","ios":"levelo://app?vid=29c9ba85-0135-4611-af6c-b8dee113d319"},"vehicle_type_id":"4","last_reported":1739124643,"current_range_meters":39200,"station_id":"ce4bhh92rcd13ifvqfh0","pricing_plan_id":"cebpf4jnsgd1na2vs0mg"},{"bike_id":"c6f92ca4-91f7-4b27-a97d-0ada5b4e29ae","system_id":"levelo_inurba_marseille","lat":43.24655,"lon":5.38165,"is_reserved":false,"is_disabled":false,"rental_uris":{"android":"levelo://app?vid=c6f92ca4-91f7-4b27-a97d-0ada5b4e29ae","ios":"levelo://app?vid=c6f92ca4-91f7-4b27-a97d-0ada5b4e29ae"},"vehicle_type_id":"4","last_reported":1739124643,"current_range_meters":24400,"station_id":"ce4bhih2rcd13ifvqfr0","pricing_plan_id":"cebpf4jnsgd1na2vs0mg"},{"bike_id":"a31eff19-cced-4507-a171-7bcbb7870aa7","system_id":"levelo_inurba_marseille","lat":43.32356,"lon":5.38858,"is_reserved":false,"is_disabled":false,"rental_uris":{"android":"levelo://app?vid=a31eff19-cced-4507-a171-7bcbb7870aa7","ios":"levelo://app?vid=a31eff19-cced-4507-a171-7bcbb7870aa7"},"vehicle_type_id":"4","last_reported":1739124643,"current_range_meters":16800,"station_id":"ce4bhqp2rcd13ifvqhog","pricing_plan_id":"cebpf4jnsgd1na2vs0mg"},{"bike_id":"da404451-543d-4a76-a86f-7e8ca001ec5d","system_id":"levelo_inurba_marseille","lat":43.26571,"lon":5.39019,"is_reserved":false,"is_disabled":false,"rental_uris":{"android":"levelo://app?vid=da404451-543d-4a76-a86f-7e8ca001ec5d","ios":"levelo://app?vid=da404451-543d-4a76-a86f-7e8ca001ec5d"},"vehicle_type_id":"4","last_reported":1739124643,"current_range_meters":34000,"station_id":"ce4bhe12rcd13ifvqf30","pricing_plan_id":"cebpf4jnsgd1na2vs0mg"},{"bike_id":"491193c2-82bf-4bb1-8379-39a5e3504142","system_id":"levelo_inurba_marseille","lat":43.29926,"lon":5.37453,"is_reserved":false,"is_disabled":false,"rental_uris":{"android":"levelo://app?vid=491193c2-82bf-4bb1-8379-39a5e3504142","ios":"levelo://app?vid=491193c2-82bf-4bb1-8379-39a5e3504142"},"vehicle_type_id":"4","last_reported":1739124643,"current_range_meters":2800,"station_id":"ce4bgjh2rcd13ifvqbg0","pricing_plan_id":"cebpf4jnsgd1na2vs0mg"},{"bike_id":"4c6e5ed1-272b-49c1-ad5d-302bd9b9e47f","system_id":"levelo_inurba_marseille","lat":43.31229,"lon":5.36867,"is_reserved":false,"is_disabled":false,"rental_uris":{"android":"levelo://app?vid=4c6e5ed1-272b-49c1-ad5d-302bd9b9e47f","ios":"levelo://app?vid=4c6e5ed1-272b-49c1-ad5d-302bd9b9e47f"},"vehicle_type_id":"4","last_reported":1739124643,"current_range_meters":38800,"station_id":"ce4bgl92rcd13ifvqbq0","pricing_plan_id":"cebpf4jnsgd1na2vs0mg"},{"bike_id":"2b5781c9-d3d9-4875-b5da-04147f9edefe","system_id":"levelo_inurba_marseille","lat":43.275352,"lon":5.360051,"is_reserved":false,"is_disabled":false,"rental_uris":{"android":"levelo://app?vid=2b5781c9-d3d9-4875-b5da-04147f9edefe","ios":"levelo://app?vid=2b5781c9-d3d9-4875-b5da-04147f9edefe"},"vehicle_type_id":"4","last_reported":1739124643,"current_range_meters":16400,"station_id":"ce4bha12rcd13ifvqef0","pricing_plan_id":"cebpf4jnsgd1na2vs0mg"},{"bike_id":"c5789181-d252-4c46-b75d-908f3a6a38fe","system_id":"levelo_inurba_marseille","lat":43.33736,"lon":5.39185,"is_reserved":false,"is_disabled":false,"rental_uris":{"android":"levelo://app?vid=c5789181-d252-4c46-b75d-908f3a6a38fe","ios":"levelo://app?vid=c5789181-d252-4c46-b75d-908f3a6a38fe"},"vehicle_type_id":"4","last_reported":1739124643,"current_range_meters":38800,"station_id":"ce4bhr92rcd13ifvqhsg","pricing_plan_id":"cebpf4jnsgd1na2vs0mg"},{"bike_id":"4662cadc-d8cc-46d4-8513-fe6cec73d116","system_id":"levelo_inurba_marseille","lat":43.31361,"lon":5.38486,"is_reserved":false,"is_disabled":false,"rental_uris":{"android":"levelo://app?vid=4662cadc-d8cc-46d4-8513-fe6cec73d116","ios":"levelo://app?vid=4662cadc-d8cc-46d4-8513-fe6cec73d116"},"vehicle_type_id":"4","last_reported":1739124643,"current_range_meters":37600,"station_id":"ce4bgt92rcd13ifvqcf0","pricing_plan_id":"cebpf4jnsgd1na2vs0mg"},{"bike_id":"f4364f28-0400-42b3-981a-8730c9a74b51","system_id":"levelo_inurba_marseille","lat":43.30649,"lon":5.40083,"is_reserved":false,"is_disabled":false,"rental_uris":{"android":"levelo://app?vid=f4364f28-0400-42b3-981a-8730c9a74b51","ios":"levelo://app?vid=f4364f28-0400-42b3-981a-8730c9a74b51"},"vehicle_type_id":"4","last_reported":1739124643,"current_range_meters":38800,"station_id":"ce4bh112rcd13ifvqda0","pricing_plan_id":"cebpf4jnsgd1na2vs0mg"},{"bike_id":"eaeb4077-ca01-47e4-b4d2-c27cb4e285d5","system_id":"levelo_inurba_marseille","lat":43.28928,"lon":5.38396,"is_reserved":false,"is_disabled":false,"rental_uris":{"android":"levelo://app?vid=eaeb4077-ca01-47e4-b4d2-c27cb4e285d5","ios":"levelo://app?vid=eaeb4077-ca01-47e4-b4d2-c27cb4e285d5"},"vehicle_type_id":"4","last_reported":1739124643,"current_range_meters":39200,"station_id":"ce4bh612rcd13ifvqe6g","pricing_plan_id":"cebpf4jnsgd1na2vs0mg"},{"bike_id":"f17852ca-840f-4144-93d6-90971a2c0c4d","system_id":"levelo_inurba_marseille","lat":43.29849,"lon":5.36281,"is_reserved":false,"is_disabled":false,"rental_uris":{"android":"levelo://app?vid=f17852ca-840f-4144-93d6-90971a2c0c4d","ios":"levelo://app?vid=f17852ca-840f-4144-93d6-90971a2c0c4d"},"vehicle_type_id":"4","last_reported":1739124643,"current_range_meters":22400,"station_id":"ce4bgpp2rcd13ifvqc3g","pricing_plan_id":"cebpf4jnsgd1na2vs0mg"},{"bike_id":"0465b098-501d-4eaa-9851-ecad7c11e06c","system_id":"levelo_inurba_marseille","lat":43.27803,"lon":5.40721,"is_reserved":false,"is_disabled":false,"rental_uris":{"android":"levelo://app?vid=0465b098-501d-4eaa-9851-ecad7c11e06c","ios":"levelo://app?vid=0465b098-501d-4eaa-9851-ecad7c11e06c"},"vehicle_type_id":"4","last_reported":1739124643,"current_range_meters":38400,"station_id":"ce4bhnh2rcd13ifvqgtg","pricing_plan_id":"cebpf4jnsgd1na2vs0mg"},{"bike_id":"e81a784e-2624-4847-a2c1-89429223b598","system_id":"levelo_inurba_marseille","lat":43.2871,"lon":5.37398,"is_reserved":false,"is_disabled":false,"rental_uris":{"android":"levelo://app?vid=e81a784e-2624-4847-a2c1-89429223b598","ios":"levelo://app?vid=e81a784e-2624-4847-a2c1-89429223b598"},"vehicle_type_id":"4","last_reported":1739124643,"current_range_meters":36800,"station_id":"ce4bh3p2rcd13ifvqdq0","pricing_plan_id":"cebpf4jnsgd1na2vs0mg"},{"bike_id":"a0e4aa32-2930-4b3f-a9c9-c8d667116e7d","system_id":"levelo_inurba_marseille","lat":43.30142,"lon":5.39705,"is_reserved":false,"is_disabled":false,"rental_uris":{"android":"levelo://app?vid=a0e4aa32-2930-4b3f-a9c9-c8d667116e7d","ios":"levelo://app?vid=a0e4aa32-2930-4b3f-a9c9-c8d667116e7d"},"vehicle_type_id":"4","last_reported":1739124643,"current_range_meters":24000,"station_id":"","pricing_plan_id":"cebpf4jnsgd1na2vs0mg"},{"bike_id":"c5314254-c933-46cf-a0f5-0a421d150af1","system_id":"levelo_inurba_marseille","lat":43.2906,"lon":5.37147,"is_reserved":false,"is_disabled":false,"rental_uris":{"android":"levelo://app?vid=c5314254-c933-46cf-a0f5-0a421d150af1","ios":"levelo://app?vid=c5314254-c933-46cf-a0f5-0a421d150af1"},"vehicle_type_id":"4","last_reported":1739124643,"current_range_meters":30000,"station_id":"ce4bh5p2rcd13ifvqe4g","pricing_plan_id":"cebpf4jnsgd1na2vs0mg"},{"bike_id":"cda70a47-1966-4606-a6ee-e81748054c04","system_id":"levelo_inurba_marseille","lat":43.23963,"lon":5.36627,"is_reserved":false,"is_disabled":false,"rental_uris":{"android":"levelo://app?vid=cda70a47-1966-4606-a6ee-e81748054c04","ios":"levelo://app?vid=cda70a47-1966-4606-a6ee-e81748054c04"},"vehicle_type_id":"4","last_reported":1739124643,"current_range_meters":30400,"station_id":"ce4bhi12rcd13ifvqfp0","pricing_plan_id":"cebpf4jnsgd1na2vs0mg"},{"bike_id":"f70d3dab-2fe6-4aa3-85f9-a5dc51cf9105","system_id":"levelo_inurba_marseille","lat":43.25806,"lon":5.39457,"is_reserved":false,"is_disabled":false,"rental_uris":{"android":"levelo://app?vid=f70d3dab-2fe6-4aa3-85f9-a5dc51cf9105","ios":"levelo://app?vid=f70d3dab-2fe6-4aa3-85f9-a5dc51cf9105"},"vehicle_type_id":"4","last_reported":1739124643,"current_range_meters":38800,"station_id":"ce4bhip2rcd13ifvqft0","pricing_plan_id":"cebpf4jnsgd1na2vs0mg"},{"bike_id":"880ce712-c0f5-4aaf-8504-50bcf653db47","system_id":"levelo_inurba_marseille","lat":43.24808,"lon":5.37462,"is_reserved":false,"is_disabled":false,"rental_uris":{"android":"levelo://app?vid=880ce712-c0f5-4aaf-8504-50bcf653db47","ios":"levelo://app?vid=880ce712-c0f5-4aaf-8504-50bcf653db47"},"vehicle_type_id":"4","last_reported":1739124643,"current_range_meters":28000,"station_id":"ce4bhgh2rcd13ifvqfb0","pricing_plan_id":"cebpf4jnsgd1na2vs0mg"},{"bike_id":"013ac57c-0826-426d-84a7-60e833c60d0a","system_id":"levelo_inurba_marseille","lat":43.32337,"lon":5.40617,"is_reserved":false,"is_disabled":false,"rental_uris":{"android":"levelo://app?vid=013ac57c-0826-426d-84a7-60e833c60d0a","ios":"levelo://app?vid=013ac57c-0826-426d-84a7-60e833c60d0a"},"vehicle_type_id":"4","last_reported":1739124643,"current_range_meters":14000,"station_id":"ce4bhq92rcd13ifvqhjg","pricing_plan_id":"cebpf4jnsgd1na2vs0mg"},{"bike_id":"656b3b3b-ebfa-4345-b7c9-9eedd9381155","system_id":"levelo_inurba_marseille","lat":43.30794,"lon":5.40014,"is_reserved":false,"is_disabled":false,"rental_uris":{"android":"levelo://app?vid=656b3b3b-ebfa-4345-b7c9-9eedd9381155","ios":"levelo://app?vid=656b3b3b-ebfa-4345-b7c9-9eedd9381155"},"vehicle_type_id":"4","last_reported":1739124643,"current_range_meters":10800,"station_id":"","pricing_plan_id":"cebpf4jnsgd1na2vs0mg"},{"bike_id":"1528f29a-78cc-4c5c-afa0-b428bc80ea4f","system_id":"levelo_inurba_marseille","lat":43.2849,"lon":5.38552,"is_reserved":false,"is_disabled":false,"rental_uris":{"android":"levelo://app?vid=1528f29a-78cc-4c5c-afa0-b428bc80ea4f","ios":"levelo://app?vid=1528f29a-78cc-4c5c-afa0-b428bc80ea4f"},"vehicle_type_id":"4","last_reported":1739124643,"current_range_meters":19200,"station_id":"ce4bh8p2rcd13ifvqeb0","pricing_plan_id":"cebpf4jnsgd1na2vs0mg"},{"bike_id":"a3202439-b164-4de2-aacb-1a6746630a48","system_id":"levelo_inurba_marseille","lat":43.30405,"lon":5.3678,"is_reserved":false,"is_disabled":true,"rental_uris":{"android":"levelo://app?vid=a3202439-b164-4de2-aacb-1a6746630a48","ios":"levelo://app?vid=a3202439-b164-4de2-aacb-1a6746630a48"},"vehicle_type_id":"4","last_reported":1739124643,"current_range_meters":0,"station_id":"","pricing_plan_id":"cebpf4jnsgd1na2vs0mg"},{"bike_id":"f9ec8a41-50bd-48e3-a9c3-1936ef8a8e37","system_id":"levelo_inurba_marseille","lat":43.26937,"lon":5.38655,"is_reserved":false,"is_disabled":false,"rental_uris":{"android":"levelo://app?vid=f9ec8a41-50bd-48e3-a9c3-1936ef8a8e37","ios":"levelo://app?vid=f9ec8a41-50bd-48e3-a9c3-1936ef8a8e37"},"vehicle_type_id":"4","last_reported":1739124643,"current_range_meters":38800,"station_id":"ce4bhh92rcd13ifvqfh0","pricing_plan_id":"cebpf4jnsgd1na2vs0mg"},{"bike_id":"5f4c0fcb-a35b-4374-aa55-6ae702d7d671","system_id":"levelo_inurba_marseille","lat":43.28454,"lon":5.35894,"is_reserved":false,"is_disabled":false,"rental_uris":{"android":"levelo://app?vid=5f4c0fcb-a35b-4374-aa55-6ae702d7d671","ios":"levelo://app?vid=5f4c0fcb-a35b-4374-aa55-6ae702d7d671"},"vehicle_type_id":"4","last_reported":1739124643,"current_range_meters":36000,"station_id":"ce4bhah2rcd13ifvqei0","pricing_plan_id":"cebpf4jnsgd1na2vs0mg"},{"bike_id":"cc61880e-9fe0-482d-aaa5-5013c22955ec","system_id":"levelo_inurba_marseille","lat":43.30243,"lon":5.40055,"is_reserved":false,"is_disabled":false,"rental_uris":{"android":"levelo://app?vid=cc61880e-9fe0-482d-aaa5-5013c22955ec","ios":"levelo://app?vid=cc61880e-9fe0-482d-aaa5-5013c22955ec"},"vehicle_type_id":"4","last_reported":1739124643,"current_range_meters":22800,"station_id":"ce4bgvh2rcd13ifvqcs0","pricing_plan_id":"cebpf4jnsgd1na2vs0mg"},{"bike_id":"7ea602af-bc8d-4d49-af25-40c9a921e77f","system_id":"levelo_inurba_marseille","lat":43.26945,"lon":5.38913,"is_reserved":false,"is_disabled":false,"rental_uris":{"android":"levelo://app?vid=7ea602af-bc8d-4d49-af25-40c9a921e77f","ios":"levelo://app?vid=7ea602af-bc8d-4d49-af25-40c9a921e77f"},"vehicle_type_id":"4","last_reported":1739124643,"current_range_meters":24800,"station_id":"ce4bhhh2rcd13ifvqfl0","pricing_plan_id":"cebpf4jnsgd1na2vs0mg"},{"bike_id":"7f2deb56-183c-436c-981c-cfbcfece13e6","system_id":"levelo_inurba_marseille","lat":43.23959,"lon":5.36617,"is_reserved":false,"is_disabled":false,"rental_uris":{"android":"levelo://app?vid=7f2deb56-183c-436c-981c-cfbcfece13e6","ios":"levelo://app?vid=7f2deb56-183c-436c-981c-cfbcfece13e6"},"vehicle_type_id":"4","last_reported":1739124643,"current_range_meters":35200,"station_id":"ce4bhi12rcd13ifvqfp0","pricing_plan_id":"cebpf4jnsgd1na2vs0mg"},{"bike_id":"1c392f62-33c0-4d1d-9a0e-eb4241b06292","system_id":"levelo_inurba_marseille","lat":43.24073,"lon":5.37755,"is_reserved":false,"is_disabled":false,"rental_uris":{"android":"levelo://app?vid=1c392f62-33c0-4d1d-9a0e-eb4241b06292","ios":"levelo://app?vid=1c392f62-33c0-4d1d-9a0e-eb4241b06292"},"vehicle_type_id":"4","last_reported":1739124643,"current_range_meters":10800,"station_id":"ce4bhnp2rcd13ifvqgvg","pricing_plan_id":"cebpf4jnsgd1na2vs0mg"},{"bike_id":"a5a14ac8-8c40-406c-865a-09ed98e25470","system_id":"levelo_inurba_marseille","lat":43.23193,"lon":5.35554,"is_reserved":false,"is_disabled":false,"rental_uris":{"android":"levelo://app?vid=a5a14ac8-8c40-406c-865a-09ed98e25470","ios":"levelo://app?vid=a5a14ac8-8c40-406c-865a-09ed98e25470"},"vehicle_type_id":"4","last_reported":1739124643,"current_range_meters":12400,"station_id":"ce4bhu92rcd13ifvqi70","pricing_plan_id":"cebpf4jnsgd1na2vs0mg"},{"bike_id":"9d7240fb-8e21-4950-bea4-7cd7d1bcedc2","system_id":"levelo_inurba_marseille","lat":43.28149,"lon":5.42655,"is_reserved":false,"is_disabled":false,"rental_uris":{"android":"levelo://app?vid=9d7240fb-8e21-4950-bea4-7cd7d1bcedc2","ios":"levelo://app?vid=9d7240fb-8e21-4950-bea4-7cd7d1bcedc2"},"vehicle_type_id":"4","last_reported":1739124643,"current_range_meters":21600,"station_id":"ce4bhnh2rcd13ifvqgug","pricing_plan_id":"cebpf4jnsgd1na2vs0mg"},{"bike_id":"87f55178-b221-4f5a-9b43-4df846d42ec8","system_id":"levelo_inurba_marseille","lat":43.32299,"lon":5.38292,"is_reserved":false,"is_disabled":false,"rental_uris":{"android":"levelo://app?vid=87f55178-b221-4f5a-9b43-4df846d42ec8","ios":"levelo://app?vid=87f55178-b221-4f5a-9b43-4df846d42ec8"},"vehicle_type_id":"4","last_reported":1739124643,"current_range_meters":28000,"station_id":"ce4bhr12rcd13ifvqhqg","pricing_plan_id":"cebpf4jnsgd1na2vs0mg"},{"bike_id":"f7063a1c-a097-45d5-8fdb-84651485ef24","system_id":"levelo_inurba_marseille","lat":43.24676,"lon":5.38153,"is_reserved":false,"is_disabled":false,"rental_uris":{"android":"levelo://app?vid=f7063a1c-a097-45d5-8fdb-84651485ef24","ios":"levelo://app?vid=f7063a1c-a097-45d5-8fdb-84651485ef24"},"vehicle_type_id":"4","last_reported":1739124643,"current_range_meters":38800,"station_id":"ce4bhih2rcd13ifvqfr0","pricing_plan_id":"cebpf4jnsgd1na2vs0mg"},{"bike_id":"ab445631-9e5a-46dc-8708-c7ea376fcabc","system_id":"levelo_inurba_marseille","lat":43.25074,"lon":5.39517,"is_reserved":false,"is_disabled":false,"rental_uris":{"android":"levelo://app?vid=ab445631-9e5a-46dc-8708-c7ea376fcabc","ios":"levelo://app?vid=ab445631-9e5a-46dc-8708-c7ea376fcabc"},"vehicle_type_id":"4","last_reported":1739124643,"current_range_meters":17200,"station_id":"ce4bhm12rcd13ifvqgkg","pricing_plan_id":"cebpf4jnsgd1na2vs0mg"},{"bike_id":"59db9156-837c-4bef-bdf0-6cb05d00fb23","system_id":"levelo_inurba_marseille","lat":43.24167,"lon":5.36391,"is_reserved":false,"is_disabled":false,"rental_uris":{"android":"levelo://app?vid=59db9156-837c-4bef-bdf0-6cb05d00fb23","ios":"levelo://app?vid=59db9156-837c-4bef-bdf0-6cb05d00fb23"},"vehicle_type_id":"4","last_reported":1739124643,"current_range_meters":22800,"station_id":"cpo36qri1sfpv3e86is0","pricing_plan_id":"cebpf4jnsgd1na2vs0mg"},{"bike_id":"23dbd4f7-d283-4466-8ac1-e4ac5dd6280d","system_id":"levelo_inurba_marseille","lat":43.30105,"lon":5.39079,"is_reserved":false,"is_disabled":true,"rental_uris":{"android":"levelo://app?vid=23dbd4f7-d283-4466-8ac1-e4ac5dd6280d","ios":"levelo://app?vid=23dbd4f7-d283-4466-8ac1-e4ac5dd6280d"},"vehicle_type_id":"4","last_reported":1739124643,"current_range_meters":800,"station_id":"ce4bh192rcd13ifvqdb0","pricing_plan_id":"cebpf4jnsgd1na2vs0mg"},{"bike_id":"88b6c431-599c-4df4-bcc1-97374094ac2d","system_id":"levelo_inurba_marseille","lat":43.30207,"lon":5.39473,"is_reserved":false,"is_disabled":false,"rental_uris":{"android":"levelo://app?vid=88b6c431-599c-4df4-bcc1-97374094ac2d","ios":"levelo://app?vid=88b6c431-599c-4df4-bcc1-97374094ac2d"},"vehicle_type_id":"4","last_reported":1739124643,"current_range_meters":26000,"station_id":"ce4bh0p2rcd13ifvqd70","pricing_plan_id":"cebpf4jnsgd1na2vs0mg"},{"bike_id":"f1e9b514-8d63-4512-92a1-4bc9d87c157b","system_id":"levelo_inurba_marseille","lat":43.3169,"lon":5.4371,"is_reserved":false,"is_disabled":true,"rental_uris":{"android":"levelo://app?vid=f1e9b514-8d63-4512-92a1-4bc9d87c157b","ios":"levelo://app?vid=f1e9b514-8d63-4512-92a1-4bc9d87c157b"},"vehicle_type_id":"4","last_reported":1739124643,"current_range_meters":0,"station_id":"ce4bhp92rcd13ifvqhcg","pricing_plan_id":"cebpf4jnsgd1na2vs0mg"},{"bike_id":"a0074d74-cecf-48cb-88d9-dfdc2b2fa810","system_id":"levelo_inurba_marseille","lat":43.23976,"lon":5.366,"is_reserved":false,"is_disabled":false,"rental_uris":{"android":"levelo://app?vid=a0074d74-cecf-48cb-88d9-dfdc2b2fa810","ios":"levelo://app?vid=a0074d74-cecf-48cb-88d9-dfdc2b2fa810"},"vehicle_type_id":"4","last_reported":1739124643,"current_range_meters":16400,"station_id":"ce4bhi12rcd13ifvqfp0","pricing_plan_id":"cebpf4jnsgd1na2vs0mg"},{"bike_id":"81d37ca3-5a86-4697-be03-dd0b787f28cf","system_id":"levelo_inurba_marseille","lat":43.32342,"lon":5.40618,"is_reserved":false,"is_disabled":true,"rental_uris":{"android":"levelo://app?vid=81d37ca3-5a86-4697-be03-dd0b787f28cf","ios":"levelo://app?vid=81d37ca3-5a86-4697-be03-dd0b787f28cf"},"vehicle_type_id":"4","last_reported":1739124643,"current_range_meters":2800,"station_id":"ce4bhq92rcd13ifvqhjg","pricing_plan_id":"cebpf4jnsgd1na2vs0mg"},{"bike_id":"7e424a35-8cf7-4c71-b98f-4231461d22a0","system_id":"levelo_inurba_marseille","lat":43.27503,"lon":5.38981,"is_reserved":false,"is_disabled":false,"rental_uris":{"android":"levelo://app?vid=7e424a35-8cf7-4c71-b98f-4231461d22a0","ios":"levelo://app?vid=7e424a35-8cf7-4c71-b98f-4231461d22a0"},"vehicle_type_id":"4","last_reported":1739124643,"current_range_meters":33200,"station_id":"","pricing_plan_id":"cebpf4jnsgd1na2vs0mg"},{"bike_id":"9189e0cd-d5d1-46a9-97ed-08ec6d7d8cc9","system_id":"levelo_inurba_marseille","lat":43.29968,"lon":5.385,"is_reserved":false,"is_disabled":true,"rental_uris":{"android":"levelo://app?vid=9189e0cd-d5d1-46a9-97ed-08ec6d7d8cc9","ios":"levelo://app?vid=9189e0cd-d5d1-46a9-97ed-08ec6d7d8cc9"},"vehicle_type_id":"4","last_reported":1739124643,"current_range_meters":0,"station_id":"ce4bgj92rcd13ifvqbd0","pricing_plan_id":"cebpf4jnsgd1na2vs0mg"},{"bike_id":"462e50f2-7c1f-4a75-ad87-acef486284a9","system_id":"levelo_inurba_marseille","lat":43.27315,"lon":5.39078,"is_reserved":false,"is_disabled":false,"rental_uris":{"android":"levelo://app?vid=462e50f2-7c1f-4a75-ad87-acef486284a9","ios":"levelo://app?vid=462e50f2-7c1f-4a75-ad87-acef486284a9"},"vehicle_type_id":"4","last_reported":1739124643,"current_range_meters":12400,"station_id":"ce4bhgp2rcd13ifvqfe0","pricing_plan_id":"cebpf4jnsgd1na2vs0mg"},{"bike_id":"9c3ed8fb-7268-418c-ac09-3f255c9e9b5e","system_id":"levelo_inurba_marseille","lat":43.28041,"lon":5.36948,"is_reserved":false,"is_disabled":false,"rental_uris":{"android":"levelo://app?vid=9c3ed8fb-7268-418c-ac09-3f255c9e9b5e","ios":"levelo://app?vid=9c3ed8fb-7268-418c-ac09-3f255c9e9b5e"},"vehicle_type_id":"4","last_reported":1739124643,"current_range_meters":36800,"station_id":"ce4bha12rcd13ifvqef0","pricing_plan_id":"cebpf4jnsgd1na2vs0mg"},{"bike_id":"bb332bdd-3e4b-4ec2-981d-302ffb62602c","system_id":"levelo_inurba_marseille","lat":43.29187,"lon":5.358096,"is_reserved":false,"is_disabled":false,"rental_uris":{"android":"levelo://app?vid=bb332bdd-3e4b-4ec2-981d-302ffb62602c","ios":"levelo://app?vid=bb332bdd-3e4b-4ec2-981d-302ffb62602c"},"vehicle_type_id":"4","last_reported":1739124643,"current_range_meters":38800,"station_id":"ce4bhb12rcd13ifvqel0","pricing_plan_id":"cebpf4jnsgd1na2vs0mg"},{"bike_id":"c91fa3f3-a774-43d0-92fe-010e57bc5d25","system_id":"levelo_inurba_marseille","lat":43.262,"lon":5.37449,"is_reserved":false,"is_disabled":false,"rental_uris":{"android":"levelo://app?vid=c91fa3f3-a774-43d0-92fe-010e57bc5d25","ios":"levelo://app?vid=c91fa3f3-a774-43d0-92fe-010e57bc5d25"},"vehicle_type_id":"4","last_reported":1739124643,"current_range_meters":9200,"station_id":"ce4bhgp2rcd13ifvqfc0","pricing_plan_id":"cebpf4jnsgd1na2vs0mg"},{"bike_id":"277b6126-0441-4bd1-a1f0-147e7c5fd945","system_id":"levelo_inurba_marseille","lat":43.26036,"lon":5.37564,"is_reserved":false,"is_disabled":false,"rental_uris":{"android":"levelo://app?vid=277b6126-0441-4bd1-a1f0-147e7c5fd945","ios":"levelo://app?vid=277b6126-0441-4bd1-a1f0-147e7c5fd945"},"vehicle_type_id":"4","last_reported":1739124643,"current_range_meters":25600,"station_id":"ce4bhgh2rcd13ifvqfa0","pricing_plan_id":"cebpf4jnsgd1na2vs0mg"},{"bike_id":"6ff781d1-2621-44d1-b299-83b571f09432","system_id":"levelo_inurba_marseille","lat":43.34065,"lon":5.38513,"is_reserved":false,"is_disabled":true,"rental_uris":{"android":"levelo://app?vid=6ff781d1-2621-44d1-b299-83b571f09432","ios":"levelo://app?vid=6ff781d1-2621-44d1-b299-83b571f09432"},"vehicle_type_id":"4","last_reported":1739124643,"current_range_meters":0,"station_id":"","pricing_plan_id":"cebpf4jnsgd1na2vs0mg"},{"bike_id":"4bb456e6-a4c6-42a9-8a69-a7349e693bfb","system_id":"levelo_inurba_marseille","lat":43.29529,"lon":5.37502,"is_reserved":false,"is_disabled":true,"rental_uris":{"android":"levelo://app?vid=4bb456e6-a4c6-42a9-8a69-a7349e693bfb","ios":"levelo://app?vid=4bb456e6-a4c6-42a9-8a69-a7349e693bfb"},"vehicle_type_id":"4","last_reported":1739124643,"current_range_meters":12800,"station_id":"ce4bgkp2rcd13ifvqbmg","pricing_plan_id":"cebpf4jnsgd1na2vs0mg"},{"bike_id":"f2354b3b-9398-430a-991c-0c108e9a4c6a","system_id":"levelo_inurba_marseille","lat":43.30308,"lon":5.39191,"is_reserved":false,"is_disabled":true,"rental_uris":{"android":"levelo://app?vid=f2354b3b-9398-430a-991c-0c108e9a4c6a","ios":"levelo://app?vid=f2354b3b-9398-430a-991c-0c108e9a4c6a"},"vehicle_type_id":"4","last_reported":1739124643,"current_range_meters":38000,"station_id":"ce4bgkh2rcd13ifvqbk0","pricing_plan_id":"cebpf4jnsgd1na2vs0mg"},{"bike_id":"023da4ba-3275-433f-9c20-6aa1fe5c1824","system_id":"levelo_inurba_marseille","lat":43.24073,"lon":5.37748,"is_reserved":false,"is_disabled":false,"rental_uris":{"android":"levelo://app?vid=023da4ba-3275-433f-9c20-6aa1fe5c1824","ios":"levelo://app?vid=023da4ba-3275-433f-9c20-6aa1fe5c1824"},"vehicle_type_id":"4","last_reported":1739124643,"current_range_meters":34000,"station_id":"ce4bhnp2rcd13ifvqgvg","pricing_plan_id":"cebpf4jnsgd1na2vs0mg"},{"bike_id":"96c6cbf1-f325-4ff5-b335-559a8ea0ba69","system_id":"levelo_inurba_marseille","lat":43.26556,"lon":5.39005,"is_reserved":false,"is_disabled":false,"rental_uris":{"android":"levelo://app?vid=96c6cbf1-f325-4ff5-b335-559a8ea0ba69","ios":"levelo://app?vid=96c6cbf1-f325-4ff5-b335-559a8ea0ba69"},"vehicle_type_id":"4","last_reported":1739124643,"current_range_meters":26000,"station_id":"ce4bhe12rcd13ifvqf30","pricing_plan_id":"cebpf4jnsgd1na2vs0mg"},{"bike_id":"476ac844-d2a6-4abc-8253-752e91c59782","system_id":"levelo_inurba_marseille","lat":43.2509,"lon":5.40344,"is_reserved":false,"is_disabled":true,"rental_uris":{"android":"levelo://app?vid=476ac844-d2a6-4abc-8253-752e91c59782","ios":"levelo://app?vid=476ac844-d2a6-4abc-8253-752e91c59782"},"vehicle_type_id":"4","last_reported":1739124643,"current_range_meters":1600,"station_id":"ce4bhlh2rcd13ifvqgig","pricing_plan_id":"cebpf4jnsgd1na2vs0mg"},{"bike_id":"03dc0a60-23d6-429c-a406-0c86a8f516e4","system_id":"levelo_inurba_marseille","lat":43.24159,"lon":5.39705,"is_reserved":false,"is_disabled":false,"rental_uris":{"android":"levelo://app?vid=03dc0a60-23d6-429c-a406-0c86a8f516e4","ios":"levelo://app?vid=03dc0a60-23d6-429c-a406-0c86a8f516e4"},"vehicle_type_id":"4","last_reported":1739124643,"current_range_meters":32400,"station_id":"ce4bhn12rcd13ifvqgpg","pricing_plan_id":"cebpf4jnsgd1na2vs0mg"},{"bike_id":"625eccb7-48b1-4966-9716-d68a74423c66","system_id":"levelo_inurba_marseille","lat":43.30244,"lon":5.40046,"is_reserved":false,"is_disabled":false,"rental_uris":{"android":"levelo://app?vid=625eccb7-48b1-4966-9716-d68a74423c66","ios":"levelo://app?vid=625eccb7-48b1-4966-9716-d68a74423c66"},"vehicle_type_id":"4","last_reported":1739124643,"current_range_meters":6000,"station_id":"ce4bgvh2rcd13ifvqcs0","pricing_plan_id":"cebpf4jnsgd1na2vs0mg"},{"bike_id":"37fc9ecf-d187-4780-98f8-bfafd8664be0","system_id":"levelo_inurba_marseille","lat":43.26549,"lon":5.37302,"is_reserved":false,"is_disabled":true,"rental_uris":{"android":"levelo://app?vid=37fc9ecf-d187-4780-98f8-bfafd8664be0","ios":"levelo://app?vid=37fc9ecf-d187-4780-98f8-bfafd8664be0"},"vehicle_type_id":"4","last_reported":1739124643,"current_range_meters":36000,"station_id":"ce4bhg12rcd13ifvqf70","pricing_plan_id":"cebpf4jnsgd1na2vs0mg"},{"bike_id":"e2200dc8-d2f7-4f30-b1b2-4f395de74e61","system_id":"levelo_inurba_marseille","lat":43.31117,"lon":5.37774,"is_reserved":false,"is_disabled":false,"rental_uris":{"android":"levelo://app?vid=e2200dc8-d2f7-4f30-b1b2-4f395de74e61","ios":"levelo://app?vid=e2200dc8-d2f7-4f30-b1b2-4f395de74e61"},"vehicle_type_id":"4","last_reported":1739124643,"current_range_meters":24800,"station_id":"ce4bgt92rcd13ifvqcg0","pricing_plan_id":"cebpf4jnsgd1na2vs0mg"},{"bike_id":"6dc8aad2-7037-4229-8043-78cd60c32539","system_id":"levelo_inurba_marseille","lat":43.23966,"lon":5.36612,"is_reserved":false,"is_disabled":false,"rental_uris":{"android":"levelo://app?vid=6dc8aad2-7037-4229-8043-78cd60c32539","ios":"levelo://app?vid=6dc8aad2-7037-4229-8043-78cd60c32539"},"vehicle_type_id":"4","last_reported":1739124643,"current_range_meters":38800,"station_id":"ce4bhi12rcd13ifvqfp0","pricing_plan_id":"cebpf4jnsgd1na2vs0mg"},{"bike_id":"e002860a-7789-4610-a3cb-935b4458849f","system_id":"levelo_inurba_marseille","lat":43.29026,"lon":5.38642,"is_reserved":false,"is_disabled":false,"rental_uris":{"android":"levelo://app?vid=e002860a-7789-4610-a3cb-935b4458849f","ios":"levelo://app?vid=e002860a-7789-4610-a3cb-935b4458849f"},"vehicle_type_id":"4","last_reported":1739124643,"current_range_meters":34800,"station_id":"ce4bh4p2rcd13ifvqe0g","pricing_plan_id":"cebpf4jnsgd1na2vs0mg"},{"bike_id":"2c51fea0-2904-4e58-9ff4-b988a0f11037","system_id":"levelo_inurba_marseille","lat":43.32118,"lon":5.36787,"is_reserved":false,"is_disabled":true,"rental_uris":{"android":"levelo://app?vid=2c51fea0-2904-4e58-9ff4-b988a0f11037","ios":"levelo://app?vid=2c51fea0-2904-4e58-9ff4-b988a0f11037"},"vehicle_type_id":"4","last_reported":1739124643,"current_range_meters":400,"station_id":"ce4bhrh2rcd13ifvqhug","pricing_plan_id":"cebpf4jnsgd1na2vs0mg"},{"bike_id":"e46e02c5-b75f-448c-899d-44c5dc77495b","system_id":"levelo_inurba_marseille","lat":43.31165,"lon":5.38716,"is_reserved":false,"is_disabled":false,"rental_uris":{"android":"levelo://app?vid=e46e02c5-b75f-448c-899d-44c5dc77495b","ios":"levelo://app?vid=e46e02c5-b75f-448c-899d-44c5dc77495b"},"vehicle_type_id":"4","last_reported":1739124643,"current_range_meters":38800,"station_id":"ce4bgv12rcd13ifvqcp0","pricing_plan_id":"cebpf4jnsgd1na2vs0mg"},{"bike_id":"df199ea2-6423-4e47-8a78-4d2e4b95c9f1","system_id":"levelo_inurba_marseille","lat":43.30876,"lon":5.3963,"is_reserved":false,"is_disabled":true,"rental_uris":{"android":"levelo://app?vid=df199ea2-6423-4e47-8a78-4d2e4b95c9f1","ios":"levelo://app?vid=df199ea2-6423-4e47-8a78-4d2e4b95c9f1"},"vehicle_type_id":"4","last_reported":1739124643,"current_range_meters":34000,"station_id":"ce4bh012rcd13ifvqcv0","pricing_plan_id":"cebpf4jnsgd1na2vs0mg"},{"bike_id":"ffe0f4ec-452b-455a-97e3-ecc9f5ed121c","system_id":"levelo_inurba_marseille","lat":43.29871,"lon":5.38905,"is_reserved":false,"is_disabled":true,"rental_uris":{"android":"levelo://app?vid=ffe0f4ec-452b-455a-97e3-ecc9f5ed121c","ios":"levelo://app?vid=ffe0f4ec-452b-455a-97e3-ecc9f5ed121c"},"vehicle_type_id":"4","last_reported":1739124643,"current_range_meters":34800,"station_id":"ce4bh392rcd13ifvqdl0","pricing_plan_id":"cebpf4jnsgd1na2vs0mg"},{"bike_id":"760452c7-af5d-4834-897a-ff670c665882","system_id":"levelo_inurba_marseille","lat":43.308,"lon":5.37645,"is_reserved":false,"is_disabled":false,"rental_uris":{"android":"levelo://app?vid=760452c7-af5d-4834-897a-ff670c665882","ios":"levelo://app?vid=760452c7-af5d-4834-897a-ff670c665882"},"vehicle_type_id":"4","last_reported":1739124643,"current_range_meters":27200,"station_id":"ce4bgv92rcd13ifvqcq0","pricing_plan_id":"cebpf4jnsgd1na2vs0mg"},{"bike_id":"4eacaa73-d5d0-401f-bbc8-6544e2f5874f","system_id":"levelo_inurba_marseille","lat":43.27359,"lon":5.39112,"is_reserved":false,"is_disabled":false,"rental_uris":{"android":"levelo://app?vid=4eacaa73-d5d0-401f-bbc8-6544e2f5874f","ios":"levelo://app?vid=4eacaa73-d5d0-401f-bbc8-6544e2f5874f"},"vehicle_type_id":"4","last_reported":1739124643,"current_range_meters":39200,"station_id":"ce4bhgp2rcd13ifvqfe0","pricing_plan_id":"cebpf4jnsgd1na2vs0mg"},{"bike_id":"ba7ee4cf-06c6-4ade-a0a9-8943be131ee5","system_id":"levelo_inurba_marseille","lat":43.2797,"lon":5.38726,"is_reserved":false,"is_disabled":false,"rental_uris":{"android":"levelo://app?vid=ba7ee4cf-06c6-4ade-a0a9-8943be131ee5","ios":"levelo://app?vid=ba7ee4cf-06c6-4ade-a0a9-8943be131ee5"},"vehicle_type_id":"4","last_reported":1739124643,"current_range_meters":38000,"station_id":"ce4bhg12rcd13ifvqf80","pricing_plan_id":"cebpf4jnsgd1na2vs0mg"},{"bike_id":"6264b7dc-4326-4956-8764-3524e54de74d","system_id":"levelo_inurba_marseille","lat":43.30132,"lon":5.398506,"is_reserved":false,"is_disabled":false,"rental_uris":{"android":"levelo://app?vid=6264b7dc-4326-4956-8764-3524e54de74d","ios":"levelo://app?vid=6264b7dc-4326-4956-8764-3524e54de74d"},"vehicle_type_id":"4","last_reported":1739124643,"current_range_meters":20000,"station_id":"ce4bh0h2rcd13ifvqd40","pricing_plan_id":"cebpf4jnsgd1na2vs0mg"},{"bike_id":"d337dd07-cb55-41cf-aec8-70eb6eb9ce07","system_id":"levelo_inurba_marseille","lat":43.28336,"lon":5.38108,"is_reserved":false,"is_disabled":false,"rental_uris":{"android":"levelo://app?vid=d337dd07-cb55-41cf-aec8-70eb6eb9ce07","ios":"levelo://app?vid=d337dd07-cb55-41cf-aec8-70eb6eb9ce07"},"vehicle_type_id":"4","last_reported":1739124643,"current_range_meters":24800,"station_id":"ce4bh412rcd13ifvqdr0","pricing_plan_id":"cebpf4jnsgd1na2vs0mg"},{"bike_id":"d51f1456-524e-490c-84b1-302d3f32c03d","system_id":"levelo_inurba_marseille","lat":43.31131,"lon":5.38261,"is_reserved":false,"is_disabled":false,"rental_uris":{"android":"levelo://app?vid=d51f1456-524e-490c-84b1-302d3f32c03d","ios":"levelo://app?vid=d51f1456-524e-490c-84b1-302d3f32c03d"},"vehicle_type_id":"4","last_reported":1739124643,"current_range_meters":30000,"station_id":"","pricing_plan_id":"cebpf4jnsgd1na2vs0mg"},{"bike_id":"d8f62340-4eca-4551-9614-e0d9ad9e8911","system_id":"levelo_inurba_marseille","lat":43.26943,"lon":5.38636,"is_reserved":false,"is_disabled":false,"rental_uris":{"android":"levelo://app?vid=d8f62340-4eca-4551-9614-e0d9ad9e8911","ios":"levelo://app?vid=d8f62340-4eca-4551-9614-e0d9ad9e8911"},"vehicle_type_id":"4","last_reported":1739124643,"current_range_meters":12800,"station_id":"ce4bhh92rcd13ifvqfh0","pricing_plan_id":"cebpf4jnsgd1na2vs0mg"},{"bike_id":"dba34b68-289d-41cb-b6c9-0ee69ee0b137","system_id":"levelo_inurba_marseille","lat":43.28851,"lon":5.35865,"is_reserved":false,"is_disabled":false,"rental_uris":{"android":"levelo://app?vid=dba34b68-289d-41cb-b6c9-0ee69ee0b137","ios":"levelo://app?vid=dba34b68-289d-41cb-b6c9-0ee69ee0b137"},"vehicle_type_id":"4","last_reported":1739124643,"current_range_meters":14800,"station_id":"ce4bhb12rcd13ifvqem0","pricing_plan_id":"cebpf4jnsgd1na2vs0mg"},{"bike_id":"dec3e81a-2a6d-47e2-85e2-98535e780eba","system_id":"levelo_inurba_marseille","lat":43.32284,"lon":5.38281,"is_reserved":false,"is_disabled":false,"rental_uris":{"android":"levelo://app?vid=dec3e81a-2a6d-47e2-85e2-98535e780eba","ios":"levelo://app?vid=dec3e81a-2a6d-47e2-85e2-98535e780eba"},"vehicle_type_id":"4","last_reported":1739124643,"current_range_meters":3600,"station_id":"ce4bhr12rcd13ifvqhqg","pricing_plan_id":"cebpf4jnsgd1na2vs0mg"},{"bike_id":"4f3e6e81-556e-4a1f-86e6-f1d5d993a9ca","system_id":"levelo_inurba_marseille","lat":43.28496,"lon":5.38443,"is_reserved":false,"is_disabled":false,"rental_uris":{"android":"levelo://app?vid=4f3e6e81-556e-4a1f-86e6-f1d5d993a9ca","ios":"levelo://app?vid=4f3e6e81-556e-4a1f-86e6-f1d5d993a9ca"},"vehicle_type_id":"4","last_reported":1739124643,"current_range_meters":37600,"station_id":"ce4bh512rcd13ifvqe3g","pricing_plan_id":"cebpf4jnsgd1na2vs0mg"},{"bike_id":"2d292330-a567-496b-9109-ce8ee28be20d","system_id":"levelo_inurba_marseille","lat":43.298495,"lon":5.362957,"is_reserved":false,"is_disabled":true,"rental_uris":{"android":"levelo://app?vid=2d292330-a567-496b-9109-ce8ee28be20d","ios":"levelo://app?vid=2d292330-a567-496b-9109-ce8ee28be20d"},"vehicle_type_id":"4","last_reported":1739124643,"current_range_meters":16000,"station_id":"ce4bgpp2rcd13ifvqc3g","pricing_plan_id":"cebpf4jnsgd1na2vs0mg"},{"bike_id":"4ba591b6-ab5e-4982-bae7-e3c883970d67","system_id":"levelo_inurba_marseille","lat":43.30151,"lon":5.38105,"is_reserved":false,"is_disabled":true,"rental_uris":{"android":"levelo://app?vid=4ba591b6-ab5e-4982-bae7-e3c883970d67","ios":"levelo://app?vid=4ba591b6-ab5e-4982-bae7-e3c883970d67"},"vehicle_type_id":"4","last_reported":1739124643,"current_range_meters":38800,"station_id":"ce4bgjp2rcd13ifvqbh0","pricing_plan_id":"cebpf4jnsgd1na2vs0mg"},{"bike_id":"59295360-0154-4e1d-9d13-5af69c469e94","system_id":"levelo_inurba_marseille","lat":43.2862,"lon":5.35096,"is_reserved":false,"is_disabled":true,"rental_uris":{"android":"levelo://app?vid=59295360-0154-4e1d-9d13-5af69c469e94","ios":"levelo://app?vid=59295360-0154-4e1d-9d13-5af69c469e94"},