{"last_updated":1685729294,"ttl":30,"version":"2.2","data":{"bikes":[{"bike_id":"9bd4be1e-cf31-400e-9e92-a13c958c27aa","system_id":"levelo_inurba_marseille","lat":43.312239,"lon":5.368562,"is_reserved":false,"is_disabled":false,"rental_uris":{"android":"levelo://app?vid=9bd4be1e-cf31-400e-9e92-a13c958c27aa","ios":"levelo://app?vid=9bd4be1e-cf31-400e-9e92-a13c958c27aa"},"vehicle_type_id":"4","last_reported":1685729295,"current_range_meters":11600,"station_id":"ce4bgl92rcd13ifvqbq0","pricing_plan_id":"free"},{"bike_id":"25f6f60d-5bd8-4631-b651-8b211826eb8e","system_id":"levelo_inurba_marseille","lat":43.314811,"lon":5.373103,"is_reserved":false,"is_disabled":false,"rental_uris":{"android":"levelo://app?vid=25f6f60d-5bd8-4631-b651-8b211826eb8e","ios":"levelo://app?vid=25f6f60d-5bd8-4631-b651-8b211826eb8e"},"vehicle_type_id":"4","last_reported":1685729295,"current_range_meters":13600,"station_id":"ce4bgt12rcd13ifvqcd0","pricing_plan_id":"free"},{"bike_id":"8a42c83e-5223-462f-a09a-095698be9262","system_id":"levelo_inurba_marseille","lat":43.314811,"lon":5.373103,"is_reserved":false,"is_disabled":false,"rental_uris":{"android":"levelo://app?vid=8a42c83e-5223-462f-a09a-095698be9262","ios":"levelo://app?vid=8a42c83e-5223-462f-a09a-095698be9262"},"vehicle_type_id":"4","last_reported":1685729295,"current_range_meters":2000,"station_id":"ce4bgt12rcd13ifvqcd0","pricing_plan_id":"free"},{"bike_id":"890e93ac-4bac-484a-baff-b468d73fa7c8","system_id":"levelo_inurba_marseille","lat":43.31318,"lon":5.3765,"is_reserved":false,"is_disabled":false,"rental_uris":{"android":"levelo://app?vid=890e93ac-4bac-484a-baff-b468d73fa7c8","ios":"levelo://app?vid=890e93ac-4bac-484a-baff-b468d73fa7c8"},"vehicle_type_id":"4","last_reported":1685729295,"current_range_meters":13200,"station_id":"","pricing_plan_id":"free"},{"bike_id":"4d43e892-ec90-4fce-8475-f727fed3851f","system_id":"levelo_inurba_marseille","lat":43.31984,"lon":5.3658,"is_reserved":false,"is_disabled":false,"rental_uris":{"android":"levelo://app?vid=4d43e892-ec90-4fce-8475-f727fed3851f","ios":"levelo://app?vid=4d43e892-ec90-4fce-8475-f727fed3851f"},"vehicle_type_id":"4","last_reported":1685729295,"current_range_meters":8400,"station_id":"","pricing_plan_id":"free"},{"bike_id":"ad4557f4-1a80-4954-9fc7-3092c17c006b","system_id":"levelo_inurba_marseille","lat":43.305989,"lon":5.37225,"is_reserved":false,"is_disabled":false,"rental_uris":{"android":"levelo://app?vid=ad4557f4-1a80-4954-9fc7-3092c17c006b","ios":"levelo://app?vid=ad4557f4-1a80-4954-9fc7-3092c17c006b"},"vehicle_type_id":"4","last_reported":1685729295,"current_range_meters":0,"station_id":"ce4bgqh2rcd13ifvqc4g","pricing_plan_id":"free"},{"bike_id":"479151bc-d336-4e24-a6af-f86ef62249cb","system_id":"levelo_inurba_marseille","lat":43.311131,"lon":5.377651,"is_reserved":false,"is_disabled":false,"rental_uris":{"android":"levelo://app?vid=479151bc-d336-4e24-a6af-f86ef62249cb","ios":"levelo://app?vid=479151bc-d336-4e24-a6af-f86ef62249cb"},"vehicle_type_id":"4","last_reported":1685729295,"current_range_meters":8000,"station_id":"ce4bgt92rcd13ifvqcg0","pricing_plan_id":"free"},{"bike_id":"aea7f148-98f0-46bb-b212-f218e98938d4","system_id":"levelo_inurba_marseille","lat":43.317075,"lon":5.377367,"is_reserved":false,"is_disabled":false,"rental_uris":{"android":"levelo://app?vid=aea7f148-98f0-46bb-b212-f218e98938d4","ios":"levelo://app?vid=aea7f148-98f0-46bb-b212-f218e98938d4"},"vehicle_type_id":"4","last_reported":1685729295,"current_range_meters":22400,"station_id":"ce4bgth2rcd13ifvqch0","pricing_plan_id":"free"},{"bike_id":"1d0fadcb-8867-4330-b461-6bee337d7e30","system_id":"levelo_inurba_marseille","lat":43.317075,"lon":5.377367,"is_reserved":false,"is_disabled":false,"rental_uris":{"android":"levelo://app?vid=1d0fadcb-8867-4330-b461-6bee337d7e30","ios":"levelo://app?vid=1d0fadcb-8867-4330-b461-6bee337d7e30"},"vehicle_type_id":"4","last_reported":1685729295,"current_range_meters":21200,"station_id":"ce4bgth2rcd13ifvqch0","pricing_plan_id":"free"},{"bike_id":"4f0ac690-a12e-4b88-9abd-a29f0ba92a6e","system_id":"levelo_inurba_marseille","lat":43.317075,"lon":5.377367,"is_reserved":false,"is_disabled":false,"rental_uris":{"android":"levelo://app?vid=4f0ac690-a12e-4b88-9abd-a29f0ba92a6e","ios":"levelo://app?vid=4f0ac690-a12e-4b88-9abd-a29f0ba92a6e"},"vehicle_type_id":"4","last_reported":1685729295,"current_range_meters":16400,"station_id":"ce4bgth2rcd13ifvqch0","pricing_plan_id":"free"},{"bike_id":"f5db6686-8328-44e7-a9da-9d2774a5ea39","system_id":"levelo_inurba_marseille","lat":43.317075,"lon":5.377367,"is_reserved":false,"is_disabled":false,"rental_uris":{"android":"levelo://app?vid=f5db6686-8328-44e7-a9da-9d2774a5ea39","ios":"levelo://app?vid=f5db6686-8328-44e7-a9da-9d2774a5ea39"},"vehicle_type_id":"4","last_reported":1685729295,"current_range_meters":21200,"station_id":"ce4bgth2rcd13ifvqch0","pricing_plan_id":"free"},{"bike_id":"ee8e91bb-009e-4eaa-9032-f9fc550cd2c6","system_id":"levelo_inurba_marseille","lat":43.315293,"lon":5.380349,"is_reserved":false,"is_disabled":false,"rental_uris":{"android":"levelo://app?vid=ee8e91bb-009e-4eaa-9032-f9fc550cd2c6","ios":"levelo://app?vid=ee8e91bb-009e-4eaa-9032-f9fc550cd2c6"},"vehicle_type_id":"4","last_reported":1685729295,"current_range_meters":25600,"station_id":"ce4bhsp2rcd13ifvqi50","pricing_plan_id":"free"},{"bike_id":"64668d62-2c56-40da-9e4a-cb84a2c2ea4d","system_id":"levelo_inurba_marseille","lat":43.31002,"lon":5.38021,"is_reserved":false,"is_disabled":false,"rental_uris":{"android":"levelo://app?vid=64668d62-2c56-40da-9e4a-cb84a2c2ea4d","ios":"levelo://app?vid=64668d62-2c56-40da-9e4a-cb84a2c2ea4d"},"vehicle_type_id":"4","last_reported":1685729295,"current_range_meters":400,"station_id":"","pricing_plan_id":"free"},{"bike_id":"7b60aa04-7f9f-4139-ad59-0bcd99ae663f","system_id":"levelo_inurba_marseille","lat":43.315293,"lon":5.380349,"is_reserved":false,"is_disabled":false,"rental_uris":{"android":"levelo://app?vid=7b60aa04-7f9f-4139-ad59-0bcd99ae663f","ios":"levelo://app?vid=7b60aa04-7f9f-4139-ad59-0bcd99ae663f"},"vehicle_type_id":"4","last_reported":1685729295,"current_range_meters":0,"station_id":"ce4bhsp2rcd13ifvqi50","pricing_plan_id":"free"},{"bike_id":"593949ec-fbe6-4d29-a3d3-1e82d70813c0","system_id":"levelo_inurba_marseille","lat":43.304606,"lon":5.379026,"is_reserved":false,"is_disabled":false,"rental_uris":{"android":"levelo://app?vid=593949ec-fbe6-4d29-a3d3-1e82d70813c0","ios":"levelo://app?vid=593949ec-fbe6-4d29-a3d3-1e82d70813c0"},"vehicle_type_id":"4","last_reported":1685729295,"current_range_meters":30000,"station_id":"ce4bgup2rcd13ifvqcn0","pricing_plan_id":"free"},{"bike_id":"12e751dd-a712-41ed-afd0-9c9782708328","system_id":"levelo_inurba_marseille","lat":43.304606,"lon":5.379026,"is_reserved":false,"is_disabled":false,"rental_uris":{"android":"levelo://app?vid=12e751dd-a712-41ed-afd0-9c9782708328","ios":"levelo://app?vid=12e751dd-a712-41ed-afd0-9c9782708328"},"vehicle_type_id":"4","last_reported":1685729295,"current_range_meters":24400,"station_id":"ce4bgup2rcd13ifvqcn0","pricing_plan_id":"free"},{"bike_id":"49fa63dd-a501-41b0-96a0-8bcfdd9bf939","system_id":"levelo_inurba_marseille","lat":43.304606,"lon":5.379026,"is_reserved":false,"is_disabled":false,"rental_uris":{"android":"levelo://app?vid=49fa63dd-a501-41b0-96a0-8bcfdd9bf939","ios":"levelo://app?vid=49fa63dd-a501-41b0-96a0-8bcfdd9bf939"},"vehicle_type_id":"4","last_reported":1685729295,"current_range_meters":28800,"station_id":"ce4bgup2rcd13ifvqcn0","pricing_plan_id":"free"},{"bike_id":"d0d55404-679f-4cf6-9d6d-a41a14870faa","system_id":"levelo_inurba_marseille","lat":43.304606,"lon":5.379026,"is_reserved":false,"is_disabled":false,"rental_uris":{"android":"levelo://app?vid=d0d55404-679f-4cf6-9d6d-a41a14870faa","ios":"levelo://app?vid=d0d55404-679f-4cf6-9d6d-a41a14870faa"},"vehicle_type_id":"4","last_reported":1685729295,"current_range_meters":31200,"station_id":"ce4bgup2rcd13ifvqcn0","pricing_plan_id":"free"},{"bike_id":"0a56b8f2-198e-4753-823a-5c07473cf78e","system_id":"levelo_inurba_marseille","lat":43.304606,"lon":5.379026,"is_reserved":false,"is_disabled":false,"rental_uris":{"android":"levelo://app?vid=0a56b8f2-198e-4753-823a-5c07473cf78e","ios":"levelo://app?vid=0a56b8f2-198e-4753-823a-5c07473cf78e"},"vehicle_type_id":"4","last_reported":1685729295,"current_range_meters":28800,"station_id":"ce4bgup2rcd13ifvqcn0","pricing_plan_id":"free"},{"bike_id":"8c3cbb59-cd72-4768-8a58-eb62ab11aad1","system_id":"levelo_inurba_marseille","lat":43.319935,"lon":5.381699,"is_reserved":false,"is_disabled":false,"rental_uris":{"android":"levelo://app?vid=8c3cbb59-cd72-4768-8a58-eb62ab11aad1","ios":"levelo://app?vid=8c3cbb59-cd72-4768-8a58-eb62ab11aad1"},"vehicle_type_id":"4","last_reported":1685729295,"current_range_meters":31200,"station_id":"ce4bhr12rcd13ifvqhpg","pricing_plan_id":"free"},{"bike_id":"b6af2cee-22c0-4696-a3cc-c5ab5878f58f","system_id":"levelo_inurba_marseille","lat":43.319935,"lon":5.381699,"is_reserved":false,"is_disabled":false,"rental_uris":{"android":"levelo://app?vid=b6af2cee-22c0-4696-a3cc-c5ab5878f58f","ios":"levelo://app?vid=b6af2cee-22c0-4696-a3cc-c5ab5878f58f"},"vehicle_type_id":"4","last_reported":1685729295,"current_range_meters":30800,"station_id":"ce4bhr12rcd13ifvqhpg","pricing_plan_id":"free"},{"bike_id":"ad129339-b339-4ccc-9ee0-2774c8b55114","system_id":"levelo_inurba_marseille","lat":43.32001,"lon":5.38146,"is_reserved":false,"is_disabled":false,"rental_uris":{"android":"levelo://app?vid=ad129339-b339-4ccc-9ee0-2774c8b55114","ios":"levelo://app?vid=ad129339-b339-4ccc-9ee0-2774c8b55114"},"vehicle_type_id":"4","last_reported":1685729295,"current_range_meters":27600,"station_id":"ce4bhr12rcd13ifvqhpg","pricing_plan_id":"free"},{"bike_id":"6117bf67-4681-4fa7-a1b3-3d7c12765a98","system_id":"levelo_inurba_marseille","lat":43.29939,"lon":5.36559,"is_reserved":false,"is_disabled":false,"rental_uris":{"android":"levelo://app?vid=6117bf67-4681-4fa7-a1b3-3d7c12765a98","ios":"levelo://app?vid=6117bf67-4681-4fa7-a1b3-3d7c12765a98"},"vehicle_type_id":"4","last_reported":1685729295,"current_range_meters":7600,"station_id":"ce4bgm92rcd13ifvqbr0","pricing_plan_id":"free"},{"bike_id":"cb07ad9c-f503-4163-a300-52981ee5d608","system_id":"levelo_inurba_marseille","lat":43.299222,"lon":5.365554,"is_reserved":false,"is_disabled":false,"rental_uris":{"android":"levelo://app?vid=cb07ad9c-f503-4163-a300-52981ee5d608","ios":"levelo://app?vid=cb07ad9c-f503-4163-a300-52981ee5d608"},"vehicle_type_id":"4","last_reported":1685729295,"current_range_meters":0,"station_id":"ce4bgm92rcd13ifvqbr0","pricing_plan_id":"free"},{"bike_id":"331c3893-ba6c-44a8-9fee-a5931a0bd02f","system_id":"levelo_inurba_marseille","lat":43.29933,"lon":5.36554,"is_reserved":false,"is_disabled":false,"rental_uris":{"android":"levelo://app?vid=331c3893-ba6c-44a8-9fee-a5931a0bd02f","ios":"levelo://app?vid=331c3893-ba6c-44a8-9fee-a5931a0bd02f"},"vehicle_type_id":"4","last_reported":1685729295,"current_range_meters":9600,"station_id":"","pricing_plan_id":"free"},{"bike_id":"91e61b01-d651-4311-8344-b44ec95be209","system_id":"levelo_inurba_marseille","lat":43.298433,"lon":5.362774,"is_reserved":false,"is_disabled":false,"rental_uris":{"android":"levelo://app?vid=91e61b01-d651-4311-8344-b44ec95be209","ios":"levelo://app?vid=91e61b01-d651-4311-8344-b44ec95be209"},"vehicle_type_id":"4","last_reported":1685729295,"current_range_meters":0,"station_id":"ce4bgpp2rcd13ifvqc3g","pricing_plan_id":"free"},{"bike_id":"229d1a81-8a2e-4c99-a092-c79c1b9e9e13","system_id":"levelo_inurba_marseille","lat":43.298433,"lon":5.362774,"is_reserved":false,"is_disabled":false,"rental_uris":{"android":"levelo://app?vid=229d1a81-8a2e-4c99-a092-c79c1b9e9e13","ios":"levelo://app?vid=229d1a81-8a2e-4c99-a092-c79c1b9e9e13"},"vehicle_type_id":"4","last_reported":1685729295,"current_range_meters":23600,"station_id":"ce4bgpp2rcd13ifvqc3g","pricing_plan_id":"free"},{"bike_id":"e208c93c-d04e-4985-8ec5-dde7593f7c6e","system_id":"levelo_inurba_marseille","lat":43.298433,"lon":5.362774,"is_reserved":false,"is_disabled":false,"rental_uris":{"android":"levelo://app?vid=e208c93c-d04e-4985-8ec5-dde7593f7c6e","ios":"levelo://app?vid=e208c93c-d04e-4985-8ec5-dde7593f7c6e"},"vehicle_type_id":"4","last_reported":1685729295,"current_range_meters":6400,"station_id":"ce4bgpp2rcd13ifvqc3g","pricing_plan_id":"free"},{"bike_id":"18ea538e-49d3-425e-b149-2b90c7848b6f","system_id":"levelo_inurba_marseille","lat":43.298433,"lon":5.362774,"is_reserved":false,"is_disabled":false,"rental_uris":{"android":"levelo://app?vid=18ea538e-49d3-425e-b149-2b90c7848b6f","ios":"levelo://app?vid=18ea538e-49d3-425e-b149-2b90c7848b6f"},"vehicle_type_id":"4","last_reported":1685729295,"current_range_meters":18800,"station_id":"ce4bgpp2rcd13ifvqc3g","pricing_plan_id":"free"},{"bike_id":"235120e3-52d1-4552-b95d-d0e6628cd24f","system_id":"levelo_inurba_marseille","lat":43.311722,"lon":5.387247,"is_reserved":false,"is_disabled":false,"rental_uris":{"android":"levelo://app?vid=235120e3-52d1-4552-b95d-d0e6628cd24f","ios":"levelo://app?vid=235120e3-52d1-4552-b95d-d0e6628cd24f"},"vehicle_type_id":"4","last_reported":1685729295,"current_range_meters":0,"station_id":"ce4bgv12rcd13ifvqcp0","pricing_plan_id":"free"},{"bike_id":"5c616f64-46b7-4e95-85ec-4933f5398281","system_id":"levelo_inurba_marseille","lat":43.309589,"lon":5.390258,"is_reserved":false,"is_disabled":false,"rental_uris":{"android":"levelo://app?vid=5c616f64-46b7-4e95-85ec-4933f5398281","ios":"levelo://app?vid=5c616f64-46b7-4e95-85ec-4933f5398281"},"vehicle_type_id":"4","last_reported":1685729295,"current_range_meters":21600,"station_id":"ce4bgup2rcd13ifvqco0","pricing_plan_id":"free"},{"bike_id":"7652560c-7deb-42f7-934b-ad6212fb0a0d","system_id":"levelo_inurba_marseille","lat":43.328371,"lon":5.366909,"is_reserved":false,"is_disabled":false,"rental_uris":{"android":"levelo://app?vid=7652560c-7deb-42f7-934b-ad6212fb0a0d","ios":"levelo://app?vid=7652560c-7deb-42f7-934b-ad6212fb0a0d"},"vehicle_type_id":"4","last_reported":1685729295,"current_range_meters":19200,"station_id":"ce4bhs92rcd13ifvqi0g","pricing_plan_id":"free"},{"bike_id":"048d6a5e-97c9-4f67-bf89-16ecba2081b0","system_id":"levelo_inurba_marseille","lat":43.328371,"lon":5.366909,"is_reserved":false,"is_disabled":false,"rental_uris":{"android":"levelo://app?vid=048d6a5e-97c9-4f67-bf89-16ecba2081b0","ios":"levelo://app?vid=048d6a5e-97c9-4f67-bf89-16ecba2081b0"},"vehicle_type_id":"4","last_reported":1685729295,"current_range_meters":2400,"station_id":"ce4bhs92rcd13ifvqi0g","pricing_plan_id":"free"},{"bike_id":"6dab6eca-b352-49ea-add2-026ea7782376","system_id":"levelo_inurba_marseille","lat":43.328371,"lon":5.366909,"is_reserved":false,"is_disabled":false,"rental_uris":{"android":"levelo://app?vid=6dab6eca-b352-49ea-add2-026ea7782376","ios":"levelo://app?vid=6dab6eca-b352-49ea-add2-026ea7782376"},"vehicle_type_id":"4","last_reported":1685729295,"current_range_meters":12000,"station_id":"ce4bhs92rcd13ifvqi0g","pricing_plan_id":"free"},{"bike_id":"5e694a41-e3da-47ab-8b96-a2f9037179fb","system_id":"levelo_inurba_marseille","lat":43.328371,"lon":5.366909,"is_reserved":false,"is_disabled":false,"rental_uris":{"android":"levelo://app?vid=5e694a41-e3da-47ab-8b96-a2f9037179fb","ios":"levelo://app?vid=5e694a41-e3da-47ab-8b96-a2f9037179fb"},"vehicle_type_id":"4","last_reported":1685729295,"current_range_meters":0,"station_id":"ce4bhs92rcd13ifvqi0g","pricing_plan_id":"free"},{"bike_id":"fa17e44a-0c02-4d7d-8d9b-27892226dd2b","system_id":"levelo_inurba_marseille","lat":43.296131,"lon":5.370773,"is_reserved":false,"is_disabled":false,"rental_uris":{"android":"levelo://app?vid=fa17e44a-0c02-4d7d-8d9b-27892226dd2b","ios":"levelo://app?vid=fa17e44a-0c02-4d7d-8d9b-27892226dd2b"},"vehicle_type_id":"4","last_reported":1685729295,"current_range_meters":5600,"station_id":"ce4bgnh2rcd13ifvqc0g","pricing_plan_id":"free"},{"bike_id":"0fe61f7c-c793-49e6-a598-10c40b4d8407","system_id":"levelo_inurba_marseille","lat":43.296131,"lon":5.370791,"is_reserved":false,"is_disabled":false,"rental_uris":{"android":"levelo://app?vid=0fe61f7c-c793-49e6-a598-10c40b4d8407","ios":"levelo://app?vid=0fe61f7c-c793-49e6-a598-10c40b4d8407"},"vehicle_type_id":"4","last_reported":1685729295,"current_range_meters":3600,"station_id":"ce4bgnh2rcd13ifvqc0g","pricing_plan_id":"free"},{"bike_id":"f3993249-924e-479f-a81b-2c4f60c51487","system_id":"levelo_inurba_marseille","lat":43.309589,"lon":5.390258,"is_reserved":false,"is_disabled":false,"rental_uris":{"android":"levelo://app?vid=f3993249-924e-479f-a81b-2c4f60c51487","ios":"levelo://app?vid=f3993249-924e-479f-a81b-2c4f60c51487"},"vehicle_type_id":"4","last_reported":1685729295,"current_range_meters":6400,"station_id":"ce4bgup2rcd13ifvqco0","pricing_plan_id":"free"},{"bike_id":"7bd80476-7eb2-4616-adc4-14c8d31ad9fe","system_id":"levelo_inurba_marseille","lat":43.309589,"lon":5.390258,"is_reserved":false,"is_disabled":false,"rental_uris":{"android":"levelo://app?vid=7bd80476-7eb2-4616-adc4-14c8d31ad9fe","ios":"levelo://app?vid=7bd80476-7eb2-4616-adc4-14c8d31ad9fe"},"vehicle_type_id":"4","last_reported":1685729295,"current_range_meters":4400,"station_id":"ce4bgup2rcd13ifvqco0","pricing_plan_id":"free"},{"bike_id":"ed2ae788-c5db-4683-ba36-f73e68c76be3","system_id":"levelo_inurba_marseille","lat":43.3095,"lon":5.390272,"is_reserved":false,"is_disabled":false,"rental_uris":{"android":"levelo://app?vid=ed2ae788-c5db-4683-ba36-f73e68c76be3","ios":"levelo://app?vid=ed2ae788-c5db-4683-ba36-f73e68c76be3"},"vehicle_type_id":"4","last_reported":1685729295,"current_range_meters":16800,"station_id":"","pricing_plan_id":"free"},{"bike_id":"47d72970-de8e-41d7-a65e-ef7ac7f437ac","system_id":"levelo_inurba_marseille","lat":43.309589,"lon":5.390258,"is_reserved":false,"is_disabled":false,"rental_uris":{"android":"levelo://app?vid=47d72970-de8e-41d7-a65e-ef7ac7f437ac","ios":"levelo://app?vid=47d72970-de8e-41d7-a65e-ef7ac7f437ac"},"vehicle_type_id":"4","last_reported":1685729295,"current_range_meters":10000,"station_id":"ce4bgup2rcd13ifvqco0","pricing_plan_id":"free"},{"bike_id":"3e61ee82-87aa-4827-a45a-0f5796d0c902","system_id":"levelo_inurba_marseille","lat":43.309589,"lon":5.390258,"is_reserved":false,"is_disabled":false,"rental_uris":{"android":"levelo://app?vid=3e61ee82-87aa-4827-a45a-0f5796d0c902","ios":"levelo://app?vid=3e61ee82-87aa-4827-a45a-0f5796d0c902"},"vehicle_type_id":"4","last_reported":1685729295,"current_range_meters":11200,"station_id":"ce4bgup2rcd13ifvqco0","pricing_plan_id":"free"},{"bike_id":"e524b04f-e7ab-4385-a510-dde838fdca44","system_id":"levelo_inurba_marseille","lat":43.309589,"lon":5.390258,"is_reserved":false,"is_disabled":false,"rental_uris":{"android":"levelo://app?vid=e524b04f-e7ab-4385-a510-dde838fdca44","ios":"levelo://app?vid=e524b04f-e7ab-4385-a510-dde838fdca44"},"vehicle_type_id":"4","last_reported":1685729295,"current_range_meters":9600,"station_id":"ce4bgup2rcd13ifvqco0","pricing_plan_id":"free"},{"bike_id":"5a886bf7-4cd5-486a-8aa5-5033011631be","system_id":"levelo_inurba_marseille","lat":43.309589,"lon":5.390258,"is_reserved":false,"is_disabled":false,"rental_uris":{"android":"levelo://app?vid=5a886bf7-4cd5-486a-8aa5-5033011631be","ios":"levelo://app?vid=5a886bf7-4cd5-486a-8aa5-5033011631be"},"vehicle_type_id":"4","last_reported":1685729295,"current_range_meters":21600,"station_id":"ce4bgup2rcd13ifvqco0","pricing_plan_id":"free"},{"bike_id":"7066edc4-1b63-4228-b65f-2471afbc3daa","system_id":"levelo_inurba_marseille","lat":43.309589,"lon":5.390258,"is_reserved":false,"is_disabled":false,"rental_uris":{"android":"levelo://app?vid=7066edc4-1b63-4228-b65f-2471afbc3daa","ios":"levelo://app?vid=7066edc4-1b63-4228-b65f-2471afbc3daa"},"vehicle_type_id":"4","last_reported":1685729295,"current_range_meters":8800,"station_id":"ce4bgup2rcd13ifvqco0","pricing_plan_id":"free"},{"bike_id":"33d3c139-01b6-4045-afdb-60b4e24965b0","system_id":"levelo_inurba_marseille","lat":43.309589,"lon":5.390258,"is_reserved":false,"is_disabled":false,"rental_uris":{"android":"levelo://app?vid=33d3c139-01b6-4045-afdb-60b4e24965b0","ios":"levelo://app?vid=33d3c139-01b6-4045-afdb-60b4e24965b0"},"vehicle_type_id":"4","last_reported":1685729295,"current_range_meters":3600,"station_id":"ce4bgup2rcd13ifvqco0","pricing_plan_id":"free"},{"bike_id":"11bb5bbc-864c-47e1-9f03-c9c194bd04b3","system_id":"levelo_inurba_marseille","lat":43.31761,"lon":5.39013,"is_reserved":false,"is_disabled":false,"rental_uris":{"android":"levelo://app?vid=11bb5bbc-864c-47e1-9f03-c9c194bd04b3","ios":"levelo://app?vid=11bb5bbc-864c-47e1-9f03-c9c194bd04b3"},"vehicle_type_id":"4","last_reported":1685729295,"current_range_meters":24800,"station_id":"ce4bhqp2rcd13ifvqhng","pricing_plan_id":"free"},{"bike_id":"0b4cf201-1eb4-418a-8056-29d8a9918034","system_id":"levelo_inurba_marseille","lat":43.298037,"lon":5.381066,"is_reserved":false,"is_disabled":false,"rental_uris":{"android":"levelo://app?vid=0b4cf201-1eb4-418a-8056-29d8a9918034","ios":"levelo://app?vid=0b4cf201-1eb4-418a-8056-29d8a9918034"},"vehicle_type_id":"4","last_reported":1685729295,"current_range_meters":6800,"station_id":"ce4bgip2rcd13ifvqbb0","pricing_plan_id":"free"},{"bike_id":"ce4f6b54-713a-4953-87ed-4dd2d8ef7501","system_id":"levelo_inurba_marseille","lat":43.298037,"lon":5.381066,"is_reserved":false,"is_disabled":false,"rental_uris":{"android":"levelo://app?vid=ce4f6b54-713a-4953-87ed-4dd2d8ef7501","ios":"levelo://app?vid=ce4f6b54-713a-4953-87ed-4dd2d8ef7501"},"vehicle_type_id":"4","last_reported":1685729295,"current_range_meters":30000,"station_id":"ce4bgip2rcd13ifvqbb0","pricing_plan_id":"free"},{"bike_id":"d38122fb-e62f-4467-941f-d3d764310f0c","system_id":"levelo_inurba_marseille","lat":43.29722,"lon":5.37976,"is_reserved":false,"is_disabled":false,"rental_uris":{"android":"levelo://app?vid=d38122fb-e62f-4467-941f-d3d764310f0c","ios":"levelo://app?vid=d38122fb-e62f-4467-941f-d3d764310f0c"},"vehicle_type_id":"4","last_reported":1685729295,"current_range_meters":16800,"station_id":"","pricing_plan_id":"free"},{"bike_id":"d7dd3441-c9f2-4f8a-86ad-d260a35e2a93","system_id":"levelo_inurba_marseille","lat":43.299717,"lon":5.384845,"is_reserved":false,"is_disabled":false,"rental_uris":{"android":"levelo://app?vid=d7dd3441-c9f2-4f8a-86ad-d260a35e2a93","ios":"levelo://app?vid=d7dd3441-c9f2-4f8a-86ad-d260a35e2a93"},"vehicle_type_id":"4","last_reported":1685729295,"current_range_meters":0,"station_id":"ce4bgj92rcd13ifvqbd0","pricing_plan_id":"free"},{"bike_id":"39709aa6-848e-42be-8adb-3fe99a8fe62e","system_id":"levelo_inurba_marseille","lat":43.304606,"lon":5.379026,"is_reserved":false,"is_disabled":false,"rental_uris":{"android":"levelo://app?vid=39709aa6-848e-42be-8adb-3fe99a8fe62e","ios":"levelo://app?vid=39709aa6-848e-42be-8adb-3fe99a8fe62e"},"vehicle_type_id":"4","last_reported":1685729295,"current_range_meters":30000,"station_id":"ce4bgup2rcd13ifvqcn0","pricing_plan_id":"free"},{"bike_id":"a4cad255-0a69-42e4-b4f8-79f478b089ce","system_id":"levelo_inurba_marseille","lat":43.30825,"lon":5.39201,"is_reserved":false,"is_disabled":false,"rental_uris":{"android":"levelo://app?vid=a4cad255-0a69-42e4-b4f8-79f478b089ce","ios":"levelo://app?vid=a4cad255-0a69-42e4-b4f8-79f478b089ce"},"vehicle_type_id":"4","last_reported":1685729295,"current_range_meters":0,"station_id":"ce4bgup2rcd13ifvqco0","pricing_plan_id":"free"},{"bike_id":"e633f974-b244-4c5f-9098-86dcaed2f7b2","system_id":"levelo_inurba_marseille","lat":43.309589,"lon":5.390258,"is_reserved":false,"is_disabled":false,"rental_uris":{"android":"levelo://app?vid=e633f974-b244-4c5f-9098-86dcaed2f7b2","ios":"levelo://app?vid=e633f974-b244-4c5f-9098-86dcaed2f7b2"},"vehicle_type_id":"4","last_reported":1685729295,"current_range_meters":15600,"station_id":"ce4bgup2rcd13ifvqco0","pricing_plan_id":"free"},{"bike_id":"ffd6d63a-1226-4e57-b099-4a670849a1b0","system_id":"levelo_inurba_marseille","lat":43.32367,"lon":5.388836,"is_reserved":false,"is_disabled":false,"rental_uris":{"android":"levelo://app?vid=ffd6d63a-1226-4e57-b099-4a670849a1b0","ios":"levelo://app?vid=ffd6d63a-1226-4e57-b099-4a670849a1b0"},"vehicle_type_id":"4","last_reported":1685729295,"current_range_meters":3200,"station_id":"ce4bhqp2rcd13ifvqhog","pricing_plan_id":"free"},{"bike_id":"adac9cd2-b96e-4393-aee2-7553b2f05155","system_id":"levelo_inurba_marseille","lat":43.32376,"lon":5.38864,"is_reserved":false,"is_disabled":false,"rental_uris":{"android":"levelo://app?vid=adac9cd2-b96e-4393-aee2-7553b2f05155","ios":"levelo://app?vid=adac9cd2-b96e-4393-aee2-7553b2f05155"},"vehicle_type_id":"4","last_reported":1685729295,"current_range_meters":5200,"station_id":"ce4bhqp2rcd13ifvqhog","pricing_plan_id":"free"},{"bike_id":"a31a67ba-dc83-46e5-b131-0d4e91e62137","system_id":"levelo_inurba_marseille","lat":43.29403,"lon":5.37412,"is_reserved":false,"is_disabled":false,"rental_uris":{"android":"levelo://app?vid=a31a67ba-dc83-46e5-b131-0d4e91e62137","ios":"levelo://app?vid=a31a67ba-dc83-46e5-b131-0d4e91e62137"},"vehicle_type_id":"4","last_reported":1685729295,"current_range_meters":10800,"station_id":"","pricing_plan_id":"free"},{"bike_id":"2a3ff7b1-cc01-4f2d-a02a-b92c953b64d7","system_id":"levelo_inurba_marseille","lat":43.29601,"lon":5.381084,"is_reserved":false,"is_disabled":false,"rental_uris":{"android":"levelo://app?vid=2a3ff7b1-cc01-4f2d-a02a-b92c953b64d7","ios":"levelo://app?vid=2a3ff7b1-cc01-4f2d-a02a-b92c953b64d7"},"vehicle_type_id":"4","last_reported":1685729295,"current_range_meters":0,"station_id":"ce4bgl12rcd13ifvqbo0","pricing_plan_id":"free"},{"bike_id":"1755f9d4-d21c-4a5e-9d33-ce5c9e04e8c1","system_id":"levelo_inurba_marseille","lat":43.29602,"lon":5.381084,"is_reserved":false,"is_disabled":false,"rental_uris":{"android":"levelo://app?vid=1755f9d4-d21c-4a5e-9d33-ce5c9e04e8c1","ios":"levelo://app?vid=1755f9d4-d21c-4a5e-9d33-ce5c9e04e8c1"},"vehicle_type_id":"4","last_reported":1685729295,"current_range_meters":20000,"station_id":"ce4bgl12rcd13ifvqbo0","pricing_plan_id":"free"},{"bike_id":"775c717e-0492-4599-a342-6d38d53c3ced","system_id":"levelo_inurba_marseille","lat":43.292749,"lon":5.368398,"is_reserved":false,"is_disabled":false,"rental_uris":{"android":"levelo://app?vid=775c717e-0492-4599-a342-6d38d53c3ced","ios":"levelo://app?vid=775c717e-0492-4599-a342-6d38d53c3ced"},"vehicle_type_id":"4","last_reported":1685729295,"current_range_meters":7200,"station_id":"ce4bhbp2rcd13ifvqesg","pricing_plan_id":"free"},{"bike_id":"cb1f9299-af84-41af-8b99-fc1ebb116f60","system_id":"levelo_inurba_marseille","lat":43.305994,"lon":5.393687,"is_reserved":false,"is_disabled":false,"rental_uris":{"android":"levelo://app?vid=cb1f9299-af84-41af-8b99-fc1ebb116f60","ios":"levelo://app?vid=cb1f9299-af84-41af-8b99-fc1ebb116f60"},"vehicle_type_id":"4","last_reported":1685729295,"current_range_meters":11600,"station_id":"ce4bh0p2rcd13ifvqd80","pricing_plan_id":"free"},{"bike_id":"63e1bcc5-03d2-422e-8c71-d3b02b5297e4","system_id":"levelo_inurba_marseille","lat":43.305994,"lon":5.393687,"is_reserved":false,"is_disabled":false,"rental_uris":{"android":"levelo://app?vid=63e1bcc5-03d2-422e-8c71-d3b02b5297e4","ios":"levelo://app?vid=63e1bcc5-03d2-422e-8c71-d3b02b5297e4"},"vehicle_type_id":"4","last_reported":1685729295,"current_range_meters":6400,"station_id":"ce4bh0p2rcd13ifvqd80","pricing_plan_id":"free"},{"bike_id":"44dd367d-77d4-4764-90a7-e0d8a551d63c","system_id":"levelo_inurba_marseille","lat":43.302992,"lon":5.392136,"is_reserved":false,"is_disabled":false,"rental_uris":{"android":"levelo://app?vid=44dd367d-77d4-4764-90a7-e0d8a551d63c","ios":"levelo://app?vid=44dd367d-77d4-4764-90a7-e0d8a551d63c"},"vehicle_type_id":"4","last_reported":1685729295,"current_range_meters":0,"station_id":"ce4bgkh2rcd13ifvqbk0","pricing_plan_id":"free"},{"bike_id":"1b78cea5-3cf2-41fb-a421-0710a518812c","system_id":"levelo_inurba_marseille","lat":43.302992,"lon":5.392136,"is_reserved":false,"is_disabled":false,"rental_uris":{"android":"levelo://app?vid=1b78cea5-3cf2-41fb-a421-0710a518812c","ios":"levelo://app?vid=1b78cea5-3cf2-41fb-a421-0710a518812c"},"vehicle_type_id":"4","last_reported":1685729295,"current_range_meters":2000,"station_id":"ce4bgkh2rcd13ifvqbk0","pricing_plan_id":"free"},{"bike_id":"44616832-5302-40c6-85ea-c524b8b661c4","system_id":"levelo_inurba_marseille","lat":43.292311,"lon":5.360731,"is_reserved":false,"is_disabled":false,"rental_uris":{"android":"levelo://app?vid=44616832-5302-40c6-85ea-c524b8b661c4","ios":"levelo://app?vid=44616832-5302-40c6-85ea-c524b8b661c4"},"vehicle_type_id":"4","last_reported":1685729295,"current_range_meters":14800,"station_id":"ce4bhbh2rcd13ifvqeqg","pricing_plan_id":"free"},{"bike_id":"aefdfb01-43d2-4104-89b9-885a4ea94919","system_id":"levelo_inurba_marseille","lat":43.30085,"lon":5.390856,"is_reserved":false,"is_disabled":false,"rental_uris":{"android":"levelo://app?vid=aefdfb01-43d2-4104-89b9-885a4ea94919","ios":"levelo://app?vid=aefdfb01-43d2-4104-89b9-885a4ea94919"},"vehicle_type_id":"4","last_reported":1685729295,"current_range_meters":5200,"station_id":"ce4bh192rcd13ifvqdb0","pricing_plan_id":"free"},{"bike_id":"e6b8ee84-a0f9-4ee0-be74-4fa5048ddb6c","system_id":"levelo_inurba_marseille","lat":43.29876,"lon":5.38901,"is_reserved":false,"is_disabled":false,"rental_uris":{"android":"levelo://app?vid=e6b8ee84-a0f9-4ee0-be74-4fa5048ddb6c","ios":"levelo://app?vid=e6b8ee84-a0f9-4ee0-be74-4fa5048ddb6c"},"vehicle_type_id":"4","last_reported":1685729295,"current_range_meters":0,"station_id":"ce4bh392rcd13ifvqdl0","pricing_plan_id":"free"},{"bike_id":"84f6244c-5018-4c26-a21d-0295b732f799","system_id":"levelo_inurba_marseille","lat":43.29872,"lon":5.38916,"is_reserved":false,"is_disabled":false,"rental_uris":{"android":"levelo://app?vid=84f6244c-5018-4c26-a21d-0295b732f799","ios":"levelo://app?vid=84f6244c-5018-4c26-a21d-0295b732f799"},"vehicle_type_id":"4","last_reported":1685729295,"current_range_meters":0,"station_id":"ce4bh392rcd13ifvqdl0","pricing_plan_id":"free"},{"bike_id":"5a660338-3281-43aa-affc-986af7b1f5e7","system_id":"levelo_inurba_marseille","lat":43.31947,"lon":5.39578,"is_reserved":false,"is_disabled":false,"rental_uris":{"android":"levelo://app?vid=5a660338-3281-43aa-affc-986af7b1f5e7","ios":"levelo://app?vid=5a660338-3281-43aa-affc-986af7b1f5e7"},"vehicle_type_id":"4","last_reported":1685729295,"current_range_meters":2000,"station_id":"","pricing_plan_id":"free"},{"bike_id":"76efc660-d89c-49d8-9c80-904a3e92a27d","system_id":"levelo_inurba_marseille","lat":43.29078,"lon":5.37165,"is_reserved":false,"is_disabled":false,"rental_uris":{"android":"levelo://app?vid=76efc660-d89c-49d8-9c80-904a3e92a27d","ios":"levelo://app?vid=76efc660-d89c-49d8-9c80-904a3e92a27d"},"vehicle_type_id":"4","last_reported":1685729295,"current_range_meters":0,"station_id":"ce4bh5p2rcd13ifvqe4g","pricing_plan_id":"free"},{"bike_id":"a1d588f9-8125-4a8f-9f59-c1cf1bdc5430","system_id":"levelo_inurba_marseille","lat":43.32825,"lon":5.38905,"is_reserved":false,"is_disabled":false,"rental_uris":{"android":"levelo://app?vid=a1d588f9-8125-4a8f-9f59-c1cf1bdc5430","ios":"levelo://app?vid=a1d588f9-8125-4a8f-9f59-c1cf1bdc5430"},"vehicle_type_id":"4","last_reported":1685729295,"current_range_meters":20400,"station_id":"","pricing_plan_id":"free"},{"bike_id":"6206e393-1f0c-4c22-b780-e01b2c80fdf4","system_id":"levelo_inurba_marseille","lat":43.29162,"lon":5.35608,"is_reserved":false,"is_disabled":false,"rental_uris":{"android":"levelo://app?vid=6206e393-1f0c-4c22-b780-e01b2c80fdf4","ios":"levelo://app?vid=6206e393-1f0c-4c22-b780-e01b2c80fdf4"},"vehicle_type_id":"4","last_reported":1685729295,"current_range_meters":6400,"station_id":"","pricing_plan_id":"free"},{"bike_id":"8e872246-38c7-404f-9962-0b8c6a97dbfb","system_id":"levelo_inurba_marseille","lat":43.294162,"lon":5.386292,"is_reserved":false,"is_disabled":false,"rental_uris":{"android":"levelo://app?vid=8e872246-38c7-404f-9962-0b8c6a97dbfb","ios":"levelo://app?vid=8e872246-38c7-404f-9962-0b8c6a97dbfb"},"vehicle_type_id":"4","last_reported":1685729295,"current_range_meters":6000,"station_id":"ce4bh2h2rcd13ifvqdh0","pricing_plan_id":"free"},{"bike_id":"59a6a6ef-c33f-480c-8fb4-ca28c01688bc","system_id":"levelo_inurba_marseille","lat":43.294162,"lon":5.386292,"is_reserved":false,"is_disabled":false,"rental_uris":{"android":"levelo://app?vid=59a6a6ef-c33f-480c-8fb4-ca28c01688bc","ios":"levelo://app?vid=59a6a6ef-c33f-480c-8fb4-ca28c01688bc"},"vehicle_type_id":"4","last_reported":1685729295,"current_range_meters":10800,"station_id":"ce4bh2h2rcd13ifvqdh0","pricing_plan_id":"free"},{"bike_id":"aec09f61-bbe1-4d69-ba73-b78f60d5ae6e","system_id":"levelo_inurba_marseille","lat":43.292642,"lon":5.384254,"is_reserved":false,"is_disabled":false,"rental_uris":{"android":"levelo://app?vid=aec09f61-bbe1-4d69-ba73-b78f60d5ae6e","ios":"levelo://app?vid=aec09f61-bbe1-4d69-ba73-b78f60d5ae6e"},"vehicle_type_id":"4","last_reported":1685729295,"current_range_meters":0,"station_id":"ce4bh692rcd13ifvqea0","pricing_plan_id":"free"},{"bike_id":"a7f08f00-d2ce-42bb-8518-3009f199d1a8","system_id":"levelo_inurba_marseille","lat":43.2926,"lon":5.3844,"is_reserved":false,"is_disabled":false,"rental_uris":{"android":"levelo://app?vid=a7f08f00-d2ce-42bb-8518-3009f199d1a8","ios":"levelo://app?vid=a7f08f00-d2ce-42bb-8518-3009f199d1a8"},"vehicle_type_id":"4","last_reported":1685729295,"current_range_meters":0,"station_id":"ce4bh692rcd13ifvqea0","pricing_plan_id":"free"},{"bike_id":"2364282a-cb9d-46e5-8a93-f3855a133753","system_id":"levelo_inurba_marseille","lat":43.330384,"lon":5.389044,"is_reserved":false,"is_disabled":false,"rental_uris":{"android":"levelo://app?vid=2364282a-cb9d-46e5-8a93-f3855a133753","ios":"levelo://app?vid=2364282a-cb9d-46e5-8a93-f3855a133753"},"vehicle_type_id":"4","last_reported":1685729295,"current_range_meters":23200,"station_id":"ce4bhr92rcd13ifvqhrg","pricing_plan_id":"free"},{"bike_id":"f31880a9-0ffc-460a-9ec8-c059a1f8ec34","system_id":"levelo_inurba_marseille","lat":43.295169,"lon":5.390426,"is_reserved":false,"is_disabled":false,"rental_uris":{"android":"levelo://app?vid=f31880a9-0ffc-460a-9ec8-c059a1f8ec34","ios":"levelo://app?vid=f31880a9-0ffc-460a-9ec8-c059a1f8ec34"},"vehicle_type_id":"4","last_reported":1685729295,"current_range_meters":22800,"station_id":"ce4bh3p2rcd13ifvqdp0","pricing_plan_id":"free"},{"bike_id":"55d7cc44-66f5-4c6a-9629-e6650d9349da","system_id":"levelo_inurba_marseille","lat":43.29526,"lon":5.39042,"is_reserved":false,"is_disabled":false,"rental_uris":{"android":"levelo://app?vid=55d7cc44-66f5-4c6a-9629-e6650d9349da","ios":"levelo://app?vid=55d7cc44-66f5-4c6a-9629-e6650d9349da"},"vehicle_type_id":"4","last_reported":1685729295,"current_range_meters":0,"station_id":"ce4bh3p2rcd13ifvqdp0","pricing_plan_id":"free"},{"bike_id":"178c8f48-bd41-4e96-a8d8-8f6b997a2dd2","system_id":"levelo_inurba_marseille","lat":43.298681,"lon":5.397225,"is_reserved":false,"is_disabled":false,"rental_uris":{"android":"levelo://app?vid=178c8f48-bd41-4e96-a8d8-8f6b997a2dd2","ios":"levelo://app?vid=178c8f48-bd41-4e96-a8d8-8f6b997a2dd2"},"vehicle_type_id":"4","last_reported":1685729295,"current_range_meters":20000,"station_id":"ce4bh0h2rcd13ifvqd50","pricing_plan_id":"free"},{"bike_id":"cf0caa37-cec8-408b-98f7-37211a80813c","system_id":"levelo_inurba_marseille","lat":43.33769,"lon":5.37426,"is_reserved":false,"is_disabled":false,"rental_uris":{"android":"levelo://app?vid=cf0caa37-cec8-408b-98f7-37211a80813c","ios":"levelo://app?vid=cf0caa37-cec8-408b-98f7-37211a80813c"},"vehicle_type_id":"4","last_reported":1685729295,"current_range_meters":25600,"station_id":"","pricing_plan_id":"free"},{"bike_id":"d4ff4b62-0242-4c58-8fc6-92c60cd7b1ee","system_id":"levelo_inurba_marseille","lat":43.30642,"lon":5.401031,"is_reserved":false,"is_disabled":false,"rental_uris":{"android":"levelo://app?vid=d4ff4b62-0242-4c58-8fc6-92c60cd7b1ee","ios":"levelo://app?vid=d4ff4b62-0242-4c58-8fc6-92c60cd7b1ee"},"vehicle_type_id":"4","last_reported":1685729295,"current_range_meters":8800,"station_id":"ce4bh112rcd13ifvqda0","pricing_plan_id":"free"},{"bike_id":"a22bbed6-86a8-4dc1-be06-1dd12fd25a1f","system_id":"levelo_inurba_marseille","lat":43.337733,"lon":5.374753,"is_reserved":false,"is_disabled":false,"rental_uris":{"android":"levelo://app?vid=a22bbed6-86a8-4dc1-be06-1dd12fd25a1f","ios":"levelo://app?vid=a22bbed6-86a8-4dc1-be06-1dd12fd25a1f"},"vehicle_type_id":"4","last_reported":1685729295,"current_range_meters":0,"station_id":"","pricing_plan_id":"free"},{"bike_id":"84db466a-95a3-4e13-91d5-52c81762dee2","system_id":"levelo_inurba_marseille","lat":43.28709,"lon":5.37395,"is_reserved":false,"is_disabled":false,"rental_uris":{"android":"levelo://app?vid=84db466a-95a3-4e13-91d5-52c81762dee2","ios":"levelo://app?vid=84db466a-95a3-4e13-91d5-52c81762dee2"},"vehicle_type_id":"4","last_reported":1685729295,"current_range_meters":800,"station_id":"","pricing_plan_id":"free"},{"bike_id":"ee6ee89d-c861-4a61-b88c-67254a0de000","system_id":"levelo_inurba_marseille","lat":43.28695,"lon":5.37386,"is_reserved":false,"is_disabled":false,"rental_uris":{"android":"levelo://app?vid=ee6ee89d-c861-4a61-b88c-67254a0de000","ios":"levelo://app?vid=ee6ee89d-c861-4a61-b88c-67254a0de000"},"vehicle_type_id":"4","last_reported":1685729295,"current_range_meters":10400,"station_id":"","pricing_plan_id":"free"},{"bike_id":"dfed2af7-1fe3-47ad-bf3f-5d65a1a155a6","system_id":"levelo_inurba_marseille","lat":43.295194,"lon":5.39397,"is_reserved":false,"is_disabled":false,"rental_uris":{"android":"levelo://app?vid=dfed2af7-1fe3-47ad-bf3f-5d65a1a155a6","ios":"levelo://app?vid=dfed2af7-1fe3-47ad-bf3f-5d65a1a155a6"},"vehicle_type_id":"4","last_reported":1685729295,"current_range_meters":0,"station_id":"ce4bh292rcd13ifvqdf0","pricing_plan_id":"free"},{"bike_id":"1291281c-7acf-4ec3-84ef-209abb2795a3","system_id":"levelo_inurba_marseille","lat":43.30423,"lon":5.40118,"is_reserved":false,"is_disabled":false,"rental_uris":{"android":"levelo://app?vid=1291281c-7acf-4ec3-84ef-209abb2795a3","ios":"levelo://app?vid=1291281c-7acf-4ec3-84ef-209abb2795a3"},"vehicle_type_id":"4","last_reported":1685729295,"current_range_meters":4000,"station_id":"","pricing_plan_id":"free"},{"bike_id":"cff90d42-3f19-4769-b1d4-cc9d4aa39a0b","system_id":"levelo_inurba_marseille","lat":43.30248,"lon":5.40051,"is_reserved":false,"is_disabled":false,"rental_uris":{"android":"levelo://app?vid=cff90d42-3f19-4769-b1d4-cc9d4aa39a0b","ios":"levelo://app?vid=cff90d42-3f19-4769-b1d4-cc9d4aa39a0b"},"vehicle_type_id":"4","last_reported":1685729295,"current_range_meters":3600,"station_id":"","pricing_plan_id":"free"},{"bike_id":"2e7bbf40-bc5d-4928-ad7d-0a431ad52416","system_id":"levelo_inurba_marseille","lat":43.30243,"lon":5.40063,"is_reserved":false,"is_disabled":false,"rental_uris":{"android":"levelo://app?vid=2e7bbf40-bc5d-4928-ad7d-0a431ad52416","ios":"levelo://app?vid=2e7bbf40-bc5d-4928-ad7d-0a431ad52416"},"vehicle_type_id":"4","last_reported":1685729295,"current_range_meters":26400,"station_id":"","pricing_plan_id":"free"},{"bike_id":"57ac07e1-f0ee-4057-b538-0e1ce3816636","system_id":"levelo_inurba_marseille","lat":43.286039,"lon":5.370679,"is_reserved":false,"is_disabled":false,"rental_uris":{"android":"levelo://app?vid=57ac07e1-f0ee-4057-b538-0e1ce3816636","ios":"levelo://app?vid=57ac07e1-f0ee-4057-b538-0e1ce3816636"},"vehicle_type_id":"4","last_reported":1685729295,"current_range_meters":16400,"station_id":"ce4bht12rcd13ifvqi60","pricing_plan_id":"free"},{"bike_id":"e8f4e07e-8dba-4658-9173-18fc3ae2b154","system_id":"levelo_inurba_marseille","lat":43.286039,"lon":5.370681,"is_reserved":false,"is_disabled":false,"rental_uris":{"android":"levelo://app?vid=e8f4e07e-8dba-4658-9173-18fc3ae2b154","ios":"levelo://app?vid=e8f4e07e-8dba-4658-9173-18fc3ae2b154"},"vehicle_type_id":"4","last_reported":1685729295,"current_range_meters":0,"station_id":"ce4bht12rcd13ifvqi60","pricing_plan_id":"free"},{"bike_id":"7094d2e5-b2b6-4cda-a679-65387c315b25","system_id":"levelo_inurba_marseille","lat":43.286039,"lon":5.370681,"is_reserved":false,"is_disabled":false,"rental_uris":{"android":"levelo://app?vid=7094d2e5-b2b6-4cda-a679-65387c315b25","ios":"levelo://app?vid=7094d2e5-b2b6-4cda-a679-65387c315b25"},"vehicle_type_id":"4","last_reported":1685729295,"current_range_meters":9600,"station_id":"ce4bht12rcd13ifvqi60","pricing_plan_id":"free"},{"bike_id":"a66a04fc-30da-48c1-ab90-44bdd5cb67e1","system_id":"levelo_inurba_marseille","lat":43.30194,"lon":5.40066,"is_reserved":false,"is_disabled":false,"rental_uris":{"android":"levelo://app?vid=a66a04fc-30da-48c1-ab90-44bdd5cb67e1","ios":"levelo://app?vid=a66a04fc-30da-48c1-ab90-44bdd5cb67e1"},"vehicle_type_id":"4","last_reported":1685729295,"current_range_meters":2000,"station_id":"","pricing_plan_id":"free"},{"bike_id":"70748156-c6b5-4dd3-9628-7fd32fefbf75","system_id":"levelo_inurba_marseille","lat":43.31646,"lon":5.40429,"is_reserved":false,"is_disabled":false,"rental_uris":{"android":"levelo://app?vid=70748156-c6b5-4dd3-9628-7fd32fefbf75","ios":"levelo://app?vid=70748156-c6b5-4dd3-9628-7fd32fefbf75"},"vehicle_type_id":"4","last_reported":1685729295,"current_range_meters":8000,"station_id":"ce4bh012rcd13ifvqd00","pricing_plan_id":"free"},{"bike_id":"9ee292ea-b24c-4a6f-9e43-1afe92b1aead","system_id":"levelo_inurba_marseille","lat":43.29201,"lon":5.39322,"is_reserved":false,"is_disabled":false,"rental_uris":{"android":"levelo://app?vid=9ee292ea-b24c-4a6f-9e43-1afe92b1aead","ios":"levelo://app?vid=9ee292ea-b24c-4a6f-9e43-1afe92b1aead"},"vehicle_type_id":"4","last_reported":1685729295,"current_range_meters":4400,"station_id":"ce4bh192rcd13ifvqdd0","pricing_plan_id":"free"},{"bike_id":"0ab2bb99-5423-4870-b6db-949f0e3d1789","system_id":"levelo_inurba_marseille","lat":43.28463,"lon":5.35892,"is_reserved":false,"is_disabled":false,"rental_uris":{"android":"levelo://app?vid=0ab2bb99-5423-4870-b6db-949f0e3d1789","ios":"levelo://app?vid=0ab2bb99-5423-4870-b6db-949f0e3d1789"},"vehicle_type_id":"4","last_reported":1685729295,"current_range_meters":0,"station_id":"ce4bhah2rcd13ifvqei0","pricing_plan_id":"free"},{"bike_id":"dabb7d96-d1dc-4018-aac7-a9c5dcb4f1ae","system_id":"levelo_inurba_marseille","lat":43.286039,"lon":5.370679,"is_reserved":false,"is_disabled":false,"rental_uris":{"android":"levelo://app?vid=dabb7d96-d1dc-4018-aac7-a9c5dcb4f1ae","ios":"levelo://app?vid=dabb7d96-d1dc-4018-aac7-a9c5dcb4f1ae"},"vehicle_type_id":"4","last_reported":1685729295,"current_range_meters":14400,"station_id":"ce4bht12rcd13ifvqi60","pricing_plan_id":"free"},{"bike_id":"bc075a8f-78f3-4c6e-8ba2-bfdb45cc086c","system_id":"levelo_inurba_marseille","lat":43.285856,"lon":5.350771,"is_reserved":false,"is_disabled":false,"rental_uris":{"android":"levelo://app?vid=bc075a8f-78f3-4c6e-8ba2-bfdb45cc086c","ios":"levelo://app?vid=bc075a8f-78f3-4c6e-8ba2-bfdb45cc086c"},"vehicle_type_id":"4","last_reported":1685729295,"current_range_meters":28400,"station_id":"ce4bhch2rcd13ifvqeug","pricing_plan_id":"free"},{"bike_id":"17bea398-4251-4822-8109-493cd2b1b899","system_id":"levelo_inurba_marseille","lat":43.285856,"lon":5.350771,"is_reserved":false,"is_disabled":false,"rental_uris":{"android":"levelo://app?vid=17bea398-4251-4822-8109-493cd2b1b899","ios":"levelo://app?vid=17bea398-4251-4822-8109-493cd2b1b899"},"vehicle_type_id":"4","last_reported":1685729295,"current_range_meters":8000,"station_id":"ce4bhch2rcd13ifvqeug","pricing_plan_id":"free"},{"bike_id":"cc2783be-d3ba-4ef7-9017-10bae0751650","system_id":"levelo_inurba_marseille","lat":43.285856,"lon":5.350771,"is_reserved":false,"is_disabled":false,"rental_uris":{"android":"levelo://app?vid=cc2783be-d3ba-4ef7-9017-10bae0751650","ios":"levelo://app?vid=cc2783be-d3ba-4ef7-9017-10bae0751650"},"vehicle_type_id":"4","last_reported":1685729295,"current_range_meters":30800,"station_id":"ce4bhch2rcd13ifvqeug","pricing_plan_id":"free"},{"bike_id":"14b42828-c465-44f2-902e-915e27e50108","system_id":"levelo_inurba_marseille","lat":43.28618,"lon":5.351,"is_reserved":false,"is_disabled":false,"rental_uris":{"android":"levelo://app?vid=14b42828-c465-44f2-902e-915e27e50108","ios":"levelo://app?vid=14b42828-c465-44f2-902e-915e27e50108"},"vehicle_type_id":"4","last_reported":1685729295,"current_range_meters":16000,"station_id":"","pricing_plan_id":"free"},{"bike_id":"6d1fd3fe-6152-4370-bd7c-681882246236","system_id":"levelo_inurba_marseille","lat":43.285856,"lon":5.350771,"is_reserved":false,"is_disabled":false,"rental_uris":{"android":"levelo://app?vid=6d1fd3fe-6152-4370-bd7c-681882246236","ios":"levelo://app?vid=6d1fd3fe-6152-4370-bd7c-681882246236"},"vehicle_type_id":"4","last_reported":1685729295,"current_range_meters":8800,"station_id":"ce4bhch2rcd13ifvqeug","pricing_plan_id":"free"},{"bike_id":"45b7395c-861f-4bdd-8c38-09c24ae36713","system_id":"levelo_inurba_marseille","lat":43.28484,"lon":5.38406,"is_reserved":false,"is_disabled":false,"rental_uris":{"android":"levelo://app?vid=45b7395c-861f-4bdd-8c38-09c24ae36713","ios":"levelo://app?vid=45b7395c-861f-4bdd-8c38-09c24ae36713"},"vehicle_type_id":"4","last_reported":1685729295,"current_range_meters":13200,"station_id":"ce4bh512rcd13ifvqe3g","pricing_plan_id":"free"},{"bike_id":"d7221ae4-6468-4fcc-8e0a-5eeb09accd0d","system_id":"levelo_inurba_marseille","lat":43.28428,"lon":5.34992,"is_reserved":false,"is_disabled":false,"rental_uris":{"android":"levelo://app?vid=d7221ae4-6468-4fcc-8e0a-5eeb09accd0d","ios":"levelo://app?vid=d7221ae4-6468-4fcc-8e0a-5eeb09accd0d"},"vehicle_type_id":"4","last_reported":1685729295,"current_range_meters":14800,"station_id":"ce4bhbh2rcd13ifvqepg","pricing_plan_id":"free"},{"bike_id":"4b2583ba-9240-4ec1-8ce7-ff7e944f126f","system_id":"levelo_inurba_marseille","lat":43.284219,"lon":5.3497,"is_reserved":false,"is_disabled":false,"rental_uris":{"android":"levelo://app?vid=4b2583ba-9240-4ec1-8ce7-ff7e944f126f","ios":"levelo://app?vid=4b2583ba-9240-4ec1-8ce7-ff7e944f126f"},"vehicle_type_id":"4","last_reported":1685729295,"current_range_meters":15600,"station_id":"ce4bhbh2rcd13ifvqepg","pricing_plan_id":"free"},{"bike_id":"7b33980b-15f2-4ce4-9a11-2a31ef2bc949","system_id":"levelo_inurba_marseille","lat":43.284192,"lon":5.349725,"is_reserved":false,"is_disabled":false,"rental_uris":{"android":"levelo://app?vid=7b33980b-15f2-4ce4-9a11-2a31ef2bc949","ios":"levelo://app?vid=7b33980b-15f2-4ce4-9a11-2a31ef2bc949"},"vehicle_type_id":"4","last_reported":1685729295,"current_range_meters":20400,"station_id":"ce4bhbh2rcd13ifvqepg","pricing_plan_id":"free"},{"bike_id":"c1ba6891-a3fb-4114-9f28-b3aae34e5b42","system_id":"levelo_inurba_marseille","lat":43.284217,"lon":5.349697,"is_reserved":false,"is_disabled":false,"rental_uris":{"android":"levelo://app?vid=c1ba6891-a3fb-4114-9f28-b3aae34e5b42","ios":"levelo://app?vid=c1ba6891-a3fb-4114-9f28-b3aae34e5b42"},"vehicle_type_id":"4","last_reported":1685729295,"current_range_meters":3600,"station_id":"ce4bhbh2rcd13ifvqepg","pricing_plan_id":"free"},{"bike_id":"3f8afc73-c128-4f74-bfd6-91163764e525","system_id":"levelo_inurba_marseille","lat":43.29366,"lon":5.40146,"is_reserved":false,"is_disabled":false,"rental_uris":{"android":"levelo://app?vid=3f8afc73-c128-4f74-bfd6-91163764e525","ios":"levelo://app?vid=3f8afc73-c128-4f74-bfd6-91163764e525"},"vehicle_type_id":"4","last_reported":1685729295,"current_range_meters":1200,"station_id":"ce4bho92rcd13ifvqh3g","pricing_plan_id":"free"},{"bike_id":"c640a09e-a347-4583-b3a3-8fc9701c42ed","system_id":"levelo_inurba_marseille","lat":43.28271,"lon":5.35069,"is_reserved":false,"is_disabled":false,"rental_uris":{"android":"levelo://app?vid=c640a09e-a347-4583-b3a3-8fc9701c42ed","ios":"levelo://app?vid=c640a09e-a347-4583-b3a3-8fc9701c42ed"},"vehicle_type_id":"4","last_reported":1685729295,"current_range_meters":26800,"station_id":"ce4bhbp2rcd13ifvqerg","pricing_plan_id":"free"},{"bike_id":"8c99ad09-95b2-459f-97bc-738fbea32e11","system_id":"levelo_inurba_marseille","lat":43.282754,"lon":5.350519,"is_reserved":false,"is_disabled":false,"rental_uris":{"android":"levelo://app?vid=8c99ad09-95b2-459f-97bc-738fbea32e11","ios":"levelo://app?vid=8c99ad09-95b2-459f-97bc-738fbea32e11"},"vehicle_type_id":"4","last_reported":1685729295,"current_range_meters":3200,"station_id":"ce4bhbp2rcd13ifvqerg","pricing_plan_id":"free"},{"bike_id":"d83ad6e4-34d9-4de6-9fc2-636e46768319","system_id":"levelo_inurba_marseille","lat":43.282754,"lon":5.350519,"is_reserved":false,"is_disabled":false,"rental_uris":{"android":"levelo://app?vid=d83ad6e4-34d9-4de6-9fc2-636e46768319","ios":"levelo://app?vid=d83ad6e4-34d9-4de6-9fc2-636e46768319"},"vehicle_type_id":"4","last_reported":1685729295,"current_range_meters":400,"station_id":"ce4bhbp2rcd13ifvqerg","pricing_plan_id":"free"},{"bike_id":"d998e477-5418-48e8-ab4d-5f7e10af5cea","system_id":"levelo_inurba_marseille","lat":43.2827,"lon":5.35063,"is_reserved":false,"is_disabled":false,"rental_uris":{"android":"levelo://app?vid=d998e477-5418-48e8-ab4d-5f7e10af5cea","ios":"levelo://app?vid=d998e477-5418-48e8-ab4d-5f7e10af5cea"},"vehicle_type_id":"4","last_reported":1685729295,"current_range_meters":0,"station_id":"ce4bhbp2rcd13ifvqerg","pricing_plan_id":"free"},{"bike_id":"79a6599a-a540-42d4-b494-15b4baa94a32","system_id":"levelo_inurba_marseille","lat":43.28048,"lon":5.36918,"is_reserved":false,"is_disabled":false,"rental_uris":{"android":"levelo://app?vid=79a6599a-a540-42d4-b494-15b4baa94a32","ios":"levelo://app?vid=79a6599a-a540-42d4-b494-15b4baa94a32"},"vehicle_type_id":"4","last_reported":1685729295,"current_range_meters":30800,"station_id":"ce4bha12rcd13ifvqef0","pricing_plan_id":"free"},{"bike_id":"ecad6e5e-9f1b-42c6-824a-e1ce2247416c","system_id":"levelo_inurba_marseille","lat":43.282754,"lon":5.350519,"is_reserved":false,"is_disabled":false,"rental_uris":{"android":"levelo://app?vid=ecad6e5e-9f1b-42c6-824a-e1ce2247416c","ios":"levelo://app?vid=ecad6e5e-9f1b-42c6-824a-e1ce2247416c"},"vehicle_type_id":"4","last_reported":1685729295,"current_range_meters":17200,"station_id":"ce4bhbp2rcd13ifvqerg","pricing_plan_id":"free"},{"bike_id":"59018e2b-1417-4910-9529-efbe523b357b","system_id":"levelo_inurba_marseille","lat":43.28039,"lon":5.369297,"is_reserved":false,"is_disabled":false,"rental_uris":{"android":"levelo://app?vid=59018e2b-1417-4910-9529-efbe523b357b","ios":"levelo://app?vid=59018e2b-1417-4910-9529-efbe523b357b"},"vehicle_type_id":"4","last_reported":1685729295,"current_range_meters":31600,"station_id":"ce4bha12rcd13ifvqef0","pricing_plan_id":"free"},{"bike_id":"8d6cd6dd-b52e-48a8-b72c-11fe5cbebde3","system_id":"levelo_inurba_marseille","lat":43.28039,"lon":5.369297,"is_reserved":false,"is_disabled":false,"rental_uris":{"android":"levelo://app?vid=8d6cd6dd-b52e-48a8-b72c-11fe5cbebde3","ios":"levelo://app?vid=8d6cd6dd-b52e-48a8-b72c-11fe5cbebde3"},"vehicle_type_id":"4","last_reported":1685729295,"current_range_meters":12400,"station_id":"ce4bha12rcd13ifvqef0","pricing_plan_id":"free"},{"bike_id":"962dd0f2-bdf3-44c5-9eea-8ffe4983025c","system_id":"levelo_inurba_marseille","lat":43.28039,"lon":5.369297,"is_reserved":false,"is_disabled":false,"rental_uris":{"android":"levelo://app?vid=962dd0f2-bdf3-44c5-9eea-8ffe4983025c","ios":"levelo://app?vid=962dd0f2-bdf3-44c5-9eea-8ffe4983025c"},"vehicle_type_id":"4","last_reported":1685729295,"current_range_meters":6800,"station_id":"ce4bha12rcd13ifvqef0","pricing_plan_id":"free"},{"bike_id":"1919fe3c-bdec-4819-a7b7-33f095c40f38","system_id":"levelo_inurba_marseille","lat":43.28039,"lon":5.369297,"is_reserved":false,"is_disabled":false,"rental_uris":{"android":"levelo://app?vid=1919fe3c-bdec-4819-a7b7-33f095c40f38","ios":"levelo://app?vid=1919fe3c-bdec-4819-a7b7-33f095c40f38"},"vehicle_type_id":"4","last_reported":1685729295,"current_range_meters":31600,"station_id":"ce4bha12rcd13ifvqef0","pricing_plan_id":"free"},{"bike_id":"b205e703-9cc6-479d-b47b-dcec15459f4d","system_id":"levelo_inurba_marseille","lat":43.32235,"lon":5.41073,"is_reserved":false,"is_disabled":false,"rental_uris":{"android":"levelo://app?vid=b205e703-9cc6-479d-b47b-dcec15459f4d","ios":"levelo://app?vid=b205e703-9cc6-479d-b47b-dcec15459f4d"},"vehicle_type_id":"4","last_reported":1685729295,"current_range_meters":21200,"station_id":"","pricing_plan_id":"free"},{"bike_id":"38937141-658c-46c5-8d7f-46d86900887d","system_id":"levelo_inurba_marseille","lat":43.284462,"lon":5.392121,"is_reserved":false,"is_disabled":false,"rental_uris":{"android":"levelo://app?vid=38937141-658c-46c5-8d7f-46d86900887d","ios":"levelo://app?vid=38937141-658c-46c5-8d7f-46d86900887d"},"vehicle_type_id":"4","last_reported":1685729295,"current_range_meters":0,"station_id":"ce4bhoh2rcd13ifvqh5g","pricing_plan_id":"free"},{"bike_id":"8aeb4d6b-615c-42c6-832e-93523dc05ba9","system_id":"levelo_inurba_marseille","lat":43.304188,"lon":5.412904,"is_reserved":false,"is_disabled":false,"rental_uris":{"android":"levelo://app?vid=8aeb4d6b-615c-42c6-832e-93523dc05ba9","ios":"levelo://app?vid=8aeb4d6b-615c-42c6-832e-93523dc05ba9"},"vehicle_type_id":"4","last_reported":1685729295,"current_range_meters":2800,"station_id":"ce4bhop2rcd13ifvqh8g","pricing_plan_id":"free"},{"bike_id":"5603b14d-dec4-43f8-898f-1ac1e189fc4e","system_id":"levelo_inurba_marseille","lat":43.32051,"lon":5.41594,"is_reserved":false,"is_disabled":false,"rental_uris":{"android":"levelo://app?vid=5603b14d-dec4-43f8-898f-1ac1e189fc4e","ios":"levelo://app?vid=5603b14d-dec4-43f8-898f-1ac1e189fc4e"},"vehicle_type_id":"4","last_reported":1685729295,"current_range_meters":3200,"station_id":"","pricing_plan_id":"free"},{"bike_id":"8d76fbbb-bd82-49ac-8501-3064a2cef743","system_id":"levelo_inurba_marseille","lat":43.27702,"lon":5.37789,"is_reserved":false,"is_disabled":false,"rental_uris":{"android":"levelo://app?vid=8d76fbbb-bd82-49ac-8501-3064a2cef743","ios":"levelo://app?vid=8d76fbbb-bd82-49ac-8501-3064a2cef743"},"vehicle_type_id":"4","last_reported":1685729295,"current_range_meters":800,"station_id":"","pricing_plan_id":"free"},{"bike_id":"98e34b0b-8f27-4507-b296-4c35b88bf6d3","system_id":"levelo_inurba_marseille","lat":43.292571,"lon":5.409107,"is_reserved":false,"is_disabled":false,"rental_uris":{"android":"levelo://app?vid=98e34b0b-8f27-4507-b296-4c35b88bf6d3","ios":"levelo://app?vid=98e34b0b-8f27-4507-b296-4c35b88bf6d3"},"vehicle_type_id":"4","last_reported":1685729295,"current_range_meters":9200,"station_id":"ce4bh192rcd13ifvqdc0","pricing_plan_id":"free"},{"bike_id":"9e35d92d-5a48-49e6-a2f1-fc9e9515f6f6","system_id":"levelo_inurba_marseille","lat":43.27625,"lon":5.36113,"is_reserved":false,"is_disabled":false,"rental_uris":{"android":"levelo://app?vid=9e35d92d-5a48-49e6-a2f1-fc9e9515f6f6","ios":"levelo://app?vid=9e35d92d-5a48-49e6-a2f1-fc9e9515f6f6"},"vehicle_type_id":"4","last_reported":1685729295,"current_range_meters":15600,"station_id":"ce4bgj92rcd13ifvqbe0","pricing_plan_id":"free"},{"bike_id":"21879758-a146-4b6b-94df-c1c7ff724693","system_id":"levelo_inurba_marseille","lat":43.27621,"lon":5.36107,"is_reserved":false,"is_disabled":false,"rental_uris":{"android":"levelo://app?vid=21879758-a146-4b6b-94df-c1c7ff724693","ios":"levelo://app?vid=21879758-a146-4b6b-94df-c1c7ff724693"},"vehicle_type_id":"4","last_reported":1685729295,"current_range_meters":400,"station_id":"ce4bgj92rcd13ifvqbe0","pricing_plan_id":"free"},{"bike_id":"31d79203-e581-4ef3-9ddd-172f8490b4ef","system_id":"levelo_inurba_marseille","lat":43.27618,"lon":5.3611,"is_reserved":false,"is_disabled":false,"rental_uris":{"android":"levelo://app?vid=31d79203-e581-4ef3-9ddd-172f8490b4ef","ios":"levelo://app?vid=31d79203-e581-4ef3-9ddd-172f8490b4ef"},"vehicle_type_id":"4","last_reported":1685729295,"current_range_meters":11600,"station_id":"ce4bgj92rcd13ifvqbe0","pricing_plan_id":"free"},{"bike_id":"8660eabd-2910-404c-86f2-42a0b43ccd80","system_id":"levelo_inurba_marseille","lat":43.27618,"lon":5.36108,"is_reserved":false,"is_disabled":false,"rental_uris":{"android":"levelo://app?vid=8660eabd-2910-404c-86f2-42a0b43ccd80","ios":"levelo://app?vid=8660eabd-2910-404c-86f2-42a0b43ccd80"},"vehicle_type_id":"4","last_reported":1685729295,"current_range_meters":0,"station_id":"ce4bgj92rcd13ifvqbe0","pricing_plan_id":"free"},{"bike_id":"14e53d30-57d2-4aa7-92ce-a7b7b22bee85","system_id":"levelo_inurba_marseille","lat":43.276179,"lon":5.361009,"is_reserved":false,"is_disabled":false,"rental_uris":{"android":"levelo://app?vid=14e53d30-57d2-4aa7-92ce-a7b7b22bee85","ios":"levelo://app?vid=14e53d30-57d2-4aa7-92ce-a7b7b22bee85"},"vehicle_type_id":"4","last_reported":1685729295,"current_range_meters":3200,"station_id":"ce4bgj92rcd13ifvqbe0","pricing_plan_id":"free"},{"bike_id":"8fb9bd03-208c-44b1-8ba2-2bbc45385bed","system_id":"levelo_inurba_marseille","lat":43.278399,"lon":5.392139,"is_reserved":false,"is_disabled":false,"rental_uris":{"android":"levelo://app?vid=8fb9bd03-208c-44b1-8ba2-2bbc45385bed","ios":"levelo://app?vid=8fb9bd03-208c-44b1-8ba2-2bbc45385bed"},"vehicle_type_id":"4","last_reported":1685729295,"current_range_meters":6400,"station_id":"ce4bhjp2rcd13ifvqga0","pricing_plan_id":"free"},{"bike_id":"15ca9c11-d3cf-453b-992b-3d95b797242d","system_id":"levelo_inurba_marseille","lat":43.27381,"lon":5.36249,"is_reserved":false,"is_disabled":false,"rental_uris":{"android":"levelo://app?vid=15ca9c11-d3cf-453b-992b-3d95b797242d","ios":"levelo://app?vid=15ca9c11-d3cf-453b-992b-3d95b797242d"},"vehicle_type_id":"4","last_reported":1685729295,"current_range_meters":20400,"station_id":"ce4bhbh2rcd13ifvqeo0","pricing_plan_id":"free"},{"bike_id":"352f53fb-2408-446c-ae0c-544f92c559f4","system_id":"levelo_inurba_marseille","lat":43.27374,"lon":5.36258,"is_reserved":false,"is_disabled":false,"rental_uris":{"android":"levelo://app?vid=352f53fb-2408-446c-ae0c-544f92c559f4","ios":"levelo://app?vid=352f53fb-2408-446c-ae0c-544f92c559f4"},"vehicle_type_id":"4","last_reported":1685729295,"current_range_meters":14800,"station_id":"ce4bhbh2rcd13ifvqeo0","pricing_plan_id":"free"},{"bike_id":"d54c51e4-2f51-4958-9d99-4220f15335e8","system_id":"levelo_inurba_marseille","lat":43.276771,"lon":5.388799,"is_reserved":false,"is_disabled":false,"rental_uris":{"android":"levelo://app?vid=d54c51e4-2f51-4958-9d99-4220f15335e8","ios":"levelo://app?vid=d54c51e4-2f51-4958-9d99-4220f15335e8"},"vehicle_type_id":"4","last_reported":1685729295,"current_range_meters":0,"station_id":"ce4bhi12rcd13ifvqfo0","pricing_plan_id":"free"},{"bike_id":"6ef934e4-caa0-4744-8879-b20050055e00","system_id":"levelo_inurba_marseille","lat":43.27421,"lon":5.39412,"is_reserved":false,"is_disabled":false,"rental_uris":{"android":"levelo://app?vid=6ef934e4-caa0-4744-8879-b20050055e00","ios":"levelo://app?vid=6ef934e4-caa0-4744-8879-b20050055e00"},"vehicle_type_id":"4","last_reported":1685729295,"current_range_meters":0,"station_id":"","pricing_plan_id":"free"},{"bike_id":"e68d4040-0b12-4364-9396-6c9282c74da9","system_id":"levelo_inurba_marseille","lat":43.278128,"lon":5.407195,"is_reserved":false,"is_disabled":false,"rental_uris":{"android":"levelo://app?vid=e68d4040-0b12-4364-9396-6c9282c74da9","ios":"levelo://app?vid=e68d4040-0b12-4364-9396-6c9282c74da9"},"vehicle_type_id":"4","last_reported":1685729295,"current_range_meters":22800,"station_id":"ce4bhnh2rcd13ifvqgtg","pricing_plan_id":"free"},{"bike_id":"a744e0a0-cf32-4bb7-aa1b-9a145832bd04","system_id":"levelo_inurba_marseille","lat":43.278128,"lon":5.407195,"is_reserved":false,"is_disabled":false,"rental_uris":{"android":"levelo://app?vid=a744e0a0-cf32-4bb7-aa1b-9a145832bd04","ios":"levelo://app?vid=a744e0a0-cf32-4bb7-aa1b-9a145832bd04"},"vehicle_type_id":"4","last_reported":1685729295,"current_range_meters":5200,"station_id":"ce4bhnh2rcd13ifvqgtg","pricing_plan_id":"free"},{"bike_id":"28ca3939-b294-410f-98a7-4b45b017894e","system_id":"levelo_inurba_marseille","lat":43.278128,"lon":5.407195,"is_reserved":false,"is_disabled":false,"rental_uris":{"android":"levelo://app?vid=28ca3939-b294-410f-98a7-4b45b017894e","ios":"levelo://app?vid=28ca3939-b294-410f-98a7-4b45b017894e"},"vehicle_type_id":"4","last_reported":1685729295,"current_range_meters":8400,"station_id":"ce4bhnh2rcd13ifvqgtg","pricing_plan_id":"free"},{"bike_id":"477c9b24-a1bd-4af2-9e3a-7a10b9af13d1","system_id":"levelo_inurba_marseille","lat":43.31713,"lon":5.43318,"is_reserved":false,"is_disabled":false,"rental_uris":{"android":"levelo://app?vid=477c9b24-a1bd-4af2-9e3a-7a10b9af13d1","ios":"levelo://app?vid=477c9b24-a1bd-4af2-9e3a-7a10b9af13d1"},"vehicle_type_id":"4","last_reported":1685729295,"current_range_meters":0,"station_id":"","pricing_plan_id":"free"},{"bike_id":"f8e23118-76e0-437d-8a00-5c747a6ee3ff","system_id":"levelo_inurba_marseille","lat":43.27995,"lon":5.41658,"is_reserved":false,"is_disabled":false,"rental_uris":{"android":"levelo://app?vid=f8e23118-76e0-437d-8a00-5c747a6ee3ff","ios":"levelo://app?vid=f8e23118-76e0-437d-8a00-5c747a6ee3ff"},"vehicle_type_id":"4","last_reported":1685729295,"current_range_meters":11600,"station_id":"ce4bho12rcd13ifvqh1g","pricing_plan_id":"free"},{"bike_id":"31b111c1-e3f0-4d6e-a8c6-5ce3ad158e27","system_id":"levelo_inurba_marseille","lat":43.27996,"lon":5.416624,"is_reserved":false,"is_disabled":false,"rental_uris":{"android":"levelo://app?vid=31b111c1-e3f0-4d6e-a8c6-5ce3ad158e27","ios":"levelo://app?vid=31b111c1-e3f0-4d6e-a8c6-5ce3ad158e27"},"vehicle_type_id":"4","last_reported":1685729295,"current_range_meters":4400,"station_id":"ce4bho12rcd13ifvqh1g","pricing_plan_id":"free"},{"bike_id":"41c2590e-164d-41e9-b96b-588d43dd2f8b","system_id":"levelo_inurba_marseille","lat":43.27997,"lon":5.41661,"is_reserved":false,"is_disabled":false,"rental_uris":{"android":"levelo://app?vid=41c2590e-164d-41e9-b96b-588d43dd2f8b","ios":"levelo://app?vid=41c2590e-164d-41e9-b96b-588d43dd2f8b"},"vehicle_type_id":"4","last_reported":1685729295,"current_range_meters":11600,"station_id":"ce4bho12rcd13ifvqh1g","pricing_plan_id":"free"},{"bike_id":"2fc914fa-261c-494a-9a80-b3aedf7945f8","system_id":"levelo_inurba_marseille","lat":43.27992,"lon":5.41662,"is_reserved":false,"is_disabled":false,"rental_uris":{"android":"levelo://app?vid=2fc914fa-261c-494a-9a80-b3aedf7945f8","ios":"levelo://app?vid=2fc914fa-261c-494a-9a80-b3aedf7945f8"},"vehicle_type_id":"4","last_reported":1685729295,"current_range_meters":4800,"station_id":"ce4bho12rcd13ifvqh1g","pricing_plan_id":"free"},{"bike_id":"90e5336b-ed61-4342-91f1-88dce211301d","system_id":"levelo_inurba_marseille","lat":43.26414,"lon":5.37851,"is_reserved":false,"is_disabled":false,"rental_uris":{"android":"levelo://app?vid=90e5336b-ed61-4342-91f1-88dce211301d","ios":"levelo://app?vid=90e5336b-ed61-4342-91f1-88dce211301d"},"vehicle_type_id":"4","last_reported":1685729295,"current_range_meters":27200,"station_id":"","pricing_plan_id":"free"},{"bike_id":"b33df0fe-f1c5-4f18-a335-e936cc11b661","system_id":"levelo_inurba_marseille","lat":43.27082,"lon":5.40355,"is_reserved":false,"is_disabled":false,"rental_uris":{"android":"levelo://app?vid=b33df0fe-f1c5-4f18-a335-e936cc11b661","ios":"levelo://app?vid=b33df0fe-f1c5-4f18-a335-e936cc11b661"},"vehicle_type_id":"4","last_reported":1685729295,"current_range_meters":0,"station_id":"","pricing_plan_id":"free"},{"bike_id":"97911575-0740-4ace-9259-7ac6b2b09d9e","system_id":"levelo_inurba_marseille","lat":43.2836,"lon":5.42231,"is_reserved":false,"is_disabled":false,"rental_uris":{"android":"levelo://app?vid=97911575-0740-4ace-9259-7ac6b2b09d9e","ios":"levelo://app?vid=97911575-0740-4ace-9259-7ac6b2b09d9e"},"vehicle_type_id":"4","last_reported":1685729295,"current_range_meters":6000,"station_id":"","pricing_plan_id":"free"},{"bike_id":"9b74f3d4-af6c-466e-9199-33d69aaeecc8","system_id":"levelo_inurba_marseille","lat":43.261782,"lon":5.374515,"is_reserved":false,"is_disabled":false,"rental_uris":{"android":"levelo://app?vid=9b74f3d4-af6c-466e-9199-33d69aaeecc8","ios":"levelo://app?vid=9b74f3d4-af6c-466e-9199-33d69aaeecc8"},"vehicle_type_id":"4","last_reported":1685729295,"current_range_meters":20800,"station_id":"ce4bhgp2rcd13ifvqfc0","pricing_plan_id":"free"},{"bike_id":"9cb85d52-70a6-42d0-b4e8-173b5668d78a","system_id":"levelo_inurba_marseille","lat":43.317104,"lon":5.436818,"is_reserved":false,"is_disabled":false,"rental_uris":{"android":"levelo://app?vid=9cb85d52-70a6-42d0-b4e8-173b5668d78a","ios":"levelo://app?vid=9cb85d52-70a6-42d0-b4e8-173b5668d78a"},"vehicle_type_id":"4","last_reported":1685729295,"current_range_meters":31200,"station_id":"ce4bhp92rcd13ifvqhcg","pricing_plan_id":"free"},{"bike_id":"450651b5-5e98-4a29-acd8-67acccbd55ad","system_id":"levelo_inurba_marseille","lat":43.26202,"lon":5.379299,"is_reserved":false,"is_disabled":false,"rental_uris":{"android":"levelo://app?vid=450651b5-5e98-4a29-acd8-67acccbd55ad","ios":"levelo://app?vid=450651b5-5e98-4a29-acd8-67acccbd55ad"},"vehicle_type_id":"4","last_reported":1685729295,"current_range_meters":0,"station_id":"ce4bhjp2rcd13ifvqg90","pricing_plan_id":"free"},{"bike_id":"8d5d18c1-f465-428d-bec2-b8d59fcda7db","system_id":"levelo_inurba_marseille","lat":43.267959,"lon":5.402687,"is_reserved":false,"is_disabled":false,"rental_uris":{"android":"levelo://app?vid=8d5d18c1-f465-428d-bec2-b8d59fcda7db","ios":"levelo://app?vid=8d5d18c1-f465-428d-bec2-b8d59fcda7db"},"vehicle_type_id":"4","last_reported":1685729295,"current_range_meters":13200,"station_id":"ce501612rcd8frsf0b60","pricing_plan_id":"free"},{"bike_id":"299f9325-a811-4a33-ba63-c9e50f494c2f","system_id":"levelo_inurba_marseille","lat":43.267959,"lon":5.402687,"is_reserved":false,"is_disabled":false,"rental_uris":{"android":"levelo://app?vid=299f9325-a811-4a33-ba63-c9e50f494c2f","ios":"levelo://app?vid=299f9325-a811-4a33-ba63-c9e50f494c2f"},"vehicle_type_id":"4","last_reported":1685729295,"current_range_meters":2400,"station_id":"ce501612rcd8frsf0b60","pricing_plan_id":"free"},{"bike_id":"234ff3e1-567f-4ce8-b642-2e9895570be7","system_id":"levelo_inurba_marseille","lat":43.298768,"lon":5.43643,"is_reserved":false,"is_disabled":false,"rental_uris":{"android":"levelo://app?vid=234ff3e1-567f-4ce8-b642-2e9895570be7","ios":"levelo://app?vid=234ff3e1-567f-4ce8-b642-2e9895570be7"},"vehicle_type_id":"4","last_reported":1685729295,"current_range_meters":18800,"station_id":"ce4bhpp2rcd13ifvqhfg","pricing_plan_id":"free"},{"bike_id":"1c6861b2-7821-498c-82a2-8b26a0a2b9f8","system_id":"levelo_inurba_marseille","lat":43.260225,"lon":5.375455,"is_reserved":false,"is_disabled":false,"rental_uris":{"android":"levelo://app?vid=1c6861b2-7821-498c-82a2-8b26a0a2b9f8","ios":"levelo://app?vid=1c6861b2-7821-498c-82a2-8b26a0a2b9f8"},"vehicle_type_id":"4","last_reported":1685729295,"current_range_meters":6400,"station_id":"ce4bhgh2rcd13ifvqfa0","pricing_plan_id":"free"},{"bike_id":"42d23693-7442-4357-8626-2a233bf1bebc","system_id":"levelo_inurba_marseille","lat":43.260219,"lon":5.37546,"is_reserved":false,"is_disabled":false,"rental_uris":{"android":"levelo://app?vid=42d23693-7442-4357-8626-2a233bf1bebc","ios":"levelo://app?vid=42d23693-7442-4357-8626-2a233bf1bebc"},"vehicle_type_id":"4","last_reported":1685729295,"current_range_meters":13200,"station_id":"ce4bhgh2rcd13ifvqfa0","pricing_plan_id":"free"},{"bike_id":"f0cb1740-7161-4426-b59f-fc5b5766b24a","system_id":"levelo_inurba_marseille","lat":43.260909,"lon":5.397591,"is_reserved":false,"is_disabled":false,"rental_uris":{"android":"levelo://app?vid=f0cb1740-7161-4426-b59f-fc5b5766b24a","ios":"levelo://app?vid=f0cb1740-7161-4426-b59f-fc5b5766b24a"},"vehicle_type_id":"4","last_reported":1685729295,"current_range_meters":14000,"station_id":"ce4bhi12rcd13ifvqfq0","pricing_plan_id":"free"},{"bike_id":"b291488d-f529-44d0-8aeb-598acf8ee504","system_id":"levelo_inurba_marseille","lat":43.255756,"lon":5.382303,"is_reserved":false,"is_disabled":false,"rental_uris":{"android":"levelo://app?vid=b291488d-f529-44d0-8aeb-598acf8ee504","ios":"levelo://app?vid=b291488d-f529-44d0-8aeb-598acf8ee504"},"vehicle_type_id":"4","last_reported":1685729295,"current_range_meters":0,"station_id":"ce4bhih2rcd13ifvqfs0","pricing_plan_id":"free"},{"bike_id":"1a2d39bc-9ae5-44b2-aa8c-aa84b7cc5a3d","system_id":"levelo_inurba_marseille","lat":43.254945,"lon":5.376454,"is_reserved":false,"is_disabled":false,"rental_uris":{"android":"levelo://app?vid=1a2d39bc-9ae5-44b2-aa8c-aa84b7cc5a3d","ios":"levelo://app?vid=1a2d39bc-9ae5-44b2-aa8c-aa84b7cc5a3d"},"vehicle_type_id":"4","last_reported":1685729295,"current_range_meters":9600,"station_id":"ce4bhh12rcd13ifvqff0","pricing_plan_id":"free"},{"bike_id":"0a3adffc-5c28-4831-9fb5-b37fc9aefbf3","system_id":"levelo_inurba_marseille","lat":43.270721,"lon":5.422764,"is_reserved":false,"is_disabled":false,"rental_uris":{"android":"levelo://app?vid=0a3adffc-5c28-4831-9fb5-b37fc9aefbf3","ios":"levelo://app?vid=0a3adffc-5c28-4831-9fb5-b37fc9aefbf3"},"vehicle_type_id":"4","last_reported":1685729295,"current_range_meters":10400,"station_id":"ce4bhk92rcd13ifvqgb0","pricing_plan_id":"free"},{"bike_id":"84d670f2-1f38-4780-92f5-e5fceb43ddb5","system_id":"levelo_inurba_marseille","lat":43.25476,"lon":5.39415,"is_reserved":false,"is_disabled":false,"rental_uris":{"android":"levelo://app?vid=84d670f2-1f38-4780-92f5-e5fceb43ddb5","ios":"levelo://app?vid=84d670f2-1f38-4780-92f5-e5fceb43ddb5"},"vehicle_type_id":"4","last_reported":1685729295,"current_range_meters":4000,"station_id":"","pricing_plan_id":"free"},{"bike_id":"d1ee41e5-606e-4a2e-bc77-7ba40ac75fd1","system_id":"levelo_inurba_marseille","lat":43.25934,"lon":5.4091,"is_reserved":false,"is_disabled":false,"rental_uris":{"android":"levelo://app?vid=d1ee41e5-606e-4a2e-bc77-7ba40ac75fd1","ios":"levelo://app?vid=d1ee41e5-606e-4a2e-bc77-7ba40ac75fd1"},"vehicle_type_id":"4","last_reported":1685729295,"current_range_meters":6000,"station_id":"","pricing_plan_id":"free"},{"bike_id":"221b54ba-49fa-42b3-8111-813229138da7","system_id":"levelo_inurba_marseille","lat":43.25009,"lon":5.38909,"is_reserved":false,"is_disabled":false,"rental_uris":{"android":"levelo://app?vid=221b54ba-49fa-42b3-8111-813229138da7","ios":"levelo://app?vid=221b54ba-49fa-42b3-8111-813229138da7"},"vehicle_type_id":"4","last_reported":1685729295,"current_range_meters":13200,"station_id":"ce4bhgp2rcd13ifvqfd0","pricing_plan_id":"free"},{"bike_id":"fa827551-e0a5-4987-82d8-9527020351ff","system_id":"levelo_inurba_marseille","lat":43.2479,"lon":5.374457,"is_reserved":false,"is_disabled":false,"rental_uris":{"android":"levelo://app?vid=fa827551-e0a5-4987-82d8-9527020351ff","ios":"levelo://app?vid=fa827551-e0a5-4987-82d8-9527020351ff"},"vehicle_type_id":"4","last_reported":1685729295,"current_range_meters":7200,"station_id":"ce4bhgh2rcd13ifvqfb0","pricing_plan_id":"free"},{"bike_id":"81c2fee5-168b-431e-a62b-cacbe0c6fd42","system_id":"levelo_inurba_marseille","lat":43.2479,"lon":5.374457,"is_reserved":false,"is_disabled":false,"rental_uris":{"android":"levelo://app?vid=81c2fee5-168b-431e-a62b-cacbe0c6fd42","ios":"levelo://app?vid=81c2fee5-168b-431e-a62b-cacbe0c6fd42"},"vehicle_type_id":"4","last_reported":1685729295,"current_range_meters":5200,"station_id":"ce4bhgh2rcd13ifvqfb0","pricing_plan_id":"free"},{"bike_id":"4d48748c-fbba-4482-aaed-443b63b85ba6","system_id":"levelo_inurba_marseille","lat":43.2479,"lon":5.374457,"is_reserved":false,"is_disabled":false,"rental_uris":{"android":"levelo://app?vid=4d48748c-fbba-4482-aaed-443b63b85ba6","ios":"levelo://app?vid=4d48748c-fbba-4482-aaed-443b63b85ba6"},"vehicle_type_id":"4","last_reported":1685729295,"current_range_meters":9200,"station_id":"ce4bhgh2rcd13ifvqfb0","pricing_plan_id":"free"},{"bike_id":"53116f07-6fab-4ec5-ac5b-60c0cff86803","system_id":"levelo_inurba_marseille","lat":43.246467,"lon":5.388984,"is_reserved":false,"is_disabled":false,"rental_uris":{"android":"levelo://app?vid=53116f07-6fab-4ec5-ac5b-60c0cff86803","ios":"levelo://app?vid=53116f07-6fab-4ec5-ac5b-60c0cff86803"},"vehicle_type_id":"4","last_reported":1685729295,"current_range_meters":25600,"station_id":"ce4bhg12rcd13ifvqf60","pricing_plan_id":"free"},{"bike_id":"e55a8298-55fa-41b7-a03c-2e4c0294cff8","system_id":"levelo_inurba_marseille","lat":43.25254,"lon":5.40271,"is_reserved":false,"is_disabled":false,"rental_uris":{"android":"levelo://app?vid=e55a8298-55fa-41b7-a03c-2e4c0294cff8","ios":"levelo://app?vid=e55a8298-55fa-41b7-a03c-2e4c0294cff8"},"vehicle_type_id":"4","last_reported":1685729295,"current_range_meters":2000,"station_id":"","pricing_plan_id":"free"},{"bike_id":"944d49f0-bbea-4f4b-8e28-0dfb7f84ffe8","system_id":"levelo_inurba_marseille","lat":43.24693,"lon":5.382096,"is_reserved":false,"is_disabled":false,"rental_uris":{"android":"levelo://app?vid=944d49f0-bbea-4f4b-8e28-0dfb7f84ffe8","ios":"levelo://app?vid=944d49f0-bbea-4f4b-8e28-0dfb7f84ffe8"},"vehicle_type_id":"4","last_reported":1685729295,"current_range_meters":18800,"station_id":"ce4bhih2rcd13ifvqfr0","pricing_plan_id":"free"},{"bike_id":"2c8cb84b-1112-4638-840b-42a6227cf279","system_id":"levelo_inurba_marseille","lat":43.28867,"lon":5.45353,"is_reserved":false,"is_disabled":false,"rental_uris":{"android":"levelo://app?vid=2c8cb84b-1112-4638-840b-42a6227cf279","ios":"levelo://app?vid=2c8cb84b-1112-4638-840b-42a6227cf279"},"vehicle_type_id":"4","last_reported":1685729295,"current_range_meters":15200,"station_id":"","pricing_plan_id":"free"},{"bike_id":"3304eb17-432b-4485-82a0-2a0deee18c9d","system_id":"levelo_inurba_marseille","lat":43.24886,"lon":5.39759,"is_reserved":false,"is_disabled":false,"rental_uris":{"android":"levelo://app?vid=3304eb17-432b-4485-82a0-2a0deee18c9d","ios":"levelo://app?vid=3304eb17-432b-4485-82a0-2a0deee18c9d"},"vehicle_type_id":"4","last_reported":1685729295,"current_range_meters":19200,"station_id":"","pricing_plan_id":"free"},{"bike_id":"90ec6158-08ad-4670-8a96-0a5e300cb0d7","system_id":"levelo_inurba_marseille","lat":43.246467,"lon":5.388984,"is_reserved":false,"is_disabled":false,"rental_uris":{"android":"levelo://app?vid=90ec6158-08ad-4670-8a96-0a5e300cb0d7","ios":"levelo://app?vid=90ec6158-08ad-4670-8a96-0a5e300cb0d7"},"vehicle_type_id":"4","last_reported":1685729295,"current_range_meters":14800,"station_id":"ce4bhg12rcd13ifvqf60","pricing_plan_id":"free"},{"bike_id":"fe99c974-8a59-4185-82e3-fe3937c01989","system_id":"levelo_inurba_marseille","lat":43.24417,"lon":5.37112,"is_reserved":false,"is_disabled":false,"rental_uris":{"android":"levelo://app?vid=fe99c974-8a59-4185-82e3-fe3937c01989","ios":"levelo://app?vid=fe99c974-8a59-4185-82e3-fe3937c01989"},"vehicle_type_id":"4","last_reported":1685729295,"current_range_meters":3200,"station_id":"","pricing_plan_id":"free"},{"bike_id":"658c37f9-d2fd-44a9-8f38-c6aae8c7fc8e","system_id":"levelo_inurba_marseille","lat":43.243884,"lon":5.370737,"is_reserved":false,"is_disabled":false,"rental_uris":{"android":"levelo://app?vid=658c37f9-d2fd-44a9-8f38-c6aae8c7fc8e","ios":"levelo://app?vid=658c37f9-d2fd-44a9-8f38-c6aae8c7fc8e"},"vehicle_type_id":"4","last_reported":1685729295,"current_range_meters":29200,"station_id":"ce4bhhh2rcd13ifvqfk0","pricing_plan_id":"free"},{"bike_id":"e62343ad-a536-4cd8-92d9-89d77e74040e","system_id":"levelo_inurba_marseille","lat":43.243884,"lon":5.370736,"is_reserved":false,"is_disabled":false,"rental_uris":{"android":"levelo://app?vid=e62343ad-a536-4cd8-92d9-89d77e74040e","ios":"levelo://app?vid=e62343ad-a536-4cd8-92d9-89d77e74040e"},"vehicle_type_id":"4","last_reported":1685729295,"current_range_meters":14800,"station_id":"ce4bhhh2rcd13ifvqfk0","pricing_plan_id":"free"},{"bike_id":"3a28d5ec-aa45-400a-8b2a-98007a77977b","system_id":"levelo_inurba_marseille","lat":43.239588,"lon":5.366238,"is_reserved":false,"is_disabled":false,"rental_uris":{"android":"levelo://app?vid=3a28d5ec-aa45-400a-8b2a-98007a77977b","ios":"levelo://app?vid=3a28d5ec-aa45-400a-8b2a-98007a77977b"},"vehicle_type_id":"4","last_reported":1685729295,"current_range_meters":400,"station_id":"ce4bhi12rcd13ifvqfp0","pricing_plan_id":"free"},{"bike_id":"2c3ac111-e7fd-4291-851b-203a8d79d9b1","system_id":"levelo_inurba_marseille","lat":43.239588,"lon":5.366238,"is_reserved":false,"is_disabled":false,"rental_uris":{"android":"levelo://app?vid=2c3ac111-e7fd-4291-851b-203a8d79d9b1","ios":"levelo://app?vid=2c3ac111-e7fd-4291-851b-203a8d79d9b1"},"vehicle_type_id":"4","last_reported":1685729295,"current_range_meters":1600,"station_id":"ce4bhi12rcd13ifvqfp0","pricing_plan_id":"free"},{"bike_id":"34e808b4-d511-4d39-9e91-b7f8adafcc41","system_id":"levelo_inurba_marseille","lat":43.239588,"lon":5.366238,"is_reserved":false,"is_disabled":false,"rental_uris":{"android":"levelo://app?vid=34e808b4-d511-4d39-9e91-b7f8adafcc41","ios":"levelo://app?vid=34e808b4-d511-4d39-9e91-b7f8adafcc41"},"vehicle_type_id":"4","last_reported":1685729295,"current_range_meters":29200,"station_id":"ce4bhi12rcd13ifvqfp0","pricing_plan_id":"free"},{"bike_id":"4553f68d-7ee1-4012-98af-c704ad2498bb","system_id":"levelo_inurba_marseille","lat":43.239588,"lon":5.366238,"is_reserved":false,"is_disabled":false,"rental_uris":{"android":"levelo://app?vid=4553f68d-7ee1-4012-98af-c704ad2498bb","ios":"levelo://app?vid=4553f68d-7ee1-4012-98af-c704ad2498bb"},"vehicle_type_id":"4","last_reported":1685729295,"current_range_meters":8400,"station_id":"ce4bhi12rcd13ifvqfp0","pricing_plan_id":"free"},{"bike_id":"8578c116-8b5e-45f6-bb2d-aed645160b90","system_id":"levelo_inurba_marseille","lat":43.23967,"lon":5.36638,"is_reserved":false,"is_disabled":false,"rental_uris":{"android":"levelo://app?vid=8578c116-8b5e-45f6-bb2d-aed645160b90","ios":"levelo://app?vid=8578c116-8b5e-45f6-bb2d-aed645160b90"},"vehicle_type_id":"4","last_reported":1685729295,"current_range_meters":18000,"station_id":"ce4bhi12rcd13ifvqfp0","pricing_plan_id":"free"},{"bike_id":"bd0ffeaa-8093-45a8-8778-6c7ca23e9e0e","system_id":"levelo_inurba_marseille","lat":43.239588,"lon":5.366238,"is_reserved":false,"is_disabled":false,"rental_uris":{"android":"levelo://app?vid=bd0ffeaa-8093-45a8-8778-6c7ca23e9e0e","ios":"levelo://app?vid=bd0ffeaa-8093-45a8-8778-6c7ca23e9e0e"},"vehicle_type_id":"4","last_reported":1685729295,"current_range_meters":13200,"station_id":"ce4bhi12rcd13ifvqfp0","pricing_plan_id":"free"},{"bike_id":"06167619-bb78-4592-8a71-45647d6ba669","system_id":"levelo_inurba_marseille","lat":43.239588,"lon":5.366238,"is_reserved":false,"is_disabled":false,"rental_uris":{"android":"levelo://app?vid=06167619-bb78-4592-8a71-45647d6ba669","ios":"levelo://app?vid=06167619-bb78-4592-8a71-45647d6ba669"},"vehicle_type_id":"4","last_reported":1685729295,"current_range_meters":4000,"station_id":"ce4bhi12rcd13ifvqfp0","pricing_plan_id":"free"},{"bike_id":"70cda456-dbe6-4d73-a2e0-06f5715fa663","system_id":"levelo_inurba_marseille","lat":43.239588,"lon":5.366238,"is_reserved":false,"is_disabled":false,"rental_uris":{"android":"levelo://app?vid=70cda456-dbe6-4d73-a2e0-06f5715fa663","ios":"levelo://app?vid=70cda456-dbe6-4d73-a2e0-06f5715fa663"},"vehicle_type_id":"4","last_reported":1685729295,"current_range_meters":4400,"station_id":"ce4bhi12rcd13ifvqfp0","pricing_plan_id":"free"},{"bike_id":"53cd49fc-bbf1-458b-a567-4997fdcc8693","system_id":"levelo_inurba_marseille","lat":43.239588,"lon":5.366238,"is_reserved":false,"is_disabled":false,"rental_uris":{"android":"levelo://app?vid=53cd49fc-bbf1-458b-a567-4997fdcc8693","ios":"levelo://app?vid=53cd49fc-bbf1-458b-a567-4997fdcc8693"},"vehicle_type_id":"4","last_reported":1685729295,"current_range_meters":29200,"station_id":"ce4bhi12rcd13ifvqfp0","pricing_plan_id":"free"},{"bike_id":"4f75d099-967d-4701-ac5f-49783fcd6b5f","system_id":"levelo_inurba_marseille","lat":43.239588,"lon":5.366238,"is_reserved":false,"is_disabled":false,"rental_uris":{"android":"levelo://app?vid=4f75d099-967d-4701-ac5f-49783fcd6b5f","ios":"levelo://app?vid=4f75d099-967d-4701-ac5f-49783fcd6b5f"},"vehicle_type_id":"4","last_reported":1685729295,"current_range_meters":28800,"station_id":"ce4bhi12rcd13ifvqfp0","pricing_plan_id":"free"},{"bike_id":"f38d0467-65a7-4f46-b72c-48455bf053cf","system_id":"levelo_inurba_marseille","lat":43.239588,"lon":5.366238,"is_reserved":false,"is_disabled":false,"rental_uris":{"android":"levelo://app?vid=f38d0467-65a7-4f46-b72c-48455bf053cf","ios":"levelo://app?vid=f38d0467-65a7-4f46-b72c-48455bf053cf"},"vehicle_type_id":"4","last_reported":1685729295,"current_range_meters":22400,"station_id":"ce4bhi12rcd13ifvqfp0","pricing_plan_id":"free"},{"bike_id":"7858e349-dcc7-4d5d-831a-58bdb18f5538","system_id":"levelo_inurba_marseille","lat":43.239588,"lon":5.366238,"is_reserved":false,"is_disabled":false,"rental_uris":{"android":"levelo://app?vid=7858e349-dcc7-4d5d-831a-58bdb18f5538","ios":"levelo://app?vid=7858e349-dcc7-4d5d-831a-58bdb18f5538"},"vehicle_type_id":"4","last_reported":1685729295,"current_range_meters":10000,"station_id":"ce4bhi12rcd13ifvqfp0","pricing_plan_id":"free"},{"bike_id":"edbadb80-5d04-40f9-a227-ac672f03bdb2","system_id":"levelo_inurba_marseille","lat":43.239588,"lon":5.366238,"is_reserved":false,"is_disabled":false,"rental_uris":{"android":"levelo://app?vid=edbadb80-5d04-40f9-a227-ac672f03bdb2","ios":"levelo://app?vid=edbadb80-5d04-40f9-a227-ac672f03bdb2"},"vehicle_type_id":"4","last_reported":1685729295,"current_range_meters":15200,"station_id":"ce4bhi12rcd13ifvqfp0","pricing_plan_id":"free"},{"bike_id":"978bb450-2c3a-491c-bfd6-3b663299ad4f","system_id":"levelo_inurba_marseille","lat":43.239588,"lon":5.366238,"is_reserved":false,"is_disabled":false,"rental_uris":{"android":"levelo://app?vid=978bb450-2c3a-491c-bfd6-3b663299ad4f","ios":"levelo://app?vid=978bb450-2c3a-491c-bfd6-3b663299ad4f"},"vehicle_type_id":"4","last_reported":1685729295,"current_range_meters":29200,"station_id":"ce4bhi12rcd13ifvqfp0","pricing_plan_id":"free"},{"bike_id":"36be0654-a594-495b-a31c-6463ea32f1be","system_id":"levelo_inurba_marseille","lat":43.30388,"lon":5.47474,"is_reserved":false,"is_disabled":false,"rental_uris":{"android":"levelo://app?vid=36be0654-a594-495b-a31c-6463ea32f1be","ios":"levelo://app?vid=36be0654-a594-495b-a31c-6463ea32f1be"},"vehicle_type_id":"4","last_reported":1685729295,"current_range_meters":6800,"station_id":"","pricing_plan_id":"free"},{"bike_id":"8e00e7d7-6d57-4467-bd86-2dce8784d558","system_id":"levelo_inurba_marseille","lat":43.231923,"lon":5.355545,"is_reserved":false,"is_disabled":false,"rental_uris":{"android":"levelo://app?vid=8e00e7d7-6d57-4467-bd86-2dce8784d558","ios":"levelo://app?vid=8e00e7d7-6d57-4467-bd86-2dce8784d558"},"vehicle_type_id":"4","last_reported":1685729295,"current_range_meters":31200,"station_id":"ce4bhu92rcd13ifvqi70","pricing_plan_id":"free"},{"bike_id":"2a2e6820-ea61-463e-8945-882c6a5f8bef","system_id":"levelo_inurba_marseille","lat":43.23198,"lon":5.35565,"is_reserved":false,"is_disabled":false,"rental_uris":{"android":"levelo://app?vid=2a2e6820-ea61-463e-8945-882c6a5f8bef","ios":"levelo://app?vid=2a2e6820-ea61-463e-8945-882c6a5f8bef"},"vehicle_type_id":"4","last_reported":1685729295,"current_range_meters":17600,"station_id":"ce4bhu92rcd13ifvqi70","pricing_plan_id":"free"},{"bike_id":"f1bea723-3b9c-4b54-8892-1f065b738df5","system_id":"levelo_inurba_marseille","lat":43.23198,"lon":5.35564,"is_reserved":false,"is_disabled":false,"rental_uris":{"android":"levelo://app?vid=f1bea723-3b9c-4b54-8892-1f065b738df5","ios":"levelo://app?vid=f1bea723-3b9c-4b54-8892-1f065b738df5"},"vehicle_type_id":"4","last_reported":1685729295,"current_range_meters":25200,"station_id":"ce4bhu92rcd13ifvqi70","pricing_plan_id":"free"},{"bike_id":"a04dc097-9951-4a9d-9c8c-aa30a8e2ff65","system_id":"levelo_inurba_marseille","lat":43.23198,"lon":5.35556,"is_reserved":false,"is_disabled":false,"rental_uris":{"android":"levelo://app?vid=a04dc097-9951-4a9d-9c8c-aa30a8e2ff65","ios":"levelo://app?vid=a04dc097-9951-4a9d-9c8c-aa30a8e2ff65"},"vehicle_type_id":"4","last_reported":1685729295,"current_range_meters":9200,"station_id":"ce4bhu92rcd13ifvqi70","pricing_plan_id":"free"},{"bike_id":"d591bc7e-b1c1-41fb-9408-36bb5ec2af01","system_id":"levelo_inurba_marseille","lat":43.23197,"lon":5.35566,"is_reserved":false,"is_disabled":false,"rental_uris":{"android":"levelo://app?vid=d591bc7e-b1c1-41fb-9408-36bb5ec2af01","ios":"levelo://app?vid=d591bc7e-b1c1-41fb-9408-36bb5ec2af01"},"vehicle_type_id":"4","last_reported":1685729295,"current_range_meters":28400,"station_id":"ce4bhu92rcd13ifvqi70","pricing_plan_id":"free"},{"bike_id":"836ef873-5387-4690-8868-8360617ae71f","system_id":"levelo_inurba_marseille","lat":43.23196,"lon":5.3556,"is_reserved":false,"is_disabled":false,"rental_uris":{"android":"levelo://app?vid=836ef873-5387-4690-8868-8360617ae71f","ios":"levelo://app?vid=836ef873-5387-4690-8868-8360617ae71f"},"vehicle_type_id":"4","last_reported":1685729295,"current_range_meters":25600,"station_id":"ce4bhu92rcd13ifvqi70","pricing_plan_id":"free"},{"bike_id":"327922dd-97e5-4dce-a6af-917065566420","system_id":"levelo_inurba_marseille","lat":43.231923,"lon":5.355545,"is_reserved":false,"is_disabled":false,"rental_uris":{"android":"levelo://app?vid=327922dd-97e5-4dce-a6af-917065566420","ios":"levelo://app?vid=327922dd-97e5-4dce-a6af-917065566420"},"vehicle_type_id":"4","last_reported":1685729295,"current_range_meters":1200,"station_id":"ce4bhu92rcd13ifvqi70","pricing_plan_id":"free"},{"bike_id":"1bf4f659-3dfb-4cd9-a96d-61138ce0752b","system_id":"levelo_inurba_marseille","lat":43.231923,"lon":5.355545,"is_reserved":false,"is_disabled":false,"rental_uris":{"android":"levelo://app?vid=1bf4f659-3dfb-4cd9-a96d-61138ce0752b","ios":"levelo://app?vid=1bf4f659-3dfb-4cd9-a96d-61138ce0752b"},"vehicle_type_id":"4","last_reported":1685729295,"current_range_meters":10800,"station_id":"ce4bhu92rcd13ifvqi70","pricing_plan_id":"free"},{"bike_id":"fe6b2939-a513-4dd9-b556-3dfc5f2115f2","system_id":"levelo_inurba_marseille","lat":43.23192,"lon":5.35555,"is_reserved":false,"is_disabled":false,"rental_uris":{"android":"levelo://app?vid=fe6b2939-a513-4dd9-b556-3dfc5f2115f2","ios":"levelo://app?vid=fe6b2939-a513-4dd9-b556-3dfc5f2115f2"},"vehicle_type_id":"4","last_reported":1685729295,"current_range_meters":23600,"station_id":"ce4bhu92rcd13ifvqi70","pricing_plan_id":"free"},{"bike_id":"517b5adf-f053-423a-bf94-3157b15923dc","system_id":"levelo_inurba_marseille","lat":43.23192,"lon":5.35555,"is_reserved":false,"is_disabled":false,"rental_uris":{"android":"levelo://app?vid=517b5adf-f053-423a-bf94-3157b15923dc","ios":"levelo://app?vid=517b5adf-f053-423a-bf94-3157b15923dc"},"vehicle_type_id":"4","last_reported":1685729295,"current_range_meters":8000,"station_id":"ce4bhu92rcd13ifvqi70","pricing_plan_id":"free"},{"bike_id":"28482e00-7034-4413-b356-d983b48fb55f","system_id":"levelo_inurba_marseille","lat":43.23192,"lon":5.35554,"is_reserved":false,"is_disabled":false,"rental_uris":{"android":"levelo://app?vid=28482e00-7034-4413-b356-d983b48fb55f","ios":"levelo://app?vid=28482e00-7034-4413-b356-d983b48fb55f"},"vehicle_type_id":"4","last_reported":1685729295,"current_range_meters":13200,"station_id":"ce4bhu92rcd13ifvqi70","pricing_plan_id":"free"},{"bike_id":"8a16b42b-59d0-4b4d-bf27-134027b1c282","system_id":"levelo_inurba_marseille","lat":43.23191,"lon":5.35556,"is_reserved":false,"is_disabled":false,"rental_uris":{"android":"levelo://app?vid=8a16b42b-59d0-4b4d-bf27-134027b1c282","ios":"levelo://app?vid=8a16b42b-59d0-4b4d-bf27-134027b1c282"},"vehicle_type_id":"4","last_reported":1685729295,"current_range_meters":14000,"station_id":"ce4bhu92rcd13ifvqi70","pricing_plan_id":"free"},{"bike_id":"ccdd659d-d1f3-423b-8596-d04101dbe64d","system_id":"levelo_inurba_marseille","lat":43.231923,"lon":5.355545,"is_reserved":false,"is_disabled":false,"rental_uris":{"android":"levelo://app?vid=ccdd659d-d1f3-423b-8596-d04101dbe64d","ios":"levelo://app?vid=ccdd659d-d1f3-423b-8596-d04101dbe64d"},"vehicle_type_id":"4","last_reported":1685729295,"current_range_meters":31600,"station_id":"ce4bhu92rcd13ifvqi70","pricing_plan_id":"free"},{"bike_id":"0a3ede2b-0f81-4088-9354-f7d9cdad5383","system_id":"levelo_inurba_marseille","lat":43.231794,"lon":5.400052,"is_reserved":false,"is_disabled":false,"rental_uris":{"android":"levelo://app?vid=0a3ede2b-0f81-4088-9354-f7d9cdad5383","ios":"levelo://app?vid=0a3ede2b-0f81-4088-9354-f7d9cdad5383"},"vehicle_type_id":"4","last_reported":1685729295,"current_range_meters":9600,"station_id":"ce4bhn12rcd13ifvqgqg","pricing_plan_id":"free"},{"bike_id":"17d4dd21-727a-4cca-a171-6ee88694f458","system_id":"levelo_inurba_marseille","lat":43.231793,"lon":5.400044,"is_reserved":false,"is_disabled":false,"rental_uris":{"android":"levelo://app?vid=17d4dd21-727a-4cca-a171-6ee88694f458","ios":"levelo://app?vid=17d4dd21-727a-4cca-a171-6ee88694f458"},"vehicle_type_id":"4","last_reported":1685729295,"current_range_meters":31600,"station_id":"ce4bhn12rcd13ifvqgqg","pricing_plan_id":"free"},{"bike_id":"b1fb5ae5-82c0-4c4b-8cdb-25c35b8c07da","system_id":"levelo_inurba_marseille","lat":43.231794,"lon":5.400052,"is_reserved":false,"is_disabled":false,"rental_uris":{"android":"levelo://app?vid=b1fb5ae5-82c0-4c4b-8cdb-25c35b8c07da","ios":"levelo://app?vid=b1fb5ae5-82c0-4c4b-8cdb-25c35b8c07da"},"vehicle_type_id":"4","last_reported":1685729295,"current_range_meters":7600,"station_id":"ce4bhn12rcd13ifvqgqg","pricing_plan_id":"free"},{"bike_id":"f2d87a61-c207-4729-aa4c-3a34c4776e59","system_id":"levelo_inurba_marseille","lat":43.231794,"lon":5.400052,"is_reserved":false,"is_disabled":false,"rental_uris":{"android":"levelo://app?vid=f2d87a61-c207-4729-aa4c-3a34c4776e59","ios":"levelo://app?vid=f2d87a61-c207-4729-aa4c-3a34c4776e59"},"vehicle_type_id":"4","last_reported":1685729295,"current_range_meters":23600,"station_id":"ce4bhn12rcd13ifvqgqg","pricing_plan_id":"free"},{"bike_id":"1ad3f919-8ac3-47d7-b9ec-69b41ef47389","system_id":"levelo_inurba_marseille","lat":43.231794,"lon":5.400052,"is_reserved":false,"is_disabled":false,"rental_uris":{"android":"levelo://app?vid=1ad3f919-8ac3-47d7-b9ec-69b41ef47389","ios":"levelo://app?vid=1ad3f919-8ac3-47d7-b9ec-69b41ef47389"},"vehicle_type_id":"4","last_reported":1685729295,"current_range_meters":29600,"station_id":"ce4bhn12rcd13ifvqgqg","pricing_plan_id":"free"},{"bike_id":"4c757bea-cafc-44ff-b8a0-4af7d65f6992","system_id":"levelo_inurba_marseille","lat":43.231793,"lon":5.400044,"is_reserved":false,"is_disabled":false,"rental_uris":{"android":"levelo://app?vid=4c757bea-cafc-44ff-b8a0-4af7d65f6992","ios":"levelo://app?vid=4c757bea-cafc-44ff-b8a0-4af7d65f6992"},"vehicle_type_id":"4","last_reported":1685729295,"current_range_meters":25200,"station_id":"ce4bhn12rcd13ifvqgqg","pricing_plan_id":"free"}]}}