{"last_updated":1740323270,"ttl":60,"version":"2.2","data":{"bikes":[{"bike_id":"d9ca1ebb-4a98-4577-971d-efd2d8a4b749","system_id":"levelo_inurba_marseille","lat":43.29239,"lon":5.365691,"is_reserved":false,"is_disabled":false,"rental_uris":{"android":"levelo://app?vid=d9ca1ebb-4a98-4577-971d-efd2d8a4b749","ios":"levelo://app?vid=d9ca1ebb-4a98-4577-971d-efd2d8a4b749"},"vehicle_type_id":"4","last_reported":1740323271,"current_range_meters":2800,"station_id":"ce4bhgh2rcd13ifvqfb0","pricing_plan_id":"cebpf4jnsgd1na2vs0mg"},{"bike_id":"91cd9c50-a708-4ca7-8c38-9684716b8855","system_id":"levelo_inurba_marseille","lat":43.33777,"lon":5.37435,"is_reserved":false,"is_disabled":false,"rental_uris":{"android":"levelo://app?vid=91cd9c50-a708-4ca7-8c38-9684716b8855","ios":"levelo://app?vid=91cd9c50-a708-4ca7-8c38-9684716b8855"},"vehicle_type_id":"4","last_reported":1740323271,"current_range_meters":3200,"station_id":"","pricing_plan_id":"cebpf4jnsgd1na2vs0mg"},{"bike_id":"73d2c9c0-b3db-418c-bf14-f49004d2462b","system_id":"levelo_inurba_marseille","lat":43.30553,"lon":5.36534,"is_reserved":false,"is_disabled":false,"rental_uris":{"android":"levelo://app?vid=73d2c9c0-b3db-418c-bf14-f49004d2462b","ios":"levelo://app?vid=73d2c9c0-b3db-418c-bf14-f49004d2462b"},"vehicle_type_id":"4","last_reported":1740323271,"current_range_meters":3200,"station_id":"ce4bgs12rcd13ifvqcag","pricing_plan_id":"cebpf4jnsgd1na2vs0mg"},{"bike_id":"87816e55-cc76-4fca-8b55-3a9d05d19717","system_id":"levelo_inurba_marseille","lat":43.30321,"lon":5.36907,"is_reserved":false,"is_disabled":false,"rental_uris":{"android":"levelo://app?vid=87816e55-cc76-4fca-8b55-3a9d05d19717","ios":"levelo://app?vid=87816e55-cc76-4fca-8b55-3a9d05d19717"},"vehicle_type_id":"4","last_reported":1740323271,"current_range_meters":3600,"station_id":"ce4bgqh2rcd13ifvqc5g","pricing_plan_id":"cebpf4jnsgd1na2vs0mg"},{"bike_id":"5772a8af-fe8b-4cee-b16b-ab998dde510c","system_id":"levelo_inurba_marseille","lat":43.30942,"lon":5.40135,"is_reserved":false,"is_disabled":false,"rental_uris":{"android":"levelo://app?vid=5772a8af-fe8b-4cee-b16b-ab998dde510c","ios":"levelo://app?vid=5772a8af-fe8b-4cee-b16b-ab998dde510c"},"vehicle_type_id":"4","last_reported":1740323271,"current_range_meters":3600,"station_id":"ce4bgvp2rcd13ifvqct0","pricing_plan_id":"cebpf4jnsgd1na2vs0mg"},{"bike_id":"fa83beb1-2405-4db0-9826-c091cb751783","system_id":"levelo_inurba_marseille","lat":43.25125,"lon":5.40368,"is_reserved":false,"is_disabled":true,"rental_uris":{"android":"levelo://app?vid=fa83beb1-2405-4db0-9826-c091cb751783","ios":"levelo://app?vid=fa83beb1-2405-4db0-9826-c091cb751783"},"vehicle_type_id":"4","last_reported":1740323271,"current_range_meters":4000,"station_id":"ce4bhlh2rcd13ifvqgig","pricing_plan_id":"cebpf4jnsgd1na2vs0mg"},{"bike_id":"2acd76af-185a-4cd2-8e57-e53e6e2e8bfc","system_id":"levelo_inurba_marseille","lat":43.28275,"lon":5.35073,"is_reserved":false,"is_disabled":false,"rental_uris":{"android":"levelo://app?vid=2acd76af-185a-4cd2-8e57-e53e6e2e8bfc","ios":"levelo://app?vid=2acd76af-185a-4cd2-8e57-e53e6e2e8bfc"},"vehicle_type_id":"4","last_reported":1740323271,"current_range_meters":4000,"station_id":"ce4bhbp2rcd13ifvqerg","pricing_plan_id":"cebpf4jnsgd1na2vs0mg"},{"bike_id":"ab46b189-6bae-4129-a7fd-10b3ccd5a48e","system_id":"levelo_inurba_marseille","lat":43.27191,"lon":5.39981,"is_reserved":false,"is_disabled":false,"rental_uris":{"android":"levelo://app?vid=ab46b189-6bae-4129-a7fd-10b3ccd5a48e","ios":"levelo://app?vid=ab46b189-6bae-4129-a7fd-10b3ccd5a48e"},"vehicle_type_id":"4","last_reported":1740323271,"current_range_meters":4400,"station_id":"","pricing_plan_id":"cebpf4jnsgd1na2vs0mg"},{"bike_id":"49afa75e-b6f5-42b3-82ac-7d4f7478a7ca","system_id":"levelo_inurba_marseille","lat":43.27618,"lon":5.36105,"is_reserved":false,"is_disabled":false,"rental_uris":{"android":"levelo://app?vid=49afa75e-b6f5-42b3-82ac-7d4f7478a7ca","ios":"levelo://app?vid=49afa75e-b6f5-42b3-82ac-7d4f7478a7ca"},"vehicle_type_id":"4","last_reported":1740323271,"current_range_meters":4400,"station_id":"ce4bgj92rcd13ifvqbe0","pricing_plan_id":"cebpf4jnsgd1na2vs0mg"},{"bike_id":"63c8185d-a458-4165-8e9c-445ce5fa37e9","system_id":"levelo_inurba_marseille","lat":43.28069,"lon":5.39656,"is_reserved":false,"is_disabled":false,"rental_uris":{"android":"levelo://app?vid=63c8185d-a458-4165-8e9c-445ce5fa37e9","ios":"levelo://app?vid=63c8185d-a458-4165-8e9c-445ce5fa37e9"},"vehicle_type_id":"4","last_reported":1740323271,"current_range_meters":4800,"station_id":"ce4bho12rcd13ifvqh2g","pricing_plan_id":"cebpf4jnsgd1na2vs0mg"},{"bike_id":"2a4a8479-d4df-4e52-9d1e-42192a168c8f","system_id":"levelo_inurba_marseille","lat":43.28336,"lon":5.38115,"is_reserved":false,"is_disabled":false,"rental_uris":{"android":"levelo://app?vid=2a4a8479-d4df-4e52-9d1e-42192a168c8f","ios":"levelo://app?vid=2a4a8479-d4df-4e52-9d1e-42192a168c8f"},"vehicle_type_id":"4","last_reported":1740323271,"current_range_meters":4800,"station_id":"ce4bh412rcd13ifvqdr0","pricing_plan_id":"cebpf4jnsgd1na2vs0mg"},{"bike_id":"d378f26b-3968-4c63-9ed7-baff89020a9f","system_id":"levelo_inurba_marseille","lat":43.29422,"lon":5.38614,"is_reserved":false,"is_disabled":false,"rental_uris":{"android":"levelo://app?vid=d378f26b-3968-4c63-9ed7-baff89020a9f","ios":"levelo://app?vid=d378f26b-3968-4c63-9ed7-baff89020a9f"},"vehicle_type_id":"4","last_reported":1740323271,"current_range_meters":4800,"station_id":"ce4bh2h2rcd13ifvqdh0","pricing_plan_id":"cebpf4jnsgd1na2vs0mg"},{"bike_id":"f32fe46d-1120-4c2c-97c5-cdbf2de4ccec","system_id":"levelo_inurba_marseille","lat":43.25918,"lon":5.409,"is_reserved":false,"is_disabled":false,"rental_uris":{"android":"levelo://app?vid=f32fe46d-1120-4c2c-97c5-cdbf2de4ccec","ios":"levelo://app?vid=f32fe46d-1120-4c2c-97c5-cdbf2de4ccec"},"vehicle_type_id":"4","last_reported":1740323271,"current_range_meters":5600,"station_id":"ce4bhm92rcd13ifvqglg","pricing_plan_id":"cebpf4jnsgd1na2vs0mg"},{"bike_id":"d5015d39-44fd-4360-87fa-3d78dfff65ad","system_id":"levelo_inurba_marseille","lat":43.27986,"lon":5.4166,"is_reserved":false,"is_disabled":false,"rental_uris":{"android":"levelo://app?vid=d5015d39-44fd-4360-87fa-3d78dfff65ad","ios":"levelo://app?vid=d5015d39-44fd-4360-87fa-3d78dfff65ad"},"vehicle_type_id":"4","last_reported":1740323271,"current_range_meters":5600,"station_id":"ce4bho12rcd13ifvqh1g","pricing_plan_id":"cebpf4jnsgd1na2vs0mg"},{"bike_id":"75848f42-d987-45e2-9a7f-f19c3635238d","system_id":"levelo_inurba_marseille","lat":43.28949,"lon":5.3662,"is_reserved":false,"is_disabled":false,"rental_uris":{"android":"levelo://app?vid=75848f42-d987-45e2-9a7f-f19c3635238d","ios":"levelo://app?vid=75848f42-d987-45e2-9a7f-f19c3635238d"},"vehicle_type_id":"4","last_reported":1740323271,"current_range_meters":5600,"station_id":"ce4bhap2rcd13ifvqek0","pricing_plan_id":"cebpf4jnsgd1na2vs0mg"},{"bike_id":"c0eb7731-415d-4d31-b872-c50c7ef99c9f","system_id":"levelo_inurba_marseille","lat":43.27218,"lon":5.39206,"is_reserved":false,"is_disabled":false,"rental_uris":{"android":"levelo://app?vid=c0eb7731-415d-4d31-b872-c50c7ef99c9f","ios":"levelo://app?vid=c0eb7731-415d-4d31-b872-c50c7ef99c9f"},"vehicle_type_id":"4","last_reported":1740323271,"current_range_meters":6000,"station_id":"ce4bhhp2rcd13ifvqfm0","pricing_plan_id":"cebpf4jnsgd1na2vs0mg"},{"bike_id":"43f3bdae-9a43-4efa-a313-0a12a8a2b1af","system_id":"levelo_inurba_marseille","lat":43.281523,"lon":5.378771,"is_reserved":false,"is_disabled":false,"rental_uris":{"android":"levelo://app?vid=43f3bdae-9a43-4efa-a313-0a12a8a2b1af","ios":"levelo://app?vid=43f3bdae-9a43-4efa-a313-0a12a8a2b1af"},"vehicle_type_id":"4","last_reported":1740323271,"current_range_meters":6000,"station_id":"ce4bha12rcd13ifvqee0","pricing_plan_id":"cebpf4jnsgd1na2vs0mg"},{"bike_id":"498fd156-74e1-4d37-a852-67eabfe4e583","system_id":"levelo_inurba_marseille","lat":43.24679,"lon":5.38157,"is_reserved":false,"is_disabled":false,"rental_uris":{"android":"levelo://app?vid=498fd156-74e1-4d37-a852-67eabfe4e583","ios":"levelo://app?vid=498fd156-74e1-4d37-a852-67eabfe4e583"},"vehicle_type_id":"4","last_reported":1740323271,"current_range_meters":6000,"station_id":"ce4bhih2rcd13ifvqfr0","pricing_plan_id":"cebpf4jnsgd1na2vs0mg"},{"bike_id":"9116b8ac-629d-459b-b44d-248b2c2649b7","system_id":"levelo_inurba_marseille","lat":43.27927,"lon":5.41037,"is_reserved":false,"is_disabled":true,"rental_uris":{"android":"levelo://app?vid=9116b8ac-629d-459b-b44d-248b2c2649b7","ios":"levelo://app?vid=9116b8ac-629d-459b-b44d-248b2c2649b7"},"vehicle_type_id":"4","last_reported":1740323271,"current_range_meters":6000,"station_id":"ce4bhnp2rcd13ifvqh0g","pricing_plan_id":"cebpf4jnsgd1na2vs0mg"},{"bike_id":"d366e43e-2081-470b-b108-feb7e6ca4202","system_id":"levelo_inurba_marseille","lat":43.2827,"lon":5.35073,"is_reserved":false,"is_disabled":false,"rental_uris":{"android":"levelo://app?vid=d366e43e-2081-470b-b108-feb7e6ca4202","ios":"levelo://app?vid=d366e43e-2081-470b-b108-feb7e6ca4202"},"vehicle_type_id":"4","last_reported":1740323271,"current_range_meters":6000,"station_id":"ce4bhbp2rcd13ifvqerg","pricing_plan_id":"cebpf4jnsgd1na2vs0mg"},{"bike_id":"7a2866a5-7134-49d5-b13b-25f9b299f6f1","system_id":"levelo_inurba_marseille","lat":43.28606,"lon":5.37069,"is_reserved":false,"is_disabled":false,"rental_uris":{"android":"levelo://app?vid=7a2866a5-7134-49d5-b13b-25f9b299f6f1","ios":"levelo://app?vid=7a2866a5-7134-49d5-b13b-25f9b299f6f1"},"vehicle_type_id":"4","last_reported":1740323271,"current_range_meters":6000,"station_id":"ce4bht12rcd13ifvqi60","pricing_plan_id":"cebpf4jnsgd1na2vs0mg"},{"bike_id":"aed21e0b-418a-4197-b4fe-9739ad3844a6","system_id":"levelo_inurba_marseille","lat":43.29302,"lon":5.37463,"is_reserved":false,"is_disabled":false,"rental_uris":{"android":"levelo://app?vid=aed21e0b-418a-4197-b4fe-9739ad3844a6","ios":"levelo://app?vid=aed21e0b-418a-4197-b4fe-9739ad3844a6"},"vehicle_type_id":"4","last_reported":1740323271,"current_range_meters":6000,"station_id":"ce4bgi12rcd13ifvqb70","pricing_plan_id":"cebpf4jnsgd1na2vs0mg"},{"bike_id":"ff7704c8-62f9-42a2-8a59-19b0692d3bf7","system_id":"levelo_inurba_marseille","lat":43.27368,"lon":5.36263,"is_reserved":false,"is_disabled":false,"rental_uris":{"android":"levelo://app?vid=ff7704c8-62f9-42a2-8a59-19b0692d3bf7","ios":"levelo://app?vid=ff7704c8-62f9-42a2-8a59-19b0692d3bf7"},"vehicle_type_id":"4","last_reported":1740323271,"current_range_meters":6000,"station_id":"ce4bhbh2rcd13ifvqeo0","pricing_plan_id":"cebpf4jnsgd1na2vs0mg"},{"bike_id":"b985ad1f-1942-453b-b5eb-7462cafd1e31","system_id":"levelo_inurba_marseille","lat":43.23192,"lon":5.35562,"is_reserved":false,"is_disabled":false,"rental_uris":{"android":"levelo://app?vid=b985ad1f-1942-453b-b5eb-7462cafd1e31","ios":"levelo://app?vid=b985ad1f-1942-453b-b5eb-7462cafd1e31"},"vehicle_type_id":"4","last_reported":1740323271,"current_range_meters":6000,"station_id":"ce4bhu92rcd13ifvqi70","pricing_plan_id":"cebpf4jnsgd1na2vs0mg"},{"bike_id":"75a5469c-a0bb-434a-8f9d-5903c251db4d","system_id":"levelo_inurba_marseille","lat":43.23198,"lon":5.35555,"is_reserved":false,"is_disabled":false,"rental_uris":{"android":"levelo://app?vid=75a5469c-a0bb-434a-8f9d-5903c251db4d","ios":"levelo://app?vid=75a5469c-a0bb-434a-8f9d-5903c251db4d"},"vehicle_type_id":"4","last_reported":1740323271,"current_range_meters":6400,"station_id":"ce4bhu92rcd13ifvqi70","pricing_plan_id":"cebpf4jnsgd1na2vs0mg"},{"bike_id":"390680ba-72a5-4fcc-8374-29729be7b0e6","system_id":"levelo_inurba_marseille","lat":43.284589,"lon":5.349661,"is_reserved":false,"is_disabled":false,"rental_uris":{"android":"levelo://app?vid=390680ba-72a5-4fcc-8374-29729be7b0e6","ios":"levelo://app?vid=390680ba-72a5-4fcc-8374-29729be7b0e6"},"vehicle_type_id":"4","last_reported":1740323271,"current_range_meters":6400,"station_id":"","pricing_plan_id":"cebpf4jnsgd1na2vs0mg"},{"bike_id":"2a7165b4-60a1-4418-90cd-83d9915280e2","system_id":"levelo_inurba_marseille","lat":43.28019,"lon":5.40605,"is_reserved":false,"is_disabled":false,"rental_uris":{"android":"levelo://app?vid=2a7165b4-60a1-4418-90cd-83d9915280e2","ios":"levelo://app?vid=2a7165b4-60a1-4418-90cd-83d9915280e2"},"vehicle_type_id":"4","last_reported":1740323271,"current_range_meters":6400,"station_id":"","pricing_plan_id":"cebpf4jnsgd1na2vs0mg"},{"bike_id":"8a5b321c-f5ef-472e-8728-e7538f0b0c20","system_id":"levelo_inurba_marseille","lat":43.26546,"lon":5.3731,"is_reserved":false,"is_disabled":false,"rental_uris":{"android":"levelo://app?vid=8a5b321c-f5ef-472e-8728-e7538f0b0c20","ios":"levelo://app?vid=8a5b321c-f5ef-472e-8728-e7538f0b0c20"},"vehicle_type_id":"4","last_reported":1740323271,"current_range_meters":6400,"station_id":"ce4bhg12rcd13ifvqf70","pricing_plan_id":"cebpf4jnsgd1na2vs0mg"},{"bike_id":"6d48938c-9b80-49b7-89e5-950ba7a6ce63","system_id":"levelo_inurba_marseille","lat":43.25951,"lon":5.409013,"is_reserved":false,"is_disabled":false,"rental_uris":{"android":"levelo://app?vid=6d48938c-9b80-49b7-89e5-950ba7a6ce63","ios":"levelo://app?vid=6d48938c-9b80-49b7-89e5-950ba7a6ce63"},"vehicle_type_id":"4","last_reported":1740323271,"current_range_meters":6400,"station_id":"ce4bhm92rcd13ifvqglg","pricing_plan_id":"cebpf4jnsgd1na2vs0mg"},{"bike_id":"ddbb1c56-9870-4231-b735-ca6f231bf9f0","system_id":"levelo_inurba_marseille","lat":43.24066,"lon":5.37748,"is_reserved":false,"is_disabled":false,"rental_uris":{"android":"levelo://app?vid=ddbb1c56-9870-4231-b735-ca6f231bf9f0","ios":"levelo://app?vid=ddbb1c56-9870-4231-b735-ca6f231bf9f0"},"vehicle_type_id":"4","last_reported":1740323271,"current_range_meters":6400,"station_id":"ce4bhnp2rcd13ifvqgvg","pricing_plan_id":"cebpf4jnsgd1na2vs0mg"},{"bike_id":"b91e0f62-9be8-4516-b6c1-6012e213690c","system_id":"levelo_inurba_marseille","lat":43.25116,"lon":5.40318,"is_reserved":false,"is_disabled":false,"rental_uris":{"android":"levelo://app?vid=b91e0f62-9be8-4516-b6c1-6012e213690c","ios":"levelo://app?vid=b91e0f62-9be8-4516-b6c1-6012e213690c"},"vehicle_type_id":"4","last_reported":1740323271,"current_range_meters":6800,"station_id":"ce4bhlh2rcd13ifvqgig","pricing_plan_id":"cebpf4jnsgd1na2vs0mg"},{"bike_id":"4d91e9cd-324f-4f64-bafc-9441a28051c5","system_id":"levelo_inurba_marseille","lat":43.28254,"lon":5.35086,"is_reserved":false,"is_disabled":false,"rental_uris":{"android":"levelo://app?vid=4d91e9cd-324f-4f64-bafc-9441a28051c5","ios":"levelo://app?vid=4d91e9cd-324f-4f64-bafc-9441a28051c5"},"vehicle_type_id":"4","last_reported":1740323271,"current_range_meters":6800,"station_id":"ce4bhbp2rcd13ifvqerg","pricing_plan_id":"cebpf4jnsgd1na2vs0mg"},{"bike_id":"f4c73116-43d3-41d9-88bb-9461dbbb405f","system_id":"levelo_inurba_marseille","lat":43.25437,"lon":5.41576,"is_reserved":false,"is_disabled":false,"rental_uris":{"android":"levelo://app?vid=f4c73116-43d3-41d9-88bb-9461dbbb405f","ios":"levelo://app?vid=f4c73116-43d3-41d9-88bb-9461dbbb405f"},"vehicle_type_id":"4","last_reported":1740323271,"current_range_meters":6800,"station_id":"","pricing_plan_id":"cebpf4jnsgd1na2vs0mg"},{"bike_id":"2e4d9ef6-4dd9-45eb-8687-42db3850d70a","system_id":"levelo_inurba_marseille","lat":43.27467,"lon":5.40783,"is_reserved":false,"is_disabled":false,"rental_uris":{"android":"levelo://app?vid=2e4d9ef6-4dd9-45eb-8687-42db3850d70a","ios":"levelo://app?vid=2e4d9ef6-4dd9-45eb-8687-42db3850d70a"},"vehicle_type_id":"4","last_reported":1740323271,"current_range_meters":6800,"station_id":"","pricing_plan_id":"cebpf4jnsgd1na2vs0mg"},{"bike_id":"48afa1fc-3b2d-4aed-915b-5eb1fbc9e4a3","system_id":"levelo_inurba_marseille","lat":43.29002,"lon":5.35617,"is_reserved":false,"is_disabled":false,"rental_uris":{"android":"levelo://app?vid=48afa1fc-3b2d-4aed-915b-5eb1fbc9e4a3","ios":"levelo://app?vid=48afa1fc-3b2d-4aed-915b-5eb1fbc9e4a3"},"vehicle_type_id":"4","last_reported":1740323271,"current_range_meters":6800,"station_id":"ce4bhb92rcd13ifvqen0","pricing_plan_id":"cebpf4jnsgd1na2vs0mg"},{"bike_id":"997479b1-1b5a-4b5d-ae67-d5b90a4c6b72","system_id":"levelo_inurba_marseille","lat":43.30549,"lon":5.36541,"is_reserved":false,"is_disabled":false,"rental_uris":{"android":"levelo://app?vid=997479b1-1b5a-4b5d-ae67-d5b90a4c6b72","ios":"levelo://app?vid=997479b1-1b5a-4b5d-ae67-d5b90a4c6b72"},"vehicle_type_id":"4","last_reported":1740323271,"current_range_meters":6800,"station_id":"ce4bgs12rcd13ifvqcag","pricing_plan_id":"cebpf4jnsgd1na2vs0mg"},{"bike_id":"0f061e5b-e058-4dce-8a75-554e9a2d1cf5","system_id":"levelo_inurba_marseille","lat":43.30556,"lon":5.36523,"is_reserved":false,"is_disabled":false,"rental_uris":{"android":"levelo://app?vid=0f061e5b-e058-4dce-8a75-554e9a2d1cf5","ios":"levelo://app?vid=0f061e5b-e058-4dce-8a75-554e9a2d1cf5"},"vehicle_type_id":"4","last_reported":1740323271,"current_range_meters":6400,"station_id":"ce4bgs12rcd13ifvqcag","pricing_plan_id":"cebpf4jnsgd1na2vs0mg"},{"bike_id":"0b35ef10-1d1d-4e8a-949e-c3122c5e3874","system_id":"levelo_inurba_marseille","lat":43.23963,"lon":5.36615,"is_reserved":false,"is_disabled":false,"rental_uris":{"android":"levelo://app?vid=0b35ef10-1d1d-4e8a-949e-c3122c5e3874","ios":"levelo://app?vid=0b35ef10-1d1d-4e8a-949e-c3122c5e3874"},"vehicle_type_id":"4","last_reported":1740323271,"current_range_meters":7200,"station_id":"ce4bhi12rcd13ifvqfp0","pricing_plan_id":"cebpf4jnsgd1na2vs0mg"},{"bike_id":"b3026796-ee60-4276-99b1-e0877edc9db0","system_id":"levelo_inurba_marseille","lat":43.24071,"lon":5.37774,"is_reserved":false,"is_disabled":false,"rental_uris":{"android":"levelo://app?vid=b3026796-ee60-4276-99b1-e0877edc9db0","ios":"levelo://app?vid=b3026796-ee60-4276-99b1-e0877edc9db0"},"vehicle_type_id":"4","last_reported":1740323271,"current_range_meters":7200,"station_id":"ce4bhnp2rcd13ifvqgvg","pricing_plan_id":"cebpf4jnsgd1na2vs0mg"},{"bike_id":"cc7e6ba9-8c4b-4862-a209-561315924157","system_id":"levelo_inurba_marseille","lat":43.34157,"lon":5.40906,"is_reserved":false,"is_disabled":false,"rental_uris":{"android":"levelo://app?vid=cc7e6ba9-8c4b-4862-a209-561315924157","ios":"levelo://app?vid=cc7e6ba9-8c4b-4862-a209-561315924157"},"vehicle_type_id":"4","last_reported":1740323271,"current_range_meters":7200,"station_id":"ce4bhqh2rcd13ifvqhlg","pricing_plan_id":"cebpf4jnsgd1na2vs0mg"},{"bike_id":"1284377d-613e-4b0e-b8b9-30807af03316","system_id":"levelo_inurba_marseille","lat":43.278363,"lon":5.39198,"is_reserved":false,"is_disabled":true,"rental_uris":{"android":"levelo://app?vid=1284377d-613e-4b0e-b8b9-30807af03316","ios":"levelo://app?vid=1284377d-613e-4b0e-b8b9-30807af03316"},"vehicle_type_id":"4","last_reported":1740323271,"current_range_meters":7200,"station_id":"ce4bhjp2rcd13ifvqga0","pricing_plan_id":"cebpf4jnsgd1na2vs0mg"},{"bike_id":"85d02cf0-eafd-4d91-bf83-2351fc911081","system_id":"levelo_inurba_marseille","lat":43.25497,"lon":5.37649,"is_reserved":false,"is_disabled":false,"rental_uris":{"android":"levelo://app?vid=85d02cf0-eafd-4d91-bf83-2351fc911081","ios":"levelo://app?vid=85d02cf0-eafd-4d91-bf83-2351fc911081"},"vehicle_type_id":"4","last_reported":1740323271,"current_range_meters":7200,"station_id":"ce4bhh12rcd13ifvqff0","pricing_plan_id":"cebpf4jnsgd1na2vs0mg"},{"bike_id":"15df4f22-0e02-40b3-916a-9516d1f46a1d","system_id":"levelo_inurba_marseille","lat":43.23958,"lon":5.36626,"is_reserved":false,"is_disabled":false,"rental_uris":{"android":"levelo://app?vid=15df4f22-0e02-40b3-916a-9516d1f46a1d","ios":"levelo://app?vid=15df4f22-0e02-40b3-916a-9516d1f46a1d"},"vehicle_type_id":"4","last_reported":1740323271,"current_range_meters":7200,"station_id":"ce4bhi12rcd13ifvqfp0","pricing_plan_id":"cebpf4jnsgd1na2vs0mg"},{"bike_id":"827ec7e5-1ae5-45b8-890e-b6822ea9bc11","system_id":"levelo_inurba_marseille","lat":43.23968,"lon":5.36609,"is_reserved":false,"is_disabled":false,"rental_uris":{"android":"levelo://app?vid=827ec7e5-1ae5-45b8-890e-b6822ea9bc11","ios":"levelo://app?vid=827ec7e5-1ae5-45b8-890e-b6822ea9bc11"},"vehicle_type_id":"4","last_reported":1740323271,"current_range_meters":7200,"station_id":"ce4bhi12rcd13ifvqfp0","pricing_plan_id":"cebpf4jnsgd1na2vs0mg"},{"bike_id":"421c395f-42e7-4839-815e-0f9376e1e6de","system_id":"levelo_inurba_marseille","lat":43.2655,"lon":5.37285,"is_reserved":false,"is_disabled":false,"rental_uris":{"android":"levelo://app?vid=421c395f-42e7-4839-815e-0f9376e1e6de","ios":"levelo://app?vid=421c395f-42e7-4839-815e-0f9376e1e6de"},"vehicle_type_id":"4","last_reported":1740323271,"current_range_meters":7200,"station_id":"ce4bhg12rcd13ifvqf70","pricing_plan_id":"cebpf4jnsgd1na2vs0mg"},{"bike_id":"85d0d0ef-96c0-4501-9c47-db34e0fc6669","system_id":"levelo_inurba_marseille","lat":43.29307,"lon":5.3718,"is_reserved":false,"is_disabled":false,"rental_uris":{"android":"levelo://app?vid=85d0d0ef-96c0-4501-9c47-db34e0fc6669","ios":"levelo://app?vid=85d0d0ef-96c0-4501-9c47-db34e0fc6669"},"vehicle_type_id":"4","last_reported":1740323271,"current_range_meters":7200,"station_id":"ce4bgh92rcd13ifvqb40","pricing_plan_id":"cebpf4jnsgd1na2vs0mg"},{"bike_id":"519c0d90-c598-4074-9c80-d5e1565ff705","system_id":"levelo_inurba_marseille","lat":43.23075,"lon":5.35496,"is_reserved":false,"is_disabled":false,"rental_uris":{"android":"levelo://app?vid=519c0d90-c598-4074-9c80-d5e1565ff705","ios":"levelo://app?vid=519c0d90-c598-4074-9c80-d5e1565ff705"},"vehicle_type_id":"4","last_reported":1740323271,"current_range_meters":8000,"station_id":"cpo3342slgdg3j2ifvpg","pricing_plan_id":"cebpf4jnsgd1na2vs0mg"},{"bike_id":"f0f0cd9f-b58c-483a-ab3e-a3c1fd4c3d08","system_id":"levelo_inurba_marseille","lat":43.25106,"lon":5.40321,"is_reserved":false,"is_disabled":false,"rental_uris":{"android":"levelo://app?vid=f0f0cd9f-b58c-483a-ab3e-a3c1fd4c3d08","ios":"levelo://app?vid=f0f0cd9f-b58c-483a-ab3e-a3c1fd4c3d08"},"vehicle_type_id":"4","last_reported":1740323271,"current_range_meters":7200,"station_id":"ce4bhlh2rcd13ifvqgig","pricing_plan_id":"cebpf4jnsgd1na2vs0mg"},{"bike_id":"5db4c624-d414-4b99-a6b4-850b0e3b9010","system_id":"levelo_inurba_marseille","lat":43.29074,"lon":5.37159,"is_reserved":false,"is_disabled":false,"rental_uris":{"android":"levelo://app?vid=5db4c624-d414-4b99-a6b4-850b0e3b9010","ios":"levelo://app?vid=5db4c624-d414-4b99-a6b4-850b0e3b9010"},"vehicle_type_id":"4","last_reported":1740323271,"current_range_meters":8000,"station_id":"ce4bh5p2rcd13ifvqe4g","pricing_plan_id":"cebpf4jnsgd1na2vs0mg"},{"bike_id":"590c2d4d-a6f8-41f2-86bc-cf779452c419","system_id":"levelo_inurba_marseille","lat":43.2716,"lon":5.41011,"is_reserved":false,"is_disabled":false,"rental_uris":{"android":"levelo://app?vid=590c2d4d-a6f8-41f2-86bc-cf779452c419","ios":"levelo://app?vid=590c2d4d-a6f8-41f2-86bc-cf779452c419"},"vehicle_type_id":"4","last_reported":1740323271,"current_range_meters":8000,"station_id":"ce4bhl12rcd13ifvqgf0","pricing_plan_id":"cebpf4jnsgd1na2vs0mg"},{"bike_id":"a064d59b-f759-4d98-a77b-c1fed32d887e","system_id":"levelo_inurba_marseille","lat":43.30941,"lon":5.39056,"is_reserved":false,"is_disabled":false,"rental_uris":{"android":"levelo://app?vid=a064d59b-f759-4d98-a77b-c1fed32d887e","ios":"levelo://app?vid=a064d59b-f759-4d98-a77b-c1fed32d887e"},"vehicle_type_id":"4","last_reported":1740323271,"current_range_meters":8000,"station_id":"ce4bgup2rcd13ifvqco0","pricing_plan_id":"cebpf4jnsgd1na2vs0mg"},{"bike_id":"3d69461f-c4bf-416f-9b47-7133a80973ec","system_id":"levelo_inurba_marseille","lat":43.29006,"lon":5.35621,"is_reserved":false,"is_disabled":false,"rental_uris":{"android":"levelo://app?vid=3d69461f-c4bf-416f-9b47-7133a80973ec","ios":"levelo://app?vid=3d69461f-c4bf-416f-9b47-7133a80973ec"},"vehicle_type_id":"4","last_reported":1740323271,"current_range_meters":8000,"station_id":"ce4bhb92rcd13ifvqen0","pricing_plan_id":"cebpf4jnsgd1na2vs0mg"},{"bike_id":"bb127142-502c-4b61-b74c-d7410317905c","system_id":"levelo_inurba_marseille","lat":43.268013,"lon":5.402644,"is_reserved":false,"is_disabled":false,"rental_uris":{"android":"levelo://app?vid=bb127142-502c-4b61-b74c-d7410317905c","ios":"levelo://app?vid=bb127142-502c-4b61-b74c-d7410317905c"},"vehicle_type_id":"4","last_reported":1740323271,"current_range_meters":8400,"station_id":"ce501612rcd8frsf0b60","pricing_plan_id":"cebpf4jnsgd1na2vs0mg"},{"bike_id":"cece93b6-fd03-4829-aeb2-efcd213ca863","system_id":"levelo_inurba_marseille","lat":43.27416,"lon":5.394,"is_reserved":false,"is_disabled":false,"rental_uris":{"android":"levelo://app?vid=cece93b6-fd03-4829-aeb2-efcd213ca863","ios":"levelo://app?vid=cece93b6-fd03-4829-aeb2-efcd213ca863"},"vehicle_type_id":"4","last_reported":1740323271,"current_range_meters":8400,"station_id":"ce4bhdp2rcd13ifvqf20","pricing_plan_id":"cebpf4jnsgd1na2vs0mg"},{"bike_id":"ee798f57-7ec6-4969-b216-34c54daf73f9","system_id":"levelo_inurba_marseille","lat":43.25503,"lon":5.37653,"is_reserved":false,"is_disabled":false,"rental_uris":{"android":"levelo://app?vid=ee798f57-7ec6-4969-b216-34c54daf73f9","ios":"levelo://app?vid=ee798f57-7ec6-4969-b216-34c54daf73f9"},"vehicle_type_id":"4","last_reported":1740323271,"current_range_meters":8400,"station_id":"ce4bhh12rcd13ifvqff0","pricing_plan_id":"cebpf4jnsgd1na2vs0mg"},{"bike_id":"f5197672-90cf-427e-b7ff-9bfd8eb9de3f","system_id":"levelo_inurba_marseille","lat":43.29173,"lon":5.3581,"is_reserved":false,"is_disabled":false,"rental_uris":{"android":"levelo://app?vid=f5197672-90cf-427e-b7ff-9bfd8eb9de3f","ios":"levelo://app?vid=f5197672-90cf-427e-b7ff-9bfd8eb9de3f"},"vehicle_type_id":"4","last_reported":1740323271,"current_range_meters":8400,"station_id":"ce4bhb12rcd13ifvqel0","pricing_plan_id":"cebpf4jnsgd1na2vs0mg"},{"bike_id":"0257fad6-53b6-4c4b-b9ae-3c1954d24f2b","system_id":"levelo_inurba_marseille","lat":43.255,"lon":5.37652,"is_reserved":false,"is_disabled":false,"rental_uris":{"android":"levelo://app?vid=0257fad6-53b6-4c4b-b9ae-3c1954d24f2b","ios":"levelo://app?vid=0257fad6-53b6-4c4b-b9ae-3c1954d24f2b"},"vehicle_type_id":"4","last_reported":1740323271,"current_range_meters":6800,"station_id":"ce4bhh12rcd13ifvqff0","pricing_plan_id":"cebpf4jnsgd1na2vs0mg"},{"bike_id":"26a2d076-f5f2-45a7-98f5-29542790fe7d","system_id":"levelo_inurba_marseille","lat":43.32367,"lon":5.36769,"is_reserved":false,"is_disabled":false,"rental_uris":{"android":"levelo://app?vid=26a2d076-f5f2-45a7-98f5-29542790fe7d","ios":"levelo://app?vid=26a2d076-f5f2-45a7-98f5-29542790fe7d"},"vehicle_type_id":"4","last_reported":1740323271,"current_range_meters":8400,"station_id":"ce4bhsh2rcd13ifvqi2g","pricing_plan_id":"cebpf4jnsgd1na2vs0mg"},{"bike_id":"5dd7c4aa-7dbd-48c5-b98e-13c8f91b6b05","system_id":"levelo_inurba_marseille","lat":43.292145,"lon":5.393289,"is_reserved":false,"is_disabled":false,"rental_uris":{"android":"levelo://app?vid=5dd7c4aa-7dbd-48c5-b98e-13c8f91b6b05","ios":"levelo://app?vid=5dd7c4aa-7dbd-48c5-b98e-13c8f91b6b05"},"vehicle_type_id":"4","last_reported":1740323271,"current_range_meters":8400,"station_id":"ce4bh192rcd13ifvqdd0","pricing_plan_id":"cebpf4jnsgd1na2vs0mg"},{"bike_id":"09486dc5-7654-4904-afc6-3b8a40308aeb","system_id":"levelo_inurba_marseille","lat":43.2542,"lon":5.41588,"is_reserved":false,"is_disabled":false,"rental_uris":{"android":"levelo://app?vid=09486dc5-7654-4904-afc6-3b8a40308aeb","ios":"levelo://app?vid=09486dc5-7654-4904-afc6-3b8a40308aeb"},"vehicle_type_id":"4","last_reported":1740323271,"current_range_meters":8800,"station_id":"","pricing_plan_id":"cebpf4jnsgd1na2vs0mg"},{"bike_id":"532c4564-7f0d-4d1e-af8f-ca7853199c8e","system_id":"levelo_inurba_marseille","lat":43.28428,"lon":5.3499,"is_reserved":false,"is_disabled":false,"rental_uris":{"android":"levelo://app?vid=532c4564-7f0d-4d1e-af8f-ca7853199c8e","ios":"levelo://app?vid=532c4564-7f0d-4d1e-af8f-ca7853199c8e"},"vehicle_type_id":"4","last_reported":1740323271,"current_range_meters":8800,"station_id":"ce4bhbh2rcd13ifvqepg","pricing_plan_id":"cebpf4jnsgd1na2vs0mg"},{"bike_id":"0b0005d3-3e6b-4b84-922c-ab490b866509","system_id":"levelo_inurba_marseille","lat":43.29539,"lon":5.39409,"is_reserved":false,"is_disabled":false,"rental_uris":{"android":"levelo://app?vid=0b0005d3-3e6b-4b84-922c-ab490b866509","ios":"levelo://app?vid=0b0005d3-3e6b-4b84-922c-ab490b866509"},"vehicle_type_id":"4","last_reported":1740323271,"current_range_meters":8800,"station_id":"ce4bh292rcd13ifvqdf0","pricing_plan_id":"cebpf4jnsgd1na2vs0mg"},{"bike_id":"5bf67917-625d-44b4-bb34-a5e59e38dfd0","system_id":"levelo_inurba_marseille","lat":43.26495,"lon":5.39548,"is_reserved":false,"is_disabled":false,"rental_uris":{"android":"levelo://app?vid=5bf67917-625d-44b4-bb34-a5e59e38dfd0","ios":"levelo://app?vid=5bf67917-625d-44b4-bb34-a5e59e38dfd0"},"vehicle_type_id":"4","last_reported":1740323271,"current_range_meters":9600,"station_id":"ce4bhi12rcd13ifvqfq0","pricing_plan_id":"cebpf4jnsgd1na2vs0mg"},{"bike_id":"1c2ecef1-5242-43dd-af90-1377881671e0","system_id":"levelo_inurba_marseille","lat":43.28941,"lon":5.3638,"is_reserved":false,"is_disabled":false,"rental_uris":{"android":"levelo://app?vid=1c2ecef1-5242-43dd-af90-1377881671e0","ios":"levelo://app?vid=1c2ecef1-5242-43dd-af90-1377881671e0"},"vehicle_type_id":"4","last_reported":1740323271,"current_range_meters":9200,"station_id":"ce4bhc92rcd13ifvqetg","pricing_plan_id":"cebpf4jnsgd1na2vs0mg"},{"bike_id":"cf85b9e7-7280-41b8-9bbd-908a5f075dcd","system_id":"levelo_inurba_marseille","lat":43.29982,"lon":5.3717,"is_reserved":false,"is_disabled":false,"rental_uris":{"android":"levelo://app?vid=cf85b9e7-7280-41b8-9bbd-908a5f075dcd","ios":"levelo://app?vid=cf85b9e7-7280-41b8-9bbd-908a5f075dcd"},"vehicle_type_id":"4","last_reported":1740323271,"current_range_meters":9200,"station_id":"ce4bgr92rcd13ifvqc7g","pricing_plan_id":"cebpf4jnsgd1na2vs0mg"},{"bike_id":"49e1c317-c43a-4e17-be08-ea23dc8d6739","system_id":"levelo_inurba_marseille","lat":43.3019,"lon":5.39585,"is_reserved":false,"is_disabled":true,"rental_uris":{"android":"levelo://app?vid=49e1c317-c43a-4e17-be08-ea23dc8d6739","ios":"levelo://app?vid=49e1c317-c43a-4e17-be08-ea23dc8d6739"},"vehicle_type_id":"4","last_reported":1740323271,"current_range_meters":9200,"station_id":"","pricing_plan_id":"cebpf4jnsgd1na2vs0mg"},{"bike_id":"f88cf63f-9031-469c-968a-ce5d67c470a4","system_id":"levelo_inurba_marseille","lat":43.30639,"lon":5.40096,"is_reserved":false,"is_disabled":false,"rental_uris":{"android":"levelo://app?vid=f88cf63f-9031-469c-968a-ce5d67c470a4","ios":"levelo://app?vid=f88cf63f-9031-469c-968a-ce5d67c470a4"},"vehicle_type_id":"4","last_reported":1740323271,"current_range_meters":9200,"station_id":"ce4bh112rcd13ifvqda0","pricing_plan_id":"cebpf4jnsgd1na2vs0mg"},{"bike_id":"c655929d-16b5-4364-9adf-7b2bd99c4a64","system_id":"levelo_inurba_marseille","lat":43.27369,"lon":5.36261,"is_reserved":false,"is_disabled":false,"rental_uris":{"android":"levelo://app?vid=c655929d-16b5-4364-9adf-7b2bd99c4a64","ios":"levelo://app?vid=c655929d-16b5-4364-9adf-7b2bd99c4a64"},"vehicle_type_id":"4","last_reported":1740323271,"current_range_meters":9600,"station_id":"ce4bhbh2rcd13ifvqeo0","pricing_plan_id":"cebpf4jnsgd1na2vs0mg"},{"bike_id":"1f7411cd-9379-4bab-a8bc-411b928d8602","system_id":"levelo_inurba_marseille","lat":43.27501,"lon":5.4247,"is_reserved":false,"is_disabled":false,"rental_uris":{"android":"levelo://app?vid=1f7411cd-9379-4bab-a8bc-411b928d8602","ios":"levelo://app?vid=1f7411cd-9379-4bab-a8bc-411b928d8602"},"vehicle_type_id":"4","last_reported":1740323271,"current_range_meters":9600,"station_id":"ce4bhn92rcd13ifvqgrg","pricing_plan_id":"cebpf4jnsgd1na2vs0mg"},{"bike_id":"8dc51aab-29d3-43fa-a37e-6c47cc4c2e69","system_id":"levelo_inurba_marseille","lat":43.24162,"lon":5.36406,"is_reserved":false,"is_disabled":false,"rental_uris":{"android":"levelo://app?vid=8dc51aab-29d3-43fa-a37e-6c47cc4c2e69","ios":"levelo://app?vid=8dc51aab-29d3-43fa-a37e-6c47cc4c2e69"},"vehicle_type_id":"4","last_reported":1740323271,"current_range_meters":9600,"station_id":"cpo36qri1sfpv3e86is0","pricing_plan_id":"cebpf4jnsgd1na2vs0mg"},{"bike_id":"2e7bb708-5023-4450-86cb-e2e265576aa1","system_id":"levelo_inurba_marseille","lat":43.26811,"lon":5.4027,"is_reserved":false,"is_disabled":false,"rental_uris":{"android":"levelo://app?vid=2e7bb708-5023-4450-86cb-e2e265576aa1","ios":"levelo://app?vid=2e7bb708-5023-4450-86cb-e2e265576aa1"},"vehicle_type_id":"4","last_reported":1740323271,"current_range_meters":10000,"station_id":"ce501612rcd8frsf0b60","pricing_plan_id":"cebpf4jnsgd1na2vs0mg"},{"bike_id":"2ad16ae0-58a2-42a6-9849-a2e1d8ba4740","system_id":"levelo_inurba_marseille","lat":43.24662,"lon":5.38162,"is_reserved":false,"is_disabled":false,"rental_uris":{"android":"levelo://app?vid=2ad16ae0-58a2-42a6-9849-a2e1d8ba4740","ios":"levelo://app?vid=2ad16ae0-58a2-42a6-9849-a2e1d8ba4740"},"vehicle_type_id":"4","last_reported":1740323271,"current_range_meters":9600,"station_id":"ce4bhih2rcd13ifvqfr0","pricing_plan_id":"cebpf4jnsgd1na2vs0mg"},{"bike_id":"ec2bf29a-50c7-4da7-9c59-775cfedc5d32","system_id":"levelo_inurba_marseille","lat":43.2998,"lon":5.37185,"is_reserved":false,"is_disabled":false,"rental_uris":{"android":"levelo://app?vid=ec2bf29a-50c7-4da7-9c59-775cfedc5d32","ios":"levelo://app?vid=ec2bf29a-50c7-4da7-9c59-775cfedc5d32"},"vehicle_type_id":"4","last_reported":1740323271,"current_range_meters":9600,"station_id":"ce4bgr92rcd13ifvqc7g","pricing_plan_id":"cebpf4jnsgd1na2vs0mg"},{"bike_id":"7632f020-c7ef-4011-a98a-f7272d201ec5","system_id":"levelo_inurba_marseille","lat":43.29258,"lon":5.37616,"is_reserved":false,"is_disabled":false,"rental_uris":{"android":"levelo://app?vid=7632f020-c7ef-4011-a98a-f7272d201ec5","ios":"levelo://app?vid=7632f020-c7ef-4011-a98a-f7272d201ec5"},"vehicle_type_id":"4","last_reported":1740323271,"current_range_meters":9600,"station_id":"ce4bgi12rcd13ifvqb80","pricing_plan_id":"cebpf4jnsgd1na2vs0mg"},{"bike_id":"80e30e07-59ff-4807-b06b-c6dc1a9e08e2","system_id":"levelo_inurba_marseille","lat":43.33609,"lon":5.41025,"is_reserved":false,"is_disabled":true,"rental_uris":{"android":"levelo://app?vid=80e30e07-59ff-4807-b06b-c6dc1a9e08e2","ios":"levelo://app?vid=80e30e07-59ff-4807-b06b-c6dc1a9e08e2"},"vehicle_type_id":"4","last_reported":1740323271,"current_range_meters":10000,"station_id":"ce4bhqh2rcd13ifvqhmg","pricing_plan_id":"cebpf4jnsgd1na2vs0mg"},{"bike_id":"e0c1d965-9bb5-48f6-93c4-81a00c3e7849","system_id":"levelo_inurba_marseille","lat":43.27072,"lon":5.42273,"is_reserved":false,"is_disabled":false,"rental_uris":{"android":"levelo://app?vid=e0c1d965-9bb5-48f6-93c4-81a00c3e7849","ios":"levelo://app?vid=e0c1d965-9bb5-48f6-93c4-81a00c3e7849"},"vehicle_type_id":"4","last_reported":1740323271,"current_range_meters":10000,"station_id":"ce4bhk92rcd13ifvqgb0","pricing_plan_id":"cebpf4jnsgd1na2vs0mg"},{"bike_id":"7289a275-a8b7-4f58-baf5-fd1183af00a2","system_id":"levelo_inurba_marseille","lat":43.29006,"lon":5.35613,"is_reserved":false,"is_disabled":false,"rental_uris":{"android":"levelo://app?vid=7289a275-a8b7-4f58-baf5-fd1183af00a2","ios":"levelo://app?vid=7289a275-a8b7-4f58-baf5-fd1183af00a2"},"vehicle_type_id":"4","last_reported":1740323271,"current_range_meters":10000,"station_id":"ce4bhb92rcd13ifvqen0","pricing_plan_id":"cebpf4jnsgd1na2vs0mg"},{"bike_id":"095d5026-b6cb-411c-ab71-6c60703e2b2f","system_id":"levelo_inurba_marseille","lat":43.23057,"lon":5.35486,"is_reserved":false,"is_disabled":true,"rental_uris":{"android":"levelo://app?vid=095d5026-b6cb-411c-ab71-6c60703e2b2f","ios":"levelo://app?vid=095d5026-b6cb-411c-ab71-6c60703e2b2f"},"vehicle_type_id":"4","last_reported":1740323271,"current_range_meters":10800,"station_id":"cpo3342slgdg3j2ifvpg","pricing_plan_id":"cebpf4jnsgd1na2vs0mg"},{"bike_id":"9c2468d8-0869-4488-970c-a7cb2127486a","system_id":"levelo_inurba_marseille","lat":43.231995,"lon":5.355505,"is_reserved":false,"is_disabled":false,"rental_uris":{"android":"levelo://app?vid=9c2468d8-0869-4488-970c-a7cb2127486a","ios":"levelo://app?vid=9c2468d8-0869-4488-970c-a7cb2127486a"},"vehicle_type_id":"4","last_reported":1740323271,"current_range_meters":10800,"station_id":"ce4bhu92rcd13ifvqi70","pricing_plan_id":"cebpf4jnsgd1na2vs0mg"},{"bike_id":"595cb27f-c551-4223-a595-754b68654f41","system_id":"levelo_inurba_marseille","lat":43.30559,"lon":5.36559,"is_reserved":false,"is_disabled":false,"rental_uris":{"android":"levelo://app?vid=595cb27f-c551-4223-a595-754b68654f41","ios":"levelo://app?vid=595cb27f-c551-4223-a595-754b68654f41"},"vehicle_type_id":"4","last_reported":1740323271,"current_range_meters":11200,"station_id":"ce4bgs12rcd13ifvqcag","pricing_plan_id":"cebpf4jnsgd1na2vs0mg"},{"bike_id":"215369f1-b31b-4748-963a-c6b448155de3","system_id":"levelo_inurba_marseille","lat":43.29009,"lon":5.35618,"is_reserved":false,"is_disabled":false,"rental_uris":{"android":"levelo://app?vid=215369f1-b31b-4748-963a-c6b448155de3","ios":"levelo://app?vid=215369f1-b31b-4748-963a-c6b448155de3"},"vehicle_type_id":"4","last_reported":1740323271,"current_range_meters":11600,"station_id":"ce4bhb92rcd13ifvqen0","pricing_plan_id":"cebpf4jnsgd1na2vs0mg"},{"bike_id":"1b218dd3-cbf0-4126-858c-bdfc514e6cf8","system_id":"levelo_inurba_marseille","lat":43.30318,"lon":5.36893,"is_reserved":false,"is_disabled":false,"rental_uris":{"android":"levelo://app?vid=1b218dd3-cbf0-4126-858c-bdfc514e6cf8","ios":"levelo://app?vid=1b218dd3-cbf0-4126-858c-bdfc514e6cf8"},"vehicle_type_id":"4","last_reported":1740323271,"current_range_meters":11600,"station_id":"ce4bgqh2rcd13ifvqc5g","pricing_plan_id":"cebpf4jnsgd1na2vs0mg"},{"bike_id":"1a7ccb04-bf7a-4a3d-ac42-c287a2c8de08","system_id":"levelo_inurba_marseille","lat":43.26681,"lon":5.3827,"is_reserved":false,"is_disabled":false,"rental_uris":{"android":"levelo://app?vid=1a7ccb04-bf7a-4a3d-ac42-c287a2c8de08","ios":"levelo://app?vid=1a7ccb04-bf7a-4a3d-ac42-c287a2c8de08"},"vehicle_type_id":"4","last_reported":1740323271,"current_range_meters":12000,"station_id":"ce4bhg92rcd13ifvqf90","pricing_plan_id":"cebpf4jnsgd1na2vs0mg"},{"bike_id":"0bd8c8d7-379b-4030-920d-361a16459dba","system_id":"levelo_inurba_marseille","lat":43.29006,"lon":5.35616,"is_reserved":false,"is_disabled":false,"rental_uris":{"android":"levelo://app?vid=0bd8c8d7-379b-4030-920d-361a16459dba","ios":"levelo://app?vid=0bd8c8d7-379b-4030-920d-361a16459dba"},"vehicle_type_id":"4","last_reported":1740323271,"current_range_meters":12000,"station_id":"ce4bhb92rcd13ifvqen0","pricing_plan_id":"cebpf4jnsgd1na2vs0mg"},{"bike_id":"2bdc35be-c87d-4858-a812-b27d436edeb5","system_id":"levelo_inurba_marseille","lat":43.28279,"lon":5.35061,"is_reserved":false,"is_disabled":false,"rental_uris":{"android":"levelo://app?vid=2bdc35be-c87d-4858-a812-b27d436edeb5","ios":"levelo://app?vid=2bdc35be-c87d-4858-a812-b27d436edeb5"},"vehicle_type_id":"4","last_reported":1740323271,"current_range_meters":12000,"station_id":"ce4bhbp2rcd13ifvqerg","pricing_plan_id":"cebpf4jnsgd1na2vs0mg"},{"bike_id":"385d7307-e183-42a8-82a3-6bef8a311a76","system_id":"levelo_inurba_marseille","lat":43.27397,"lon":5.39393,"is_reserved":false,"is_disabled":false,"rental_uris":{"android":"levelo://app?vid=385d7307-e183-42a8-82a3-6bef8a311a76","ios":"levelo://app?vid=385d7307-e183-42a8-82a3-6bef8a311a76"},"vehicle_type_id":"4","last_reported":1740323271,"current_range_meters":12000,"station_id":"ce4bhdp2rcd13ifvqf20","pricing_plan_id":"cebpf4jnsgd1na2vs0mg"},{"bike_id":"47c58b1f-0f04-4a95-ba73-4d794abee5f2","system_id":"levelo_inurba_marseille","lat":43.30433,"lon":5.38896,"is_reserved":false,"is_disabled":true,"rental_uris":{"android":"levelo://app?vid=47c58b1f-0f04-4a95-ba73-4d794abee5f2","ios":"levelo://app?vid=47c58b1f-0f04-4a95-ba73-4d794abee5f2"},"vehicle_type_id":"4","last_reported":1740323271,"current_range_meters":12400,"station_id":"ce4bgk12rcd13ifvqbi0","pricing_plan_id":"cebpf4jnsgd1na2vs0mg"},{"bike_id":"ab7da9df-c7ed-482b-9961-43b5cca3e34b","system_id":"levelo_inurba_marseille","lat":43.31103,"lon":5.37781,"is_reserved":false,"is_disabled":true,"rental_uris":{"android":"levelo://app?vid=ab7da9df-c7ed-482b-9961-43b5cca3e34b","ios":"levelo://app?vid=ab7da9df-c7ed-482b-9961-43b5cca3e34b"},"vehicle_type_id":"4","last_reported":1740323271,"current_range_meters":12400,"station_id":"ce4bgt92rcd13ifvqcg0","pricing_plan_id":"cebpf4jnsgd1na2vs0mg"},{"bike_id":"855caca9-cd59-4c97-ad51-a64e28ee341f","system_id":"levelo_inurba_marseille","lat":43.30878,"lon":5.3966,"is_reserved":false,"is_disabled":true,"rental_uris":{"android":"levelo://app?vid=855caca9-cd59-4c97-ad51-a64e28ee341f","ios":"levelo://app?vid=855caca9-cd59-4c97-ad51-a64e28ee341f"},"vehicle_type_id":"4","last_reported":1740323271,"current_range_meters":12400,"station_id":"ce4bh012rcd13ifvqcv0","pricing_plan_id":"cebpf4jnsgd1na2vs0mg"},{"bike_id":"dcd03dba-9292-4614-8ec0-01d5308cbc07","system_id":"levelo_inurba_marseille","lat":43.29893,"lon":5.43666,"is_reserved":false,"is_disabled":false,"rental_uris":{"android":"levelo://app?vid=dcd03dba-9292-4614-8ec0-01d5308cbc07","ios":"levelo://app?vid=dcd03dba-9292-4614-8ec0-01d5308cbc07"},"vehicle_type_id":"4","last_reported":1740323271,"current_range_meters":12400,"station_id":"ce4bhpp2rcd13ifvqhfg","pricing_plan_id":"cebpf4jnsgd1na2vs0mg"},{"bike_id":"fb44b31f-7afc-4a5c-8b14-6d56005aa669","system_id":"levelo_inurba_marseille","lat":43.28986,"lon":5.43255,"is_reserved":false,"is_disabled":false,"rental_uris":{"android":"levelo://app?vid=fb44b31f-7afc-4a5c-8b14-6d56005aa669","ios":"levelo://app?vid=fb44b31f-7afc-4a5c-8b14-6d56005aa669"},"vehicle_type_id":"4","last_reported":1740323271,"current_range_meters":12400,"station_id":"","pricing_plan_id":"cebpf4jnsgd1na2vs0mg"},{"bike_id":"a3610751-bbe4-4d3e-a717-1a0eebd2fb2a","system_id":"levelo_inurba_marseille","lat":43.30672,"lon":5.37502,"is_reserved":false,"is_disabled":false,"rental_uris":{"android":"levelo://app?vid=a3610751-bbe4-4d3e-a717-1a0eebd2fb2a","ios":"levelo://app?vid=a3610751-bbe4-4d3e-a717-1a0eebd2fb2a"},"vehicle_type_id":"4","last_reported":1740323271,"current_range_meters":12400,"station_id":"","pricing_plan_id":"cebpf4jnsgd1na2vs0mg"},{"bike_id":"0e17628e-77f1-4b2d-9900-e51a8c9f0181","system_id":"levelo_inurba_marseille","lat":43.288887,"lon":5.449847,"is_reserved":false,"is_disabled":false,"rental_uris":{"android":"levelo://app?vid=0e17628e-77f1-4b2d-9900-e51a8c9f0181","ios":"levelo://app?vid=0e17628e-77f1-4b2d-9900-e51a8c9f0181"},"vehicle_type_id":"4","last_reported":1740323271,"current_range_meters":12800,"station_id":"","pricing_plan_id":"cebpf4jnsgd1na2vs0mg"},{"bike_id":"54a6b0ba-8381-4a72-830c-622766c32199","system_id":"levelo_inurba_marseille","lat":43.32115,"lon":5.36783,"is_reserved":false,"is_disabled":false,"rental_uris":{"android":"levelo://app?vid=54a6b0ba-8381-4a72-830c-622766c32199","ios":"levelo://app?vid=54a6b0ba-8381-4a72-830c-622766c32199"},"vehicle_type_id":"4","last_reported":1740323271,"current_range_meters":12800,"station_id":"ce4bhrh2rcd13ifvqhug","pricing_plan_id":"cebpf4jnsgd1na2vs0mg"},{"bike_id":"82af7a38-101b-4fe1-b928-3af39938bb87","system_id":"levelo_inurba_marseille","lat":43.28886,"lon":5.42431,"is_reserved":false,"is_disabled":false,"rental_uris":{"android":"levelo://app?vid=82af7a38-101b-4fe1-b928-3af39938bb87","ios":"levelo://app?vid=82af7a38-101b-4fe1-b928-3af39938bb87"},"vehicle_type_id":"4","last_reported":1740323271,"current_range_meters":12800,"station_id":"","pricing_plan_id":"cebpf4jnsgd1na2vs0mg"},{"bike_id":"7be288de-142c-407f-aa51-dffc2cbab160","system_id":"levelo_inurba_marseille","lat":43.3093,"lon":5.40144,"is_reserved":false,"is_disabled":false,"rental_uris":{"android":"levelo://app?vid=7be288de-142c-407f-aa51-dffc2cbab160","ios":"levelo://app?vid=7be288de-142c-407f-aa51-dffc2cbab160"},"vehicle_type_id":"4","last_reported":1740323271,"current_range_meters":12800,"station_id":"ce4bgvp2rcd13ifvqct0","pricing_plan_id":"cebpf4jnsgd1na2vs0mg"},{"bike_id":"5e360339-1ec7-42b8-9557-61b0e1ea6f97","system_id":"levelo_inurba_marseille","lat":43.30357,"lon":5.41875,"is_reserved":false,"is_disabled":false,"rental_uris":{"android":"levelo://app?vid=5e360339-1ec7-42b8-9557-61b0e1ea6f97","ios":"levelo://app?vid=5e360339-1ec7-42b8-9557-61b0e1ea6f97"},"vehicle_type_id":"4","last_reported":1740323271,"current_range_meters":12800,"station_id":"ce4bhop2rcd13ifvqh7g","pricing_plan_id":"cebpf4jnsgd1na2vs0mg"},{"bike_id":"7e68d2dc-c00f-4e58-8247-38224da8b835","system_id":"levelo_inurba_marseille","lat":43.231529,"lon":5.437196,"is_reserved":false,"is_disabled":false,"rental_uris":{"android":"levelo://app?vid=7e68d2dc-c00f-4e58-8247-38224da8b835","ios":"levelo://app?vid=7e68d2dc-c00f-4e58-8247-38224da8b835"},"vehicle_type_id":"4","last_reported":1740323271,"current_range_meters":12800,"station_id":"ce4bhmp2rcd13ifvqgog","pricing_plan_id":"cebpf4jnsgd1na2vs0mg"},{"bike_id":"28415ccf-b436-4817-bb6e-263e8ce59449","system_id":"levelo_inurba_marseille","lat":43.29791,"lon":5.3808,"is_reserved":false,"is_disabled":false,"rental_uris":{"android":"levelo://app?vid=28415ccf-b436-4817-bb6e-263e8ce59449","ios":"levelo://app?vid=28415ccf-b436-4817-bb6e-263e8ce59449"},"vehicle_type_id":"4","last_reported":1740323271,"current_range_meters":12800,"station_id":"ce4bgip2rcd13ifvqbb0","pricing_plan_id":"cebpf4jnsgd1na2vs0mg"},{"bike_id":"9577bb95-f2a7-4a2d-a05d-53be9f7a8604","system_id":"levelo_inurba_marseille","lat":43.28661,"lon":5.36357,"is_reserved":false,"is_disabled":false,"rental_uris":{"android":"levelo://app?vid=9577bb95-f2a7-4a2d-a05d-53be9f7a8604","ios":"levelo://app?vid=9577bb95-f2a7-4a2d-a05d-53be9f7a8604"},"vehicle_type_id":"4","last_reported":1740323271,"current_range_meters":13600,"station_id":"ce4bhah2rcd13ifvqej0","pricing_plan_id":"cebpf4jnsgd1na2vs0mg"},{"bike_id":"4caf490d-10e5-4073-8dae-a68a285775aa","system_id":"levelo_inurba_marseille","lat":43.24396,"lon":5.37052,"is_reserved":false,"is_disabled":false,"rental_uris":{"android":"levelo://app?vid=4caf490d-10e5-4073-8dae-a68a285775aa","ios":"levelo://app?vid=4caf490d-10e5-4073-8dae-a68a285775aa"},"vehicle_type_id":"4","last_reported":1740323271,"current_range_meters":13600,"station_id":"ce4bhhh2rcd13ifvqfk0","pricing_plan_id":"cebpf4jnsgd1na2vs0mg"},{"bike_id":"132f88a3-7104-4d94-93c1-37b37fca8924","system_id":"levelo_inurba_marseille","lat":43.28848,"lon":5.35854,"is_reserved":false,"is_disabled":false,"rental_uris":{"android":"levelo://app?vid=132f88a3-7104-4d94-93c1-37b37fca8924","ios":"levelo://app?vid=132f88a3-7104-4d94-93c1-37b37fca8924"},"vehicle_type_id":"4","last_reported":1740323271,"current_range_meters":13600,"station_id":"ce4bhb12rcd13ifvqem0","pricing_plan_id":"cebpf4jnsgd1na2vs0mg"},{"bike_id":"35f7fe5f-b05d-405c-a155-dda0758733e2","system_id":"levelo_inurba_marseille","lat":43.28162,"lon":5.42636,"is_reserved":false,"is_disabled":true,"rental_uris":{"android":"levelo://app?vid=35f7fe5f-b05d-405c-a155-dda0758733e2","ios":"levelo://app?vid=35f7fe5f-b05d-405c-a155-dda0758733e2"},"vehicle_type_id":"4","last_reported":1740323271,"current_range_meters":13600,"station_id":"ce4bhnh2rcd13ifvqgug","pricing_plan_id":"cebpf4jnsgd1na2vs0mg"},{"bike_id":"3a65e98c-6fc0-442b-97a2-ccd814e231ae","system_id":"levelo_inurba_marseille","lat":43.24071,"lon":5.37762,"is_reserved":false,"is_disabled":false,"rental_uris":{"android":"levelo://app?vid=3a65e98c-6fc0-442b-97a2-ccd814e231ae","ios":"levelo://app?vid=3a65e98c-6fc0-442b-97a2-ccd814e231ae"},"vehicle_type_id":"4","last_reported":1740323271,"current_range_meters":14000,"station_id":"ce4bhnp2rcd13ifvqgvg","pricing_plan_id":"cebpf4jnsgd1na2vs0mg"},{"bike_id":"45418c9a-4357-400e-887e-b686f9f8bf78","system_id":"levelo_inurba_marseille","lat":43.2678,"lon":5.39416,"is_reserved":false,"is_disabled":false,"rental_uris":{"android":"levelo://app?vid=45418c9a-4357-400e-887e-b686f9f8bf78","ios":"levelo://app?vid=45418c9a-4357-400e-887e-b686f9f8bf78"},"vehicle_type_id":"4","last_reported":1740323271,"current_range_meters":14000,"station_id":"ce4bhh12rcd13ifvqfg0","pricing_plan_id":"cebpf4jnsgd1na2vs0mg"},{"bike_id":"6e15618d-4d2d-4cdc-9d90-2b87c6806ce4","system_id":"levelo_inurba_marseille","lat":43.27187,"lon":5.4098,"is_reserved":false,"is_disabled":false,"rental_uris":{"android":"levelo://app?vid=6e15618d-4d2d-4cdc-9d90-2b87c6806ce4","ios":"levelo://app?vid=6e15618d-4d2d-4cdc-9d90-2b87c6806ce4"},"vehicle_type_id":"4","last_reported":1740323271,"current_range_meters":14000,"station_id":"ce4bhl12rcd13ifvqgf0","pricing_plan_id":"cebpf4jnsgd1na2vs0mg"},{"bike_id":"9fdc5228-e835-4793-ad30-e5834cfd975b","system_id":"levelo_inurba_marseille","lat":43.2586,"lon":5.39904,"is_reserved":false,"is_disabled":false,"rental_uris":{"android":"levelo://app?vid=9fdc5228-e835-4793-ad30-e5834cfd975b","ios":"levelo://app?vid=9fdc5228-e835-4793-ad30-e5834cfd975b"},"vehicle_type_id":"4","last_reported":1740323271,"current_range_meters":14000,"station_id":"ce4bhl92rcd13ifvqghg","pricing_plan_id":"cebpf4jnsgd1na2vs0mg"},{"bike_id":"d82b581f-5cda-4d0f-8a6d-2b3737a44e3c","system_id":"levelo_inurba_marseille","lat":43.29584,"lon":5.36737,"is_reserved":false,"is_disabled":false,"rental_uris":{"android":"levelo://app?vid=d82b581f-5cda-4d0f-8a6d-2b3737a44e3c","ios":"levelo://app?vid=d82b581f-5cda-4d0f-8a6d-2b3737a44e3c"},"vehicle_type_id":"4","last_reported":1740323271,"current_range_meters":13600,"station_id":"ce4bgph2rcd13ifvqc2g","pricing_plan_id":"cebpf4jnsgd1na2vs0mg"},{"bike_id":"94d81672-f077-455d-ad5d-d4332136c2a8","system_id":"levelo_inurba_marseille","lat":43.22893,"lon":5.35409,"is_reserved":false,"is_disabled":false,"rental_uris":{"android":"levelo://app?vid=94d81672-f077-455d-ad5d-d4332136c2a8","ios":"levelo://app?vid=94d81672-f077-455d-ad5d-d4332136c2a8"},"vehicle_type_id":"4","last_reported":1740323271,"current_range_meters":14400,"station_id":"cpo3532slgdg3j2ikp40","pricing_plan_id":"cebpf4jnsgd1na2vs0mg"},{"bike_id":"9faf844a-413f-419f-bdea-64830f7f2bfb","system_id":"levelo_inurba_marseille","lat":43.29898,"lon":5.37872,"is_reserved":false,"is_disabled":false,"rental_uris":{"android":"levelo://app?vid=9faf844a-413f-419f-bdea-64830f7f2bfb","ios":"levelo://app?vid=9faf844a-413f-419f-bdea-64830f7f2bfb"},"vehicle_type_id":"4","last_reported":1740323271,"current_range_meters":14400,"station_id":"","pricing_plan_id":"cebpf4jnsgd1na2vs0mg"},{"bike_id":"9a4f894e-db42-4236-b781-7c7aaa83fa3d","system_id":"levelo_inurba_marseille","lat":43.28257,"lon":5.35071,"is_reserved":false,"is_disabled":false,"rental_uris":{"android":"levelo://app?vid=9a4f894e-db42-4236-b781-7c7aaa83fa3d","ios":"levelo://app?vid=9a4f894e-db42-4236-b781-7c7aaa83fa3d"},"vehicle_type_id":"4","last_reported":1740323271,"current_range_meters":14400,"station_id":"ce4bhbp2rcd13ifvqerg","pricing_plan_id":"cebpf4jnsgd1na2vs0mg"},{"bike_id":"65960842-0a44-47ab-94c0-5e77600e1070","system_id":"levelo_inurba_marseille","lat":43.24071,"lon":5.37765,"is_reserved":false,"is_disabled":false,"rental_uris":{"android":"levelo://app?vid=65960842-0a44-47ab-94c0-5e77600e1070","ios":"levelo://app?vid=65960842-0a44-47ab-94c0-5e77600e1070"},"vehicle_type_id":"4","last_reported":1740323271,"current_range_meters":14400,"station_id":"ce4bhnp2rcd13ifvqgvg","pricing_plan_id":"cebpf4jnsgd1na2vs0mg"},{"bike_id":"fefbe5d6-3a7a-43fa-af00-7ccc99b85801","system_id":"levelo_inurba_marseille","lat":43.29077,"lon":5.3716,"is_reserved":false,"is_disabled":false,"rental_uris":{"android":"levelo://app?vid=fefbe5d6-3a7a-43fa-af00-7ccc99b85801","ios":"levelo://app?vid=fefbe5d6-3a7a-43fa-af00-7ccc99b85801"},"vehicle_type_id":"4","last_reported":1740323271,"current_range_meters":14400,"station_id":"ce4bh5p2rcd13ifvqe4g","pricing_plan_id":"cebpf4jnsgd1na2vs0mg"},{"bike_id":"aad9559a-a188-4c7c-92e6-0014a6c0dfa9","system_id":"levelo_inurba_marseille","lat":43.27571,"lon":5.38413,"is_reserved":false,"is_disabled":false,"rental_uris":{"android":"levelo://app?vid=aad9559a-a188-4c7c-92e6-0014a6c0dfa9","ios":"levelo://app?vid=aad9559a-a188-4c7c-92e6-0014a6c0dfa9"},"vehicle_type_id":"4","last_reported":1740323271,"current_range_meters":14400,"station_id":"ce4bhh92rcd13ifvqfi0","pricing_plan_id":"cebpf4jnsgd1na2vs0mg"},{"bike_id":"6aa4dde2-57d1-4271-91d7-3249e7118204","system_id":"levelo_inurba_marseille","lat":43.30314,"lon":5.36885,"is_reserved":false,"is_disabled":false,"rental_uris":{"android":"levelo://app?vid=6aa4dde2-57d1-4271-91d7-3249e7118204","ios":"levelo://app?vid=6aa4dde2-57d1-4271-91d7-3249e7118204"},"vehicle_type_id":"4","last_reported":1740323271,"current_range_meters":14800,"station_id":"ce4bgqh2rcd13ifvqc5g","pricing_plan_id":"cebpf4jnsgd1na2vs0mg"},{"bike_id":"09617a01-319f-413a-8807-e3e7a4f11fc9","system_id":"levelo_inurba_marseille","lat":43.27376,"lon":5.36255,"is_reserved":false,"is_disabled":false,"rental_uris":{"android":"levelo://app?vid=09617a01-319f-413a-8807-e3e7a4f11fc9","ios":"levelo://app?vid=09617a01-319f-413a-8807-e3e7a4f11fc9"},"vehicle_type_id":"4","last_reported":1740323271,"current_range_meters":14800,"station_id":"ce4bhbh2rcd13ifvqeo0","pricing_plan_id":"cebpf4jnsgd1na2vs0mg"},{"bike_id":"68b70f21-bff0-4060-88c0-3ff65cd737ad","system_id":"levelo_inurba_marseille","lat":43.24651,"lon":5.38894,"is_reserved":false,"is_disabled":false,"rental_uris":{"android":"levelo://app?vid=68b70f21-bff0-4060-88c0-3ff65cd737ad","ios":"levelo://app?vid=68b70f21-bff0-4060-88c0-3ff65cd737ad"},"vehicle_type_id":"4","last_reported":1740323271,"current_range_meters":14800,"station_id":"ce4bhg12rcd13ifvqf60","pricing_plan_id":"cebpf4jnsgd1na2vs0mg"},{"bike_id":"48b154c9-0e85-4d79-8e5d-9a2e562b6945","system_id":"levelo_inurba_marseille","lat":43.26554,"lon":5.37289,"is_reserved":false,"is_disabled":false,"rental_uris":{"android":"levelo://app?vid=48b154c9-0e85-4d79-8e5d-9a2e562b6945","ios":"levelo://app?vid=48b154c9-0e85-4d79-8e5d-9a2e562b6945"},"vehicle_type_id":"4","last_reported":1740323271,"current_range_meters":14800,"station_id":"ce4bhg12rcd13ifvqf70","pricing_plan_id":"cebpf4jnsgd1na2vs0mg"},{"bike_id":"c2946295-21b5-4bb2-bb93-34e880f033b2","system_id":"levelo_inurba_marseille","lat":43.24662,"lon":5.38164,"is_reserved":false,"is_disabled":false,"rental_uris":{"android":"levelo://app?vid=c2946295-21b5-4bb2-bb93-34e880f033b2","ios":"levelo://app?vid=c2946295-21b5-4bb2-bb93-34e880f033b2"},"vehicle_type_id":"4","last_reported":1740323271,"current_range_meters":15200,"station_id":"ce4bhih2rcd13ifvqfr0","pricing_plan_id":"cebpf4jnsgd1na2vs0mg"},{"bike_id":"9de8b664-ed4b-4194-8e6d-8b9e4589b73b","system_id":"levelo_inurba_marseille","lat":43.24007,"lon":5.36262,"is_reserved":false,"is_disabled":false,"rental_uris":{"android":"levelo://app?vid=9de8b664-ed4b-4194-8e6d-8b9e4589b73b","ios":"levelo://app?vid=9de8b664-ed4b-4194-8e6d-8b9e4589b73b"},"vehicle_type_id":"4","last_reported":1740323271,"current_range_meters":15200,"station_id":"ce4bhhh2rcd13ifvqfk0","pricing_plan_id":"cebpf4jnsgd1na2vs0mg"},{"bike_id":"75c0c584-11c5-4258-a176-0e7e6b863c66","system_id":"levelo_inurba_marseille","lat":43.28454,"lon":5.35898,"is_reserved":false,"is_disabled":false,"rental_uris":{"android":"levelo://app?vid=75c0c584-11c5-4258-a176-0e7e6b863c66","ios":"levelo://app?vid=75c0c584-11c5-4258-a176-0e7e6b863c66"},"vehicle_type_id":"4","last_reported":1740323271,"current_range_meters":15200,"station_id":"ce4bhah2rcd13ifvqei0","pricing_plan_id":"cebpf4jnsgd1na2vs0mg"},{"bike_id":"d052ba98-98c3-4137-ab7e-bd3de5f4e2d0","system_id":"levelo_inurba_marseille","lat":43.29008,"lon":5.35609,"is_reserved":false,"is_disabled":false,"rental_uris":{"android":"levelo://app?vid=d052ba98-98c3-4137-ab7e-bd3de5f4e2d0","ios":"levelo://app?vid=d052ba98-98c3-4137-ab7e-bd3de5f4e2d0"},"vehicle_type_id":"4","last_reported":1740323271,"current_range_meters":15200,"station_id":"ce4bhb92rcd13ifvqen0","pricing_plan_id":"cebpf4jnsgd1na2vs0mg"},{"bike_id":"930215f5-86e6-4781-9030-c16c0aafa81d","system_id":"levelo_inurba_marseille","lat":43.292114,"lon":5.39333,"is_reserved":false,"is_disabled":false,"rental_uris":{"android":"levelo://app?vid=930215f5-86e6-4781-9030-c16c0aafa81d","ios":"levelo://app?vid=930215f5-86e6-4781-9030-c16c0aafa81d"},"vehicle_type_id":"4","last_reported":1740323271,"current_range_meters":16000,"station_id":"ce4bh192rcd13ifvqdd0","pricing_plan_id":"cebpf4jnsgd1na2vs0mg"},{"bike_id":"6d3a28fb-ad8e-4099-ab7e-2f1842cf0da6","system_id":"levelo_inurba_marseille","lat":43.31991,"lon":5.38172,"is_reserved":false,"is_disabled":false,"rental_uris":{"android":"levelo://app?vid=6d3a28fb-ad8e-4099-ab7e-2f1842cf0da6","ios":"levelo://app?vid=6d3a28fb-ad8e-4099-ab7e-2f1842cf0da6"},"vehicle_type_id":"4","last_reported":1740323271,"current_range_meters":16000,"station_id":"ce4bhr12rcd13ifvqhpg","pricing_plan_id":"cebpf4jnsgd1na2vs0mg"},{"bike_id":"f4434e29-5640-48c8-baa8-5cca863a5ca0","system_id":"levelo_inurba_marseille","lat":43.25826,"lon":5.3943,"is_reserved":false,"is_disabled":false,"rental_uris":{"android":"levelo://app?vid=f4434e29-5640-48c8-baa8-5cca863a5ca0","ios":"levelo://app?vid=f4434e29-5640-48c8-baa8-5cca863a5ca0"},"vehicle_type_id":"4","last_reported":1740323271,"current_range_meters":16000,"station_id":"ce4bhip2rcd13ifvqft0","pricing_plan_id":"cebpf4jnsgd1na2vs0mg"},{"bike_id":"fd93a49b-c3a7-4585-bc8b-1ad5d46b13ec","system_id":"levelo_inurba_marseille","lat":43.22929,"lon":5.35377,"is_reserved":false,"is_disabled":false,"rental_uris":{"android":"levelo://app?vid=fd93a49b-c3a7-4585-bc8b-1ad5d46b13ec","ios":"levelo://app?vid=fd93a49b-c3a7-4585-bc8b-1ad5d46b13ec"},"vehicle_type_id":"4","last_reported":1740323271,"current_range_meters":16000,"station_id":"cpo3532slgdg3j2ikp40","pricing_plan_id":"cebpf4jnsgd1na2vs0mg"},{"bike_id":"68c1cb49-7da1-4934-a025-4e78e338d091","system_id":"levelo_inurba_marseille","lat":43.337638,"lon":5.374412,"is_reserved":false,"is_disabled":false,"rental_uris":{"android":"levelo://app?vid=68c1cb49-7da1-4934-a025-4e78e338d091","ios":"levelo://app?vid=68c1cb49-7da1-4934-a025-4e78e338d091"},"vehicle_type_id":"4","last_reported":1740323271,"current_range_meters":16000,"station_id":"","pricing_plan_id":"cebpf4jnsgd1na2vs0mg"},{"bike_id":"70e02309-c39c-4b14-8c76-7c6fa18b2302","system_id":"levelo_inurba_marseille","lat":43.232,"lon":5.35559,"is_reserved":false,"is_disabled":false,"rental_uris":{"android":"levelo://app?vid=70e02309-c39c-4b14-8c76-7c6fa18b2302","ios":"levelo://app?vid=70e02309-c39c-4b14-8c76-7c6fa18b2302"},"vehicle_type_id":"4","last_reported":1740323271,"current_range_meters":16000,"station_id":"ce4bhu92rcd13ifvqi70","pricing_plan_id":"cebpf4jnsgd1na2vs0mg"},{"bike_id":"fc93a0cd-d658-4fe7-9e6a-52a49333f268","system_id":"levelo_inurba_marseille","lat":43.30822,"lon":5.38202,"is_reserved":false,"is_disabled":false,"rental_uris":{"android":"levelo://app?vid=fc93a0cd-d658-4fe7-9e6a-52a49333f268","ios":"levelo://app?vid=fc93a0cd-d658-4fe7-9e6a-52a49333f268"},"vehicle_type_id":"4","last_reported":1740323271,"current_range_meters":16000,"station_id":"ce4bgt12rcd13ifvqce0","pricing_plan_id":"cebpf4jnsgd1na2vs0mg"},{"bike_id":"45fb24fd-97c0-4da8-b3a6-d3651ebff086","system_id":"levelo_inurba_marseille","lat":43.3127,"lon":5.401731,"is_reserved":false,"is_disabled":false,"rental_uris":{"android":"levelo://app?vid=45fb24fd-97c0-4da8-b3a6-d3651ebff086","ios":"levelo://app?vid=45fb24fd-97c0-4da8-b3a6-d3651ebff086"},"vehicle_type_id":"4","last_reported":1740323271,"current_range_meters":16400,"station_id":"ce4bh092rcd13ifvqd30","pricing_plan_id":"cebpf4jnsgd1na2vs0mg"},{"bike_id":"69164cda-af79-49c1-9319-dc816606cbd8","system_id":"levelo_inurba_marseille","lat":43.24807,"lon":5.37456,"is_reserved":false,"is_disabled":false,"rental_uris":{"android":"levelo://app?vid=69164cda-af79-49c1-9319-dc816606cbd8","ios":"levelo://app?vid=69164cda-af79-49c1-9319-dc816606cbd8"},"vehicle_type_id":"4","last_reported":1740323271,"current_range_meters":16400,"station_id":"ce4bhgh2rcd13ifvqfb0","pricing_plan_id":"cebpf4jnsgd1na2vs0mg"},{"bike_id":"5fa8c988-8578-494c-9a08-836ca8c5ab20","system_id":"levelo_inurba_marseille","lat":43.29279,"lon":5.3685,"is_reserved":false,"is_disabled":false,"rental_uris":{"android":"levelo://app?vid=5fa8c988-8578-494c-9a08-836ca8c5ab20","ios":"levelo://app?vid=5fa8c988-8578-494c-9a08-836ca8c5ab20"},"vehicle_type_id":"4","last_reported":1740323271,"current_range_meters":16400,"station_id":"ce4bhbp2rcd13ifvqesg","pricing_plan_id":"cebpf4jnsgd1na2vs0mg"},{"bike_id":"61920834-994e-4574-9a2f-d927074ecc78","system_id":"levelo_inurba_marseille","lat":43.25012,"lon":5.38941,"is_reserved":false,"is_disabled":false,"rental_uris":{"android":"levelo://app?vid=61920834-994e-4574-9a2f-d927074ecc78","ios":"levelo://app?vid=61920834-994e-4574-9a2f-d927074ecc78"},"vehicle_type_id":"4","last_reported":1740323271,"current_range_meters":16400,"station_id":"ce4bhgp2rcd13ifvqfd0","pricing_plan_id":"cebpf4jnsgd1na2vs0mg"},{"bike_id":"c136220e-bfdf-47c4-8985-489c6e507fb3","system_id":"levelo_inurba_marseille","lat":43.26227,"lon":5.40471,"is_reserved":false,"is_disabled":false,"rental_uris":{"android":"levelo://app?vid=c136220e-bfdf-47c4-8985-489c6e507fb3","ios":"levelo://app?vid=c136220e-bfdf-47c4-8985-489c6e507fb3"},"vehicle_type_id":"4","last_reported":1740323271,"current_range_meters":16400,"station_id":"ce4bhmh2rcd13ifvqgmg","pricing_plan_id":"cebpf4jnsgd1na2vs0mg"},{"bike_id":"07803cbb-d465-48fc-8cd6-07655650b6f9","system_id":"levelo_inurba_marseille","lat":43.30125,"lon":5.39842,"is_reserved":false,"is_disabled":false,"rental_uris":{"android":"levelo://app?vid=07803cbb-d465-48fc-8cd6-07655650b6f9","ios":"levelo://app?vid=07803cbb-d465-48fc-8cd6-07655650b6f9"},"vehicle_type_id":"4","last_reported":1740323271,"current_range_meters":16400,"station_id":"ce4bh0h2rcd13ifvqd40","pricing_plan_id":"cebpf4jnsgd1na2vs0mg"},{"bike_id":"ee82f77f-f9d3-4009-b8ec-39bce07c2f58","system_id":"levelo_inurba_marseille","lat":43.27497,"lon":5.42452,"is_reserved":false,"is_disabled":false,"rental_uris":{"android":"levelo://app?vid=ee82f77f-f9d3-4009-b8ec-39bce07c2f58","ios":"levelo://app?vid=ee82f77f-f9d3-4009-b8ec-39bce07c2f58"},"vehicle_type_id":"4","last_reported":1740323271,"current_range_meters":16400,"station_id":"ce4bhn92rcd13ifvqgrg","pricing_plan_id":"cebpf4jnsgd1na2vs0mg"},{"bike_id":"02113bed-98b2-43c1-b135-956b928f7277","system_id":"levelo_inurba_marseille","lat":43.283,"lon":5.35074,"is_reserved":false,"is_disabled":false,"rental_uris":{"android":"levelo://app?vid=02113bed-98b2-43c1-b135-956b928f7277","ios":"levelo://app?vid=02113bed-98b2-43c1-b135-956b928f7277"},"vehicle_type_id":"4","last_reported":1740323271,"current_range_meters":16800,"station_id":"ce4bhbp2rcd13ifvqerg","pricing_plan_id":"cebpf4jnsgd1na2vs0mg"},{"bike_id":"51c7c09f-82e9-4a4b-a201-54869c0fba8f","system_id":"levelo_inurba_marseille","lat":43.25088,"lon":5.39531,"is_reserved":false,"is_disabled":true,"rental_uris":{"android":"levelo://app?vid=51c7c09f-82e9-4a4b-a201-54869c0fba8f","ios":"levelo://app?vid=51c7c09f-82e9-4a4b-a201-54869c0fba8f"},"vehicle_type_id":"4","last_reported":1740323271,"current_range_meters":16800,"station_id":"ce4bhm12rcd13ifvqgkg","pricing_plan_id":"cebpf4jnsgd1na2vs0mg"},{"bike_id":"87c93845-143c-4613-9a0d-08836448a26d","system_id":"levelo_inurba_marseille","lat":43.23976,"lon":5.36628,"is_reserved":false,"is_disabled":false,"rental_uris":{"android":"levelo://app?vid=87c93845-143c-4613-9a0d-08836448a26d","ios":"levelo://app?vid=87c93845-143c-4613-9a0d-08836448a26d"},"vehicle_type_id":"4","last_reported":1740323271,"current_range_meters":16800,"station_id":"ce4bhi12rcd13ifvqfp0","pricing_plan_id":"cebpf4jnsgd1na2vs0mg"},{"bike_id":"24e12b9a-e0d3-46f3-b711-830c17fb79c0","system_id":"levelo_inurba_marseille","lat":43.26567,"lon":5.39011,"is_reserved":false,"is_disabled":false,"rental_uris":{"android":"levelo://app?vid=24e12b9a-e0d3-46f3-b711-830c17fb79c0","ios":"levelo://app?vid=24e12b9a-e0d3-46f3-b711-830c17fb79c0"},"vehicle_type_id":"4","last_reported":1740323271,"current_range_meters":16800,"station_id":"ce4bhe12rcd13ifvqf30","pricing_plan_id":"cebpf4jnsgd1na2vs0mg"},{"bike_id":"3017e9b8-7575-44a4-91a7-b1c7b8d98588","system_id":"levelo_inurba_marseille","lat":43.30932,"lon":5.40169,"is_reserved":false,"is_disabled":false,"rental_uris":{"android":"levelo://app?vid=3017e9b8-7575-44a4-91a7-b1c7b8d98588","ios":"levelo://app?vid=3017e9b8-7575-44a4-91a7-b1c7b8d98588"},"vehicle_type_id":"4","last_reported":1740323271,"current_range_meters":17200,"station_id":"ce4bgvp2rcd13ifvqct0","pricing_plan_id":"cebpf4jnsgd1na2vs0mg"},{"bike_id":"46e61105-7e67-4cf7-a268-04732bc9135f","system_id":"levelo_inurba_marseille","lat":43.25579,"lon":5.38233,"is_reserved":false,"is_disabled":false,"rental_uris":{"android":"levelo://app?vid=46e61105-7e67-4cf7-a268-04732bc9135f","ios":"levelo://app?vid=46e61105-7e67-4cf7-a268-04732bc9135f"},"vehicle_type_id":"4","last_reported":1740323271,"current_range_meters":17200,"station_id":"ce4bhih2rcd13ifvqfs0","pricing_plan_id":"cebpf4jnsgd1na2vs0mg"},{"bike_id":"7fe0996e-2e24-4a3a-b975-03a2a20f6506","system_id":"levelo_inurba_marseille","lat":43.32366,"lon":5.36762,"is_reserved":false,"is_disabled":false,"rental_uris":{"android":"levelo://app?vid=7fe0996e-2e24-4a3a-b975-03a2a20f6506","ios":"levelo://app?vid=7fe0996e-2e24-4a3a-b975-03a2a20f6506"},"vehicle_type_id":"4","last_reported":1740323271,"current_range_meters":17200,"station_id":"ce4bhsh2rcd13ifvqi2g","pricing_plan_id":"cebpf4jnsgd1na2vs0mg"},{"bike_id":"405209ad-c2e5-48af-99e1-b0e6c0c2cd23","system_id":"levelo_inurba_marseille","lat":43.26785,"lon":5.39418,"is_reserved":false,"is_disabled":false,"rental_uris":{"android":"levelo://app?vid=405209ad-c2e5-48af-99e1-b0e6c0c2cd23","ios":"levelo://app?vid=405209ad-c2e5-48af-99e1-b0e6c0c2cd23"},"vehicle_type_id":"4","last_reported":1740323271,"current_range_meters":17200,"station_id":"ce4bhh12rcd13ifvqfg0","pricing_plan_id":"cebpf4jnsgd1na2vs0mg"},{"bike_id":"dd7ebbe4-9905-46a3-9ae3-b83956cdf31b","system_id":"levelo_inurba_marseille","lat":43.29922,"lon":5.38137,"is_reserved":false,"is_disabled":false,"rental_uris":{"android":"levelo://app?vid=dd7ebbe4-9905-46a3-9ae3-b83956cdf31b","ios":"levelo://app?vid=dd7ebbe4-9905-46a3-9ae3-b83956cdf31b"},"vehicle_type_id":"4","last_reported":1740323271,"current_range_meters":17200,"station_id":"ce4bgj12rcd13ifvqbc0","pricing_plan_id":"cebpf4jnsgd1na2vs0mg"},{"bike_id":"c0daf38f-0a60-4c17-bf48-92b8e3f5a6c6","system_id":"levelo_inurba_marseille","lat":43.28282,"lon":5.35067,"is_reserved":false,"is_disabled":false,"rental_uris":{"android":"levelo://app?vid=c0daf38f-0a60-4c17-bf48-92b8e3f5a6c6","ios":"levelo://app?vid=c0daf38f-0a60-4c17-bf48-92b8e3f5a6c6"},"vehicle_type_id":"4","last_reported":1740323271,"current_range_meters":17200,"station_id":"ce4bhbp2rcd13ifvqerg","pricing_plan_id":"cebpf4jnsgd1na2vs0mg"},{"bike_id":"841ed501-9187-4f37-bffe-d32394dc6ccb","system_id":"levelo_inurba_marseille","lat":43.28706,"lon":5.39992,"is_reserved":false,"is_disabled":false,"rental_uris":{"android":"levelo://app?vid=841ed501-9187-4f37-bffe-d32394dc6ccb","ios":"levelo://app?vid=841ed501-9187-4f37-bffe-d32394dc6ccb"},"vehicle_type_id":"4","last_reported":1740323271,"current_range_meters":17200,"station_id":"ce4bho92rcd13ifvqh3g","pricing_plan_id":"cebpf4jnsgd1na2vs0mg"},{"bike_id":"b7cb332b-9dec-4780-b1cb-3896df1183d8","system_id":"levelo_inurba_marseille","lat":43.25877,"lon":5.3942,"is_reserved":false,"is_disabled":false,"rental_uris":{"android":"levelo://app?vid=b7cb332b-9dec-4780-b1cb-3896df1183d8","ios":"levelo://app?vid=b7cb332b-9dec-4780-b1cb-3896df1183d8"},"vehicle_type_id":"4","last_reported":1740323271,"current_range_meters":17600,"station_id":"ce4bhip2rcd13ifvqft0","pricing_plan_id":"cebpf4jnsgd1na2vs0mg"},{"bike_id":"092edd37-1372-4d8a-af2d-059012b84d58","system_id":"levelo_inurba_marseille","lat":43.28267,"lon":5.35076,"is_reserved":false,"is_disabled":false,"rental_uris":{"android":"levelo://app?vid=092edd37-1372-4d8a-af2d-059012b84d58","ios":"levelo://app?vid=092edd37-1372-4d8a-af2d-059012b84d58"},"vehicle_type_id":"4","last_reported":1740323271,"current_range_meters":17600,"station_id":"ce4bhbp2rcd13ifvqerg","pricing_plan_id":"cebpf4jnsgd1na2vs0mg"},{"bike_id":"ea0742c7-de60-4964-a065-3d059013b05c","system_id":"levelo_inurba_marseille","lat":43.25503,"lon":5.37659,"is_reserved":false,"is_disabled":false,"rental_uris":{"android":"levelo://app?vid=ea0742c7-de60-4964-a065-3d059013b05c","ios":"levelo://app?vid=ea0742c7-de60-4964-a065-3d059013b05c"},"vehicle_type_id":"4","last_reported":1740323271,"current_range_meters":17600,"station_id":"ce4bhh12rcd13ifvqff0","pricing_plan_id":"cebpf4jnsgd1na2vs0mg"},{"bike_id":"1a1fed67-c2e8-4275-b8a1-fcb666aff7a1","system_id":"levelo_inurba_marseille","lat":43.289274,"lon":5.384056,"is_reserved":false,"is_disabled":false,"rental_uris":{"android":"levelo://app?vid=1a1fed67-c2e8-4275-b8a1-fcb666aff7a1","ios":"levelo://app?vid=1a1fed67-c2e8-4275-b8a1-fcb666aff7a1"},"vehicle_type_id":"4","last_reported":1740323271,"current_range_meters":18000,"station_id":"ce4bh612rcd13ifvqe6g","pricing_plan_id":"cebpf4jnsgd1na2vs0mg"},{"bike_id":"5826361e-90be-4717-9fc8-819ab0c96984","system_id":"levelo_inurba_marseille","lat":43.28699,"lon":5.37386,"is_reserved":false,"is_disabled":false,"rental_uris":{"android":"levelo://app?vid=5826361e-90be-4717-9fc8-819ab0c96984","ios":"levelo://app?vid=5826361e-90be-4717-9fc8-819ab0c96984"},"vehicle_type_id":"4","last_reported":1740323271,"current_range_meters":18000,"station_id":"ce4bh3p2rcd13ifvqdq0","pricing_plan_id":"cebpf4jnsgd1na2vs0mg"},{"bike_id":"c62be201-6cc9-472c-af2b-8ad139e56948","system_id":"levelo_inurba_marseille","lat":43.305378,"lon":5.365565,"is_reserved":false,"is_disabled":false,"rental_uris":{"android":"levelo://app?vid=c62be201-6cc9-472c-af2b-8ad139e56948","ios":"levelo://app?vid=c62be201-6cc9-472c-af2b-8ad139e56948"},"vehicle_type_id":"4","last_reported":1740323271,"current_range_meters":18000,"station_id":"ce4bgs12rcd13ifvqcag","pricing_plan_id":"cebpf4jnsgd1na2vs0mg"},{"bike_id":"1ef41376-cd3a-40a3-ae4a-f23a2a34fc30","system_id":"levelo_inurba_marseille","lat":43.27677,"lon":5.38907,"is_reserved":false,"is_disabled":true,"rental_uris":{"android":"levelo://app?vid=1ef41376-cd3a-40a3-ae4a-f23a2a34fc30","ios":"levelo://app?vid=1ef41376-cd3a-40a3-ae4a-f23a2a34fc30"},"vehicle_type_id":"4","last_reported":1740323271,"current_range_meters":18000,"station_id":"ce4bhi12rcd13ifvqfo0","pricing_plan_id":"cebpf4jnsgd1na2vs0mg"},{"bike_id":"a97bfaac-ccda-4227-bc03-2d1429ad40e4","system_id":"levelo_inurba_marseille","lat":43.31167,"lon":5.38718,"is_reserved":false,"is_disabled":false,"rental_uris":{"android":"levelo://app?vid=a97bfaac-ccda-4227-bc03-2d1429ad40e4","ios":"levelo://app?vid=a97bfaac-ccda-4227-bc03-2d1429ad40e4"},"vehicle_type_id":"4","last_reported":1740323271,"current_range_meters":18000,"station_id":"ce4bgv12rcd13ifvqcp0","pricing_plan_id":"cebpf4jnsgd1na2vs0mg"},{"bike_id":"8ab8b13f-18c2-4697-bc25-6d575facb2db","system_id":"levelo_inurba_marseille","lat":43.28465,"lon":5.35889,"is_reserved":false,"is_disabled":false,"rental_uris":{"android":"levelo://app?vid=8ab8b13f-18c2-4697-bc25-6d575facb2db","ios":"levelo://app?vid=8ab8b13f-18c2-4697-bc25-6d575facb2db"},"vehicle_type_id":"4","last_reported":1740323271,"current_range_meters":18000,"station_id":"ce4bhah2rcd13ifvqei0","pricing_plan_id":"cebpf4jnsgd1na2vs0mg"},{"bike_id":"da805173-c32f-4615-b8c5-69bdaf0f2e7f","system_id":"levelo_inurba_marseille","lat":43.29009,"lon":5.3561,"is_reserved":false,"is_disabled":false,"rental_uris":{"android":"levelo://app?vid=da805173-c32f-4615-b8c5-69bdaf0f2e7f","ios":"levelo://app?vid=da805173-c32f-4615-b8c5-69bdaf0f2e7f"},"vehicle_type_id":"4","last_reported":1740323271,"current_range_meters":18000,"station_id":"ce4bhb92rcd13ifvqen0","pricing_plan_id":"cebpf4jnsgd1na2vs0mg"},{"bike_id":"a2d6ae3f-66f4-4649-ba0a-99967149441d","system_id":"levelo_inurba_marseille","lat":43.2953,"lon":5.36159,"is_reserved":false,"is_disabled":false,"rental_uris":{"android":"levelo://app?vid=a2d6ae3f-66f4-4649-ba0a-99967149441d","ios":"levelo://app?vid=a2d6ae3f-66f4-4649-ba0a-99967149441d"},"vehicle_type_id":"4","last_reported":1740323271,"current_range_meters":18000,"station_id":"","pricing_plan_id":"cebpf4jnsgd1na2vs0mg"},{"bike_id":"9fabdfa7-a0ef-44ff-b626-33a9b5d52aad","system_id":"levelo_inurba_marseille","lat":43.30135,"lon":5.38793,"is_reserved":false,"is_disabled":true,"rental_uris":{"android":"levelo://app?vid=9fabdfa7-a0ef-44ff-b626-33a9b5d52aad","ios":"levelo://app?vid=9fabdfa7-a0ef-44ff-b626-33a9b5d52aad"},"vehicle_type_id":"4","last_reported":1740323271,"current_range_meters":18000,"station_id":"ce4bghh2rcd13ifvqb60","pricing_plan_id":"cebpf4jnsgd1na2vs0mg"},{"bike_id":"05eb915c-4428-4d84-9fa1-63564ff0ad25","system_id":"levelo_inurba_marseille","lat":43.30905,"lon":5.3683,"is_reserved":false,"is_disabled":false,"rental_uris":{"android":"levelo://app?vid=05eb915c-4428-4d84-9fa1-63564ff0ad25","ios":"levelo://app?vid=05eb915c-4428-4d84-9fa1-63564ff0ad25"},"vehicle_type_id":"4","last_reported":1740323271,"current_range_meters":18000,"station_id":"ce4bgn92rcd13ifvqbvg","pricing_plan_id":"cebpf4jnsgd1na2vs0mg"},{"bike_id":"0a8a15c8-3d2e-4917-81c2-d570b829209f","system_id":"levelo_inurba_marseille","lat":43.30887,"lon":5.3966,"is_reserved":false,"is_disabled":false,"rental_uris":{"android":"levelo://app?vid=0a8a15c8-3d2e-4917-81c2-d570b829209f","ios":"levelo://app?vid=0a8a15c8-3d2e-4917-81c2-d570b829209f"},"vehicle_type_id":"4","last_reported":1740323271,"current_range_meters":18000,"station_id":"ce4bh012rcd13ifvqcv0","pricing_plan_id":"cebpf4jnsgd1na2vs0mg"},{"bike_id":"b5a1d484-9e63-43b3-9bbc-06f2df1a2c91","system_id":"levelo_inurba_marseille","lat":43.292101,"lon":5.393133,"is_reserved":false,"is_disabled":false,"rental_uris":{"android":"levelo://app?vid=b5a1d484-9e63-43b3-9bbc-06f2df1a2c91","ios":"levelo://app?vid=b5a1d484-9e63-43b3-9bbc-06f2df1a2c91"},"vehicle_type_id":"4","last_reported":1740323271,"current_range_meters":18800,"station_id":"ce4bh192rcd13ifvqdd0","pricing_plan_id":"cebpf4jnsgd1na2vs0mg"},{"bike_id":"41a2216f-8b22-4f4f-9eac-5e2283bcdb4b","system_id":"levelo_inurba_marseille","lat":43.28152,"lon":5.42656,"is_reserved":false,"is_disabled":true,"rental_uris":{"android":"levelo://app?vid=41a2216f-8b22-4f4f-9eac-5e2283bcdb4b","ios":"levelo://app?vid=41a2216f-8b22-4f4f-9eac-5e2283bcdb4b"},"vehicle_type_id":"4","last_reported":1740323271,"current_range_meters":18800,"station_id":"ce4bhnh2rcd13ifvqgug","pricing_plan_id":"cebpf4jnsgd1na2vs0mg"},{"bike_id":"c70fa9bd-960c-46a2-9f12-6fad4cbd4e88","system_id":"levelo_inurba_marseille","lat":43.24387,"lon":5.37059,"is_reserved":false,"is_disabled":false,"rental_uris":{"android":"levelo://app?vid=c70fa9bd-960c-46a2-9f12-6fad4cbd4e88","ios":"levelo://app?vid=c70fa9bd-960c-46a2-9f12-6fad4cbd4e88"},"vehicle_type_id":"4","last_reported":1740323271,"current_range_meters":18000,"station_id":"ce4bhhh2rcd13ifvqfk0","pricing_plan_id":"cebpf4jnsgd1na2vs0mg"},{"bike_id":"a0fee4fc-362c-4614-8c35-e4c145357b8a","system_id":"levelo_inurba_marseille","lat":43.2827,"lon":5.35066,"is_reserved":false,"is_disabled":false,"rental_uris":{"android":"levelo://app?vid=a0fee4fc-362c-4614-8c35-e4c145357b8a","ios":"levelo://app?vid=a0fee4fc-362c-4614-8c35-e4c145357b8a"},"vehicle_type_id":"4","last_reported":1740323271,"current_range_meters":18800,"station_id":"ce4bhbp2rcd13ifvqerg","pricing_plan_id":"cebpf4jnsgd1na2vs0mg"},{"bike_id":"f8b94923-3b1c-4899-ab87-26b7d14fdaf0","system_id":"levelo_inurba_marseille","lat":43.31486,"lon":5.37309,"is_reserved":false,"is_disabled":false,"rental_uris":{"android":"levelo://app?vid=f8b94923-3b1c-4899-ab87-26b7d14fdaf0","ios":"levelo://app?vid=f8b94923-3b1c-4899-ab87-26b7d14fdaf0"},"vehicle_type_id":"4","last_reported":1740323271,"current_range_meters":18000,"station_id":"ce4bgt12rcd13ifvqcd0","pricing_plan_id":"cebpf4jnsgd1na2vs0mg"},{"bike_id":"c0553ce2-1e21-4424-ae14-30f158e9755d","system_id":"levelo_inurba_marseille","lat":43.29868,"lon":5.38902,"is_reserved":false,"is_disabled":true,"rental_uris":{"android":"levelo://app?vid=c0553ce2-1e21-4424-ae14-30f158e9755d","ios":"levelo://app?vid=c0553ce2-1e21-4424-ae14-30f158e9755d"},"vehicle_type_id":"4","last_reported":1740323271,"current_range_meters":18800,"station_id":"ce4bh392rcd13ifvqdl0","pricing_plan_id":"cebpf4jnsgd1na2vs0mg"},{"bike_id":"f5b01f98-6fc9-4f69-8921-73ef7cd7ee41","system_id":"levelo_inurba_marseille","lat":43.297762,"lon":5.371483,"is_reserved":false,"is_disabled":false,"rental_uris":{"android":"levelo://app?vid=f5b01f98-6fc9-4f69-8921-73ef7cd7ee41","ios":"levelo://app?vid=f5b01f98-6fc9-4f69-8921-73ef7cd7ee41"},"vehicle_type_id":"4","last_reported":1740323271,"current_range_meters":19200,"station_id":"ce4bgop2rcd13ifvqc1g","pricing_plan_id":"cebpf4jnsgd1na2vs0mg"},{"bike_id":"b74b70b7-2ee4-40f6-9bb9-a30abcb56606","system_id":"levelo_inurba_marseille","lat":43.292084,"lon":5.393346,"is_reserved":false,"is_disabled":false,"rental_uris":{"android":"levelo://app?vid=b74b70b7-2ee4-40f6-9bb9-a30abcb56606","ios":"levelo://app?vid=b74b70b7-2ee4-40f6-9bb9-a30abcb56606"},"vehicle_type_id":"4","last_reported":1740323271,"current_range_meters":19200,"station_id":"ce4bh192rcd13ifvqdd0","pricing_plan_id":"cebpf4jnsgd1na2vs0mg"},{"bike_id":"2f38b162-7139-4516-803e-0541e4edb16e","system_id":"levelo_inurba_marseille","lat":43.28868,"lon":5.35869,"is_reserved":false,"is_disabled":false,"rental_uris":{"android":"levelo://app?vid=2f38b162-7139-4516-803e-0541e4edb16e","ios":"levelo://app?vid=2f38b162-7139-4516-803e-0541e4edb16e"},"vehicle_type_id":"4","last_reported":1740323271,"current_range_meters":19200,"station_id":"ce4bhb12rcd13ifvqem0","pricing_plan_id":"cebpf4jnsgd1na2vs0mg"},{"bike_id":"fe084e5e-72a4-4af3-81d9-ee570b1d2b7a","system_id":"levelo_inurba_marseille","lat":43.25499,"lon":5.37649,"is_reserved":false,"is_disabled":false,"rental_uris":{"android":"levelo://app?vid=fe084e5e-72a4-4af3-81d9-ee570b1d2b7a","ios":"levelo://app?vid=fe084e5e-72a4-4af3-81d9-ee570b1d2b7a"},"vehicle_type_id":"4","last_reported":1740323271,"current_range_meters":18800,"station_id":"ce4bhh12rcd13ifvqff0","pricing_plan_id":"cebpf4jnsgd1na2vs0mg"},{"bike_id":"399e00bf-b0b5-45cf-b4d5-3d7debcdb039","system_id":"levelo_inurba_marseille","lat":43.27285,"lon":5.39086,"is_reserved":false,"is_disabled":false,"rental_uris":{"android":"levelo://app?vid=399e00bf-b0b5-45cf-b4d5-3d7debcdb039","ios":"levelo://app?vid=399e00bf-b0b5-45cf-b4d5-3d7debcdb039"},"vehicle_type_id":"4","last_reported":1740323271,"current_range_meters":19200,"station_id":"ce4bhoh2rcd13ifvqh5g","pricing_plan_id":"cebpf4jnsgd1na2vs0mg"},{"bike_id":"ef60149d-9ac0-45fd-aae8-3f2b3b04ee9f","system_id":"levelo_inurba_marseille","lat":43.28271,"lon":5.35064,"is_reserved":false,"is_disabled":false,"rental_uris":{"android":"levelo://app?vid=ef60149d-9ac0-45fd-aae8-3f2b3b04ee9f","ios":"levelo://app?vid=ef60149d-9ac0-45fd-aae8-3f2b3b04ee9f"},"vehicle_type_id":"4","last_reported":1740323271,"current_range_meters":19200,"station_id":"ce4bhbp2rcd13ifvqerg","pricing_plan_id":"cebpf4jnsgd1na2vs0mg"},{"bike_id":"a21d4cc5-37c7-4175-82f4-02b943028665","system_id":"levelo_inurba_marseille","lat":43.25908,"lon":5.40906,"is_reserved":false,"is_disabled":false,"rental_uris":{"android":"levelo://app?vid=a21d4cc5-37c7-4175-82f4-02b943028665","ios":"levelo://app?vid=a21d4cc5-37c7-4175-82f4-02b943028665"},"vehicle_type_id":"4","last_reported":1740323271,"current_range_meters":19200,"station_id":"ce4bhm92rcd13ifvqglg","pricing_plan_id":"cebpf4jnsgd1na2vs0mg"},{"bike_id":"09a4d116-a1cf-41c8-b4e1-89b31babc686","system_id":"levelo_inurba_marseille","lat":43.26204,"lon":5.37936,"is_reserved":false,"is_disabled":false,"rental_uris":{"android":"levelo://app?vid=09a4d116-a1cf-41c8-b4e1-89b31babc686","ios":"levelo://app?vid=09a4d116-a1cf-41c8-b4e1-89b31babc686"},"vehicle_type_id":"4","last_reported":1740323271,"current_range_meters":19200,"station_id":"ce4bhjp2rcd13ifvqg90","pricing_plan_id":"cebpf4jnsgd1na2vs0mg"},{"bike_id":"42c78488-4a2c-41af-8bd5-0df9da240110","system_id":"levelo_inurba_marseille","lat":43.30785,"lon":5.3765,"is_reserved":false,"is_disabled":false,"rental_uris":{"android":"levelo://app?vid=42c78488-4a2c-41af-8bd5-0df9da240110","ios":"levelo://app?vid=42c78488-4a2c-41af-8bd5-0df9da240110"},"vehicle_type_id":"4","last_reported":1740323271,"current_range_meters":19200,"station_id":"ce4bgv92rcd13ifvqcq0","pricing_plan_id":"cebpf4jnsgd1na2vs0mg"},{"bike_id":"3a313666-2e4d-451d-bdac-4cb8a1672489","system_id":"levelo_inurba_marseille","lat":43.28999,"lon":5.35608,"is_reserved":false,"is_disabled":false,"rental_uris":{"android":"levelo://app?vid=3a313666-2e4d-451d-bdac-4cb8a1672489","ios":"levelo://app?vid=3a313666-2e4d-451d-bdac-4cb8a1672489"},"vehicle_type_id":"4","last_reported":1740323271,"current_range_meters":19200,"station_id":"ce4bhb92rcd13ifvqen0","pricing_plan_id":"cebpf4jnsgd1na2vs0mg"},{"bike_id":"3cc88618-111f-437d-910e-b62a6da3eb95","system_id":"levelo_inurba_marseille","lat":43.27996,"lon":5.41665,"is_reserved":false,"is_disabled":false,"rental_uris":{"android":"levelo://app?vid=3cc88618-111f-437d-910e-b62a6da3eb95","ios":"levelo://app?vid=3cc88618-111f-437d-910e-b62a6da3eb95"},"vehicle_type_id":"4","last_reported":1740323271,"current_range_meters":19600,"station_id":"ce4bho12rcd13ifvqh1g","pricing_plan_id":"cebpf4jnsgd1na2vs0mg"},{"bike_id":"9ec80d5d-5365-4fe8-b1b8-741c81741c1c","system_id":"levelo_inurba_marseille","lat":43.27701,"lon":5.408193,"is_reserved":false,"is_disabled":false,"rental_uris":{"android":"levelo://app?vid=9ec80d5d-5365-4fe8-b1b8-741c81741c1c","ios":"levelo://app?vid=9ec80d5d-5365-4fe8-b1b8-741c81741c1c"},"vehicle_type_id":"4","last_reported":1740323271,"current_range_meters":19600,"station_id":"","pricing_plan_id":"cebpf4jnsgd1na2vs0mg"},{"bike_id":"2cb3f284-7b8f-46db-a012-ff6c476270a8","system_id":"levelo_inurba_marseille","lat":43.23187,"lon":5.35562,"is_reserved":false,"is_disabled":false,"rental_uris":{"android":"levelo://app?vid=2cb3f284-7b8f-46db-a012-ff6c476270a8","ios":"levelo://app?vid=2cb3f284-7b8f-46db-a012-ff6c476270a8"},"vehicle_type_id":"4","last_reported":1740323271,"current_range_meters":19600,"station_id":"ce4bhu92rcd13ifvqi70","pricing_plan_id":"cebpf4jnsgd1na2vs0mg"},{"bike_id":"ecafb2c1-a743-49d1-ab90-00b5486810f5","system_id":"levelo_inurba_marseille","lat":43.26789,"lon":5.39419,"is_reserved":false,"is_disabled":false,"rental_uris":{"android":"levelo://app?vid=ecafb2c1-a743-49d1-ab90-00b5486810f5","ios":"levelo://app?vid=ecafb2c1-a743-49d1-ab90-00b5486810f5"},"vehicle_type_id":"4","last_reported":1740323271,"current_range_meters":19600,"station_id":"ce4bhh12rcd13ifvqfg0","pricing_plan_id":"cebpf4jnsgd1na2vs0mg"},{"bike_id":"ebbf6217-465f-4269-8ee4-4515a862b241","system_id":"levelo_inurba_marseille","lat":43.29871,"lon":5.38894,"is_reserved":false,"is_disabled":true,"rental_uris":{"android":"levelo://app?vid=ebbf6217-465f-4269-8ee4-4515a862b241","ios":"levelo://app?vid=ebbf6217-465f-4269-8ee4-4515a862b241"},"vehicle_type_id":"4","last_reported":1740323271,"current_range_meters":20000,"station_id":"ce4bh392rcd13ifvqdl0","pricing_plan_id":"cebpf4jnsgd1na2vs0mg"},{"bike_id":"1103d28b-8801-477c-8a26-574aa231ff2b","system_id":"levelo_inurba_marseille","lat":43.26574,"lon":5.39005,"is_reserved":false,"is_disabled":false,"rental_uris":{"android":"levelo://app?vid=1103d28b-8801-477c-8a26-574aa231ff2b","ios":"levelo://app?vid=1103d28b-8801-477c-8a26-574aa231ff2b"},"vehicle_type_id":"4","last_reported":1740323271,"current_range_meters":20000,"station_id":"ce4bhe12rcd13ifvqf30","pricing_plan_id":"cebpf4jnsgd1na2vs0mg"},{"bike_id":"27dc892d-b8b9-4cfb-aa56-f5c4dc4f5eaa","system_id":"levelo_inurba_marseille","lat":43.31332,"lon":5.39708,"is_reserved":false,"is_disabled":false,"rental_uris":{"android":"levelo://app?vid=27dc892d-b8b9-4cfb-aa56-f5c4dc4f5eaa","ios":"levelo://app?vid=27dc892d-b8b9-4cfb-aa56-f5c4dc4f5eaa"},"vehicle_type_id":"4","last_reported":1740323271,"current_range_meters":20000,"station_id":"ce4bgvp2rcd13ifvqcu0","pricing_plan_id":"cebpf4jnsgd1na2vs0mg"},{"bike_id":"320e1b38-66ac-4a32-8997-1beec4399d8f","system_id":"levelo_inurba_marseille","lat":43.29,"lon":5.35617,"is_reserved":false,"is_disabled":false,"rental_uris":{"android":"levelo://app?vid=320e1b38-66ac-4a32-8997-1beec4399d8f","ios":"levelo://app?vid=320e1b38-66ac-4a32-8997-1beec4399d8f"},"vehicle_type_id":"4","last_reported":1740323271,"current_range_meters":20000,"station_id":"ce4bhb92rcd13ifvqen0","pricing_plan_id":"cebpf4jnsgd1na2vs0mg"},{"bike_id":"cdf89f84-1d45-4ce1-b985-6a2c8b69ccf3","system_id":"levelo_inurba_marseille","lat":43.30554,"lon":5.36543,"is_reserved":false,"is_disabled":true,"rental_uris":{"android":"levelo://app?vid=cdf89f84-1d45-4ce1-b985-6a2c8b69ccf3","ios":"levelo://app?vid=cdf89f84-1d45-4ce1-b985-6a2c8b69ccf3"},"vehicle_type_id":"4","last_reported":1740323271,"current_range_meters":20400,"station_id":"ce4bgs12rcd13ifvqcag","pricing_plan_id":"cebpf4jnsgd1na2vs0mg"},{"bike_id":"a01f5c6f-5aea-4ddc-8287-05dfd53152b4","system_id":"levelo_inurba_marseille","lat":43.292081,"lon":5.393116,"is_reserved":false,"is_disabled":false,"rental_uris":{"android":"levelo://app?vid=a01f5c6f-5aea-4ddc-8287-05dfd53152b4","ios":"levelo://app?vid=a01f5c6f-5aea-4ddc-8287-05dfd53152b4"},"vehicle_type_id":"4","last_reported":1740323271,"current_range_meters":20400,"station_id":"ce4bh192rcd13ifvqdd0","pricing_plan_id":"cebpf4jnsgd1na2vs0mg"},{"bike_id":"ce16538a-7d48-45aa-91c4-84f2937259be","system_id":"levelo_inurba_marseille","lat":43.29633,"lon":5.37725,"is_reserved":false,"is_disabled":false,"rental_uris":{"android":"levelo://app?vid=ce16538a-7d48-45aa-91c4-84f2937259be","ios":"levelo://app?vid=ce16538a-7d48-45aa-91c4-84f2937259be"},"vehicle_type_id":"4","last_reported":1740323271,"current_range_meters":20000,"station_id":"ce4bgi92rcd13ifvqb90","pricing_plan_id":"cebpf4jnsgd1na2vs0mg"},{"bike_id":"a51b5c1e-49e9-4366-b113-b57a5448d77d","system_id":"levelo_inurba_marseille","lat":43.311724,"lon":5.387176,"is_reserved":false,"is_disabled":false,"rental_uris":{"android":"levelo://app?vid=a51b5c1e-49e9-4366-b113-b57a5448d77d","ios":"levelo://app?vid=a51b5c1e-49e9-4366-b113-b57a5448d77d"},"vehicle_type_id":"4","last_reported":1740323271,"current_range_meters":20000,"station_id":"ce4bgv12rcd13ifvqcp0","pricing_plan_id":"cebpf4jnsgd1na2vs0mg"},{"bike_id":"7f5aae77-407d-4966-a802-dcf0bc20ffbf","system_id":"levelo_inurba_marseille","lat":43.26804,"lon":5.40271,"is_reserved":false,"is_disabled":false,"rental_uris":{"android":"levelo://app?vid=7f5aae77-407d-4966-a802-dcf0bc20ffbf","ios":"levelo://app?vid=7f5aae77-407d-4966-a802-dcf0bc20ffbf"},"vehicle_type_id":"4","last_reported":1740323271,"current_range_meters":20800,"station_id":"ce501612rcd8frsf0b60","pricing_plan_id":"cebpf4jnsgd1na2vs0mg"},{"bike_id":"b39a3160-6073-4312-8d3d-938336370c39","system_id":"levelo_inurba_marseille","lat":43.28279,"lon":5.3508,"is_reserved":false,"is_disabled":false,"rental_uris":{"android":"levelo://app?vid=b39a3160-6073-4312-8d3d-938336370c39","ios":"levelo://app?vid=b39a3160-6073-4312-8d3d-938336370c39"},"vehicle_type_id":"4","last_reported":1740323271,"current_range_meters":20800,"station_id":"ce4bhbp2rcd13ifvqerg","pricing_plan_id":"cebpf4jnsgd1na2vs0mg"},{"bike_id":"d5a25ea0-09d4-4d21-b36f-610f487809fe","system_id":"levelo_inurba_marseille","lat":43.26783,"lon":5.39419,"is_reserved":false,"is_disabled":false,"rental_uris":{"android":"levelo://app?vid=d5a25ea0-09d4-4d21-b36f-610f487809fe","ios":"levelo://app?vid=d5a25ea0-09d4-4d21-b36f-610f487809fe"},"vehicle_type_id":"4","last_reported":1740323271,"current_range_meters":20400,"station_id":"ce4bhh12rcd13ifvqfg0","pricing_plan_id":"cebpf4jnsgd1na2vs0mg"},{"bike_id":"53899e2c-901f-4684-921b-47370fcd206b","system_id":"levelo_inurba_marseille","lat":43.30113,"lon":5.39088,"is_reserved":false,"is_disabled":true,"rental_uris":{"android":"levelo://app?vid=53899e2c-901f-4684-921b-47370fcd206b","ios":"levelo://app?vid=53899e2c-901f-4684-921b-47370fcd206b"},"vehicle_type_id":"4","last_reported":1740323271,"current_range_meters":20800,"station_id":"ce4bh192rcd13ifvqdb0","pricing_plan_id":"cebpf4jnsgd1na2vs0mg"},{"bike_id":"bd07b556-0051-440d-927d-d3e98e354e0f","system_id":"levelo_inurba_marseille","lat":43.25007,"lon":5.38914,"is_reserved":false,"is_disabled":false,"rental_uris":{"android":"levelo://app?vid=bd07b556-0051-440d-927d-d3e98e354e0f","ios":"levelo://app?vid=bd07b556-0051-440d-927d-d3e98e354e0f"},"vehicle_type_id":"4","last_reported":1740323271,"current_range_meters":20800,"station_id":"ce4bhgp2rcd13ifvqfd0","pricing_plan_id":"cebpf4jnsgd1na2vs0mg"},{"bike_id":"ebbd3973-d5e6-4f73-9909-4017d39e59e6","system_id":"levelo_inurba_marseille","lat":43.26059,"lon":5.39401,"is_reserved":false,"is_disabled":false,"rental_uris":{"android":"levelo://app?vid=ebbd3973-d5e6-4f73-9909-4017d39e59e6","ios":"levelo://app?vid=ebbd3973-d5e6-4f73-9909-4017d39e59e6"},"vehicle_type_id":"4","last_reported":1740323271,"current_range_meters":20400,"station_id":"ce4bhh92rcd13ifvqfj0","pricing_plan_id":"cebpf4jnsgd1na2vs0mg"},{"bike_id":"073518a5-4dc0-447e-9477-a67f73b2a5a2","system_id":"levelo_inurba_marseille","lat":43.3237,"lon":5.36761,"is_reserved":false,"is_disabled":false,"rental_uris":{"android":"levelo://app?vid=073518a5-4dc0-447e-9477-a67f73b2a5a2","ios":"levelo://app?vid=073518a5-4dc0-447e-9477-a67f73b2a5a2"},"vehicle_type_id":"4","last_reported":1740323271,"current_range_meters":20800,"station_id":"ce4bhsh2rcd13ifvqi2g","pricing_plan_id":"cebpf4jnsgd1na2vs0mg"},{"bike_id":"8f0e6e61-548a-41cb-aa44-b18daed0fe0e","system_id":"levelo_inurba_marseille","lat":43.28457,"lon":5.35901,"is_reserved":false,"is_disabled":true,"rental_uris":{"android":"levelo://app?vid=8f0e6e61-548a-41cb-aa44-b18daed0fe0e","ios":"levelo://app?vid=8f0e6e61-548a-41cb-aa44-b18daed0fe0e"},"vehicle_type_id":"4","last_reported":1740323271,"current_range_meters":20800,"station_id":"ce4bhah2rcd13ifvqei0","pricing_plan_id":"cebpf4jnsgd1na2vs0mg"},{"bike_id":"7ffd40ee-0477-4fa9-9ce8-913e6de50937","system_id":"levelo_inurba_marseille","lat":43.29081,"lon":5.37166,"is_reserved":false,"is_disabled":false,"rental_uris":{"android":"levelo://app?vid=7ffd40ee-0477-4fa9-9ce8-913e6de50937","ios":"levelo://app?vid=7ffd40ee-0477-4fa9-9ce8-913e6de50937"},"vehicle_type_id":"4","last_reported":1740323271,"current_range_meters":20800,"station_id":"ce4bh5p2rcd13ifvqe4g","pricing_plan_id":"cebpf4jnsgd1na2vs0mg"},{"bike_id":"f8d9e67d-7063-45a3-b622-123b9762a9ad","system_id":"levelo_inurba_marseille","lat":43.29006,"lon":5.35617,"is_reserved":false,"is_disabled":false,"rental_uris":{"android":"levelo://app?vid=f8d9e67d-7063-45a3-b622-123b9762a9ad","ios":"levelo://app?vid=f8d9e67d-7063-45a3-b622-123b9762a9ad"},"vehicle_type_id":"4","last_reported":1740323271,"current_range_meters":21600,"station_id":"ce4bhb92rcd13ifvqen0","pricing_plan_id":"cebpf4jnsgd1na2vs0mg"},{"bike_id":"31f22dd6-b64e-47dc-a1e2-0e184779765a","system_id":"levelo_inurba_marseille","lat":43.29031,"lon":5.37908,"is_reserved":false,"is_disabled":false,"rental_uris":{"android":"levelo://app?vid=31f22dd6-b64e-47dc-a1e2-0e184779765a","ios":"levelo://app?vid=31f22dd6-b64e-47dc-a1e2-0e184779765a"},"vehicle_type_id":"4","last_reported":1740323271,"current_range_meters":21600,"station_id":"","pricing_plan_id":"cebpf4jnsgd1na2vs0mg"},{"bike_id":"d1530cd6-d354-44d4-b371-5e708ae5110a","system_id":"levelo_inurba_marseille","lat":43.232,"lon":5.35546,"is_reserved":false,"is_disabled":false,"rental_uris":{"android":"levelo://app?vid=d1530cd6-d354-44d4-b371-5e708ae5110a","ios":"levelo://app?vid=d1530cd6-d354-44d4-b371-5e708ae5110a"},"vehicle_type_id":"4","last_reported":1740323271,"current_range_meters":21600,"station_id":"ce4bhu92rcd13ifvqi70","pricing_plan_id":"cebpf4jnsgd1na2vs0mg"},{"bike_id":"6b6f5a15-470a-426e-9283-09f0a8e3ab8e","system_id":"levelo_inurba_marseille","lat":43.32124,"lon":5.36777,"is_reserved":false,"is_disabled":false,"rental_uris":{"android":"levelo://app?vid=6b6f5a15-470a-426e-9283-09f0a8e3ab8e","ios":"levelo://app?vid=6b6f5a15-470a-426e-9283-09f0a8e3ab8e"},"vehicle_type_id":"4","last_reported":1740323271,"current_range_meters":21600,"station_id":"ce4bhrh2rcd13ifvqhug","pricing_plan_id":"cebpf4jnsgd1na2vs0mg"},{"bike_id":"53a2d8ff-f2ef-457e-a5ad-1e3404157ad1","system_id":"levelo_inurba_marseille","lat":43.28616,"lon":5.38502,"is_reserved":false,"is_disabled":false,"rental_uris":{"android":"levelo://app?vid=53a2d8ff-f2ef-457e-a5ad-1e3404157ad1","ios":"levelo://app?vid=53a2d8ff-f2ef-457e-a5ad-1e3404157ad1"},"vehicle_type_id":"4","last_reported":1740323271,"current_range_meters":21600,"station_id":"ce4bh0h2rcd13ifvqd40","pricing_plan_id":"cebpf4jnsgd1na2vs0mg"},{"bike_id":"0c196170-6b3c-4348-a05e-13d77c4565dd","system_id":"levelo_inurba_marseille","lat":43.23968,"lon":5.36633,"is_reserved":false,"is_disabled":false,"rental_uris":{"android":"levelo://app?vid=0c196170-6b3c-4348-a05e-13d77c4565dd","ios":"levelo://app?vid=0c196170-6b3c-4348-a05e-13d77c4565dd"},"vehicle_type_id":"4","last_reported":1740323271,"current_range_meters":21600,"station_id":"ce4bhi12rcd13ifvqfp0","pricing_plan_id":"cebpf4jnsgd1na2vs0mg"},{"bike_id":"9a4e6570-cd1f-4c2b-880c-67a9279c1abc","system_id":"levelo_inurba_marseille","lat":43.29312,"lon":5.37461,"is_reserved":false,"is_disabled":false,"rental_uris":{"android":"levelo://app?vid=9a4e6570-cd1f-4c2b-880c-67a9279c1abc","ios":"levelo://app?vid=9a4e6570-cd1f-4c2b-880c-67a9279c1abc"},"vehicle_type_id":"4","last_reported":1740323271,"current_range_meters":22000,"station_id":"ce4bgi12rcd13ifvqb70","pricing_plan_id":"cebpf4jnsgd1na2vs0mg"},{"bike_id":"67350e3b-ced3-434f-8df5-0f50029c572e","system_id":"levelo_inurba_marseille","lat":43.23177,"lon":5.35571,"is_reserved":false,"is_disabled":false,"rental_uris":{"android":"levelo://app?vid=67350e3b-ced3-434f-8df5-0f50029c572e","ios":"levelo://app?vid=67350e3b-ced3-434f-8df5-0f50029c572e"},"vehicle_type_id":"4","last_reported":1740323271,"current_range_meters":22000,"station_id":"ce4bhu92rcd13ifvqi70","pricing_plan_id":"cebpf4jnsgd1na2vs0mg"},{"bike_id":"7f1effb9-797a-4f5b-9848-b3702c4a079f","system_id":"levelo_inurba_marseille","lat":43.30943,"lon":5.3903,"is_reserved":false,"is_disabled":false,"rental_uris":{"android":"levelo://app?vid=7f1effb9-797a-4f5b-9848-b3702c4a079f","ios":"levelo://app?vid=7f1effb9-797a-4f5b-9848-b3702c4a079f"},"vehicle_type_id":"4","last_reported":1740323271,"current_range_meters":22000,"station_id":"ce4bgup2rcd13ifvqco0","pricing_plan_id":"cebpf4jnsgd1na2vs0mg"},{"bike_id":"6e021db1-6d6b-48ee-91e9-921ad0fc41b7","system_id":"levelo_inurba_marseille","lat":43.31755,"lon":5.39016,"is_reserved":false,"is_disabled":false,"rental_uris":{"android":"levelo://app?vid=6e021db1-6d6b-48ee-91e9-921ad0fc41b7","ios":"levelo://app?vid=6e021db1-6d6b-48ee-91e9-921ad0fc41b7"},"vehicle_type_id":"4","last_reported":1740323271,"current_range_meters":22000,"station_id":"ce4bhqp2rcd13ifvqhng","pricing_plan_id":"cebpf4jnsgd1na2vs0mg"},{"bike_id":"b4413a75-2840-4495-b977-b2e954a06499","system_id":"levelo_inurba_marseille","lat":43.29176,"lon":5.35796,"is_reserved":false,"is_disabled":false,"rental_uris":{"android":"levelo://app?vid=b4413a75-2840-4495-b977-b2e954a06499","ios":"levelo://app?vid=b4413a75-2840-4495-b977-b2e954a06499"},"vehicle_type_id":"4","last_reported":1740323271,"current_range_meters":21600,"station_id":"ce4bhb12rcd13ifvqel0","pricing_plan_id":"cebpf4jnsgd1na2vs0mg"},{"bike_id":"e0a974b6-ebb6-4643-b3b6-b282d529bc0a","system_id":"levelo_inurba_marseille","lat":43.31709,"lon":5.43697,"is_reserved":false,"is_disabled":true,"rental_uris":{"android":"levelo://app?vid=e0a974b6-ebb6-4643-b3b6-b282d529bc0a","ios":"levelo://app?vid=e0a974b6-ebb6-4643-b3b6-b282d529bc0a"},"vehicle_type_id":"4","last_reported":1740323271,"current_range_meters":22000,"station_id":"ce4bhp92rcd13ifvqhcg","pricing_plan_id":"cebpf4jnsgd1na2vs0mg"},{"bike_id":"67353ec5-ce91-46f3-8df8-86128e85fd44","system_id":"levelo_inurba_marseille","lat":43.28155,"lon":5.42647,"is_reserved":false,"is_disabled":true,"rental_uris":{"android":"levelo://app?vid=67353ec5-ce91-46f3-8df8-86128e85fd44","ios":"levelo://app?vid=67353ec5-ce91-46f3-8df8-86128e85fd44"},"vehicle_type_id":"4","last_reported":1740323271,"current_range_meters":22000,"station_id":"ce4bhnh2rcd13ifvqgug","pricing_plan_id":"cebpf4jnsgd1na2vs0mg"},{"bike_id":"cad66269-5f9a-4cc5-ad50-4970a54ddcf9","system_id":"levelo_inurba_marseille","lat":43.24073,"lon":5.37763,"is_reserved":false,"is_disabled":false,"rental_uris":{"android":"levelo://app?vid=cad66269-5f9a-4cc5-ad50-4970a54ddcf9","ios":"levelo://app?vid=cad66269-5f9a-4cc5-ad50-4970a54ddcf9"},"vehicle_type_id":"4","last_reported":1740323271,"current_range_meters":22000,"station_id":"ce4bhnp2rcd13ifvqgvg","pricing_plan_id":"cebpf4jnsgd1na2vs0mg"},{"bike_id":"0f36dcdd-b97b-4ae8-afcd-d5c2384b3d87","system_id":"levelo_inurba_marseille","lat":43.2843,"lon":5.34972,"is_reserved":false,"is_disabled":false,"rental_uris":{"android":"levelo://app?vid=0f36dcdd-b97b-4ae8-afcd-d5c2384b3d87","ios":"levelo://app?vid=0f36dcdd-b97b-4ae8-afcd-d5c2384b3d87"},"vehicle_type_id":"4","last_reported":1740323271,"current_range_meters":22400,"station_id":"ce4bhbh2rcd13ifvqepg","pricing_plan_id":"cebpf4jnsgd1na2vs0mg"},{"bike_id":"9d0ea8a7-7f93-4e5a-81c2-742a432629bd","system_id":"levelo_inurba_marseille","lat":43.30529,"lon":5.36707,"is_reserved":false,"is_disabled":false,"rental_uris":{"android":"levelo://app?vid=9d0ea8a7-7f93-4e5a-81c2-742a432629bd","ios":"levelo://app?vid=9d0ea8a7-7f93-4e5a-81c2-742a432629bd"},"vehicle_type_id":"4","last_reported":1740323271,"current_range_meters":22000,"station_id":"ce4bgrp2rcd13ifvqc9g","pricing_plan_id":"cebpf4jnsgd1na2vs0mg"},{"bike_id":"79566fe9-5873-4650-8557-84a424a89b9d","system_id":"levelo_inurba_marseille","lat":43.30509,"lon":5.38093,"is_reserved":false,"is_disabled":false,"rental_uris":{"android":"levelo://app?vid=79566fe9-5873-4650-8557-84a424a89b9d","ios":"levelo://app?vid=79566fe9-5873-4650-8557-84a424a89b9d"},"vehicle_type_id":"4","last_reported":1740323271,"current_range_meters":22400,"station_id":"ce4bgrp2rcd13ifvqc9g","pricing_plan_id":"cebpf4jnsgd1na2vs0mg"},{"bike_id":"67b8b3f6-1135-41e1-9b4f-c98e6799dec8","system_id":"levelo_inurba_marseille","lat":43.30798,"lon":5.43527,"is_reserved":false,"is_disabled":false,"rental_uris":{"android":"levelo://app?vid=67b8b3f6-1135-41e1-9b4f-c98e6799dec8","ios":"levelo://app?vid=67b8b3f6-1135-41e1-9b4f-c98e6799dec8"},"vehicle_type_id":"4","last_reported":1740323271,"current_range_meters":22400,"station_id":"ce4bhph2rcd13ifvqheg","pricing_plan_id":"cebpf4jnsgd1na2vs0mg"},{"bike_id":"f244c07b-dc13-4f61-8c44-efe86de82881","system_id":"levelo_inurba_marseille","lat":43.29626,"lon":5.40636,"is_reserved":false,"is_disabled":true,"rental_uris":{"android":"levelo://app?vid=f244c07b-dc13-4f61-8c44-efe86de82881","ios":"levelo://app?vid=f244c07b-dc13-4f61-8c44-efe86de82881"},"vehicle_type_id":"4","last_reported":1740323271,"current_range_meters":22400,"station_id":"ce4bh0h2rcd13ifvqd60","pricing_plan_id":"cebpf4jnsgd1na2vs0mg"},{"bike_id":"518e9045-10ae-4526-8005-140a7dcd86a5","system_id":"levelo_inurba_marseille","lat":43.29583,"lon":5.37511,"is_reserved":false,"is_disabled":true,"rental_uris":{"android":"levelo://app?vid=518e9045-10ae-4526-8005-140a7dcd86a5","ios":"levelo://app?vid=518e9045-10ae-4526-8005-140a7dcd86a5"},"vehicle_type_id":"4","last_reported":1740323271,"current_range_meters":22400,"station_id":"ce4bgh92rcd13ifvqb50","pricing_plan_id":"cebpf4jnsgd1na2vs0mg"},{"bike_id":"306c8afe-27f2-42dd-9d3c-74d43bc1f2cb","system_id":"levelo_inurba_marseille","lat":43.27487,"lon":5.4246,"is_reserved":false,"is_disabled":false,"rental_uris":{"android":"levelo://app?vid=306c8afe-27f2-42dd-9d3c-74d43bc1f2cb","ios":"levelo://app?vid=306c8afe-27f2-42dd-9d3c-74d43bc1f2cb"},"vehicle_type_id":"4","last_reported":1740323271,"current_range_meters":22400,"station_id":"ce4bhn92rcd13ifvqgrg","pricing_plan_id":"cebpf4jnsgd1na2vs0mg"},{"bike_id":"86669f33-8519-423e-9dec-1b624217baeb","system_id":"levelo_inurba_marseille","lat":43.250874,"lon":5.395136,"is_reserved":false,"is_disabled":true,"rental_uris":{"android":"levelo://app?vid=86669f33-8519-423e-9dec-1b624217baeb","ios":"levelo://app?vid=86669f33-8519-423e-9dec-1b624217baeb"},