{"last_updated":1729328909,"ttl":60,"version":"2.2","data":{"bikes":[{"bike_id":"ef47d04a-d623-4923-9ac4-d8403fc9a216","system_id":"levelo_inurba_marseille","lat":43.33728,"lon":5.39179,"is_reserved":false,"is_disabled":false,"rental_uris":{"android":"levelo://app?vid=ef47d04a-d623-4923-9ac4-d8403fc9a216","ios":"levelo://app?vid=ef47d04a-d623-4923-9ac4-d8403fc9a216"},"vehicle_type_id":"4","last_reported":1729328910,"current_range_meters":38800,"station_id":"ce4bhr92rcd13ifvqhsg","pricing_plan_id":"cebpf4jnsgd1na2vs0mg"},{"bike_id":"10a9ece6-ff34-482d-8185-60ac6265c523","system_id":"levelo_inurba_marseille","lat":43.3284,"lon":5.36681,"is_reserved":false,"is_disabled":false,"rental_uris":{"android":"levelo://app?vid=10a9ece6-ff34-482d-8185-60ac6265c523","ios":"levelo://app?vid=10a9ece6-ff34-482d-8185-60ac6265c523"},"vehicle_type_id":"4","last_reported":1729328910,"current_range_meters":22000,"station_id":"","pricing_plan_id":"cebpf4jnsgd1na2vs0mg"},{"bike_id":"4c1edc5c-7c39-409a-881e-4ccb4d014cd4","system_id":"levelo_inurba_marseille","lat":43.31715,"lon":5.43698,"is_reserved":false,"is_disabled":false,"rental_uris":{"android":"levelo://app?vid=4c1edc5c-7c39-409a-881e-4ccb4d014cd4","ios":"levelo://app?vid=4c1edc5c-7c39-409a-881e-4ccb4d014cd4"},"vehicle_type_id":"4","last_reported":1729328910,"current_range_meters":38800,"station_id":"ce4bhp92rcd13ifvqhcg","pricing_plan_id":"cebpf4jnsgd1na2vs0mg"},{"bike_id":"7695e951-fe49-466c-b1f2-4e44e5b9e14c","system_id":"levelo_inurba_marseille","lat":43.30801,"lon":5.43526,"is_reserved":false,"is_disabled":false,"rental_uris":{"android":"levelo://app?vid=7695e951-fe49-466c-b1f2-4e44e5b9e14c","ios":"levelo://app?vid=7695e951-fe49-466c-b1f2-4e44e5b9e14c"},"vehicle_type_id":"4","last_reported":1729328910,"current_range_meters":38400,"station_id":"ce4bhph2rcd13ifvqheg","pricing_plan_id":"cebpf4jnsgd1na2vs0mg"},{"bike_id":"7144411a-8cf2-48bd-8646-7dc3b36adde8","system_id":"levelo_inurba_marseille","lat":43.304197,"lon":5.41289,"is_reserved":false,"is_disabled":false,"rental_uris":{"android":"levelo://app?vid=7144411a-8cf2-48bd-8646-7dc3b36adde8","ios":"levelo://app?vid=7144411a-8cf2-48bd-8646-7dc3b36adde8"},"vehicle_type_id":"4","last_reported":1729328910,"current_range_meters":38800,"station_id":"ce4bhop2rcd13ifvqh8g","pricing_plan_id":"cebpf4jnsgd1na2vs0mg"},{"bike_id":"bdac7045-6822-4f98-8d23-075c35d4893f","system_id":"levelo_inurba_marseille","lat":43.2934,"lon":5.42835,"is_reserved":false,"is_disabled":false,"rental_uris":{"android":"levelo://app?vid=bdac7045-6822-4f98-8d23-075c35d4893f","ios":"levelo://app?vid=bdac7045-6822-4f98-8d23-075c35d4893f"},"vehicle_type_id":"4","last_reported":1729328910,"current_range_meters":6400,"station_id":"","pricing_plan_id":"cebpf4jnsgd1na2vs0mg"},{"bike_id":"93cef3c2-a1f5-4603-8677-295359c4aac8","system_id":"levelo_inurba_marseille","lat":43.28558,"lon":5.38419,"is_reserved":false,"is_disabled":false,"rental_uris":{"android":"levelo://app?vid=93cef3c2-a1f5-4603-8677-295359c4aac8","ios":"levelo://app?vid=93cef3c2-a1f5-4603-8677-295359c4aac8"},"vehicle_type_id":"4","last_reported":1729328910,"current_range_meters":14800,"station_id":"","pricing_plan_id":"cebpf4jnsgd1na2vs0mg"},{"bike_id":"3bc6278c-5fed-496e-80e9-fa6b75228371","system_id":"levelo_inurba_marseille","lat":43.29226,"lon":5.3607,"is_reserved":false,"is_disabled":false,"rental_uris":{"android":"levelo://app?vid=3bc6278c-5fed-496e-80e9-fa6b75228371","ios":"levelo://app?vid=3bc6278c-5fed-496e-80e9-fa6b75228371"},"vehicle_type_id":"4","last_reported":1729328910,"current_range_meters":2800,"station_id":"ce4bhbh2rcd13ifvqeqg","pricing_plan_id":"cebpf4jnsgd1na2vs0mg"},{"bike_id":"2ff1820a-eb05-452f-acde-835ef5a7cd44","system_id":"levelo_inurba_marseille","lat":43.29798,"lon":5.38096,"is_reserved":false,"is_disabled":false,"rental_uris":{"android":"levelo://app?vid=2ff1820a-eb05-452f-acde-835ef5a7cd44","ios":"levelo://app?vid=2ff1820a-eb05-452f-acde-835ef5a7cd44"},"vehicle_type_id":"4","last_reported":1729328910,"current_range_meters":25600,"station_id":"ce4bgip2rcd13ifvqbb0","pricing_plan_id":"cebpf4jnsgd1na2vs0mg"},{"bike_id":"2e940336-4c98-4761-93e9-26237ca9873c","system_id":"levelo_inurba_marseille","lat":43.28615,"lon":5.35102,"is_reserved":false,"is_disabled":false,"rental_uris":{"android":"levelo://app?vid=2e940336-4c98-4761-93e9-26237ca9873c","ios":"levelo://app?vid=2e940336-4c98-4761-93e9-26237ca9873c"},"vehicle_type_id":"4","last_reported":1729328910,"current_range_meters":37600,"station_id":"ce4bhch2rcd13ifvqeug","pricing_plan_id":"cebpf4jnsgd1na2vs0mg"},{"bike_id":"90b73402-bc44-408d-9b3e-fab7aec736a5","system_id":"levelo_inurba_marseille","lat":43.26068,"lon":5.39387,"is_reserved":false,"is_disabled":false,"rental_uris":{"android":"levelo://app?vid=90b73402-bc44-408d-9b3e-fab7aec736a5","ios":"levelo://app?vid=90b73402-bc44-408d-9b3e-fab7aec736a5"},"vehicle_type_id":"4","last_reported":1729328910,"current_range_meters":27600,"station_id":"ce4bhh92rcd13ifvqfj0","pricing_plan_id":"cebpf4jnsgd1na2vs0mg"},{"bike_id":"71da9dc6-dba4-49c4-8067-135146d7a6c9","system_id":"levelo_inurba_marseille","lat":43.24179,"lon":5.39733,"is_reserved":false,"is_disabled":false,"rental_uris":{"android":"levelo://app?vid=71da9dc6-dba4-49c4-8067-135146d7a6c9","ios":"levelo://app?vid=71da9dc6-dba4-49c4-8067-135146d7a6c9"},"vehicle_type_id":"4","last_reported":1729328910,"current_range_meters":38800,"station_id":"ce4bhn12rcd13ifvqgpg","pricing_plan_id":"cebpf4jnsgd1na2vs0mg"},{"bike_id":"663c199c-7d4e-4582-aeb5-96ed61478385","system_id":"levelo_inurba_marseille","lat":43.28938,"lon":5.36637,"is_reserved":false,"is_disabled":false,"rental_uris":{"android":"levelo://app?vid=663c199c-7d4e-4582-aeb5-96ed61478385","ios":"levelo://app?vid=663c199c-7d4e-4582-aeb5-96ed61478385"},"vehicle_type_id":"4","last_reported":1729328910,"current_range_meters":34800,"station_id":"ce4bhap2rcd13ifvqek0","pricing_plan_id":"cebpf4jnsgd1na2vs0mg"},{"bike_id":"7dd06be2-1867-48ab-bb30-27ce85a73d8f","system_id":"levelo_inurba_marseille","lat":43.31176,"lon":5.38727,"is_reserved":false,"is_disabled":false,"rental_uris":{"android":"levelo://app?vid=7dd06be2-1867-48ab-bb30-27ce85a73d8f","ios":"levelo://app?vid=7dd06be2-1867-48ab-bb30-27ce85a73d8f"},"vehicle_type_id":"4","last_reported":1729328910,"current_range_meters":37600,"station_id":"ce4bgv12rcd13ifvqcp0","pricing_plan_id":"cebpf4jnsgd1na2vs0mg"},{"bike_id":"4eb8b16e-d4fe-450a-aff4-caf1c0dbbeba","system_id":"levelo_inurba_marseille","lat":43.25928,"lon":5.40903,"is_reserved":false,"is_disabled":false,"rental_uris":{"android":"levelo://app?vid=4eb8b16e-d4fe-450a-aff4-caf1c0dbbeba","ios":"levelo://app?vid=4eb8b16e-d4fe-450a-aff4-caf1c0dbbeba"},"vehicle_type_id":"4","last_reported":1729328910,"current_range_meters":38800,"station_id":"ce4bhm92rcd13ifvqglg","pricing_plan_id":"cebpf4jnsgd1na2vs0mg"},{"bike_id":"fda4d66c-9898-4d46-a1bb-17cdaf604999","system_id":"levelo_inurba_marseille","lat":43.29274,"lon":5.40125,"is_reserved":false,"is_disabled":false,"rental_uris":{"android":"levelo://app?vid=fda4d66c-9898-4d46-a1bb-17cdaf604999","ios":"levelo://app?vid=fda4d66c-9898-4d46-a1bb-17cdaf604999"},"vehicle_type_id":"4","last_reported":1729328910,"current_range_meters":36400,"station_id":"ce4bh312rcd13ifvqdk0","pricing_plan_id":"cebpf4jnsgd1na2vs0mg"},{"bike_id":"9cc5927a-cf32-4732-80d6-5e3f644208ee","system_id":"levelo_inurba_marseille","lat":43.31076,"lon":5.38343,"is_reserved":false,"is_disabled":false,"rental_uris":{"android":"levelo://app?vid=9cc5927a-cf32-4732-80d6-5e3f644208ee","ios":"levelo://app?vid=9cc5927a-cf32-4732-80d6-5e3f644208ee"},"vehicle_type_id":"4","last_reported":1729328910,"current_range_meters":28800,"station_id":"ce4bgv92rcd13ifvqcr0","pricing_plan_id":"cebpf4jnsgd1na2vs0mg"},{"bike_id":"7a1d7e21-c068-45c0-925b-3b403c5505a1","system_id":"levelo_inurba_marseille","lat":43.25494,"lon":5.37647,"is_reserved":false,"is_disabled":false,"rental_uris":{"android":"levelo://app?vid=7a1d7e21-c068-45c0-925b-3b403c5505a1","ios":"levelo://app?vid=7a1d7e21-c068-45c0-925b-3b403c5505a1"},"vehicle_type_id":"4","last_reported":1729328910,"current_range_meters":38800,"station_id":"ce4bhh12rcd13ifvqff0","pricing_plan_id":"cebpf4jnsgd1na2vs0mg"},{"bike_id":"e70440e8-24a1-43c2-962a-e25778d3dc0d","system_id":"levelo_inurba_marseille","lat":43.29849,"lon":5.36287,"is_reserved":false,"is_disabled":false,"rental_uris":{"android":"levelo://app?vid=e70440e8-24a1-43c2-962a-e25778d3dc0d","ios":"levelo://app?vid=e70440e8-24a1-43c2-962a-e25778d3dc0d"},"vehicle_type_id":"4","last_reported":1729328910,"current_range_meters":33200,"station_id":"ce4bgpp2rcd13ifvqc3g","pricing_plan_id":"cebpf4jnsgd1na2vs0mg"},{"bike_id":"006ddbf4-82cb-41c3-a643-0f3a1c8bb945","system_id":"levelo_inurba_marseille","lat":43.27069,"lon":5.42275,"is_reserved":false,"is_disabled":false,"rental_uris":{"android":"levelo://app?vid=006ddbf4-82cb-41c3-a643-0f3a1c8bb945","ios":"levelo://app?vid=006ddbf4-82cb-41c3-a643-0f3a1c8bb945"},"vehicle_type_id":"4","last_reported":1729328910,"current_range_meters":38800,"station_id":"ce4bhk92rcd13ifvqgb0","pricing_plan_id":"cebpf4jnsgd1na2vs0mg"},{"bike_id":"317d7818-96ed-4b00-a33f-364ecbb090a9","system_id":"levelo_inurba_marseille","lat":43.29841,"lon":5.3627,"is_reserved":false,"is_disabled":false,"rental_uris":{"android":"levelo://app?vid=317d7818-96ed-4b00-a33f-364ecbb090a9","ios":"levelo://app?vid=317d7818-96ed-4b00-a33f-364ecbb090a9"},"vehicle_type_id":"4","last_reported":1729328910,"current_range_meters":35600,"station_id":"ce4bgpp2rcd13ifvqc3g","pricing_plan_id":"cebpf4jnsgd1na2vs0mg"},{"bike_id":"24330e81-0dbf-4ec0-9f82-221bba652cd5","system_id":"levelo_inurba_marseille","lat":43.3045,"lon":5.37904,"is_reserved":false,"is_disabled":false,"rental_uris":{"android":"levelo://app?vid=24330e81-0dbf-4ec0-9f82-221bba652cd5","ios":"levelo://app?vid=24330e81-0dbf-4ec0-9f82-221bba652cd5"},"vehicle_type_id":"4","last_reported":1729328910,"current_range_meters":38000,"station_id":"ce4bgup2rcd13ifvqcn0","pricing_plan_id":"cebpf4jnsgd1na2vs0mg"},{"bike_id":"df4fc022-e520-4ee5-b522-8445786e2ea8","system_id":"levelo_inurba_marseille","lat":43.2957,"lon":5.37522,"is_reserved":false,"is_disabled":false,"rental_uris":{"android":"levelo://app?vid=df4fc022-e520-4ee5-b522-8445786e2ea8","ios":"levelo://app?vid=df4fc022-e520-4ee5-b522-8445786e2ea8"},"vehicle_type_id":"4","last_reported":1729328910,"current_range_meters":30400,"station_id":"ce4bgh92rcd13ifvqb50","pricing_plan_id":"cebpf4jnsgd1na2vs0mg"},{"bike_id":"4f572d22-e88e-4151-a820-a44a36563bd5","system_id":"levelo_inurba_marseille","lat":43.23961,"lon":5.36636,"is_reserved":false,"is_disabled":false,"rental_uris":{"android":"levelo://app?vid=4f572d22-e88e-4151-a820-a44a36563bd5","ios":"levelo://app?vid=4f572d22-e88e-4151-a820-a44a36563bd5"},"vehicle_type_id":"4","last_reported":1729328910,"current_range_meters":22800,"station_id":"ce4bhi12rcd13ifvqfp0","pricing_plan_id":"cebpf4jnsgd1na2vs0mg"},{"bike_id":"9e833968-4b5b-4a32-a96b-8431979de98c","system_id":"levelo_inurba_marseille","lat":43.25727,"lon":5.41102,"is_reserved":false,"is_disabled":false,"rental_uris":{"android":"levelo://app?vid=9e833968-4b5b-4a32-a96b-8431979de98c","ios":"levelo://app?vid=9e833968-4b5b-4a32-a96b-8431979de98c"},"vehicle_type_id":"4","last_reported":1729328910,"current_range_meters":16800,"station_id":"ce4bhkp2rcd13ifvqgd0","pricing_plan_id":"cebpf4jnsgd1na2vs0mg"},{"bike_id":"60bdae86-6faa-43f4-ae5c-ad8ce19c9d34","system_id":"levelo_inurba_marseille","lat":43.29618,"lon":5.37157,"is_reserved":false,"is_disabled":false,"rental_uris":{"android":"levelo://app?vid=60bdae86-6faa-43f4-ae5c-ad8ce19c9d34","ios":"levelo://app?vid=60bdae86-6faa-43f4-ae5c-ad8ce19c9d34"},"vehicle_type_id":"4","last_reported":1729328910,"current_range_meters":23200,"station_id":"ce4bgnh2rcd13ifvqc0g","pricing_plan_id":"cebpf4jnsgd1na2vs0mg"},{"bike_id":"98e11ae7-5de0-441b-ac88-17c14bb1442a","system_id":"levelo_inurba_marseille","lat":43.28943,"lon":5.36636,"is_reserved":false,"is_disabled":false,"rental_uris":{"android":"levelo://app?vid=98e11ae7-5de0-441b-ac88-17c14bb1442a","ios":"levelo://app?vid=98e11ae7-5de0-441b-ac88-17c14bb1442a"},"vehicle_type_id":"4","last_reported":1729328910,"current_range_meters":21600,"station_id":"ce4bhap2rcd13ifvqek0","pricing_plan_id":"cebpf4jnsgd1na2vs0mg"},{"bike_id":"b20b3098-417c-4847-874f-aba68600285c","system_id":"levelo_inurba_marseille","lat":43.28719,"lon":5.36093,"is_reserved":false,"is_disabled":false,"rental_uris":{"android":"levelo://app?vid=b20b3098-417c-4847-874f-aba68600285c","ios":"levelo://app?vid=b20b3098-417c-4847-874f-aba68600285c"},"vehicle_type_id":"4","last_reported":1729328910,"current_range_meters":24400,"station_id":"cki0cbj6b192h4jlfktg","pricing_plan_id":"cebpf4jnsgd1na2vs0mg"},{"bike_id":"874dbab0-2f32-4e5c-a3d5-6bdf980d941d","system_id":"levelo_inurba_marseille","lat":43.28424,"lon":5.34993,"is_reserved":false,"is_disabled":false,"rental_uris":{"android":"levelo://app?vid=874dbab0-2f32-4e5c-a3d5-6bdf980d941d","ios":"levelo://app?vid=874dbab0-2f32-4e5c-a3d5-6bdf980d941d"},"vehicle_type_id":"4","last_reported":1729328910,"current_range_meters":38800,"station_id":"ce4bhbh2rcd13ifvqepg","pricing_plan_id":"cebpf4jnsgd1na2vs0mg"},{"bike_id":"63c779f4-5e78-452e-adcf-fb89700c4c27","system_id":"levelo_inurba_marseille","lat":43.29619,"lon":5.37335,"is_reserved":false,"is_disabled":false,"rental_uris":{"android":"levelo://app?vid=63c779f4-5e78-452e-adcf-fb89700c4c27","ios":"levelo://app?vid=63c779f4-5e78-452e-adcf-fb89700c4c27"},"vehicle_type_id":"4","last_reported":1729328910,"current_range_meters":30800,"station_id":"","pricing_plan_id":"cebpf4jnsgd1na2vs0mg"},{"bike_id":"61a04cb9-be4f-4cf5-b789-0758f7c54444","system_id":"levelo_inurba_marseille","lat":43.23192,"lon":5.35556,"is_reserved":false,"is_disabled":false,"rental_uris":{"android":"levelo://app?vid=61a04cb9-be4f-4cf5-b789-0758f7c54444","ios":"levelo://app?vid=61a04cb9-be4f-4cf5-b789-0758f7c54444"},"vehicle_type_id":"4","last_reported":1729328910,"current_range_meters":19200,"station_id":"ce4bhu92rcd13ifvqi70","pricing_plan_id":"cebpf4jnsgd1na2vs0mg"},{"bike_id":"2d983f7b-9fd2-4d6a-80be-ce5b5f5b3c53","system_id":"levelo_inurba_marseille","lat":43.32344,"lon":5.4062,"is_reserved":false,"is_disabled":false,"rental_uris":{"android":"levelo://app?vid=2d983f7b-9fd2-4d6a-80be-ce5b5f5b3c53","ios":"levelo://app?vid=2d983f7b-9fd2-4d6a-80be-ce5b5f5b3c53"},"vehicle_type_id":"4","last_reported":1729328910,"current_range_meters":2800,"station_id":"ce4bhq92rcd13ifvqhjg","pricing_plan_id":"cebpf4jnsgd1na2vs0mg"},{"bike_id":"0634ef90-49aa-4c52-9de9-22ea66968c5f","system_id":"levelo_inurba_marseille","lat":43.29798,"lon":5.38089,"is_reserved":false,"is_disabled":false,"rental_uris":{"android":"levelo://app?vid=0634ef90-49aa-4c52-9de9-22ea66968c5f","ios":"levelo://app?vid=0634ef90-49aa-4c52-9de9-22ea66968c5f"},"vehicle_type_id":"4","last_reported":1729328910,"current_range_meters":30400,"station_id":"ce4bgip2rcd13ifvqbb0","pricing_plan_id":"cebpf4jnsgd1na2vs0mg"},{"bike_id":"f1416990-b974-4629-a270-e8966cb9e588","system_id":"levelo_inurba_marseille","lat":43.292689,"lon":5.384434,"is_reserved":false,"is_disabled":false,"rental_uris":{"android":"levelo://app?vid=f1416990-b974-4629-a270-e8966cb9e588","ios":"levelo://app?vid=f1416990-b974-4629-a270-e8966cb9e588"},"vehicle_type_id":"4","last_reported":1729328910,"current_range_meters":4800,"station_id":"ce4bh692rcd13ifvqea0","pricing_plan_id":"cebpf4jnsgd1na2vs0mg"},{"bike_id":"fbeb0604-b095-4a0a-93d2-69ac8c381570","system_id":"levelo_inurba_marseille","lat":43.29966,"lon":5.38499,"is_reserved":false,"is_disabled":false,"rental_uris":{"android":"levelo://app?vid=fbeb0604-b095-4a0a-93d2-69ac8c381570","ios":"levelo://app?vid=fbeb0604-b095-4a0a-93d2-69ac8c381570"},"vehicle_type_id":"4","last_reported":1729328910,"current_range_meters":14800,"station_id":"ce4bgj92rcd13ifvqbd0","pricing_plan_id":"cebpf4jnsgd1na2vs0mg"},{"bike_id":"ac0e8923-1675-4a0a-be10-3d027dc097cb","system_id":"levelo_inurba_marseille","lat":43.2439,"lon":5.37046,"is_reserved":false,"is_disabled":false,"rental_uris":{"android":"levelo://app?vid=ac0e8923-1675-4a0a-be10-3d027dc097cb","ios":"levelo://app?vid=ac0e8923-1675-4a0a-be10-3d027dc097cb"},"vehicle_type_id":"4","last_reported":1729328910,"current_range_meters":30800,"station_id":"ce4bhhh2rcd13ifvqfk0","pricing_plan_id":"cebpf4jnsgd1na2vs0mg"},{"bike_id":"c746da30-0175-4c63-8cc4-f4d0284e8127","system_id":"levelo_inurba_marseille","lat":43.23963,"lon":5.36634,"is_reserved":false,"is_disabled":false,"rental_uris":{"android":"levelo://app?vid=c746da30-0175-4c63-8cc4-f4d0284e8127","ios":"levelo://app?vid=c746da30-0175-4c63-8cc4-f4d0284e8127"},"vehicle_type_id":"4","last_reported":1729328910,"current_range_meters":16800,"station_id":"ce4bhi12rcd13ifvqfp0","pricing_plan_id":"cebpf4jnsgd1na2vs0mg"},{"bike_id":"7ec346e0-89a8-413e-8255-9a5ae55053e1","system_id":"levelo_inurba_marseille","lat":43.26939,"lon":5.40259,"is_reserved":false,"is_disabled":false,"rental_uris":{"android":"levelo://app?vid=7ec346e0-89a8-413e-8255-9a5ae55053e1","ios":"levelo://app?vid=7ec346e0-89a8-413e-8255-9a5ae55053e1"},"vehicle_type_id":"4","last_reported":1729328910,"current_range_meters":36400,"station_id":"cjm6bp8fraef2m0cb0m0","pricing_plan_id":"cebpf4jnsgd1na2vs0mg"},{"bike_id":"8e50cd93-7702-4563-8705-23eab3d23f57","system_id":"levelo_inurba_marseille","lat":43.27496,"lon":5.4245,"is_reserved":false,"is_disabled":false,"rental_uris":{"android":"levelo://app?vid=8e50cd93-7702-4563-8705-23eab3d23f57","ios":"levelo://app?vid=8e50cd93-7702-4563-8705-23eab3d23f57"},"vehicle_type_id":"4","last_reported":1729328910,"current_range_meters":29600,"station_id":"ce4bhn92rcd13ifvqgrg","pricing_plan_id":"cebpf4jnsgd1na2vs0mg"},{"bike_id":"7cce239d-e375-4aa8-82e3-ce71acd3ba90","system_id":"levelo_inurba_marseille","lat":43.30135,"lon":5.38789,"is_reserved":false,"is_disabled":false,"rental_uris":{"android":"levelo://app?vid=7cce239d-e375-4aa8-82e3-ce71acd3ba90","ios":"levelo://app?vid=7cce239d-e375-4aa8-82e3-ce71acd3ba90"},"vehicle_type_id":"4","last_reported":1729328910,"current_range_meters":34000,"station_id":"ce4bghh2rcd13ifvqb60","pricing_plan_id":"cebpf4jnsgd1na2vs0mg"},{"bike_id":"172f0ba3-3982-42dc-aea5-85e7fa7c7d75","system_id":"levelo_inurba_marseille","lat":43.307548,"lon":5.381902,"is_reserved":false,"is_disabled":false,"rental_uris":{"android":"levelo://app?vid=172f0ba3-3982-42dc-aea5-85e7fa7c7d75","ios":"levelo://app?vid=172f0ba3-3982-42dc-aea5-85e7fa7c7d75"},"vehicle_type_id":"4","last_reported":1729328910,"current_range_meters":14800,"station_id":"ce4bgt12rcd13ifvqce0","pricing_plan_id":"cebpf4jnsgd1na2vs0mg"},{"bike_id":"4afcc7bb-146f-4578-b35f-5e61e03acd5c","system_id":"levelo_inurba_marseille","lat":43.29565,"lon":5.38234,"is_reserved":false,"is_disabled":false,"rental_uris":{"android":"levelo://app?vid=4afcc7bb-146f-4578-b35f-5e61e03acd5c","ios":"levelo://app?vid=4afcc7bb-146f-4578-b35f-5e61e03acd5c"},"vehicle_type_id":"4","last_reported":1729328910,"current_range_meters":17600,"station_id":"ce4bhnh2rcd13ifvqgtg","pricing_plan_id":"cebpf4jnsgd1na2vs0mg"},{"bike_id":"b6172788-5366-481e-abb1-94d1cb669aec","system_id":"levelo_inurba_marseille","lat":43.29025,"lon":5.38113,"is_reserved":false,"is_disabled":false,"rental_uris":{"android":"levelo://app?vid=b6172788-5366-481e-abb1-94d1cb669aec","ios":"levelo://app?vid=b6172788-5366-481e-abb1-94d1cb669aec"},"vehicle_type_id":"4","last_reported":1729328910,"current_range_meters":2000,"station_id":"ce4bh4p2rcd13ifvqe1g","pricing_plan_id":"cebpf4jnsgd1na2vs0mg"},{"bike_id":"3d0e12df-30a6-4b77-8d69-4bcd2cd2028d","system_id":"levelo_inurba_marseille","lat":43.30951,"lon":5.39033,"is_reserved":false,"is_disabled":false,"rental_uris":{"android":"levelo://app?vid=3d0e12df-30a6-4b77-8d69-4bcd2cd2028d","ios":"levelo://app?vid=3d0e12df-30a6-4b77-8d69-4bcd2cd2028d"},"vehicle_type_id":"4","last_reported":1729328910,"current_range_meters":24000,"station_id":"ce4bgup2rcd13ifvqco0","pricing_plan_id":"cebpf4jnsgd1na2vs0mg"},{"bike_id":"4f8bd11b-a06a-4d2a-bee0-a05a0caa7df3","system_id":"levelo_inurba_marseille","lat":43.23188,"lon":5.39981,"is_reserved":false,"is_disabled":false,"rental_uris":{"android":"levelo://app?vid=4f8bd11b-a06a-4d2a-bee0-a05a0caa7df3","ios":"levelo://app?vid=4f8bd11b-a06a-4d2a-bee0-a05a0caa7df3"},"vehicle_type_id":"4","last_reported":1729328910,"current_range_meters":19200,"station_id":"ce4bhn12rcd13ifvqgqg","pricing_plan_id":"cebpf4jnsgd1na2vs0mg"},{"bike_id":"fc6e513b-da81-4d34-a427-493e42edd768","system_id":"levelo_inurba_marseille","lat":43.29532,"lon":5.39237,"is_reserved":false,"is_disabled":false,"rental_uris":{"android":"levelo://app?vid=fc6e513b-da81-4d34-a427-493e42edd768","ios":"levelo://app?vid=fc6e513b-da81-4d34-a427-493e42edd768"},"vehicle_type_id":"4","last_reported":1729328910,"current_range_meters":22800,"station_id":"","pricing_plan_id":"cebpf4jnsgd1na2vs0mg"},{"bike_id":"ac231a2e-1def-435c-8990-198f2e08ac8d","system_id":"levelo_inurba_marseille","lat":43.23052,"lon":5.35485,"is_reserved":false,"is_disabled":false,"rental_uris":{"android":"levelo://app?vid=ac231a2e-1def-435c-8990-198f2e08ac8d","ios":"levelo://app?vid=ac231a2e-1def-435c-8990-198f2e08ac8d"},"vehicle_type_id":"4","last_reported":1729328910,"current_range_meters":16400,"station_id":"cpo3342slgdg3j2ifvpg","pricing_plan_id":"cebpf4jnsgd1na2vs0mg"},{"bike_id":"40ebc9d1-50dc-4afc-8efd-21a321be95e0","system_id":"levelo_inurba_marseille","lat":43.24662,"lon":5.38162,"is_reserved":false,"is_disabled":false,"rental_uris":{"android":"levelo://app?vid=40ebc9d1-50dc-4afc-8efd-21a321be95e0","ios":"levelo://app?vid=40ebc9d1-50dc-4afc-8efd-21a321be95e0"},"vehicle_type_id":"4","last_reported":1729328910,"current_range_meters":19200,"station_id":"ce4bhih2rcd13ifvqfr0","pricing_plan_id":"cebpf4jnsgd1na2vs0mg"},{"bike_id":"68b4f318-3e09-471b-b94f-4a5e803e6663","system_id":"levelo_inurba_marseille","lat":43.2416,"lon":5.36396,"is_reserved":false,"is_disabled":false,"rental_uris":{"android":"levelo://app?vid=68b4f318-3e09-471b-b94f-4a5e803e6663","ios":"levelo://app?vid=68b4f318-3e09-471b-b94f-4a5e803e6663"},"vehicle_type_id":"4","last_reported":1729328910,"current_range_meters":16800,"station_id":"cpo36qri1sfpv3e86is0","pricing_plan_id":"cebpf4jnsgd1na2vs0mg"},{"bike_id":"356966dc-3843-4dd6-b1ed-f054a38ede93","system_id":"levelo_inurba_marseille","lat":43.28417,"lon":5.34996,"is_reserved":false,"is_disabled":false,"rental_uris":{"android":"levelo://app?vid=356966dc-3843-4dd6-b1ed-f054a38ede93","ios":"levelo://app?vid=356966dc-3843-4dd6-b1ed-f054a38ede93"},"vehicle_type_id":"4","last_reported":1729328910,"current_range_meters":26800,"station_id":"ce4bhbh2rcd13ifvqepg","pricing_plan_id":"cebpf4jnsgd1na2vs0mg"},{"bike_id":"6ed93ebb-5c94-4aaf-b541-6f5ac53c2a76","system_id":"levelo_inurba_marseille","lat":43.29535,"lon":5.37513,"is_reserved":false,"is_disabled":false,"rental_uris":{"android":"levelo://app?vid=6ed93ebb-5c94-4aaf-b541-6f5ac53c2a76","ios":"levelo://app?vid=6ed93ebb-5c94-4aaf-b541-6f5ac53c2a76"},"vehicle_type_id":"4","last_reported":1729328910,"current_range_meters":20000,"station_id":"ce4bgkp2rcd13ifvqbmg","pricing_plan_id":"cebpf4jnsgd1na2vs0mg"},{"bike_id":"bb3396c9-dc53-4287-b8a1-6c7f47be924e","system_id":"levelo_inurba_marseille","lat":43.29978,"lon":5.38492,"is_reserved":false,"is_disabled":false,"rental_uris":{"android":"levelo://app?vid=bb3396c9-dc53-4287-b8a1-6c7f47be924e","ios":"levelo://app?vid=bb3396c9-dc53-4287-b8a1-6c7f47be924e"},"vehicle_type_id":"4","last_reported":1729328910,"current_range_meters":36800,"station_id":"ce4bgj92rcd13ifvqbd0","pricing_plan_id":"cebpf4jnsgd1na2vs0mg"},{"bike_id":"aac282ef-7d0d-4cf6-a738-a10a76319aa8","system_id":"levelo_inurba_marseille","lat":43.25088,"lon":5.3951,"is_reserved":false,"is_disabled":false,"rental_uris":{"android":"levelo://app?vid=aac282ef-7d0d-4cf6-a738-a10a76319aa8","ios":"levelo://app?vid=aac282ef-7d0d-4cf6-a738-a10a76319aa8"},"vehicle_type_id":"4","last_reported":1729328910,"current_range_meters":30000,"station_id":"ce4bhm12rcd13ifvqgkg","pricing_plan_id":"cebpf4jnsgd1na2vs0mg"},{"bike_id":"a0cb4fb3-e0ce-4e83-b306-1f074bb2598b","system_id":"levelo_inurba_marseille","lat":43.24078,"lon":5.37744,"is_reserved":false,"is_disabled":false,"rental_uris":{"android":"levelo://app?vid=a0cb4fb3-e0ce-4e83-b306-1f074bb2598b","ios":"levelo://app?vid=a0cb4fb3-e0ce-4e83-b306-1f074bb2598b"},"vehicle_type_id":"4","last_reported":1729328910,"current_range_meters":19200,"station_id":"ce4bhnp2rcd13ifvqgvg","pricing_plan_id":"cebpf4jnsgd1na2vs0mg"},{"bike_id":"57dd0012-e7c2-43e3-90a1-087125ac63fa","system_id":"levelo_inurba_marseille","lat":43.337577,"lon":5.374704,"is_reserved":false,"is_disabled":false,"rental_uris":{"android":"levelo://app?vid=57dd0012-e7c2-43e3-90a1-087125ac63fa","ios":"levelo://app?vid=57dd0012-e7c2-43e3-90a1-087125ac63fa"},"vehicle_type_id":"4","last_reported":1729328910,"current_range_meters":38800,"station_id":"","pricing_plan_id":"cebpf4jnsgd1na2vs0mg"},{"bike_id":"b214a673-bf42-434f-9eb5-a879c9aa3ec0","system_id":"levelo_inurba_marseille","lat":43.33024,"lon":5.39037,"is_reserved":false,"is_disabled":false,"rental_uris":{"android":"levelo://app?vid=b214a673-bf42-434f-9eb5-a879c9aa3ec0","ios":"levelo://app?vid=b214a673-bf42-434f-9eb5-a879c9aa3ec0"},"vehicle_type_id":"4","last_reported":1729328910,"current_range_meters":36400,"station_id":"ce4bhr92rcd13ifvqhrg","pricing_plan_id":"cebpf4jnsgd1na2vs0mg"},{"bike_id":"7f29c5a5-2d62-43f6-9898-2f261ef74a91","system_id":"levelo_inurba_marseille","lat":43.29907,"lon":5.38136,"is_reserved":false,"is_disabled":false,"rental_uris":{"android":"levelo://app?vid=7f29c5a5-2d62-43f6-9898-2f261ef74a91","ios":"levelo://app?vid=7f29c5a5-2d62-43f6-9898-2f261ef74a91"},"vehicle_type_id":"4","last_reported":1729328910,"current_range_meters":38000,"station_id":"ce4bgj12rcd13ifvqbc0","pricing_plan_id":"cebpf4jnsgd1na2vs0mg"},{"bike_id":"0d2f257f-70ce-46ac-893e-d285286d1802","system_id":"levelo_inurba_marseille","lat":43.23183,"lon":5.39991,"is_reserved":false,"is_disabled":false,"rental_uris":{"android":"levelo://app?vid=0d2f257f-70ce-46ac-893e-d285286d1802","ios":"levelo://app?vid=0d2f257f-70ce-46ac-893e-d285286d1802"},"vehicle_type_id":"4","last_reported":1729328910,"current_range_meters":5600,"station_id":"ce4bhn12rcd13ifvqgqg","pricing_plan_id":"cebpf4jnsgd1na2vs0mg"},{"bike_id":"36b0552e-7531-4250-a96c-d367a414c2dd","system_id":"levelo_inurba_marseille","lat":43.26784,"lon":5.39424,"is_reserved":false,"is_disabled":false,"rental_uris":{"android":"levelo://app?vid=36b0552e-7531-4250-a96c-d367a414c2dd","ios":"levelo://app?vid=36b0552e-7531-4250-a96c-d367a414c2dd"},"vehicle_type_id":"4","last_reported":1729328910,"current_range_meters":26800,"station_id":"ce4bhh12rcd13ifvqfg0","pricing_plan_id":"cebpf4jnsgd1na2vs0mg"},{"bike_id":"3d7546d0-4dba-4212-88c9-dfe9a2032237","system_id":"levelo_inurba_marseille","lat":43.24173,"lon":5.36388,"is_reserved":false,"is_disabled":false,"rental_uris":{"android":"levelo://app?vid=3d7546d0-4dba-4212-88c9-dfe9a2032237","ios":"levelo://app?vid=3d7546d0-4dba-4212-88c9-dfe9a2032237"},"vehicle_type_id":"4","last_reported":1729328910,"current_range_meters":34000,"station_id":"cpo36qri1sfpv3e86is0","pricing_plan_id":"cebpf4jnsgd1na2vs0mg"},{"bike_id":"8ddf8696-489c-4b69-a3c9-c8bcd38c084a","system_id":"levelo_inurba_marseille","lat":43.29577,"lon":5.37516,"is_reserved":false,"is_disabled":false,"rental_uris":{"android":"levelo://app?vid=8ddf8696-489c-4b69-a3c9-c8bcd38c084a","ios":"levelo://app?vid=8ddf8696-489c-4b69-a3c9-c8bcd38c084a"},"vehicle_type_id":"4","last_reported":1729328910,"current_range_meters":26000,"station_id":"ce4bgh92rcd13ifvqb50","pricing_plan_id":"cebpf4jnsgd1na2vs0mg"},{"bike_id":"1ddfad71-8e85-46b3-83a9-5930855c2591","system_id":"levelo_inurba_marseille","lat":43.26213,"lon":5.37442,"is_reserved":false,"is_disabled":false,"rental_uris":{"android":"levelo://app?vid=1ddfad71-8e85-46b3-83a9-5930855c2591","ios":"levelo://app?vid=1ddfad71-8e85-46b3-83a9-5930855c2591"},"vehicle_type_id":"4","last_reported":1729328910,"current_range_meters":18000,"station_id":"ce4bhgp2rcd13ifvqfc0","pricing_plan_id":"cebpf4jnsgd1na2vs0mg"},{"bike_id":"0ebe20e4-e30f-4fde-8fec-362c9b8e23ce","system_id":"levelo_inurba_marseille","lat":43.30599,"lon":5.39352,"is_reserved":false,"is_disabled":false,"rental_uris":{"android":"levelo://app?vid=0ebe20e4-e30f-4fde-8fec-362c9b8e23ce","ios":"levelo://app?vid=0ebe20e4-e30f-4fde-8fec-362c9b8e23ce"},"vehicle_type_id":"4","last_reported":1729328910,"current_range_meters":35200,"station_id":"ce4bh0p2rcd13ifvqd80","pricing_plan_id":"cebpf4jnsgd1na2vs0mg"},{"bike_id":"8b10c252-b32b-40ef-b8da-9d1c9158f577","system_id":"levelo_inurba_marseille","lat":43.26033,"lon":5.37549,"is_reserved":false,"is_disabled":false,"rental_uris":{"android":"levelo://app?vid=8b10c252-b32b-40ef-b8da-9d1c9158f577","ios":"levelo://app?vid=8b10c252-b32b-40ef-b8da-9d1c9158f577"},"vehicle_type_id":"4","last_reported":1729328910,"current_range_meters":38800,"station_id":"ce4bhgh2rcd13ifvqfa0","pricing_plan_id":"cebpf4jnsgd1na2vs0mg"},{"bike_id":"277a5e32-d064-4e85-9518-3bb6336274cd","system_id":"levelo_inurba_marseille","lat":43.30601,"lon":5.39344,"is_reserved":false,"is_disabled":false,"rental_uris":{"android":"levelo://app?vid=277a5e32-d064-4e85-9518-3bb6336274cd","ios":"levelo://app?vid=277a5e32-d064-4e85-9518-3bb6336274cd"},"vehicle_type_id":"4","last_reported":1729328910,"current_range_meters":23200,"station_id":"ce4bh0p2rcd13ifvqd80","pricing_plan_id":"cebpf4jnsgd1na2vs0mg"},{"bike_id":"256a9683-08d9-4a99-a5a1-10e08cbc49ce","system_id":"levelo_inurba_marseille","lat":43.26204,"lon":5.37931,"is_reserved":false,"is_disabled":false,"rental_uris":{"android":"levelo://app?vid=256a9683-08d9-4a99-a5a1-10e08cbc49ce","ios":"levelo://app?vid=256a9683-08d9-4a99-a5a1-10e08cbc49ce"},"vehicle_type_id":"4","last_reported":1729328910,"current_range_meters":38800,"station_id":"ce4bhjp2rcd13ifvqg90","pricing_plan_id":"cebpf4jnsgd1na2vs0mg"},{"bike_id":"32ce68a3-3fc7-4257-974f-ab657619c295","system_id":"levelo_inurba_marseille","lat":43.3375,"lon":5.37472,"is_reserved":false,"is_disabled":false,"rental_uris":{"android":"levelo://app?vid=32ce68a3-3fc7-4257-974f-ab657619c295","ios":"levelo://app?vid=32ce68a3-3fc7-4257-974f-ab657619c295"},"vehicle_type_id":"4","last_reported":1729328910,"current_range_meters":6800,"station_id":"","pricing_plan_id":"cebpf4jnsgd1na2vs0mg"},{"bike_id":"e5dab1ea-a810-41a0-a6cd-403085d8bf13","system_id":"levelo_inurba_marseille","lat":43.27368,"lon":5.36259,"is_reserved":false,"is_disabled":false,"rental_uris":{"android":"levelo://app?vid=e5dab1ea-a810-41a0-a6cd-403085d8bf13","ios":"levelo://app?vid=e5dab1ea-a810-41a0-a6cd-403085d8bf13"},"vehicle_type_id":"4","last_reported":1729328910,"current_range_meters":38800,"station_id":"ce4bhbh2rcd13ifvqeo0","pricing_plan_id":"cebpf4jnsgd1na2vs0mg"},{"bike_id":"eac73970-408a-4b1c-8db9-338860c96d01","system_id":"levelo_inurba_marseille","lat":43.27946,"lon":5.41042,"is_reserved":false,"is_disabled":false,"rental_uris":{"android":"levelo://app?vid=eac73970-408a-4b1c-8db9-338860c96d01","ios":"levelo://app?vid=eac73970-408a-4b1c-8db9-338860c96d01"},"vehicle_type_id":"4","last_reported":1729328910,"current_range_meters":27600,"station_id":"ce4bhnp2rcd13ifvqh0g","pricing_plan_id":"cebpf4jnsgd1na2vs0mg"},{"bike_id":"d9a3be15-ed73-4a60-b72b-fc75c3c4e4a3","system_id":"levelo_inurba_marseille","lat":43.29276,"lon":5.40125,"is_reserved":false,"is_disabled":false,"rental_uris":{"android":"levelo://app?vid=d9a3be15-ed73-4a60-b72b-fc75c3c4e4a3","ios":"levelo://app?vid=d9a3be15-ed73-4a60-b72b-fc75c3c4e4a3"},"vehicle_type_id":"4","last_reported":1729328910,"current_range_meters":29600,"station_id":"ce4bh312rcd13ifvqdk0","pricing_plan_id":"cebpf4jnsgd1na2vs0mg"},{"bike_id":"4551da91-9047-4e2c-914a-e966fe6e75b7","system_id":"levelo_inurba_marseille","lat":43.2991,"lon":5.37475,"is_reserved":false,"is_disabled":false,"rental_uris":{"android":"levelo://app?vid=4551da91-9047-4e2c-914a-e966fe6e75b7","ios":"levelo://app?vid=4551da91-9047-4e2c-914a-e966fe6e75b7"},"vehicle_type_id":"4","last_reported":1729328910,"current_range_meters":28400,"station_id":"ce4bgjh2rcd13ifvqbg0","pricing_plan_id":"cebpf4jnsgd1na2vs0mg"},{"bike_id":"b64362e2-b043-4f67-8e42-f68524e828ed","system_id":"levelo_inurba_marseille","lat":43.24175,"lon":5.39707,"is_reserved":false,"is_disabled":false,"rental_uris":{"android":"levelo://app?vid=b64362e2-b043-4f67-8e42-f68524e828ed","ios":"levelo://app?vid=b64362e2-b043-4f67-8e42-f68524e828ed"},"vehicle_type_id":"4","last_reported":1729328910,"current_range_meters":20800,"station_id":"ce4bhn12rcd13ifvqgpg","pricing_plan_id":"cebpf4jnsgd1na2vs0mg"},{"bike_id":"e7c2d711-63a4-4bdc-8b13-08b58cf06955","system_id":"levelo_inurba_marseille","lat":43.30127,"lon":5.38795,"is_reserved":false,"is_disabled":false,"rental_uris":{"android":"levelo://app?vid=e7c2d711-63a4-4bdc-8b13-08b58cf06955","ios":"levelo://app?vid=e7c2d711-63a4-4bdc-8b13-08b58cf06955"},"vehicle_type_id":"4","last_reported":1729328910,"current_range_meters":36400,"station_id":"ce4bghh2rcd13ifvqb60","pricing_plan_id":"cebpf4jnsgd1na2vs0mg"},{"bike_id":"2b7e53e0-d15f-4b12-8c67-08178f85d596","system_id":"levelo_inurba_marseille","lat":43.2587,"lon":5.39895,"is_reserved":false,"is_disabled":false,"rental_uris":{"android":"levelo://app?vid=2b7e53e0-d15f-4b12-8c67-08178f85d596","ios":"levelo://app?vid=2b7e53e0-d15f-4b12-8c67-08178f85d596"},"vehicle_type_id":"4","last_reported":1729328910,"current_range_meters":22000,"station_id":"ce4bhl92rcd13ifvqghg","pricing_plan_id":"cebpf4jnsgd1na2vs0mg"},{"bike_id":"dfb160c5-111e-4fc3-88c2-fba8af64107f","system_id":"levelo_inurba_marseille","lat":43.3234,"lon":5.40617,"is_reserved":false,"is_disabled":false,"rental_uris":{"android":"levelo://app?vid=dfb160c5-111e-4fc3-88c2-fba8af64107f","ios":"levelo://app?vid=dfb160c5-111e-4fc3-88c2-fba8af64107f"},"vehicle_type_id":"4","last_reported":1729328910,"current_range_meters":38000,"station_id":"ce4bhq92rcd13ifvqhjg","pricing_plan_id":"cebpf4jnsgd1na2vs0mg"},{"bike_id":"23fa8da6-0851-4bea-b953-0aa2a1e640d2","system_id":"levelo_inurba_marseille","lat":43.27496,"lon":5.42447,"is_reserved":false,"is_disabled":false,"rental_uris":{"android":"levelo://app?vid=23fa8da6-0851-4bea-b953-0aa2a1e640d2","ios":"levelo://app?vid=23fa8da6-0851-4bea-b953-0aa2a1e640d2"},"vehicle_type_id":"4","last_reported":1729328910,"current_range_meters":38800,"station_id":"ce4bhn92rcd13ifvqgrg","pricing_plan_id":"cebpf4jnsgd1na2vs0mg"},{"bike_id":"c972ad42-23b3-4d9b-b580-5f60adf02730","system_id":"levelo_inurba_marseille","lat":43.27484,"lon":5.4245,"is_reserved":false,"is_disabled":false,"rental_uris":{"android":"levelo://app?vid=c972ad42-23b3-4d9b-b580-5f60adf02730","ios":"levelo://app?vid=c972ad42-23b3-4d9b-b580-5f60adf02730"},"vehicle_type_id":"4","last_reported":1729328910,"current_range_meters":38800,"station_id":"ce4bhn92rcd13ifvqgrg","pricing_plan_id":"cebpf4jnsgd1na2vs0mg"},{"bike_id":"ddd62ba3-c050-46d2-a8ed-02c4b983589b","system_id":"levelo_inurba_marseille","lat":43.32481,"lon":5.36571,"is_reserved":false,"is_disabled":false,"rental_uris":{"android":"levelo://app?vid=ddd62ba3-c050-46d2-a8ed-02c4b983589b","ios":"levelo://app?vid=ddd62ba3-c050-46d2-a8ed-02c4b983589b"},"vehicle_type_id":"4","last_reported":1729328910,"current_range_meters":28000,"station_id":"ce4bhs12rcd13ifvqhvg","pricing_plan_id":"cebpf4jnsgd1na2vs0mg"},{"bike_id":"51e90e23-8220-416f-b8f1-cd6abd942130","system_id":"levelo_inurba_marseille","lat":43.27813,"lon":5.40709,"is_reserved":false,"is_disabled":false,"rental_uris":{"android":"levelo://app?vid=51e90e23-8220-416f-b8f1-cd6abd942130","ios":"levelo://app?vid=51e90e23-8220-416f-b8f1-cd6abd942130"},"vehicle_type_id":"4","last_reported":1729328910,"current_range_meters":28400,"station_id":"ce4bhnh2rcd13ifvqgtg","pricing_plan_id":"cebpf4jnsgd1na2vs0mg"},{"bike_id":"fd2c0a95-0b78-4503-9fca-2ff05c0f8b5d","system_id":"levelo_inurba_marseille","lat":43.28614,"lon":5.35107,"is_reserved":false,"is_disabled":false,"rental_uris":{"android":"levelo://app?vid=fd2c0a95-0b78-4503-9fca-2ff05c0f8b5d","ios":"levelo://app?vid=fd2c0a95-0b78-4503-9fca-2ff05c0f8b5d"},"vehicle_type_id":"4","last_reported":1729328910,"current_range_meters":33600,"station_id":"ce4bhch2rcd13ifvqeug","pricing_plan_id":"cebpf4jnsgd1na2vs0mg"},{"bike_id":"8429a31c-77f3-41b6-b710-38d8ca6d27dc","system_id":"levelo_inurba_marseille","lat":43.2508,"lon":5.39514,"is_reserved":false,"is_disabled":false,"rental_uris":{"android":"levelo://app?vid=8429a31c-77f3-41b6-b710-38d8ca6d27dc","ios":"levelo://app?vid=8429a31c-77f3-41b6-b710-38d8ca6d27dc"},"vehicle_type_id":"4","last_reported":1729328910,"current_range_meters":39200,"station_id":"ce4bhm12rcd13ifvqgkg","pricing_plan_id":"cebpf4jnsgd1na2vs0mg"},{"bike_id":"4f94314d-554d-4b81-81cd-caabab63ed34","system_id":"levelo_inurba_marseille","lat":43.29266,"lon":5.36842,"is_reserved":false,"is_disabled":false,"rental_uris":{"android":"levelo://app?vid=4f94314d-554d-4b81-81cd-caabab63ed34","ios":"levelo://app?vid=4f94314d-554d-4b81-81cd-caabab63ed34"},"vehicle_type_id":"4","last_reported":1729328910,"current_range_meters":24800,"station_id":"ce4bhbp2rcd13ifvqesg","pricing_plan_id":"cebpf4jnsgd1na2vs0mg"},{"bike_id":"18361c49-bdac-4926-a222-92101c5ffc08","system_id":"levelo_inurba_marseille","lat":43.3248,"lon":5.36563,"is_reserved":false,"is_disabled":false,"rental_uris":{"android":"levelo://app?vid=18361c49-bdac-4926-a222-92101c5ffc08","ios":"levelo://app?vid=18361c49-bdac-4926-a222-92101c5ffc08"},"vehicle_type_id":"4","last_reported":1729328910,"current_range_meters":32800,"station_id":"ce4bhs12rcd13ifvqhvg","pricing_plan_id":"cebpf4jnsgd1na2vs0mg"},{"bike_id":"6bb0cb21-18e6-4116-b581-333c6c0cffcc","system_id":"levelo_inurba_marseille","lat":43.30589,"lon":5.39332,"is_reserved":false,"is_disabled":false,"rental_uris":{"android":"levelo://app?vid=6bb0cb21-18e6-4116-b581-333c6c0cffcc","ios":"levelo://app?vid=6bb0cb21-18e6-4116-b581-333c6c0cffcc"},"vehicle_type_id":"4","last_reported":1729328910,"current_range_meters":5600,"station_id":"ce4bh0p2rcd13ifvqd80","pricing_plan_id":"cebpf4jnsgd1na2vs0mg"},{"bike_id":"1240179a-5f79-4577-a91a-2c23df31c888","system_id":"levelo_inurba_marseille","lat":43.24388,"lon":5.37061,"is_reserved":false,"is_disabled":false,"rental_uris":{"android":"levelo://app?vid=1240179a-5f79-4577-a91a-2c23df31c888","ios":"levelo://app?vid=1240179a-5f79-4577-a91a-2c23df31c888"},"vehicle_type_id":"4","last_reported":1729328910,"current_range_meters":34800,"station_id":"ce4bhhh2rcd13ifvqfk0","pricing_plan_id":"cebpf4jnsgd1na2vs0mg"},{"bike_id":"cfe78fd2-5ebc-40fb-858b-89aa9fc29771","system_id":"levelo_inurba_marseille","lat":43.29413,"lon":5.37803,"is_reserved":false,"is_disabled":false,"rental_uris":{"android":"levelo://app?vid=cfe78fd2-5ebc-40fb-858b-89aa9fc29771","ios":"levelo://app?vid=cfe78fd2-5ebc-40fb-858b-89aa9fc29771"},"vehicle_type_id":"4","last_reported":1729328910,"current_range_meters":20400,"station_id":"","pricing_plan_id":"cebpf4jnsgd1na2vs0mg"},{"bike_id":"8dc52e10-4afe-44ef-9d36-30b446d3b3e7","system_id":"levelo_inurba_marseille","lat":43.27057,"lon":5.40257,"is_reserved":false,"is_disabled":false,"rental_uris":{"android":"levelo://app?vid=8dc52e10-4afe-44ef-9d36-30b446d3b3e7","ios":"levelo://app?vid=8dc52e10-4afe-44ef-9d36-30b446d3b3e7"},"vehicle_type_id":"4","last_reported":1729328910,"current_range_meters":35200,"station_id":"ce4bhk92rcd13ifvqgc0","pricing_plan_id":"cebpf4jnsgd1na2vs0mg"},{"bike_id":"38bb604a-fc5a-4d07-a0bc-1a4d2b929469","system_id":"levelo_inurba_marseille","lat":43.29019,"lon":5.38122,"is_reserved":false,"is_disabled":false,"rental_uris":{"android":"levelo://app?vid=38bb604a-fc5a-4d07-a0bc-1a4d2b929469","ios":"levelo://app?vid=38bb604a-fc5a-4d07-a0bc-1a4d2b929469"},"vehicle_type_id":"4","last_reported":1729328910,"current_range_meters":23200,"station_id":"ce4bh4p2rcd13ifvqe1g","pricing_plan_id":"cebpf4jnsgd1na2vs0mg"},{"bike_id":"c6c4a671-91fd-4365-aea1-dec0c78381e6","system_id":"levelo_inurba_marseille","lat":43.29705,"lon":5.37707,"is_reserved":false,"is_disabled":false,"rental_uris":{"android":"levelo://app?vid=c6c4a671-91fd-4365-aea1-dec0c78381e6","ios":"levelo://app?vid=c6c4a671-91fd-4365-aea1-dec0c78381e6"},"vehicle_type_id":"4","last_reported":1729328910,"current_range_meters":24000,"station_id":"ce4bgkh2rcd13ifvqbl0","pricing_plan_id":"cebpf4jnsgd1na2vs0mg"},{"bike_id":"73fcf64d-3e05-4a72-ba2b-f160a89a05f3","system_id":"levelo_inurba_marseille","lat":43.27314,"lon":5.39079,"is_reserved":false,"is_disabled":false,"rental_uris":{"android":"levelo://app?vid=73fcf64d-3e05-4a72-ba2b-f160a89a05f3","ios":"levelo://app?vid=73fcf64d-3e05-4a72-ba2b-f160a89a05f3"},"vehicle_type_id":"4","last_reported":1729328910,"current_range_meters":27600,"station_id":"ce4bhgp2rcd13ifvqfe0","pricing_plan_id":"cebpf4jnsgd1na2vs0mg"},{"bike_id":"95f1e246-49e5-46e5-a1b7-4abb3963bd38","system_id":"levelo_inurba_marseille","lat":43.29847,"lon":5.36279,"is_reserved":false,"is_disabled":false,"rental_uris":{"android":"levelo://app?vid=95f1e246-49e5-46e5-a1b7-4abb3963bd38","ios":"levelo://app?vid=95f1e246-49e5-46e5-a1b7-4abb3963bd38"},"vehicle_type_id":"4","last_reported":1729328910,"current_range_meters":8400,"station_id":"ce4bgpp2rcd13ifvqc3g","pricing_plan_id":"cebpf4jnsgd1na2vs0mg"},{"bike_id":"f913b623-4220-40e1-8454-090b6dbf94ea","system_id":"levelo_inurba_marseille","lat":43.26212,"lon":5.37443,"is_reserved":false,"is_disabled":false,"rental_uris":{"android":"levelo://app?vid=f913b623-4220-40e1-8454-090b6dbf94ea","ios":"levelo://app?vid=f913b623-4220-40e1-8454-090b6dbf94ea"},"vehicle_type_id":"4","last_reported":1729328910,"current_range_meters":24800,"station_id":"ce4bhgp2rcd13ifvqfc0","pricing_plan_id":"cebpf4jnsgd1na2vs0mg"},{"bike_id":"38d67d90-2d95-4f6e-9a9f-a5ffab1fba2c","system_id":"levelo_inurba_marseille","lat":43.29899,"lon":5.43664,"is_reserved":false,"is_disabled":false,"rental_uris":{"android":"levelo://app?vid=38d67d90-2d95-4f6e-9a9f-a5ffab1fba2c","ios":"levelo://app?vid=38d67d90-2d95-4f6e-9a9f-a5ffab1fba2c"},"vehicle_type_id":"4","last_reported":1729328910,"current_range_meters":23200,"station_id":"ce4bhpp2rcd13ifvqhfg","pricing_plan_id":"cebpf4jnsgd1na2vs0mg"},{"bike_id":"7c0319e6-ac57-4bdf-b077-513d80357757","system_id":"levelo_inurba_marseille","lat":43.28851,"lon":5.35855,"is_reserved":false,"is_disabled":false,"rental_uris":{"android":"levelo://app?vid=7c0319e6-ac57-4bdf-b077-513d80357757","ios":"levelo://app?vid=7c0319e6-ac57-4bdf-b077-513d80357757"},"vehicle_type_id":"4","last_reported":1729328910,"current_range_meters":38400,"station_id":"ce4bhb12rcd13ifvqem0","pricing_plan_id":"cebpf4jnsgd1na2vs0mg"},{"bike_id":"2040efa0-0548-4a8f-bbe0-49df48ca8d0d","system_id":"levelo_inurba_marseille","lat":43.31714,"lon":5.37746,"is_reserved":false,"is_disabled":false,"rental_uris":{"android":"levelo://app?vid=2040efa0-0548-4a8f-bbe0-49df48ca8d0d","ios":"levelo://app?vid=2040efa0-0548-4a8f-bbe0-49df48ca8d0d"},"vehicle_type_id":"4","last_reported":1729328910,"current_range_meters":9600,"station_id":"ce4bgth2rcd13ifvqch0","pricing_plan_id":"cebpf4jnsgd1na2vs0mg"},{"bike_id":"d8b6aae6-0385-4b47-8ef5-41883b3602da","system_id":"levelo_inurba_marseille","lat":43.27379,"lon":5.36239,"is_reserved":false,"is_disabled":false,"rental_uris":{"android":"levelo://app?vid=d8b6aae6-0385-4b47-8ef5-41883b3602da","ios":"levelo://app?vid=d8b6aae6-0385-4b47-8ef5-41883b3602da"},"vehicle_type_id":"4","last_reported":1729328910,"current_range_meters":22800,"station_id":"ce4bhbh2rcd13ifvqeo0","pricing_plan_id":"cebpf4jnsgd1na2vs0mg"},{"bike_id":"19f4c8bd-9374-42c0-b27b-7228ffdf8e80","system_id":"levelo_inurba_marseille","lat":43.2842,"lon":5.34986,"is_reserved":false,"is_disabled":false,"rental_uris":{"android":"levelo://app?vid=19f4c8bd-9374-42c0-b27b-7228ffdf8e80","ios":"levelo://app?vid=19f4c8bd-9374-42c0-b27b-7228ffdf8e80"},"vehicle_type_id":"4","last_reported":1729328910,"current_range_meters":36400,"station_id":"ce4bhbh2rcd13ifvqepg","pricing_plan_id":"cebpf4jnsgd1na2vs0mg"},{"bike_id":"d41d6248-2a98-4bfa-b8a8-697f7c877225","system_id":"levelo_inurba_marseille","lat":43.2861,"lon":5.37061,"is_reserved":false,"is_disabled":false,"rental_uris":{"android":"levelo://app?vid=d41d6248-2a98-4bfa-b8a8-697f7c877225","ios":"levelo://app?vid=d41d6248-2a98-4bfa-b8a8-697f7c877225"},"vehicle_type_id":"4","last_reported":1729328910,"current_range_meters":38800,"station_id":"ce4bht12rcd13ifvqi60","pricing_plan_id":"cebpf4jnsgd1na2vs0mg"},{"bike_id":"0994d7f0-fa2e-480f-b967-2b1e1b476b78","system_id":"levelo_inurba_marseille","lat":43.23187,"lon":5.35561,"is_reserved":false,"is_disabled":false,"rental_uris":{"android":"levelo://app?vid=0994d7f0-fa2e-480f-b967-2b1e1b476b78","ios":"levelo://app?vid=0994d7f0-fa2e-480f-b967-2b1e1b476b78"},"vehicle_type_id":"4","last_reported":1729328910,"current_range_meters":3600,"station_id":"ce4bhu92rcd13ifvqi70","pricing_plan_id":"cebpf4jnsgd1na2vs0mg"},{"bike_id":"e6789174-ca29-4f3e-b4c1-26a6f6f7478b","system_id":"levelo_inurba_marseille","lat":43.2572,"lon":5.41114,"is_reserved":false,"is_disabled":false,"rental_uris":{"android":"levelo://app?vid=e6789174-ca29-4f3e-b4c1-26a6f6f7478b","ios":"levelo://app?vid=e6789174-ca29-4f3e-b4c1-26a6f6f7478b"},"vehicle_type_id":"4","last_reported":1729328910,"current_range_meters":38800,"station_id":"ce4bhkp2rcd13ifvqgd0","pricing_plan_id":"cebpf4jnsgd1na2vs0mg"},{"bike_id":"41352ecd-ccf7-4501-b52c-c09f6f495c10","system_id":"levelo_inurba_marseille","lat":43.27177,"lon":5.40983,"is_reserved":false,"is_disabled":false,"rental_uris":{"android":"levelo://app?vid=41352ecd-ccf7-4501-b52c-c09f6f495c10","ios":"levelo://app?vid=41352ecd-ccf7-4501-b52c-c09f6f495c10"},"vehicle_type_id":"4","last_reported":1729328910,"current_range_meters":38800,"station_id":"ce4bhl12rcd13ifvqgf0","pricing_plan_id":"cebpf4jnsgd1na2vs0mg"},{"bike_id":"6c4fa6b2-3668-41d9-8d99-b5f252997454","system_id":"levelo_inurba_marseille","lat":43.279449,"lon":5.387124,"is_reserved":false,"is_disabled":false,"rental_uris":{"android":"levelo://app?vid=6c4fa6b2-3668-41d9-8d99-b5f252997454","ios":"levelo://app?vid=6c4fa6b2-3668-41d9-8d99-b5f252997454"},"vehicle_type_id":"4","last_reported":1729328910,"current_range_meters":36400,"station_id":"ce4bhdp2rcd13ifvqf20","pricing_plan_id":"cebpf4jnsgd1na2vs0mg"},{"bike_id":"e248f4df-d40d-498f-a81f-a6f876dba040","system_id":"levelo_inurba_marseille","lat":43.27826,"lon":5.40711,"is_reserved":false,"is_disabled":false,"rental_uris":{"android":"levelo://app?vid=e248f4df-d40d-498f-a81f-a6f876dba040","ios":"levelo://app?vid=e248f4df-d40d-498f-a81f-a6f876dba040"},"vehicle_type_id":"4","last_reported":1729328910,"current_range_meters":27600,"station_id":"ce4bhnh2rcd13ifvqgtg","pricing_plan_id":"cebpf4jnsgd1na2vs0mg"},{"bike_id":"a9490f9b-0d10-41a2-9426-eca79cef4fc3","system_id":"levelo_inurba_marseille","lat":43.32291,"lon":5.38263,"is_reserved":false,"is_disabled":false,"rental_uris":{"android":"levelo://app?vid=a9490f9b-0d10-41a2-9426-eca79cef4fc3","ios":"levelo://app?vid=a9490f9b-0d10-41a2-9426-eca79cef4fc3"},"vehicle_type_id":"4","last_reported":1729328910,"current_range_meters":22400,"station_id":"ce4bhr12rcd13ifvqhqg","pricing_plan_id":"cebpf4jnsgd1na2vs0mg"},{"bike_id":"47b0677d-f1ea-44b9-ad27-95f55e4f3816","system_id":"levelo_inurba_marseille","lat":43.23964,"lon":5.36633,"is_reserved":false,"is_disabled":false,"rental_uris":{"android":"levelo://app?vid=47b0677d-f1ea-44b9-ad27-95f55e4f3816","ios":"levelo://app?vid=47b0677d-f1ea-44b9-ad27-95f55e4f3816"},"vehicle_type_id":"4","last_reported":1729328910,"current_range_meters":38800,"station_id":"ce4bhi12rcd13ifvqfp0","pricing_plan_id":"cebpf4jnsgd1na2vs0mg"},{"bike_id":"c345ae1c-1278-471e-9252-ef055a1478f1","system_id":"levelo_inurba_marseille","lat":43.29227,"lon":5.36057,"is_reserved":false,"is_disabled":false,"rental_uris":{"android":"levelo://app?vid=c345ae1c-1278-471e-9252-ef055a1478f1","ios":"levelo://app?vid=c345ae1c-1278-471e-9252-ef055a1478f1"},"vehicle_type_id":"4","last_reported":1729328910,"current_range_meters":36800,"station_id":"ce4bhbh2rcd13ifvqeqg","pricing_plan_id":"cebpf4jnsgd1na2vs0mg"},{"bike_id":"87b27491-5215-4140-9db2-06195f6f5368","system_id":"levelo_inurba_marseille","lat":43.28463,"lon":5.35887,"is_reserved":false,"is_disabled":false,"rental_uris":{"android":"levelo://app?vid=87b27491-5215-4140-9db2-06195f6f5368","ios":"levelo://app?vid=87b27491-5215-4140-9db2-06195f6f5368"},"vehicle_type_id":"4","last_reported":1729328910,"current_range_meters":38400,"station_id":"ce4bhah2rcd13ifvqei0","pricing_plan_id":"cebpf4jnsgd1na2vs0mg"},{"bike_id":"8e51a74e-fd45-4aab-80de-8a95db523984","system_id":"levelo_inurba_marseille","lat":43.2439,"lon":5.37047,"is_reserved":false,"is_disabled":false,"rental_uris":{"android":"levelo://app?vid=8e51a74e-fd45-4aab-80de-8a95db523984","ios":"levelo://app?vid=8e51a74e-fd45-4aab-80de-8a95db523984"},"vehicle_type_id":"4","last_reported":1729328910,"current_range_meters":32000,"station_id":"ce4bhhh2rcd13ifvqfk0","pricing_plan_id":"cebpf4jnsgd1na2vs0mg"},{"bike_id":"9ece7319-f410-4a1c-869b-c313ba0a907f","system_id":"levelo_inurba_marseille","lat":43.336051,"lon":5.410382,"is_reserved":false,"is_disabled":false,"rental_uris":{"android":"levelo://app?vid=9ece7319-f410-4a1c-869b-c313ba0a907f","ios":"levelo://app?vid=9ece7319-f410-4a1c-869b-c313ba0a907f"},"vehicle_type_id":"4","last_reported":1729328910,"current_range_meters":38800,"station_id":"ce4bhqh2rcd13ifvqhmg","pricing_plan_id":"cebpf4jnsgd1na2vs0mg"},{"bike_id":"907d90e2-7e08-4846-bbc2-01977b54a9bd","system_id":"levelo_inurba_marseille","lat":43.24165,"lon":5.36395,"is_reserved":false,"is_disabled":false,"rental_uris":{"android":"levelo://app?vid=907d90e2-7e08-4846-bbc2-01977b54a9bd","ios":"levelo://app?vid=907d90e2-7e08-4846-bbc2-01977b54a9bd"},"vehicle_type_id":"4","last_reported":1729328910,"current_range_meters":14000,"station_id":"cpo36qri1sfpv3e86is0","pricing_plan_id":"cebpf4jnsgd1na2vs0mg"},{"bike_id":"48836f4d-12e6-41c1-a5c7-c5ab40f084cd","system_id":"levelo_inurba_marseille","lat":43.25583,"lon":5.38231,"is_reserved":false,"is_disabled":false,"rental_uris":{"android":"levelo://app?vid=48836f4d-12e6-41c1-a5c7-c5ab40f084cd","ios":"levelo://app?vid=48836f4d-12e6-41c1-a5c7-c5ab40f084cd"},"vehicle_type_id":"4","last_reported":1729328910,"current_range_meters":38800,"station_id":"ce4bhih2rcd13ifvqfs0","pricing_plan_id":"cebpf4jnsgd1na2vs0mg"},{"bike_id":"eb6d1ebd-084f-4340-b44b-2c28d5719fea","system_id":"levelo_inurba_marseille","lat":43.323418,"lon":5.406147,"is_reserved":false,"is_disabled":false,"rental_uris":{"android":"levelo://app?vid=eb6d1ebd-084f-4340-b44b-2c28d5719fea","ios":"levelo://app?vid=eb6d1ebd-084f-4340-b44b-2c28d5719fea"},"vehicle_type_id":"4","last_reported":1729328910,"current_range_meters":14000,"station_id":"ce4bhq92rcd13ifvqhjg","pricing_plan_id":"cebpf4jnsgd1na2vs0mg"},{"bike_id":"98cad050-14af-4056-a7e8-4f4e519efd8d","system_id":"levelo_inurba_marseille","lat":43.28459,"lon":5.35874,"is_reserved":false,"is_disabled":false,"rental_uris":{"android":"levelo://app?vid=98cad050-14af-4056-a7e8-4f4e519efd8d","ios":"levelo://app?vid=98cad050-14af-4056-a7e8-4f4e519efd8d"},"vehicle_type_id":"4","last_reported":1729328910,"current_range_meters":11200,"station_id":"ce4bhah2rcd13ifvqei0","pricing_plan_id":"cebpf4jnsgd1na2vs0mg"},{"bike_id":"20cff381-282c-4144-a576-f527d583b098","system_id":"levelo_inurba_marseille","lat":43.30602,"lon":5.37236,"is_reserved":false,"is_disabled":false,"rental_uris":{"android":"levelo://app?vid=20cff381-282c-4144-a576-f527d583b098","ios":"levelo://app?vid=20cff381-282c-4144-a576-f527d583b098"},"vehicle_type_id":"4","last_reported":1729328910,"current_range_meters":25600,"station_id":"ce4bgqh2rcd13ifvqc4g","pricing_plan_id":"cebpf4jnsgd1na2vs0mg"},{"bike_id":"85e08f44-59dd-496e-9e3c-be34ae3f37bc","system_id":"levelo_inurba_marseille","lat":43.295929,"lon":5.368712,"is_reserved":false,"is_disabled":false,"rental_uris":{"android":"levelo://app?vid=85e08f44-59dd-496e-9e3c-be34ae3f37bc","ios":"levelo://app?vid=85e08f44-59dd-496e-9e3c-be34ae3f37bc"},"vehicle_type_id":"4","last_reported":1729328910,"current_range_meters":25200,"station_id":"ce4bgph2rcd13ifvqc2g","pricing_plan_id":"cebpf4jnsgd1na2vs0mg"},{"bike_id":"807314c7-de27-4bec-ba83-d8bcf18600f3","system_id":"levelo_inurba_marseille","lat":43.29974,"lon":5.3849,"is_reserved":false,"is_disabled":false,"rental_uris":{"android":"levelo://app?vid=807314c7-de27-4bec-ba83-d8bcf18600f3","ios":"levelo://app?vid=807314c7-de27-4bec-ba83-d8bcf18600f3"},"vehicle_type_id":"4","last_reported":1729328910,"current_range_meters":36800,"station_id":"ce4bgj92rcd13ifvqbd0","pricing_plan_id":"cebpf4jnsgd1na2vs0mg"},{"bike_id":"0167c4d5-0623-4589-a1db-4651577b3943","system_id":"levelo_inurba_marseille","lat":43.27209,"lon":5.39173,"is_reserved":false,"is_disabled":false,"rental_uris":{"android":"levelo://app?vid=0167c4d5-0623-4589-a1db-4651577b3943","ios":"levelo://app?vid=0167c4d5-0623-4589-a1db-4651577b3943"},"vehicle_type_id":"4","last_reported":1729328910,"current_range_meters":27600,"station_id":"ce4bhhp2rcd13ifvqfm0","pricing_plan_id":"cebpf4jnsgd1na2vs0mg"},{"bike_id":"bd37e8a0-e881-48d0-8bf0-c4e0af2752fe","system_id":"levelo_inurba_marseille","lat":43.23196,"lon":5.35552,"is_reserved":false,"is_disabled":false,"rental_uris":{"android":"levelo://app?vid=bd37e8a0-e881-48d0-8bf0-c4e0af2752fe","ios":"levelo://app?vid=bd37e8a0-e881-48d0-8bf0-c4e0af2752fe"},"vehicle_type_id":"4","last_reported":1729328910,"current_range_meters":25600,"station_id":"ce4bhu92rcd13ifvqi70","pricing_plan_id":"cebpf4jnsgd1na2vs0mg"},{"bike_id":"9b697ce4-04b2-4aeb-ad1d-d9c602b75937","system_id":"levelo_inurba_marseille","lat":43.31701,"lon":5.37781,"is_reserved":false,"is_disabled":false,"rental_uris":{"android":"levelo://app?vid=9b697ce4-04b2-4aeb-ad1d-d9c602b75937","ios":"levelo://app?vid=9b697ce4-04b2-4aeb-ad1d-d9c602b75937"},"vehicle_type_id":"4","last_reported":1729328910,"current_range_meters":39200,"station_id":"ce4bgth2rcd13ifvqch0","pricing_plan_id":"cebpf4jnsgd1na2vs0mg"},{"bike_id":"303c5781-0f21-4611-adf5-7f4bb5463f9c","system_id":"levelo_inurba_marseille","lat":43.26561,"lon":5.37284,"is_reserved":false,"is_disabled":false,"rental_uris":{"android":"levelo://app?vid=303c5781-0f21-4611-adf5-7f4bb5463f9c","ios":"levelo://app?vid=303c5781-0f21-4611-adf5-7f4bb5463f9c"},"vehicle_type_id":"4","last_reported":1729328910,"current_range_meters":27600,"station_id":"ce4bhg12rcd13ifvqf70","pricing_plan_id":"cebpf4jnsgd1na2vs0mg"},{"bike_id":"a19bbf99-57ee-4fe3-9c12-f13d9eb440e3","system_id":"levelo_inurba_marseille","lat":43.29841,"lon":5.36265,"is_reserved":false,"is_disabled":false,"rental_uris":{"android":"levelo://app?vid=a19bbf99-57ee-4fe3-9c12-f13d9eb440e3","ios":"levelo://app?vid=a19bbf99-57ee-4fe3-9c12-f13d9eb440e3"},"vehicle_type_id":"4","last_reported":1729328910,"current_range_meters":27200,"station_id":"ce4bgpp2rcd13ifvqc3g","pricing_plan_id":"cebpf4jnsgd1na2vs0mg"},{"bike_id":"dd9307fb-a903-4696-857c-e556a5e3b34e","system_id":"levelo_inurba_marseille","lat":43.24547,"lon":5.39521,"is_reserved":false,"is_disabled":false,"rental_uris":{"android":"levelo://app?vid=dd9307fb-a903-4696-857c-e556a5e3b34e","ios":"levelo://app?vid=dd9307fb-a903-4696-857c-e556a5e3b34e"},"vehicle_type_id":"4","last_reported":1729328910,"current_range_meters":38000,"station_id":"ce4bhlp2rcd13ifvqgjg","pricing_plan_id":"cebpf4jnsgd1na2vs0mg"},{"bike_id":"2140b6a3-5118-4150-823e-9225aeb56201","system_id":"levelo_inurba_marseille","lat":43.23195,"lon":5.35545,"is_reserved":false,"is_disabled":false,"rental_uris":{"android":"levelo://app?vid=2140b6a3-5118-4150-823e-9225aeb56201","ios":"levelo://app?vid=2140b6a3-5118-4150-823e-9225aeb56201"},"vehicle_type_id":"4","last_reported":1729328910,"current_range_meters":28000,"station_id":"ce4bhu92rcd13ifvqi70","pricing_plan_id":"cebpf4jnsgd1na2vs0mg"},{"bike_id":"f2522823-27ea-43cf-8234-ee5a9dcca0a3","system_id":"levelo_inurba_marseille","lat":43.32351,"lon":5.38884,"is_reserved":false,"is_disabled":false,"rental_uris":{"android":"levelo://app?vid=f2522823-27ea-43cf-8234-ee5a9dcca0a3","ios":"levelo://app?vid=f2522823-27ea-43cf-8234-ee5a9dcca0a3"},"vehicle_type_id":"4","last_reported":1729328910,"current_range_meters":28400,"station_id":"ce4bhqp2rcd13ifvqhog","pricing_plan_id":"cebpf4jnsgd1na2vs0mg"},{"bike_id":"7432de2d-1f24-4882-a60a-5b80baf9818f","system_id":"levelo_inurba_marseille","lat":43.30419,"lon":5.4129,"is_reserved":false,"is_disabled":false,"rental_uris":{"android":"levelo://app?vid=7432de2d-1f24-4882-a60a-5b80baf9818f","ios":"levelo://app?vid=7432de2d-1f24-4882-a60a-5b80baf9818f"},"vehicle_type_id":"4","last_reported":1729328910,"current_range_meters":38400,"station_id":"ce4bhop2rcd13ifvqh8g","pricing_plan_id":"cebpf4jnsgd1na2vs0mg"},{"bike_id":"40589edc-baeb-4043-9212-ab10116ce0d0","system_id":"levelo_inurba_marseille","lat":43.28458,"lon":5.35891,"is_reserved":false,"is_disabled":false,"rental_uris":{"android":"levelo://app?vid=40589edc-baeb-4043-9212-ab10116ce0d0","ios":"levelo://app?vid=40589edc-baeb-4043-9212-ab10116ce0d0"},"vehicle_type_id":"4","last_reported":1729328910,"current_range_meters":24800,"station_id":"ce4bhah2rcd13ifvqei0","pricing_plan_id":"cebpf4jnsgd1na2vs0mg"},{"bike_id":"d116ab63-54e5-422b-8ef9-2c8c31901cde","system_id":"levelo_inurba_marseille","lat":43.26029,"lon":5.37546,"is_reserved":false,"is_disabled":false,"rental_uris":{"android":"levelo://app?vid=d116ab63-54e5-422b-8ef9-2c8c31901cde","ios":"levelo://app?vid=d116ab63-54e5-422b-8ef9-2c8c31901cde"},"vehicle_type_id":"4","last_reported":1729328910,"current_range_meters":38800,"station_id":"ce4bhgh2rcd13ifvqfa0","pricing_plan_id":"cebpf4jnsgd1na2vs0mg"},{"bike_id":"fe2b8be7-5a51-4f02-bfb0-2261a28b6f54","system_id":"levelo_inurba_marseille","lat":43.25863,"lon":5.39899,"is_reserved":false,"is_disabled":false,"rental_uris":{"android":"levelo://app?vid=fe2b8be7-5a51-4f02-bfb0-2261a28b6f54","ios":"levelo://app?vid=fe2b8be7-5a51-4f02-bfb0-2261a28b6f54"},"vehicle_type_id":"4","last_reported":1729328910,"current_range_meters":22800,"station_id":"ce4bhl92rcd13ifvqghg","pricing_plan_id":"cebpf4jnsgd1na2vs0mg"},{"bike_id":"6e706dcb-6e41-41b6-a172-73765c66fdaa","system_id":"levelo_inurba_marseille","lat":43.26239,"lon":5.37591,"is_reserved":false,"is_disabled":false,"rental_uris":{"android":"levelo://app?vid=6e706dcb-6e41-41b6-a172-73765c66fdaa","ios":"levelo://app?vid=6e706dcb-6e41-41b6-a172-73765c66fdaa"},"vehicle_type_id":"4","last_reported":1729328910,"current_range_meters":38400,"station_id":"ce4bhhp2rcd13ifvqfm0","pricing_plan_id":"cebpf4jnsgd1na2vs0mg"},{"bike_id":"6cb7a3ce-6d5f-4dc0-ab7f-5cafce2cff2e","system_id":"levelo_inurba_marseille","lat":43.29584,"lon":5.36739,"is_reserved":false,"is_disabled":false,"rental_uris":{"android":"levelo://app?vid=6cb7a3ce-6d5f-4dc0-ab7f-5cafce2cff2e","ios":"levelo://app?vid=6cb7a3ce-6d5f-4dc0-ab7f-5cafce2cff2e"},"vehicle_type_id":"4","last_reported":1729328910,"current_range_meters":33200,"station_id":"ce4bgph2rcd13ifvqc2g","pricing_plan_id":"cebpf4jnsgd1na2vs0mg"},{"bike_id":"c4362ab0-b15a-4e4c-85d8-8873fa61f61c","system_id":"levelo_inurba_marseille","lat":43.28451,"lon":5.35889,"is_reserved":false,"is_disabled":false,"rental_uris":{"android":"levelo://app?vid=c4362ab0-b15a-4e4c-85d8-8873fa61f61c","ios":"levelo://app?vid=c4362ab0-b15a-4e4c-85d8-8873fa61f61c"},"vehicle_type_id":"4","last_reported":1729328910,"current_range_meters":27600,"station_id":"ce4bhah2rcd13ifvqei0","pricing_plan_id":"cebpf4jnsgd1na2vs0mg"},{"bike_id":"df547eb5-302c-4cd2-ac3e-a7b2f76539a1","system_id":"levelo_inurba_marseille","lat":43.26216,"lon":5.37439,"is_reserved":false,"is_disabled":false,"rental_uris":{"android":"levelo://app?vid=df547eb5-302c-4cd2-ac3e-a7b2f76539a1","ios":"levelo://app?vid=df547eb5-302c-4cd2-ac3e-a7b2f76539a1"},"vehicle_type_id":"4","last_reported":1729328910,"current_range_meters":32800,"station_id":"ce4bhgp2rcd13ifvqfc0","pricing_plan_id":"cebpf4jnsgd1na2vs0mg"},{"bike_id":"255b7375-f7e7-449a-bdc0-60f4ce1c0de1","system_id":"levelo_inurba_marseille","lat":43.29793,"lon":5.381,"is_reserved":false,"is_disabled":false,"rental_uris":{"android":"levelo://app?vid=255b7375-f7e7-449a-bdc0-60f4ce1c0de1","ios":"levelo://app?vid=255b7375-f7e7-449a-bdc0-60f4ce1c0de1"},"vehicle_type_id":"4","last_reported":1729328910,"current_range_meters":33200,"station_id":"ce4bgip2rcd13ifvqbb0","pricing_plan_id":"cebpf4jnsgd1na2vs0mg"},{"bike_id":"7772d39f-5e28-445c-af91-069b0cf63793","system_id":"levelo_inurba_marseille","lat":43.33765,"lon":5.37438,"is_reserved":false,"is_disabled":false,"rental_uris":{"android":"levelo://app?vid=7772d39f-5e28-445c-af91-069b0cf63793","ios":"levelo://app?vid=7772d39f-5e28-445c-af91-069b0cf63793"},"vehicle_type_id":"4","last_reported":1729328910,"current_range_meters":9600,"station_id":"","pricing_plan_id":"cebpf4jnsgd1na2vs0mg"},{"bike_id":"de94932b-2dc4-4f93-ad34-6e6bc4b1a135","system_id":"levelo_inurba_marseille","lat":43.26555,"lon":5.37284,"is_reserved":false,"is_disabled":false,"rental_uris":{"android":"levelo://app?vid=de94932b-2dc4-4f93-ad34-6e6bc4b1a135","ios":"levelo://app?vid=de94932b-2dc4-4f93-ad34-6e6bc4b1a135"},"vehicle_type_id":"4","last_reported":1729328910,"current_range_meters":29600,"station_id":"ce4bhg12rcd13ifvqf70","pricing_plan_id":"cebpf4jnsgd1na2vs0mg"},{"bike_id":"b61da1b6-317b-4ec8-8881-65a401d43674","system_id":"levelo_inurba_marseille","lat":43.32481,"lon":5.36567,"is_reserved":false,"is_disabled":false,"rental_uris":{"android":"levelo://app?vid=b61da1b6-317b-4ec8-8881-65a401d43674","ios":"levelo://app?vid=b61da1b6-317b-4ec8-8881-65a401d43674"},"vehicle_type_id":"4","last_reported":1729328910,"current_range_meters":31200,"station_id":"ce4bhs12rcd13ifvqhvg","pricing_plan_id":"cebpf4jnsgd1na2vs0mg"},{"bike_id":"3213665e-989c-4d22-9f5a-31c8522597dd","system_id":"levelo_inurba_marseille","lat":43.296,"lon":5.36142,"is_reserved":false,"is_disabled":false,"rental_uris":{"android":"levelo://app?vid=3213665e-989c-4d22-9f5a-31c8522597dd","ios":"levelo://app?vid=3213665e-989c-4d22-9f5a-31c8522597dd"},"vehicle_type_id":"4","last_reported":1729328910,"current_range_meters":20000,"station_id":"","pricing_plan_id":"cebpf4jnsgd1na2vs0mg"},{"bike_id":"a4115a63-1609-4834-be11-0c1a60ce541a","system_id":"levelo_inurba_marseille","lat":43.31067,"lon":5.38355,"is_reserved":false,"is_disabled":false,"rental_uris":{"android":"levelo://app?vid=a4115a63-1609-4834-be11-0c1a60ce541a","ios":"levelo://app?vid=a4115a63-1609-4834-be11-0c1a60ce541a"},"vehicle_type_id":"4","last_reported":1729328910,"current_range_meters":25200,"station_id":"ce4bgv92rcd13ifvqcr0","pricing_plan_id":"cebpf4jnsgd1na2vs0mg"},{"bike_id":"cddb2538-acdb-46a5-bc95-6e0a8d74ef0c","system_id":"levelo_inurba_marseille","lat":43.30795,"lon":5.43522,"is_reserved":false,"is_disabled":false,"rental_uris":{"android":"levelo://app?vid=cddb2538-acdb-46a5-bc95-6e0a8d74ef0c","ios":"levelo://app?vid=cddb2538-acdb-46a5-bc95-6e0a8d74ef0c"},"vehicle_type_id":"4","last_reported":1729328910,"current_range_meters":27600,"station_id":"ce4bhph2rcd13ifvqheg","pricing_plan_id":"cebpf4jnsgd1na2vs0mg"},{"bike_id":"4fbbfab7-5970-4a84-85d1-212875289a2b","system_id":"levelo_inurba_marseille","lat":43.288468,"lon":5.358473,"is_reserved":false,"is_disabled":false,"rental_uris":{"android":"levelo://app?vid=4fbbfab7-5970-4a84-85d1-212875289a2b","ios":"levelo://app?vid=4fbbfab7-5970-4a84-85d1-212875289a2b"},"vehicle_type_id":"4","last_reported":1729328910,"current_range_meters":38400,"station_id":"ce4bhb12rcd13ifvqem0","pricing_plan_id":"cebpf4jnsgd1na2vs0mg"},{"bike_id":"85978b2d-96a1-4496-a15d-3917a97b0613","system_id":"levelo_inurba_marseille","lat":43.32368,"lon":5.38883,"is_reserved":false,"is_disabled":false,"rental_uris":{"android":"levelo://app?vid=85978b2d-96a1-4496-a15d-3917a97b0613","ios":"levelo://app?vid=85978b2d-96a1-4496-a15d-3917a97b0613"},"vehicle_type_id":"4","last_reported":1729328910,"current_range_meters":38000,"station_id":"ce4bhqp2rcd13ifvqhog","pricing_plan_id":"cebpf4jnsgd1na2vs0mg"},{"bike_id":"4073ae12-a9a2-4914-98f7-3fa3c8233685","system_id":"levelo_inurba_marseille","lat":43.26552,"lon":5.37287,"is_reserved":false,"is_disabled":false,"rental_uris":{"android":"levelo://app?vid=4073ae12-a9a2-4914-98f7-3fa3c8233685","ios":"levelo://app?vid=4073ae12-a9a2-4914-98f7-3fa3c8233685"},"vehicle_type_id":"4","last_reported":1729328910,"current_range_meters":24400,"station_id":"ce4bhg12rcd13ifvqf70","pricing_plan_id":"cebpf4jnsgd1na2vs0mg"},{"bike_id":"a42d053b-efc3-4d04-88dc-06d3f1dc7ac8","system_id":"levelo_inurba_marseille","lat":43.30417,"lon":5.41279,"is_reserved":false,"is_disabled":false,"rental_uris":{"android":"levelo://app?vid=a42d053b-efc3-4d04-88dc-06d3f1dc7ac8","ios":"levelo://app?vid=a42d053b-efc3-4d04-88dc-06d3f1dc7ac8"},"vehicle_type_id":"4","last_reported":1729328910,"current_range_meters":38800,"station_id":"ce4bhop2rcd13ifvqh8g","pricing_plan_id":"cebpf4jnsgd1na2vs0mg"},{"bike_id":"a60acd41-d6c7-4ce1-871c-9489eb2fe795","system_id":"levelo_inurba_marseille","lat":43.29225,"lon":5.36068,"is_reserved":false,"is_disabled":false,"rental_uris":{"android":"levelo://app?vid=a60acd41-d6c7-4ce1-871c-9489eb2fe795","ios":"levelo://app?vid=a60acd41-d6c7-4ce1-871c-9489eb2fe795"},"vehicle_type_id":"4","last_reported":1729328910,"current_range_meters":33600,"station_id":"ce4bhbh2rcd13ifvqeqg","pricing_plan_id":"cebpf4jnsgd1na2vs0mg"},{"bike_id":"720f32bc-f057-41f4-aebc-3fd98c4f7d49","system_id":"levelo_inurba_marseille","lat":43.30414,"lon":5.36753,"is_reserved":false,"is_disabled":false,"rental_uris":{"android":"levelo://app?vid=720f32bc-f057-41f4-aebc-3fd98c4f7d49","ios":"levelo://app?vid=720f32bc-f057-41f4-aebc-3fd98c4f7d49"},"vehicle_type_id":"4","last_reported":1729328910,"current_range_meters":8000,"station_id":"","pricing_plan_id":"cebpf4jnsgd1na2vs0mg"},{"bike_id":"ec856568-8217-4dcd-acd9-cbc0c1bd9ea0","system_id":"levelo_inurba_marseille","lat":43.31068,"lon":5.38343,"is_reserved":false,"is_disabled":false,"rental_uris":{"android":"levelo://app?vid=ec856568-8217-4dcd-acd9-cbc0c1bd9ea0","ios":"levelo://app?vid=ec856568-8217-4dcd-acd9-cbc0c1bd9ea0"},"vehicle_type_id":"4","last_reported":1729328910,"current_range_meters":31200,"station_id":"ce4bgv92rcd13ifvqcr0","pricing_plan_id":"cebpf4jnsgd1na2vs0mg"},{"bike_id":"6a1e31b6-d029-4b53-901f-4bdc7b2141ad","system_id":"levelo_inurba_marseille","lat":43.33026,"lon":5.39036,"is_reserved":false,"is_disabled":false,"rental_uris":{"android":"levelo://app?vid=6a1e31b6-d029-4b53-901f-4bdc7b2141ad","ios":"levelo://app?vid=6a1e31b6-d029-4b53-901f-4bdc7b2141ad"},"vehicle_type_id":"4","last_reported":1729328910,"current_range_meters":25200,"station_id":"ce4bhr92rcd13ifvqhrg","pricing_plan_id":"cebpf4jnsgd1na2vs0mg"},{"bike_id":"60e5d882-0396-4567-9dd1-7257b842a7e3","system_id":"levelo_inurba_marseille","lat":43.29851,"lon":5.36282,"is_reserved":false,"is_disabled":false,"rental_uris":{"android":"levelo://app?vid=60e5d882-0396-4567-9dd1-7257b842a7e3","ios":"levelo://app?vid=60e5d882-0396-4567-9dd1-7257b842a7e3"},"vehicle_type_id":"4","last_reported":1729328910,"current_range_meters":38800,"station_id":"ce4bgpp2rcd13ifvqc3g","pricing_plan_id":"cebpf4jnsgd1na2vs0mg"},{"bike_id":"11a21bb0-f15a-49f4-8d19-d7ea309cb0d1","system_id":"levelo_inurba_marseille","lat":43.31748,"lon":5.39017,"is_reserved":false,"is_disabled":false,"rental_uris":{"android":"levelo://app?vid=11a21bb0-f15a-49f4-8d19-d7ea309cb0d1","ios":"levelo://app?vid=11a21bb0-f15a-49f4-8d19-d7ea309cb0d1"},"vehicle_type_id":"4","last_reported":1729328910,"current_range_meters":9200,"station_id":"ce4bhqp2rcd13ifvqhng","pricing_plan_id":"cebpf4jnsgd1na2vs0mg"},{"bike_id":"1d1d56c4-6604-4602-bd47-146bfc356473","system_id":"levelo_inurba_marseille","lat":43.25865,"lon":5.39898,"is_reserved":false,"is_disabled":false,"rental_uris":{"android":"levelo://app?vid=1d1d56c4-6604-4602-bd47-146bfc356473","ios":"levelo://app?vid=1d1d56c4-6604-4602-bd47-146bfc356473"},"vehicle_type_id":"4","last_reported":1729328910,"current_range_meters":3600,"station_id":"ce4bhl92rcd13ifvqghg","pricing_plan_id":"cebpf4jnsgd1na2vs0mg"},{"bike_id":"349d02b4-9b44-4c01-b73c-982963eba25c","system_id":"levelo_inurba_marseille","lat":43.32338,"lon":5.40622,"is_reserved":false,"is_disabled":false,"rental_uris":{"android":"levelo://app?vid=349d02b4-9b44-4c01-b73c-982963eba25c","ios":"levelo://app?vid=349d02b4-9b44-4c01-b73c-982963eba25c"},"vehicle_type_id":"4","last_reported":1729328910,"current_range_meters":35200,"station_id":"ce4bhq92rcd13ifvqhjg","pricing_plan_id":"cebpf4jnsgd1na2vs0mg"},{"bike_id":"1a033abb-16f6-452d-8850-1323583b7cab","system_id":"levelo_inurba_marseille","lat":43.28154,"lon":5.4264,"is_reserved":false,"is_disabled":false,"rental_uris":{"android":"levelo://app?vid=1a033abb-16f6-452d-8850-1323583b7cab","ios":"levelo://app?vid=1a033abb-16f6-452d-8850-1323583b7cab"},"vehicle_type_id":"4","last_reported":1729328910,"current_range_meters":12800,"station_id":"ce4bhnh2rcd13ifvqgug","pricing_plan_id":"cebpf4jnsgd1na2vs0mg"},{"bike_id":"717a8e4c-4f2a-40ca-9b97-5909c033b2ff","system_id":"levelo_inurba_marseille","lat":43.28464,"lon":5.35888,"is_reserved":false,"is_disabled":false,"rental_uris":{"android":"levelo://app?vid=717a8e4c-4f2a-40ca-9b97-5909c033b2ff","ios":"levelo://app?vid=717a8e4c-4f2a-40ca-9b97-5909c033b2ff"},"vehicle_type_id":"4","last_reported":1729328910,"current_range_meters":26800,"station_id":"ce4bhah2rcd13ifvqei0","pricing_plan_id":"cebpf4jnsgd1na2vs0mg"},{"bike_id":"74359699-209f-4546-bae8-3d389fdc255d","system_id":"levelo_inurba_marseille","lat":43.26555,"lon":5.37282,"is_reserved":false,"is_disabled":false,"rental_uris":{"android":"levelo://app?vid=74359699-209f-4546-bae8-3d389fdc255d","ios":"levelo://app?vid=74359699-209f-4546-bae8-3d389fdc255d"},"vehicle_type_id":"4","last_reported":1729328910,"current_range_meters":8800,"station_id":"ce4bhg12rcd13ifvqf70","pricing_plan_id":"cebpf4jnsgd1na2vs0mg"},{"bike_id":"4b88317a-2c71-4cfd-b616-6b36d3a67a26","system_id":"levelo_inurba_marseille","lat":43.29534,"lon":5.37458,"is_reserved":false,"is_disabled":false,"rental_uris":{"android":"levelo://app?vid=4b88317a-2c71-4cfd-b616-6b36d3a67a26","ios":"levelo://app?vid=4b88317a-2c71-4cfd-b616-6b36d3a67a26"},"vehicle_type_id":"4","last_reported":1729328910,"current_range_meters":8800,"station_id":"ce4bgkp2rcd13ifvqbmg","pricing_plan_id":"cebpf4jnsgd1na2vs0mg"},{"bike_id":"f7a24b2f-5943-4824-83d0-3767d391605f","system_id":"levelo_inurba_marseille","lat":43.29846,"lon":5.36272,"is_reserved":false,"is_disabled":false,"rental_uris":{"android":"levelo://app?vid=f7a24b2f-5943-4824-83d0-3767d391605f","ios":"levelo://app?vid=f7a24b2f-5943-4824-83d0-3767d391605f"},"vehicle_type_id":"4","last_reported":1729328910,"current_range_meters":19600,"station_id":"ce4bgpp2rcd13ifvqc3g","pricing_plan_id":"cebpf4jnsgd1na2vs0mg"},{"bike_id":"70cee1ab-59bb-430a-b90a-515eb7833ad3","system_id":"levelo_inurba_marseille","lat":43.29917,"lon":5.37474,"is_reserved":false,"is_disabled":false,"rental_uris":{"android":"levelo://app?vid=70cee1ab-59bb-430a-b90a-515eb7833ad3","ios":"levelo://app?vid=70cee1ab-59bb-430a-b90a-515eb7833ad3"},"vehicle_type_id":"4","last_reported":1729328910,"current_range_meters":38400,"station_id":"ce4bgjh2rcd13ifvqbg0","pricing_plan_id":"cebpf4jnsgd1na2vs0mg"},{"bike_id":"5f1a02cd-8d37-4d15-b821-5a1cc802331e","system_id":"levelo_inurba_marseille","lat":43.24078,"lon":5.37747,"is_reserved":false,"is_disabled":false,"rental_uris":{"android":"levelo://app?vid=5f1a02cd-8d37-4d15-b821-5a1cc802331e","ios":"levelo://app?vid=5f1a02cd-8d37-4d15-b821-5a1cc802331e"},"vehicle_type_id":"4","last_reported":1729328910,"current_range_meters":28400,"station_id":"ce4bhnp2rcd13ifvqgvg","pricing_plan_id":"cebpf4jnsgd1na2vs0mg"},{"bike_id":"067193b3-5c80-4bd0-bba0-f83eb46c9371","system_id":"levelo_inurba_marseille","lat":43.23193,"lon":5.35558,"is_reserved":false,"is_disabled":false,"rental_uris":{"android":"levelo://app?vid=067193b3-5c80-4bd0-bba0-f83eb46c9371","ios":"levelo://app?vid=067193b3-5c80-4bd0-bba0-f83eb46c9371"},"vehicle_type_id":"4","last_reported":1729328910,"current_range_meters":32400,"station_id":"ce4bhu92rcd13ifvqi70","pricing_plan_id":"cebpf4jnsgd1na2vs0mg"},{"bike_id":"90cca9d0-c935-484e-8f6a-ce1275b1560c","system_id":"levelo_inurba_marseille","lat":43.28409,"lon":5.34988,"is_reserved":false,"is_disabled":false,"rental_uris":{"android":"levelo://app?vid=90cca9d0-c935-484e-8f6a-ce1275b1560c","ios":"levelo://app?vid=90cca9d0-c935-484e-8f6a-ce1275b1560c"},"vehicle_type_id":"4","last_reported":1729328910,"current_range_meters":28800,"station_id":"ce4bhbh2rcd13ifvqepg","pricing_plan_id":"cebpf4jnsgd1na2vs0mg"},{"bike_id":"ed0a08f5-19b0-4a12-843c-cf40e0380d72","system_id":"levelo_inurba_marseille","lat":43.29849,"lon":5.36285,"is_reserved":false,"is_disabled":false,"rental_uris":{"android":"levelo://app?vid=ed0a08f5-19b0-4a12-843c-cf40e0380d72","ios":"levelo://app?vid=ed0a08f5-19b0-4a12-843c-cf40e0380d72"},"vehicle_type_id":"4","last_reported":1729328910,"current_range_meters":31200,"station_id":"ce4bgpp2rcd13ifvqc3g","pricing_plan_id":"cebpf4jnsgd1na2vs0mg"},{"bike_id":"0bc57bdd-4504-4c71-9937-54c1ce8f0f44","system_id":"levelo_inurba_marseille","lat":43.28615,"lon":5.35107,"is_reserved":false,"is_disabled":false,"rental_uris":{"android":"levelo://app?vid=0bc57bdd-4504-4c71-9937-54c1ce8f0f44","ios":"levelo://app?vid=0bc57bdd-4504-4c71-9937-54c1ce8f0f44"},"vehicle_type_id":"4","last_reported":1729328910,"current_range_meters":32400,"station_id":"ce4bhch2rcd13ifvqeug","pricing_plan_id":"cebpf4jnsgd1na2vs0mg"},{"bike_id":"765975f8-bc0d-4687-b420-8cef0ef2958b","system_id":"levelo_inurba_marseille","lat":43.29906,"lon":5.38148,"is_reserved":false,"is_disabled":false,"rental_uris":{"android":"levelo://app?vid=765975f8-bc0d-4687-b420-8cef0ef2958b","ios":"levelo://app?vid=765975f8-bc0d-4687-b420-8cef0ef2958b"},"vehicle_type_id":"4","last_reported":1729328910,"current_range_meters":28400,"station_id":"ce4bgj12rcd13ifvqbc0","pricing_plan_id":"cebpf4jnsgd1na2vs0mg"},{"bike_id":"d62f86cf-f1b2-476c-a8a1-b89fbb201bd5","system_id":"levelo_inurba_marseille","lat":43.30892,"lon":5.37185,"is_reserved":false,"is_disabled":false,"rental_uris":{"android":"levelo://app?vid=d62f86cf-f1b2-476c-a8a1-b89fbb201bd5","ios":"levelo://app?vid=d62f86cf-f1b2-476c-a8a1-b89fbb201bd5"},"vehicle_type_id":"4","last_reported":1729328910,"current_range_meters":33600,"station_id":"ce4bguh2rcd13ifvqckg","pricing_plan_id":"cebpf4jnsgd1na2vs0mg"},{"bike_id":"09d74d5d-6dbb-446f-a3ab-2003f869b95f","system_id":"levelo_inurba_marseille","lat":43.29519,"lon":5.37496,"is_reserved":false,"is_disabled":false,"rental_uris":{"android":"levelo://app?vid=09d74d5d-6dbb-446f-a3ab-2003f869b95f","ios":"levelo://app?vid=09d74d5d-6dbb-446f-a3ab-2003f869b95f"},"vehicle_type_id":"4","last_reported":1729328910,"current_range_meters":33200,"station_id":"ce4bgkp2rcd13ifvqbmg","pricing_plan_id":"cebpf4jnsgd1na2vs0mg"},{"bike_id":"e8da62c6-bbec-48e4-86d2-9e1bf2d17e6b","system_id":"levelo_inurba_marseille","lat":43.32491,"lon":5.36559,"is_reserved":false,"is_disabled":false,"rental_uris":{"android":"levelo://app?vid=e8da62c6-bbec-48e4-86d2-9e1bf2d17e6b","ios":"levelo://app?vid=e8da62c6-bbec-48e4-86d2-9e1bf2d17e6b"},"vehicle_type_id":"4","last_reported":1729328910,"current_range_meters":38800,"station_id":"ce4bhs12rcd13ifvqhvg","pricing_plan_id":"cebpf4jnsgd1na2vs0mg"},{"bike_id":"0fe2c48e-d14d-4538-971f-5c4b64174dfe","system_id":"levelo_inurba_marseille","lat":43.28846,"lon":5.3931,"is_reserved":false,"is_disabled":false,"rental_uris":{"android":"levelo://app?vid=0fe2c48e-d14d-4538-971f-5c4b64174dfe","ios":"levelo://app?vid=0fe2c48e-d14d-4538-971f-5c4b64174dfe"},"vehicle_type_id":"4","last_reported":1729328910,"current_range_meters":37600,"station_id":"ce4bh2p2rcd13ifvqdi0","pricing_plan_id":"cebpf4jnsgd1na2vs0mg"},{"bike_id":"006bbfd0-294d-4716-b026-030ad88cf679","system_id":"levelo_inurba_marseille","lat":43.24392,"lon":5.37056,"is_reserved":false,"is_disabled":false,"rental_uris":{"android":"levelo://app?vid=006bbfd0-294d-4716-b026-030ad88cf679","ios":"levelo://app?vid=006bbfd0-294d-4716-b026-030ad88cf679"},"vehicle_type_id":"4","last_reported":1729328910,"current_range_meters":38800,"station_id":"ce4bhhh2rcd13ifvqfk0","pricing_plan_id":"cebpf4jnsgd1na2vs0mg"},{"bike_id":"c1cfbd29-e858-4d20-a958-3e360d8a56ad","system_id":"levelo_inurba_marseille","lat":43.24178,"lon":5.39723,"is_reserved":false,"is_disabled":false,"rental_uris":{"android":"levelo://app?vid=c1cfbd29-e858-4d20-a958-3e360d8a56ad","ios":"levelo://app?vid=c1cfbd29-e858-4d20-a958-3e360d8a56ad"},"vehicle_type_id":"4","last_reported":1729328910,"current_range_meters":29600,"station_id":"ce4bhn12rcd13ifvqgpg","pricing_plan_id":"cebpf4jnsgd1na2vs0mg"},{"bike_id":"439498ba-9b67-4d80-a8bf-de575056eb93","system_id":"levelo_inurba_marseille","lat":43.28999,"lon":5.35607,"is_reserved":false,"is_disabled":false,"rental_uris":{"android":"levelo://app?vid=439498ba-9b67-4d80-a8bf-de575056eb93","ios":"levelo://app?vid=439498ba-9b67-4d80-a8bf-de575056eb93"},"vehicle_type_id":"4","last_reported":1729328910,"current_range_meters":24000,"station_id":"ce4bhb92rcd13ifvqen0","pricing_plan_id":"cebpf4jnsgd1na2vs0mg"},{"bike_id":"7b5164b4-90cc-41bc-a797-681402c746de","system_id":"levelo_inurba_marseille","lat":43.25001,"lon":5.38929,"is_reserved":false,"is_disabled":false,"rental_uris":{"android":"levelo://app?vid=7b5164b4-90cc-41bc-a797-681402c746de","ios":"levelo://app?vid=7b5164b4-90cc-41bc-a797-681402c746de"},"vehicle_type_id":"4","last_reported":1729328910,"current_range_meters":14400,"station_id":"ce4bhgp2rcd13ifvqfd0","pricing_plan_id":"cebpf4jnsgd1na2vs0mg"},{"bike_id":"c48c9a77-a943-4451-9842-b0edec356aec","system_id":"levelo_inurba_marseille","lat":43.28266,"lon":5.35061,"is_reserved":false,"is_disabled":false,"rental_uris":{"android":"levelo://app?vid=c48c9a77-a943-4451-9842-b0edec356aec","ios":"levelo://app?vid=c48c9a77-a943-4451-9842-b0edec356aec"},"vehicle_type_id":"4","last_reported":1729328910,"current_range_meters":26000,"station_id":"ce4bhbp2rcd13ifvqerg","pricing_plan_id":"cebpf4jnsgd1na2vs0mg"},{"bike_id":"d77de414-ca1a-409e-b7a6-47916177fca8","system_id":"levelo_inurba_marseille","lat":43.24993,"lon":5.38937,"is_reserved":false,"is_disabled":false,"rental_uris":{"android":"levelo://app?vid=d77de414-ca1a-409e-b7a6-47916177fca8","ios":"levelo://app?vid=d77de414-ca1a-409e-b7a6-47916177fca8"},"vehicle_type_id":"4","last_reported":1729328910,"current_range_meters":28400,"station_id":"ce4bhgp2rcd13ifvqfd0","pricing_plan_id":"cebpf4jnsgd1na2vs0mg"},{"bike_id":"0e121388-9d47-4080-ab62-c62a90b0436c","system_id":"levelo_inurba_marseille","lat":43.29281,"lon":5.36841,"is_reserved":false,"is_disabled":false,"rental_uris":{"android":"levelo://app?vid=0e121388-9d47-4080-ab62-c62a90b0436c","ios":"levelo://app?vid=0e121388-9d47-4080-ab62-c62a90b0436c"},"vehicle_type_id":"4","last_reported":1729328910,"current_range_meters":12800,"station_id":"ce4bhbp2rcd13ifvqesg","pricing_plan_id":"cebpf4jnsgd1na2vs0mg"},{"bike_id":"1c9f3269-ed93-460c-8d9d-8c51506c39cc","system_id":"levelo_inurba_marseille","lat":43.29513,"lon":5.375,"is_reserved":false,"is_disabled":false,"rental_uris":{"android":"levelo://app?vid=1c9f3269-ed93-460c-8d9d-8c51506c39cc","ios":"levelo://app?vid=1c9f3269-ed93-460c-8d9d-8c51506c39cc"},"vehicle_type_id":"4","last_reported":1729328910,"current_range_meters":17200,"station_id":"ce4bgkp2rcd13ifvqbmg","pricing_plan_id":"cebpf4jnsgd1na2vs0mg"},{"bike_id":"5b033739-1b95-49da-9b8d-294c3cabbf99","system_id":"levelo_inurba_marseille","lat":43.24182,"lon":5.39723,"is_reserved":false,"is_disabled":false,"rental_uris":{"android":"levelo://app?vid=5b033739-1b95-49da-9b8d-294c3cabbf99","ios":"levelo://app?vid=5b033739-1b95-49da-9b8d-294c3cabbf99"},"vehicle_type_id":"4","last_reported":1729328910,"current_range_meters":27600,"station_id":"ce4bhn12rcd13ifvqgpg","pricing_plan_id":"cebpf4jnsgd1na2vs0mg"},{"bike_id":"1254465f-5492-48fe-89a6-9d12295bc232","system_id":"levelo_inurba_marseille","lat":43.26783,"lon":5.39413,"is_reserved":false,"is_disabled":false,"rental_uris":{"android":"levelo://app?vid=1254465f-5492-48fe-89a6-9d12295bc232","ios":"levelo://app?vid=1254465f-5492-48fe-89a6-9d12295bc232"},"vehicle_type_id":"4","last_reported":1729328910,"current_range_meters":18000,"station_id":"ce4bhh12rcd13ifvqfg0","pricing_plan_id":"cebpf4jnsgd1na2vs0mg"},{"bike_id":"ecf5cd40-9aad-4b30-9849-ba305daf63ca","system_id":"levelo_inurba_marseille","lat":43.31689,"lon":5.40466,"is_reserved":false,"is_disabled":false,"rental_uris":{"android":"levelo://app?vid=ecf5cd40-9aad-4b30-9849-ba305daf63ca","ios":"levelo://app?vid=ecf5cd40-9aad-4b30-9849-ba305daf63ca"},"vehicle_type_id":"4","last_reported":1729328910,"current_range_meters":24800,"station_id":"ce4bh012rcd13ifvqd00","pricing_plan_id":"cebpf4jnsgd1na2vs0mg"},{"bike_id":"7558d932-cd94-499b-b3af-dda7070cbb79","system_id":"levelo_inurba_marseille","lat":43.25112,"lon":5.40322,"is_reserved":false,"is_disabled":false,"rental_uris":{"android":"levelo://app?vid=7558d932-cd94-499b-b3af-dda7070cbb79","ios":"levelo://app?vid=7558d932-cd94-499b-b3af-dda7070cbb79"},"vehicle_type_id":"4","last_reported":1729328910,"current_range_meters":38800,"station_id":"ce4bhlh2rcd13ifvqgig","pricing_plan_id":"cebpf4jnsgd1na2vs0mg"},{"bike_id":"6571fa10-cdcb-421f-8148-f1f68d36c4a5","system_id":"levelo_inurba_marseille","lat":43.26485,"lon":5.39553,"is_reserved":false,"is_disabled":false,"rental_uris":{"android":"levelo://app?vid=6571fa10-cdcb-421f-8148-f1f68d36c4a5","ios":"levelo://app?vid=6571fa10-cdcb-421f-8148-f1f68d36c4a5"},"vehicle_type_id":"4","last_reported":1729328910,"current_range_meters":14800,"station_id":"ce4bhi12rcd13ifvqfq0","pricing_plan_id":"cebpf4jnsgd1na2vs0mg"},{"bike_id":"4dbbf305-7300-417e-a06a-9158dedb68cb","system_id":"levelo_inurba_marseille","lat":43.26563,"lon":5.39013,"is_reserved":false,"is_disabled":false,"rental_uris":{"android":"levelo://app?vid=4dbbf305-7300-417e-a06a-9158dedb68cb","ios":"levelo://app?vid=4dbbf305-7300-417e-a06a-9158dedb68cb"},"vehicle_type_id":"4","last_reported":1729328910,"current_range_meters":30000,"station_id":"ce4bhe12rcd13ifvqf30","pricing_plan_id":"cebpf4jnsgd1na2vs0mg"},{"bike_id":"f8550026-9d66-40c7-9cd0-f63b41bf941a","system_id":"levelo_inurba_marseille","lat":43.30355,"lon":5.41878,"is_reserved":false,"is_disabled":false,"rental_uris":{"android":"levelo://app?vid=f8550026-9d66-40c7-9cd0-f63b41bf941a","ios":"levelo://app?vid=f8550026-9d66-40c7-9cd0-f63b41bf941a"},"vehicle_type_id":"4","last_reported":1729328910,"current_range_meters":38800,"station_id":"ce4bhop2rcd13ifvqh7g","pricing_plan_id":"cebpf4jnsgd1na2vs0mg"},{"bike_id":"2efb1272-3ee9-4aef-890e-f081f26e6e75","system_id":"levelo_inurba_marseille","lat":43.24174,"lon":5.3972,"is_reserved":false,"is_disabled":false,"rental_uris":{"android":"levelo://app?vid=2efb1272-3ee9-4aef-890e-f081f26e6e75","ios":"levelo://app?vid=2efb1272-3ee9-4aef-890e-f081f26e6e75"},"vehicle_type_id":"4","last_reported":1729328910,"current_range_meters":8000,"station_id":"ce4bhn12rcd13ifvqgpg","pricing_plan_id":"cebpf4jnsgd1na2vs0mg"},{"bike_id":"be2bbaa1-f672-4dc8-a1c0-85466066b76d","system_id":"levelo_inurba_marseille","lat":43.23194,"lon":5.35538,"is_reserved":false,"is_disabled":false,"rental_uris":{"android":"levelo://app?vid=be2bbaa1-f672-4dc8-a1c0-85466066b76d","ios":"levelo://app?vid=be2bbaa1-f672-4dc8-a1c0-85466066b76d"},"vehicle_type_id":"4","last_reported":1729328910,"current_range_meters":24800,"station_id":"ce4bhu92rcd13ifvqi70","pricing_plan_id":"cebpf4jnsgd1na2vs0mg"},{"bike_id":"a4b68d83-e5a3-486e-a921-b7a81ceaf128","system_id":"levelo_inurba_marseille","lat":43.25498,"lon":5.37648,"is_reserved":false,"is_disabled":false,"rental_uris":{"android":"levelo://app?vid=a4b68d83-e5a3-486e-a921-b7a81ceaf128","ios":"levelo://app?vid=a4b68d83-e5a3-486e-a921-b7a81ceaf128"},"vehicle_type_id":"4","last_reported":1729328910,"current_range_meters":10800,"station_id":"ce4bhh12rcd13ifvqff0","pricing_plan_id":"cebpf4jnsgd1na2vs0mg"},{"bike_id":"62892d86-e1bb-439a-b933-f2f04fa52ac0","system_id":"levelo_inurba_marseille","lat":43.28609,"lon":5.37065,"is_reserved":false,"is_disabled":false,"rental_uris":{"android":"levelo://app?vid=62892d86-e1bb-439a-b933-f2f04fa52ac0","ios":"levelo://app?vid=62892d86-e1bb-439a-b933-f2f04fa52ac0"},"vehicle_type_id":"4","last_reported":1729328910,"current_range_meters":6800,"station_id":"ce4bht12rcd13ifvqi60","pricing_plan_id":"cebpf4jnsgd1na2vs0mg"},{"bike_id":"5715e832-098d-4c62-8619-ea0204aa01d5","system_id":"levelo_inurba_marseille","lat":43.27067,"lon":5.42272,"is_reserved":false,"is_disabled":false,"rental_uris":{"android":"levelo://app?vid=5715e832-098d-4c62-8619-ea0204aa01d5","ios":"levelo://app?vid=5715e832-098d-4c62-8619-ea0204aa01d5"},"vehicle_type_id":"4","last_reported":1729328910,"current_range_meters":30800,"station_id":"ce4bhk92rcd13ifvqgb0","pricing_plan_id":"cebpf4jnsgd1na2vs0mg"},{"bike_id":"a78c5731-b792-4768-be22-a588189b5ef4","system_id":"levelo_inurba_marseille","lat":43.33762,"lon":5.37439,"is_reserved":false,"is_disabled":false,"rental_uris":{"android":"levelo://app?vid=a78c5731-b792-4768-be22-a588189b5ef4","ios":"levelo://app?vid=a78c5731-b792-4768-be22-a588189b5ef4"},"vehicle_type_id":"4","last_reported":1729328910,"current_range_meters":38800,"station_id":"","pricing_plan_id":"cebpf4jnsgd1na2vs0mg"},{"bike_id":"55248ddf-1ece-4402-85ea-9af0693abb74","system_id":"levelo_inurba_marseille","lat":43.25503,"lon":5.37653,"is_reserved":false,"is_disabled":false,"rental_uris":{"android":"levelo://app?vid=55248ddf-1ece-4402-85ea-9af0693abb74","ios":"levelo://app?vid=55248ddf-1ece-4402-85ea-9af0693abb74"},"vehicle_type_id":"4","last_reported":1729328910,"current_range_meters":35200,"station_id":"ce4bhh12rcd13ifvqff0","pricing_plan_id":"cebpf4jnsgd1na2vs0mg"},{"bike_id":"1ba3c57d-fe8a-4cbb-b7ac-5af8e752d070","system_id":"levelo_inurba_marseille","lat":43.29845,"lon":5.36265,"is_reserved":false,"is_disabled":false,"rental_uris":{"android":"levelo://app?vid=1ba3c57d-fe8a-4cbb-b7ac-5af8e752d070","ios":"levelo://app?vid=1ba3c57d-fe8a-4cbb-b7ac-5af8e752d070"},"vehicle_type_id":"4","last_reported":1729328910,"current_range_meters":38800,"station_id":"ce4bgpp2rcd13ifvqc3g","pricing_plan_id":"cebpf4jnsgd1na2vs0mg"},{"bike_id":"29316421-3180-4429-9120-b437860055d0","system_id":"levelo_inurba_marseille","lat":43.2922,"lon":5.36052,"is_reserved":false,"is_disabled":false,"rental_uris":{"android":"levelo://app?vid=29316421-3180-4429-9120-b437860055d0","ios":"levelo://app?vid=29316421-3180-4429-9120-b437860055d0"},"vehicle_type_id":"4","last_reported":1729328910,"current_range_meters":28000,"station_id":"ce4bhbh2rcd13ifvqeqg","pricing_plan_id":"cebpf4jnsgd1na2vs0mg"},{"bike_id":"beda84f2-2ab3-4094-b3d0-26ff850c3402","system_id":"levelo_inurba_marseille","lat":43.30438,"lon":5.38893,"is_reserved":false,"is_disabled":false,"rental_uris":{"android":"levelo://app?vid=beda84f2-2ab3-4094-b3d0-26ff850c3402","ios":"levelo://app?vid=beda84f2-2ab3-4094-b3d0-26ff850c3402"},"vehicle_type_id":"4","last_reported":1729328910,"current_range_meters":38800,"station_id":"ce4bgk12rcd13ifvqbi0","pricing_plan_id":"cebpf4jnsgd1na2vs0mg"},{"bike_id":"a7f37877-e87d-4bf4-934e-1246d043031f","system_id":"levelo_inurba_marseille","lat":43.29271,"lon":5.36852,"is_reserved":false,"is_disabled":false,"rental_uris":{"android":"levelo://app?vid=a7f37877-e87d-4bf4-934e-1246d043031f","ios":"levelo://app?vid=a7f37877-e87d-4bf4-934e-1246d043031f"},"vehicle_type_id":"4","last_reported":1729328910,"current_range_meters":36400,"station_id":"ce4bhbp2rcd13ifvqesg","pricing_plan_id":"cebpf4jnsgd1na2vs0mg"},{"bike_id":"2dffce44-7cfd-4d42-813e-c4b2870080b3","system_id":"levelo_inurba_marseille","lat":43.28075,"lon":5.39651,"is_reserved":false,"is_disabled":false,"rental_uris":{"android":"levelo://app?vid=2dffce44-7cfd-4d42-813e-c4b2870080b3","ios":"levelo://app?vid=2dffce44-7cfd-4d42-813e-c4b2870080b3"},"vehicle_type_id":"4","last_reported":1729328910,"current_range_meters":33600,"station_id":"ce4bho12rcd13ifvqh2g","pricing_plan_id":"cebpf4jnsgd1na2vs0mg"},{"bike_id":"be605f24-5d26-4c10-886c-6a4b4b380b40","system_id":"levelo_inurba_marseille","lat":43.26777,"lon":5.39419,"is_reserved":false,"is_disabled":false,"rental_uris":{"android":"levelo://app?vid=be605f24-5d26-4c10-886c-6a4b4b380b40","ios":"levelo://app?vid=be605f24-5d26-4c10-886c-6a4b4b380b40"},"vehicle_type_id":"4","last_reported":1729328910,"current_range_meters":31200,"station_id":"ce4bhh12rcd13ifvqfg0","pricing_plan_id":"cebpf4jnsgd1na2vs0mg"},{"bike_id":"d1828a1a-0da8-4255-b5b6-b9fe7cb344b1","system_id":"levelo_inurba_marseille","lat":43.30148,"lon":5.3808,"is_reserved":false,"is_disabled":false,"rental_uris":{"android":"levelo://app?vid=d1828a1a-0da8-4255-b5b6-b9fe7cb344b1","ios":"levelo://app?vid=d1828a1a-0da8-4255-b5b6-b9fe7cb344b1"},"vehicle_type_id":"4","last_reported":1729328910,"current_range_meters":35200,"station_id":"ce4bgjp2rcd13ifvqbh0","pricing_plan_id":"cebpf4jnsgd1na2vs0mg"},{"bike_id":"3664398f-378f-46f2-bd12-30042ad8db9d","system_id":"levelo_inurba_marseille","lat":43.23188,"lon":5.39977,"is_reserved":false,"is_disabled":false,"rental_uris":{"android":"levelo://app?vid=3664398f-378f-46f2-bd12-30042ad8db9d","ios":"levelo://app?vid=3664398f-378f-46f2-bd12-30042ad8db9d"},"vehicle_type_id":"4","last_reported":1729328910,"current_range_meters":26000,"station_id":"ce4bhn12rcd13ifvqgqg","pricing_plan_id":"cebpf4jnsgd1na2vs0mg"},{"bike_id":"a9d80141-cb04-4f88-bcc5-9763572e3517","system_id":"levelo_inurba_marseille","lat":43.23197,"lon":5.35549,"is_reserved":false,"is_disabled":false,"rental_uris":{"android":"levelo://app?vid=a9d80141-cb04-4f88-bcc5-9763572e3517","ios":"levelo://app?vid=a9d80141-cb04-4f88-bcc5-9763572e3517"},"vehicle_type_id":"4","last_reported":1729328910,"current_range_meters":24800,"station_id":"ce4bhu92rcd13ifvqi70","pricing_plan_id":"cebpf4jnsgd1na2vs0mg"},{"bike_id":"6bb6eaea-6464-4250-8b65-6f9c52c53a3f","system_id":"levelo_inurba_marseille","lat":43.31728,"lon":5.42395,"is_reserved":false,"is_disabled":false,"rental_uris":{"android":"levelo://app?vid=6bb6eaea-6464-4250-8b65-6f9c52c53a3f","ios":"levelo://app?vid=6bb6eaea-6464-4250-8b65-6f9c52c53a3f"},"vehicle_type_id":"4","last_reported":1729328910,"current_range_meters":38000,"station_id":"ce4bhp92rcd13ifvqhbg","pricing_plan_id":"cebpf4jnsgd1na2vs0mg"},{"bike_id":"ee99a5d9-f447-482d-9f3e-4ee93f3f9df0","system_id":"levelo_inurba_marseille","lat":43.30538,"lon":5.38428,"is_reserved":false,"is_disabled":false,"rental_uris":{"android":"levelo://app?vid=ee99a5d9-f447-482d-9f3e-4ee93f3f9df0","ios":"levelo://app?vid=ee99a5d9-f447-482d-9f3e-4ee93f3f9df0"},"vehicle_type_id":"4","last_reported":1729328910,"current_range_meters":39200,"station_id":"ce4bgg92rcd13ifvqb30","pricing_plan_id":"cebpf4jnsgd1na2vs0mg"},{"bike_id":"25047a17-3ec6-414e-9b3c-cf1d6583afad","system_id":"levelo_inurba_marseille","lat":43.27174,"lon":5.40987,"is_reserved":false,"is_disabled":false,"rental_uris":{"android":"levelo://app?vid=25047a17-3ec6-414e-9b3c-cf1d6583afad","ios":"levelo://app?vid=25047a17-3ec6-414e-9b3c-cf1d6583afad"},"vehicle_type_id":"4","last_reported":1729328910,"current_range_meters":11200,"station_id":"ce4bhl12rcd13ifvqgf0","pricing_plan_id":"cebpf4jnsgd1na2vs0mg"},{"bike_id":"55d91b64-5553-4b4e-999e-d02b119d6d59","system_id":"levelo_inurba_marseille","lat":43.29912,"lon":5.37485,"is_reserved":false,"is_disabled":false,"rental_uris":{"android":"levelo://app?vid=55d91b64-5553-4b4e-999e-d02b119d6d59","ios":"levelo://app?vid=55d91b64-5553-4b4e-999e-d02b119d6d59"},"vehicle_type_id":"4","last_reported":1729328910,"current_range_meters":30000,"station_id":"ce4bgjh2rcd13ifvqbg0","pricing_plan_id":"cebpf4jnsgd1na2vs0mg"},{"bike_id":"c9bf36b3-0190-480f-9d47-ca55ed1ea5cb","system_id":"levelo_inurba_marseille","lat":43.32133,"lon":5.37007,"is_reserved":false,"is_disabled":false,"rental_uris":{"android":"levelo://app?vid=c9bf36b3-0190-480f-9d47-ca55ed1ea5cb","ios":"levelo://app?vid=c9bf36b3-0190-480f-9d47-ca55ed1ea5cb"},"vehicle_type_id":"4","last_reported":1729328910,"current_range_meters":24800,"station_id":"","pricing_plan_id":"cebpf4jnsgd1na2vs0mg"},{"bike_id":"ce4dbc63-f4d4-4415-9dde-3355a13a6ea4","system_id":"levelo_inurba_marseille","lat":43.3014,"lon":5.37418,"is_reserved":false,"is_disabled":false,"rental_uris":{"android":"levelo://app?vid=ce4dbc63-f4d4-4415-9dde-3355a13a6ea4","ios":"levelo://app?vid=ce4dbc63-f4d4-4415-9dde-3355a13a6ea4"},"vehicle_type_id":"4","last_reported":1729328910,"current_range_meters":38000,"station_id":"ce4bgs92rcd13ifvqcc0","pricing_plan_id":"cebpf4jnsgd1na2vs0mg"},{"bike_id":"7077cfe1-99d7-40fb-8023-64600da656cb","system_id":"levelo_inurba_marseille","lat":43.27071,"lon":5.42277,"is_reserved":false,"is_disabled":false,"rental_uris":{"android":"levelo://app?vid=7077cfe1-99d7-40fb-8023-64600da656cb","ios":"levelo://app?vid=7077cfe1-99d7-40fb-8023-64600da656cb"},"vehicle_type_id":"4","last_reported":1729328910,"current_range_meters":23200,"station_id":"ce4bhk92rcd13ifvqgb0","pricing_plan_id":"cebpf4jnsgd1na2vs0mg"},{"bike_id":"67f3a430-a435-476c-9f14-03933430901e","system_id":"levelo_inurba_marseille","lat":43.23068,"lon":5.35485,"is_reserved":false,"is_disabled":false,"rental_uris":{"android":"levelo://app?vid=67f3a430-a435-476c-9f14-03933430901e","ios":"levelo://app?vid=67f3a430-a435-476c-9f14-03933430901e"},"vehicle_type_id":"4","last_reported":1729328910,"current_range_meters":31200,"station_id":"cpo3342slgdg3j2ifvpg","pricing_plan_id":"cebpf4jnsgd1na2vs0mg"},{"bike_id":"2099320c-6ef0-4a30-bfc8-947809ce04a0","system_id":"levelo_inurba_marseille","lat":43.25866,"lon":5.39899,"is_reserved":false,"is_disabled":false,"rental_uris":{"android":"levelo://app?vid=2099320c-6ef0-4a30-bfc8-947809ce04a0","ios":"levelo://app?vid=2099320c-6ef0-4a30-bfc8-947809ce04a0"},"vehicle_type_id":"4","last_reported":1729328910,"current_range_meters":17600,"station_id":"ce4bhl92rcd13ifvqghg","pricing_plan_id":"cebpf4jnsgd1na2vs0mg"},{"bike_id":"0bd9730e-3e84-457b-a6fb-b444e8592895","system_id":"levelo_inurba_marseille","lat":43.29797,"lon":5.37102,"is_reserved":false,"is_disabled":false,"rental_uris":{"android":"levelo://app?vid=0bd9730e-3e84-457b-a6fb-b444e8592895","ios":"levelo://app?vid=0bd9730e-3e84-457b-a6fb-b444e8592895"},"vehicle_type_id":"4","last_reported":1729328910,"current_range_meters":38800,"station_id":"ce4bgop2rcd13ifvqc1g","pricing_plan_id":"cebpf4jnsgd1na2vs0mg"},{"bike_id":"d79964e7-2bc4-4004-a6e3-b60a3c0a934d","system_id":"levelo_inurba_marseille","lat":43.33013,"lon":5.39037,"is_reserved":false,"is_disabled":false,"rental_uris":{"android":"levelo://app?vid=d79964e7-2bc4-4004-a6e3-b60a3c0a934d","ios":"levelo://app?vid=d79964e7-2bc4-4004-a6e3-b60a3c0a934d"},"vehicle_type_id":"4","last_reported":1729328910,"current_range_meters":38800,"station_id":"ce4bhr92rcd13ifvqhrg","pricing_plan_id":"cebpf4jnsgd1na2vs0mg"},{"bike_id":"5ca4b858-620c-432d-a47c-f9baca0eb526","system_id":"levelo_inurba_marseille","lat":43.31082,"lon":5.4243,"is_reserved":false,"is_disabled":false,"rental_uris":{"android":"levelo://app?vid=5ca4b858-620c-432d-a47c-f9baca0eb526","ios":"levelo://app?vid=5ca4b858-620c-432d-a47c-f9baca0eb526"},"vehicle_type_id":"4","last_reported":1729328910,"current_range_meters":36400,"station_id":"ce4bhp92rcd13ifvqhag","pricing_plan_id":"cebpf4jnsgd1na2vs0mg"},{"bike_id":"c09cfd1e-488b-4509-8996-0fd803fd9b52","system_id":"levelo_inurba_marseille","lat":43.26559,"lon":5.37289,"is_reserved":false,"is_disabled":false,"rental_uris":{"android":"levelo://app?vid=c09cfd1e-488b-4509-8996-0fd803fd9b52","ios":"levelo://app?vid=c09cfd1e-488b-4509-8996-0fd803fd9b52"},"vehicle_type_id":"4","last_reported":1729328910,"current_range_meters":27200,"station_id":"ce4bhg12rcd13ifvqf70","pricing_plan_id":"cebpf4jnsgd1na2vs0mg"},{"bike_id":"ae939472-dca4-489b-9a99-70c949adc489","system_id":"levelo_inurba_marseille","lat":43.29611,"lon":5.37129,"is_reserved":false,"is_disabled":false,"rental_uris":{"android":"levelo://app?vid=ae939472-dca4-489b-9a99-70c949adc489","ios":"levelo://app?vid=ae939472-dca4-489b-9a99-70c949adc489"},"vehicle_type_id":"4","last_reported":1729328910,"current_range_meters":36000,"station_id":"ce4bgnh2rcd13ifvqc0g","pricing_plan_id":"cebpf4jnsgd1na2vs0mg"},{"bike_id":"36151fba-4a6c-4d43-94e5-72101e0332d6","system_id":"levelo_inurba_marseille","lat":43.33031,"lon":5.39034,"is_reserved":false,"is_disabled":false,"rental_uris":{"android":"levelo://app?vid=36151fba-4a6c-4d43-94e5-72101e0332d6","ios":"levelo://app?vid=36151fba-4a6c-4d43-94e5-72101e0332d6"},"vehicle_type_id":"4","last_reported":1729328910,"current_range_meters":27200,"station_id":"ce4bhr92rcd13ifvqhrg","pricing_plan_id":"cebpf4jnsgd1na2vs0mg"},{"bike_id":"5c0c769a-a388-49f2-8d2f-cacadab15288","system_id":"levelo_inurba_marseille","lat":43.30269,"lon":5.37694,"is_reserved":false,"is_disabled":false,"rental_uris":{"android":"levelo://app?vid=5c0c769a-a388-49f2-8d2f-cacadab15288","ios":"levelo://app?vid=5c0c769a-a388-49f2-8d2f-cacadab15288"},"vehicle_type_id":"4","last_reported":1729328910,"current_range_meters":38400,"station_id":"ce4bguh2rcd13ifvqcj0","pricing_plan_id":"cebpf4jnsgd1na2vs0mg"},{"bike_id":"50af7bb8-e463-4865-8036-f03460c8aa98","system_id":"levelo_inurba_marseille","lat":43.28266,"lon":5.35059,"is_reserved":false,"is_disabled":false,"rental_uris":{"android":"levelo://app?vid=50af7bb8-e463-4865-8036-f03460c8aa98","ios":"levelo://app?vid=50af7bb8-e463-4865-8036-f03460c8aa98"},"vehicle_type_id":"4","last_reported":1729328910,"current_range_meters":36400,"station_id":"ce4bhbp2rcd13ifvqerg","pricing_plan_id":"cebpf4jnsgd1na2vs0mg"},{"bike_id":"90621aa1-67b3-4c04-92dc-91290ad232c6","system_id":"levelo_inurba_marseille","lat":43.32043,"lon":5.41556,"is_reserved":false,"is_disabled":false,"rental_uris":{"android":"levelo://app?vid=90621aa1-67b3-4c04-92dc-91290ad232c6","ios":"levelo://app?vid=90621aa1-67b3-4c04-92dc-91290ad232c6"},"vehicle_type_id":"4","last_reported":1729328910,"current_range_meters":20000,"station_id":"ce4bhq92rcd13ifvqhkg","pricing_plan_id":"cebpf4jnsgd1na2vs0mg"},{"bike_id":"2c152736-42ca-4904-a140-89d6c7b2667f","system_id":"levelo_inurba_marseille","lat":43.28457,"lon":5.35886,"is_reserved":false,"is_disabled":false,"rental_uris":{"android":"levelo://app?vid=2c152736-42ca-4904-a140-89d6c7b2667f","ios":"levelo://app?vid=2c152736-42ca-4904-a140-89d6c7b2667f"},"vehicle_type_id":"4","last_reported":1729328910,"current_range_meters":37600,"station_id":"ce4bhah2rcd13ifvqei0","pricing_plan_id":"cebpf4jnsgd1na2vs0mg"},{"bike_id":"571873f5-7b53-4875-9694-11a30ffd18be","system_id":"levelo_inurba_marseille","lat":43.30251,"lon":5.40074,"is_reserved":false,"is_disabled":false,"rental_uris":{"android":"levelo://app?vid=571873f5-7b53-4875-9694-11a30ffd18be","ios":"levelo://app?vid=571873f5-7b53-4875-9694-11a30ffd18be"},"vehicle_type_id":"4","last_reported":1729328910,"current_range_meters":38000,"station_id":"ce4bgvh2rcd13ifvqcs0","pricing_plan_id":"cebpf4jnsgd1na2vs0mg"},{"bike_id":"f3a96a4d-bc6d-460f-a415-db98973047b8","system_id":"levelo_inurba_marseille","lat":43.29895,"lon":5.43662,"is_reserved":false,"is_disabled":false,"rental_uris":{"android":"levelo://app?vid=f3a96a4d-bc6d-460f-a415-db98973047b8","ios":"levelo://app?vid=f3a96a4d-bc6d-460f-a415-db98973047b8"},"vehicle_type_id":"4","last_reported":1729328910,"current_range_meters":32800,"station_id":"ce4bhpp2rcd13ifvqhfg","pricing_plan_id":"cebpf4jnsgd1na2vs0mg"},