{"last_updated":1736366987,"ttl":60,"version":"2.2","data":{"bikes":[{"bike_id":"e53ee841-b694-4ec4-b3ba-f18d13a12fbf","system_id":"levelo_inurba_marseille","lat":43.33044,"lon":5.3906,"is_reserved":false,"is_disabled":false,"rental_uris":{"android":"levelo://app?vid=e53ee841-b694-4ec4-b3ba-f18d13a12fbf","ios":"levelo://app?vid=e53ee841-b694-4ec4-b3ba-f18d13a12fbf"},"vehicle_type_id":"4","last_reported":1736366987,"current_range_meters":18800,"station_id":"ce4bhr92rcd13ifvqhrg","pricing_plan_id":"cebpf4jnsgd1na2vs0mg"},{"bike_id":"71e154cd-bb17-4809-bcb5-bdfe1a1729d9","system_id":"levelo_inurba_marseille","lat":43.289319,"lon":5.366397,"is_reserved":false,"is_disabled":false,"rental_uris":{"android":"levelo://app?vid=71e154cd-bb17-4809-bcb5-bdfe1a1729d9","ios":"levelo://app?vid=71e154cd-bb17-4809-bcb5-bdfe1a1729d9"},"vehicle_type_id":"4","last_reported":1736366987,"current_range_meters":29600,"station_id":"ce4bhap2rcd13ifvqek0","pricing_plan_id":"cebpf4jnsgd1na2vs0mg"},{"bike_id":"424b02a3-71fc-4629-934b-0ffcd9c06e9e","system_id":"levelo_inurba_marseille","lat":43.308889,"lon":5.39655,"is_reserved":false,"is_disabled":false,"rental_uris":{"android":"levelo://app?vid=424b02a3-71fc-4629-934b-0ffcd9c06e9e","ios":"levelo://app?vid=424b02a3-71fc-4629-934b-0ffcd9c06e9e"},"vehicle_type_id":"4","last_reported":1736366987,"current_range_meters":38400,"station_id":"ce4bh012rcd13ifvqcv0","pricing_plan_id":"cebpf4jnsgd1na2vs0mg"},{"bike_id":"5ec8fad6-99b6-45c1-a4f3-b0ceecb3b22c","system_id":"levelo_inurba_marseille","lat":43.29847,"lon":5.36283,"is_reserved":false,"is_disabled":false,"rental_uris":{"android":"levelo://app?vid=5ec8fad6-99b6-45c1-a4f3-b0ceecb3b22c","ios":"levelo://app?vid=5ec8fad6-99b6-45c1-a4f3-b0ceecb3b22c"},"vehicle_type_id":"4","last_reported":1736366987,"current_range_meters":23200,"station_id":"ce4bgpp2rcd13ifvqc3g","pricing_plan_id":"cebpf4jnsgd1na2vs0mg"},{"bike_id":"079a2489-d193-414b-8b47-82e93bfb4b65","system_id":"levelo_inurba_marseille","lat":43.28901,"lon":5.380025,"is_reserved":false,"is_disabled":false,"rental_uris":{"android":"levelo://app?vid=079a2489-d193-414b-8b47-82e93bfb4b65","ios":"levelo://app?vid=079a2489-d193-414b-8b47-82e93bfb4b65"},"vehicle_type_id":"4","last_reported":1736366987,"current_range_meters":36800,"station_id":"","pricing_plan_id":"cebpf4jnsgd1na2vs0mg"},{"bike_id":"38b313e7-9a2f-452f-bdb8-d453ae7237a3","system_id":"levelo_inurba_marseille","lat":43.27499,"lon":5.42445,"is_reserved":false,"is_disabled":false,"rental_uris":{"android":"levelo://app?vid=38b313e7-9a2f-452f-bdb8-d453ae7237a3","ios":"levelo://app?vid=38b313e7-9a2f-452f-bdb8-d453ae7237a3"},"vehicle_type_id":"4","last_reported":1736366987,"current_range_meters":5600,"station_id":"ce4bhn92rcd13ifvqgrg","pricing_plan_id":"cebpf4jnsgd1na2vs0mg"},{"bike_id":"31010968-cae9-4e3c-9ab2-3cb8a752c00d","system_id":"levelo_inurba_marseille","lat":43.26558,"lon":5.39012,"is_reserved":false,"is_disabled":false,"rental_uris":{"android":"levelo://app?vid=31010968-cae9-4e3c-9ab2-3cb8a752c00d","ios":"levelo://app?vid=31010968-cae9-4e3c-9ab2-3cb8a752c00d"},"vehicle_type_id":"4","last_reported":1736366987,"current_range_meters":22400,"station_id":"ce4bhe12rcd13ifvqf30","pricing_plan_id":"cebpf4jnsgd1na2vs0mg"},{"bike_id":"499f9695-a8d6-4ede-a6dc-9e2a3933daae","system_id":"levelo_inurba_marseille","lat":43.30651,"lon":5.40079,"is_reserved":false,"is_disabled":false,"rental_uris":{"android":"levelo://app?vid=499f9695-a8d6-4ede-a6dc-9e2a3933daae","ios":"levelo://app?vid=499f9695-a8d6-4ede-a6dc-9e2a3933daae"},"vehicle_type_id":"4","last_reported":1736366987,"current_range_meters":38800,"station_id":"ce4bh112rcd13ifvqda0","pricing_plan_id":"cebpf4jnsgd1na2vs0mg"},{"bike_id":"2610dc56-5e17-459a-8cdb-789c1021167b","system_id":"levelo_inurba_marseille","lat":43.24068,"lon":5.37761,"is_reserved":false,"is_disabled":false,"rental_uris":{"android":"levelo://app?vid=2610dc56-5e17-459a-8cdb-789c1021167b","ios":"levelo://app?vid=2610dc56-5e17-459a-8cdb-789c1021167b"},"vehicle_type_id":"4","last_reported":1736366987,"current_range_meters":28000,"station_id":"ce4bhnp2rcd13ifvqgvg","pricing_plan_id":"cebpf4jnsgd1na2vs0mg"},{"bike_id":"52cb4d94-192e-485f-86f3-b3c9884ce888","system_id":"levelo_inurba_marseille","lat":43.29599,"lon":5.38101,"is_reserved":false,"is_disabled":false,"rental_uris":{"android":"levelo://app?vid=52cb4d94-192e-485f-86f3-b3c9884ce888","ios":"levelo://app?vid=52cb4d94-192e-485f-86f3-b3c9884ce888"},"vehicle_type_id":"4","last_reported":1736366987,"current_range_meters":26000,"station_id":"ce4bgl12rcd13ifvqbo0","pricing_plan_id":"cebpf4jnsgd1na2vs0mg"},{"bike_id":"5dd84917-2615-4374-920e-270977b151dd","system_id":"levelo_inurba_marseille","lat":43.30362,"lon":5.41871,"is_reserved":false,"is_disabled":false,"rental_uris":{"android":"levelo://app?vid=5dd84917-2615-4374-920e-270977b151dd","ios":"levelo://app?vid=5dd84917-2615-4374-920e-270977b151dd"},"vehicle_type_id":"4","last_reported":1736366987,"current_range_meters":34000,"station_id":"ce4bhop2rcd13ifvqh7g","pricing_plan_id":"cebpf4jnsgd1na2vs0mg"},{"bike_id":"b9132468-1d90-4cfc-a8e5-4d2d1700188a","system_id":"levelo_inurba_marseille","lat":43.24074,"lon":5.37762,"is_reserved":false,"is_disabled":false,"rental_uris":{"android":"levelo://app?vid=b9132468-1d90-4cfc-a8e5-4d2d1700188a","ios":"levelo://app?vid=b9132468-1d90-4cfc-a8e5-4d2d1700188a"},"vehicle_type_id":"4","last_reported":1736366987,"current_range_meters":38800,"station_id":"ce4bhnp2rcd13ifvqgvg","pricing_plan_id":"cebpf4jnsgd1na2vs0mg"},{"bike_id":"784c114c-6b4b-4d66-8437-8a364b7d7999","system_id":"levelo_inurba_marseille","lat":43.33719,"lon":5.39175,"is_reserved":false,"is_disabled":false,"rental_uris":{"android":"levelo://app?vid=784c114c-6b4b-4d66-8437-8a364b7d7999","ios":"levelo://app?vid=784c114c-6b4b-4d66-8437-8a364b7d7999"},"vehicle_type_id":"4","last_reported":1736366987,"current_range_meters":33600,"station_id":"ce4bhr92rcd13ifvqhsg","pricing_plan_id":"cebpf4jnsgd1na2vs0mg"},{"bike_id":"8bf38e2b-be42-4976-a0cd-2ce26692c4cb","system_id":"levelo_inurba_marseille","lat":43.30932,"lon":5.40124,"is_reserved":false,"is_disabled":false,"rental_uris":{"android":"levelo://app?vid=8bf38e2b-be42-4976-a0cd-2ce26692c4cb","ios":"levelo://app?vid=8bf38e2b-be42-4976-a0cd-2ce26692c4cb"},"vehicle_type_id":"4","last_reported":1736366987,"current_range_meters":36800,"station_id":"ce4bgvp2rcd13ifvqct0","pricing_plan_id":"cebpf4jnsgd1na2vs0mg"},{"bike_id":"e11d54b1-5a29-4bdc-a339-c2566ccd7194","system_id":"levelo_inurba_marseille","lat":43.30913,"lon":5.36855,"is_reserved":false,"is_disabled":false,"rental_uris":{"android":"levelo://app?vid=e11d54b1-5a29-4bdc-a339-c2566ccd7194","ios":"levelo://app?vid=e11d54b1-5a29-4bdc-a339-c2566ccd7194"},"vehicle_type_id":"4","last_reported":1736366987,"current_range_meters":38400,"station_id":"ce4bgn92rcd13ifvqbvg","pricing_plan_id":"cebpf4jnsgd1na2vs0mg"},{"bike_id":"b757b6ac-22c3-4b05-bd64-8c3ede23276e","system_id":"levelo_inurba_marseille","lat":43.27961,"lon":5.38733,"is_reserved":false,"is_disabled":false,"rental_uris":{"android":"levelo://app?vid=b757b6ac-22c3-4b05-bd64-8c3ede23276e","ios":"levelo://app?vid=b757b6ac-22c3-4b05-bd64-8c3ede23276e"},"vehicle_type_id":"4","last_reported":1736366987,"current_range_meters":36400,"station_id":"ce4bhg12rcd13ifvqf80","pricing_plan_id":"cebpf4jnsgd1na2vs0mg"},{"bike_id":"ece82557-6569-4215-9027-5b44a37fe52e","system_id":"levelo_inurba_marseille","lat":43.29089,"lon":5.37962,"is_reserved":false,"is_disabled":true,"rental_uris":{"android":"levelo://app?vid=ece82557-6569-4215-9027-5b44a37fe52e","ios":"levelo://app?vid=ece82557-6569-4215-9027-5b44a37fe52e"},"vehicle_type_id":"4","last_reported":1736366987,"current_range_meters":2000,"station_id":"","pricing_plan_id":"cebpf4jnsgd1na2vs0mg"},{"bike_id":"6afb34d0-7b4c-4f2a-b7fa-cd31ac416a2f","system_id":"levelo_inurba_marseille","lat":43.2866,"lon":5.36349,"is_reserved":false,"is_disabled":false,"rental_uris":{"android":"levelo://app?vid=6afb34d0-7b4c-4f2a-b7fa-cd31ac416a2f","ios":"levelo://app?vid=6afb34d0-7b4c-4f2a-b7fa-cd31ac416a2f"},"vehicle_type_id":"4","last_reported":1736366987,"current_range_meters":28000,"station_id":"ce4bhah2rcd13ifvqej0","pricing_plan_id":"cebpf4jnsgd1na2vs0mg"},{"bike_id":"fa659120-f8e9-4aba-a8bc-a3c5660d4494","system_id":"levelo_inurba_marseille","lat":43.32334,"lon":5.40622,"is_reserved":false,"is_disabled":false,"rental_uris":{"android":"levelo://app?vid=fa659120-f8e9-4aba-a8bc-a3c5660d4494","ios":"levelo://app?vid=fa659120-f8e9-4aba-a8bc-a3c5660d4494"},"vehicle_type_id":"4","last_reported":1736366987,"current_range_meters":12800,"station_id":"ce4bhq92rcd13ifvqhjg","pricing_plan_id":"cebpf4jnsgd1na2vs0mg"},{"bike_id":"06614d3c-cc90-4bac-b3be-d11a09097945","system_id":"levelo_inurba_marseille","lat":43.2988,"lon":5.38907,"is_reserved":false,"is_disabled":false,"rental_uris":{"android":"levelo://app?vid=06614d3c-cc90-4bac-b3be-d11a09097945","ios":"levelo://app?vid=06614d3c-cc90-4bac-b3be-d11a09097945"},"vehicle_type_id":"4","last_reported":1736366987,"current_range_meters":19200,"station_id":"ce4bh392rcd13ifvqdl0","pricing_plan_id":"cebpf4jnsgd1na2vs0mg"},{"bike_id":"f40a23e1-4db4-43c9-bf26-5d3436aadc87","system_id":"levelo_inurba_marseille","lat":43.28364,"lon":5.38596,"is_reserved":false,"is_disabled":true,"rental_uris":{"android":"levelo://app?vid=f40a23e1-4db4-43c9-bf26-5d3436aadc87","ios":"levelo://app?vid=f40a23e1-4db4-43c9-bf26-5d3436aadc87"},"vehicle_type_id":"4","last_reported":1736366987,"current_range_meters":36800,"station_id":"ce4bh492rcd13ifvqdvg","pricing_plan_id":"cebpf4jnsgd1na2vs0mg"},{"bike_id":"8cf3d917-04a2-456b-bf33-74960d626e85","system_id":"levelo_inurba_marseille","lat":43.31695,"lon":5.4047,"is_reserved":false,"is_disabled":false,"rental_uris":{"android":"levelo://app?vid=8cf3d917-04a2-456b-bf33-74960d626e85","ios":"levelo://app?vid=8cf3d917-04a2-456b-bf33-74960d626e85"},"vehicle_type_id":"4","last_reported":1736366987,"current_range_meters":37600,"station_id":"ce4bh012rcd13ifvqd00","pricing_plan_id":"cebpf4jnsgd1na2vs0mg"},{"bike_id":"73eb524f-2d58-4a00-9fa5-76f6077910dd","system_id":"levelo_inurba_marseille","lat":43.23189,"lon":5.39991,"is_reserved":false,"is_disabled":true,"rental_uris":{"android":"levelo://app?vid=73eb524f-2d58-4a00-9fa5-76f6077910dd","ios":"levelo://app?vid=73eb524f-2d58-4a00-9fa5-76f6077910dd"},"vehicle_type_id":"4","last_reported":1736366987,"current_range_meters":11200,"station_id":"ce4bhn12rcd13ifvqgqg","pricing_plan_id":"cebpf4jnsgd1na2vs0mg"},{"bike_id":"98c1e4a9-94f3-4bd8-a529-3fb5c41f1f78","system_id":"levelo_inurba_marseille","lat":43.29071,"lon":5.37158,"is_reserved":false,"is_disabled":false,"rental_uris":{"android":"levelo://app?vid=98c1e4a9-94f3-4bd8-a529-3fb5c41f1f78","ios":"levelo://app?vid=98c1e4a9-94f3-4bd8-a529-3fb5c41f1f78"},"vehicle_type_id":"4","last_reported":1736366987,"current_range_meters":20000,"station_id":"ce4bh5p2rcd13ifvqe4g","pricing_plan_id":"cebpf4jnsgd1na2vs0mg"},{"bike_id":"2199d219-e0ca-4b28-a772-ba63161f237a","system_id":"levelo_inurba_marseille","lat":43.32111,"lon":5.36773,"is_reserved":false,"is_disabled":false,"rental_uris":{"android":"levelo://app?vid=2199d219-e0ca-4b28-a772-ba63161f237a","ios":"levelo://app?vid=2199d219-e0ca-4b28-a772-ba63161f237a"},"vehicle_type_id":"4","last_reported":1736366987,"current_range_meters":17200,"station_id":"ce4bhrh2rcd13ifvqhug","pricing_plan_id":"cebpf4jnsgd1na2vs0mg"},{"bike_id":"af98da3b-a5f8-4f6c-93ae-5cdf75208084","system_id":"levelo_inurba_marseille","lat":43.2927,"lon":5.38427,"is_reserved":false,"is_disabled":false,"rental_uris":{"android":"levelo://app?vid=af98da3b-a5f8-4f6c-93ae-5cdf75208084","ios":"levelo://app?vid=af98da3b-a5f8-4f6c-93ae-5cdf75208084"},"vehicle_type_id":"4","last_reported":1736366987,"current_range_meters":29600,"station_id":"ce4bh692rcd13ifvqea0","pricing_plan_id":"cebpf4jnsgd1na2vs0mg"},{"bike_id":"dd93dd09-b45c-4902-b989-ec9b3a3db419","system_id":"levelo_inurba_marseille","lat":43.28612,"lon":5.35099,"is_reserved":false,"is_disabled":false,"rental_uris":{"android":"levelo://app?vid=dd93dd09-b45c-4902-b989-ec9b3a3db419","ios":"levelo://app?vid=dd93dd09-b45c-4902-b989-ec9b3a3db419"},"vehicle_type_id":"4","last_reported":1736366987,"current_range_meters":30800,"station_id":"ce4bhch2rcd13ifvqeug","pricing_plan_id":"cebpf4jnsgd1na2vs0mg"},{"bike_id":"2d648351-f34f-49f7-a31d-1dbaa2fc1ef9","system_id":"levelo_inurba_marseille","lat":43.30776,"lon":5.37653,"is_reserved":false,"is_disabled":false,"rental_uris":{"android":"levelo://app?vid=2d648351-f34f-49f7-a31d-1dbaa2fc1ef9","ios":"levelo://app?vid=2d648351-f34f-49f7-a31d-1dbaa2fc1ef9"},"vehicle_type_id":"4","last_reported":1736366987,"current_range_meters":35200,"station_id":"ce4bgv92rcd13ifvqcq0","pricing_plan_id":"cebpf4jnsgd1na2vs0mg"},{"bike_id":"8f3222f5-c1e8-4651-b24f-48760890fd0c","system_id":"levelo_inurba_marseille","lat":43.28673,"lon":5.36356,"is_reserved":false,"is_disabled":false,"rental_uris":{"android":"levelo://app?vid=8f3222f5-c1e8-4651-b24f-48760890fd0c","ios":"levelo://app?vid=8f3222f5-c1e8-4651-b24f-48760890fd0c"},"vehicle_type_id":"4","last_reported":1736366987,"current_range_meters":38800,"station_id":"ce4bhah2rcd13ifvqej0","pricing_plan_id":"cebpf4jnsgd1na2vs0mg"},{"bike_id":"e9811af6-2b58-44bf-8a8f-1cf010738c20","system_id":"levelo_inurba_marseille","lat":43.23193,"lon":5.3997,"is_reserved":false,"is_disabled":false,"rental_uris":{"android":"levelo://app?vid=e9811af6-2b58-44bf-8a8f-1cf010738c20","ios":"levelo://app?vid=e9811af6-2b58-44bf-8a8f-1cf010738c20"},"vehicle_type_id":"4","last_reported":1736366987,"current_range_meters":35600,"station_id":"ce4bhn12rcd13ifvqgqg","pricing_plan_id":"cebpf4jnsgd1na2vs0mg"},{"bike_id":"5ebc11ec-bbdc-4f46-afff-cbd5432dc90d","system_id":"levelo_inurba_marseille","lat":43.29531,"lon":5.39056,"is_reserved":false,"is_disabled":false,"rental_uris":{"android":"levelo://app?vid=5ebc11ec-bbdc-4f46-afff-cbd5432dc90d","ios":"levelo://app?vid=5ebc11ec-bbdc-4f46-afff-cbd5432dc90d"},"vehicle_type_id":"4","last_reported":1736366987,"current_range_meters":8000,"station_id":"ce4bh3p2rcd13ifvqdp0","pricing_plan_id":"cebpf4jnsgd1na2vs0mg"},{"bike_id":"92b15878-90b2-470d-b1f5-05b4f85f4c59","system_id":"levelo_inurba_marseille","lat":43.3094,"lon":5.40139,"is_reserved":false,"is_disabled":false,"rental_uris":{"android":"levelo://app?vid=92b15878-90b2-470d-b1f5-05b4f85f4c59","ios":"levelo://app?vid=92b15878-90b2-470d-b1f5-05b4f85f4c59"},"vehicle_type_id":"4","last_reported":1736366987,"current_range_meters":38800,"station_id":"ce4bgvp2rcd13ifvqct0","pricing_plan_id":"cebpf4jnsgd1na2vs0mg"},{"bike_id":"e15dcd3b-eacc-4522-9907-a3d4d4f0f50b","system_id":"levelo_inurba_marseille","lat":43.29285,"lon":5.3843,"is_reserved":false,"is_disabled":false,"rental_uris":{"android":"levelo://app?vid=e15dcd3b-eacc-4522-9907-a3d4d4f0f50b","ios":"levelo://app?vid=e15dcd3b-eacc-4522-9907-a3d4d4f0f50b"},"vehicle_type_id":"4","last_reported":1736366987,"current_range_meters":39200,"station_id":"ce4bh692rcd13ifvqea0","pricing_plan_id":"cebpf4jnsgd1na2vs0mg"},{"bike_id":"5f01e351-0beb-4bec-99a6-8ccfaafab549","system_id":"levelo_inurba_marseille","lat":43.2902,"lon":5.38141,"is_reserved":false,"is_disabled":true,"rental_uris":{"android":"levelo://app?vid=5f01e351-0beb-4bec-99a6-8ccfaafab549","ios":"levelo://app?vid=5f01e351-0beb-4bec-99a6-8ccfaafab549"},"vehicle_type_id":"4","last_reported":1736366987,"current_range_meters":38800,"station_id":"ce4bh4p2rcd13ifvqe1g","pricing_plan_id":"cebpf4jnsgd1na2vs0mg"},{"bike_id":"97b80b3d-9eab-4f01-8568-0ed122e2b68e","system_id":"levelo_inurba_marseille","lat":43.28145,"lon":5.4265,"is_reserved":false,"is_disabled":false,"rental_uris":{"android":"levelo://app?vid=97b80b3d-9eab-4f01-8568-0ed122e2b68e","ios":"levelo://app?vid=97b80b3d-9eab-4f01-8568-0ed122e2b68e"},"vehicle_type_id":"4","last_reported":1736366987,"current_range_meters":36400,"station_id":"ce4bhnh2rcd13ifvqgug","pricing_plan_id":"cebpf4jnsgd1na2vs0mg"},{"bike_id":"f45bc5a2-ac90-41b7-9352-e987f3a6a4fc","system_id":"levelo_inurba_marseille","lat":43.29278,"lon":5.36837,"is_reserved":false,"is_disabled":false,"rental_uris":{"android":"levelo://app?vid=f45bc5a2-ac90-41b7-9352-e987f3a6a4fc","ios":"levelo://app?vid=f45bc5a2-ac90-41b7-9352-e987f3a6a4fc"},"vehicle_type_id":"4","last_reported":1736366987,"current_range_meters":38400,"station_id":"ce4bhbp2rcd13ifvqesg","pricing_plan_id":"cebpf4jnsgd1na2vs0mg"},{"bike_id":"027fb515-cf5e-4431-9b8b-d23328baea59","system_id":"levelo_inurba_marseille","lat":43.23444,"lon":5.41217,"is_reserved":false,"is_disabled":false,"rental_uris":{"android":"levelo://app?vid=027fb515-cf5e-4431-9b8b-d23328baea59","ios":"levelo://app?vid=027fb515-cf5e-4431-9b8b-d23328baea59"},"vehicle_type_id":"4","last_reported":1736366987,"current_range_meters":17600,"station_id":"","pricing_plan_id":"cebpf4jnsgd1na2vs0mg"},{"bike_id":"df02e1b6-3a50-4ccf-933f-7b5e41abfc53","system_id":"levelo_inurba_marseille","lat":43.31328,"lon":5.39691,"is_reserved":false,"is_disabled":false,"rental_uris":{"android":"levelo://app?vid=df02e1b6-3a50-4ccf-933f-7b5e41abfc53","ios":"levelo://app?vid=df02e1b6-3a50-4ccf-933f-7b5e41abfc53"},"vehicle_type_id":"4","last_reported":1736366987,"current_range_meters":38800,"station_id":"ce4bgvp2rcd13ifvqcu0","pricing_plan_id":"cebpf4jnsgd1na2vs0mg"},{"bike_id":"e601d8b6-f206-400a-be15-a8cb866ef7c3","system_id":"levelo_inurba_marseille","lat":43.29379,"lon":5.37837,"is_reserved":false,"is_disabled":true,"rental_uris":{"android":"levelo://app?vid=e601d8b6-f206-400a-be15-a8cb866ef7c3","ios":"levelo://app?vid=e601d8b6-f206-400a-be15-a8cb866ef7c3"},"vehicle_type_id":"4","last_reported":1736366987,"current_range_meters":38800,"station_id":"ce4bgjh2rcd13ifvqbf0","pricing_plan_id":"cebpf4jnsgd1na2vs0mg"},{"bike_id":"be4c59f4-a498-44be-a430-245c96b05e75","system_id":"levelo_inurba_marseille","lat":43.32869,"lon":5.39163,"is_reserved":false,"is_disabled":false,"rental_uris":{"android":"levelo://app?vid=be4c59f4-a498-44be-a430-245c96b05e75","ios":"levelo://app?vid=be4c59f4-a498-44be-a430-245c96b05e75"},"vehicle_type_id":"4","last_reported":1736366987,"current_range_meters":14800,"station_id":"","pricing_plan_id":"cebpf4jnsgd1na2vs0mg"},{"bike_id":"feeeae9a-4bcc-477a-bc8c-e9391fa8aedd","system_id":"levelo_inurba_marseille","lat":43.29189,"lon":5.3931,"is_reserved":false,"is_disabled":true,"rental_uris":{"android":"levelo://app?vid=feeeae9a-4bcc-477a-bc8c-e9391fa8aedd","ios":"levelo://app?vid=feeeae9a-4bcc-477a-bc8c-e9391fa8aedd"},"vehicle_type_id":"4","last_reported":1736366987,"current_range_meters":1600,"station_id":"ce4bh192rcd13ifvqdd0","pricing_plan_id":"cebpf4jnsgd1na2vs0mg"},{"bike_id":"110eeb1f-8417-4298-b18f-45e61c7c86f0","system_id":"levelo_inurba_marseille","lat":43.30252,"lon":5.40073,"is_reserved":false,"is_disabled":false,"rental_uris":{"android":"levelo://app?vid=110eeb1f-8417-4298-b18f-45e61c7c86f0","ios":"levelo://app?vid=110eeb1f-8417-4298-b18f-45e61c7c86f0"},"vehicle_type_id":"4","last_reported":1736366987,"current_range_meters":11600,"station_id":"ce4bgvh2rcd13ifvqcs0","pricing_plan_id":"cebpf4jnsgd1na2vs0mg"},{"bike_id":"dbe4d7d2-95f9-4a28-b000-f9ac7c3f52eb","system_id":"levelo_inurba_marseille","lat":43.29193,"lon":5.3931,"is_reserved":false,"is_disabled":true,"rental_uris":{"android":"levelo://app?vid=dbe4d7d2-95f9-4a28-b000-f9ac7c3f52eb","ios":"levelo://app?vid=dbe4d7d2-95f9-4a28-b000-f9ac7c3f52eb"},"vehicle_type_id":"4","last_reported":1736366987,"current_range_meters":2000,"station_id":"ce4bh192rcd13ifvqdd0","pricing_plan_id":"cebpf4jnsgd1na2vs0mg"},{"bike_id":"8dbe984d-a495-4550-9f90-89df3bd24be5","system_id":"levelo_inurba_marseille","lat":43.322885,"lon":5.382687,"is_reserved":false,"is_disabled":false,"rental_uris":{"android":"levelo://app?vid=8dbe984d-a495-4550-9f90-89df3bd24be5","ios":"levelo://app?vid=8dbe984d-a495-4550-9f90-89df3bd24be5"},"vehicle_type_id":"4","last_reported":1736366987,"current_range_meters":37600,"station_id":"ce4bhr12rcd13ifvqhqg","pricing_plan_id":"cebpf4jnsgd1na2vs0mg"},{"bike_id":"b02ae6ee-06d8-4b9f-9872-c8fcf9b7576a","system_id":"levelo_inurba_marseille","lat":43.30554,"lon":5.36529,"is_reserved":false,"is_disabled":true,"rental_uris":{"android":"levelo://app?vid=b02ae6ee-06d8-4b9f-9872-c8fcf9b7576a","ios":"levelo://app?vid=b02ae6ee-06d8-4b9f-9872-c8fcf9b7576a"},"vehicle_type_id":"4","last_reported":1736366987,"current_range_meters":24000,"station_id":"ce4bgs12rcd13ifvqcag","pricing_plan_id":"cebpf4jnsgd1na2vs0mg"},{"bike_id":"812c63ca-4ac5-4dcb-b455-48f84fc39ed7","system_id":"levelo_inurba_marseille","lat":43.28408,"lon":5.37515,"is_reserved":false,"is_disabled":true,"rental_uris":{"android":"levelo://app?vid=812c63ca-4ac5-4dcb-b455-48f84fc39ed7","ios":"levelo://app?vid=812c63ca-4ac5-4dcb-b455-48f84fc39ed7"},"vehicle_type_id":"4","last_reported":1736366987,"current_range_meters":0,"station_id":"ce4bh412rcd13ifvqds0","pricing_plan_id":"cebpf4jnsgd1na2vs0mg"},{"bike_id":"66a99026-5729-4c4a-8e59-0239fd2fc90d","system_id":"levelo_inurba_marseille","lat":43.28436,"lon":5.39202,"is_reserved":false,"is_disabled":false,"rental_uris":{"android":"levelo://app?vid=66a99026-5729-4c4a-8e59-0239fd2fc90d","ios":"levelo://app?vid=66a99026-5729-4c4a-8e59-0239fd2fc90d"},"vehicle_type_id":"4","last_reported":1736366987,"current_range_meters":36800,"station_id":"ce4bhoh2rcd13ifvqh5g","pricing_plan_id":"cebpf4jnsgd1na2vs0mg"},{"bike_id":"fef458c6-230f-461e-8e33-932a2204b0f4","system_id":"levelo_inurba_marseille","lat":43.32368,"lon":5.38884,"is_reserved":false,"is_disabled":true,"rental_uris":{"android":"levelo://app?vid=fef458c6-230f-461e-8e33-932a2204b0f4","ios":"levelo://app?vid=fef458c6-230f-461e-8e33-932a2204b0f4"},"vehicle_type_id":"4","last_reported":1736366987,"current_range_meters":0,"station_id":"ce4bhqp2rcd13ifvqhog","pricing_plan_id":"cebpf4jnsgd1na2vs0mg"},{"bike_id":"c156c884-b070-495f-8042-336e066b8d46","system_id":"levelo_inurba_marseille","lat":43.2681,"lon":5.4027,"is_reserved":false,"is_disabled":false,"rental_uris":{"android":"levelo://app?vid=c156c884-b070-495f-8042-336e066b8d46","ios":"levelo://app?vid=c156c884-b070-495f-8042-336e066b8d46"},"vehicle_type_id":"4","last_reported":1736366987,"current_range_meters":20400,"station_id":"ce501612rcd8frsf0b60","pricing_plan_id":"cebpf4jnsgd1na2vs0mg"},{"bike_id":"0f6cf192-bfbc-4fed-aa61-801e5a8a4d6a","system_id":"levelo_inurba_marseille","lat":43.30787,"lon":5.3765,"is_reserved":false,"is_disabled":false,"rental_uris":{"android":"levelo://app?vid=0f6cf192-bfbc-4fed-aa61-801e5a8a4d6a","ios":"levelo://app?vid=0f6cf192-bfbc-4fed-aa61-801e5a8a4d6a"},"vehicle_type_id":"4","last_reported":1736366987,"current_range_meters":34000,"station_id":"ce4bgv92rcd13ifvqcq0","pricing_plan_id":"cebpf4jnsgd1na2vs0mg"},{"bike_id":"a395f299-2e3c-4b01-a2e9-246d0d347a00","system_id":"levelo_inurba_marseille","lat":43.29416,"lon":5.38625,"is_reserved":false,"is_disabled":false,"rental_uris":{"android":"levelo://app?vid=a395f299-2e3c-4b01-a2e9-246d0d347a00","ios":"levelo://app?vid=a395f299-2e3c-4b01-a2e9-246d0d347a00"},"vehicle_type_id":"4","last_reported":1736366987,"current_range_meters":38800,"station_id":"ce4bh2h2rcd13ifvqdh0","pricing_plan_id":"cebpf4jnsgd1na2vs0mg"},{"bike_id":"b9a758d4-4e11-4e40-878a-fb05953086c0","system_id":"levelo_inurba_marseille","lat":43.23966,"lon":5.36625,"is_reserved":false,"is_disabled":false,"rental_uris":{"android":"levelo://app?vid=b9a758d4-4e11-4e40-878a-fb05953086c0","ios":"levelo://app?vid=b9a758d4-4e11-4e40-878a-fb05953086c0"},"vehicle_type_id":"4","last_reported":1736366987,"current_range_meters":14400,"station_id":"ce4bhi12rcd13ifvqfp0","pricing_plan_id":"cebpf4jnsgd1na2vs0mg"},{"bike_id":"c591373d-587c-41ff-afe0-106caa315b20","system_id":"levelo_inurba_marseille","lat":43.28734,"lon":5.379243,"is_reserved":false,"is_disabled":false,"rental_uris":{"android":"levelo://app?vid=c591373d-587c-41ff-afe0-106caa315b20","ios":"levelo://app?vid=c591373d-587c-41ff-afe0-106caa315b20"},"vehicle_type_id":"4","last_reported":1736366987,"current_range_meters":38800,"station_id":"ce4bh9p2rcd13ifvqec0","pricing_plan_id":"cebpf4jnsgd1na2vs0mg"},{"bike_id":"5e1046ba-1515-488b-b6e0-36eef329cf37","system_id":"levelo_inurba_marseille","lat":43.313123,"lon":5.406094,"is_reserved":false,"is_disabled":false,"rental_uris":{"android":"levelo://app?vid=5e1046ba-1515-488b-b6e0-36eef329cf37","ios":"levelo://app?vid=5e1046ba-1515-488b-b6e0-36eef329cf37"},"vehicle_type_id":"4","last_reported":1736366987,"current_range_meters":18800,"station_id":"ce4bhq12rcd13ifvqhig","pricing_plan_id":"cebpf4jnsgd1na2vs0mg"},{"bike_id":"74f2d628-450c-4ceb-af40-c0025325e507","system_id":"levelo_inurba_marseille","lat":43.29248,"lon":5.40891,"is_reserved":false,"is_disabled":false,"rental_uris":{"android":"levelo://app?vid=74f2d628-450c-4ceb-af40-c0025325e507","ios":"levelo://app?vid=74f2d628-450c-4ceb-af40-c0025325e507"},"vehicle_type_id":"4","last_reported":1736366987,"current_range_meters":37600,"station_id":"ce4bh192rcd13ifvqdc0","pricing_plan_id":"cebpf4jnsgd1na2vs0mg"},{"bike_id":"0bb18fce-6faa-40ab-8066-a4cf72d623a7","system_id":"levelo_inurba_marseille","lat":43.28713,"lon":5.37373,"is_reserved":false,"is_disabled":false,"rental_uris":{"android":"levelo://app?vid=0bb18fce-6faa-40ab-8066-a4cf72d623a7","ios":"levelo://app?vid=0bb18fce-6faa-40ab-8066-a4cf72d623a7"},"vehicle_type_id":"4","last_reported":1736366987,"current_range_meters":38800,"station_id":"ce4bh3p2rcd13ifvqdq0","pricing_plan_id":"cebpf4jnsgd1na2vs0mg"},{"bike_id":"83e7e804-2b99-4e06-93a6-e481d372b06c","system_id":"levelo_inurba_marseille","lat":43.2781,"lon":5.4073,"is_reserved":false,"is_disabled":false,"rental_uris":{"android":"levelo://app?vid=83e7e804-2b99-4e06-93a6-e481d372b06c","ios":"levelo://app?vid=83e7e804-2b99-4e06-93a6-e481d372b06c"},"vehicle_type_id":"4","last_reported":1736366987,"current_range_meters":38800,"station_id":"ce4bhnh2rcd13ifvqgtg","pricing_plan_id":"cebpf4jnsgd1na2vs0mg"},{"bike_id":"cc7ebf75-2609-40fd-9894-619c2829eee2","system_id":"levelo_inurba_marseille","lat":43.25726,"lon":5.41112,"is_reserved":false,"is_disabled":false,"rental_uris":{"android":"levelo://app?vid=cc7ebf75-2609-40fd-9894-619c2829eee2","ios":"levelo://app?vid=cc7ebf75-2609-40fd-9894-619c2829eee2"},"vehicle_type_id":"4","last_reported":1736366987,"current_range_meters":36400,"station_id":"ce4bhkp2rcd13ifvqgd0","pricing_plan_id":"cebpf4jnsgd1na2vs0mg"},{"bike_id":"1a55702b-0603-4b8e-a18f-8e9aadc27b1d","system_id":"levelo_inurba_marseille","lat":43.28416,"lon":5.37498,"is_reserved":false,"is_disabled":false,"rental_uris":{"android":"levelo://app?vid=1a55702b-0603-4b8e-a18f-8e9aadc27b1d","ios":"levelo://app?vid=1a55702b-0603-4b8e-a18f-8e9aadc27b1d"},"vehicle_type_id":"4","last_reported":1736366987,"current_range_meters":16800,"station_id":"ce4bh412rcd13ifvqds0","pricing_plan_id":"cebpf4jnsgd1na2vs0mg"},{"bike_id":"f59f91e7-8ce9-452a-b6a7-1ff02ba0ea59","system_id":"levelo_inurba_marseille","lat":43.2811,"lon":5.37827,"is_reserved":false,"is_disabled":false,"rental_uris":{"android":"levelo://app?vid=f59f91e7-8ce9-452a-b6a7-1ff02ba0ea59","ios":"levelo://app?vid=f59f91e7-8ce9-452a-b6a7-1ff02ba0ea59"},"vehicle_type_id":"4","last_reported":1736366987,"current_range_meters":39200,"station_id":"ce4bha12rcd13ifvqee0","pricing_plan_id":"cebpf4jnsgd1na2vs0mg"},{"bike_id":"67fbf0f1-1e37-4933-bc4a-1c9157d81b28","system_id":"levelo_inurba_marseille","lat":43.28936,"lon":5.36637,"is_reserved":false,"is_disabled":false,"rental_uris":{"android":"levelo://app?vid=67fbf0f1-1e37-4933-bc4a-1c9157d81b28","ios":"levelo://app?vid=67fbf0f1-1e37-4933-bc4a-1c9157d81b28"},"vehicle_type_id":"4","last_reported":1736366987,"current_range_meters":34800,"station_id":"ce4bhap2rcd13ifvqek0","pricing_plan_id":"cebpf4jnsgd1na2vs0mg"},{"bike_id":"e0c5bcca-f38c-4415-8d3c-64dad8e411d9","system_id":"levelo_inurba_marseille","lat":43.27379,"lon":5.36255,"is_reserved":false,"is_disabled":false,"rental_uris":{"android":"levelo://app?vid=e0c5bcca-f38c-4415-8d3c-64dad8e411d9","ios":"levelo://app?vid=e0c5bcca-f38c-4415-8d3c-64dad8e411d9"},"vehicle_type_id":"4","last_reported":1736366987,"current_range_meters":38800,"station_id":"ce4bhbh2rcd13ifvqeo0","pricing_plan_id":"cebpf4jnsgd1na2vs0mg"},{"bike_id":"128e494f-c5f6-49d1-8da7-12ffc5ea9838","system_id":"levelo_inurba_marseille","lat":43.24167,"lon":5.363918,"is_reserved":false,"is_disabled":false,"rental_uris":{"android":"levelo://app?vid=128e494f-c5f6-49d1-8da7-12ffc5ea9838","ios":"levelo://app?vid=128e494f-c5f6-49d1-8da7-12ffc5ea9838"},"vehicle_type_id":"4","last_reported":1736366987,"current_range_meters":16000,"station_id":"cpo36qri1sfpv3e86is0","pricing_plan_id":"cebpf4jnsgd1na2vs0mg"},{"bike_id":"3d868b4f-1b37-4fc8-b318-fa1649add3a3","system_id":"levelo_inurba_marseille","lat":43.30445,"lon":5.38892,"is_reserved":false,"is_disabled":false,"rental_uris":{"android":"levelo://app?vid=3d868b4f-1b37-4fc8-b318-fa1649add3a3","ios":"levelo://app?vid=3d868b4f-1b37-4fc8-b318-fa1649add3a3"},"vehicle_type_id":"4","last_reported":1736366987,"current_range_meters":35200,"station_id":"ce4bgk12rcd13ifvqbi0","pricing_plan_id":"cebpf4jnsgd1na2vs0mg"},{"bike_id":"1efd9b19-a5fc-4b93-9407-1247024c6503","system_id":"levelo_inurba_marseille","lat":43.30247,"lon":5.40069,"is_reserved":false,"is_disabled":false,"rental_uris":{"android":"levelo://app?vid=1efd9b19-a5fc-4b93-9407-1247024c6503","ios":"levelo://app?vid=1efd9b19-a5fc-4b93-9407-1247024c6503"},"vehicle_type_id":"4","last_reported":1736366987,"current_range_meters":35600,"station_id":"ce4bgvh2rcd13ifvqcs0","pricing_plan_id":"cebpf4jnsgd1na2vs0mg"},{"bike_id":"fbcb738e-6308-4ce9-9dfd-7548d8ffef4b","system_id":"levelo_inurba_marseille","lat":43.28007,"lon":5.38739,"is_reserved":false,"is_disabled":false,"rental_uris":{"android":"levelo://app?vid=fbcb738e-6308-4ce9-9dfd-7548d8ffef4b","ios":"levelo://app?vid=fbcb738e-6308-4ce9-9dfd-7548d8ffef4b"},"vehicle_type_id":"4","last_reported":1736366987,"current_range_meters":29600,"station_id":"ce4bhg12rcd13ifvqf80","pricing_plan_id":"cebpf4jnsgd1na2vs0mg"},{"bike_id":"607f36c7-3f25-43a0-aea5-52069d6de697","system_id":"levelo_inurba_marseille","lat":43.28699,"lon":5.37387,"is_reserved":false,"is_disabled":false,"rental_uris":{"android":"levelo://app?vid=607f36c7-3f25-43a0-aea5-52069d6de697","ios":"levelo://app?vid=607f36c7-3f25-43a0-aea5-52069d6de697"},"vehicle_type_id":"4","last_reported":1736366987,"current_range_meters":28000,"station_id":"ce4bh3p2rcd13ifvqdq0","pricing_plan_id":"cebpf4jnsgd1na2vs0mg"},{"bike_id":"85c87ba8-94c5-495c-8f3f-e5c3bd4d700a","system_id":"levelo_inurba_marseille","lat":43.27823,"lon":5.40707,"is_reserved":false,"is_disabled":false,"rental_uris":{"android":"levelo://app?vid=85c87ba8-94c5-495c-8f3f-e5c3bd4d700a","ios":"levelo://app?vid=85c87ba8-94c5-495c-8f3f-e5c3bd4d700a"},"vehicle_type_id":"4","last_reported":1736366987,"current_range_meters":12000,"station_id":"ce4bhnh2rcd13ifvqgtg","pricing_plan_id":"cebpf4jnsgd1na2vs0mg"},{"bike_id":"9fd9a3de-90df-466c-8510-f29e450ec62b","system_id":"levelo_inurba_marseille","lat":43.31079,"lon":5.42423,"is_reserved":false,"is_disabled":true,"rental_uris":{"android":"levelo://app?vid=9fd9a3de-90df-466c-8510-f29e450ec62b","ios":"levelo://app?vid=9fd9a3de-90df-466c-8510-f29e450ec62b"},"vehicle_type_id":"4","last_reported":1736366987,"current_range_meters":17200,"station_id":"ce4bhp92rcd13ifvqhag","pricing_plan_id":"cebpf4jnsgd1na2vs0mg"},{"bike_id":"ced7801f-1ab0-456a-aae9-3a75d74a0545","system_id":"levelo_inurba_marseille","lat":43.29792,"lon":5.39335,"is_reserved":false,"is_disabled":false,"rental_uris":{"android":"levelo://app?vid=ced7801f-1ab0-456a-aae9-3a75d74a0545","ios":"levelo://app?vid=ced7801f-1ab0-456a-aae9-3a75d74a0545"},"vehicle_type_id":"4","last_reported":1736366987,"current_range_meters":12400,"station_id":"chh1huq6cuj3fo74tm60","pricing_plan_id":"cebpf4jnsgd1na2vs0mg"},{"bike_id":"7e647b87-ee39-48c8-8a57-8ca415c7293d","system_id":"levelo_inurba_marseille","lat":43.23058,"lon":5.35498,"is_reserved":false,"is_disabled":false,"rental_uris":{"android":"levelo://app?vid=7e647b87-ee39-48c8-8a57-8ca415c7293d","ios":"levelo://app?vid=7e647b87-ee39-48c8-8a57-8ca415c7293d"},"vehicle_type_id":"4","last_reported":1736366987,"current_range_meters":36800,"station_id":"cpo3342slgdg3j2ifvpg","pricing_plan_id":"cebpf4jnsgd1na2vs0mg"},{"bike_id":"8c54b8d0-3b4a-4a1e-b50a-bc5d53d233f4","system_id":"levelo_inurba_marseille","lat":43.24394,"lon":5.37056,"is_reserved":false,"is_disabled":false,"rental_uris":{"android":"levelo://app?vid=8c54b8d0-3b4a-4a1e-b50a-bc5d53d233f4","ios":"levelo://app?vid=8c54b8d0-3b4a-4a1e-b50a-bc5d53d233f4"},"vehicle_type_id":"4","last_reported":1736366987,"current_range_meters":35600,"station_id":"ce4bhhh2rcd13ifvqfk0","pricing_plan_id":"cebpf4jnsgd1na2vs0mg"},{"bike_id":"b6cbeee7-faa3-45ef-9fe5-d1892572141e","system_id":"levelo_inurba_marseille","lat":43.29516,"lon":5.39404,"is_reserved":false,"is_disabled":false,"rental_uris":{"android":"levelo://app?vid=b6cbeee7-faa3-45ef-9fe5-d1892572141e","ios":"levelo://app?vid=b6cbeee7-faa3-45ef-9fe5-d1892572141e"},"vehicle_type_id":"4","last_reported":1736366987,"current_range_meters":35200,"station_id":"ce4bh292rcd13ifvqdf0","pricing_plan_id":"cebpf4jnsgd1na2vs0mg"},{"bike_id":"102cb488-e37e-4a25-ae00-7f174450be41","system_id":"levelo_inurba_marseille","lat":43.275617,"lon":5.384248,"is_reserved":false,"is_disabled":true,"rental_uris":{"android":"levelo://app?vid=102cb488-e37e-4a25-ae00-7f174450be41","ios":"levelo://app?vid=102cb488-e37e-4a25-ae00-7f174450be41"},"vehicle_type_id":"4","last_reported":1736366987,"current_range_meters":400,"station_id":"ce4bhh92rcd13ifvqfi0","pricing_plan_id":"cebpf4jnsgd1na2vs0mg"},{"bike_id":"92f6caa1-17ee-444f-ab84-fa663790e43b","system_id":"levelo_inurba_marseille","lat":43.3106,"lon":5.38349,"is_reserved":false,"is_disabled":false,"rental_uris":{"android":"levelo://app?vid=92f6caa1-17ee-444f-ab84-fa663790e43b","ios":"levelo://app?vid=92f6caa1-17ee-444f-ab84-fa663790e43b"},"vehicle_type_id":"4","last_reported":1736366987,"current_range_meters":20000,"station_id":"ce4bgv92rcd13ifvqcr0","pricing_plan_id":"cebpf4jnsgd1na2vs0mg"},{"bike_id":"25ee1eec-0f47-4632-bc0e-551826cf9fe5","system_id":"levelo_inurba_marseille","lat":43.29029,"lon":5.38131,"is_reserved":false,"is_disabled":false,"rental_uris":{"android":"levelo://app?vid=25ee1eec-0f47-4632-bc0e-551826cf9fe5","ios":"levelo://app?vid=25ee1eec-0f47-4632-bc0e-551826cf9fe5"},"vehicle_type_id":"4","last_reported":1736366987,"current_range_meters":37600,"station_id":"ce4bh4p2rcd13ifvqe1g","pricing_plan_id":"cebpf4jnsgd1na2vs0mg"},{"bike_id":"47f78906-79ec-4312-b87c-b16484c68cff","system_id":"levelo_inurba_marseille","lat":43.28847,"lon":5.35853,"is_reserved":false,"is_disabled":false,"rental_uris":{"android":"levelo://app?vid=47f78906-79ec-4312-b87c-b16484c68cff","ios":"levelo://app?vid=47f78906-79ec-4312-b87c-b16484c68cff"},"vehicle_type_id":"4","last_reported":1736366987,"current_range_meters":5600,"station_id":"ce4bhb12rcd13ifvqem0","pricing_plan_id":"cebpf4jnsgd1na2vs0mg"},{"bike_id":"132c0cf2-3f3e-4cf3-a098-8f836778ca04","system_id":"levelo_inurba_marseille","lat":43.31714,"lon":5.37744,"is_reserved":false,"is_disabled":false,"rental_uris":{"android":"levelo://app?vid=132c0cf2-3f3e-4cf3-a098-8f836778ca04","ios":"levelo://app?vid=132c0cf2-3f3e-4cf3-a098-8f836778ca04"},"vehicle_type_id":"4","last_reported":1736366987,"current_range_meters":32800,"station_id":"ce4bgth2rcd13ifvqch0","pricing_plan_id":"cebpf4jnsgd1na2vs0mg"},{"bike_id":"c00adc61-52cb-4003-80be-896057156f78","system_id":"levelo_inurba_marseille","lat":43.25585,"lon":5.3824,"is_reserved":false,"is_disabled":false,"rental_uris":{"android":"levelo://app?vid=c00adc61-52cb-4003-80be-896057156f78","ios":"levelo://app?vid=c00adc61-52cb-4003-80be-896057156f78"},"vehicle_type_id":"4","last_reported":1736366987,"current_range_meters":34000,"station_id":"ce4bhih2rcd13ifvqfs0","pricing_plan_id":"cebpf4jnsgd1na2vs0mg"},{"bike_id":"343183ae-451e-4927-9689-222cf65f7c9b","system_id":"levelo_inurba_marseille","lat":43.27932,"lon":5.39566,"is_reserved":false,"is_disabled":false,"rental_uris":{"android":"levelo://app?vid=343183ae-451e-4927-9689-222cf65f7c9b","ios":"levelo://app?vid=343183ae-451e-4927-9689-222cf65f7c9b"},"vehicle_type_id":"4","last_reported":1736366987,"current_range_meters":38800,"station_id":"ce4bhf92rcd13ifvqf40","pricing_plan_id":"cebpf4jnsgd1na2vs0mg"},{"bike_id":"fdc068af-990e-4220-bc8a-ad61edad86b8","system_id":"levelo_inurba_marseille","lat":43.28727,"lon":5.37937,"is_reserved":false,"is_disabled":false,"rental_uris":{"android":"levelo://app?vid=fdc068af-990e-4220-bc8a-ad61edad86b8","ios":"levelo://app?vid=fdc068af-990e-4220-bc8a-ad61edad86b8"},"vehicle_type_id":"4","last_reported":1736366987,"current_range_meters":31200,"station_id":"ce4bh9p2rcd13ifvqec0","pricing_plan_id":"cebpf4jnsgd1na2vs0mg"},{"bike_id":"09e53c8e-1191-46d3-99b9-ff97480a1b5f","system_id":"levelo_inurba_marseille","lat":43.2991,"lon":5.38144,"is_reserved":false,"is_disabled":false,"rental_uris":{"android":"levelo://app?vid=09e53c8e-1191-46d3-99b9-ff97480a1b5f","ios":"levelo://app?vid=09e53c8e-1191-46d3-99b9-ff97480a1b5f"},"vehicle_type_id":"4","last_reported":1736366987,"current_range_meters":24000,"station_id":"ce4bgj12rcd13ifvqbc0","pricing_plan_id":"cebpf4jnsgd1na2vs0mg"},{"bike_id":"e39f6b1f-389e-44fc-b750-d548ad83bcc0","system_id":"levelo_inurba_marseille","lat":43.26813,"lon":5.40264,"is_reserved":false,"is_disabled":false,"rental_uris":{"android":"levelo://app?vid=e39f6b1f-389e-44fc-b750-d548ad83bcc0","ios":"levelo://app?vid=e39f6b1f-389e-44fc-b750-d548ad83bcc0"},"vehicle_type_id":"4","last_reported":1736366987,"current_range_meters":35600,"station_id":"ce501612rcd8frsf0b60","pricing_plan_id":"cebpf4jnsgd1na2vs0mg"},{"bike_id":"80716bfe-ce4c-458a-a817-cd7a4ffc01a2","system_id":"levelo_inurba_marseille","lat":43.31709,"lon":5.3777,"is_reserved":false,"is_disabled":false,"rental_uris":{"android":"levelo://app?vid=80716bfe-ce4c-458a-a817-cd7a4ffc01a2","ios":"levelo://app?vid=80716bfe-ce4c-458a-a817-cd7a4ffc01a2"},"vehicle_type_id":"4","last_reported":1736366987,"current_range_meters":38800,"station_id":"ce4bgth2rcd13ifvqch0","pricing_plan_id":"cebpf4jnsgd1na2vs0mg"},{"bike_id":"2d1536de-ed9a-4813-bbd6-10bda74ca621","system_id":"levelo_inurba_marseille","lat":43.24806,"lon":5.37451,"is_reserved":false,"is_disabled":false,"rental_uris":{"android":"levelo://app?vid=2d1536de-ed9a-4813-bbd6-10bda74ca621","ios":"levelo://app?vid=2d1536de-ed9a-4813-bbd6-10bda74ca621"},"vehicle_type_id":"4","last_reported":1736366987,"current_range_meters":14400,"station_id":"ce4bhgh2rcd13ifvqfb0","pricing_plan_id":"cebpf4jnsgd1na2vs0mg"},{"bike_id":"4069b7a7-f5d7-4762-af18-5805f2b6fc07","system_id":"levelo_inurba_marseille","lat":43.29707,"lon":5.36617,"is_reserved":false,"is_disabled":false,"rental_uris":{"android":"levelo://app?vid=4069b7a7-f5d7-4762-af18-5805f2b6fc07","ios":"levelo://app?vid=4069b7a7-f5d7-4762-af18-5805f2b6fc07"},"vehicle_type_id":"4","last_reported":1736366987,"current_range_meters":12400,"station_id":"ce4bgn12rcd13ifvqbt0","pricing_plan_id":"cebpf4jnsgd1na2vs0mg"},{"bike_id":"a25a042a-81db-4cbc-a5db-e2bb8f63e60b","system_id":"levelo_inurba_marseille","lat":43.2659,"lon":5.39032,"is_reserved":false,"is_disabled":false,"rental_uris":{"android":"levelo://app?vid=a25a042a-81db-4cbc-a5db-e2bb8f63e60b","ios":"levelo://app?vid=a25a042a-81db-4cbc-a5db-e2bb8f63e60b"},"vehicle_type_id":"4","last_reported":1736366987,"current_range_meters":38800,"station_id":"ce4bhe12rcd13ifvqf30","pricing_plan_id":"cebpf4jnsgd1na2vs0mg"},{"bike_id":"39faa2fe-395f-49c9-9056-e37436793a85","system_id":"levelo_inurba_marseille","lat":43.30324,"lon":5.40442,"is_reserved":false,"is_disabled":true,"rental_uris":{"android":"levelo://app?vid=39faa2fe-395f-49c9-9056-e37436793a85","ios":"levelo://app?vid=39faa2fe-395f-49c9-9056-e37436793a85"},"vehicle_type_id":"4","last_reported":1736366987,"current_range_meters":31200,"station_id":"ce4bh012rcd13ifvqd10","pricing_plan_id":"cebpf4jnsgd1na2vs0mg"},{"bike_id":"32989765-44f0-4e54-8f07-1797ec957573","system_id":"levelo_inurba_marseille","lat":43.307983,"lon":5.43524,"is_reserved":false,"is_disabled":false,"rental_uris":{"android":"levelo://app?vid=32989765-44f0-4e54-8f07-1797ec957573","ios":"levelo://app?vid=32989765-44f0-4e54-8f07-1797ec957573"},"vehicle_type_id":"4","last_reported":1736366987,"current_range_meters":8000,"station_id":"ce4bhph2rcd13ifvqheg","pricing_plan_id":"cebpf4jnsgd1na2vs0mg"},{"bike_id":"21fdd4e2-bbc1-43cb-86c0-97b28f9abeac","system_id":"levelo_inurba_marseille","lat":43.27809,"lon":5.40717,"is_reserved":false,"is_disabled":false,"rental_uris":{"android":"levelo://app?vid=21fdd4e2-bbc1-43cb-86c0-97b28f9abeac","ios":"levelo://app?vid=21fdd4e2-bbc1-43cb-86c0-97b28f9abeac"},"vehicle_type_id":"4","last_reported":1736366987,"current_range_meters":34800,"station_id":"ce4bhnh2rcd13ifvqgtg","pricing_plan_id":"cebpf4jnsgd1na2vs0mg"},{"bike_id":"4b1bcc07-82a7-477b-8def-610d4f653cb3","system_id":"levelo_inurba_marseille","lat":43.290276,"lon":5.381335,"is_reserved":false,"is_disabled":true,"rental_uris":{"android":"levelo://app?vid=4b1bcc07-82a7-477b-8def-610d4f653cb3","ios":"levelo://app?vid=4b1bcc07-82a7-477b-8def-610d4f653cb3"},"vehicle_type_id":"4","last_reported":1736366987,"current_range_meters":26800,"station_id":"ce4bh4p2rcd13ifvqe1g","pricing_plan_id":"cebpf4jnsgd1na2vs0mg"},{"bike_id":"b69e39e4-e108-465d-bddd-4ffc1dea8f10","system_id":"levelo_inurba_marseille","lat":43.25718,"lon":5.41113,"is_reserved":false,"is_disabled":false,"rental_uris":{"android":"levelo://app?vid=b69e39e4-e108-465d-bddd-4ffc1dea8f10","ios":"levelo://app?vid=b69e39e4-e108-465d-bddd-4ffc1dea8f10"},"vehicle_type_id":"4","last_reported":1736366987,"current_range_meters":38400,"station_id":"ce4bhkp2rcd13ifvqgd0","pricing_plan_id":"cebpf4jnsgd1na2vs0mg"},{"bike_id":"f2536309-8d2b-4ccd-86e1-4c168080c77c","system_id":"levelo_inurba_marseille","lat":43.23195,"lon":5.35546,"is_reserved":false,"is_disabled":false,"rental_uris":{"android":"levelo://app?vid=f2536309-8d2b-4ccd-86e1-4c168080c77c","ios":"levelo://app?vid=f2536309-8d2b-4ccd-86e1-4c168080c77c"},"vehicle_type_id":"4","last_reported":1736366987,"current_range_meters":9600,"station_id":"ce4bhu92rcd13ifvqi70","pricing_plan_id":"cebpf4jnsgd1na2vs0mg"},{"bike_id":"8bcf41b6-deb6-4885-bd8e-ef97fb3f3142","system_id":"levelo_inurba_marseille","lat":43.28567,"lon":5.39497,"is_reserved":false,"is_disabled":false,"rental_uris":{"android":"levelo://app?vid=8bcf41b6-deb6-4885-bd8e-ef97fb3f3142","ios":"levelo://app?vid=8bcf41b6-deb6-4885-bd8e-ef97fb3f3142"},"vehicle_type_id":"4","last_reported":1736366987,"current_range_meters":34800,"station_id":"ce4bh292rcd13ifvqdg0","pricing_plan_id":"cebpf4jnsgd1na2vs0mg"},{"bike_id":"4efa11c0-139c-4710-b266-c4459fd23c8c","system_id":"levelo_inurba_marseille","lat":43.27834,"lon":5.39196,"is_reserved":false,"is_disabled":false,"rental_uris":{"android":"levelo://app?vid=4efa11c0-139c-4710-b266-c4459fd23c8c","ios":"levelo://app?vid=4efa11c0-139c-4710-b266-c4459fd23c8c"},"vehicle_type_id":"4","last_reported":1736366987,"current_range_meters":39200,"station_id":"ce4bhjp2rcd13ifvqga0","pricing_plan_id":"cebpf4jnsgd1na2vs0mg"},{"bike_id":"6d10f9e6-3ff6-4f80-8fb4-62b6eae360fb","system_id":"levelo_inurba_marseille","lat":43.314451,"lon":5.37308,"is_reserved":false,"is_disabled":false,"rental_uris":{"android":"levelo://app?vid=6d10f9e6-3ff6-4f80-8fb4-62b6eae360fb","ios":"levelo://app?vid=6d10f9e6-3ff6-4f80-8fb4-62b6eae360fb"},"vehicle_type_id":"4","last_reported":1736366987,"current_range_meters":36800,"station_id":"ce4bgt12rcd13ifvqcd0","pricing_plan_id":"cebpf4jnsgd1na2vs0mg"},{"bike_id":"f5f0d699-8268-48d6-99f8-752f6efd6600","system_id":"levelo_inurba_marseille","lat":43.31122,"lon":5.3776,"is_reserved":false,"is_disabled":false,"rental_uris":{"android":"levelo://app?vid=f5f0d699-8268-48d6-99f8-752f6efd6600","ios":"levelo://app?vid=f5f0d699-8268-48d6-99f8-752f6efd6600"},"vehicle_type_id":"4","last_reported":1736366987,"current_range_meters":22400,"station_id":"ce4bgt92rcd13ifvqcg0","pricing_plan_id":"cebpf4jnsgd1na2vs0mg"},{"bike_id":"b8b738cb-ef0c-4357-b3a7-9b64021e64ef","system_id":"levelo_inurba_marseille","lat":43.33021,"lon":5.39024,"is_reserved":false,"is_disabled":false,"rental_uris":{"android":"levelo://app?vid=b8b738cb-ef0c-4357-b3a7-9b64021e64ef","ios":"levelo://app?vid=b8b738cb-ef0c-4357-b3a7-9b64021e64ef"},"vehicle_type_id":"4","last_reported":1736366987,"current_range_meters":36800,"station_id":"ce4bhr92rcd13ifvqhrg","pricing_plan_id":"cebpf4jnsgd1na2vs0mg"},{"bike_id":"c3d9c2f0-e4c8-4ada-9934-0ba7813967de","system_id":"levelo_inurba_marseille","lat":43.31359,"lon":5.38492,"is_reserved":false,"is_disabled":false,"rental_uris":{"android":"levelo://app?vid=c3d9c2f0-e4c8-4ada-9934-0ba7813967de","ios":"levelo://app?vid=c3d9c2f0-e4c8-4ada-9934-0ba7813967de"},"vehicle_type_id":"4","last_reported":1736366987,"current_range_meters":35200,"station_id":"ce4bgt92rcd13ifvqcf0","pricing_plan_id":"cebpf4jnsgd1na2vs0mg"},{"bike_id":"bb636211-c010-46b6-b358-bf7db6dac6a4","system_id":"levelo_inurba_marseille","lat":43.2902,"lon":5.38138,"is_reserved":false,"is_disabled":true,"rental_uris":{"android":"levelo://app?vid=bb636211-c010-46b6-b358-bf7db6dac6a4","ios":"levelo://app?vid=bb636211-c010-46b6-b358-bf7db6dac6a4"},"vehicle_type_id":"4","last_reported":1736366987,"current_range_meters":38800,"station_id":"ce4bh4p2rcd13ifvqe1g","pricing_plan_id":"cebpf4jnsgd1na2vs0mg"},{"bike_id":"758cbfe7-4194-4f60-a9e2-5706c79a99d0","system_id":"levelo_inurba_marseille","lat":43.3021,"lon":5.39467,"is_reserved":false,"is_disabled":false,"rental_uris":{"android":"levelo://app?vid=758cbfe7-4194-4f60-a9e2-5706c79a99d0","ios":"levelo://app?vid=758cbfe7-4194-4f60-a9e2-5706c79a99d0"},"vehicle_type_id":"4","last_reported":1736366987,"current_range_meters":25200,"station_id":"ce4bh0p2rcd13ifvqd70","pricing_plan_id":"cebpf4jnsgd1na2vs0mg"},{"bike_id":"f76caccf-de8b-4760-a4b0-3d1087b2d15c","system_id":"levelo_inurba_marseille","lat":43.27845,"lon":5.39188,"is_reserved":false,"is_disabled":false,"rental_uris":{"android":"levelo://app?vid=f76caccf-de8b-4760-a4b0-3d1087b2d15c","ios":"levelo://app?vid=f76caccf-de8b-4760-a4b0-3d1087b2d15c"},"vehicle_type_id":"4","last_reported":1736366987,"current_range_meters":38400,"station_id":"ce4bhjp2rcd13ifvqga0","pricing_plan_id":"cebpf4jnsgd1na2vs0mg"},{"bike_id":"c96b391a-db92-450f-a788-c47766c7d89c","system_id":"levelo_inurba_marseille","lat":43.23963,"lon":5.36629,"is_reserved":false,"is_disabled":false,"rental_uris":{"android":"levelo://app?vid=c96b391a-db92-450f-a788-c47766c7d89c","ios":"levelo://app?vid=c96b391a-db92-450f-a788-c47766c7d89c"},"vehicle_type_id":"4","last_reported":1736366987,"current_range_meters":25600,"station_id":"ce4bhi12rcd13ifvqfp0","pricing_plan_id":"cebpf4jnsgd1na2vs0mg"},{"bike_id":"a023b9e2-2413-4b3d-a218-b9727e7097b5","system_id":"levelo_inurba_marseille","lat":43.292991,"lon":5.374633,"is_reserved":false,"is_disabled":true,"rental_uris":{"android":"levelo://app?vid=a023b9e2-2413-4b3d-a218-b9727e7097b5","ios":"levelo://app?vid=a023b9e2-2413-4b3d-a218-b9727e7097b5"},"vehicle_type_id":"4","last_reported":1736366987,"current_range_meters":32800,"station_id":"ce4bgi12rcd13ifvqb70","pricing_plan_id":"cebpf4jnsgd1na2vs0mg"},{"bike_id":"b9d19b8c-88a0-4b24-a901-7eae74ced255","system_id":"levelo_inurba_marseille","lat":43.30432,"lon":5.3887,"is_reserved":false,"is_disabled":false,"rental_uris":{"android":"levelo://app?vid=b9d19b8c-88a0-4b24-a901-7eae74ced255","ios":"levelo://app?vid=b9d19b8c-88a0-4b24-a901-7eae74ced255"},"vehicle_type_id":"4","last_reported":1736366987,"current_range_meters":38800,"station_id":"ce4bgk12rcd13ifvqbi0","pricing_plan_id":"cebpf4jnsgd1na2vs0mg"},{"bike_id":"412c961b-9eee-480e-9da4-be4fd2e54380","system_id":"levelo_inurba_marseille","lat":43.29588,"lon":5.4227,"is_reserved":false,"is_disabled":false,"rental_uris":{"android":"levelo://app?vid=412c961b-9eee-480e-9da4-be4fd2e54380","ios":"levelo://app?vid=412c961b-9eee-480e-9da4-be4fd2e54380"},"vehicle_type_id":"4","last_reported":1736366987,"current_range_meters":38800,"station_id":"ce4bhph2rcd13ifvqhdg","pricing_plan_id":"cebpf4jnsgd1na2vs0mg"},{"bike_id":"14c3f856-f526-4bc5-9d1e-e5cc5e75b7b9","system_id":"levelo_inurba_marseille","lat":43.28155,"lon":5.42631,"is_reserved":false,"is_disabled":false,"rental_uris":{"android":"levelo://app?vid=14c3f856-f526-4bc5-9d1e-e5cc5e75b7b9","ios":"levelo://app?vid=14c3f856-f526-4bc5-9d1e-e5cc5e75b7b9"},"vehicle_type_id":"4","last_reported":1736366987,"current_range_meters":19600,"station_id":"ce4bhnh2rcd13ifvqgug","pricing_plan_id":"cebpf4jnsgd1na2vs0mg"},{"bike_id":"0738368e-bb66-45af-a35b-10f02dbbeef6","system_id":"levelo_inurba_marseille","lat":43.27809,"lon":5.40717,"is_reserved":false,"is_disabled":false,"rental_uris":{"android":"levelo://app?vid=0738368e-bb66-45af-a35b-10f02dbbeef6","ios":"levelo://app?vid=0738368e-bb66-45af-a35b-10f02dbbeef6"},"vehicle_type_id":"4","last_reported":1736366987,"current_range_meters":28800,"station_id":"ce4bhnh2rcd13ifvqgtg","pricing_plan_id":"cebpf4jnsgd1na2vs0mg"},{"bike_id":"19fe5123-848b-444c-8195-47893cf00757","system_id":"levelo_inurba_marseille","lat":43.30123,"lon":5.39893,"is_reserved":false,"is_disabled":false,"rental_uris":{"android":"levelo://app?vid=19fe5123-848b-444c-8195-47893cf00757","ios":"levelo://app?vid=19fe5123-848b-444c-8195-47893cf00757"},"vehicle_type_id":"4","last_reported":1736366987,"current_range_meters":18000,"station_id":"ce4bh0h2rcd13ifvqd40","pricing_plan_id":"cebpf4jnsgd1na2vs0mg"},{"bike_id":"4795cc5a-7058-456b-bbbb-cdaf0bc9586c","system_id":"levelo_inurba_marseille","lat":43.2998,"lon":5.38482,"is_reserved":false,"is_disabled":true,"rental_uris":{"android":"levelo://app?vid=4795cc5a-7058-456b-bbbb-cdaf0bc9586c","ios":"levelo://app?vid=4795cc5a-7058-456b-bbbb-cdaf0bc9586c"},"vehicle_type_id":"4","last_reported":1736366987,"current_range_meters":38800,"station_id":"ce4bgj92rcd13ifvqbd0","pricing_plan_id":"cebpf4jnsgd1na2vs0mg"},{"bike_id":"ec8f3ee2-e004-484f-9d02-d447fe6cbdb3","system_id":"levelo_inurba_marseille","lat":43.26553,"lon":5.37283,"is_reserved":false,"is_disabled":false,"rental_uris":{"android":"levelo://app?vid=ec8f3ee2-e004-484f-9d02-d447fe6cbdb3","ios":"levelo://app?vid=ec8f3ee2-e004-484f-9d02-d447fe6cbdb3"},"vehicle_type_id":"4","last_reported":1736366987,"current_range_meters":19600,"station_id":"ce4bhg12rcd13ifvqf70","pricing_plan_id":"cebpf4jnsgd1na2vs0mg"},{"bike_id":"d8fd02d2-d25e-4e6a-ad2d-c2e3fc75e7ad","system_id":"levelo_inurba_marseille","lat":43.28839,"lon":5.35847,"is_reserved":false,"is_disabled":false,"rental_uris":{"android":"levelo://app?vid=d8fd02d2-d25e-4e6a-ad2d-c2e3fc75e7ad","ios":"levelo://app?vid=d8fd02d2-d25e-4e6a-ad2d-c2e3fc75e7ad"},"vehicle_type_id":"4","last_reported":1736366987,"current_range_meters":12000,"station_id":"ce4bhb12rcd13ifvqem0","pricing_plan_id":"cebpf4jnsgd1na2vs0mg"},{"bike_id":"2825a119-5b5a-4630-b83a-5a86bf58ccad","system_id":"levelo_inurba_marseille","lat":43.31285,"lon":5.37379,"is_reserved":false,"is_disabled":false,"rental_uris":{"android":"levelo://app?vid=2825a119-5b5a-4630-b83a-5a86bf58ccad","ios":"levelo://app?vid=2825a119-5b5a-4630-b83a-5a86bf58ccad"},"vehicle_type_id":"4","last_reported":1736366987,"current_range_meters":8800,"station_id":"","pricing_plan_id":"cebpf4jnsgd1na2vs0mg"},{"bike_id":"599cb150-7973-4a42-bd67-2927c118c704","system_id":"levelo_inurba_marseille","lat":43.33594,"lon":5.40992,"is_reserved":false,"is_disabled":false,"rental_uris":{"android":"levelo://app?vid=599cb150-7973-4a42-bd67-2927c118c704","ios":"levelo://app?vid=599cb150-7973-4a42-bd67-2927c118c704"},"vehicle_type_id":"4","last_reported":1736366987,"current_range_meters":28000,"station_id":"ce4bhqh2rcd13ifvqhmg","pricing_plan_id":"cebpf4jnsgd1na2vs0mg"},{"bike_id":"06661921-fd19-4fe3-ad43-4c9cc70e07c1","system_id":"levelo_inurba_marseille","lat":43.27172,"lon":5.409805,"is_reserved":false,"is_disabled":false,"rental_uris":{"android":"levelo://app?vid=06661921-fd19-4fe3-ad43-4c9cc70e07c1","ios":"levelo://app?vid=06661921-fd19-4fe3-ad43-4c9cc70e07c1"},"vehicle_type_id":"4","last_reported":1736366987,"current_range_meters":3600,"station_id":"ce4bhnh2rcd13ifvqgug","pricing_plan_id":"cebpf4jnsgd1na2vs0mg"},{"bike_id":"00ed344a-3f29-44a3-a7e9-48c73863bb3e","system_id":"levelo_inurba_marseille","lat":43.29519,"lon":5.39403,"is_reserved":false,"is_disabled":false,"rental_uris":{"android":"levelo://app?vid=00ed344a-3f29-44a3-a7e9-48c73863bb3e","ios":"levelo://app?vid=00ed344a-3f29-44a3-a7e9-48c73863bb3e"},"vehicle_type_id":"4","last_reported":1736366987,"current_range_meters":30000,"station_id":"ce4bh292rcd13ifvqdf0","pricing_plan_id":"cebpf4jnsgd1na2vs0mg"},{"bike_id":"bb40170b-f536-431a-bdc4-a5b52fd0ad16","system_id":"levelo_inurba_marseille","lat":43.25118,"lon":5.40319,"is_reserved":false,"is_disabled":false,"rental_uris":{"android":"levelo://app?vid=bb40170b-f536-431a-bdc4-a5b52fd0ad16","ios":"levelo://app?vid=bb40170b-f536-431a-bdc4-a5b52fd0ad16"},"vehicle_type_id":"4","last_reported":1736366987,"current_range_meters":32800,"station_id":"ce4bhlh2rcd13ifvqgig","pricing_plan_id":"cebpf4jnsgd1na2vs0mg"},{"bike_id":"7a0a8a69-615c-43f3-a001-073b74f4a57b","system_id":"levelo_inurba_marseille","lat":43.25588,"lon":5.38234,"is_reserved":false,"is_disabled":false,"rental_uris":{"android":"levelo://app?vid=7a0a8a69-615c-43f3-a001-073b74f4a57b","ios":"levelo://app?vid=7a0a8a69-615c-43f3-a001-073b74f4a57b"},"vehicle_type_id":"4","last_reported":1736366987,"current_range_meters":33600,"station_id":"ce4bhih2rcd13ifvqfs0","pricing_plan_id":"cebpf4jnsgd1na2vs0mg"},{"bike_id":"9fc299a4-7959-49e3-85f6-cec59a7d7af9","system_id":"levelo_inurba_marseille","lat":43.26944,"lon":5.389,"is_reserved":false,"is_disabled":false,"rental_uris":{"android":"levelo://app?vid=9fc299a4-7959-49e3-85f6-cec59a7d7af9","ios":"levelo://app?vid=9fc299a4-7959-49e3-85f6-cec59a7d7af9"},"vehicle_type_id":"4","last_reported":1736366987,"current_range_meters":11600,"station_id":"ce4bhhh2rcd13ifvqfl0","pricing_plan_id":"cebpf4jnsgd1na2vs0mg"},{"bike_id":"d03baa4e-a1ff-4dbb-aa3a-8f7610789178","system_id":"levelo_inurba_marseille","lat":43.33735,"lon":5.39174,"is_reserved":false,"is_disabled":false,"rental_uris":{"android":"levelo://app?vid=d03baa4e-a1ff-4dbb-aa3a-8f7610789178","ios":"levelo://app?vid=d03baa4e-a1ff-4dbb-aa3a-8f7610789178"},"vehicle_type_id":"4","last_reported":1736366987,"current_range_meters":38800,"station_id":"ce4bhr92rcd13ifvqhsg","pricing_plan_id":"cebpf4jnsgd1na2vs0mg"},{"bike_id":"53dc5514-ec32-47ff-ac33-5805e8866d7e","system_id":"levelo_inurba_marseille","lat":43.283451,"lon":5.381065,"is_reserved":false,"is_disabled":false,"rental_uris":{"android":"levelo://app?vid=53dc5514-ec32-47ff-ac33-5805e8866d7e","ios":"levelo://app?vid=53dc5514-ec32-47ff-ac33-5805e8866d7e"},"vehicle_type_id":"4","last_reported":1736366987,"current_range_meters":38400,"station_id":"ce4bh412rcd13ifvqdr0","pricing_plan_id":"cebpf4jnsgd1na2vs0mg"},{"bike_id":"0a3d01c7-b1b6-4282-806b-4f33aa594a92","system_id":"levelo_inurba_marseille","lat":43.24389,"lon":5.37062,"is_reserved":false,"is_disabled":false,"rental_uris":{"android":"levelo://app?vid=0a3d01c7-b1b6-4282-806b-4f33aa594a92","ios":"levelo://app?vid=0a3d01c7-b1b6-4282-806b-4f33aa594a92"},"vehicle_type_id":"4","last_reported":1736366987,"current_range_meters":38800,"station_id":"ce4bhhh2rcd13ifvqfk0","pricing_plan_id":"cebpf4jnsgd1na2vs0mg"},{"bike_id":"c46908a5-8296-41ca-bb79-9a70f768795f","system_id":"levelo_inurba_marseille","lat":43.25578,"lon":5.38221,"is_reserved":false,"is_disabled":false,"rental_uris":{"android":"levelo://app?vid=c46908a5-8296-41ca-bb79-9a70f768795f","ios":"levelo://app?vid=c46908a5-8296-41ca-bb79-9a70f768795f"},"vehicle_type_id":"4","last_reported":1736366987,"current_range_meters":38800,"station_id":"ce4bhih2rcd13ifvqfs0","pricing_plan_id":"cebpf4jnsgd1na2vs0mg"},{"bike_id":"6634f8bf-9d52-4118-86a1-d5dfb9f73ba8","system_id":"levelo_inurba_marseille","lat":43.28436,"lon":5.39181,"is_reserved":false,"is_disabled":false,"rental_uris":{"android":"levelo://app?vid=6634f8bf-9d52-4118-86a1-d5dfb9f73ba8","ios":"levelo://app?vid=6634f8bf-9d52-4118-86a1-d5dfb9f73ba8"},"vehicle_type_id":"4","last_reported":1736366987,"current_range_meters":4000,"station_id":"ce4bhoh2rcd13ifvqh5g","pricing_plan_id":"cebpf4jnsgd1na2vs0mg"},{"bike_id":"58a1ab09-3af8-49c4-988b-7342a3c81f56","system_id":"levelo_inurba_marseille","lat":43.25578,"lon":5.38238,"is_reserved":false,"is_disabled":false,"rental_uris":{"android":"levelo://app?vid=58a1ab09-3af8-49c4-988b-7342a3c81f56","ios":"levelo://app?vid=58a1ab09-3af8-49c4-988b-7342a3c81f56"},"vehicle_type_id":"4","last_reported":1736366987,"current_range_meters":38800,"station_id":"ce4bhih2rcd13ifvqfs0","pricing_plan_id":"cebpf4jnsgd1na2vs0mg"},{"bike_id":"6e97f722-94aa-4e59-88c6-c4e5dbd16910","system_id":"levelo_inurba_marseille","lat":43.2893,"lon":5.38342,"is_reserved":false,"is_disabled":false,"rental_uris":{"android":"levelo://app?vid=6e97f722-94aa-4e59-88c6-c4e5dbd16910","ios":"levelo://app?vid=6e97f722-94aa-4e59-88c6-c4e5dbd16910"},"vehicle_type_id":"4","last_reported":1736366987,"current_range_meters":38800,"station_id":"ce4bh612rcd13ifvqe6g","pricing_plan_id":"cebpf4jnsgd1na2vs0mg"},{"bike_id":"c8620edc-4b1a-4a54-992f-df9b92a06d3c","system_id":"levelo_inurba_marseille","lat":43.29064,"lon":5.35901,"is_reserved":false,"is_disabled":false,"rental_uris":{"android":"levelo://app?vid=c8620edc-4b1a-4a54-992f-df9b92a06d3c","ios":"levelo://app?vid=c8620edc-4b1a-4a54-992f-df9b92a06d3c"},"vehicle_type_id":"4","last_reported":1736366987,"current_range_meters":31200,"station_id":"ce4bha92rcd13ifvqeg0","pricing_plan_id":"cebpf4jnsgd1na2vs0mg"},{"bike_id":"116bb4c1-3a22-4d49-b9c7-c27e8abe447c","system_id":"levelo_inurba_marseille","lat":43.3133,"lon":5.39689,"is_reserved":false,"is_disabled":false,"rental_uris":{"android":"levelo://app?vid=116bb4c1-3a22-4d49-b9c7-c27e8abe447c","ios":"levelo://app?vid=116bb4c1-3a22-4d49-b9c7-c27e8abe447c"},"vehicle_type_id":"4","last_reported":1736366987,"current_range_meters":38800,"station_id":"ce4bgvp2rcd13ifvqcu0","pricing_plan_id":"cebpf4jnsgd1na2vs0mg"},{"bike_id":"22e82ab4-e399-47aa-8ad5-cc2a88cf76dd","system_id":"levelo_inurba_marseille","lat":43.28462,"lon":5.35904,"is_reserved":false,"is_disabled":false,"rental_uris":{"android":"levelo://app?vid=22e82ab4-e399-47aa-8ad5-cc2a88cf76dd","ios":"levelo://app?vid=22e82ab4-e399-47aa-8ad5-cc2a88cf76dd"},"vehicle_type_id":"4","last_reported":1736366987,"current_range_meters":32400,"station_id":"ce4bhah2rcd13ifvqei0","pricing_plan_id":"cebpf4jnsgd1na2vs0mg"},{"bike_id":"6cc50080-ab79-49ed-afc1-af08b8669cc5","system_id":"levelo_inurba_marseille","lat":43.29371,"lon":5.37839,"is_reserved":false,"is_disabled":false,"rental_uris":{"android":"levelo://app?vid=6cc50080-ab79-49ed-afc1-af08b8669cc5","ios":"levelo://app?vid=6cc50080-ab79-49ed-afc1-af08b8669cc5"},"vehicle_type_id":"4","last_reported":1736366987,"current_range_meters":39200,"station_id":"ce4bgjh2rcd13ifvqbf0","pricing_plan_id":"cebpf4jnsgd1na2vs0mg"},{"bike_id":"51dfb00f-e12a-4105-b990-5a9e5517362a","system_id":"levelo_inurba_marseille","lat":43.27988,"lon":5.40016,"is_reserved":false,"is_disabled":false,"rental_uris":{"android":"levelo://app?vid=51dfb00f-e12a-4105-b990-5a9e5517362a","ios":"levelo://app?vid=51dfb00f-e12a-4105-b990-5a9e5517362a"},"vehicle_type_id":"4","last_reported":1736366987,"current_range_meters":28400,"station_id":"ce4bho92rcd13ifvqh4g","pricing_plan_id":"cebpf4jnsgd1na2vs0mg"},{"bike_id":"cb26ce44-8d04-4b4f-ae9f-f96fb728669c","system_id":"levelo_inurba_marseille","lat":43.28454,"lon":5.35907,"is_reserved":false,"is_disabled":false,"rental_uris":{"android":"levelo://app?vid=cb26ce44-8d04-4b4f-ae9f-f96fb728669c","ios":"levelo://app?vid=cb26ce44-8d04-4b4f-ae9f-f96fb728669c"},"vehicle_type_id":"4","last_reported":1736366987,"current_range_meters":28000,"station_id":"ce4bhah2rcd13ifvqei0","pricing_plan_id":"cebpf4jnsgd1na2vs0mg"},{"bike_id":"2521e2ab-d3d0-4401-aa84-15ce3c1bee78","system_id":"levelo_inurba_marseille","lat":43.31722,"lon":5.42393,"is_reserved":false,"is_disabled":false,"rental_uris":{"android":"levelo://app?vid=2521e2ab-d3d0-4401-aa84-15ce3c1bee78","ios":"levelo://app?vid=2521e2ab-d3d0-4401-aa84-15ce3c1bee78"},"vehicle_type_id":"4","last_reported":1736366987,"current_range_meters":28000,"station_id":"ce4bhp92rcd13ifvqhbg","pricing_plan_id":"cebpf4jnsgd1na2vs0mg"},{"bike_id":"705157bd-db76-408e-8a69-66f12909cb65","system_id":"levelo_inurba_marseille","lat":43.26934,"lon":5.38916,"is_reserved":false,"is_disabled":false,"rental_uris":{"android":"levelo://app?vid=705157bd-db76-408e-8a69-66f12909cb65","ios":"levelo://app?vid=705157bd-db76-408e-8a69-66f12909cb65"},"vehicle_type_id":"4","last_reported":1736366987,"current_range_meters":38800,"station_id":"ce4bhhh2rcd13ifvqfl0","pricing_plan_id":"cebpf4jnsgd1na2vs0mg"},{"bike_id":"d314dcae-ceef-403c-bb17-952c4e8a32d8","system_id":"levelo_inurba_marseille","lat":43.30597,"lon":5.37237,"is_reserved":false,"is_disabled":false,"rental_uris":{"android":"levelo://app?vid=d314dcae-ceef-403c-bb17-952c4e8a32d8","ios":"levelo://app?vid=d314dcae-ceef-403c-bb17-952c4e8a32d8"},"vehicle_type_id":"4","last_reported":1736366987,"current_range_meters":9200,"station_id":"ce4bgqh2rcd13ifvqc4g","pricing_plan_id":"cebpf4jnsgd1na2vs0mg"},{"bike_id":"bd2625b1-3fbd-4bba-be12-e2b9bac661f2","system_id":"levelo_inurba_marseille","lat":43.30254,"lon":5.4007,"is_reserved":false,"is_disabled":false,"rental_uris":{"android":"levelo://app?vid=bd2625b1-3fbd-4bba-be12-e2b9bac661f2","ios":"levelo://app?vid=bd2625b1-3fbd-4bba-be12-e2b9bac661f2"},"vehicle_type_id":"4","last_reported":1736366987,"current_range_meters":38800,"station_id":"ce4bgvh2rcd13ifvqcs0","pricing_plan_id":"cebpf4jnsgd1na2vs0mg"},{"bike_id":"61f80575-9f0e-4647-b8bb-2460d9473614","system_id":"levelo_inurba_marseille","lat":43.275627,"lon":5.384227,"is_reserved":false,"is_disabled":true,"rental_uris":{"android":"levelo://app?vid=61f80575-9f0e-4647-b8bb-2460d9473614","ios":"levelo://app?vid=61f80575-9f0e-4647-b8bb-2460d9473614"},"vehicle_type_id":"4","last_reported":1736366987,"current_range_meters":0,"station_id":"ce4bhh92rcd13ifvqfi0","pricing_plan_id":"cebpf4jnsgd1na2vs0mg"},{"bike_id":"3e9af0f3-c885-4d2f-828e-990566482751","system_id":"levelo_inurba_marseille","lat":43.31368,"lon":5.38497,"is_reserved":false,"is_disabled":true,"rental_uris":{"android":"levelo://app?vid=3e9af0f3-c885-4d2f-828e-990566482751","ios":"levelo://app?vid=3e9af0f3-c885-4d2f-828e-990566482751"},"vehicle_type_id":"4","last_reported":1736366987,"current_range_meters":0,"station_id":"ce4bgt92rcd13ifvqcf0","pricing_plan_id":"cebpf4jnsgd1na2vs0mg"},{"bike_id":"088eed0f-2f77-42a9-9771-571bb978c2de","system_id":"levelo_inurba_marseille","lat":43.28724,"lon":5.36088,"is_reserved":false,"is_disabled":false,"rental_uris":{"android":"levelo://app?vid=088eed0f-2f77-42a9-9771-571bb978c2de","ios":"levelo://app?vid=088eed0f-2f77-42a9-9771-571bb978c2de"},"vehicle_type_id":"4","last_reported":1736366987,"current_range_meters":37600,"station_id":"cki0cbj6b192h4jlfktg","pricing_plan_id":"cebpf4jnsgd1na2vs0mg"},{"bike_id":"b21dcf80-509b-405b-bb35-c7b3d9eba343","system_id":"levelo_inurba_marseille","lat":43.2709,"lon":5.42254,"is_reserved":false,"is_disabled":false,"rental_uris":{"android":"levelo://app?vid=b21dcf80-509b-405b-bb35-c7b3d9eba343","ios":"levelo://app?vid=b21dcf80-509b-405b-bb35-c7b3d9eba343"},"vehicle_type_id":"4","last_reported":1736366987,"current_range_meters":38800,"station_id":"ce4bhk92rcd13ifvqgb0","pricing_plan_id":"cebpf4jnsgd1na2vs0mg"},{"bike_id":"37d8e1ef-d932-49d7-b893-49542cf44d13","system_id":"levelo_inurba_marseille","lat":43.32345,"lon":5.40629,"is_reserved":false,"is_disabled":true,"rental_uris":{"android":"levelo://app?vid=37d8e1ef-d932-49d7-b893-49542cf44d13","ios":"levelo://app?vid=37d8e1ef-d932-49d7-b893-49542cf44d13"},"vehicle_type_id":"4","last_reported":1736366987,"current_range_meters":0,"station_id":"ce4bhq92rcd13ifvqhjg","pricing_plan_id":"cebpf4jnsgd1na2vs0mg"},{"bike_id":"32a4fb87-34f7-41cc-a1bf-df05e6828b58","system_id":"levelo_inurba_marseille","lat":43.3133,"lon":5.39708,"is_reserved":false,"is_disabled":false,"rental_uris":{"android":"levelo://app?vid=32a4fb87-34f7-41cc-a1bf-df05e6828b58","ios":"levelo://app?vid=32a4fb87-34f7-41cc-a1bf-df05e6828b58"},"vehicle_type_id":"4","last_reported":1736366987,"current_range_meters":38800,"station_id":"ce4bgvp2rcd13ifvqcu0","pricing_plan_id":"cebpf4jnsgd1na2vs0mg"},{"bike_id":"25c84288-1a0d-4331-b369-5bd74b165eac","system_id":"levelo_inurba_marseille","lat":43.29194,"lon":5.39332,"is_reserved":false,"is_disabled":false,"rental_uris":{"android":"levelo://app?vid=25c84288-1a0d-4331-b369-5bd74b165eac","ios":"levelo://app?vid=25c84288-1a0d-4331-b369-5bd74b165eac"},"vehicle_type_id":"4","last_reported":1736366987,"current_range_meters":38800,"station_id":"ce4bh192rcd13ifvqdd0","pricing_plan_id":"cebpf4jnsgd1na2vs0mg"},{"bike_id":"45c1b75e-3272-4f90-94ac-25a9161bd768","system_id":"levelo_inurba_marseille","lat":43.28937,"lon":5.39627,"is_reserved":false,"is_disabled":false,"rental_uris":{"android":"levelo://app?vid=45c1b75e-3272-4f90-94ac-25a9161bd768","ios":"levelo://app?vid=45c1b75e-3272-4f90-94ac-25a9161bd768"},"vehicle_type_id":"4","last_reported":1736366987,"current_range_meters":32000,"station_id":"ce4bh3h2rcd13ifvqdn0","pricing_plan_id":"cebpf4jnsgd1na2vs0mg"},{"bike_id":"38dfc8fb-ea1c-45fb-9111-06f55dd590b6","system_id":"levelo_inurba_marseille","lat":43.29038,"lon":5.38631,"is_reserved":false,"is_disabled":false,"rental_uris":{"android":"levelo://app?vid=38dfc8fb-ea1c-45fb-9111-06f55dd590b6","ios":"levelo://app?vid=38dfc8fb-ea1c-45fb-9111-06f55dd590b6"},"vehicle_type_id":"4","last_reported":1736366987,"current_range_meters":24000,"station_id":"ce4bh4p2rcd13ifvqe0g","pricing_plan_id":"cebpf4jnsgd1na2vs0mg"},{"bike_id":"63c817a8-7fe4-4bba-9c1c-70e578257f97","system_id":"levelo_inurba_marseille","lat":43.23977,"lon":5.36599,"is_reserved":false,"is_disabled":false,"rental_uris":{"android":"levelo://app?vid=63c817a8-7fe4-4bba-9c1c-70e578257f97","ios":"levelo://app?vid=63c817a8-7fe4-4bba-9c1c-70e578257f97"},"vehicle_type_id":"4","last_reported":1736366987,"current_range_meters":38800,"station_id":"ce4bhi12rcd13ifvqfp0","pricing_plan_id":"cebpf4jnsgd1na2vs0mg"},{"bike_id":"9b2f55e0-edd8-4d6c-b73b-00ee1872c633","system_id":"levelo_inurba_marseille","lat":43.33025,"lon":5.39032,"is_reserved":false,"is_disabled":false,"rental_uris":{"android":"levelo://app?vid=9b2f55e0-edd8-4d6c-b73b-00ee1872c633","ios":"levelo://app?vid=9b2f55e0-edd8-4d6c-b73b-00ee1872c633"},"vehicle_type_id":"4","last_reported":1736366987,"current_range_meters":12000,"station_id":"ce4bhr92rcd13ifvqhrg","pricing_plan_id":"cebpf4jnsgd1na2vs0mg"},{"bike_id":"9cf22331-9602-4d62-b87b-f07eb83b6ad0","system_id":"levelo_inurba_marseille","lat":43.29708,"lon":5.36603,"is_reserved":false,"is_disabled":false,"rental_uris":{"android":"levelo://app?vid=9cf22331-9602-4d62-b87b-f07eb83b6ad0","ios":"levelo://app?vid=9cf22331-9602-4d62-b87b-f07eb83b6ad0"},"vehicle_type_id":"4","last_reported":1736366987,"current_range_meters":39200,"station_id":"ce4bgn12rcd13ifvqbt0","pricing_plan_id":"cebpf4jnsgd1na2vs0mg"},{"bike_id":"3a77ca4d-f207-4f1c-958f-bb3e3a5a4d4b","system_id":"levelo_inurba_marseille","lat":43.25105,"lon":5.40324,"is_reserved":false,"is_disabled":false,"rental_uris":{"android":"levelo://app?vid=3a77ca4d-f207-4f1c-958f-bb3e3a5a4d4b","ios":"levelo://app?vid=3a77ca4d-f207-4f1c-958f-bb3e3a5a4d4b"},"vehicle_type_id":"4","last_reported":1736366987,"current_range_meters":34000,"station_id":"ce4bhlh2rcd13ifvqgig","pricing_plan_id":"cebpf4jnsgd1na2vs0mg"},{"bike_id":"924ad5ad-c210-4ddc-8b94-db960c18c9c4","system_id":"levelo_inurba_marseille","lat":43.29874,"lon":5.39737,"is_reserved":false,"is_disabled":false,"rental_uris":{"android":"levelo://app?vid=924ad5ad-c210-4ddc-8b94-db960c18c9c4","ios":"levelo://app?vid=924ad5ad-c210-4ddc-8b94-db960c18c9c4"},"vehicle_type_id":"4","last_reported":1736366987,"current_range_meters":33200,"station_id":"ce4bh0h2rcd13ifvqd50","pricing_plan_id":"cebpf4jnsgd1na2vs0mg"},{"bike_id":"f162e091-eaf8-40f8-b4ce-6d0b5a00bdb2","system_id":"levelo_inurba_marseille","lat":43.28041,"lon":5.36949,"is_reserved":false,"is_disabled":false,"rental_uris":{"android":"levelo://app?vid=f162e091-eaf8-40f8-b4ce-6d0b5a00bdb2","ios":"levelo://app?vid=f162e091-eaf8-40f8-b4ce-6d0b5a00bdb2"},"vehicle_type_id":"4","last_reported":1736366987,"current_range_meters":33200,"station_id":"ce4bha12rcd13ifvqef0","pricing_plan_id":"cebpf4jnsgd1na2vs0mg"},{"bike_id":"e11e8f93-513f-46bb-8751-382c363b5515","system_id":"levelo_inurba_marseille","lat":43.28067,"lon":5.39657,"is_reserved":false,"is_disabled":false,"rental_uris":{"android":"levelo://app?vid=e11e8f93-513f-46bb-8751-382c363b5515","ios":"levelo://app?vid=e11e8f93-513f-46bb-8751-382c363b5515"},"vehicle_type_id":"4","last_reported":1736366987,"current_range_meters":8400,"station_id":"ce4bho12rcd13ifvqh2g","pricing_plan_id":"cebpf4jnsgd1na2vs0mg"},{"bike_id":"559949ff-498e-4688-8f33-075f54530ff8","system_id":"levelo_inurba_marseille","lat":43.29023,"lon":5.38621,"is_reserved":false,"is_disabled":false,"rental_uris":{"android":"levelo://app?vid=559949ff-498e-4688-8f33-075f54530ff8","ios":"levelo://app?vid=559949ff-498e-4688-8f33-075f54530ff8"},"vehicle_type_id":"4","last_reported":1736366987,"current_range_meters":16800,"station_id":"ce4bh4p2rcd13ifvqe0g","pricing_plan_id":"cebpf4jnsgd1na2vs0mg"},{"bike_id":"c24332a9-0468-4914-8e3e-448cea1e0446","system_id":"levelo_inurba_marseille","lat":43.31068,"lon":5.38356,"is_reserved":false,"is_disabled":false,"rental_uris":{"android":"levelo://app?vid=c24332a9-0468-4914-8e3e-448cea1e0446","ios":"levelo://app?vid=c24332a9-0468-4914-8e3e-448cea1e0446"},"vehicle_type_id":"4","last_reported":1736366987,"current_range_meters":11600,"station_id":"ce4bgv92rcd13ifvqcr0","pricing_plan_id":"cebpf4jnsgd1na2vs0mg"},{"bike_id":"60ce1b70-e47d-4caf-abee-52e7d5bfe299","system_id":"levelo_inurba_marseille","lat":43.24644,"lon":5.38898,"is_reserved":false,"is_disabled":false,"rental_uris":{"android":"levelo://app?vid=60ce1b70-e47d-4caf-abee-52e7d5bfe299","ios":"levelo://app?vid=60ce1b70-e47d-4caf-abee-52e7d5bfe299"},"vehicle_type_id":"4","last_reported":1736366987,"current_range_meters":38800,"station_id":"ce4bhg12rcd13ifvqf60","pricing_plan_id":"cebpf4jnsgd1na2vs0mg"},{"bike_id":"35ae3492-b782-42a6-9654-e711e246c333","system_id":"levelo_inurba_marseille","lat":43.29521,"lon":5.39024,"is_reserved":false,"is_disabled":false,"rental_uris":{"android":"levelo://app?vid=35ae3492-b782-42a6-9654-e711e246c333","ios":"levelo://app?vid=35ae3492-b782-42a6-9654-e711e246c333"},"vehicle_type_id":"4","last_reported":1736366987,"current_range_meters":13600,"station_id":"ce4bh3p2rcd13ifvqdp0","pricing_plan_id":"cebpf4jnsgd1na2vs0mg"},{"bike_id":"dc78ef2f-dcd6-4418-ac57-73e030b9d4da","system_id":"levelo_inurba_marseille","lat":43.29278,"lon":5.38435,"is_reserved":false,"is_disabled":false,"rental_uris":{"android":"levelo://app?vid=dc78ef2f-dcd6-4418-ac57-73e030b9d4da","ios":"levelo://app?vid=dc78ef2f-dcd6-4418-ac57-73e030b9d4da"},"vehicle_type_id":"4","last_reported":1736366987,"current_range_meters":22400,"station_id":"ce4bh692rcd13ifvqea0","pricing_plan_id":"cebpf4jnsgd1na2vs0mg"},{"bike_id":"33e0e95a-bdcb-4c07-ac3f-010317a7178d","system_id":"levelo_inurba_marseille","lat":43.2717,"lon":5.40988,"is_reserved":false,"is_disabled":false,"rental_uris":{"android":"levelo://app?vid=33e0e95a-bdcb-4c07-ac3f-010317a7178d","ios":"levelo://app?vid=33e0e95a-bdcb-4c07-ac3f-010317a7178d"},"vehicle_type_id":"4","last_reported":1736366987,"current_range_meters":7200,"station_id":"ce4bhl12rcd13ifvqgf0","pricing_plan_id":"cebpf4jnsgd1na2vs0mg"},{"bike_id":"2ff8706d-52c6-4cba-98b4-c8e945f8cf78","system_id":"levelo_inurba_marseille","lat":43.29184,"lon":5.35788,"is_reserved":false,"is_disabled":false,"rental_uris":{"android":"levelo://app?vid=2ff8706d-52c6-4cba-98b4-c8e945f8cf78","ios":"levelo://app?vid=2ff8706d-52c6-4cba-98b4-c8e945f8cf78"},"vehicle_type_id":"4","last_reported":1736366987,"current_range_meters":38800,"station_id":"ce4bhb12rcd13ifvqel0","pricing_plan_id":"cebpf4jnsgd1na2vs0mg"},{"bike_id":"22b674e4-ddb8-4af9-805f-1c0f8e6dbb2e","system_id":"levelo_inurba_marseille","lat":43.28608,"lon":5.35107,"is_reserved":false,"is_disabled":false,"rental_uris":{"android":"levelo://app?vid=22b674e4-ddb8-4af9-805f-1c0f8e6dbb2e","ios":"levelo://app?vid=22b674e4-ddb8-4af9-805f-1c0f8e6dbb2e"},"vehicle_type_id":"4","last_reported":1736366987,"current_range_meters":27200,"station_id":"ce4bhch2rcd13ifvqeug","pricing_plan_id":"cebpf4jnsgd1na2vs0mg"},{"bike_id":"ba2a18e9-d2a5-4fc8-a4b6-3b6ef76241df","system_id":"levelo_inurba_marseille","lat":43.25578,"lon":5.38231,"is_reserved":false,"is_disabled":false,"rental_uris":{"android":"levelo://app?vid=ba2a18e9-d2a5-4fc8-a4b6-3b6ef76241df","ios":"levelo://app?vid=ba2a18e9-d2a5-4fc8-a4b6-3b6ef76241df"},"vehicle_type_id":"4","last_reported":1736366987,"current_range_meters":25600,"station_id":"ce4bhih2rcd13ifvqfs0","pricing_plan_id":"cebpf4jnsgd1na2vs0mg"},{"bike_id":"48ce03f6-f3a8-490e-8671-5ca1c760d650","system_id":"levelo_inurba_marseille","lat":43.28948,"lon":5.36622,"is_reserved":false,"is_disabled":true,"rental_uris":{"android":"levelo://app?vid=48ce03f6-f3a8-490e-8671-5ca1c760d650","ios":"levelo://app?vid=48ce03f6-f3a8-490e-8671-5ca1c760d650"},"vehicle_type_id":"4","last_reported":1736366987,"current_range_meters":38000,"station_id":"ce4bhap2rcd13ifvqek0","pricing_plan_id":"cebpf4jnsgd1na2vs0mg"},{"bike_id":"1d27be0d-961c-4e0d-8ce0-c23bf855f1df","system_id":"levelo_inurba_marseille","lat":43.28277,"lon":5.35076,"is_reserved":false,"is_disabled":true,"rental_uris":{"android":"levelo://app?vid=1d27be0d-961c-4e0d-8ce0-c23bf855f1df","ios":"levelo://app?vid=1d27be0d-961c-4e0d-8ce0-c23bf855f1df"},"vehicle_type_id":"4","last_reported":1736366987,"current_range_meters":1200,"station_id":"ce4bhbp2rcd13ifvqerg","pricing_plan_id":"cebpf4jnsgd1na2vs0mg"},{"bike_id":"f457ed7f-1f7c-4b06-8ea6-5e976bf292b7","system_id":"levelo_inurba_marseille","lat":43.2901,"lon":5.3863,"is_reserved":false,"is_disabled":false,"rental_uris":{"android":"levelo://app?vid=f457ed7f-1f7c-4b06-8ea6-5e976bf292b7","ios":"levelo://app?vid=f457ed7f-1f7c-4b06-8ea6-5e976bf292b7"},"vehicle_type_id":"4","last_reported":1736366987,"current_range_meters":38800,"station_id":"ce4bh4p2rcd13ifvqe0g","pricing_plan_id":"cebpf4jnsgd1na2vs0mg"},{"bike_id":"ea755274-d4ae-44fe-b6cb-80a7dcfbba79","system_id":"levelo_inurba_marseille","lat":43.29888,"lon":5.38908,"is_reserved":false,"is_disabled":false,"rental_uris":{"android":"levelo://app?vid=ea755274-d4ae-44fe-b6cb-80a7dcfbba79","ios":"levelo://app?vid=ea755274-d4ae-44fe-b6cb-80a7dcfbba79"},"vehicle_type_id":"4","last_reported":1736366987,"current_range_meters":17600,"station_id":"ce4bh392rcd13ifvqdl0","pricing_plan_id":"cebpf4jnsgd1na2vs0mg"},{"bike_id":"6c9daffc-e174-4a9a-8b3e-30a6cf4027c8","system_id":"levelo_inurba_marseille","lat":43.32115,"lon":5.36769,"is_reserved":false,"is_disabled":false,"rental_uris":{"android":"levelo://app?vid=6c9daffc-e174-4a9a-8b3e-30a6cf4027c8","ios":"levelo://app?vid=6c9daffc-e174-4a9a-8b3e-30a6cf4027c8"},"vehicle_type_id":"4","last_reported":1736366987,"current_range_meters":19200,"station_id":"ce4bhrh2rcd13ifvqhug","pricing_plan_id":"cebpf4jnsgd1na2vs0mg"},{"bike_id":"93b7e7bc-917a-4253-af1e-71755c2c5a70","system_id":"levelo_inurba_marseille","lat":43.29609,"lon":5.37682,"is_reserved":false,"is_disabled":true,"rental_uris":{"android":"levelo://app?vid=93b7e7bc-917a-4253-af1e-71755c2c5a70","ios":"levelo://app?vid=93b7e7bc-917a-4253-af1e-71755c2c5a70"},"vehicle_type_id":"4","last_reported":1736366987,"current_range_meters":16000,"station_id":"ce4bgi92rcd13ifvqb90","pricing_plan_id":"cebpf4jnsgd1na2vs0mg"},{"bike_id":"1bf34ac8-2b08-44f8-8885-d7050fc0a88b","system_id":"levelo_inurba_marseille","lat":43.31513,"lon":5.37223,"is_reserved":false,"is_disabled":false,"rental_uris":{"android":"levelo://app?vid=1bf34ac8-2b08-44f8-8885-d7050fc0a88b","ios":"levelo://app?vid=1bf34ac8-2b08-44f8-8885-d7050fc0a88b"},"vehicle_type_id":"4","last_reported":1736366987,"current_range_meters":20400,"station_id":"ce4bgt12rcd13ifvqcd0","pricing_plan_id":"cebpf4jnsgd1na2vs0mg"},{"bike_id":"aa93e012-148e-4dfc-80c5-c18401d721dd","system_id":"levelo_inurba_marseille","lat":43.27983,"lon":5.3874,"is_reserved":false,"is_disabled":false,"rental_uris":{"android":"levelo://app?vid=aa93e012-148e-4dfc-80c5-c18401d721dd","ios":"levelo://app?vid=aa93e012-148e-4dfc-80c5-c18401d721dd"},"vehicle_type_id":"4","last_reported":1736366987,"current_range_meters":38800,"station_id":"ce4bhg12rcd13ifvqf80","pricing_plan_id":"cebpf4jnsgd1na2vs0mg"},{"bike_id":"24efe2c3-290f-4beb-8d33-5643c9baa67a","system_id":"levelo_inurba_marseille","lat":43.29778,"lon":5.393,"is_reserved":false,"is_disabled":false,"rental_uris":{"android":"levelo://app?vid=24efe2c3-290f-4beb-8d33-5643c9baa67a","ios":"levelo://app?vid=24efe2c3-290f-4beb-8d33-5643c9baa67a"},"vehicle_type_id":"4","last_reported":1736366987,"current_range_meters":26800,"station_id":"chh1huq6cuj3fo74tm60","pricing_plan_id":"cebpf4jnsgd1na2vs0mg"},{"bike_id":"49f71cfb-5f4f-4efd-8023-2c4eb676a391","system_id":"levelo_inurba_marseille","lat":43.24176,"lon":5.36383,"is_reserved":false,"is_disabled":false,"rental_uris":{"android":"levelo://app?vid=49f71cfb-5f4f-4efd-8023-2c4eb676a391","ios":"levelo://app?vid=49f71cfb-5f4f-4efd-8023-2c4eb676a391"},"vehicle_type_id":"4","last_reported":1736366987,"current_range_meters":36400,"station_id":"cpo36qri1sfpv3e86is0","pricing_plan_id":"cebpf4jnsgd1na2vs0mg"},{"bike_id":"546fbb96-800b-4f90-be23-b4f678471f8f","system_id":"levelo_inurba_marseille","lat":43.25573,"lon":5.38229,"is_reserved":false,"is_disabled":false,"rental_uris":{"android":"levelo://app?vid=546fbb96-800b-4f90-be23-b4f678471f8f","ios":"levelo://app?vid=546fbb96-800b-4f90-be23-b4f678471f8f"},"vehicle_type_id":"4","last_reported":1736366987,"current_range_meters":16000,"station_id":"ce4bhih2rcd13ifvqfs0","pricing_plan_id":"cebpf4jnsgd1na2vs0mg"},{"bike_id":"13017816-3ab0-484a-ae75-e5c49659e9ac","system_id":"levelo_inurba_marseille","lat":43.25074,"lon":5.39492,"is_reserved":false,"is_disabled":false,"rental_uris":{"android":"levelo://app?vid=13017816-3ab0-484a-ae75-e5c49659e9ac","ios":"levelo://app?vid=13017816-3ab0-484a-ae75-e5c49659e9ac"},"vehicle_type_id":"4","last_reported":1736366987,"current_range_meters":38800,"station_id":"ce4bhm12rcd13ifvqgkg","pricing_plan_id":"cebpf4jnsgd1na2vs0mg"},{"bike_id":"95d3448a-591f-493e-a463-7ae24e6b0478","system_id":"levelo_inurba_marseille","lat":43.30146,"lon":5.38788,"is_reserved":false,"is_disabled":true,"rental_uris":{"android":"levelo://app?vid=95d3448a-591f-493e-a463-7ae24e6b0478","ios":"levelo://app?vid=95d3448a-591f-493e-a463-7ae24e6b0478"},"vehicle_type_id":"4","last_reported":1736366987,"current_range_meters":18000,"station_id":"ce4bghh2rcd13ifvqb60","pricing_plan_id":"cebpf4jnsgd1na2vs0mg"},{"bike_id":"b1c05a28-e862-4024-a61b-ab8d551b8107","system_id":"levelo_inurba_marseille","lat":43.33019,"lon":5.3904,"is_reserved":false,"is_disabled":false,"rental_uris":{"android":"levelo://app?vid=b1c05a28-e862-4024-a61b-ab8d551b8107","ios":"levelo://app?vid=b1c05a28-e862-4024-a61b-ab8d551b8107"},"vehicle_type_id":"4","last_reported":1736366987,"current_range_meters":37600,"station_id":"ce4bhr92rcd13ifvqhrg","pricing_plan_id":"cebpf4jnsgd1na2vs0mg"},{"bike_id":"5a65b83f-d577-4d9e-9266-b87c271925e6","system_id":"levelo_inurba_marseille","lat":43.28567,"lon":5.39498,"is_reserved":false,"is_disabled":false,"rental_uris":{"android":"levelo://app?vid=5a65b83f-d577-4d9e-9266-b87c271925e6","ios":"levelo://app?vid=5a65b83f-d577-4d9e-9266-b87c271925e6"},"vehicle_type_id":"4","last_reported":1736366987,"current_range_meters":39200,"station_id":"ce4bh292rcd13ifvqdg0","pricing_plan_id":"cebpf4jnsgd1na2vs0mg"},{"bike_id":"056e6a25-022b-4f1b-be62-fca4c87d1663","system_id":"levelo_inurba_marseille","lat":43.28456,"lon":5.35879,"is_reserved":false,"is_disabled":false,"rental_uris":{"android":"levelo://app?vid=056e6a25-022b-4f1b-be62-fca4c87d1663","ios":"levelo://app?vid=056e6a25-022b-4f1b-be62-fca4c87d1663"},"vehicle_type_id":"4","last_reported":1736366987,"current_range_meters":24400,"station_id":"ce4bhah2rcd13ifvqei0","pricing_plan_id":"cebpf4jnsgd1na2vs0mg"},{"bike_id":"507309ad-2c5e-4442-b16a-0a701fe1fda0","system_id":"levelo_inurba_marseille","lat":43.30544,"lon":5.36545,"is_reserved":false,"is_disabled":true,"rental_uris":{"android":"levelo://app?vid=507309ad-2c5e-4442-b16a-0a701fe1fda0","ios":"levelo://app?vid=507309ad-2c5e-4442-b16a-0a701fe1fda0"},"vehicle_type_id":"4","last_reported":1736366987,"current_range_meters":0,"station_id":"ce4bgs12rcd13ifvqcag","pricing_plan_id":"cebpf4jnsgd1na2vs0mg"},{"bike_id":"2ff16103-726f-497d-b1a8-b7ee2325ffee","system_id":"levelo_inurba_marseille","lat":43.30329,"lon":5.4044,"is_reserved":false,"is_disabled":false,"rental_uris":{"android":"levelo://app?vid=2ff16103-726f-497d-b1a8-b7ee2325ffee","ios":"levelo://app?vid=2ff16103-726f-497d-b1a8-b7ee2325ffee"},"vehicle_type_id":"4","last_reported":1736366987,"current_range_meters":21600,"station_id":"ce4bh012rcd13ifvqd10","pricing_plan_id":"cebpf4jnsgd1na2vs0mg"},{"bike_id":"c3fed3ff-6b92-4fcd-9518-3530a380cb58","system_id":"levelo_inurba_marseille","lat":43.28949,"lon":5.36396,"is_reserved":false,"is_disabled":true,"rental_uris":{"android":"levelo://app?vid=c3fed3ff-6b92-4fcd-9518-3530a380cb58","ios":"levelo://app?vid=c3fed3ff-6b92-4fcd-9518-3530a380cb58"},"vehicle_type_id":"4","last_reported":1736366987,"current_range_meters":38800,"station_id":"ce4bhc92rcd13ifvqetg","pricing_plan_id":"cebpf4jnsgd1na2vs0mg"},{"bike_id":"1e2223a2-c032-49e7-8dbf-982df86a0520","system_id":"levelo_inurba_marseille","lat":43.22926,"lon":5.35369,"is_reserved":false,"is_disabled":false,"rental_uris":{"android":"levelo://app?vid=1e2223a2-c032-49e7-8dbf-982df86a0520","ios":"levelo://app?vid=1e2223a2-c032-49e7-8dbf-982df86a0520"},"vehicle_type_id":"4","last_reported":1736366987,"current_range_meters":38800,"station_id":"cpo3532slgdg3j2ikp40","pricing_plan_id":"cebpf4jnsgd1na2vs0mg"},{"bike_id":"c3fc6b05-184a-4f28-9972-394356ad6c41","system_id":"levelo_inurba_marseille","lat":43.29587,"lon":5.36718,"is_reserved":false,"is_disabled":false,"rental_uris":{"android":"levelo://app?vid=c3fc6b05-184a-4f28-9972-394356ad6c41","ios":"levelo://app?vid=c3fc6b05-184a-4f28-9972-394356ad6c41"},"vehicle_type_id":"4","last_reported":1736366987,"current_range_meters":38800,"station_id":"ce4bgph2rcd13ifvqc2g","pricing_plan_id":"cebpf4jnsgd1na2vs0mg"},{"bike_id":"7d8b31a7-3d24-4815-814e-859f32f65153","system_id":"levelo_inurba_marseille","lat":43.29426,"lon":5.38614,"is_reserved":false,"is_disabled":false,"rental_uris":{"android":"levelo://app?vid=7d8b31a7-3d24-4815-814e-859f32f65153","ios":"levelo://app?vid=7d8b31a7-3d24-4815-814e-859f32f65153"},"vehicle_type_id":"4","last_reported":1736366987,"current_range_meters":38800,"station_id":"ce4bh2h2rcd13ifvqdh0","pricing_plan_id":"cebpf4jnsgd1na2vs0mg"},{"bike_id":"3aefb9c1-3e4a-487c-b413-b90ef97c7063","system_id":"levelo_inurba_marseille","lat":43.2408,"lon":5.37741,"is_reserved":false,"is_disabled":false,"rental_uris":{"android":"levelo://app?vid=3aefb9c1-3e4a-487c-b413-b90ef97c7063","ios":"levelo://app?vid=3aefb9c1-3e4a-487c-b413-b90ef97c7063"},"vehicle_type_id":"4","last_reported":1736366987,"current_range_meters":18800,"station_id":"ce4bhnp2rcd13ifvqgvg","pricing_plan_id":"cebpf4jnsgd1na2vs0mg"},{"bike_id":"be8a233f-ad85-41b2-af03-bfa1e3033438","system_id":"levelo_inurba_marseille","lat":43.23199,"lon":5.35548,"is_reserved":false,"is_disabled":false,"rental_uris":{"android":"levelo://app?vid=be8a233f-ad85-41b2-af03-bfa1e3033438","ios":"levelo://app?vid=be8a233f-ad85-41b2-af03-bfa1e3033438"},"vehicle_type_id":"4","last_reported":1736366987,"current_range_meters":30800,"station_id":"ce4bhu92rcd13ifvqi70","pricing_plan_id":"cebpf4jnsgd1na2vs0mg"},{"bike_id":"111161ac-70af-4232-b6ac-1295044ca9b7","system_id":"levelo_inurba_marseille","lat":43.28711,"lon":5.37934,"is_reserved":false,"is_disabled":false,"rental_uris":{"android":"levelo://app?vid=111161ac-70af-4232-b6ac-1295044ca9b7","ios":"levelo://app?vid=111161ac-70af-4232-b6ac-1295044ca9b7"},"vehicle_type_id":"4","last_reported":1736366987,"current_range_meters":33600,"station_id":"ce4bh9p2rcd13ifvqec0","pricing_plan_id":"cebpf4jnsgd1na2vs0mg"},{"bike_id":"4120c69b-ef0d-47c6-8f0b-c46a7a3f4540","system_id":"levelo_inurba_marseille","lat":43.29806,"lon":5.40398,"is_reserved":false,"is_disabled":false,"rental_uris":{"android":"levelo://app?vid=4120c69b-ef0d-47c6-8f0b-c46a7a3f4540","ios":"levelo://app?vid=4120c69b-ef0d-47c6-8f0b-c46a7a3f4540"},"vehicle_type_id":"4","last_reported":1736366987,"current_range_meters":38000,"station_id":"ce4bh112rcd13ifvqd90","pricing_plan_id":"cebpf4jnsgd1na2vs0mg"},{"bike_id":"cd307db6-26a0-4b26-9cd1-a83bb943510f","system_id":"levelo_inurba_marseille","lat":43.28697,"lon":5.37384,"is_reserved":false,"is_disabled":false,"rental_uris":{"android":"levelo://app?vid=cd307db6-26a0-4b26-9cd1-a83bb943510f","ios":"levelo://app?vid=cd307db6-26a0-4b26-9cd1-a83bb943510f"},"vehicle_type_id":"4","last_reported":1736366987,"current_range_meters":28800,"station_id":"ce4bh3p2rcd13ifvqdq0","pricing_plan_id":"cebpf4jnsgd1na2vs0mg"},{"bike_id":"be7fc417-ef72-43b0-9156-ea18f8112719","system_id":"levelo_inurba_marseille","lat":43.30446,"lon":5.38901,"is_reserved":false,"is_disabled":false,"rental_uris":{"android":"levelo://app?vid=be7fc417-ef72-43b0-9156-ea18f8112719","ios":"levelo://app?vid=be7fc417-ef72-43b0-9156-ea18f8112719"},"vehicle_type_id":"4","last_reported":1736366987,"current_range_meters":35600,"station_id":"ce4bgk12rcd13ifvqbi0","pricing_plan_id":"cebpf4jnsgd1na2vs0mg"},{"bike_id":"2555e9c2-41eb-42cc-8360-399e32805217","system_id":"levelo_inurba_marseille","lat":43.29595,"lon":5.37711,"is_reserved":false,"is_disabled":true,"rental_uris":{"android":"levelo://app?vid=2555e9c2-41eb-42cc-8360-399e32805217","ios":"levelo://app?vid=2555e9c2-41eb-42cc-8360-399e32805217"},"vehicle_type_id":"4","last_reported":1736366987,"current_range_meters":37600,"station_id":"ce4bgi92rcd13ifvqb90","pricing_plan_id":"cebpf4jnsgd1na2vs0mg"},{"bike_id":"cf9551bc-5ee6-49f7-8d13-7284bc7a7084","system_id":"levelo_inurba_marseille","lat":43.31169,"lon":5.38722,"is_reserved":false,"is_disabled":false,"rental_uris":{"android":"levelo://app?vid=cf9551bc-5ee6-49f7-8d13-7284bc7a7084","ios":"levelo://app?vid=cf9551bc-5ee6-49f7-8d13-7284bc7a7084"},"vehicle_type_id":"4","last_reported":1736366987,"current_range_meters":24400,"station_id":"ce4bgv12rcd13ifvqcp0","pricing_plan_id":"cebpf4jnsgd1na2vs0mg"},{"bike_id":"69045d54-9c36-4d48-847e-d5856ff620cc","system_id":"levelo_inurba_marseille","lat":43.2803,"lon":5.36941,"is_reserved":false,"is_disabled":false,"rental_uris":{"android":"levelo://app?vid=69045d54-9c36-4d48-847e-d5856ff620cc","ios":"levelo://app?vid=69045d54-9c36-4d48-847e-d5856ff620cc"},"vehicle_type_id":"4","last_reported":1736366987,"current_range_meters":11600,"station_id":"ce4bha12rcd13ifvqef0","pricing_plan_id":"cebpf4jnsgd1na2vs0mg"},{"bike_id":"f8c3b9cf-852c-4533-977a-e93b7328e3a3","system_id":"levelo_inurba_marseille","lat":43.2845,"lon":5.3589,"is_reserved":false,"is_disabled":false,"rental_uris":{"android":"levelo://app?vid=f8c3b9cf-852c-4533-977a-e93b7328e3a3","ios":"levelo://app?vid=f8c3b9cf-852c-4533-977a-e93b7328e3a3"},"vehicle_type_id":"4","last_reported":1736366987,"current_range_meters":18800,"station_id":"ce4bhah2rcd13ifvqei0","pricing_plan_id":"cebpf4jnsgd1na2vs0mg"},{"bike_id":"83f2499c-8298-4af9-b340-a84d89af26b3","system_id":"levelo_inurba_marseille","lat":43.25856,"lon":5.39902,"is_reserved":false,"is_disabled":false,"rental_uris":{"android":"levelo://app?vid=83f2499c-8298-4af9-b340-a84d89af26b3","ios":"levelo://app?vid=83f2499c-8298-4af9-b340-a84d89af26b3"},"vehicle_type_id":"4","last_reported":1736366987,"current_range_meters":6400,"station_id":"ce4bhl92rcd13ifvqghg","pricing_plan_id":"cebpf4jnsgd1na2vs0mg"},{"bike_id":"0686a8cb-2b76-4424-87d1-4f58c91d61f2","system_id":"levelo_inurba_marseille","lat":43.25719,"lon":5.41109,"is_reserved":false,"is_disabled":false,"rental_uris":{"android":"levelo://app?vid=0686a8cb-2b76-4424-87d1-4f58c91d61f2","ios":"levelo://app?vid=0686a8cb-2b76-4424-87d1-4f58c91d61f2"},"vehicle_type_id":"4","last_reported":1736366987,"current_range_meters":38800,"station_id":"ce4bhkp2rcd13ifvqgd0","pricing_plan_id":"cebpf4jnsgd1na2vs0mg"},{"bike_id":"68140767-8552-42c1-850c-3cd7d820a653","system_id":"levelo_inurba_marseille","lat":43.29866,"lon":5.39727,"is_reserved":false,"is_disabled":false,"rental_uris":{"android":"levelo://app?vid=68140767-8552-42c1-850c-3cd7d820a653","ios":"levelo://app?vid=68140767-8552-42c1-850c-3cd7d820a653"},"vehicle_type_id":"4","last_reported":1736366987,"current_range_meters":25200,"station_id":"ce4bh0h2rcd13ifvqd50","pricing_plan_id":"cebpf4jnsgd1na2vs0mg"},{"bike_id":"1f13abda-0c2f-485b-b7d9-de8f3b464a21","system_id":"levelo_inurba_marseille","lat":43.29617,"lon":5.37693,"is_reserved":false,"is_disabled":true,"rental_uris":{"android":"levelo://app?vid=1f13abda-0c2f-485b-b7d9-de8f3b464a21","ios":"levelo://app?vid=1f13abda-0c2f-485b-b7d9-de8f3b464a21"},"vehicle_type_id":"4","last_reported":1736366987,"current_range_meters":36800,"station_id":"ce4bgi92rcd13ifvqb90","pricing_plan_id":"cebpf4jnsgd1na2vs0mg"},{"bike_id":"34cb8090-cfb8-4338-aee7-9c83eb7af208","system_id":"levelo_inurba_marseille","lat":43.31143,"lon":5.37799,"is_reserved":false,"is_disabled":false,"rental_uris":{"android":"levelo://app?vid=34cb8090-cfb8-4338-aee7-9c83eb7af208","ios":"levelo://app?vid=34cb8090-cfb8-4338-aee7-9c83eb7af208"},"vehicle_type_id":"4","last_reported":1736366987,"current_range_meters":28800,"station_id":"ce4bgt92rcd13ifvqcg0","pricing_plan_id":"cebpf4jnsgd1na2vs0mg"},{"bike_id":"ca5b73b8-bbae-4af5-a5a9-ad3889f9d436","system_id":"levelo_inurba_marseille","lat":43.27384,"lon":5.36279,"is_reserved":false,"is_disabled":false,"rental_uris":{"android":"levelo://app?vid=ca5b73b8-bbae-4af5-a5a9-ad3889f9d436","ios":"levelo://app?vid=ca5b73b8-bbae-4af5-a5a9-ad3889f9d436"},"vehicle_type_id":"4","last_reported":1736366987,"current_range_meters":38800,"station_id":"ce4bhbh2rcd13ifvqeo0","pricing_plan_id":"cebpf4jnsgd1na2vs0mg"},{"bike_id":"ad28bd53-1c8c-44ea-9a1c-1e5a5b2498fe","system_id":"levelo_inurba_marseille","lat":43.24174,"lon":5.36376,"is_reserved":false,"is_disabled":false,"rental_uris":{"android":"levelo://app?vid=ad28bd53-1c8c-44ea-9a1c-1e5a5b2498fe","ios":"levelo://app?vid=ad28bd53-1c8c-44ea-9a1c-1e5a5b2498fe"},"vehicle_type_id":"4","last_reported":1736366987,"current_range_meters":18000,"station_id":"cpo36qri1sfpv3e86is0","pricing_plan_id":"cebpf4jnsgd1na2vs0mg"},{"bike_id":"6e1f1e3e-0895-4f28-b6d5-2cef262cd696","system_id":"levelo_inurba_marseille","lat":43.29036,"lon":5.38651,"is_reserved":false,"is_disabled":false,"rental_uris":{"android":"levelo://app?vid=6e1f1e3e-0895-4f28-b6d5-2cef262cd696","ios":"levelo://app?vid=6e1f1e3e-0895-4f28-b6d5-2cef262cd696"},"vehicle_type_id":"4","last_reported":1736366987,"current_range_meters":38800,"station_id":"ce4bh4p2rcd13ifvqe0g","pricing_plan_id":"cebpf4jnsgd1na2vs0mg"},{"bike_id":"3b46a4ed-74ee-409d-9a0b-977e6a987106","system_id":"levelo_inurba_marseille","lat":43.3165,"lon":5.37733,"is_reserved":false,"is_disabled":true,"rental_uris":{"android":"levelo://app?vid=3b46a4ed-74ee-409d-9a0b-977e6a987106","ios":"levelo://app?vid=3b46a4ed-74ee-409d-9a0b-977e6a987106"},"vehicle_type_id":"4","last_reported":1736366987,"current_range_meters":37600,"station_id":"ce4bgth2rcd13ifvqch0","pricing_plan_id":"cebpf4jnsgd1na2vs0mg"},{"bike_id":"189ab9d3-f3e3-40da-95d8-8e48984fa69b","system_id":"levelo_inurba_marseille","lat":43.30263,"lon":5.40068,"is_reserved":false,"is_disabled":false,"rental_uris":{"android":"levelo://app?vid=189ab9d3-f3e3-40da-95d8-8e48984fa69b","ios":"levelo://app?vid=189ab9d3-f3e3-40da-95d8-8e48984fa69b"},"vehicle_type_id":"4","last_reported":1736366987,"current_range_meters":35600,"station_id":"ce4bgvh2rcd13ifvqcs0","pricing_plan_id":"cebpf4jnsgd1na2vs0mg"},{"bike_id":"46afa4bc-c930-44a2-adc9-94c8f932b324","system_id":"levelo_inurba_marseille","lat":43.2872,"lon":5.36437,"is_reserved":false,"is_disabled":false,"rental_uris":{"android":"levelo://app?vid=46afa4bc-c930-44a2-adc9-94c8f932b324","ios":"levelo://app?vid=46afa4bc-c930-44a2-adc9-94c8f932b324"},"vehicle_type_id":"4","last_reported":1736366987,"current_range_meters":9200,"station_id":"","pricing_plan_id":"cebpf4jnsgd1na2vs0mg"},{"bike_id":"84124f1a-469a-4379-8f7f-2c9524f70029","system_id":"levelo_inurba_marseille","lat":43.28707,"lon":5.37402,"is_reserved":false,"is_disabled":false,"rental_uris":{"android":"levelo://app?vid=84124f1a-469a-4379-8f7f-2c9524f70029","ios":"levelo://app?vid=84124f1a-469a-4379-8f7f-2c9524f70029"},"vehicle_type_id":"4","last_reported":1736366987,"current_range_meters":35600,"station_id":"ce4bh3p2rcd13ifvqdq0","pricing_plan_id":"cebpf4jnsgd1na2vs0mg"},{"bike_id":"50cd5673-6836-4309-a193-16e51cb2408d","system_id":"levelo_inurba_marseille","lat":43.26684,"lon":5.38269,"is_reserved":false,"is_disabled":false,"rental_uris":{"android":"levelo://app?vid=50cd5673-6836-4309-a193-16e51cb2408d","ios":"levelo://app?vid=50cd5673-6836-4309-a193-16e51cb2408d"},"vehicle_type_id":"4","last_reported":1736366987,"current_range_meters":38800,"station_id":"ce4bhg92rcd13ifvqf90","pricing_plan_id":"cebpf4jnsgd1na2vs0mg"},{"bike_id":"cecb496a-19a6-4ad5-b31b-eac3846b2c8c","system_id":"levelo_inurba_marseille","lat":43.29365,"lon":5.37854,"is_reserved":false,"is_disabled":false,"rental_uris":{"android":"levelo://app?vid=cecb496a-19a6-4ad5-b31b-eac3846b2c8c","ios":"levelo://app?vid=cecb496a-19a6-4ad5-b31b-eac3846b2c8c"},"vehicle_type_id":"4","last_reported":1736366987,"current_range_meters":38400,"station_id":"ce4bgjh2rcd13ifvqbf0","pricing_plan_id":"cebpf4jnsgd1na2vs0mg"},{"bike_id":"b7f5285d-ac5d-4d91-bed7-aa8465739c26","system_id":"levelo_inurba_marseille","lat":43.3025,"lon":5.40071,"is_reserved":false,"is_disabled":false,"rental_uris":{"android":"levelo://app?vid=b7f5285d-ac5d-4d91-bed7-aa8465739c26","ios":"levelo://app?vid=b7f5285d-ac5d-4d91-bed7-aa8465739c26"},"vehicle_type_id":"4","last_reported":1736366987,"current_range_meters":24000,"station_id":"ce4bgvh2rcd13ifvqcs0","pricing_plan_id":"cebpf4jnsgd1na2vs0mg"},{"bike_id":"72346382-11be-4d0f-9bbf-2b036779722d","system_id":"levelo_inurba_marseille","lat":43.29581,"lon":5.37498,"is_reserved":false,"is_disabled":false,"rental_uris":{"android":"levelo://app?vid=72346382-11be-4d0f-9bbf-2b036779722d","ios":"levelo://app?vid=72346382-11be-4d0f-9bbf-2b036779722d"},"vehicle_type_id":"4","last_reported":1736366987,"current_range_meters":36800,"station_id":"ce4bgh92rcd13ifvqb50","pricing_plan_id":"cebpf4jnsgd1na2vs0mg"},{"bike_id":"0721ceb1-00cd-4651-87a8-8d6efda64c13","system_id":"levelo_inurba_marseille","lat":43.292623,"lon":5.384357,"is_reserved":false,"is_disabled":false,"rental_uris":{"android":"levelo://app?vid=0721ceb1-00cd-4651-87a8-8d6efda64c13","ios":"levelo://app?vid=0721ceb1-00cd-4651-87a8-8d6efda64c13"},"vehicle_type_id":"4","last_reported":1736366987,"current_range_meters":26000,"station_id":"ce4bh692rcd13ifvqea0","pricing_plan_id":"cebpf4jnsgd1na2vs0mg"},{"bike_id":"47fce4f8-7718-407d-9dee-89ea3cf87e47","system_id":"levelo_inurba_marseille","lat":43.22963,"lon":5.35373,"is_reserved":false,"is_disabled":false,"rental_uris":{"android":"levelo://app?vid=47fce4f8-7718-407d-9dee-89ea3cf87e47","ios":"levelo://app?vid=47fce4f8-7718-407d-9dee-89ea3cf87e47"},"vehicle_type_id":"4","last_reported":1736366987,"current_range_meters":24400,"station_id":"cpo3532slgdg3j2ikp40","pricing_plan_id":"cebpf4jnsgd1na2vs0mg"},{"bike_id":"7602b9db-fede-47ee-bd0b-311a54641a45","system_id":"levelo_inurba_marseille","lat":43.31906,"lon":5.4072,"is_reserved":false,"is_disabled":false,"rental_uris":{"android":"levelo://app?vid=7602b9db-fede-47ee-bd0b-311a54641a45","ios":"levelo://app?vid=7602b9db-fede-47ee-bd0b-311a54641a45"},"vehicle_type_id":"4","last_reported":1736366987,"current_range_meters":36400,"station_id":"ce4bhq12rcd13ifvqhig","pricing_plan_id":"cebpf4jnsgd1na2vs0mg"},{"bike_id":"9b8394f4-8355-4766-83cc-d75e5933c4be","system_id":"levelo_inurba_marseille","lat":43.31761,"lon":5.38999,"is_reserved":false,"is_disabled":false,"rental_uris":{"android":"levelo://app?vid=9b8394f4-8355-4766-83cc-d75e5933c4be","ios":"levelo://app?vid=9b8394f4-8355-4766-83cc-d75e5933c4be"},"vehicle_type_id":"4","last_reported":1736366987,"current_range_meters":37600,"station_id":"ce4bhqp2rcd13ifvqhng","pricing_plan_id":"cebpf4jnsgd1na2vs0mg"},{"bike_id":"5bfb38b3-cd0f-45ad-8b08-72611f08ffdb","system_id":"levelo_inurba_marseille","lat":43.28584,"lon":5.39493,"is_reserved":false,"is_disabled":false,"rental_uris":{"android":"levelo://app?vid=5bfb38b3-cd0f-45ad-8b08-72611f08ffdb","ios":"levelo://app?vid=5bfb38b3-cd0f-45ad-8b08-72611f08ffdb"},"vehicle_type_id":"4","last_reported":1736366987,"current_range_meters":26800,"station_id":"ce4bh292rcd13ifvqdg0","pricing_plan_id":"cebpf4jnsgd1na2vs0mg"},{"bike_id":"3b826f05-b304-45ec-87ea-827fb4492e9e","system_id":"levelo_inurba_marseille","lat":43.28844,"lon":5.3585,"is_reserved":false,"is_disabled":false,"rental_uris":{"android":"levelo://app?vid=3b826f05-b304-45ec-87ea-827fb4492e9e","ios":"levelo://app?vid=3b826f05-b304-45ec-87ea-827fb4492e9e"},"vehicle_type_id":"4","last_reported":1736366987,"current_range_meters":38800,"station_id":"ce4bhb12rcd13ifvqem0","pricing_plan_id":"cebpf4jnsgd1na2vs0mg"},{"bike_id":"a412c127-42d2-426f-8887-6e6167d789f2","system_id":"levelo_inurba_marseille","lat":43.32103,"lon":5.36736,"is_reserved":false,"is_disabled":false,"rental_uris":{"android":"levelo://app?vid=a412c127-42d2-426f-8887-6e6167d789f2","ios":"levelo://app?vid=a412c127-42d2-426f-8887-6e6167d789f2"},"vehicle_type_id":"4","last_reported":1736366987,"current_range_meters":38000,"station_id":"ce4bhrh2rcd13ifvqhug","pricing_plan_id":"cebpf4jnsgd1na2vs0mg"},{"bike_id":"b6f1aae3-d2a0-4614-86d5-b6b88f09733e","system_id":"levelo_inurba_marseille","lat":43.29553,"lon":5.42294,"is_reserved":false,"is_disabled":false,"rental_uris":{"android":"levelo://app?vid=b6f1aae3-d2a0-4614-86d5-b6b88f09733e","ios":"levelo://app?vid=b6f1aae3-d2a0-4614-86d5-b6b88f09733e"},"vehicle_type_id":"4","last_reported":1736366987,"current_range_meters":14000,"station_id":"ce4bhph2rcd13ifvqhdg","pricing_plan_id":"cebpf4jnsgd1na2vs0mg"},{"bike_id":"3183b84b-d5e4-428c-a958-ed9198d15a12","system_id":"levelo_inurba_marseille","lat":43.30429,"lon":5.38895,"is_reserved":false,"is_disabled":false,"rental_uris":{"android":"levelo://app?vid=3183b84b-d5e4-428c-a958-ed9198d15a12","ios":"levelo://app?vid=3183b84b-d5e4-428c-a958-ed9198d15a12"},"vehicle_type_id":"4","last_reported":1736366987,"current_range_meters":35600,"station_id":"ce4bgk12rcd13ifvqbi0","pricing_plan_id":"cebpf4jnsgd1na2vs0mg"},{"bike_id":"ab5e85d4-0fa8-40bf-8ba1-53fa5ca1e9dd","system_id":"levelo_inurba_marseille","lat":43.28721,"lon":5.36092,"is_reserved":false,"is_disabled":false,"rental_uris":{"android":"levelo://app?vid=ab5e85d4-0fa8-40bf-8ba1-53fa5ca1e9dd","ios":"levelo://app?vid=ab5e85d4-0fa8-40bf-8ba1-53fa5ca1e9dd"},"vehicle_type_id":"4","last_reported":1736366987,"current_range_meters":10000,"station_id":"cki0cbj6b192h4jlfktg","pricing_plan_id":"cebpf4jnsgd1na2vs0mg"},