{"last_updated":1685480724,"ttl":30,"version":"2.2","data":{"bikes":[{"bike_id":"9ff597da-aade-4bde-bc24-4a06f91dddac","system_id":"levelo_inurba_marseille","lat":43.314811,"lon":5.373103,"is_reserved":false,"is_disabled":false,"rental_uris":{"android":"levelo://app?vid=9ff597da-aade-4bde-bc24-4a06f91dddac","ios":"levelo://app?vid=9ff597da-aade-4bde-bc24-4a06f91dddac"},"vehicle_type_id":"4","last_reported":1685480725,"current_range_meters":4800,"station_id":"ce4bgt12rcd13ifvqcd0","pricing_plan_id":"free"},{"bike_id":"38177474-7dc8-4ce2-a0df-f228f42bb190","system_id":"levelo_inurba_marseille","lat":43.314811,"lon":5.373104,"is_reserved":false,"is_disabled":false,"rental_uris":{"android":"levelo://app?vid=38177474-7dc8-4ce2-a0df-f228f42bb190","ios":"levelo://app?vid=38177474-7dc8-4ce2-a0df-f228f42bb190"},"vehicle_type_id":"4","last_reported":1685480725,"current_range_meters":19600,"station_id":"ce4bgt12rcd13ifvqcd0","pricing_plan_id":"free"},{"bike_id":"3c48dc15-a4da-49fd-b298-9f37b27e027f","system_id":"levelo_inurba_marseille","lat":43.314811,"lon":5.373103,"is_reserved":false,"is_disabled":false,"rental_uris":{"android":"levelo://app?vid=3c48dc15-a4da-49fd-b298-9f37b27e027f","ios":"levelo://app?vid=3c48dc15-a4da-49fd-b298-9f37b27e027f"},"vehicle_type_id":"4","last_reported":1685480725,"current_range_meters":10000,"station_id":"ce4bgt12rcd13ifvqcd0","pricing_plan_id":"free"},{"bike_id":"38faefb2-13c4-4388-9ded-db6c0cc01c86","system_id":"levelo_inurba_marseille","lat":43.314811,"lon":5.373103,"is_reserved":false,"is_disabled":false,"rental_uris":{"android":"levelo://app?vid=38faefb2-13c4-4388-9ded-db6c0cc01c86","ios":"levelo://app?vid=38faefb2-13c4-4388-9ded-db6c0cc01c86"},"vehicle_type_id":"4","last_reported":1685480725,"current_range_meters":1200,"station_id":"ce4bgt12rcd13ifvqcd0","pricing_plan_id":"free"},{"bike_id":"f66ea311-53db-4aa2-99c1-084d8af90062","system_id":"levelo_inurba_marseille","lat":43.314811,"lon":5.373104,"is_reserved":false,"is_disabled":false,"rental_uris":{"android":"levelo://app?vid=f66ea311-53db-4aa2-99c1-084d8af90062","ios":"levelo://app?vid=f66ea311-53db-4aa2-99c1-084d8af90062"},"vehicle_type_id":"4","last_reported":1685480725,"current_range_meters":3200,"station_id":"ce4bgt12rcd13ifvqcd0","pricing_plan_id":"free"},{"bike_id":"f08ef44f-b6d3-4b45-acb0-92da5597a291","system_id":"levelo_inurba_marseille","lat":43.308614,"lon":5.372098,"is_reserved":false,"is_disabled":false,"rental_uris":{"android":"levelo://app?vid=f08ef44f-b6d3-4b45-acb0-92da5597a291","ios":"levelo://app?vid=f08ef44f-b6d3-4b45-acb0-92da5597a291"},"vehicle_type_id":"4","last_reported":1685480725,"current_range_meters":2000,"station_id":"ce4bguh2rcd13ifvqckg","pricing_plan_id":"free"},{"bike_id":"37a85ad5-7654-4f7c-91cb-95c4eda6da41","system_id":"levelo_inurba_marseille","lat":43.31335,"lon":5.37599,"is_reserved":false,"is_disabled":false,"rental_uris":{"android":"levelo://app?vid=37a85ad5-7654-4f7c-91cb-95c4eda6da41","ios":"levelo://app?vid=37a85ad5-7654-4f7c-91cb-95c4eda6da41"},"vehicle_type_id":"4","last_reported":1685480725,"current_range_meters":0,"station_id":"","pricing_plan_id":"free"},{"bike_id":"f69a3f8a-adab-435a-ad98-4302ca7a3c35","system_id":"levelo_inurba_marseille","lat":43.3185,"lon":5.373,"is_reserved":false,"is_disabled":false,"rental_uris":{"android":"levelo://app?vid=f69a3f8a-adab-435a-ad98-4302ca7a3c35","ios":"levelo://app?vid=f69a3f8a-adab-435a-ad98-4302ca7a3c35"},"vehicle_type_id":"4","last_reported":1685480725,"current_range_meters":20400,"station_id":"","pricing_plan_id":"free"},{"bike_id":"9bcdba88-1087-4c24-bab3-0983dfdaec04","system_id":"levelo_inurba_marseille","lat":43.30554,"lon":5.36541,"is_reserved":false,"is_disabled":false,"rental_uris":{"android":"levelo://app?vid=9bcdba88-1087-4c24-bab3-0983dfdaec04","ios":"levelo://app?vid=9bcdba88-1087-4c24-bab3-0983dfdaec04"},"vehicle_type_id":"4","last_reported":1685480725,"current_range_meters":14400,"station_id":"ce4bgs12rcd13ifvqcag","pricing_plan_id":"free"},{"bike_id":"9241aff1-92a4-4e63-bf46-a91be467dff8","system_id":"levelo_inurba_marseille","lat":43.30554,"lon":5.36537,"is_reserved":false,"is_disabled":false,"rental_uris":{"android":"levelo://app?vid=9241aff1-92a4-4e63-bf46-a91be467dff8","ios":"levelo://app?vid=9241aff1-92a4-4e63-bf46-a91be467dff8"},"vehicle_type_id":"4","last_reported":1685480725,"current_range_meters":9200,"station_id":"","pricing_plan_id":"free"},{"bike_id":"97d9bfe7-6014-40ab-b352-ab58cdbdff61","system_id":"levelo_inurba_marseille","lat":43.311125,"lon":5.377624,"is_reserved":false,"is_disabled":false,"rental_uris":{"android":"levelo://app?vid=97d9bfe7-6014-40ab-b352-ab58cdbdff61","ios":"levelo://app?vid=97d9bfe7-6014-40ab-b352-ab58cdbdff61"},"vehicle_type_id":"4","last_reported":1685480725,"current_range_meters":6000,"station_id":"ce4bgt92rcd13ifvqcg0","pricing_plan_id":"free"},{"bike_id":"e75ef3e0-adf7-463c-9396-b7c620108e40","system_id":"levelo_inurba_marseille","lat":43.317075,"lon":5.377367,"is_reserved":false,"is_disabled":false,"rental_uris":{"android":"levelo://app?vid=e75ef3e0-adf7-463c-9396-b7c620108e40","ios":"levelo://app?vid=e75ef3e0-adf7-463c-9396-b7c620108e40"},"vehicle_type_id":"4","last_reported":1685480725,"current_range_meters":27600,"station_id":"ce4bgth2rcd13ifvqch0","pricing_plan_id":"free"},{"bike_id":"1e7d1eba-5d61-4b0f-a0e8-9c632bd20a5f","system_id":"levelo_inurba_marseille","lat":43.303046,"lon":5.368981,"is_reserved":false,"is_disabled":false,"rental_uris":{"android":"levelo://app?vid=1e7d1eba-5d61-4b0f-a0e8-9c632bd20a5f","ios":"levelo://app?vid=1e7d1eba-5d61-4b0f-a0e8-9c632bd20a5f"},"vehicle_type_id":"4","last_reported":1685480725,"current_range_meters":4400,"station_id":"ce4bgqh2rcd13ifvqc5g","pricing_plan_id":"free"},{"bike_id":"4efeb099-e2f1-4bda-98ab-8276cf67f88e","system_id":"levelo_inurba_marseille","lat":43.303046,"lon":5.368981,"is_reserved":false,"is_disabled":false,"rental_uris":{"android":"levelo://app?vid=4efeb099-e2f1-4bda-98ab-8276cf67f88e","ios":"levelo://app?vid=4efeb099-e2f1-4bda-98ab-8276cf67f88e"},"vehicle_type_id":"4","last_reported":1685480725,"current_range_meters":0,"station_id":"ce4bgqh2rcd13ifvqc5g","pricing_plan_id":"free"},{"bike_id":"44aa7c3d-b71e-4995-8376-6ce341ddf7e1","system_id":"levelo_inurba_marseille","lat":43.303046,"lon":5.368981,"is_reserved":false,"is_disabled":false,"rental_uris":{"android":"levelo://app?vid=44aa7c3d-b71e-4995-8376-6ce341ddf7e1","ios":"levelo://app?vid=44aa7c3d-b71e-4995-8376-6ce341ddf7e1"},"vehicle_type_id":"4","last_reported":1685480725,"current_range_meters":0,"station_id":"ce4bgqh2rcd13ifvqc5g","pricing_plan_id":"free"},{"bike_id":"03cee099-c102-401d-850f-6a828f1810d8","system_id":"levelo_inurba_marseille","lat":43.30304,"lon":5.368987,"is_reserved":false,"is_disabled":false,"rental_uris":{"android":"levelo://app?vid=03cee099-c102-401d-850f-6a828f1810d8","ios":"levelo://app?vid=03cee099-c102-401d-850f-6a828f1810d8"},"vehicle_type_id":"4","last_reported":1685480725,"current_range_meters":14000,"station_id":"ce4bgqh2rcd13ifvqc5g","pricing_plan_id":"free"},{"bike_id":"8ff05bf0-fbb1-4eac-b82d-bff21c420814","system_id":"levelo_inurba_marseille","lat":43.30304,"lon":5.368987,"is_reserved":false,"is_disabled":false,"rental_uris":{"android":"levelo://app?vid=8ff05bf0-fbb1-4eac-b82d-bff21c420814","ios":"levelo://app?vid=8ff05bf0-fbb1-4eac-b82d-bff21c420814"},"vehicle_type_id":"4","last_reported":1685480725,"current_range_meters":0,"station_id":"ce4bgqh2rcd13ifvqc5g","pricing_plan_id":"free"},{"bike_id":"5d350d2f-765c-4641-9274-6fac24be13e2","system_id":"levelo_inurba_marseille","lat":43.315293,"lon":5.380349,"is_reserved":false,"is_disabled":false,"rental_uris":{"android":"levelo://app?vid=5d350d2f-765c-4641-9274-6fac24be13e2","ios":"levelo://app?vid=5d350d2f-765c-4641-9274-6fac24be13e2"},"vehicle_type_id":"4","last_reported":1685480725,"current_range_meters":15200,"station_id":"ce4bhsp2rcd13ifvqi50","pricing_plan_id":"free"},{"bike_id":"3f7ca422-d838-4eba-b10c-1805dd5bf1a0","system_id":"levelo_inurba_marseille","lat":43.30873,"lon":5.38132,"is_reserved":false,"is_disabled":false,"rental_uris":{"android":"levelo://app?vid=3f7ca422-d838-4eba-b10c-1805dd5bf1a0","ios":"levelo://app?vid=3f7ca422-d838-4eba-b10c-1805dd5bf1a0"},"vehicle_type_id":"4","last_reported":1685480725,"current_range_meters":4400,"station_id":"","pricing_plan_id":"free"},{"bike_id":"9afdbd76-b6ce-4748-853c-b5d9aafe1255","system_id":"levelo_inurba_marseille","lat":43.30797,"lon":5.38146,"is_reserved":false,"is_disabled":false,"rental_uris":{"android":"levelo://app?vid=9afdbd76-b6ce-4748-853c-b5d9aafe1255","ios":"levelo://app?vid=9afdbd76-b6ce-4748-853c-b5d9aafe1255"},"vehicle_type_id":"4","last_reported":1685480725,"current_range_meters":0,"station_id":"ce4bgt12rcd13ifvqce0","pricing_plan_id":"free"},{"bike_id":"a8705a52-a1e9-4970-9ba6-3e7de29751d1","system_id":"levelo_inurba_marseille","lat":43.308,"lon":5.38152,"is_reserved":false,"is_disabled":false,"rental_uris":{"android":"levelo://app?vid=a8705a52-a1e9-4970-9ba6-3e7de29751d1","ios":"levelo://app?vid=a8705a52-a1e9-4970-9ba6-3e7de29751d1"},"vehicle_type_id":"4","last_reported":1685480725,"current_range_meters":19600,"station_id":"ce4bgt12rcd13ifvqce0","pricing_plan_id":"free"},{"bike_id":"bf8a6a8a-d255-4b5e-8d71-f050a6b13b13","system_id":"levelo_inurba_marseille","lat":43.30786,"lon":5.38154,"is_reserved":false,"is_disabled":false,"rental_uris":{"android":"levelo://app?vid=bf8a6a8a-d255-4b5e-8d71-f050a6b13b13","ios":"levelo://app?vid=bf8a6a8a-d255-4b5e-8d71-f050a6b13b13"},"vehicle_type_id":"4","last_reported":1685480725,"current_range_meters":2000,"station_id":"ce4bgt12rcd13ifvqce0","pricing_plan_id":"free"},{"bike_id":"e1b7e638-db54-42d5-ae85-3e1337e37665","system_id":"levelo_inurba_marseille","lat":43.31628,"lon":5.38337,"is_reserved":false,"is_disabled":false,"rental_uris":{"android":"levelo://app?vid=e1b7e638-db54-42d5-ae85-3e1337e37665","ios":"levelo://app?vid=e1b7e638-db54-42d5-ae85-3e1337e37665"},"vehicle_type_id":"4","last_reported":1685480725,"current_range_meters":16400,"station_id":"","pricing_plan_id":"free"},{"bike_id":"c905a6bf-bfd4-4edc-87b4-53204571edf4","system_id":"levelo_inurba_marseille","lat":43.32,"lon":5.3815,"is_reserved":false,"is_disabled":false,"rental_uris":{"android":"levelo://app?vid=c905a6bf-bfd4-4edc-87b4-53204571edf4","ios":"levelo://app?vid=c905a6bf-bfd4-4edc-87b4-53204571edf4"},"vehicle_type_id":"4","last_reported":1685480725,"current_range_meters":12000,"station_id":"ce4bhr12rcd13ifvqhpg","pricing_plan_id":"free"},{"bike_id":"1612da05-8160-42a8-ac75-fa4cb57fda5c","system_id":"levelo_inurba_marseille","lat":43.31359,"lon":5.38493,"is_reserved":false,"is_disabled":false,"rental_uris":{"android":"levelo://app?vid=1612da05-8160-42a8-ac75-fa4cb57fda5c","ios":"levelo://app?vid=1612da05-8160-42a8-ac75-fa4cb57fda5c"},"vehicle_type_id":"4","last_reported":1685480725,"current_range_meters":400,"station_id":"ce4bgt92rcd13ifvqcf0","pricing_plan_id":"free"},{"bike_id":"66eab5dc-e28b-447f-b1b6-2b1e4997bf70","system_id":"levelo_inurba_marseille","lat":43.299222,"lon":5.365554,"is_reserved":false,"is_disabled":false,"rental_uris":{"android":"levelo://app?vid=66eab5dc-e28b-447f-b1b6-2b1e4997bf70","ios":"levelo://app?vid=66eab5dc-e28b-447f-b1b6-2b1e4997bf70"},"vehicle_type_id":"4","last_reported":1685480725,"current_range_meters":8800,"station_id":"ce4bgm92rcd13ifvqbr0","pricing_plan_id":"free"},{"bike_id":"61763a11-b141-49b4-9a2a-59b0d357ca7c","system_id":"levelo_inurba_marseille","lat":43.311808,"lon":5.387218,"is_reserved":false,"is_disabled":false,"rental_uris":{"android":"levelo://app?vid=61763a11-b141-49b4-9a2a-59b0d357ca7c","ios":"levelo://app?vid=61763a11-b141-49b4-9a2a-59b0d357ca7c"},"vehicle_type_id":"4","last_reported":1685480725,"current_range_meters":23200,"station_id":"ce4bgv12rcd13ifvqcp0","pricing_plan_id":"free"},{"bike_id":"a64f81c8-e29a-497a-baf7-e9cf9e0211a0","system_id":"levelo_inurba_marseille","lat":43.311722,"lon":5.387247,"is_reserved":false,"is_disabled":false,"rental_uris":{"android":"levelo://app?vid=a64f81c8-e29a-497a-baf7-e9cf9e0211a0","ios":"levelo://app?vid=a64f81c8-e29a-497a-baf7-e9cf9e0211a0"},"vehicle_type_id":"4","last_reported":1685480725,"current_range_meters":25600,"station_id":"ce4bgv12rcd13ifvqcp0","pricing_plan_id":"free"},{"bike_id":"e114ce9d-7360-4682-bbe9-d54d36d06c02","system_id":"levelo_inurba_marseille","lat":43.328371,"lon":5.366909,"is_reserved":false,"is_disabled":false,"rental_uris":{"android":"levelo://app?vid=e114ce9d-7360-4682-bbe9-d54d36d06c02","ios":"levelo://app?vid=e114ce9d-7360-4682-bbe9-d54d36d06c02"},"vehicle_type_id":"4","last_reported":1685480725,"current_range_meters":8800,"station_id":"ce4bhs92rcd13ifvqi0g","pricing_plan_id":"free"},{"bike_id":"c5771238-4e04-4247-89e1-6d817f659597","system_id":"levelo_inurba_marseille","lat":43.328371,"lon":5.366909,"is_reserved":false,"is_disabled":false,"rental_uris":{"android":"levelo://app?vid=c5771238-4e04-4247-89e1-6d817f659597","ios":"levelo://app?vid=c5771238-4e04-4247-89e1-6d817f659597"},"vehicle_type_id":"4","last_reported":1685480725,"current_range_meters":0,"station_id":"ce4bhs92rcd13ifvqi0g","pricing_plan_id":"free"},{"bike_id":"eccca70c-0886-4086-94da-09d5cb3b24a3","system_id":"levelo_inurba_marseille","lat":43.32836,"lon":5.36688,"is_reserved":false,"is_disabled":false,"rental_uris":{"android":"levelo://app?vid=eccca70c-0886-4086-94da-09d5cb3b24a3","ios":"levelo://app?vid=eccca70c-0886-4086-94da-09d5cb3b24a3"},"vehicle_type_id":"4","last_reported":1685480725,"current_range_meters":13200,"station_id":"ce4bhs92rcd13ifvqi0g","pricing_plan_id":"free"},{"bike_id":"b8ba35bf-de5c-44f3-ada5-5e7534ce4494","system_id":"levelo_inurba_marseille","lat":43.29711,"lon":5.36608,"is_reserved":false,"is_disabled":false,"rental_uris":{"android":"levelo://app?vid=b8ba35bf-de5c-44f3-ada5-5e7534ce4494","ios":"levelo://app?vid=b8ba35bf-de5c-44f3-ada5-5e7534ce4494"},"vehicle_type_id":"4","last_reported":1685480725,"current_range_meters":20000,"station_id":"","pricing_plan_id":"free"},{"bike_id":"fc8df368-9a5e-4363-8c10-fceec55c2bb2","system_id":"levelo_inurba_marseille","lat":43.29591,"lon":5.36731,"is_reserved":false,"is_disabled":false,"rental_uris":{"android":"levelo://app?vid=fc8df368-9a5e-4363-8c10-fceec55c2bb2","ios":"levelo://app?vid=fc8df368-9a5e-4363-8c10-fceec55c2bb2"},"vehicle_type_id":"4","last_reported":1685480725,"current_range_meters":27600,"station_id":"ce4bgph2rcd13ifvqc2g","pricing_plan_id":"free"},{"bike_id":"e6b22a73-d073-41ac-bcdf-45ed1e4e9676","system_id":"levelo_inurba_marseille","lat":43.29573,"lon":5.367355,"is_reserved":false,"is_disabled":false,"rental_uris":{"android":"levelo://app?vid=e6b22a73-d073-41ac-bcdf-45ed1e4e9676","ios":"levelo://app?vid=e6b22a73-d073-41ac-bcdf-45ed1e4e9676"},"vehicle_type_id":"4","last_reported":1685480725,"current_range_meters":29200,"station_id":"ce4bgph2rcd13ifvqc2g","pricing_plan_id":"free"},{"bike_id":"91b92a01-f52b-4107-9d86-ef4b96e3f47d","system_id":"levelo_inurba_marseille","lat":43.29646,"lon":5.37444,"is_reserved":false,"is_disabled":false,"rental_uris":{"android":"levelo://app?vid=91b92a01-f52b-4107-9d86-ef4b96e3f47d","ios":"levelo://app?vid=91b92a01-f52b-4107-9d86-ef4b96e3f47d"},"vehicle_type_id":"4","last_reported":1685480725,"current_range_meters":0,"station_id":"","pricing_plan_id":"free"},{"bike_id":"ac3f644f-f3b9-497d-9cc2-0f1dd0a3bbaa","system_id":"levelo_inurba_marseille","lat":43.299028,"lon":5.381509,"is_reserved":false,"is_disabled":false,"rental_uris":{"android":"levelo://app?vid=ac3f644f-f3b9-497d-9cc2-0f1dd0a3bbaa","ios":"levelo://app?vid=ac3f644f-f3b9-497d-9cc2-0f1dd0a3bbaa"},"vehicle_type_id":"4","last_reported":1685480725,"current_range_meters":25600,"station_id":"ce4bgj12rcd13ifvqbc0","pricing_plan_id":"free"},{"bike_id":"9cd02cf4-665b-4d30-8653-0b7376204b03","system_id":"levelo_inurba_marseille","lat":43.29571,"lon":5.3751,"is_reserved":false,"is_disabled":false,"rental_uris":{"android":"levelo://app?vid=9cd02cf4-665b-4d30-8653-0b7376204b03","ios":"levelo://app?vid=9cd02cf4-665b-4d30-8653-0b7376204b03"},"vehicle_type_id":"4","last_reported":1685480725,"current_range_meters":22000,"station_id":"ce4bgh92rcd13ifvqb50","pricing_plan_id":"free"},{"bike_id":"591bf06c-66fe-4af0-ac06-1a3079c875a3","system_id":"levelo_inurba_marseille","lat":43.304278,"lon":5.388868,"is_reserved":false,"is_disabled":false,"rental_uris":{"android":"levelo://app?vid=591bf06c-66fe-4af0-ac06-1a3079c875a3","ios":"levelo://app?vid=591bf06c-66fe-4af0-ac06-1a3079c875a3"},"vehicle_type_id":"4","last_reported":1685480725,"current_range_meters":16800,"station_id":"ce4bgk12rcd13ifvqbi0","pricing_plan_id":"free"},{"bike_id":"255f5014-a74d-47d1-a2e0-f24e01690aba","system_id":"levelo_inurba_marseille","lat":43.304274,"lon":5.388873,"is_reserved":false,"is_disabled":false,"rental_uris":{"android":"levelo://app?vid=255f5014-a74d-47d1-a2e0-f24e01690aba","ios":"levelo://app?vid=255f5014-a74d-47d1-a2e0-f24e01690aba"},"vehicle_type_id":"4","last_reported":1685480725,"current_range_meters":1200,"station_id":"ce4bgk12rcd13ifvqbi0","pricing_plan_id":"free"},{"bike_id":"7efd6ace-913e-4df0-bd47-a48b6cf440a5","system_id":"levelo_inurba_marseille","lat":43.304278,"lon":5.388868,"is_reserved":false,"is_disabled":false,"rental_uris":{"android":"levelo://app?vid=7efd6ace-913e-4df0-bd47-a48b6cf440a5","ios":"levelo://app?vid=7efd6ace-913e-4df0-bd47-a48b6cf440a5"},"vehicle_type_id":"4","last_reported":1685480725,"current_range_meters":3600,"station_id":"ce4bgk12rcd13ifvqbi0","pricing_plan_id":"free"},{"bike_id":"ca50f942-59d2-4866-a94c-8943731a2fe9","system_id":"levelo_inurba_marseille","lat":43.304278,"lon":5.388868,"is_reserved":false,"is_disabled":false,"rental_uris":{"android":"levelo://app?vid=ca50f942-59d2-4866-a94c-8943731a2fe9","ios":"levelo://app?vid=ca50f942-59d2-4866-a94c-8943731a2fe9"},"vehicle_type_id":"4","last_reported":1685480725,"current_range_meters":400,"station_id":"ce4bgk12rcd13ifvqbi0","pricing_plan_id":"free"},{"bike_id":"83cba603-490c-4f5a-8e86-b75f693f7be1","system_id":"levelo_inurba_marseille","lat":43.298037,"lon":5.381066,"is_reserved":false,"is_disabled":false,"rental_uris":{"android":"levelo://app?vid=83cba603-490c-4f5a-8e86-b75f693f7be1","ios":"levelo://app?vid=83cba603-490c-4f5a-8e86-b75f693f7be1"},"vehicle_type_id":"4","last_reported":1685480725,"current_range_meters":0,"station_id":"ce4bgip2rcd13ifvqbb0","pricing_plan_id":"free"},{"bike_id":"d86a8c46-240d-427f-979b-5b78cfe3b6c1","system_id":"levelo_inurba_marseille","lat":43.32365,"lon":5.38876,"is_reserved":false,"is_disabled":false,"rental_uris":{"android":"levelo://app?vid=d86a8c46-240d-427f-979b-5b78cfe3b6c1","ios":"levelo://app?vid=d86a8c46-240d-427f-979b-5b78cfe3b6c1"},"vehicle_type_id":"4","last_reported":1685480725,"current_range_meters":20000,"station_id":"ce4bhqp2rcd13ifvqhog","pricing_plan_id":"free"},{"bike_id":"950f3a0b-8466-40bf-8f81-5f5cf1a96632","system_id":"levelo_inurba_marseille","lat":43.32367,"lon":5.388836,"is_reserved":false,"is_disabled":false,"rental_uris":{"android":"levelo://app?vid=950f3a0b-8466-40bf-8f81-5f5cf1a96632","ios":"levelo://app?vid=950f3a0b-8466-40bf-8f81-5f5cf1a96632"},"vehicle_type_id":"4","last_reported":1685480725,"current_range_meters":3600,"station_id":"ce4bhqp2rcd13ifvqhog","pricing_plan_id":"free"},{"bike_id":"fdaa9378-2bab-4dcd-ac61-bb973ffc0375","system_id":"levelo_inurba_marseille","lat":43.32363,"lon":5.38883,"is_reserved":false,"is_disabled":false,"rental_uris":{"android":"levelo://app?vid=fdaa9378-2bab-4dcd-ac61-bb973ffc0375","ios":"levelo://app?vid=fdaa9378-2bab-4dcd-ac61-bb973ffc0375"},"vehicle_type_id":"4","last_reported":1685480725,"current_range_meters":10800,"station_id":"ce4bhqp2rcd13ifvqhog","pricing_plan_id":"free"},{"bike_id":"570390b8-979f-433e-9c60-86f7208e8571","system_id":"levelo_inurba_marseille","lat":43.32367,"lon":5.388836,"is_reserved":false,"is_disabled":false,"rental_uris":{"android":"levelo://app?vid=570390b8-979f-433e-9c60-86f7208e8571","ios":"levelo://app?vid=570390b8-979f-433e-9c60-86f7208e8571"},"vehicle_type_id":"4","last_reported":1685480725,"current_range_meters":19200,"station_id":"ce4bhqp2rcd13ifvqhog","pricing_plan_id":"free"},{"bike_id":"6345f779-7590-4ebf-81b7-14a3c3a95e37","system_id":"levelo_inurba_marseille","lat":43.32368,"lon":5.38883,"is_reserved":false,"is_disabled":false,"rental_uris":{"android":"levelo://app?vid=6345f779-7590-4ebf-81b7-14a3c3a95e37","ios":"levelo://app?vid=6345f779-7590-4ebf-81b7-14a3c3a95e37"},"vehicle_type_id":"4","last_reported":1685480725,"current_range_meters":400,"station_id":"ce4bhqp2rcd13ifvqhog","pricing_plan_id":"free"},{"bike_id":"00c9b202-b5b6-4f69-8084-db1f9466ee79","system_id":"levelo_inurba_marseille","lat":43.32367,"lon":5.388836,"is_reserved":false,"is_disabled":false,"rental_uris":{"android":"levelo://app?vid=00c9b202-b5b6-4f69-8084-db1f9466ee79","ios":"levelo://app?vid=00c9b202-b5b6-4f69-8084-db1f9466ee79"},"vehicle_type_id":"4","last_reported":1685480725,"current_range_meters":20000,"station_id":"ce4bhqp2rcd13ifvqhog","pricing_plan_id":"free"},{"bike_id":"019e8e5f-898c-403c-bff5-44d0c77958de","system_id":"levelo_inurba_marseille","lat":43.32369,"lon":5.38885,"is_reserved":false,"is_disabled":false,"rental_uris":{"android":"levelo://app?vid=019e8e5f-898c-403c-bff5-44d0c77958de","ios":"levelo://app?vid=019e8e5f-898c-403c-bff5-44d0c77958de"},"vehicle_type_id":"4","last_reported":1685480725,"current_range_meters":22400,"station_id":"ce4bhqp2rcd13ifvqhog","pricing_plan_id":"free"},{"bike_id":"554b5e90-a481-498f-a875-e3572c061fbe","system_id":"levelo_inurba_marseille","lat":43.29601,"lon":5.381084,"is_reserved":false,"is_disabled":false,"rental_uris":{"android":"levelo://app?vid=554b5e90-a481-498f-a875-e3572c061fbe","ios":"levelo://app?vid=554b5e90-a481-498f-a875-e3572c061fbe"},"vehicle_type_id":"4","last_reported":1685480725,"current_range_meters":1200,"station_id":"ce4bgl12rcd13ifvqbo0","pricing_plan_id":"free"},{"bike_id":"114fa698-6b66-4820-99c0-fb647de8ed33","system_id":"levelo_inurba_marseille","lat":43.292749,"lon":5.368398,"is_reserved":false,"is_disabled":false,"rental_uris":{"android":"levelo://app?vid=114fa698-6b66-4820-99c0-fb647de8ed33","ios":"levelo://app?vid=114fa698-6b66-4820-99c0-fb647de8ed33"},"vehicle_type_id":"4","last_reported":1685480725,"current_range_meters":16800,"station_id":"ce4bhbp2rcd13ifvqesg","pricing_plan_id":"free"},{"bike_id":"4af23f16-94cc-48e7-8832-51464e858cae","system_id":"levelo_inurba_marseille","lat":43.292749,"lon":5.368402,"is_reserved":false,"is_disabled":false,"rental_uris":{"android":"levelo://app?vid=4af23f16-94cc-48e7-8832-51464e858cae","ios":"levelo://app?vid=4af23f16-94cc-48e7-8832-51464e858cae"},"vehicle_type_id":"4","last_reported":1685480725,"current_range_meters":30800,"station_id":"ce4bhbp2rcd13ifvqesg","pricing_plan_id":"free"},{"bike_id":"2baa403e-5c65-4e33-a4f6-5ed6258fd497","system_id":"levelo_inurba_marseille","lat":43.292749,"lon":5.368398,"is_reserved":false,"is_disabled":false,"rental_uris":{"android":"levelo://app?vid=2baa403e-5c65-4e33-a4f6-5ed6258fd497","ios":"levelo://app?vid=2baa403e-5c65-4e33-a4f6-5ed6258fd497"},"vehicle_type_id":"4","last_reported":1685480725,"current_range_meters":31600,"station_id":"ce4bhbp2rcd13ifvqesg","pricing_plan_id":"free"},{"bike_id":"7b1b40a2-3af2-435e-a4b2-4beceb571eef","system_id":"levelo_inurba_marseille","lat":43.292749,"lon":5.368402,"is_reserved":false,"is_disabled":false,"rental_uris":{"android":"levelo://app?vid=7b1b40a2-3af2-435e-a4b2-4beceb571eef","ios":"levelo://app?vid=7b1b40a2-3af2-435e-a4b2-4beceb571eef"},"vehicle_type_id":"4","last_reported":1685480725,"current_range_meters":28800,"station_id":"ce4bhbp2rcd13ifvqesg","pricing_plan_id":"free"},{"bike_id":"e8da31b8-5280-4796-9937-54c4215d8dd5","system_id":"levelo_inurba_marseille","lat":43.292749,"lon":5.368398,"is_reserved":false,"is_disabled":false,"rental_uris":{"android":"levelo://app?vid=e8da31b8-5280-4796-9937-54c4215d8dd5","ios":"levelo://app?vid=e8da31b8-5280-4796-9937-54c4215d8dd5"},"vehicle_type_id":"4","last_reported":1685480725,"current_range_meters":30400,"station_id":"ce4bhbp2rcd13ifvqesg","pricing_plan_id":"free"},{"bike_id":"538d4756-1c48-4939-b486-790fa1bde5b5","system_id":"levelo_inurba_marseille","lat":43.292749,"lon":5.368398,"is_reserved":false,"is_disabled":false,"rental_uris":{"android":"levelo://app?vid=538d4756-1c48-4939-b486-790fa1bde5b5","ios":"levelo://app?vid=538d4756-1c48-4939-b486-790fa1bde5b5"},"vehicle_type_id":"4","last_reported":1685480725,"current_range_meters":29200,"station_id":"ce4bhbp2rcd13ifvqesg","pricing_plan_id":"free"},{"bike_id":"aa1ccbf9-7268-4826-bf18-ca895ffa4ecb","system_id":"levelo_inurba_marseille","lat":43.305994,"lon":5.393687,"is_reserved":false,"is_disabled":false,"rental_uris":{"android":"levelo://app?vid=aa1ccbf9-7268-4826-bf18-ca895ffa4ecb","ios":"levelo://app?vid=aa1ccbf9-7268-4826-bf18-ca895ffa4ecb"},"vehicle_type_id":"4","last_reported":1685480725,"current_range_meters":1200,"station_id":"ce4bh0p2rcd13ifvqd80","pricing_plan_id":"free"},{"bike_id":"70d642b9-daab-4b6f-bb8e-5ddad63f7fad","system_id":"levelo_inurba_marseille","lat":43.305994,"lon":5.393687,"is_reserved":false,"is_disabled":false,"rental_uris":{"android":"levelo://app?vid=70d642b9-daab-4b6f-bb8e-5ddad63f7fad","ios":"levelo://app?vid=70d642b9-daab-4b6f-bb8e-5ddad63f7fad"},"vehicle_type_id":"4","last_reported":1685480725,"current_range_meters":22000,"station_id":"ce4bh0p2rcd13ifvqd80","pricing_plan_id":"free"},{"bike_id":"e5c86797-64d5-4354-9ce6-d70741a6556f","system_id":"levelo_inurba_marseille","lat":43.302992,"lon":5.392136,"is_reserved":false,"is_disabled":false,"rental_uris":{"android":"levelo://app?vid=e5c86797-64d5-4354-9ce6-d70741a6556f","ios":"levelo://app?vid=e5c86797-64d5-4354-9ce6-d70741a6556f"},"vehicle_type_id":"4","last_reported":1685480725,"current_range_meters":6400,"station_id":"ce4bgkh2rcd13ifvqbk0","pricing_plan_id":"free"},{"bike_id":"4a3a8551-9c39-4f37-ae23-5c61c9e68483","system_id":"levelo_inurba_marseille","lat":43.302994,"lon":5.392216,"is_reserved":false,"is_disabled":false,"rental_uris":{"android":"levelo://app?vid=4a3a8551-9c39-4f37-ae23-5c61c9e68483","ios":"levelo://app?vid=4a3a8551-9c39-4f37-ae23-5c61c9e68483"},"vehicle_type_id":"4","last_reported":1685480725,"current_range_meters":10000,"station_id":"ce4bgkh2rcd13ifvqbk0","pricing_plan_id":"free"},{"bike_id":"0f9231ba-ce98-4ccc-a16b-88fd7cb2d5e3","system_id":"levelo_inurba_marseille","lat":43.302992,"lon":5.392136,"is_reserved":false,"is_disabled":false,"rental_uris":{"android":"levelo://app?vid=0f9231ba-ce98-4ccc-a16b-88fd7cb2d5e3","ios":"levelo://app?vid=0f9231ba-ce98-4ccc-a16b-88fd7cb2d5e3"},"vehicle_type_id":"4","last_reported":1685480725,"current_range_meters":19600,"station_id":"ce4bgkh2rcd13ifvqbk0","pricing_plan_id":"free"},{"bike_id":"9b5df379-67fd-4c5b-923f-866c0ed0be0d","system_id":"levelo_inurba_marseille","lat":43.29874,"lon":5.38903,"is_reserved":false,"is_disabled":false,"rental_uris":{"android":"levelo://app?vid=9b5df379-67fd-4c5b-923f-866c0ed0be0d","ios":"levelo://app?vid=9b5df379-67fd-4c5b-923f-866c0ed0be0d"},"vehicle_type_id":"4","last_reported":1685480725,"current_range_meters":18400,"station_id":"ce4bh392rcd13ifvqdl0","pricing_plan_id":"free"},{"bike_id":"d7a39ad4-b024-42ee-b071-56489df0d5a1","system_id":"levelo_inurba_marseille","lat":43.33227,"lon":5.37871,"is_reserved":false,"is_disabled":false,"rental_uris":{"android":"levelo://app?vid=d7a39ad4-b024-42ee-b071-56489df0d5a1","ios":"levelo://app?vid=d7a39ad4-b024-42ee-b071-56489df0d5a1"},"vehicle_type_id":"4","last_reported":1685480725,"current_range_meters":4800,"station_id":"","pricing_plan_id":"free"},{"bike_id":"1667aa5e-9b29-41bc-ae4e-048bc4ff61a2","system_id":"levelo_inurba_marseille","lat":43.298764,"lon":5.388973,"is_reserved":false,"is_disabled":false,"rental_uris":{"android":"levelo://app?vid=1667aa5e-9b29-41bc-ae4e-048bc4ff61a2","ios":"levelo://app?vid=1667aa5e-9b29-41bc-ae4e-048bc4ff61a2"},"vehicle_type_id":"4","last_reported":1685480725,"current_range_meters":1200,"station_id":"ce4bh392rcd13ifvqdl0","pricing_plan_id":"free"},{"bike_id":"b957909a-34d2-41d3-8de3-e134c1b33f3f","system_id":"levelo_inurba_marseille","lat":43.30885,"lon":5.3964,"is_reserved":false,"is_disabled":false,"rental_uris":{"android":"levelo://app?vid=b957909a-34d2-41d3-8de3-e134c1b33f3f","ios":"levelo://app?vid=b957909a-34d2-41d3-8de3-e134c1b33f3f"},"vehicle_type_id":"4","last_reported":1685480725,"current_range_meters":7200,"station_id":"ce4bh012rcd13ifvqcv0","pricing_plan_id":"free"},{"bike_id":"fc6a581c-fae6-4cea-9b2f-d9a711eabf4d","system_id":"levelo_inurba_marseille","lat":43.30891,"lon":5.39642,"is_reserved":false,"is_disabled":false,"rental_uris":{"android":"levelo://app?vid=fc6a581c-fae6-4cea-9b2f-d9a711eabf4d","ios":"levelo://app?vid=fc6a581c-fae6-4cea-9b2f-d9a711eabf4d"},"vehicle_type_id":"4","last_reported":1685480725,"current_range_meters":2000,"station_id":"ce4bh012rcd13ifvqcv0","pricing_plan_id":"free"},{"bike_id":"5b786c0d-33e6-4e74-8aeb-67a0741e93e4","system_id":"levelo_inurba_marseille","lat":43.30883,"lon":5.39641,"is_reserved":false,"is_disabled":false,"rental_uris":{"android":"levelo://app?vid=5b786c0d-33e6-4e74-8aeb-67a0741e93e4","ios":"levelo://app?vid=5b786c0d-33e6-4e74-8aeb-67a0741e93e4"},"vehicle_type_id":"4","last_reported":1685480725,"current_range_meters":6800,"station_id":"ce4bh012rcd13ifvqcv0","pricing_plan_id":"free"},{"bike_id":"7121b6c4-25e3-416e-9ab6-bddb8bd3d30e","system_id":"levelo_inurba_marseille","lat":43.309038,"lon":5.396546,"is_reserved":false,"is_disabled":false,"rental_uris":{"android":"levelo://app?vid=7121b6c4-25e3-416e-9ab6-bddb8bd3d30e","ios":"levelo://app?vid=7121b6c4-25e3-416e-9ab6-bddb8bd3d30e"},"vehicle_type_id":"4","last_reported":1685480725,"current_range_meters":800,"station_id":"ce4bh012rcd13ifvqcv0","pricing_plan_id":"free"},{"bike_id":"b7569e9d-dffc-454f-ac0d-95f57abacbe4","system_id":"levelo_inurba_marseille","lat":43.309038,"lon":5.396546,"is_reserved":false,"is_disabled":false,"rental_uris":{"android":"levelo://app?vid=b7569e9d-dffc-454f-ac0d-95f57abacbe4","ios":"levelo://app?vid=b7569e9d-dffc-454f-ac0d-95f57abacbe4"},"vehicle_type_id":"4","last_reported":1685480725,"current_range_meters":12400,"station_id":"ce4bh012rcd13ifvqcv0","pricing_plan_id":"free"},{"bike_id":"725744e7-f5e0-40e2-8eca-bf1daa5fddb3","system_id":"levelo_inurba_marseille","lat":43.291994,"lon":5.357886,"is_reserved":false,"is_disabled":false,"rental_uris":{"android":"levelo://app?vid=725744e7-f5e0-40e2-8eca-bf1daa5fddb3","ios":"levelo://app?vid=725744e7-f5e0-40e2-8eca-bf1daa5fddb3"},"vehicle_type_id":"4","last_reported":1685480725,"current_range_meters":0,"station_id":"ce4bhb12rcd13ifvqel0","pricing_plan_id":"free"},{"bike_id":"7dae2ea0-3748-4b5c-82ea-b14d67b41830","system_id":"levelo_inurba_marseille","lat":43.309038,"lon":5.396546,"is_reserved":false,"is_disabled":false,"rental_uris":{"android":"levelo://app?vid=7dae2ea0-3748-4b5c-82ea-b14d67b41830","ios":"levelo://app?vid=7dae2ea0-3748-4b5c-82ea-b14d67b41830"},"vehicle_type_id":"4","last_reported":1685480725,"current_range_meters":0,"station_id":"ce4bh012rcd13ifvqcv0","pricing_plan_id":"free"},{"bike_id":"71bf4c89-f421-424d-be50-d74901604058","system_id":"levelo_inurba_marseille","lat":43.309038,"lon":5.396546,"is_reserved":false,"is_disabled":false,"rental_uris":{"android":"levelo://app?vid=71bf4c89-f421-424d-be50-d74901604058","ios":"levelo://app?vid=71bf4c89-f421-424d-be50-d74901604058"},"vehicle_type_id":"4","last_reported":1685480725,"current_range_meters":15600,"station_id":"ce4bh012rcd13ifvqcv0","pricing_plan_id":"free"},{"bike_id":"d4258804-4979-4b98-b51f-00b83257367e","system_id":"levelo_inurba_marseille","lat":43.309038,"lon":5.396546,"is_reserved":false,"is_disabled":false,"rental_uris":{"android":"levelo://app?vid=d4258804-4979-4b98-b51f-00b83257367e","ios":"levelo://app?vid=d4258804-4979-4b98-b51f-00b83257367e"},"vehicle_type_id":"4","last_reported":1685480725,"current_range_meters":14000,"station_id":"ce4bh012rcd13ifvqcv0","pricing_plan_id":"free"},{"bike_id":"9fb1c38f-584e-46f1-a54a-ff83a711ddd6","system_id":"levelo_inurba_marseille","lat":43.309038,"lon":5.396546,"is_reserved":false,"is_disabled":false,"rental_uris":{"android":"levelo://app?vid=9fb1c38f-584e-46f1-a54a-ff83a711ddd6","ios":"levelo://app?vid=9fb1c38f-584e-46f1-a54a-ff83a711ddd6"},"vehicle_type_id":"4","last_reported":1685480725,"current_range_meters":20400,"station_id":"ce4bh012rcd13ifvqcv0","pricing_plan_id":"free"},{"bike_id":"9240270b-aa8f-45f2-bee8-97784f3b87c7","system_id":"levelo_inurba_marseille","lat":43.29529,"lon":5.38516,"is_reserved":false,"is_disabled":false,"rental_uris":{"android":"levelo://app?vid=9240270b-aa8f-45f2-bee8-97784f3b87c7","ios":"levelo://app?vid=9240270b-aa8f-45f2-bee8-97784f3b87c7"},"vehicle_type_id":"4","last_reported":1685480725,"current_range_meters":8800,"station_id":"","pricing_plan_id":"free"},{"bike_id":"70e494ad-cfc1-4e9c-af5e-9523fcee80ad","system_id":"levelo_inurba_marseille","lat":43.309038,"lon":5.396546,"is_reserved":false,"is_disabled":false,"rental_uris":{"android":"levelo://app?vid=70e494ad-cfc1-4e9c-af5e-9523fcee80ad","ios":"levelo://app?vid=70e494ad-cfc1-4e9c-af5e-9523fcee80ad"},"vehicle_type_id":"4","last_reported":1685480725,"current_range_meters":10000,"station_id":"ce4bh012rcd13ifvqcv0","pricing_plan_id":"free"},{"bike_id":"15219850-8658-4f74-a001-d43aee255ad9","system_id":"levelo_inurba_marseille","lat":43.29529,"lon":5.38541,"is_reserved":false,"is_disabled":false,"rental_uris":{"android":"levelo://app?vid=15219850-8658-4f74-a001-d43aee255ad9","ios":"levelo://app?vid=15219850-8658-4f74-a001-d43aee255ad9"},"vehicle_type_id":"4","last_reported":1685480725,"current_range_meters":800,"station_id":"ce4bgih2rcd13ifvqba0","pricing_plan_id":"free"},{"bike_id":"3b054fc9-0fdb-461c-8db9-97c1e16173a2","system_id":"levelo_inurba_marseille","lat":43.29528,"lon":5.38545,"is_reserved":false,"is_disabled":false,"rental_uris":{"android":"levelo://app?vid=3b054fc9-0fdb-461c-8db9-97c1e16173a2","ios":"levelo://app?vid=3b054fc9-0fdb-461c-8db9-97c1e16173a2"},"vehicle_type_id":"4","last_reported":1685480725,"current_range_meters":0,"station_id":"ce4bgih2rcd13ifvqba0","pricing_plan_id":"free"},{"bike_id":"f5d3409d-f44c-4a96-9fe2-097a1bce5fea","system_id":"levelo_inurba_marseille","lat":43.302008,"lon":5.394694,"is_reserved":false,"is_disabled":false,"rental_uris":{"android":"levelo://app?vid=f5d3409d-f44c-4a96-9fe2-097a1bce5fea","ios":"levelo://app?vid=f5d3409d-f44c-4a96-9fe2-097a1bce5fea"},"vehicle_type_id":"4","last_reported":1685480725,"current_range_meters":7200,"station_id":"ce4bh0p2rcd13ifvqd70","pricing_plan_id":"free"},{"bike_id":"23b8a8da-0a3c-489c-a5e4-5dcc53b510f7","system_id":"levelo_inurba_marseille","lat":43.29044,"lon":5.37562,"is_reserved":false,"is_disabled":false,"rental_uris":{"android":"levelo://app?vid=23b8a8da-0a3c-489c-a5e4-5dcc53b510f7","ios":"levelo://app?vid=23b8a8da-0a3c-489c-a5e4-5dcc53b510f7"},"vehicle_type_id":"4","last_reported":1685480725,"current_range_meters":6000,"station_id":"ce4bh692rcd13ifvqe90","pricing_plan_id":"free"},{"bike_id":"7d173862-19f6-4abb-8017-c45e3daf1823","system_id":"levelo_inurba_marseille","lat":43.29044,"lon":5.37567,"is_reserved":false,"is_disabled":false,"rental_uris":{"android":"levelo://app?vid=7d173862-19f6-4abb-8017-c45e3daf1823","ios":"levelo://app?vid=7d173862-19f6-4abb-8017-c45e3daf1823"},"vehicle_type_id":"4","last_reported":1685480725,"current_range_meters":0,"station_id":"ce4bh692rcd13ifvqe90","pricing_plan_id":"free"},{"bike_id":"a0dfddae-0315-4770-a21d-9e1e7bb22cb7","system_id":"levelo_inurba_marseille","lat":43.28938,"lon":5.36639,"is_reserved":false,"is_disabled":false,"rental_uris":{"android":"levelo://app?vid=a0dfddae-0315-4770-a21d-9e1e7bb22cb7","ios":"levelo://app?vid=a0dfddae-0315-4770-a21d-9e1e7bb22cb7"},"vehicle_type_id":"4","last_reported":1685480725,"current_range_meters":0,"station_id":"ce4bhap2rcd13ifvqek0","pricing_plan_id":"free"},{"bike_id":"6350ef70-4be5-4e7e-aeef-61e3f8ce5b0b","system_id":"levelo_inurba_marseille","lat":43.292642,"lon":5.384254,"is_reserved":false,"is_disabled":false,"rental_uris":{"android":"levelo://app?vid=6350ef70-4be5-4e7e-aeef-61e3f8ce5b0b","ios":"levelo://app?vid=6350ef70-4be5-4e7e-aeef-61e3f8ce5b0b"},"vehicle_type_id":"4","last_reported":1685480725,"current_range_meters":0,"station_id":"ce4bh692rcd13ifvqea0","pricing_plan_id":"free"},{"bike_id":"9fda4b32-966e-4aba-96ef-41f727f15bba","system_id":"levelo_inurba_marseille","lat":43.33045,"lon":5.3891,"is_reserved":false,"is_disabled":false,"rental_uris":{"android":"levelo://app?vid=9fda4b32-966e-4aba-96ef-41f727f15bba","ios":"levelo://app?vid=9fda4b32-966e-4aba-96ef-41f727f15bba"},"vehicle_type_id":"4","last_reported":1685480725,"current_range_meters":25200,"station_id":"ce4bhr92rcd13ifvqhrg","pricing_plan_id":"free"},{"bike_id":"69f87366-090d-4bc0-9758-0f42d6ed45ce","system_id":"levelo_inurba_marseille","lat":43.33041,"lon":5.38919,"is_reserved":false,"is_disabled":false,"rental_uris":{"android":"levelo://app?vid=69f87366-090d-4bc0-9758-0f42d6ed45ce","ios":"levelo://app?vid=69f87366-090d-4bc0-9758-0f42d6ed45ce"},"vehicle_type_id":"4","last_reported":1685480725,"current_range_meters":24000,"station_id":"ce4bhr92rcd13ifvqhrg","pricing_plan_id":"free"},{"bike_id":"60420cf4-3b82-4648-be0e-9089e403318d","system_id":"levelo_inurba_marseille","lat":43.33043,"lon":5.38916,"is_reserved":false,"is_disabled":false,"rental_uris":{"android":"levelo://app?vid=60420cf4-3b82-4648-be0e-9089e403318d","ios":"levelo://app?vid=60420cf4-3b82-4648-be0e-9089e403318d"},"vehicle_type_id":"4","last_reported":1685480725,"current_range_meters":21600,"station_id":"ce4bhr92rcd13ifvqhrg","pricing_plan_id":"free"},{"bike_id":"12864b0e-1999-49e8-96bc-e85377e156dc","system_id":"levelo_inurba_marseille","lat":43.33041,"lon":5.3892,"is_reserved":false,"is_disabled":false,"rental_uris":{"android":"levelo://app?vid=12864b0e-1999-49e8-96bc-e85377e156dc","ios":"levelo://app?vid=12864b0e-1999-49e8-96bc-e85377e156dc"},"vehicle_type_id":"4","last_reported":1685480725,"current_range_meters":5200,"station_id":"ce4bhr92rcd13ifvqhrg","pricing_plan_id":"free"},{"bike_id":"4f7803a6-3392-44b5-aa81-dde8a03de0fc","system_id":"levelo_inurba_marseille","lat":43.33044,"lon":5.38918,"is_reserved":false,"is_disabled":false,"rental_uris":{"android":"levelo://app?vid=4f7803a6-3392-44b5-aa81-dde8a03de0fc","ios":"levelo://app?vid=4f7803a6-3392-44b5-aa81-dde8a03de0fc"},"vehicle_type_id":"4","last_reported":1685480725,"current_range_meters":16000,"station_id":"ce4bhr92rcd13ifvqhrg","pricing_plan_id":"free"},{"bike_id":"3cad5e8a-26d7-445d-9d95-20c13c3bd19a","system_id":"levelo_inurba_marseille","lat":43.33043,"lon":5.3892,"is_reserved":false,"is_disabled":false,"rental_uris":{"android":"levelo://app?vid=3cad5e8a-26d7-445d-9d95-20c13c3bd19a","ios":"levelo://app?vid=3cad5e8a-26d7-445d-9d95-20c13c3bd19a"},"vehicle_type_id":"4","last_reported":1685480725,"current_range_meters":15200,"station_id":"ce4bhr92rcd13ifvqhrg","pricing_plan_id":"free"},{"bike_id":"e17b760b-3b7c-4e64-a8af-9d845037c413","system_id":"levelo_inurba_marseille","lat":43.33045,"lon":5.38917,"is_reserved":false,"is_disabled":false,"rental_uris":{"android":"levelo://app?vid=e17b760b-3b7c-4e64-a8af-9d845037c413","ios":"levelo://app?vid=e17b760b-3b7c-4e64-a8af-9d845037c413"},"vehicle_type_id":"4","last_reported":1685480725,"current_range_meters":27200,"station_id":"ce4bhr92rcd13ifvqhrg","pricing_plan_id":"free"},{"bike_id":"8a189623-63fb-4c2a-846b-aa33f34b5cfd","system_id":"levelo_inurba_marseille","lat":43.33044,"lon":5.38921,"is_reserved":false,"is_disabled":false,"rental_uris":{"android":"levelo://app?vid=8a189623-63fb-4c2a-846b-aa33f34b5cfd","ios":"levelo://app?vid=8a189623-63fb-4c2a-846b-aa33f34b5cfd"},"vehicle_type_id":"4","last_reported":1685480725,"current_range_meters":25600,"station_id":"ce4bhr92rcd13ifvqhrg","pricing_plan_id":"free"},{"bike_id":"fc3299c6-1d72-487d-ba07-6cfc0fb311dc","system_id":"levelo_inurba_marseille","lat":43.33043,"lon":5.38925,"is_reserved":false,"is_disabled":false,"rental_uris":{"android":"levelo://app?vid=fc3299c6-1d72-487d-ba07-6cfc0fb311dc","ios":"levelo://app?vid=fc3299c6-1d72-487d-ba07-6cfc0fb311dc"},"vehicle_type_id":"4","last_reported":1685480725,"current_range_meters":23200,"station_id":"ce4bhr92rcd13ifvqhrg","pricing_plan_id":"free"},{"bike_id":"214cd52b-86dc-4d7c-b8c8-656e445142b6","system_id":"levelo_inurba_marseille","lat":43.330454,"lon":5.389224,"is_reserved":false,"is_disabled":false,"rental_uris":{"android":"levelo://app?vid=214cd52b-86dc-4d7c-b8c8-656e445142b6","ios":"levelo://app?vid=214cd52b-86dc-4d7c-b8c8-656e445142b6"},"vehicle_type_id":"4","last_reported":1685480725,"current_range_meters":28800,"station_id":"","pricing_plan_id":"free"},{"bike_id":"ab12f796-137d-4e28-95ee-ac5af904c7f8","system_id":"levelo_inurba_marseille","lat":43.33047,"lon":5.38921,"is_reserved":false,"is_disabled":false,"rental_uris":{"android":"levelo://app?vid=ab12f796-137d-4e28-95ee-ac5af904c7f8","ios":"levelo://app?vid=ab12f796-137d-4e28-95ee-ac5af904c7f8"},"vehicle_type_id":"4","last_reported":1685480725,"current_range_meters":24800,"station_id":"ce4bhr92rcd13ifvqhrg","pricing_plan_id":"free"},{"bike_id":"0f131166-1ac4-462b-95af-b6eb64cf7f18","system_id":"levelo_inurba_marseille","lat":43.33044,"lon":5.38926,"is_reserved":false,"is_disabled":false,"rental_uris":{"android":"levelo://app?vid=0f131166-1ac4-462b-95af-b6eb64cf7f18","ios":"levelo://app?vid=0f131166-1ac4-462b-95af-b6eb64cf7f18"},"vehicle_type_id":"4","last_reported":1685480725,"current_range_meters":24400,"station_id":"ce4bhr92rcd13ifvqhrg","pricing_plan_id":"free"},{"bike_id":"be115698-ed9e-4818-8cb1-06cf0878778d","system_id":"levelo_inurba_marseille","lat":43.291024,"lon":5.381386,"is_reserved":false,"is_disabled":false,"rental_uris":{"android":"levelo://app?vid=be115698-ed9e-4818-8cb1-06cf0878778d","ios":"levelo://app?vid=be115698-ed9e-4818-8cb1-06cf0878778d"},"vehicle_type_id":"4","last_reported":1685480725,"current_range_meters":2000,"station_id":"","pricing_plan_id":"free"},{"bike_id":"86e1a81b-a16d-4641-981e-96a66c420d77","system_id":"levelo_inurba_marseille","lat":43.291,"lon":5.38145,"is_reserved":false,"is_disabled":false,"rental_uris":{"android":"levelo://app?vid=86e1a81b-a16d-4641-981e-96a66c420d77","ios":"levelo://app?vid=86e1a81b-a16d-4641-981e-96a66c420d77"},"vehicle_type_id":"4","last_reported":1685480725,"current_range_meters":29200,"station_id":"ce4bh512rcd13ifvqe2g","pricing_plan_id":"free"},{"bike_id":"9c78d943-9329-48f6-a04d-6605852a922d","system_id":"levelo_inurba_marseille","lat":43.29099,"lon":5.38159,"is_reserved":false,"is_disabled":false,"rental_uris":{"android":"levelo://app?vid=9c78d943-9329-48f6-a04d-6605852a922d","ios":"levelo://app?vid=9c78d943-9329-48f6-a04d-6605852a922d"},"vehicle_type_id":"4","last_reported":1685480725,"current_range_meters":16000,"station_id":"ce4bh512rcd13ifvqe2g","pricing_plan_id":"free"},{"bike_id":"9ca1cb05-e2b6-439a-8ba0-8a2890cb12f6","system_id":"levelo_inurba_marseille","lat":43.290995,"lon":5.381361,"is_reserved":false,"is_disabled":false,"rental_uris":{"android":"levelo://app?vid=9ca1cb05-e2b6-439a-8ba0-8a2890cb12f6","ios":"levelo://app?vid=9ca1cb05-e2b6-439a-8ba0-8a2890cb12f6"},"vehicle_type_id":"4","last_reported":1685480725,"current_range_meters":31200,"station_id":"ce4bh512rcd13ifvqe2g","pricing_plan_id":"free"},{"bike_id":"e6d2ea10-a17c-445d-8352-8e78ddf825a5","system_id":"levelo_inurba_marseille","lat":43.290995,"lon":5.381361,"is_reserved":false,"is_disabled":false,"rental_uris":{"android":"levelo://app?vid=e6d2ea10-a17c-445d-8352-8e78ddf825a5","ios":"levelo://app?vid=e6d2ea10-a17c-445d-8352-8e78ddf825a5"},"vehicle_type_id":"4","last_reported":1685480725,"current_range_meters":17600,"station_id":"ce4bh512rcd13ifvqe2g","pricing_plan_id":"free"},{"bike_id":"a28eb57b-767b-4257-be61-b77082e471e4","system_id":"levelo_inurba_marseille","lat":43.290164,"lon":5.381274,"is_reserved":false,"is_disabled":false,"rental_uris":{"android":"levelo://app?vid=a28eb57b-767b-4257-be61-b77082e471e4","ios":"levelo://app?vid=a28eb57b-767b-4257-be61-b77082e471e4"},"vehicle_type_id":"4","last_reported":1685480725,"current_range_meters":7600,"station_id":"ce4bgt12rcd13ifvqcd0","pricing_plan_id":"free"},{"bike_id":"8202e4d6-80a0-47e9-9175-3dabbe50ef51","system_id":"levelo_inurba_marseille","lat":43.28856,"lon":5.358371,"is_reserved":false,"is_disabled":false,"rental_uris":{"android":"levelo://app?vid=8202e4d6-80a0-47e9-9175-3dabbe50ef51","ios":"levelo://app?vid=8202e4d6-80a0-47e9-9175-3dabbe50ef51"},"vehicle_type_id":"4","last_reported":1685480725,"current_range_meters":18000,"station_id":"ce4bhb12rcd13ifvqem0","pricing_plan_id":"free"},{"bike_id":"74f6015f-aa1b-4658-9e0c-995aa94fab34","system_id":"levelo_inurba_marseille","lat":43.28856,"lon":5.358371,"is_reserved":false,"is_disabled":false,"rental_uris":{"android":"levelo://app?vid=74f6015f-aa1b-4658-9e0c-995aa94fab34","ios":"levelo://app?vid=74f6015f-aa1b-4658-9e0c-995aa94fab34"},"vehicle_type_id":"4","last_reported":1685480725,"current_range_meters":6400,"station_id":"ce4bhb12rcd13ifvqem0","pricing_plan_id":"free"},{"bike_id":"b88071c1-f440-4bc4-8c00-bb07b6660ee3","system_id":"levelo_inurba_marseille","lat":43.28856,"lon":5.358371,"is_reserved":false,"is_disabled":false,"rental_uris":{"android":"levelo://app?vid=b88071c1-f440-4bc4-8c00-bb07b6660ee3","ios":"levelo://app?vid=b88071c1-f440-4bc4-8c00-bb07b6660ee3"},"vehicle_type_id":"4","last_reported":1685480725,"current_range_meters":0,"station_id":"ce4bhb12rcd13ifvqem0","pricing_plan_id":"free"},{"bike_id":"314ee30c-ae74-4181-b5fd-b9e7187f6c66","system_id":"levelo_inurba_marseille","lat":43.28856,"lon":5.358371,"is_reserved":false,"is_disabled":false,"rental_uris":{"android":"levelo://app?vid=314ee30c-ae74-4181-b5fd-b9e7187f6c66","ios":"levelo://app?vid=314ee30c-ae74-4181-b5fd-b9e7187f6c66"},"vehicle_type_id":"4","last_reported":1685480725,"current_range_meters":17600,"station_id":"ce4bhb12rcd13ifvqem0","pricing_plan_id":"free"},{"bike_id":"8cab73c1-a9f0-41cf-ad73-a817ca184534","system_id":"levelo_inurba_marseille","lat":43.28856,"lon":5.358371,"is_reserved":false,"is_disabled":false,"rental_uris":{"android":"levelo://app?vid=8cab73c1-a9f0-41cf-ad73-a817ca184534","ios":"levelo://app?vid=8cab73c1-a9f0-41cf-ad73-a817ca184534"},"vehicle_type_id":"4","last_reported":1685480725,"current_range_meters":14000,"station_id":"ce4bhb12rcd13ifvqem0","pricing_plan_id":"free"},{"bike_id":"c39873e9-450f-44b6-bfa5-093c4aa4b98b","system_id":"levelo_inurba_marseille","lat":43.28856,"lon":5.358371,"is_reserved":false,"is_disabled":false,"rental_uris":{"android":"levelo://app?vid=c39873e9-450f-44b6-bfa5-093c4aa4b98b","ios":"levelo://app?vid=c39873e9-450f-44b6-bfa5-093c4aa4b98b"},"vehicle_type_id":"4","last_reported":1685480725,"current_range_meters":10000,"station_id":"ce4bhb12rcd13ifvqem0","pricing_plan_id":"free"},{"bike_id":"141c14ea-594b-43ee-894e-8c44af1dcd73","system_id":"levelo_inurba_marseille","lat":43.33741,"lon":5.37457,"is_reserved":false,"is_disabled":false,"rental_uris":{"android":"levelo://app?vid=141c14ea-594b-43ee-894e-8c44af1dcd73","ios":"levelo://app?vid=141c14ea-594b-43ee-894e-8c44af1dcd73"},"vehicle_type_id":"4","last_reported":1685480725,"current_range_meters":28000,"station_id":"","pricing_plan_id":"free"},{"bike_id":"556c6db1-2600-4c2b-9521-aae8453517c1","system_id":"levelo_inurba_marseille","lat":43.33751,"lon":5.37445,"is_reserved":false,"is_disabled":false,"rental_uris":{"android":"levelo://app?vid=556c6db1-2600-4c2b-9521-aae8453517c1","ios":"levelo://app?vid=556c6db1-2600-4c2b-9521-aae8453517c1"},"vehicle_type_id":"4","last_reported":1685480725,"current_range_meters":4400,"station_id":"","pricing_plan_id":"free"},{"bike_id":"60365b11-ef18-42d8-96a4-e4f2839d6bb5","system_id":"levelo_inurba_marseille","lat":43.33754,"lon":5.37443,"is_reserved":false,"is_disabled":false,"rental_uris":{"android":"levelo://app?vid=60365b11-ef18-42d8-96a4-e4f2839d6bb5","ios":"levelo://app?vid=60365b11-ef18-42d8-96a4-e4f2839d6bb5"},"vehicle_type_id":"4","last_reported":1685480725,"current_range_meters":30000,"station_id":"","pricing_plan_id":"free"},{"bike_id":"61c719db-daae-4f13-b259-d05f297b4a6f","system_id":"levelo_inurba_marseille","lat":43.33756,"lon":5.37473,"is_reserved":false,"is_disabled":false,"rental_uris":{"android":"levelo://app?vid=61c719db-daae-4f13-b259-d05f297b4a6f","ios":"levelo://app?vid=61c719db-daae-4f13-b259-d05f297b4a6f"},"vehicle_type_id":"4","last_reported":1685480725,"current_range_meters":28000,"station_id":"","pricing_plan_id":"free"},{"bike_id":"6d678481-0e0b-436a-aa94-9d12fa2c91f5","system_id":"levelo_inurba_marseille","lat":43.33763,"lon":5.37433,"is_reserved":false,"is_disabled":false,"rental_uris":{"android":"levelo://app?vid=6d678481-0e0b-436a-aa94-9d12fa2c91f5","ios":"levelo://app?vid=6d678481-0e0b-436a-aa94-9d12fa2c91f5"},"vehicle_type_id":"4","last_reported":1685480725,"current_range_meters":30800,"station_id":"","pricing_plan_id":"free"},{"bike_id":"b839ff1b-4220-44fb-94d9-2f376ba89f5c","system_id":"levelo_inurba_marseille","lat":43.30642,"lon":5.401031,"is_reserved":false,"is_disabled":false,"rental_uris":{"android":"levelo://app?vid=b839ff1b-4220-44fb-94d9-2f376ba89f5c","ios":"levelo://app?vid=b839ff1b-4220-44fb-94d9-2f376ba89f5c"},"vehicle_type_id":"4","last_reported":1685480725,"current_range_meters":400,"station_id":"ce4bh112rcd13ifvqda0","pricing_plan_id":"free"},{"bike_id":"ebe56d5c-0f13-4cda-a780-8a41e6224d11","system_id":"levelo_inurba_marseille","lat":43.3043,"lon":5.40086,"is_reserved":false,"is_disabled":false,"rental_uris":{"android":"levelo://app?vid=ebe56d5c-0f13-4cda-a780-8a41e6224d11","ios":"levelo://app?vid=ebe56d5c-0f13-4cda-a780-8a41e6224d11"},"vehicle_type_id":"4","last_reported":1685480725,"current_range_meters":8800,"station_id":"","pricing_plan_id":"free"},{"bike_id":"26ffa246-1f6b-49fd-9824-44b92fc56d19","system_id":"levelo_inurba_marseille","lat":43.287114,"lon":5.373919,"is_reserved":false,"is_disabled":false,"rental_uris":{"android":"levelo://app?vid=26ffa246-1f6b-49fd-9824-44b92fc56d19","ios":"levelo://app?vid=26ffa246-1f6b-49fd-9824-44b92fc56d19"},"vehicle_type_id":"4","last_reported":1685480725,"current_range_meters":22000,"station_id":"","pricing_plan_id":"free"},{"bike_id":"bef9e35a-5326-48a9-87f8-6c7e381be40b","system_id":"levelo_inurba_marseille","lat":43.286591,"lon":5.363346,"is_reserved":false,"is_disabled":false,"rental_uris":{"android":"levelo://app?vid=bef9e35a-5326-48a9-87f8-6c7e381be40b","ios":"levelo://app?vid=bef9e35a-5326-48a9-87f8-6c7e381be40b"},"vehicle_type_id":"4","last_reported":1685480725,"current_range_meters":15200,"station_id":"ce4bhah2rcd13ifvqej0","pricing_plan_id":"free"},{"bike_id":"97f4eb4b-5f19-4f80-b124-f67e45d61994","system_id":"levelo_inurba_marseille","lat":43.28693,"lon":5.37377,"is_reserved":false,"is_disabled":false,"rental_uris":{"android":"levelo://app?vid=97f4eb4b-5f19-4f80-b124-f67e45d61994","ios":"levelo://app?vid=97f4eb4b-5f19-4f80-b124-f67e45d61994"},"vehicle_type_id":"4","last_reported":1685480725,"current_range_meters":10400,"station_id":"","pricing_plan_id":"free"},{"bike_id":"2f1bc252-6b14-4245-a18f-f98862c9e5ff","system_id":"levelo_inurba_marseille","lat":43.28693,"lon":5.37384,"is_reserved":false,"is_disabled":false,"rental_uris":{"android":"levelo://app?vid=2f1bc252-6b14-4245-a18f-f98862c9e5ff","ios":"levelo://app?vid=2f1bc252-6b14-4245-a18f-f98862c9e5ff"},"vehicle_type_id":"4","last_reported":1685480725,"current_range_meters":11600,"station_id":"","pricing_plan_id":"free"},{"bike_id":"6a222585-1d23-425f-bcc5-0d8cc1b62acd","system_id":"levelo_inurba_marseille","lat":43.295194,"lon":5.39397,"is_reserved":false,"is_disabled":false,"rental_uris":{"android":"levelo://app?vid=6a222585-1d23-425f-bcc5-0d8cc1b62acd","ios":"levelo://app?vid=6a222585-1d23-425f-bcc5-0d8cc1b62acd"},"vehicle_type_id":"4","last_reported":1685480725,"current_range_meters":22400,"station_id":"ce4bh292rcd13ifvqdf0","pricing_plan_id":"free"},{"bike_id":"e405f402-b10f-49d4-a642-f6753d6c59a6","system_id":"levelo_inurba_marseille","lat":43.302546,"lon":5.400822,"is_reserved":false,"is_disabled":false,"rental_uris":{"android":"levelo://app?vid=e405f402-b10f-49d4-a642-f6753d6c59a6","ios":"levelo://app?vid=e405f402-b10f-49d4-a642-f6753d6c59a6"},"vehicle_type_id":"4","last_reported":1685480725,"current_range_meters":17200,"station_id":"","pricing_plan_id":"free"},{"bike_id":"2d7b6465-c978-48cc-a919-63da2c2f0981","system_id":"levelo_inurba_marseille","lat":43.286039,"lon":5.370679,"is_reserved":false,"is_disabled":false,"rental_uris":{"android":"levelo://app?vid=2d7b6465-c978-48cc-a919-63da2c2f0981","ios":"levelo://app?vid=2d7b6465-c978-48cc-a919-63da2c2f0981"},"vehicle_type_id":"4","last_reported":1685480725,"current_range_meters":18800,"station_id":"ce4bht12rcd13ifvqi60","pricing_plan_id":"free"},{"bike_id":"8e34f727-6412-4dc8-aacc-31d6466411d3","system_id":"levelo_inurba_marseille","lat":43.28604,"lon":5.37067,"is_reserved":false,"is_disabled":false,"rental_uris":{"android":"levelo://app?vid=8e34f727-6412-4dc8-aacc-31d6466411d3","ios":"levelo://app?vid=8e34f727-6412-4dc8-aacc-31d6466411d3"},"vehicle_type_id":"4","last_reported":1685480725,"current_range_meters":13200,"station_id":"ce4bht12rcd13ifvqi60","pricing_plan_id":"free"},{"bike_id":"508370fd-8d01-466f-990f-cf060ed42287","system_id":"levelo_inurba_marseille","lat":43.287185,"lon":5.379373,"is_reserved":false,"is_disabled":false,"rental_uris":{"android":"levelo://app?vid=508370fd-8d01-466f-990f-cf060ed42287","ios":"levelo://app?vid=508370fd-8d01-466f-990f-cf060ed42287"},"vehicle_type_id":"4","last_reported":1685480725,"current_range_meters":8000,"station_id":"ce4bh9p2rcd13ifvqec0","pricing_plan_id":"free"},{"bike_id":"de01592f-bc93-4d53-8027-b5409b2bd3a8","system_id":"levelo_inurba_marseille","lat":43.287184,"lon":5.37937,"is_reserved":false,"is_disabled":false,"rental_uris":{"android":"levelo://app?vid=de01592f-bc93-4d53-8027-b5409b2bd3a8","ios":"levelo://app?vid=de01592f-bc93-4d53-8027-b5409b2bd3a8"},"vehicle_type_id":"4","last_reported":1685480725,"current_range_meters":14400,"station_id":"ce4bh9p2rcd13ifvqec0","pricing_plan_id":"free"},{"bike_id":"6f3bb196-62e4-4c31-944d-a53d6aa676da","system_id":"levelo_inurba_marseille","lat":43.287185,"lon":5.379373,"is_reserved":false,"is_disabled":false,"rental_uris":{"android":"levelo://app?vid=6f3bb196-62e4-4c31-944d-a53d6aa676da","ios":"levelo://app?vid=6f3bb196-62e4-4c31-944d-a53d6aa676da"},"vehicle_type_id":"4","last_reported":1685480725,"current_range_meters":6000,"station_id":"ce4bh9p2rcd13ifvqec0","pricing_plan_id":"free"},{"bike_id":"162b6ccf-e42b-4348-b92b-73d019665e1e","system_id":"levelo_inurba_marseille","lat":43.287184,"lon":5.37937,"is_reserved":false,"is_disabled":false,"rental_uris":{"android":"levelo://app?vid=162b6ccf-e42b-4348-b92b-73d019665e1e","ios":"levelo://app?vid=162b6ccf-e42b-4348-b92b-73d019665e1e"},"vehicle_type_id":"4","last_reported":1685480725,"current_range_meters":1600,"station_id":"ce4bh9p2rcd13ifvqec0","pricing_plan_id":"free"},{"bike_id":"e1fbe19c-d466-45a5-bc79-78c1421f5149","system_id":"levelo_inurba_marseille","lat":43.316517,"lon":5.404375,"is_reserved":false,"is_disabled":false,"rental_uris":{"android":"levelo://app?vid=e1fbe19c-d466-45a5-bc79-78c1421f5149","ios":"levelo://app?vid=e1fbe19c-d466-45a5-bc79-78c1421f5149"},"vehicle_type_id":"4","last_reported":1685480725,"current_range_meters":4000,"station_id":"ce4bh012rcd13ifvqd00","pricing_plan_id":"free"},{"bike_id":"4b8210c3-cb6a-4498-9dcb-8d99971e4883","system_id":"levelo_inurba_marseille","lat":43.316517,"lon":5.404375,"is_reserved":false,"is_disabled":false,"rental_uris":{"android":"levelo://app?vid=4b8210c3-cb6a-4498-9dcb-8d99971e4883","ios":"levelo://app?vid=4b8210c3-cb6a-4498-9dcb-8d99971e4883"},"vehicle_type_id":"4","last_reported":1685480725,"current_range_meters":2000,"station_id":"ce4bh012rcd13ifvqd00","pricing_plan_id":"free"},{"bike_id":"0b9e5f8f-7f81-4d39-a343-14c9b9be1d78","system_id":"levelo_inurba_marseille","lat":43.316517,"lon":5.404375,"is_reserved":false,"is_disabled":false,"rental_uris":{"android":"levelo://app?vid=0b9e5f8f-7f81-4d39-a343-14c9b9be1d78","ios":"levelo://app?vid=0b9e5f8f-7f81-4d39-a343-14c9b9be1d78"},"vehicle_type_id":"4","last_reported":1685480725,"current_range_meters":8800,"station_id":"ce4bh012rcd13ifvqd00","pricing_plan_id":"free"},{"bike_id":"e06c0d44-2471-44bc-9152-e5d66c599cf2","system_id":"levelo_inurba_marseille","lat":43.291994,"lon":5.392907,"is_reserved":false,"is_disabled":false,"rental_uris":{"android":"levelo://app?vid=e06c0d44-2471-44bc-9152-e5d66c599cf2","ios":"levelo://app?vid=e06c0d44-2471-44bc-9152-e5d66c599cf2"},"vehicle_type_id":"4","last_reported":1685480725,"current_range_meters":8000,"station_id":"ce4bh192rcd13ifvqdd0","pricing_plan_id":"free"},{"bike_id":"a1d9a4a0-c5af-4101-831d-dcb99233c58d","system_id":"levelo_inurba_marseille","lat":43.28461,"lon":5.3589,"is_reserved":false,"is_disabled":false,"rental_uris":{"android":"levelo://app?vid=a1d9a4a0-c5af-4101-831d-dcb99233c58d","ios":"levelo://app?vid=a1d9a4a0-c5af-4101-831d-dcb99233c58d"},"vehicle_type_id":"4","last_reported":1685480725,"current_range_meters":13600,"station_id":"ce4bhah2rcd13ifvqei0","pricing_plan_id":"free"},{"bike_id":"54e32d61-a29f-44af-8f30-a74ebc961620","system_id":"levelo_inurba_marseille","lat":43.28458,"lon":5.35894,"is_reserved":false,"is_disabled":false,"rental_uris":{"android":"levelo://app?vid=54e32d61-a29f-44af-8f30-a74ebc961620","ios":"levelo://app?vid=54e32d61-a29f-44af-8f30-a74ebc961620"},"vehicle_type_id":"4","last_reported":1685480725,"current_range_meters":18400,"station_id":"ce4bhah2rcd13ifvqei0","pricing_plan_id":"free"},{"bike_id":"6e501417-b501-4677-88f6-36aa41b7f74a","system_id":"levelo_inurba_marseille","lat":43.284534,"lon":5.358662,"is_reserved":false,"is_disabled":false,"rental_uris":{"android":"levelo://app?vid=6e501417-b501-4677-88f6-36aa41b7f74a","ios":"levelo://app?vid=6e501417-b501-4677-88f6-36aa41b7f74a"},"vehicle_type_id":"4","last_reported":1685480725,"current_range_meters":18400,"station_id":"ce4bhah2rcd13ifvqei0","pricing_plan_id":"free"},{"bike_id":"d030916d-2074-49d9-b803-7916736793df","system_id":"levelo_inurba_marseille","lat":43.284534,"lon":5.358662,"is_reserved":false,"is_disabled":false,"rental_uris":{"android":"levelo://app?vid=d030916d-2074-49d9-b803-7916736793df","ios":"levelo://app?vid=d030916d-2074-49d9-b803-7916736793df"},"vehicle_type_id":"4","last_reported":1685480725,"current_range_meters":7600,"station_id":"ce4bhah2rcd13ifvqei0","pricing_plan_id":"free"},{"bike_id":"ed7cb1d1-4d82-4dd6-959b-a55d2f27850d","system_id":"levelo_inurba_marseille","lat":43.284534,"lon":5.358662,"is_reserved":false,"is_disabled":false,"rental_uris":{"android":"levelo://app?vid=ed7cb1d1-4d82-4dd6-959b-a55d2f27850d","ios":"levelo://app?vid=ed7cb1d1-4d82-4dd6-959b-a55d2f27850d"},"vehicle_type_id":"4","last_reported":1685480725,"current_range_meters":9200,"station_id":"ce4bhah2rcd13ifvqei0","pricing_plan_id":"free"},{"bike_id":"2a31e3c4-d890-4394-9c56-a98e9e610ad2","system_id":"levelo_inurba_marseille","lat":43.28455,"lon":5.35896,"is_reserved":false,"is_disabled":false,"rental_uris":{"android":"levelo://app?vid=2a31e3c4-d890-4394-9c56-a98e9e610ad2","ios":"levelo://app?vid=2a31e3c4-d890-4394-9c56-a98e9e610ad2"},"vehicle_type_id":"4","last_reported":1685480725,"current_range_meters":19200,"station_id":"ce4bhah2rcd13ifvqei0","pricing_plan_id":"free"},{"bike_id":"1ed204aa-354d-4b3d-9139-e33a9e7cc4fa","system_id":"levelo_inurba_marseille","lat":43.28454,"lon":5.35888,"is_reserved":false,"is_disabled":false,"rental_uris":{"android":"levelo://app?vid=1ed204aa-354d-4b3d-9139-e33a9e7cc4fa","ios":"levelo://app?vid=1ed204aa-354d-4b3d-9139-e33a9e7cc4fa"},"vehicle_type_id":"4","last_reported":1685480725,"current_range_meters":5200,"station_id":"ce4bhah2rcd13ifvqei0","pricing_plan_id":"free"},{"bike_id":"e9bdc0eb-b630-44b8-9652-24a6fe3773dc","system_id":"levelo_inurba_marseille","lat":43.284534,"lon":5.358662,"is_reserved":false,"is_disabled":false,"rental_uris":{"android":"levelo://app?vid=e9bdc0eb-b630-44b8-9652-24a6fe3773dc","ios":"levelo://app?vid=e9bdc0eb-b630-44b8-9652-24a6fe3773dc"},"vehicle_type_id":"4","last_reported":1685480725,"current_range_meters":9600,"station_id":"ce4bhah2rcd13ifvqei0","pricing_plan_id":"free"},{"bike_id":"8e342250-f1b6-4031-8873-ddaf4260e63a","system_id":"levelo_inurba_marseille","lat":43.284534,"lon":5.358662,"is_reserved":false,"is_disabled":false,"rental_uris":{"android":"levelo://app?vid=8e342250-f1b6-4031-8873-ddaf4260e63a","ios":"levelo://app?vid=8e342250-f1b6-4031-8873-ddaf4260e63a"},"vehicle_type_id":"4","last_reported":1685480725,"current_range_meters":22800,"station_id":"ce4bhah2rcd13ifvqei0","pricing_plan_id":"free"},{"bike_id":"77669fe9-b4c9-4ada-8490-5b786ed2244d","system_id":"levelo_inurba_marseille","lat":43.295713,"lon":5.399639,"is_reserved":false,"is_disabled":false,"rental_uris":{"android":"levelo://app?vid=77669fe9-b4c9-4ada-8490-5b786ed2244d","ios":"levelo://app?vid=77669fe9-b4c9-4ada-8490-5b786ed2244d"},"vehicle_type_id":"4","last_reported":1685480725,"current_range_meters":2400,"station_id":"ce4bh312rcd13ifvqdj0","pricing_plan_id":"free"},{"bike_id":"af296459-2877-4692-a64b-17ff3fe14cbf","system_id":"levelo_inurba_marseille","lat":43.29574,"lon":5.39987,"is_reserved":false,"is_disabled":false,"rental_uris":{"android":"levelo://app?vid=af296459-2877-4692-a64b-17ff3fe14cbf","ios":"levelo://app?vid=af296459-2877-4692-a64b-17ff3fe14cbf"},"vehicle_type_id":"4","last_reported":1685480725,"current_range_meters":4400,"station_id":"ce4bh312rcd13ifvqdj0","pricing_plan_id":"free"},{"bike_id":"e87a9292-859f-4443-85c8-5cb265e634db","system_id":"levelo_inurba_marseille","lat":43.286595,"lon":5.386795,"is_reserved":false,"is_disabled":false,"rental_uris":{"android":"levelo://app?vid=e87a9292-859f-4443-85c8-5cb265e634db","ios":"levelo://app?vid=e87a9292-859f-4443-85c8-5cb265e634db"},"vehicle_type_id":"4","last_reported":1685480725,"current_range_meters":11200,"station_id":"ce4bh492rcd13ifvqdug","pricing_plan_id":"free"},{"bike_id":"5ee1a4d1-f1f4-4c88-aac5-7d470793bda5","system_id":"levelo_inurba_marseille","lat":43.30978,"lon":5.40796,"is_reserved":false,"is_disabled":false,"rental_uris":{"android":"levelo://app?vid=5ee1a4d1-f1f4-4c88-aac5-7d470793bda5","ios":"levelo://app?vid=5ee1a4d1-f1f4-4c88-aac5-7d470793bda5"},"vehicle_type_id":"4","last_reported":1685480725,"current_range_meters":12400,"station_id":"","pricing_plan_id":"free"},{"bike_id":"042b55f6-4a5c-4b15-8331-7d62823c0ce1","system_id":"levelo_inurba_marseille","lat":43.32336,"lon":5.4062,"is_reserved":false,"is_disabled":false,"rental_uris":{"android":"levelo://app?vid=042b55f6-4a5c-4b15-8331-7d62823c0ce1","ios":"levelo://app?vid=042b55f6-4a5c-4b15-8331-7d62823c0ce1"},"vehicle_type_id":"4","last_reported":1685480725,"current_range_meters":10800,"station_id":"ce4bhq92rcd13ifvqhjg","pricing_plan_id":"free"},{"bike_id":"aa63448c-dbac-405e-9ea7-b0ae4f816278","system_id":"levelo_inurba_marseille","lat":43.299028,"lon":5.381509,"is_reserved":false,"is_disabled":false,"rental_uris":{"android":"levelo://app?vid=aa63448c-dbac-405e-9ea7-b0ae4f816278","ios":"levelo://app?vid=aa63448c-dbac-405e-9ea7-b0ae4f816278"},"vehicle_type_id":"4","last_reported":1685480725,"current_range_meters":0,"station_id":"ce4bgj12rcd13ifvqbc0","pricing_plan_id":"free"},{"bike_id":"c5db8569-4f88-4b53-911d-c70ba8b7883b","system_id":"levelo_inurba_marseille","lat":43.288501,"lon":5.393087,"is_reserved":false,"is_disabled":false,"rental_uris":{"android":"levelo://app?vid=c5db8569-4f88-4b53-911d-c70ba8b7883b","ios":"levelo://app?vid=c5db8569-4f88-4b53-911d-c70ba8b7883b"},"vehicle_type_id":"4","last_reported":1685480725,"current_range_meters":28400,"station_id":"ce4bh2p2rcd13ifvqdi0","pricing_plan_id":"free"},{"bike_id":"cbed94f5-c0ca-4e39-8174-41e168963a4d","system_id":"levelo_inurba_marseille","lat":43.288497,"lon":5.393089,"is_reserved":false,"is_disabled":false,"rental_uris":{"android":"levelo://app?vid=cbed94f5-c0ca-4e39-8174-41e168963a4d","ios":"levelo://app?vid=cbed94f5-c0ca-4e39-8174-41e168963a4d"},"vehicle_type_id":"4","last_reported":1685480725,"current_range_meters":5200,"station_id":"ce4bh2p2rcd13ifvqdi0","pricing_plan_id":"free"},{"bike_id":"fdc381a0-5089-4512-85e0-50c6e011cabc","system_id":"levelo_inurba_marseille","lat":43.283498,"lon":5.380948,"is_reserved":false,"is_disabled":false,"rental_uris":{"android":"levelo://app?vid=fdc381a0-5089-4512-85e0-50c6e011cabc","ios":"levelo://app?vid=fdc381a0-5089-4512-85e0-50c6e011cabc"},"vehicle_type_id":"4","last_reported":1685480725,"current_range_meters":25200,"station_id":"ce4bh412rcd13ifvqdr0","pricing_plan_id":"free"},{"bike_id":"2b49ef80-91fd-4339-8bc4-b5b91163a3b8","system_id":"levelo_inurba_marseille","lat":43.28331,"lon":5.38107,"is_reserved":false,"is_disabled":false,"rental_uris":{"android":"levelo://app?vid=2b49ef80-91fd-4339-8bc4-b5b91163a3b8","ios":"levelo://app?vid=2b49ef80-91fd-4339-8bc4-b5b91163a3b8"},"vehicle_type_id":"4","last_reported":1685480725,"current_range_meters":13200,"station_id":"ce4bh412rcd13ifvqdr0","pricing_plan_id":"free"},{"bike_id":"8676ba80-64d1-476c-a247-2b76f3946fd0","system_id":"levelo_inurba_marseille","lat":43.283502,"lon":5.386471,"is_reserved":false,"is_disabled":false,"rental_uris":{"android":"levelo://app?vid=8676ba80-64d1-476c-a247-2b76f3946fd0","ios":"levelo://app?vid=8676ba80-64d1-476c-a247-2b76f3946fd0"},"vehicle_type_id":"4","last_reported":1685480725,"current_range_meters":23600,"station_id":"ce4bh492rcd13ifvqdvg","pricing_plan_id":"free"},{"bike_id":"1256789b-8e19-4241-8032-c9a9f512f356","system_id":"levelo_inurba_marseille","lat":43.282744,"lon":5.350533,"is_reserved":false,"is_disabled":false,"rental_uris":{"android":"levelo://app?vid=1256789b-8e19-4241-8032-c9a9f512f356","ios":"levelo://app?vid=1256789b-8e19-4241-8032-c9a9f512f356"},"vehicle_type_id":"4","last_reported":1685480725,"current_range_meters":24400,"station_id":"ce4bhbp2rcd13ifvqerg","pricing_plan_id":"free"},{"bike_id":"b8c9bf89-df7f-4386-8a71-24a816915d75","system_id":"levelo_inurba_marseille","lat":43.28039,"lon":5.369297,"is_reserved":false,"is_disabled":false,"rental_uris":{"android":"levelo://app?vid=b8c9bf89-df7f-4386-8a71-24a816915d75","ios":"levelo://app?vid=b8c9bf89-df7f-4386-8a71-24a816915d75"},"vehicle_type_id":"4","last_reported":1685480725,"current_range_meters":14800,"station_id":"ce4bha12rcd13ifvqef0","pricing_plan_id":"free"},{"bike_id":"fa687e97-d02f-4e63-9bae-4043508c5750","system_id":"levelo_inurba_marseille","lat":43.28106,"lon":5.37832,"is_reserved":false,"is_disabled":false,"rental_uris":{"android":"levelo://app?vid=fa687e97-d02f-4e63-9bae-4043508c5750","ios":"levelo://app?vid=fa687e97-d02f-4e63-9bae-4043508c5750"},"vehicle_type_id":"4","last_reported":1685480725,"current_range_meters":15200,"station_id":"ce4bha12rcd13ifvqee0","pricing_plan_id":"free"},{"bike_id":"3ced4edc-081b-4d71-b7a3-95ba36da78ab","system_id":"levelo_inurba_marseille","lat":43.281044,"lon":5.378308,"is_reserved":false,"is_disabled":false,"rental_uris":{"android":"levelo://app?vid=3ced4edc-081b-4d71-b7a3-95ba36da78ab","ios":"levelo://app?vid=3ced4edc-081b-4d71-b7a3-95ba36da78ab"},"vehicle_type_id":"4","last_reported":1685480725,"current_range_meters":7600,"station_id":"ce4bha12rcd13ifvqee0","pricing_plan_id":"free"},{"bike_id":"ccca22c1-12ec-4878-9bb0-717ee78b6f17","system_id":"levelo_inurba_marseille","lat":43.29041,"lon":5.399634,"is_reserved":false,"is_disabled":false,"rental_uris":{"android":"levelo://app?vid=ccca22c1-12ec-4878-9bb0-717ee78b6f17","ios":"levelo://app?vid=ccca22c1-12ec-4878-9bb0-717ee78b6f17"},"vehicle_type_id":"4","last_reported":1685480725,"current_range_meters":800,"station_id":"ce4bh392rcd13ifvqdm0","pricing_plan_id":"free"},{"bike_id":"f4e9b45a-69d0-411d-afc6-6a5420a0527b","system_id":"levelo_inurba_marseille","lat":43.281044,"lon":5.378308,"is_reserved":false,"is_disabled":false,"rental_uris":{"android":"levelo://app?vid=f4e9b45a-69d0-411d-afc6-6a5420a0527b","ios":"levelo://app?vid=f4e9b45a-69d0-411d-afc6-6a5420a0527b"},"vehicle_type_id":"4","last_reported":1685480725,"current_range_meters":12000,"station_id":"ce4bha12rcd13ifvqee0","pricing_plan_id":"free"},{"bike_id":"dd671d84-0f00-4ead-93c0-1506bd5f6a3d","system_id":"levelo_inurba_marseille","lat":43.296263,"lon":5.40601,"is_reserved":false,"is_disabled":false,"rental_uris":{"android":"levelo://app?vid=dd671d84-0f00-4ead-93c0-1506bd5f6a3d","ios":"levelo://app?vid=dd671d84-0f00-4ead-93c0-1506bd5f6a3d"},"vehicle_type_id":"4","last_reported":1685480725,"current_range_meters":6400,"station_id":"ce4bh0h2rcd13ifvqd60","pricing_plan_id":"free"},{"bike_id":"c3e54d50-ffa2-4141-8984-a63dc9455a3f","system_id":"levelo_inurba_marseille","lat":43.281,"lon":5.37838,"is_reserved":false,"is_disabled":false,"rental_uris":{"android":"levelo://app?vid=c3e54d50-ffa2-4141-8984-a63dc9455a3f","ios":"levelo://app?vid=c3e54d50-ffa2-4141-8984-a63dc9455a3f"},"vehicle_type_id":"4","last_reported":1685480725,"current_range_meters":2800,"station_id":"ce4bha12rcd13ifvqee0","pricing_plan_id":"free"},{"bike_id":"b90ca2cf-8992-4012-8204-33fc6cf964ce","system_id":"levelo_inurba_marseille","lat":43.281044,"lon":5.378308,"is_reserved":false,"is_disabled":false,"rental_uris":{"android":"levelo://app?vid=b90ca2cf-8992-4012-8204-33fc6cf964ce","ios":"levelo://app?vid=b90ca2cf-8992-4012-8204-33fc6cf964ce"},"vehicle_type_id":"4","last_reported":1685480725,"current_range_meters":1200,"station_id":"ce4bha12rcd13ifvqee0","pricing_plan_id":"free"},{"bike_id":"d936ca4d-f6db-4f2e-8bc1-214fed5ca81d","system_id":"levelo_inurba_marseille","lat":43.281044,"lon":5.378308,"is_reserved":false,"is_disabled":false,"rental_uris":{"android":"levelo://app?vid=d936ca4d-f6db-4f2e-8bc1-214fed5ca81d","ios":"levelo://app?vid=d936ca4d-f6db-4f2e-8bc1-214fed5ca81d"},"vehicle_type_id":"4","last_reported":1685480725,"current_range_meters":6000,"station_id":"ce4bha12rcd13ifvqee0","pricing_plan_id":"free"},{"bike_id":"2db1b9df-6519-4da9-9433-824c8b6aac89","system_id":"levelo_inurba_marseille","lat":43.296263,"lon":5.40601,"is_reserved":false,"is_disabled":false,"rental_uris":{"android":"levelo://app?vid=2db1b9df-6519-4da9-9433-824c8b6aac89","ios":"levelo://app?vid=2db1b9df-6519-4da9-9433-824c8b6aac89"},"vehicle_type_id":"4","last_reported":1685480725,"current_range_meters":7600,"station_id":"ce4bh0h2rcd13ifvqd60","pricing_plan_id":"free"},{"bike_id":"ed4f7a9c-396e-48e9-bb92-4f85311bbf96","system_id":"levelo_inurba_marseille","lat":43.28573,"lon":5.394992,"is_reserved":false,"is_disabled":false,"rental_uris":{"android":"levelo://app?vid=ed4f7a9c-396e-48e9-bb92-4f85311bbf96","ios":"levelo://app?vid=ed4f7a9c-396e-48e9-bb92-4f85311bbf96"},"vehicle_type_id":"4","last_reported":1685480725,"current_range_meters":24800,"station_id":"ce4bh292rcd13ifvqdg0","pricing_plan_id":"free"},{"bike_id":"a8ba557f-4815-401e-a508-2dad9796a417","system_id":"levelo_inurba_marseille","lat":43.284462,"lon":5.392121,"is_reserved":false,"is_disabled":false,"rental_uris":{"android":"levelo://app?vid=a8ba557f-4815-401e-a508-2dad9796a417","ios":"levelo://app?vid=a8ba557f-4815-401e-a508-2dad9796a417"},"vehicle_type_id":"4","last_reported":1685480725,"current_range_meters":4400,"station_id":"ce4bhoh2rcd13ifvqh5g","pricing_plan_id":"free"},{"bike_id":"9fe9cef6-8baf-4e93-8b97-09b8196fb8bf","system_id":"levelo_inurba_marseille","lat":43.284462,"lon":5.392121,"is_reserved":false,"is_disabled":false,"rental_uris":{"android":"levelo://app?vid=9fe9cef6-8baf-4e93-8b97-09b8196fb8bf","ios":"levelo://app?vid=9fe9cef6-8baf-4e93-8b97-09b8196fb8bf"},"vehicle_type_id":"4","last_reported":1685480725,"current_range_meters":23600,"station_id":"ce4bhoh2rcd13ifvqh5g","pricing_plan_id":"free"},{"bike_id":"518e82d1-8506-43f4-972a-335b0406c7f2","system_id":"levelo_inurba_marseille","lat":43.284462,"lon":5.392121,"is_reserved":false,"is_disabled":false,"rental_uris":{"android":"levelo://app?vid=518e82d1-8506-43f4-972a-335b0406c7f2","ios":"levelo://app?vid=518e82d1-8506-43f4-972a-335b0406c7f2"},"vehicle_type_id":"4","last_reported":1685480725,"current_range_meters":18800,"station_id":"ce4bhoh2rcd13ifvqh5g","pricing_plan_id":"free"},{"bike_id":"6e252060-382c-4010-ac97-f27c35a6c767","system_id":"levelo_inurba_marseille","lat":43.28573,"lon":5.394992,"is_reserved":false,"is_disabled":false,"rental_uris":{"android":"levelo://app?vid=6e252060-382c-4010-ac97-f27c35a6c767","ios":"levelo://app?vid=6e252060-382c-4010-ac97-f27c35a6c767"},"vehicle_type_id":"4","last_reported":1685480725,"current_range_meters":19600,"station_id":"ce4bh292rcd13ifvqdg0","pricing_plan_id":"free"},{"bike_id":"0c2130f1-8a87-464f-b8c2-31f5105fe06e","system_id":"levelo_inurba_marseille","lat":43.285742,"lon":5.395004,"is_reserved":false,"is_disabled":false,"rental_uris":{"android":"levelo://app?vid=0c2130f1-8a87-464f-b8c2-31f5105fe06e","ios":"levelo://app?vid=0c2130f1-8a87-464f-b8c2-31f5105fe06e"},"vehicle_type_id":"4","last_reported":1685480725,"current_range_meters":23600,"station_id":"ce4bh292rcd13ifvqdg0","pricing_plan_id":"free"},{"bike_id":"8f86cc0a-cd38-454b-b551-1061baa02a2c","system_id":"levelo_inurba_marseille","lat":43.285742,"lon":5.395004,"is_reserved":false,"is_disabled":false,"rental_uris":{"android":"levelo://app?vid=8f86cc0a-cd38-454b-b551-1061baa02a2c","ios":"levelo://app?vid=8f86cc0a-cd38-454b-b551-1061baa02a2c"},"vehicle_type_id":"4","last_reported":1685480725,"current_range_meters":23600,"station_id":"ce4bh292rcd13ifvqdg0","pricing_plan_id":"free"},{"bike_id":"9e453d2b-20e2-4054-b13e-454c7b9d96e4","system_id":"levelo_inurba_marseille","lat":43.304188,"lon":5.412904,"is_reserved":false,"is_disabled":false,"rental_uris":{"android":"levelo://app?vid=9e453d2b-20e2-4054-b13e-454c7b9d96e4","ios":"levelo://app?vid=9e453d2b-20e2-4054-b13e-454c7b9d96e4"},"vehicle_type_id":"4","last_reported":1685480725,"current_range_meters":2000,"station_id":"ce4bhop2rcd13ifvqh8g","pricing_plan_id":"free"},{"bike_id":"ce88dbf2-fe42-445a-bf05-9e504a30570a","system_id":"levelo_inurba_marseille","lat":43.304188,"lon":5.412904,"is_reserved":false,"is_disabled":false,"rental_uris":{"android":"levelo://app?vid=ce88dbf2-fe42-445a-bf05-9e504a30570a","ios":"levelo://app?vid=ce88dbf2-fe42-445a-bf05-9e504a30570a"},"vehicle_type_id":"4","last_reported":1685480725,"current_range_meters":400,"station_id":"ce4bhop2rcd13ifvqh8g","pricing_plan_id":"free"},{"bike_id":"38eab051-fd2b-4c5b-8df1-73e620e96be2","system_id":"levelo_inurba_marseille","lat":43.30415,"lon":5.41298,"is_reserved":false,"is_disabled":false,"rental_uris":{"android":"levelo://app?vid=38eab051-fd2b-4c5b-8df1-73e620e96be2","ios":"levelo://app?vid=38eab051-fd2b-4c5b-8df1-73e620e96be2"},"vehicle_type_id":"4","last_reported":1685480725,"current_range_meters":26800,"station_id":"ce4bhop2rcd13ifvqh8g","pricing_plan_id":"free"},{"bike_id":"52c4e1d8-8889-4e8a-be01-1bc0d78c3308","system_id":"levelo_inurba_marseille","lat":43.27904,"lon":5.38009,"is_reserved":false,"is_disabled":false,"rental_uris":{"android":"levelo://app?vid=52c4e1d8-8889-4e8a-be01-1bc0d78c3308","ios":"levelo://app?vid=52c4e1d8-8889-4e8a-be01-1bc0d78c3308"},"vehicle_type_id":"4","last_reported":1685480725,"current_range_meters":14400,"station_id":"","pricing_plan_id":"free"},{"bike_id":"1b22ee18-85aa-4254-89f5-c643bdb060c8","system_id":"levelo_inurba_marseille","lat":43.27902,"lon":5.38006,"is_reserved":false,"is_disabled":false,"rental_uris":{"android":"levelo://app?vid=1b22ee18-85aa-4254-89f5-c643bdb060c8","ios":"levelo://app?vid=1b22ee18-85aa-4254-89f5-c643bdb060c8"},"vehicle_type_id":"4","last_reported":1685480725,"current_range_meters":0,"station_id":"","pricing_plan_id":"free"},{"bike_id":"84c18c90-4808-4d98-abd9-58d24c90a056","system_id":"levelo_inurba_marseille","lat":43.27901,"lon":5.38003,"is_reserved":false,"is_disabled":false,"rental_uris":{"android":"levelo://app?vid=84c18c90-4808-4d98-abd9-58d24c90a056","ios":"levelo://app?vid=84c18c90-4808-4d98-abd9-58d24c90a056"},"vehicle_type_id":"4","last_reported":1685480725,"current_range_meters":0,"station_id":"","pricing_plan_id":"free"},{"bike_id":"e104fbcd-a52d-4f30-8fc3-f670696f6643","system_id":"levelo_inurba_marseille","lat":43.287154,"lon":5.399979,"is_reserved":false,"is_disabled":false,"rental_uris":{"android":"levelo://app?vid=e104fbcd-a52d-4f30-8fc3-f670696f6643","ios":"levelo://app?vid=e104fbcd-a52d-4f30-8fc3-f670696f6643"},"vehicle_type_id":"4","last_reported":1685480725,"current_range_meters":22800,"station_id":"ce4bho92rcd13ifvqh3g","pricing_plan_id":"free"},{"bike_id":"4f7ca58c-8199-4032-84f9-fe62acb74ee4","system_id":"levelo_inurba_marseille","lat":43.287154,"lon":5.399979,"is_reserved":false,"is_disabled":false,"rental_uris":{"android":"levelo://app?vid=4f7ca58c-8199-4032-84f9-fe62acb74ee4","ios":"levelo://app?vid=4f7ca58c-8199-4032-84f9-fe62acb74ee4"},"vehicle_type_id":"4","last_reported":1685480725,"current_range_meters":26000,"station_id":"ce4bho92rcd13ifvqh3g","pricing_plan_id":"free"},{"bike_id":"16f99704-0490-4275-bc89-5df096a0dc29","system_id":"levelo_inurba_marseille","lat":43.287154,"lon":5.399979,"is_reserved":false,"is_disabled":false,"rental_uris":{"android":"levelo://app?vid=16f99704-0490-4275-bc89-5df096a0dc29","ios":"levelo://app?vid=16f99704-0490-4275-bc89-5df096a0dc29"},"vehicle_type_id":"4","last_reported":1685480725,"current_range_meters":28000,"station_id":"ce4bho92rcd13ifvqh3g","pricing_plan_id":"free"},{"bike_id":"c37998d3-84b8-4997-91e6-de5dbf54aacb","system_id":"levelo_inurba_marseille","lat":43.32041,"lon":5.41548,"is_reserved":false,"is_disabled":false,"rental_uris":{"android":"levelo://app?vid=c37998d3-84b8-4997-91e6-de5dbf54aacb","ios":"levelo://app?vid=c37998d3-84b8-4997-91e6-de5dbf54aacb"},"vehicle_type_id":"4","last_reported":1685480725,"current_range_meters":9600,"station_id":"","pricing_plan_id":"free"},{"bike_id":"b294ddd3-a1ce-43f4-b5cf-c3cc9722ddba","system_id":"levelo_inurba_marseille","lat":43.29262,"lon":5.40908,"is_reserved":false,"is_disabled":false,"rental_uris":{"android":"levelo://app?vid=b294ddd3-a1ce-43f4-b5cf-c3cc9722ddba","ios":"levelo://app?vid=b294ddd3-a1ce-43f4-b5cf-c3cc9722ddba"},"vehicle_type_id":"4","last_reported":1685480725,"current_range_meters":29200,"station_id":"ce4bh192rcd13ifvqdc0","pricing_plan_id":"free"},{"bike_id":"0ef0ca67-dd22-49c0-a5e2-120c084df86b","system_id":"levelo_inurba_marseille","lat":43.325233,"lon":5.414318,"is_reserved":false,"is_disabled":false,"rental_uris":{"android":"levelo://app?vid=0ef0ca67-dd22-49c0-a5e2-120c084df86b","ios":"levelo://app?vid=0ef0ca67-dd22-49c0-a5e2-120c084df86b"},"vehicle_type_id":"4","last_reported":1685480725,"current_range_meters":25600,"station_id":"ce4bhq12rcd13ifvqhhg","pricing_plan_id":"free"},{"bike_id":"11cea34d-9f67-41b3-9da8-2ba1bf4b6cf8","system_id":"levelo_inurba_marseille","lat":43.30382,"lon":5.41787,"is_reserved":false,"is_disabled":false,"rental_uris":{"android":"levelo://app?vid=11cea34d-9f67-41b3-9da8-2ba1bf4b6cf8","ios":"levelo://app?vid=11cea34d-9f67-41b3-9da8-2ba1bf4b6cf8"},"vehicle_type_id":"4","last_reported":1685480725,"current_range_meters":14000,"station_id":"","pricing_plan_id":"free"},{"bike_id":"72049945-4d23-416a-a23d-2ce4e427430b","system_id":"levelo_inurba_marseille","lat":43.273613,"lon":5.362705,"is_reserved":false,"is_disabled":false,"rental_uris":{"android":"levelo://app?vid=72049945-4d23-416a-a23d-2ce4e427430b","ios":"levelo://app?vid=72049945-4d23-416a-a23d-2ce4e427430b"},"vehicle_type_id":"4","last_reported":1685480725,"current_range_meters":9600,"station_id":"ce4bhbh2rcd13ifvqeo0","pricing_plan_id":"free"},{"bike_id":"681b36f1-8062-4f0a-801a-12c74c7a1e3a","system_id":"levelo_inurba_marseille","lat":43.33612,"lon":5.410321,"is_reserved":false,"is_disabled":false,"rental_uris":{"android":"levelo://app?vid=681b36f1-8062-4f0a-801a-12c74c7a1e3a","ios":"levelo://app?vid=681b36f1-8062-4f0a-801a-12c74c7a1e3a"},"vehicle_type_id":"4","last_reported":1685480725,"current_range_meters":12400,"station_id":"ce4bhqh2rcd13ifvqhmg","pricing_plan_id":"free"},{"bike_id":"f077c1f3-3091-45d8-ba26-35ba7638d645","system_id":"levelo_inurba_marseille","lat":43.33612,"lon":5.410321,"is_reserved":false,"is_disabled":false,"rental_uris":{"android":"levelo://app?vid=f077c1f3-3091-45d8-ba26-35ba7638d645","ios":"levelo://app?vid=f077c1f3-3091-45d8-ba26-35ba7638d645"},"vehicle_type_id":"4","last_reported":1685480725,"current_range_meters":10800,"station_id":"ce4bhqh2rcd13ifvqhmg","pricing_plan_id":"free"},{"bike_id":"e6ce957e-f8a7-4dd7-9ae3-1c41f7211023","system_id":"levelo_inurba_marseille","lat":43.273613,"lon":5.362705,"is_reserved":false,"is_disabled":false,"rental_uris":{"android":"levelo://app?vid=e6ce957e-f8a7-4dd7-9ae3-1c41f7211023","ios":"levelo://app?vid=e6ce957e-f8a7-4dd7-9ae3-1c41f7211023"},"vehicle_type_id":"4","last_reported":1685480725,"current_range_meters":800,"station_id":"ce4bhbh2rcd13ifvqeo0","pricing_plan_id":"free"},{"bike_id":"886577f9-6371-42d5-bb55-797e5b8c8645","system_id":"levelo_inurba_marseille","lat":43.30368,"lon":5.42385,"is_reserved":false,"is_disabled":false,"rental_uris":{"android":"levelo://app?vid=886577f9-6371-42d5-bb55-797e5b8c8645","ios":"levelo://app?vid=886577f9-6371-42d5-bb55-797e5b8c8645"},"vehicle_type_id":"4","last_reported":1685480725,"current_range_meters":16400,"station_id":"","pricing_plan_id":"free"},{"bike_id":"69af344f-3374-4982-9f8c-3deb30fdbd3d","system_id":"levelo_inurba_marseille","lat":43.27424,"lon":5.39416,"is_reserved":false,"is_disabled":false,"rental_uris":{"android":"levelo://app?vid=69af344f-3374-4982-9f8c-3deb30fdbd3d","ios":"levelo://app?vid=69af344f-3374-4982-9f8c-3deb30fdbd3d"},"vehicle_type_id":"4","last_reported":1685480725,"current_range_meters":0,"station_id":"","pricing_plan_id":"free"},{"bike_id":"27da7b1b-2907-4a16-8231-e2626b10a05f","system_id":"levelo_inurba_marseille","lat":43.27423,"lon":5.39418,"is_reserved":false,"is_disabled":false,"rental_uris":{"android":"levelo://app?vid=27da7b1b-2907-4a16-8231-e2626b10a05f","ios":"levelo://app?vid=27da7b1b-2907-4a16-8231-e2626b10a05f"},"vehicle_type_id":"4","last_reported":1685480725,"current_range_meters":4400,"station_id":"","pricing_plan_id":"free"},{"bike_id":"ae0cfc4e-022d-4b4e-8e28-9715ff3a6056","system_id":"levelo_inurba_marseille","lat":43.278128,"lon":5.407195,"is_reserved":false,"is_disabled":false,"rental_uris":{"android":"levelo://app?vid=ae0cfc4e-022d-4b4e-8e28-9715ff3a6056","ios":"levelo://app?vid=ae0cfc4e-022d-4b4e-8e28-9715ff3a6056"},"vehicle_type_id":"4","last_reported":1685480725,"current_range_meters":31600,"station_id":"ce4bhnh2rcd13ifvqgtg","pricing_plan_id":"free"},{"bike_id":"6add8997-27fa-44a0-b42b-872324a78393","system_id":"levelo_inurba_marseille","lat":43.278128,"lon":5.407195,"is_reserved":false,"is_disabled":false,"rental_uris":{"android":"levelo://app?vid=6add8997-27fa-44a0-b42b-872324a78393","ios":"levelo://app?vid=6add8997-27fa-44a0-b42b-872324a78393"},"vehicle_type_id":"4","last_reported":1685480725,"current_range_meters":18000,"station_id":"ce4bhnh2rcd13ifvqgtg","pricing_plan_id":"free"},{"bike_id":"bfd43609-6e23-43c7-81ac-c079a1b66c6e","system_id":"levelo_inurba_marseille","lat":43.278128,"lon":5.407195,"is_reserved":false,"is_disabled":false,"rental_uris":{"android":"levelo://app?vid=bfd43609-6e23-43c7-81ac-c079a1b66c6e","ios":"levelo://app?vid=bfd43609-6e23-43c7-81ac-c079a1b66c6e"},"vehicle_type_id":"4","last_reported":1685480725,"current_range_meters":15200,"station_id":"ce4bhnh2rcd13ifvqgtg","pricing_plan_id":"free"},{"bike_id":"8ac8dbf3-9740-4f4e-bbbe-97a2a7dd0000","system_id":"levelo_inurba_marseille","lat":43.269467,"lon":5.386439,"is_reserved":false,"is_disabled":false,"rental_uris":{"android":"levelo://app?vid=8ac8dbf3-9740-4f4e-bbbe-97a2a7dd0000","ios":"levelo://app?vid=8ac8dbf3-9740-4f4e-bbbe-97a2a7dd0000"},"vehicle_type_id":"4","last_reported":1685480725,"current_range_meters":12000,"station_id":"ce4bhh92rcd13ifvqfh0","pricing_plan_id":"free"},{"bike_id":"29b9193a-54ce-46f7-b4ad-650211a29075","system_id":"levelo_inurba_marseille","lat":43.269467,"lon":5.386439,"is_reserved":false,"is_disabled":false,"rental_uris":{"android":"levelo://app?vid=29b9193a-54ce-46f7-b4ad-650211a29075","ios":"levelo://app?vid=29b9193a-54ce-46f7-b4ad-650211a29075"},"vehicle_type_id":"4","last_reported":1685480725,"current_range_meters":0,"station_id":"ce4bhh92rcd13ifvqfh0","pricing_plan_id":"free"},{"bike_id":"97f92444-dc7f-4ac8-885e-43ac50454dc0","system_id":"levelo_inurba_marseille","lat":43.31672,"lon":5.43345,"is_reserved":false,"is_disabled":false,"rental_uris":{"android":"levelo://app?vid=97f92444-dc7f-4ac8-885e-43ac50454dc0","ios":"levelo://app?vid=97f92444-dc7f-4ac8-885e-43ac50454dc0"},"vehicle_type_id":"4","last_reported":1685480725,"current_range_meters":0,"station_id":"","pricing_plan_id":"free"},{"bike_id":"e4159a94-9631-4339-ba7b-437de8193058","system_id":"levelo_inurba_marseille","lat":43.27996,"lon":5.416624,"is_reserved":false,"is_disabled":false,"rental_uris":{"android":"levelo://app?vid=e4159a94-9631-4339-ba7b-437de8193058","ios":"levelo://app?vid=e4159a94-9631-4339-ba7b-437de8193058"},"vehicle_type_id":"4","last_reported":1685480725,"current_range_meters":31600,"station_id":"ce4bho12rcd13ifvqh1g","pricing_plan_id":"free"},{"bike_id":"2fcc0c23-ac53-41eb-a2d4-d3336177ee7b","system_id":"levelo_inurba_marseille","lat":43.32304,"lon":5.43563,"is_reserved":false,"is_disabled":false,"rental_uris":{"android":"levelo://app?vid=2fcc0c23-ac53-41eb-a2d4-d3336177ee7b","ios":"levelo://app?vid=2fcc0c23-ac53-41eb-a2d4-d3336177ee7b"},"vehicle_type_id":"4","last_reported":1685480725,"current_range_meters":5600,"station_id":"","pricing_plan_id":"free"},{"bike_id":"1484fb73-ea82-4cbc-a93c-9b6c94228fc9","system_id":"levelo_inurba_marseille","lat":43.317104,"lon":5.436818,"is_reserved":false,"is_disabled":false,"rental_uris":{"android":"levelo://app?vid=1484fb73-ea82-4cbc-a93c-9b6c94228fc9","ios":"levelo://app?vid=1484fb73-ea82-4cbc-a93c-9b6c94228fc9"},"vehicle_type_id":"4","last_reported":1685480725,"current_range_meters":31200,"station_id":"ce4bhp92rcd13ifvqhcg","pricing_plan_id":"free"},{"bike_id":"f22f7e44-aa2d-4864-9c71-c3848a626538","system_id":"levelo_inurba_marseille","lat":43.271368,"lon":5.40928,"is_reserved":false,"is_disabled":false,"rental_uris":{"android":"levelo://app?vid=f22f7e44-aa2d-4864-9c71-c3848a626538","ios":"levelo://app?vid=f22f7e44-aa2d-4864-9c71-c3848a626538"},"vehicle_type_id":"4","last_reported":1685480725,"current_range_meters":28400,"station_id":"ce4bhl12rcd13ifvqgf0","pricing_plan_id":"free"},{"bike_id":"70b32f93-9c97-45c8-a909-9998bd339929","system_id":"levelo_inurba_marseille","lat":43.27175,"lon":5.40991,"is_reserved":false,"is_disabled":false,"rental_uris":{"android":"levelo://app?vid=70b32f93-9c97-45c8-a909-9998bd339929","ios":"levelo://app?vid=70b32f93-9c97-45c8-a909-9998bd339929"},"vehicle_type_id":"4","last_reported":1685480725,"current_range_meters":29200,"station_id":"","pricing_plan_id":"free"},{"bike_id":"a007229d-c759-4674-892e-bd7896790fe1","system_id":"levelo_inurba_marseille","lat":43.271388,"lon":5.409269,"is_reserved":false,"is_disabled":false,"rental_uris":{"android":"levelo://app?vid=a007229d-c759-4674-892e-bd7896790fe1","ios":"levelo://app?vid=a007229d-c759-4674-892e-bd7896790fe1"},"vehicle_type_id":"4","last_reported":1685480725,"current_range_meters":8400,"station_id":"ce4bhl12rcd13ifvqgf0","pricing_plan_id":"free"},{"bike_id":"ca1548a0-e776-428c-b74b-e298cc246921","system_id":"levelo_inurba_marseille","lat":43.267959,"lon":5.402687,"is_reserved":false,"is_disabled":false,"rental_uris":{"android":"levelo://app?vid=ca1548a0-e776-428c-b74b-e298cc246921","ios":"levelo://app?vid=ca1548a0-e776-428c-b74b-e298cc246921"},"vehicle_type_id":"4","last_reported":1685480725,"current_range_meters":26000,"station_id":"ce501612rcd8frsf0b60","pricing_plan_id":"free"},{"bike_id":"33bb0d85-46ff-4d39-af3d-57c571949666","system_id":"levelo_inurba_marseille","lat":43.267959,"lon":5.402685,"is_reserved":false,"is_disabled":false,"rental_uris":{"android":"levelo://app?vid=33bb0d85-46ff-4d39-af3d-57c571949666","ios":"levelo://app?vid=33bb0d85-46ff-4d39-af3d-57c571949666"},"vehicle_type_id":"4","last_reported":1685480725,"current_range_meters":20400,"station_id":"ce501612rcd8frsf0b60","pricing_plan_id":"free"},{"bike_id":"71b45564-f0d2-4db0-8d05-6bce77de90cd","system_id":"levelo_inurba_marseille","lat":43.267959,"lon":5.402685,"is_reserved":false,"is_disabled":false,"rental_uris":{"android":"levelo://app?vid=71b45564-f0d2-4db0-8d05-6bce77de90cd","ios":"levelo://app?vid=71b45564-f0d2-4db0-8d05-6bce77de90cd"},"vehicle_type_id":"4","last_reported":1685480725,"current_range_meters":30000,"station_id":"ce501612rcd8frsf0b60","pricing_plan_id":"free"},{"bike_id":"06ebb7c1-8520-4b20-ae78-3f4a5a2a4651","system_id":"levelo_inurba_marseille","lat":43.26799,"lon":5.40267,"is_reserved":false,"is_disabled":false,"rental_uris":{"android":"levelo://app?vid=06ebb7c1-8520-4b20-ae78-3f4a5a2a4651","ios":"levelo://app?vid=06ebb7c1-8520-4b20-ae78-3f4a5a2a4651"},"vehicle_type_id":"4","last_reported":1685480725,"current_range_meters":25600,"station_id":"ce501612rcd8frsf0b60","pricing_plan_id":"free"},{"bike_id":"ae9c8137-ab4d-47d8-883d-00ed67fe81bf","system_id":"levelo_inurba_marseille","lat":43.298768,"lon":5.43643,"is_reserved":false,"is_disabled":false,"rental_uris":{"android":"levelo://app?vid=ae9c8137-ab4d-47d8-883d-00ed67fe81bf","ios":"levelo://app?vid=ae9c8137-ab4d-47d8-883d-00ed67fe81bf"},"vehicle_type_id":"4","last_reported":1685480725,"current_range_meters":20800,"station_id":"ce4bhpp2rcd13ifvqhfg","pricing_plan_id":"free"},{"bike_id":"6b404443-757b-4b8d-9a78-a03ca59013fb","system_id":"levelo_inurba_marseille","lat":43.2592,"lon":5.37283,"is_reserved":false,"is_disabled":false,"rental_uris":{"android":"levelo://app?vid=6b404443-757b-4b8d-9a78-a03ca59013fb","ios":"levelo://app?vid=6b404443-757b-4b8d-9a78-a03ca59013fb"},"vehicle_type_id":"4","last_reported":1685480725,"current_range_meters":1200,"station_id":"","pricing_plan_id":"free"},{"bike_id":"3d475e0a-4dbd-479e-9f63-5d84abe8825d","system_id":"levelo_inurba_marseille","lat":43.2558,"lon":5.38239,"is_reserved":false,"is_disabled":false,"rental_uris":{"android":"levelo://app?vid=3d475e0a-4dbd-479e-9f63-5d84abe8825d","ios":"levelo://app?vid=3d475e0a-4dbd-479e-9f63-5d84abe8825d"},"vehicle_type_id":"4","last_reported":1685480725,"current_range_meters":21200,"station_id":"ce4bhih2rcd13ifvqfs0","pricing_plan_id":"free"},{"bike_id":"4a4dc7a4-29f7-4aa0-8553-612d1c2534da","system_id":"levelo_inurba_marseille","lat":43.255756,"lon":5.382303,"is_reserved":false,"is_disabled":false,"rental_uris":{"android":"levelo://app?vid=4a4dc7a4-29f7-4aa0-8553-612d1c2534da","ios":"levelo://app?vid=4a4dc7a4-29f7-4aa0-8553-612d1c2534da"},"vehicle_type_id":"4","last_reported":1685480725,"current_range_meters":20800,"station_id":"ce4bhih2rcd13ifvqfs0","pricing_plan_id":"free"},{"bike_id":"8f03b559-82e5-4174-8fc4-72760672c875","system_id":"levelo_inurba_marseille","lat":43.254947,"lon":5.376454,"is_reserved":false,"is_disabled":false,"rental_uris":{"android":"levelo://app?vid=8f03b559-82e5-4174-8fc4-72760672c875","ios":"levelo://app?vid=8f03b559-82e5-4174-8fc4-72760672c875"},"vehicle_type_id":"4","last_reported":1685480725,"current_range_meters":1600,"station_id":"ce4bhh12rcd13ifvqff0","pricing_plan_id":"free"},{"bike_id":"0a0576a0-2929-43cf-9872-9cc377902df2","system_id":"levelo_inurba_marseille","lat":43.270721,"lon":5.422764,"is_reserved":false,"is_disabled":false,"rental_uris":{"android":"levelo://app?vid=0a0576a0-2929-43cf-9872-9cc377902df2","ios":"levelo://app?vid=0a0576a0-2929-43cf-9872-9cc377902df2"},"vehicle_type_id":"4","last_reported":1685480725,"current_range_meters":17200,"station_id":"ce4bhk92rcd13ifvqgb0","pricing_plan_id":"free"},{"bike_id":"ce6d4744-e27c-432e-8c56-02ef01ba1325","system_id":"levelo_inurba_marseille","lat":43.259013,"lon":5.409301,"is_reserved":false,"is_disabled":false,"rental_uris":{"android":"levelo://app?vid=ce6d4744-e27c-432e-8c56-02ef01ba1325","ios":"levelo://app?vid=ce6d4744-e27c-432e-8c56-02ef01ba1325"},"vehicle_type_id":"4","last_reported":1685480725,"current_range_meters":14800,"station_id":"ce4bhm92rcd13ifvqglg","pricing_plan_id":"free"},{"bike_id":"5bcfc73e-00a9-4dcc-81da-eb153cabd9f2","system_id":"levelo_inurba_marseille","lat":43.259013,"lon":5.409301,"is_reserved":false,"is_disabled":false,"rental_uris":{"android":"levelo://app?vid=5bcfc73e-00a9-4dcc-81da-eb153cabd9f2","ios":"levelo://app?vid=5bcfc73e-00a9-4dcc-81da-eb153cabd9f2"},"vehicle_type_id":"4","last_reported":1685480725,"current_range_meters":15600,"station_id":"ce4bhm92rcd13ifvqglg","pricing_plan_id":"free"},{"bike_id":"d969743b-f160-4bf3-aa89-96c68ce29f1e","system_id":"levelo_inurba_marseille","lat":43.2509,"lon":5.39515,"is_reserved":false,"is_disabled":false,"rental_uris":{"android":"levelo://app?vid=d969743b-f160-4bf3-aa89-96c68ce29f1e","ios":"levelo://app?vid=d969743b-f160-4bf3-aa89-96c68ce29f1e"},"vehicle_type_id":"4","last_reported":1685480725,"current_range_meters":0,"station_id":"ce4bhm12rcd13ifvqgkg","pricing_plan_id":"free"},{"bike_id":"1da69418-76e1-42ee-8dca-59306bc6a5fe","system_id":"levelo_inurba_marseille","lat":43.25087,"lon":5.39519,"is_reserved":false,"is_disabled":false,"rental_uris":{"android":"levelo://app?vid=1da69418-76e1-42ee-8dca-59306bc6a5fe","ios":"levelo://app?vid=1da69418-76e1-42ee-8dca-59306bc6a5fe"},"vehicle_type_id":"4","last_reported":1685480725,"current_range_meters":28000,"station_id":"ce4bhm12rcd13ifvqgkg","pricing_plan_id":"free"},{"bike_id":"829f096d-9e73-471f-b1ea-83520bb24e4a","system_id":"levelo_inurba_marseille","lat":43.25084,"lon":5.39516,"is_reserved":false,"is_disabled":false,"rental_uris":{"android":"levelo://app?vid=829f096d-9e73-471f-b1ea-83520bb24e4a","ios":"levelo://app?vid=829f096d-9e73-471f-b1ea-83520bb24e4a"},"vehicle_type_id":"4","last_reported":1685480725,"current_range_meters":15600,"station_id":"ce4bhm12rcd13ifvqgkg","pricing_plan_id":"free"},{"bike_id":"f1fb900b-730c-4391-8b1a-75d8e5ed5006","system_id":"levelo_inurba_marseille","lat":43.24693,"lon":5.382096,"is_reserved":false,"is_disabled":false,"rental_uris":{"android":"levelo://app?vid=f1fb900b-730c-4391-8b1a-75d8e5ed5006","ios":"levelo://app?vid=f1fb900b-730c-4391-8b1a-75d8e5ed5006"},"vehicle_type_id":"4","last_reported":1685480725,"current_range_meters":28400,"station_id":"ce4bhih2rcd13ifvqfr0","pricing_plan_id":"free"},{"bike_id":"ab55fed1-2aca-40f5-93e0-203288ab99e9","system_id":"levelo_inurba_marseille","lat":43.24693,"lon":5.382096,"is_reserved":false,"is_disabled":false,"rental_uris":{"android":"levelo://app?vid=ab55fed1-2aca-40f5-93e0-203288ab99e9","ios":"levelo://app?vid=ab55fed1-2aca-40f5-93e0-203288ab99e9"},"vehicle_type_id":"4","last_reported":1685480725,"current_range_meters":24400,"station_id":"ce4bhih2rcd13ifvqfr0","pricing_plan_id":"free"},{"bike_id":"d5968259-0a95-419f-b999-4d1551357f26","system_id":"levelo_inurba_marseille","lat":43.24693,"lon":5.382096,"is_reserved":false,"is_disabled":false,"rental_uris":{"android":"levelo://app?vid=d5968259-0a95-419f-b999-4d1551357f26","ios":"levelo://app?vid=d5968259-0a95-419f-b999-4d1551357f26"},"vehicle_type_id":"4","last_reported":1685480725,"current_range_meters":800,"station_id":"ce4bhih2rcd13ifvqfr0","pricing_plan_id":"free"},{"bike_id":"3ac8d14c-957e-4486-ab34-c4f6aacf7e7b","system_id":"levelo_inurba_marseille","lat":43.24693,"lon":5.382096,"is_reserved":false,"is_disabled":false,"rental_uris":{"android":"levelo://app?vid=3ac8d14c-957e-4486-ab34-c4f6aacf7e7b","ios":"levelo://app?vid=3ac8d14c-957e-4486-ab34-c4f6aacf7e7b"},"vehicle_type_id":"4","last_reported":1685480725,"current_range_meters":6000,"station_id":"ce4bhih2rcd13ifvqfr0","pricing_plan_id":"free"},{"bike_id":"34d206b5-906a-467a-953c-c7a1aa825ee7","system_id":"levelo_inurba_marseille","lat":43.25114,"lon":5.40322,"is_reserved":false,"is_disabled":false,"rental_uris":{"android":"levelo://app?vid=34d206b5-906a-467a-953c-c7a1aa825ee7","ios":"levelo://app?vid=34d206b5-906a-467a-953c-c7a1aa825ee7"},"vehicle_type_id":"4","last_reported":1685480725,"current_range_meters":0,"station_id":"ce4bhlh2rcd13ifvqgig","pricing_plan_id":"free"},{"bike_id":"55da2c50-24c0-4df1-b490-e88c9f1c2e29","system_id":"levelo_inurba_marseille","lat":43.25102,"lon":5.403214,"is_reserved":false,"is_disabled":false,"rental_uris":{"android":"levelo://app?vid=55da2c50-24c0-4df1-b490-e88c9f1c2e29","ios":"levelo://app?vid=55da2c50-24c0-4df1-b490-e88c9f1c2e29"},"vehicle_type_id":"4","last_reported":1685480725,"current_range_meters":16800,"station_id":"ce4bhlh2rcd13ifvqgig","pricing_plan_id":"free"},{"bike_id":"964f5c32-9d1f-48fd-926e-aac8910f6aeb","system_id":"levelo_inurba_marseille","lat":43.25107,"lon":5.40328,"is_reserved":false,"is_disabled":false,"rental_uris":{"android":"levelo://app?vid=964f5c32-9d1f-48fd-926e-aac8910f6aeb","ios":"levelo://app?vid=964f5c32-9d1f-48fd-926e-aac8910f6aeb"},"vehicle_type_id":"4","last_reported":1685480725,"current_range_meters":12400,"station_id":"ce4bhlh2rcd13ifvqgig","pricing_plan_id":"free"},{"bike_id":"0c369c15-b958-4e61-96ce-7bd1b73adfbf","system_id":"levelo_inurba_marseille","lat":43.246461,"lon":5.389014,"is_reserved":false,"is_disabled":false,"rental_uris":{"android":"levelo://app?vid=0c369c15-b958-4e61-96ce-7bd1b73adfbf","ios":"levelo://app?vid=0c369c15-b958-4e61-96ce-7bd1b73adfbf"},"vehicle_type_id":"4","last_reported":1685480725,"current_range_meters":23600,"station_id":"ce4bhg12rcd13ifvqf60","pricing_plan_id":"free"},{"bike_id":"0f07d459-bdff-4b0d-b829-07a8b6f7936f","system_id":"levelo_inurba_marseille","lat":43.243884,"lon":5.370736,"is_reserved":false,"is_disabled":false,"rental_uris":{"android":"levelo://app?vid=0f07d459-bdff-4b0d-b829-07a8b6f7936f","ios":"levelo://app?vid=0f07d459-bdff-4b0d-b829-07a8b6f7936f"},"vehicle_type_id":"4","last_reported":1685480725,"current_range_meters":16800,"station_id":"ce4bhhh2rcd13ifvqfk0","pricing_plan_id":"free"},{"bike_id":"5a5ce047-ca23-436f-81e8-29b7ce99e453","system_id":"levelo_inurba_marseille","lat":43.28898,"lon":5.45792,"is_reserved":false,"is_disabled":false,"rental_uris":{"android":"levelo://app?vid=5a5ce047-ca23-436f-81e8-29b7ce99e453","ios":"levelo://app?vid=5a5ce047-ca23-436f-81e8-29b7ce99e453"},"vehicle_type_id":"4","last_reported":1685480725,"current_range_meters":23200,"station_id":"","pricing_plan_id":"free"},{"bike_id":"9934353f-d2e9-4ef2-b249-a746f1040bee","system_id":"levelo_inurba_marseille","lat":43.24842,"lon":5.41079,"is_reserved":false,"is_disabled":false,"rental_uris":{"android":"levelo://app?vid=9934353f-d2e9-4ef2-b249-a746f1040bee","ios":"levelo://app?vid=9934353f-d2e9-4ef2-b249-a746f1040bee"},"vehicle_type_id":"4","last_reported":1685480725,"current_range_meters":26400,"station_id":"","pricing_plan_id":"free"},{"bike_id":"278a4a3e-c302-4aff-b381-82141e006ff4","system_id":"levelo_inurba_marseille","lat":43.24077,"lon":5.37755,"is_reserved":false,"is_disabled":false,"rental_uris":{"android":"levelo://app?vid=278a4a3e-c302-4aff-b381-82141e006ff4","ios":"levelo://app?vid=278a4a3e-c302-4aff-b381-82141e006ff4"},"vehicle_type_id":"4","last_reported":1685480725,"current_range_meters":28400,"station_id":"","pricing_plan_id":"free"},{"bike_id":"60d157ea-7074-4c1b-a1f8-d1a50b316084","system_id":"levelo_inurba_marseille","lat":43.24076,"lon":5.37755,"is_reserved":false,"is_disabled":false,"rental_uris":{"android":"levelo://app?vid=60d157ea-7074-4c1b-a1f8-d1a50b316084","ios":"levelo://app?vid=60d157ea-7074-4c1b-a1f8-d1a50b316084"},"vehicle_type_id":"4","last_reported":1685480725,"current_range_meters":6400,"station_id":"","pricing_plan_id":"free"},