{"last_updated":1716776636,"ttl":30,"version":"2.2","data":{"bikes":[{"bike_id":"45f69cf0-a561-4985-9918-a74b520c5bee","system_id":"levelo_inurba_marseille","lat":43.31341,"lon":5.367098,"is_reserved":false,"is_disabled":false,"rental_uris":{"android":"levelo://app?vid=45f69cf0-a561-4985-9918-a74b520c5bee","ios":"levelo://app?vid=45f69cf0-a561-4985-9918-a74b520c5bee"},"vehicle_type_id":"4","last_reported":1716776636,"current_range_meters":25600,"station_id":"ce4bgr92rcd13ifvqc6g","pricing_plan_id":"cebpf4jnsgd1na2vs0mg"},{"bike_id":"639b0401-f2b6-491c-b509-c71e78b233c8","system_id":"levelo_inurba_marseille","lat":43.313531,"lon":5.367098,"is_reserved":false,"is_disabled":false,"rental_uris":{"android":"levelo://app?vid=639b0401-f2b6-491c-b509-c71e78b233c8","ios":"levelo://app?vid=639b0401-f2b6-491c-b509-c71e78b233c8"},"vehicle_type_id":"4","last_reported":1716776636,"current_range_meters":6400,"station_id":"ce4bgr92rcd13ifvqc6g","pricing_plan_id":"cebpf4jnsgd1na2vs0mg"},{"bike_id":"a44d0643-0d6f-4eca-b10f-2a3ed2d53ba7","system_id":"levelo_inurba_marseille","lat":43.313391,"lon":5.36706,"is_reserved":false,"is_disabled":false,"rental_uris":{"android":"levelo://app?vid=a44d0643-0d6f-4eca-b10f-2a3ed2d53ba7","ios":"levelo://app?vid=a44d0643-0d6f-4eca-b10f-2a3ed2d53ba7"},"vehicle_type_id":"4","last_reported":1716776636,"current_range_meters":27600,"station_id":"ce4bgr92rcd13ifvqc6g","pricing_plan_id":"cebpf4jnsgd1na2vs0mg"},{"bike_id":"35cedf92-f698-4457-8e7b-5708ba01039e","system_id":"levelo_inurba_marseille","lat":43.312239,"lon":5.368562,"is_reserved":false,"is_disabled":false,"rental_uris":{"android":"levelo://app?vid=35cedf92-f698-4457-8e7b-5708ba01039e","ios":"levelo://app?vid=35cedf92-f698-4457-8e7b-5708ba01039e"},"vehicle_type_id":"4","last_reported":1716776636,"current_range_meters":31200,"station_id":"ce4bgl92rcd13ifvqbq0","pricing_plan_id":"cebpf4jnsgd1na2vs0mg"},{"bike_id":"892f1f38-5881-4422-8ae7-a45e5dd3fc37","system_id":"levelo_inurba_marseille","lat":43.312239,"lon":5.368562,"is_reserved":false,"is_disabled":false,"rental_uris":{"android":"levelo://app?vid=892f1f38-5881-4422-8ae7-a45e5dd3fc37","ios":"levelo://app?vid=892f1f38-5881-4422-8ae7-a45e5dd3fc37"},"vehicle_type_id":"4","last_reported":1716776636,"current_range_meters":24000,"station_id":"ce4bgl92rcd13ifvqbq0","pricing_plan_id":"cebpf4jnsgd1na2vs0mg"},{"bike_id":"c0c807a6-c802-4408-ac2f-34e85cdf2227","system_id":"levelo_inurba_marseille","lat":43.309076,"lon":5.368465,"is_reserved":false,"is_disabled":false,"rental_uris":{"android":"levelo://app?vid=c0c807a6-c802-4408-ac2f-34e85cdf2227","ios":"levelo://app?vid=c0c807a6-c802-4408-ac2f-34e85cdf2227"},"vehicle_type_id":"4","last_reported":1716776636,"current_range_meters":31600,"station_id":"ce4bgn92rcd13ifvqbvg","pricing_plan_id":"cebpf4jnsgd1na2vs0mg"},{"bike_id":"6d453cec-13d6-474f-999e-ff10e347135a","system_id":"levelo_inurba_marseille","lat":43.309076,"lon":5.368465,"is_reserved":false,"is_disabled":false,"rental_uris":{"android":"levelo://app?vid=6d453cec-13d6-474f-999e-ff10e347135a","ios":"levelo://app?vid=6d453cec-13d6-474f-999e-ff10e347135a"},"vehicle_type_id":"4","last_reported":1716776636,"current_range_meters":13600,"station_id":"ce4bgn92rcd13ifvqbvg","pricing_plan_id":"cebpf4jnsgd1na2vs0mg"},{"bike_id":"5dba78a3-7f57-406b-8635-872bbf3a6adb","system_id":"levelo_inurba_marseille","lat":43.30902,"lon":5.36849,"is_reserved":false,"is_disabled":false,"rental_uris":{"android":"levelo://app?vid=5dba78a3-7f57-406b-8635-872bbf3a6adb","ios":"levelo://app?vid=5dba78a3-7f57-406b-8635-872bbf3a6adb"},"vehicle_type_id":"4","last_reported":1716776636,"current_range_meters":0,"station_id":"ce4bgn92rcd13ifvqbvg","pricing_plan_id":"cebpf4jnsgd1na2vs0mg"},{"bike_id":"914b19cf-8405-4b21-897a-e910b2ab3ab7","system_id":"levelo_inurba_marseille","lat":43.314811,"lon":5.373103,"is_reserved":false,"is_disabled":false,"rental_uris":{"android":"levelo://app?vid=914b19cf-8405-4b21-897a-e910b2ab3ab7","ios":"levelo://app?vid=914b19cf-8405-4b21-897a-e910b2ab3ab7"},"vehicle_type_id":"4","last_reported":1716776636,"current_range_meters":16800,"station_id":"ce4bgt12rcd13ifvqcd0","pricing_plan_id":"cebpf4jnsgd1na2vs0mg"},{"bike_id":"2aebf50f-ed09-41ab-80c2-c58a2bac99b9","system_id":"levelo_inurba_marseille","lat":43.314811,"lon":5.373103,"is_reserved":false,"is_disabled":false,"rental_uris":{"android":"levelo://app?vid=2aebf50f-ed09-41ab-80c2-c58a2bac99b9","ios":"levelo://app?vid=2aebf50f-ed09-41ab-80c2-c58a2bac99b9"},"vehicle_type_id":"4","last_reported":1716776636,"current_range_meters":29600,"station_id":"ce4bgt12rcd13ifvqcd0","pricing_plan_id":"cebpf4jnsgd1na2vs0mg"},{"bike_id":"59a48ce5-a13f-4f16-a548-cd5218b87455","system_id":"levelo_inurba_marseille","lat":43.31488,"lon":5.37307,"is_reserved":false,"is_disabled":false,"rental_uris":{"android":"levelo://app?vid=59a48ce5-a13f-4f16-a548-cd5218b87455","ios":"levelo://app?vid=59a48ce5-a13f-4f16-a548-cd5218b87455"},"vehicle_type_id":"4","last_reported":1716776636,"current_range_meters":0,"station_id":"ce4bgt12rcd13ifvqcd0","pricing_plan_id":"cebpf4jnsgd1na2vs0mg"},{"bike_id":"50a607a7-4551-4f5c-b5e2-4013862582d9","system_id":"levelo_inurba_marseille","lat":43.314811,"lon":5.373104,"is_reserved":false,"is_disabled":false,"rental_uris":{"android":"levelo://app?vid=50a607a7-4551-4f5c-b5e2-4013862582d9","ios":"levelo://app?vid=50a607a7-4551-4f5c-b5e2-4013862582d9"},"vehicle_type_id":"4","last_reported":1716776636,"current_range_meters":28000,"station_id":"ce4bgt12rcd13ifvqcd0","pricing_plan_id":"cebpf4jnsgd1na2vs0mg"},{"bike_id":"3614bc61-42a6-4c39-b830-5516ccacfee4","system_id":"levelo_inurba_marseille","lat":43.314811,"lon":5.373104,"is_reserved":false,"is_disabled":false,"rental_uris":{"android":"levelo://app?vid=3614bc61-42a6-4c39-b830-5516ccacfee4","ios":"levelo://app?vid=3614bc61-42a6-4c39-b830-5516ccacfee4"},"vehicle_type_id":"4","last_reported":1716776636,"current_range_meters":27200,"station_id":"ce4bgt12rcd13ifvqcd0","pricing_plan_id":"cebpf4jnsgd1na2vs0mg"},{"bike_id":"7660bbfa-0cca-44f8-9cda-5b7b2b6ad681","system_id":"levelo_inurba_marseille","lat":43.309034,"lon":5.371783,"is_reserved":false,"is_disabled":false,"rental_uris":{"android":"levelo://app?vid=7660bbfa-0cca-44f8-9cda-5b7b2b6ad681","ios":"levelo://app?vid=7660bbfa-0cca-44f8-9cda-5b7b2b6ad681"},"vehicle_type_id":"4","last_reported":1716776636,"current_range_meters":26400,"station_id":"ce4bguh2rcd13ifvqckg","pricing_plan_id":"cebpf4jnsgd1na2vs0mg"},{"bike_id":"6f190523-cbe8-48ed-b4f3-4cf52e73b415","system_id":"levelo_inurba_marseille","lat":43.30537,"lon":5.367345,"is_reserved":false,"is_disabled":false,"rental_uris":{"android":"levelo://app?vid=6f190523-cbe8-48ed-b4f3-4cf52e73b415","ios":"levelo://app?vid=6f190523-cbe8-48ed-b4f3-4cf52e73b415"},"vehicle_type_id":"4","last_reported":1716776636,"current_range_meters":24400,"station_id":"ce4bgrp2rcd13ifvqc9g","pricing_plan_id":"cebpf4jnsgd1na2vs0mg"},{"bike_id":"fe03068e-24ff-4e47-9c88-e705a8c785a8","system_id":"levelo_inurba_marseille","lat":43.305714,"lon":5.365633,"is_reserved":false,"is_disabled":false,"rental_uris":{"android":"levelo://app?vid=fe03068e-24ff-4e47-9c88-e705a8c785a8","ios":"levelo://app?vid=fe03068e-24ff-4e47-9c88-e705a8c785a8"},"vehicle_type_id":"4","last_reported":1716776636,"current_range_meters":27200,"station_id":"ce4bgs12rcd13ifvqcag","pricing_plan_id":"cebpf4jnsgd1na2vs0mg"},{"bike_id":"fa975c2a-c7d6-409f-be88-a545d910f3c1","system_id":"levelo_inurba_marseille","lat":43.305989,"lon":5.37225,"is_reserved":false,"is_disabled":false,"rental_uris":{"android":"levelo://app?vid=fa975c2a-c7d6-409f-be88-a545d910f3c1","ios":"levelo://app?vid=fa975c2a-c7d6-409f-be88-a545d910f3c1"},"vehicle_type_id":"4","last_reported":1716776636,"current_range_meters":19600,"station_id":"ce4bgqh2rcd13ifvqc4g","pricing_plan_id":"cebpf4jnsgd1na2vs0mg"},{"bike_id":"0ea2d501-4595-47de-b0e8-d21666f535c5","system_id":"levelo_inurba_marseille","lat":43.305989,"lon":5.37225,"is_reserved":false,"is_disabled":false,"rental_uris":{"android":"levelo://app?vid=0ea2d501-4595-47de-b0e8-d21666f535c5","ios":"levelo://app?vid=0ea2d501-4595-47de-b0e8-d21666f535c5"},"vehicle_type_id":"4","last_reported":1716776636,"current_range_meters":3600,"station_id":"ce4bgqh2rcd13ifvqc4g","pricing_plan_id":"cebpf4jnsgd1na2vs0mg"},{"bike_id":"085f8808-1d82-4a31-a42a-8e58df7e3717","system_id":"levelo_inurba_marseille","lat":43.305989,"lon":5.37225,"is_reserved":false,"is_disabled":false,"rental_uris":{"android":"levelo://app?vid=085f8808-1d82-4a31-a42a-8e58df7e3717","ios":"levelo://app?vid=085f8808-1d82-4a31-a42a-8e58df7e3717"},"vehicle_type_id":"4","last_reported":1716776636,"current_range_meters":31600,"station_id":"ce4bgqh2rcd13ifvqc4g","pricing_plan_id":"cebpf4jnsgd1na2vs0mg"},{"bike_id":"92010e35-001c-413b-b100-41980e123c1a","system_id":"levelo_inurba_marseille","lat":43.305989,"lon":5.37225,"is_reserved":false,"is_disabled":false,"rental_uris":{"android":"levelo://app?vid=92010e35-001c-413b-b100-41980e123c1a","ios":"levelo://app?vid=92010e35-001c-413b-b100-41980e123c1a"},"vehicle_type_id":"4","last_reported":1716776636,"current_range_meters":12000,"station_id":"ce4bgqh2rcd13ifvqc4g","pricing_plan_id":"cebpf4jnsgd1na2vs0mg"},{"bike_id":"378a2935-4b7c-4d5b-921b-1dabc98a2b94","system_id":"levelo_inurba_marseille","lat":43.305989,"lon":5.37225,"is_reserved":false,"is_disabled":false,"rental_uris":{"android":"levelo://app?vid=378a2935-4b7c-4d5b-921b-1dabc98a2b94","ios":"levelo://app?vid=378a2935-4b7c-4d5b-921b-1dabc98a2b94"},"vehicle_type_id":"4","last_reported":1716776636,"current_range_meters":5600,"station_id":"ce4bgqh2rcd13ifvqc4g","pricing_plan_id":"cebpf4jnsgd1na2vs0mg"},{"bike_id":"1d607fbe-2bb5-4323-8f09-cb1f03976eae","system_id":"levelo_inurba_marseille","lat":43.311125,"lon":5.377624,"is_reserved":false,"is_disabled":false,"rental_uris":{"android":"levelo://app?vid=1d607fbe-2bb5-4323-8f09-cb1f03976eae","ios":"levelo://app?vid=1d607fbe-2bb5-4323-8f09-cb1f03976eae"},"vehicle_type_id":"4","last_reported":1716776636,"current_range_meters":17200,"station_id":"ce4bgt92rcd13ifvqcg0","pricing_plan_id":"cebpf4jnsgd1na2vs0mg"},{"bike_id":"5994d162-2cd2-432c-bfe4-d91b4b5d06ab","system_id":"levelo_inurba_marseille","lat":43.305989,"lon":5.37225,"is_reserved":false,"is_disabled":false,"rental_uris":{"android":"levelo://app?vid=5994d162-2cd2-432c-bfe4-d91b4b5d06ab","ios":"levelo://app?vid=5994d162-2cd2-432c-bfe4-d91b4b5d06ab"},"vehicle_type_id":"4","last_reported":1716776636,"current_range_meters":10800,"station_id":"ce4bgqh2rcd13ifvqc4g","pricing_plan_id":"cebpf4jnsgd1na2vs0mg"},{"bike_id":"30bc0876-3508-4195-944d-6263c0728467","system_id":"levelo_inurba_marseille","lat":43.311125,"lon":5.377624,"is_reserved":false,"is_disabled":false,"rental_uris":{"android":"levelo://app?vid=30bc0876-3508-4195-944d-6263c0728467","ios":"levelo://app?vid=30bc0876-3508-4195-944d-6263c0728467"},"vehicle_type_id":"4","last_reported":1716776636,"current_range_meters":5200,"station_id":"ce4bgt92rcd13ifvqcg0","pricing_plan_id":"cebpf4jnsgd1na2vs0mg"},{"bike_id":"47f176ea-c8bb-448d-86bb-3267dbcf5781","system_id":"levelo_inurba_marseille","lat":43.311125,"lon":5.377624,"is_reserved":false,"is_disabled":false,"rental_uris":{"android":"levelo://app?vid=47f176ea-c8bb-448d-86bb-3267dbcf5781","ios":"levelo://app?vid=47f176ea-c8bb-448d-86bb-3267dbcf5781"},"vehicle_type_id":"4","last_reported":1716776636,"current_range_meters":4400,"station_id":"ce4bgt92rcd13ifvqcg0","pricing_plan_id":"cebpf4jnsgd1na2vs0mg"},{"bike_id":"1306bd09-c8a5-4d00-ba60-501ed000b077","system_id":"levelo_inurba_marseille","lat":43.311125,"lon":5.377624,"is_reserved":false,"is_disabled":false,"rental_uris":{"android":"levelo://app?vid=1306bd09-c8a5-4d00-ba60-501ed000b077","ios":"levelo://app?vid=1306bd09-c8a5-4d00-ba60-501ed000b077"},"vehicle_type_id":"4","last_reported":1716776636,"current_range_meters":12000,"station_id":"ce4bgt92rcd13ifvqcg0","pricing_plan_id":"cebpf4jnsgd1na2vs0mg"},{"bike_id":"90b88415-2120-48f9-b500-da294b4b999d","system_id":"levelo_inurba_marseille","lat":43.311125,"lon":5.377624,"is_reserved":false,"is_disabled":false,"rental_uris":{"android":"levelo://app?vid=90b88415-2120-48f9-b500-da294b4b999d","ios":"levelo://app?vid=90b88415-2120-48f9-b500-da294b4b999d"},"vehicle_type_id":"4","last_reported":1716776636,"current_range_meters":24800,"station_id":"ce4bgt92rcd13ifvqcg0","pricing_plan_id":"cebpf4jnsgd1na2vs0mg"},{"bike_id":"b88a76a0-86d4-4426-a02f-5f8aae22dce2","system_id":"levelo_inurba_marseille","lat":43.311125,"lon":5.377624,"is_reserved":false,"is_disabled":false,"rental_uris":{"android":"levelo://app?vid=b88a76a0-86d4-4426-a02f-5f8aae22dce2","ios":"levelo://app?vid=b88a76a0-86d4-4426-a02f-5f8aae22dce2"},"vehicle_type_id":"4","last_reported":1716776636,"current_range_meters":0,"station_id":"ce4bgt92rcd13ifvqcg0","pricing_plan_id":"cebpf4jnsgd1na2vs0mg"},{"bike_id":"617f2b8b-b754-43ed-91a4-98c8f6321568","system_id":"levelo_inurba_marseille","lat":43.311125,"lon":5.377624,"is_reserved":false,"is_disabled":false,"rental_uris":{"android":"levelo://app?vid=617f2b8b-b754-43ed-91a4-98c8f6321568","ios":"levelo://app?vid=617f2b8b-b754-43ed-91a4-98c8f6321568"},"vehicle_type_id":"4","last_reported":1716776636,"current_range_meters":14000,"station_id":"ce4bgt92rcd13ifvqcg0","pricing_plan_id":"cebpf4jnsgd1na2vs0mg"},{"bike_id":"cc84d301-96c6-4013-8cad-22b80e016e27","system_id":"levelo_inurba_marseille","lat":43.311125,"lon":5.377624,"is_reserved":false,"is_disabled":false,"rental_uris":{"android":"levelo://app?vid=cc84d301-96c6-4013-8cad-22b80e016e27","ios":"levelo://app?vid=cc84d301-96c6-4013-8cad-22b80e016e27"},"vehicle_type_id":"4","last_reported":1716776636,"current_range_meters":27600,"station_id":"ce4bgt92rcd13ifvqcg0","pricing_plan_id":"cebpf4jnsgd1na2vs0mg"},{"bike_id":"c1caa9a3-f256-48c8-b9d7-f32f35e17347","system_id":"levelo_inurba_marseille","lat":43.311125,"lon":5.377624,"is_reserved":false,"is_disabled":false,"rental_uris":{"android":"levelo://app?vid=c1caa9a3-f256-48c8-b9d7-f32f35e17347","ios":"levelo://app?vid=c1caa9a3-f256-48c8-b9d7-f32f35e17347"},"vehicle_type_id":"4","last_reported":1716776636,"current_range_meters":0,"station_id":"ce4bgt92rcd13ifvqcg0","pricing_plan_id":"cebpf4jnsgd1na2vs0mg"},{"bike_id":"1bded213-cee0-44c2-b15f-706751646f39","system_id":"levelo_inurba_marseille","lat":43.311125,"lon":5.377624,"is_reserved":false,"is_disabled":false,"rental_uris":{"android":"levelo://app?vid=1bded213-cee0-44c2-b15f-706751646f39","ios":"levelo://app?vid=1bded213-cee0-44c2-b15f-706751646f39"},"vehicle_type_id":"4","last_reported":1716776636,"current_range_meters":6400,"station_id":"ce4bgt92rcd13ifvqcg0","pricing_plan_id":"cebpf4jnsgd1na2vs0mg"},{"bike_id":"66d1b0a9-abfe-467f-84eb-aebe78ab1452","system_id":"levelo_inurba_marseille","lat":43.311125,"lon":5.377624,"is_reserved":false,"is_disabled":false,"rental_uris":{"android":"levelo://app?vid=66d1b0a9-abfe-467f-84eb-aebe78ab1452","ios":"levelo://app?vid=66d1b0a9-abfe-467f-84eb-aebe78ab1452"},"vehicle_type_id":"4","last_reported":1716776636,"current_range_meters":11200,"station_id":"ce4bgt92rcd13ifvqcg0","pricing_plan_id":"cebpf4jnsgd1na2vs0mg"},{"bike_id":"7e612ac3-c0cd-4d51-8d68-199255982ba8","system_id":"levelo_inurba_marseille","lat":43.311125,"lon":5.377624,"is_reserved":false,"is_disabled":false,"rental_uris":{"android":"levelo://app?vid=7e612ac3-c0cd-4d51-8d68-199255982ba8","ios":"levelo://app?vid=7e612ac3-c0cd-4d51-8d68-199255982ba8"},"vehicle_type_id":"4","last_reported":1716776636,"current_range_meters":28400,"station_id":"ce4bgt92rcd13ifvqcg0","pricing_plan_id":"cebpf4jnsgd1na2vs0mg"},{"bike_id":"66332500-eb6a-46f2-83a1-baba70308a15","system_id":"levelo_inurba_marseille","lat":43.311125,"lon":5.377624,"is_reserved":false,"is_disabled":false,"rental_uris":{"android":"levelo://app?vid=66332500-eb6a-46f2-83a1-baba70308a15","ios":"levelo://app?vid=66332500-eb6a-46f2-83a1-baba70308a15"},"vehicle_type_id":"4","last_reported":1716776636,"current_range_meters":14800,"station_id":"ce4bgt92rcd13ifvqcg0","pricing_plan_id":"cebpf4jnsgd1na2vs0mg"},{"bike_id":"59eacce8-eac9-4966-b65e-3fc3fc97d8aa","system_id":"levelo_inurba_marseille","lat":43.307945,"lon":5.376487,"is_reserved":false,"is_disabled":false,"rental_uris":{"android":"levelo://app?vid=59eacce8-eac9-4966-b65e-3fc3fc97d8aa","ios":"levelo://app?vid=59eacce8-eac9-4966-b65e-3fc3fc97d8aa"},"vehicle_type_id":"4","last_reported":1716776636,"current_range_meters":26000,"station_id":"ce4bgv92rcd13ifvqcq0","pricing_plan_id":"cebpf4jnsgd1na2vs0mg"},{"bike_id":"26ba1f07-836d-408c-b1be-1468ffdb9a57","system_id":"levelo_inurba_marseille","lat":43.30787,"lon":5.37649,"is_reserved":false,"is_disabled":false,"rental_uris":{"android":"levelo://app?vid=26ba1f07-836d-408c-b1be-1468ffdb9a57","ios":"levelo://app?vid=26ba1f07-836d-408c-b1be-1468ffdb9a57"},"vehicle_type_id":"4","last_reported":1716776636,"current_range_meters":9200,"station_id":"ce4bgv92rcd13ifvqcq0","pricing_plan_id":"cebpf4jnsgd1na2vs0mg"},{"bike_id":"f7cb5250-f2db-4a7d-a74e-1f9a963be23e","system_id":"levelo_inurba_marseille","lat":43.307945,"lon":5.376487,"is_reserved":false,"is_disabled":false,"rental_uris":{"android":"levelo://app?vid=f7cb5250-f2db-4a7d-a74e-1f9a963be23e","ios":"levelo://app?vid=f7cb5250-f2db-4a7d-a74e-1f9a963be23e"},"vehicle_type_id":"4","last_reported":1716776636,"current_range_meters":31200,"station_id":"ce4bgv92rcd13ifvqcq0","pricing_plan_id":"cebpf4jnsgd1na2vs0mg"},{"bike_id":"ebe57eae-e52a-42f3-865c-57871f12c9ee","system_id":"levelo_inurba_marseille","lat":43.317075,"lon":5.377367,"is_reserved":false,"is_disabled":false,"rental_uris":{"android":"levelo://app?vid=ebe57eae-e52a-42f3-865c-57871f12c9ee","ios":"levelo://app?vid=ebe57eae-e52a-42f3-865c-57871f12c9ee"},"vehicle_type_id":"4","last_reported":1716776636,"current_range_meters":31600,"station_id":"ce4bgth2rcd13ifvqch0","pricing_plan_id":"cebpf4jnsgd1na2vs0mg"},{"bike_id":"f86c175d-c86f-4ed6-bfa2-0bb3a023adda","system_id":"levelo_inurba_marseille","lat":43.317075,"lon":5.377367,"is_reserved":false,"is_disabled":false,"rental_uris":{"android":"levelo://app?vid=f86c175d-c86f-4ed6-bfa2-0bb3a023adda","ios":"levelo://app?vid=f86c175d-c86f-4ed6-bfa2-0bb3a023adda"},"vehicle_type_id":"4","last_reported":1716776636,"current_range_meters":24400,"station_id":"ce4bgth2rcd13ifvqch0","pricing_plan_id":"cebpf4jnsgd1na2vs0mg"},{"bike_id":"a669a5d0-795f-4f76-b398-2b768f2fe67f","system_id":"levelo_inurba_marseille","lat":43.317075,"lon":5.377367,"is_reserved":false,"is_disabled":false,"rental_uris":{"android":"levelo://app?vid=a669a5d0-795f-4f76-b398-2b768f2fe67f","ios":"levelo://app?vid=a669a5d0-795f-4f76-b398-2b768f2fe67f"},"vehicle_type_id":"4","last_reported":1716776636,"current_range_meters":28000,"station_id":"ce4bgth2rcd13ifvqch0","pricing_plan_id":"cebpf4jnsgd1na2vs0mg"},{"bike_id":"46fe6b47-e253-46a4-a770-5f44d93d3009","system_id":"levelo_inurba_marseille","lat":43.315289,"lon":5.380349,"is_reserved":false,"is_disabled":false,"rental_uris":{"android":"levelo://app?vid=46fe6b47-e253-46a4-a770-5f44d93d3009","ios":"levelo://app?vid=46fe6b47-e253-46a4-a770-5f44d93d3009"},"vehicle_type_id":"4","last_reported":1716776636,"current_range_meters":28000,"station_id":"ce4bhsp2rcd13ifvqi50","pricing_plan_id":"cebpf4jnsgd1na2vs0mg"},{"bike_id":"63819c56-a302-48e9-875a-1ba5aa04c41f","system_id":"levelo_inurba_marseille","lat":43.315289,"lon":5.380349,"is_reserved":false,"is_disabled":false,"rental_uris":{"android":"levelo://app?vid=63819c56-a302-48e9-875a-1ba5aa04c41f","ios":"levelo://app?vid=63819c56-a302-48e9-875a-1ba5aa04c41f"},"vehicle_type_id":"4","last_reported":1716776636,"current_range_meters":14000,"station_id":"ce4bhsp2rcd13ifvqi50","pricing_plan_id":"cebpf4jnsgd1na2vs0mg"},{"bike_id":"099b37c7-d3fa-4bbe-9bf9-61684766edc1","system_id":"levelo_inurba_marseille","lat":43.315289,"lon":5.380349,"is_reserved":false,"is_disabled":false,"rental_uris":{"android":"levelo://app?vid=099b37c7-d3fa-4bbe-9bf9-61684766edc1","ios":"levelo://app?vid=099b37c7-d3fa-4bbe-9bf9-61684766edc1"},"vehicle_type_id":"4","last_reported":1716776636,"current_range_meters":17200,"station_id":"ce4bhsp2rcd13ifvqi50","pricing_plan_id":"cebpf4jnsgd1na2vs0mg"},{"bike_id":"47a8d8e9-7c99-4cb0-82b6-5811cf834d5e","system_id":"levelo_inurba_marseille","lat":43.315289,"lon":5.380349,"is_reserved":false,"is_disabled":false,"rental_uris":{"android":"levelo://app?vid=47a8d8e9-7c99-4cb0-82b6-5811cf834d5e","ios":"levelo://app?vid=47a8d8e9-7c99-4cb0-82b6-5811cf834d5e"},"vehicle_type_id":"4","last_reported":1716776636,"current_range_meters":0,"station_id":"ce4bhsp2rcd13ifvqi50","pricing_plan_id":"cebpf4jnsgd1na2vs0mg"},{"bike_id":"30aa0361-3f26-434c-8d90-5f80510835a2","system_id":"levelo_inurba_marseille","lat":43.315289,"lon":5.380349,"is_reserved":false,"is_disabled":false,"rental_uris":{"android":"levelo://app?vid=30aa0361-3f26-434c-8d90-5f80510835a2","ios":"levelo://app?vid=30aa0361-3f26-434c-8d90-5f80510835a2"},"vehicle_type_id":"4","last_reported":1716776636,"current_range_meters":12800,"station_id":"ce4bhsp2rcd13ifvqi50","pricing_plan_id":"cebpf4jnsgd1na2vs0mg"},{"bike_id":"8279c4b8-0e61-4e81-bc63-e6de93b9ccad","system_id":"levelo_inurba_marseille","lat":43.301939,"lon":5.366286,"is_reserved":false,"is_disabled":false,"rental_uris":{"android":"levelo://app?vid=8279c4b8-0e61-4e81-bc63-e6de93b9ccad","ios":"levelo://app?vid=8279c4b8-0e61-4e81-bc63-e6de93b9ccad"},"vehicle_type_id":"4","last_reported":1716776636,"current_range_meters":24400,"station_id":"ce4bgrh2rcd13ifvqc8g","pricing_plan_id":"cebpf4jnsgd1na2vs0mg"},{"bike_id":"0f8b78a9-2859-45d1-8da9-e963af3d8a4f","system_id":"levelo_inurba_marseille","lat":43.301939,"lon":5.366286,"is_reserved":false,"is_disabled":false,"rental_uris":{"android":"levelo://app?vid=0f8b78a9-2859-45d1-8da9-e963af3d8a4f","ios":"levelo://app?vid=0f8b78a9-2859-45d1-8da9-e963af3d8a4f"},"vehicle_type_id":"4","last_reported":1716776636,"current_range_meters":22800,"station_id":"ce4bgrh2rcd13ifvqc8g","pricing_plan_id":"cebpf4jnsgd1na2vs0mg"},{"bike_id":"ed38837c-dc88-46db-90f8-799b290a007b","system_id":"levelo_inurba_marseille","lat":43.30817,"lon":5.3815,"is_reserved":false,"is_disabled":false,"rental_uris":{"android":"levelo://app?vid=ed38837c-dc88-46db-90f8-799b290a007b","ios":"levelo://app?vid=ed38837c-dc88-46db-90f8-799b290a007b"},"vehicle_type_id":"4","last_reported":1716776636,"current_range_meters":22400,"station_id":"ce4bgt12rcd13ifvqce0","pricing_plan_id":"cebpf4jnsgd1na2vs0mg"},{"bike_id":"069a2217-8271-4965-bd93-357d188afd12","system_id":"levelo_inurba_marseille","lat":43.308012,"lon":5.381511,"is_reserved":false,"is_disabled":false,"rental_uris":{"android":"levelo://app?vid=069a2217-8271-4965-bd93-357d188afd12","ios":"levelo://app?vid=069a2217-8271-4965-bd93-357d188afd12"},"vehicle_type_id":"4","last_reported":1716776636,"current_range_meters":31200,"station_id":"ce4bgt12rcd13ifvqce0","pricing_plan_id":"cebpf4jnsgd1na2vs0mg"},{"bike_id":"1f81c4af-384c-4945-b77d-6b349d7591aa","system_id":"levelo_inurba_marseille","lat":43.308012,"lon":5.381511,"is_reserved":false,"is_disabled":false,"rental_uris":{"android":"levelo://app?vid=1f81c4af-384c-4945-b77d-6b349d7591aa","ios":"levelo://app?vid=1f81c4af-384c-4945-b77d-6b349d7591aa"},"vehicle_type_id":"4","last_reported":1716776636,"current_range_meters":20400,"station_id":"ce4bgt12rcd13ifvqce0","pricing_plan_id":"cebpf4jnsgd1na2vs0mg"},{"bike_id":"d3c1d5ba-ac4c-4832-a929-b13aff3a72bc","system_id":"levelo_inurba_marseille","lat":43.308012,"lon":5.381511,"is_reserved":false,"is_disabled":false,"rental_uris":{"android":"levelo://app?vid=d3c1d5ba-ac4c-4832-a929-b13aff3a72bc","ios":"levelo://app?vid=d3c1d5ba-ac4c-4832-a929-b13aff3a72bc"},"vehicle_type_id":"4","last_reported":1716776636,"current_range_meters":14000,"station_id":"ce4bgt12rcd13ifvqce0","pricing_plan_id":"cebpf4jnsgd1na2vs0mg"},{"bike_id":"da028dfc-d177-4459-ae29-405d042adac4","system_id":"levelo_inurba_marseille","lat":43.308012,"lon":5.381511,"is_reserved":false,"is_disabled":false,"rental_uris":{"android":"levelo://app?vid=da028dfc-d177-4459-ae29-405d042adac4","ios":"levelo://app?vid=da028dfc-d177-4459-ae29-405d042adac4"},"vehicle_type_id":"4","last_reported":1716776636,"current_range_meters":26400,"station_id":"ce4bgt12rcd13ifvqce0","pricing_plan_id":"cebpf4jnsgd1na2vs0mg"},{"bike_id":"777569e5-5aa5-4612-b81c-df8da1a42d7e","system_id":"levelo_inurba_marseille","lat":43.308012,"lon":5.381511,"is_reserved":false,"is_disabled":false,"rental_uris":{"android":"levelo://app?vid=777569e5-5aa5-4612-b81c-df8da1a42d7e","ios":"levelo://app?vid=777569e5-5aa5-4612-b81c-df8da1a42d7e"},"vehicle_type_id":"4","last_reported":1716776636,"current_range_meters":11200,"station_id":"ce4bgt12rcd13ifvqce0","pricing_plan_id":"cebpf4jnsgd1na2vs0mg"},{"bike_id":"af5ec80a-c8d4-4d8e-b4d0-a763b4179bce","system_id":"levelo_inurba_marseille","lat":43.308012,"lon":5.381511,"is_reserved":false,"is_disabled":false,"rental_uris":{"android":"levelo://app?vid=af5ec80a-c8d4-4d8e-b4d0-a763b4179bce","ios":"levelo://app?vid=af5ec80a-c8d4-4d8e-b4d0-a763b4179bce"},"vehicle_type_id":"4","last_reported":1716776636,"current_range_meters":29600,"station_id":"ce4bgt12rcd13ifvqce0","pricing_plan_id":"cebpf4jnsgd1na2vs0mg"},{"bike_id":"6be212b2-dce1-4558-a8c8-7b788cdde283","system_id":"levelo_inurba_marseille","lat":43.30796,"lon":5.381556,"is_reserved":false,"is_disabled":false,"rental_uris":{"android":"levelo://app?vid=6be212b2-dce1-4558-a8c8-7b788cdde283","ios":"levelo://app?vid=6be212b2-dce1-4558-a8c8-7b788cdde283"},"vehicle_type_id":"4","last_reported":1716776636,"current_range_meters":2800,"station_id":"ce4bgt12rcd13ifvqce0","pricing_plan_id":"cebpf4jnsgd1na2vs0mg"},{"bike_id":"d90236b8-7cdc-4bd2-bfb0-e9791154bb55","system_id":"levelo_inurba_marseille","lat":43.308012,"lon":5.381511,"is_reserved":false,"is_disabled":false,"rental_uris":{"android":"levelo://app?vid=d90236b8-7cdc-4bd2-bfb0-e9791154bb55","ios":"levelo://app?vid=d90236b8-7cdc-4bd2-bfb0-e9791154bb55"},"vehicle_type_id":"4","last_reported":1716776636,"current_range_meters":31600,"station_id":"ce4bgt12rcd13ifvqce0","pricing_plan_id":"cebpf4jnsgd1na2vs0mg"},{"bike_id":"b5a64035-88df-4c00-8000-fef81e2383ce","system_id":"levelo_inurba_marseille","lat":43.308012,"lon":5.381511,"is_reserved":false,"is_disabled":false,"rental_uris":{"android":"levelo://app?vid=b5a64035-88df-4c00-8000-fef81e2383ce","ios":"levelo://app?vid=b5a64035-88df-4c00-8000-fef81e2383ce"},"vehicle_type_id":"4","last_reported":1716776636,"current_range_meters":19600,"station_id":"ce4bgt12rcd13ifvqce0","pricing_plan_id":"cebpf4jnsgd1na2vs0mg"},{"bike_id":"c12c4351-e04e-43ea-9b7a-3404d4e8899a","system_id":"levelo_inurba_marseille","lat":43.307941,"lon":5.381585,"is_reserved":false,"is_disabled":false,"rental_uris":{"android":"levelo://app?vid=c12c4351-e04e-43ea-9b7a-3404d4e8899a","ios":"levelo://app?vid=c12c4351-e04e-43ea-9b7a-3404d4e8899a"},"vehicle_type_id":"4","last_reported":1716776636,"current_range_meters":19200,"station_id":"ce4bgt12rcd13ifvqce0","pricing_plan_id":"cebpf4jnsgd1na2vs0mg"},{"bike_id":"94d69b96-0b73-4800-9e9b-346a5edf5e66","system_id":"levelo_inurba_marseille","lat":43.304606,"lon":5.379026,"is_reserved":false,"is_disabled":false,"rental_uris":{"android":"levelo://app?vid=94d69b96-0b73-4800-9e9b-346a5edf5e66","ios":"levelo://app?vid=94d69b96-0b73-4800-9e9b-346a5edf5e66"},"vehicle_type_id":"4","last_reported":1716776636,"current_range_meters":20400,"station_id":"ce4bgup2rcd13ifvqcn0","pricing_plan_id":"cebpf4jnsgd1na2vs0mg"},{"bike_id":"5215c5d2-05ed-477a-866d-ccd71e269acf","system_id":"levelo_inurba_marseille","lat":43.304606,"lon":5.379026,"is_reserved":false,"is_disabled":false,"rental_uris":{"android":"levelo://app?vid=5215c5d2-05ed-477a-866d-ccd71e269acf","ios":"levelo://app?vid=5215c5d2-05ed-477a-866d-ccd71e269acf"},"vehicle_type_id":"4","last_reported":1716776636,"current_range_meters":26400,"station_id":"ce4bgup2rcd13ifvqcn0","pricing_plan_id":"cebpf4jnsgd1na2vs0mg"},{"bike_id":"72ba4090-3817-4ac9-a00a-506384b53c7f","system_id":"levelo_inurba_marseille","lat":43.32479,"lon":5.365825,"is_reserved":false,"is_disabled":false,"rental_uris":{"android":"levelo://app?vid=72ba4090-3817-4ac9-a00a-506384b53c7f","ios":"levelo://app?vid=72ba4090-3817-4ac9-a00a-506384b53c7f"},"vehicle_type_id":"4","last_reported":1716776636,"current_range_meters":28000,"station_id":"ce4bhs12rcd13ifvqhvg","pricing_plan_id":"cebpf4jnsgd1na2vs0mg"},{"bike_id":"fd2f74f3-2a58-47fe-b3f7-a5034c71e7ce","system_id":"levelo_inurba_marseille","lat":43.324771,"lon":5.36557,"is_reserved":false,"is_disabled":false,"rental_uris":{"android":"levelo://app?vid=fd2f74f3-2a58-47fe-b3f7-a5034c71e7ce","ios":"levelo://app?vid=fd2f74f3-2a58-47fe-b3f7-a5034c71e7ce"},"vehicle_type_id":"4","last_reported":1716776636,"current_range_meters":4800,"station_id":"ce4bhs12rcd13ifvqhvg","pricing_plan_id":"cebpf4jnsgd1na2vs0mg"},{"bike_id":"ce8d01f0-a598-451e-9a85-88e95d384297","system_id":"levelo_inurba_marseille","lat":43.3248,"lon":5.365609,"is_reserved":false,"is_disabled":false,"rental_uris":{"android":"levelo://app?vid=ce8d01f0-a598-451e-9a85-88e95d384297","ios":"levelo://app?vid=ce8d01f0-a598-451e-9a85-88e95d384297"},"vehicle_type_id":"4","last_reported":1716776636,"current_range_meters":14800,"station_id":"ce4bhs12rcd13ifvqhvg","pricing_plan_id":"cebpf4jnsgd1na2vs0mg"},{"bike_id":"1dd036a0-faa0-4463-816f-60690e76335a","system_id":"levelo_inurba_marseille","lat":43.324771,"lon":5.36557,"is_reserved":false,"is_disabled":false,"rental_uris":{"android":"levelo://app?vid=1dd036a0-faa0-4463-816f-60690e76335a","ios":"levelo://app?vid=1dd036a0-faa0-4463-816f-60690e76335a"},"vehicle_type_id":"4","last_reported":1716776636,"current_range_meters":5200,"station_id":"ce4bhs12rcd13ifvqhvg","pricing_plan_id":"cebpf4jnsgd1na2vs0mg"},{"bike_id":"50c9a0f7-feb2-46c1-a69a-845036d6b996","system_id":"levelo_inurba_marseille","lat":43.324771,"lon":5.36557,"is_reserved":false,"is_disabled":false,"rental_uris":{"android":"levelo://app?vid=50c9a0f7-feb2-46c1-a69a-845036d6b996","ios":"levelo://app?vid=50c9a0f7-feb2-46c1-a69a-845036d6b996"},"vehicle_type_id":"4","last_reported":1716776636,"current_range_meters":7200,"station_id":"ce4bhs12rcd13ifvqhvg","pricing_plan_id":"cebpf4jnsgd1na2vs0mg"},{"bike_id":"fb5ded77-d4c0-4eba-bb01-7f13c06bb809","system_id":"levelo_inurba_marseille","lat":43.324771,"lon":5.36557,"is_reserved":false,"is_disabled":false,"rental_uris":{"android":"levelo://app?vid=fb5ded77-d4c0-4eba-bb01-7f13c06bb809","ios":"levelo://app?vid=fb5ded77-d4c0-4eba-bb01-7f13c06bb809"},"vehicle_type_id":"4","last_reported":1716776636,"current_range_meters":4800,"station_id":"ce4bhs12rcd13ifvqhvg","pricing_plan_id":"cebpf4jnsgd1na2vs0mg"},{"bike_id":"70dfc74b-26b0-4858-ae25-514c1c582bf3","system_id":"levelo_inurba_marseille","lat":43.324771,"lon":5.36557,"is_reserved":false,"is_disabled":false,"rental_uris":{"android":"levelo://app?vid=70dfc74b-26b0-4858-ae25-514c1c582bf3","ios":"levelo://app?vid=70dfc74b-26b0-4858-ae25-514c1c582bf3"},"vehicle_type_id":"4","last_reported":1716776636,"current_range_meters":2800,"station_id":"ce4bhs12rcd13ifvqhvg","pricing_plan_id":"cebpf4jnsgd1na2vs0mg"},{"bike_id":"08f51f86-5663-4109-bf0a-2d4ff3d1a4fe","system_id":"levelo_inurba_marseille","lat":43.324771,"lon":5.36557,"is_reserved":false,"is_disabled":false,"rental_uris":{"android":"levelo://app?vid=08f51f86-5663-4109-bf0a-2d4ff3d1a4fe","ios":"levelo://app?vid=08f51f86-5663-4109-bf0a-2d4ff3d1a4fe"},"vehicle_type_id":"4","last_reported":1716776636,"current_range_meters":10400,"station_id":"ce4bhs12rcd13ifvqhvg","pricing_plan_id":"cebpf4jnsgd1na2vs0mg"},{"bike_id":"ae902b6c-7d94-4442-b3dd-6b4c3b9e41f1","system_id":"levelo_inurba_marseille","lat":43.310804,"lon":5.38359,"is_reserved":false,"is_disabled":false,"rental_uris":{"android":"levelo://app?vid=ae902b6c-7d94-4442-b3dd-6b4c3b9e41f1","ios":"levelo://app?vid=ae902b6c-7d94-4442-b3dd-6b4c3b9e41f1"},"vehicle_type_id":"4","last_reported":1716776636,"current_range_meters":8000,"station_id":"ce4bgv92rcd13ifvqcr0","pricing_plan_id":"cebpf4jnsgd1na2vs0mg"},{"bike_id":"82edd6dc-da8f-47f3-b893-b53793b0dba4","system_id":"levelo_inurba_marseille","lat":43.310668,"lon":5.383452,"is_reserved":false,"is_disabled":false,"rental_uris":{"android":"levelo://app?vid=82edd6dc-da8f-47f3-b893-b53793b0dba4","ios":"levelo://app?vid=82edd6dc-da8f-47f3-b893-b53793b0dba4"},"vehicle_type_id":"4","last_reported":1716776636,"current_range_meters":18800,"station_id":"ce4bgv92rcd13ifvqcr0","pricing_plan_id":"cebpf4jnsgd1na2vs0mg"},{"bike_id":"a0a58c07-9831-4ea4-8b5c-f2459e8590e2","system_id":"levelo_inurba_marseille","lat":43.3107,"lon":5.383484,"is_reserved":false,"is_disabled":false,"rental_uris":{"android":"levelo://app?vid=a0a58c07-9831-4ea4-8b5c-f2459e8590e2","ios":"levelo://app?vid=a0a58c07-9831-4ea4-8b5c-f2459e8590e2"},"vehicle_type_id":"4","last_reported":1716776636,"current_range_meters":15600,"station_id":"ce4bgv92rcd13ifvqcr0","pricing_plan_id":"cebpf4jnsgd1na2vs0mg"},{"bike_id":"38376c7f-cd69-42ba-a2b5-eb169c9ca56e","system_id":"levelo_inurba_marseille","lat":43.310741,"lon":5.383529,"is_reserved":false,"is_disabled":false,"rental_uris":{"android":"levelo://app?vid=38376c7f-cd69-42ba-a2b5-eb169c9ca56e","ios":"levelo://app?vid=38376c7f-cd69-42ba-a2b5-eb169c9ca56e"},"vehicle_type_id":"4","last_reported":1716776636,"current_range_meters":18800,"station_id":"ce4bgv92rcd13ifvqcr0","pricing_plan_id":"cebpf4jnsgd1na2vs0mg"},{"bike_id":"38093b7a-11b2-4529-871d-54c52f36b738","system_id":"levelo_inurba_marseille","lat":43.31064,"lon":5.38352,"is_reserved":false,"is_disabled":false,"rental_uris":{"android":"levelo://app?vid=38093b7a-11b2-4529-871d-54c52f36b738","ios":"levelo://app?vid=38093b7a-11b2-4529-871d-54c52f36b738"},"vehicle_type_id":"4","last_reported":1716776636,"current_range_meters":18000,"station_id":"","pricing_plan_id":"cebpf4jnsgd1na2vs0mg"},{"bike_id":"6e59b8d2-00dd-4477-957d-02e10232387e","system_id":"levelo_inurba_marseille","lat":43.319951,"lon":5.381498,"is_reserved":false,"is_disabled":false,"rental_uris":{"android":"levelo://app?vid=6e59b8d2-00dd-4477-957d-02e10232387e","ios":"levelo://app?vid=6e59b8d2-00dd-4477-957d-02e10232387e"},"vehicle_type_id":"4","last_reported":1716776636,"current_range_meters":10800,"station_id":"ce4bhr12rcd13ifvqhpg","pricing_plan_id":"cebpf4jnsgd1na2vs0mg"},{"bike_id":"a8de7543-0921-4ddc-905e-73c4b3409e90","system_id":"levelo_inurba_marseille","lat":43.31999,"lon":5.38147,"is_reserved":false,"is_disabled":false,"rental_uris":{"android":"levelo://app?vid=a8de7543-0921-4ddc-905e-73c4b3409e90","ios":"levelo://app?vid=a8de7543-0921-4ddc-905e-73c4b3409e90"},"vehicle_type_id":"4","last_reported":1716776636,"current_range_meters":400,"station_id":"ce4bhr12rcd13ifvqhpg","pricing_plan_id":"cebpf4jnsgd1na2vs0mg"},{"bike_id":"64514a2d-3a5e-4d83-b334-d35229e36325","system_id":"levelo_inurba_marseille","lat":43.319935,"lon":5.381699,"is_reserved":false,"is_disabled":false,"rental_uris":{"android":"levelo://app?vid=64514a2d-3a5e-4d83-b334-d35229e36325","ios":"levelo://app?vid=64514a2d-3a5e-4d83-b334-d35229e36325"},"vehicle_type_id":"4","last_reported":1716776636,"current_range_meters":1600,"station_id":"ce4bhr12rcd13ifvqhpg","pricing_plan_id":"cebpf4jnsgd1na2vs0mg"},{"bike_id":"79e88175-ec3d-4464-90ad-5c55eaf5459c","system_id":"levelo_inurba_marseille","lat":43.320064,"lon":5.381513,"is_reserved":false,"is_disabled":false,"rental_uris":{"android":"levelo://app?vid=79e88175-ec3d-4464-90ad-5c55eaf5459c","ios":"levelo://app?vid=79e88175-ec3d-4464-90ad-5c55eaf5459c"},"vehicle_type_id":"4","last_reported":1716776636,"current_range_meters":15200,"station_id":"ce4bhr12rcd13ifvqhpg","pricing_plan_id":"cebpf4jnsgd1na2vs0mg"},{"bike_id":"14f31480-3ab1-4d15-b5bf-25e349ea9b80","system_id":"levelo_inurba_marseille","lat":43.319935,"lon":5.381699,"is_reserved":false,"is_disabled":false,"rental_uris":{"android":"levelo://app?vid=14f31480-3ab1-4d15-b5bf-25e349ea9b80","ios":"levelo://app?vid=14f31480-3ab1-4d15-b5bf-25e349ea9b80"},"vehicle_type_id":"4","last_reported":1716776636,"current_range_meters":400,"station_id":"ce4bhr12rcd13ifvqhpg","pricing_plan_id":"cebpf4jnsgd1na2vs0mg"},{"bike_id":"11f79a7f-663e-404c-a2c9-42531568a579","system_id":"levelo_inurba_marseille","lat":43.319935,"lon":5.381699,"is_reserved":false,"is_disabled":false,"rental_uris":{"android":"levelo://app?vid=11f79a7f-663e-404c-a2c9-42531568a579","ios":"levelo://app?vid=11f79a7f-663e-404c-a2c9-42531568a579"},"vehicle_type_id":"4","last_reported":1716776636,"current_range_meters":20800,"station_id":"ce4bhr12rcd13ifvqhpg","pricing_plan_id":"cebpf4jnsgd1na2vs0mg"},{"bike_id":"c8cd24b4-3cd9-40f4-887a-d71dfb0356cf","system_id":"levelo_inurba_marseille","lat":43.313571,"lon":5.384829,"is_reserved":false,"is_disabled":false,"rental_uris":{"android":"levelo://app?vid=c8cd24b4-3cd9-40f4-887a-d71dfb0356cf","ios":"levelo://app?vid=c8cd24b4-3cd9-40f4-887a-d71dfb0356cf"},"vehicle_type_id":"4","last_reported":1716776636,"current_range_meters":28800,"station_id":"ce4bgt92rcd13ifvqcf0","pricing_plan_id":"cebpf4jnsgd1na2vs0mg"},{"bike_id":"1c8cb111-9ca3-4d99-a3f8-0c4516c42a3a","system_id":"levelo_inurba_marseille","lat":43.313571,"lon":5.384829,"is_reserved":false,"is_disabled":false,"rental_uris":{"android":"levelo://app?vid=1c8cb111-9ca3-4d99-a3f8-0c4516c42a3a","ios":"levelo://app?vid=1c8cb111-9ca3-4d99-a3f8-0c4516c42a3a"},"vehicle_type_id":"4","last_reported":1716776636,"current_range_meters":16000,"station_id":"ce4bgt92rcd13ifvqcf0","pricing_plan_id":"cebpf4jnsgd1na2vs0mg"},{"bike_id":"35c76093-8c96-4347-9c65-bbf06b912de2","system_id":"levelo_inurba_marseille","lat":43.313571,"lon":5.384829,"is_reserved":false,"is_disabled":false,"rental_uris":{"android":"levelo://app?vid=35c76093-8c96-4347-9c65-bbf06b912de2","ios":"levelo://app?vid=35c76093-8c96-4347-9c65-bbf06b912de2"},"vehicle_type_id":"4","last_reported":1716776636,"current_range_meters":29600,"station_id":"ce4bgt92rcd13ifvqcf0","pricing_plan_id":"cebpf4jnsgd1na2vs0mg"},{"bike_id":"9de28f09-bd9a-41af-a1a4-b5f61dcd5983","system_id":"levelo_inurba_marseille","lat":43.313603,"lon":5.384967,"is_reserved":false,"is_disabled":false,"rental_uris":{"android":"levelo://app?vid=9de28f09-bd9a-41af-a1a4-b5f61dcd5983","ios":"levelo://app?vid=9de28f09-bd9a-41af-a1a4-b5f61dcd5983"},"vehicle_type_id":"4","last_reported":1716776636,"current_range_meters":8400,"station_id":"ce4bgt92rcd13ifvqcf0","pricing_plan_id":"cebpf4jnsgd1na2vs0mg"},{"bike_id":"6b919cc9-343b-4cb0-8e69-3c5c67a7402b","system_id":"levelo_inurba_marseille","lat":43.313571,"lon":5.384829,"is_reserved":false,"is_disabled":false,"rental_uris":{"android":"levelo://app?vid=6b919cc9-343b-4cb0-8e69-3c5c67a7402b","ios":"levelo://app?vid=6b919cc9-343b-4cb0-8e69-3c5c67a7402b"},"vehicle_type_id":"4","last_reported":1716776636,"current_range_meters":21600,"station_id":"ce4bgt92rcd13ifvqcf0","pricing_plan_id":"cebpf4jnsgd1na2vs0mg"},{"bike_id":"de26a1f7-2c26-4fc6-b7a3-4f35a4dc53ca","system_id":"levelo_inurba_marseille","lat":43.313571,"lon":5.384829,"is_reserved":false,"is_disabled":false,"rental_uris":{"android":"levelo://app?vid=de26a1f7-2c26-4fc6-b7a3-4f35a4dc53ca","ios":"levelo://app?vid=de26a1f7-2c26-4fc6-b7a3-4f35a4dc53ca"},"vehicle_type_id":"4","last_reported":1716776636,"current_range_meters":31200,"station_id":"ce4bgt92rcd13ifvqcf0","pricing_plan_id":"cebpf4jnsgd1na2vs0mg"},{"bike_id":"412d1114-79f6-4b89-804d-6d10e5a670e9","system_id":"levelo_inurba_marseille","lat":43.313571,"lon":5.384829,"is_reserved":false,"is_disabled":false,"rental_uris":{"android":"levelo://app?vid=412d1114-79f6-4b89-804d-6d10e5a670e9","ios":"levelo://app?vid=412d1114-79f6-4b89-804d-6d10e5a670e9"},"vehicle_type_id":"4","last_reported":1716776636,"current_range_meters":12800,"station_id":"ce4bgt92rcd13ifvqcf0","pricing_plan_id":"cebpf4jnsgd1na2vs0mg"},{"bike_id":"09a1dbe9-c782-476f-ae9a-a2a92181b4fe","system_id":"levelo_inurba_marseille","lat":43.313571,"lon":5.384829,"is_reserved":false,"is_disabled":false,"rental_uris":{"android":"levelo://app?vid=09a1dbe9-c782-476f-ae9a-a2a92181b4fe","ios":"levelo://app?vid=09a1dbe9-c782-476f-ae9a-a2a92181b4fe"},"vehicle_type_id":"4","last_reported":1716776636,"current_range_meters":10000,"station_id":"ce4bgt92rcd13ifvqcf0","pricing_plan_id":"cebpf4jnsgd1na2vs0mg"},{"bike_id":"30ec8642-eb63-4acd-8c38-374608f928a4","system_id":"levelo_inurba_marseille","lat":43.313571,"lon":5.384829,"is_reserved":false,"is_disabled":false,"rental_uris":{"android":"levelo://app?vid=30ec8642-eb63-4acd-8c38-374608f928a4","ios":"levelo://app?vid=30ec8642-eb63-4acd-8c38-374608f928a4"},"vehicle_type_id":"4","last_reported":1716776636,"current_range_meters":18000,"station_id":"ce4bgt92rcd13ifvqcf0","pricing_plan_id":"cebpf4jnsgd1na2vs0mg"},{"bike_id":"6149c101-cc33-434c-a0ed-1c0813aa372e","system_id":"levelo_inurba_marseille","lat":43.299222,"lon":5.365554,"is_reserved":false,"is_disabled":false,"rental_uris":{"android":"levelo://app?vid=6149c101-cc33-434c-a0ed-1c0813aa372e","ios":"levelo://app?vid=6149c101-cc33-434c-a0ed-1c0813aa372e"},"vehicle_type_id":"4","last_reported":1716776636,"current_range_meters":0,"station_id":"ce4bgm92rcd13ifvqbr0","pricing_plan_id":"cebpf4jnsgd1na2vs0mg"},{"bike_id":"21302cbf-3970-46d7-894f-84e74a25697b","system_id":"levelo_inurba_marseille","lat":43.299222,"lon":5.365554,"is_reserved":false,"is_disabled":false,"rental_uris":{"android":"levelo://app?vid=21302cbf-3970-46d7-894f-84e74a25697b","ios":"levelo://app?vid=21302cbf-3970-46d7-894f-84e74a25697b"},"vehicle_type_id":"4","last_reported":1716776636,"current_range_meters":6400,"station_id":"ce4bgm92rcd13ifvqbr0","pricing_plan_id":"cebpf4jnsgd1na2vs0mg"},{"bike_id":"05546636-ce21-4a93-84ec-4dbd940289b5","system_id":"levelo_inurba_marseille","lat":43.29936,"lon":5.3655,"is_reserved":false,"is_disabled":false,"rental_uris":{"android":"levelo://app?vid=05546636-ce21-4a93-84ec-4dbd940289b5","ios":"levelo://app?vid=05546636-ce21-4a93-84ec-4dbd940289b5"},"vehicle_type_id":"4","last_reported":1716776636,"current_range_meters":16800,"station_id":"","pricing_plan_id":"cebpf4jnsgd1na2vs0mg"},{"bike_id":"7c0279c4-785e-41cc-9875-11b1aa5697b0","system_id":"levelo_inurba_marseille","lat":43.298433,"lon":5.362774,"is_reserved":false,"is_disabled":false,"rental_uris":{"android":"levelo://app?vid=7c0279c4-785e-41cc-9875-11b1aa5697b0","ios":"levelo://app?vid=7c0279c4-785e-41cc-9875-11b1aa5697b0"},"vehicle_type_id":"4","last_reported":1716776636,"current_range_meters":30000,"station_id":"ce4bgpp2rcd13ifvqc3g","pricing_plan_id":"cebpf4jnsgd1na2vs0mg"},{"bike_id":"57ae5ab3-4123-4c63-a456-24354d2868a0","system_id":"levelo_inurba_marseille","lat":43.311722,"lon":5.387247,"is_reserved":false,"is_disabled":false,"rental_uris":{"android":"levelo://app?vid=57ae5ab3-4123-4c63-a456-24354d2868a0","ios":"levelo://app?vid=57ae5ab3-4123-4c63-a456-24354d2868a0"},"vehicle_type_id":"4","last_reported":1716776636,"current_range_meters":18800,"station_id":"ce4bgv12rcd13ifvqcp0","pricing_plan_id":"cebpf4jnsgd1na2vs0mg"},{"bike_id":"89d27253-6e34-4f88-8685-8e6c5a4b6afb","system_id":"levelo_inurba_marseille","lat":43.31171,"lon":5.38706,"is_reserved":false,"is_disabled":false,"rental_uris":{"android":"levelo://app?vid=89d27253-6e34-4f88-8685-8e6c5a4b6afb","ios":"levelo://app?vid=89d27253-6e34-4f88-8685-8e6c5a4b6afb"},"vehicle_type_id":"4","last_reported":1716776636,"current_range_meters":0,"station_id":"ce4bgv12rcd13ifvqcp0","pricing_plan_id":"cebpf4jnsgd1na2vs0mg"},{"bike_id":"d307fe12-c340-4e76-a4f7-49393d345444","system_id":"levelo_inurba_marseille","lat":43.311722,"lon":5.387247,"is_reserved":false,"is_disabled":false,"rental_uris":{"android":"levelo://app?vid=d307fe12-c340-4e76-a4f7-49393d345444","ios":"levelo://app?vid=d307fe12-c340-4e76-a4f7-49393d345444"},"vehicle_type_id":"4","last_reported":1716776636,"current_range_meters":5200,"station_id":"ce4bgv12rcd13ifvqcp0","pricing_plan_id":"cebpf4jnsgd1na2vs0mg"},{"bike_id":"048ee56c-b30c-48db-90df-dce2d2981535","system_id":"levelo_inurba_marseille","lat":43.31183,"lon":5.387101,"is_reserved":false,"is_disabled":false,"rental_uris":{"android":"levelo://app?vid=048ee56c-b30c-48db-90df-dce2d2981535","ios":"levelo://app?vid=048ee56c-b30c-48db-90df-dce2d2981535"},"vehicle_type_id":"4","last_reported":1716776636,"current_range_meters":18000,"station_id":"ce4bgv12rcd13ifvqcp0","pricing_plan_id":"cebpf4jnsgd1na2vs0mg"},{"bike_id":"2023c8c5-360c-44fe-af80-751c2b72565a","system_id":"levelo_inurba_marseille","lat":43.311722,"lon":5.387247,"is_reserved":false,"is_disabled":false,"rental_uris":{"android":"levelo://app?vid=2023c8c5-360c-44fe-af80-751c2b72565a","ios":"levelo://app?vid=2023c8c5-360c-44fe-af80-751c2b72565a"},"vehicle_type_id":"4","last_reported":1716776636,"current_range_meters":800,"station_id":"ce4bgv12rcd13ifvqcp0","pricing_plan_id":"cebpf4jnsgd1na2vs0mg"},{"bike_id":"74fd5ab7-2279-45f0-9405-1694723198e2","system_id":"levelo_inurba_marseille","lat":43.311722,"lon":5.387247,"is_reserved":false,"is_disabled":false,"rental_uris":{"android":"levelo://app?vid=74fd5ab7-2279-45f0-9405-1694723198e2","ios":"levelo://app?vid=74fd5ab7-2279-45f0-9405-1694723198e2"},"vehicle_type_id":"4","last_reported":1716776636,"current_range_meters":14000,"station_id":"ce4bgv12rcd13ifvqcp0","pricing_plan_id":"cebpf4jnsgd1na2vs0mg"},{"bike_id":"848f846b-f6c8-4597-8a33-95a8813e9410","system_id":"levelo_inurba_marseille","lat":43.311722,"lon":5.387247,"is_reserved":false,"is_disabled":false,"rental_uris":{"android":"levelo://app?vid=848f846b-f6c8-4597-8a33-95a8813e9410","ios":"levelo://app?vid=848f846b-f6c8-4597-8a33-95a8813e9410"},"vehicle_type_id":"4","last_reported":1716776636,"current_range_meters":19200,"station_id":"ce4bgv12rcd13ifvqcp0","pricing_plan_id":"cebpf4jnsgd1na2vs0mg"},{"bike_id":"b1bf9f62-29c1-49ac-be3a-df691332620b","system_id":"levelo_inurba_marseille","lat":43.299243,"lon":5.374807,"is_reserved":false,"is_disabled":false,"rental_uris":{"android":"levelo://app?vid=b1bf9f62-29c1-49ac-be3a-df691332620b","ios":"levelo://app?vid=b1bf9f62-29c1-49ac-be3a-df691332620b"},"vehicle_type_id":"4","last_reported":1716776636,"current_range_meters":26000,"station_id":"ce4bgjh2rcd13ifvqbg0","pricing_plan_id":"cebpf4jnsgd1na2vs0mg"},{"bike_id":"1df05b18-fed6-4dd5-92ea-fb6a1a8d7055","system_id":"levelo_inurba_marseille","lat":43.311722,"lon":5.387247,"is_reserved":false,"is_disabled":false,"rental_uris":{"android":"levelo://app?vid=1df05b18-fed6-4dd5-92ea-fb6a1a8d7055","ios":"levelo://app?vid=1df05b18-fed6-4dd5-92ea-fb6a1a8d7055"},"vehicle_type_id":"4","last_reported":1716776636,"current_range_meters":27200,"station_id":"ce4bgv12rcd13ifvqcp0","pricing_plan_id":"cebpf4jnsgd1na2vs0mg"},{"bike_id":"23577ba4-bf15-4629-881c-a925aaa00eb7","system_id":"levelo_inurba_marseille","lat":43.311722,"lon":5.387247,"is_reserved":false,"is_disabled":false,"rental_uris":{"android":"levelo://app?vid=23577ba4-bf15-4629-881c-a925aaa00eb7","ios":"levelo://app?vid=23577ba4-bf15-4629-881c-a925aaa00eb7"},"vehicle_type_id":"4","last_reported":1716776636,"current_range_meters":29200,"station_id":"ce4bgv12rcd13ifvqcp0","pricing_plan_id":"cebpf4jnsgd1na2vs0mg"},{"bike_id":"5c55098c-496e-4d6d-89d1-b7036c9c2f72","system_id":"levelo_inurba_marseille","lat":43.311722,"lon":5.387247,"is_reserved":false,"is_disabled":false,"rental_uris":{"android":"levelo://app?vid=5c55098c-496e-4d6d-89d1-b7036c9c2f72","ios":"levelo://app?vid=5c55098c-496e-4d6d-89d1-b7036c9c2f72"},"vehicle_type_id":"4","last_reported":1716776636,"current_range_meters":11600,"station_id":"ce4bgv12rcd13ifvqcp0","pricing_plan_id":"cebpf4jnsgd1na2vs0mg"},{"bike_id":"bf890831-a359-42a8-9f21-d81e964440b2","system_id":"levelo_inurba_marseille","lat":43.311717,"lon":5.387144,"is_reserved":false,"is_disabled":false,"rental_uris":{"android":"levelo://app?vid=bf890831-a359-42a8-9f21-d81e964440b2","ios":"levelo://app?vid=bf890831-a359-42a8-9f21-d81e964440b2"},"vehicle_type_id":"4","last_reported":1716776636,"current_range_meters":19200,"station_id":"ce4bgv12rcd13ifvqcp0","pricing_plan_id":"cebpf4jnsgd1na2vs0mg"},{"bike_id":"ed492a4e-944e-43b3-bd26-4581a8e6f7a8","system_id":"levelo_inurba_marseille","lat":43.29787,"lon":5.3711,"is_reserved":false,"is_disabled":false,"rental_uris":{"android":"levelo://app?vid=ed492a4e-944e-43b3-bd26-4581a8e6f7a8","ios":"levelo://app?vid=ed492a4e-944e-43b3-bd26-4581a8e6f7a8"},"vehicle_type_id":"4","last_reported":1716776636,"current_range_meters":28000,"station_id":"ce4bgop2rcd13ifvqc1g","pricing_plan_id":"cebpf4jnsgd1na2vs0mg"},{"bike_id":"80cd4cbb-e337-4a97-992d-42ead01b5788","system_id":"levelo_inurba_marseille","lat":43.300562,"lon":5.379382,"is_reserved":false,"is_disabled":false,"rental_uris":{"android":"levelo://app?vid=80cd4cbb-e337-4a97-992d-42ead01b5788","ios":"levelo://app?vid=80cd4cbb-e337-4a97-992d-42ead01b5788"},"vehicle_type_id":"4","last_reported":1716776636,"current_range_meters":9600,"station_id":"","pricing_plan_id":"cebpf4jnsgd1na2vs0mg"},{"bike_id":"5894a7f3-2728-4073-b841-3793211dd860","system_id":"levelo_inurba_marseille","lat":43.322936,"lon":5.382628,"is_reserved":false,"is_disabled":false,"rental_uris":{"android":"levelo://app?vid=5894a7f3-2728-4073-b841-3793211dd860","ios":"levelo://app?vid=5894a7f3-2728-4073-b841-3793211dd860"},"vehicle_type_id":"4","last_reported":1716776636,"current_range_meters":8800,"station_id":"ce4bhr12rcd13ifvqhqg","pricing_plan_id":"cebpf4jnsgd1na2vs0mg"},{"bike_id":"e11a89a3-21f8-4c8d-a114-63841efb44aa","system_id":"levelo_inurba_marseille","lat":43.322872,"lon":5.382756,"is_reserved":false,"is_disabled":false,"rental_uris":{"android":"levelo://app?vid=e11a89a3-21f8-4c8d-a114-63841efb44aa","ios":"levelo://app?vid=e11a89a3-21f8-4c8d-a114-63841efb44aa"},"vehicle_type_id":"4","last_reported":1716776636,"current_range_meters":31600,"station_id":"ce4bhr12rcd13ifvqhqg","pricing_plan_id":"cebpf4jnsgd1na2vs0mg"},{"bike_id":"c0aad146-9ed3-4a6e-826f-afdb900f41e2","system_id":"levelo_inurba_marseille","lat":43.322872,"lon":5.382756,"is_reserved":false,"is_disabled":false,"rental_uris":{"android":"levelo://app?vid=c0aad146-9ed3-4a6e-826f-afdb900f41e2","ios":"levelo://app?vid=c0aad146-9ed3-4a6e-826f-afdb900f41e2"},"vehicle_type_id":"4","last_reported":1716776636,"current_range_meters":28000,"station_id":"ce4bhr12rcd13ifvqhqg","pricing_plan_id":"cebpf4jnsgd1na2vs0mg"},{"bike_id":"bffd3857-afef-40fa-b429-252fd3d08de4","system_id":"levelo_inurba_marseille","lat":43.322872,"lon":5.382756,"is_reserved":false,"is_disabled":false,"rental_uris":{"android":"levelo://app?vid=bffd3857-afef-40fa-b429-252fd3d08de4","ios":"levelo://app?vid=bffd3857-afef-40fa-b429-252fd3d08de4"},"vehicle_type_id":"4","last_reported":1716776636,"current_range_meters":8400,"station_id":"ce4bhr12rcd13ifvqhqg","pricing_plan_id":"cebpf4jnsgd1na2vs0mg"},{"bike_id":"5d540c59-6209-46ec-8921-6610c5d0ca6e","system_id":"levelo_inurba_marseille","lat":43.2971,"lon":5.36614,"is_reserved":false,"is_disabled":false,"rental_uris":{"android":"levelo://app?vid=5d540c59-6209-46ec-8921-6610c5d0ca6e","ios":"levelo://app?vid=5d540c59-6209-46ec-8921-6610c5d0ca6e"},"vehicle_type_id":"4","last_reported":1716776636,"current_range_meters":14400,"station_id":"ce4bgn12rcd13ifvqbt0","pricing_plan_id":"cebpf4jnsgd1na2vs0mg"},{"bike_id":"8782ae19-9745-4888-8aba-643264668134","system_id":"levelo_inurba_marseille","lat":43.32081,"lon":5.386844,"is_reserved":false,"is_disabled":false,"rental_uris":{"android":"levelo://app?vid=8782ae19-9745-4888-8aba-643264668134","ios":"levelo://app?vid=8782ae19-9745-4888-8aba-643264668134"},"vehicle_type_id":"4","last_reported":1716776636,"current_range_meters":0,"station_id":"","pricing_plan_id":"cebpf4jnsgd1na2vs0mg"},{"bike_id":"b0181dbd-d16d-4347-9382-b450da867146","system_id":"levelo_inurba_marseille","lat":43.29657,"lon":5.36162,"is_reserved":false,"is_disabled":false,"rental_uris":{"android":"levelo://app?vid=b0181dbd-d16d-4347-9382-b450da867146","ios":"levelo://app?vid=b0181dbd-d16d-4347-9382-b450da867146"},"vehicle_type_id":"4","last_reported":1716776636,"current_range_meters":2800,"station_id":"","pricing_plan_id":"cebpf4jnsgd1na2vs0mg"},{"bike_id":"000ccf46-815d-453a-99c1-5d931ff2ad61","system_id":"levelo_inurba_marseille","lat":43.309589,"lon":5.390258,"is_reserved":false,"is_disabled":false,"rental_uris":{"android":"levelo://app?vid=000ccf46-815d-453a-99c1-5d931ff2ad61","ios":"levelo://app?vid=000ccf46-815d-453a-99c1-5d931ff2ad61"},"vehicle_type_id":"4","last_reported":1716776636,"current_range_meters":15600,"station_id":"ce4bgup2rcd13ifvqco0","pricing_plan_id":"cebpf4jnsgd1na2vs0mg"},{"bike_id":"d7eb3fb4-b0f7-4bc3-a3a1-4c0985201e20","system_id":"levelo_inurba_marseille","lat":43.309589,"lon":5.390258,"is_reserved":false,"is_disabled":false,"rental_uris":{"android":"levelo://app?vid=d7eb3fb4-b0f7-4bc3-a3a1-4c0985201e20","ios":"levelo://app?vid=d7eb3fb4-b0f7-4bc3-a3a1-4c0985201e20"},"vehicle_type_id":"4","last_reported":1716776636,"current_range_meters":17600,"station_id":"ce4bgup2rcd13ifvqco0","pricing_plan_id":"cebpf4jnsgd1na2vs0mg"},{"bike_id":"4e8c85af-519e-4402-b7f5-eb32331fe717","system_id":"levelo_inurba_marseille","lat":43.309589,"lon":5.390258,"is_reserved":false,"is_disabled":false,"rental_uris":{"android":"levelo://app?vid=4e8c85af-519e-4402-b7f5-eb32331fe717","ios":"levelo://app?vid=4e8c85af-519e-4402-b7f5-eb32331fe717"},"vehicle_type_id":"4","last_reported":1716776636,"current_range_meters":3600,"station_id":"ce4bgup2rcd13ifvqco0","pricing_plan_id":"cebpf4jnsgd1na2vs0mg"},{"bike_id":"57d37f33-26cc-4bc8-950d-2f14cd2a819d","system_id":"levelo_inurba_marseille","lat":43.309589,"lon":5.390258,"is_reserved":false,"is_disabled":false,"rental_uris":{"android":"levelo://app?vid=57d37f33-26cc-4bc8-950d-2f14cd2a819d","ios":"levelo://app?vid=57d37f33-26cc-4bc8-950d-2f14cd2a819d"},"vehicle_type_id":"4","last_reported":1716776636,"current_range_meters":6000,"station_id":"ce4bgup2rcd13ifvqco0","pricing_plan_id":"cebpf4jnsgd1na2vs0mg"},{"bike_id":"43245202-99fb-48a6-8d93-47d361d7bc6a","system_id":"levelo_inurba_marseille","lat":43.309589,"lon":5.390258,"is_reserved":false,"is_disabled":false,"rental_uris":{"android":"levelo://app?vid=43245202-99fb-48a6-8d93-47d361d7bc6a","ios":"levelo://app?vid=43245202-99fb-48a6-8d93-47d361d7bc6a"},"vehicle_type_id":"4","last_reported":1716776636,"current_range_meters":28800,"station_id":"ce4bgup2rcd13ifvqco0","pricing_plan_id":"cebpf4jnsgd1na2vs0mg"},{"bike_id":"35afc4e0-db0e-4338-af23-2bd6e3d36c24","system_id":"levelo_inurba_marseille","lat":43.309589,"lon":5.390258,"is_reserved":false,"is_disabled":false,"rental_uris":{"android":"levelo://app?vid=35afc4e0-db0e-4338-af23-2bd6e3d36c24","ios":"levelo://app?vid=35afc4e0-db0e-4338-af23-2bd6e3d36c24"},"vehicle_type_id":"4","last_reported":1716776636,"current_range_meters":15200,"station_id":"ce4bgup2rcd13ifvqco0","pricing_plan_id":"cebpf4jnsgd1na2vs0mg"},{"bike_id":"24a33268-2027-4036-8cb3-645201fe5db0","system_id":"levelo_inurba_marseille","lat":43.309589,"lon":5.390258,"is_reserved":false,"is_disabled":false,"rental_uris":{"android":"levelo://app?vid=24a33268-2027-4036-8cb3-645201fe5db0","ios":"levelo://app?vid=24a33268-2027-4036-8cb3-645201fe5db0"},"vehicle_type_id":"4","last_reported":1716776636,"current_range_meters":32000,"station_id":"ce4bgup2rcd13ifvqco0","pricing_plan_id":"cebpf4jnsgd1na2vs0mg"},{"bike_id":"56577985-8f15-45d1-b765-f1ee599030dd","system_id":"levelo_inurba_marseille","lat":43.3176,"lon":5.3901,"is_reserved":false,"is_disabled":false,"rental_uris":{"android":"levelo://app?vid=56577985-8f15-45d1-b765-f1ee599030dd","ios":"levelo://app?vid=56577985-8f15-45d1-b765-f1ee599030dd"},"vehicle_type_id":"4","last_reported":1716776636,"current_range_meters":31200,"station_id":"ce4bhqp2rcd13ifvqhng","pricing_plan_id":"cebpf4jnsgd1na2vs0mg"},{"bike_id":"24096b41-ec44-4180-84ea-eedfe7b01590","system_id":"levelo_inurba_marseille","lat":43.317584,"lon":5.390118,"is_reserved":false,"is_disabled":false,"rental_uris":{"android":"levelo://app?vid=24096b41-ec44-4180-84ea-eedfe7b01590","ios":"levelo://app?vid=24096b41-ec44-4180-84ea-eedfe7b01590"},"vehicle_type_id":"4","last_reported":1716776636,"current_range_meters":31200,"station_id":"ce4bhqp2rcd13ifvqhng","pricing_plan_id":"cebpf4jnsgd1na2vs0mg"},{"bike_id":"2271687f-b917-411c-a10f-0c27e2f628cb","system_id":"levelo_inurba_marseille","lat":43.317557,"lon":5.390173,"is_reserved":false,"is_disabled":false,"rental_uris":{"android":"levelo://app?vid=2271687f-b917-411c-a10f-0c27e2f628cb","ios":"levelo://app?vid=2271687f-b917-411c-a10f-0c27e2f628cb"},"vehicle_type_id":"4","last_reported":1716776636,"current_range_meters":28000,"station_id":"ce4bhqp2rcd13ifvqhng","pricing_plan_id":"cebpf4jnsgd1na2vs0mg"},{"bike_id":"f6a739df-2283-48b6-9091-49d620d330a0","system_id":"levelo_inurba_marseille","lat":43.317557,"lon":5.390173,"is_reserved":false,"is_disabled":false,"rental_uris":{"android":"levelo://app?vid=f6a739df-2283-48b6-9091-49d620d330a0","ios":"levelo://app?vid=f6a739df-2283-48b6-9091-49d620d330a0"},"vehicle_type_id":"4","last_reported":1716776636,"current_range_meters":1200,"station_id":"ce4bhqp2rcd13ifvqhng","pricing_plan_id":"cebpf4jnsgd1na2vs0mg"},{"bike_id":"bf9e8a62-e5d3-40df-b614-25650935ec1f","system_id":"levelo_inurba_marseille","lat":43.317557,"lon":5.390173,"is_reserved":false,"is_disabled":false,"rental_uris":{"android":"levelo://app?vid=bf9e8a62-e5d3-40df-b614-25650935ec1f","ios":"levelo://app?vid=bf9e8a62-e5d3-40df-b614-25650935ec1f"},"vehicle_type_id":"4","last_reported":1716776636,"current_range_meters":31600,"station_id":"ce4bhqp2rcd13ifvqhng","pricing_plan_id":"cebpf4jnsgd1na2vs0mg"},{"bike_id":"85781fbe-1d92-475b-8c6c-a0747845fe54","system_id":"levelo_inurba_marseille","lat":43.29791,"lon":5.380847,"is_reserved":false,"is_disabled":false,"rental_uris":{"android":"levelo://app?vid=85781fbe-1d92-475b-8c6c-a0747845fe54","ios":"levelo://app?vid=85781fbe-1d92-475b-8c6c-a0747845fe54"},"vehicle_type_id":"4","last_reported":1716776636,"current_range_meters":27200,"station_id":"ce4bgip2rcd13ifvqbb0","pricing_plan_id":"cebpf4jnsgd1na2vs0mg"},{"bike_id":"6c73b132-1c46-4036-9dbc-3d88656de9e6","system_id":"levelo_inurba_marseille","lat":43.304278,"lon":5.388868,"is_reserved":false,"is_disabled":false,"rental_uris":{"android":"levelo://app?vid=6c73b132-1c46-4036-9dbc-3d88656de9e6","ios":"levelo://app?vid=6c73b132-1c46-4036-9dbc-3d88656de9e6"},"vehicle_type_id":"4","last_reported":1716776636,"current_range_meters":27600,"station_id":"ce4bgk12rcd13ifvqbi0","pricing_plan_id":"cebpf4jnsgd1na2vs0mg"},{"bike_id":"2ee6ebb9-bb5d-4bf0-a6e1-19c23c7a365c","system_id":"levelo_inurba_marseille","lat":43.304274,"lon":5.388873,"is_reserved":false,"is_disabled":false,"rental_uris":{"android":"levelo://app?vid=2ee6ebb9-bb5d-4bf0-a6e1-19c23c7a365c","ios":"levelo://app?vid=2ee6ebb9-bb5d-4bf0-a6e1-19c23c7a365c"},"vehicle_type_id":"4","last_reported":1716776636,"current_range_meters":22000,"station_id":"ce4bgk12rcd13ifvqbi0","pricing_plan_id":"cebpf4jnsgd1na2vs0mg"},{"bike_id":"eed96165-c7b0-47bf-a40a-30aac3c097f1","system_id":"levelo_inurba_marseille","lat":43.304274,"lon":5.388873,"is_reserved":false,"is_disabled":false,"rental_uris":{"android":"levelo://app?vid=eed96165-c7b0-47bf-a40a-30aac3c097f1","ios":"levelo://app?vid=eed96165-c7b0-47bf-a40a-30aac3c097f1"},"vehicle_type_id":"4","last_reported":1716776636,"current_range_meters":23600,"station_id":"ce4bgk12rcd13ifvqbi0","pricing_plan_id":"cebpf4jnsgd1na2vs0mg"},{"bike_id":"c2217242-f99a-49c1-8293-4cc68d2482af","system_id":"levelo_inurba_marseille","lat":43.304278,"lon":5.388868,"is_reserved":false,"is_disabled":false,"rental_uris":{"android":"levelo://app?vid=c2217242-f99a-49c1-8293-4cc68d2482af","ios":"levelo://app?vid=c2217242-f99a-49c1-8293-4cc68d2482af"},"vehicle_type_id":"4","last_reported":1716776636,"current_range_meters":28000,"station_id":"ce4bgk12rcd13ifvqbi0","pricing_plan_id":"cebpf4jnsgd1na2vs0mg"},{"bike_id":"c92fa501-fd6f-4d72-920d-2f6aacb58cd9","system_id":"levelo_inurba_marseille","lat":43.304278,"lon":5.388868,"is_reserved":false,"is_disabled":false,"rental_uris":{"android":"levelo://app?vid=c92fa501-fd6f-4d72-920d-2f6aacb58cd9","ios":"levelo://app?vid=c92fa501-fd6f-4d72-920d-2f6aacb58cd9"},"vehicle_type_id":"4","last_reported":1716776636,"current_range_meters":30000,"station_id":"ce4bgk12rcd13ifvqbi0","pricing_plan_id":"cebpf4jnsgd1na2vs0mg"},{"bike_id":"e2cb44ac-3b06-403d-bc72-eb991afd5d8c","system_id":"levelo_inurba_marseille","lat":43.304278,"lon":5.388868,"is_reserved":false,"is_disabled":false,"rental_uris":{"android":"levelo://app?vid=e2cb44ac-3b06-403d-bc72-eb991afd5d8c","ios":"levelo://app?vid=e2cb44ac-3b06-403d-bc72-eb991afd5d8c"},"vehicle_type_id":"4","last_reported":1716776636,"current_range_meters":7600,"station_id":"ce4bgk12rcd13ifvqbi0","pricing_plan_id":"cebpf4jnsgd1na2vs0mg"},{"bike_id":"133ecb24-a061-4921-9457-b7b7ffe9aa2a","system_id":"levelo_inurba_marseille","lat":43.29792,"lon":5.38109,"is_reserved":false,"is_disabled":false,"rental_uris":{"android":"levelo://app?vid=133ecb24-a061-4921-9457-b7b7ffe9aa2a","ios":"levelo://app?vid=133ecb24-a061-4921-9457-b7b7ffe9aa2a"},"vehicle_type_id":"4","last_reported":1716776636,"current_range_meters":26800,"station_id":"ce4bgip2rcd13ifvqbb0","pricing_plan_id":"cebpf4jnsgd1na2vs0mg"},{"bike_id":"72a7dac7-d442-47cb-a066-cf73c97f406b","system_id":"levelo_inurba_marseille","lat":43.304278,"lon":5.388868,"is_reserved":false,"is_disabled":false,"rental_uris":{"android":"levelo://app?vid=72a7dac7-d442-47cb-a066-cf73c97f406b","ios":"levelo://app?vid=72a7dac7-d442-47cb-a066-cf73c97f406b"},"vehicle_type_id":"4","last_reported":1716776636,"current_range_meters":4800,"station_id":"ce4bgk12rcd13ifvqbi0","pricing_plan_id":"cebpf4jnsgd1na2vs0mg"},{"bike_id":"cd59a7f4-873e-4809-a951-bf2c1d4cf95a","system_id":"levelo_inurba_marseille","lat":43.30439,"lon":5.38893,"is_reserved":false,"is_disabled":false,"rental_uris":{"android":"levelo://app?vid=cd59a7f4-873e-4809-a951-bf2c1d4cf95a","ios":"levelo://app?vid=cd59a7f4-873e-4809-a951-bf2c1d4cf95a"},"vehicle_type_id":"4","last_reported":1716776636,"current_range_meters":15200,"station_id":"ce4bgk12rcd13ifvqbi0","pricing_plan_id":"cebpf4jnsgd1na2vs0mg"},{"bike_id":"0e256525-dae0-460d-8dee-6288a3b338bf","system_id":"levelo_inurba_marseille","lat":43.304274,"lon":5.388873,"is_reserved":false,"is_disabled":false,"rental_uris":{"android":"levelo://app?vid=0e256525-dae0-460d-8dee-6288a3b338bf","ios":"levelo://app?vid=0e256525-dae0-460d-8dee-6288a3b338bf"},"vehicle_type_id":"4","last_reported":1716776636,"current_range_meters":3200,"station_id":"ce4bgk12rcd13ifvqbi0","pricing_plan_id":"cebpf4jnsgd1na2vs0mg"},{"bike_id":"52948c83-3286-4103-aa9d-e8dc5357a071","system_id":"levelo_inurba_marseille","lat":43.304278,"lon":5.388868,"is_reserved":false,"is_disabled":false,"rental_uris":{"android":"levelo://app?vid=52948c83-3286-4103-aa9d-e8dc5357a071","ios":"levelo://app?vid=52948c83-3286-4103-aa9d-e8dc5357a071"},"vehicle_type_id":"4","last_reported":1716776636,"current_range_meters":18400,"station_id":"ce4bgk12rcd13ifvqbi0","pricing_plan_id":"cebpf4jnsgd1na2vs0mg"},{"bike_id":"4bb245d3-6136-4234-9c97-8bf3b5499ad3","system_id":"levelo_inurba_marseille","lat":43.297883,"lon":5.381097,"is_reserved":false,"is_disabled":false,"rental_uris":{"android":"levelo://app?vid=4bb245d3-6136-4234-9c97-8bf3b5499ad3","ios":"levelo://app?vid=4bb245d3-6136-4234-9c97-8bf3b5499ad3"},"vehicle_type_id":"4","last_reported":1716776636,"current_range_meters":6000,"station_id":"ce4bgip2rcd13ifvqbb0","pricing_plan_id":"cebpf4jnsgd1na2vs0mg"},{"bike_id":"850460f3-4251-4ab7-af61-6f863691aff4","system_id":"levelo_inurba_marseille","lat":43.304278,"lon":5.388868,"is_reserved":false,"is_disabled":false,"rental_uris":{"android":"levelo://app?vid=850460f3-4251-4ab7-af61-6f863691aff4","ios":"levelo://app?vid=850460f3-4251-4ab7-af61-6f863691aff4"},"vehicle_type_id":"4","last_reported":1716776636,"current_range_meters":28000,"station_id":"ce4bgk12rcd13ifvqbi0","pricing_plan_id":"cebpf4jnsgd1na2vs0mg"},{"bike_id":"ce9db4e2-b137-4e9e-9324-4a72a0d4e4ea","system_id":"levelo_inurba_marseille","lat":43.297668,"lon":5.380722,"is_reserved":false,"is_disabled":false,"rental_uris":{"android":"levelo://app?vid=ce9db4e2-b137-4e9e-9324-4a72a0d4e4ea","ios":"levelo://app?vid=ce9db4e2-b137-4e9e-9324-4a72a0d4e4ea"},"vehicle_type_id":"4","last_reported":1716776636,"current_range_meters":16400,"station_id":"ce4bgip2rcd13ifvqbb0","pricing_plan_id":"cebpf4jnsgd1na2vs0mg"},{"bike_id":"aef9d254-2674-4ddd-9492-6dd1aade4790","system_id":"levelo_inurba_marseille","lat":43.304274,"lon":5.388873,"is_reserved":false,"is_disabled":false,"rental_uris":{"android":"levelo://app?vid=aef9d254-2674-4ddd-9492-6dd1aade4790","ios":"levelo://app?vid=aef9d254-2674-4ddd-9492-6dd1aade4790"},"vehicle_type_id":"4","last_reported":1716776636,"current_range_meters":12800,"station_id":"ce4bgk12rcd13ifvqbi0","pricing_plan_id":"cebpf4jnsgd1na2vs0mg"},{"bike_id":"21112658-63bf-4b8b-a3a0-1e8b526178c6","system_id":"levelo_inurba_marseille","lat":43.304278,"lon":5.388868,"is_reserved":false,"is_disabled":false,"rental_uris":{"android":"levelo://app?vid=21112658-63bf-4b8b-a3a0-1e8b526178c6","ios":"levelo://app?vid=21112658-63bf-4b8b-a3a0-1e8b526178c6"},"vehicle_type_id":"4","last_reported":1716776636,"current_range_meters":27200,"station_id":"ce4bgk12rcd13ifvqbi0","pricing_plan_id":"cebpf4jnsgd1na2vs0mg"},{"bike_id":"377dc84d-9765-4983-9fbe-367d284c07c6","system_id":"levelo_inurba_marseille","lat":43.299717,"lon":5.384845,"is_reserved":false,"is_disabled":false,"rental_uris":{"android":"levelo://app?vid=377dc84d-9765-4983-9fbe-367d284c07c6","ios":"levelo://app?vid=377dc84d-9765-4983-9fbe-367d284c07c6"},"vehicle_type_id":"4","last_reported":1716776636,"current_range_meters":14400,"station_id":"ce4bgj92rcd13ifvqbd0","pricing_plan_id":"cebpf4jnsgd1na2vs0mg"},{"bike_id":"d0d3c60b-cf3a-46d7-96d2-3da976bc0243","system_id":"levelo_inurba_marseille","lat":43.299717,"lon":5.384845,"is_reserved":false,"is_disabled":false,"rental_uris":{"android":"levelo://app?vid=d0d3c60b-cf3a-46d7-96d2-3da976bc0243","ios":"levelo://app?vid=d0d3c60b-cf3a-46d7-96d2-3da976bc0243"},"vehicle_type_id":"4","last_reported":1716776636,"current_range_meters":22400,"station_id":"ce4bgj92rcd13ifvqbd0","pricing_plan_id":"cebpf4jnsgd1na2vs0mg"},{"bike_id":"d7f35422-66ed-45f9-8d86-f369c7604b1c","system_id":"levelo_inurba_marseille","lat":43.299717,"lon":5.384845,"is_reserved":false,"is_disabled":false,"rental_uris":{"android":"levelo://app?vid=d7f35422-66ed-45f9-8d86-f369c7604b1c","ios":"levelo://app?vid=d7f35422-66ed-45f9-8d86-f369c7604b1c"},"vehicle_type_id":"4","last_reported":1716776636,"current_range_meters":21200,"station_id":"ce4bgj92rcd13ifvqbd0","pricing_plan_id":"cebpf4jnsgd1na2vs0mg"},{"bike_id":"70f26b8d-31a2-4173-bbd2-9e546fc1fc2d","system_id":"levelo_inurba_marseille","lat":43.299717,"lon":5.384845,"is_reserved":false,"is_disabled":false,"rental_uris":{"android":"levelo://app?vid=70f26b8d-31a2-4173-bbd2-9e546fc1fc2d","ios":"levelo://app?vid=70f26b8d-31a2-4173-bbd2-9e546fc1fc2d"},"vehicle_type_id":"4","last_reported":1716776636,"current_range_meters":28000,"station_id":"ce4bgj92rcd13ifvqbd0","pricing_plan_id":"cebpf4jnsgd1na2vs0mg"},{"bike_id":"d08dec12-0b1c-4f47-8c0c-953049361780","system_id":"levelo_inurba_marseille","lat":43.299724,"lon":5.384848,"is_reserved":false,"is_disabled":false,"rental_uris":{"android":"levelo://app?vid=d08dec12-0b1c-4f47-8c0c-953049361780","ios":"levelo://app?vid=d08dec12-0b1c-4f47-8c0c-953049361780"},"vehicle_type_id":"4","last_reported":1716776636,"current_range_meters":27600,"station_id":"ce4bgj92rcd13ifvqbd0","pricing_plan_id":"cebpf4jnsgd1na2vs0mg"},{"bike_id":"d014cf3e-048b-41f0-8f75-4b7171a47831","system_id":"levelo_inurba_marseille","lat":43.299724,"lon":5.384848,"is_reserved":false,"is_disabled":false,"rental_uris":{"android":"levelo://app?vid=d014cf3e-048b-41f0-8f75-4b7171a47831","ios":"levelo://app?vid=d014cf3e-048b-41f0-8f75-4b7171a47831"},"vehicle_type_id":"4","last_reported":1716776636,"current_range_meters":31200,"station_id":"ce4bgj92rcd13ifvqbd0","pricing_plan_id":"cebpf4jnsgd1na2vs0mg"},{"bike_id":"c5daa368-bd63-4533-8d8a-960d2d1a9b7b","system_id":"levelo_inurba_marseille","lat":43.299717,"lon":5.384845,"is_reserved":false,"is_disabled":false,"rental_uris":{"android":"levelo://app?vid=c5daa368-bd63-4533-8d8a-960d2d1a9b7b","ios":"levelo://app?vid=c5daa368-bd63-4533-8d8a-960d2d1a9b7b"},"vehicle_type_id":"4","last_reported":1716776636,"current_range_meters":27200,"station_id":"ce4bgj92rcd13ifvqbd0","pricing_plan_id":"cebpf4jnsgd1na2vs0mg"},{"bike_id":"ea5c8d42-c861-4802-a2ac-9f57d3bd183f","system_id":"levelo_inurba_marseille","lat":43.299717,"lon":5.384845,"is_reserved":false,"is_disabled":false,"rental_uris":{"android":"levelo://app?vid=ea5c8d42-c861-4802-a2ac-9f57d3bd183f","ios":"levelo://app?vid=ea5c8d42-c861-4802-a2ac-9f57d3bd183f"},"vehicle_type_id":"4","last_reported":1716776636,"current_range_meters":31600,"station_id":"ce4bgj92rcd13ifvqbd0","pricing_plan_id":"cebpf4jnsgd1na2vs0mg"},{"bike_id":"bedd564d-3b8f-44ca-a7f5-a9364fb5af10","system_id":"levelo_inurba_marseille","lat":43.32367,"lon":5.388836,"is_reserved":false,"is_disabled":false,"rental_uris":{"android":"levelo://app?vid=bedd564d-3b8f-44ca-a7f5-a9364fb5af10","ios":"levelo://app?vid=bedd564d-3b8f-44ca-a7f5-a9364fb5af10"},"vehicle_type_id":"4","last_reported":1716776636,"current_range_meters":10800,"station_id":"ce4bhqp2rcd13ifvqhog","pricing_plan_id":"cebpf4jnsgd1na2vs0mg"},{"bike_id":"24f51b1d-9137-4275-818a-e5e0e462705f","system_id":"levelo_inurba_marseille","lat":43.32367,"lon":5.388836,"is_reserved":false,"is_disabled":false,"rental_uris":{"android":"levelo://app?vid=24f51b1d-9137-4275-818a-e5e0e462705f","ios":"levelo://app?vid=24f51b1d-9137-4275-818a-e5e0e462705f"},"vehicle_type_id":"4","last_reported":1716776636,"current_range_meters":9200,"station_id":"ce4bhqp2rcd13ifvqhog","pricing_plan_id":"cebpf4jnsgd1na2vs0mg"},{"bike_id":"c8c43d16-71f3-4e9d-a7a8-2aa324d37e23","system_id":"levelo_inurba_marseille","lat":43.32367,"lon":5.388836,"is_reserved":false,"is_disabled":false,"rental_uris":{"android":"levelo://app?vid=c8c43d16-71f3-4e9d-a7a8-2aa324d37e23","ios":"levelo://app?vid=c8c43d16-71f3-4e9d-a7a8-2aa324d37e23"},"vehicle_type_id":"4","last_reported":1716776636,"current_range_meters":19600,"station_id":"ce4bhqp2rcd13ifvqhog","pricing_plan_id":"cebpf4jnsgd1na2vs0mg"},{"bike_id":"54416ace-bb96-4920-9901-02453e9339b6","system_id":"levelo_inurba_marseille","lat":43.32367,"lon":5.3888,"is_reserved":false,"is_disabled":false,"rental_uris":{"android":"levelo://app?vid=54416ace-bb96-4920-9901-02453e9339b6","ios":"levelo://app?vid=54416ace-bb96-4920-9901-02453e9339b6"},"vehicle_type_id":"4","last_reported":1716776636,"current_range_meters":5600,"station_id":"ce4bhqp2rcd13ifvqhog","pricing_plan_id":"cebpf4jnsgd1na2vs0mg"},{"bike_id":"d4b7fb86-33d3-420c-baed-7d98f27d20bd","system_id":"levelo_inurba_marseille","lat":43.311194,"lon":5.393394,"is_reserved":false,"is_disabled":false,"rental_uris":{"android":"levelo://app?vid=d4b7fb86-33d3-420c-baed-7d98f27d20bd","ios":"levelo://app?vid=d4b7fb86-33d3-420c-baed-7d98f27d20bd"},"vehicle_type_id":"4","last_reported":1716776636,"current_range_meters":7600,"station_id":"","pricing_plan_id":"cebpf4jnsgd1na2vs0mg"},{"bike_id":"9b248760-7dd9-45dd-a372-9995e8b2dd5b","system_id":"levelo_inurba_marseille","lat":43.32367,"lon":5.388836,"is_reserved":false,"is_disabled":false,"rental_uris":{"android":"levelo://app?vid=9b248760-7dd9-45dd-a372-9995e8b2dd5b","ios":"levelo://app?vid=9b248760-7dd9-45dd-a372-9995e8b2dd5b"},"vehicle_type_id":"4","last_reported":1716776636,"current_range_meters":18800,"station_id":"ce4bhqp2rcd13ifvqhog","pricing_plan_id":"cebpf4jnsgd1na2vs0mg"},{"bike_id":"e2dd98f2-7fd0-4fe7-a580-d86a3a7cadc8","system_id":"levelo_inurba_marseille","lat":43.32367,"lon":5.388836,"is_reserved":false,"is_disabled":false,"rental_uris":{"android":"levelo://app?vid=e2dd98f2-7fd0-4fe7-a580-d86a3a7cadc8","ios":"levelo://app?vid=e2dd98f2-7fd0-4fe7-a580-d86a3a7cadc8"},"vehicle_type_id":"4","last_reported":1716776636,"current_range_meters":10800,"station_id":"ce4bhqp2rcd13ifvqhog","pricing_plan_id":"cebpf4jnsgd1na2vs0mg"},{"bike_id":"afe4ca34-b0db-4639-b8b5-82327a960674","system_id":"levelo_inurba_marseille","lat":43.32367,"lon":5.388836,"is_reserved":false,"is_disabled":false,"rental_uris":{"android":"levelo://app?vid=afe4ca34-b0db-4639-b8b5-82327a960674","ios":"levelo://app?vid=afe4ca34-b0db-4639-b8b5-82327a960674"},"vehicle_type_id":"4","last_reported":1716776636,"current_range_meters":17600,"station_id":"ce4bhqp2rcd13ifvqhog","pricing_plan_id":"cebpf4jnsgd1na2vs0mg"},{"bike_id":"45510266-dd98-4b74-aed5-c8b1618b147d","system_id":"levelo_inurba_marseille","lat":43.293249,"lon":5.371578,"is_reserved":false,"is_disabled":false,"rental_uris":{"android":"levelo://app?vid=45510266-dd98-4b74-aed5-c8b1618b147d","ios":"levelo://app?vid=45510266-dd98-4b74-aed5-c8b1618b147d"},"vehicle_type_id":"4","last_reported":1716776636,"current_range_meters":8400,"station_id":"ce4bgh92rcd13ifvqb40","pricing_plan_id":"cebpf4jnsgd1na2vs0mg"},{"bike_id":"0a1b13b7-989a-4ef1-92fb-62ff2e93bbd9","system_id":"levelo_inurba_marseille","lat":43.293009,"lon":5.374584,"is_reserved":false,"is_disabled":false,"rental_uris":{"android":"levelo://app?vid=0a1b13b7-989a-4ef1-92fb-62ff2e93bbd9","ios":"levelo://app?vid=0a1b13b7-989a-4ef1-92fb-62ff2e93bbd9"},"vehicle_type_id":"4","last_reported":1716776636,"current_range_meters":30800,"station_id":"ce4bgi12rcd13ifvqb70","pricing_plan_id":"cebpf4jnsgd1na2vs0mg"},{"bike_id":"bb511848-edc7-441f-b8b6-2e78803795e6","system_id":"levelo_inurba_marseille","lat":43.305994,"lon":5.393687,"is_reserved":false,"is_disabled":false,"rental_uris":{"android":"levelo://app?vid=bb511848-edc7-441f-b8b6-2e78803795e6","ios":"levelo://app?vid=bb511848-edc7-441f-b8b6-2e78803795e6"},"vehicle_type_id":"4","last_reported":1716776636,"current_range_meters":9600,"station_id":"ce4bh0p2rcd13ifvqd80","pricing_plan_id":"cebpf4jnsgd1na2vs0mg"},{"bike_id":"d59d68a2-087d-4c91-8f39-88256980daec","system_id":"levelo_inurba_marseille","lat":43.293009,"lon":5.374584,"is_reserved":false,"is_disabled":false,"rental_uris":{"android":"levelo://app?vid=d59d68a2-087d-4c91-8f39-88256980daec","ios":"levelo://app?vid=d59d68a2-087d-4c91-8f39-88256980daec"},"vehicle_type_id":"4","last_reported":1716776636,"current_range_meters":28000,"station_id":"ce4bgi12rcd13ifvqb70","pricing_plan_id":"cebpf4jnsgd1na2vs0mg"},{"bike_id":"674e51d1-2359-4735-ae46-768e16af50a4","system_id":"levelo_inurba_marseille","lat":43.305994,"lon":5.393687,"is_reserved":false,"is_disabled":false,"rental_uris":{"android":"levelo://app?vid=674e51d1-2359-4735-ae46-768e16af50a4","ios":"levelo://app?vid=674e51d1-2359-4735-ae46-768e16af50a4"},"vehicle_type_id":"4","last_reported":1716776636,"current_range_meters":16800,"station_id":"ce4bh0p2rcd13ifvqd80","pricing_plan_id":"cebpf4jnsgd1na2vs0mg"},{"bike_id":"7888ce4a-776a-44d0-8495-f7c79e91d516","system_id":"levelo_inurba_marseille","lat":43.303002,"lon":5.392142,"is_reserved":false,"is_disabled":false,"rental_uris":{"android":"levelo://app?vid=7888ce4a-776a-44d0-8495-f7c79e91d516","ios":"levelo://app?vid=7888ce4a-776a-44d0-8495-f7c79e91d516"},"vehicle_type_id":"4","last_reported":1716776636,"current_range_meters":28400,"station_id":"ce4bgkh2rcd13ifvqbk0","pricing_plan_id":"cebpf4jnsgd1na2vs0mg"},{"bike_id":"362c067c-9b9a-4be3-9c61-d93c8916f322","system_id":"levelo_inurba_marseille","lat":43.30085,"lon":5.390856,"is_reserved":false,"is_disabled":false,"rental_uris":{"android":"levelo://app?vid=362c067c-9b9a-4be3-9c61-d93c8916f322","ios":"levelo://app?vid=362c067c-9b9a-4be3-9c61-d93c8916f322"},"vehicle_type_id":"4","last_reported":1716776636,"current_range_meters":14800,"station_id":"ce4bh192rcd13ifvqdb0","pricing_plan_id":"cebpf4jnsgd1na2vs0mg"},{"bike_id":"a9b794df-9a7d-472a-8d46-057b03df0264","system_id":"levelo_inurba_marseille","lat":43.30085,"lon":5.390856,"is_reserved":false,"is_disabled":false,"rental_uris":{"android":"levelo://app?vid=a9b794df-9a7d-472a-8d46-057b03df0264","ios":"levelo://app?vid=a9b794df-9a7d-472a-8d46-057b03df0264"},"vehicle_type_id":"4","last_reported":1716776636,"current_range_meters":10400,"station_id":"ce4bh192rcd13ifvqdb0","pricing_plan_id":"cebpf4jnsgd1na2vs0mg"},{"bike_id":"a55a39c0-22b7-4907-95ea-973f2255df9f","system_id":"levelo_inurba_marseille","lat":43.293009,"lon":5.374584,"is_reserved":false,"is_disabled":false,"rental_uris":{"android":"levelo://app?vid=a55a39c0-22b7-4907-95ea-973f2255df9f","ios":"levelo://app?vid=a55a39c0-22b7-4907-95ea-973f2255df9f"},"vehicle_type_id":"4","last_reported":1716776636,"current_range_meters":0,"station_id":"ce4bgi12rcd13ifvqb70","pricing_plan_id":"cebpf4jnsgd1na2vs0mg"},{"bike_id":"4e822c66-d799-418b-af6b-05b88db76ee9","system_id":"levelo_inurba_marseille","lat":43.3008,"lon":5.39097,"is_reserved":false,"is_disabled":false,"rental_uris":{"android":"levelo://app?vid=4e822c66-d799-418b-af6b-05b88db76ee9","ios":"levelo://app?vid=4e822c66-d799-418b-af6b-05b88db76ee9"},"vehicle_type_id":"4","last_reported":1716776636,"current_range_meters":8800,"station_id":"ce4bh192rcd13ifvqdb0","pricing_plan_id":"cebpf4jnsgd1na2vs0mg"},{"bike_id":"6c160f05-816a-45b3-bd5f-654dbb2f3adc","system_id":"levelo_inurba_marseille","lat":43.298764,"lon":5.388973,"is_reserved":false,"is_disabled":false,"rental_uris":{"android":"levelo://app?vid=6c160f05-816a-45b3-bd5f-654dbb2f3adc","ios":"levelo://app?vid=6c160f05-816a-45b3-bd5f-654dbb2f3adc"},"vehicle_type_id":"4","last_reported":1716776636,"current_range_meters":15600,"station_id":"ce4bh392rcd13ifvqdl0","pricing_plan_id":"cebpf4jnsgd1na2vs0mg"},{"bike_id":"f95d456b-38dc-49ae-b7d9-ae13b1945bcb","system_id":"levelo_inurba_marseille","lat":43.298764,"lon":5.388973,"is_reserved":false,"is_disabled":false,"rental_uris":{"android":"levelo://app?vid=f95d456b-38dc-49ae-b7d9-ae13b1945bcb","ios":"levelo://app?vid=f95d456b-38dc-49ae-b7d9-ae13b1945bcb"},"vehicle_type_id":"4","last_reported":1716776636,"current_range_meters":27200,"station_id":"ce4bh392rcd13ifvqdl0","pricing_plan_id":"cebpf4jnsgd1na2vs0mg"},{"bike_id":"65a87b26-2027-47e4-ab91-61796442fe50","system_id":"levelo_inurba_marseille","lat":43.298774,"lon":5.389116,"is_reserved":false,"is_disabled":false,"rental_uris":{"android":"levelo://app?vid=65a87b26-2027-47e4-ab91-61796442fe50","ios":"levelo://app?vid=65a87b26-2027-47e4-ab91-61796442fe50"},"vehicle_type_id":"4","last_reported":1716776636,"current_range_meters":3600,"station_id":"ce4bh392rcd13ifvqdl0","pricing_plan_id":"cebpf4jnsgd1na2vs0mg"},{"bike_id":"89b634f2-3797-48d2-9913-f0d9e5a420f7","system_id":"levelo_inurba_marseille","lat":43.291994,"lon":5.357886,"is_reserved":false,"is_disabled":false,"rental_uris":{"android":"levelo://app?vid=89b634f2-3797-48d2-9913-f0d9e5a420f7","ios":"levelo://app?vid=89b634f2-3797-48d2-9913-f0d9e5a420f7"},"vehicle_type_id":"4","last_reported":1716776636,"current_range_meters":26400,"station_id":"ce4bhb12rcd13ifvqel0","pricing_plan_id":"cebpf4jnsgd1na2vs0mg"},{"bike_id":"23f2911a-1e16-4a55-9562-0b2266b7c0e4","system_id":"levelo_inurba_marseille","lat":43.30888,"lon":5.39629,"is_reserved":false,"is_disabled":false,"rental_uris":{"android":"levelo://app?vid=23f2911a-1e16-4a55-9562-0b2266b7c0e4","ios":"levelo://app?vid=23f2911a-1e16-4a55-9562-0b2266b7c0e4"},"vehicle_type_id":"4","last_reported":1716776636,"current_range_meters":800,"station_id":"ce4bh012rcd13ifvqcv0","pricing_plan_id":"cebpf4jnsgd1na2vs0mg"},{"bike_id":"4fab4330-b099-4186-b089-187627a692bc","system_id":"levelo_inurba_marseille","lat":43.308926,"lon":5.396306,"is_reserved":false,"is_disabled":false,"rental_uris":{"android":"levelo://app?vid=4fab4330-b099-4186-b089-187627a692bc","ios":"levelo://app?vid=4fab4330-b099-4186-b089-187627a692bc"},"vehicle_type_id":"4","last_reported":1716776636,"current_range_meters":30400,"station_id":"ce4bh012rcd13ifvqcv0","pricing_plan_id":"cebpf4jnsgd1na2vs0mg"},{"bike_id":"1c0e551e-89cd-47fe-90d2-bb1ce5c2542b","system_id":"levelo_inurba_marseille","lat":43.308855,"lon":5.396291,"is_reserved":false,"is_disabled":false,"rental_uris":{"android":"levelo://app?vid=1c0e551e-89cd-47fe-90d2-bb1ce5c2542b","ios":"levelo://app?vid=1c0e551e-89cd-47fe-90d2-bb1ce5c2542b"},"vehicle_type_id":"4","last_reported":1716776636,"current_range_meters":4400,"station_id":"ce4bh012rcd13ifvqcv0","pricing_plan_id":"cebpf4jnsgd1na2vs0mg"},{"bike_id":"fdee1dd6-8232-4171-90a8-4371da4f30d1","system_id":"levelo_inurba_marseille","lat":43.308822,"lon":5.396322,"is_reserved":false,"is_disabled":false,"rental_uris":{"android":"levelo://app?vid=fdee1dd6-8232-4171-90a8-4371da4f30d1","ios":"levelo://app?vid=fdee1dd6-8232-4171-90a8-4371da4f30d1"},"vehicle_type_id":"4","last_reported":1716776636,"current_range_meters":19200,"station_id":"ce4bh012rcd13ifvqcv0","pricing_plan_id":"cebpf4jnsgd1na2vs0mg"},{"bike_id":"3438b89e-606b-49e9-a236-27062d5a5a5c","system_id":"levelo_inurba_marseille","lat":43.308909,"lon":5.396361,"is_reserved":false,"is_disabled":false,"rental_uris":{"android":"levelo://app?vid=3438b89e-606b-49e9-a236-27062d5a5a5c","ios":"levelo://app?vid=3438b89e-606b-49e9-a236-27062d5a5a5c"},"vehicle_type_id":"4","last_reported":1716776636,"current_range_meters":28000,"station_id":"ce4bh012rcd13ifvqcv0","pricing_plan_id":"cebpf4jnsgd1na2vs0mg"},{"bike_id":"fe6af52f-96a1-41f8-a544-9ade9a681d7e","system_id":"levelo_inurba_marseille","lat":43.313291,"lon":5.396838,"is_reserved":false,"is_disabled":false,"rental_uris":{"android":"levelo://app?vid=fe6af52f-96a1-41f8-a544-9ade9a681d7e","ios":"levelo://app?vid=fe6af52f-96a1-41f8-a544-9ade9a681d7e"},"vehicle_type_id":"4","last_reported":1716776636,"current_range_meters":28000,"station_id":"ce4bgvp2rcd13ifvqcu0","pricing_plan_id":"cebpf4jnsgd1na2vs0mg"},{"bike_id":"39b23b27-0fb6-429d-95a4-3cf189f1c59f","system_id":"levelo_inurba_marseille","lat":43.309047,"lon":5.396551,"is_reserved":false,"is_disabled":false,"rental_uris":{"android":"levelo://app?vid=39b23b27-0fb6-429d-95a4-3cf189f1c59f","ios":"levelo://app?vid=39b23b27-0fb6-429d-95a4-3cf189f1c59f"},"vehicle_type_id":"4","last_reported":1716776636,"current_range_meters":28800,"station_id":"ce4bh012rcd13ifvqcv0","pricing_plan_id":"cebpf4jnsgd1na2vs0mg"},{"bike_id":"1fc2e95d-a03d-4379-a713-38d1a55cfd90","system_id":"levelo_inurba_marseille","lat":43.313291,"lon":5.396838,"is_reserved":false,"is_disabled":false,"rental_uris":{"android":"levelo://app?vid=1fc2e95d-a03d-4379-a713-38d1a55cfd90","ios":"levelo://app?vid=1fc2e95d-a03d-4379-a713-38d1a55cfd90"},"vehicle_type_id":"4","last_reported":1716776636,"current_range_meters":9600,"station_id":"ce4bgvp2rcd13ifvqcu0","pricing_plan_id":"cebpf4jnsgd1na2vs0mg"},{"bike_id":"62b27a84-dddc-42c1-92bd-658631ce523a","system_id":"levelo_inurba_marseille","lat":43.313291,"lon":5.396838,"is_reserved":false,"is_disabled":false,"rental_uris":{"android":"levelo://app?vid=62b27a84-dddc-42c1-92bd-658631ce523a","ios":"levelo://app?vid=62b27a84-dddc-42c1-92bd-658631ce523a"},"vehicle_type_id":"4","last_reported":1716776636,"current_range_meters":29200,"station_id":"ce4bgvp2rcd13ifvqcu0","pricing_plan_id":"cebpf4jnsgd1na2vs0mg"},{"bike_id":"410af055-7edb-44f2-98d3-0604b8a95e88","system_id":"levelo_inurba_marseille","lat":43.308876,"lon":5.396407,"is_reserved":false,"is_disabled":false,"rental_uris":{"android":"levelo://app?vid=410af055-7edb-44f2-98d3-0604b8a95e88","ios":"levelo://app?vid=410af055-7edb-44f2-98d3-0604b8a95e88"},"vehicle_type_id":"4","last_reported":1716776636,"current_range_meters":11200,"station_id":"ce4bh012rcd13ifvqcv0","pricing_plan_id":"cebpf4jnsgd1na2vs0mg"},{"bike_id":"7b654985-fa4f-4201-92d3-6e4c89b68971","system_id":"levelo_inurba_marseille","lat":43.313291,"lon":5.396838,"is_reserved":false,"is_disabled":false,"rental_uris":{"android":"levelo://app?vid=7b654985-fa4f-4201-92d3-6e4c89b68971","ios":"levelo://app?vid=7b654985-fa4f-4201-92d3-6e4c89b68971"},"vehicle_type_id":"4","last_reported":1716776636,"current_range_meters":31600,"station_id":"ce4bgvp2rcd13ifvqcu0","pricing_plan_id":"cebpf4jnsgd1na2vs0mg"},{"bike_id":"2e8ea42e-5125-4762-a965-fb7559ed6865","system_id":"levelo_inurba_marseille","lat":43.313291,"lon":5.396838,"is_reserved":false,"is_disabled":false,"rental_uris":{"android":"levelo://app?vid=2e8ea42e-5125-4762-a965-fb7559ed6865","ios":"levelo://app?vid=2e8ea42e-5125-4762-a965-fb7559ed6865"},"vehicle_type_id":"4","last_reported":1716776636,"current_range_meters":0,"station_id":"ce4bgvp2rcd13ifvqcu0","pricing_plan_id":"cebpf4jnsgd1na2vs0mg"},{"bike_id":"587ca4ca-7190-4a64-bcb9-299b8389e0ac","system_id":"levelo_inurba_marseille","lat":43.308796,"lon":5.396409,"is_reserved":false,"is_disabled":false,"rental_uris":{"android":"levelo://app?vid=587ca4ca-7190-4a64-bcb9-299b8389e0ac","ios":"levelo://app?vid=587ca4ca-7190-4a64-bcb9-299b8389e0ac"},"vehicle_type_id":"4","last_reported":1716776636,"current_range_meters":17200,"station_id":"ce4bh012rcd13ifvqcv0","pricing_plan_id":"cebpf4jnsgd1na2vs0mg"},{"bike_id":"744e3040-a61e-4ab4-b95b-9b0806e3f74e","system_id":"levelo_inurba_marseille","lat":43.313291,"lon":5.396838,"is_reserved":false,"is_disabled":false,"rental_uris":{"android":"levelo://app?vid=744e3040-a61e-4ab4-b95b-9b0806e3f74e","ios":"levelo://app?vid=744e3040-a61e-4ab4-b95b-9b0806e3f74e"},"vehicle_type_id":"4","last_reported":1716776636,"current_range_meters":0,"station_id":"ce4bgvp2rcd13ifvqcu0","pricing_plan_id":"cebpf4jnsgd1na2vs0mg"},{"bike_id":"0fdfc09f-1bd7-45a4-be7f-ce12c243ec19","system_id":"levelo_inurba_marseille","lat":43.313291,"lon":5.396838,"is_reserved":false,"is_disabled":false,"rental_uris":{"android":"levelo://app?vid=0fdfc09f-1bd7-45a4-be7f-ce12c243ec19","ios":"levelo://app?vid=0fdfc09f-1bd7-45a4-be7f-ce12c243ec19"},"vehicle_type_id":"4","last_reported":1716776636,"current_range_meters":14400,"station_id":"ce4bgvp2rcd13ifvqcu0","pricing_plan_id":"cebpf4jnsgd1na2vs0mg"},{"bike_id":"98fc1215-a0a3-4626-94aa-3edd58a8a1b0","system_id":"levelo_inurba_marseille","lat":43.313291,"lon":5.396838,"is_reserved":false,"is_disabled":false,"rental_uris":{"android":"levelo://app?vid=98fc1215-a0a3-4626-94aa-3edd58a8a1b0","ios":"levelo://app?vid=98fc1215-a0a3-4626-94aa-3edd58a8a1b0"},"vehicle_type_id":"4","last_reported":1716776636,"current_range_meters":31600,"station_id":"ce4bgvp2rcd13ifvqcu0","pricing_plan_id":"cebpf4jnsgd1na2vs0mg"},{"bike_id":"15501d45-33a6-4d61-a2e3-72e794e7a51b","system_id":"levelo_inurba_marseille","lat":43.308851,"lon":5.396429,"is_reserved":false,"is_disabled":false,"rental_uris":{"android":"levelo://app?vid=15501d45-33a6-4d61-a2e3-72e794e7a51b","ios":"levelo://app?vid=15501d45-33a6-4d61-a2e3-72e794e7a51b"},"vehicle_type_id":"4","last_reported":1716776636,"current_range_meters":8400,"station_id":"ce4bh012rcd13ifvqcv0","pricing_plan_id":"cebpf4jnsgd1na2vs0mg"},{"bike_id":"367daf47-2752-44bf-9b5e-674aba351854","system_id":"levelo_inurba_marseille","lat":43.308859,"lon":5.396432,"is_reserved":false,"is_disabled":false,"rental_uris":{"android":"levelo://app?vid=367daf47-2752-44bf-9b5e-674aba351854","ios":"levelo://app?vid=367daf47-2752-44bf-9b5e-674aba351854"},"vehicle_type_id":"4","last_reported":1716776636,"current_range_meters":27600,"station_id":"ce4bh012rcd13ifvqcv0","pricing_plan_id":"cebpf4jnsgd1na2vs0mg"},{"bike_id":"9462c5a1-60e2-4666-a7cc-ef25871fc041","system_id":"levelo_inurba_marseille","lat":43.309038,"lon":5.396546,"is_reserved":false,"is_disabled":false,"rental_uris":{"android":"levelo://app?vid=9462c5a1-60e2-4666-a7cc-ef25871fc041","ios":"levelo://app?vid=9462c5a1-60e2-4666-a7cc-ef25871fc041"},"vehicle_type_id":"4","last_reported":1716776636,"current_range_meters":22400,"station_id":"ce4bh012rcd13ifvqcv0","pricing_plan_id":"cebpf4jnsgd1na2vs0mg"},{"bike_id":"5cacdf27-ebfc-4820-abd2-4f2744984613","system_id":"levelo_inurba_marseille","lat":43.308861,"lon":5.39644,"is_reserved":false,"is_disabled":false,"rental_uris":{"android":"levelo://app?vid=5cacdf27-ebfc-4820-abd2-4f2744984613","ios":"levelo://app?vid=5cacdf27-ebfc-4820-abd2-4f2744984613"},"vehicle_type_id":"4","last_reported":1716776636,"current_range_meters":30800,"station_id":"ce4bh012rcd13ifvqcv0","pricing_plan_id":"cebpf4jnsgd1na2vs0mg"},{"bike_id":"43556283-2c36-4082-bde8-0371cd381d36","system_id":"levelo_inurba_marseille","lat":43.308904,"lon":5.39646,"is_reserved":false,"is_disabled":false,"rental_uris":{"android":"levelo://app?vid=43556283-2c36-4082-bde8-0371cd381d36","ios":"levelo://app?vid=43556283-2c36-4082-bde8-0371cd381d36"},"vehicle_type_id":"4","last_reported":1716776636,"current_range_meters":12800,"station_id":"ce4bh012rcd13ifvqcv0","pricing_plan_id":"cebpf4jnsgd1na2vs0mg"},{"bike_id":"dfc3064b-f58b-40bd-96f8-67b581837136","system_id":"levelo_inurba_marseille","lat":43.291994,"lon":5.357886,"is_reserved":false,"is_disabled":false,"rental_uris":{"android":"levelo://app?vid=dfc3064b-f58b-40bd-96f8-67b581837136","ios":"levelo://app?vid=dfc3064b-f58b-40bd-96f8-67b581837136"},"vehicle_type_id":"4","last_reported":1716776636,"current_range_meters":28400,"station_id":"ce4bhb12rcd13ifvqel0","pricing_plan_id":"cebpf4jnsgd1na2vs0mg"},{"bike_id":"6705277c-0088-4d0c-bbb0-f4e21f38627f","system_id":"levelo_inurba_marseille","lat":43.308891,"lon":5.39648,"is_reserved":false,"is_disabled":false,"rental_uris":{"android":"levelo://app?vid=6705277c-0088-4d0c-bbb0-f4e21f38627f","ios":"levelo://app?vid=6705277c-0088-4d0c-bbb0-f4e21f38627f"},"vehicle_type_id":"4","last_reported":1716776636,"current_range_meters":5200,"station_id":"ce4bh012rcd13ifvqcv0","pricing_plan_id":"cebpf4jnsgd1na2vs0mg"},{"bike_id":"e668a658-70a8-4480-bafa-ff16631ee4da","system_id":"levelo_inurba_marseille","lat":43.313291,"lon":5.396838,"is_reserved":false,"is_disabled":false,"rental_uris":{"android":"levelo://app?vid=e668a658-70a8-4480-bafa-ff16631ee4da","ios":"levelo://app?vid=e668a658-70a8-4480-bafa-ff16631ee4da"},"vehicle_type_id":"4","last_reported":1716776636,"current_range_meters":0,"station_id":"ce4bgvp2rcd13ifvqcu0","pricing_plan_id":"cebpf4jnsgd1na2vs0mg"},{"bike_id":"ab72d1c9-c555-4dd8-8375-8f8e5b70f0bf","system_id":"levelo_inurba_marseille","lat":43.313291,"lon":5.396838,"is_reserved":false,"is_disabled":false,"rental_uris":{"android":"levelo://app?vid=ab72d1c9-c555-4dd8-8375-8f8e5b70f0bf","ios":"levelo://app?vid=ab72d1c9-c555-4dd8-8375-8f8e5b70f0bf"},"vehicle_type_id":"4","last_reported":1716776636,"current_range_meters":30800,"station_id":"ce4bgvp2rcd13ifvqcu0","pricing_plan_id":"cebpf4jnsgd1na2vs0mg"},{"bike_id":"1288f49a-d052-423f-befa-59afeda720b3","system_id":"levelo_inurba_marseille","lat":43.308841,"lon":5.396529,"is_reserved":false,"is_disabled":false,"rental_uris":{"android":"levelo://app?vid=1288f49a-d052-423f-befa-59afeda720b3","ios":"levelo://app?vid=1288f49a-d052-423f-befa-59afeda720b3"},"vehicle_type_id":"4","last_reported":1716776636,"current_range_meters":3200,"station_id":"ce4bh012rcd13ifvqcv0","pricing_plan_id":"cebpf4jnsgd1na2vs0mg"},{"bike_id":"c5bf9590-1061-4ac3-a1db-ead56ba967c5","system_id":"levelo_inurba_marseille","lat":43.308755,"lon":5.396555,"is_reserved":false,"is_disabled":false,"rental_uris":{"android":"levelo://app?vid=c5bf9590-1061-4ac3-a1db-ead56ba967c5","ios":"levelo://app?vid=c5bf9590-1061-4ac3-a1db-ead56ba967c5"},"vehicle_type_id":"4","last_reported":1716776636,"current_range_meters":4400,"station_id":"ce4bh012rcd13ifvqcv0","pricing_plan_id":"cebpf4jnsgd1na2vs0mg"},{"bike_id":"f5696f22-a9b4-4502-a201-d3b67c30350f","system_id":"levelo_inurba_marseille","lat":43.290779,"lon":5.371482,"is_reserved":false,"is_disabled":false,"rental_uris":{"android":"levelo://app?vid=f5696f22-a9b4-4502-a201-d3b67c30350f","ios":"levelo://app?vid=f5696f22-a9b4-4502-a201-d3b67c30350f"},"vehicle_type_id":"4","last_reported":1716776636,"current_range_meters":25200,"station_id":"ce4bh5p2rcd13ifvqe4g","pricing_plan_id":"cebpf4jnsgd1na2vs0mg"},{"bike_id":"26335f76-fa38-4e33-8a69-b21013e76c69","system_id":"levelo_inurba_marseille","lat":43.302008,"lon":5.394694,"is_reserved":false,"is_disabled":false,"rental_uris":{"android":"levelo://app?vid=26335f76-fa38-4e33-8a69-b21013e76c69","ios":"levelo://app?vid=26335f76-fa38-4e33-8a69-b21013e76c69"},"vehicle_type_id":"4","last_reported":1716776636,"current_range_meters":20000,"station_id":"ce4bh0p2rcd13ifvqd70","pricing_plan_id":"cebpf4jnsgd1na2vs0mg"},{"bike_id":"80f456dc-c89e-4023-90f9-a4a0568a91bc","system_id":"levelo_inurba_marseille","lat":43.302008,"lon":5.394694,"is_reserved":false,"is_disabled":false,"rental_uris":{"android":"levelo://app?vid=80f456dc-c89e-4023-90f9-a4a0568a91bc","ios":"levelo://app?vid=80f456dc-c89e-4023-90f9-a4a0568a91bc"},"vehicle_type_id":"4","last_reported":1716776636,"current_range_meters":27600,"station_id":"ce4bh0p2rcd13ifvqd70","pricing_plan_id":"cebpf4jnsgd1na2vs0mg"},{"bike_id":"6bbccbc0-a02e-44cd-b992-b08d3f819af7","system_id":"levelo_inurba_marseille","lat":43.302008,"lon":5.394694,"is_reserved":false,"is_disabled":false,"rental_uris":{"android":"levelo://app?vid=6bbccbc0-a02e-44cd-b992-b08d3f819af7","ios":"levelo://app?vid=6bbccbc0-a02e-44cd-b992-b08d3f819af7"},"vehicle_type_id":"4","last_reported":1716776636,"current_range_meters":1200,"station_id":"ce4bh0p2rcd13ifvqd70","pricing_plan_id":"cebpf4jnsgd1na2vs0mg"},{"bike_id":"0fd11821-051e-480a-b6ad-b77d205e590d","system_id":"levelo_inurba_marseille","lat":43.290631,"lon":5.359244,"is_reserved":false,"is_disabled":false,"rental_uris":{"android":"levelo://app?vid=0fd11821-051e-480a-b6ad-b77d205e590d","ios":"levelo://app?vid=0fd11821-051e-480a-b6ad-b77d205e590d"},"vehicle_type_id":"4","last_reported":1716776636,"current_range_meters":23200,"station_id":"ce4bha92rcd13ifvqeg0","pricing_plan_id":"cebpf4jnsgd1na2vs0mg"},{"bike_id":"aa7d292e-004c-420c-825c-6fd8243fd743","system_id":"levelo_inurba_marseille","lat":43.290631,"lon":5.359244,"is_reserved":false,"is_disabled":false,"rental_uris":{"android":"levelo://app?vid=aa7d292e-004c-420c-825c-6fd8243fd743","ios":"levelo://app?vid=aa7d292e-004c-420c-825c-6fd8243fd743"},"vehicle_type_id":"4","last_reported":1716776636,"current_range_meters":14000,"station_id":"ce4bha92rcd13ifvqeg0","pricing_plan_id":"cebpf4jnsgd1na2vs0mg"},{"bike_id":"1870c30d-af90-4ec1-9b55-8d673e67b71b","system_id":"levelo_inurba_marseille","lat":43.290327,"lon":5.375711,"is_reserved":false,"is_disabled":false,"rental_uris":{"android":"levelo://app?vid=1870c30d-af90-4ec1-9b55-8d673e67b71b","ios":"levelo://app?vid=1870c30d-af90-4ec1-9b55-8d673e67b71b"},"vehicle_type_id":"4","last_reported":1716776636,"current_range_meters":6000,"station_id":"ce4bh692rcd13ifvqe90","pricing_plan_id":"cebpf4jnsgd1na2vs0mg"},{"bike_id":"9e43740a-6d1b-4ddd-a8f4-22d43b9a4aa3","system_id":"levelo_inurba_marseille","lat":43.294162,"lon":5.386292,"is_reserved":false,"is_disabled":false,"rental_uris":{"android":"levelo://app?vid=9e43740a-6d1b-4ddd-a8f4-22d43b9a4aa3","ios":"levelo://app?vid=9e43740a-6d1b-4ddd-a8f4-22d43b9a4aa3"},"vehicle_type_id":"4","last_reported":1716776636,"current_range_meters":28800,"station_id":"ce4bh2h2rcd13ifvqdh0","pricing_plan_id":"cebpf4jnsgd1na2vs0mg"},{"bike_id":"547e35a7-c9a6-4c4c-9901-dc6a23924c5c","system_id":"levelo_inurba_marseille","lat":43.289468,"lon":5.363719,"is_reserved":false,"is_disabled":false,"rental_uris":{"android":"levelo://app?vid=547e35a7-c9a6-4c4c-9901-dc6a23924c5c","ios":"levelo://app?vid=547e35a7-c9a6-4c4c-9901-dc6a23924c5c"},"vehicle_type_id":"4","last_reported":1716776636,"current_range_meters":15200,"station_id":"ce4bhc92rcd13ifvqetg","pricing_plan_id":"cebpf4jnsgd1na2vs0mg"},{"bike_id":"db58d2d4-03b8-4b6d-814e-6d26b393f0f5","system_id":"levelo_inurba_marseille","lat":43.292644,"lon":5.384257,"is_reserved":false,"is_disabled":false,"rental_uris":{"android":"levelo://app?vid=db58d2d4-03b8-4b6d-814e-6d26b393f0f5","ios":"levelo://app?vid=db58d2d4-03b8-4b6d-814e-6d26b393f0f5"},"vehicle_type_id":"4","last_reported":1716776636,"current_range_meters":28000,"station_id":"ce4bh692rcd13ifvqea0","pricing_plan_id":"cebpf4jnsgd1na2vs0mg"},{"bike_id":"70f2e0a5-8a9c-44a3-be84-ecf3ad0fcd81","system_id":"levelo_inurba_marseille","lat":43.292642,"lon":5.384254,"is_reserved":false,"is_disabled":false,"rental_uris":{"android":"levelo://app?vid=70f2e0a5-8a9c-44a3-be84-ecf3ad0fcd81","ios":"levelo://app?vid=70f2e0a5-8a9c-44a3-be84-ecf3ad0fcd81"},"vehicle_type_id":"4","last_reported":1716776636,"current_range_meters":26800,"station_id":"ce4bh692rcd13ifvqea0","pricing_plan_id":"cebpf4jnsgd1na2vs0mg"},{"bike_id":"5090ec95-6df7-4b08-ad4b-ecec73b791cd","system_id":"levelo_inurba_marseille","lat":43.30424,"lon":5.39751,"is_reserved":false,"is_disabled":false,"rental_uris":{"android":"levelo://app?vid=5090ec95-6df7-4b08-ad4b-ecec73b791cd","ios":"levelo://app?vid=5090ec95-6df7-4b08-ad4b-ecec73b791cd"},"vehicle_type_id":"4","last_reported":1716776636,"current_range_meters":27600,"station_id":"ce4bh092rcd13ifvqd20","pricing_plan_id":"cebpf4jnsgd1na2vs0mg"},{"bike_id":"1f0faa26-5be4-4cb6-bd9f-7e1d242d131a","system_id":"levelo_inurba_marseille","lat":43.292644,"lon":5.384257,"is_reserved":false,"is_disabled":false,"rental_uris":{"android":"levelo://app?vid=1f0faa26-5be4-4cb6-bd9f-7e1d242d131a","ios":"levelo://app?vid=1f0faa26-5be4-4cb6-bd9f-7e1d242d131a"},"vehicle_type_id":"4","last_reported":1716776636,"current_range_meters":21600,"station_id":"ce4bh692rcd13ifvqea0","pricing_plan_id":"cebpf4jnsgd1na2vs0mg"},{"bike_id":"4f0f3c9c-610a-4003-90ed-a2329adcfcff","system_id":"levelo_inurba_marseille","lat":43.290103,"lon":5.356114,"is_reserved":false,"is_disabled":false,"rental_uris":{"android":"levelo://app?vid=4f0f3c9c-610a-4003-90ed-a2329adcfcff","ios":"levelo://app?vid=4f0f3c9c-610a-4003-90ed-a2329adcfcff"},"vehicle_type_id":"4","last_reported":1716776636,"current_range_meters":28000,"station_id":"ce4bhb92rcd13ifvqen0","pricing_plan_id":"cebpf4jnsgd1na2vs0mg"},{"bike_id":"5fdf9a26-ba89-4461-b001-1994348f4cad","system_id":"levelo_inurba_marseille","lat":43.290995,"lon":5.381361,"is_reserved":false,"is_disabled":false,"rental_uris":{"android":"levelo://app?vid=5fdf9a26-ba89-4461-b001-1994348f4cad","ios":"levelo://app?vid=5fdf9a26-ba89-4461-b001-1994348f4cad"},"vehicle_type_id":"4","last_reported":1716776636,"current_range_meters":0,"station_id":"ce4bh512rcd13ifvqe2g","pricing_plan_id":"cebpf4jnsgd1na2vs0mg"},{"bike_id":"894d0364-cd1a-47b1-9c2e-fc6705803cda","system_id":"levelo_inurba_marseille","lat":43.290988,"lon":5.381332,"is_reserved":false,"is_disabled":false,"rental_uris":{"android":"levelo://app?vid=894d0364-cd1a-47b1-9c2e-fc6705803cda","ios":"levelo://app?vid=894d0364-cd1a-47b1-9c2e-fc6705803cda"},"vehicle_type_id":"4","last_reported":1716776636,"current_range_meters":19200,"station_id":"ce4bh512rcd13ifvqe2g","pricing_plan_id":"cebpf4jnsgd1na2vs0mg"},{"bike_id":"0ef0af86-2ebb-4066-b638-981ce330e473","system_id":"levelo_inurba_marseille","lat":43.290981,"lon":5.381444,"is_reserved":false,"is_disabled":false,"rental_uris":{"android":"levelo://app?vid=0ef0af86-2ebb-4066-b638-981ce330e473","ios":"levelo://app?vid=0ef0af86-2ebb-4066-b638-981ce330e473"},"vehicle_type_id":"4","last_reported":1716776636,"current_range_meters":28800,"station_id":"","pricing_plan_id":"cebpf4jnsgd1na2vs0mg"},{"bike_id":"3dc9f1e5-b07f-49e6-a6da-8a5e14cf691f","system_id":"levelo_inurba_marseille","lat":43.290995,"lon":5.381361,"is_reserved":false,"is_disabled":false,"rental_uris":{"android":"levelo://app?vid=3dc9f1e5-b07f-49e6-a6da-8a5e14cf691f","ios":"levelo://app?vid=3dc9f1e5-b07f-49e6-a6da-8a5e14cf691f"},"vehicle_type_id":"4","last_reported":1716776636,"current_range_meters":31600,"station_id":"ce4bh512rcd13ifvqe2g","pricing_plan_id":"cebpf4jnsgd1na2vs0mg"},