{"last_updated":1737288866,"ttl":60,"version":"2.2","data":{"bikes":[{"bike_id":"c14e1435-2995-4941-b0d3-fd020dba67d4","system_id":"levelo_inurba_marseille","lat":43.28269,"lon":5.3506,"is_reserved":false,"is_disabled":false,"rental_uris":{"android":"levelo://app?vid=c14e1435-2995-4941-b0d3-fd020dba67d4","ios":"levelo://app?vid=c14e1435-2995-4941-b0d3-fd020dba67d4"},"vehicle_type_id":"4","last_reported":1737288867,"current_range_meters":39200,"station_id":"ce4bhbp2rcd13ifvqerg","pricing_plan_id":"cebpf4jnsgd1na2vs0mg"},{"bike_id":"0592d753-7945-4787-9023-0b1de72db34c","system_id":"levelo_inurba_marseille","lat":43.29572,"lon":5.36744,"is_reserved":false,"is_disabled":false,"rental_uris":{"android":"levelo://app?vid=0592d753-7945-4787-9023-0b1de72db34c","ios":"levelo://app?vid=0592d753-7945-4787-9023-0b1de72db34c"},"vehicle_type_id":"4","last_reported":1737288867,"current_range_meters":22400,"station_id":"ce4bgph2rcd13ifvqc2g","pricing_plan_id":"cebpf4jnsgd1na2vs0mg"},{"bike_id":"d383b76c-b1c5-4112-bf95-e420a42ff72e","system_id":"levelo_inurba_marseille","lat":43.24805,"lon":5.37461,"is_reserved":false,"is_disabled":false,"rental_uris":{"android":"levelo://app?vid=d383b76c-b1c5-4112-bf95-e420a42ff72e","ios":"levelo://app?vid=d383b76c-b1c5-4112-bf95-e420a42ff72e"},"vehicle_type_id":"4","last_reported":1737288867,"current_range_meters":36800,"station_id":"ce4bhgh2rcd13ifvqfb0","pricing_plan_id":"cebpf4jnsgd1na2vs0mg"},{"bike_id":"eb6a7ef2-9572-4999-b0d9-89ac6512f20e","system_id":"levelo_inurba_marseille","lat":43.25012,"lon":5.38953,"is_reserved":false,"is_disabled":false,"rental_uris":{"android":"levelo://app?vid=eb6a7ef2-9572-4999-b0d9-89ac6512f20e","ios":"levelo://app?vid=eb6a7ef2-9572-4999-b0d9-89ac6512f20e"},"vehicle_type_id":"4","last_reported":1737288867,"current_range_meters":38800,"station_id":"ce4bhgp2rcd13ifvqfd0","pricing_plan_id":"cebpf4jnsgd1na2vs0mg"},{"bike_id":"2d784c23-50ab-47ed-8d7c-1967bfa5d99f","system_id":"levelo_inurba_marseille","lat":43.23065,"lon":5.35501,"is_reserved":false,"is_disabled":false,"rental_uris":{"android":"levelo://app?vid=2d784c23-50ab-47ed-8d7c-1967bfa5d99f","ios":"levelo://app?vid=2d784c23-50ab-47ed-8d7c-1967bfa5d99f"},"vehicle_type_id":"4","last_reported":1737288867,"current_range_meters":24800,"station_id":"cpo3342slgdg3j2ifvpg","pricing_plan_id":"cebpf4jnsgd1na2vs0mg"},{"bike_id":"a5cfd84d-4cae-4412-b199-dcb982d64799","system_id":"levelo_inurba_marseille","lat":43.284474,"lon":5.391845,"is_reserved":false,"is_disabled":true,"rental_uris":{"android":"levelo://app?vid=a5cfd84d-4cae-4412-b199-dcb982d64799","ios":"levelo://app?vid=a5cfd84d-4cae-4412-b199-dcb982d64799"},"vehicle_type_id":"4","last_reported":1737288867,"current_range_meters":0,"station_id":"ce4bhoh2rcd13ifvqh5g","pricing_plan_id":"cebpf4jnsgd1na2vs0mg"},{"bike_id":"50e5e5b8-b1a4-4667-ac23-98dd351e2cb1","system_id":"levelo_inurba_marseille","lat":43.29785,"lon":5.3711,"is_reserved":false,"is_disabled":false,"rental_uris":{"android":"levelo://app?vid=50e5e5b8-b1a4-4667-ac23-98dd351e2cb1","ios":"levelo://app?vid=50e5e5b8-b1a4-4667-ac23-98dd351e2cb1"},"vehicle_type_id":"4","last_reported":1737288867,"current_range_meters":37600,"station_id":"ce4bgop2rcd13ifvqc1g","pricing_plan_id":"cebpf4jnsgd1na2vs0mg"},{"bike_id":"ce8a7584-4efd-4b78-a3a8-dcbfb4361658","system_id":"levelo_inurba_marseille","lat":43.27495,"lon":5.42451,"is_reserved":false,"is_disabled":false,"rental_uris":{"android":"levelo://app?vid=ce8a7584-4efd-4b78-a3a8-dcbfb4361658","ios":"levelo://app?vid=ce8a7584-4efd-4b78-a3a8-dcbfb4361658"},"vehicle_type_id":"4","last_reported":1737288867,"current_range_meters":20400,"station_id":"ce4bhn92rcd13ifvqgrg","pricing_plan_id":"cebpf4jnsgd1na2vs0mg"},{"bike_id":"c4c1bbbe-fb86-44e1-9c71-7acc36f8b24a","system_id":"levelo_inurba_marseille","lat":43.32478,"lon":5.36566,"is_reserved":false,"is_disabled":false,"rental_uris":{"android":"levelo://app?vid=c4c1bbbe-fb86-44e1-9c71-7acc36f8b24a","ios":"levelo://app?vid=c4c1bbbe-fb86-44e1-9c71-7acc36f8b24a"},"vehicle_type_id":"4","last_reported":1737288867,"current_range_meters":3200,"station_id":"ce4bhs12rcd13ifvqhvg","pricing_plan_id":"cebpf4jnsgd1na2vs0mg"},{"bike_id":"90c165c3-eff9-4a4a-8f28-cfa68619e419","system_id":"levelo_inurba_marseille","lat":43.28731,"lon":5.40022,"is_reserved":false,"is_disabled":true,"rental_uris":{"android":"levelo://app?vid=90c165c3-eff9-4a4a-8f28-cfa68619e419","ios":"levelo://app?vid=90c165c3-eff9-4a4a-8f28-cfa68619e419"},"vehicle_type_id":"4","last_reported":1737288867,"current_range_meters":28800,"station_id":"ce4bho92rcd13ifvqh3g","pricing_plan_id":"cebpf4jnsgd1na2vs0mg"},{"bike_id":"2fd2edfb-6221-41d6-b01a-b5795bb2950c","system_id":"levelo_inurba_marseille","lat":43.29002,"lon":5.3561,"is_reserved":false,"is_disabled":false,"rental_uris":{"android":"levelo://app?vid=2fd2edfb-6221-41d6-b01a-b5795bb2950c","ios":"levelo://app?vid=2fd2edfb-6221-41d6-b01a-b5795bb2950c"},"vehicle_type_id":"4","last_reported":1737288867,"current_range_meters":36400,"station_id":"ce4bhb92rcd13ifvqen0","pricing_plan_id":"cebpf4jnsgd1na2vs0mg"},{"bike_id":"4975d3c5-1381-4300-914e-0a110da6ae0f","system_id":"levelo_inurba_marseille","lat":43.24081,"lon":5.37754,"is_reserved":false,"is_disabled":false,"rental_uris":{"android":"levelo://app?vid=4975d3c5-1381-4300-914e-0a110da6ae0f","ios":"levelo://app?vid=4975d3c5-1381-4300-914e-0a110da6ae0f"},"vehicle_type_id":"4","last_reported":1737288867,"current_range_meters":39200,"station_id":"ce4bhnp2rcd13ifvqgvg","pricing_plan_id":"cebpf4jnsgd1na2vs0mg"},{"bike_id":"a52cea13-71a0-4661-9fa9-a7b142a6c91d","system_id":"levelo_inurba_marseille","lat":43.30353,"lon":5.41865,"is_reserved":false,"is_disabled":false,"rental_uris":{"android":"levelo://app?vid=a52cea13-71a0-4661-9fa9-a7b142a6c91d","ios":"levelo://app?vid=a52cea13-71a0-4661-9fa9-a7b142a6c91d"},"vehicle_type_id":"4","last_reported":1737288867,"current_range_meters":38800,"station_id":"ce4bhop2rcd13ifvqh7g","pricing_plan_id":"cebpf4jnsgd1na2vs0mg"},{"bike_id":"fb6444ef-e49f-4492-8d60-1abdca6e92f8","system_id":"levelo_inurba_marseille","lat":43.29626,"lon":5.37166,"is_reserved":false,"is_disabled":false,"rental_uris":{"android":"levelo://app?vid=fb6444ef-e49f-4492-8d60-1abdca6e92f8","ios":"levelo://app?vid=fb6444ef-e49f-4492-8d60-1abdca6e92f8"},"vehicle_type_id":"4","last_reported":1737288867,"current_range_meters":38800,"station_id":"ce4bgnh2rcd13ifvqc0g","pricing_plan_id":"cebpf4jnsgd1na2vs0mg"},{"bike_id":"2fe88d16-af55-4de4-84b3-2988d3ee891a","system_id":"levelo_inurba_marseille","lat":43.30347,"lon":5.41872,"is_reserved":false,"is_disabled":false,"rental_uris":{"android":"levelo://app?vid=2fe88d16-af55-4de4-84b3-2988d3ee891a","ios":"levelo://app?vid=2fe88d16-af55-4de4-84b3-2988d3ee891a"},"vehicle_type_id":"4","last_reported":1737288867,"current_range_meters":38800,"station_id":"ce4bhop2rcd13ifvqh7g","pricing_plan_id":"cebpf4jnsgd1na2vs0mg"},{"bike_id":"46efa326-c02d-4314-a6fe-f05976f22b94","system_id":"levelo_inurba_marseille","lat":43.28034,"lon":5.36947,"is_reserved":false,"is_disabled":false,"rental_uris":{"android":"levelo://app?vid=46efa326-c02d-4314-a6fe-f05976f22b94","ios":"levelo://app?vid=46efa326-c02d-4314-a6fe-f05976f22b94"},"vehicle_type_id":"4","last_reported":1737288867,"current_range_meters":13600,"station_id":"ce4bha12rcd13ifvqef0","pricing_plan_id":"cebpf4jnsgd1na2vs0mg"},{"bike_id":"a8d60642-fe96-4b58-bc47-e3d5b1c686aa","system_id":"levelo_inurba_marseille","lat":43.27064,"lon":5.40279,"is_reserved":false,"is_disabled":false,"rental_uris":{"android":"levelo://app?vid=a8d60642-fe96-4b58-bc47-e3d5b1c686aa","ios":"levelo://app?vid=a8d60642-fe96-4b58-bc47-e3d5b1c686aa"},"vehicle_type_id":"4","last_reported":1737288867,"current_range_meters":32400,"station_id":"ce4bhk92rcd13ifvqgc0","pricing_plan_id":"cebpf4jnsgd1na2vs0mg"},{"bike_id":"763ed4fc-16fd-47a0-aedf-62c028daa66f","system_id":"levelo_inurba_marseille","lat":43.363945,"lon":5.355668,"is_reserved":false,"is_disabled":false,"rental_uris":{"android":"levelo://app?vid=763ed4fc-16fd-47a0-aedf-62c028daa66f","ios":"levelo://app?vid=763ed4fc-16fd-47a0-aedf-62c028daa66f"},"vehicle_type_id":"4","last_reported":1737288867,"current_range_meters":14000,"station_id":"","pricing_plan_id":"cebpf4jnsgd1na2vs0mg"},{"bike_id":"30dd5496-790e-4c58-8deb-1b3198069f4b","system_id":"levelo_inurba_marseille","lat":43.286638,"lon":5.363621,"is_reserved":false,"is_disabled":false,"rental_uris":{"android":"levelo://app?vid=30dd5496-790e-4c58-8deb-1b3198069f4b","ios":"levelo://app?vid=30dd5496-790e-4c58-8deb-1b3198069f4b"},"vehicle_type_id":"4","last_reported":1737288867,"current_range_meters":21600,"station_id":"","pricing_plan_id":"cebpf4jnsgd1na2vs0mg"},{"bike_id":"1022f24d-239e-49a1-a4b8-988e34719576","system_id":"levelo_inurba_marseille","lat":43.24548,"lon":5.39539,"is_reserved":false,"is_disabled":false,"rental_uris":{"android":"levelo://app?vid=1022f24d-239e-49a1-a4b8-988e34719576","ios":"levelo://app?vid=1022f24d-239e-49a1-a4b8-988e34719576"},"vehicle_type_id":"4","last_reported":1737288867,"current_range_meters":14000,"station_id":"ce4bhlp2rcd13ifvqgjg","pricing_plan_id":"cebpf4jnsgd1na2vs0mg"},{"bike_id":"0c5f73cf-e0e8-4f65-bd3a-b767c1efa8ac","system_id":"levelo_inurba_marseille","lat":43.30532,"lon":5.36529,"is_reserved":false,"is_disabled":false,"rental_uris":{"android":"levelo://app?vid=0c5f73cf-e0e8-4f65-bd3a-b767c1efa8ac","ios":"levelo://app?vid=0c5f73cf-e0e8-4f65-bd3a-b767c1efa8ac"},"vehicle_type_id":"4","last_reported":1737288867,"current_range_meters":32000,"station_id":"ce4bgs12rcd13ifvqcag","pricing_plan_id":"cebpf4jnsgd1na2vs0mg"},{"bike_id":"ad08cd9f-1639-4a57-8b57-deede0de842e","system_id":"levelo_inurba_marseille","lat":43.24548,"lon":5.39524,"is_reserved":false,"is_disabled":false,"rental_uris":{"android":"levelo://app?vid=ad08cd9f-1639-4a57-8b57-deede0de842e","ios":"levelo://app?vid=ad08cd9f-1639-4a57-8b57-deede0de842e"},"vehicle_type_id":"4","last_reported":1737288867,"current_range_meters":32800,"station_id":"ce4bhlp2rcd13ifvqgjg","pricing_plan_id":"cebpf4jnsgd1na2vs0mg"},{"bike_id":"f3c94274-f861-4c89-8bb1-1ebe1a531935","system_id":"levelo_inurba_marseille","lat":43.25031,"lon":5.3893,"is_reserved":false,"is_disabled":false,"rental_uris":{"android":"levelo://app?vid=f3c94274-f861-4c89-8bb1-1ebe1a531935","ios":"levelo://app?vid=f3c94274-f861-4c89-8bb1-1ebe1a531935"},"vehicle_type_id":"4","last_reported":1737288867,"current_range_meters":38000,"station_id":"ce4bhgp2rcd13ifvqfd0","pricing_plan_id":"cebpf4jnsgd1na2vs0mg"},{"bike_id":"ff3de293-c145-4211-b5a4-c91daf77b8f3","system_id":"levelo_inurba_marseille","lat":43.30546,"lon":5.36707,"is_reserved":false,"is_disabled":false,"rental_uris":{"android":"levelo://app?vid=ff3de293-c145-4211-b5a4-c91daf77b8f3","ios":"levelo://app?vid=ff3de293-c145-4211-b5a4-c91daf77b8f3"},"vehicle_type_id":"4","last_reported":1737288867,"current_range_meters":36400,"station_id":"ce4bgrp2rcd13ifvqc9g","pricing_plan_id":"cebpf4jnsgd1na2vs0mg"},{"bike_id":"ea820ade-d81d-428e-82b9-7f165f7e8e75","system_id":"levelo_inurba_marseille","lat":43.32377,"lon":5.36781,"is_reserved":false,"is_disabled":false,"rental_uris":{"android":"levelo://app?vid=ea820ade-d81d-428e-82b9-7f165f7e8e75","ios":"levelo://app?vid=ea820ade-d81d-428e-82b9-7f165f7e8e75"},"vehicle_type_id":"4","last_reported":1737288867,"current_range_meters":16800,"station_id":"ce4bhsh2rcd13ifvqi2g","pricing_plan_id":"cebpf4jnsgd1na2vs0mg"},{"bike_id":"c29020e0-83ef-4b06-ac4f-c4422257f84a","system_id":"levelo_inurba_marseille","lat":43.36396,"lon":5.35609,"is_reserved":false,"is_disabled":false,"rental_uris":{"android":"levelo://app?vid=c29020e0-83ef-4b06-ac4f-c4422257f84a","ios":"levelo://app?vid=c29020e0-83ef-4b06-ac4f-c4422257f84a"},"vehicle_type_id":"4","last_reported":1737288867,"current_range_meters":18800,"station_id":"","pricing_plan_id":"cebpf4jnsgd1na2vs0mg"},{"bike_id":"4d2ccefc-c9c0-427b-a224-e63857f280c0","system_id":"levelo_inurba_marseille","lat":43.28272,"lon":5.35058,"is_reserved":false,"is_disabled":false,"rental_uris":{"android":"levelo://app?vid=4d2ccefc-c9c0-427b-a224-e63857f280c0","ios":"levelo://app?vid=4d2ccefc-c9c0-427b-a224-e63857f280c0"},"vehicle_type_id":"4","last_reported":1737288867,"current_range_meters":23200,"station_id":"ce4bhbp2rcd13ifvqerg","pricing_plan_id":"cebpf4jnsgd1na2vs0mg"},{"bike_id":"03130477-5de0-4f40-b2f5-8e95486c51e6","system_id":"levelo_inurba_marseille","lat":43.26791,"lon":5.40274,"is_reserved":false,"is_disabled":false,"rental_uris":{"android":"levelo://app?vid=03130477-5de0-4f40-b2f5-8e95486c51e6","ios":"levelo://app?vid=03130477-5de0-4f40-b2f5-8e95486c51e6"},"vehicle_type_id":"4","last_reported":1737288867,"current_range_meters":39200,"station_id":"ce501612rcd8frsf0b60","pricing_plan_id":"cebpf4jnsgd1na2vs0mg"},{"bike_id":"580b7161-3303-4bef-8462-944a33cc178e","system_id":"levelo_inurba_marseille","lat":43.29007,"lon":5.35616,"is_reserved":false,"is_disabled":false,"rental_uris":{"android":"levelo://app?vid=580b7161-3303-4bef-8462-944a33cc178e","ios":"levelo://app?vid=580b7161-3303-4bef-8462-944a33cc178e"},"vehicle_type_id":"4","last_reported":1737288867,"current_range_meters":38800,"station_id":"ce4bhb92rcd13ifvqen0","pricing_plan_id":"cebpf4jnsgd1na2vs0mg"},{"bike_id":"4d4ec566-516b-4793-a5be-68a8e0188dc4","system_id":"levelo_inurba_marseille","lat":43.33017,"lon":5.39045,"is_reserved":false,"is_disabled":false,"rental_uris":{"android":"levelo://app?vid=4d4ec566-516b-4793-a5be-68a8e0188dc4","ios":"levelo://app?vid=4d4ec566-516b-4793-a5be-68a8e0188dc4"},"vehicle_type_id":"4","last_reported":1737288867,"current_range_meters":38800,"station_id":"ce4bhr92rcd13ifvqhrg","pricing_plan_id":"cebpf4jnsgd1na2vs0mg"},{"bike_id":"b672b566-ae6e-4181-a2cb-0155be334a04","system_id":"levelo_inurba_marseille","lat":43.28943,"lon":5.36648,"is_reserved":false,"is_disabled":true,"rental_uris":{"android":"levelo://app?vid=b672b566-ae6e-4181-a2cb-0155be334a04","ios":"levelo://app?vid=b672b566-ae6e-4181-a2cb-0155be334a04"},"vehicle_type_id":"4","last_reported":1737288867,"current_range_meters":33600,"station_id":"ce4bhap2rcd13ifvqek0","pricing_plan_id":"cebpf4jnsgd1na2vs0mg"},{"bike_id":"da8bf9e3-4bf2-47e6-bf6c-f9592c1d37b1","system_id":"levelo_inurba_marseille","lat":43.29714,"lon":5.36562,"is_reserved":false,"is_disabled":false,"rental_uris":{"android":"levelo://app?vid=da8bf9e3-4bf2-47e6-bf6c-f9592c1d37b1","ios":"levelo://app?vid=da8bf9e3-4bf2-47e6-bf6c-f9592c1d37b1"},"vehicle_type_id":"4","last_reported":1737288867,"current_range_meters":38800,"station_id":"ce4bgn12rcd13ifvqbt0","pricing_plan_id":"cebpf4jnsgd1na2vs0mg"},{"bike_id":"04e7f6b2-1170-476d-8eb7-54bc6ab7d23c","system_id":"levelo_inurba_marseille","lat":43.24409,"lon":5.371,"is_reserved":false,"is_disabled":false,"rental_uris":{"android":"levelo://app?vid=04e7f6b2-1170-476d-8eb7-54bc6ab7d23c","ios":"levelo://app?vid=04e7f6b2-1170-476d-8eb7-54bc6ab7d23c"},"vehicle_type_id":"4","last_reported":1737288867,"current_range_meters":38000,"station_id":"ce4bhhh2rcd13ifvqfk0","pricing_plan_id":"cebpf4jnsgd1na2vs0mg"},{"bike_id":"82a439cc-6a5b-4648-a668-dac0943becaf","system_id":"levelo_inurba_marseille","lat":43.26217,"lon":5.3744,"is_reserved":false,"is_disabled":false,"rental_uris":{"android":"levelo://app?vid=82a439cc-6a5b-4648-a668-dac0943becaf","ios":"levelo://app?vid=82a439cc-6a5b-4648-a668-dac0943becaf"},"vehicle_type_id":"4","last_reported":1737288867,"current_range_meters":9200,"station_id":"ce4bhgp2rcd13ifvqfc0","pricing_plan_id":"cebpf4jnsgd1na2vs0mg"},{"bike_id":"dc9a3458-c280-48fd-813a-f6e4f29a94ea","system_id":"levelo_inurba_marseille","lat":43.30843,"lon":5.39187,"is_reserved":false,"is_disabled":false,"rental_uris":{"android":"levelo://app?vid=dc9a3458-c280-48fd-813a-f6e4f29a94ea","ios":"levelo://app?vid=dc9a3458-c280-48fd-813a-f6e4f29a94ea"},"vehicle_type_id":"4","last_reported":1737288867,"current_range_meters":34800,"station_id":"ce4bgup2rcd13ifvqco0","pricing_plan_id":"cebpf4jnsgd1na2vs0mg"},{"bike_id":"abaa5fe1-1ace-4e51-84bd-1fd494b6f645","system_id":"levelo_inurba_marseille","lat":43.29604,"lon":5.36736,"is_reserved":false,"is_disabled":false,"rental_uris":{"android":"levelo://app?vid=abaa5fe1-1ace-4e51-84bd-1fd494b6f645","ios":"levelo://app?vid=abaa5fe1-1ace-4e51-84bd-1fd494b6f645"},"vehicle_type_id":"4","last_reported":1737288867,"current_range_meters":16400,"station_id":"ce4bgph2rcd13ifvqc2g","pricing_plan_id":"cebpf4jnsgd1na2vs0mg"},{"bike_id":"df581145-fd95-4a77-a27c-2465bbb559bf","system_id":"levelo_inurba_marseille","lat":43.24663,"lon":5.38166,"is_reserved":false,"is_disabled":false,"rental_uris":{"android":"levelo://app?vid=df581145-fd95-4a77-a27c-2465bbb559bf","ios":"levelo://app?vid=df581145-fd95-4a77-a27c-2465bbb559bf"},"vehicle_type_id":"4","last_reported":1737288867,"current_range_meters":28000,"station_id":"ce4bhih2rcd13ifvqfr0","pricing_plan_id":"cebpf4jnsgd1na2vs0mg"},{"bike_id":"a1268425-e1b2-45b1-8fbc-9391b8140126","system_id":"levelo_inurba_marseille","lat":43.24403,"lon":5.37049,"is_reserved":false,"is_disabled":false,"rental_uris":{"android":"levelo://app?vid=a1268425-e1b2-45b1-8fbc-9391b8140126","ios":"levelo://app?vid=a1268425-e1b2-45b1-8fbc-9391b8140126"},"vehicle_type_id":"4","last_reported":1737288867,"current_range_meters":28800,"station_id":"ce4bhhh2rcd13ifvqfk0","pricing_plan_id":"cebpf4jnsgd1na2vs0mg"},{"bike_id":"501ab4fd-c09d-4978-b056-79da026409be","system_id":"levelo_inurba_marseille","lat":43.26211,"lon":5.40464,"is_reserved":false,"is_disabled":false,"rental_uris":{"android":"levelo://app?vid=501ab4fd-c09d-4978-b056-79da026409be","ios":"levelo://app?vid=501ab4fd-c09d-4978-b056-79da026409be"},"vehicle_type_id":"4","last_reported":1737288867,"current_range_meters":36000,"station_id":"","pricing_plan_id":"cebpf4jnsgd1na2vs0mg"},{"bike_id":"4bb6c9cd-c6f8-44c2-8ed9-08fbe90d00a6","system_id":"levelo_inurba_marseille","lat":43.301088,"lon":5.39085,"is_reserved":false,"is_disabled":false,"rental_uris":{"android":"levelo://app?vid=4bb6c9cd-c6f8-44c2-8ed9-08fbe90d00a6","ios":"levelo://app?vid=4bb6c9cd-c6f8-44c2-8ed9-08fbe90d00a6"},"vehicle_type_id":"4","last_reported":1737288867,"current_range_meters":38800,"station_id":"ce4bh192rcd13ifvqdb0","pricing_plan_id":"cebpf4jnsgd1na2vs0mg"},{"bike_id":"0ba7f278-0e2d-4e04-ad57-3c9317bb7bb9","system_id":"levelo_inurba_marseille","lat":43.29787,"lon":5.39339,"is_reserved":false,"is_disabled":false,"rental_uris":{"android":"levelo://app?vid=0ba7f278-0e2d-4e04-ad57-3c9317bb7bb9","ios":"levelo://app?vid=0ba7f278-0e2d-4e04-ad57-3c9317bb7bb9"},"vehicle_type_id":"4","last_reported":1737288867,"current_range_meters":19600,"station_id":"chh1huq6cuj3fo74tm60","pricing_plan_id":"cebpf4jnsgd1na2vs0mg"},{"bike_id":"2a8e584b-1bbf-4093-9cfb-3c40ea281be3","system_id":"levelo_inurba_marseille","lat":43.2964,"lon":5.37745,"is_reserved":false,"is_disabled":false,"rental_uris":{"android":"levelo://app?vid=2a8e584b-1bbf-4093-9cfb-3c40ea281be3","ios":"levelo://app?vid=2a8e584b-1bbf-4093-9cfb-3c40ea281be3"},"vehicle_type_id":"4","last_reported":1737288867,"current_range_meters":39200,"station_id":"ce4bgi92rcd13ifvqb90","pricing_plan_id":"cebpf4jnsgd1na2vs0mg"},{"bike_id":"38c185d8-e4c7-4dac-b304-b4571124284e","system_id":"levelo_inurba_marseille","lat":43.29591,"lon":5.36761,"is_reserved":false,"is_disabled":false,"rental_uris":{"android":"levelo://app?vid=38c185d8-e4c7-4dac-b304-b4571124284e","ios":"levelo://app?vid=38c185d8-e4c7-4dac-b304-b4571124284e"},"vehicle_type_id":"4","last_reported":1737288867,"current_range_meters":39200,"station_id":"ce4bgph2rcd13ifvqc2g","pricing_plan_id":"cebpf4jnsgd1na2vs0mg"},{"bike_id":"11a07483-ac44-4656-9163-136ce72ccf2e","system_id":"levelo_inurba_marseille","lat":43.30544,"lon":5.36552,"is_reserved":false,"is_disabled":false,"rental_uris":{"android":"levelo://app?vid=11a07483-ac44-4656-9163-136ce72ccf2e","ios":"levelo://app?vid=11a07483-ac44-4656-9163-136ce72ccf2e"},"vehicle_type_id":"4","last_reported":1737288867,"current_range_meters":38800,"station_id":"ce4bgs12rcd13ifvqcag","pricing_plan_id":"cebpf4jnsgd1na2vs0mg"},{"bike_id":"3a731730-e771-49da-936d-6c5bde95e753","system_id":"levelo_inurba_marseille","lat":43.24388,"lon":5.37078,"is_reserved":false,"is_disabled":false,"rental_uris":{"android":"levelo://app?vid=3a731730-e771-49da-936d-6c5bde95e753","ios":"levelo://app?vid=3a731730-e771-49da-936d-6c5bde95e753"},"vehicle_type_id":"4","last_reported":1737288867,"current_range_meters":10800,"station_id":"ce4bhhh2rcd13ifvqfk0","pricing_plan_id":"cebpf4jnsgd1na2vs0mg"},{"bike_id":"cd25f333-fd4e-4c60-8178-f47ff2a33434","system_id":"levelo_inurba_marseille","lat":43.24394,"lon":5.37059,"is_reserved":false,"is_disabled":false,"rental_uris":{"android":"levelo://app?vid=cd25f333-fd4e-4c60-8178-f47ff2a33434","ios":"levelo://app?vid=cd25f333-fd4e-4c60-8178-f47ff2a33434"},"vehicle_type_id":"4","last_reported":1737288867,"current_range_meters":24800,"station_id":"ce4bhhh2rcd13ifvqfk0","pricing_plan_id":"cebpf4jnsgd1na2vs0mg"},{"bike_id":"7b5cc4cc-e608-454c-95d4-00c7b5c48c31","system_id":"levelo_inurba_marseille","lat":43.25938,"lon":5.40955,"is_reserved":false,"is_disabled":false,"rental_uris":{"android":"levelo://app?vid=7b5cc4cc-e608-454c-95d4-00c7b5c48c31","ios":"levelo://app?vid=7b5cc4cc-e608-454c-95d4-00c7b5c48c31"},"vehicle_type_id":"4","last_reported":1737288867,"current_range_meters":6800,"station_id":"ce4bhm92rcd13ifvqglg","pricing_plan_id":"cebpf4jnsgd1na2vs0mg"},{"bike_id":"ec14b574-9118-4fb3-9ff8-f695179f00f1","system_id":"levelo_inurba_marseille","lat":43.25111,"lon":5.40327,"is_reserved":false,"is_disabled":false,"rental_uris":{"android":"levelo://app?vid=ec14b574-9118-4fb3-9ff8-f695179f00f1","ios":"levelo://app?vid=ec14b574-9118-4fb3-9ff8-f695179f00f1"},"vehicle_type_id":"4","last_reported":1737288867,"current_range_meters":28400,"station_id":"ce4bhlh2rcd13ifvqgig","pricing_plan_id":"cebpf4jnsgd1na2vs0mg"},{"bike_id":"644b6a66-e713-4aa9-bb95-30a64653cec0","system_id":"levelo_inurba_marseille","lat":43.27505,"lon":5.42458,"is_reserved":false,"is_disabled":false,"rental_uris":{"android":"levelo://app?vid=644b6a66-e713-4aa9-bb95-30a64653cec0","ios":"levelo://app?vid=644b6a66-e713-4aa9-bb95-30a64653cec0"},"vehicle_type_id":"4","last_reported":1737288867,"current_range_meters":16400,"station_id":"ce4bhn92rcd13ifvqgrg","pricing_plan_id":"cebpf4jnsgd1na2vs0mg"},{"bike_id":"ae38ec3d-afde-4eeb-a761-25157030eba5","system_id":"levelo_inurba_marseille","lat":43.30353,"lon":5.41883,"is_reserved":false,"is_disabled":false,"rental_uris":{"android":"levelo://app?vid=ae38ec3d-afde-4eeb-a761-25157030eba5","ios":"levelo://app?vid=ae38ec3d-afde-4eeb-a761-25157030eba5"},"vehicle_type_id":"4","last_reported":1737288867,"current_range_meters":27600,"station_id":"ce4bhop2rcd13ifvqh7g","pricing_plan_id":"cebpf4jnsgd1na2vs0mg"},{"bike_id":"bef1fd70-c1d1-453a-8327-b40c750dee14","system_id":"levelo_inurba_marseille","lat":43.255,"lon":5.37652,"is_reserved":false,"is_disabled":false,"rental_uris":{"android":"levelo://app?vid=bef1fd70-c1d1-453a-8327-b40c750dee14","ios":"levelo://app?vid=bef1fd70-c1d1-453a-8327-b40c750dee14"},"vehicle_type_id":"4","last_reported":1737288867,"current_range_meters":18000,"station_id":"ce4bhh12rcd13ifvqff0","pricing_plan_id":"cebpf4jnsgd1na2vs0mg"},{"bike_id":"af5b8175-7607-4e8b-bd8b-498775e7b79a","system_id":"levelo_inurba_marseille","lat":43.28168,"lon":5.42667,"is_reserved":false,"is_disabled":false,"rental_uris":{"android":"levelo://app?vid=af5b8175-7607-4e8b-bd8b-498775e7b79a","ios":"levelo://app?vid=af5b8175-7607-4e8b-bd8b-498775e7b79a"},"vehicle_type_id":"4","last_reported":1737288867,"current_range_meters":27200,"station_id":"ce4bhnh2rcd13ifvqgug","pricing_plan_id":"cebpf4jnsgd1na2vs0mg"},{"bike_id":"61ba8cf5-8b6a-4b4f-b312-d60aa68c9710","system_id":"levelo_inurba_marseille","lat":43.24052,"lon":5.3773,"is_reserved":false,"is_disabled":false,"rental_uris":{"android":"levelo://app?vid=61ba8cf5-8b6a-4b4f-b312-d60aa68c9710","ios":"levelo://app?vid=61ba8cf5-8b6a-4b4f-b312-d60aa68c9710"},"vehicle_type_id":"4","last_reported":1737288867,"current_range_meters":37600,"station_id":"ce4bhnp2rcd13ifvqgvg","pricing_plan_id":"cebpf4jnsgd1na2vs0mg"},{"bike_id":"10b8da58-1f12-44b0-8c4c-eff01d48a146","system_id":"levelo_inurba_marseille","lat":43.30677,"lon":5.401,"is_reserved":false,"is_disabled":true,"rental_uris":{"android":"levelo://app?vid=10b8da58-1f12-44b0-8c4c-eff01d48a146","ios":"levelo://app?vid=10b8da58-1f12-44b0-8c4c-eff01d48a146"},"vehicle_type_id":"4","last_reported":1737288867,"current_range_meters":28000,"station_id":"ce4bh112rcd13ifvqda0","pricing_plan_id":"cebpf4jnsgd1na2vs0mg"},{"bike_id":"ca8aa51d-4833-4c77-8009-59b7c07323a3","system_id":"levelo_inurba_marseille","lat":43.323662,"lon":5.367617,"is_reserved":false,"is_disabled":false,"rental_uris":{"android":"levelo://app?vid=ca8aa51d-4833-4c77-8009-59b7c07323a3","ios":"levelo://app?vid=ca8aa51d-4833-4c77-8009-59b7c07323a3"},"vehicle_type_id":"4","last_reported":1737288867,"current_range_meters":36400,"station_id":"ce4bhsh2rcd13ifvqi2g","pricing_plan_id":"cebpf4jnsgd1na2vs0mg"},{"bike_id":"1d4007de-5e5a-4af2-8507-05cd33c939dc","system_id":"levelo_inurba_marseille","lat":43.2931,"lon":5.37193,"is_reserved":false,"is_disabled":false,"rental_uris":{"android":"levelo://app?vid=1d4007de-5e5a-4af2-8507-05cd33c939dc","ios":"levelo://app?vid=1d4007de-5e5a-4af2-8507-05cd33c939dc"},"vehicle_type_id":"4","last_reported":1737288867,"current_range_meters":31200,"station_id":"ce4bgh92rcd13ifvqb40","pricing_plan_id":"cebpf4jnsgd1na2vs0mg"},{"bike_id":"d93de546-7fe4-48c6-858e-31c30d6fd688","system_id":"levelo_inurba_marseille","lat":43.25579,"lon":5.38245,"is_reserved":false,"is_disabled":false,"rental_uris":{"android":"levelo://app?vid=d93de546-7fe4-48c6-858e-31c30d6fd688","ios":"levelo://app?vid=d93de546-7fe4-48c6-858e-31c30d6fd688"},"vehicle_type_id":"4","last_reported":1737288867,"current_range_meters":11200,"station_id":"ce4bhih2rcd13ifvqfs0","pricing_plan_id":"cebpf4jnsgd1na2vs0mg"},{"bike_id":"9dc49063-283d-43eb-bbfe-31fee7e70777","system_id":"levelo_inurba_marseille","lat":43.31242,"lon":5.36914,"is_reserved":false,"is_disabled":false,"rental_uris":{"android":"levelo://app?vid=9dc49063-283d-43eb-bbfe-31fee7e70777","ios":"levelo://app?vid=9dc49063-283d-43eb-bbfe-31fee7e70777"},"vehicle_type_id":"4","last_reported":1737288867,"current_range_meters":8800,"station_id":"","pricing_plan_id":"cebpf4jnsgd1na2vs0mg"},{"bike_id":"ce0ee56d-180c-40a7-8ee4-1ff6fa737784","system_id":"levelo_inurba_marseille","lat":43.29874,"lon":5.43646,"is_reserved":false,"is_disabled":false,"rental_uris":{"android":"levelo://app?vid=ce0ee56d-180c-40a7-8ee4-1ff6fa737784","ios":"levelo://app?vid=ce0ee56d-180c-40a7-8ee4-1ff6fa737784"},"vehicle_type_id":"4","last_reported":1737288867,"current_range_meters":38800,"station_id":"ce4bhpp2rcd13ifvqhfg","pricing_plan_id":"cebpf4jnsgd1na2vs0mg"},{"bike_id":"74bf9fa6-b490-4985-84f6-376c7e8f74e0","system_id":"levelo_inurba_marseille","lat":43.23971,"lon":5.36641,"is_reserved":false,"is_disabled":false,"rental_uris":{"android":"levelo://app?vid=74bf9fa6-b490-4985-84f6-376c7e8f74e0","ios":"levelo://app?vid=74bf9fa6-b490-4985-84f6-376c7e8f74e0"},"vehicle_type_id":"4","last_reported":1737288867,"current_range_meters":24400,"station_id":"ce4bhi12rcd13ifvqfp0","pricing_plan_id":"cebpf4jnsgd1na2vs0mg"},{"bike_id":"e981bed2-32f6-4349-b4d5-67df9eb8bf3a","system_id":"levelo_inurba_marseille","lat":43.26674,"lon":5.38268,"is_reserved":false,"is_disabled":false,"rental_uris":{"android":"levelo://app?vid=e981bed2-32f6-4349-b4d5-67df9eb8bf3a","ios":"levelo://app?vid=e981bed2-32f6-4349-b4d5-67df9eb8bf3a"},"vehicle_type_id":"4","last_reported":1737288867,"current_range_meters":8800,"station_id":"ce4bhg92rcd13ifvqf90","pricing_plan_id":"cebpf4jnsgd1na2vs0mg"},{"bike_id":"57d9fa47-e597-4ea4-913f-9b45079bd718","system_id":"levelo_inurba_marseille","lat":43.33044,"lon":5.39038,"is_reserved":false,"is_disabled":false,"rental_uris":{"android":"levelo://app?vid=57d9fa47-e597-4ea4-913f-9b45079bd718","ios":"levelo://app?vid=57d9fa47-e597-4ea4-913f-9b45079bd718"},"vehicle_type_id":"4","last_reported":1737288867,"current_range_meters":8000,"station_id":"ce4bhr92rcd13ifvqhrg","pricing_plan_id":"cebpf4jnsgd1na2vs0mg"},{"bike_id":"4ebb9d08-46cb-471c-a211-a9f16526c23f","system_id":"levelo_inurba_marseille","lat":43.24998,"lon":5.38932,"is_reserved":false,"is_disabled":false,"rental_uris":{"android":"levelo://app?vid=4ebb9d08-46cb-471c-a211-a9f16526c23f","ios":"levelo://app?vid=4ebb9d08-46cb-471c-a211-a9f16526c23f"},"vehicle_type_id":"4","last_reported":1737288867,"current_range_meters":28800,"station_id":"ce4bhgp2rcd13ifvqfd0","pricing_plan_id":"cebpf4jnsgd1na2vs0mg"},{"bike_id":"4ec76aa8-1e80-4051-b2ea-1baaf50a61e8","system_id":"levelo_inurba_marseille","lat":43.24147,"lon":5.38093,"is_reserved":false,"is_disabled":false,"rental_uris":{"android":"levelo://app?vid=4ec76aa8-1e80-4051-b2ea-1baaf50a61e8","ios":"levelo://app?vid=4ec76aa8-1e80-4051-b2ea-1baaf50a61e8"},"vehicle_type_id":"4","last_reported":1737288867,"current_range_meters":18000,"station_id":"","pricing_plan_id":"cebpf4jnsgd1na2vs0mg"},{"bike_id":"bd00f222-ce0c-4f81-a68c-0edabc3e5f6b","system_id":"levelo_inurba_marseille","lat":43.25101,"lon":5.39525,"is_reserved":false,"is_disabled":false,"rental_uris":{"android":"levelo://app?vid=bd00f222-ce0c-4f81-a68c-0edabc3e5f6b","ios":"levelo://app?vid=bd00f222-ce0c-4f81-a68c-0edabc3e5f6b"},"vehicle_type_id":"4","last_reported":1737288867,"current_range_meters":37600,"station_id":"ce4bhm12rcd13ifvqgkg","pricing_plan_id":"cebpf4jnsgd1na2vs0mg"},{"bike_id":"504e7a73-a8fc-4188-a6b2-d41c3f38478c","system_id":"levelo_inurba_marseille","lat":43.30539,"lon":5.36526,"is_reserved":false,"is_disabled":false,"rental_uris":{"android":"levelo://app?vid=504e7a73-a8fc-4188-a6b2-d41c3f38478c","ios":"levelo://app?vid=504e7a73-a8fc-4188-a6b2-d41c3f38478c"},"vehicle_type_id":"4","last_reported":1737288867,"current_range_meters":36400,"station_id":"ce4bgs12rcd13ifvqcag","pricing_plan_id":"cebpf4jnsgd1na2vs0mg"},{"bike_id":"d400821d-12fc-4b92-a929-07e330bc24b2","system_id":"levelo_inurba_marseille","lat":43.229333,"lon":5.353927,"is_reserved":false,"is_disabled":false,"rental_uris":{"android":"levelo://app?vid=d400821d-12fc-4b92-a929-07e330bc24b2","ios":"levelo://app?vid=d400821d-12fc-4b92-a929-07e330bc24b2"},"vehicle_type_id":"4","last_reported":1737288867,"current_range_meters":39200,"station_id":"cpo3532slgdg3j2ikp40","pricing_plan_id":"cebpf4jnsgd1na2vs0mg"},{"bike_id":"0d2308b8-0c94-465c-960f-85a071bcaa24","system_id":"levelo_inurba_marseille","lat":43.27421,"lon":5.39422,"is_reserved":false,"is_disabled":false,"rental_uris":{"android":"levelo://app?vid=0d2308b8-0c94-465c-960f-85a071bcaa24","ios":"levelo://app?vid=0d2308b8-0c94-465c-960f-85a071bcaa24"},"vehicle_type_id":"4","last_reported":1737288867,"current_range_meters":5600,"station_id":"ce4bhdp2rcd13ifvqf20","pricing_plan_id":"cebpf4jnsgd1na2vs0mg"},{"bike_id":"4104cbba-088f-4383-b2a0-261d17699731","system_id":"levelo_inurba_marseille","lat":43.23966,"lon":5.36629,"is_reserved":false,"is_disabled":false,"rental_uris":{"android":"levelo://app?vid=4104cbba-088f-4383-b2a0-261d17699731","ios":"levelo://app?vid=4104cbba-088f-4383-b2a0-261d17699731"},"vehicle_type_id":"4","last_reported":1737288867,"current_range_meters":36800,"station_id":"ce4bhi12rcd13ifvqfp0","pricing_plan_id":"cebpf4jnsgd1na2vs0mg"},{"bike_id":"829380ef-c9e8-450b-a7f2-084c6b11f773","system_id":"levelo_inurba_marseille","lat":43.25121,"lon":5.40322,"is_reserved":false,"is_disabled":false,"rental_uris":{"android":"levelo://app?vid=829380ef-c9e8-450b-a7f2-084c6b11f773","ios":"levelo://app?vid=829380ef-c9e8-450b-a7f2-084c6b11f773"},"vehicle_type_id":"4","last_reported":1737288867,"current_range_meters":38400,"station_id":"ce4bhlh2rcd13ifvqgig","pricing_plan_id":"cebpf4jnsgd1na2vs0mg"},{"bike_id":"f6607a50-fbbc-4722-8f6f-8500bb90a093","system_id":"levelo_inurba_marseille","lat":43.23186,"lon":5.39991,"is_reserved":false,"is_disabled":false,"rental_uris":{"android":"levelo://app?vid=f6607a50-fbbc-4722-8f6f-8500bb90a093","ios":"levelo://app?vid=f6607a50-fbbc-4722-8f6f-8500bb90a093"},"vehicle_type_id":"4","last_reported":1737288867,"current_range_meters":34000,"station_id":"ce4bhn12rcd13ifvqgqg","pricing_plan_id":"cebpf4jnsgd1na2vs0mg"},{"bike_id":"da53313a-7a4c-4589-9be1-ba58ba7398f9","system_id":"levelo_inurba_marseille","lat":43.26209,"lon":5.37446,"is_reserved":false,"is_disabled":false,"rental_uris":{"android":"levelo://app?vid=da53313a-7a4c-4589-9be1-ba58ba7398f9","ios":"levelo://app?vid=da53313a-7a4c-4589-9be1-ba58ba7398f9"},"vehicle_type_id":"4","last_reported":1737288867,"current_range_meters":28000,"station_id":"ce4bhgp2rcd13ifvqfc0","pricing_plan_id":"cebpf4jnsgd1na2vs0mg"},{"bike_id":"881f5a56-0072-422c-a05d-eee833d8c733","system_id":"levelo_inurba_marseille","lat":43.33142,"lon":5.38022,"is_reserved":false,"is_disabled":false,"rental_uris":{"android":"levelo://app?vid=881f5a56-0072-422c-a05d-eee833d8c733","ios":"levelo://app?vid=881f5a56-0072-422c-a05d-eee833d8c733"},"vehicle_type_id":"4","last_reported":1737288867,"current_range_meters":36800,"station_id":"","pricing_plan_id":"cebpf4jnsgd1na2vs0mg"},{"bike_id":"28ef1c1e-dd89-43e8-817b-9b489831397b","system_id":"levelo_inurba_marseille","lat":43.27118,"lon":5.39631,"is_reserved":false,"is_disabled":true,"rental_uris":{"android":"levelo://app?vid=28ef1c1e-dd89-43e8-817b-9b489831397b","ios":"levelo://app?vid=28ef1c1e-dd89-43e8-817b-9b489831397b"},"vehicle_type_id":"4","last_reported":1737288867,"current_range_meters":0,"station_id":"","pricing_plan_id":"cebpf4jnsgd1na2vs0mg"},{"bike_id":"85c23143-aaa2-4604-8a3d-68ad261bf5dc","system_id":"levelo_inurba_marseille","lat":43.24169,"lon":5.39744,"is_reserved":false,"is_disabled":false,"rental_uris":{"android":"levelo://app?vid=85c23143-aaa2-4604-8a3d-68ad261bf5dc","ios":"levelo://app?vid=85c23143-aaa2-4604-8a3d-68ad261bf5dc"},"vehicle_type_id":"4","last_reported":1737288867,"current_range_meters":30000,"station_id":"ce4bhn12rcd13ifvqgpg","pricing_plan_id":"cebpf4jnsgd1na2vs0mg"},{"bike_id":"2b2529d3-babf-48e8-8dc4-917d6c6fb54a","system_id":"levelo_inurba_marseille","lat":43.30429,"lon":5.38905,"is_reserved":false,"is_disabled":false,"rental_uris":{"android":"levelo://app?vid=2b2529d3-babf-48e8-8dc4-917d6c6fb54a","ios":"levelo://app?vid=2b2529d3-babf-48e8-8dc4-917d6c6fb54a"},"vehicle_type_id":"4","last_reported":1737288867,"current_range_meters":21600,"station_id":"ce4bgk12rcd13ifvqbi0","pricing_plan_id":"cebpf4jnsgd1na2vs0mg"},{"bike_id":"7f03d049-2bf6-4b86-ac5b-dd0e68ff46a3","system_id":"levelo_inurba_marseille","lat":43.28676,"lon":5.39956,"is_reserved":false,"is_disabled":false,"rental_uris":{"android":"levelo://app?vid=7f03d049-2bf6-4b86-ac5b-dd0e68ff46a3","ios":"levelo://app?vid=7f03d049-2bf6-4b86-ac5b-dd0e68ff46a3"},"vehicle_type_id":"4","last_reported":1737288867,"current_range_meters":33600,"station_id":"","pricing_plan_id":"cebpf4jnsgd1na2vs0mg"},{"bike_id":"c77de84a-305d-47e5-b81a-44313d3b8aa9","system_id":"levelo_inurba_marseille","lat":43.258687,"lon":5.399058,"is_reserved":false,"is_disabled":false,"rental_uris":{"android":"levelo://app?vid=c77de84a-305d-47e5-b81a-44313d3b8aa9","ios":"levelo://app?vid=c77de84a-305d-47e5-b81a-44313d3b8aa9"},"vehicle_type_id":"4","last_reported":1737288867,"current_range_meters":36800,"station_id":"ce4bhl92rcd13ifvqghg","pricing_plan_id":"cebpf4jnsgd1na2vs0mg"},{"bike_id":"357eaeda-fef2-41f2-9ad0-621ae2cc5c09","system_id":"levelo_inurba_marseille","lat":43.33753,"lon":5.37518,"is_reserved":false,"is_disabled":false,"rental_uris":{"android":"levelo://app?vid=357eaeda-fef2-41f2-9ad0-621ae2cc5c09","ios":"levelo://app?vid=357eaeda-fef2-41f2-9ad0-621ae2cc5c09"},"vehicle_type_id":"4","last_reported":1737288867,"current_range_meters":32800,"station_id":"","pricing_plan_id":"cebpf4jnsgd1na2vs0mg"},{"bike_id":"bac6ca3d-931f-45c7-987f-c3fa396adbf3","system_id":"levelo_inurba_marseille","lat":43.28621,"lon":5.35117,"is_reserved":false,"is_disabled":false,"rental_uris":{"android":"levelo://app?vid=bac6ca3d-931f-45c7-987f-c3fa396adbf3","ios":"levelo://app?vid=bac6ca3d-931f-45c7-987f-c3fa396adbf3"},"vehicle_type_id":"4","last_reported":1737288867,"current_range_meters":30800,"station_id":"ce4bhch2rcd13ifvqeug","pricing_plan_id":"cebpf4jnsgd1na2vs0mg"},{"bike_id":"619d7723-9108-45a6-b253-50e43ab3fd58","system_id":"levelo_inurba_marseille","lat":43.30645,"lon":5.40098,"is_reserved":false,"is_disabled":false,"rental_uris":{"android":"levelo://app?vid=619d7723-9108-45a6-b253-50e43ab3fd58","ios":"levelo://app?vid=619d7723-9108-45a6-b253-50e43ab3fd58"},"vehicle_type_id":"4","last_reported":1737288867,"current_range_meters":19600,"station_id":"ce4bh112rcd13ifvqda0","pricing_plan_id":"cebpf4jnsgd1na2vs0mg"},{"bike_id":"5ebc0e23-f2f4-4cc0-bd89-a31a0285ee53","system_id":"levelo_inurba_marseille","lat":43.31708,"lon":5.43715,"is_reserved":false,"is_disabled":false,"rental_uris":{"android":"levelo://app?vid=5ebc0e23-f2f4-4cc0-bd89-a31a0285ee53","ios":"levelo://app?vid=5ebc0e23-f2f4-4cc0-bd89-a31a0285ee53"},"vehicle_type_id":"4","last_reported":1737288867,"current_range_meters":39200,"station_id":"ce4bhp92rcd13ifvqhcg","pricing_plan_id":"cebpf4jnsgd1na2vs0mg"},{"bike_id":"653068f1-936b-439c-8dee-b4998765a000","system_id":"levelo_inurba_marseille","lat":43.2993,"lon":5.36557,"is_reserved":false,"is_disabled":false,"rental_uris":{"android":"levelo://app?vid=653068f1-936b-439c-8dee-b4998765a000","ios":"levelo://app?vid=653068f1-936b-439c-8dee-b4998765a000"},"vehicle_type_id":"4","last_reported":1737288867,"current_range_meters":27200,"station_id":"ce4bgm92rcd13ifvqbr0","pricing_plan_id":"cebpf4jnsgd1na2vs0mg"},{"bike_id":"e2481d2d-ec3c-436f-9eeb-094327789afd","system_id":"levelo_inurba_marseille","lat":43.296969,"lon":5.423647,"is_reserved":false,"is_disabled":false,"rental_uris":{"android":"levelo://app?vid=e2481d2d-ec3c-436f-9eeb-094327789afd","ios":"levelo://app?vid=e2481d2d-ec3c-436f-9eeb-094327789afd"},"vehicle_type_id":"4","last_reported":1737288867,"current_range_meters":8800,"station_id":"","pricing_plan_id":"cebpf4jnsgd1na2vs0mg"},{"bike_id":"9cd3f5f0-75b2-4530-adb9-eff80f03a492","system_id":"levelo_inurba_marseille","lat":43.30555,"lon":5.36558,"is_reserved":false,"is_disabled":false,"rental_uris":{"android":"levelo://app?vid=9cd3f5f0-75b2-4530-adb9-eff80f03a492","ios":"levelo://app?vid=9cd3f5f0-75b2-4530-adb9-eff80f03a492"},"vehicle_type_id":"4","last_reported":1737288867,"current_range_meters":36800,"station_id":"ce4bgs12rcd13ifvqcag","pricing_plan_id":"cebpf4jnsgd1na2vs0mg"},{"bike_id":"406cf7e1-dd3a-472a-896f-d09b14680f3c","system_id":"levelo_inurba_marseille","lat":43.26057,"lon":5.39399,"is_reserved":false,"is_disabled":false,"rental_uris":{"android":"levelo://app?vid=406cf7e1-dd3a-472a-896f-d09b14680f3c","ios":"levelo://app?vid=406cf7e1-dd3a-472a-896f-d09b14680f3c"},"vehicle_type_id":"4","last_reported":1737288867,"current_range_meters":26800,"station_id":"ce4bhh92rcd13ifvqfj0","pricing_plan_id":"cebpf4jnsgd1na2vs0mg"},{"bike_id":"25a7b019-1df0-437d-a44b-7d68a19a66cd","system_id":"levelo_inurba_marseille","lat":43.31083,"lon":5.42432,"is_reserved":false,"is_disabled":false,"rental_uris":{"android":"levelo://app?vid=25a7b019-1df0-437d-a44b-7d68a19a66cd","ios":"levelo://app?vid=25a7b019-1df0-437d-a44b-7d68a19a66cd"},"vehicle_type_id":"4","last_reported":1737288867,"current_range_meters":24400,"station_id":"ce4bhp92rcd13ifvqhag","pricing_plan_id":"cebpf4jnsgd1na2vs0mg"},{"bike_id":"01a07bd9-36a1-4c19-a88b-7c9e3a6ee490","system_id":"levelo_inurba_marseille","lat":43.25078,"lon":5.39487,"is_reserved":false,"is_disabled":false,"rental_uris":{"android":"levelo://app?vid=01a07bd9-36a1-4c19-a88b-7c9e3a6ee490","ios":"levelo://app?vid=01a07bd9-36a1-4c19-a88b-7c9e3a6ee490"},"vehicle_type_id":"4","last_reported":1737288867,"current_range_meters":33200,"station_id":"ce4bhm12rcd13ifvqgkg","pricing_plan_id":"cebpf4jnsgd1na2vs0mg"},{"bike_id":"850c2333-a382-4245-9262-9d1484761558","system_id":"levelo_inurba_marseille","lat":43.29222,"lon":5.36072,"is_reserved":false,"is_disabled":false,"rental_uris":{"android":"levelo://app?vid=850c2333-a382-4245-9262-9d1484761558","ios":"levelo://app?vid=850c2333-a382-4245-9262-9d1484761558"},"vehicle_type_id":"4","last_reported":1737288867,"current_range_meters":38800,"station_id":"ce4bhbh2rcd13ifvqeqg","pricing_plan_id":"cebpf4jnsgd1na2vs0mg"},{"bike_id":"14287d46-ffd5-4c68-a055-3544171f1dde","system_id":"levelo_inurba_marseille","lat":43.26195,"lon":5.37452,"is_reserved":false,"is_disabled":false,"rental_uris":{"android":"levelo://app?vid=14287d46-ffd5-4c68-a055-3544171f1dde","ios":"levelo://app?vid=14287d46-ffd5-4c68-a055-3544171f1dde"},"vehicle_type_id":"4","last_reported":1737288867,"current_range_meters":38800,"station_id":"ce4bhgp2rcd13ifvqfc0","pricing_plan_id":"cebpf4jnsgd1na2vs0mg"},{"bike_id":"24d3b331-52fa-4564-a98e-732c1dea4a32","system_id":"levelo_inurba_marseille","lat":43.27491,"lon":5.42455,"is_reserved":false,"is_disabled":true,"rental_uris":{"android":"levelo://app?vid=24d3b331-52fa-4564-a98e-732c1dea4a32","ios":"levelo://app?vid=24d3b331-52fa-4564-a98e-732c1dea4a32"},"vehicle_type_id":"4","last_reported":1737288867,"current_range_meters":38800,"station_id":"ce4bhn92rcd13ifvqgrg","pricing_plan_id":"cebpf4jnsgd1na2vs0mg"},{"bike_id":"1c119e29-68fe-4346-9fd1-8108a18a1655","system_id":"levelo_inurba_marseille","lat":43.28938,"lon":5.36635,"is_reserved":false,"is_disabled":false,"rental_uris":{"android":"levelo://app?vid=1c119e29-68fe-4346-9fd1-8108a18a1655","ios":"levelo://app?vid=1c119e29-68fe-4346-9fd1-8108a18a1655"},"vehicle_type_id":"4","last_reported":1737288867,"current_range_meters":28000,"station_id":"ce4bhap2rcd13ifvqek0","pricing_plan_id":"cebpf4jnsgd1na2vs0mg"},{"bike_id":"524072f1-ace1-43cc-8007-f91dc732b1f7","system_id":"levelo_inurba_marseille","lat":43.25084,"lon":5.39513,"is_reserved":false,"is_disabled":false,"rental_uris":{"android":"levelo://app?vid=524072f1-ace1-43cc-8007-f91dc732b1f7","ios":"levelo://app?vid=524072f1-ace1-43cc-8007-f91dc732b1f7"},"vehicle_type_id":"4","last_reported":1737288867,"current_range_meters":31200,"station_id":"ce4bhm12rcd13ifvqgkg","pricing_plan_id":"cebpf4jnsgd1na2vs0mg"},{"bike_id":"c42268c0-a5e0-42b8-b874-93ef21576df8","system_id":"levelo_inurba_marseille","lat":43.2816,"lon":5.42639,"is_reserved":false,"is_disabled":false,"rental_uris":{"android":"levelo://app?vid=c42268c0-a5e0-42b8-b874-93ef21576df8","ios":"levelo://app?vid=c42268c0-a5e0-42b8-b874-93ef21576df8"},"vehicle_type_id":"4","last_reported":1737288867,"current_range_meters":20800,"station_id":"ce4bhnh2rcd13ifvqgug","pricing_plan_id":"cebpf4jnsgd1na2vs0mg"},{"bike_id":"59829282-52a1-4f2c-9ab6-c535355001fb","system_id":"levelo_inurba_marseille","lat":43.3046,"lon":5.38901,"is_reserved":false,"is_disabled":false,"rental_uris":{"android":"levelo://app?vid=59829282-52a1-4f2c-9ab6-c535355001fb","ios":"levelo://app?vid=59829282-52a1-4f2c-9ab6-c535355001fb"},"vehicle_type_id":"4","last_reported":1737288867,"current_range_meters":33200,"station_id":"ce4bgk12rcd13ifvqbi0","pricing_plan_id":"cebpf4jnsgd1na2vs0mg"},{"bike_id":"392d5c13-52e3-4447-bb35-77b670143dc4","system_id":"levelo_inurba_marseille","lat":43.23964,"lon":5.36637,"is_reserved":false,"is_disabled":false,"rental_uris":{"android":"levelo://app?vid=392d5c13-52e3-4447-bb35-77b670143dc4","ios":"levelo://app?vid=392d5c13-52e3-4447-bb35-77b670143dc4"},"vehicle_type_id":"4","last_reported":1737288867,"current_range_meters":33200,"station_id":"ce4bhi12rcd13ifvqfp0","pricing_plan_id":"cebpf4jnsgd1na2vs0mg"},{"bike_id":"1915c1af-e8cf-4ce0-974e-26ab372973c9","system_id":"levelo_inurba_marseille","lat":43.30155,"lon":5.38094,"is_reserved":false,"is_disabled":false,"rental_uris":{"android":"levelo://app?vid=1915c1af-e8cf-4ce0-974e-26ab372973c9","ios":"levelo://app?vid=1915c1af-e8cf-4ce0-974e-26ab372973c9"},"vehicle_type_id":"4","last_reported":1737288867,"current_range_meters":24800,"station_id":"ce4bgjp2rcd13ifvqbh0","pricing_plan_id":"cebpf4jnsgd1na2vs0mg"},{"bike_id":"4291632b-b89c-4c47-8e03-1ac2c74e4815","system_id":"levelo_inurba_marseille","lat":43.24169,"lon":5.39756,"is_reserved":false,"is_disabled":false,"rental_uris":{"android":"levelo://app?vid=4291632b-b89c-4c47-8e03-1ac2c74e4815","ios":"levelo://app?vid=4291632b-b89c-4c47-8e03-1ac2c74e4815"},"vehicle_type_id":"4","last_reported":1737288867,"current_range_meters":38000,"station_id":"ce4bhn12rcd13ifvqgpg","pricing_plan_id":"cebpf4jnsgd1na2vs0mg"},{"bike_id":"804b3b4e-2b7b-432d-bee9-ad793eff9ddf","system_id":"levelo_inurba_marseille","lat":43.25715,"lon":5.4112,"is_reserved":false,"is_disabled":false,"rental_uris":{"android":"levelo://app?vid=804b3b4e-2b7b-432d-bee9-ad793eff9ddf","ios":"levelo://app?vid=804b3b4e-2b7b-432d-bee9-ad793eff9ddf"},"vehicle_type_id":"4","last_reported":1737288867,"current_range_meters":8000,"station_id":"ce4bhkp2rcd13ifvqgd0","pricing_plan_id":"cebpf4jnsgd1na2vs0mg"},{"bike_id":"5d9f4c47-95c4-43dd-8c06-c6682124f9f8","system_id":"levelo_inurba_marseille","lat":43.24811,"lon":5.37463,"is_reserved":false,"is_disabled":true,"rental_uris":{"android":"levelo://app?vid=5d9f4c47-95c4-43dd-8c06-c6682124f9f8","ios":"levelo://app?vid=5d9f4c47-95c4-43dd-8c06-c6682124f9f8"},"vehicle_type_id":"4","last_reported":1737288867,"current_range_meters":0,"station_id":"ce4bhgh2rcd13ifvqfb0","pricing_plan_id":"cebpf4jnsgd1na2vs0mg"},{"bike_id":"67749071-cf3b-4bea-b973-dc001ee100d3","system_id":"levelo_inurba_marseille","lat":43.29623,"lon":5.37181,"is_reserved":false,"is_disabled":false,"rental_uris":{"android":"levelo://app?vid=67749071-cf3b-4bea-b973-dc001ee100d3","ios":"levelo://app?vid=67749071-cf3b-4bea-b973-dc001ee100d3"},"vehicle_type_id":"4","last_reported":1737288867,"current_range_meters":27200,"station_id":"ce4bgnh2rcd13ifvqc0g","pricing_plan_id":"cebpf4jnsgd1na2vs0mg"},{"bike_id":"1e0d1457-bf03-47d3-b226-8b5c7421ade9","system_id":"levelo_inurba_marseille","lat":43.28615,"lon":5.3511,"is_reserved":false,"is_disabled":false,"rental_uris":{"android":"levelo://app?vid=1e0d1457-bf03-47d3-b226-8b5c7421ade9","ios":"levelo://app?vid=1e0d1457-bf03-47d3-b226-8b5c7421ade9"},"vehicle_type_id":"4","last_reported":1737288867,"current_range_meters":17200,"station_id":"ce4bhch2rcd13ifvqeug","pricing_plan_id":"cebpf4jnsgd1na2vs0mg"},{"bike_id":"13d3fd97-e21c-4164-8b58-6e6c0cfe1ec1","system_id":"levelo_inurba_marseille","lat":43.28035,"lon":5.36951,"is_reserved":false,"is_disabled":false,"rental_uris":{"android":"levelo://app?vid=13d3fd97-e21c-4164-8b58-6e6c0cfe1ec1","ios":"levelo://app?vid=13d3fd97-e21c-4164-8b58-6e6c0cfe1ec1"},"vehicle_type_id":"4","last_reported":1737288867,"current_range_meters":38800,"station_id":"ce4bha12rcd13ifvqef0","pricing_plan_id":"cebpf4jnsgd1na2vs0mg"},{"bike_id":"9f0f5b74-d025-4783-ac4b-b3badfd4a2e8","system_id":"levelo_inurba_marseille","lat":43.25827,"lon":5.39441,"is_reserved":false,"is_disabled":false,"rental_uris":{"android":"levelo://app?vid=9f0f5b74-d025-4783-ac4b-b3badfd4a2e8","ios":"levelo://app?vid=9f0f5b74-d025-4783-ac4b-b3badfd4a2e8"},"vehicle_type_id":"4","last_reported":1737288867,"current_range_meters":28400,"station_id":"ce4bhip2rcd13ifvqft0","pricing_plan_id":"cebpf4jnsgd1na2vs0mg"},{"bike_id":"3366388e-324b-4681-8ab8-75d073e83ccb","system_id":"levelo_inurba_marseille","lat":43.33024,"lon":5.39038,"is_reserved":false,"is_disabled":false,"rental_uris":{"android":"levelo://app?vid=3366388e-324b-4681-8ab8-75d073e83ccb","ios":"levelo://app?vid=3366388e-324b-4681-8ab8-75d073e83ccb"},"vehicle_type_id":"4","last_reported":1737288867,"current_range_meters":34000,"station_id":"ce4bhr92rcd13ifvqhrg","pricing_plan_id":"cebpf4jnsgd1na2vs0mg"},{"bike_id":"f4a4a406-b0a5-42fc-9236-32e93ac6f6b2","system_id":"levelo_inurba_marseille","lat":43.23147,"lon":5.43709,"is_reserved":false,"is_disabled":true,"rental_uris":{"android":"levelo://app?vid=f4a4a406-b0a5-42fc-9236-32e93ac6f6b2","ios":"levelo://app?vid=f4a4a406-b0a5-42fc-9236-32e93ac6f6b2"},"vehicle_type_id":"4","last_reported":1737288867,"current_range_meters":26000,"station_id":"ce4bhmp2rcd13ifvqgog","pricing_plan_id":"cebpf4jnsgd1na2vs0mg"},{"bike_id":"210ffe2d-27bf-471a-a897-ba0eb55d9e2b","system_id":"levelo_inurba_marseille","lat":43.27068,"lon":5.42288,"is_reserved":false,"is_disabled":false,"rental_uris":{"android":"levelo://app?vid=210ffe2d-27bf-471a-a897-ba0eb55d9e2b","ios":"levelo://app?vid=210ffe2d-27bf-471a-a897-ba0eb55d9e2b"},"vehicle_type_id":"4","last_reported":1737288867,"current_range_meters":35600,"station_id":"ce4bhk92rcd13ifvqgb0","pricing_plan_id":"cebpf4jnsgd1na2vs0mg"},{"bike_id":"c09ab8ef-c422-4173-8c98-108ee8771053","system_id":"levelo_inurba_marseille","lat":43.30464,"lon":5.37906,"is_reserved":false,"is_disabled":false,"rental_uris":{"android":"levelo://app?vid=c09ab8ef-c422-4173-8c98-108ee8771053","ios":"levelo://app?vid=c09ab8ef-c422-4173-8c98-108ee8771053"},"vehicle_type_id":"4","last_reported":1737288867,"current_range_meters":25600,"station_id":"ce4bgup2rcd13ifvqcn0","pricing_plan_id":"cebpf4jnsgd1na2vs0mg"},{"bike_id":"e407828a-a9f7-4402-83c3-0fd1d0518ed0","system_id":"levelo_inurba_marseille","lat":43.29568,"lon":5.39988,"is_reserved":false,"is_disabled":false,"rental_uris":{"android":"levelo://app?vid=e407828a-a9f7-4402-83c3-0fd1d0518ed0","ios":"levelo://app?vid=e407828a-a9f7-4402-83c3-0fd1d0518ed0"},"vehicle_type_id":"4","last_reported":1737288867,"current_range_meters":14800,"station_id":"ce4bh312rcd13ifvqdj0","pricing_plan_id":"cebpf4jnsgd1na2vs0mg"},{"bike_id":"1d9dadc3-a9f2-4a37-b16f-dc002d79f83c","system_id":"levelo_inurba_marseille","lat":43.24077,"lon":5.37763,"is_reserved":false,"is_disabled":false,"rental_uris":{"android":"levelo://app?vid=1d9dadc3-a9f2-4a37-b16f-dc002d79f83c","ios":"levelo://app?vid=1d9dadc3-a9f2-4a37-b16f-dc002d79f83c"},"vehicle_type_id":"4","last_reported":1737288867,"current_range_meters":36800,"station_id":"ce4bhnp2rcd13ifvqgvg","pricing_plan_id":"cebpf4jnsgd1na2vs0mg"},{"bike_id":"fef06379-4dc4-4e96-8ff4-7c502d8e9f90","system_id":"levelo_inurba_marseille","lat":43.31718,"lon":5.42392,"is_reserved":false,"is_disabled":false,"rental_uris":{"android":"levelo://app?vid=fef06379-4dc4-4e96-8ff4-7c502d8e9f90","ios":"levelo://app?vid=fef06379-4dc4-4e96-8ff4-7c502d8e9f90"},"vehicle_type_id":"4","last_reported":1737288867,"current_range_meters":38000,"station_id":"ce4bhp92rcd13ifvqhbg","pricing_plan_id":"cebpf4jnsgd1na2vs0mg"},{"bike_id":"74bd9320-6568-47aa-bc9d-f58f23afb672","system_id":"levelo_inurba_marseille","lat":43.28156,"lon":5.42676,"is_reserved":false,"is_disabled":false,"rental_uris":{"android":"levelo://app?vid=74bd9320-6568-47aa-bc9d-f58f23afb672","ios":"levelo://app?vid=74bd9320-6568-47aa-bc9d-f58f23afb672"},"vehicle_type_id":"4","last_reported":1737288867,"current_range_meters":26800,"station_id":"ce4bhnh2rcd13ifvqgug","pricing_plan_id":"cebpf4jnsgd1na2vs0mg"},{"bike_id":"997517be-ef98-4917-9231-60c51d5e2f17","system_id":"levelo_inurba_marseille","lat":43.320379,"lon":5.415531,"is_reserved":false,"is_disabled":false,"rental_uris":{"android":"levelo://app?vid=997517be-ef98-4917-9231-60c51d5e2f17","ios":"levelo://app?vid=997517be-ef98-4917-9231-60c51d5e2f17"},"vehicle_type_id":"4","last_reported":1737288867,"current_range_meters":37600,"station_id":"ce4bhq92rcd13ifvqhkg","pricing_plan_id":"cebpf4jnsgd1na2vs0mg"},{"bike_id":"23725a61-194b-4d47-ab09-e2faff5411e3","system_id":"levelo_inurba_marseille","lat":43.25869,"lon":5.39902,"is_reserved":false,"is_disabled":false,"rental_uris":{"android":"levelo://app?vid=23725a61-194b-4d47-ab09-e2faff5411e3","ios":"levelo://app?vid=23725a61-194b-4d47-ab09-e2faff5411e3"},"vehicle_type_id":"4","last_reported":1737288867,"current_range_meters":36000,"station_id":"ce4bhl92rcd13ifvqghg","pricing_plan_id":"cebpf4jnsgd1na2vs0mg"},{"bike_id":"0b347ee2-2808-4cbd-aafe-e2b2194ac787","system_id":"levelo_inurba_marseille","lat":43.25933,"lon":5.40929,"is_reserved":false,"is_disabled":false,"rental_uris":{"android":"levelo://app?vid=0b347ee2-2808-4cbd-aafe-e2b2194ac787","ios":"levelo://app?vid=0b347ee2-2808-4cbd-aafe-e2b2194ac787"},"vehicle_type_id":"4","last_reported":1737288867,"current_range_meters":38800,"station_id":"ce4bhm92rcd13ifvqglg","pricing_plan_id":"cebpf4jnsgd1na2vs0mg"},{"bike_id":"a5c9e9ba-eaa0-4d19-b331-c935b38bf719","system_id":"levelo_inurba_marseille","lat":43.25724,"lon":5.41108,"is_reserved":false,"is_disabled":false,"rental_uris":{"android":"levelo://app?vid=a5c9e9ba-eaa0-4d19-b331-c935b38bf719","ios":"levelo://app?vid=a5c9e9ba-eaa0-4d19-b331-c935b38bf719"},"vehicle_type_id":"4","last_reported":1737288867,"current_range_meters":17200,"station_id":"ce4bhkp2rcd13ifvqgd0","pricing_plan_id":"cebpf4jnsgd1na2vs0mg"},{"bike_id":"234d1550-b7dd-465b-9578-32049a642f2b","system_id":"levelo_inurba_marseille","lat":43.29963,"lon":5.41331,"is_reserved":false,"is_disabled":false,"rental_uris":{"android":"levelo://app?vid=234d1550-b7dd-465b-9578-32049a642f2b","ios":"levelo://app?vid=234d1550-b7dd-465b-9578-32049a642f2b"},"vehicle_type_id":"4","last_reported":1737288867,"current_range_meters":35600,"station_id":"ce4bhp12rcd13ifvqh9g","pricing_plan_id":"cebpf4jnsgd1na2vs0mg"},{"bike_id":"ba62d1ca-5adf-48c1-b4e7-705a806c2530","system_id":"levelo_inurba_marseille","lat":43.24181,"lon":5.39728,"is_reserved":false,"is_disabled":false,"rental_uris":{"android":"levelo://app?vid=ba62d1ca-5adf-48c1-b4e7-705a806c2530","ios":"levelo://app?vid=ba62d1ca-5adf-48c1-b4e7-705a806c2530"},"vehicle_type_id":"4","last_reported":1737288867,"current_range_meters":38800,"station_id":"ce4bhn12rcd13ifvqgpg","pricing_plan_id":"cebpf4jnsgd1na2vs0mg"},{"bike_id":"b8b4cadc-424f-48ad-a50d-ee94ed977b89","system_id":"levelo_inurba_marseille","lat":43.30131,"lon":5.3988,"is_reserved":false,"is_disabled":true,"rental_uris":{"android":"levelo://app?vid=b8b4cadc-424f-48ad-a50d-ee94ed977b89","ios":"levelo://app?vid=b8b4cadc-424f-48ad-a50d-ee94ed977b89"},"vehicle_type_id":"4","last_reported":1737288867,"current_range_meters":0,"station_id":"ce4bh0h2rcd13ifvqd40","pricing_plan_id":"cebpf4jnsgd1na2vs0mg"},{"bike_id":"e643e2bb-0d70-4fcb-be34-76c7ab558998","system_id":"levelo_inurba_marseille","lat":43.29416,"lon":5.38621,"is_reserved":false,"is_disabled":false,"rental_uris":{"android":"levelo://app?vid=e643e2bb-0d70-4fcb-be34-76c7ab558998","ios":"levelo://app?vid=e643e2bb-0d70-4fcb-be34-76c7ab558998"},"vehicle_type_id":"4","last_reported":1737288867,"current_range_meters":15200,"station_id":"ce4bh2h2rcd13ifvqdh0","pricing_plan_id":"cebpf4jnsgd1na2vs0mg"},{"bike_id":"4a6bdd67-c965-4089-b6e4-3668817a819c","system_id":"levelo_inurba_marseille","lat":43.317,"lon":5.40475,"is_reserved":false,"is_disabled":false,"rental_uris":{"android":"levelo://app?vid=4a6bdd67-c965-4089-b6e4-3668817a819c","ios":"levelo://app?vid=4a6bdd67-c965-4089-b6e4-3668817a819c"},"vehicle_type_id":"4","last_reported":1737288867,"current_range_meters":29600,"station_id":"ce4bh012rcd13ifvqd00","pricing_plan_id":"cebpf4jnsgd1na2vs0mg"},{"bike_id":"529dc2a7-7a3f-459d-9839-46273633cc3a","system_id":"levelo_inurba_marseille","lat":43.274949,"lon":5.424646,"is_reserved":false,"is_disabled":false,"rental_uris":{"android":"levelo://app?vid=529dc2a7-7a3f-459d-9839-46273633cc3a","ios":"levelo://app?vid=529dc2a7-7a3f-459d-9839-46273633cc3a"},"vehicle_type_id":"4","last_reported":1737288867,"current_range_meters":24400,"station_id":"ce4bhn92rcd13ifvqgrg","pricing_plan_id":"cebpf4jnsgd1na2vs0mg"},{"bike_id":"011a6ed7-5aec-4394-af48-32c98c540d74","system_id":"levelo_inurba_marseille","lat":43.28115,"lon":5.35181,"is_reserved":false,"is_disabled":true,"rental_uris":{"android":"levelo://app?vid=011a6ed7-5aec-4394-af48-32c98c540d74","ios":"levelo://app?vid=011a6ed7-5aec-4394-af48-32c98c540d74"},"vehicle_type_id":"4","last_reported":1737288867,"current_range_meters":2000,"station_id":"ce4bhbp2rcd13ifvqerg","pricing_plan_id":"cebpf4jnsgd1na2vs0mg"},{"bike_id":"56b8e9bc-f750-4815-bc98-9098414d16db","system_id":"levelo_inurba_marseille","lat":43.23199,"lon":5.35546,"is_reserved":false,"is_disabled":true,"rental_uris":{"android":"levelo://app?vid=56b8e9bc-f750-4815-bc98-9098414d16db","ios":"levelo://app?vid=56b8e9bc-f750-4815-bc98-9098414d16db"},"vehicle_type_id":"4","last_reported":1737288867,"current_range_meters":0,"station_id":"ce4bhu92rcd13ifvqi70","pricing_plan_id":"cebpf4jnsgd1na2vs0mg"},{"bike_id":"0e91b70c-1e42-4d65-a90a-72cbd40954b0","system_id":"levelo_inurba_marseille","lat":43.32362,"lon":5.36774,"is_reserved":false,"is_disabled":false,"rental_uris":{"android":"levelo://app?vid=0e91b70c-1e42-4d65-a90a-72cbd40954b0","ios":"levelo://app?vid=0e91b70c-1e42-4d65-a90a-72cbd40954b0"},"vehicle_type_id":"4","last_reported":1737288867,"current_range_meters":8000,"station_id":"ce4bhsh2rcd13ifvqi2g","pricing_plan_id":"cebpf4jnsgd1na2vs0mg"},{"bike_id":"61eab20c-4b78-4f35-847f-3e2ad8d727b0","system_id":"levelo_inurba_marseille","lat":43.29303,"lon":5.37166,"is_reserved":false,"is_disabled":false,"rental_uris":{"android":"levelo://app?vid=61eab20c-4b78-4f35-847f-3e2ad8d727b0","ios":"levelo://app?vid=61eab20c-4b78-4f35-847f-3e2ad8d727b0"},"vehicle_type_id":"4","last_reported":1737288867,"current_range_meters":28400,"station_id":"ce4bgh92rcd13ifvqb40","pricing_plan_id":"cebpf4jnsgd1na2vs0mg"},{"bike_id":"fcff8b6e-6484-4e4c-8d98-9ab325ed2e27","system_id":"levelo_inurba_marseille","lat":43.3246,"lon":5.36583,"is_reserved":false,"is_disabled":false,"rental_uris":{"android":"levelo://app?vid=fcff8b6e-6484-4e4c-8d98-9ab325ed2e27","ios":"levelo://app?vid=fcff8b6e-6484-4e4c-8d98-9ab325ed2e27"},"vehicle_type_id":"4","last_reported":1737288867,"current_range_meters":38400,"station_id":"ce4bhs12rcd13ifvqhvg","pricing_plan_id":"cebpf4jnsgd1na2vs0mg"},{"bike_id":"7f6908f7-cfcb-4080-a4c3-d5b221bf885b","system_id":"levelo_inurba_marseille","lat":43.32048,"lon":5.41542,"is_reserved":false,"is_disabled":false,"rental_uris":{"android":"levelo://app?vid=7f6908f7-cfcb-4080-a4c3-d5b221bf885b","ios":"levelo://app?vid=7f6908f7-cfcb-4080-a4c3-d5b221bf885b"},"vehicle_type_id":"4","last_reported":1737288867,"current_range_meters":2800,"station_id":"ce4bhq92rcd13ifvqhkg","pricing_plan_id":"cebpf4jnsgd1na2vs0mg"},{"bike_id":"2d51ed35-cd4a-4798-ae66-82a7306e8efd","system_id":"levelo_inurba_marseille","lat":43.31897,"lon":5.40744,"is_reserved":false,"is_disabled":false,"rental_uris":{"android":"levelo://app?vid=2d51ed35-cd4a-4798-ae66-82a7306e8efd","ios":"levelo://app?vid=2d51ed35-cd4a-4798-ae66-82a7306e8efd"},"vehicle_type_id":"4","last_reported":1737288867,"current_range_meters":13600,"station_id":"ce4bhq12rcd13ifvqhig","pricing_plan_id":"cebpf4jnsgd1na2vs0mg"},{"bike_id":"94654a18-6a55-41c1-9e09-28c01978247e","system_id":"levelo_inurba_marseille","lat":43.28705,"lon":5.37402,"is_reserved":false,"is_disabled":false,"rental_uris":{"android":"levelo://app?vid=94654a18-6a55-41c1-9e09-28c01978247e","ios":"levelo://app?vid=94654a18-6a55-41c1-9e09-28c01978247e"},"vehicle_type_id":"4","last_reported":1737288867,"current_range_meters":39200,"station_id":"ce4bh3p2rcd13ifvqdq0","pricing_plan_id":"cebpf4jnsgd1na2vs0mg"},{"bike_id":"63fbd067-cca0-4aa8-b2c7-8a34f0f019b4","system_id":"levelo_inurba_marseille","lat":43.29561,"lon":5.37521,"is_reserved":false,"is_disabled":false,"rental_uris":{"android":"levelo://app?vid=63fbd067-cca0-4aa8-b2c7-8a34f0f019b4","ios":"levelo://app?vid=63fbd067-cca0-4aa8-b2c7-8a34f0f019b4"},"vehicle_type_id":"4","last_reported":1737288867,"current_range_meters":30400,"station_id":"ce4bgh92rcd13ifvqb50","pricing_plan_id":"cebpf4jnsgd1na2vs0mg"},{"bike_id":"0966a8a8-2d5b-449d-8d62-52bfeeb2bcde","system_id":"levelo_inurba_marseille","lat":43.29743,"lon":5.37668,"is_reserved":false,"is_disabled":true,"rental_uris":{"android":"levelo://app?vid=0966a8a8-2d5b-449d-8d62-52bfeeb2bcde","ios":"levelo://app?vid=0966a8a8-2d5b-449d-8d62-52bfeeb2bcde"},"vehicle_type_id":"4","last_reported":1737288867,"current_range_meters":37600,"station_id":"ce4bgkh2rcd13ifvqbl0","pricing_plan_id":"cebpf4jnsgd1na2vs0mg"},{"bike_id":"22465212-93af-4e0b-b803-6ee82bba56d5","system_id":"levelo_inurba_marseille","lat":43.33759,"lon":5.3748,"is_reserved":false,"is_disabled":false,"rental_uris":{"android":"levelo://app?vid=22465212-93af-4e0b-b803-6ee82bba56d5","ios":"levelo://app?vid=22465212-93af-4e0b-b803-6ee82bba56d5"},"vehicle_type_id":"4","last_reported":1737288867,"current_range_meters":28400,"station_id":"","pricing_plan_id":"cebpf4jnsgd1na2vs0mg"},{"bike_id":"cddf917f-dea7-4397-8dc8-9c32c875f3ef","system_id":"levelo_inurba_marseille","lat":43.29567,"lon":5.37527,"is_reserved":false,"is_disabled":false,"rental_uris":{"android":"levelo://app?vid=cddf917f-dea7-4397-8dc8-9c32c875f3ef","ios":"levelo://app?vid=cddf917f-dea7-4397-8dc8-9c32c875f3ef"},"vehicle_type_id":"4","last_reported":1737288867,"current_range_meters":36000,"station_id":"ce4bgh92rcd13ifvqb50","pricing_plan_id":"cebpf4jnsgd1na2vs0mg"},{"bike_id":"a1d52c37-9904-4a2c-8d03-d3ac355c6a38","system_id":"levelo_inurba_marseille","lat":43.31694,"lon":5.40465,"is_reserved":false,"is_disabled":false,"rental_uris":{"android":"levelo://app?vid=a1d52c37-9904-4a2c-8d03-d3ac355c6a38","ios":"levelo://app?vid=a1d52c37-9904-4a2c-8d03-d3ac355c6a38"},"vehicle_type_id":"4","last_reported":1737288867,"current_range_meters":8000,"station_id":"ce4bh012rcd13ifvqd00","pricing_plan_id":"cebpf4jnsgd1na2vs0mg"},{"bike_id":"ec5d551e-37f1-4d0e-8c50-b8da2d90f9ba","system_id":"levelo_inurba_marseille","lat":43.25847,"lon":5.39802,"is_reserved":false,"is_disabled":false,"rental_uris":{"android":"levelo://app?vid=ec5d551e-37f1-4d0e-8c50-b8da2d90f9ba","ios":"levelo://app?vid=ec5d551e-37f1-4d0e-8c50-b8da2d90f9ba"},"vehicle_type_id":"4","last_reported":1737288867,"current_range_meters":32800,"station_id":"","pricing_plan_id":"cebpf4jnsgd1na2vs0mg"},{"bike_id":"01f1ff31-689b-418c-8855-79c26daa62ec","system_id":"levelo_inurba_marseille","lat":43.2738,"lon":5.36262,"is_reserved":false,"is_disabled":false,"rental_uris":{"android":"levelo://app?vid=01f1ff31-689b-418c-8855-79c26daa62ec","ios":"levelo://app?vid=01f1ff31-689b-418c-8855-79c26daa62ec"},"vehicle_type_id":"4","last_reported":1737288867,"current_range_meters":31200,"station_id":"ce4bhbh2rcd13ifvqeo0","pricing_plan_id":"cebpf4jnsgd1na2vs0mg"},{"bike_id":"19fb1931-f075-402c-a076-088e72accb76","system_id":"levelo_inurba_marseille","lat":43.24817,"lon":5.3746,"is_reserved":false,"is_disabled":false,"rental_uris":{"android":"levelo://app?vid=19fb1931-f075-402c-a076-088e72accb76","ios":"levelo://app?vid=19fb1931-f075-402c-a076-088e72accb76"},"vehicle_type_id":"4","last_reported":1737288867,"current_range_meters":10800,"station_id":"ce4bhgh2rcd13ifvqfb0","pricing_plan_id":"cebpf4jnsgd1na2vs0mg"},{"bike_id":"0d0a9787-dc25-4549-b9d1-4116921e2b21","system_id":"levelo_inurba_marseille","lat":43.3175,"lon":5.39001,"is_reserved":false,"is_disabled":false,"rental_uris":{"android":"levelo://app?vid=0d0a9787-dc25-4549-b9d1-4116921e2b21","ios":"levelo://app?vid=0d0a9787-dc25-4549-b9d1-4116921e2b21"},"vehicle_type_id":"4","last_reported":1737288867,"current_range_meters":38800,"station_id":"ce4bhqp2rcd13ifvqhng","pricing_plan_id":"cebpf4jnsgd1na2vs0mg"},{"bike_id":"bb711480-32fc-4ba7-bd0b-523643904ef0","system_id":"levelo_inurba_marseille","lat":43.23161,"lon":5.43738,"is_reserved":false,"is_disabled":false,"rental_uris":{"android":"levelo://app?vid=bb711480-32fc-4ba7-bd0b-523643904ef0","ios":"levelo://app?vid=bb711480-32fc-4ba7-bd0b-523643904ef0"},"vehicle_type_id":"4","last_reported":1737288867,"current_range_meters":38800,"station_id":"ce4bhmp2rcd13ifvqgog","pricing_plan_id":"cebpf4jnsgd1na2vs0mg"},{"bike_id":"93b019a8-d37c-4848-8e8d-cf900af142a9","system_id":"levelo_inurba_marseille","lat":43.2962,"lon":5.37191,"is_reserved":false,"is_disabled":false,"rental_uris":{"android":"levelo://app?vid=93b019a8-d37c-4848-8e8d-cf900af142a9","ios":"levelo://app?vid=93b019a8-d37c-4848-8e8d-cf900af142a9"},"vehicle_type_id":"4","last_reported":1737288867,"current_range_meters":38800,"station_id":"ce4bgnh2rcd13ifvqc0g","pricing_plan_id":"cebpf4jnsgd1na2vs0mg"},{"bike_id":"a01c88fd-2932-481e-ad2e-bc36a254f322","system_id":"levelo_inurba_marseille","lat":43.29602,"lon":5.38096,"is_reserved":false,"is_disabled":false,"rental_uris":{"android":"levelo://app?vid=a01c88fd-2932-481e-ad2e-bc36a254f322","ios":"levelo://app?vid=a01c88fd-2932-481e-ad2e-bc36a254f322"},"vehicle_type_id":"4","last_reported":1737288867,"current_range_meters":9200,"station_id":"ce4bgl12rcd13ifvqbo0","pricing_plan_id":"cebpf4jnsgd1na2vs0mg"},{"bike_id":"d1468d38-e92c-489f-94b4-2bd3fa604b87","system_id":"levelo_inurba_marseille","lat":43.31887,"lon":5.40732,"is_reserved":false,"is_disabled":false,"rental_uris":{"android":"levelo://app?vid=d1468d38-e92c-489f-94b4-2bd3fa604b87","ios":"levelo://app?vid=d1468d38-e92c-489f-94b4-2bd3fa604b87"},"vehicle_type_id":"4","last_reported":1737288867,"current_range_meters":9200,"station_id":"ce4bhq12rcd13ifvqhig","pricing_plan_id":"cebpf4jnsgd1na2vs0mg"},{"bike_id":"c6f874ed-7baa-4ffa-b8dc-93b47368c64c","system_id":"levelo_inurba_marseille","lat":43.27382,"lon":5.36254,"is_reserved":false,"is_disabled":false,"rental_uris":{"android":"levelo://app?vid=c6f874ed-7baa-4ffa-b8dc-93b47368c64c","ios":"levelo://app?vid=c6f874ed-7baa-4ffa-b8dc-93b47368c64c"},"vehicle_type_id":"4","last_reported":1737288867,"current_range_meters":29600,"station_id":"ce4bhbh2rcd13ifvqeo0","pricing_plan_id":"cebpf4jnsgd1na2vs0mg"},{"bike_id":"82eafdac-bd81-479d-a7b0-05db8ca76c26","system_id":"levelo_inurba_marseille","lat":43.25821,"lon":5.3945,"is_reserved":false,"is_disabled":true,"rental_uris":{"android":"levelo://app?vid=82eafdac-bd81-479d-a7b0-05db8ca76c26","ios":"levelo://app?vid=82eafdac-bd81-479d-a7b0-05db8ca76c26"},"vehicle_type_id":"4","last_reported":1737288867,"current_range_meters":16400,"station_id":"ce4bhip2rcd13ifvqft0","pricing_plan_id":"cebpf4jnsgd1na2vs0mg"},{"bike_id":"4e8508bb-01fe-4c85-a5c8-c9c3126062ce","system_id":"levelo_inurba_marseille","lat":43.31325,"lon":5.39697,"is_reserved":false,"is_disabled":false,"rental_uris":{"android":"levelo://app?vid=4e8508bb-01fe-4c85-a5c8-c9c3126062ce","ios":"levelo://app?vid=4e8508bb-01fe-4c85-a5c8-c9c3126062ce"},"vehicle_type_id":"4","last_reported":1737288867,"current_range_meters":36800,"station_id":"ce4bgvp2rcd13ifvqcu0","pricing_plan_id":"cebpf4jnsgd1na2vs0mg"},{"bike_id":"6ffb0408-5765-499a-922e-eefd60232783","system_id":"levelo_inurba_marseille","lat":43.23146,"lon":5.43721,"is_reserved":false,"is_disabled":false,"rental_uris":{"android":"levelo://app?vid=6ffb0408-5765-499a-922e-eefd60232783","ios":"levelo://app?vid=6ffb0408-5765-499a-922e-eefd60232783"},"vehicle_type_id":"4","last_reported":1737288867,"current_range_meters":38000,"station_id":"ce4bhmp2rcd13ifvqgog","pricing_plan_id":"cebpf4jnsgd1na2vs0mg"},{"bike_id":"12ff9735-4d92-471f-88ba-915fa10e4b24","system_id":"levelo_inurba_marseille","lat":43.32674,"lon":5.41007,"is_reserved":false,"is_disabled":false,"rental_uris":{"android":"levelo://app?vid=12ff9735-4d92-471f-88ba-915fa10e4b24","ios":"levelo://app?vid=12ff9735-4d92-471f-88ba-915fa10e4b24"},"vehicle_type_id":"4","last_reported":1737288867,"current_range_meters":36400,"station_id":"ce4bhpp2rcd13ifvqhgg","pricing_plan_id":"cebpf4jnsgd1na2vs0mg"},{"bike_id":"626fa4d6-d262-439f-b613-25429aa1344e","system_id":"levelo_inurba_marseille","lat":43.31327,"lon":5.39701,"is_reserved":false,"is_disabled":false,"rental_uris":{"android":"levelo://app?vid=626fa4d6-d262-439f-b613-25429aa1344e","ios":"levelo://app?vid=626fa4d6-d262-439f-b613-25429aa1344e"},"vehicle_type_id":"4","last_reported":1737288867,"current_range_meters":39200,"station_id":"ce4bgvp2rcd13ifvqcu0","pricing_plan_id":"cebpf4jnsgd1na2vs0mg"},{"bike_id":"6292960e-dd4b-47cf-90c2-1ff427bb17de","system_id":"levelo_inurba_marseille","lat":43.28621,"lon":5.39535,"is_reserved":false,"is_disabled":false,"rental_uris":{"android":"levelo://app?vid=6292960e-dd4b-47cf-90c2-1ff427bb17de","ios":"levelo://app?vid=6292960e-dd4b-47cf-90c2-1ff427bb17de"},"vehicle_type_id":"4","last_reported":1737288867,"current_range_meters":34000,"station_id":"ce4bh292rcd13ifvqdg0","pricing_plan_id":"cebpf4jnsgd1na2vs0mg"},{"bike_id":"f1854a4b-3068-4abb-b1e3-fe7b2576ef1b","system_id":"levelo_inurba_marseille","lat":43.30604,"lon":5.37224,"is_reserved":false,"is_disabled":false,"rental_uris":{"android":"levelo://app?vid=f1854a4b-3068-4abb-b1e3-fe7b2576ef1b","ios":"levelo://app?vid=f1854a4b-3068-4abb-b1e3-fe7b2576ef1b"},"vehicle_type_id":"4","last_reported":1737288867,"current_range_meters":38800,"station_id":"ce4bgqh2rcd13ifvqc4g","pricing_plan_id":"cebpf4jnsgd1na2vs0mg"},{"bike_id":"f2390374-e060-4fe1-bcfa-cb2711193e58","system_id":"levelo_inurba_marseille","lat":43.2509,"lon":5.3952,"is_reserved":false,"is_disabled":false,"rental_uris":{"android":"levelo://app?vid=f2390374-e060-4fe1-bcfa-cb2711193e58","ios":"levelo://app?vid=f2390374-e060-4fe1-bcfa-cb2711193e58"},"vehicle_type_id":"4","last_reported":1737288867,"current_range_meters":38400,"station_id":"ce4bhm12rcd13ifvqgkg","pricing_plan_id":"cebpf4jnsgd1na2vs0mg"},{"bike_id":"e4e59b25-fec9-4764-b2d6-afe998bbaf07","system_id":"levelo_inurba_marseille","lat":43.29002,"lon":5.35614,"is_reserved":false,"is_disabled":false,"rental_uris":{"android":"levelo://app?vid=e4e59b25-fec9-4764-b2d6-afe998bbaf07","ios":"levelo://app?vid=e4e59b25-fec9-4764-b2d6-afe998bbaf07"},"vehicle_type_id":"4","last_reported":1737288867,"current_range_meters":20800,"station_id":"ce4bhb92rcd13ifvqen0","pricing_plan_id":"cebpf4jnsgd1na2vs0mg"},{"bike_id":"c7872632-b20e-4f33-a987-07d57c0dbd21","system_id":"levelo_inurba_marseille","lat":43.30549,"lon":5.36545,"is_reserved":false,"is_disabled":false,"rental_uris":{"android":"levelo://app?vid=c7872632-b20e-4f33-a987-07d57c0dbd21","ios":"levelo://app?vid=c7872632-b20e-4f33-a987-07d57c0dbd21"},"vehicle_type_id":"4","last_reported":1737288867,"current_range_meters":35200,"station_id":"ce4bgs12rcd13ifvqcag","pricing_plan_id":"cebpf4jnsgd1na2vs0mg"},{"bike_id":"591b3bd2-5685-4ec2-843e-e45d69c9aabd","system_id":"levelo_inurba_marseille","lat":43.26069,"lon":5.39393,"is_reserved":false,"is_disabled":false,"rental_uris":{"android":"levelo://app?vid=591b3bd2-5685-4ec2-843e-e45d69c9aabd","ios":"levelo://app?vid=591b3bd2-5685-4ec2-843e-e45d69c9aabd"},"vehicle_type_id":"4","last_reported":1737288867,"current_range_meters":39200,"station_id":"ce4bhh92rcd13ifvqfj0","pricing_plan_id":"cebpf4jnsgd1na2vs0mg"},{"bike_id":"bce0a9a1-6f2a-4c62-8485-b4df349de9d6","system_id":"levelo_inurba_marseille","lat":43.29287,"lon":5.37447,"is_reserved":false,"is_disabled":false,"rental_uris":{"android":"levelo://app?vid=bce0a9a1-6f2a-4c62-8485-b4df349de9d6","ios":"levelo://app?vid=bce0a9a1-6f2a-4c62-8485-b4df349de9d6"},"vehicle_type_id":"4","last_reported":1737288867,"current_range_meters":38800,"station_id":"ce4bgi12rcd13ifvqb70","pricing_plan_id":"cebpf4jnsgd1na2vs0mg"},{"bike_id":"a3dd20f0-27d2-43cd-8b06-2b1035532be4","system_id":"levelo_inurba_marseille","lat":43.280767,"lon":5.396563,"is_reserved":false,"is_disabled":false,"rental_uris":{"android":"levelo://app?vid=a3dd20f0-27d2-43cd-8b06-2b1035532be4","ios":"levelo://app?vid=a3dd20f0-27d2-43cd-8b06-2b1035532be4"},"vehicle_type_id":"4","last_reported":1737288867,"current_range_meters":38800,"station_id":"ce4bho12rcd13ifvqh2g","pricing_plan_id":"cebpf4jnsgd1na2vs0mg"},{"bike_id":"d468c43b-79f9-4a69-9334-f2e452c76c01","system_id":"levelo_inurba_marseille","lat":43.31295,"lon":5.36921,"is_reserved":false,"is_disabled":false,"rental_uris":{"android":"levelo://app?vid=d468c43b-79f9-4a69-9334-f2e452c76c01","ios":"levelo://app?vid=d468c43b-79f9-4a69-9334-f2e452c76c01"},"vehicle_type_id":"4","last_reported":1737288867,"current_range_meters":34000,"station_id":"","pricing_plan_id":"cebpf4jnsgd1na2vs0mg"},{"bike_id":"fceda391-1d4e-40ac-9c2a-a51399b38159","system_id":"levelo_inurba_marseille","lat":43.24995,"lon":5.38949,"is_reserved":false,"is_disabled":false,"rental_uris":{"android":"levelo://app?vid=fceda391-1d4e-40ac-9c2a-a51399b38159","ios":"levelo://app?vid=fceda391-1d4e-40ac-9c2a-a51399b38159"},"vehicle_type_id":"4","last_reported":1737288867,"current_range_meters":27600,"station_id":"ce4bhgp2rcd13ifvqfd0","pricing_plan_id":"cebpf4jnsgd1na2vs0mg"},{"bike_id":"1d403f19-4fb1-41c2-99b3-2a4d3e1cab00","system_id":"levelo_inurba_marseille","lat":43.28861,"lon":5.35865,"is_reserved":false,"is_disabled":false,"rental_uris":{"android":"levelo://app?vid=1d403f19-4fb1-41c2-99b3-2a4d3e1cab00","ios":"levelo://app?vid=1d403f19-4fb1-41c2-99b3-2a4d3e1cab00"},"vehicle_type_id":"4","last_reported":1737288867,"current_range_meters":38000,"station_id":"ce4bhb12rcd13ifvqem0","pricing_plan_id":"cebpf4jnsgd1na2vs0mg"},{"bike_id":"a95248e8-7ba2-479e-9b5c-9fb4d8e98c2b","system_id":"levelo_inurba_marseille","lat":43.28096,"lon":5.42188,"is_reserved":false,"is_disabled":true,"rental_uris":{"android":"levelo://app?vid=a95248e8-7ba2-479e-9b5c-9fb4d8e98c2b","ios":"levelo://app?vid=a95248e8-7ba2-479e-9b5c-9fb4d8e98c2b"},"vehicle_type_id":"4","last_reported":1737288867,"current_range_meters":0,"station_id":"","pricing_plan_id":"cebpf4jnsgd1na2vs0mg"},{"bike_id":"246f2aa1-d855-40ee-b8e2-0e541013d632","system_id":"levelo_inurba_marseille","lat":43.27833,"lon":5.40721,"is_reserved":false,"is_disabled":true,"rental_uris":{"android":"levelo://app?vid=246f2aa1-d855-40ee-b8e2-0e541013d632","ios":"levelo://app?vid=246f2aa1-d855-40ee-b8e2-0e541013d632"},"vehicle_type_id":"4","last_reported":1737288867,"current_range_meters":0,"station_id":"ce4bhnh2rcd13ifvqgtg","pricing_plan_id":"cebpf4jnsgd1na2vs0mg"},{"bike_id":"87cefc3a-e36a-4030-9c3f-9fc87455f3e3","system_id":"levelo_inurba_marseille","lat":43.27383,"lon":5.36256,"is_reserved":false,"is_disabled":false,"rental_uris":{"android":"levelo://app?vid=87cefc3a-e36a-4030-9c3f-9fc87455f3e3","ios":"levelo://app?vid=87cefc3a-e36a-4030-9c3f-9fc87455f3e3"},"vehicle_type_id":"4","last_reported":1737288867,"current_range_meters":38000,"station_id":"ce4bhbh2rcd13ifvqeo0","pricing_plan_id":"cebpf4jnsgd1na2vs0mg"},{"bike_id":"1f9c06e7-2f75-45b2-bd3a-0c4d30b72737","system_id":"levelo_inurba_marseille","lat":43.24391,"lon":5.37063,"is_reserved":false,"is_disabled":false,"rental_uris":{"android":"levelo://app?vid=1f9c06e7-2f75-45b2-bd3a-0c4d30b72737","ios":"levelo://app?vid=1f9c06e7-2f75-45b2-bd3a-0c4d30b72737"},"vehicle_type_id":"4","last_reported":1737288867,"current_range_meters":16800,"station_id":"ce4bhhh2rcd13ifvqfk0","pricing_plan_id":"cebpf4jnsgd1na2vs0mg"},{"bike_id":"7aba0176-fb70-4027-92f8-979ed5895ce1","system_id":"levelo_inurba_marseille","lat":43.2844,"lon":5.39204,"is_reserved":false,"is_disabled":false,"rental_uris":{"android":"levelo://app?vid=7aba0176-fb70-4027-92f8-979ed5895ce1","ios":"levelo://app?vid=7aba0176-fb70-4027-92f8-979ed5895ce1"},"vehicle_type_id":"4","last_reported":1737288867,"current_range_meters":26000,"station_id":"ce4bhoh2rcd13ifvqh5g","pricing_plan_id":"cebpf4jnsgd1na2vs0mg"},{"bike_id":"a8404ae2-4b03-4e79-b2fb-443e381045c4","system_id":"levelo_inurba_marseille","lat":43.27545,"lon":5.38414,"is_reserved":false,"is_disabled":false,"rental_uris":{"android":"levelo://app?vid=a8404ae2-4b03-4e79-b2fb-443e381045c4","ios":"levelo://app?vid=a8404ae2-4b03-4e79-b2fb-443e381045c4"},"vehicle_type_id":"4","last_reported":1737288867,"current_range_meters":38800,"station_id":"ce4bhh92rcd13ifvqfi0","pricing_plan_id":"cebpf4jnsgd1na2vs0mg"},{"bike_id":"c0943972-b0b0-4123-8a79-be8a92f5a1d0","system_id":"levelo_inurba_marseille","lat":43.26078,"lon":5.394214,"is_reserved":false,"is_disabled":false,"rental_uris":{"android":"levelo://app?vid=c0943972-b0b0-4123-8a79-be8a92f5a1d0","ios":"levelo://app?vid=c0943972-b0b0-4123-8a79-be8a92f5a1d0"},"vehicle_type_id":"4","last_reported":1737288867,"current_range_meters":19600,"station_id":"ce4bhh92rcd13ifvqfj0","pricing_plan_id":"cebpf4jnsgd1na2vs0mg"},{"bike_id":"1e81dad0-c75a-42f3-98b0-b7b54f50dd46","system_id":"levelo_inurba_marseille","lat":43.26551,"lon":5.37285,"is_reserved":false,"is_disabled":false,"rental_uris":{"android":"levelo://app?vid=1e81dad0-c75a-42f3-98b0-b7b54f50dd46","ios":"levelo://app?vid=1e81dad0-c75a-42f3-98b0-b7b54f50dd46"},"vehicle_type_id":"4","last_reported":1737288867,"current_range_meters":36400,"station_id":"ce4bhg12rcd13ifvqf70","pricing_plan_id":"cebpf4jnsgd1na2vs0mg"},{"bike_id":"2189f33e-4cfd-4f76-9d91-913095d551c4","system_id":"levelo_inurba_marseille","lat":43.30387,"lon":5.39136,"is_reserved":false,"is_disabled":true,"rental_uris":{"android":"levelo://app?vid=2189f33e-4cfd-4f76-9d91-913095d551c4","ios":"levelo://app?vid=2189f33e-4cfd-4f76-9d91-913095d551c4"},"vehicle_type_id":"4","last_reported":1737288867,"current_range_meters":0,"station_id":"","pricing_plan_id":"cebpf4jnsgd1na2vs0mg"},{"bike_id":"260aa35c-7790-482a-a203-19c86857ce27","system_id":"levelo_inurba_marseille","lat":43.27057,"lon":5.40268,"is_reserved":false,"is_disabled":false,"rental_uris":{"android":"levelo://app?vid=260aa35c-7790-482a-a203-19c86857ce27","ios":"levelo://app?vid=260aa35c-7790-482a-a203-19c86857ce27"},"vehicle_type_id":"4","last_reported":1737288867,"current_range_meters":5600,"station_id":"ce4bhk92rcd13ifvqgc0","pricing_plan_id":"cebpf4jnsgd1na2vs0mg"},{"bike_id":"668f9767-c78d-438a-96bb-c0760f782967","system_id":"levelo_inurba_marseille","lat":43.26208,"lon":5.37928,"is_reserved":false,"is_disabled":false,"rental_uris":{"android":"levelo://app?vid=668f9767-c78d-438a-96bb-c0760f782967","ios":"levelo://app?vid=668f9767-c78d-438a-96bb-c0760f782967"},"vehicle_type_id":"4","last_reported":1737288867,"current_range_meters":36800,"station_id":"ce4bhjp2rcd13ifvqg90","pricing_plan_id":"cebpf4jnsgd1na2vs0mg"},{"bike_id":"50fe9c87-cb17-4bf2-b769-417a5dd5d23a","system_id":"levelo_inurba_marseille","lat":43.28432,"lon":5.34977,"is_reserved":false,"is_disabled":false,"rental_uris":{"android":"levelo://app?vid=50fe9c87-cb17-4bf2-b769-417a5dd5d23a","ios":"levelo://app?vid=50fe9c87-cb17-4bf2-b769-417a5dd5d23a"},"vehicle_type_id":"4","last_reported":1737288867,"current_range_meters":27200,"station_id":"ce4bhbh2rcd13ifvqepg","pricing_plan_id":"cebpf4jnsgd1na2vs0mg"},{"bike_id":"541b7769-8083-411e-ad4d-d20a4dfa7b91","system_id":"levelo_inurba_marseille","lat":43.31274,"lon":5.40169,"is_reserved":false,"is_disabled":false,"rental_uris":{"android":"levelo://app?vid=541b7769-8083-411e-ad4d-d20a4dfa7b91","ios":"levelo://app?vid=541b7769-8083-411e-ad4d-d20a4dfa7b91"},"vehicle_type_id":"4","last_reported":1737288867,"current_range_meters":38800,"station_id":"ce4bh092rcd13ifvqd30","pricing_plan_id":"cebpf4jnsgd1na2vs0mg"},{"bike_id":"ac68e326-b9ce-475a-bb18-1ef4a90c1541","system_id":"levelo_inurba_marseille","lat":43.30532,"lon":5.36548,"is_reserved":false,"is_disabled":false,"rental_uris":{"android":"levelo://app?vid=ac68e326-b9ce-475a-bb18-1ef4a90c1541","ios":"levelo://app?vid=ac68e326-b9ce-475a-bb18-1ef4a90c1541"},"vehicle_type_id":"4","last_reported":1737288867,"current_range_meters":39200,"station_id":"ce4bgs12rcd13ifvqcag","pricing_plan_id":"cebpf4jnsgd1na2vs0mg"},{"bike_id":"0d5bf58b-8962-4322-87c4-754920ec04ac","system_id":"levelo_inurba_marseille","lat":43.31199,"lon":5.38717,"is_reserved":false,"is_disabled":true,"rental_uris":{"android":"levelo://app?vid=0d5bf58b-8962-4322-87c4-754920ec04ac","ios":"levelo://app?vid=0d5bf58b-8962-4322-87c4-754920ec04ac"},"vehicle_type_id":"4","last_reported":1737288867,"current_range_meters":32000,"station_id":"ce4bgv12rcd13ifvqcp0","pricing_plan_id":"cebpf4jnsgd1na2vs0mg"},{"bike_id":"c92cbb9f-5a8c-4f30-b00a-221ba31b944d","system_id":"levelo_inurba_marseille","lat":43.28419,"lon":5.34992,"is_reserved":false,"is_disabled":true,"rental_uris":{"android":"levelo://app?vid=c92cbb9f-5a8c-4f30-b00a-221ba31b944d","ios":"levelo://app?vid=c92cbb9f-5a8c-4f30-b00a-221ba31b944d"},"vehicle_type_id":"4","last_reported":1737288867,"current_range_meters":31200,"station_id":"ce4bhbh2rcd13ifvqepg","pricing_plan_id":"cebpf4jnsgd1na2vs0mg"},{"bike_id":"41902fd9-fa18-46a4-b43c-51a2cb10a6db","system_id":"levelo_inurba_marseille","lat":43.30365,"lon":5.41923,"is_reserved":false,"is_disabled":false,"rental_uris":{"android":"levelo://app?vid=41902fd9-fa18-46a4-b43c-51a2cb10a6db","ios":"levelo://app?vid=41902fd9-fa18-46a4-b43c-51a2cb10a6db"},"vehicle_type_id":"4","last_reported":1737288867,"current_range_meters":38000,"station_id":"ce4bhop2rcd13ifvqh7g","pricing_plan_id":"cebpf4jnsgd1na2vs0mg"},{"bike_id":"4e35d48b-8446-4e2a-a4c2-e2ce4476ec82","system_id":"levelo_inurba_marseille","lat":43.28422,"lon":5.34994,"is_reserved":false,"is_disabled":false,"rental_uris":{"android":"levelo://app?vid=4e35d48b-8446-4e2a-a4c2-e2ce4476ec82","ios":"levelo://app?vid=4e35d48b-8446-4e2a-a4c2-e2ce4476ec82"},"vehicle_type_id":"4","last_reported":1737288867,"current_range_meters":29600,"station_id":"ce4bhbh2rcd13ifvqepg","pricing_plan_id":"cebpf4jnsgd1na2vs0mg"},{"bike_id":"d7c0872a-e6bf-430f-af66-52a0c0c846ba","system_id":"levelo_inurba_marseille","lat":43.29008,"lon":5.35878,"is_reserved":false,"is_disabled":false,"rental_uris":{"android":"levelo://app?vid=d7c0872a-e6bf-430f-af66-52a0c0c846ba","ios":"levelo://app?vid=d7c0872a-e6bf-430f-af66-52a0c0c846ba"},"vehicle_type_id":"4","last_reported":1737288867,"current_range_meters":16000,"station_id":"ce4bha92rcd13ifvqeg0","pricing_plan_id":"cebpf4jnsgd1na2vs0mg"},{"bike_id":"fe90f7a6-3920-456a-9451-50d213b7000f","system_id":"levelo_inurba_marseille","lat":43.284837,"lon":5.384415,"is_reserved":false,"is_disabled":true,"rental_uris":{"android":"levelo://app?vid=fe90f7a6-3920-456a-9451-50d213b7000f","ios":"levelo://app?vid=fe90f7a6-3920-456a-9451-50d213b7000f"},"vehicle_type_id":"4","last_reported":1737288867,"current_range_meters":32400,"station_id":"ce4bh512rcd13ifvqe3g","pricing_plan_id":"cebpf4jnsgd1na2vs0mg"},{"bike_id":"67fe5a2e-d8fb-4c79-a771-ee3875d3a660","system_id":"levelo_inurba_marseille","lat":43.33728,"lon":5.3919,"is_reserved":false,"is_disabled":false,"rental_uris":{"android":"levelo://app?vid=67fe5a2e-d8fb-4c79-a771-ee3875d3a660","ios":"levelo://app?vid=67fe5a2e-d8fb-4c79-a771-ee3875d3a660"},"vehicle_type_id":"4","last_reported":1737288867,"current_range_meters":38000,"station_id":"ce4bhr92rcd13ifvqhsg","pricing_plan_id":"cebpf4jnsgd1na2vs0mg"},{"bike_id":"aeeb7245-8a7c-4b79-b9ac-efca69f7818a","system_id":"levelo_inurba_marseille","lat":43.32114,"lon":5.3683,"is_reserved":false,"is_disabled":false,"rental_uris":{"android":"levelo://app?vid=aeeb7245-8a7c-4b79-b9ac-efca69f7818a","ios":"levelo://app?vid=aeeb7245-8a7c-4b79-b9ac-efca69f7818a"},"vehicle_type_id":"4","last_reported":1737288867,"current_range_meters":21600,"station_id":"ce4bhrh2rcd13ifvqhug","pricing_plan_id":"cebpf4jnsgd1na2vs0mg"},{"bike_id":"9f2925b7-b122-4801-ac97-79bd2701c6f3","system_id":"levelo_inurba_marseille","lat":43.24073,"lon":5.37763,"is_reserved":false,"is_disabled":false,"rental_uris":{"android":"levelo://app?vid=9f2925b7-b122-4801-ac97-79bd2701c6f3","ios":"levelo://app?vid=9f2925b7-b122-4801-ac97-79bd2701c6f3"},"vehicle_type_id":"4","last_reported":1737288867,"current_range_meters":36800,"station_id":"ce4bhnp2rcd13ifvqgvg","pricing_plan_id":"cebpf4jnsgd1na2vs0mg"},{"bike_id":"953421cc-aaf4-441a-86a4-1bede8f27dac","system_id":"levelo_inurba_marseille","lat":43.30303,"lon":5.36894,"is_reserved":false,"is_disabled":false,"rental_uris":{"android":"levelo://app?vid=953421cc-aaf4-441a-86a4-1bede8f27dac","ios":"levelo://app?vid=953421cc-aaf4-441a-86a4-1bede8f27dac"},"vehicle_type_id":"4","last_reported":1737288867,"current_range_meters":12400,"station_id":"ce4bgqh2rcd13ifvqc5g","pricing_plan_id":"cebpf4jnsgd1na2vs0mg"},{"bike_id":"7b52e969-7498-42fb-aafb-034e09ca2f2a","system_id":"levelo_inurba_marseille","lat":43.308,"lon":5.43563,"is_reserved":false,"is_disabled":false,"rental_uris":{"android":"levelo://app?vid=7b52e969-7498-42fb-aafb-034e09ca2f2a","ios":"levelo://app?vid=7b52e969-7498-42fb-aafb-034e09ca2f2a"},"vehicle_type_id":"4","last_reported":1737288867,"current_range_meters":30000,"station_id":"ce4bhph2rcd13ifvqheg","pricing_plan_id":"cebpf4jnsgd1na2vs0mg"},{"bike_id":"a9a0e60f-8e94-490a-988c-5a9cfc45d626","system_id":"levelo_inurba_marseille","lat":43.24172,"lon":5.36407,"is_reserved":false,"is_disabled":false,"rental_uris":{"android":"levelo://app?vid=a9a0e60f-8e94-490a-988c-5a9cfc45d626","ios":"levelo://app?vid=a9a0e60f-8e94-490a-988c-5a9cfc45d626"},"vehicle_type_id":"4","last_reported":1737288867,"current_range_meters":8000,"station_id":"cpo36qri1sfpv3e86is0","pricing_plan_id":"cebpf4jnsgd1na2vs0mg"},{"bike_id":"3397474f-1c59-4a78-b74a-7b1c282f7d63","system_id":"levelo_inurba_marseille","lat":43.26552,"lon":5.39027,"is_reserved":false,"is_disabled":false,"rental_uris":{"android":"levelo://app?vid=3397474f-1c59-4a78-b74a-7b1c282f7d63","ios":"levelo://app?vid=3397474f-1c59-4a78-b74a-7b1c282f7d63"},"vehicle_type_id":"4","last_reported":1737288867,"current_range_meters":22800,"station_id":"ce4bhe12rcd13ifvqf30","pricing_plan_id":"cebpf4jnsgd1na2vs0mg"},{"bike_id":"472c53f3-ad31-4b0d-a711-2bb1f6ecf1ea","system_id":"levelo_inurba_marseille","lat":43.24813,"lon":5.37465,"is_reserved":false,"is_disabled":false,"rental_uris":{"android":"levelo://app?vid=472c53f3-ad31-4b0d-a711-2bb1f6ecf1ea","ios":"levelo://app?vid=472c53f3-ad31-4b0d-a711-2bb1f6ecf1ea"},"vehicle_type_id":"4","last_reported":1737288867,"current_range_meters":8800,"station_id":"ce4bhgh2rcd13ifvqfb0","pricing_plan_id":"cebpf4jnsgd1na2vs0mg"},{"bike_id":"5136cca2-dc79-42d5-a096-5120a2626c68","system_id":"levelo_inurba_marseille","lat":43.30943,"lon":5.40146,"is_reserved":false,"is_disabled":false,"rental_uris":{"android":"levelo://app?vid=5136cca2-dc79-42d5-a096-5120a2626c68","ios":"levelo://app?vid=5136cca2-dc79-42d5-a096-5120a2626c68"},"vehicle_type_id":"4","last_reported":1737288867,"current_range_meters":38400,"station_id":"ce4bgvp2rcd13ifvqct0","pricing_plan_id":"cebpf4jnsgd1na2vs0mg"},{"bike_id":"76dbf6ef-b4a8-4cef-8918-462b67116819","system_id":"levelo_inurba_marseille","lat":43.32287,"lon":5.38299,"is_reserved":false,"is_disabled":false,"rental_uris":{"android":"levelo://app?vid=76dbf6ef-b4a8-4cef-8918-462b67116819","ios":"levelo://app?vid=76dbf6ef-b4a8-4cef-8918-462b67116819"},"vehicle_type_id":"4","last_reported":1737288867,"current_range_meters":38000,"station_id":"ce4bhr12rcd13ifvqhqg","pricing_plan_id":"cebpf4jnsgd1na2vs0mg"},{"bike_id":"5b129bb1-ec89-4607-a0b6-0a42a0f295ce","system_id":"levelo_inurba_marseille","lat":43.25495,"lon":5.3765,"is_reserved":false,"is_disabled":false,"rental_uris":{"android":"levelo://app?vid=5b129bb1-ec89-4607-a0b6-0a42a0f295ce","ios":"levelo://app?vid=5b129bb1-ec89-4607-a0b6-0a42a0f295ce"},"vehicle_type_id":"4","last_reported":1737288867,"current_range_meters":39200,"station_id":"ce4bhh12rcd13ifvqff0","pricing_plan_id":"cebpf4jnsgd1na2vs0mg"},{"bike_id":"d5a4b84a-471f-4edb-a016-4dd0af7e2137","system_id":"levelo_inurba_marseille","lat":43.25873,"lon":5.39913,"is_reserved":false,"is_disabled":false,"rental_uris":{"android":"levelo://app?vid=d5a4b84a-471f-4edb-a016-4dd0af7e2137","ios":"levelo://app?vid=d5a4b84a-471f-4edb-a016-4dd0af7e2137"},"vehicle_type_id":"4","last_reported":1737288867,"current_range_meters":38800,"station_id":"ce4bhl92rcd13ifvqghg","pricing_plan_id":"cebpf4jnsgd1na2vs0mg"},{"bike_id":"e56ea1ce-1caa-4b24-8156-e51d7265ee6b","system_id":"levelo_inurba_marseille","lat":43.26681,"lon":5.38276,"is_reserved":false,"is_disabled":false,"rental_uris":{"android":"levelo://app?vid=e56ea1ce-1caa-4b24-8156-e51d7265ee6b","ios":"levelo://app?vid=e56ea1ce-1caa-4b24-8156-e51d7265ee6b"},"vehicle_type_id":"4","last_reported":1737288867,"current_range_meters":38800,"station_id":"ce4bhg92rcd13ifvqf90","pricing_plan_id":"cebpf4jnsgd1na2vs0mg"},{"bike_id":"b9f939dc-82b2-48de-beb3-4849afb2663a","system_id":"levelo_inurba_marseille","lat":43.26555,"lon":5.39558,"is_reserved":false,"is_disabled":false,"rental_uris":{"android":"levelo://app?vid=b9f939dc-82b2-48de-beb3-4849afb2663a","ios":"levelo://app?vid=b9f939dc-82b2-48de-beb3-4849afb2663a"},"vehicle_type_id":"4","last_reported":1737288867,"current_range_meters":26800,"station_id":"","pricing_plan_id":"cebpf4jnsgd1na2vs0mg"},{"bike_id":"50267a36-8428-4ee1-ac27-ac6a771a71af","system_id":"levelo_inurba_marseille","lat":43.337136,"lon":5.35593,"is_reserved":false,"is_disabled":false,"rental_uris":{"android":"levelo://app?vid=50267a36-8428-4ee1-ac27-ac6a771a71af","ios":"levelo://app?vid=50267a36-8428-4ee1-ac27-ac6a771a71af"},"vehicle_type_id":"4","last_reported":1737288867,"current_range_meters":6800,"station_id":"","pricing_plan_id":"cebpf4jnsgd1na2vs0mg"},{"bike_id":"f9452b03-1810-45ea-9334-5727cf443f30","system_id":"levelo_inurba_marseille","lat":43.28478,"lon":5.3842,"is_reserved":false,"is_disabled":false,"rental_uris":{"android":"levelo://app?vid=f9452b03-1810-45ea-9334-5727cf443f30","ios":"levelo://app?vid=f9452b03-1810-45ea-9334-5727cf443f30"},"vehicle_type_id":"4","last_reported":1737288867,"current_range_meters":28000,"station_id":"ce4bh512rcd13ifvqe3g","pricing_plan_id":"cebpf4jnsgd1na2vs0mg"},{"bike_id":"f5863b18-13a1-4c6e-92de-5668ea912ad3","system_id":"levelo_inurba_marseille","lat":43.2622,"lon":5.40447,"is_reserved":false,"is_disabled":true,"rental_uris":{"android":"levelo://app?vid=f5863b18-13a1-4c6e-92de-5668ea912ad3","ios":"levelo://app?vid=f5863b18-13a1-4c6e-92de-5668ea912ad3"},"vehicle_type_id":"4","last_reported":1737288867,"current_range_meters":0,"station_id":"","pricing_plan_id":"cebpf4jnsgd1na2vs0mg"},{"bike_id":"e8c8576f-6521-4b94-a0fa-80d4bef0a563","system_id":"levelo_inurba_marseille","lat":43.29524,"lon":5.37511,"is_reserved":false,"is_disabled":false,"rental_uris":{"android":"levelo://app?vid=e8c8576f-6521-4b94-a0fa-80d4bef0a563","ios":"levelo://app?vid=e8c8576f-6521-4b94-a0fa-80d4bef0a563"},"vehicle_type_id":"4","last_reported":1737288867,"current_range_meters":33200,"station_id":"ce4bgkp2rcd13ifvqbmg","pricing_plan_id":"cebpf4jnsgd1na2vs0mg"},{"bike_id":"fcac98f3-cb57-4c83-8c05-ba10e5b7f5cd","system_id":"levelo_inurba_marseille","lat":43.26948,"lon":5.4011,"is_reserved":false,"is_disabled":false,"rental_uris":{"android":"levelo://app?vid=fcac98f3-cb57-4c83-8c05-ba10e5b7f5cd","ios":"levelo://app?vid=fcac98f3-cb57-4c83-8c05-ba10e5b7f5cd"},"vehicle_type_id":"4","last_reported":1737288867,"current_range_meters":34000,"station_id":"cjm6bp8fraef2m0cb0m0","pricing_plan_id":"cebpf4jnsgd1na2vs0mg"},{"bike_id":"fba3bed5-48ec-4b96-bdc5-629f021bb6f1","system_id":"levelo_inurba_marseille","lat":43.28925,"lon":5.36408,"is_reserved":false,"is_disabled":false,"rental_uris":{"android":"levelo://app?vid=fba3bed5-48ec-4b96-bdc5-629f021bb6f1","ios":"levelo://app?vid=fba3bed5-48ec-4b96-bdc5-629f021bb6f1"},"vehicle_type_id":"4","last_reported":1737288867,"current_range_meters":22000,"station_id":"ce4bhc92rcd13ifvqetg","pricing_plan_id":"cebpf4jnsgd1na2vs0mg"},{"bike_id":"f508a21d-b248-4aec-b651-f5fadd9eae66","system_id":"levelo_inurba_marseille","lat":43.23965,"lon":5.36627,"is_reserved":false,"is_disabled":false,"rental_uris":{"android":"levelo://app?vid=f508a21d-b248-4aec-b651-f5fadd9eae66","ios":"levelo://app?vid=f508a21d-b248-4aec-b651-f5fadd9eae66"},"vehicle_type_id":"4","last_reported":1737288867,"current_range_meters":33200,"station_id":"ce4bhi12rcd13ifvqfp0","pricing_plan_id":"cebpf4jnsgd1na2vs0mg"},{"bike_id":"46686b70-f375-4947-b209-2f4548c2edcf","system_id":"levelo_inurba_marseille","lat":43.28876,"lon":5.39443,"is_reserved":false,"is_disabled":true,"rental_uris":{"android":"levelo://app?vid=46686b70-f375-4947-b209-2f4548c2edcf","ios":"levelo://app?vid=46686b70-f375-4947-b209-2f4548c2edcf"},"vehicle_type_id":"4","last_reported":1737288867,"current_range_meters":0,"station_id":"","pricing_plan_id":"cebpf4jnsgd1na2vs0mg"},{"bike_id":"62e704a0-dffd-45d5-83c7-9a7e14534940","system_id":"levelo_inurba_marseille","lat":43.28623,"lon":5.35091,"is_reserved":false,"is_disabled":false,"rental_uris":{"android":"levelo://app?vid=62e704a0-dffd-45d5-83c7-9a7e14534940","ios":"levelo://app?vid=62e704a0-dffd-45d5-83c7-9a7e14534940"},"vehicle_type_id":"4","last_reported":1737288867,"current_range_meters":32000,"station_id":"ce4bhch2rcd13ifvqeug","pricing_plan_id":"cebpf4jnsgd1na2vs0mg"},{"bike_id":"6e42a6c7-87c2-403e-84fd-d739a3d405a6","system_id":"levelo_inurba_marseille","lat":43.24606,"lon":5.42048,"is_reserved":false,"is_disabled":true,"rental_uris":{"android":"levelo://app?vid=6e42a6c7-87c2-403e-84fd-d739a3d405a6","ios":"levelo://app?vid=6e42a6c7-87c2-403e-84fd-d739a3d405a6"},"vehicle_type_id":"4","last_reported":1737288867,"current_range_meters":0,"station_id":"","pricing_plan_id":"cebpf4jnsgd1na2vs0mg"},{"bike_id":"7959068d-09e3-44db-a5a5-5606e68cba60","system_id":"levelo_inurba_marseille","lat":43.31326,"lon":5.39716,"is_reserved":false,"is_disabled":false,"rental_uris":{"android":"levelo://app?vid=7959068d-09e3-44db-a5a5-5606e68cba60","ios":"levelo://app?vid=7959068d-09e3-44db-a5a5-5606e68cba60"},"vehicle_type_id":"4","last_reported":1737288867,"current_range_meters":39200,"station_id":"ce4bgvp2rcd13ifvqcu0","pricing_plan_id":"cebpf4jnsgd1na2vs0mg"},{"bike_id":"6ecd6173-42ec-49fa-8634-dc35bf5f690d","system_id":"levelo_inurba_marseille","lat":43.26494,"lon":5.39545,"is_reserved":false,"is_disabled":false,"rental_uris":{"android":"levelo://app?vid=6ecd6173-42ec-49fa-8634-dc35bf5f690d","ios":"levelo://app?vid=6ecd6173-42ec-49fa-8634-dc35bf5f690d"},"vehicle_type_id":"4","last_reported":1737288867,"current_range_meters":35600,"station_id":"ce4bhi12rcd13ifvqfq0","pricing_plan_id":"cebpf4jnsgd1na2vs0mg"},{"bike_id":"abb73d04-354a-4007-8f6d-f74b2d148730","system_id":"levelo_inurba_marseille","lat":43.26064,"lon":5.39396,"is_reserved":false,"is_disabled":false,"rental_uris":{"android":"levelo://app?vid=abb73d04-354a-4007-8f6d-f74b2d148730","ios":"levelo://app?vid=abb73d04-354a-4007-8f6d-f74b2d148730"},"vehicle_type_id":"4","last_reported":1737288867,"current_range_meters":32400,"station_id":"ce4bhh92rcd13ifvqfj0","pricing_plan_id":"cebpf4jnsgd1na2vs0mg"},{"bike_id":"4fe58642-8ec3-4f25-a4fc-eb5dc3dc47a8","system_id":"levelo_inurba_marseille","lat":43.33547,"lon":5.36146,"is_reserved":false,"is_disabled":false,"rental_uris":{"android":"levelo://app?vid=4fe58642-8ec3-4f25-a4fc-eb5dc3dc47a8","ios":"levelo://app?vid=4fe58642-8ec3-4f25-a4fc-eb5dc3dc47a8"},"vehicle_type_id":"4","last_reported":1737288867,"current_range_meters":29600,"station_id":"","pricing_plan_id":"cebpf4jnsgd1na2vs0mg"},{"bike_id":"3977e15f-ea0d-4564-b8b2-334ad4d059f5","system_id":"levelo_inurba_marseille","lat":43.25868,"lon":5.39893,"is_reserved":false,"is_disabled":false,"rental_uris":{"android":"levelo://app?vid=3977e15f-ea0d-4564-b8b2-334ad4d059f5","ios":"levelo://app?vid=3977e15f-ea0d-4564-b8b2-334ad4d059f5"},"vehicle_type_id":"4","last_reported":1737288867,"current_range_meters":36800,"station_id":"ce4bhl92rcd13ifvqghg","pricing_plan_id":"cebpf4jnsgd1na2vs0mg"},{"bike_id":"b13b74e3-6fc6-41b8-be36-5e4e647718f9","system_id":"levelo_inurba_marseille","lat":43.28031,"lon":5.36943,"is_reserved":false,"is_disabled":false,"rental_uris":{"android":"levelo://app?vid=b13b74e3-6fc6-41b8-be36-5e4e647718f9","ios":"levelo://app?vid=b13b74e3-6fc6-41b8-be36-5e4e647718f9"},"vehicle_type_id":"4","last_reported":1737288867,"current_range_meters":31200,"station_id":"ce4bha12rcd13ifvqef0","pricing_plan_id":"cebpf4jnsgd1na2vs0mg"},{"bike_id":"c32835dd-cfa9-46c7-a259-324ff908b892","system_id":"levelo_inurba_marseille","lat":43.28157,"lon":5.42661,"is_reserved":false,"is_disabled":false,"rental_uris":{"android":"levelo://app?vid=c32835dd-cfa9-46c7-a259-324ff908b892","ios":"levelo://app?vid=c32835dd-cfa9-46c7-a259-324ff908b892"},"vehicle_type_id":"4","last_reported":1737288867,"current_range_meters":35200,"station_id":"ce4bhnh2rcd13ifvqgug","pricing_plan_id":"cebpf4jnsgd1na2vs0mg"},{"bike_id":"be6e8d6a-26a5-43eb-b167-67d8884760cd","system_id":"levelo_inurba_marseille","lat":43.28933,"lon":5.36632,"is_reserved":false,"is_disabled":false,"rental_uris":{"android":"levelo://app?vid=be6e8d6a-26a5-43eb-b167-67d8884760cd","ios":"levelo://app?vid=be6e8d6a-26a5-43eb-b167-67d8884760cd"},"vehicle_type_id":"4","last_reported":1737288867,"current_range_meters":32800,"station_id":"ce4bhap2rcd13ifvqek0","pricing_plan_id":"cebpf4jnsgd1na2vs0mg"},{"bike_id":"6870a9e0-7988-452a-a0a6-84e136278682","system_id":"levelo_inurba_marseille","lat":43.26554,"lon":5.37284,"is_reserved":false,"is_disabled":false,"rental_uris":{"android":"levelo://app?vid=6870a9e0-7988-452a-a0a6-84e136278682","ios":"levelo://app?vid=6870a9e0-7988-452a-a0a6-84e136278682"},"vehicle_type_id":"4","last_reported":1737288867,"current_range_meters":33200,"station_id":"ce4bhg12rcd13ifvqf70","pricing_plan_id":"cebpf4jnsgd1na2vs0mg"},{"bike_id":"9169845d-b4cd-4451-a513-e22ac8b3d14a","system_id":"levelo_inurba_marseille","lat":43.315,"lon":5.37308,"is_reserved":false,"is_disabled":false,"rental_uris":{"android":"levelo://app?vid=9169845d-b4cd-4451-a513-e22ac8b3d14a","ios":"levelo://app?vid=9169845d-b4cd-4451-a513-e22ac8b3d14a"},"vehicle_type_id":"4","last_reported":1737288867,"current_range_meters":35200,"station_id":"ce4bgt12rcd13ifvqcd0","pricing_plan_id":"cebpf4jnsgd1na2vs0mg"},{"bike_id":"8d6893ce-9784-4f54-b1d2-57d54414c78c","system_id":"levelo_inurba_marseille","lat":43.28018,"lon":5.36946,"is_reserved":false,"is_disabled":false,"rental_uris":{"android":"levelo://app?vid=8d6893ce-9784-4f54-b1d2-57d54414c78c","ios":"levelo://app?vid=8d6893ce-9784-4f54-b1d2-57d54414c78c"},"vehicle_type_id":"4","last_reported":1737288867,"current_range_meters":38400,"station_id":"ce4bha12rcd13ifvqef0","pricing_plan_id":"cebpf4jnsgd1na2vs0mg"},{"bike_id":"e188db1b-d315-4a12-8274-6f9eab0cf4f6","system_id":"levelo_inurba_marseille","lat":43.29038,"lon":5.35921,"is_reserved":false,"is_disabled":false,"rental_uris":{"android":"levelo://app?vid=e188db1b-d315-4a12-8274-6f9eab0cf4f6","ios":"levelo://app?vid=e188db1b-d315-4a12-8274-6f9eab0cf4f6"},"vehicle_type_id":"4","last_reported":1737288867,"current_range_meters":38400,"station_id":"ce4bha92rcd13ifvqeg0","pricing_plan_id":"cebpf4jnsgd1na2vs0mg"},{"bike_id":"b72d9725-83f4-4834-95fd-cdb738bcd4d7","system_id":"levelo_inurba_marseille","lat":43.28622,"lon":5.35103,"is_reserved":false,"is_disabled":false,"rental_uris":{"android":"levelo://app?vid=b72d9725-83f4-4834-95fd-cdb738bcd4d7","ios":"levelo://app?vid=b72d9725-83f4-4834-95fd-cdb738bcd4d7"},"vehicle_type_id":"4","last_reported":1737288867,"current_range_meters":32400,"station_id":"ce4bhch2rcd13ifvqeug","pricing_plan_id":"cebpf4jnsgd1na2vs0mg"},{"bike_id":"a8701af7-deca-400c-9cb2-c845062564a7","system_id":"levelo_inurba_marseille","lat":43.314377,"lon":5.387715,"is_reserved":false,"is_disabled":false,"rental_uris":{"android":"levelo://app?vid=a8701af7-deca-400c-9cb2-c845062564a7","ios":"levelo://app?vid=a8701af7-deca-400c-9cb2-c845062564a7"},"vehicle_type_id":"4","last_reported":1737288867,"current_range_meters":12400,"station_id":"","pricing_plan_id":"cebpf4jnsgd1na2vs0mg"},{"bike_id":"6304929a-602d-4458-a7c4-eae4a2f6efb6","system_id":"levelo_inurba_marseille","lat":43.28964,"lon":5.36411,"is_reserved":false,"is_disabled":false,"rental_uris":{"android":"levelo://app?vid=6304929a-602d-4458-a7c4-eae4a2f6efb6","ios":"levelo://app?vid=6304929a-602d-4458-a7c4-eae4a2f6efb6"},"vehicle_type_id":"4","last_reported":1737288867,"current_range_meters":28000,"station_id":"ce4bhc92rcd13ifvqetg","pricing_plan_id":"cebpf4jnsgd1na2vs0mg"},{"bike_id":"bf25d0d3-c313-4bd1-80a8-5eebfd5decfd","system_id":"levelo_inurba_marseille","lat":43.24804,"lon":5.37457,"is_reserved":false,"is_disabled":false,"rental_uris":{"android":"levelo://app?vid=bf25d0d3-c313-4bd1-80a8-5eebfd5decfd","ios":"levelo://app?vid=bf25d0d3-c313-4bd1-80a8-5eebfd5decfd"},