{"last_updated":1745910679,"ttl":60,"version":"2.2","data":{"bikes":[{"bike_id":"cbec0076-95d0-4f8f-8339-66de29997492","system_id":"levelo_inurba_marseille","lat":43.255653,"lon":5.382591,"is_reserved":false,"is_disabled":false,"rental_uris":{"android":"levelo://app?vid=cbec0076-95d0-4f8f-8339-66de29997492","ios":"levelo://app?vid=cbec0076-95d0-4f8f-8339-66de29997492"},"vehicle_type_id":"4","last_reported":1745910679,"current_range_meters":2800,"station_id":"ce4bhih2rcd13ifvqfs0","pricing_plan_id":"cebpf4jnsgd1na2vs0mg"},{"bike_id":"69d02f73-6122-4ea4-97e7-4df05d082ad7","system_id":"levelo_inurba_marseille","lat":43.30961,"lon":5.39038,"is_reserved":false,"is_disabled":false,"rental_uris":{"android":"levelo://app?vid=69d02f73-6122-4ea4-97e7-4df05d082ad7","ios":"levelo://app?vid=69d02f73-6122-4ea4-97e7-4df05d082ad7"},"vehicle_type_id":"4","last_reported":1745910679,"current_range_meters":2800,"station_id":"ce4bgup2rcd13ifvqco0","pricing_plan_id":"cebpf4jnsgd1na2vs0mg"},{"bike_id":"bccaea27-c311-40ea-81ce-96b4a70ad1e8","system_id":"levelo_inurba_marseille","lat":43.24074,"lon":5.37763,"is_reserved":false,"is_disabled":false,"rental_uris":{"android":"levelo://app?vid=bccaea27-c311-40ea-81ce-96b4a70ad1e8","ios":"levelo://app?vid=bccaea27-c311-40ea-81ce-96b4a70ad1e8"},"vehicle_type_id":"4","last_reported":1745910679,"current_range_meters":2800,"station_id":"ce4bhnp2rcd13ifvqgvg","pricing_plan_id":"cebpf4jnsgd1na2vs0mg"},{"bike_id":"b7c74670-434f-4f0e-ad6e-26a8912224f9","system_id":"levelo_inurba_marseille","lat":43.29039,"lon":5.37574,"is_reserved":false,"is_disabled":false,"rental_uris":{"android":"levelo://app?vid=b7c74670-434f-4f0e-ad6e-26a8912224f9","ios":"levelo://app?vid=b7c74670-434f-4f0e-ad6e-26a8912224f9"},"vehicle_type_id":"4","last_reported":1745910679,"current_range_meters":2800,"station_id":"ce4bh692rcd13ifvqe90","pricing_plan_id":"cebpf4jnsgd1na2vs0mg"},{"bike_id":"51ff0c01-320d-4ae2-90f4-169adbdd2a73","system_id":"levelo_inurba_marseille","lat":43.33604,"lon":5.40985,"is_reserved":false,"is_disabled":false,"rental_uris":{"android":"levelo://app?vid=51ff0c01-320d-4ae2-90f4-169adbdd2a73","ios":"levelo://app?vid=51ff0c01-320d-4ae2-90f4-169adbdd2a73"},"vehicle_type_id":"4","last_reported":1745910679,"current_range_meters":2800,"station_id":"ce4bhqh2rcd13ifvqhmg","pricing_plan_id":"cebpf4jnsgd1na2vs0mg"},{"bike_id":"8ae79fb7-0582-444e-8dab-1d22e31e0f2e","system_id":"levelo_inurba_marseille","lat":43.239559,"lon":5.366283,"is_reserved":false,"is_disabled":false,"rental_uris":{"android":"levelo://app?vid=8ae79fb7-0582-444e-8dab-1d22e31e0f2e","ios":"levelo://app?vid=8ae79fb7-0582-444e-8dab-1d22e31e0f2e"},"vehicle_type_id":"4","last_reported":1745910679,"current_range_meters":3200,"station_id":"ce4bhi12rcd13ifvqfp0","pricing_plan_id":"cebpf4jnsgd1na2vs0mg"},{"bike_id":"f90220db-b932-4eb5-a24a-88977a12e7f7","system_id":"levelo_inurba_marseille","lat":43.25502,"lon":5.37648,"is_reserved":false,"is_disabled":false,"rental_uris":{"android":"levelo://app?vid=f90220db-b932-4eb5-a24a-88977a12e7f7","ios":"levelo://app?vid=f90220db-b932-4eb5-a24a-88977a12e7f7"},"vehicle_type_id":"4","last_reported":1745910679,"current_range_meters":3200,"station_id":"ce4bhh12rcd13ifvqff0","pricing_plan_id":"cebpf4jnsgd1na2vs0mg"},{"bike_id":"69aecfaf-c847-4d0e-9d38-c8d48b78c139","system_id":"levelo_inurba_marseille","lat":43.24072,"lon":5.37762,"is_reserved":false,"is_disabled":false,"rental_uris":{"android":"levelo://app?vid=69aecfaf-c847-4d0e-9d38-c8d48b78c139","ios":"levelo://app?vid=69aecfaf-c847-4d0e-9d38-c8d48b78c139"},"vehicle_type_id":"4","last_reported":1745910679,"current_range_meters":3200,"station_id":"ce4bhnp2rcd13ifvqgvg","pricing_plan_id":"cebpf4jnsgd1na2vs0mg"},{"bike_id":"82220f0d-a54e-4f75-9996-4cb15a1c438e","system_id":"levelo_inurba_marseille","lat":43.28409,"lon":5.37508,"is_reserved":false,"is_disabled":false,"rental_uris":{"android":"levelo://app?vid=82220f0d-a54e-4f75-9996-4cb15a1c438e","ios":"levelo://app?vid=82220f0d-a54e-4f75-9996-4cb15a1c438e"},"vehicle_type_id":"4","last_reported":1745910679,"current_range_meters":3200,"station_id":"ce4bh412rcd13ifvqds0","pricing_plan_id":"cebpf4jnsgd1na2vs0mg"},{"bike_id":"d5932cf4-34ad-4951-9801-cbd6f4c417a0","system_id":"levelo_inurba_marseille","lat":43.304749,"lon":5.367349,"is_reserved":false,"is_disabled":false,"rental_uris":{"android":"levelo://app?vid=d5932cf4-34ad-4951-9801-cbd6f4c417a0","ios":"levelo://app?vid=d5932cf4-34ad-4951-9801-cbd6f4c417a0"},"vehicle_type_id":"4","last_reported":1745910679,"current_range_meters":3600,"station_id":"ce4bgr92rcd13ifvqc6g","pricing_plan_id":"cebpf4jnsgd1na2vs0mg"},{"bike_id":"225a6b51-3a9b-4906-a66e-ac00dc8168cf","system_id":"levelo_inurba_marseille","lat":43.295727,"lon":5.375273,"is_reserved":false,"is_disabled":false,"rental_uris":{"android":"levelo://app?vid=225a6b51-3a9b-4906-a66e-ac00dc8168cf","ios":"levelo://app?vid=225a6b51-3a9b-4906-a66e-ac00dc8168cf"},"vehicle_type_id":"4","last_reported":1745910679,"current_range_meters":3600,"station_id":"","pricing_plan_id":"cebpf4jnsgd1na2vs0mg"},{"bike_id":"4f64c3e3-4693-4660-b55a-e5a4b0eed937","system_id":"levelo_inurba_marseille","lat":43.25941,"lon":5.409,"is_reserved":false,"is_disabled":false,"rental_uris":{"android":"levelo://app?vid=4f64c3e3-4693-4660-b55a-e5a4b0eed937","ios":"levelo://app?vid=4f64c3e3-4693-4660-b55a-e5a4b0eed937"},"vehicle_type_id":"4","last_reported":1745910679,"current_range_meters":3600,"station_id":"ce4bhm92rcd13ifvqglg","pricing_plan_id":"cebpf4jnsgd1na2vs0mg"},{"bike_id":"3ed8de70-4ca5-4761-b985-443c5b0c0333","system_id":"levelo_inurba_marseille","lat":43.32539,"lon":5.41427,"is_reserved":false,"is_disabled":false,"rental_uris":{"android":"levelo://app?vid=3ed8de70-4ca5-4761-b985-443c5b0c0333","ios":"levelo://app?vid=3ed8de70-4ca5-4761-b985-443c5b0c0333"},"vehicle_type_id":"4","last_reported":1745910679,"current_range_meters":4000,"station_id":"ce4bhq12rcd13ifvqhhg","pricing_plan_id":"cebpf4jnsgd1na2vs0mg"},{"bike_id":"9a90e093-ee00-45be-9fc3-fb97a7c27b5d","system_id":"levelo_inurba_marseille","lat":43.289276,"lon":5.363957,"is_reserved":false,"is_disabled":true,"rental_uris":{"android":"levelo://app?vid=9a90e093-ee00-45be-9fc3-fb97a7c27b5d","ios":"levelo://app?vid=9a90e093-ee00-45be-9fc3-fb97a7c27b5d"},"vehicle_type_id":"4","last_reported":1745910679,"current_range_meters":4400,"station_id":"ce4bhc92rcd13ifvqetg","pricing_plan_id":"cebpf4jnsgd1na2vs0mg"},{"bike_id":"ce22f9f1-74e7-490f-8bee-9a9381a863a4","system_id":"levelo_inurba_marseille","lat":43.30148,"lon":5.37418,"is_reserved":false,"is_disabled":false,"rental_uris":{"android":"levelo://app?vid=ce22f9f1-74e7-490f-8bee-9a9381a863a4","ios":"levelo://app?vid=ce22f9f1-74e7-490f-8bee-9a9381a863a4"},"vehicle_type_id":"4","last_reported":1745910679,"current_range_meters":4400,"station_id":"ce4bgs92rcd13ifvqcc0","pricing_plan_id":"cebpf4jnsgd1na2vs0mg"},{"bike_id":"ef767f85-6bc7-492a-b994-39b5f8cd145f","system_id":"levelo_inurba_marseille","lat":43.26688,"lon":5.38275,"is_reserved":false,"is_disabled":false,"rental_uris":{"android":"levelo://app?vid=ef767f85-6bc7-492a-b994-39b5f8cd145f","ios":"levelo://app?vid=ef767f85-6bc7-492a-b994-39b5f8cd145f"},"vehicle_type_id":"4","last_reported":1745910679,"current_range_meters":4400,"station_id":"ce4bhg92rcd13ifvqf90","pricing_plan_id":"cebpf4jnsgd1na2vs0mg"},{"bike_id":"362a1f45-a5e7-40bf-95db-cfe98d8d098a","system_id":"levelo_inurba_marseille","lat":43.30188,"lon":5.36627,"is_reserved":false,"is_disabled":false,"rental_uris":{"android":"levelo://app?vid=362a1f45-a5e7-40bf-95db-cfe98d8d098a","ios":"levelo://app?vid=362a1f45-a5e7-40bf-95db-cfe98d8d098a"},"vehicle_type_id":"4","last_reported":1745910679,"current_range_meters":4400,"station_id":"ce4bgrh2rcd13ifvqc8g","pricing_plan_id":"cebpf4jnsgd1na2vs0mg"},{"bike_id":"2170e8a2-0b50-454a-a8c3-90edc68a4e7f","system_id":"levelo_inurba_marseille","lat":43.22924,"lon":5.35377,"is_reserved":false,"is_disabled":false,"rental_uris":{"android":"levelo://app?vid=2170e8a2-0b50-454a-a8c3-90edc68a4e7f","ios":"levelo://app?vid=2170e8a2-0b50-454a-a8c3-90edc68a4e7f"},"vehicle_type_id":"4","last_reported":1745910679,"current_range_meters":4800,"station_id":"cpo3532slgdg3j2ikp40","pricing_plan_id":"cebpf4jnsgd1na2vs0mg"},{"bike_id":"4141a4ac-c499-4bea-ac60-899e617d90d3","system_id":"levelo_inurba_marseille","lat":43.243957,"lon":5.370607,"is_reserved":false,"is_disabled":false,"rental_uris":{"android":"levelo://app?vid=4141a4ac-c499-4bea-ac60-899e617d90d3","ios":"levelo://app?vid=4141a4ac-c499-4bea-ac60-899e617d90d3"},"vehicle_type_id":"4","last_reported":1745910679,"current_range_meters":4800,"station_id":"ce4bhhh2rcd13ifvqfk0","pricing_plan_id":"cebpf4jnsgd1na2vs0mg"},{"bike_id":"a4c8a335-745b-4d95-97e0-7bac3cb18549","system_id":"levelo_inurba_marseille","lat":43.28129,"lon":5.39825,"is_reserved":false,"is_disabled":false,"rental_uris":{"android":"levelo://app?vid=a4c8a335-745b-4d95-97e0-7bac3cb18549","ios":"levelo://app?vid=a4c8a335-745b-4d95-97e0-7bac3cb18549"},"vehicle_type_id":"4","last_reported":1745910679,"current_range_meters":4800,"station_id":"","pricing_plan_id":"cebpf4jnsgd1na2vs0mg"},{"bike_id":"3887de46-cf68-4e7b-bbbb-56a7ee3c555a","system_id":"levelo_inurba_marseille","lat":43.30571,"lon":5.36704,"is_reserved":false,"is_disabled":false,"rental_uris":{"android":"levelo://app?vid=3887de46-cf68-4e7b-bbbb-56a7ee3c555a","ios":"levelo://app?vid=3887de46-cf68-4e7b-bbbb-56a7ee3c555a"},"vehicle_type_id":"4","last_reported":1745910679,"current_range_meters":4800,"station_id":"ce4bgrp2rcd13ifvqc9g","pricing_plan_id":"cebpf4jnsgd1na2vs0mg"},{"bike_id":"6ba5f6b0-be13-48ce-9b7b-ab69ca4dda1a","system_id":"levelo_inurba_marseille","lat":43.27488,"lon":5.42458,"is_reserved":false,"is_disabled":false,"rental_uris":{"android":"levelo://app?vid=6ba5f6b0-be13-48ce-9b7b-ab69ca4dda1a","ios":"levelo://app?vid=6ba5f6b0-be13-48ce-9b7b-ab69ca4dda1a"},"vehicle_type_id":"4","last_reported":1745910679,"current_range_meters":5600,"station_id":"ce4bhn92rcd13ifvqgrg","pricing_plan_id":"cebpf4jnsgd1na2vs0mg"},{"bike_id":"9b7b4660-aeb0-4f10-8d97-e6c2853e5b03","system_id":"levelo_inurba_marseille","lat":43.27979,"lon":5.38745,"is_reserved":false,"is_disabled":false,"rental_uris":{"android":"levelo://app?vid=9b7b4660-aeb0-4f10-8d97-e6c2853e5b03","ios":"levelo://app?vid=9b7b4660-aeb0-4f10-8d97-e6c2853e5b03"},"vehicle_type_id":"4","last_reported":1745910679,"current_range_meters":5600,"station_id":"ce4bhg12rcd13ifvqf80","pricing_plan_id":"cebpf4jnsgd1na2vs0mg"},{"bike_id":"c034bd86-4ed4-4a43-bc97-e1277fca8486","system_id":"levelo_inurba_marseille","lat":43.25923,"lon":5.40872,"is_reserved":false,"is_disabled":false,"rental_uris":{"android":"levelo://app?vid=c034bd86-4ed4-4a43-bc97-e1277fca8486","ios":"levelo://app?vid=c034bd86-4ed4-4a43-bc97-e1277fca8486"},"vehicle_type_id":"4","last_reported":1745910679,"current_range_meters":5600,"station_id":"ce4bhm92rcd13ifvqglg","pricing_plan_id":"cebpf4jnsgd1na2vs0mg"},{"bike_id":"4cb9f3ab-ea93-40fa-8592-07f7e491c23e","system_id":"levelo_inurba_marseille","lat":43.30952,"lon":5.39036,"is_reserved":false,"is_disabled":false,"rental_uris":{"android":"levelo://app?vid=4cb9f3ab-ea93-40fa-8592-07f7e491c23e","ios":"levelo://app?vid=4cb9f3ab-ea93-40fa-8592-07f7e491c23e"},"vehicle_type_id":"4","last_reported":1745910679,"current_range_meters":5600,"station_id":"ce4bgup2rcd13ifvqco0","pricing_plan_id":"cebpf4jnsgd1na2vs0mg"},{"bike_id":"1eacb8ef-9c66-4b07-aae6-b01b6325f590","system_id":"levelo_inurba_marseille","lat":43.27818,"lon":5.40715,"is_reserved":false,"is_disabled":false,"rental_uris":{"android":"levelo://app?vid=1eacb8ef-9c66-4b07-aae6-b01b6325f590","ios":"levelo://app?vid=1eacb8ef-9c66-4b07-aae6-b01b6325f590"},"vehicle_type_id":"4","last_reported":1745910679,"current_range_meters":6000,"station_id":"ce4bhnh2rcd13ifvqgtg","pricing_plan_id":"cebpf4jnsgd1na2vs0mg"},{"bike_id":"7e0fe0e6-4072-4e3e-bc97-3e0ade8211f9","system_id":"levelo_inurba_marseille","lat":43.297893,"lon":5.381032,"is_reserved":false,"is_disabled":false,"rental_uris":{"android":"levelo://app?vid=7e0fe0e6-4072-4e3e-bc97-3e0ade8211f9","ios":"levelo://app?vid=7e0fe0e6-4072-4e3e-bc97-3e0ade8211f9"},"vehicle_type_id":"4","last_reported":1745910679,"current_range_meters":6000,"station_id":"ce4bgip2rcd13ifvqbb0","pricing_plan_id":"cebpf4jnsgd1na2vs0mg"},{"bike_id":"de3b690c-5ca2-4a7f-ba7c-fc443fe75656","system_id":"levelo_inurba_marseille","lat":43.28268,"lon":5.35057,"is_reserved":false,"is_disabled":false,"rental_uris":{"android":"levelo://app?vid=de3b690c-5ca2-4a7f-ba7c-fc443fe75656","ios":"levelo://app?vid=de3b690c-5ca2-4a7f-ba7c-fc443fe75656"},"vehicle_type_id":"4","last_reported":1745910679,"current_range_meters":6000,"station_id":"ce4bhbp2rcd13ifvqerg","pricing_plan_id":"cebpf4jnsgd1na2vs0mg"},{"bike_id":"11beab31-c7c5-4dd2-a927-f48a7ff7bce4","system_id":"levelo_inurba_marseille","lat":43.32485,"lon":5.36572,"is_reserved":false,"is_disabled":false,"rental_uris":{"android":"levelo://app?vid=11beab31-c7c5-4dd2-a927-f48a7ff7bce4","ios":"levelo://app?vid=11beab31-c7c5-4dd2-a927-f48a7ff7bce4"},"vehicle_type_id":"4","last_reported":1745910679,"current_range_meters":6400,"station_id":"ce4bhs12rcd13ifvqhvg","pricing_plan_id":"cebpf4jnsgd1na2vs0mg"},{"bike_id":"1a3573cf-a1a9-4263-8b95-b5180692a506","system_id":"levelo_inurba_marseille","lat":43.2439,"lon":5.3706,"is_reserved":false,"is_disabled":false,"rental_uris":{"android":"levelo://app?vid=1a3573cf-a1a9-4263-8b95-b5180692a506","ios":"levelo://app?vid=1a3573cf-a1a9-4263-8b95-b5180692a506"},"vehicle_type_id":"4","last_reported":1745910679,"current_range_meters":6400,"station_id":"ce4bhhh2rcd13ifvqfk0","pricing_plan_id":"cebpf4jnsgd1na2vs0mg"},{"bike_id":"26deac1f-c435-40bc-9469-9ae0b266bb77","system_id":"levelo_inurba_marseille","lat":43.30211,"lon":5.38434,"is_reserved":false,"is_disabled":false,"rental_uris":{"android":"levelo://app?vid=26deac1f-c435-40bc-9469-9ae0b266bb77","ios":"levelo://app?vid=26deac1f-c435-40bc-9469-9ae0b266bb77"},"vehicle_type_id":"4","last_reported":1745910679,"current_range_meters":6400,"station_id":"","pricing_plan_id":"cebpf4jnsgd1na2vs0mg"},{"bike_id":"f1e63815-28c4-4ead-b60b-c9606ff5558f","system_id":"levelo_inurba_marseille","lat":43.30533,"lon":5.36547,"is_reserved":false,"is_disabled":false,"rental_uris":{"android":"levelo://app?vid=f1e63815-28c4-4ead-b60b-c9606ff5558f","ios":"levelo://app?vid=f1e63815-28c4-4ead-b60b-c9606ff5558f"},"vehicle_type_id":"4","last_reported":1745910679,"current_range_meters":6800,"station_id":"ce4bgs12rcd13ifvqcag","pricing_plan_id":"cebpf4jnsgd1na2vs0mg"},{"bike_id":"c6b81f33-8a4a-4d90-9b7a-b61623090b82","system_id":"levelo_inurba_marseille","lat":43.243873,"lon":5.370663,"is_reserved":false,"is_disabled":false,"rental_uris":{"android":"levelo://app?vid=c6b81f33-8a4a-4d90-9b7a-b61623090b82","ios":"levelo://app?vid=c6b81f33-8a4a-4d90-9b7a-b61623090b82"},"vehicle_type_id":"4","last_reported":1745910679,"current_range_meters":6800,"station_id":"ce4bhhh2rcd13ifvqfk0","pricing_plan_id":"cebpf4jnsgd1na2vs0mg"},{"bike_id":"a927ad15-b129-4085-9072-8cc54f2c8cf2","system_id":"levelo_inurba_marseille","lat":43.320917,"lon":5.367883,"is_reserved":false,"is_disabled":false,"rental_uris":{"android":"levelo://app?vid=a927ad15-b129-4085-9072-8cc54f2c8cf2","ios":"levelo://app?vid=a927ad15-b129-4085-9072-8cc54f2c8cf2"},"vehicle_type_id":"4","last_reported":1745910679,"current_range_meters":6800,"station_id":"ce4bhrh2rcd13ifvqhug","pricing_plan_id":"cebpf4jnsgd1na2vs0mg"},{"bike_id":"af4f0c69-e62d-4155-b1d1-a67b45271ae1","system_id":"levelo_inurba_marseille","lat":43.24759,"lon":5.41205,"is_reserved":false,"is_disabled":false,"rental_uris":{"android":"levelo://app?vid=af4f0c69-e62d-4155-b1d1-a67b45271ae1","ios":"levelo://app?vid=af4f0c69-e62d-4155-b1d1-a67b45271ae1"},"vehicle_type_id":"4","last_reported":1745910679,"current_range_meters":7200,"station_id":"","pricing_plan_id":"cebpf4jnsgd1na2vs0mg"},{"bike_id":"a5999fc6-0e99-4b4e-834d-d7292fd0a329","system_id":"levelo_inurba_marseille","lat":43.24392,"lon":5.37057,"is_reserved":false,"is_disabled":false,"rental_uris":{"android":"levelo://app?vid=a5999fc6-0e99-4b4e-834d-d7292fd0a329","ios":"levelo://app?vid=a5999fc6-0e99-4b4e-834d-d7292fd0a329"},"vehicle_type_id":"4","last_reported":1745910679,"current_range_meters":7200,"station_id":"ce4bhhh2rcd13ifvqfk0","pricing_plan_id":"cebpf4jnsgd1na2vs0mg"},{"bike_id":"888de794-f985-40e6-ab94-8e6bf1c73de3","system_id":"levelo_inurba_marseille","lat":43.26683,"lon":5.38274,"is_reserved":false,"is_disabled":false,"rental_uris":{"android":"levelo://app?vid=888de794-f985-40e6-ab94-8e6bf1c73de3","ios":"levelo://app?vid=888de794-f985-40e6-ab94-8e6bf1c73de3"},"vehicle_type_id":"4","last_reported":1745910679,"current_range_meters":8000,"station_id":"ce4bhg92rcd13ifvqf90","pricing_plan_id":"cebpf4jnsgd1na2vs0mg"},{"bike_id":"32eca611-111c-4689-bb0d-8c20e0341828","system_id":"levelo_inurba_marseille","lat":43.2559,"lon":5.38256,"is_reserved":false,"is_disabled":false,"rental_uris":{"android":"levelo://app?vid=32eca611-111c-4689-bb0d-8c20e0341828","ios":"levelo://app?vid=32eca611-111c-4689-bb0d-8c20e0341828"},"vehicle_type_id":"4","last_reported":1745910679,"current_range_meters":8000,"station_id":"ce4bhih2rcd13ifvqfs0","pricing_plan_id":"cebpf4jnsgd1na2vs0mg"},{"bike_id":"eb47ba28-550b-4d32-b62a-56d065f14413","system_id":"levelo_inurba_marseille","lat":43.29623,"lon":5.37163,"is_reserved":false,"is_disabled":false,"rental_uris":{"android":"levelo://app?vid=eb47ba28-550b-4d32-b62a-56d065f14413","ios":"levelo://app?vid=eb47ba28-550b-4d32-b62a-56d065f14413"},"vehicle_type_id":"4","last_reported":1745910679,"current_range_meters":8000,"station_id":"ce4bgnh2rcd13ifvqc0g","pricing_plan_id":"cebpf4jnsgd1na2vs0mg"},{"bike_id":"21416959-405e-427c-8613-f68765f7be41","system_id":"levelo_inurba_marseille","lat":43.30544,"lon":5.36704,"is_reserved":false,"is_disabled":false,"rental_uris":{"android":"levelo://app?vid=21416959-405e-427c-8613-f68765f7be41","ios":"levelo://app?vid=21416959-405e-427c-8613-f68765f7be41"},"vehicle_type_id":"4","last_reported":1745910679,"current_range_meters":8000,"station_id":"ce4bgrp2rcd13ifvqc9g","pricing_plan_id":"cebpf4jnsgd1na2vs0mg"},{"bike_id":"1f19ae80-a633-40e2-944b-c9ca822ccc97","system_id":"levelo_inurba_marseille","lat":43.33095,"lon":5.4075,"is_reserved":false,"is_disabled":false,"rental_uris":{"android":"levelo://app?vid=1f19ae80-a633-40e2-944b-c9ca822ccc97","ios":"levelo://app?vid=1f19ae80-a633-40e2-944b-c9ca822ccc97"},"vehicle_type_id":"4","last_reported":1745910679,"current_range_meters":8400,"station_id":"","pricing_plan_id":"cebpf4jnsgd1na2vs0mg"},{"bike_id":"ee6c05e5-1750-4b5f-bf66-0510125a0efc","system_id":"levelo_inurba_marseille","lat":43.28661,"lon":5.38663,"is_reserved":false,"is_disabled":true,"rental_uris":{"android":"levelo://app?vid=ee6c05e5-1750-4b5f-bf66-0510125a0efc","ios":"levelo://app?vid=ee6c05e5-1750-4b5f-bf66-0510125a0efc"},"vehicle_type_id":"4","last_reported":1745910679,"current_range_meters":8400,"station_id":"ce4bh492rcd13ifvqdug","pricing_plan_id":"cebpf4jnsgd1na2vs0mg"},{"bike_id":"af98af90-ccfc-480d-9a97-9268e23b9d0a","system_id":"levelo_inurba_marseille","lat":43.31353,"lon":5.36715,"is_reserved":false,"is_disabled":false,"rental_uris":{"android":"levelo://app?vid=af98af90-ccfc-480d-9a97-9268e23b9d0a","ios":"levelo://app?vid=af98af90-ccfc-480d-9a97-9268e23b9d0a"},"vehicle_type_id":"4","last_reported":1745910679,"current_range_meters":8800,"station_id":"ce4bgr92rcd13ifvqc6g","pricing_plan_id":"cebpf4jnsgd1na2vs0mg"},{"bike_id":"9106a491-576a-4274-ae4e-1cfa553cae49","system_id":"levelo_inurba_marseille","lat":43.30892,"lon":5.37184,"is_reserved":false,"is_disabled":false,"rental_uris":{"android":"levelo://app?vid=9106a491-576a-4274-ae4e-1cfa553cae49","ios":"levelo://app?vid=9106a491-576a-4274-ae4e-1cfa553cae49"},"vehicle_type_id":"4","last_reported":1745910679,"current_range_meters":8800,"station_id":"ce4bguh2rcd13ifvqckg","pricing_plan_id":"cebpf4jnsgd1na2vs0mg"},{"bike_id":"ce2acb9b-3791-4000-822d-c542d629429b","system_id":"levelo_inurba_marseille","lat":43.26103,"lon":5.41467,"is_reserved":false,"is_disabled":false,"rental_uris":{"android":"levelo://app?vid=ce2acb9b-3791-4000-822d-c542d629429b","ios":"levelo://app?vid=ce2acb9b-3791-4000-822d-c542d629429b"},"vehicle_type_id":"4","last_reported":1745910679,"current_range_meters":8800,"station_id":"","pricing_plan_id":"cebpf4jnsgd1na2vs0mg"},{"bike_id":"8a6862b6-19ef-4be8-8367-ae3322ddba6d","system_id":"levelo_inurba_marseille","lat":43.24074,"lon":5.37764,"is_reserved":false,"is_disabled":false,"rental_uris":{"android":"levelo://app?vid=8a6862b6-19ef-4be8-8367-ae3322ddba6d","ios":"levelo://app?vid=8a6862b6-19ef-4be8-8367-ae3322ddba6d"},"vehicle_type_id":"4","last_reported":1745910679,"current_range_meters":8800,"station_id":"ce4bhnp2rcd13ifvqgvg","pricing_plan_id":"cebpf4jnsgd1na2vs0mg"},{"bike_id":"ad66d498-4c74-46be-a919-537f0dbb752d","system_id":"levelo_inurba_marseille","lat":43.31035,"lon":5.36688,"is_reserved":false,"is_disabled":false,"rental_uris":{"android":"levelo://app?vid=ad66d498-4c74-46be-a919-537f0dbb752d","ios":"levelo://app?vid=ad66d498-4c74-46be-a919-537f0dbb752d"},"vehicle_type_id":"4","last_reported":1745910679,"current_range_meters":8800,"station_id":"","pricing_plan_id":"cebpf4jnsgd1na2vs0mg"},{"bike_id":"90150095-8299-4df1-853a-31c500c7ed2d","system_id":"levelo_inurba_marseille","lat":43.30785,"lon":5.37641,"is_reserved":false,"is_disabled":false,"rental_uris":{"android":"levelo://app?vid=90150095-8299-4df1-853a-31c500c7ed2d","ios":"levelo://app?vid=90150095-8299-4df1-853a-31c500c7ed2d"},"vehicle_type_id":"4","last_reported":1745910679,"current_range_meters":8400,"station_id":"ce4bgv92rcd13ifvqcq0","pricing_plan_id":"cebpf4jnsgd1na2vs0mg"},{"bike_id":"da823d1d-8330-43c0-888a-f738083e44fb","system_id":"levelo_inurba_marseille","lat":43.309462,"lon":5.390351,"is_reserved":false,"is_disabled":false,"rental_uris":{"android":"levelo://app?vid=da823d1d-8330-43c0-888a-f738083e44fb","ios":"levelo://app?vid=da823d1d-8330-43c0-888a-f738083e44fb"},"vehicle_type_id":"4","last_reported":1745910679,"current_range_meters":9200,"station_id":"ce4bgup2rcd13ifvqco0","pricing_plan_id":"cebpf4jnsgd1na2vs0mg"},{"bike_id":"e5b4b90d-e268-4de2-98f4-f6d0513f8801","system_id":"levelo_inurba_marseille","lat":43.26536,"lon":5.42205,"is_reserved":false,"is_disabled":false,"rental_uris":{"android":"levelo://app?vid=e5b4b90d-e268-4de2-98f4-f6d0513f8801","ios":"levelo://app?vid=e5b4b90d-e268-4de2-98f4-f6d0513f8801"},"vehicle_type_id":"4","last_reported":1745910679,"current_range_meters":9200,"station_id":"","pricing_plan_id":"cebpf4jnsgd1na2vs0mg"},{"bike_id":"92ef9c33-0713-47d0-ba3e-7b223e58d060","system_id":"levelo_inurba_marseille","lat":43.259399,"lon":5.409066,"is_reserved":false,"is_disabled":false,"rental_uris":{"android":"levelo://app?vid=92ef9c33-0713-47d0-ba3e-7b223e58d060","ios":"levelo://app?vid=92ef9c33-0713-47d0-ba3e-7b223e58d060"},"vehicle_type_id":"4","last_reported":1745910679,"current_range_meters":9200,"station_id":"ce4bhm92rcd13ifvqglg","pricing_plan_id":"cebpf4jnsgd1na2vs0mg"},{"bike_id":"51cf61f7-eaa2-440c-8e66-180a142ab448","system_id":"levelo_inurba_marseille","lat":43.32483,"lon":5.36569,"is_reserved":false,"is_disabled":false,"rental_uris":{"android":"levelo://app?vid=51cf61f7-eaa2-440c-8e66-180a142ab448","ios":"levelo://app?vid=51cf61f7-eaa2-440c-8e66-180a142ab448"},"vehicle_type_id":"4","last_reported":1745910679,"current_range_meters":9200,"station_id":"ce4bhs12rcd13ifvqhvg","pricing_plan_id":"cebpf4jnsgd1na2vs0mg"},{"bike_id":"af63eb77-e6ac-4fa5-8a53-e9afe7b6a5d2","system_id":"levelo_inurba_marseille","lat":43.30377,"lon":5.42485,"is_reserved":false,"is_disabled":false,"rental_uris":{"android":"levelo://app?vid=af63eb77-e6ac-4fa5-8a53-e9afe7b6a5d2","ios":"levelo://app?vid=af63eb77-e6ac-4fa5-8a53-e9afe7b6a5d2"},"vehicle_type_id":"4","last_reported":1745910679,"current_range_meters":9200,"station_id":"ce4bhoh2rcd13ifvqh6g","pricing_plan_id":"cebpf4jnsgd1na2vs0mg"},{"bike_id":"19bc06ff-788d-4601-8413-abaa0395d58e","system_id":"levelo_inurba_marseille","lat":43.32553,"lon":5.41442,"is_reserved":false,"is_disabled":false,"rental_uris":{"android":"levelo://app?vid=19bc06ff-788d-4601-8413-abaa0395d58e","ios":"levelo://app?vid=19bc06ff-788d-4601-8413-abaa0395d58e"},"vehicle_type_id":"4","last_reported":1745910679,"current_range_meters":9600,"station_id":"ce4bhq12rcd13ifvqhhg","pricing_plan_id":"cebpf4jnsgd1na2vs0mg"},{"bike_id":"844ff167-870d-4f2e-8d68-979c5a6135bd","system_id":"levelo_inurba_marseille","lat":43.27542,"lon":5.39287,"is_reserved":false,"is_disabled":false,"rental_uris":{"android":"levelo://app?vid=844ff167-870d-4f2e-8d68-979c5a6135bd","ios":"levelo://app?vid=844ff167-870d-4f2e-8d68-979c5a6135bd"},"vehicle_type_id":"4","last_reported":1745910679,"current_range_meters":9600,"station_id":"ce4bhdp2rcd13ifvqf20","pricing_plan_id":"cebpf4jnsgd1na2vs0mg"},{"bike_id":"1c818d25-eb8c-4b21-82ea-ff704ef94a17","system_id":"levelo_inurba_marseille","lat":43.32059,"lon":5.41551,"is_reserved":false,"is_disabled":false,"rental_uris":{"android":"levelo://app?vid=1c818d25-eb8c-4b21-82ea-ff704ef94a17","ios":"levelo://app?vid=1c818d25-eb8c-4b21-82ea-ff704ef94a17"},"vehicle_type_id":"4","last_reported":1745910679,"current_range_meters":9600,"station_id":"ce4bhq92rcd13ifvqhkg","pricing_plan_id":"cebpf4jnsgd1na2vs0mg"},{"bike_id":"f8527f98-9dba-4767-9c49-2ee5632fd2af","system_id":"levelo_inurba_marseille","lat":43.27833,"lon":5.407393,"is_reserved":false,"is_disabled":false,"rental_uris":{"android":"levelo://app?vid=f8527f98-9dba-4767-9c49-2ee5632fd2af","ios":"levelo://app?vid=f8527f98-9dba-4767-9c49-2ee5632fd2af"},"vehicle_type_id":"4","last_reported":1745910679,"current_range_meters":9600,"station_id":"ce4bhnh2rcd13ifvqgtg","pricing_plan_id":"cebpf4jnsgd1na2vs0mg"},{"bike_id":"d6638402-6e6c-46ed-85a2-fa37cc3f3bc3","system_id":"levelo_inurba_marseille","lat":43.26953,"lon":5.38634,"is_reserved":false,"is_disabled":false,"rental_uris":{"android":"levelo://app?vid=d6638402-6e6c-46ed-85a2-fa37cc3f3bc3","ios":"levelo://app?vid=d6638402-6e6c-46ed-85a2-fa37cc3f3bc3"},"vehicle_type_id":"4","last_reported":1745910679,"current_range_meters":9600,"station_id":"ce4bhh92rcd13ifvqfh0","pricing_plan_id":"cebpf4jnsgd1na2vs0mg"},{"bike_id":"3566469e-5adf-4ae7-9fad-25ede3e08c1b","system_id":"levelo_inurba_marseille","lat":43.29221,"lon":5.38439,"is_reserved":false,"is_disabled":true,"rental_uris":{"android":"levelo://app?vid=3566469e-5adf-4ae7-9fad-25ede3e08c1b","ios":"levelo://app?vid=3566469e-5adf-4ae7-9fad-25ede3e08c1b"},"vehicle_type_id":"4","last_reported":1745910679,"current_range_meters":9600,"station_id":"ce4bh692rcd13ifvqea0","pricing_plan_id":"cebpf4jnsgd1na2vs0mg"},{"bike_id":"a6c80b0c-536c-4a45-884f-2e1d125500ab","system_id":"levelo_inurba_marseille","lat":43.225034,"lon":5.347849,"is_reserved":false,"is_disabled":false,"rental_uris":{"android":"levelo://app?vid=a6c80b0c-536c-4a45-884f-2e1d125500ab","ios":"levelo://app?vid=a6c80b0c-536c-4a45-884f-2e1d125500ab"},"vehicle_type_id":"4","last_reported":1745910679,"current_range_meters":10000,"station_id":"st_cvj5dfep6f1abm77gieg","pricing_plan_id":"cebpf4jnsgd1na2vs0mg"},{"bike_id":"d427482a-6cd6-4835-92c8-8d51b3625916","system_id":"levelo_inurba_marseille","lat":43.27423,"lon":5.39426,"is_reserved":false,"is_disabled":false,"rental_uris":{"android":"levelo://app?vid=d427482a-6cd6-4835-92c8-8d51b3625916","ios":"levelo://app?vid=d427482a-6cd6-4835-92c8-8d51b3625916"},"vehicle_type_id":"4","last_reported":1745910679,"current_range_meters":12000,"station_id":"ce4bhdp2rcd13ifvqf20","pricing_plan_id":"cebpf4jnsgd1na2vs0mg"},{"bike_id":"4a059a2d-b3a6-4e0b-9fd3-b714abc8d3bb","system_id":"levelo_inurba_marseille","lat":43.319943,"lon":5.38138,"is_reserved":false,"is_disabled":true,"rental_uris":{"android":"levelo://app?vid=4a059a2d-b3a6-4e0b-9fd3-b714abc8d3bb","ios":"levelo://app?vid=4a059a2d-b3a6-4e0b-9fd3-b714abc8d3bb"},"vehicle_type_id":"4","last_reported":1745910679,"current_range_meters":10000,"station_id":"ce4bhr12rcd13ifvqhpg","pricing_plan_id":"cebpf4jnsgd1na2vs0mg"},{"bike_id":"ab4612c3-85f5-4cb4-9ce2-46373d9c1c69","system_id":"levelo_inurba_marseille","lat":43.25807,"lon":5.38584,"is_reserved":false,"is_disabled":false,"rental_uris":{"android":"levelo://app?vid=ab4612c3-85f5-4cb4-9ce2-46373d9c1c69","ios":"levelo://app?vid=ab4612c3-85f5-4cb4-9ce2-46373d9c1c69"},"vehicle_type_id":"4","last_reported":1745910679,"current_range_meters":10000,"station_id":"","pricing_plan_id":"cebpf4jnsgd1na2vs0mg"},{"bike_id":"a273dd95-99e2-4bb8-bee8-19cb9b13f516","system_id":"levelo_inurba_marseille","lat":43.299025,"lon":5.436655,"is_reserved":false,"is_disabled":true,"rental_uris":{"android":"levelo://app?vid=a273dd95-99e2-4bb8-bee8-19cb9b13f516","ios":"levelo://app?vid=a273dd95-99e2-4bb8-bee8-19cb9b13f516"},"vehicle_type_id":"4","last_reported":1745910679,"current_range_meters":10000,"station_id":"ce4bhpp2rcd13ifvqhfg","pricing_plan_id":"cebpf4jnsgd1na2vs0mg"},{"bike_id":"4f33f1fd-20a3-4897-9777-19066388bb99","system_id":"levelo_inurba_marseille","lat":43.299103,"lon":5.38269,"is_reserved":false,"is_disabled":true,"rental_uris":{"android":"levelo://app?vid=4f33f1fd-20a3-4897-9777-19066388bb99","ios":"levelo://app?vid=4f33f1fd-20a3-4897-9777-19066388bb99"},"vehicle_type_id":"4","last_reported":1745910679,"current_range_meters":10000,"station_id":"","pricing_plan_id":"cebpf4jnsgd1na2vs0mg"},{"bike_id":"611abd13-c6a5-461e-9e55-07bc452e941d","system_id":"levelo_inurba_marseille","lat":43.24177,"lon":5.39736,"is_reserved":false,"is_disabled":false,"rental_uris":{"android":"levelo://app?vid=611abd13-c6a5-461e-9e55-07bc452e941d","ios":"levelo://app?vid=611abd13-c6a5-461e-9e55-07bc452e941d"},"vehicle_type_id":"4","last_reported":1745910679,"current_range_meters":10800,"station_id":"ce4bhn12rcd13ifvqgpg","pricing_plan_id":"cebpf4jnsgd1na2vs0mg"},{"bike_id":"0ba395ec-e60a-448b-ab3e-c514d1a77565","system_id":"levelo_inurba_marseille","lat":43.30139,"lon":5.37414,"is_reserved":false,"is_disabled":false,"rental_uris":{"android":"levelo://app?vid=0ba395ec-e60a-448b-ab3e-c514d1a77565","ios":"levelo://app?vid=0ba395ec-e60a-448b-ab3e-c514d1a77565"},"vehicle_type_id":"4","last_reported":1745910679,"current_range_meters":10800,"station_id":"ce4bgs92rcd13ifvqcc0","pricing_plan_id":"cebpf4jnsgd1na2vs0mg"},{"bike_id":"3d337857-4663-489f-893b-41ede5fdb8b8","system_id":"levelo_inurba_marseille","lat":43.33625,"lon":5.4099,"is_reserved":false,"is_disabled":false,"rental_uris":{"android":"levelo://app?vid=3d337857-4663-489f-893b-41ede5fdb8b8","ios":"levelo://app?vid=3d337857-4663-489f-893b-41ede5fdb8b8"},"vehicle_type_id":"4","last_reported":1745910679,"current_range_meters":10800,"station_id":"ce4bhqh2rcd13ifvqhmg","pricing_plan_id":"cebpf4jnsgd1na2vs0mg"},{"bike_id":"dd840921-3a3a-471e-8f1e-eb356802d267","system_id":"levelo_inurba_marseille","lat":43.27486,"lon":5.42467,"is_reserved":false,"is_disabled":false,"rental_uris":{"android":"levelo://app?vid=dd840921-3a3a-471e-8f1e-eb356802d267","ios":"levelo://app?vid=dd840921-3a3a-471e-8f1e-eb356802d267"},"vehicle_type_id":"4","last_reported":1745910679,"current_range_meters":10800,"station_id":"ce4bhn92rcd13ifvqgrg","pricing_plan_id":"cebpf4jnsgd1na2vs0mg"},{"bike_id":"60e80804-1675-40ce-a4a2-3eb48c192533","system_id":"levelo_inurba_marseille","lat":43.31346,"lon":5.36732,"is_reserved":false,"is_disabled":false,"rental_uris":{"android":"levelo://app?vid=60e80804-1675-40ce-a4a2-3eb48c192533","ios":"levelo://app?vid=60e80804-1675-40ce-a4a2-3eb48c192533"},"vehicle_type_id":"4","last_reported":1745910679,"current_range_meters":10800,"station_id":"ce4bgr92rcd13ifvqc6g","pricing_plan_id":"cebpf4jnsgd1na2vs0mg"},{"bike_id":"fecd7ad5-4d9a-471c-b2a2-a4f99bc7001c","system_id":"levelo_inurba_marseille","lat":43.25717,"lon":5.4112,"is_reserved":false,"is_disabled":false,"rental_uris":{"android":"levelo://app?vid=fecd7ad5-4d9a-471c-b2a2-a4f99bc7001c","ios":"levelo://app?vid=fecd7ad5-4d9a-471c-b2a2-a4f99bc7001c"},"vehicle_type_id":"4","last_reported":1745910679,"current_range_meters":11200,"station_id":"ce4bhkp2rcd13ifvqgd0","pricing_plan_id":"cebpf4jnsgd1na2vs0mg"},{"bike_id":"f35c7b84-6ac3-4dcc-a0e5-a488e0ec4bd3","system_id":"levelo_inurba_marseille","lat":43.27496,"lon":5.42464,"is_reserved":false,"is_disabled":false,"rental_uris":{"android":"levelo://app?vid=f35c7b84-6ac3-4dcc-a0e5-a488e0ec4bd3","ios":"levelo://app?vid=f35c7b84-6ac3-4dcc-a0e5-a488e0ec4bd3"},"vehicle_type_id":"4","last_reported":1745910679,"current_range_meters":10800,"station_id":"ce4bhn92rcd13ifvqgrg","pricing_plan_id":"cebpf4jnsgd1na2vs0mg"},{"bike_id":"c5f489c7-3775-4843-bec1-345243e0c66c","system_id":"levelo_inurba_marseille","lat":43.27429,"lon":5.39417,"is_reserved":false,"is_disabled":false,"rental_uris":{"android":"levelo://app?vid=c5f489c7-3775-4843-bec1-345243e0c66c","ios":"levelo://app?vid=c5f489c7-3775-4843-bec1-345243e0c66c"},"vehicle_type_id":"4","last_reported":1745910679,"current_range_meters":10800,"station_id":"ce4bhdp2rcd13ifvqf20","pricing_plan_id":"cebpf4jnsgd1na2vs0mg"},{"bike_id":"8866ddb3-65c3-4381-8f0e-039d9a7589bc","system_id":"levelo_inurba_marseille","lat":43.30464,"lon":5.37903,"is_reserved":false,"is_disabled":false,"rental_uris":{"android":"levelo://app?vid=8866ddb3-65c3-4381-8f0e-039d9a7589bc","ios":"levelo://app?vid=8866ddb3-65c3-4381-8f0e-039d9a7589bc"},"vehicle_type_id":"4","last_reported":1745910679,"current_range_meters":11200,"station_id":"ce4bgup2rcd13ifvqcn0","pricing_plan_id":"cebpf4jnsgd1na2vs0mg"},{"bike_id":"56d3126a-5caf-4303-83cc-6be1581e9786","system_id":"levelo_inurba_marseille","lat":43.248131,"lon":5.374587,"is_reserved":false,"is_disabled":false,"rental_uris":{"android":"levelo://app?vid=56d3126a-5caf-4303-83cc-6be1581e9786","ios":"levelo://app?vid=56d3126a-5caf-4303-83cc-6be1581e9786"},"vehicle_type_id":"4","last_reported":1745910679,"current_range_meters":11200,"station_id":"ce4bhgh2rcd13ifvqfb0","pricing_plan_id":"cebpf4jnsgd1na2vs0mg"},{"bike_id":"db188a4f-9b40-4867-a436-d9c87f9e48dd","system_id":"levelo_inurba_marseille","lat":43.27423,"lon":5.39413,"is_reserved":false,"is_disabled":false,"rental_uris":{"android":"levelo://app?vid=db188a4f-9b40-4867-a436-d9c87f9e48dd","ios":"levelo://app?vid=db188a4f-9b40-4867-a436-d9c87f9e48dd"},"vehicle_type_id":"4","last_reported":1745910679,"current_range_meters":11200,"station_id":"ce4bhdp2rcd13ifvqf20","pricing_plan_id":"cebpf4jnsgd1na2vs0mg"},{"bike_id":"97bca748-eb79-4f1b-aedc-378bed4ebf25","system_id":"levelo_inurba_marseille","lat":43.30543,"lon":5.36704,"is_reserved":false,"is_disabled":false,"rental_uris":{"android":"levelo://app?vid=97bca748-eb79-4f1b-aedc-378bed4ebf25","ios":"levelo://app?vid=97bca748-eb79-4f1b-aedc-378bed4ebf25"},"vehicle_type_id":"4","last_reported":1745910679,"current_range_meters":11200,"station_id":"ce4bgrp2rcd13ifvqc9g","pricing_plan_id":"cebpf4jnsgd1na2vs0mg"},{"bike_id":"4e3ba404-c078-4592-a462-831e3582e541","system_id":"levelo_inurba_marseille","lat":43.30131,"lon":5.38076,"is_reserved":false,"is_disabled":false,"rental_uris":{"android":"levelo://app?vid=4e3ba404-c078-4592-a462-831e3582e541","ios":"levelo://app?vid=4e3ba404-c078-4592-a462-831e3582e541"},"vehicle_type_id":"4","last_reported":1745910679,"current_range_meters":11200,"station_id":"ce4bgjp2rcd13ifvqbh0","pricing_plan_id":"cebpf4jnsgd1na2vs0mg"},{"bike_id":"a17dfbc6-c24a-4f6f-a28a-8c7675d89f62","system_id":"levelo_inurba_marseille","lat":43.30406,"lon":5.412857,"is_reserved":false,"is_disabled":true,"rental_uris":{"android":"levelo://app?vid=a17dfbc6-c24a-4f6f-a28a-8c7675d89f62","ios":"levelo://app?vid=a17dfbc6-c24a-4f6f-a28a-8c7675d89f62"},"vehicle_type_id":"4","last_reported":1745910679,"current_range_meters":11200,"station_id":"ce4bhop2rcd13ifvqh8g","pricing_plan_id":"cebpf4jnsgd1na2vs0mg"},{"bike_id":"28894e81-ede6-4351-84e3-e6b48081a345","system_id":"levelo_inurba_marseille","lat":43.33465,"lon":5.400537,"is_reserved":false,"is_disabled":false,"rental_uris":{"android":"levelo://app?vid=28894e81-ede6-4351-84e3-e6b48081a345","ios":"levelo://app?vid=28894e81-ede6-4351-84e3-e6b48081a345"},"vehicle_type_id":"4","last_reported":1745910679,"current_range_meters":11600,"station_id":"","pricing_plan_id":"cebpf4jnsgd1na2vs0mg"},{"bike_id":"e0fce97a-38d8-43c7-81c6-a502fabd1d3c","system_id":"levelo_inurba_marseille","lat":43.289285,"lon":5.38407,"is_reserved":false,"is_disabled":true,"rental_uris":{"android":"levelo://app?vid=e0fce97a-38d8-43c7-81c6-a502fabd1d3c","ios":"levelo://app?vid=e0fce97a-38d8-43c7-81c6-a502fabd1d3c"},"vehicle_type_id":"4","last_reported":1745910679,"current_range_meters":11600,"station_id":"ce4bh612rcd13ifvqe6g","pricing_plan_id":"cebpf4jnsgd1na2vs0mg"},{"bike_id":"923f8501-7d40-44db-85bf-a51b2ea797ac","system_id":"levelo_inurba_marseille","lat":43.26941,"lon":5.4026,"is_reserved":false,"is_disabled":true,"rental_uris":{"android":"levelo://app?vid=923f8501-7d40-44db-85bf-a51b2ea797ac","ios":"levelo://app?vid=923f8501-7d40-44db-85bf-a51b2ea797ac"},"vehicle_type_id":"4","last_reported":1745910679,"current_range_meters":11600,"station_id":"cjm6bp8fraef2m0cb0m0","pricing_plan_id":"cebpf4jnsgd1na2vs0mg"},{"bike_id":"0c7a366b-22c8-441c-a626-cdf811c3208a","system_id":"levelo_inurba_marseille","lat":43.301545,"lon":5.380845,"is_reserved":false,"is_disabled":false,"rental_uris":{"android":"levelo://app?vid=0c7a366b-22c8-441c-a626-cdf811c3208a","ios":"levelo://app?vid=0c7a366b-22c8-441c-a626-cdf811c3208a"},"vehicle_type_id":"4","last_reported":1745910679,"current_range_meters":12000,"station_id":"ce4bgjp2rcd13ifvqbh0","pricing_plan_id":"cebpf4jnsgd1na2vs0mg"},{"bike_id":"b3d7cca2-7d35-4030-8d40-4a8257616573","system_id":"levelo_inurba_marseille","lat":43.225058,"lon":5.347856,"is_reserved":false,"is_disabled":false,"rental_uris":{"android":"levelo://app?vid=b3d7cca2-7d35-4030-8d40-4a8257616573","ios":"levelo://app?vid=b3d7cca2-7d35-4030-8d40-4a8257616573"},"vehicle_type_id":"4","last_reported":1745910679,"current_range_meters":12000,"station_id":"st_cvj5dfep6f1abm77gieg","pricing_plan_id":"cebpf4jnsgd1na2vs0mg"},{"bike_id":"7739e470-e64e-47dc-aa62-b93ea6bd54ba","system_id":"levelo_inurba_marseille","lat":43.25727,"lon":5.41109,"is_reserved":false,"is_disabled":false,"rental_uris":{"android":"levelo://app?vid=7739e470-e64e-47dc-aa62-b93ea6bd54ba","ios":"levelo://app?vid=7739e470-e64e-47dc-aa62-b93ea6bd54ba"},"vehicle_type_id":"4","last_reported":1745910679,"current_range_meters":14400,"station_id":"ce4bhkp2rcd13ifvqgd0","pricing_plan_id":"cebpf4jnsgd1na2vs0mg"},{"bike_id":"b13f9913-27dd-4197-ba83-0d6b671b36d4","system_id":"levelo_inurba_marseille","lat":43.324457,"lon":5.365846,"is_reserved":false,"is_disabled":false,"rental_uris":{"android":"levelo://app?vid=b13f9913-27dd-4197-ba83-0d6b671b36d4","ios":"levelo://app?vid=b13f9913-27dd-4197-ba83-0d6b671b36d4"},"vehicle_type_id":"4","last_reported":1745910679,"current_range_meters":12000,"station_id":"ce4bhs12rcd13ifvqhvg","pricing_plan_id":"cebpf4jnsgd1na2vs0mg"},{"bike_id":"cf705fe3-1dcf-4635-90b3-80b28613e342","system_id":"levelo_inurba_marseille","lat":43.29144,"lon":5.38108,"is_reserved":false,"is_disabled":true,"rental_uris":{"android":"levelo://app?vid=cf705fe3-1dcf-4635-90b3-80b28613e342","ios":"levelo://app?vid=cf705fe3-1dcf-4635-90b3-80b28613e342"},"vehicle_type_id":"4","last_reported":1745910679,"current_range_meters":12400,"station_id":"","pricing_plan_id":"cebpf4jnsgd1na2vs0mg"},{"bike_id":"313c3e3c-ce22-4daf-9fc8-5ffd03a4de7c","system_id":"levelo_inurba_marseille","lat":43.25589,"lon":5.38237,"is_reserved":false,"is_disabled":false,"rental_uris":{"android":"levelo://app?vid=313c3e3c-ce22-4daf-9fc8-5ffd03a4de7c","ios":"levelo://app?vid=313c3e3c-ce22-4daf-9fc8-5ffd03a4de7c"},"vehicle_type_id":"4","last_reported":1745910679,"current_range_meters":12400,"station_id":"ce4bhih2rcd13ifvqfs0","pricing_plan_id":"cebpf4jnsgd1na2vs0mg"},{"bike_id":"d58e03bb-19b9-469a-bcd7-0c3ce91d40b5","system_id":"levelo_inurba_marseille","lat":43.21342,"lon":5.349647,"is_reserved":false,"is_disabled":false,"rental_uris":{"android":"levelo://app?vid=d58e03bb-19b9-469a-bcd7-0c3ce91d40b5","ios":"levelo://app?vid=d58e03bb-19b9-469a-bcd7-0c3ce91d40b5"},"vehicle_type_id":"4","last_reported":1745910679,"current_range_meters":12400,"station_id":"","pricing_plan_id":"cebpf4jnsgd1na2vs0mg"},{"bike_id":"cfe276c9-84b8-4636-af39-dfa0816bba02","system_id":"levelo_inurba_marseille","lat":43.26952,"lon":5.38628,"is_reserved":false,"is_disabled":false,"rental_uris":{"android":"levelo://app?vid=cfe276c9-84b8-4636-af39-dfa0816bba02","ios":"levelo://app?vid=cfe276c9-84b8-4636-af39-dfa0816bba02"},"vehicle_type_id":"4","last_reported":1745910679,"current_range_meters":12400,"station_id":"ce4bhh92rcd13ifvqfh0","pricing_plan_id":"cebpf4jnsgd1na2vs0mg"},{"bike_id":"4f22842a-931f-4297-9a74-847b96d2ad2d","system_id":"levelo_inurba_marseille","lat":43.32473,"lon":5.36571,"is_reserved":false,"is_disabled":false,"rental_uris":{"android":"levelo://app?vid=4f22842a-931f-4297-9a74-847b96d2ad2d","ios":"levelo://app?vid=4f22842a-931f-4297-9a74-847b96d2ad2d"},"vehicle_type_id":"4","last_reported":1745910679,"current_range_meters":8800,"station_id":"ce4bhs12rcd13ifvqhvg","pricing_plan_id":"cebpf4jnsgd1na2vs0mg"},{"bike_id":"4b895ffc-93de-4c0a-9a5a-22699c8c0ef4","system_id":"levelo_inurba_marseille","lat":43.3074,"lon":5.4243,"is_reserved":false,"is_disabled":true,"rental_uris":{"android":"levelo://app?vid=4b895ffc-93de-4c0a-9a5a-22699c8c0ef4","ios":"levelo://app?vid=4b895ffc-93de-4c0a-9a5a-22699c8c0ef4"},"vehicle_type_id":"4","last_reported":1745910679,"current_range_meters":12400,"station_id":"st_cvj6ca6bvosntc0bfgr0","pricing_plan_id":"cebpf4jnsgd1na2vs0mg"},{"bike_id":"a640b5aa-9396-4827-8f57-dd7ffd2f1a84","system_id":"levelo_inurba_marseille","lat":43.29784,"lon":5.38078,"is_reserved":false,"is_disabled":true,"rental_uris":{"android":"levelo://app?vid=a640b5aa-9396-4827-8f57-dd7ffd2f1a84","ios":"levelo://app?vid=a640b5aa-9396-4827-8f57-dd7ffd2f1a84"},"vehicle_type_id":"4","last_reported":1745910679,"current_range_meters":12800,"station_id":"ce4bgip2rcd13ifvqbb0","pricing_plan_id":"cebpf4jnsgd1na2vs0mg"},{"bike_id":"a958bd06-9a50-497e-aef9-55e910bf12d1","system_id":"levelo_inurba_marseille","lat":43.29927,"lon":5.381137,"is_reserved":false,"is_disabled":true,"rental_uris":{"android":"levelo://app?vid=a958bd06-9a50-497e-aef9-55e910bf12d1","ios":"levelo://app?vid=a958bd06-9a50-497e-aef9-55e910bf12d1"},"vehicle_type_id":"4","last_reported":1745910679,"current_range_meters":12800,"station_id":"ce4bgj12rcd13ifvqbc0","pricing_plan_id":"cebpf4jnsgd1na2vs0mg"},{"bike_id":"5d12ee4a-52f1-4f1a-af38-ad7a19a5a489","system_id":"levelo_inurba_marseille","lat":43.30559,"lon":5.36549,"is_reserved":false,"is_disabled":false,"rental_uris":{"android":"levelo://app?vid=5d12ee4a-52f1-4f1a-af38-ad7a19a5a489","ios":"levelo://app?vid=5d12ee4a-52f1-4f1a-af38-ad7a19a5a489"},"vehicle_type_id":"4","last_reported":1745910679,"current_range_meters":12800,"station_id":"ce4bgs12rcd13ifvqcag","pricing_plan_id":"cebpf4jnsgd1na2vs0mg"},{"bike_id":"9c70f775-4d16-4d69-8940-9e44dcfe2d3c","system_id":"levelo_inurba_marseille","lat":43.30537,"lon":5.36695,"is_reserved":false,"is_disabled":false,"rental_uris":{"android":"levelo://app?vid=9c70f775-4d16-4d69-8940-9e44dcfe2d3c","ios":"levelo://app?vid=9c70f775-4d16-4d69-8940-9e44dcfe2d3c"},"vehicle_type_id":"4","last_reported":1745910679,"current_range_meters":12800,"station_id":"ce4bgrp2rcd13ifvqc9g","pricing_plan_id":"cebpf4jnsgd1na2vs0mg"},{"bike_id":"c561163e-a003-49a9-bf4f-8ad31b0bbaac","system_id":"levelo_inurba_marseille","lat":43.25697,"lon":5.41851,"is_reserved":false,"is_disabled":false,"rental_uris":{"android":"levelo://app?vid=c561163e-a003-49a9-bf4f-8ad31b0bbaac","ios":"levelo://app?vid=c561163e-a003-49a9-bf4f-8ad31b0bbaac"},"vehicle_type_id":"4","last_reported":1745910679,"current_range_meters":13600,"station_id":"","pricing_plan_id":"cebpf4jnsgd1na2vs0mg"},{"bike_id":"1c71dd62-5c1a-42e0-8da7-81eceebfb73e","system_id":"levelo_inurba_marseille","lat":43.21219,"lon":5.35051,"is_reserved":false,"is_disabled":false,"rental_uris":{"android":"levelo://app?vid=1c71dd62-5c1a-42e0-8da7-81eceebfb73e","ios":"levelo://app?vid=1c71dd62-5c1a-42e0-8da7-81eceebfb73e"},"vehicle_type_id":"4","last_reported":1745910679,"current_range_meters":13600,"station_id":"","pricing_plan_id":"cebpf4jnsgd1na2vs0mg"},{"bike_id":"234f9b11-2abc-4dec-8aa2-ed40a2fd1f86","system_id":"levelo_inurba_marseille","lat":43.2315,"lon":5.43726,"is_reserved":false,"is_disabled":false,"rental_uris":{"android":"levelo://app?vid=234f9b11-2abc-4dec-8aa2-ed40a2fd1f86","ios":"levelo://app?vid=234f9b11-2abc-4dec-8aa2-ed40a2fd1f86"},"vehicle_type_id":"4","last_reported":1745910679,"current_range_meters":13600,"station_id":"ce4bhmp2rcd13ifvqgog","pricing_plan_id":"cebpf4jnsgd1na2vs0mg"},{"bike_id":"90ec756e-7d75-44ae-9837-bcc6f8c453df","system_id":"levelo_inurba_marseille","lat":43.23197,"lon":5.35562,"is_reserved":false,"is_disabled":false,"rental_uris":{"android":"levelo://app?vid=90ec756e-7d75-44ae-9837-bcc6f8c453df","ios":"levelo://app?vid=90ec756e-7d75-44ae-9837-bcc6f8c453df"},"vehicle_type_id":"4","last_reported":1745910679,"current_range_meters":13600,"station_id":"ce4bhu92rcd13ifvqi70","pricing_plan_id":"cebpf4jnsgd1na2vs0mg"},{"bike_id":"0b4686f8-87f3-430d-9d2c-98e20c664989","system_id":"levelo_inurba_marseille","lat":43.34149,"lon":5.40909,"is_reserved":false,"is_disabled":false,"rental_uris":{"android":"levelo://app?vid=0b4686f8-87f3-430d-9d2c-98e20c664989","ios":"levelo://app?vid=0b4686f8-87f3-430d-9d2c-98e20c664989"},"vehicle_type_id":"4","last_reported":1745910679,"current_range_meters":14000,"station_id":"ce4bhqh2rcd13ifvqhlg","pricing_plan_id":"cebpf4jnsgd1na2vs0mg"},{"bike_id":"70306ec1-e2bf-418c-ac19-1fd15bc46f78","system_id":"levelo_inurba_marseille","lat":43.29978,"lon":5.37152,"is_reserved":false,"is_disabled":false,"rental_uris":{"android":"levelo://app?vid=70306ec1-e2bf-418c-ac19-1fd15bc46f78","ios":"levelo://app?vid=70306ec1-e2bf-418c-ac19-1fd15bc46f78"},"vehicle_type_id":"4","last_reported":1745910679,"current_range_meters":13600,"station_id":"ce4bgr92rcd13ifvqc7g","pricing_plan_id":"cebpf4jnsgd1na2vs0mg"},{"bike_id":"0eb3d368-9ac6-43d6-88f4-c6528c324d4a","system_id":"levelo_inurba_marseille","lat":43.30909,"lon":5.36853,"is_reserved":false,"is_disabled":false,"rental_uris":{"android":"levelo://app?vid=0eb3d368-9ac6-43d6-88f4-c6528c324d4a","ios":"levelo://app?vid=0eb3d368-9ac6-43d6-88f4-c6528c324d4a"},"vehicle_type_id":"4","last_reported":1745910679,"current_range_meters":14000,"station_id":"ce4bgn92rcd13ifvqbvg","pricing_plan_id":"cebpf4jnsgd1na2vs0mg"},{"bike_id":"2d303286-1748-405f-b5c7-c9d6c2ec111c","system_id":"levelo_inurba_marseille","lat":43.24385,"lon":5.37059,"is_reserved":false,"is_disabled":false,"rental_uris":{"android":"levelo://app?vid=2d303286-1748-405f-b5c7-c9d6c2ec111c","ios":"levelo://app?vid=2d303286-1748-405f-b5c7-c9d6c2ec111c"},"vehicle_type_id":"4","last_reported":1745910679,"current_range_meters":14000,"station_id":"ce4bhhh2rcd13ifvqfk0","pricing_plan_id":"cebpf4jnsgd1na2vs0mg"},{"bike_id":"25327e5e-22d3-436f-b0aa-d79719aa6043","system_id":"levelo_inurba_marseille","lat":43.26686,"lon":5.38275,"is_reserved":false,"is_disabled":false,"rental_uris":{"android":"levelo://app?vid=25327e5e-22d3-436f-b0aa-d79719aa6043","ios":"levelo://app?vid=25327e5e-22d3-436f-b0aa-d79719aa6043"},"vehicle_type_id":"4","last_reported":1745910679,"current_range_meters":14000,"station_id":"ce4bhg92rcd13ifvqf90","pricing_plan_id":"cebpf4jnsgd1na2vs0mg"},{"bike_id":"21551006-b284-4dcf-927c-f4e818a61302","system_id":"levelo_inurba_marseille","lat":43.28451,"lon":5.39198,"is_reserved":false,"is_disabled":false,"rental_uris":{"android":"levelo://app?vid=21551006-b284-4dcf-927c-f4e818a61302","ios":"levelo://app?vid=21551006-b284-4dcf-927c-f4e818a61302"},"vehicle_type_id":"4","last_reported":1745910679,"current_range_meters":14000,"station_id":"ce4bhoh2rcd13ifvqh5g","pricing_plan_id":"cebpf4jnsgd1na2vs0mg"},{"bike_id":"9fa415e5-e9a3-4433-9152-dbd0c9fec80c","system_id":"levelo_inurba_marseille","lat":43.30129,"lon":5.37405,"is_reserved":false,"is_disabled":false,"rental_uris":{"android":"levelo://app?vid=9fa415e5-e9a3-4433-9152-dbd0c9fec80c","ios":"levelo://app?vid=9fa415e5-e9a3-4433-9152-dbd0c9fec80c"},"vehicle_type_id":"4","last_reported":1745910679,"current_range_meters":14000,"station_id":"ce4bgs92rcd13ifvqcc0","pricing_plan_id":"cebpf4jnsgd1na2vs0mg"},{"bike_id":"9366d0f7-d227-4995-badb-e85de9ed01d7","system_id":"levelo_inurba_marseille","lat":43.317247,"lon":5.378033,"is_reserved":false,"is_disabled":true,"rental_uris":{"android":"levelo://app?vid=9366d0f7-d227-4995-badb-e85de9ed01d7","ios":"levelo://app?vid=9366d0f7-d227-4995-badb-e85de9ed01d7"},"vehicle_type_id":"4","last_reported":1745910679,"current_range_meters":14400,"station_id":"","pricing_plan_id":"cebpf4jnsgd1na2vs0mg"},{"bike_id":"489415b8-9254-45c1-b00c-e7554d56755c","system_id":"levelo_inurba_marseille","lat":43.245164,"lon":5.412116,"is_reserved":false,"is_disabled":false,"rental_uris":{"android":"levelo://app?vid=489415b8-9254-45c1-b00c-e7554d56755c","ios":"levelo://app?vid=489415b8-9254-45c1-b00c-e7554d56755c"},"vehicle_type_id":"4","last_reported":1745910679,"current_range_meters":14800,"station_id":"","pricing_plan_id":"cebpf4jnsgd1na2vs0mg"},{"bike_id":"39f18c8b-df43-4308-a98e-40efc694b971","system_id":"levelo_inurba_marseille","lat":43.24086,"lon":5.37722,"is_reserved":false,"is_disabled":false,"rental_uris":{"android":"levelo://app?vid=39f18c8b-df43-4308-a98e-40efc694b971","ios":"levelo://app?vid=39f18c8b-df43-4308-a98e-40efc694b971"},"vehicle_type_id":"4","last_reported":1745910679,"current_range_meters":14800,"station_id":"ce4bhnp2rcd13ifvqgvg","pricing_plan_id":"cebpf4jnsgd1na2vs0mg"},{"bike_id":"69e5982b-1cfc-4bf9-a6c1-72ad2f9319a0","system_id":"levelo_inurba_marseille","lat":43.27491,"lon":5.42455,"is_reserved":false,"is_disabled":false,"rental_uris":{"android":"levelo://app?vid=69e5982b-1cfc-4bf9-a6c1-72ad2f9319a0","ios":"levelo://app?vid=69e5982b-1cfc-4bf9-a6c1-72ad2f9319a0"},"vehicle_type_id":"4","last_reported":1745910679,"current_range_meters":15200,"station_id":"ce4bhn92rcd13ifvqgrg","pricing_plan_id":"cebpf4jnsgd1na2vs0mg"},{"bike_id":"5fdbcde1-dd02-46b8-a881-f0c2f8d62a1c","system_id":"levelo_inurba_marseille","lat":43.25504,"lon":5.37651,"is_reserved":false,"is_disabled":false,"rental_uris":{"android":"levelo://app?vid=5fdbcde1-dd02-46b8-a881-f0c2f8d62a1c","ios":"levelo://app?vid=5fdbcde1-dd02-46b8-a881-f0c2f8d62a1c"},"vehicle_type_id":"4","last_reported":1745910679,"current_range_meters":15200,"station_id":"ce4bhh12rcd13ifvqff0","pricing_plan_id":"cebpf4jnsgd1na2vs0mg"},{"bike_id":"c46fbe5f-8330-40b5-9f5c-628a73545d10","system_id":"levelo_inurba_marseille","lat":43.3361,"lon":5.41021,"is_reserved":false,"is_disabled":false,"rental_uris":{"android":"levelo://app?vid=c46fbe5f-8330-40b5-9f5c-628a73545d10","ios":"levelo://app?vid=c46fbe5f-8330-40b5-9f5c-628a73545d10"},"vehicle_type_id":"4","last_reported":1745910679,"current_range_meters":15200,"station_id":"ce4bhqh2rcd13ifvqhmg","pricing_plan_id":"cebpf4jnsgd1na2vs0mg"},{"bike_id":"7b9f5250-5732-4fcc-9e05-7f004c305774","system_id":"levelo_inurba_marseille","lat":43.30954,"lon":5.3903,"is_reserved":false,"is_disabled":false,"rental_uris":{"android":"levelo://app?vid=7b9f5250-5732-4fcc-9e05-7f004c305774","ios":"levelo://app?vid=7b9f5250-5732-4fcc-9e05-7f004c305774"},"vehicle_type_id":"4","last_reported":1745910679,"current_range_meters":16000,"station_id":"ce4bgup2rcd13ifvqco0","pricing_plan_id":"cebpf4jnsgd1na2vs0mg"},{"bike_id":"45dbde69-a867-4cd1-9b21-c8baab31852c","system_id":"levelo_inurba_marseille","lat":43.3415,"lon":5.40906,"is_reserved":false,"is_disabled":false,"rental_uris":{"android":"levelo://app?vid=45dbde69-a867-4cd1-9b21-c8baab31852c","ios":"levelo://app?vid=45dbde69-a867-4cd1-9b21-c8baab31852c"},"vehicle_type_id":"4","last_reported":1745910679,"current_range_meters":16000,"station_id":"ce4bhqh2rcd13ifvqhlg","pricing_plan_id":"cebpf4jnsgd1na2vs0mg"},{"bike_id":"bfed2da6-0d8b-41a3-9024-fac66defb3de","system_id":"levelo_inurba_marseille","lat":43.30901,"lon":5.36838,"is_reserved":false,"is_disabled":false,"rental_uris":{"android":"levelo://app?vid=bfed2da6-0d8b-41a3-9024-fac66defb3de","ios":"levelo://app?vid=bfed2da6-0d8b-41a3-9024-fac66defb3de"},"vehicle_type_id":"4","last_reported":1745910679,"current_range_meters":16400,"station_id":"ce4bgn92rcd13ifvqbvg","pricing_plan_id":"cebpf4jnsgd1na2vs0mg"},{"bike_id":"a439637d-dbae-491d-93f2-642ad200cd8c","system_id":"levelo_inurba_marseille","lat":43.28335,"lon":5.38896,"is_reserved":false,"is_disabled":true,"rental_uris":{"android":"levelo://app?vid=a439637d-dbae-491d-93f2-642ad200cd8c","ios":"levelo://app?vid=a439637d-dbae-491d-93f2-642ad200cd8c"},"vehicle_type_id":"4","last_reported":1745910679,"current_range_meters":16400,"station_id":"","pricing_plan_id":"cebpf4jnsgd1na2vs0mg"},{"bike_id":"a4cb4bb8-751a-4611-8cfa-e8429503b3ac","system_id":"levelo_inurba_marseille","lat":43.273547,"lon":5.362427,"is_reserved":false,"is_disabled":false,"rental_uris":{"android":"levelo://app?vid=a4cb4bb8-751a-4611-8cfa-e8429503b3ac","ios":"levelo://app?vid=a4cb4bb8-751a-4611-8cfa-e8429503b3ac"},"vehicle_type_id":"4","last_reported":1745910679,"current_range_meters":16400,"station_id":"ce4bhbh2rcd13ifvqeo0","pricing_plan_id":"cebpf4jnsgd1na2vs0mg"},{"bike_id":"3116d66b-5e57-4f41-b790-e11ad4af653f","system_id":"levelo_inurba_marseille","lat":43.27972,"lon":5.41654,"is_reserved":false,"is_disabled":true,"rental_uris":{"android":"levelo://app?vid=3116d66b-5e57-4f41-b790-e11ad4af653f","ios":"levelo://app?vid=3116d66b-5e57-4f41-b790-e11ad4af653f"},"vehicle_type_id":"4","last_reported":1745910679,"current_range_meters":16400,"station_id":"ce4bho12rcd13ifvqh1g","pricing_plan_id":"cebpf4jnsgd1na2vs0mg"},{"bike_id":"9aeeeaf4-bd0d-4c8b-b925-57d7517ae32f","system_id":"levelo_inurba_marseille","lat":43.30309,"lon":5.36895,"is_reserved":false,"is_disabled":false,"rental_uris":{"android":"levelo://app?vid=9aeeeaf4-bd0d-4c8b-b925-57d7517ae32f","ios":"levelo://app?vid=9aeeeaf4-bd0d-4c8b-b925-57d7517ae32f"},"vehicle_type_id":"4","last_reported":1745910679,"current_range_meters":16400,"station_id":"ce4bgqh2rcd13ifvqc5g","pricing_plan_id":"cebpf4jnsgd1na2vs0mg"},{"bike_id":"27dc1431-6d28-4ebd-b227-89e7578813b6","system_id":"levelo_inurba_marseille","lat":43.29978,"lon":5.3849,"is_reserved":false,"is_disabled":false,"rental_uris":{"android":"levelo://app?vid=27dc1431-6d28-4ebd-b227-89e7578813b6","ios":"levelo://app?vid=27dc1431-6d28-4ebd-b227-89e7578813b6"},"vehicle_type_id":"4","last_reported":1745910679,"current_range_meters":16000,"station_id":"ce4bgj92rcd13ifvqbd0","pricing_plan_id":"cebpf4jnsgd1na2vs0mg"},{"bike_id":"83f8b83a-5795-4dde-8534-141886832656","system_id":"levelo_inurba_marseille","lat":43.33602,"lon":5.41035,"is_reserved":false,"is_disabled":false,"rental_uris":{"android":"levelo://app?vid=83f8b83a-5795-4dde-8534-141886832656","ios":"levelo://app?vid=83f8b83a-5795-4dde-8534-141886832656"},"vehicle_type_id":"4","last_reported":1745910679,"current_range_meters":16400,"station_id":"ce4bhqh2rcd13ifvqhmg","pricing_plan_id":"cebpf4jnsgd1na2vs0mg"},{"bike_id":"fe1df706-3663-4019-9506-471eb284591a","system_id":"levelo_inurba_marseille","lat":43.302369,"lon":5.369227,"is_reserved":false,"is_disabled":false,"rental_uris":{"android":"levelo://app?vid=fe1df706-3663-4019-9506-471eb284591a","ios":"levelo://app?vid=fe1df706-3663-4019-9506-471eb284591a"},"vehicle_type_id":"4","last_reported":1745910679,"current_range_meters":16400,"station_id":"ce4bgn92rcd13ifvqbvg","pricing_plan_id":"cebpf4jnsgd1na2vs0mg"},{"bike_id":"01a307e5-6763-4746-b7bb-ec28a34bc502","system_id":"levelo_inurba_marseille","lat":43.25939,"lon":5.40904,"is_reserved":false,"is_disabled":false,"rental_uris":{"android":"levelo://app?vid=01a307e5-6763-4746-b7bb-ec28a34bc502","ios":"levelo://app?vid=01a307e5-6763-4746-b7bb-ec28a34bc502"},"vehicle_type_id":"4","last_reported":1745910679,"current_range_meters":16800,"station_id":"ce4bhm92rcd13ifvqglg","pricing_plan_id":"cebpf4jnsgd1na2vs0mg"},{"bike_id":"41f8d103-829f-457c-9351-4379f8db8bd1","system_id":"levelo_inurba_marseille","lat":43.30157,"lon":5.38085,"is_reserved":false,"is_disabled":false,"rental_uris":{"android":"levelo://app?vid=41f8d103-829f-457c-9351-4379f8db8bd1","ios":"levelo://app?vid=41f8d103-829f-457c-9351-4379f8db8bd1"},"vehicle_type_id":"4","last_reported":1745910679,"current_range_meters":16800,"station_id":"ce4bgjp2rcd13ifvqbh0","pricing_plan_id":"cebpf4jnsgd1na2vs0mg"},{"bike_id":"1cb3da76-f497-49e4-a8a6-5a0629444d60","system_id":"levelo_inurba_marseille","lat":43.29942,"lon":5.36684,"is_reserved":false,"is_disabled":false,"rental_uris":{"android":"levelo://app?vid=1cb3da76-f497-49e4-a8a6-5a0629444d60","ios":"levelo://app?vid=1cb3da76-f497-49e4-a8a6-5a0629444d60"},"vehicle_type_id":"4","last_reported":1745910679,"current_range_meters":16800,"station_id":"","pricing_plan_id":"cebpf4jnsgd1na2vs0mg"},{"bike_id":"ae50c1de-8c80-4ad2-a1d9-2fbb08d50e7b","system_id":"levelo_inurba_marseille","lat":43.2572,"lon":5.41114,"is_reserved":false,"is_disabled":true,"rental_uris":{"android":"levelo://app?vid=ae50c1de-8c80-4ad2-a1d9-2fbb08d50e7b","ios":"levelo://app?vid=ae50c1de-8c80-4ad2-a1d9-2fbb08d50e7b"},"vehicle_type_id":"4","last_reported":1745910679,"current_range_meters":16800,"station_id":"ce4bhkp2rcd13ifvqgd0","pricing_plan_id":"cebpf4jnsgd1na2vs0mg"},{"bike_id":"39b2af7f-8f96-4174-bcfb-d63e2e818011","system_id":"levelo_inurba_marseille","lat":43.26957,"lon":5.38628,"is_reserved":false,"is_disabled":false,"rental_uris":{"android":"levelo://app?vid=39b2af7f-8f96-4174-bcfb-d63e2e818011","ios":"levelo://app?vid=39b2af7f-8f96-4174-bcfb-d63e2e818011"},"vehicle_type_id":"4","last_reported":1745910679,"current_range_meters":16800,"station_id":"ce4bhh92rcd13ifvqfh0","pricing_plan_id":"cebpf4jnsgd1na2vs0mg"},{"bike_id":"07693e24-7000-4fd3-8fe1-8644dd3f1e08","system_id":"levelo_inurba_marseille","lat":43.27408,"lon":5.38953,"is_reserved":false,"is_disabled":false,"rental_uris":{"android":"levelo://app?vid=07693e24-7000-4fd3-8fe1-8644dd3f1e08","ios":"levelo://app?vid=07693e24-7000-4fd3-8fe1-8644dd3f1e08"},"vehicle_type_id":"4","last_reported":1745910679,"current_range_meters":16800,"station_id":"","pricing_plan_id":"cebpf4jnsgd1na2vs0mg"},{"bike_id":"4aef5424-931e-4671-9e88-c9cf265bc9d3","system_id":"levelo_inurba_marseille","lat":43.24649,"lon":5.3889,"is_reserved":false,"is_disabled":false,"rental_uris":{"android":"levelo://app?vid=4aef5424-931e-4671-9e88-c9cf265bc9d3","ios":"levelo://app?vid=4aef5424-931e-4671-9e88-c9cf265bc9d3"},"vehicle_type_id":"4","last_reported":1745910679,"current_range_meters":17200,"station_id":"ce4bhg12rcd13ifvqf60","pricing_plan_id":"cebpf4jnsgd1na2vs0mg"},{"bike_id":"05ec6a15-52cb-4a03-aa53-4cf37d41fa0c","system_id":"levelo_inurba_marseille","lat":43.33733,"lon":5.39194,"is_reserved":false,"is_disabled":false,"rental_uris":{"android":"levelo://app?vid=05ec6a15-52cb-4a03-aa53-4cf37d41fa0c","ios":"levelo://app?vid=05ec6a15-52cb-4a03-aa53-4cf37d41fa0c"},"vehicle_type_id":"4","last_reported":1745910679,"current_range_meters":17200,"station_id":"ce4bhr92rcd13ifvqhsg","pricing_plan_id":"cebpf4jnsgd1na2vs0mg"},{"bike_id":"690a5a3b-32cc-458a-9c35-09ef412685e9","system_id":"levelo_inurba_marseille","lat":43.28442,"lon":5.39196,"is_reserved":false,"is_disabled":false,"rental_uris":{"android":"levelo://app?vid=690a5a3b-32cc-458a-9c35-09ef412685e9","ios":"levelo://app?vid=690a5a3b-32cc-458a-9c35-09ef412685e9"},"vehicle_type_id":"4","last_reported":1745910679,"current_range_meters":16800,"station_id":"ce4bhoh2rcd13ifvqh5g","pricing_plan_id":"cebpf4jnsgd1na2vs0mg"},{"bike_id":"a710590f-4ae3-4e08-a873-8a0b99a0dbe1","system_id":"levelo_inurba_marseille","lat":43.3135,"lon":5.36709,"is_reserved":false,"is_disabled":false,"rental_uris":{"android":"levelo://app?vid=a710590f-4ae3-4e08-a873-8a0b99a0dbe1","ios":"levelo://app?vid=a710590f-4ae3-4e08-a873-8a0b99a0dbe1"},"vehicle_type_id":"4","last_reported":1745910679,"current_range_meters":17200,"station_id":"ce4bgr92rcd13ifvqc6g","pricing_plan_id":"cebpf4jnsgd1na2vs0mg"},{"bike_id":"03ddb6b3-1b9f-4637-8018-0f95bc4e3fdd","system_id":"levelo_inurba_marseille","lat":43.27492,"lon":5.42459,"is_reserved":false,"is_disabled":false,"rental_uris":{"android":"levelo://app?vid=03ddb6b3-1b9f-4637-8018-0f95bc4e3fdd","ios":"levelo://app?vid=03ddb6b3-1b9f-4637-8018-0f95bc4e3fdd"},"vehicle_type_id":"4","last_reported":1745910679,"current_range_meters":17200,"station_id":"ce4bhn92rcd13ifvqgrg","pricing_plan_id":"cebpf4jnsgd1na2vs0mg"},{"bike_id":"0c46722b-9dcc-4cf2-bae2-44ec0553adae","system_id":"levelo_inurba_marseille","lat":43.30902,"lon":5.36833,"is_reserved":false,"is_disabled":false,"rental_uris":{"android":"levelo://app?vid=0c46722b-9dcc-4cf2-bae2-44ec0553adae","ios":"levelo://app?vid=0c46722b-9dcc-4cf2-bae2-44ec0553adae"},"vehicle_type_id":"4","last_reported":1745910679,"current_range_meters":17200,"station_id":"ce4bgn92rcd13ifvqbvg","pricing_plan_id":"cebpf4jnsgd1na2vs0mg"},{"bike_id":"0a3ca772-d090-435e-afe4-fb2d22ad9786","system_id":"levelo_inurba_marseille","lat":43.30952,"lon":5.39056,"is_reserved":false,"is_disabled":false,"rental_uris":{"android":"levelo://app?vid=0a3ca772-d090-435e-afe4-fb2d22ad9786","ios":"levelo://app?vid=0a3ca772-d090-435e-afe4-fb2d22ad9786"},"vehicle_type_id":"4","last_reported":1745910679,"current_range_meters":17200,"station_id":"ce4bgup2rcd13ifvqco0","pricing_plan_id":"cebpf4jnsgd1na2vs0mg"},{"bike_id":"6a3cfb35-2ff4-4623-a8cf-cda4a41e9a72","system_id":"levelo_inurba_marseille","lat":43.31347,"lon":5.36708,"is_reserved":false,"is_disabled":false,"rental_uris":{"android":"levelo://app?vid=6a3cfb35-2ff4-4623-a8cf-cda4a41e9a72","ios":"levelo://app?vid=6a3cfb35-2ff4-4623-a8cf-cda4a41e9a72"},"vehicle_type_id":"4","last_reported":1745910679,"current_range_meters":17200,"station_id":"ce4bgr92rcd13ifvqc6g","pricing_plan_id":"cebpf4jnsgd1na2vs0mg"},{"bike_id":"1ff7221b-8e1e-4dce-9e57-4aed861ca4b9","system_id":"levelo_inurba_marseille","lat":43.33718,"lon":5.39193,"is_reserved":false,"is_disabled":false,"rental_uris":{"android":"levelo://app?vid=1ff7221b-8e1e-4dce-9e57-4aed861ca4b9","ios":"levelo://app?vid=1ff7221b-8e1e-4dce-9e57-4aed861ca4b9"},"vehicle_type_id":"4","last_reported":1745910679,"current_range_meters":17600,"station_id":"ce4bhr92rcd13ifvqhsg","pricing_plan_id":"cebpf4jnsgd1na2vs0mg"},{"bike_id":"d2f13750-e22a-4165-8dd4-3429f9cedb09","system_id":"levelo_inurba_marseille","lat":43.29264,"lon":5.37624,"is_reserved":false,"is_disabled":true,"rental_uris":{"android":"levelo://app?vid=d2f13750-e22a-4165-8dd4-3429f9cedb09","ios":"levelo://app?vid=d2f13750-e22a-4165-8dd4-3429f9cedb09"},"vehicle_type_id":"4","last_reported":1745910679,"current_range_meters":17600,"station_id":"ce4bgi12rcd13ifvqb80","pricing_plan_id":"cebpf4jnsgd1na2vs0mg"},{"bike_id":"dcae510a-fb55-4a1e-9b94-49942e6daf9c","system_id":"levelo_inurba_marseille","lat":43.27924,"lon":5.39569,"is_reserved":false,"is_disabled":true,"rental_uris":{"android":"levelo://app?vid=dcae510a-fb55-4a1e-9b94-49942e6daf9c","ios":"levelo://app?vid=dcae510a-fb55-4a1e-9b94-49942e6daf9c"},"vehicle_type_id":"4","last_reported":1745910679,"current_range_meters":18000,"station_id":"ce4bhf92rcd13ifvqf40","pricing_plan_id":"cebpf4jnsgd1na2vs0mg"},{"bike_id":"85dada4e-45e6-4f1e-a374-2a8a7e5d610a","system_id":"levelo_inurba_marseille","lat":43.2594,"lon":5.40903,"is_reserved":false,"is_disabled":false,"rental_uris":{"android":"levelo://app?vid=85dada4e-45e6-4f1e-a374-2a8a7e5d610a","ios":"levelo://app?vid=85dada4e-45e6-4f1e-a374-2a8a7e5d610a"},"vehicle_type_id":"4","last_reported":1745910679,"current_range_meters":18000,"station_id":"ce4bhm92rcd13ifvqglg","pricing_plan_id":"cebpf4jnsgd1na2vs0mg"},{"bike_id":"3d3201fa-2899-46c5-a138-41de28310d18","system_id":"levelo_inurba_marseille","lat":43.30949,"lon":5.3903,"is_reserved":false,"is_disabled":false,"rental_uris":{"android":"levelo://app?vid=3d3201fa-2899-46c5-a138-41de28310d18","ios":"levelo://app?vid=3d3201fa-2899-46c5-a138-41de28310d18"},"vehicle_type_id":"4","last_reported":1745910679,"current_range_meters":20800,"station_id":"ce4bgup2rcd13ifvqco0","pricing_plan_id":"cebpf4jnsgd1na2vs0mg"},{"bike_id":"33a5e8d0-1e24-4881-9d9b-df639a84a14f","system_id":"levelo_inurba_marseille","lat":43.29023,"lon":5.37566,"is_reserved":false,"is_disabled":false,"rental_uris":{"android":"levelo://app?vid=33a5e8d0-1e24-4881-9d9b-df639a84a14f","ios":"levelo://app?vid=33a5e8d0-1e24-4881-9d9b-df639a84a14f"},"vehicle_type_id":"4","last_reported":1745910679,"current_range_meters":17200,"station_id":"ce4bh692rcd13ifvqe90","pricing_plan_id":"cebpf4jnsgd1na2vs0mg"},{"bike_id":"73bdaf62-584c-4aef-b388-35b847199721","system_id":"levelo_inurba_marseille","lat":43.28042,"lon":5.36926,"is_reserved":false,"is_disabled":false,"rental_uris":{"android":"levelo://app?vid=73bdaf62-584c-4aef-b388-35b847199721","ios":"levelo://app?vid=73bdaf62-584c-4aef-b388-35b847199721"},"vehicle_type_id":"4","last_reported":1745910679,"current_range_meters":18800,"station_id":"ce4bha12rcd13ifvqef0","pricing_plan_id":"cebpf4jnsgd1na2vs0mg"},{"bike_id":"416f56c9-d4a6-4629-a68f-9e2d92705b16","system_id":"levelo_inurba_marseille","lat":43.27489,"lon":5.42456,"is_reserved":false,"is_disabled":false,"rental_uris":{"android":"levelo://app?vid=416f56c9-d4a6-4629-a68f-9e2d92705b16","ios":"levelo://app?vid=416f56c9-d4a6-4629-a68f-9e2d92705b16"},"vehicle_type_id":"4","last_reported":1745910679,"current_range_meters":18800,"station_id":"ce4bhn92rcd13ifvqgrg","pricing_plan_id":"cebpf4jnsgd1na2vs0mg"},{"bike_id":"9765e007-bd30-47c4-975b-66e9e019cfe3","system_id":"levelo_inurba_marseille","lat":43.29785,"lon":5.37093,"is_reserved":false,"is_disabled":false,"rental_uris":{"android":"levelo://app?vid=9765e007-bd30-47c4-975b-66e9e019cfe3","ios":"levelo://app?vid=9765e007-bd30-47c4-975b-66e9e019cfe3"},"vehicle_type_id":"4","last_reported":1745910679,"current_range_meters":18800,"station_id":"ce4bgop2rcd13ifvqc1g","pricing_plan_id":"cebpf4jnsgd1na2vs0mg"},{"bike_id":"aec4d7d5-6cec-44d4-b5ad-e95c156c299e","system_id":"levelo_inurba_marseille","lat":43.24073,"lon":5.37762,"is_reserved":false,"is_disabled":false,"rental_uris":{"android":"levelo://app?vid=aec4d7d5-6cec-44d4-b5ad-e95c156c299e","ios":"levelo://app?vid=aec4d7d5-6cec-44d4-b5ad-e95c156c299e"},"vehicle_type_id":"4","last_reported":1745910679,"current_range_meters":18800,"station_id":"ce4bhnp2rcd13ifvqgvg","pricing_plan_id":"cebpf4jnsgd1na2vs0mg"},{"bike_id":"942e1be8-0b4c-4b58-97b4-0482c4bdb7e4","system_id":"levelo_inurba_marseille","lat":43.309101,"lon":5.368492,"is_reserved":false,"is_disabled":false,"rental_uris":{"android":"levelo://app?vid=942e1be8-0b4c-4b58-97b4-0482c4bdb7e4","ios":"levelo://app?vid=942e1be8-0b4c-4b58-97b4-0482c4bdb7e4"},"vehicle_type_id":"4","last_reported":1745910679,"current_range_meters":18800,"station_id":"ce4bgn92rcd13ifvqbvg","pricing_plan_id":"cebpf4jnsgd1na2vs0mg"},{"bike_id":"bfc6e8e5-74d8-49c1-99ca-90a121f8a0ad","system_id":"levelo_inurba_marseille","lat":43.29551,"lon":5.42291,"is_reserved":false,"is_disabled":false,"rental_uris":{"android":"levelo://app?vid=bfc6e8e5-74d8-49c1-99ca-90a121f8a0ad","ios":"levelo://app?vid=bfc6e8e5-74d8-49c1-99ca-90a121f8a0ad"},"vehicle_type_id":"4","last_reported":1745910679,"current_range_meters":18800,"station_id":"ce4bhph2rcd13ifvqhdg","pricing_plan_id":"cebpf4jnsgd1na2vs0mg"},{"bike_id":"9d16da21-6a74-4fc8-b8ad-41c41ab84a3b","system_id":"levelo_inurba_marseille","lat":43.310064,"lon":5.373248,"is_reserved":false,"is_disabled":true,"rental_uris":{"android":"levelo://app?vid=9d16da21-6a74-4fc8-b8ad-41c41ab84a3b","ios":"levelo://app?vid=9d16da21-6a74-4fc8-b8ad-41c41ab84a3b"},"vehicle_type_id":"4","last_reported":1745910679,"current_range_meters":18800,"station_id":"","pricing_plan_id":"cebpf4jnsgd1na2vs0mg"},{"bike_id":"66f71c4f-a411-4c30-a55f-17a2c763906e","system_id":"levelo_inurba_marseille","lat":43.24074,"lon":5.37762,"is_reserved":false,"is_disabled":false,"rental_uris":{"android":"levelo://app?vid=66f71c4f-a411-4c30-a55f-17a2c763906e","ios":"levelo://app?vid=66f71c4f-a411-4c30-a55f-17a2c763906e"},"vehicle_type_id":"4","last_reported":1745910679,"current_range_meters":18800,"station_id":"ce4bhnp2rcd13ifvqgvg","pricing_plan_id":"cebpf4jnsgd1na2vs0mg"},{"bike_id":"0418aff1-7419-4da0-ac3e-11dd33519ec7","system_id":"levelo_inurba_marseille","lat":43.2985,"lon":5.36286,"is_reserved":false,"is_disabled":false,"rental_uris":{"android":"levelo://app?vid=0418aff1-7419-4da0-ac3e-11dd33519ec7","ios":"levelo://app?vid=0418aff1-7419-4da0-ac3e-11dd33519ec7"},"vehicle_type_id":"4","last_reported":1745910679,"current_range_meters":19200,"station_id":"ce4bgpp2rcd13ifvqc3g","pricing_plan_id":"cebpf4jnsgd1na2vs0mg"},{"bike_id":"b26a0b33-650f-4f7b-8536-58a942167ba4","system_id":"levelo_inurba_marseille","lat":43.23186,"lon":5.3556,"is_reserved":false,"is_disabled":false,"rental_uris":{"android":"levelo://app?vid=b26a0b33-650f-4f7b-8536-58a942167ba4","ios":"levelo://app?vid=b26a0b33-650f-4f7b-8536-58a942167ba4"},"vehicle_type_id":"4","last_reported":1745910679,"current_range_meters":19200,"station_id":"ce4bhu92rcd13ifvqi70","pricing_plan_id":"cebpf4jnsgd1na2vs0mg"},{"bike_id":"a2e6d3e8-4a72-4825-945d-f37371a5a63b","system_id":"levelo_inurba_marseille","lat":43.2731,"lon":5.39076,"is_reserved":false,"is_disabled":false,"rental_uris":{"android":"levelo://app?vid=a2e6d3e8-4a72-4825-945d-f37371a5a63b","ios":"levelo://app?vid=a2e6d3e8-4a72-4825-945d-f37371a5a63b"},"vehicle_type_id":"4","last_reported":1745910679,"current_range_meters":19200,"station_id":"ce4bhgp2rcd13ifvqfe0","pricing_plan_id":"cebpf4jnsgd1na2vs0mg"},{"bike_id":"78299f95-ca86-4b3d-bb9e-6146f0ec1e45","system_id":"levelo_inurba_marseille","lat":43.29291,"lon":5.40147,"is_reserved":false,"is_disabled":true,"rental_uris":{"android":"levelo://app?vid=78299f95-ca86-4b3d-bb9e-6146f0ec1e45","ios":"levelo://app?vid=78299f95-ca86-4b3d-bb9e-6146f0ec1e45"},"vehicle_type_id":"4","last_reported":1745910679,"current_range_meters":19200,"station_id":"ce4bh312rcd13ifvqdk0","pricing_plan_id":"cebpf4jnsgd1na2vs0mg"},{"bike_id":"29cd3bd7-4042-4675-9354-54243f71f739","system_id":"levelo_inurba_marseille","lat":43.2624,"lon":5.38733,"is_reserved":false,"is_disabled":false,"rental_uris":{"android":"levelo://app?vid=29cd3bd7-4042-4675-9354-54243f71f739","ios":"levelo://app?vid=29cd3bd7-4042-4675-9354-54243f71f739"},"vehicle_type_id":"4","last_reported":1745910679,"current_range_meters":19200,"station_id":"","pricing_plan_id":"cebpf4jnsgd1na2vs0mg"},{"bike_id":"ce2710b2-8aee-43d8-8ef3-2843f2527c66","system_id":"levelo_inurba_marseille","lat":43.24166,"lon":5.36397,"is_reserved":false,"is_disabled":false,"rental_uris":{"android":"levelo://app?vid=ce2710b2-8aee-43d8-8ef3-2843f2527c66","ios":"levelo://app?vid=ce2710b2-8aee-43d8-8ef3-2843f2527c66"},"vehicle_type_id":"4","last_reported":1745910679,"current_range_meters":19200,"station_id":"cpo36qri1sfpv3e86is0","pricing_plan_id":"cebpf4jnsgd1na2vs0mg"},{"bike_id":"71355e39-7055-4881-aacd-1f1a2f5677b6","system_id":"levelo_inurba_marseille","lat":43.25715,"lon":5.41128,"is_reserved":false,"is_disabled":false,"rental_uris":{"android":"levelo://app?vid=71355e39-7055-4881-aacd-1f1a2f5677b6","ios":"levelo://app?vid=71355e39-7055-4881-aacd-1f1a2f5677b6"},"vehicle_type_id":"4","last_reported":1745910679,"current_range_meters":19600,"station_id":"ce4bhkp2rcd13ifvqgd0","pricing_plan_id":"cebpf4jnsgd1na2vs0mg"},{"bike_id":"32b33499-54fa-4c63-b565-ff6a41c5eea4","system_id":"levelo_inurba_marseille","lat":43.24154,"lon":5.39715,"is_reserved":false,"is_disabled":false,"rental_uris":{"android":"levelo://app?vid=32b33499-54fa-4c63-b565-ff6a41c5eea4","ios":"levelo://app?vid=32b33499-54fa-4c63-b565-ff6a41c5eea4"},"vehicle_type_id":"4","last_reported":1745910679,"current_range_meters":19600,"station_id":"ce4bhn12rcd13ifvqgpg","pricing_plan_id":"cebpf4jnsgd1na2vs0mg"},{"bike_id":"fce2c520-92d3-4d18-810b-8d643fc15a1a","system_id":"levelo_inurba_marseille","lat":43.230586,"lon":5.354891,"is_reserved":false,"is_disabled":false,"rental_uris":{"android":"levelo://app?vid=fce2c520-92d3-4d18-810b-8d643fc15a1a","ios":"levelo://app?vid=fce2c520-92d3-4d18-810b-8d643fc15a1a"},"vehicle_type_id":"4","last_reported":1745910679,"current_range_meters":19600,"station_id":"cpo3342slgdg3j2ifvpg","pricing_plan_id":"cebpf4jnsgd1na2vs0mg"},{"bike_id":"2767110b-46f6-461f-9053-309ad1bd2e5a","system_id":"levelo_inurba_marseille","lat":43.229264,"lon":5.35373,"is_reserved":false,"is_disabled":false,"rental_uris":{"android":"levelo://app?vid=2767110b-46f6-461f-9053-309ad1bd2e5a","ios":"levelo://app?vid=2767110b-46f6-461f-9053-309ad1bd2e5a"},"vehicle_type_id":"4","last_reported":1745910679,"current_range_meters":19600,"station_id":"cpo3532slgdg3j2ikp40","pricing_plan_id":"cebpf4jnsgd1na2vs0mg"},{"bike_id":"47a9c5d0-ed84-424b-98b1-5dc8bf5c9b1b","system_id":"levelo_inurba_marseille","lat":43.3092,"lon":5.36853,"is_reserved":false,"is_disabled":false,"rental_uris":{"android":"levelo://app?vid=47a9c5d0-ed84-424b-98b1-5dc8bf5c9b1b","ios":"levelo://app?vid=47a9c5d0-ed84-424b-98b1-5dc8bf5c9b1b"},"vehicle_type_id":"4","last_reported":1745910679,"current_range_meters":19600,"station_id":"ce4bgn92rcd13ifvqbvg","pricing_plan_id":"cebpf4jnsgd1na2vs0mg"},{"bike_id":"4678f98c-9605-485e-9f52-d38650b7e3f9","system_id":"levelo_inurba_marseille","lat":43.324753,"lon":5.365788,"is_reserved":false,"is_disabled":false,"rental_uris":{"android":"levelo://app?vid=4678f98c-9605-485e-9f52-d38650b7e3f9","ios":"levelo://app?vid=4678f98c-9605-485e-9f52-d38650b7e3f9"},"vehicle_type_id":"4","last_reported":1745910679,"current_range_meters":19600,"station_id":"ce4bhs12rcd13ifvqhvg","pricing_plan_id":"cebpf4jnsgd1na2vs0mg"},{"bike_id":"8179376d-d4e0-4616-b23d-8a06eae09f1a","system_id":"levelo_inurba_marseille","lat":43.34145,"lon":5.4092,"is_reserved":false,"is_disabled":false,"rental_uris":{"android":"levelo://app?vid=8179376d-d4e0-4616-b23d-8a06eae09f1a","ios":"levelo://app?vid=8179376d-d4e0-4616-b23d-8a06eae09f1a"},"vehicle_type_id":"4","last_reported":1745910679,"current_range_meters":19600,"station_id":"ce4bhqh2rcd13ifvqhlg","pricing_plan_id":"cebpf4jnsgd1na2vs0mg"},{"bike_id":"86c2979e-8cf6-48ed-bdb1-835ff11e3adc","system_id":"levelo_inurba_marseille","lat":43.25384,"lon":5.41854,"is_reserved":false,"is_disabled":false,"rental_uris":{"android":"levelo://app?vid=86c2979e-8cf6-48ed-bdb1-835ff11e3adc","ios":"levelo://app?vid=86c2979e-8cf6-48ed-bdb1-835ff11e3adc"},"vehicle_type_id":"4","last_reported":1745910679,"current_range_meters":20000,"station_id":"","pricing_plan_id":"cebpf4jnsgd1na2vs0mg"},{"bike_id":"f40dcfa5-aac8-4c77-a8ea-6f63ff9f54e7","system_id":"levelo_inurba_marseille","lat":43.29019,"lon":5.38123,"is_reserved":false,"is_disabled":true,"rental_uris":{"android":"levelo://app?vid=f40dcfa5-aac8-4c77-a8ea-6f63ff9f54e7","ios":"levelo://app?vid=f40dcfa5-aac8-4c77-a8ea-6f63ff9f54e7"},"vehicle_type_id":"4","last_reported":1745910679,"current_range_meters":20000,"station_id":"ce4bh4p2rcd13ifvqe1g","pricing_plan_id":"cebpf4jnsgd1na2vs0mg"},{"bike_id":"36589065-9777-4275-9498-24a04bf80734","system_id":"levelo_inurba_marseille","lat":43.229292,"lon":5.353871,"is_reserved":false,"is_disabled":false,"rental_uris":{"android":"levelo://app?vid=36589065-9777-4275-9498-24a04bf80734","ios":"levelo://app?vid=36589065-9777-4275-9498-24a04bf80734"},"vehicle_type_id":"4","last_reported":1745910679,"current_range_meters":20400,"station_id":"cpo3532slgdg3j2ikp40","pricing_plan_id":"cebpf4jnsgd1na2vs0mg"},{"bike_id":"c1995f3f-0495-4507-8d09-527e63d69b75","system_id":"levelo_inurba_marseille","lat":43.30656,"lon":5.40097,"is_reserved":false,"is_disabled":true,"rental_uris":{"android":"levelo://app?vid=c1995f3f-0495-4507-8d09-527e63d69b75","ios":"levelo://app?vid=c1995f3f-0495-4507-8d09-527e63d69b75"},"vehicle_type_id":"4","last_reported":1745910679,"current_range_meters":20400,"station_id":"ce4bh112rcd13ifvqda0","pricing_plan_id":"cebpf4jnsgd1na2vs0mg"},{"bike_id":"dc28fc6e-d680-4477-bbc1-f4611ff292f9","system_id":"levelo_inurba_marseille","lat":43.24665,"lon":5.38175,"is_reserved":false,"is_disabled":false,"rental_uris":{"android":"levelo://app?vid=dc28fc6e-d680-4477-bbc1-f4611ff292f9","ios":"levelo://app?vid=dc28fc6e-d680-4477-bbc1-f4611ff292f9"},"vehicle_type_id":"4","last_reported":1745910679,"current_range_meters":20400,"station_id":"ce4bhih2rcd13ifvqfr0","pricing_plan_id":"cebpf4jnsgd1na2vs0mg"},{"bike_id":"849903c1-08a6-4fd4-903e-1a2b97255ae7","system_id":"levelo_inurba_marseille","lat":43.26681,"lon":5.38272,"is_reserved":false,"is_disabled":false,"rental_uris":{"android":"levelo://app?vid=849903c1-08a6-4fd4-903e-1a2b97255ae7","ios":"levelo://app?vid=849903c1-08a6-4fd4-903e-1a2b97255ae7"},"vehicle_type_id":"4","last_reported":1745910679,"current_range_meters":20400,"station_id":"ce4bhg92rcd13ifvqf90","pricing_plan_id":"cebpf4jnsgd1na2vs0mg"},{"bike_id":"637f17b1-a980-4bc5-993d-9a9de04fb5bf","system_id":"levelo_inurba_marseille","lat":43.30769,"lon":5.36843,"is_reserved":false,"is_disabled":false,"rental_uris":{"android":"levelo://app?vid=637f17b1-a980-4bc5-993d-9a9de04fb5bf","ios":"levelo://app?vid=637f17b1-a980-4bc5-993d-9a9de04fb5bf"},"vehicle_type_id":"4","last_reported":1745910679,"current_range_meters":20800,"station_id":"","pricing_plan_id":"cebpf4jnsgd1na2vs0mg"},{"bike_id":"6cf435b6-7657-4d5d-b1a3-17d16b147917","system_id":"levelo_inurba_marseille","lat":43.304679,"lon":5.397783,"is_reserved":false,"is_disabled":false,"rental_uris":{"android":"levelo://app?vid=6cf435b6-7657-4d5d-b1a3-17d16b147917","ios":"levelo://app?vid=6cf435b6-7657-4d5d-b1a3-17d16b147917"},"vehicle_type_id":"4","last_reported":1745910679,"current_range_meters":20800,"station_id":"ce4bh092rcd13ifvqd20","pricing_plan_id":"cebpf4jnsgd1na2vs0mg"},{"bike_id":"bae3cec1-3b5f-4a1a-a4a1-84cec76a8a23","system_id":"levelo_inurba_marseille","lat":43.27331,"lon":5.41287,"is_reserved":false,"is_disabled":false,"rental_uris":{"android":"levelo://app?vid=bae3cec1-3b5f-4a1a-a4a1-84cec76a8a23","ios":"levelo://app?vid=bae3cec1-3b5f-4a1a-a4a1-84cec76a8a23"},"vehicle_type_id":"4","last_reported":1745910679,"current_range_meters":20800,"station_id":"","pricing_plan_id":"cebpf4jnsgd1na2vs0mg"},{"bike_id":"d2c55dfb-c6df-47d0-8579-d5d20dc723ca","system_id":"levelo_inurba_marseille","lat":43.30467,"lon":5.37902,"is_reserved":false,"is_disabled":false,"rental_uris":{"android":"levelo://app?vid=d2c55dfb-c6df-47d0-8579-d5d20dc723ca","ios":"levelo://app?vid=d2c55dfb-c6df-47d0-8579-d5d20dc723ca"},"vehicle_type_id":"4","last_reported":1745910679,"current_range_meters":20800,"station_id":"ce4bgup2rcd13ifvqcn0","pricing_plan_id":"cebpf4jnsgd1na2vs0mg"},{"bike_id":"4b1243c7-5e84-4d60-a825-6ae47ebcb98a","system_id":"levelo_inurba_marseille","lat":43.24078,"lon":5.37753,"is_reserved":false,"is_disabled":false,"rental_uris":{"android":"levelo://app?vid=4b1243c7-5e84-4d60-a825-6ae47ebcb98a","ios":"levelo://app?vid=4b1243c7-5e84-4d60-a825-6ae47ebcb98a"},"vehicle_type_id":"4","last_reported":1745910679,"current_range_meters":20800,"station_id":"ce4bhnp2rcd13ifvqgvg","pricing_plan_id":"cebpf4jnsgd1na2vs0mg"},{"bike_id":"334f0609-b51b-492a-8482-a689c46d4ff0","system_id":"levelo_inurba_marseille","lat":43.28497,"lon":5.38447,"is_reserved":false,"is_disabled":true,"rental_uris":{"android":"levelo://app?vid=334f0609-b51b-492a-8482-a689c46d4ff0","ios":"levelo://app?vid=334f0609-b51b-492a-8482-a689c46d4ff0"},"vehicle_type_id":"4","last_reported":1745910679,"current_range_meters":20800,"station_id":"ce4bh512rcd13ifvqe3g","pricing_plan_id":"cebpf4jnsgd1na2vs0mg"},{"bike_id":"74fe1d59-0891-470d-b9e8-30b48522c53c","system_id":"levelo_inurba_marseille","lat":43.30154,"lon":5.38085,"is_reserved":false,"is_disabled":false,"rental_uris":{"android":"levelo://app?vid=74fe1d59-0891-470d-b9e8-30b48522c53c","ios":"levelo://app?vid=74fe1d59-0891-470d-b9e8-30b48522c53c"},"vehicle_type_id":"4","last_reported":1745910679,"current_range_meters":20800,"station_id":"ce4bgjp2rcd13ifvqbh0","pricing_plan_id":"cebpf4jnsgd1na2vs0mg"},{"bike_id":"c9a715ac-a7ea-45d9-9e61-15c54d527fac","system_id":"levelo_inurba_marseille","lat":43.26194,"lon":5.37897,"is_reserved":false,"is_disabled":false,"rental_uris":{"android":"levelo://app?vid=c9a715ac-a7ea-45d9-9e61-15c54d527fac","ios":"levelo://app?vid=c9a715ac-a7ea-45d9-9e61-15c54d527fac"},"vehicle_type_id":"4","last_reported":1745910679,"current_range_meters":20800,"station_id":"ce4bhjp2rcd13ifvqg90","pricing_plan_id":"cebpf4jnsgd1na2vs0mg"},{"bike_id":"bbf1532e-e613-41a5-9666-3c8ea2a3d77d","system_id":"levelo_inurba_marseille","lat":43.26688,"lon":5.38273,"is_reserved":false,"is_disabled":false,"rental_uris":{"android":"levelo://app?vid=bbf1532e-e613-41a5-9666-3c8ea2a3d77d","ios":"levelo://app?vid=bbf1532e-e613-41a5-9666-3c8ea2a3d77d"},"vehicle_type_id":"4","last_reported":1745910679,"current_range_meters":18800,"station_id":"ce4bhg92rcd13ifvqf90","pricing_plan_id":"cebpf4jnsgd1na2vs0mg"},{"bike_id":"0efbbe37-fc10-439e-88c9-01bb00dbd564","system_id":"levelo_inurba_marseille","lat":43.24071,"lon":5.3776,"is_reserved":false,"is_disabled":false,"rental_uris":{"android":"levelo://app?vid=0efbbe37-fc10-439e-88c9-01bb00dbd564","ios":"levelo://app?vid=0efbbe37-fc10-439e-88c9-01bb00dbd564"},"vehicle_type_id":"4","last_reported":1745910679,"current_range_meters":21600,"station_id":"ce4bhnp2rcd13ifvqgvg","pricing_plan_id":"cebpf4jnsgd1na2vs0mg"},{"bike_id":"476d6e23-e0d6-4515-acd8-e9a58c14fa45","system_id":"levelo_inurba_marseille","lat":43.32638,"lon":5.4105,"is_reserved":false,"is_disabled":false,"rental_uris":{"android":"levelo://app?vid=476d6e23-e0d6-4515-acd8-e9a58c14fa45","ios":"levelo://app?vid=476d6e23-e0d6-4515-acd8-e9a58c14fa45"},"vehicle_type_id":"4","last_reported":1745910679,"current_range_meters":21600,"station_id":"","pricing_plan_id":"cebpf4jnsgd1na2vs0mg"},{"bike_id":"479b1eb9-835f-43ce-bc43-016ebf9dc48a","system_id":"levelo_inurba_marseille","lat":43.27492,"lon":5.42454,"is_reserved":false,"is_disabled":false,"rental_uris":{"android":"levelo://app?vid=479b1eb9-835f-43ce-bc43-016ebf9dc48a","ios":"levelo://app?vid=479b1eb9-835f-43ce-bc43-016ebf9dc48a"},"vehicle_type_id":"4","last_reported":1745910679,"current_range_meters":21600,"station_id":"ce4bhn92rcd13ifvqgrg","pricing_plan_id":"cebpf4jnsgd1na2vs0mg"},{"bike_id":"01bbe0b0-0f60-4e3f-92d5-8f4ec380fa57","system_id":"levelo_inurba_marseille","lat":43.30906,"lon":5.36845,"is_reserved":false,"is_disabled":false,"rental_uris":{"android":"levelo://app?vid=01bbe0b0-0f60-4e3f-92d5-8f4ec380fa57","ios":"levelo://app?vid=01bbe0b0-0f60-4e3f-92d5-8f4ec380fa57"},"vehicle_type_id":"4","last_reported":1745910679,"current_range_meters":21600,"station_id":"ce4bgn92rcd13ifvqbvg","pricing_plan_id":"cebpf4jnsgd1na2vs0mg"},{"bike_id":"44ff7261-e51a-4419-8ffa-a0d39d5b60ba","system_id":"levelo_inurba_marseille","lat":43.28345,"lon":5.381103,"is_reserved":false,"is_disabled":true,"rental_uris":{"android":"levelo://app?vid=44ff7261-e51a-4419-8ffa-a0d39d5b60ba","ios":"levelo://app?vid=44ff7261-e51a-4419-8ffa-a0d39d5b60ba"},"vehicle_type_id":"4","last_reported":1745910679,"current_range_meters":22000,"station_id":"ce4bh412rcd13ifvqdr0","pricing_plan_id":"cebpf4jnsgd1na2vs0mg"},{"bike_id":"eb460f92-7d8f-41ad-b055-4b05ad6d834f","system_id":"levelo_inurba_marseille","lat":43.30954,"lon":5.39032,"is_reserved":false,"is_disabled":false,"rental_uris":{"android":"levelo://app?vid=eb460f92-7d8f-41ad-b055-4b05ad6d834f","ios":"levelo://app?vid=eb460f92-7d8f-41ad-b055-4b05ad6d834f"},"vehicle_type_id":"4","last_reported":1745910679,"current_range_meters":22000,"station_id":"ce4bgup2rcd13ifvqco0","pricing_plan_id":"cebpf4jnsgd1na2vs0mg"},{"bike_id":"0d61191b-1491-4c5f-bc83-301ebc45c4ae","system_id":"levelo_inurba_marseille","lat":43.28701,"lon":5.39982,"is_reserved":false,"is_disabled":false,"rental_uris":{"android":"levelo://app?vid=0d61191b-1491-4c5f-bc83-301ebc45c4ae","ios":"levelo://app?vid=0d61191b-1491-4c5f-bc83-301ebc45c4ae"},"vehicle_type_id":"4","last_reported":1745910679,"current_range_meters":22000,"station_id":"","pricing_plan_id":"cebpf4jnsgd1na2vs0mg"},{"bike_id":"01848dd4-50bd-411c-ad46-63627ba25ec6","system_id":"levelo_inurba_marseille","lat":43.29258,"lon":5.37622,"is_reserved":false,"is_disabled":false,"rental_uris":{"android":"levelo://app?vid=01848dd4-50bd-411c-ad46-63627ba25ec6","ios":"levelo://app?vid=01848dd4-50bd-411c-ad46-63627ba25ec6"},"vehicle_type_id":"4","last_reported":1745910679,"current_range_meters":22000,"station_id":"ce4bgi12rcd13ifvqb80","pricing_plan_id":"cebpf4jnsgd1na2vs0mg"},{"bike_id":"2372f7c6-1089-4c13-bafe-c3d7862aadcc","system_id":"levelo_inurba_marseille","lat":43.3171,"lon":5.43696,"is_reserved":false,"is_disabled":false,"rental_uris":{"android":"levelo://app?vid=2372f7c6-1089-4c13-bafe-c3d7862aadcc","ios":"levelo://app?vid=2372f7c6-1089-4c13-bafe-c3d7862aadcc"},"vehicle_type_id":"4","last_reported":1745910679,"current_range_meters":22400,"station_id":"ce4bhp92rcd13ifvqhcg","pricing_plan_id":"cebpf4jnsgd1na2vs0mg"},{"bike_id":"9eac9edc-c3d5-43dc-8ebc-c05868539cb4","system_id":"levelo_inurba_marseille","lat":43.24983,"lon":5.37986,"is_reserved":false,"is_disabled":false,"rental_uris":{"android":"levelo://app?vid=9eac9edc-c3d5-43dc-8ebc-c05868539cb4","ios":"levelo://app?vid=9eac9edc-c3d5-43dc-8ebc-c05868539cb4"},"vehicle_type_id":"4","last_reported":1745910679,"current_range_meters":22800,"station_id":"","pricing_plan_id":"cebpf4jnsgd1na2vs0mg"},{"bike_id":"2a4f5dfa-513d-46a0-923b-e5be40c3c2bc","system_id":"levelo_inurba_marseille","lat":43.28463,"lon":5.39228,"is_reserved":false,"is_disabled":true,"rental_uris":{"android":"levelo://app?vid=2a4f5dfa-513d-46a0-923b-e5be40c3c2bc","ios":"levelo://app?vid=2a4f5dfa-513d-46a0-923b-e5be40c3c2bc"},"vehicle_type_id":"4","last_reported":1745910679,"current_range_meters":22400,"station_id":"ce4bhoh2rcd13ifvqh5g","pricing_plan_id":"cebpf4jnsgd1na2vs0mg"},{"bike_id":"80c00d16-a268-4eba-8160-d4d88283eb9b","system_id":"levelo_inurba_marseille","lat":43.258704,"lon":5.399062,"is_reserved":false,"is_disabled":false,"rental_uris":{"android":"levelo://app?vid=80c00d16-a268-4eba-8160-d4d88283eb9b","ios":"levelo://app?vid=80c00d16-a268-4eba-8160-d4d88283eb9b"},"vehicle_type_id":"4","last_reported":1745910679,"current_range_meters":22400,"station_id":"ce4bhl92rcd13ifvqghg","pricing_plan_id":"cebpf4jnsgd1na2vs0mg"},{"bike_id":"76077cea-519f-400d-95d4-4e65aa4e7a56","system_id":"levelo_inurba_marseille","lat":43.30155,"lon":5.380764,"is_reserved":false,"is_disabled":false,"rental_uris":{"android":"levelo://app?vid=76077cea-519f-400d-95d4-4e65aa4e7a56","ios":"levelo://app?vid=76077cea-519f-400d-95d4-4e65aa4e7a56"},"vehicle_type_id":"4","last_reported":1745910679,"current_range_meters":22400,"station_id":"ce4bgjp2rcd13ifvqbh0","pricing_plan_id":"cebpf4jnsgd1na2vs0mg"},{"bike_id":"8af335c8-d58d-4b53-b1aa-8e8f4ace3021","system_id":"levelo_inurba_marseille","lat":43.26954,"lon":5.38627,"is_reserved":false,"is_disabled":false,"rental_uris":{"android":"levelo://app?vid=8af335c8-d58d-4b53-b1aa-8e8f4ace3021","ios":"levelo://app?vid=8af335c8-d58d-4b53-b1aa-8e8f4ace3021"},"vehicle_type_id":"4","last_reported":1745910679,"current_range_meters":22400,"station_id":"ce4bhh92rcd13ifvqfh0","pricing_plan_id":"cebpf4jnsgd1na2vs0mg"},{"bike_id":"750b37f4-0312-424d-8787-8c7fa359a8d6","system_id":"levelo_inurba_marseille","lat":43.336045,"lon":5.410269,"is_reserved":false,"is_disabled":false,"rental_uris":{"android":"levelo://app?vid=750b37f4-0312-424d-8787-8c7fa359a8d6","ios":"levelo://app?vid=750b37f4-0312-424d-8787-8c7fa359a8d6"},"vehicle_type_id":"4","last_reported":1745910679,"current_range_meters":22400,"station_id":"ce4bhqh2rcd13ifvqhmg","pricing_plan_id":"cebpf4jnsgd1na2vs0mg"},{"bike_id":"5c473058-1577-4082-970b-101fd873baea","system_id":"levelo_inurba_marseille","lat":43.25006,"lon":5.38919,"is_reserved":false,"is_disabled":false,"rental_uris":{"android":"levelo://app?vid=5c473058-1577-4082-970b-101fd873baea","ios":"levelo://app?vid=5c473058-1577-4082-970b-101fd873baea"},"vehicle_type_id":"4","last_reported":1745910679,"current_range_meters":22400,"station_id":"ce4bhgp2rcd13ifvqfd0","pricing_plan_id":"cebpf4jnsgd1na2vs0mg"},{"bike_id":"5b2e71ef-ec32-4b85-b9fd-f5e71645b1f9","system_id":"levelo_inurba_marseille","lat":43.25937,"lon":5.4091,"is_reserved":false,"is_disabled":false,"rental_uris":{"android":"levelo://app?vid=5b2e71ef-ec32-4b85-b9fd-f5e71645b1f9","ios":"levelo://app?vid=5b2e71ef-ec32-4b85-b9fd-f5e71645b1f9"},"vehicle_type_id":"4","last_reported":1745910679,"current_range_meters":22400,"station_id":"ce4bhm92rcd13ifvqglg","pricing_plan_id":"cebpf4jnsgd1na2vs0mg"},{"bike_id":"9a6d1a0d-0520-4c44-b0a9-74ddbe754418","system_id":"levelo_inurba_marseille","lat":43.25721,"lon":5.41125,"is_reserved":false,"is_disabled":false,"rental_uris":{"android":"levelo://app?vid=9a6d1a0d-0520-4c44-b0a9-74ddbe754418","ios":"levelo://app?vid=9a6d1a0d-0520-4c44-b0a9-74ddbe754418"},"vehicle_type_id":"4","last_reported":1745910679,"current_range_meters":22800,"station_id":"ce4bhkp2rcd13ifvqgd0","pricing_plan_id":"cebpf4jnsgd1na2vs0mg"},{"bike_id":"622efbc1-1b3b-4f1b-8559-e05543e622b9","system_id":"levelo_inurba_marseille","lat":43.24079,"lon":5.37754,"is_reserved":false,"is_disabled":false,"rental_uris":{"android":"levelo://app?vid=622efbc1-1b3b-4f1b-8559-e05543e622b9","ios":"levelo://app?vid=622efbc1-1b3b-4f1b-8559-e05543e622b9"},"vehicle_type_id":"4","last_reported":1745910679,"current_range_meters":22800,"station_id":"ce4bhnp2rcd13ifvqgvg","pricing_plan_id":"cebpf4jnsgd1na2vs0mg"},{"bike_id":"111c1998-4230-4789-add4-3e3731da2f78","system_id":"levelo_inurba_marseille","lat":43.27654,"lon":5.42087,"is_reserved":false,"is_disabled":false,"rental_uris":{"android":"levelo://app?vid=111c1998-4230-4789-add4-3e3731da2f78","ios":"levelo://app?vid=111c1998-4230-4789-add4-3e3731da2f78"},"vehicle_type_id":"4","last_reported":1745910679,"current_range_meters":22800,"station_id":"","pricing_plan_id":"cebpf4jnsgd1na2vs0mg"},{"bike_id":"cd457208-b108-4b8b-a5a8-73abb415cb7a","system_id":"levelo_inurba_marseille","lat":43.31343,"lon":5.36708,"is_reserved":false,"is_disabled":false,"rental_uris":{"android":"levelo://app?vid=cd457208-b108-4b8b-a5a8-73abb415cb7a","ios":"levelo://app?vid=cd457208-b108-4b8b-a5a8-73abb415cb7a"},"vehicle_type_id":"4","last_reported":1745910679,"current_range_meters":22800,"station_id":"ce4bgr92rcd13ifvqc6g","pricing_plan_id":"cebpf4jnsgd1na2vs0mg"},{"bike_id":"aba425a9-bc0e-4992-bab8-21b7d2136130","system_id":"levelo_inurba_marseille","lat":43.30912,"lon":5.36848,"is_reserved":false,"is_disabled":false,"rental_uris":{"android":"levelo://app?vid=aba425a9-bc0e-4992-bab8-21b7d2136130","ios":"levelo://app?vid=aba425a9-bc0e-4992-bab8-21b7d2136130"},"vehicle_type_id":"4","last_reported":1745910679,"current_range_meters":22800,"station_id":"ce4bgn92rcd13ifvqbvg","pricing_plan_id":"cebpf4jnsgd1na2vs0mg"},{"bike_id":"e9947e8d-885b-4216-a0aa-5a092afe2d44","system_id":"levelo_inurba_marseille","lat":43.32477,"lon":5.36568,"is_reserved":false,"is_disabled":false,"rental_uris":{"android":"levelo://app?vid=e9947e8d-885b-4216-a0aa-5a092afe2d44","ios":"levelo://app?vid=e9947e8d-885b-4216-a0aa-5a092afe2d44"},"vehicle_type_id":"4","last_reported":1745910679,"current_range_meters":22800,"station_id":"ce4bhs12rcd13ifvqhvg","pricing_plan_id":"cebpf4jnsgd1na2vs0mg"},{"bike_id":"7940bc1b-eaa7-4f49-a435-46dc9391f6a1","system_id":"levelo_inurba_marseille","lat":43.21191,"lon":5.35072,"is_reserved":false,"is_disabled":false,"rental_uris":{"android":"levelo://app?vid=7940bc1b-eaa7-4f49-a435-46dc9391f6a1","ios":"levelo://app?vid=7940bc1b-eaa7-4f49-a435-46dc9391f6a1"},"vehicle_type_id":"4","last_reported":1745910679,"current_range_meters":22800,"station_id":"st_cvj6sg6p6f1abm77japg","pricing_plan_id":"cebpf4jnsgd1na2vs0mg"},{"bike_id":"8105b649-192e-41f5-bc57-1c7d840cfd90","system_id":"levelo_inurba_marseille","lat":43.30904,"lon":5.36848,"is_reserved":false,"is_disabled":false,"rental_uris":{"android":"levelo://app?vid=8105b649-192e-41f5-bc57-1c7d840cfd90","ios":"levelo://app?vid=8105b649-192e-41f5-bc57-1c7d840cfd90"},"vehicle_type_id":"4","last_reported":1745910679,"current_range_meters":22800,"station_id":"ce4bgn92rcd13ifvqbvg","pricing_plan_id":"cebpf4jnsgd1na2vs0mg"},{"bike_id":"872de594-7b21-4e43-856e-ec3f06d1e4a2","system_id":"levelo_inurba_marseille","lat":43.24393,"lon":5.37048,"is_reserved":false,"is_disabled":false,"rental_uris":{"android":"levelo://app?vid=872de594-7b21-4e43-856e-ec3f06d1e4a2","ios":"levelo://app?vid=872de594-7b21-4e43-856e-ec3f06d1e4a2"},"vehicle_type_id":"4","last_reported":1745910679,"current_range_meters":23200,"station_id":"ce4bhhh2rcd13ifvqfk0","pricing_plan_id":"cebpf4jnsgd1na2vs0mg"},{"bike_id":"f5977d1f-7c9e-45e1-9d93-38a4e285267a","system_id":"levelo_inurba_marseille","lat":43.30153,"lon":5.37416,"is_reserved":false,"is_disabled":false,"rental_uris":{"android":"levelo://app?vid=f5977d1f-7c9e-45e1-9d93-38a4e285267a","ios":"levelo://app?vid=f5977d1f-7c9e-45e1-9d93-38a4e285267a"},"vehicle_type_id":"4","last_reported":1745910679,"current_range_meters":24000,"station_id":"ce4bgs92rcd13ifvqcc0","pricing_plan_id":"cebpf4jnsgd1na2vs0mg"},{"bike_id":"f5ee6b5c-07b9-4c0d-b44d-1ece77029f45","system_id":"levelo_inurba_marseille","lat":43.305293,"lon":5.365313,"is_reserved":false,"is_disabled":true,"rental_uris":{"android":"levelo://app?vid=f5ee6b5c-07b9-4c0d-b44d-1ece77029f45","ios":"levelo://app?vid=f5ee6b5c-07b9-4c0d-b44d-1ece77029f45"},"vehicle_type_id":"4","last_reported":1745910679,"current_range_meters":23200,"station_id":"ce4bgs12rcd13ifvqcag","pricing_plan_id":"cebpf4jnsgd1na2vs0mg"},{"bike_id":"b65024f1-321f-4d06-a452-3dc7546cb35f","system_id":"levelo_inurba_marseille","lat":43.320488,"lon":5.41545,"is_reserved":false,"is_disabled":false,"rental_uris":{"android":"levelo://app?vid=b65024f1-321f-4d06-a452-3dc7546cb35f","ios":"levelo://app?vid=b65024f1-321f-4d06-a452-3dc7546cb35f"},"vehicle_type_id":"4","last_reported":1745910679,"current_range_meters":23200,"station_id":"ce4bhq92rcd13ifvqhkg","pricing_plan_id":"cebpf4jnsgd1na2vs0mg"},{"bike_id":"af152341-d1e4-4b5e-ba06-5001681206eb","system_id":"levelo_inurba_marseille","lat":43.34148,"lon":5.40912,"is_reserved":false,"is_disabled":false,"rental_uris":{"android":"levelo://app?vid=af152341-d1e4-4b5e-ba06-5001681206eb","ios":"levelo://app?vid=af152341-d1e4-4b5e-ba06-5001681206eb"},"vehicle_type_id":"4","last_reported":1745910679,"current_range_meters":24000,"station_id":"ce4bhqh2rcd13ifvqhlg","pricing_plan_id":"cebpf4jnsgd1na2vs0mg"},{"bike_id":"6a7e4adb-0ab5-4ac5-8096-dfd43705db28","system_id":"levelo_inurba_marseille","lat":43.30909,"lon":5.36841,"is_reserved":false,"is_disabled":false,"rental_uris":{"android":"levelo://app?vid=6a7e4adb-0ab5-4ac5-8096-dfd43705db28","ios":"levelo://app?vid=6a7e4adb-0ab5-4ac5-8096-dfd43705db28"},"vehicle_type_id":"4","last_reported":1745910679,"current_range_meters":24000,"station_id":"ce4bgn92rcd13ifvqbvg","pricing_plan_id":"cebpf4jnsgd1na2vs0mg"},{"bike_id":"848f4b04-d00d-4464-978e-6f843d953303","system_id":"levelo_inurba_marseille","lat":43.28277,"lon":5.3517,"is_reserved":false,"is_disabled":false,"rental_uris":{"android":"levelo://app?vid=848f4b04-d00d-4464-978e-6f843d953303","ios":"levelo://app?vid=848f4b04-d00d-4464-978e-6f843d953303"},"vehicle_type_id":"4","last_reported":1745910679,"current_range_meters":24000,"station_id":"","pricing_plan_id":"cebpf4jnsgd1na2vs0mg"},{"bike_id":"71840c2e-572a-4652-ab07-d563fe60576a","system_id":"levelo_inurba_marseille","lat":43.23156,"lon":5.43707,"is_reserved":false,"is_disabled":false,"rental_uris":{"android":"levelo://app?vid=71840c2e-572a-4652-ab07-d563fe60576a","ios":"levelo://app?vid=71840c2e-572a-4652-ab07-d563fe60576a"},"vehicle_type_id":"4","last_reported":1745910679,"current_range_meters":16800,"station_id":"ce4bhmp2rcd13ifvqgog","pricing_plan_id":"cebpf4jnsgd1na2vs0mg"},{"bike_id":"5f87ff58-3538-491c-84c3-069cc3301b26","system_id":"levelo_inurba_marseille","lat":43.3015,"lon":5.3811,"is_reserved":false,"is_disabled":false,"rental_uris":{"android":"levelo://app?vid=5f87ff58-3538-491c-84c3-069cc3301b26","ios":"levelo://app?vid=5f87ff58-3538-491c-84c3-069cc3301b26"},"vehicle_type_id":"4","last_reported":1745910679,"current_range_meters":24000,"station_id":"ce4bgjp2rcd13ifvqbh0","pricing_plan_id":"cebpf4jnsgd1na2vs0mg"},{"bike_id":"9cc07243-ed5b-4970-bcce-93f27bb2a540","system_id":"levelo_inurba_marseille","lat":43.31209,"lon":5.36831,"is_reserved":false,"is_disabled":false,"rental_uris":{"android":"levelo://app?vid=9cc07243-ed5b-4970-bcce-93f27bb2a540","ios":"levelo://app?vid=9cc07243-ed5b-4970-bcce-93f27bb2a540"},"vehicle_type_id":"4","last_reported":1745910679,"current_range_meters":24000,"station_id":"ce4bgl92rcd13ifvqbq0","pricing_plan_id":"cebpf4jnsgd1na2vs0mg"},{"bike_id":"fe0aec03-665a-4e44-93ee-36c46837dbee","system_id":"levelo_inurba_marseille","lat":43.28081,"lon":5.39657,"is_reserved":false,"is_disabled":false,"rental_uris":{"android":"levelo://app?vid=fe0aec03-665a-4e44-93ee-36c46837dbee","ios":"levelo://app?vid=fe0aec03-665a-4e44-93ee-36c46837dbee"},"vehicle_type_id":"4","last_reported":1745910679,"current_range_meters":24000,"station_id":"ce4bho12rcd13ifvqh2g","pricing_plan_id":"cebpf4jnsgd1na2vs0mg"},{"bike_id":"c5e08465-0785-4807-abbe-19c208ca79d4","system_id":"levelo_inurba_marseille","lat":43.23192,"lon":5.35562,"is_reserved":false,"is_disabled":false,"rental_uris":{"android":"levelo://app?vid=c5e08465-0785-4807-abbe-19c208ca79d4","ios":"levelo://app?vid=c5e08465-0785-4807-abbe-19c208ca79d4"},"vehicle_type_id":"4","last_reported":1745910679,"current_range_meters":24800,"station_id":"ce4bhu92rcd13ifvqi70","pricing_plan_id":"cebpf4jnsgd1na2vs0mg"},{"bike_id":"01fdcf86-1b0e-4d72-9d13-4f5d9fbe879d","system_id":"levelo_inurba_marseille","lat":43.29558,"lon":5.42283,"is_reserved":false,"is_disabled":false,"rental_uris":{"android":"levelo://app?vid=01fdcf86-1b0e-4d72-9d13-4f5d9fbe879d","ios":"levelo://app?vid=01fdcf86-1b0e-4d72-9d13-4f5d9fbe879d"},"vehicle_type_id":"4","last_reported":1745910679,"current_range_meters":24400,"station_id":"ce4bhph2rcd13ifvqhdg","pricing_plan_id":"cebpf4jnsgd1na2vs0mg"},{"bike_id":"d6445cce-7d16-4041-9fb2-2ef474685e46","system_id":"levelo_inurba_marseille","lat":43.24076,"lon":5.37724,"is_reserved":false,"is_disabled":false,"rental_uris":{"android":"levelo://app?vid=d6445cce-7d16-4041-9fb2-2ef474685e46","ios":"levelo://app?vid=d6445cce-7d16-4041-9fb2-2ef474685e46"},"vehicle_type_id":"4","last_reported":1745910679,"current_range_meters":24400,"station_id":"ce4bhnp2rcd13ifvqgvg","pricing_plan_id":"cebpf4jnsgd1na2vs0mg"},{"bike_id":"1a6efa88-72db-47aa-be93-daa944436356","system_id":"levelo_inurba_marseille","lat":43.259369,"lon":5.409071,"is_reserved":false,"is_disabled":false,"rental_uris":{"android":"levelo://app?vid=1a6efa88-72db-47aa-be93-daa944436356","ios":"levelo://app?vid=1a6efa88-72db-47aa-be93-daa944436356"},"vehicle_type_id":"4","last_reported":1745910679,"current_range_meters":24400,"station_id":"ce4bhm92rcd13ifvqglg","pricing_plan_id":"cebpf4jnsgd1na2vs0mg"},{"bike_id":"3089ddff-c84e-46c0-8b5d-2888c9e56b92","system_id":"levelo_inurba_marseille","lat":43.28944,"lon":5.38391,"is_reserved":false,"is_disabled":false,"rental_uris":{"android":"levelo://app?vid=3089ddff-c84e-46c0-8b5d-2888c9e56b92","ios":"levelo://app?vid=3089ddff-c84e-46c0-8b5d-2888c9e56b92"},"vehicle_type_id":"4","last_reported":1745910679,"current_range_meters":22000,"station_id":"ce4bh612rcd13ifvqe6g","pricing_plan_id":"cebpf4jnsgd1na2vs0mg"},