{"last_updated":1750785051,"ttl":60,"version":"2.2","data":{"bikes":[{"bike_id":"3da29fb8-fc97-44c6-b9ac-31dd456b2fd4","system_id":"levelo_inurba_marseille","lat":43.33771,"lon":5.37424,"is_reserved":false,"is_disabled":true,"rental_uris":{"android":"levelo://app?vid=3da29fb8-fc97-44c6-b9ac-31dd456b2fd4","ios":"levelo://app?vid=3da29fb8-fc97-44c6-b9ac-31dd456b2fd4"},"vehicle_type_id":"4","last_reported":1750785051,"current_range_meters":0,"station_id":"","pricing_plan_id":"cebpf4jnsgd1na2vs0mg"},{"bike_id":"01861ad8-a8d7-4be6-816e-651927c87584","system_id":"levelo_inurba_marseille","lat":43.33751,"lon":5.37456,"is_reserved":false,"is_disabled":true,"rental_uris":{"android":"levelo://app?vid=01861ad8-a8d7-4be6-816e-651927c87584","ios":"levelo://app?vid=01861ad8-a8d7-4be6-816e-651927c87584"},"vehicle_type_id":"4","last_reported":1750785051,"current_range_meters":0,"station_id":"","pricing_plan_id":"cebpf4jnsgd1na2vs0mg"},{"bike_id":"f0a1d594-9817-42ab-a8d6-aea4947e8858","system_id":"levelo_inurba_marseille","lat":43.288329,"lon":5.434368,"is_reserved":false,"is_disabled":true,"rental_uris":{"android":"levelo://app?vid=f0a1d594-9817-42ab-a8d6-aea4947e8858","ios":"levelo://app?vid=f0a1d594-9817-42ab-a8d6-aea4947e8858"},"vehicle_type_id":"4","last_reported":1750785051,"current_range_meters":0,"station_id":"","pricing_plan_id":"cebpf4jnsgd1na2vs0mg"},{"bike_id":"763475c0-a5de-4444-b5fb-a67ccd172449","system_id":"levelo_inurba_marseille","lat":43.26517,"lon":5.37323,"is_reserved":false,"is_disabled":true,"rental_uris":{"android":"levelo://app?vid=763475c0-a5de-4444-b5fb-a67ccd172449","ios":"levelo://app?vid=763475c0-a5de-4444-b5fb-a67ccd172449"},"vehicle_type_id":"4","last_reported":1750785051,"current_range_meters":0,"station_id":"","pricing_plan_id":"cebpf4jnsgd1na2vs0mg"},{"bike_id":"62a493c7-4534-4419-ad43-0582de34a72a","system_id":"levelo_inurba_marseille","lat":43.21366,"lon":5.355183,"is_reserved":false,"is_disabled":true,"rental_uris":{"android":"levelo://app?vid=62a493c7-4534-4419-ad43-0582de34a72a","ios":"levelo://app?vid=62a493c7-4534-4419-ad43-0582de34a72a"},"vehicle_type_id":"4","last_reported":1750785051,"current_range_meters":0,"station_id":"","pricing_plan_id":"cebpf4jnsgd1na2vs0mg"},{"bike_id":"139d47bd-ff87-42d8-a4c6-89da4be6f80c","system_id":"levelo_inurba_marseille","lat":43.27962,"lon":5.44252,"is_reserved":false,"is_disabled":true,"rental_uris":{"android":"levelo://app?vid=139d47bd-ff87-42d8-a4c6-89da4be6f80c","ios":"levelo://app?vid=139d47bd-ff87-42d8-a4c6-89da4be6f80c"},"vehicle_type_id":"4","last_reported":1750785051,"current_range_meters":0,"station_id":"","pricing_plan_id":"cebpf4jnsgd1na2vs0mg"},{"bike_id":"d07b07aa-5732-4368-b606-c642421b7603","system_id":"levelo_inurba_marseille","lat":43.33115,"lon":5.36076,"is_reserved":false,"is_disabled":true,"rental_uris":{"android":"levelo://app?vid=d07b07aa-5732-4368-b606-c642421b7603","ios":"levelo://app?vid=d07b07aa-5732-4368-b606-c642421b7603"},"vehicle_type_id":"4","last_reported":1750785051,"current_range_meters":0,"station_id":"","pricing_plan_id":"cebpf4jnsgd1na2vs0mg"},{"bike_id":"d6ce388f-ca76-4c7c-9e3f-e6b4d12862f1","system_id":"levelo_inurba_marseille","lat":43.245443,"lon":5.414571,"is_reserved":false,"is_disabled":true,"rental_uris":{"android":"levelo://app?vid=d6ce388f-ca76-4c7c-9e3f-e6b4d12862f1","ios":"levelo://app?vid=d6ce388f-ca76-4c7c-9e3f-e6b4d12862f1"},"vehicle_type_id":"4","last_reported":1750785051,"current_range_meters":0,"station_id":"","pricing_plan_id":"cebpf4jnsgd1na2vs0mg"},{"bike_id":"3a3a1818-f20a-442b-bfcf-0e0a18008f43","system_id":"levelo_inurba_marseille","lat":43.26612,"lon":5.37491,"is_reserved":false,"is_disabled":true,"rental_uris":{"android":"levelo://app?vid=3a3a1818-f20a-442b-bfcf-0e0a18008f43","ios":"levelo://app?vid=3a3a1818-f20a-442b-bfcf-0e0a18008f43"},"vehicle_type_id":"4","last_reported":1750785051,"current_range_meters":0,"station_id":"","pricing_plan_id":"cebpf4jnsgd1na2vs0mg"},{"bike_id":"11d160d1-34e0-4ce8-9789-9603b74a4446","system_id":"levelo_inurba_marseille","lat":43.32714,"lon":5.37501,"is_reserved":false,"is_disabled":true,"rental_uris":{"android":"levelo://app?vid=11d160d1-34e0-4ce8-9789-9603b74a4446","ios":"levelo://app?vid=11d160d1-34e0-4ce8-9789-9603b74a4446"},"vehicle_type_id":"4","last_reported":1750785051,"current_range_meters":0,"station_id":"","pricing_plan_id":"cebpf4jnsgd1na2vs0mg"},{"bike_id":"d6609b4f-333b-43c1-9ebe-8726f5e76e88","system_id":"levelo_inurba_marseille","lat":43.337444,"lon":5.374475,"is_reserved":false,"is_disabled":true,"rental_uris":{"android":"levelo://app?vid=d6609b4f-333b-43c1-9ebe-8726f5e76e88","ios":"levelo://app?vid=d6609b4f-333b-43c1-9ebe-8726f5e76e88"},"vehicle_type_id":"4","last_reported":1750785051,"current_range_meters":0,"station_id":"","pricing_plan_id":"cebpf4jnsgd1na2vs0mg"},{"bike_id":"9cb193d0-906b-4ac2-85c5-eea810b1d20f","system_id":"levelo_inurba_marseille","lat":43.29405,"lon":5.43178,"is_reserved":false,"is_disabled":true,"rental_uris":{"android":"levelo://app?vid=9cb193d0-906b-4ac2-85c5-eea810b1d20f","ios":"levelo://app?vid=9cb193d0-906b-4ac2-85c5-eea810b1d20f"},"vehicle_type_id":"4","last_reported":1750785051,"current_range_meters":0,"station_id":"","pricing_plan_id":"cebpf4jnsgd1na2vs0mg"},{"bike_id":"bd17737b-22d2-4e4f-88e8-4eb661d864c4","system_id":"levelo_inurba_marseille","lat":43.29166,"lon":5.46069,"is_reserved":false,"is_disabled":true,"rental_uris":{"android":"levelo://app?vid=bd17737b-22d2-4e4f-88e8-4eb661d864c4","ios":"levelo://app?vid=bd17737b-22d2-4e4f-88e8-4eb661d864c4"},"vehicle_type_id":"4","last_reported":1750785051,"current_range_meters":0,"station_id":"","pricing_plan_id":"cebpf4jnsgd1na2vs0mg"},{"bike_id":"3d07ef76-af52-42e0-81f1-5f4963c9ee29","system_id":"levelo_inurba_marseille","lat":43.294701,"lon":5.438349,"is_reserved":false,"is_disabled":true,"rental_uris":{"android":"levelo://app?vid=3d07ef76-af52-42e0-81f1-5f4963c9ee29","ios":"levelo://app?vid=3d07ef76-af52-42e0-81f1-5f4963c9ee29"},"vehicle_type_id":"4","last_reported":1750785051,"current_range_meters":0,"station_id":"","pricing_plan_id":"cebpf4jnsgd1na2vs0mg"},{"bike_id":"0c86cdad-b64a-47bf-ba91-5b398064181c","system_id":"levelo_inurba_marseille","lat":43.384196,"lon":5.358629,"is_reserved":false,"is_disabled":true,"rental_uris":{"android":"levelo://app?vid=0c86cdad-b64a-47bf-ba91-5b398064181c","ios":"levelo://app?vid=0c86cdad-b64a-47bf-ba91-5b398064181c"},"vehicle_type_id":"4","last_reported":1750785051,"current_range_meters":0,"station_id":"","pricing_plan_id":"cebpf4jnsgd1na2vs0mg"},{"bike_id":"40535246-59fb-4a81-85d8-7161658d05fe","system_id":"levelo_inurba_marseille","lat":43.29376,"lon":5.37866,"is_reserved":false,"is_disabled":true,"rental_uris":{"android":"levelo://app?vid=40535246-59fb-4a81-85d8-7161658d05fe","ios":"levelo://app?vid=40535246-59fb-4a81-85d8-7161658d05fe"},"vehicle_type_id":"4","last_reported":1750785051,"current_range_meters":0,"station_id":"ce4bgjh2rcd13ifvqbf0","pricing_plan_id":"cebpf4jnsgd1na2vs0mg"},{"bike_id":"2d28ba7a-69e5-4131-ac96-a1550e18f1a5","system_id":"levelo_inurba_marseille","lat":43.29919,"lon":5.37483,"is_reserved":false,"is_disabled":false,"rental_uris":{"android":"levelo://app?vid=2d28ba7a-69e5-4131-ac96-a1550e18f1a5","ios":"levelo://app?vid=2d28ba7a-69e5-4131-ac96-a1550e18f1a5"},"vehicle_type_id":"4","last_reported":1750785051,"current_range_meters":0,"station_id":"ce4bgjh2rcd13ifvqbg0","pricing_plan_id":"cebpf4jnsgd1na2vs0mg"},{"bike_id":"53add8fc-fef6-4642-b61b-be3257c524cf","system_id":"levelo_inurba_marseille","lat":43.30145,"lon":5.3984,"is_reserved":false,"is_disabled":true,"rental_uris":{"android":"levelo://app?vid=53add8fc-fef6-4642-b61b-be3257c524cf","ios":"levelo://app?vid=53add8fc-fef6-4642-b61b-be3257c524cf"},"vehicle_type_id":"4","last_reported":1750785051,"current_range_meters":0,"station_id":"ce4bh0h2rcd13ifvqd40","pricing_plan_id":"cebpf4jnsgd1na2vs0mg"},{"bike_id":"50280a0b-0089-40b1-8ffd-5cff10b0b942","system_id":"levelo_inurba_marseille","lat":43.29567,"lon":5.39984,"is_reserved":false,"is_disabled":true,"rental_uris":{"android":"levelo://app?vid=50280a0b-0089-40b1-8ffd-5cff10b0b942","ios":"levelo://app?vid=50280a0b-0089-40b1-8ffd-5cff10b0b942"},"vehicle_type_id":"4","last_reported":1750785051,"current_range_meters":0,"station_id":"ce4bh312rcd13ifvqdj0","pricing_plan_id":"cebpf4jnsgd1na2vs0mg"},{"bike_id":"79bd089f-5c46-4a24-85fe-d93194b24bb9","system_id":"levelo_inurba_marseille","lat":43.29277,"lon":5.4012,"is_reserved":false,"is_disabled":true,"rental_uris":{"android":"levelo://app?vid=79bd089f-5c46-4a24-85fe-d93194b24bb9","ios":"levelo://app?vid=79bd089f-5c46-4a24-85fe-d93194b24bb9"},"vehicle_type_id":"4","last_reported":1750785051,"current_range_meters":0,"station_id":"ce4bh312rcd13ifvqdk0","pricing_plan_id":"cebpf4jnsgd1na2vs0mg"},{"bike_id":"ee349b75-9caf-488b-a225-879c686f0b40","system_id":"levelo_inurba_marseille","lat":43.2897,"lon":5.37835,"is_reserved":false,"is_disabled":true,"rental_uris":{"android":"levelo://app?vid=ee349b75-9caf-488b-a225-879c686f0b40","ios":"levelo://app?vid=ee349b75-9caf-488b-a225-879c686f0b40"},"vehicle_type_id":"4","last_reported":1750785051,"current_range_meters":0,"station_id":"ce4bh9p2rcd13ifvqed0","pricing_plan_id":"cebpf4jnsgd1na2vs0mg"},{"bike_id":"b4aba40d-c504-4af1-9e8d-467f88dcf6bb","system_id":"levelo_inurba_marseille","lat":43.288544,"lon":5.358576,"is_reserved":false,"is_disabled":true,"rental_uris":{"android":"levelo://app?vid=b4aba40d-c504-4af1-9e8d-467f88dcf6bb","ios":"levelo://app?vid=b4aba40d-c504-4af1-9e8d-467f88dcf6bb"},"vehicle_type_id":"4","last_reported":1750785051,"current_range_meters":0,"station_id":"ce4bhb12rcd13ifvqem0","pricing_plan_id":"cebpf4jnsgd1na2vs0mg"},{"bike_id":"2c592789-4807-447a-a9e8-6a0d1a1e91e2","system_id":"levelo_inurba_marseille","lat":43.24393,"lon":5.37059,"is_reserved":false,"is_disabled":true,"rental_uris":{"android":"levelo://app?vid=2c592789-4807-447a-a9e8-6a0d1a1e91e2","ios":"levelo://app?vid=2c592789-4807-447a-a9e8-6a0d1a1e91e2"},"vehicle_type_id":"4","last_reported":1750785051,"current_range_meters":0,"station_id":"ce4bhhh2rcd13ifvqfk0","pricing_plan_id":"cebpf4jnsgd1na2vs0mg"},{"bike_id":"8316f69c-91af-4b3f-9865-aeb32d3f0132","system_id":"levelo_inurba_marseille","lat":43.24393,"lon":5.37056,"is_reserved":false,"is_disabled":true,"rental_uris":{"android":"levelo://app?vid=8316f69c-91af-4b3f-9865-aeb32d3f0132","ios":"levelo://app?vid=8316f69c-91af-4b3f-9865-aeb32d3f0132"},"vehicle_type_id":"4","last_reported":1750785051,"current_range_meters":0,"station_id":"ce4bhhh2rcd13ifvqfk0","pricing_plan_id":"cebpf4jnsgd1na2vs0mg"},{"bike_id":"8a89e7e4-6e85-47d8-9b86-7911fea95878","system_id":"levelo_inurba_marseille","lat":43.25096,"lon":5.40326,"is_reserved":false,"is_disabled":true,"rental_uris":{"android":"levelo://app?vid=8a89e7e4-6e85-47d8-9b86-7911fea95878","ios":"levelo://app?vid=8a89e7e4-6e85-47d8-9b86-7911fea95878"},"vehicle_type_id":"4","last_reported":1750785051,"current_range_meters":0,"station_id":"ce4bhlh2rcd13ifvqgig","pricing_plan_id":"cebpf4jnsgd1na2vs0mg"},{"bike_id":"69b85ff0-525f-4e56-b244-402f8a03c06f","system_id":"levelo_inurba_marseille","lat":43.23185,"lon":5.39987,"is_reserved":false,"is_disabled":true,"rental_uris":{"android":"levelo://app?vid=69b85ff0-525f-4e56-b244-402f8a03c06f","ios":"levelo://app?vid=69b85ff0-525f-4e56-b244-402f8a03c06f"},"vehicle_type_id":"4","last_reported":1750785051,"current_range_meters":0,"station_id":"ce4bhn12rcd13ifvqgqg","pricing_plan_id":"cebpf4jnsgd1na2vs0mg"},{"bike_id":"3b838756-f750-4780-ad37-d6da31215403","system_id":"levelo_inurba_marseille","lat":43.26941,"lon":5.40261,"is_reserved":false,"is_disabled":true,"rental_uris":{"android":"levelo://app?vid=3b838756-f750-4780-ad37-d6da31215403","ios":"levelo://app?vid=3b838756-f750-4780-ad37-d6da31215403"},"vehicle_type_id":"4","last_reported":1750785051,"current_range_meters":0,"station_id":"cjm6bp8fraef2m0cb0m0","pricing_plan_id":"cebpf4jnsgd1na2vs0mg"},{"bike_id":"46119131-e108-4604-9452-49969fe64372","system_id":"levelo_inurba_marseille","lat":43.22932,"lon":5.35374,"is_reserved":false,"is_disabled":true,"rental_uris":{"android":"levelo://app?vid=46119131-e108-4604-9452-49969fe64372","ios":"levelo://app?vid=46119131-e108-4604-9452-49969fe64372"},"vehicle_type_id":"4","last_reported":1750785051,"current_range_meters":0,"station_id":"cpo3532slgdg3j2ikp40","pricing_plan_id":"cebpf4jnsgd1na2vs0mg"},{"bike_id":"5691e7ac-2083-4189-ac09-de1afa3e7b48","system_id":"levelo_inurba_marseille","lat":43.29532,"lon":5.38555,"is_reserved":false,"is_disabled":true,"rental_uris":{"android":"levelo://app?vid=5691e7ac-2083-4189-ac09-de1afa3e7b48","ios":"levelo://app?vid=5691e7ac-2083-4189-ac09-de1afa3e7b48"},"vehicle_type_id":"4","last_reported":1750785051,"current_range_meters":400,"station_id":"ce4bgih2rcd13ifvqba0","pricing_plan_id":"cebpf4jnsgd1na2vs0mg"},{"bike_id":"ce857713-7566-4267-8f4b-6d18696b3c71","system_id":"levelo_inurba_marseille","lat":43.28931,"lon":5.36636,"is_reserved":false,"is_disabled":true,"rental_uris":{"android":"levelo://app?vid=ce857713-7566-4267-8f4b-6d18696b3c71","ios":"levelo://app?vid=ce857713-7566-4267-8f4b-6d18696b3c71"},"vehicle_type_id":"4","last_reported":1750785051,"current_range_meters":400,"station_id":"ce4bhap2rcd13ifvqek0","pricing_plan_id":"cebpf4jnsgd1na2vs0mg"},{"bike_id":"ed4fab60-93c4-4444-b834-554ca7c8efab","system_id":"levelo_inurba_marseille","lat":43.26952,"lon":5.3863,"is_reserved":false,"is_disabled":true,"rental_uris":{"android":"levelo://app?vid=ed4fab60-93c4-4444-b834-554ca7c8efab","ios":"levelo://app?vid=ed4fab60-93c4-4444-b834-554ca7c8efab"},"vehicle_type_id":"4","last_reported":1750785051,"current_range_meters":400,"station_id":"ce4bhh92rcd13ifvqfh0","pricing_plan_id":"cebpf4jnsgd1na2vs0mg"},{"bike_id":"143069b7-6f8c-465b-818e-bbe28797b730","system_id":"levelo_inurba_marseille","lat":43.27169,"lon":5.41,"is_reserved":false,"is_disabled":true,"rental_uris":{"android":"levelo://app?vid=143069b7-6f8c-465b-818e-bbe28797b730","ios":"levelo://app?vid=143069b7-6f8c-465b-818e-bbe28797b730"},"vehicle_type_id":"4","last_reported":1750785051,"current_range_meters":400,"station_id":"ce4bhl12rcd13ifvqgf0","pricing_plan_id":"cebpf4jnsgd1na2vs0mg"},{"bike_id":"2e3b4efd-14fc-43da-bda2-e9995e80fbf2","system_id":"levelo_inurba_marseille","lat":43.28668,"lon":5.39997,"is_reserved":false,"is_disabled":true,"rental_uris":{"android":"levelo://app?vid=2e3b4efd-14fc-43da-bda2-e9995e80fbf2","ios":"levelo://app?vid=2e3b4efd-14fc-43da-bda2-e9995e80fbf2"},"vehicle_type_id":"4","last_reported":1750785051,"current_range_meters":800,"station_id":"","pricing_plan_id":"cebpf4jnsgd1na2vs0mg"},{"bike_id":"692860e0-64a3-45fa-b818-ed6eb7fa9e48","system_id":"levelo_inurba_marseille","lat":43.31068,"lon":5.38355,"is_reserved":false,"is_disabled":true,"rental_uris":{"android":"levelo://app?vid=692860e0-64a3-45fa-b818-ed6eb7fa9e48","ios":"levelo://app?vid=692860e0-64a3-45fa-b818-ed6eb7fa9e48"},"vehicle_type_id":"4","last_reported":1750785051,"current_range_meters":800,"station_id":"ce4bgv92rcd13ifvqcr0","pricing_plan_id":"cebpf4jnsgd1na2vs0mg"},{"bike_id":"f6382db3-f263-4705-a1d9-80c8d1ebf725","system_id":"levelo_inurba_marseille","lat":43.286102,"lon":5.351112,"is_reserved":false,"is_disabled":true,"rental_uris":{"android":"levelo://app?vid=f6382db3-f263-4705-a1d9-80c8d1ebf725","ios":"levelo://app?vid=f6382db3-f263-4705-a1d9-80c8d1ebf725"},"vehicle_type_id":"4","last_reported":1750785051,"current_range_meters":800,"station_id":"ce4bhch2rcd13ifvqeug","pricing_plan_id":"cebpf4jnsgd1na2vs0mg"},{"bike_id":"c89012c5-994b-4b25-b93d-c8aa36f5924b","system_id":"levelo_inurba_marseille","lat":43.27067,"lon":5.42275,"is_reserved":false,"is_disabled":true,"rental_uris":{"android":"levelo://app?vid=c89012c5-994b-4b25-b93d-c8aa36f5924b","ios":"levelo://app?vid=c89012c5-994b-4b25-b93d-c8aa36f5924b"},"vehicle_type_id":"4","last_reported":1750785051,"current_range_meters":800,"station_id":"ce4bhk92rcd13ifvqgb0","pricing_plan_id":"cebpf4jnsgd1na2vs0mg"},{"bike_id":"3df61dbe-e2f5-4e39-b4a7-952e91a74ba1","system_id":"levelo_inurba_marseille","lat":43.26229,"lon":5.40447,"is_reserved":false,"is_disabled":true,"rental_uris":{"android":"levelo://app?vid=3df61dbe-e2f5-4e39-b4a7-952e91a74ba1","ios":"levelo://app?vid=3df61dbe-e2f5-4e39-b4a7-952e91a74ba1"},"vehicle_type_id":"4","last_reported":1750785051,"current_range_meters":800,"station_id":"ce4bhmh2rcd13ifvqgmg","pricing_plan_id":"cebpf4jnsgd1na2vs0mg"},{"bike_id":"2d15b07e-b320-4640-a732-6a5e10b4e88a","system_id":"levelo_inurba_marseille","lat":43.28465,"lon":5.391959,"is_reserved":false,"is_disabled":true,"rental_uris":{"android":"levelo://app?vid=2d15b07e-b320-4640-a732-6a5e10b4e88a","ios":"levelo://app?vid=2d15b07e-b320-4640-a732-6a5e10b4e88a"},"vehicle_type_id":"4","last_reported":1750785051,"current_range_meters":800,"station_id":"ce4bhoh2rcd13ifvqh5g","pricing_plan_id":"cebpf4jnsgd1na2vs0mg"},{"bike_id":"8842ae51-b2fa-4fb3-a717-8600495603ed","system_id":"levelo_inurba_marseille","lat":43.24167,"lon":5.36394,"is_reserved":false,"is_disabled":true,"rental_uris":{"android":"levelo://app?vid=8842ae51-b2fa-4fb3-a717-8600495603ed","ios":"levelo://app?vid=8842ae51-b2fa-4fb3-a717-8600495603ed"},"vehicle_type_id":"4","last_reported":1750785051,"current_range_meters":800,"station_id":"cpo36qri1sfpv3e86is0","pricing_plan_id":"cebpf4jnsgd1na2vs0mg"},{"bike_id":"85c58f10-925d-4344-b389-09267487a6fc","system_id":"levelo_inurba_marseille","lat":43.21113,"lon":5.41919,"is_reserved":false,"is_disabled":true,"rental_uris":{"android":"levelo://app?vid=85c58f10-925d-4344-b389-09267487a6fc","ios":"levelo://app?vid=85c58f10-925d-4344-b389-09267487a6fc"},"vehicle_type_id":"4","last_reported":1750785051,"current_range_meters":1200,"station_id":"","pricing_plan_id":"cebpf4jnsgd1na2vs0mg"},{"bike_id":"892619b9-22e6-4b12-81e3-39c14e2bc067","system_id":"levelo_inurba_marseille","lat":43.25722,"lon":5.4111,"is_reserved":false,"is_disabled":true,"rental_uris":{"android":"levelo://app?vid=892619b9-22e6-4b12-81e3-39c14e2bc067","ios":"levelo://app?vid=892619b9-22e6-4b12-81e3-39c14e2bc067"},"vehicle_type_id":"4","last_reported":1750785051,"current_range_meters":1200,"station_id":"ce4bhkp2rcd13ifvqgd0","pricing_plan_id":"cebpf4jnsgd1na2vs0mg"},{"bike_id":"2eb2a23e-ae8b-4426-b7a6-f0322f2229a7","system_id":"levelo_inurba_marseille","lat":43.27499,"lon":5.4245,"is_reserved":false,"is_disabled":true,"rental_uris":{"android":"levelo://app?vid=2eb2a23e-ae8b-4426-b7a6-f0322f2229a7","ios":"levelo://app?vid=2eb2a23e-ae8b-4426-b7a6-f0322f2229a7"},"vehicle_type_id":"4","last_reported":1750785051,"current_range_meters":1200,"station_id":"ce4bhn92rcd13ifvqgrg","pricing_plan_id":"cebpf4jnsgd1na2vs0mg"},{"bike_id":"066d86b7-624f-4d9e-a658-d0afc2b3d959","system_id":"levelo_inurba_marseille","lat":43.302284,"lon":5.368353,"is_reserved":false,"is_disabled":true,"rental_uris":{"android":"levelo://app?vid=066d86b7-624f-4d9e-a658-d0afc2b3d959","ios":"levelo://app?vid=066d86b7-624f-4d9e-a658-d0afc2b3d959"},"vehicle_type_id":"4","last_reported":1750785051,"current_range_meters":1600,"station_id":"ce4bgrh2rcd13ifvqc8g","pricing_plan_id":"cebpf4jnsgd1na2vs0mg"},{"bike_id":"0bfa7db7-f3b6-4910-bcf9-2534e1d5c5ee","system_id":"levelo_inurba_marseille","lat":43.30146,"lon":5.37422,"is_reserved":false,"is_disabled":true,"rental_uris":{"android":"levelo://app?vid=0bfa7db7-f3b6-4910-bcf9-2534e1d5c5ee","ios":"levelo://app?vid=0bfa7db7-f3b6-4910-bcf9-2534e1d5c5ee"},"vehicle_type_id":"4","last_reported":1750785051,"current_range_meters":1600,"station_id":"ce4bgs92rcd13ifvqcc0","pricing_plan_id":"cebpf4jnsgd1na2vs0mg"},{"bike_id":"eca39c91-263d-4bb7-a224-454c27e73983","system_id":"levelo_inurba_marseille","lat":43.29281,"lon":5.40124,"is_reserved":false,"is_disabled":true,"rental_uris":{"android":"levelo://app?vid=eca39c91-263d-4bb7-a224-454c27e73983","ios":"levelo://app?vid=eca39c91-263d-4bb7-a224-454c27e73983"},"vehicle_type_id":"4","last_reported":1750785051,"current_range_meters":1600,"station_id":"ce4bh312rcd13ifvqdk0","pricing_plan_id":"cebpf4jnsgd1na2vs0mg"},{"bike_id":"ecace67e-f4c3-4b4a-b0de-00d05dd5e00a","system_id":"levelo_inurba_marseille","lat":43.2842,"lon":5.3499,"is_reserved":false,"is_disabled":true,"rental_uris":{"android":"levelo://app?vid=ecace67e-f4c3-4b4a-b0de-00d05dd5e00a","ios":"levelo://app?vid=ecace67e-f4c3-4b4a-b0de-00d05dd5e00a"},"vehicle_type_id":"4","last_reported":1750785051,"current_range_meters":1600,"station_id":"ce4bhbh2rcd13ifvqepg","pricing_plan_id":"cebpf4jnsgd1na2vs0mg"},{"bike_id":"6d751cd9-b8b0-4e33-8860-ce9a0e531bf4","system_id":"levelo_inurba_marseille","lat":43.288392,"lon":5.384545,"is_reserved":false,"is_disabled":true,"rental_uris":{"android":"levelo://app?vid=6d751cd9-b8b0-4e33-8860-ce9a0e531bf4","ios":"levelo://app?vid=6d751cd9-b8b0-4e33-8860-ce9a0e531bf4"},"vehicle_type_id":"4","last_reported":1750785051,"current_range_meters":1600,"station_id":"ce4bhf92rcd13ifvqf40","pricing_plan_id":"cebpf4jnsgd1na2vs0mg"},{"bike_id":"57b8841d-0018-4eb3-b323-50947f25673b","system_id":"levelo_inurba_marseille","lat":43.25111,"lon":5.40317,"is_reserved":false,"is_disabled":true,"rental_uris":{"android":"levelo://app?vid=57b8841d-0018-4eb3-b323-50947f25673b","ios":"levelo://app?vid=57b8841d-0018-4eb3-b323-50947f25673b"},"vehicle_type_id":"4","last_reported":1750785051,"current_range_meters":2000,"station_id":"ce4bhlh2rcd13ifvqgig","pricing_plan_id":"cebpf4jnsgd1na2vs0mg"},{"bike_id":"6d81a28a-34ee-4d74-a981-cce9cf5f4c0e","system_id":"levelo_inurba_marseille","lat":43.32549,"lon":5.41437,"is_reserved":false,"is_disabled":true,"rental_uris":{"android":"levelo://app?vid=6d81a28a-34ee-4d74-a981-cce9cf5f4c0e","ios":"levelo://app?vid=6d81a28a-34ee-4d74-a981-cce9cf5f4c0e"},"vehicle_type_id":"4","last_reported":1750785051,"current_range_meters":2000,"station_id":"ce4bhq12rcd13ifvqhhg","pricing_plan_id":"cebpf4jnsgd1na2vs0mg"},{"bike_id":"e7ce7abf-9bb3-44af-8f88-d9d497a99e1d","system_id":"levelo_inurba_marseille","lat":43.28734,"lon":5.36084,"is_reserved":false,"is_disabled":true,"rental_uris":{"android":"levelo://app?vid=e7ce7abf-9bb3-44af-8f88-d9d497a99e1d","ios":"levelo://app?vid=e7ce7abf-9bb3-44af-8f88-d9d497a99e1d"},"vehicle_type_id":"4","last_reported":1750785051,"current_range_meters":2000,"station_id":"cki0cbj6b192h4jlfktg","pricing_plan_id":"cebpf4jnsgd1na2vs0mg"},{"bike_id":"4b51865d-7689-4312-90ec-3578d1f30155","system_id":"levelo_inurba_marseille","lat":43.31389,"lon":5.39177,"is_reserved":false,"is_disabled":false,"rental_uris":{"android":"levelo://app?vid=4b51865d-7689-4312-90ec-3578d1f30155","ios":"levelo://app?vid=4b51865d-7689-4312-90ec-3578d1f30155"},"vehicle_type_id":"4","last_reported":1750785051,"current_range_meters":2800,"station_id":"","pricing_plan_id":"cebpf4jnsgd1na2vs0mg"},{"bike_id":"75f2fac2-b7b5-4329-aff9-ace4e22ba420","system_id":"levelo_inurba_marseille","lat":43.28269,"lon":5.35059,"is_reserved":false,"is_disabled":false,"rental_uris":{"android":"levelo://app?vid=75f2fac2-b7b5-4329-aff9-ace4e22ba420","ios":"levelo://app?vid=75f2fac2-b7b5-4329-aff9-ace4e22ba420"},"vehicle_type_id":"4","last_reported":1750785051,"current_range_meters":2800,"station_id":"ce4bhbp2rcd13ifvqerg","pricing_plan_id":"cebpf4jnsgd1na2vs0mg"},{"bike_id":"bf95c770-a7ae-4ca5-94d2-f5a2677104a2","system_id":"levelo_inurba_marseille","lat":43.265568,"lon":5.372804,"is_reserved":false,"is_disabled":false,"rental_uris":{"android":"levelo://app?vid=bf95c770-a7ae-4ca5-94d2-f5a2677104a2","ios":"levelo://app?vid=bf95c770-a7ae-4ca5-94d2-f5a2677104a2"},"vehicle_type_id":"4","last_reported":1750785051,"current_range_meters":2800,"station_id":"ce4bhg12rcd13ifvqf70","pricing_plan_id":"cebpf4jnsgd1na2vs0mg"},{"bike_id":"9f8b3316-e05b-418a-b504-b15a0c777900","system_id":"levelo_inurba_marseille","lat":43.25503,"lon":5.37651,"is_reserved":false,"is_disabled":false,"rental_uris":{"android":"levelo://app?vid=9f8b3316-e05b-418a-b504-b15a0c777900","ios":"levelo://app?vid=9f8b3316-e05b-418a-b504-b15a0c777900"},"vehicle_type_id":"4","last_reported":1750785051,"current_range_meters":2800,"station_id":"ce4bhh12rcd13ifvqff0","pricing_plan_id":"cebpf4jnsgd1na2vs0mg"},{"bike_id":"e81c18d2-f641-45a1-942e-b8f2d2772e40","system_id":"levelo_inurba_marseille","lat":43.3153,"lon":5.38041,"is_reserved":false,"is_disabled":false,"rental_uris":{"android":"levelo://app?vid=e81c18d2-f641-45a1-942e-b8f2d2772e40","ios":"levelo://app?vid=e81c18d2-f641-45a1-942e-b8f2d2772e40"},"vehicle_type_id":"4","last_reported":1750785051,"current_range_meters":2800,"station_id":"ce4bhsp2rcd13ifvqi50","pricing_plan_id":"cebpf4jnsgd1na2vs0mg"},{"bike_id":"8c6de0c1-9eaf-4c18-8155-d956789067ae","system_id":"levelo_inurba_marseille","lat":43.279462,"lon":5.442468,"is_reserved":false,"is_disabled":false,"rental_uris":{"android":"levelo://app?vid=8c6de0c1-9eaf-4c18-8155-d956789067ae","ios":"levelo://app?vid=8c6de0c1-9eaf-4c18-8155-d956789067ae"},"vehicle_type_id":"4","last_reported":1750785051,"current_range_meters":3200,"station_id":"","pricing_plan_id":"cebpf4jnsgd1na2vs0mg"},{"bike_id":"a9e5e555-fdaf-49c0-b286-f0f2659b17d0","system_id":"levelo_inurba_marseille","lat":43.28321,"lon":5.43239,"is_reserved":false,"is_disabled":false,"rental_uris":{"android":"levelo://app?vid=a9e5e555-fdaf-49c0-b286-f0f2659b17d0","ios":"levelo://app?vid=a9e5e555-fdaf-49c0-b286-f0f2659b17d0"},"vehicle_type_id":"4","last_reported":1750785051,"current_range_meters":3200,"station_id":"","pricing_plan_id":"cebpf4jnsgd1na2vs0mg"},{"bike_id":"702fd56d-88d0-41d9-a07e-6b1323fce4c8","system_id":"levelo_inurba_marseille","lat":43.28413,"lon":5.34981,"is_reserved":false,"is_disabled":false,"rental_uris":{"android":"levelo://app?vid=702fd56d-88d0-41d9-a07e-6b1323fce4c8","ios":"levelo://app?vid=702fd56d-88d0-41d9-a07e-6b1323fce4c8"},"vehicle_type_id":"4","last_reported":1750785051,"current_range_meters":4000,"station_id":"ce4bhbh2rcd13ifvqepg","pricing_plan_id":"cebpf4jnsgd1na2vs0mg"},{"bike_id":"94d26be6-e56e-4025-a044-5d1586c782d5","system_id":"levelo_inurba_marseille","lat":43.26214,"lon":5.404723,"is_reserved":false,"is_disabled":false,"rental_uris":{"android":"levelo://app?vid=94d26be6-e56e-4025-a044-5d1586c782d5","ios":"levelo://app?vid=94d26be6-e56e-4025-a044-5d1586c782d5"},"vehicle_type_id":"4","last_reported":1750785051,"current_range_meters":4000,"station_id":"ce4bhmh2rcd13ifvqgmg","pricing_plan_id":"cebpf4jnsgd1na2vs0mg"},{"bike_id":"17d0afaa-6951-4dde-a43d-60017e75021c","system_id":"levelo_inurba_marseille","lat":43.291681,"lon":5.421175,"is_reserved":false,"is_disabled":false,"rental_uris":{"android":"levelo://app?vid=17d0afaa-6951-4dde-a43d-60017e75021c","ios":"levelo://app?vid=17d0afaa-6951-4dde-a43d-60017e75021c"},"vehicle_type_id":"4","last_reported":1750785051,"current_range_meters":4400,"station_id":"","pricing_plan_id":"cebpf4jnsgd1na2vs0mg"},{"bike_id":"84afb7c4-cc57-4d84-af92-97df9c95f2f9","system_id":"levelo_inurba_marseille","lat":43.27617,"lon":5.36105,"is_reserved":false,"is_disabled":false,"rental_uris":{"android":"levelo://app?vid=84afb7c4-cc57-4d84-af92-97df9c95f2f9","ios":"levelo://app?vid=84afb7c4-cc57-4d84-af92-97df9c95f2f9"},"vehicle_type_id":"4","last_reported":1750785051,"current_range_meters":4400,"station_id":"ce4bgj92rcd13ifvqbe0","pricing_plan_id":"cebpf4jnsgd1na2vs0mg"},{"bike_id":"981ebd54-81e1-4e5f-a21e-5a165f2a6051","system_id":"levelo_inurba_marseille","lat":43.29715,"lon":5.36599,"is_reserved":false,"is_disabled":false,"rental_uris":{"android":"levelo://app?vid=981ebd54-81e1-4e5f-a21e-5a165f2a6051","ios":"levelo://app?vid=981ebd54-81e1-4e5f-a21e-5a165f2a6051"},"vehicle_type_id":"4","last_reported":1750785051,"current_range_meters":4400,"station_id":"ce4bgn12rcd13ifvqbt0","pricing_plan_id":"cebpf4jnsgd1na2vs0mg"},{"bike_id":"f2cc24b8-e3f7-43d1-9522-61ac8ab63df4","system_id":"levelo_inurba_marseille","lat":43.30332,"lon":5.40435,"is_reserved":false,"is_disabled":false,"rental_uris":{"android":"levelo://app?vid=f2cc24b8-e3f7-43d1-9522-61ac8ab63df4","ios":"levelo://app?vid=f2cc24b8-e3f7-43d1-9522-61ac8ab63df4"},"vehicle_type_id":"4","last_reported":1750785051,"current_range_meters":4400,"station_id":"ce4bh012rcd13ifvqd10","pricing_plan_id":"cebpf4jnsgd1na2vs0mg"},{"bike_id":"dd87fc53-9fd3-4e74-ab55-9141c3bda040","system_id":"levelo_inurba_marseille","lat":43.28379,"lon":5.38627,"is_reserved":false,"is_disabled":false,"rental_uris":{"android":"levelo://app?vid=dd87fc53-9fd3-4e74-ab55-9141c3bda040","ios":"levelo://app?vid=dd87fc53-9fd3-4e74-ab55-9141c3bda040"},"vehicle_type_id":"4","last_reported":1750785051,"current_range_meters":4400,"station_id":"ce4bh492rcd13ifvqdvg","pricing_plan_id":"cebpf4jnsgd1na2vs0mg"},{"bike_id":"a0b5345c-34ae-4d28-80ee-0f0c060ba605","system_id":"levelo_inurba_marseille","lat":43.23181,"lon":5.39983,"is_reserved":false,"is_disabled":false,"rental_uris":{"android":"levelo://app?vid=a0b5345c-34ae-4d28-80ee-0f0c060ba605","ios":"levelo://app?vid=a0b5345c-34ae-4d28-80ee-0f0c060ba605"},"vehicle_type_id":"4","last_reported":1750785051,"current_range_meters":4400,"station_id":"ce4bhn12rcd13ifvqgqg","pricing_plan_id":"cebpf4jnsgd1na2vs0mg"},{"bike_id":"11bee3f8-8cb8-432f-b3da-def02819bb46","system_id":"levelo_inurba_marseille","lat":43.27956,"lon":5.44323,"is_reserved":false,"is_disabled":false,"rental_uris":{"android":"levelo://app?vid=11bee3f8-8cb8-432f-b3da-def02819bb46","ios":"levelo://app?vid=11bee3f8-8cb8-432f-b3da-def02819bb46"},"vehicle_type_id":"4","last_reported":1750785051,"current_range_meters":4800,"station_id":"","pricing_plan_id":"cebpf4jnsgd1na2vs0mg"},{"bike_id":"d263740e-ecb2-4e47-bc8f-13769af6be07","system_id":"levelo_inurba_marseille","lat":43.28943,"lon":5.36638,"is_reserved":false,"is_disabled":false,"rental_uris":{"android":"levelo://app?vid=d263740e-ecb2-4e47-bc8f-13769af6be07","ios":"levelo://app?vid=d263740e-ecb2-4e47-bc8f-13769af6be07"},"vehicle_type_id":"4","last_reported":1750785051,"current_range_meters":4800,"station_id":"ce4bhap2rcd13ifvqek0","pricing_plan_id":"cebpf4jnsgd1na2vs0mg"},{"bike_id":"a22f8c68-7b1f-4173-9b85-f07c024ccae9","system_id":"levelo_inurba_marseille","lat":43.290067,"lon":5.356091,"is_reserved":false,"is_disabled":false,"rental_uris":{"android":"levelo://app?vid=a22f8c68-7b1f-4173-9b85-f07c024ccae9","ios":"levelo://app?vid=a22f8c68-7b1f-4173-9b85-f07c024ccae9"},"vehicle_type_id":"4","last_reported":1750785051,"current_range_meters":4800,"station_id":"ce4bhb92rcd13ifvqen0","pricing_plan_id":"cebpf4jnsgd1na2vs0mg"},{"bike_id":"36552633-5d55-48cd-bf74-28b78e6ae7e0","system_id":"levelo_inurba_marseille","lat":43.24081,"lon":5.37753,"is_reserved":false,"is_disabled":false,"rental_uris":{"android":"levelo://app?vid=36552633-5d55-48cd-bf74-28b78e6ae7e0","ios":"levelo://app?vid=36552633-5d55-48cd-bf74-28b78e6ae7e0"},"vehicle_type_id":"4","last_reported":1750785051,"current_range_meters":4800,"station_id":"ce4bhnp2rcd13ifvqgvg","pricing_plan_id":"cebpf4jnsgd1na2vs0mg"},{"bike_id":"f2983d1e-0a68-49b0-85e2-cb7ac837c17d","system_id":"levelo_inurba_marseille","lat":43.32479,"lon":5.36569,"is_reserved":false,"is_disabled":false,"rental_uris":{"android":"levelo://app?vid=f2983d1e-0a68-49b0-85e2-cb7ac837c17d","ios":"levelo://app?vid=f2983d1e-0a68-49b0-85e2-cb7ac837c17d"},"vehicle_type_id":"4","last_reported":1750785051,"current_range_meters":4800,"station_id":"ce4bhs12rcd13ifvqhvg","pricing_plan_id":"cebpf4jnsgd1na2vs0mg"},{"bike_id":"2e5fa129-2414-4a86-95f1-c31efcbcf423","system_id":"levelo_inurba_marseille","lat":43.29035,"lon":5.37568,"is_reserved":false,"is_disabled":false,"rental_uris":{"android":"levelo://app?vid=2e5fa129-2414-4a86-95f1-c31efcbcf423","ios":"levelo://app?vid=2e5fa129-2414-4a86-95f1-c31efcbcf423"},"vehicle_type_id":"4","last_reported":1750785051,"current_range_meters":5600,"station_id":"ce4bh692rcd13ifvqe90","pricing_plan_id":"cebpf4jnsgd1na2vs0mg"},{"bike_id":"70764641-799a-4261-99bd-903918c1b74a","system_id":"levelo_inurba_marseille","lat":43.32773,"lon":5.38109,"is_reserved":false,"is_disabled":false,"rental_uris":{"android":"levelo://app?vid=70764641-799a-4261-99bd-903918c1b74a","ios":"levelo://app?vid=70764641-799a-4261-99bd-903918c1b74a"},"vehicle_type_id":"4","last_reported":1750785051,"current_range_meters":6000,"station_id":"","pricing_plan_id":"cebpf4jnsgd1na2vs0mg"},{"bike_id":"812ed64a-d77e-45ca-bd16-2819bfe1369e","system_id":"levelo_inurba_marseille","lat":43.27371,"lon":5.36245,"is_reserved":false,"is_disabled":false,"rental_uris":{"android":"levelo://app?vid=812ed64a-d77e-45ca-bd16-2819bfe1369e","ios":"levelo://app?vid=812ed64a-d77e-45ca-bd16-2819bfe1369e"},"vehicle_type_id":"4","last_reported":1750785051,"current_range_meters":6400,"station_id":"ce4bhbh2rcd13ifvqeo0","pricing_plan_id":"cebpf4jnsgd1na2vs0mg"},{"bike_id":"39556b21-077a-48cc-b8de-87c1fea7edf6","system_id":"levelo_inurba_marseille","lat":43.27379,"lon":5.36258,"is_reserved":false,"is_disabled":false,"rental_uris":{"android":"levelo://app?vid=39556b21-077a-48cc-b8de-87c1fea7edf6","ios":"levelo://app?vid=39556b21-077a-48cc-b8de-87c1fea7edf6"},"vehicle_type_id":"4","last_reported":1750785051,"current_range_meters":6400,"station_id":"ce4bhbh2rcd13ifvqeo0","pricing_plan_id":"cebpf4jnsgd1na2vs0mg"},{"bike_id":"2625ccf3-086a-465b-884e-a555bc0d6ac0","system_id":"levelo_inurba_marseille","lat":43.28404,"lon":5.34986,"is_reserved":false,"is_disabled":false,"rental_uris":{"android":"levelo://app?vid=2625ccf3-086a-465b-884e-a555bc0d6ac0","ios":"levelo://app?vid=2625ccf3-086a-465b-884e-a555bc0d6ac0"},"vehicle_type_id":"4","last_reported":1750785051,"current_range_meters":6400,"station_id":"ce4bhbh2rcd13ifvqepg","pricing_plan_id":"cebpf4jnsgd1na2vs0mg"},{"bike_id":"8c52b308-7389-4a8b-9997-1ec6f0c5a796","system_id":"levelo_inurba_marseille","lat":43.28433,"lon":5.3499,"is_reserved":false,"is_disabled":false,"rental_uris":{"android":"levelo://app?vid=8c52b308-7389-4a8b-9997-1ec6f0c5a796","ios":"levelo://app?vid=8c52b308-7389-4a8b-9997-1ec6f0c5a796"},"vehicle_type_id":"4","last_reported":1750785051,"current_range_meters":6400,"station_id":"ce4bhbh2rcd13ifvqepg","pricing_plan_id":"cebpf4jnsgd1na2vs0mg"},{"bike_id":"9b953e0d-07e3-4e1a-b59a-000072d1a0fa","system_id":"levelo_inurba_marseille","lat":43.27906,"lon":5.38019,"is_reserved":false,"is_disabled":false,"rental_uris":{"android":"levelo://app?vid=9b953e0d-07e3-4e1a-b59a-000072d1a0fa","ios":"levelo://app?vid=9b953e0d-07e3-4e1a-b59a-000072d1a0fa"},"vehicle_type_id":"4","last_reported":1750785051,"current_range_meters":6400,"station_id":"ce4bhf92rcd13ifvqf50","pricing_plan_id":"cebpf4jnsgd1na2vs0mg"},{"bike_id":"34d55f23-45c1-4cee-888d-8f51f3b0ae80","system_id":"levelo_inurba_marseille","lat":43.32421,"lon":5.43648,"is_reserved":false,"is_disabled":false,"rental_uris":{"android":"levelo://app?vid=34d55f23-45c1-4cee-888d-8f51f3b0ae80","ios":"levelo://app?vid=34d55f23-45c1-4cee-888d-8f51f3b0ae80"},"vehicle_type_id":"4","last_reported":1750785051,"current_range_meters":6800,"station_id":"","pricing_plan_id":"cebpf4jnsgd1na2vs0mg"},{"bike_id":"bdc90c22-dab6-48a5-bf77-7d930240196c","system_id":"levelo_inurba_marseille","lat":43.27614,"lon":5.36103,"is_reserved":false,"is_disabled":false,"rental_uris":{"android":"levelo://app?vid=bdc90c22-dab6-48a5-bf77-7d930240196c","ios":"levelo://app?vid=bdc90c22-dab6-48a5-bf77-7d930240196c"},"vehicle_type_id":"4","last_reported":1750785051,"current_range_meters":6800,"station_id":"ce4bgj92rcd13ifvqbe0","pricing_plan_id":"cebpf4jnsgd1na2vs0mg"},{"bike_id":"76ab925a-2372-4989-b438-a9961d91601a","system_id":"levelo_inurba_marseille","lat":43.26209,"lon":5.3744,"is_reserved":false,"is_disabled":false,"rental_uris":{"android":"levelo://app?vid=76ab925a-2372-4989-b438-a9961d91601a","ios":"levelo://app?vid=76ab925a-2372-4989-b438-a9961d91601a"},"vehicle_type_id":"4","last_reported":1750785051,"current_range_meters":6800,"station_id":"ce4bhgp2rcd13ifvqfc0","pricing_plan_id":"cebpf4jnsgd1na2vs0mg"},{"bike_id":"18d247cf-107f-4f04-9e26-16c90822f5d7","system_id":"levelo_inurba_marseille","lat":43.25722,"lon":5.41112,"is_reserved":false,"is_disabled":false,"rental_uris":{"android":"levelo://app?vid=18d247cf-107f-4f04-9e26-16c90822f5d7","ios":"levelo://app?vid=18d247cf-107f-4f04-9e26-16c90822f5d7"},"vehicle_type_id":"4","last_reported":1750785051,"current_range_meters":6800,"station_id":"ce4bhkp2rcd13ifvqgd0","pricing_plan_id":"cebpf4jnsgd1na2vs0mg"},{"bike_id":"0e64329e-8834-42a5-b994-0b6ca4b6d3da","system_id":"levelo_inurba_marseille","lat":43.29933,"lon":5.36543,"is_reserved":false,"is_disabled":false,"rental_uris":{"android":"levelo://app?vid=0e64329e-8834-42a5-b994-0b6ca4b6d3da","ios":"levelo://app?vid=0e64329e-8834-42a5-b994-0b6ca4b6d3da"},"vehicle_type_id":"4","last_reported":1750785051,"current_range_meters":7200,"station_id":"ce4bgm92rcd13ifvqbr0","pricing_plan_id":"cebpf4jnsgd1na2vs0mg"},{"bike_id":"5b0e3a52-29f1-4930-90af-65684bf2b236","system_id":"levelo_inurba_marseille","lat":43.29037,"lon":5.39967,"is_reserved":false,"is_disabled":false,"rental_uris":{"android":"levelo://app?vid=5b0e3a52-29f1-4930-90af-65684bf2b236","ios":"levelo://app?vid=5b0e3a52-29f1-4930-90af-65684bf2b236"},"vehicle_type_id":"4","last_reported":1750785051,"current_range_meters":7200,"station_id":"ce4bh392rcd13ifvqdm0","pricing_plan_id":"cebpf4jnsgd1na2vs0mg"},{"bike_id":"0b6455cb-38cb-4edc-83aa-17ebe22a74f4","system_id":"levelo_inurba_marseille","lat":43.27382,"lon":5.362696,"is_reserved":false,"is_disabled":false,"rental_uris":{"android":"levelo://app?vid=0b6455cb-38cb-4edc-83aa-17ebe22a74f4","ios":"levelo://app?vid=0b6455cb-38cb-4edc-83aa-17ebe22a74f4"},"vehicle_type_id":"4","last_reported":1750785051,"current_range_meters":7200,"station_id":"ce4bhbh2rcd13ifvqeo0","pricing_plan_id":"cebpf4jnsgd1na2vs0mg"},{"bike_id":"cb2eb46e-9bff-4868-80ba-f19c97f460d0","system_id":"levelo_inurba_marseille","lat":43.27371,"lon":5.36247,"is_reserved":false,"is_disabled":false,"rental_uris":{"android":"levelo://app?vid=cb2eb46e-9bff-4868-80ba-f19c97f460d0","ios":"levelo://app?vid=cb2eb46e-9bff-4868-80ba-f19c97f460d0"},"vehicle_type_id":"4","last_reported":1750785051,"current_range_meters":7200,"station_id":"ce4bhbh2rcd13ifvqeo0","pricing_plan_id":"cebpf4jnsgd1na2vs0mg"},{"bike_id":"88230a78-9fbf-4e6f-8358-9006acfaa40c","system_id":"levelo_inurba_marseille","lat":43.25002,"lon":5.38922,"is_reserved":false,"is_disabled":false,"rental_uris":{"android":"levelo://app?vid=88230a78-9fbf-4e6f-8358-9006acfaa40c","ios":"levelo://app?vid=88230a78-9fbf-4e6f-8358-9006acfaa40c"},"vehicle_type_id":"4","last_reported":1750785051,"current_range_meters":7200,"station_id":"ce4bhgp2rcd13ifvqfd0","pricing_plan_id":"cebpf4jnsgd1na2vs0mg"},{"bike_id":"28b33e7e-ec8c-4fe2-81b1-dba5181cfbc3","system_id":"levelo_inurba_marseille","lat":43.29905,"lon":5.43658,"is_reserved":false,"is_disabled":false,"rental_uris":{"android":"levelo://app?vid=28b33e7e-ec8c-4fe2-81b1-dba5181cfbc3","ios":"levelo://app?vid=28b33e7e-ec8c-4fe2-81b1-dba5181cfbc3"},"vehicle_type_id":"4","last_reported":1750785051,"current_range_meters":7200,"station_id":"ce4bhpp2rcd13ifvqhfg","pricing_plan_id":"cebpf4jnsgd1na2vs0mg"},{"bike_id":"6dc4c6a3-5f27-42e4-90c9-df1f8af50e13","system_id":"levelo_inurba_marseille","lat":43.32055,"lon":5.41528,"is_reserved":false,"is_disabled":false,"rental_uris":{"android":"levelo://app?vid=6dc4c6a3-5f27-42e4-90c9-df1f8af50e13","ios":"levelo://app?vid=6dc4c6a3-5f27-42e4-90c9-df1f8af50e13"},"vehicle_type_id":"4","last_reported":1750785051,"current_range_meters":7200,"station_id":"ce4bhq92rcd13ifvqhkg","pricing_plan_id":"cebpf4jnsgd1na2vs0mg"},{"bike_id":"d6f56af5-a6a3-466b-937f-f1e8b4a21463","system_id":"levelo_inurba_marseille","lat":43.323662,"lon":5.367502,"is_reserved":false,"is_disabled":false,"rental_uris":{"android":"levelo://app?vid=d6f56af5-a6a3-466b-937f-f1e8b4a21463","ios":"levelo://app?vid=d6f56af5-a6a3-466b-937f-f1e8b4a21463"},"vehicle_type_id":"4","last_reported":1750785051,"current_range_meters":7200,"station_id":"ce4bhsh2rcd13ifvqi2g","pricing_plan_id":"cebpf4jnsgd1na2vs0mg"},{"bike_id":"3c7cd804-14f7-4f38-b4d1-7a828d095937","system_id":"levelo_inurba_marseille","lat":43.24166,"lon":5.36393,"is_reserved":false,"is_disabled":false,"rental_uris":{"android":"levelo://app?vid=3c7cd804-14f7-4f38-b4d1-7a828d095937","ios":"levelo://app?vid=3c7cd804-14f7-4f38-b4d1-7a828d095937"},"vehicle_type_id":"4","last_reported":1750785051,"current_range_meters":7200,"station_id":"cpo36qri1sfpv3e86is0","pricing_plan_id":"cebpf4jnsgd1na2vs0mg"},{"bike_id":"465d2323-f97d-48b0-a820-bc5fa54ae0fa","system_id":"levelo_inurba_marseille","lat":43.28405,"lon":5.46003,"is_reserved":false,"is_disabled":false,"rental_uris":{"android":"levelo://app?vid=465d2323-f97d-48b0-a820-bc5fa54ae0fa","ios":"levelo://app?vid=465d2323-f97d-48b0-a820-bc5fa54ae0fa"},"vehicle_type_id":"4","last_reported":1750785051,"current_range_meters":8000,"station_id":"","pricing_plan_id":"cebpf4jnsgd1na2vs0mg"},{"bike_id":"2b536ce5-e6f9-4d94-b336-cc1b83fe70b1","system_id":"levelo_inurba_marseille","lat":43.30216,"lon":5.39464,"is_reserved":false,"is_disabled":false,"rental_uris":{"android":"levelo://app?vid=2b536ce5-e6f9-4d94-b336-cc1b83fe70b1","ios":"levelo://app?vid=2b536ce5-e6f9-4d94-b336-cc1b83fe70b1"},"vehicle_type_id":"4","last_reported":1750785051,"current_range_meters":8000,"station_id":"ce4bh0p2rcd13ifvqd70","pricing_plan_id":"cebpf4jnsgd1na2vs0mg"},{"bike_id":"dac4e50b-2af6-4f76-b9c1-07dd158f6f51","system_id":"levelo_inurba_marseille","lat":43.2901,"lon":5.35609,"is_reserved":false,"is_disabled":false,"rental_uris":{"android":"levelo://app?vid=dac4e50b-2af6-4f76-b9c1-07dd158f6f51","ios":"levelo://app?vid=dac4e50b-2af6-4f76-b9c1-07dd158f6f51"},"vehicle_type_id":"4","last_reported":1750785051,"current_range_meters":8000,"station_id":"ce4bhb92rcd13ifvqen0","pricing_plan_id":"cebpf4jnsgd1na2vs0mg"},{"bike_id":"113b198a-6e1b-46eb-8e6f-7d0d14639408","system_id":"levelo_inurba_marseille","lat":43.28783,"lon":5.36364,"is_reserved":false,"is_disabled":false,"rental_uris":{"android":"levelo://app?vid=113b198a-6e1b-46eb-8e6f-7d0d14639408","ios":"levelo://app?vid=113b198a-6e1b-46eb-8e6f-7d0d14639408"},"vehicle_type_id":"4","last_reported":1750785051,"current_range_meters":8400,"station_id":"","pricing_plan_id":"cebpf4jnsgd1na2vs0mg"},{"bike_id":"bc81ac91-98d0-49d9-adf0-16b649c79fb9","system_id":"levelo_inurba_marseille","lat":43.28278,"lon":5.35067,"is_reserved":false,"is_disabled":false,"rental_uris":{"android":"levelo://app?vid=bc81ac91-98d0-49d9-adf0-16b649c79fb9","ios":"levelo://app?vid=bc81ac91-98d0-49d9-adf0-16b649c79fb9"},"vehicle_type_id":"4","last_reported":1750785051,"current_range_meters":8400,"station_id":"ce4bhbp2rcd13ifvqerg","pricing_plan_id":"cebpf4jnsgd1na2vs0mg"},{"bike_id":"35ac6508-6ddc-4306-be12-24fec15118a1","system_id":"levelo_inurba_marseille","lat":43.27056,"lon":5.40253,"is_reserved":false,"is_disabled":false,"rental_uris":{"android":"levelo://app?vid=35ac6508-6ddc-4306-be12-24fec15118a1","ios":"levelo://app?vid=35ac6508-6ddc-4306-be12-24fec15118a1"},"vehicle_type_id":"4","last_reported":1750785051,"current_range_meters":8400,"station_id":"ce4bhk92rcd13ifvqgc0","pricing_plan_id":"cebpf4jnsgd1na2vs0mg"},{"bike_id":"06c97ece-9be7-4345-b72a-aea6486b7724","system_id":"levelo_inurba_marseille","lat":43.217625,"lon":5.345968,"is_reserved":false,"is_disabled":false,"rental_uris":{"android":"levelo://app?vid=06c97ece-9be7-4345-b72a-aea6486b7724","ios":"levelo://app?vid=06c97ece-9be7-4345-b72a-aea6486b7724"},"vehicle_type_id":"4","last_reported":1750785051,"current_range_meters":8400,"station_id":"st_cvj6r9ubvosntc0bgbag","pricing_plan_id":"cebpf4jnsgd1na2vs0mg"},{"bike_id":"a092c41c-0118-4d86-b43e-981a2615e33e","system_id":"levelo_inurba_marseille","lat":43.3469,"lon":5.34531,"is_reserved":false,"is_disabled":false,"rental_uris":{"android":"levelo://app?vid=a092c41c-0118-4d86-b43e-981a2615e33e","ios":"levelo://app?vid=a092c41c-0118-4d86-b43e-981a2615e33e"},"vehicle_type_id":"4","last_reported":1750785051,"current_range_meters":8800,"station_id":"","pricing_plan_id":"cebpf4jnsgd1na2vs0mg"},{"bike_id":"e127ef7e-24d3-4248-81fa-66c5e7c3e582","system_id":"levelo_inurba_marseille","lat":43.29616,"lon":5.37939,"is_reserved":false,"is_disabled":false,"rental_uris":{"android":"levelo://app?vid=e127ef7e-24d3-4248-81fa-66c5e7c3e582","ios":"levelo://app?vid=e127ef7e-24d3-4248-81fa-66c5e7c3e582"},"vehicle_type_id":"4","last_reported":1750785051,"current_range_meters":8800,"station_id":"","pricing_plan_id":"cebpf4jnsgd1na2vs0mg"},{"bike_id":"234e0a22-f939-4bc7-b32c-1a974afb99c3","system_id":"levelo_inurba_marseille","lat":43.281846,"lon":5.351118,"is_reserved":false,"is_disabled":false,"rental_uris":{"android":"levelo://app?vid=234e0a22-f939-4bc7-b32c-1a974afb99c3","ios":"levelo://app?vid=234e0a22-f939-4bc7-b32c-1a974afb99c3"},"vehicle_type_id":"4","last_reported":1750785051,"current_range_meters":8800,"station_id":"ce4bgih2rcd13ifvqba0","pricing_plan_id":"cebpf4jnsgd1na2vs0mg"},{"bike_id":"d86a7b07-3b84-400d-bc9f-f2c9412a5abf","system_id":"levelo_inurba_marseille","lat":43.24812,"lon":5.37455,"is_reserved":false,"is_disabled":false,"rental_uris":{"android":"levelo://app?vid=d86a7b07-3b84-400d-bc9f-f2c9412a5abf","ios":"levelo://app?vid=d86a7b07-3b84-400d-bc9f-f2c9412a5abf"},"vehicle_type_id":"4","last_reported":1750785051,"current_range_meters":8800,"station_id":"ce4bhgh2rcd13ifvqfb0","pricing_plan_id":"cebpf4jnsgd1na2vs0mg"},{"bike_id":"fb2bf27e-4100-46ad-bccb-6469d078d3f7","system_id":"levelo_inurba_marseille","lat":43.28157,"lon":5.42639,"is_reserved":false,"is_disabled":false,"rental_uris":{"android":"levelo://app?vid=fb2bf27e-4100-46ad-bccb-6469d078d3f7","ios":"levelo://app?vid=fb2bf27e-4100-46ad-bccb-6469d078d3f7"},"vehicle_type_id":"4","last_reported":1750785051,"current_range_meters":8800,"station_id":"ce4bhnh2rcd13ifvqgug","pricing_plan_id":"cebpf4jnsgd1na2vs0mg"},{"bike_id":"8117a8e7-112a-4c7c-accf-97908e586e88","system_id":"levelo_inurba_marseille","lat":43.21754,"lon":5.34595,"is_reserved":false,"is_disabled":false,"rental_uris":{"android":"levelo://app?vid=8117a8e7-112a-4c7c-accf-97908e586e88","ios":"levelo://app?vid=8117a8e7-112a-4c7c-accf-97908e586e88"},"vehicle_type_id":"4","last_reported":1750785051,"current_range_meters":8800,"station_id":"st_cvj6r9ubvosntc0bgbag","pricing_plan_id":"cebpf4jnsgd1na2vs0mg"},{"bike_id":"f333bcb3-17e0-43f1-847f-eb3d745e3e41","system_id":"levelo_inurba_marseille","lat":43.29354,"lon":5.42838,"is_reserved":false,"is_disabled":false,"rental_uris":{"android":"levelo://app?vid=f333bcb3-17e0-43f1-847f-eb3d745e3e41","ios":"levelo://app?vid=f333bcb3-17e0-43f1-847f-eb3d745e3e41"},"vehicle_type_id":"4","last_reported":1750785051,"current_range_meters":9200,"station_id":"","pricing_plan_id":"cebpf4jnsgd1na2vs0mg"},{"bike_id":"d647d82e-58fb-4efa-913b-7b5c87759cda","system_id":"levelo_inurba_marseille","lat":43.268225,"lon":5.394695,"is_reserved":false,"is_disabled":false,"rental_uris":{"android":"levelo://app?vid=d647d82e-58fb-4efa-913b-7b5c87759cda","ios":"levelo://app?vid=d647d82e-58fb-4efa-913b-7b5c87759cda"},"vehicle_type_id":"4","last_reported":1750785051,"current_range_meters":9200,"station_id":"","pricing_plan_id":"cebpf4jnsgd1na2vs0mg"},{"bike_id":"116c708a-c55a-4123-98c9-19db28998815","system_id":"levelo_inurba_marseille","lat":43.30541,"lon":5.38429,"is_reserved":false,"is_disabled":false,"rental_uris":{"android":"levelo://app?vid=116c708a-c55a-4123-98c9-19db28998815","ios":"levelo://app?vid=116c708a-c55a-4123-98c9-19db28998815"},"vehicle_type_id":"4","last_reported":1750785051,"current_range_meters":9200,"station_id":"ce4bgg92rcd13ifvqb30","pricing_plan_id":"cebpf4jnsgd1na2vs0mg"},{"bike_id":"b0e984a3-506d-4d2d-a80a-13dc42d99bb0","system_id":"levelo_inurba_marseille","lat":43.27623,"lon":5.36117,"is_reserved":false,"is_disabled":false,"rental_uris":{"android":"levelo://app?vid=b0e984a3-506d-4d2d-a80a-13dc42d99bb0","ios":"levelo://app?vid=b0e984a3-506d-4d2d-a80a-13dc42d99bb0"},"vehicle_type_id":"4","last_reported":1750785051,"current_range_meters":9200,"station_id":"ce4bgj92rcd13ifvqbe0","pricing_plan_id":"cebpf4jnsgd1na2vs0mg"},{"bike_id":"a1ac7002-6f42-4262-ba44-ff6a0b2f186d","system_id":"levelo_inurba_marseille","lat":43.27394,"lon":5.36267,"is_reserved":false,"is_disabled":false,"rental_uris":{"android":"levelo://app?vid=a1ac7002-6f42-4262-ba44-ff6a0b2f186d","ios":"levelo://app?vid=a1ac7002-6f42-4262-ba44-ff6a0b2f186d"},"vehicle_type_id":"4","last_reported":1750785051,"current_range_meters":9200,"station_id":"ce4bhbh2rcd13ifvqeo0","pricing_plan_id":"cebpf4jnsgd1na2vs0mg"},{"bike_id":"ef93b99c-1a34-40d1-825c-91891b1e8024","system_id":"levelo_inurba_marseille","lat":43.28424,"lon":5.34992,"is_reserved":false,"is_disabled":false,"rental_uris":{"android":"levelo://app?vid=ef93b99c-1a34-40d1-825c-91891b1e8024","ios":"levelo://app?vid=ef93b99c-1a34-40d1-825c-91891b1e8024"},"vehicle_type_id":"4","last_reported":1750785051,"current_range_meters":9200,"station_id":"ce4bhbh2rcd13ifvqepg","pricing_plan_id":"cebpf4jnsgd1na2vs0mg"},{"bike_id":"f5392016-9898-4663-9d8a-ba69f9230d26","system_id":"levelo_inurba_marseille","lat":43.28608,"lon":5.35107,"is_reserved":false,"is_disabled":false,"rental_uris":{"android":"levelo://app?vid=f5392016-9898-4663-9d8a-ba69f9230d26","ios":"levelo://app?vid=f5392016-9898-4663-9d8a-ba69f9230d26"},"vehicle_type_id":"4","last_reported":1750785051,"current_range_meters":9200,"station_id":"ce4bhch2rcd13ifvqeug","pricing_plan_id":"cebpf4jnsgd1na2vs0mg"},{"bike_id":"19b8a25a-afbb-4e0f-8dd2-713254395e78","system_id":"levelo_inurba_marseille","lat":43.30421,"lon":5.41279,"is_reserved":false,"is_disabled":false,"rental_uris":{"android":"levelo://app?vid=19b8a25a-afbb-4e0f-8dd2-713254395e78","ios":"levelo://app?vid=19b8a25a-afbb-4e0f-8dd2-713254395e78"},"vehicle_type_id":"4","last_reported":1750785051,"current_range_meters":9200,"station_id":"ce4bhop2rcd13ifvqh8g","pricing_plan_id":"cebpf4jnsgd1na2vs0mg"},{"bike_id":"3bf3fd8a-1cc2-402d-b7ad-7c87ae17ad03","system_id":"levelo_inurba_marseille","lat":43.22927,"lon":5.353845,"is_reserved":false,"is_disabled":false,"rental_uris":{"android":"levelo://app?vid=3bf3fd8a-1cc2-402d-b7ad-7c87ae17ad03","ios":"levelo://app?vid=3bf3fd8a-1cc2-402d-b7ad-7c87ae17ad03"},"vehicle_type_id":"4","last_reported":1750785051,"current_range_meters":9200,"station_id":"cpo3532slgdg3j2ikp40","pricing_plan_id":"cebpf4jnsgd1na2vs0mg"},{"bike_id":"82daa609-66e4-4b91-8a1c-a20f4b557675","system_id":"levelo_inurba_marseille","lat":43.30336,"lon":5.36691,"is_reserved":false,"is_disabled":false,"rental_uris":{"android":"levelo://app?vid=82daa609-66e4-4b91-8a1c-a20f4b557675","ios":"levelo://app?vid=82daa609-66e4-4b91-8a1c-a20f4b557675"},"vehicle_type_id":"4","last_reported":1750785051,"current_range_meters":9600,"station_id":"","pricing_plan_id":"cebpf4jnsgd1na2vs0mg"},{"bike_id":"29210238-dfea-4a30-bf93-fb55d62ea08b","system_id":"levelo_inurba_marseille","lat":43.28145,"lon":5.42646,"is_reserved":false,"is_disabled":false,"rental_uris":{"android":"levelo://app?vid=29210238-dfea-4a30-bf93-fb55d62ea08b","ios":"levelo://app?vid=29210238-dfea-4a30-bf93-fb55d62ea08b"},"vehicle_type_id":"4","last_reported":1750785051,"current_range_meters":9600,"station_id":"ce4bhnh2rcd13ifvqgug","pricing_plan_id":"cebpf4jnsgd1na2vs0mg"},{"bike_id":"8ef2c4a7-081f-448c-80f1-8efd1e517792","system_id":"levelo_inurba_marseille","lat":43.318847,"lon":5.407413,"is_reserved":false,"is_disabled":false,"rental_uris":{"android":"levelo://app?vid=8ef2c4a7-081f-448c-80f1-8efd1e517792","ios":"levelo://app?vid=8ef2c4a7-081f-448c-80f1-8efd1e517792"},"vehicle_type_id":"4","last_reported":1750785051,"current_range_meters":9600,"station_id":"ce4bhq12rcd13ifvqhig","pricing_plan_id":"cebpf4jnsgd1na2vs0mg"},{"bike_id":"0eeef0d7-5050-425b-b12c-360a34431a29","system_id":"levelo_inurba_marseille","lat":43.3302,"lon":5.39055,"is_reserved":false,"is_disabled":false,"rental_uris":{"android":"levelo://app?vid=0eeef0d7-5050-425b-b12c-360a34431a29","ios":"levelo://app?vid=0eeef0d7-5050-425b-b12c-360a34431a29"},"vehicle_type_id":"4","last_reported":1750785051,"current_range_meters":9600,"station_id":"ce4bhr92rcd13ifvqhrg","pricing_plan_id":"cebpf4jnsgd1na2vs0mg"},{"bike_id":"ebe5d469-9fef-4e65-871a-aae5874a46b6","system_id":"levelo_inurba_marseille","lat":43.273189,"lon":5.390724,"is_reserved":false,"is_disabled":false,"rental_uris":{"android":"levelo://app?vid=ebe5d469-9fef-4e65-871a-aae5874a46b6","ios":"levelo://app?vid=ebe5d469-9fef-4e65-871a-aae5874a46b6"},"vehicle_type_id":"4","last_reported":1750785051,"current_range_meters":10000,"station_id":"ce4bhgp2rcd13ifvqfe0","pricing_plan_id":"cebpf4jnsgd1na2vs0mg"},{"bike_id":"df909106-c6df-4828-b050-8c1305e992d7","system_id":"levelo_inurba_marseille","lat":43.24659,"lon":5.38161,"is_reserved":false,"is_disabled":false,"rental_uris":{"android":"levelo://app?vid=df909106-c6df-4828-b050-8c1305e992d7","ios":"levelo://app?vid=df909106-c6df-4828-b050-8c1305e992d7"},"vehicle_type_id":"4","last_reported":1750785051,"current_range_meters":10000,"station_id":"ce4bhih2rcd13ifvqfr0","pricing_plan_id":"cebpf4jnsgd1na2vs0mg"},{"bike_id":"2a76f130-17c0-4c02-a41f-dc2c9cf4161b","system_id":"levelo_inurba_marseille","lat":43.28157,"lon":5.42647,"is_reserved":false,"is_disabled":false,"rental_uris":{"android":"levelo://app?vid=2a76f130-17c0-4c02-a41f-dc2c9cf4161b","ios":"levelo://app?vid=2a76f130-17c0-4c02-a41f-dc2c9cf4161b"},"vehicle_type_id":"4","last_reported":1750785051,"current_range_meters":10000,"station_id":"ce4bhnh2rcd13ifvqgug","pricing_plan_id":"cebpf4jnsgd1na2vs0mg"},{"bike_id":"2cadc8bb-66ab-4f60-9c29-fe446b0ec906","system_id":"levelo_inurba_marseille","lat":43.304215,"lon":5.41284,"is_reserved":false,"is_disabled":false,"rental_uris":{"android":"levelo://app?vid=2cadc8bb-66ab-4f60-9c29-fe446b0ec906","ios":"levelo://app?vid=2cadc8bb-66ab-4f60-9c29-fe446b0ec906"},"vehicle_type_id":"4","last_reported":1750785051,"current_range_meters":10000,"station_id":"ce4bhop2rcd13ifvqh8g","pricing_plan_id":"cebpf4jnsgd1na2vs0mg"},{"bike_id":"20ee7690-aced-4e48-9e5e-0d7fdfa26dae","system_id":"levelo_inurba_marseille","lat":43.33747,"lon":5.39193,"is_reserved":false,"is_disabled":false,"rental_uris":{"android":"levelo://app?vid=20ee7690-aced-4e48-9e5e-0d7fdfa26dae","ios":"levelo://app?vid=20ee7690-aced-4e48-9e5e-0d7fdfa26dae"},"vehicle_type_id":"4","last_reported":1750785051,"current_range_meters":10000,"station_id":"ce4bhr92rcd13ifvqhsg","pricing_plan_id":"cebpf4jnsgd1na2vs0mg"},{"bike_id":"51dcb3e1-2b07-4a2e-9a2b-e4ec75156f6c","system_id":"levelo_inurba_marseille","lat":43.229347,"lon":5.353758,"is_reserved":false,"is_disabled":false,"rental_uris":{"android":"levelo://app?vid=51dcb3e1-2b07-4a2e-9a2b-e4ec75156f6c","ios":"levelo://app?vid=51dcb3e1-2b07-4a2e-9a2b-e4ec75156f6c"},"vehicle_type_id":"4","last_reported":1750785051,"current_range_meters":10000,"station_id":"cpo3532slgdg3j2ikp40","pricing_plan_id":"cebpf4jnsgd1na2vs0mg"},{"bike_id":"4ef49826-6ee0-4af8-a71e-cc7634a44da5","system_id":"levelo_inurba_marseille","lat":43.2866,"lon":5.36353,"is_reserved":false,"is_disabled":false,"rental_uris":{"android":"levelo://app?vid=4ef49826-6ee0-4af8-a71e-cc7634a44da5","ios":"levelo://app?vid=4ef49826-6ee0-4af8-a71e-cc7634a44da5"},"vehicle_type_id":"4","last_reported":1750785051,"current_range_meters":10800,"station_id":"ce4bhah2rcd13ifvqej0","pricing_plan_id":"cebpf4jnsgd1na2vs0mg"},{"bike_id":"c940cda6-f203-4a99-88c0-6637ff62e74b","system_id":"levelo_inurba_marseille","lat":43.27372,"lon":5.3625,"is_reserved":false,"is_disabled":false,"rental_uris":{"android":"levelo://app?vid=c940cda6-f203-4a99-88c0-6637ff62e74b","ios":"levelo://app?vid=c940cda6-f203-4a99-88c0-6637ff62e74b"},"vehicle_type_id":"4","last_reported":1750785051,"current_range_meters":10800,"station_id":"ce4bhbh2rcd13ifvqeo0","pricing_plan_id":"cebpf4jnsgd1na2vs0mg"},{"bike_id":"303463e7-616a-47e4-a24a-7c62a17d4b2f","system_id":"levelo_inurba_marseille","lat":43.28609,"lon":5.35114,"is_reserved":false,"is_disabled":false,"rental_uris":{"android":"levelo://app?vid=303463e7-616a-47e4-a24a-7c62a17d4b2f","ios":"levelo://app?vid=303463e7-616a-47e4-a24a-7c62a17d4b2f"},"vehicle_type_id":"4","last_reported":1750785051,"current_range_meters":10800,"station_id":"ce4bhch2rcd13ifvqeug","pricing_plan_id":"cebpf4jnsgd1na2vs0mg"},{"bike_id":"d3b4acd1-475d-43e1-bb04-3b5b22c96457","system_id":"levelo_inurba_marseille","lat":43.29907,"lon":5.43682,"is_reserved":false,"is_disabled":false,"rental_uris":{"android":"levelo://app?vid=d3b4acd1-475d-43e1-bb04-3b5b22c96457","ios":"levelo://app?vid=d3b4acd1-475d-43e1-bb04-3b5b22c96457"},"vehicle_type_id":"4","last_reported":1750785051,"current_range_meters":10800,"station_id":"ce4bhpp2rcd13ifvqhfg","pricing_plan_id":"cebpf4jnsgd1na2vs0mg"},{"bike_id":"e12d25ad-6a34-4f7d-a8b9-169850127fad","system_id":"levelo_inurba_marseille","lat":43.32697,"lon":5.40285,"is_reserved":false,"is_disabled":false,"rental_uris":{"android":"levelo://app?vid=e12d25ad-6a34-4f7d-a8b9-169850127fad","ios":"levelo://app?vid=e12d25ad-6a34-4f7d-a8b9-169850127fad"},"vehicle_type_id":"4","last_reported":1750785051,"current_range_meters":11200,"station_id":"","pricing_plan_id":"cebpf4jnsgd1na2vs0mg"},{"bike_id":"c9b462be-e0aa-4f7d-b4fb-574d2d57c542","system_id":"levelo_inurba_marseille","lat":43.28403,"lon":5.37519,"is_reserved":false,"is_disabled":false,"rental_uris":{"android":"levelo://app?vid=c9b462be-e0aa-4f7d-b4fb-574d2d57c542","ios":"levelo://app?vid=c9b462be-e0aa-4f7d-b4fb-574d2d57c542"},"vehicle_type_id":"4","last_reported":1750785051,"current_range_meters":11200,"station_id":"ce4bh412rcd13ifvqds0","pricing_plan_id":"cebpf4jnsgd1na2vs0mg"},{"bike_id":"048340af-4b88-4b1c-9adf-f3a841115499","system_id":"levelo_inurba_marseille","lat":43.29169,"lon":5.35808,"is_reserved":false,"is_disabled":false,"rental_uris":{"android":"levelo://app?vid=048340af-4b88-4b1c-9adf-f3a841115499","ios":"levelo://app?vid=048340af-4b88-4b1c-9adf-f3a841115499"},"vehicle_type_id":"4","last_reported":1750785051,"current_range_meters":11200,"station_id":"ce4bhb12rcd13ifvqel0","pricing_plan_id":"cebpf4jnsgd1na2vs0mg"},{"bike_id":"dfcc428e-946f-41a3-811b-b47c9c635ad8","system_id":"levelo_inurba_marseille","lat":43.24655,"lon":5.38894,"is_reserved":false,"is_disabled":false,"rental_uris":{"android":"levelo://app?vid=dfcc428e-946f-41a3-811b-b47c9c635ad8","ios":"levelo://app?vid=dfcc428e-946f-41a3-811b-b47c9c635ad8"},"vehicle_type_id":"4","last_reported":1750785051,"current_range_meters":11200,"station_id":"ce4bhg12rcd13ifvqf60","pricing_plan_id":"cebpf4jnsgd1na2vs0mg"},{"bike_id":"a85c60ec-c558-4408-a6fd-45c0de0e574f","system_id":"levelo_inurba_marseille","lat":43.30417,"lon":5.41279,"is_reserved":false,"is_disabled":false,"rental_uris":{"android":"levelo://app?vid=a85c60ec-c558-4408-a6fd-45c0de0e574f","ios":"levelo://app?vid=a85c60ec-c558-4408-a6fd-45c0de0e574f"},"vehicle_type_id":"4","last_reported":1750785051,"current_range_meters":11200,"station_id":"ce4bhop2rcd13ifvqh8g","pricing_plan_id":"cebpf4jnsgd1na2vs0mg"},{"bike_id":"095eabd1-5dcf-4106-9219-bdac4470d970","system_id":"levelo_inurba_marseille","lat":43.32837,"lon":5.4336,"is_reserved":false,"is_disabled":false,"rental_uris":{"android":"levelo://app?vid=095eabd1-5dcf-4106-9219-bdac4470d970","ios":"levelo://app?vid=095eabd1-5dcf-4106-9219-bdac4470d970"},"vehicle_type_id":"4","last_reported":1750785051,"current_range_meters":11600,"station_id":"","pricing_plan_id":"cebpf4jnsgd1na2vs0mg"},{"bike_id":"ea58c5af-7e24-472a-9042-4626112e91cb","system_id":"levelo_inurba_marseille","lat":43.291979,"lon":5.358054,"is_reserved":false,"is_disabled":false,"rental_uris":{"android":"levelo://app?vid=ea58c5af-7e24-472a-9042-4626112e91cb","ios":"levelo://app?vid=ea58c5af-7e24-472a-9042-4626112e91cb"},"vehicle_type_id":"4","last_reported":1750785051,"current_range_meters":11600,"station_id":"","pricing_plan_id":"cebpf4jnsgd1na2vs0mg"},{"bike_id":"bc14ce59-07ed-42c5-9c56-4e6ad1672206","system_id":"levelo_inurba_marseille","lat":43.30211,"lon":5.39465,"is_reserved":false,"is_disabled":false,"rental_uris":{"android":"levelo://app?vid=bc14ce59-07ed-42c5-9c56-4e6ad1672206","ios":"levelo://app?vid=bc14ce59-07ed-42c5-9c56-4e6ad1672206"},"vehicle_type_id":"4","last_reported":1750785051,"current_range_meters":11600,"station_id":"ce4bh0p2rcd13ifvqd70","pricing_plan_id":"cebpf4jnsgd1na2vs0mg"},{"bike_id":"a23f790a-1a5e-4e66-b1ab-8996a6723a62","system_id":"levelo_inurba_marseille","lat":43.24649,"lon":5.38903,"is_reserved":false,"is_disabled":false,"rental_uris":{"android":"levelo://app?vid=a23f790a-1a5e-4e66-b1ab-8996a6723a62","ios":"levelo://app?vid=a23f790a-1a5e-4e66-b1ab-8996a6723a62"},"vehicle_type_id":"4","last_reported":1750785051,"current_range_meters":11600,"station_id":"ce4bhg12rcd13ifvqf60","pricing_plan_id":"cebpf4jnsgd1na2vs0mg"},{"bike_id":"a0baf62c-679c-402f-8898-dca9c2d35452","system_id":"levelo_inurba_marseille","lat":43.248035,"lon":5.374599,"is_reserved":false,"is_disabled":false,"rental_uris":{"android":"levelo://app?vid=a0baf62c-679c-402f-8898-dca9c2d35452","ios":"levelo://app?vid=a0baf62c-679c-402f-8898-dca9c2d35452"},"vehicle_type_id":"4","last_reported":1750785051,"current_range_meters":11600,"station_id":"ce4bhgh2rcd13ifvqfb0","pricing_plan_id":"cebpf4jnsgd1na2vs0mg"},{"bike_id":"27efcd01-3dee-437c-a2cf-fa15f6d170d5","system_id":"levelo_inurba_marseille","lat":43.3079,"lon":5.43518,"is_reserved":false,"is_disabled":false,"rental_uris":{"android":"levelo://app?vid=27efcd01-3dee-437c-a2cf-fa15f6d170d5","ios":"levelo://app?vid=27efcd01-3dee-437c-a2cf-fa15f6d170d5"},"vehicle_type_id":"4","last_reported":1750785051,"current_range_meters":11600,"station_id":"ce4bhph2rcd13ifvqheg","pricing_plan_id":"cebpf4jnsgd1na2vs0mg"},{"bike_id":"83575e54-4566-46ed-8324-1f3bfce69fcb","system_id":"levelo_inurba_marseille","lat":43.31754,"lon":5.39022,"is_reserved":false,"is_disabled":false,"rental_uris":{"android":"levelo://app?vid=83575e54-4566-46ed-8324-1f3bfce69fcb","ios":"levelo://app?vid=83575e54-4566-46ed-8324-1f3bfce69fcb"},"vehicle_type_id":"4","last_reported":1750785051,"current_range_meters":11600,"station_id":"ce4bhqp2rcd13ifvqhng","pricing_plan_id":"cebpf4jnsgd1na2vs0mg"},{"bike_id":"3f29bc4a-e294-4aca-91af-a4eb5f7b985e","system_id":"levelo_inurba_marseille","lat":43.22931,"lon":5.35373,"is_reserved":false,"is_disabled":false,"rental_uris":{"android":"levelo://app?vid=3f29bc4a-e294-4aca-91af-a4eb5f7b985e","ios":"levelo://app?vid=3f29bc4a-e294-4aca-91af-a4eb5f7b985e"},"vehicle_type_id":"4","last_reported":1750785051,"current_range_meters":11600,"station_id":"cpo3532slgdg3j2ikp40","pricing_plan_id":"cebpf4jnsgd1na2vs0mg"},{"bike_id":"3e0f5345-cfae-479a-9b41-9237c8726756","system_id":"levelo_inurba_marseille","lat":43.29682,"lon":5.36331,"is_reserved":false,"is_disabled":false,"rental_uris":{"android":"levelo://app?vid=3e0f5345-cfae-479a-9b41-9237c8726756","ios":"levelo://app?vid=3e0f5345-cfae-479a-9b41-9237c8726756"},"vehicle_type_id":"4","last_reported":1750785051,"current_range_meters":12000,"station_id":"","pricing_plan_id":"cebpf4jnsgd1na2vs0mg"},{"bike_id":"c6806f0e-bec9-4a83-a182-9fe2f0ef1bef","system_id":"levelo_inurba_marseille","lat":43.28858,"lon":5.35848,"is_reserved":false,"is_disabled":false,"rental_uris":{"android":"levelo://app?vid=c6806f0e-bec9-4a83-a182-9fe2f0ef1bef","ios":"levelo://app?vid=c6806f0e-bec9-4a83-a182-9fe2f0ef1bef"},"vehicle_type_id":"4","last_reported":1750785051,"current_range_meters":12000,"station_id":"ce4bhb12rcd13ifvqem0","pricing_plan_id":"cebpf4jnsgd1na2vs0mg"},{"bike_id":"ce19a373-4131-4843-8b6a-067d0d042e61","system_id":"levelo_inurba_marseille","lat":43.27362,"lon":5.3625,"is_reserved":false,"is_disabled":false,"rental_uris":{"android":"levelo://app?vid=ce19a373-4131-4843-8b6a-067d0d042e61","ios":"levelo://app?vid=ce19a373-4131-4843-8b6a-067d0d042e61"},"vehicle_type_id":"4","last_reported":1750785051,"current_range_meters":12000,"station_id":"ce4bhbh2rcd13ifvqeo0","pricing_plan_id":"cebpf4jnsgd1na2vs0mg"},{"bike_id":"b6b861fa-fd27-43ad-89fb-4be1a264be92","system_id":"levelo_inurba_marseille","lat":43.25307,"lon":5.37497,"is_reserved":false,"is_disabled":false,"rental_uris":{"android":"levelo://app?vid=b6b861fa-fd27-43ad-89fb-4be1a264be92","ios":"levelo://app?vid=b6b861fa-fd27-43ad-89fb-4be1a264be92"},"vehicle_type_id":"4","last_reported":1750785051,"current_range_meters":12400,"station_id":"","pricing_plan_id":"cebpf4jnsgd1na2vs0mg"},{"bike_id":"7c3f6852-4f29-42a9-a8c1-e2b82bb43fcf","system_id":"levelo_inurba_marseille","lat":43.29268,"lon":5.42664,"is_reserved":false,"is_disabled":false,"rental_uris":{"android":"levelo://app?vid=7c3f6852-4f29-42a9-a8c1-e2b82bb43fcf","ios":"levelo://app?vid=7c3f6852-4f29-42a9-a8c1-e2b82bb43fcf"},"vehicle_type_id":"4","last_reported":1750785051,"current_range_meters":12400,"station_id":"","pricing_plan_id":"cebpf4jnsgd1na2vs0mg"},{"bike_id":"11ebf4fb-e752-44af-81e3-7d28e8eee9cc","system_id":"levelo_inurba_marseille","lat":43.28111,"lon":5.43211,"is_reserved":false,"is_disabled":false,"rental_uris":{"android":"levelo://app?vid=11ebf4fb-e752-44af-81e3-7d28e8eee9cc","ios":"levelo://app?vid=11ebf4fb-e752-44af-81e3-7d28e8eee9cc"},"vehicle_type_id":"4","last_reported":1750785051,"current_range_meters":12800,"station_id":"","pricing_plan_id":"cebpf4jnsgd1na2vs0mg"},{"bike_id":"d73e9bbc-c090-470a-8032-f86234a90165","system_id":"levelo_inurba_marseille","lat":43.28924,"lon":5.3628,"is_reserved":false,"is_disabled":false,"rental_uris":{"android":"levelo://app?vid=d73e9bbc-c090-470a-8032-f86234a90165","ios":"levelo://app?vid=d73e9bbc-c090-470a-8032-f86234a90165"},"vehicle_type_id":"4","last_reported":1750785051,"current_range_meters":12800,"station_id":"","pricing_plan_id":"cebpf4jnsgd1na2vs0mg"},{"bike_id":"64045ae8-9722-4d51-b88e-aa28548b87e9","system_id":"levelo_inurba_marseille","lat":43.308881,"lon":5.39647,"is_reserved":false,"is_disabled":false,"rental_uris":{"android":"levelo://app?vid=64045ae8-9722-4d51-b88e-aa28548b87e9","ios":"levelo://app?vid=64045ae8-9722-4d51-b88e-aa28548b87e9"},"vehicle_type_id":"4","last_reported":1750785051,"current_range_meters":12800,"station_id":"ce4bh012rcd13ifvqcv0","pricing_plan_id":"cebpf4jnsgd1na2vs0mg"},{"bike_id":"a8d6b927-43a2-4a27-8152-db34ca7905fe","system_id":"levelo_inurba_marseille","lat":43.29197,"lon":5.35815,"is_reserved":false,"is_disabled":false,"rental_uris":{"android":"levelo://app?vid=a8d6b927-43a2-4a27-8152-db34ca7905fe","ios":"levelo://app?vid=a8d6b927-43a2-4a27-8152-db34ca7905fe"},"vehicle_type_id":"4","last_reported":1750785051,"current_range_meters":12800,"station_id":"ce4bhb12rcd13ifvqel0","pricing_plan_id":"cebpf4jnsgd1na2vs0mg"},{"bike_id":"e56107f4-9648-4352-91b8-848c133af08f","system_id":"levelo_inurba_marseille","lat":43.27182,"lon":5.40995,"is_reserved":false,"is_disabled":false,"rental_uris":{"android":"levelo://app?vid=e56107f4-9648-4352-91b8-848c133af08f","ios":"levelo://app?vid=e56107f4-9648-4352-91b8-848c133af08f"},"vehicle_type_id":"4","last_reported":1750785051,"current_range_meters":12800,"station_id":"ce4bhl12rcd13ifvqgf0","pricing_plan_id":"cebpf4jnsgd1na2vs0mg"},{"bike_id":"03b2c1ad-0f73-4878-ad96-34f6ba2428f7","system_id":"levelo_inurba_marseille","lat":43.27448,"lon":5.38362,"is_reserved":false,"is_disabled":false,"rental_uris":{"android":"levelo://app?vid=03b2c1ad-0f73-4878-ad96-34f6ba2428f7","ios":"levelo://app?vid=03b2c1ad-0f73-4878-ad96-34f6ba2428f7"},"vehicle_type_id":"4","last_reported":1750785051,"current_range_meters":13600,"station_id":"","pricing_plan_id":"cebpf4jnsgd1na2vs0mg"},{"bike_id":"f30b7e2c-e6a8-47ac-9582-47bca9aac1bf","system_id":"levelo_inurba_marseille","lat":43.33165,"lon":5.38194,"is_reserved":false,"is_disabled":false,"rental_uris":{"android":"levelo://app?vid=f30b7e2c-e6a8-47ac-9582-47bca9aac1bf","ios":"levelo://app?vid=f30b7e2c-e6a8-47ac-9582-47bca9aac1bf"},"vehicle_type_id":"4","last_reported":1750785051,"current_range_meters":13600,"station_id":"","pricing_plan_id":"cebpf4jnsgd1na2vs0mg"},{"bike_id":"9b2dde31-a678-4110-9c84-af68d8a243f7","system_id":"levelo_inurba_marseille","lat":43.30947,"lon":5.3903,"is_reserved":false,"is_disabled":false,"rental_uris":{"android":"levelo://app?vid=9b2dde31-a678-4110-9c84-af68d8a243f7","ios":"levelo://app?vid=9b2dde31-a678-4110-9c84-af68d8a243f7"},"vehicle_type_id":"4","last_reported":1750785051,"current_range_meters":13600,"station_id":"ce4bgup2rcd13ifvqco0","pricing_plan_id":"cebpf4jnsgd1na2vs0mg"},{"bike_id":"81edcc8a-4842-4cb2-b13b-c038d2a96032","system_id":"levelo_inurba_marseille","lat":43.27365,"lon":5.36244,"is_reserved":false,"is_disabled":false,"rental_uris":{"android":"levelo://app?vid=81edcc8a-4842-4cb2-b13b-c038d2a96032","ios":"levelo://app?vid=81edcc8a-4842-4cb2-b13b-c038d2a96032"},"vehicle_type_id":"4","last_reported":1750785051,"current_range_meters":13600,"station_id":"ce4bhbh2rcd13ifvqeo0","pricing_plan_id":"cebpf4jnsgd1na2vs0mg"},{"bike_id":"cef721fd-afe4-48d0-89b0-0777a634e87f","system_id":"levelo_inurba_marseille","lat":43.244,"lon":5.37109,"is_reserved":false,"is_disabled":false,"rental_uris":{"android":"levelo://app?vid=cef721fd-afe4-48d0-89b0-0777a634e87f","ios":"levelo://app?vid=cef721fd-afe4-48d0-89b0-0777a634e87f"},"vehicle_type_id":"4","last_reported":1750785051,"current_range_meters":13600,"station_id":"ce4bhhh2rcd13ifvqfk0","pricing_plan_id":"cebpf4jnsgd1na2vs0mg"},{"bike_id":"ef823521-cf91-4810-af48-40a16b647835","system_id":"levelo_inurba_marseille","lat":43.25582,"lon":5.38229,"is_reserved":false,"is_disabled":false,"rental_uris":{"android":"levelo://app?vid=ef823521-cf91-4810-af48-40a16b647835","ios":"levelo://app?vid=ef823521-cf91-4810-af48-40a16b647835"},"vehicle_type_id":"4","last_reported":1750785051,"current_range_meters":13600,"station_id":"ce4bhih2rcd13ifvqfs0","pricing_plan_id":"cebpf4jnsgd1na2vs0mg"},{"bike_id":"532b0330-861f-48b5-b190-dcc7ac78f53c","system_id":"levelo_inurba_marseille","lat":43.27939,"lon":5.41051,"is_reserved":false,"is_disabled":false,"rental_uris":{"android":"levelo://app?vid=532b0330-861f-48b5-b190-dcc7ac78f53c","ios":"levelo://app?vid=532b0330-861f-48b5-b190-dcc7ac78f53c"},"vehicle_type_id":"4","last_reported":1750785051,"current_range_meters":13600,"station_id":"ce4bhnp2rcd13ifvqh0g","pricing_plan_id":"cebpf4jnsgd1na2vs0mg"},{"bike_id":"36b8d534-3492-401a-a3e5-861eb38cf118","system_id":"levelo_inurba_marseille","lat":43.26203,"lon":5.37456,"is_reserved":false,"is_disabled":false,"rental_uris":{"android":"levelo://app?vid=36b8d534-3492-401a-a3e5-861eb38cf118","ios":"levelo://app?vid=36b8d534-3492-401a-a3e5-861eb38cf118"},"vehicle_type_id":"4","last_reported":1750785051,"current_range_meters":14000,"station_id":"ce4bhgp2rcd13ifvqfc0","pricing_plan_id":"cebpf4jnsgd1na2vs0mg"},{"bike_id":"f67cb8cf-a96a-4902-8153-70dc34f71947","system_id":"levelo_inurba_marseille","lat":43.28657,"lon":5.3635,"is_reserved":false,"is_disabled":false,"rental_uris":{"android":"levelo://app?vid=f67cb8cf-a96a-4902-8153-70dc34f71947","ios":"levelo://app?vid=f67cb8cf-a96a-4902-8153-70dc34f71947"},"vehicle_type_id":"4","last_reported":1750785051,"current_range_meters":14400,"station_id":"ce4bhah2rcd13ifvqej0","pricing_plan_id":"cebpf4jnsgd1na2vs0mg"},{"bike_id":"979628ac-c26d-4635-8db5-1b8838417fb4","system_id":"levelo_inurba_marseille","lat":43.28159,"lon":5.42639,"is_reserved":false,"is_disabled":false,"rental_uris":{"android":"levelo://app?vid=979628ac-c26d-4635-8db5-1b8838417fb4","ios":"levelo://app?vid=979628ac-c26d-4635-8db5-1b8838417fb4"},"vehicle_type_id":"4","last_reported":1750785051,"current_range_meters":14400,"station_id":"ce4bhnh2rcd13ifvqgug","pricing_plan_id":"cebpf4jnsgd1na2vs0mg"},{"bike_id":"35b14479-4a4d-4383-83de-c7fea66894b3","system_id":"levelo_inurba_marseille","lat":43.299034,"lon":5.436584,"is_reserved":false,"is_disabled":false,"rental_uris":{"android":"levelo://app?vid=35b14479-4a4d-4383-83de-c7fea66894b3","ios":"levelo://app?vid=35b14479-4a4d-4383-83de-c7fea66894b3"},"vehicle_type_id":"4","last_reported":1750785051,"current_range_meters":14400,"station_id":"ce4bhpp2rcd13ifvqhfg","pricing_plan_id":"cebpf4jnsgd1na2vs0mg"},{"bike_id":"51b217be-9488-41c1-b083-6d728251b280","system_id":"levelo_inurba_marseille","lat":43.243421,"lon":5.368819,"is_reserved":false,"is_disabled":false,"rental_uris":{"android":"levelo://app?vid=51b217be-9488-41c1-b083-6d728251b280","ios":"levelo://app?vid=51b217be-9488-41c1-b083-6d728251b280"},"vehicle_type_id":"4","last_reported":1750785051,"current_range_meters":14800,"station_id":"","pricing_plan_id":"cebpf4jnsgd1na2vs0mg"},{"bike_id":"05c95ff7-09a4-4ced-b148-306dd70b5db9","system_id":"levelo_inurba_marseille","lat":43.2902,"lon":5.38126,"is_reserved":false,"is_disabled":false,"rental_uris":{"android":"levelo://app?vid=05c95ff7-09a4-4ced-b148-306dd70b5db9","ios":"levelo://app?vid=05c95ff7-09a4-4ced-b148-306dd70b5db9"},"vehicle_type_id":"4","last_reported":1750785051,"current_range_meters":14800,"station_id":"ce4bh4p2rcd13ifvqe1g","pricing_plan_id":"cebpf4jnsgd1na2vs0mg"},{"bike_id":"0708552b-d790-401e-8fd5-813abe9e7d33","system_id":"levelo_inurba_marseille","lat":43.25111,"lon":5.40319,"is_reserved":false,"is_disabled":false,"rental_uris":{"android":"levelo://app?vid=0708552b-d790-401e-8fd5-813abe9e7d33","ios":"levelo://app?vid=0708552b-d790-401e-8fd5-813abe9e7d33"},"vehicle_type_id":"4","last_reported":1750785051,"current_range_meters":14800,"station_id":"ce4bhlh2rcd13ifvqgig","pricing_plan_id":"cebpf4jnsgd1na2vs0mg"},{"bike_id":"54058502-b50b-464f-96a7-5a34bf4c1747","system_id":"levelo_inurba_marseille","lat":43.28612,"lon":5.37057,"is_reserved":false,"is_disabled":false,"rental_uris":{"android":"levelo://app?vid=54058502-b50b-464f-96a7-5a34bf4c1747","ios":"levelo://app?vid=54058502-b50b-464f-96a7-5a34bf4c1747"},"vehicle_type_id":"4","last_reported":1750785051,"current_range_meters":14800,"station_id":"ce4bht12rcd13ifvqi60","pricing_plan_id":"cebpf4jnsgd1na2vs0mg"},{"bike_id":"37639598-87cb-49f2-bb28-e8116a49605f","system_id":"levelo_inurba_marseille","lat":43.22504,"lon":5.34774,"is_reserved":false,"is_disabled":false,"rental_uris":{"android":"levelo://app?vid=37639598-87cb-49f2-bb28-e8116a49605f","ios":"levelo://app?vid=37639598-87cb-49f2-bb28-e8116a49605f"},"vehicle_type_id":"4","last_reported":1750785051,"current_range_meters":14800,"station_id":"st_cvj5dfep6f1abm77gieg","pricing_plan_id":"cebpf4jnsgd1na2vs0mg"},{"bike_id":"7ea3c9bd-f9bd-438e-b9e1-cdbe4f91c60d","system_id":"levelo_inurba_marseille","lat":43.22892,"lon":5.35253,"is_reserved":false,"is_disabled":false,"rental_uris":{"android":"levelo://app?vid=7ea3c9bd-f9bd-438e-b9e1-cdbe4f91c60d","ios":"levelo://app?vid=7ea3c9bd-f9bd-438e-b9e1-cdbe4f91c60d"},"vehicle_type_id":"4","last_reported":1750785051,"current_range_meters":15200,"station_id":"","pricing_plan_id":"cebpf4jnsgd1na2vs0mg"},{"bike_id":"8c0b419f-2a4e-49a9-af3d-b8c7b80c6e43","system_id":"levelo_inurba_marseille","lat":43.3171,"lon":5.37735,"is_reserved":false,"is_disabled":false,"rental_uris":{"android":"levelo://app?vid=8c0b419f-2a4e-49a9-af3d-b8c7b80c6e43","ios":"levelo://app?vid=8c0b419f-2a4e-49a9-af3d-b8c7b80c6e43"},"vehicle_type_id":"4","last_reported":1750785051,"current_range_meters":15200,"station_id":"ce4bgth2rcd13ifvqch0","pricing_plan_id":"cebpf4jnsgd1na2vs0mg"},{"bike_id":"89385bbf-66c5-41ac-a585-42f9912191dc","system_id":"levelo_inurba_marseille","lat":43.284162,"lon":5.349785,"is_reserved":false,"is_disabled":false,"rental_uris":{"android":"levelo://app?vid=89385bbf-66c5-41ac-a585-42f9912191dc","ios":"levelo://app?vid=89385bbf-66c5-41ac-a585-42f9912191dc"},"vehicle_type_id":"4","last_reported":1750785051,"current_range_meters":15200,"station_id":"ce4bhbh2rcd13ifvqepg","pricing_plan_id":"cebpf4jnsgd1na2vs0mg"},{"bike_id":"abbbfe6e-2127-4cf5-ad43-a634bd4bcdc4","system_id":"levelo_inurba_marseille","lat":43.28267,"lon":5.3506,"is_reserved":false,"is_disabled":false,"rental_uris":{"android":"levelo://app?vid=abbbfe6e-2127-4cf5-ad43-a634bd4bcdc4","ios":"levelo://app?vid=abbbfe6e-2127-4cf5-ad43-a634bd4bcdc4"},"vehicle_type_id":"4","last_reported":1750785051,"current_range_meters":15200,"station_id":"ce4bhbp2rcd13ifvqerg","pricing_plan_id":"cebpf4jnsgd1na2vs0mg"},{"bike_id":"0e3b387e-2a07-4e64-903a-2a5022929331","system_id":"levelo_inurba_marseille","lat":43.24843,"lon":5.37441,"is_reserved":false,"is_disabled":false,"rental_uris":{"android":"levelo://app?vid=0e3b387e-2a07-4e64-903a-2a5022929331","ios":"levelo://app?vid=0e3b387e-2a07-4e64-903a-2a5022929331"},"vehicle_type_id":"4","last_reported":1750785051,"current_range_meters":15200,"station_id":"ce4bhgh2rcd13ifvqfb0","pricing_plan_id":"cebpf4jnsgd1na2vs0mg"},{"bike_id":"af112b62-19de-41d4-b8d7-e14d0172315d","system_id":"levelo_inurba_marseille","lat":43.32709,"lon":5.39217,"is_reserved":false,"is_disabled":false,"rental_uris":{"android":"levelo://app?vid=af112b62-19de-41d4-b8d7-e14d0172315d","ios":"levelo://app?vid=af112b62-19de-41d4-b8d7-e14d0172315d"},"vehicle_type_id":"4","last_reported":1750785051,"current_range_meters":16000,"station_id":"","pricing_plan_id":"cebpf4jnsgd1na2vs0mg"},{"bike_id":"ff1500cc-ac8f-45c9-881c-9fd6595094a3","system_id":"levelo_inurba_marseille","lat":43.3183,"lon":5.40181,"is_reserved":false,"is_disabled":false,"rental_uris":{"android":"levelo://app?vid=ff1500cc-ac8f-45c9-881c-9fd6595094a3","ios":"levelo://app?vid=ff1500cc-ac8f-45c9-881c-9fd6595094a3"},"vehicle_type_id":"4","last_reported":1750785051,"current_range_meters":16000,"station_id":"","pricing_plan_id":"cebpf4jnsgd1na2vs0mg"},{"bike_id":"edb3ba93-c85d-41ca-9c88-0ff309b5d673","system_id":"levelo_inurba_marseille","lat":43.303078,"lon":5.369031,"is_reserved":false,"is_disabled":false,"rental_uris":{"android":"levelo://app?vid=edb3ba93-c85d-41ca-9c88-0ff309b5d673","ios":"levelo://app?vid=edb3ba93-c85d-41ca-9c88-0ff309b5d673"},"vehicle_type_id":"4","last_reported":1750785051,"current_range_meters":16000,"station_id":"ce4bgqh2rcd13ifvqc5g","pricing_plan_id":"cebpf4jnsgd1na2vs0mg"},{"bike_id":"6073aecf-ede3-46ea-8654-a3bc94a79840","system_id":"levelo_inurba_marseille","lat":43.28402,"lon":5.34986,"is_reserved":false,"is_disabled":false,"rental_uris":{"android":"levelo://app?vid=6073aecf-ede3-46ea-8654-a3bc94a79840","ios":"levelo://app?vid=6073aecf-ede3-46ea-8654-a3bc94a79840"},"vehicle_type_id":"4","last_reported":1750785051,"current_range_meters":16000,"station_id":"ce4bhbh2rcd13ifvqepg","pricing_plan_id":"cebpf4jnsgd1na2vs0mg"},{"bike_id":"1ba1d0ff-df6c-4f08-b638-086ce9658873","system_id":"levelo_inurba_marseille","lat":43.28277,"lon":5.35065,"is_reserved":false,"is_disabled":false,"rental_uris":{"android":"levelo://app?vid=1ba1d0ff-df6c-4f08-b638-086ce9658873","ios":"levelo://app?vid=1ba1d0ff-df6c-4f08-b638-086ce9658873"},"vehicle_type_id":"4","last_reported":1750785051,"current_range_meters":16000,"station_id":"ce4bhbp2rcd13ifvqerg","pricing_plan_id":"cebpf4jnsgd1na2vs0mg"},{"bike_id":"92b965e7-1a22-48a3-aa7b-644f868c101c","system_id":"levelo_inurba_marseille","lat":43.24815,"lon":5.37462,"is_reserved":false,"is_disabled":false,"rental_uris":{"android":"levelo://app?vid=92b965e7-1a22-48a3-aa7b-644f868c101c","ios":"levelo://app?vid=92b965e7-1a22-48a3-aa7b-644f868c101c"},"vehicle_type_id":"4","last_reported":1750785051,"current_range_meters":16000,"station_id":"ce4bhgh2rcd13ifvqfb0","pricing_plan_id":"cebpf4jnsgd1na2vs0mg"},{"bike_id":"8b964ade-b36e-4afc-b646-3414d72ed7fb","system_id":"levelo_inurba_marseille","lat":43.317207,"lon":5.423977,"is_reserved":false,"is_disabled":false,"rental_uris":{"android":"levelo://app?vid=8b964ade-b36e-4afc-b646-3414d72ed7fb","ios":"levelo://app?vid=8b964ade-b36e-4afc-b646-3414d72ed7fb"},"vehicle_type_id":"4","last_reported":1750785051,"current_range_meters":16000,"station_id":"ce4bhp92rcd13ifvqhbg","pricing_plan_id":"cebpf4jnsgd1na2vs0mg"},{"bike_id":"b8ce578d-7cf5-4a38-bd36-6a6897c9f454","system_id":"levelo_inurba_marseille","lat":43.29908,"lon":5.43678,"is_reserved":false,"is_disabled":false,"rental_uris":{"android":"levelo://app?vid=b8ce578d-7cf5-4a38-bd36-6a6897c9f454","ios":"levelo://app?vid=b8ce578d-7cf5-4a38-bd36-6a6897c9f454"},"vehicle_type_id":"4","last_reported":1750785051,"current_range_meters":16000,"station_id":"ce4bhpp2rcd13ifvqhfg","pricing_plan_id":"cebpf4jnsgd1na2vs0mg"},{"bike_id":"24bec0ac-4c6c-4842-80e7-9983c2b33e58","system_id":"levelo_inurba_marseille","lat":43.21203,"lon":5.35073,"is_reserved":false,"is_disabled":false,"rental_uris":{"android":"levelo://app?vid=24bec0ac-4c6c-4842-80e7-9983c2b33e58","ios":"levelo://app?vid=24bec0ac-4c6c-4842-80e7-9983c2b33e58"},"vehicle_type_id":"4","last_reported":1750785051,"current_range_meters":16400,"station_id":"","pricing_plan_id":"cebpf4jnsgd1na2vs0mg"},{"bike_id":"dcc9f1c3-40f9-4766-8751-519db023b474","system_id":"levelo_inurba_marseille","lat":43.29008,"lon":5.35606,"is_reserved":false,"is_disabled":false,"rental_uris":{"android":"levelo://app?vid=dcc9f1c3-40f9-4766-8751-519db023b474","ios":"levelo://app?vid=dcc9f1c3-40f9-4766-8751-519db023b474"},"vehicle_type_id":"4","last_reported":1750785051,"current_range_meters":16400,"station_id":"ce4bhb92rcd13ifvqen0","pricing_plan_id":"cebpf4jnsgd1na2vs0mg"},{"bike_id":"9d6274a4-02ed-46f1-93b3-a62005852a67","system_id":"levelo_inurba_marseille","lat":43.24814,"lon":5.37458,"is_reserved":false,"is_disabled":false,"rental_uris":{"android":"levelo://app?vid=9d6274a4-02ed-46f1-93b3-a62005852a67","ios":"levelo://app?vid=9d6274a4-02ed-46f1-93b3-a62005852a67"},"vehicle_type_id":"4","last_reported":1750785051,"current_range_meters":16400,"station_id":"ce4bhgh2rcd13ifvqfb0","pricing_plan_id":"cebpf4jnsgd1na2vs0mg"},{"bike_id":"1c14481a-4417-4940-b8fa-033163ad72aa","system_id":"levelo_inurba_marseille","lat":43.25823,"lon":5.3944,"is_reserved":false,"is_disabled":false,"rental_uris":{"android":"levelo://app?vid=1c14481a-4417-4940-b8fa-033163ad72aa","ios":"levelo://app?vid=1c14481a-4417-4940-b8fa-033163ad72aa"},"vehicle_type_id":"4","last_reported":1750785051,"current_range_meters":16400,"station_id":"ce4bhip2rcd13ifvqft0","pricing_plan_id":"cebpf4jnsgd1na2vs0mg"},{"bike_id":"26a14eba-87a9-47b8-9607-30bd0042d428","system_id":"levelo_inurba_marseille","lat":43.31475,"lon":5.39419,"is_reserved":false,"is_disabled":false,"rental_uris":{"android":"levelo://app?vid=26a14eba-87a9-47b8-9607-30bd0042d428","ios":"levelo://app?vid=26a14eba-87a9-47b8-9607-30bd0042d428"},"vehicle_type_id":"4","last_reported":1750785051,"current_range_meters":16800,"station_id":"","pricing_plan_id":"cebpf4jnsgd1na2vs0mg"},{"bike_id":"713709e7-7e48-4481-8b19-152a2ccba2e9","system_id":"levelo_inurba_marseille","lat":43.307983,"lon":5.43522,"is_reserved":false,"is_disabled":false,"rental_uris":{"android":"levelo://app?vid=713709e7-7e48-4481-8b19-152a2ccba2e9","ios":"levelo://app?vid=713709e7-7e48-4481-8b19-152a2ccba2e9"},"vehicle_type_id":"4","last_reported":1750785051,"current_range_meters":16800,"station_id":"ce4bhph2rcd13ifvqheg","pricing_plan_id":"cebpf4jnsgd1na2vs0mg"},{"bike_id":"07dead3e-fced-4a36-b1c0-dda7dd873caf","system_id":"levelo_inurba_marseille","lat":43.23203,"lon":5.35532,"is_reserved":false,"is_disabled":false,"rental_uris":{"android":"levelo://app?vid=07dead3e-fced-4a36-b1c0-dda7dd873caf","ios":"levelo://app?vid=07dead3e-fced-4a36-b1c0-dda7dd873caf"},"vehicle_type_id":"4","last_reported":1750785051,"current_range_meters":16800,"station_id":"ce4bhu92rcd13ifvqi70","pricing_plan_id":"cebpf4jnsgd1na2vs0mg"},{"bike_id":"6d66f760-917a-49b1-b200-d585832e6166","system_id":"levelo_inurba_marseille","lat":43.22921,"lon":5.35383,"is_reserved":false,"is_disabled":false,"rental_uris":{"android":"levelo://app?vid=6d66f760-917a-49b1-b200-d585832e6166","ios":"levelo://app?vid=6d66f760-917a-49b1-b200-d585832e6166"},"vehicle_type_id":"4","last_reported":1750785051,"current_range_meters":16800,"station_id":"cpo3532slgdg3j2ikp40","pricing_plan_id":"cebpf4jnsgd1na2vs0mg"},{"bike_id":"d015fa7c-40e7-446f-a999-b12dff6a5ce1","system_id":"levelo_inurba_marseille","lat":43.25584,"lon":5.38227,"is_reserved":false,"is_disabled":false,"rental_uris":{"android":"levelo://app?vid=d015fa7c-40e7-446f-a999-b12dff6a5ce1","ios":"levelo://app?vid=d015fa7c-40e7-446f-a999-b12dff6a5ce1"},"vehicle_type_id":"4","last_reported":1750785051,"current_range_meters":17200,"station_id":"ce4bhih2rcd13ifvqfs0","pricing_plan_id":"cebpf4jnsgd1na2vs0mg"},{"bike_id":"e3cbe31d-3f2f-4c4c-a959-3bdba55d2dad","system_id":"levelo_inurba_marseille","lat":43.22961,"lon":5.35399,"is_reserved":false,"is_disabled":false,"rental_uris":{"android":"levelo://app?vid=e3cbe31d-3f2f-4c4c-a959-3bdba55d2dad","ios":"levelo://app?vid=e3cbe31d-3f2f-4c4c-a959-3bdba55d2dad"},"vehicle_type_id":"4","last_reported":1750785051,"current_range_meters":17200,"station_id":"cpo3532slgdg3j2ikp40","pricing_plan_id":"cebpf4jnsgd1na2vs0mg"},{"bike_id":"3b951d47-daef-4f47-9b11-1cb55583c0cc","system_id":"levelo_inurba_marseille","lat":43.211932,"lon":5.350682,"is_reserved":false,"is_disabled":false,"rental_uris":{"android":"levelo://app?vid=3b951d47-daef-4f47-9b11-1cb55583c0cc","ios":"levelo://app?vid=3b951d47-daef-4f47-9b11-1cb55583c0cc"},"vehicle_type_id":"4","last_reported":1750785051,"current_range_meters":17200,"station_id":"st_cvj6sg6p6f1abm77japg","pricing_plan_id":"cebpf4jnsgd1na2vs0mg"},{"bike_id":"c9378442-8a73-4d70-a55c-bf37f13dceb1","system_id":"levelo_inurba_marseille","lat":43.21193,"lon":5.35071,"is_reserved":false,"is_disabled":false,"rental_uris":{"android":"levelo://app?vid=c9378442-8a73-4d70-a55c-bf37f13dceb1","ios":"levelo://app?vid=c9378442-8a73-4d70-a55c-bf37f13dceb1"},"vehicle_type_id":"4","last_reported":1750785051,"current_range_meters":17200,"station_id":"st_cvj6sg6p6f1abm77japg","pricing_plan_id":"cebpf4jnsgd1na2vs0mg"},{"bike_id":"73003e5e-1157-4cf0-aafe-d13c75118280","system_id":"levelo_inurba_marseille","lat":43.32245,"lon":5.41264,"is_reserved":false,"is_disabled":false,"rental_uris":{"android":"levelo://app?vid=73003e5e-1157-4cf0-aafe-d13c75118280","ios":"levelo://app?vid=73003e5e-1157-4cf0-aafe-d13c75118280"},"vehicle_type_id":"4","last_reported":1750785051,"current_range_meters":17600,"station_id":"","pricing_plan_id":"cebpf4jnsgd1na2vs0mg"},{"bike_id":"62c0ae9e-9e5d-4757-b598-f1bb6b049cd5","system_id":"levelo_inurba_marseille","lat":43.26223,"lon":5.37423,"is_reserved":false,"is_disabled":false,"rental_uris":{"android":"levelo://app?vid=62c0ae9e-9e5d-4757-b598-f1bb6b049cd5","ios":"levelo://app?vid=62c0ae9e-9e5d-4757-b598-f1bb6b049cd5"},"vehicle_type_id":"4","last_reported":1750785051,"current_range_meters":17600,"station_id":"","pricing_plan_id":"cebpf4jnsgd1na2vs0mg"},{"bike_id":"2ed79b9d-2fa7-41c3-b5df-eae21f7572f3","system_id":"levelo_inurba_marseille","lat":43.24388,"lon":5.37054,"is_reserved":false,"is_disabled":false,"rental_uris":{"android":"levelo://app?vid=2ed79b9d-2fa7-41c3-b5df-eae21f7572f3","ios":"levelo://app?vid=2ed79b9d-2fa7-41c3-b5df-eae21f7572f3"},"vehicle_type_id":"4","last_reported":1750785051,"current_range_meters":17600,"station_id":"ce4bhhh2rcd13ifvqfk0","pricing_plan_id":"cebpf4jnsgd1na2vs0mg"},{"bike_id":"6da0d080-b7af-4ec5-9975-c8710b868cdc","system_id":"levelo_inurba_marseille","lat":43.24391,"lon":5.37054,"is_reserved":false,"is_disabled":false,"rental_uris":{"android":"levelo://app?vid=6da0d080-b7af-4ec5-9975-c8710b868cdc","ios":"levelo://app?vid=6da0d080-b7af-4ec5-9975-c8710b868cdc"},"vehicle_type_id":"4","last_reported":1750785051,"current_range_meters":17600,"station_id":"ce4bhhh2rcd13ifvqfk0","pricing_plan_id":"cebpf4jnsgd1na2vs0mg"},{"bike_id":"e18f92e8-731a-4496-a8d3-d08913a78e27","system_id":"levelo_inurba_marseille","lat":43.287216,"lon":5.360665,"is_reserved":false,"is_disabled":false,"rental_uris":{"android":"levelo://app?vid=e18f92e8-731a-4496-a8d3-d08913a78e27","ios":"levelo://app?vid=e18f92e8-731a-4496-a8d3-d08913a78e27"},"vehicle_type_id":"4","last_reported":1750785051,"current_range_meters":17600,"station_id":"cki0cbj6b192h4jlfktg","pricing_plan_id":"cebpf4jnsgd1na2vs0mg"},{"bike_id":"fc1021d2-7bd8-41cc-a566-5df5c9bc4ea6","system_id":"levelo_inurba_marseille","lat":43.21196,"lon":5.35081,"is_reserved":false,"is_disabled":false,"rental_uris":{"android":"levelo://app?vid=fc1021d2-7bd8-41cc-a566-5df5c9bc4ea6","ios":"levelo://app?vid=fc1021d2-7bd8-41cc-a566-5df5c9bc4ea6"},"vehicle_type_id":"4","last_reported":1750785051,"current_range_meters":17600,"station_id":"st_cvj6sg6p6f1abm77japg","pricing_plan_id":"cebpf4jnsgd1na2vs0mg"},{"bike_id":"e2f5b300-4a63-4778-aada-c29a8a0ea1e8","system_id":"levelo_inurba_marseille","lat":43.32831,"lon":5.391542,"is_reserved":false,"is_disabled":false,"rental_uris":{"android":"levelo://app?vid=e2f5b300-4a63-4778-aada-c29a8a0ea1e8","ios":"levelo://app?vid=e2f5b300-4a63-4778-aada-c29a8a0ea1e8"},"vehicle_type_id":"4","last_reported":1750785051,"current_range_meters":18000,"station_id":"","pricing_plan_id":"cebpf4jnsgd1na2vs0mg"},{"bike_id":"5b0059f2-5a2a-41ce-b903-1f956adfdd24","system_id":"levelo_inurba_marseille","lat":43.29796,"lon":5.43571,"is_reserved":false,"is_disabled":false,"rental_uris":{"android":"levelo://app?vid=5b0059f2-5a2a-41ce-b903-1f956adfdd24","ios":"levelo://app?vid=5b0059f2-5a2a-41ce-b903-1f956adfdd24"},"vehicle_type_id":"4","last_reported":1750785051,"current_range_meters":18000,"station_id":"","pricing_plan_id":"cebpf4jnsgd1na2vs0mg"},{"bike_id":"51b9029c-a8b4-49be-88a9-639814edcae4","system_id":"levelo_inurba_marseille","lat":43.2844,"lon":5.34992,"is_reserved":false,"is_disabled":false,"rental_uris":{"android":"levelo://app?vid=51b9029c-a8b4-49be-88a9-639814edcae4","ios":"levelo://app?vid=51b9029c-a8b4-49be-88a9-639814edcae4"},"vehicle_type_id":"4","last_reported":1750785051,"current_range_meters":18000,"station_id":"ce4bhbh2rcd13ifvqepg","pricing_plan_id":"cebpf4jnsgd1na2vs0mg"},{"bike_id":"1c32a296-bd36-4db1-9202-f567bbdcd860","system_id":"levelo_inurba_marseille","lat":43.26557,"lon":5.37281,"is_reserved":false,"is_disabled":false,"rental_uris":{"android":"levelo://app?vid=1c32a296-bd36-4db1-9202-f567bbdcd860","ios":"levelo://app?vid=1c32a296-bd36-4db1-9202-f567bbdcd860"},"vehicle_type_id":"4","last_reported":1750785051,"current_range_meters":18000,"station_id":"ce4bhg12rcd13ifvqf70","pricing_plan_id":"cebpf4jnsgd1na2vs0mg"},{"bike_id":"8fc36912-d7a7-4c5e-bf3c-ae03694d6ba3","system_id":"levelo_inurba_marseille","lat":43.21217,"lon":5.35087,"is_reserved":false,"is_disabled":false,"rental_uris":{"android":"levelo://app?vid=8fc36912-d7a7-4c5e-bf3c-ae03694d6ba3","ios":"levelo://app?vid=8fc36912-d7a7-4c5e-bf3c-ae03694d6ba3"},"vehicle_type_id":"4","last_reported":1750785051,"current_range_meters":18000,"station_id":"st_cvj6sg6p6f1abm77japg","pricing_plan_id":"cebpf4jnsgd1na2vs0mg"},{"bike_id":"dbc3f577-680e-4c56-8316-9c85c9ff89a8","system_id":"levelo_inurba_marseille","lat":43.314942,"lon":5.373095,"is_reserved":false,"is_disabled":false,"rental_uris":{"android":"levelo://app?vid=dbc3f577-680e-4c56-8316-9c85c9ff89a8","ios":"levelo://app?vid=dbc3f577-680e-4c56-8316-9c85c9ff89a8"},"vehicle_type_id":"4","last_reported":1750785051,"current_range_meters":18800,"station_id":"ce4bgt12rcd13ifvqcd0","pricing_plan_id":"cebpf4jnsgd1na2vs0mg"},{"bike_id":"55120179-28de-4686-ab14-32811c502cc6","system_id":"levelo_inurba_marseille","lat":43.27375,"lon":5.36259,"is_reserved":false,"is_disabled":false,"rental_uris":{"android":"levelo://app?vid=55120179-28de-4686-ab14-32811c502cc6","ios":"levelo://app?vid=55120179-28de-4686-ab14-32811c502cc6"},"vehicle_type_id":"4","last_reported":1750785051,"current_range_meters":18800,"station_id":"ce4bhbh2rcd13ifvqeo0","pricing_plan_id":"cebpf4jnsgd1na2vs0mg"},{"bike_id":"7a558d12-1710-489f-80a0-cd39d2766c60","system_id":"levelo_inurba_marseille","lat":43.26555,"lon":5.37283,"is_reserved":false,"is_disabled":false,"rental_uris":{"android":"levelo://app?vid=7a558d12-1710-489f-80a0-cd39d2766c60","ios":"levelo://app?vid=7a558d12-1710-489f-80a0-cd39d2766c60"},"vehicle_type_id":"4","last_reported":1750785051,"current_range_meters":18800,"station_id":"ce4bhg12rcd13ifvqf70","pricing_plan_id":"cebpf4jnsgd1na2vs0mg"},{"bike_id":"5dcac746-3037-4766-9aa2-58624a599488","system_id":"levelo_inurba_marseille","lat":43.27066,"lon":5.42284,"is_reserved":false,"is_disabled":false,"rental_uris":{"android":"levelo://app?vid=5dcac746-3037-4766-9aa2-58624a599488","ios":"levelo://app?vid=5dcac746-3037-4766-9aa2-58624a599488"},"vehicle_type_id":"4","last_reported":1750785051,"current_range_meters":18800,"station_id":"ce4bhk92rcd13ifvqgb0","pricing_plan_id":"cebpf4jnsgd1na2vs0mg"},{"bike_id":"18028507-ab03-4edb-86b7-ab7704d2c26f","system_id":"levelo_inurba_marseille","lat":43.211961,"lon":5.350706,"is_reserved":false,"is_disabled":false,"rental_uris":{"android":"levelo://app?vid=18028507-ab03-4edb-86b7-ab7704d2c26f","ios":"levelo://app?vid=18028507-ab03-4edb-86b7-ab7704d2c26f"},"vehicle_type_id":"4","last_reported":1750785051,"current_range_meters":18800,"station_id":"st_cvj6sg6p6f1abm77japg","pricing_plan_id":"cebpf4jnsgd1na2vs0mg"},{"bike_id":"83d64502-1fc6-4760-a2e0-8853a567ee49","system_id":"levelo_inurba_marseille","lat":43.33183,"lon":5.41039,"is_reserved":false,"is_disabled":false,"rental_uris":{"android":"levelo://app?vid=83d64502-1fc6-4760-a2e0-8853a567ee49","ios":"levelo://app?vid=83d64502-1fc6-4760-a2e0-8853a567ee49"},"vehicle_type_id":"4","last_reported":1750785051,"current_range_meters":19200,"station_id":"","pricing_plan_id":"cebpf4jnsgd1na2vs0mg"},{"bike_id":"85cc4651-cb72-4774-a8c2-529200729370","system_id":"levelo_inurba_marseille","lat":43.301465,"lon":5.374224,"is_reserved":false,"is_disabled":false,"rental_uris":{"android":"levelo://app?vid=85cc4651-cb72-4774-a8c2-529200729370","ios":"levelo://app?vid=85cc4651-cb72-4774-a8c2-529200729370"},"vehicle_type_id":"4","last_reported":1750785051,"current_range_meters":19200,"station_id":"ce4bgi92rcd13ifvqb90","pricing_plan_id":"cebpf4jnsgd1na2vs0mg"},{"bike_id":"fd164b1e-64f2-462e-b910-86a212950a0b","system_id":"levelo_inurba_marseille","lat":43.29164,"lon":5.37165,"is_reserved":false,"is_disabled":false,"rental_uris":{"android":"levelo://app?vid=fd164b1e-64f2-462e-b910-86a212950a0b","ios":"levelo://app?vid=fd164b1e-64f2-462e-b910-86a212950a0b"},"vehicle_type_id":"4","last_reported":1750785051,"current_range_meters":19200,"station_id":"ce4bha92rcd13ifvqeh0","pricing_plan_id":"cebpf4jnsgd1na2vs0mg"},{"bike_id":"0afd4c2a-5a02-4d05-a3f9-ab3a2c3b10b5","system_id":"levelo_inurba_marseille","lat":43.28418,"lon":5.3499,"is_reserved":false,"is_disabled":false,"rental_uris":{"android":"levelo://app?vid=0afd4c2a-5a02-4d05-a3f9-ab3a2c3b10b5","ios":"levelo://app?vid=0afd4c2a-5a02-4d05-a3f9-ab3a2c3b10b5"},"vehicle_type_id":"4","last_reported":1750785051,"current_range_meters":19200,"station_id":"ce4bhbh2rcd13ifvqepg","pricing_plan_id":"cebpf4jnsgd1na2vs0mg"},{"bike_id":"9d52ae7c-3bfc-4879-b169-67c07cec03d9","system_id":"levelo_inurba_marseille","lat":43.284386,"lon":5.368119,"is_reserved":false,"is_disabled":false,"rental_uris":{"android":"levelo://app?vid=9d52ae7c-3bfc-4879-b169-67c07cec03d9","ios":"levelo://app?vid=9d52ae7c-3bfc-4879-b169-67c07cec03d9"},"vehicle_type_id":"4","last_reported":1750785051,"current_range_meters":19600,"station_id":"","pricing_plan_id":"cebpf4jnsgd1na2vs0mg"},{"bike_id":"76a5407a-8899-44ca-ac22-a3d6fadbb197","system_id":"levelo_inurba_marseille","lat":43.297943,"lon":5.404051,"is_reserved":false,"is_disabled":false,"rental_uris":{"android":"levelo://app?vid=76a5407a-8899-44ca-ac22-a3d6fadbb197","ios":"levelo://app?vid=76a5407a-8899-44ca-ac22-a3d6fadbb197"},"vehicle_type_id":"4","last_reported":1750785051,"current_range_meters":19600,"station_id":"ce4bh112rcd13ifvqd90","pricing_plan_id":"cebpf4jnsgd1na2vs0mg"},{"bike_id":"0dc6e3a2-1f77-4e88-b00b-5ccb0a77e0ae","system_id":"levelo_inurba_marseille","lat":43.29041,"lon":5.35911,"is_reserved":false,"is_disabled":false,"rental_uris":{"android":"levelo://app?vid=0dc6e3a2-1f77-4e88-b00b-5ccb0a77e0ae","ios":"levelo://app?vid=0dc6e3a2-1f77-4e88-b00b-5ccb0a77e0ae"},"vehicle_type_id":"4","last_reported":1750785051,"current_range_meters":19600,"station_id":"ce4bha92rcd13ifvqeg0","pricing_plan_id":"cebpf4jnsgd1na2vs0mg"},{"bike_id":"4fd56114-4c8f-40f1-ac91-ae9e46251a9d","system_id":"levelo_inurba_marseille","lat":43.290023,"lon":5.356152,"is_reserved":false,"is_disabled":false,"rental_uris":{"android":"levelo://app?vid=4fd56114-4c8f-40f1-ac91-ae9e46251a9d","ios":"levelo://app?vid=4fd56114-4c8f-40f1-ac91-ae9e46251a9d"},"vehicle_type_id":"4","last_reported":1750785051,"current_range_meters":19600,"station_id":"ce4bhb92rcd13ifvqen0","pricing_plan_id":"cebpf4jnsgd1na2vs0mg"},{"bike_id":"ae84ea09-0cf3-4795-8cf9-40b3008a6f17","system_id":"levelo_inurba_marseille","lat":43.28417,"lon":5.34998,"is_reserved":false,"is_disabled":false,"rental_uris":{"android":"levelo://app?vid=ae84ea09-0cf3-4795-8cf9-40b3008a6f17","ios":"levelo://app?vid=ae84ea09-0cf3-4795-8cf9-40b3008a6f17"},"vehicle_type_id":"4","last_reported":1750785051,"current_range_meters":19600,"station_id":"ce4bhbh2rcd13ifvqepg","pricing_plan_id":"cebpf4jnsgd1na2vs0mg"},{"bike_id":"64c4a215-35fd-4aaf-9bf6-b0b267ebe1bc","system_id":"levelo_inurba_marseille","lat":43.284216,"lon":5.349971,"is_reserved":false,"is_disabled":false,"rental_uris":{"android":"levelo://app?vid=64c4a215-35fd-4aaf-9bf6-b0b267ebe1bc","ios":"levelo://app?vid=64c4a215-35fd-4aaf-9bf6-b0b267ebe1bc"},"vehicle_type_id":"4","last_reported":1750785051,"current_range_meters":19600,"station_id":"ce4bhbh2rcd13ifvqepg","pricing_plan_id":"cebpf4jnsgd1na2vs0mg"},{"bike_id":"1d4cbdbc-5e50-4a85-b3c4-1df51a133233","system_id":"levelo_inurba_marseille","lat":43.26207,"lon":5.37444,"is_reserved":false,"is_disabled":false,"rental_uris":{"android":"levelo://app?vid=1d4cbdbc-5e50-4a85-b3c4-1df51a133233","ios":"levelo://app?vid=1d4cbdbc-5e50-4a85-b3c4-1df51a133233"},"vehicle_type_id":"4","last_reported":1750785051,"current_range_meters":19600,"station_id":"ce4bhgp2rcd13ifvqfc0","pricing_plan_id":"cebpf4jnsgd1na2vs0mg"},{"bike_id":"b3b3edc9-2d62-4162-829c-55f945f8dec1","system_id":"levelo_inurba_marseille","lat":43.28001,"lon":5.40022,"is_reserved":false,"is_disabled":false,"rental_uris":{"android":"levelo://app?vid=b3b3edc9-2d62-4162-829c-55f945f8dec1","ios":"levelo://app?vid=b3b3edc9-2d62-4162-829c-55f945f8dec1"},"vehicle_type_id":"4","last_reported":1750785051,"current_range_meters":19600,"station_id":"ce4bho92rcd13ifvqh4g","pricing_plan_id":"cebpf4jnsgd1na2vs0mg"},{"bike_id":"05e30038-4e1d-4cbc-93b1-6988d73a4a50","system_id":"levelo_inurba_marseille","lat":43.30379,"lon":5.42487,"is_reserved":false,"is_disabled":false,"rental_uris":{"android":"levelo://app?vid=05e30038-4e1d-4cbc-93b1-6988d73a4a50","ios":"levelo://app?vid=05e30038-4e1d-4cbc-93b1-6988d73a4a50"},"vehicle_type_id":"4","last_reported":1750785051,"current_range_meters":19600,"station_id":"ce4bhoh2rcd13ifvqh6g","pricing_plan_id":"cebpf4jnsgd1na2vs0mg"},{"bike_id":"136b70a2-bd15-437a-bbd7-d7214b7be128","system_id":"levelo_inurba_marseille","lat":43.26216,"lon":5.374457,"is_reserved":false,"is_disabled":false,"rental_uris":{"android":"levelo://app?vid=136b70a2-bd15-437a-bbd7-d7214b7be128","ios":"levelo://app?vid=136b70a2-bd15-437a-bbd7-d7214b7be128"},"vehicle_type_id":"4","last_reported":1750785051,"current_range_meters":20000,"station_id":"ce4bhgp2rcd13ifvqfc0","pricing_plan_id":"cebpf4jnsgd1na2vs0mg"},{"bike_id":"cd0f9774-eeee-4a31-a43d-66cc67443dae","system_id":"levelo_inurba_marseille","lat":43.2808,"lon":5.39663,"is_reserved":false,"is_disabled":false,"rental_uris":{"android":"levelo://app?vid=cd0f9774-eeee-4a31-a43d-66cc67443dae","ios":"levelo://app?vid=cd0f9774-eeee-4a31-a43d-66cc67443dae"},"vehicle_type_id":"4","last_reported":1750785051,"current_range_meters":20000,"station_id":"ce4bho12rcd13ifvqh2g","pricing_plan_id":"cebpf4jnsgd1na2vs0mg"},