{"last_updated":1768397587,"ttl":60,"version":"2.2","data":{"bikes":[{"bike_id":"3db0fcf7-9abc-4be1-b3b7-ce569865437a","system_id":"levelo_inurba_marseille","lat":43.24951,"lon":5.40499,"is_reserved":false,"is_disabled":false,"rental_uris":{"android":"levelo://app?vid=3db0fcf7-9abc-4be1-b3b7-ce569865437a","ios":"levelo://app?vid=3db0fcf7-9abc-4be1-b3b7-ce569865437a"},"vehicle_type_id":"4","last_reported":1768397588,"current_range_meters":2800,"station_id":"st_d2ngiaodas8pm72gd1h0","pricing_plan_id":"cebpf4jnsgd1na2vs0mg"},{"bike_id":"c8ae3415-c729-4343-878c-40d0371d5214","system_id":"levelo_inurba_marseille","lat":43.30959,"lon":5.39069,"is_reserved":false,"is_disabled":false,"rental_uris":{"android":"levelo://app?vid=c8ae3415-c729-4343-878c-40d0371d5214","ios":"levelo://app?vid=c8ae3415-c729-4343-878c-40d0371d5214"},"vehicle_type_id":"4","last_reported":1768397588,"current_range_meters":2800,"station_id":"ce4bgup2rcd13ifvqco0","pricing_plan_id":"cebpf4jnsgd1na2vs0mg"},{"bike_id":"b945bd28-a3b4-4961-a0bf-743fe57cc1a5","system_id":"levelo_inurba_marseille","lat":43.29851,"lon":5.43684,"is_reserved":false,"is_disabled":false,"rental_uris":{"android":"levelo://app?vid=b945bd28-a3b4-4961-a0bf-743fe57cc1a5","ios":"levelo://app?vid=b945bd28-a3b4-4961-a0bf-743fe57cc1a5"},"vehicle_type_id":"4","last_reported":1768397588,"current_range_meters":2800,"station_id":"ce4bhpp2rcd13ifvqhfg","pricing_plan_id":"cebpf4jnsgd1na2vs0mg"},{"bike_id":"b41f9551-ae47-4da7-a60d-f3352e00b4ad","system_id":"levelo_inurba_marseille","lat":43.2848,"lon":5.48387,"is_reserved":false,"is_disabled":false,"rental_uris":{"android":"levelo://app?vid=b41f9551-ae47-4da7-a60d-f3352e00b4ad","ios":"levelo://app?vid=b41f9551-ae47-4da7-a60d-f3352e00b4ad"},"vehicle_type_id":"4","last_reported":1768397588,"current_range_meters":2800,"station_id":"st_d3svhcjqgbts73a3dn0g","pricing_plan_id":"cebpf4jnsgd1na2vs0mg"},{"bike_id":"7e27fa0b-8076-443f-9ccc-b86d7127b555","system_id":"levelo_inurba_marseille","lat":43.28724,"lon":5.36101,"is_reserved":false,"is_disabled":false,"rental_uris":{"android":"levelo://app?vid=7e27fa0b-8076-443f-9ccc-b86d7127b555","ios":"levelo://app?vid=7e27fa0b-8076-443f-9ccc-b86d7127b555"},"vehicle_type_id":"4","last_reported":1768397588,"current_range_meters":2800,"station_id":"cki0cbj6b192h4jlfktg","pricing_plan_id":"cebpf4jnsgd1na2vs0mg"},{"bike_id":"841440e5-4cf2-4432-a161-4904d9a6bd15","system_id":"levelo_inurba_marseille","lat":43.28498,"lon":5.44134,"is_reserved":false,"is_disabled":false,"rental_uris":{"android":"levelo://app?vid=841440e5-4cf2-4432-a161-4904d9a6bd15","ios":"levelo://app?vid=841440e5-4cf2-4432-a161-4904d9a6bd15"},"vehicle_type_id":"4","last_reported":1768397588,"current_range_meters":2800,"station_id":"","pricing_plan_id":"cebpf4jnsgd1na2vs0mg"},{"bike_id":"157dd1ef-bf03-4fa8-9ab0-220bdebf70f7","system_id":"levelo_inurba_marseille","lat":43.24071,"lon":5.37765,"is_reserved":false,"is_disabled":false,"rental_uris":{"android":"levelo://app?vid=157dd1ef-bf03-4fa8-9ab0-220bdebf70f7","ios":"levelo://app?vid=157dd1ef-bf03-4fa8-9ab0-220bdebf70f7"},"vehicle_type_id":"4","last_reported":1768397588,"current_range_meters":2800,"station_id":"ce4bhnp2rcd13ifvqgvg","pricing_plan_id":"cebpf4jnsgd1na2vs0mg"},{"bike_id":"c3070c5b-5a54-415c-a0e3-5e08710e59b8","system_id":"levelo_inurba_marseille","lat":43.30933,"lon":5.401366,"is_reserved":false,"is_disabled":false,"rental_uris":{"android":"levelo://app?vid=c3070c5b-5a54-415c-a0e3-5e08710e59b8","ios":"levelo://app?vid=c3070c5b-5a54-415c-a0e3-5e08710e59b8"},"vehicle_type_id":"4","last_reported":1768397588,"current_range_meters":2800,"station_id":"","pricing_plan_id":"cebpf4jnsgd1na2vs0mg"},{"bike_id":"b9622b17-3746-4bc2-bd4b-3f727358b610","system_id":"levelo_inurba_marseille","lat":43.28045,"lon":5.36912,"is_reserved":false,"is_disabled":false,"rental_uris":{"android":"levelo://app?vid=b9622b17-3746-4bc2-bd4b-3f727358b610","ios":"levelo://app?vid=b9622b17-3746-4bc2-bd4b-3f727358b610"},"vehicle_type_id":"4","last_reported":1768397588,"current_range_meters":2800,"station_id":"ce4bha12rcd13ifvqef0","pricing_plan_id":"cebpf4jnsgd1na2vs0mg"},{"bike_id":"4f96e7e9-3c4c-4d3a-a015-8e17396c5d85","system_id":"levelo_inurba_marseille","lat":43.27251,"lon":5.3919,"is_reserved":false,"is_disabled":false,"rental_uris":{"android":"levelo://app?vid=4f96e7e9-3c4c-4d3a-a015-8e17396c5d85","ios":"levelo://app?vid=4f96e7e9-3c4c-4d3a-a015-8e17396c5d85"},"vehicle_type_id":"4","last_reported":1768397588,"current_range_meters":2800,"station_id":"ce4bhhp2rcd13ifvqfm0","pricing_plan_id":"cebpf4jnsgd1na2vs0mg"},{"bike_id":"b537be1a-24c0-4b94-84b0-a74a4a51e3e7","system_id":"levelo_inurba_marseille","lat":43.293734,"lon":5.378438,"is_reserved":false,"is_disabled":false,"rental_uris":{"android":"levelo://app?vid=b537be1a-24c0-4b94-84b0-a74a4a51e3e7","ios":"levelo://app?vid=b537be1a-24c0-4b94-84b0-a74a4a51e3e7"},"vehicle_type_id":"4","last_reported":1768397588,"current_range_meters":2800,"station_id":"ce4bgjh2rcd13ifvqbf0","pricing_plan_id":"cebpf4jnsgd1na2vs0mg"},{"bike_id":"3655a9f7-901b-4885-8038-e7046951f14d","system_id":"levelo_inurba_marseille","lat":43.2975,"lon":5.42775,"is_reserved":false,"is_disabled":false,"rental_uris":{"android":"levelo://app?vid=3655a9f7-901b-4885-8038-e7046951f14d","ios":"levelo://app?vid=3655a9f7-901b-4885-8038-e7046951f14d"},"vehicle_type_id":"4","last_reported":1768397588,"current_range_meters":2800,"station_id":"st_d3md5207bmas73dh9klg","pricing_plan_id":"cebpf4jnsgd1na2vs0mg"},{"bike_id":"1104f587-3777-4d17-9b58-b6d053090d96","system_id":"levelo_inurba_marseille","lat":43.23183,"lon":5.35534,"is_reserved":false,"is_disabled":false,"rental_uris":{"android":"levelo://app?vid=1104f587-3777-4d17-9b58-b6d053090d96","ios":"levelo://app?vid=1104f587-3777-4d17-9b58-b6d053090d96"},"vehicle_type_id":"4","last_reported":1768397588,"current_range_meters":2800,"station_id":"ce4bhu92rcd13ifvqi70","pricing_plan_id":"cebpf4jnsgd1na2vs0mg"},{"bike_id":"4210b5e1-14c0-4350-9f09-b328efe96417","system_id":"levelo_inurba_marseille","lat":43.3017,"lon":5.37114,"is_reserved":false,"is_disabled":false,"rental_uris":{"android":"levelo://app?vid=4210b5e1-14c0-4350-9f09-b328efe96417","ios":"levelo://app?vid=4210b5e1-14c0-4350-9f09-b328efe96417"},"vehicle_type_id":"4","last_reported":1768397588,"current_range_meters":3200,"station_id":"","pricing_plan_id":"cebpf4jnsgd1na2vs0mg"},{"bike_id":"754deb6d-b707-4695-aea3-a1b1544cd133","system_id":"levelo_inurba_marseille","lat":43.31591,"lon":5.3665,"is_reserved":false,"is_disabled":false,"rental_uris":{"android":"levelo://app?vid=754deb6d-b707-4695-aea3-a1b1544cd133","ios":"levelo://app?vid=754deb6d-b707-4695-aea3-a1b1544cd133"},"vehicle_type_id":"4","last_reported":1768397588,"current_range_meters":3200,"station_id":"","pricing_plan_id":"cebpf4jnsgd1na2vs0mg"},{"bike_id":"fcaab983-a258-4ddb-9754-72b82901f58f","system_id":"levelo_inurba_marseille","lat":43.32285,"lon":5.3827,"is_reserved":false,"is_disabled":false,"rental_uris":{"android":"levelo://app?vid=fcaab983-a258-4ddb-9754-72b82901f58f","ios":"levelo://app?vid=fcaab983-a258-4ddb-9754-72b82901f58f"},"vehicle_type_id":"4","last_reported":1768397588,"current_range_meters":3200,"station_id":"ce4bhr12rcd13ifvqhqg","pricing_plan_id":"cebpf4jnsgd1na2vs0mg"},{"bike_id":"93ee6405-db38-4ca6-acc1-e8de6e8d2bdc","system_id":"levelo_inurba_marseille","lat":43.32471,"lon":5.36606,"is_reserved":false,"is_disabled":false,"rental_uris":{"android":"levelo://app?vid=93ee6405-db38-4ca6-acc1-e8de6e8d2bdc","ios":"levelo://app?vid=93ee6405-db38-4ca6-acc1-e8de6e8d2bdc"},"vehicle_type_id":"4","last_reported":1768397588,"current_range_meters":3200,"station_id":"ce4bhs12rcd13ifvqhvg","pricing_plan_id":"cebpf4jnsgd1na2vs0mg"},{"bike_id":"13cd38e8-d512-4cfd-951f-24fea91e2d49","system_id":"levelo_inurba_marseille","lat":43.30192,"lon":5.36617,"is_reserved":false,"is_disabled":false,"rental_uris":{"android":"levelo://app?vid=13cd38e8-d512-4cfd-951f-24fea91e2d49","ios":"levelo://app?vid=13cd38e8-d512-4cfd-951f-24fea91e2d49"},"vehicle_type_id":"4","last_reported":1768397588,"current_range_meters":3200,"station_id":"ce4bgrh2rcd13ifvqc8g","pricing_plan_id":"cebpf4jnsgd1na2vs0mg"},{"bike_id":"e4e39fe3-279d-442f-9631-d1edfbfd2973","system_id":"levelo_inurba_marseille","lat":43.29032,"lon":5.38123,"is_reserved":false,"is_disabled":false,"rental_uris":{"android":"levelo://app?vid=e4e39fe3-279d-442f-9631-d1edfbfd2973","ios":"levelo://app?vid=e4e39fe3-279d-442f-9631-d1edfbfd2973"},"vehicle_type_id":"4","last_reported":1768397588,"current_range_meters":3200,"station_id":"ce4bh4p2rcd13ifvqe1g","pricing_plan_id":"cebpf4jnsgd1na2vs0mg"},{"bike_id":"3731f08b-bd34-49fd-a347-633c576cfa2f","system_id":"levelo_inurba_marseille","lat":43.2958,"lon":5.375,"is_reserved":false,"is_disabled":false,"rental_uris":{"android":"levelo://app?vid=3731f08b-bd34-49fd-a347-633c576cfa2f","ios":"levelo://app?vid=3731f08b-bd34-49fd-a347-633c576cfa2f"},"vehicle_type_id":"4","last_reported":1768397588,"current_range_meters":3200,"station_id":"ce4bgh92rcd13ifvqb50","pricing_plan_id":"cebpf4jnsgd1na2vs0mg"},{"bike_id":"7af13e9c-1761-41d0-87e5-35c03d8aedd1","system_id":"levelo_inurba_marseille","lat":43.310552,"lon":5.371659,"is_reserved":false,"is_disabled":false,"rental_uris":{"android":"levelo://app?vid=7af13e9c-1761-41d0-87e5-35c03d8aedd1","ios":"levelo://app?vid=7af13e9c-1761-41d0-87e5-35c03d8aedd1"},"vehicle_type_id":"4","last_reported":1768397588,"current_range_meters":3200,"station_id":"","pricing_plan_id":"cebpf4jnsgd1na2vs0mg"},{"bike_id":"2013c6e9-aa68-4838-a6c5-afcee2a0f9c4","system_id":"levelo_inurba_marseille","lat":43.2649,"lon":5.39545,"is_reserved":false,"is_disabled":false,"rental_uris":{"android":"levelo://app?vid=2013c6e9-aa68-4838-a6c5-afcee2a0f9c4","ios":"levelo://app?vid=2013c6e9-aa68-4838-a6c5-afcee2a0f9c4"},"vehicle_type_id":"4","last_reported":1768397588,"current_range_meters":3200,"station_id":"ce4bhi12rcd13ifvqfq0","pricing_plan_id":"cebpf4jnsgd1na2vs0mg"},{"bike_id":"19acb0d9-5641-4610-b2b2-7ba868c5f563","system_id":"levelo_inurba_marseille","lat":43.23963,"lon":5.36618,"is_reserved":false,"is_disabled":false,"rental_uris":{"android":"levelo://app?vid=19acb0d9-5641-4610-b2b2-7ba868c5f563","ios":"levelo://app?vid=19acb0d9-5641-4610-b2b2-7ba868c5f563"},"vehicle_type_id":"4","last_reported":1768397588,"current_range_meters":3200,"station_id":"ce4bhi12rcd13ifvqfp0","pricing_plan_id":"cebpf4jnsgd1na2vs0mg"},{"bike_id":"3502b945-707a-499e-b3af-6caf8e3903bc","system_id":"levelo_inurba_marseille","lat":43.28468,"lon":5.48394,"is_reserved":false,"is_disabled":false,"rental_uris":{"android":"levelo://app?vid=3502b945-707a-499e-b3af-6caf8e3903bc","ios":"levelo://app?vid=3502b945-707a-499e-b3af-6caf8e3903bc"},"vehicle_type_id":"4","last_reported":1768397588,"current_range_meters":3200,"station_id":"","pricing_plan_id":"cebpf4jnsgd1na2vs0mg"},{"bike_id":"bee2231a-aedd-4f8a-ae11-883f123d575e","system_id":"levelo_inurba_marseille","lat":43.31228,"lon":5.38167,"is_reserved":false,"is_disabled":false,"rental_uris":{"android":"levelo://app?vid=bee2231a-aedd-4f8a-ae11-883f123d575e","ios":"levelo://app?vid=bee2231a-aedd-4f8a-ae11-883f123d575e"},"vehicle_type_id":"4","last_reported":1768397588,"current_range_meters":3200,"station_id":"","pricing_plan_id":"cebpf4jnsgd1na2vs0mg"},{"bike_id":"d93aad5b-726f-4681-895f-a4263493fbd8","system_id":"levelo_inurba_marseille","lat":43.3015,"lon":5.38083,"is_reserved":false,"is_disabled":false,"rental_uris":{"android":"levelo://app?vid=d93aad5b-726f-4681-895f-a4263493fbd8","ios":"levelo://app?vid=d93aad5b-726f-4681-895f-a4263493fbd8"},"vehicle_type_id":"4","last_reported":1768397588,"current_range_meters":3600,"station_id":"ce4bgjp2rcd13ifvqbh0","pricing_plan_id":"cebpf4jnsgd1na2vs0mg"},{"bike_id":"00cb53be-8592-4897-aa11-e3ff37e49a96","system_id":"levelo_inurba_marseille","lat":43.290044,"lon":5.381321,"is_reserved":false,"is_disabled":false,"rental_uris":{"android":"levelo://app?vid=00cb53be-8592-4897-aa11-e3ff37e49a96","ios":"levelo://app?vid=00cb53be-8592-4897-aa11-e3ff37e49a96"},"vehicle_type_id":"4","last_reported":1768397588,"current_range_meters":3600,"station_id":"ce4bh4p2rcd13ifvqe1g","pricing_plan_id":"cebpf4jnsgd1na2vs0mg"},{"bike_id":"1801c6f9-0c65-4e78-bbf2-c91fed55b8f3","system_id":"levelo_inurba_marseille","lat":43.26203,"lon":5.37456,"is_reserved":false,"is_disabled":false,"rental_uris":{"android":"levelo://app?vid=1801c6f9-0c65-4e78-bbf2-c91fed55b8f3","ios":"levelo://app?vid=1801c6f9-0c65-4e78-bbf2-c91fed55b8f3"},"vehicle_type_id":"4","last_reported":1768397588,"current_range_meters":3600,"station_id":"ce4bhgp2rcd13ifvqfc0","pricing_plan_id":"cebpf4jnsgd1na2vs0mg"},{"bike_id":"ea9769ab-39d8-4325-b701-f75eef547046","system_id":"levelo_inurba_marseille","lat":43.22528,"lon":5.34843,"is_reserved":false,"is_disabled":false,"rental_uris":{"android":"levelo://app?vid=ea9769ab-39d8-4325-b701-f75eef547046","ios":"levelo://app?vid=ea9769ab-39d8-4325-b701-f75eef547046"},"vehicle_type_id":"4","last_reported":1768397588,"current_range_meters":3600,"station_id":"st_cvj5dfep6f1abm77gieg","pricing_plan_id":"cebpf4jnsgd1na2vs0mg"},{"bike_id":"e7e05fd4-e640-492f-ab7c-0006c2b4672f","system_id":"levelo_inurba_marseille","lat":43.33152,"lon":5.37714,"is_reserved":false,"is_disabled":false,"rental_uris":{"android":"levelo://app?vid=e7e05fd4-e640-492f-ab7c-0006c2b4672f","ios":"levelo://app?vid=e7e05fd4-e640-492f-ab7c-0006c2b4672f"},"vehicle_type_id":"4","last_reported":1768397588,"current_range_meters":3600,"station_id":"st_d46cu089ee8s73dldbu0","pricing_plan_id":"cebpf4jnsgd1na2vs0mg"},{"bike_id":"8a7b85d3-c7d2-4196-b1ab-690364287dcf","system_id":"levelo_inurba_marseille","lat":43.31353,"lon":5.36722,"is_reserved":false,"is_disabled":false,"rental_uris":{"android":"levelo://app?vid=8a7b85d3-c7d2-4196-b1ab-690364287dcf","ios":"levelo://app?vid=8a7b85d3-c7d2-4196-b1ab-690364287dcf"},"vehicle_type_id":"4","last_reported":1768397588,"current_range_meters":3600,"station_id":"ce4bgr92rcd13ifvqc6g","pricing_plan_id":"cebpf4jnsgd1na2vs0mg"},{"bike_id":"49d55549-69f4-42b4-b525-808273537b0c","system_id":"levelo_inurba_marseille","lat":43.27823,"lon":5.39204,"is_reserved":false,"is_disabled":false,"rental_uris":{"android":"levelo://app?vid=49d55549-69f4-42b4-b525-808273537b0c","ios":"levelo://app?vid=49d55549-69f4-42b4-b525-808273537b0c"},"vehicle_type_id":"4","last_reported":1768397588,"current_range_meters":3600,"station_id":"ce4bhjp2rcd13ifvqga0","pricing_plan_id":"cebpf4jnsgd1na2vs0mg"},{"bike_id":"f970f8ab-b8b8-4d5b-83fd-bac5e2c16217","system_id":"levelo_inurba_marseille","lat":43.309618,"lon":5.390358,"is_reserved":false,"is_disabled":false,"rental_uris":{"android":"levelo://app?vid=f970f8ab-b8b8-4d5b-83fd-bac5e2c16217","ios":"levelo://app?vid=f970f8ab-b8b8-4d5b-83fd-bac5e2c16217"},"vehicle_type_id":"4","last_reported":1768397588,"current_range_meters":3600,"station_id":"ce4bgup2rcd13ifvqco0","pricing_plan_id":"cebpf4jnsgd1na2vs0mg"},{"bike_id":"1680fad3-9e51-4c48-a9a6-3ed8179fb100","system_id":"levelo_inurba_marseille","lat":43.28366,"lon":5.38628,"is_reserved":false,"is_disabled":false,"rental_uris":{"android":"levelo://app?vid=1680fad3-9e51-4c48-a9a6-3ed8179fb100","ios":"levelo://app?vid=1680fad3-9e51-4c48-a9a6-3ed8179fb100"},"vehicle_type_id":"4","last_reported":1768397588,"current_range_meters":3600,"station_id":"ce4bh492rcd13ifvqdvg","pricing_plan_id":"cebpf4jnsgd1na2vs0mg"},{"bike_id":"ce551ba0-329a-4fbc-bb52-001c2d508d21","system_id":"levelo_inurba_marseille","lat":43.288587,"lon":5.358629,"is_reserved":false,"is_disabled":false,"rental_uris":{"android":"levelo://app?vid=ce551ba0-329a-4fbc-bb52-001c2d508d21","ios":"levelo://app?vid=ce551ba0-329a-4fbc-bb52-001c2d508d21"},"vehicle_type_id":"4","last_reported":1768397588,"current_range_meters":3600,"station_id":"ce4bhb12rcd13ifvqem0","pricing_plan_id":"cebpf4jnsgd1na2vs0mg"},{"bike_id":"2a79143f-3d8b-4742-85af-e8ce69787652","system_id":"levelo_inurba_marseille","lat":43.321021,"lon":5.367762,"is_reserved":false,"is_disabled":false,"rental_uris":{"android":"levelo://app?vid=2a79143f-3d8b-4742-85af-e8ce69787652","ios":"levelo://app?vid=2a79143f-3d8b-4742-85af-e8ce69787652"},"vehicle_type_id":"4","last_reported":1768397588,"current_range_meters":3600,"station_id":"ce4bhrh2rcd13ifvqhug","pricing_plan_id":"cebpf4jnsgd1na2vs0mg"},{"bike_id":"78475255-0093-44e8-a519-a30f6b2c24a8","system_id":"levelo_inurba_marseille","lat":43.29533,"lon":5.38536,"is_reserved":false,"is_disabled":false,"rental_uris":{"android":"levelo://app?vid=78475255-0093-44e8-a519-a30f6b2c24a8","ios":"levelo://app?vid=78475255-0093-44e8-a519-a30f6b2c24a8"},"vehicle_type_id":"4","last_reported":1768397588,"current_range_meters":3600,"station_id":"ce4bgih2rcd13ifvqba0","pricing_plan_id":"cebpf4jnsgd1na2vs0mg"},{"bike_id":"9ef4dbef-39ca-418f-828f-93cd41525421","system_id":"levelo_inurba_marseille","lat":43.29097,"lon":5.38122,"is_reserved":false,"is_disabled":false,"rental_uris":{"android":"levelo://app?vid=9ef4dbef-39ca-418f-828f-93cd41525421","ios":"levelo://app?vid=9ef4dbef-39ca-418f-828f-93cd41525421"},"vehicle_type_id":"4","last_reported":1768397588,"current_range_meters":3600,"station_id":"ce4bh512rcd13ifvqe2g","pricing_plan_id":"cebpf4jnsgd1na2vs0mg"},{"bike_id":"b523c110-d25e-4af1-b7ea-2ae80dfe757b","system_id":"levelo_inurba_marseille","lat":43.23793,"lon":5.36627,"is_reserved":false,"is_disabled":false,"rental_uris":{"android":"levelo://app?vid=b523c110-d25e-4af1-b7ea-2ae80dfe757b","ios":"levelo://app?vid=b523c110-d25e-4af1-b7ea-2ae80dfe757b"},"vehicle_type_id":"4","last_reported":1768397588,"current_range_meters":4000,"station_id":"st_d3nk18o9ro0c73en2l3g","pricing_plan_id":"cebpf4jnsgd1na2vs0mg"},{"bike_id":"1d115a65-13c1-4f91-aeb5-e8e1e9fe8ea5","system_id":"levelo_inurba_marseille","lat":43.28099,"lon":5.37824,"is_reserved":false,"is_disabled":false,"rental_uris":{"android":"levelo://app?vid=1d115a65-13c1-4f91-aeb5-e8e1e9fe8ea5","ios":"levelo://app?vid=1d115a65-13c1-4f91-aeb5-e8e1e9fe8ea5"},"vehicle_type_id":"4","last_reported":1768397588,"current_range_meters":4000,"station_id":"ce4bha12rcd13ifvqee0","pricing_plan_id":"cebpf4jnsgd1na2vs0mg"},{"bike_id":"00879588-3251-4688-8006-edf83559878f","system_id":"levelo_inurba_marseille","lat":43.31881,"lon":5.40735,"is_reserved":false,"is_disabled":false,"rental_uris":{"android":"levelo://app?vid=00879588-3251-4688-8006-edf83559878f","ios":"levelo://app?vid=00879588-3251-4688-8006-edf83559878f"},"vehicle_type_id":"4","last_reported":1768397588,"current_range_meters":4000,"station_id":"ce4bhq12rcd13ifvqhig","pricing_plan_id":"cebpf4jnsgd1na2vs0mg"},{"bike_id":"ee6bb603-2e1d-4a52-ab5e-41c6bc6127f2","system_id":"levelo_inurba_marseille","lat":43.25506,"lon":5.37656,"is_reserved":false,"is_disabled":false,"rental_uris":{"android":"levelo://app?vid=ee6bb603-2e1d-4a52-ab5e-41c6bc6127f2","ios":"levelo://app?vid=ee6bb603-2e1d-4a52-ab5e-41c6bc6127f2"},"vehicle_type_id":"4","last_reported":1768397588,"current_range_meters":4000,"station_id":"ce4bhh12rcd13ifvqff0","pricing_plan_id":"cebpf4jnsgd1na2vs0mg"},{"bike_id":"162df2af-c479-4dd8-b4e8-25c451ec3ee6","system_id":"levelo_inurba_marseille","lat":43.302736,"lon":5.376971,"is_reserved":false,"is_disabled":true,"rental_uris":{"android":"levelo://app?vid=162df2af-c479-4dd8-b4e8-25c451ec3ee6","ios":"levelo://app?vid=162df2af-c479-4dd8-b4e8-25c451ec3ee6"},"vehicle_type_id":"4","last_reported":1768397588,"current_range_meters":4000,"station_id":"","pricing_plan_id":"cebpf4jnsgd1na2vs0mg"},{"bike_id":"23a3eada-dea7-4044-b22b-1e0f7c60e76c","system_id":"levelo_inurba_marseille","lat":43.29517,"lon":5.392,"is_reserved":false,"is_disabled":true,"rental_uris":{"android":"levelo://app?vid=23a3eada-dea7-4044-b22b-1e0f7c60e76c","ios":"levelo://app?vid=23a3eada-dea7-4044-b22b-1e0f7c60e76c"},"vehicle_type_id":"4","last_reported":1768397588,"current_range_meters":4000,"station_id":"","pricing_plan_id":"cebpf4jnsgd1na2vs0mg"},{"bike_id":"eab307a5-607d-4af3-97e5-2d9b07d3522a","system_id":"levelo_inurba_marseille","lat":43.2439,"lon":5.37067,"is_reserved":false,"is_disabled":false,"rental_uris":{"android":"levelo://app?vid=eab307a5-607d-4af3-97e5-2d9b07d3522a","ios":"levelo://app?vid=eab307a5-607d-4af3-97e5-2d9b07d3522a"},"vehicle_type_id":"4","last_reported":1768397588,"current_range_meters":4000,"station_id":"ce4bhhh2rcd13ifvqfk0","pricing_plan_id":"cebpf4jnsgd1na2vs0mg"},{"bike_id":"486f5db0-76e1-427e-8da6-b795f5aacf8d","system_id":"levelo_inurba_marseille","lat":43.24392,"lon":5.37074,"is_reserved":false,"is_disabled":false,"rental_uris":{"android":"levelo://app?vid=486f5db0-76e1-427e-8da6-b795f5aacf8d","ios":"levelo://app?vid=486f5db0-76e1-427e-8da6-b795f5aacf8d"},"vehicle_type_id":"4","last_reported":1768397588,"current_range_meters":4000,"station_id":"ce4bhhh2rcd13ifvqfk0","pricing_plan_id":"cebpf4jnsgd1na2vs0mg"},{"bike_id":"644dfc11-0852-4e9f-9cb3-1fbca54c69b9","system_id":"levelo_inurba_marseille","lat":43.24169,"lon":5.39731,"is_reserved":false,"is_disabled":false,"rental_uris":{"android":"levelo://app?vid=644dfc11-0852-4e9f-9cb3-1fbca54c69b9","ios":"levelo://app?vid=644dfc11-0852-4e9f-9cb3-1fbca54c69b9"},"vehicle_type_id":"4","last_reported":1768397588,"current_range_meters":4000,"station_id":"ce4bhn12rcd13ifvqgpg","pricing_plan_id":"cebpf4jnsgd1na2vs0mg"},{"bike_id":"39becb68-37d2-4fe5-af83-65d5813b987b","system_id":"levelo_inurba_marseille","lat":43.32521,"lon":5.36879,"is_reserved":false,"is_disabled":false,"rental_uris":{"android":"levelo://app?vid=39becb68-37d2-4fe5-af83-65d5813b987b","ios":"levelo://app?vid=39becb68-37d2-4fe5-af83-65d5813b987b"},"vehicle_type_id":"4","last_reported":1768397588,"current_range_meters":4000,"station_id":"","pricing_plan_id":"cebpf4jnsgd1na2vs0mg"},{"bike_id":"99eb6c51-7f0f-4137-8b85-23f4caea2333","system_id":"levelo_inurba_marseille","lat":43.29889,"lon":5.39676,"is_reserved":false,"is_disabled":false,"rental_uris":{"android":"levelo://app?vid=99eb6c51-7f0f-4137-8b85-23f4caea2333","ios":"levelo://app?vid=99eb6c51-7f0f-4137-8b85-23f4caea2333"},"vehicle_type_id":"4","last_reported":1768397588,"current_range_meters":4000,"station_id":"ce4bh0h2rcd13ifvqd50","pricing_plan_id":"cebpf4jnsgd1na2vs0mg"},{"bike_id":"05d4c39b-0c04-44e1-a2e1-1abf5f4d7fd6","system_id":"levelo_inurba_marseille","lat":43.290833,"lon":5.380978,"is_reserved":false,"is_disabled":false,"rental_uris":{"android":"levelo://app?vid=05d4c39b-0c04-44e1-a2e1-1abf5f4d7fd6","ios":"levelo://app?vid=05d4c39b-0c04-44e1-a2e1-1abf5f4d7fd6"},"vehicle_type_id":"4","last_reported":1768397588,"current_range_meters":4000,"station_id":"ce4bh512rcd13ifvqe2g","pricing_plan_id":"cebpf4jnsgd1na2vs0mg"},{"bike_id":"c04c4039-f4f4-41b8-a35c-0dacc7e22081","system_id":"levelo_inurba_marseille","lat":43.28346,"lon":5.38107,"is_reserved":false,"is_disabled":false,"rental_uris":{"android":"levelo://app?vid=c04c4039-f4f4-41b8-a35c-0dacc7e22081","ios":"levelo://app?vid=c04c4039-f4f4-41b8-a35c-0dacc7e22081"},"vehicle_type_id":"4","last_reported":1768397588,"current_range_meters":4000,"station_id":"ce4bh412rcd13ifvqdr0","pricing_plan_id":"cebpf4jnsgd1na2vs0mg"},{"bike_id":"75dde17f-641f-4090-8e12-9ee7aeb7ba02","system_id":"levelo_inurba_marseille","lat":43.27209,"lon":5.39179,"is_reserved":false,"is_disabled":false,"rental_uris":{"android":"levelo://app?vid=75dde17f-641f-4090-8e12-9ee7aeb7ba02","ios":"levelo://app?vid=75dde17f-641f-4090-8e12-9ee7aeb7ba02"},"vehicle_type_id":"4","last_reported":1768397588,"current_range_meters":4000,"station_id":"ce4bhhp2rcd13ifvqfm0","pricing_plan_id":"cebpf4jnsgd1na2vs0mg"},{"bike_id":"e3db1e10-9e63-4baa-a8de-03d283813d72","system_id":"levelo_inurba_marseille","lat":43.30152,"lon":5.3741,"is_reserved":false,"is_disabled":false,"rental_uris":{"android":"levelo://app?vid=e3db1e10-9e63-4baa-a8de-03d283813d72","ios":"levelo://app?vid=e3db1e10-9e63-4baa-a8de-03d283813d72"},"vehicle_type_id":"4","last_reported":1768397588,"current_range_meters":4400,"station_id":"ce4bgs92rcd13ifvqcc0","pricing_plan_id":"cebpf4jnsgd1na2vs0mg"},{"bike_id":"d467484e-7aee-4722-aeb8-99ac2b445e1f","system_id":"levelo_inurba_marseille","lat":43.28864,"lon":5.42501,"is_reserved":false,"is_disabled":false,"rental_uris":{"android":"levelo://app?vid=d467484e-7aee-4722-aeb8-99ac2b445e1f","ios":"levelo://app?vid=d467484e-7aee-4722-aeb8-99ac2b445e1f"},"vehicle_type_id":"4","last_reported":1768397588,"current_range_meters":4400,"station_id":"st_d3b462108ojc7389ooeg","pricing_plan_id":"cebpf4jnsgd1na2vs0mg"},{"bike_id":"c7abc581-c1e2-4eb4-888d-9d1cf33dbdd8","system_id":"levelo_inurba_marseille","lat":43.25098,"lon":5.39527,"is_reserved":false,"is_disabled":false,"rental_uris":{"android":"levelo://app?vid=c7abc581-c1e2-4eb4-888d-9d1cf33dbdd8","ios":"levelo://app?vid=c7abc581-c1e2-4eb4-888d-9d1cf33dbdd8"},"vehicle_type_id":"4","last_reported":1768397588,"current_range_meters":4400,"station_id":"ce4bhm12rcd13ifvqgkg","pricing_plan_id":"cebpf4jnsgd1na2vs0mg"},{"bike_id":"bbb74105-3be2-48fe-95ba-d328ecd4aedb","system_id":"levelo_inurba_marseille","lat":43.246505,"lon":5.388937,"is_reserved":false,"is_disabled":false,"rental_uris":{"android":"levelo://app?vid=bbb74105-3be2-48fe-95ba-d328ecd4aedb","ios":"levelo://app?vid=bbb74105-3be2-48fe-95ba-d328ecd4aedb"},"vehicle_type_id":"4","last_reported":1768397588,"current_range_meters":4400,"station_id":"ce4bhg12rcd13ifvqf60","pricing_plan_id":"cebpf4jnsgd1na2vs0mg"},{"bike_id":"685ca00a-84c3-4cf8-b427-f42354127fab","system_id":"levelo_inurba_marseille","lat":43.30937,"lon":5.39022,"is_reserved":false,"is_disabled":false,"rental_uris":{"android":"levelo://app?vid=685ca00a-84c3-4cf8-b427-f42354127fab","ios":"levelo://app?vid=685ca00a-84c3-4cf8-b427-f42354127fab"},"vehicle_type_id":"4","last_reported":1768397588,"current_range_meters":4400,"station_id":"ce4bgup2rcd13ifvqco0","pricing_plan_id":"cebpf4jnsgd1na2vs0mg"},{"bike_id":"5f3fa48b-bf6b-48a5-a6d4-3d09aa56a812","system_id":"levelo_inurba_marseille","lat":43.3101,"lon":5.37183,"is_reserved":false,"is_disabled":false,"rental_uris":{"android":"levelo://app?vid=5f3fa48b-bf6b-48a5-a6d4-3d09aa56a812","ios":"levelo://app?vid=5f3fa48b-bf6b-48a5-a6d4-3d09aa56a812"},"vehicle_type_id":"4","last_reported":1768397588,"current_range_meters":4400,"station_id":"","pricing_plan_id":"cebpf4jnsgd1na2vs0mg"},{"bike_id":"a31c8f9e-9708-4ea2-9e5d-05e3441bc85f","system_id":"levelo_inurba_marseille","lat":43.28489,"lon":5.4839,"is_reserved":false,"is_disabled":false,"rental_uris":{"android":"levelo://app?vid=a31c8f9e-9708-4ea2-9e5d-05e3441bc85f","ios":"levelo://app?vid=a31c8f9e-9708-4ea2-9e5d-05e3441bc85f"},"vehicle_type_id":"4","last_reported":1768397588,"current_range_meters":4400,"station_id":"","pricing_plan_id":"cebpf4jnsgd1na2vs0mg"},{"bike_id":"7e09f6aa-6a01-490d-a5d4-56de9c0277ad","system_id":"levelo_inurba_marseille","lat":43.28535,"lon":5.44099,"is_reserved":false,"is_disabled":false,"rental_uris":{"android":"levelo://app?vid=7e09f6aa-6a01-490d-a5d4-56de9c0277ad","ios":"levelo://app?vid=7e09f6aa-6a01-490d-a5d4-56de9c0277ad"},"vehicle_type_id":"4","last_reported":1768397588,"current_range_meters":4800,"station_id":"st_d3j3df2ikq2c7380ej80","pricing_plan_id":"cebpf4jnsgd1na2vs0mg"},{"bike_id":"18e7aed4-7cab-4e5f-b147-5c98f8a1e192","system_id":"levelo_inurba_marseille","lat":43.32359,"lon":5.36742,"is_reserved":false,"is_disabled":false,"rental_uris":{"android":"levelo://app?vid=18e7aed4-7cab-4e5f-b147-5c98f8a1e192","ios":"levelo://app?vid=18e7aed4-7cab-4e5f-b147-5c98f8a1e192"},"vehicle_type_id":"4","last_reported":1768397588,"current_range_meters":4800,"station_id":"ce4bhsh2rcd13ifvqi2g","pricing_plan_id":"cebpf4jnsgd1na2vs0mg"},{"bike_id":"0ab483f6-2c64-4f01-82ac-b52f13aaff16","system_id":"levelo_inurba_marseille","lat":43.3302,"lon":5.39033,"is_reserved":false,"is_disabled":false,"rental_uris":{"android":"levelo://app?vid=0ab483f6-2c64-4f01-82ac-b52f13aaff16","ios":"levelo://app?vid=0ab483f6-2c64-4f01-82ac-b52f13aaff16"},"vehicle_type_id":"4","last_reported":1768397588,"current_range_meters":4800,"station_id":"ce4bhr92rcd13ifvqhrg","pricing_plan_id":"cebpf4jnsgd1na2vs0mg"},{"bike_id":"3e692f05-1b4d-4801-ba84-7c855db04b99","system_id":"levelo_inurba_marseille","lat":43.29308,"lon":5.37456,"is_reserved":false,"is_disabled":false,"rental_uris":{"android":"levelo://app?vid=3e692f05-1b4d-4801-ba84-7c855db04b99","ios":"levelo://app?vid=3e692f05-1b4d-4801-ba84-7c855db04b99"},"vehicle_type_id":"4","last_reported":1768397588,"current_range_meters":4800,"station_id":"ce4bgi12rcd13ifvqb70","pricing_plan_id":"cebpf4jnsgd1na2vs0mg"},{"bike_id":"f386e451-0ff7-4c2a-a6cd-27139c57272a","system_id":"levelo_inurba_marseille","lat":43.28535,"lon":5.44109,"is_reserved":false,"is_disabled":false,"rental_uris":{"android":"levelo://app?vid=f386e451-0ff7-4c2a-a6cd-27139c57272a","ios":"levelo://app?vid=f386e451-0ff7-4c2a-a6cd-27139c57272a"},"vehicle_type_id":"4","last_reported":1768397588,"current_range_meters":4800,"station_id":"st_d3j3df2ikq2c7380ej80","pricing_plan_id":"cebpf4jnsgd1na2vs0mg"},{"bike_id":"d8b52035-9107-4203-ba3b-8ab85229defc","system_id":"levelo_inurba_marseille","lat":43.25885,"lon":5.39923,"is_reserved":false,"is_disabled":false,"rental_uris":{"android":"levelo://app?vid=d8b52035-9107-4203-ba3b-8ab85229defc","ios":"levelo://app?vid=d8b52035-9107-4203-ba3b-8ab85229defc"},"vehicle_type_id":"4","last_reported":1768397588,"current_range_meters":4800,"station_id":"ce4bhl92rcd13ifvqghg","pricing_plan_id":"cebpf4jnsgd1na2vs0mg"},{"bike_id":"4da4b9b5-8e34-4a21-a7eb-76e6a1792527","system_id":"levelo_inurba_marseille","lat":43.28248,"lon":5.43024,"is_reserved":false,"is_disabled":false,"rental_uris":{"android":"levelo://app?vid=4da4b9b5-8e34-4a21-a7eb-76e6a1792527","ios":"levelo://app?vid=4da4b9b5-8e34-4a21-a7eb-76e6a1792527"},"vehicle_type_id":"4","last_reported":1768397588,"current_range_meters":4800,"station_id":"","pricing_plan_id":"cebpf4jnsgd1na2vs0mg"},{"bike_id":"ea5a0539-d10a-493d-b63d-e4e8abdbd9c8","system_id":"levelo_inurba_marseille","lat":43.29184,"lon":5.3883,"is_reserved":false,"is_disabled":false,"rental_uris":{"android":"levelo://app?vid=ea5a0539-d10a-493d-b63d-e4e8abdbd9c8","ios":"levelo://app?vid=ea5a0539-d10a-493d-b63d-e4e8abdbd9c8"},"vehicle_type_id":"4","last_reported":1768397588,"current_range_meters":4800,"station_id":"","pricing_plan_id":"cebpf4jnsgd1na2vs0mg"},{"bike_id":"27f242f3-3ae7-4945-8a79-3968179ff814","system_id":"levelo_inurba_marseille","lat":43.32476,"lon":5.36564,"is_reserved":false,"is_disabled":false,"rental_uris":{"android":"levelo://app?vid=27f242f3-3ae7-4945-8a79-3968179ff814","ios":"levelo://app?vid=27f242f3-3ae7-4945-8a79-3968179ff814"},"vehicle_type_id":"4","last_reported":1768397588,"current_range_meters":4800,"station_id":"ce4bhs12rcd13ifvqhvg","pricing_plan_id":"cebpf4jnsgd1na2vs0mg"},{"bike_id":"1cc7ab25-688b-48d8-84f8-63da59107ff1","system_id":"levelo_inurba_marseille","lat":43.262512,"lon":5.374298,"is_reserved":false,"is_disabled":false,"rental_uris":{"android":"levelo://app?vid=1cc7ab25-688b-48d8-84f8-63da59107ff1","ios":"levelo://app?vid=1cc7ab25-688b-48d8-84f8-63da59107ff1"},"vehicle_type_id":"4","last_reported":1768397588,"current_range_meters":4800,"station_id":"ce4bhgp2rcd13ifvqfc0","pricing_plan_id":"cebpf4jnsgd1na2vs0mg"},{"bike_id":"e007026c-7ebf-4da0-ac69-4db82abdca31","system_id":"levelo_inurba_marseille","lat":43.30067,"lon":5.39073,"is_reserved":false,"is_disabled":false,"rental_uris":{"android":"levelo://app?vid=e007026c-7ebf-4da0-ac69-4db82abdca31","ios":"levelo://app?vid=e007026c-7ebf-4da0-ac69-4db82abdca31"},"vehicle_type_id":"4","last_reported":1768397588,"current_range_meters":4800,"station_id":"ce4bh192rcd13ifvqdb0","pricing_plan_id":"cebpf4jnsgd1na2vs0mg"},{"bike_id":"9b84e1f6-2211-4882-8b37-8a3c829a5678","system_id":"levelo_inurba_marseille","lat":43.29261,"lon":5.3844,"is_reserved":false,"is_disabled":false,"rental_uris":{"android":"levelo://app?vid=9b84e1f6-2211-4882-8b37-8a3c829a5678","ios":"levelo://app?vid=9b84e1f6-2211-4882-8b37-8a3c829a5678"},"vehicle_type_id":"4","last_reported":1768397588,"current_range_meters":4800,"station_id":"ce4bh692rcd13ifvqea0","pricing_plan_id":"cebpf4jnsgd1na2vs0mg"},{"bike_id":"1ce8adfc-9882-4038-96db-6c7899b4b905","system_id":"levelo_inurba_marseille","lat":43.246559,"lon":5.381609,"is_reserved":false,"is_disabled":false,"rental_uris":{"android":"levelo://app?vid=1ce8adfc-9882-4038-96db-6c7899b4b905","ios":"levelo://app?vid=1ce8adfc-9882-4038-96db-6c7899b4b905"},"vehicle_type_id":"4","last_reported":1768397588,"current_range_meters":4800,"station_id":"ce4bhih2rcd13ifvqfr0","pricing_plan_id":"cebpf4jnsgd1na2vs0mg"},{"bike_id":"dccf6443-2690-4508-8f9a-a0435732725f","system_id":"levelo_inurba_marseille","lat":43.25491,"lon":5.37645,"is_reserved":false,"is_disabled":false,"rental_uris":{"android":"levelo://app?vid=dccf6443-2690-4508-8f9a-a0435732725f","ios":"levelo://app?vid=dccf6443-2690-4508-8f9a-a0435732725f"},"vehicle_type_id":"4","last_reported":1768397588,"current_range_meters":5600,"station_id":"ce4bhh12rcd13ifvqff0","pricing_plan_id":"cebpf4jnsgd1na2vs0mg"},{"bike_id":"988898f4-9f2f-4c83-8935-c2cdd80dcda2","system_id":"levelo_inurba_marseille","lat":43.29902,"lon":5.37507,"is_reserved":false,"is_disabled":false,"rental_uris":{"android":"levelo://app?vid=988898f4-9f2f-4c83-8935-c2cdd80dcda2","ios":"levelo://app?vid=988898f4-9f2f-4c83-8935-c2cdd80dcda2"},"vehicle_type_id":"4","last_reported":1768397588,"current_range_meters":5600,"station_id":"ce4bgjh2rcd13ifvqbg0","pricing_plan_id":"cebpf4jnsgd1na2vs0mg"},{"bike_id":"7dd1d8e7-5022-463f-b173-f03ecce952da","system_id":"levelo_inurba_marseille","lat":43.21755,"lon":5.34598,"is_reserved":false,"is_disabled":false,"rental_uris":{"android":"levelo://app?vid=7dd1d8e7-5022-463f-b173-f03ecce952da","ios":"levelo://app?vid=7dd1d8e7-5022-463f-b173-f03ecce952da"},"vehicle_type_id":"4","last_reported":1768397588,"current_range_meters":5600,"station_id":"st_cvj6r9ubvosntc0bgbag","pricing_plan_id":"cebpf4jnsgd1na2vs0mg"},{"bike_id":"b7f4c54f-f481-4643-9c7b-e12e55533981","system_id":"levelo_inurba_marseille","lat":43.28413,"lon":5.37518,"is_reserved":false,"is_disabled":false,"rental_uris":{"android":"levelo://app?vid=b7f4c54f-f481-4643-9c7b-e12e55533981","ios":"levelo://app?vid=b7f4c54f-f481-4643-9c7b-e12e55533981"},"vehicle_type_id":"4","last_reported":1768397588,"current_range_meters":5600,"station_id":"ce4bh412rcd13ifvqds0","pricing_plan_id":"cebpf4jnsgd1na2vs0mg"},{"bike_id":"edae41ff-efa7-45e8-b9af-a8202fc573da","system_id":"levelo_inurba_marseille","lat":43.249925,"lon":5.389349,"is_reserved":false,"is_disabled":false,"rental_uris":{"android":"levelo://app?vid=edae41ff-efa7-45e8-b9af-a8202fc573da","ios":"levelo://app?vid=edae41ff-efa7-45e8-b9af-a8202fc573da"},"vehicle_type_id":"4","last_reported":1768397588,"current_range_meters":5600,"station_id":"ce4bhgp2rcd13ifvqfd0","pricing_plan_id":"cebpf4jnsgd1na2vs0mg"},{"bike_id":"fec414c1-c810-41d2-8c70-9e28210e8340","system_id":"levelo_inurba_marseille","lat":43.25085,"lon":5.39511,"is_reserved":false,"is_disabled":false,"rental_uris":{"android":"levelo://app?vid=fec414c1-c810-41d2-8c70-9e28210e8340","ios":"levelo://app?vid=fec414c1-c810-41d2-8c70-9e28210e8340"},"vehicle_type_id":"4","last_reported":1768397588,"current_range_meters":5600,"station_id":"ce4bhm12rcd13ifvqgkg","pricing_plan_id":"cebpf4jnsgd1na2vs0mg"},{"bike_id":"09274d01-4a95-409b-8171-0131639b6dc1","system_id":"levelo_inurba_marseille","lat":43.289954,"lon":5.381656,"is_reserved":false,"is_disabled":false,"rental_uris":{"android":"levelo://app?vid=09274d01-4a95-409b-8171-0131639b6dc1","ios":"levelo://app?vid=09274d01-4a95-409b-8171-0131639b6dc1"},"vehicle_type_id":"4","last_reported":1768397588,"current_range_meters":5600,"station_id":"ce4bgjh2rcd13ifvqbg0","pricing_plan_id":"cebpf4jnsgd1na2vs0mg"},{"bike_id":"a36b062f-2927-4507-b39e-e6b37ab68028","system_id":"levelo_inurba_marseille","lat":43.32042,"lon":5.41539,"is_reserved":false,"is_disabled":false,"rental_uris":{"android":"levelo://app?vid=a36b062f-2927-4507-b39e-e6b37ab68028","ios":"levelo://app?vid=a36b062f-2927-4507-b39e-e6b37ab68028"},"vehicle_type_id":"4","last_reported":1768397588,"current_range_meters":5600,"station_id":"ce4bhq92rcd13ifvqhkg","pricing_plan_id":"cebpf4jnsgd1na2vs0mg"},{"bike_id":"023bece1-3d6a-442c-b6c0-d1cd28e0659a","system_id":"levelo_inurba_marseille","lat":43.25922,"lon":5.40899,"is_reserved":false,"is_disabled":false,"rental_uris":{"android":"levelo://app?vid=023bece1-3d6a-442c-b6c0-d1cd28e0659a","ios":"levelo://app?vid=023bece1-3d6a-442c-b6c0-d1cd28e0659a"},"vehicle_type_id":"4","last_reported":1768397588,"current_range_meters":6000,"station_id":"ce4bhm92rcd13ifvqglg","pricing_plan_id":"cebpf4jnsgd1na2vs0mg"},{"bike_id":"ddaf6f90-32bd-4308-a81f-3940b6877eea","system_id":"levelo_inurba_marseille","lat":43.29186,"lon":5.39321,"is_reserved":false,"is_disabled":false,"rental_uris":{"android":"levelo://app?vid=ddaf6f90-32bd-4308-a81f-3940b6877eea","ios":"levelo://app?vid=ddaf6f90-32bd-4308-a81f-3940b6877eea"},"vehicle_type_id":"4","last_reported":1768397588,"current_range_meters":6000,"station_id":"ce4bh192rcd13ifvqdd0","pricing_plan_id":"cebpf4jnsgd1na2vs0mg"},{"bike_id":"cbdc031a-f7a8-4ff1-8b01-803b2dfeb125","system_id":"levelo_inurba_marseille","lat":43.26782,"lon":5.394188,"is_reserved":false,"is_disabled":false,"rental_uris":{"android":"levelo://app?vid=cbdc031a-f7a8-4ff1-8b01-803b2dfeb125","ios":"levelo://app?vid=cbdc031a-f7a8-4ff1-8b01-803b2dfeb125"},"vehicle_type_id":"4","last_reported":1768397588,"current_range_meters":6000,"station_id":"ce4bhh12rcd13ifvqfg0","pricing_plan_id":"cebpf4jnsgd1na2vs0mg"},{"bike_id":"11d6153c-dd89-4c4a-af20-37dd5f2e70db","system_id":"levelo_inurba_marseille","lat":43.30457,"lon":5.38887,"is_reserved":false,"is_disabled":false,"rental_uris":{"android":"levelo://app?vid=11d6153c-dd89-4c4a-af20-37dd5f2e70db","ios":"levelo://app?vid=11d6153c-dd89-4c4a-af20-37dd5f2e70db"},"vehicle_type_id":"4","last_reported":1768397588,"current_range_meters":6000,"station_id":"ce4bgk12rcd13ifvqbi0","pricing_plan_id":"cebpf4jnsgd1na2vs0mg"},{"bike_id":"0d2e7f7e-817c-4a22-82a8-dc9ead9a6b5c","system_id":"levelo_inurba_marseille","lat":43.29526,"lon":5.39403,"is_reserved":false,"is_disabled":false,"rental_uris":{"android":"levelo://app?vid=0d2e7f7e-817c-4a22-82a8-dc9ead9a6b5c","ios":"levelo://app?vid=0d2e7f7e-817c-4a22-82a8-dc9ead9a6b5c"},"vehicle_type_id":"4","last_reported":1768397588,"current_range_meters":6000,"station_id":"ce4bh292rcd13ifvqdf0","pricing_plan_id":"cebpf4jnsgd1na2vs0mg"},{"bike_id":"edcf3188-4a6b-46e2-aa32-dc6a17ca3c7d","system_id":"levelo_inurba_marseille","lat":43.2557,"lon":5.38229,"is_reserved":false,"is_disabled":false,"rental_uris":{"android":"levelo://app?vid=edcf3188-4a6b-46e2-aa32-dc6a17ca3c7d","ios":"levelo://app?vid=edcf3188-4a6b-46e2-aa32-dc6a17ca3c7d"},"vehicle_type_id":"4","last_reported":1768397588,"current_range_meters":6000,"station_id":"ce4bhih2rcd13ifvqfs0","pricing_plan_id":"cebpf4jnsgd1na2vs0mg"},{"bike_id":"084da4b1-5471-4b79-aad3-366ba2774381","system_id":"levelo_inurba_marseille","lat":43.3093,"lon":5.40155,"is_reserved":false,"is_disabled":false,"rental_uris":{"android":"levelo://app?vid=084da4b1-5471-4b79-aad3-366ba2774381","ios":"levelo://app?vid=084da4b1-5471-4b79-aad3-366ba2774381"},"vehicle_type_id":"4","last_reported":1768397588,"current_range_meters":6000,"station_id":"ce4bgvp2rcd13ifvqct0","pricing_plan_id":"cebpf4jnsgd1na2vs0mg"},{"bike_id":"12bf7d9f-ffe0-4712-8e06-64e8674c1a88","system_id":"levelo_inurba_marseille","lat":43.25576,"lon":5.38236,"is_reserved":false,"is_disabled":false,"rental_uris":{"android":"levelo://app?vid=12bf7d9f-ffe0-4712-8e06-64e8674c1a88","ios":"levelo://app?vid=12bf7d9f-ffe0-4712-8e06-64e8674c1a88"},"vehicle_type_id":"4","last_reported":1768397588,"current_range_meters":6000,"station_id":"ce4bhih2rcd13ifvqfs0","pricing_plan_id":"cebpf4jnsgd1na2vs0mg"},{"bike_id":"f1b2f2ab-9ec5-4d51-bc19-631bc91ccba8","system_id":"levelo_inurba_marseille","lat":43.23961,"lon":5.36634,"is_reserved":false,"is_disabled":false,"rental_uris":{"android":"levelo://app?vid=f1b2f2ab-9ec5-4d51-bc19-631bc91ccba8","ios":"levelo://app?vid=f1b2f2ab-9ec5-4d51-bc19-631bc91ccba8"},"vehicle_type_id":"4","last_reported":1768397588,"current_range_meters":6000,"station_id":"ce4bhi12rcd13ifvqfp0","pricing_plan_id":"cebpf4jnsgd1na2vs0mg"},{"bike_id":"55ebe14d-639d-49bd-9d38-fe03dcc1781f","system_id":"levelo_inurba_marseille","lat":43.3255,"lon":5.41473,"is_reserved":false,"is_disabled":false,"rental_uris":{"android":"levelo://app?vid=55ebe14d-639d-49bd-9d38-fe03dcc1781f","ios":"levelo://app?vid=55ebe14d-639d-49bd-9d38-fe03dcc1781f"},"vehicle_type_id":"4","last_reported":1768397588,"current_range_meters":6400,"station_id":"ce4bhq12rcd13ifvqhhg","pricing_plan_id":"cebpf4jnsgd1na2vs0mg"},{"bike_id":"27ea8170-0361-438d-b591-2ebcd05d2dfe","system_id":"levelo_inurba_marseille","lat":43.28424,"lon":5.34999,"is_reserved":false,"is_disabled":false,"rental_uris":{"android":"levelo://app?vid=27ea8170-0361-438d-b591-2ebcd05d2dfe","ios":"levelo://app?vid=27ea8170-0361-438d-b591-2ebcd05d2dfe"},"vehicle_type_id":"4","last_reported":1768397588,"current_range_meters":6400,"station_id":"ce4bhbh2rcd13ifvqepg","pricing_plan_id":"cebpf4jnsgd1na2vs0mg"},{"bike_id":"1cada60d-67ba-40f7-97c1-1a320d055880","system_id":"levelo_inurba_marseille","lat":43.27827,"lon":5.40708,"is_reserved":false,"is_disabled":false,"rental_uris":{"android":"levelo://app?vid=1cada60d-67ba-40f7-97c1-1a320d055880","ios":"levelo://app?vid=1cada60d-67ba-40f7-97c1-1a320d055880"},"vehicle_type_id":"4","last_reported":1768397588,"current_range_meters":6400,"station_id":"ce4bhnh2rcd13ifvqgtg","pricing_plan_id":"cebpf4jnsgd1na2vs0mg"},{"bike_id":"ff1e20fa-84b0-41c9-9d49-6081e242e43e","system_id":"levelo_inurba_marseille","lat":43.24793,"lon":5.3746,"is_reserved":false,"is_disabled":false,"rental_uris":{"android":"levelo://app?vid=ff1e20fa-84b0-41c9-9d49-6081e242e43e","ios":"levelo://app?vid=ff1e20fa-84b0-41c9-9d49-6081e242e43e"},"vehicle_type_id":"4","last_reported":1768397588,"current_range_meters":6400,"station_id":"ce4bhgh2rcd13ifvqfb0","pricing_plan_id":"cebpf4jnsgd1na2vs0mg"},{"bike_id":"7cccb604-f149-4e8e-9ee8-78300c58372e","system_id":"levelo_inurba_marseille","lat":43.23211,"lon":5.39978,"is_reserved":false,"is_disabled":false,"rental_uris":{"android":"levelo://app?vid=7cccb604-f149-4e8e-9ee8-78300c58372e","ios":"levelo://app?vid=7cccb604-f149-4e8e-9ee8-78300c58372e"},"vehicle_type_id":"4","last_reported":1768397588,"current_range_meters":6400,"station_id":"ce4bhn12rcd13ifvqgqg","pricing_plan_id":"cebpf4jnsgd1na2vs0mg"},{"bike_id":"c4e68b64-e0fb-47d7-9690-72619fdd9279","system_id":"levelo_inurba_marseille","lat":43.30939,"lon":5.40155,"is_reserved":false,"is_disabled":false,"rental_uris":{"android":"levelo://app?vid=c4e68b64-e0fb-47d7-9690-72619fdd9279","ios":"levelo://app?vid=c4e68b64-e0fb-47d7-9690-72619fdd9279"},"vehicle_type_id":"4","last_reported":1768397588,"current_range_meters":6400,"station_id":"ce4bgvp2rcd13ifvqct0","pricing_plan_id":"cebpf4jnsgd1na2vs0mg"},{"bike_id":"0496460c-cd9f-43fd-8720-c5e183ef0a0e","system_id":"levelo_inurba_marseille","lat":43.23797,"lon":5.36625,"is_reserved":false,"is_disabled":false,"rental_uris":{"android":"levelo://app?vid=0496460c-cd9f-43fd-8720-c5e183ef0a0e","ios":"levelo://app?vid=0496460c-cd9f-43fd-8720-c5e183ef0a0e"},"vehicle_type_id":"4","last_reported":1768397588,"current_range_meters":6400,"station_id":"st_d3nk18o9ro0c73en2l3g","pricing_plan_id":"cebpf4jnsgd1na2vs0mg"},{"bike_id":"b0591438-4f8b-458b-95d3-396e832bb098","system_id":"levelo_inurba_marseille","lat":43.22546,"lon":5.41638,"is_reserved":false,"is_disabled":false,"rental_uris":{"android":"levelo://app?vid=b0591438-4f8b-458b-95d3-396e832bb098","ios":"levelo://app?vid=b0591438-4f8b-458b-95d3-396e832bb098"},"vehicle_type_id":"4","last_reported":1768397588,"current_range_meters":6400,"station_id":"st_d2o4gvlbi1j2169b742g","pricing_plan_id":"cebpf4jnsgd1na2vs0mg"},{"bike_id":"54a665b1-efb8-4a74-a5c5-3658aaf489a2","system_id":"levelo_inurba_marseille","lat":43.28472,"lon":5.48377,"is_reserved":false,"is_disabled":false,"rental_uris":{"android":"levelo://app?vid=54a665b1-efb8-4a74-a5c5-3658aaf489a2","ios":"levelo://app?vid=54a665b1-efb8-4a74-a5c5-3658aaf489a2"},"vehicle_type_id":"4","last_reported":1768397588,"current_range_meters":6400,"station_id":"","pricing_plan_id":"cebpf4jnsgd1na2vs0mg"},{"bike_id":"d10c3e03-17c1-4a18-84d3-e167ce7531e2","system_id":"levelo_inurba_marseille","lat":43.32367,"lon":5.36725,"is_reserved":false,"is_disabled":false,"rental_uris":{"android":"levelo://app?vid=d10c3e03-17c1-4a18-84d3-e167ce7531e2","ios":"levelo://app?vid=d10c3e03-17c1-4a18-84d3-e167ce7531e2"},"vehicle_type_id":"4","last_reported":1768397588,"current_range_meters":6400,"station_id":"ce4bhsh2rcd13ifvqi2g","pricing_plan_id":"cebpf4jnsgd1na2vs0mg"},{"bike_id":"fbe88db2-416a-478a-ac7c-29c397f79fa0","system_id":"levelo_inurba_marseille","lat":43.24656,"lon":5.3889,"is_reserved":false,"is_disabled":false,"rental_uris":{"android":"levelo://app?vid=fbe88db2-416a-478a-ac7c-29c397f79fa0","ios":"levelo://app?vid=fbe88db2-416a-478a-ac7c-29c397f79fa0"},"vehicle_type_id":"4","last_reported":1768397588,"current_range_meters":6400,"station_id":"ce4bhg12rcd13ifvqf60","pricing_plan_id":"cebpf4jnsgd1na2vs0mg"},{"bike_id":"4a3d2ba7-a518-4e78-907b-34c7957e978e","system_id":"levelo_inurba_marseille","lat":43.29801,"lon":5.38088,"is_reserved":false,"is_disabled":false,"rental_uris":{"android":"levelo://app?vid=4a3d2ba7-a518-4e78-907b-34c7957e978e","ios":"levelo://app?vid=4a3d2ba7-a518-4e78-907b-34c7957e978e"},"vehicle_type_id":"4","last_reported":1768397588,"current_range_meters":6400,"station_id":"ce4bgip2rcd13ifvqbb0","pricing_plan_id":"cebpf4jnsgd1na2vs0mg"},{"bike_id":"6a4a1ebd-8c7d-4994-93f6-96c7adcc3fb5","system_id":"levelo_inurba_marseille","lat":43.25938,"lon":5.40882,"is_reserved":false,"is_disabled":false,"rental_uris":{"android":"levelo://app?vid=6a4a1ebd-8c7d-4994-93f6-96c7adcc3fb5","ios":"levelo://app?vid=6a4a1ebd-8c7d-4994-93f6-96c7adcc3fb5"},"vehicle_type_id":"4","last_reported":1768397588,"current_range_meters":6800,"station_id":"ce4bhm92rcd13ifvqglg","pricing_plan_id":"cebpf4jnsgd1na2vs0mg"},{"bike_id":"80e1cacf-c38d-4e99-beb6-97caf9f5d5a5","system_id":"levelo_inurba_marseille","lat":43.28207,"lon":5.39044,"is_reserved":false,"is_disabled":false,"rental_uris":{"android":"levelo://app?vid=80e1cacf-c38d-4e99-beb6-97caf9f5d5a5","ios":"levelo://app?vid=80e1cacf-c38d-4e99-beb6-97caf9f5d5a5"},"vehicle_type_id":"4","last_reported":1768397588,"current_range_meters":6800,"station_id":"ce4bhn92rcd13ifvqgsg","pricing_plan_id":"cebpf4jnsgd1na2vs0mg"},{"bike_id":"2ee0fab5-7040-4975-9414-0b1e23a72b5b","system_id":"levelo_inurba_marseille","lat":43.32357,"lon":5.3674,"is_reserved":false,"is_disabled":false,"rental_uris":{"android":"levelo://app?vid=2ee0fab5-7040-4975-9414-0b1e23a72b5b","ios":"levelo://app?vid=2ee0fab5-7040-4975-9414-0b1e23a72b5b"},"vehicle_type_id":"4","last_reported":1768397588,"current_range_meters":6800,"station_id":"ce4bhsh2rcd13ifvqi2g","pricing_plan_id":"cebpf4jnsgd1na2vs0mg"},{"bike_id":"266c2051-cecc-4d1d-bc12-d0ea8442efcf","system_id":"levelo_inurba_marseille","lat":43.231476,"lon":5.437214,"is_reserved":false,"is_disabled":false,"rental_uris":{"android":"levelo://app?vid=266c2051-cecc-4d1d-bc12-d0ea8442efcf","ios":"levelo://app?vid=266c2051-cecc-4d1d-bc12-d0ea8442efcf"},"vehicle_type_id":"4","last_reported":1768397588,"current_range_meters":6800,"station_id":"ce4bhmp2rcd13ifvqgog","pricing_plan_id":"cebpf4jnsgd1na2vs0mg"},{"bike_id":"05f63fa9-494d-453c-8fbd-b43a99415aa7","system_id":"levelo_inurba_marseille","lat":43.26704,"lon":5.38271,"is_reserved":false,"is_disabled":false,"rental_uris":{"android":"levelo://app?vid=05f63fa9-494d-453c-8fbd-b43a99415aa7","ios":"levelo://app?vid=05f63fa9-494d-453c-8fbd-b43a99415aa7"},"vehicle_type_id":"4","last_reported":1768397588,"current_range_meters":6800,"station_id":"ce4bhg92rcd13ifvqf90","pricing_plan_id":"cebpf4jnsgd1na2vs0mg"},{"bike_id":"47e8d937-7ec7-4d88-84dd-f958423c70de","system_id":"levelo_inurba_marseille","lat":43.263705,"lon":5.410836,"is_reserved":false,"is_disabled":false,"rental_uris":{"android":"levelo://app?vid=47e8d937-7ec7-4d88-84dd-f958423c70de","ios":"levelo://app?vid=47e8d937-7ec7-4d88-84dd-f958423c70de"},"vehicle_type_id":"4","last_reported":1768397588,"current_range_meters":6800,"station_id":"","pricing_plan_id":"cebpf4jnsgd1na2vs0mg"},{"bike_id":"b7d49573-3e66-48d0-a113-0b261fcd2347","system_id":"levelo_inurba_marseille","lat":43.30131,"lon":5.37404,"is_reserved":false,"is_disabled":false,"rental_uris":{"android":"levelo://app?vid=b7d49573-3e66-48d0-a113-0b261fcd2347","ios":"levelo://app?vid=b7d49573-3e66-48d0-a113-0b261fcd2347"},"vehicle_type_id":"4","last_reported":1768397588,"current_range_meters":6800,"station_id":"ce4bgs92rcd13ifvqcc0","pricing_plan_id":"cebpf4jnsgd1na2vs0mg"},{"bike_id":"d8e03ef6-0c5e-49db-943c-98c26bf654da","system_id":"levelo_inurba_marseille","lat":43.29952,"lon":5.37434,"is_reserved":false,"is_disabled":false,"rental_uris":{"android":"levelo://app?vid=d8e03ef6-0c5e-49db-943c-98c26bf654da","ios":"levelo://app?vid=d8e03ef6-0c5e-49db-943c-98c26bf654da"},"vehicle_type_id":"4","last_reported":1768397588,"current_range_meters":6800,"station_id":"ce4bgjh2rcd13ifvqbg0","pricing_plan_id":"cebpf4jnsgd1na2vs0mg"},{"bike_id":"b18474e9-ad34-4b8a-8d2c-347f7a79d1bb","system_id":"levelo_inurba_marseille","lat":43.250007,"lon":5.389388,"is_reserved":false,"is_disabled":false,"rental_uris":{"android":"levelo://app?vid=b18474e9-ad34-4b8a-8d2c-347f7a79d1bb","ios":"levelo://app?vid=b18474e9-ad34-4b8a-8d2c-347f7a79d1bb"},"vehicle_type_id":"4","last_reported":1768397588,"current_range_meters":6800,"station_id":"ce4bhgp2rcd13ifvqfd0","pricing_plan_id":"cebpf4jnsgd1na2vs0mg"},{"bike_id":"323bdf5a-fc85-45ab-8b18-361a392bbea5","system_id":"levelo_inurba_marseille","lat":43.29932,"lon":5.37924,"is_reserved":false,"is_disabled":false,"rental_uris":{"android":"levelo://app?vid=323bdf5a-fc85-45ab-8b18-361a392bbea5","ios":"levelo://app?vid=323bdf5a-fc85-45ab-8b18-361a392bbea5"},"vehicle_type_id":"4","last_reported":1768397588,"current_range_meters":6800,"station_id":"","pricing_plan_id":"cebpf4jnsgd1na2vs0mg"},{"bike_id":"a0f9b52c-bbb7-4f7a-b55f-b65905b6c8ef","system_id":"levelo_inurba_marseille","lat":43.2495,"lon":5.40486,"is_reserved":false,"is_disabled":false,"rental_uris":{"android":"levelo://app?vid=a0f9b52c-bbb7-4f7a-b55f-b65905b6c8ef","ios":"levelo://app?vid=a0f9b52c-bbb7-4f7a-b55f-b65905b6c8ef"},"vehicle_type_id":"4","last_reported":1768397588,"current_range_meters":6800,"station_id":"st_d2ngiaodas8pm72gd1h0","pricing_plan_id":"cebpf4jnsgd1na2vs0mg"},{"bike_id":"f90b66d8-7ec0-4b35-997a-ab70de47e1d5","system_id":"levelo_inurba_marseille","lat":43.32495,"lon":5.36572,"is_reserved":false,"is_disabled":false,"rental_uris":{"android":"levelo://app?vid=f90b66d8-7ec0-4b35-997a-ab70de47e1d5","ios":"levelo://app?vid=f90b66d8-7ec0-4b35-997a-ab70de47e1d5"},"vehicle_type_id":"4","last_reported":1768397588,"current_range_meters":6800,"station_id":"ce4bhs12rcd13ifvqhvg","pricing_plan_id":"cebpf4jnsgd1na2vs0mg"},{"bike_id":"edb3f9c5-6e6f-4d74-ac22-6330b2cf1217","system_id":"levelo_inurba_marseille","lat":43.32496,"lon":5.36565,"is_reserved":false,"is_disabled":false,"rental_uris":{"android":"levelo://app?vid=edb3f9c5-6e6f-4d74-ac22-6330b2cf1217","ios":"levelo://app?vid=edb3f9c5-6e6f-4d74-ac22-6330b2cf1217"},"vehicle_type_id":"4","last_reported":1768397588,"current_range_meters":6800,"station_id":"ce4bhs12rcd13ifvqhvg","pricing_plan_id":"cebpf4jnsgd1na2vs0mg"},{"bike_id":"a12c0873-ea81-4858-b10b-6df5e4b2f671","system_id":"levelo_inurba_marseille","lat":43.294459,"lon":5.378903,"is_reserved":false,"is_disabled":false,"rental_uris":{"android":"levelo://app?vid=a12c0873-ea81-4858-b10b-6df5e4b2f671","ios":"levelo://app?vid=a12c0873-ea81-4858-b10b-6df5e4b2f671"},"vehicle_type_id":"4","last_reported":1768397588,"current_range_meters":6800,"station_id":"ce4bgjh2rcd13ifvqbf0","pricing_plan_id":"cebpf4jnsgd1na2vs0mg"},{"bike_id":"a2c3fda5-fb1e-4329-88c2-2e7960229574","system_id":"levelo_inurba_marseille","lat":43.31203,"lon":5.40305,"is_reserved":false,"is_disabled":false,"rental_uris":{"android":"levelo://app?vid=a2c3fda5-fb1e-4329-88c2-2e7960229574","ios":"levelo://app?vid=a2c3fda5-fb1e-4329-88c2-2e7960229574"},"vehicle_type_id":"4","last_reported":1768397588,"current_range_meters":6800,"station_id":"","pricing_plan_id":"cebpf4jnsgd1na2vs0mg"},{"bike_id":"c584537b-62c7-4948-a162-60dcd0d33c4c","system_id":"levelo_inurba_marseille","lat":43.32347,"lon":5.36734,"is_reserved":false,"is_disabled":false,"rental_uris":{"android":"levelo://app?vid=c584537b-62c7-4948-a162-60dcd0d33c4c","ios":"levelo://app?vid=c584537b-62c7-4948-a162-60dcd0d33c4c"},"vehicle_type_id":"4","last_reported":1768397588,"current_range_meters":6800,"station_id":"ce4bhsh2rcd13ifvqi2g","pricing_plan_id":"cebpf4jnsgd1na2vs0mg"},{"bike_id":"f680f50c-74ae-434a-9907-5a62e8f7d3ec","system_id":"levelo_inurba_marseille","lat":43.30539,"lon":5.367,"is_reserved":false,"is_disabled":false,"rental_uris":{"android":"levelo://app?vid=f680f50c-74ae-434a-9907-5a62e8f7d3ec","ios":"levelo://app?vid=f680f50c-74ae-434a-9907-5a62e8f7d3ec"},"vehicle_type_id":"4","last_reported":1768397588,"current_range_meters":6800,"station_id":"ce4bgrp2rcd13ifvqc9g","pricing_plan_id":"cebpf4jnsgd1na2vs0mg"},{"bike_id":"2469529a-4c4f-45b7-b2ce-c4433e05b931","system_id":"levelo_inurba_marseille","lat":43.284767,"lon":5.483911,"is_reserved":false,"is_disabled":false,"rental_uris":{"android":"levelo://app?vid=2469529a-4c4f-45b7-b2ce-c4433e05b931","ios":"levelo://app?vid=2469529a-4c4f-45b7-b2ce-c4433e05b931"},"vehicle_type_id":"4","last_reported":1768397588,"current_range_meters":6800,"station_id":"st_d3svhcjqgbts73a3dn0g","pricing_plan_id":"cebpf4jnsgd1na2vs0mg"},{"bike_id":"3628cfe9-19f5-43ff-9270-69e7b74c63cf","system_id":"levelo_inurba_marseille","lat":43.2934,"lon":5.40407,"is_reserved":false,"is_disabled":false,"rental_uris":{"android":"levelo://app?vid=3628cfe9-19f5-43ff-9270-69e7b74c63cf","ios":"levelo://app?vid=3628cfe9-19f5-43ff-9270-69e7b74c63cf"},"vehicle_type_id":"4","last_reported":1768397588,"current_range_meters":6800,"station_id":"","pricing_plan_id":"cebpf4jnsgd1na2vs0mg"},{"bike_id":"a58f59e5-c695-4724-9409-f8408af03486","system_id":"levelo_inurba_marseille","lat":43.27091,"lon":5.42281,"is_reserved":false,"is_disabled":false,"rental_uris":{"android":"levelo://app?vid=a58f59e5-c695-4724-9409-f8408af03486","ios":"levelo://app?vid=a58f59e5-c695-4724-9409-f8408af03486"},"vehicle_type_id":"4","last_reported":1768397588,"current_range_meters":6800,"station_id":"ce4bhk92rcd13ifvqgb0","pricing_plan_id":"cebpf4jnsgd1na2vs0mg"},{"bike_id":"c5ca41df-a10b-4946-8859-f377e5e5fca6","system_id":"levelo_inurba_marseille","lat":43.32526,"lon":5.41481,"is_reserved":false,"is_disabled":false,"rental_uris":{"android":"levelo://app?vid=c5ca41df-a10b-4946-8859-f377e5e5fca6","ios":"levelo://app?vid=c5ca41df-a10b-4946-8859-f377e5e5fca6"},"vehicle_type_id":"4","last_reported":1768397588,"current_range_meters":6800,"station_id":"ce4bhq12rcd13ifvqhhg","pricing_plan_id":"cebpf4jnsgd1na2vs0mg"},{"bike_id":"d3163a9f-7d45-4b9c-b348-b73b5eba4e4f","system_id":"levelo_inurba_marseille","lat":43.29095,"lon":5.38129,"is_reserved":false,"is_disabled":false,"rental_uris":{"android":"levelo://app?vid=d3163a9f-7d45-4b9c-b348-b73b5eba4e4f","ios":"levelo://app?vid=d3163a9f-7d45-4b9c-b348-b73b5eba4e4f"},"vehicle_type_id":"4","last_reported":1768397588,"current_range_meters":7200,"station_id":"ce4bh512rcd13ifvqe2g","pricing_plan_id":"cebpf4jnsgd1na2vs0mg"},{"bike_id":"52b1696a-4946-4218-bad2-363e78c37719","system_id":"levelo_inurba_marseille","lat":43.301613,"lon":5.38082,"is_reserved":false,"is_disabled":false,"rental_uris":{"android":"levelo://app?vid=52b1696a-4946-4218-bad2-363e78c37719","ios":"levelo://app?vid=52b1696a-4946-4218-bad2-363e78c37719"},"vehicle_type_id":"4","last_reported":1768397588,"current_range_meters":7200,"station_id":"ce4bgjp2rcd13ifvqbh0","pricing_plan_id":"cebpf4jnsgd1na2vs0mg"},{"bike_id":"e6a4415e-66da-4886-926f-dde89eafb0da","system_id":"levelo_inurba_marseille","lat":43.265395,"lon":5.372878,"is_reserved":false,"is_disabled":false,"rental_uris":{"android":"levelo://app?vid=e6a4415e-66da-4886-926f-dde89eafb0da","ios":"levelo://app?vid=e6a4415e-66da-4886-926f-dde89eafb0da"},"vehicle_type_id":"4","last_reported":1768397588,"current_range_meters":7200,"station_id":"ce4bhg12rcd13ifvqf70","pricing_plan_id":"cebpf4jnsgd1na2vs0mg"},{"bike_id":"f401dd76-04e8-4124-8fda-5925231c5a9b","system_id":"levelo_inurba_marseille","lat":43.27319,"lon":5.39087,"is_reserved":false,"is_disabled":false,"rental_uris":{"android":"levelo://app?vid=f401dd76-04e8-4124-8fda-5925231c5a9b","ios":"levelo://app?vid=f401dd76-04e8-4124-8fda-5925231c5a9b"},"vehicle_type_id":"4","last_reported":1768397588,"current_range_meters":7200,"station_id":"ce4bhgp2rcd13ifvqfe0","pricing_plan_id":"cebpf4jnsgd1na2vs0mg"},{"bike_id":"5410fd45-b8b4-470d-9bd7-ad1acafbc363","system_id":"levelo_inurba_marseille","lat":43.28477,"lon":5.48392,"is_reserved":false,"is_disabled":false,"rental_uris":{"android":"levelo://app?vid=5410fd45-b8b4-470d-9bd7-ad1acafbc363","ios":"levelo://app?vid=5410fd45-b8b4-470d-9bd7-ad1acafbc363"},"vehicle_type_id":"4","last_reported":1768397588,"current_range_meters":7200,"station_id":"","pricing_plan_id":"cebpf4jnsgd1na2vs0mg"},{"bike_id":"a0b3c393-788e-427a-ba12-453c908bd9de","system_id":"levelo_inurba_marseille","lat":43.22926,"lon":5.35377,"is_reserved":false,"is_disabled":false,"rental_uris":{"android":"levelo://app?vid=a0b3c393-788e-427a-ba12-453c908bd9de","ios":"levelo://app?vid=a0b3c393-788e-427a-ba12-453c908bd9de"},"vehicle_type_id":"4","last_reported":1768397588,"current_range_meters":7200,"station_id":"cpo3532slgdg3j2ikp40","pricing_plan_id":"cebpf4jnsgd1na2vs0mg"},{"bike_id":"dbd86f85-5b5f-4ae9-8c1d-698ae30b47da","system_id":"levelo_inurba_marseille","lat":43.29701,"lon":5.36608,"is_reserved":false,"is_disabled":false,"rental_uris":{"android":"levelo://app?vid=dbd86f85-5b5f-4ae9-8c1d-698ae30b47da","ios":"levelo://app?vid=dbd86f85-5b5f-4ae9-8c1d-698ae30b47da"},"vehicle_type_id":"4","last_reported":1768397588,"current_range_meters":7200,"station_id":"ce4bgn12rcd13ifvqbt0","pricing_plan_id":"cebpf4jnsgd1na2vs0mg"},{"bike_id":"758c8a38-5bac-4bdc-832f-9d4bdffd28a7","system_id":"levelo_inurba_marseille","lat":43.25152,"lon":5.40403,"is_reserved":false,"is_disabled":false,"rental_uris":{"android":"levelo://app?vid=758c8a38-5bac-4bdc-832f-9d4bdffd28a7","ios":"levelo://app?vid=758c8a38-5bac-4bdc-832f-9d4bdffd28a7"},"vehicle_type_id":"4","last_reported":1768397588,"current_range_meters":7200,"station_id":"","pricing_plan_id":"cebpf4jnsgd1na2vs0mg"},{"bike_id":"a95b6f12-0846-4420-87fd-d24a14a6b78d","system_id":"levelo_inurba_marseille","lat":43.26223,"lon":5.37907,"is_reserved":false,"is_disabled":false,"rental_uris":{"android":"levelo://app?vid=a95b6f12-0846-4420-87fd-d24a14a6b78d","ios":"levelo://app?vid=a95b6f12-0846-4420-87fd-d24a14a6b78d"},"vehicle_type_id":"4","last_reported":1768397588,"current_range_meters":7200,"station_id":"ce4bhjp2rcd13ifvqg90","pricing_plan_id":"cebpf4jnsgd1na2vs0mg"},{"bike_id":"a41afe78-53cf-4544-bc4e-f67c85d3e8c4","system_id":"levelo_inurba_marseille","lat":43.31373,"lon":5.36734,"is_reserved":false,"is_disabled":false,"rental_uris":{"android":"levelo://app?vid=a41afe78-53cf-4544-bc4e-f67c85d3e8c4","ios":"levelo://app?vid=a41afe78-53cf-4544-bc4e-f67c85d3e8c4"},"vehicle_type_id":"4","last_reported":1768397588,"current_range_meters":7200,"station_id":"ce4bgr92rcd13ifvqc6g","pricing_plan_id":"cebpf4jnsgd1na2vs0mg"},{"bike_id":"749c422e-e046-4ce6-98b2-658e6681b3d7","system_id":"levelo_inurba_marseille","lat":43.316883,"lon":5.404768,"is_reserved":false,"is_disabled":false,"rental_uris":{"android":"levelo://app?vid=749c422e-e046-4ce6-98b2-658e6681b3d7","ios":"levelo://app?vid=749c422e-e046-4ce6-98b2-658e6681b3d7"},"vehicle_type_id":"4","last_reported":1768397588,"current_range_meters":7200,"station_id":"ce4bh012rcd13ifvqd00","pricing_plan_id":"cebpf4jnsgd1na2vs0mg"},{"bike_id":"f09398ab-c133-45bc-96de-db29a109f5ad","system_id":"levelo_inurba_marseille","lat":43.26556,"lon":5.37279,"is_reserved":false,"is_disabled":false,"rental_uris":{"android":"levelo://app?vid=f09398ab-c133-45bc-96de-db29a109f5ad","ios":"levelo://app?vid=f09398ab-c133-45bc-96de-db29a109f5ad"},"vehicle_type_id":"4","last_reported":1768397588,"current_range_meters":7200,"station_id":"ce4bhg12rcd13ifvqf70","pricing_plan_id":"cebpf4jnsgd1na2vs0mg"},{"bike_id":"e132dfde-773d-467b-b281-4eeb31a6b007","system_id":"levelo_inurba_marseille","lat":43.24849,"lon":5.37426,"is_reserved":false,"is_disabled":false,"rental_uris":{"android":"levelo://app?vid=e132dfde-773d-467b-b281-4eeb31a6b007","ios":"levelo://app?vid=e132dfde-773d-467b-b281-4eeb31a6b007"},"vehicle_type_id":"4","last_reported":1768397588,"current_range_meters":8000,"station_id":"","pricing_plan_id":"cebpf4jnsgd1na2vs0mg"},{"bike_id":"ae61c49b-1317-4f66-bef7-faf737c6ab84","system_id":"levelo_inurba_marseille","lat":43.24639,"lon":5.43136,"is_reserved":false,"is_disabled":false,"rental_uris":{"android":"levelo://app?vid=ae61c49b-1317-4f66-bef7-faf737c6ab84","ios":"levelo://app?vid=ae61c49b-1317-4f66-bef7-faf737c6ab84"},"vehicle_type_id":"4","last_reported":1768397588,"current_range_meters":8000,"station_id":"st_d2m6c4gdas8pm72e190g","pricing_plan_id":"cebpf4jnsgd1na2vs0mg"},{"bike_id":"54328619-cff2-4dca-bb9d-3f5f45c6b8d8","system_id":"levelo_inurba_marseille","lat":43.27209,"lon":5.39175,"is_reserved":false,"is_disabled":false,"rental_uris":{"android":"levelo://app?vid=54328619-cff2-4dca-bb9d-3f5f45c6b8d8","ios":"levelo://app?vid=54328619-cff2-4dca-bb9d-3f5f45c6b8d8"},"vehicle_type_id":"4","last_reported":1768397588,"current_range_meters":8000,"station_id":"ce4bhhp2rcd13ifvqfm0","pricing_plan_id":"cebpf4jnsgd1na2vs0mg"},{"bike_id":"c75b139b-6977-457c-8fab-86c172554976","system_id":"levelo_inurba_marseille","lat":43.25103,"lon":5.40458,"is_reserved":false,"is_disabled":false,"rental_uris":{"android":"levelo://app?vid=c75b139b-6977-457c-8fab-86c172554976","ios":"levelo://app?vid=c75b139b-6977-457c-8fab-86c172554976"},"vehicle_type_id":"4","last_reported":1768397588,"current_range_meters":8000,"station_id":"","pricing_plan_id":"cebpf4jnsgd1na2vs0mg"},{"bike_id":"660f8d3d-996c-4d0c-a098-476ebc30f600","system_id":"levelo_inurba_marseille","lat":43.22588,"lon":5.41614,"is_reserved":false,"is_disabled":false,"rental_uris":{"android":"levelo://app?vid=660f8d3d-996c-4d0c-a098-476ebc30f600","ios":"levelo://app?vid=660f8d3d-996c-4d0c-a098-476ebc30f600"},"vehicle_type_id":"4","last_reported":1768397588,"current_range_meters":8000,"station_id":"st_d2o4gvlbi1j2169b742g","pricing_plan_id":"cebpf4jnsgd1na2vs0mg"},{"bike_id":"e3689fe5-a0aa-4258-8eec-13656f1f8382","system_id":"levelo_inurba_marseille","lat":43.248,"lon":5.37454,"is_reserved":false,"is_disabled":false,"rental_uris":{"android":"levelo://app?vid=e3689fe5-a0aa-4258-8eec-13656f1f8382","ios":"levelo://app?vid=e3689fe5-a0aa-4258-8eec-13656f1f8382"},"vehicle_type_id":"4","last_reported":1768397588,"current_range_meters":8000,"station_id":"ce4bhgh2rcd13ifvqfb0","pricing_plan_id":"cebpf4jnsgd1na2vs0mg"},{"bike_id":"1c368511-4dc5-413e-9320-5c9141f9acf7","system_id":"levelo_inurba_marseille","lat":43.2638,"lon":5.39888,"is_reserved":false,"is_disabled":true,"rental_uris":{"android":"levelo://app?vid=1c368511-4dc5-413e-9320-5c9141f9acf7","ios":"levelo://app?vid=1c368511-4dc5-413e-9320-5c9141f9acf7"},"vehicle_type_id":"4","last_reported":1768397588,"current_range_meters":8000,"station_id":"","pricing_plan_id":"cebpf4jnsgd1na2vs0mg"},{"bike_id":"f27272d4-b42c-4660-aff8-11729aa104cc","system_id":"levelo_inurba_marseille","lat":43.31217,"lon":5.36899,"is_reserved":false,"is_disabled":false,"rental_uris":{"android":"levelo://app?vid=f27272d4-b42c-4660-aff8-11729aa104cc","ios":"levelo://app?vid=f27272d4-b42c-4660-aff8-11729aa104cc"},"vehicle_type_id":"4","last_reported":1768397588,"current_range_meters":8000,"station_id":"ce4bgl92rcd13ifvqbq0","pricing_plan_id":"cebpf4jnsgd1na2vs0mg"},{"bike_id":"7dd08ae0-15c1-430e-b90c-31bae0657aec","system_id":"levelo_inurba_marseille","lat":43.28396,"lon":5.35003,"is_reserved":false,"is_disabled":false,"rental_uris":{"android":"levelo://app?vid=7dd08ae0-15c1-430e-b90c-31bae0657aec","ios":"levelo://app?vid=7dd08ae0-15c1-430e-b90c-31bae0657aec"},"vehicle_type_id":"4","last_reported":1768397588,"current_range_meters":8000,"station_id":"ce4bhbh2rcd13ifvqepg","pricing_plan_id":"cebpf4jnsgd1na2vs0mg"},{"bike_id":"a293b5ac-cc9d-4eaf-9c82-287a9bc7812d","system_id":"levelo_inurba_marseille","lat":43.28946,"lon":5.38844,"is_reserved":false,"is_disabled":false,"rental_uris":{"android":"levelo://app?vid=a293b5ac-cc9d-4eaf-9c82-287a9bc7812d","ios":"levelo://app?vid=a293b5ac-cc9d-4eaf-9c82-287a9bc7812d"},"vehicle_type_id":"4","last_reported":1768397588,"current_range_meters":8000,"station_id":"","pricing_plan_id":"cebpf4jnsgd1na2vs0mg"},{"bike_id":"326fd45d-11eb-4826-92b5-835d5b4d7fbd","system_id":"levelo_inurba_marseille","lat":43.300324,"lon":5.388794,"is_reserved":false,"is_disabled":false,"rental_uris":{"android":"levelo://app?vid=326fd45d-11eb-4826-92b5-835d5b4d7fbd","ios":"levelo://app?vid=326fd45d-11eb-4826-92b5-835d5b4d7fbd"},"vehicle_type_id":"4","last_reported":1768397588,"current_range_meters":8000,"station_id":"","pricing_plan_id":"cebpf4jnsgd1na2vs0mg"},{"bike_id":"cb91171a-b433-4d62-9e48-7aa16e13fdf7","system_id":"levelo_inurba_marseille","lat":43.29734,"lon":5.42785,"is_reserved":false,"is_disabled":false,"rental_uris":{"android":"levelo://app?vid=cb91171a-b433-4d62-9e48-7aa16e13fdf7","ios":"levelo://app?vid=cb91171a-b433-4d62-9e48-7aa16e13fdf7"},"vehicle_type_id":"4","last_reported":1768397588,"current_range_meters":8000,"station_id":"st_d3md5207bmas73dh9klg","pricing_plan_id":"cebpf4jnsgd1na2vs0mg"},{"bike_id":"8803a6e9-67a3-479e-b849-a893754260d5","system_id":"levelo_inurba_marseille","lat":43.22923,"lon":5.35373,"is_reserved":false,"is_disabled":false,"rental_uris":{"android":"levelo://app?vid=8803a6e9-67a3-479e-b849-a893754260d5","ios":"levelo://app?vid=8803a6e9-67a3-479e-b849-a893754260d5"},"vehicle_type_id":"4","last_reported":1768397588,"current_range_meters":8000,"station_id":"cpo3532slgdg3j2ikp40","pricing_plan_id":"cebpf4jnsgd1na2vs0mg"},{"bike_id":"7efa5c5d-987d-4ada-abdf-caf18ee4b7ff","system_id":"levelo_inurba_marseille","lat":43.28012,"lon":5.40008,"is_reserved":false,"is_disabled":false,"rental_uris":{"android":"levelo://app?vid=7efa5c5d-987d-4ada-abdf-caf18ee4b7ff","ios":"levelo://app?vid=7efa5c5d-987d-4ada-abdf-caf18ee4b7ff"},"vehicle_type_id":"4","last_reported":1768397588,"current_range_meters":8000,"station_id":"ce4bho92rcd13ifvqh4g","pricing_plan_id":"cebpf4jnsgd1na2vs0mg"},{"bike_id":"56d17771-b780-474d-aef8-a8ccab5f86ce","system_id":"levelo_inurba_marseille","lat":43.26194,"lon":5.3745,"is_reserved":false,"is_disabled":false,"rental_uris":{"android":"levelo://app?vid=56d17771-b780-474d-aef8-a8ccab5f86ce","ios":"levelo://app?vid=56d17771-b780-474d-aef8-a8ccab5f86ce"},"vehicle_type_id":"4","last_reported":1768397588,"current_range_meters":8000,"station_id":"ce4bhgp2rcd13ifvqfc0","pricing_plan_id":"cebpf4jnsgd1na2vs0mg"},{"bike_id":"a45f187f-4ab2-403a-85d2-aa48ef73c203","system_id":"levelo_inurba_marseille","lat":43.305911,"lon":5.372171,"is_reserved":false,"is_disabled":false,"rental_uris":{"android":"levelo://app?vid=a45f187f-4ab2-403a-85d2-aa48ef73c203","ios":"levelo://app?vid=a45f187f-4ab2-403a-85d2-aa48ef73c203"},"vehicle_type_id":"4","last_reported":1768397588,"current_range_meters":8000,"station_id":"ce4bgqh2rcd13ifvqc4g","pricing_plan_id":"cebpf4jnsgd1na2vs0mg"},{"bike_id":"ae1d99b1-82a1-460d-bd96-dc1d194fe893","system_id":"levelo_inurba_marseille","lat":43.29823,"lon":5.37648,"is_reserved":false,"is_disabled":false,"rental_uris":{"android":"levelo://app?vid=ae1d99b1-82a1-460d-bd96-dc1d194fe893","ios":"levelo://app?vid=ae1d99b1-82a1-460d-bd96-dc1d194fe893"},"vehicle_type_id":"4","last_reported":1768397588,"current_range_meters":8000,"station_id":"","pricing_plan_id":"cebpf4jnsgd1na2vs0mg"},{"bike_id":"091c8081-61de-43ac-bb2c-74077a5d4149","system_id":"levelo_inurba_marseille","lat":43.2255,"lon":5.41625,"is_reserved":false,"is_disabled":false,"rental_uris":{"android":"levelo://app?vid=091c8081-61de-43ac-bb2c-74077a5d4149","ios":"levelo://app?vid=091c8081-61de-43ac-bb2c-74077a5d4149"},"vehicle_type_id":"4","last_reported":1768397588,"current_range_meters":8000,"station_id":"st_d2o4gvlbi1j2169b742g","pricing_plan_id":"cebpf4jnsgd1na2vs0mg"},{"bike_id":"204ac4ab-e203-4329-9ff0-720626e1f908","system_id":"levelo_inurba_marseille","lat":43.270658,"lon":5.383118,"is_reserved":false,"is_disabled":true,"rental_uris":{"android":"levelo://app?vid=204ac4ab-e203-4329-9ff0-720626e1f908","ios":"levelo://app?vid=204ac4ab-e203-4329-9ff0-720626e1f908"},"vehicle_type_id":"4","last_reported":1768397588,"current_range_meters":8000,"station_id":"st_d3n2fo6cfp8s73cte1j0","pricing_plan_id":"cebpf4jnsgd1na2vs0mg"},{"bike_id":"d822d21f-2a31-408a-b00b-b3387695630b","system_id":"levelo_inurba_marseille","lat":43.21189,"lon":5.35068,"is_reserved":false,"is_disabled":false,"rental_uris":{"android":"levelo://app?vid=d822d21f-2a31-408a-b00b-b3387695630b","ios":"levelo://app?vid=d822d21f-2a31-408a-b00b-b3387695630b"},"vehicle_type_id":"4","last_reported":1768397588,"current_range_meters":8000,"station_id":"st_cvj6sg6p6f1abm77japg","pricing_plan_id":"cebpf4jnsgd1na2vs0mg"},{"bike_id":"037a0099-1ded-43c7-8e30-7e3e2a0dc4bc","system_id":"levelo_inurba_marseille","lat":43.24945,"lon":5.40501,"is_reserved":false,"is_disabled":false,"rental_uris":{"android":"levelo://app?vid=037a0099-1ded-43c7-8e30-7e3e2a0dc4bc","ios":"levelo://app?vid=037a0099-1ded-43c7-8e30-7e3e2a0dc4bc"},"vehicle_type_id":"4","last_reported":1768397588,"current_range_meters":8000,"station_id":"st_d2ngiaodas8pm72gd1h0","pricing_plan_id":"cebpf4jnsgd1na2vs0mg"},{"bike_id":"fb9e54b7-2865-432c-8762-7b2135e9a1f1","system_id":"levelo_inurba_marseille","lat":43.25131,"lon":5.40322,"is_reserved":false,"is_disabled":false,"rental_uris":{"android":"levelo://app?vid=fb9e54b7-2865-432c-8762-7b2135e9a1f1","ios":"levelo://app?vid=fb9e54b7-2865-432c-8762-7b2135e9a1f1"},"vehicle_type_id":"4","last_reported":1768397588,"current_range_meters":8000,"station_id":"ce4bhlh2rcd13ifvqgig","pricing_plan_id":"cebpf4jnsgd1na2vs0mg"},{"bike_id":"c4c5a3df-e90e-4579-88a2-9cc4ceac9cd9","system_id":"levelo_inurba_marseille","lat":43.30542,"lon":5.36701,"is_reserved":false,"is_disabled":false,"rental_uris":{"android":"levelo://app?vid=c4c5a3df-e90e-4579-88a2-9cc4ceac9cd9","ios":"levelo://app?vid=c4c5a3df-e90e-4579-88a2-9cc4ceac9cd9"},"vehicle_type_id":"4","last_reported":1768397588,"current_range_meters":8400,"station_id":"ce4bgrp2rcd13ifvqc9g","pricing_plan_id":"cebpf4jnsgd1na2vs0mg"},{"bike_id":"feba94b8-89e0-43a3-bcc3-4d546088cc4d","system_id":"levelo_inurba_marseille","lat":43.29057,"lon":5.40005,"is_reserved":false,"is_disabled":false,"rental_uris":{"android":"levelo://app?vid=feba94b8-89e0-43a3-bcc3-4d546088cc4d","ios":"levelo://app?vid=feba94b8-89e0-43a3-bcc3-4d546088cc4d"},"vehicle_type_id":"4","last_reported":1768397588,"current_range_meters":8400,"station_id":"ce4bh392rcd13ifvqdm0","pricing_plan_id":"cebpf4jnsgd1na2vs0mg"},{"bike_id":"2f317efe-a01b-468a-9036-21dfc4cc3358","system_id":"levelo_inurba_marseille","lat":43.25837,"lon":5.39407,"is_reserved":false,"is_disabled":false,"rental_uris":{"android":"levelo://app?vid=2f317efe-a01b-468a-9036-21dfc4cc3358","ios":"levelo://app?vid=2f317efe-a01b-468a-9036-21dfc4cc3358"},"vehicle_type_id":"4","last_reported":1768397588,"current_range_meters":8400,"station_id":"ce4bhip2rcd13ifvqft0","pricing_plan_id":"cebpf4jnsgd1na2vs0mg"},{"bike_id":"72ff7b73-b7a5-4e8c-b009-667fa554ab4f","system_id":"levelo_inurba_marseille","lat":43.23151,"lon":5.43705,"is_reserved":false,"is_disabled":false,"rental_uris":{"android":"levelo://app?vid=72ff7b73-b7a5-4e8c-b009-667fa554ab4f","ios":"levelo://app?vid=72ff7b73-b7a5-4e8c-b009-667fa554ab4f"},"vehicle_type_id":"4","last_reported":1768397588,"current_range_meters":8400,"station_id":"ce4bhmp2rcd13ifvqgog","pricing_plan_id":"cebpf4jnsgd1na2vs0mg"},{"bike_id":"06897417-f925-403b-9b53-83cb77fb311f","system_id":"levelo_inurba_marseille","lat":43.2293,"lon":5.35379,"is_reserved":false,"is_disabled":false,"rental_uris":{"android":"levelo://app?vid=06897417-f925-403b-9b53-83cb77fb311f","ios":"levelo://app?vid=06897417-f925-403b-9b53-83cb77fb311f"},"vehicle_type_id":"4","last_reported":1768397588,"current_range_meters":8400,"station_id":"cpo3532slgdg3j2ikp40","pricing_plan_id":"cebpf4jnsgd1na2vs0mg"},{"bike_id":"93605bcf-031f-43c8-92a1-f7205cdd8f13","system_id":"levelo_inurba_marseille","lat":43.29197,"lon":5.35803,"is_reserved":false,"is_disabled":false,"rental_uris":{"android":"levelo://app?vid=93605bcf-031f-43c8-92a1-f7205cdd8f13","ios":"levelo://app?vid=93605bcf-031f-43c8-92a1-f7205cdd8f13"},"vehicle_type_id":"4","last_reported":1768397588,"current_range_meters":8400,"station_id":"ce4bhb12rcd13ifvqel0","pricing_plan_id":"cebpf4jnsgd1na2vs0mg"},{"bike_id":"52dc7a23-02b1-49ea-88fe-a1d65ef8f548","system_id":"levelo_inurba_marseille","lat":43.22931,"lon":5.35379,"is_reserved":false,"is_disabled":false,"rental_uris":{"android":"levelo://app?vid=52dc7a23-02b1-49ea-88fe-a1d65ef8f548","ios":"levelo://app?vid=52dc7a23-02b1-49ea-88fe-a1d65ef8f548"},"vehicle_type_id":"4","last_reported":1768397588,"current_range_meters":8400,"station_id":"cpo3532slgdg3j2ikp40","pricing_plan_id":"cebpf4jnsgd1na2vs0mg"},{"bike_id":"c9da304b-df64-469f-a8fe-783a041f993b","system_id":"levelo_inurba_marseille","lat":43.30536,"lon":5.36509,"is_reserved":false,"is_disabled":false,"rental_uris":{"android":"levelo://app?vid=c9da304b-df64-469f-a8fe-783a041f993b","ios":"levelo://app?vid=c9da304b-df64-469f-a8fe-783a041f993b"},"vehicle_type_id":"4","last_reported":1768397588,"current_range_meters":8400,"station_id":"","pricing_plan_id":"cebpf4jnsgd1na2vs0mg"},{"bike_id":"f1177697-24b8-4122-96be-92006a04ddc7","system_id":"levelo_inurba_marseille","lat":43.27842,"lon":5.40725,"is_reserved":false,"is_disabled":false,"rental_uris":{"android":"levelo://app?vid=f1177697-24b8-4122-96be-92006a04ddc7","ios":"levelo://app?vid=f1177697-24b8-4122-96be-92006a04ddc7"},"vehicle_type_id":"4","last_reported":1768397588,"current_range_meters":8400,"station_id":"ce4bhnh2rcd13ifvqgtg","pricing_plan_id":"cebpf4jnsgd1na2vs0mg"},{"bike_id":"86aaef4b-aac1-4248-ac79-0d9f37b8c62f","system_id":"levelo_inurba_marseille","lat":43.27317,"lon":5.41682,"is_reserved":false,"is_disabled":false,"rental_uris":{"android":"levelo://app?vid=86aaef4b-aac1-4248-ac79-0d9f37b8c62f","ios":"levelo://app?vid=86aaef4b-aac1-4248-ac79-0d9f37b8c62f"},"vehicle_type_id":"4","last_reported":1768397588,"current_range_meters":8400,"station_id":"","pricing_plan_id":"cebpf4jnsgd1na2vs0mg"},{"bike_id":"fca6ade4-fb97-4735-aea0-e5bf0b1d331c","system_id":"levelo_inurba_marseille","lat":43.311923,"lon":5.387102,"is_reserved":false,"is_disabled":false,"rental_uris":{"android":"levelo://app?vid=fca6ade4-fb97-4735-aea0-e5bf0b1d331c","ios":"levelo://app?vid=fca6ade4-fb97-4735-aea0-e5bf0b1d331c"},"vehicle_type_id":"4","last_reported":1768397588,"current_range_meters":8400,"station_id":"ce4bgv12rcd13ifvqcp0","pricing_plan_id":"cebpf4jnsgd1na2vs0mg"},{"bike_id":"396fbd50-99cc-4598-ada2-23bb3a56180e","system_id":"levelo_inurba_marseille","lat":43.250045,"lon":5.389159,"is_reserved":false,"is_disabled":true,"rental_uris":{"android":"levelo://app?vid=396fbd50-99cc-4598-ada2-23bb3a56180e","ios":"levelo://app?vid=396fbd50-99cc-4598-ada2-23bb3a56180e"},"vehicle_type_id":"4","last_reported":1768397588,"current_range_meters":8400,"station_id":"ce4bhgp2rcd13ifvqfd0","pricing_plan_id":"cebpf4jnsgd1na2vs0mg"},{"bike_id":"32a6fb2e-0d07-41f5-98d9-49c5a72b9745","system_id":"levelo_inurba_marseille","lat":43.258321,"lon":5.394302,"is_reserved":false,"is_disabled":false,"rental_uris":{"android":"levelo://app?vid=32a6fb2e-0d07-41f5-98d9-49c5a72b9745","ios":"levelo://app?vid=32a6fb2e-0d07-41f5-98d9-49c5a72b9745"},"vehicle_type_id":"4","last_reported":1768397588,"current_range_meters":8400,"station_id":"ce4bhip2rcd13ifvqft0","pricing_plan_id":"cebpf4jnsgd1na2vs0mg"},{"bike_id":"c0662093-37d5-42d5-8d52-c5cc57e4e305","system_id":"levelo_inurba_marseille","lat":43.28718,"lon":5.37932,"is_reserved":false,"is_disabled":false,"rental_uris":{"android":"levelo://app?vid=c0662093-37d5-42d5-8d52-c5cc57e4e305","ios":"levelo://app?vid=c0662093-37d5-42d5-8d52-c5cc57e4e305"},"vehicle_type_id":"4","last_reported":1768397588,"current_range_meters":8400,"station_id":"ce4bh9p2rcd13ifvqec0","pricing_plan_id":"cebpf4jnsgd1na2vs0mg"},{"bike_id":"55194f29-42dd-4454-96b2-a5d4401446b6","system_id":"levelo_inurba_marseille","lat":43.29933,"lon":5.42753,"is_reserved":false,"is_disabled":false,"rental_uris":{"android":"levelo://app?vid=55194f29-42dd-4454-96b2-a5d4401446b6","ios":"levelo://app?vid=55194f29-42dd-4454-96b2-a5d4401446b6"},"vehicle_type_id":"4","last_reported":1768397588,"current_range_meters":8400,"station_id":"","pricing_plan_id":"cebpf4jnsgd1na2vs0mg"},{"bike_id":"c81b7509-5dd7-4492-9100-68af9d411ee1","system_id":"levelo_inurba_marseille","lat":43.29112,"lon":5.40219,"is_reserved":false,"is_disabled":false,"rental_uris":{"android":"levelo://app?vid=c81b7509-5dd7-4492-9100-68af9d411ee1","ios":"levelo://app?vid=c81b7509-5dd7-4492-9100-68af9d411ee1"},"vehicle_type_id":"4","last_reported":1768397588,"current_range_meters":8400,"station_id":"","pricing_plan_id":"cebpf4jnsgd1na2vs0mg"},{"bike_id":"4883c970-634b-4de4-9e21-df47a68eb757","system_id":"levelo_inurba_marseille","lat":43.28482,"lon":5.48394,"is_reserved":false,"is_disabled":false,"rental_uris":{"android":"levelo://app?vid=4883c970-634b-4de4-9e21-df47a68eb757","ios":"levelo://app?vid=4883c970-634b-4de4-9e21-df47a68eb757"},"vehicle_type_id":"4","last_reported":1768397588,"current_range_meters":8400,"station_id":"st_d3svhcjqgbts73a3dn0g","pricing_plan_id":"cebpf4jnsgd1na2vs0mg"},{"bike_id":"a17e8d5f-3b35-487b-a91b-1f29ad7b4c5b","system_id":"levelo_inurba_marseille","lat":43.24948,"lon":5.40482,"is_reserved":false,"is_disabled":false,"rental_uris":{"android":"levelo://app?vid=a17e8d5f-3b35-487b-a91b-1f29ad7b4c5b","ios":"levelo://app?vid=a17e8d5f-3b35-487b-a91b-1f29ad7b4c5b"},"vehicle_type_id":"4","last_reported":1768397588,"current_range_meters":8400,"station_id":"st_d2ngiaodas8pm72gd1h0","pricing_plan_id":"cebpf4jnsgd1na2vs0mg"},{"bike_id":"7aebede3-29e7-422e-9949-e6406848b636","system_id":"levelo_inurba_marseille","lat":43.25135,"lon":5.40355,"is_reserved":false,"is_disabled":false,"rental_uris":{"android":"levelo://app?vid=7aebede3-29e7-422e-9949-e6406848b636","ios":"levelo://app?vid=7aebede3-29e7-422e-9949-e6406848b636"},"vehicle_type_id":"4","last_reported":1768397588,"current_range_meters":8800,"station_id":"ce4bhlh2rcd13ifvqgig","pricing_plan_id":"cebpf4jnsgd1na2vs0mg"},{"bike_id":"dfef29dc-2d4d-46b6-a9c1-7904609250fe","system_id":"levelo_inurba_marseille","lat":43.30428,"lon":5.3888,"is_reserved":false,"is_disabled":false,"rental_uris":{"android":"levelo://app?vid=dfef29dc-2d4d-46b6-a9c1-7904609250fe","ios":"levelo://app?vid=dfef29dc-2d4d-46b6-a9c1-7904609250fe"},"vehicle_type_id":"4","last_reported":1768397588,"current_range_meters":8800,"station_id":"ce4bgk12rcd13ifvqbi0","pricing_plan_id":"cebpf4jnsgd1na2vs0mg"},{"bike_id":"9e6b9d48-95e6-48ab-b8e9-c4dd24303086","system_id":"levelo_inurba_marseille","lat":43.26209,"lon":5.37443,"is_reserved":false,"is_disabled":false,"rental_uris":{"android":"levelo://app?vid=9e6b9d48-95e6-48ab-b8e9-c4dd24303086","ios":"levelo://app?vid=9e6b9d48-95e6-48ab-b8e9-c4dd24303086"},"vehicle_type_id":"4","last_reported":1768397588,"current_range_meters":8800,"station_id":"ce4bhgp2rcd13ifvqfc0","pricing_plan_id":"cebpf4jnsgd1na2vs0mg"},{"bike_id":"1d4a4fad-6302-435f-a955-d4f4ff25438d","system_id":"levelo_inurba_marseille","lat":43.26785,"lon":5.39417,"is_reserved":false,"is_disabled":false,"rental_uris":{"android":"levelo://app?vid=1d4a4fad-6302-435f-a955-d4f4ff25438d","ios":"levelo://app?vid=1d4a4fad-6302-435f-a955-d4f4ff25438d"},"vehicle_type_id":"4","last_reported":1768397588,"current_range_meters":8800,"station_id":"ce4bhh12rcd13ifvqfg0","pricing_plan_id":"cebpf4jnsgd1na2vs0mg"},{"bike_id":"984953dd-4d3f-44ad-bb8d-cee2582bab23","system_id":"levelo_inurba_marseille","lat":43.27803,"lon":5.407187,"is_reserved":false,"is_disabled":false,"rental_uris":{"android":"levelo://app?vid=984953dd-4d3f-44ad-bb8d-cee2582bab23","ios":"levelo://app?vid=984953dd-4d3f-44ad-bb8d-cee2582bab23"},"vehicle_type_id":"4","last_reported":1768397588,"current_range_meters":8800,"station_id":"ce4bhnh2rcd13ifvqgtg","pricing_plan_id":"cebpf4jnsgd1na2vs0mg"},{"bike_id":"0018a145-5229-40b3-8721-56b2cedfd3d6","system_id":"levelo_inurba_marseille","lat":43.27994,"lon":5.39943,"is_reserved":false,"is_disabled":false,"rental_uris":{"android":"levelo://app?vid=0018a145-5229-40b3-8721-56b2cedfd3d6","ios":"levelo://app?vid=0018a145-5229-40b3-8721-56b2cedfd3d6"},"vehicle_type_id":"4","last_reported":1768397588,"current_range_meters":8800,"station_id":"","pricing_plan_id":"cebpf4jnsgd1na2vs0mg"},{"bike_id":"aac02660-451c-4466-97cc-03bd6873da26","system_id":"levelo_inurba_marseille","lat":43.24801,"lon":5.3746,"is_reserved":false,"is_disabled":false,"rental_uris":{"android":"levelo://app?vid=aac02660-451c-4466-97cc-03bd6873da26","ios":"levelo://app?vid=aac02660-451c-4466-97cc-03bd6873da26"},"vehicle_type_id":"4","last_reported":1768397588,"current_range_meters":8800,"station_id":"ce4bhgh2rcd13ifvqfb0","pricing_plan_id":"cebpf4jnsgd1na2vs0mg"},{"bike_id":"e49a8b3e-dcef-4025-b09f-bf12ca218bf3","system_id":"levelo_inurba_marseille","lat":43.29214,"lon":5.39324,"is_reserved":false,"is_disabled":false,"rental_uris":{"android":"levelo://app?vid=e49a8b3e-dcef-4025-b09f-bf12ca218bf3","ios":"levelo://app?vid=e49a8b3e-dcef-4025-b09f-bf12ca218bf3"},"vehicle_type_id":"4","last_reported":1768397588,"current_range_meters":8800,"station_id":"ce4bh192rcd13ifvqdd0","pricing_plan_id":"cebpf4jnsgd1na2vs0mg"},{"bike_id":"3888b61f-aad2-40e7-9e4e-ed1b16a7e561","system_id":"levelo_inurba_marseille","lat":43.28445,"lon":5.39186,"is_reserved":false,"is_disabled":false,"rental_uris":{"android":"levelo://app?vid=3888b61f-aad2-40e7-9e4e-ed1b16a7e561","ios":"levelo://app?vid=3888b61f-aad2-40e7-9e4e-ed1b16a7e561"},"vehicle_type_id":"4","last_reported":1768397588,"current_range_meters":8800,"station_id":"ce4bhoh2rcd13ifvqh5g","pricing_plan_id":"cebpf4jnsgd1na2vs0mg"},{"bike_id":"3299f526-bc3e-460c-97e1-74a589b4c56d","system_id":"levelo_inurba_marseille","lat":43.27307,"lon":5.39072,"is_reserved":false,"is_disabled":false,"rental_uris":{"android":"levelo://app?vid=3299f526-bc3e-460c-97e1-74a589b4c56d","ios":"levelo://app?vid=3299f526-bc3e-460c-97e1-74a589b4c56d"},"vehicle_type_id":"4","last_reported":1768397588,"current_range_meters":8800,"station_id":"ce4bhgp2rcd13ifvqfe0","pricing_plan_id":"cebpf4jnsgd1na2vs0mg"},{"bike_id":"4a0910bc-2cb8-4117-a88f-aa517b88b474","system_id":"levelo_inurba_marseille","lat":43.34422,"lon":5.39984,"is_reserved":false,"is_disabled":false,"rental_uris":{"android":"levelo://app?vid=4a0910bc-2cb8-4117-a88f-aa517b88b474","ios":"levelo://app?vid=4a0910bc-2cb8-4117-a88f-aa517b88b474"},"vehicle_type_id":"4","last_reported":1768397588,"current_range_meters":8800,"station_id":"","pricing_plan_id":"cebpf4jnsgd1na2vs0mg"},{"bike_id":"ffb8dbbb-8bf3-493b-be34-81e8421efd82","system_id":"levelo_inurba_marseille","lat":43.30262,"lon":5.40078,"is_reserved":false,"is_disabled":false,"rental_uris":{"android":"levelo://app?vid=ffb8dbbb-8bf3-493b-be34-81e8421efd82","ios":"levelo://app?vid=ffb8dbbb-8bf3-493b-be34-81e8421efd82"},"vehicle_type_id":"4","last_reported":1768397588,"current_range_meters":8800,"station_id":"ce4bgvh2rcd13ifvqcs0","pricing_plan_id":"cebpf4jnsgd1na2vs0mg"},{"bike_id":"c98051db-5841-432c-a36b-9ad9148725d8","system_id":"levelo_inurba_marseille","lat":43.29906,"lon":5.43651,"is_reserved":false,"is_disabled":false,"rental_uris":{"android":"levelo://app?vid=c98051db-5841-432c-a36b-9ad9148725d8","ios":"levelo://app?vid=c98051db-5841-432c-a36b-9ad9148725d8"},"vehicle_type_id":"4","last_reported":1768397588,"current_range_meters":8800,"station_id":"ce4bhpp2rcd13ifvqhfg","pricing_plan_id":"cebpf4jnsgd1na2vs0mg"},{"bike_id":"96056386-d9a6-4636-bb5c-976733254508","system_id":"levelo_inurba_marseille","lat":43.21203,"lon":5.35091,"is_reserved":false,"is_disabled":false,"rental_uris":{"android":"levelo://app?vid=96056386-d9a6-4636-bb5c-976733254508","ios":"levelo://app?vid=96056386-d9a6-4636-bb5c-976733254508"},"vehicle_type_id":"4","last_reported":1768397588,"current_range_meters":8800,"station_id":"","pricing_plan_id":"cebpf4jnsgd1na2vs0mg"},{"bike_id":"f8f41106-6f3b-4e2a-a16c-d3b2443f7473","system_id":"levelo_inurba_marseille","lat":43.2976,"lon":5.42775,"is_reserved":false,"is_disabled":false,"rental_uris":{"android":"levelo://app?vid=f8f41106-6f3b-4e2a-a16c-d3b2443f7473","ios":"levelo://app?vid=f8f41106-6f3b-4e2a-a16c-d3b2443f7473"},"vehicle_type_id":"4","last_reported":1768397588,"current_range_meters":8800,"station_id":"st_d3md5207bmas73dh9klg","pricing_plan_id":"cebpf4jnsgd1na2vs0mg"},{"bike_id":"b995578f-6f02-428f-b2f1-98cf9f37d5cc","system_id":"levelo_inurba_marseille","lat":43.26032,"lon":5.37554,"is_reserved":false,"is_disabled":false,"rental_uris":{"android":"levelo://app?vid=b995578f-6f02-428f-b2f1-98cf9f37d5cc","ios":"levelo://app?vid=b995578f-6f02-428f-b2f1-98cf9f37d5cc"},"vehicle_type_id":"4","last_reported":1768397588,"current_range_meters":8800,"station_id":"ce4bhgh2rcd13ifvqfa0","pricing_plan_id":"cebpf4jnsgd1na2vs0mg"},{"bike_id":"04f0e70b-f077-4c7d-ade5-87260afb03f1","system_id":"levelo_inurba_marseille","lat":43.23789,"lon":5.36619,"is_reserved":false,"is_disabled":false,"rental_uris":{"android":"levelo://app?vid=04f0e70b-f077-4c7d-ade5-87260afb03f1","ios":"levelo://app?vid=04f0e70b-f077-4c7d-ade5-87260afb03f1"},"vehicle_type_id":"4","last_reported":1768397588,"current_range_meters":8800,"station_id":"st_d3nk18o9ro0c73en2l3g","pricing_plan_id":"cebpf4jnsgd1na2vs0mg"},{"bike_id":"eb0ad9ed-8a5f-4adc-8ba2-7f829ef52aab","system_id":"levelo_inurba_marseille","lat":43.24819,"lon":5.37445,"is_reserved":false,"is_disabled":false,"rental_uris":{"android":"levelo://app?vid=eb0ad9ed-8a5f-4adc-8ba2-7f829ef52aab","ios":"levelo://app?vid=eb0ad9ed-8a5f-4adc-8ba2-7f829ef52aab"},"vehicle_type_id":"4","last_reported":1768397588,"current_range_meters":8800,"station_id":"ce4bhgh2rcd13ifvqfb0","pricing_plan_id":"cebpf4jnsgd1na2vs0mg"},{"bike_id":"4810dca0-bad6-47b5-b7db-2f7125b3e022","system_id":"levelo_inurba_marseille","lat":43.21217,"lon":5.35067,"is_reserved":false,"is_disabled":false,"rental_uris":{"android":"levelo://app?vid=4810dca0-bad6-47b5-b7db-2f7125b3e022","ios":"levelo://app?vid=4810dca0-bad6-47b5-b7db-2f7125b3e022"},"vehicle_type_id":"4","last_reported":1768397588,"current_range_meters":8800,"station_id":"","pricing_plan_id":"cebpf4jnsgd1na2vs0mg"},{"bike_id":"44e09ea4-244a-4bbe-8077-ea08fd693753","system_id":"levelo_inurba_marseille","lat":43.30331,"lon":5.37688,"is_reserved":false,"is_disabled":false,"rental_uris":{"android":"levelo://app?vid=44e09ea4-244a-4bbe-8077-ea08fd693753","ios":"levelo://app?vid=44e09ea4-244a-4bbe-8077-ea08fd693753"},"vehicle_type_id":"4","last_reported":1768397588,"current_range_meters":9200,"station_id":"","pricing_plan_id":"cebpf4jnsgd1na2vs0mg"},{"bike_id":"03e9f015-73ba-4c3e-a345-a62206b593d1","system_id":"levelo_inurba_marseille","lat":43.32453,"lon":5.36564,"is_reserved":false,"is_disabled":false,"rental_uris":{"android":"levelo://app?vid=03e9f015-73ba-4c3e-a345-a62206b593d1","ios":"levelo://app?vid=03e9f015-73ba-4c3e-a345-a62206b593d1"},"vehicle_type_id":"4","last_reported":1768397588,"current_range_meters":9200,"station_id":"ce4bhs12rcd13ifvqhvg","pricing_plan_id":"cebpf4jnsgd1na2vs0mg"},{"bike_id":"634a5032-07c2-4ad0-b886-0e21c013fdce","system_id":"levelo_inurba_marseille","lat":43.256,"lon":5.38215,"is_reserved":false,"is_disabled":false,"rental_uris":{"android":"levelo://app?vid=634a5032-07c2-4ad0-b886-0e21c013fdce","ios":"levelo://app?vid=634a5032-07c2-4ad0-b886-0e21c013fdce"},"vehicle_type_id":"4","last_reported":1768397588,"current_range_meters":9200,"station_id":"ce4bhih2rcd13ifvqfs0","pricing_plan_id":"cebpf4jnsgd1na2vs0mg"},{"bike_id":"7445f670-7827-4e99-80df-37c19e7cc9ec","system_id":"levelo_inurba_marseille","lat":43.321122,"lon":5.367672,"is_reserved":false,"is_disabled":false,"rental_uris":{"android":"levelo://app?vid=7445f670-7827-4e99-80df-37c19e7cc9ec","ios":"levelo://app?vid=7445f670-7827-4e99-80df-37c19e7cc9ec"},"vehicle_type_id":"4","last_reported":1768397588,"current_range_meters":9200,"station_id":"ce4bhrh2rcd13ifvqhug","pricing_plan_id":"cebpf4jnsgd1na2vs0mg"},{"bike_id":"24265552-73a5-4464-a3ff-78bf114888d6","system_id":"levelo_inurba_marseille","lat":43.23182,"lon":5.39943,"is_reserved":false,"is_disabled":false,"rental_uris":{"android":"levelo://app?vid=24265552-73a5-4464-a3ff-78bf114888d6","ios":"levelo://app?vid=24265552-73a5-4464-a3ff-78bf114888d6"},"vehicle_type_id":"4","last_reported":1768397588,"current_range_meters":9200,"station_id":"ce4bhn12rcd13ifvqgqg","pricing_plan_id":"cebpf4jnsgd1na2vs0mg"},{"bike_id":"92f4d53b-70cc-44b4-ac3a-9811ce80940f","system_id":"levelo_inurba_marseille","lat":43.28941,"lon":5.36636,"is_reserved":false,"is_disabled":false,"rental_uris":{"android":"levelo://app?vid=92f4d53b-70cc-44b4-ac3a-9811ce80940f","ios":"levelo://app?vid=92f4d53b-70cc-44b4-ac3a-9811ce80940f"},"vehicle_type_id":"4","last_reported":1768397588,"current_range_meters":9200,"station_id":"ce4bhap2rcd13ifvqek0","pricing_plan_id":"cebpf4jnsgd1na2vs0mg"},{"bike_id":"e11889a7-dd00-4680-82ad-dc48c0a7f8b9","system_id":"levelo_inurba_marseille","lat":43.22927,"lon":5.35385,"is_reserved":false,"is_disabled":false,"rental_uris":{"android":"levelo://app?vid=e11889a7-dd00-4680-82ad-dc48c0a7f8b9","ios":"levelo://app?vid=e11889a7-dd00-4680-82ad-dc48c0a7f8b9"},"vehicle_type_id":"4","last_reported":1768397588,"current_range_meters":9200,"station_id":"cpo3532slgdg3j2ikp40","pricing_plan_id":"cebpf4jnsgd1na2vs0mg"},{"bike_id":"ab4c7e8d-c082-49f2-ad38-3b04b1436978","system_id":"levelo_inurba_marseille","lat":43.22569,"lon":5.41626,"is_reserved":false,"is_disabled":false,"rental_uris":{"android":"levelo://app?vid=ab4c7e8d-c082-49f2-ad38-3b04b1436978","ios":"levelo://app?vid=ab4c7e8d-c082-49f2-ad38-3b04b1436978"},"vehicle_type_id":"4","last_reported":1768397588,"current_range_meters":9200,"station_id":"st_d2o4gvlbi1j2169b742g","pricing_plan_id":"cebpf4jnsgd1na2vs0mg"},{"bike_id":"e02c7f3d-6071-45aa-8ebf-5ecfe6972e7e","system_id":"levelo_inurba_marseille","lat":43.25342,"lon":5.42172,"is_reserved":false,"is_disabled":false,"rental_uris":{"android":"levelo://app?vid=e02c7f3d-6071-45aa-8ebf-5ecfe6972e7e","ios":"levelo://app?vid=e02c7f3d-6071-45aa-8ebf-5ecfe6972e7e"},"vehicle_type_id":"4","last_reported":1768397588,"current_range_meters":9200,"station_id":"st_d2m65c5bi1j21697t3ng","pricing_plan_id":"cebpf4jnsgd1na2vs0mg"},{"bike_id":"7c326d90-31eb-4853-9a15-5c3c9d97a630","system_id":"levelo_inurba_marseille","lat":43.28908,"lon":5.37777,"is_reserved":false,"is_disabled":false,"rental_uris":{"android":"levelo://app?vid=7c326d90-31eb-4853-9a15-5c3c9d97a630","ios":"levelo://app?vid=7c326d90-31eb-4853-9a15-5c3c9d97a630"},"vehicle_type_id":"4","last_reported":1768397588,"current_range_meters":9200,"station_id":"","pricing_plan_id":"cebpf4jnsgd1na2vs0mg"},{"bike_id":"32ed67de-fd5b-4133-8bca-f90f8a490931","system_id":"levelo_inurba_marseille","lat":43.29538,"lon":5.37498,"is_reserved":false,"is_disabled":false,"rental_uris":{"android":"levelo://app?vid=32ed67de-fd5b-4133-8bca-f90f8a490931","ios":"levelo://app?vid=32ed67de-fd5b-4133-8bca-f90f8a490931"},"vehicle_type_id":"4","last_reported":1768397588,"current_range_meters":9200,"station_id":"ce4bgkp2rcd13ifvqbmg","pricing_plan_id":"cebpf4jnsgd1na2vs0mg"},{"bike_id":"83b24877-4fa1-4cbc-9729-5d9b1f26a09d","system_id":"levelo_inurba_marseille","lat":43.29638,"lon":5.39171,"is_reserved":false,"is_disabled":false,"rental_uris":{"android":"levelo://app?vid=83b24877-4fa1-4cbc-9729-5d9b1f26a09d","ios":"levelo://app?vid=83b24877-4fa1-4cbc-9729-5d9b1f26a09d"},"vehicle_type_id":"4","last_reported":1768397588,"current_range_meters":9200,"station_id":"","pricing_plan_id":"cebpf4jnsgd1na2vs0mg"},{"bike_id":"ade32678-1741-44cd-b9e1-8ea54fe87fa2","system_id":"levelo_inurba_marseille","lat":43.260067,"lon":5.386787,"is_reserved":false,"is_disabled":false,"rental_uris":{"android":"levelo://app?vid=ade32678-1741-44cd-b9e1-8ea54fe87fa2","ios":"levelo://app?vid=ade32678-1741-44cd-b9e1-8ea54fe87fa2"},"vehicle_type_id":"4","last_reported":1768397588,"current_range_meters":9200,"station_id":"cjm6bp8fraef2m0cb0m0","pricing_plan_id":"cebpf4jnsgd1na2vs0mg"},{"bike_id":"120cc349-17d0-4351-9d3c-7ae6e8597071","system_id":"levelo_inurba_marseille","lat":43.30555,"lon":5.36474,"is_reserved":false,"is_disabled":false,"rental_uris":{"android":"levelo://app?vid=120cc349-17d0-4351-9d3c-7ae6e8597071","ios":"levelo://app?vid=120cc349-17d0-4351-9d3c-7ae6e8597071"},"vehicle_type_id":"4","last_reported":1768397588,"current_range_meters":9200,"station_id":"","pricing_plan_id":"cebpf4jnsgd1na2vs0mg"},{"bike_id":"08546fe9-4bfd-45c0-8d12-e1f210538ed0","system_id":"levelo_inurba_marseille","lat":43.2418,"lon":5.39721,"is_reserved":false,"is_disabled":false,"rental_uris":{"android":"levelo://app?vid=08546fe9-4bfd-45c0-8d12-e1f210538ed0","ios":"levelo://app?vid=08546fe9-4bfd-45c0-8d12-e1f210538ed0"},"vehicle_type_id":"4","last_reported":1768397588,"current_range_meters":9200,"station_id":"ce4bhn12rcd13ifvqgpg","pricing_plan_id":"cebpf4jnsgd1na2vs0mg"},{"bike_id":"ce705002-36e9-4a86-ba6d-0f075dbe99d7","system_id":"levelo_inurba_marseille","lat":43.29759,"lon":5.36293,"is_reserved":false,"is_disabled":false,"rental_uris":{"android":"levelo://app?vid=ce705002-36e9-4a86-ba6d-0f075dbe99d7","ios":"levelo://app?vid=ce705002-36e9-4a86-ba6d-0f075dbe99d7"},"vehicle_type_id":"4","last_reported":1768397588,"current_range_meters":9200,"station_id":"","pricing_plan_id":"cebpf4jnsgd1na2vs0mg"},{"bike_id":"fe669348-bf89-4dd7-a35a-ddb9a64d3309","system_id":"levelo_inurba_marseille","lat":43.29916,"lon":5.374779,"is_reserved":false,"is_disabled":false,"rental_uris":{"android":"levelo://app?vid=fe669348-bf89-4dd7-a35a-ddb9a64d3309","ios":"levelo://app?vid=fe669348-bf89-4dd7-a35a-ddb9a64d3309"},"vehicle_type_id":"4","last_reported":1768397588,"current_range_meters":9200,"station_id":"","pricing_plan_id":"cebpf4jnsgd1na2vs0mg"},{"bike_id":"b0925f0c-3231-4d54-8a42-e807d63a5ff7","system_id":"levelo_inurba_marseille","lat":43.28932,"lon":5.38388,"is_reserved":false,"is_disabled":false,"rental_uris":{"android":"levelo://app?vid=b0925f0c-3231-4d54-8a42-e807d63a5ff7","ios":"levelo://app?vid=b0925f0c-3231-4d54-8a42-e807d63a5ff7"},"vehicle_type_id":"4","last_reported":1768397588,"current_range_meters":9200,"station_id":"ce4bh612rcd13ifvqe6g","pricing_plan_id":"cebpf4jnsgd1na2vs0mg"},{"bike_id":"1836e1ac-0643-4dd5-81c9-73c4075ce17e","system_id":"levelo_inurba_marseille","lat":43.31377,"lon":5.36702,"is_reserved":false,"is_disabled":false,"rental_uris":{"android":"levelo://app?vid=1836e1ac-0643-4dd5-81c9-73c4075ce17e","ios":"levelo://app?vid=1836e1ac-0643-4dd5-81c9-73c4075ce17e"},"vehicle_type_id":"4","last_reported":1768397588,"current_range_meters":9200,"station_id":"ce4bgr92rcd13ifvqc6g","pricing_plan_id":"cebpf4jnsgd1na2vs0mg"},{"bike_id":"774ca479-5bb9-49b9-8ea6-99c5cf896279","system_id":"levelo_inurba_marseille","lat":43.24688,"lon":5.43121,"is_reserved":false,"is_disabled":false,"rental_uris":{"android":"levelo://app?vid=774ca479-5bb9-49b9-8ea6-99c5cf896279","ios":"levelo://app?vid=774ca479-5bb9-49b9-8ea6-99c5cf896279"},"vehicle_type_id":"4","last_reported":1768397588,"current_range_meters":9200,"station_id":"st_d2m6c4gdas8pm72e190g","pricing_plan_id":"cebpf4jnsgd1na2vs0mg"},{"bike_id":"18dc8c62-b29b-42f7-9621-fffcbbc18a5c","system_id":"levelo_inurba_marseille","lat":43.23973,"lon":5.36618,"is_reserved":false,"is_disabled":false,"rental_uris":{"android":"levelo://app?vid=18dc8c62-b29b-42f7-9621-fffcbbc18a5c","ios":"levelo://app?vid=18dc8c62-b29b-42f7-9621-fffcbbc18a5c"},"vehicle_type_id":"4","last_reported":1768397588,"current_range_meters":9200,"station_id":"ce4bhi12rcd13ifvqfp0","pricing_plan_id":"cebpf4jnsgd1na2vs0mg"},{"bike_id":"a5557978-c200-4bba-844a-0e75c2cbccd2","system_id":"levelo_inurba_marseille","lat":43.248144,"lon":5.374598,"is_reserved":false,"is_disabled":false,"rental_uris":{"android":"levelo://app?vid=a5557978-c200-4bba-844a-0e75c2cbccd2","ios":"levelo://app?vid=a5557978-c200-4bba-844a-0e75c2cbccd2"},"vehicle_type_id":"4","last_reported":1768397588,"current_range_meters":9200,"station_id":"ce4bhgh2rcd13ifvqfb0","pricing_plan_id":"cebpf4jnsgd1na2vs0mg"},{"bike_id":"57ae901c-0bf3-462b-b581-0572e583f4c9","system_id":"levelo_inurba_marseille","lat":43.31302,"lon":5.36863,"is_reserved":false,"is_disabled":false,"rental_uris":{"android":"levelo://app?vid=57ae901c-0bf3-462b-b581-0572e583f4c9","ios":"levelo://app?vid=57ae901c-0bf3-462b-b581-0572e583f4c9"},"vehicle_type_id":"4","last_reported":1768397588,"current_range_meters":9200,"station_id":"","pricing_plan_id":"cebpf4jnsgd1na2vs0mg"},{"bike_id":"c6c5d463-23b6-44c8-bb8d-f511cf63d089","system_id":"levelo_inurba_marseille","lat":43.26544,"lon":5.37303,"is_reserved":false,"is_disabled":false,"rental_uris":{"android":"levelo://app?vid=c6c5d463-23b6-44c8-bb8d-f511cf63d089","ios":"levelo://app?vid=c6c5d463-23b6-44c8-bb8d-f511cf63d089"},"vehicle_type_id":"4","last_reported":1768397588,"current_range_meters":9200,"station_id":"ce4bhg12rcd13ifvqf70","pricing_plan_id":"cebpf4jnsgd1na2vs0mg"},{"bike_id":"8edd0db3-c88a-4cbe-8904-85542e04b406","system_id":"levelo_inurba_marseille","lat":43.2594,"lon":5.40916,"is_reserved":false,"is_disabled":false,"rental_uris":{"android":"levelo://app?vid=8edd0db3-c88a-4cbe-8904-85542e04b406","ios":"levelo://app?vid=8edd0db3-c88a-4cbe-8904-85542e04b406"},"vehicle_type_id":"4","last_reported":1768397588,"current_range_meters":9200,"station_id":"ce4bhm92rcd13ifvqglg","pricing_plan_id":"cebpf4jnsgd1na2vs0mg"},{"bike_id":"0f756daa-8d92-4357-b5c1-b4a29ad92185","system_id":"levelo_inurba_marseille","lat":43.31235,"lon":5.36895,"is_reserved":false,"is_disabled":false,"rental_uris":{"android":"levelo://app?vid=0f756daa-8d92-4357-b5c1-b4a29ad92185","ios":"levelo://app?vid=0f756daa-8d92-4357-b5c1-b4a29ad92185"},"vehicle_type_id":"4","last_reported":1768397588,"current_range_meters":9200,"station_id":"ce4bgl92rcd13ifvqbq0","pricing_plan_id":"cebpf4jnsgd1na2vs0mg"},{"bike_id":"f26e9a9c-efcf-4817-ad70-c481de1d89b3","system_id":"levelo_inurba_marseille","lat":43.25569,"lon":5.38237,"is_reserved":false,"is_disabled":false,"rental_uris":{"android":"levelo://app?vid=f26e9a9c-efcf-4817-ad70-c481de1d89b3","ios":"levelo://app?vid=f26e9a9c-efcf-4817-ad70-c481de1d89b3"},"vehicle_type_id":"4","last_reported":1768397588,"current_range_meters":9600,"station_id":"ce4bhih2rcd13ifvqfs0","pricing_plan_id":"cebpf4jnsgd1na2vs0mg"},{"bike_id":"ba903605-23c9-49f6-a7ab-812f5468ec17","system_id":"levelo_inurba_marseille","lat":43.25581,"lon":5.38226,"is_reserved":false,"is_disabled":false,"rental_uris":{"android":"levelo://app?vid=ba903605-23c9-49f6-a7ab-812f5468ec17","ios":"levelo://app?vid=ba903605-23c9-49f6-a7ab-812f5468ec17"},