{"last_updated":1727359600,"ttl":60,"version":"2.2","data":{"bikes":[{"bike_id":"2f3efc0e-dc90-4c60-98eb-a6d5b154f6e0","system_id":"levelo_inurba_marseille","lat":43.29839,"lon":5.36257,"is_reserved":false,"is_disabled":false,"rental_uris":{"android":"levelo://app?vid=2f3efc0e-dc90-4c60-98eb-a6d5b154f6e0","ios":"levelo://app?vid=2f3efc0e-dc90-4c60-98eb-a6d5b154f6e0"},"vehicle_type_id":"4","last_reported":1727359601,"current_range_meters":40000,"station_id":"ce4bgpp2rcd13ifvqc3g","pricing_plan_id":"cebpf4jnsgd1na2vs0mg"},{"bike_id":"9eebeda8-2c2c-4a6e-964d-ec63f7cbd1ce","system_id":"levelo_inurba_marseille","lat":43.29272,"lon":5.38431,"is_reserved":false,"is_disabled":false,"rental_uris":{"android":"levelo://app?vid=9eebeda8-2c2c-4a6e-964d-ec63f7cbd1ce","ios":"levelo://app?vid=9eebeda8-2c2c-4a6e-964d-ec63f7cbd1ce"},"vehicle_type_id":"4","last_reported":1727359601,"current_range_meters":36400,"station_id":"ce4bh692rcd13ifvqea0","pricing_plan_id":"cebpf4jnsgd1na2vs0mg"},{"bike_id":"d390d33f-1ecb-4e6d-a9ff-69d936e0f76f","system_id":"levelo_inurba_marseille","lat":43.2827,"lon":5.35071,"is_reserved":false,"is_disabled":false,"rental_uris":{"android":"levelo://app?vid=d390d33f-1ecb-4e6d-a9ff-69d936e0f76f","ios":"levelo://app?vid=d390d33f-1ecb-4e6d-a9ff-69d936e0f76f"},"vehicle_type_id":"4","last_reported":1727359601,"current_range_meters":8800,"station_id":"ce4bhbp2rcd13ifvqerg","pricing_plan_id":"cebpf4jnsgd1na2vs0mg"},{"bike_id":"567d63b1-9298-45f6-9ef7-f49ba2b5ee87","system_id":"levelo_inurba_marseille","lat":43.32483,"lon":5.36552,"is_reserved":false,"is_disabled":false,"rental_uris":{"android":"levelo://app?vid=567d63b1-9298-45f6-9ef7-f49ba2b5ee87","ios":"levelo://app?vid=567d63b1-9298-45f6-9ef7-f49ba2b5ee87"},"vehicle_type_id":"4","last_reported":1727359601,"current_range_meters":32800,"station_id":"ce4bhs12rcd13ifvqhvg","pricing_plan_id":"cebpf4jnsgd1na2vs0mg"},{"bike_id":"a9669d3a-c989-4bbf-988b-b787f6909497","system_id":"levelo_inurba_marseille","lat":43.3266,"lon":5.40989,"is_reserved":false,"is_disabled":false,"rental_uris":{"android":"levelo://app?vid=a9669d3a-c989-4bbf-988b-b787f6909497","ios":"levelo://app?vid=a9669d3a-c989-4bbf-988b-b787f6909497"},"vehicle_type_id":"4","last_reported":1727359601,"current_range_meters":38800,"station_id":"ce4bhpp2rcd13ifvqhgg","pricing_plan_id":"cebpf4jnsgd1na2vs0mg"},{"bike_id":"3b8b1f92-ed32-436e-9e7c-472e6ff0fca3","system_id":"levelo_inurba_marseille","lat":43.27074,"lon":5.42275,"is_reserved":false,"is_disabled":false,"rental_uris":{"android":"levelo://app?vid=3b8b1f92-ed32-436e-9e7c-472e6ff0fca3","ios":"levelo://app?vid=3b8b1f92-ed32-436e-9e7c-472e6ff0fca3"},"vehicle_type_id":"4","last_reported":1727359601,"current_range_meters":5600,"station_id":"ce4bhk92rcd13ifvqgb0","pricing_plan_id":"cebpf4jnsgd1na2vs0mg"},{"bike_id":"18dcc2de-6658-4930-a51b-2c944671767f","system_id":"levelo_inurba_marseille","lat":43.31343,"lon":5.36718,"is_reserved":false,"is_disabled":false,"rental_uris":{"android":"levelo://app?vid=18dcc2de-6658-4930-a51b-2c944671767f","ios":"levelo://app?vid=18dcc2de-6658-4930-a51b-2c944671767f"},"vehicle_type_id":"4","last_reported":1727359601,"current_range_meters":30800,"station_id":"ce4bgr92rcd13ifvqc6g","pricing_plan_id":"cebpf4jnsgd1na2vs0mg"},{"bike_id":"b8896bdc-2af2-4d69-aaac-f98cc48d930e","system_id":"levelo_inurba_marseille","lat":43.29008,"lon":5.38657,"is_reserved":false,"is_disabled":false,"rental_uris":{"android":"levelo://app?vid=b8896bdc-2af2-4d69-aaac-f98cc48d930e","ios":"levelo://app?vid=b8896bdc-2af2-4d69-aaac-f98cc48d930e"},"vehicle_type_id":"4","last_reported":1727359601,"current_range_meters":25200,"station_id":"ce4bh4p2rcd13ifvqe0g","pricing_plan_id":"cebpf4jnsgd1na2vs0mg"},{"bike_id":"0ab4e37c-d93c-4993-9617-54dea9f2d7e3","system_id":"levelo_inurba_marseille","lat":43.27827,"lon":5.39207,"is_reserved":false,"is_disabled":false,"rental_uris":{"android":"levelo://app?vid=0ab4e37c-d93c-4993-9617-54dea9f2d7e3","ios":"levelo://app?vid=0ab4e37c-d93c-4993-9617-54dea9f2d7e3"},"vehicle_type_id":"4","last_reported":1727359601,"current_range_meters":8400,"station_id":"ce4bhjp2rcd13ifvqga0","pricing_plan_id":"cebpf4jnsgd1na2vs0mg"},{"bike_id":"de566fec-c1ec-44e7-a0e9-074f5a4a0f57","system_id":"levelo_inurba_marseille","lat":43.3042,"lon":5.41277,"is_reserved":false,"is_disabled":false,"rental_uris":{"android":"levelo://app?vid=de566fec-c1ec-44e7-a0e9-074f5a4a0f57","ios":"levelo://app?vid=de566fec-c1ec-44e7-a0e9-074f5a4a0f57"},"vehicle_type_id":"4","last_reported":1727359601,"current_range_meters":25200,"station_id":"ce4bhop2rcd13ifvqh8g","pricing_plan_id":"cebpf4jnsgd1na2vs0mg"},{"bike_id":"deb6ccfb-7e32-46d8-9007-36116fcf0d5e","system_id":"levelo_inurba_marseille","lat":43.30543,"lon":5.3654,"is_reserved":false,"is_disabled":false,"rental_uris":{"android":"levelo://app?vid=deb6ccfb-7e32-46d8-9007-36116fcf0d5e","ios":"levelo://app?vid=deb6ccfb-7e32-46d8-9007-36116fcf0d5e"},"vehicle_type_id":"4","last_reported":1727359601,"current_range_meters":39200,"station_id":"ce4bgs12rcd13ifvqcag","pricing_plan_id":"cebpf4jnsgd1na2vs0mg"},{"bike_id":"5ed9e2b6-223d-494e-8ca1-5253b787f22e","system_id":"levelo_inurba_marseille","lat":43.30541,"lon":5.36528,"is_reserved":false,"is_disabled":false,"rental_uris":{"android":"levelo://app?vid=5ed9e2b6-223d-494e-8ca1-5253b787f22e","ios":"levelo://app?vid=5ed9e2b6-223d-494e-8ca1-5253b787f22e"},"vehicle_type_id":"4","last_reported":1727359601,"current_range_meters":39200,"station_id":"ce4bgs12rcd13ifvqcag","pricing_plan_id":"cebpf4jnsgd1na2vs0mg"},{"bike_id":"d3724731-5bfd-4487-a17d-3a50c30c53c3","system_id":"levelo_inurba_marseille","lat":43.27995,"lon":5.41654,"is_reserved":false,"is_disabled":false,"rental_uris":{"android":"levelo://app?vid=d3724731-5bfd-4487-a17d-3a50c30c53c3","ios":"levelo://app?vid=d3724731-5bfd-4487-a17d-3a50c30c53c3"},"vehicle_type_id":"4","last_reported":1727359601,"current_range_meters":29600,"station_id":"ce4bho12rcd13ifvqh1g","pricing_plan_id":"cebpf4jnsgd1na2vs0mg"},{"bike_id":"b36fe286-9ed0-43e8-b389-9f4ee1259b65","system_id":"levelo_inurba_marseille","lat":43.31229,"lon":5.36862,"is_reserved":false,"is_disabled":false,"rental_uris":{"android":"levelo://app?vid=b36fe286-9ed0-43e8-b389-9f4ee1259b65","ios":"levelo://app?vid=b36fe286-9ed0-43e8-b389-9f4ee1259b65"},"vehicle_type_id":"4","last_reported":1727359601,"current_range_meters":8000,"station_id":"ce4bgl92rcd13ifvqbq0","pricing_plan_id":"cebpf4jnsgd1na2vs0mg"},{"bike_id":"433acb2e-00b6-4757-9098-cd7f9884c4de","system_id":"levelo_inurba_marseille","lat":43.28005,"lon":5.40004,"is_reserved":false,"is_disabled":false,"rental_uris":{"android":"levelo://app?vid=433acb2e-00b6-4757-9098-cd7f9884c4de","ios":"levelo://app?vid=433acb2e-00b6-4757-9098-cd7f9884c4de"},"vehicle_type_id":"4","last_reported":1727359601,"current_range_meters":28000,"station_id":"ce4bho92rcd13ifvqh4g","pricing_plan_id":"cebpf4jnsgd1na2vs0mg"},{"bike_id":"7737b815-6daf-41f0-8354-4b28ba75917f","system_id":"levelo_inurba_marseille","lat":43.30191,"lon":5.39821,"is_reserved":false,"is_disabled":false,"rental_uris":{"android":"levelo://app?vid=7737b815-6daf-41f0-8354-4b28ba75917f","ios":"levelo://app?vid=7737b815-6daf-41f0-8354-4b28ba75917f"},"vehicle_type_id":"4","last_reported":1727359601,"current_range_meters":11600,"station_id":"ce4bgvp2rcd13ifvqct0","pricing_plan_id":"cebpf4jnsgd1na2vs0mg"},{"bike_id":"3df56cf6-183d-48e0-8c1c-f8eaad3a37e3","system_id":"levelo_inurba_marseille","lat":43.24084,"lon":5.37737,"is_reserved":false,"is_disabled":false,"rental_uris":{"android":"levelo://app?vid=3df56cf6-183d-48e0-8c1c-f8eaad3a37e3","ios":"levelo://app?vid=3df56cf6-183d-48e0-8c1c-f8eaad3a37e3"},"vehicle_type_id":"4","last_reported":1727359601,"current_range_meters":19600,"station_id":"ce4bhnp2rcd13ifvqgvg","pricing_plan_id":"cebpf4jnsgd1na2vs0mg"},{"bike_id":"77791e54-890f-40a0-8085-f74441839ca9","system_id":"levelo_inurba_marseille","lat":43.29945,"lon":5.36517,"is_reserved":false,"is_disabled":false,"rental_uris":{"android":"levelo://app?vid=77791e54-890f-40a0-8085-f74441839ca9","ios":"levelo://app?vid=77791e54-890f-40a0-8085-f74441839ca9"},"vehicle_type_id":"4","last_reported":1727359601,"current_range_meters":38800,"station_id":"ce4bgm92rcd13ifvqbr0","pricing_plan_id":"cebpf4jnsgd1na2vs0mg"},{"bike_id":"303d469c-f19c-44c0-b76a-c29baff05dce","system_id":"levelo_inurba_marseille","lat":43.29196,"lon":5.35797,"is_reserved":false,"is_disabled":false,"rental_uris":{"android":"levelo://app?vid=303d469c-f19c-44c0-b76a-c29baff05dce","ios":"levelo://app?vid=303d469c-f19c-44c0-b76a-c29baff05dce"},"vehicle_type_id":"4","last_reported":1727359601,"current_range_meters":33600,"station_id":"ce4bhb12rcd13ifvqel0","pricing_plan_id":"cebpf4jnsgd1na2vs0mg"},{"bike_id":"b6daf4df-7c90-4c5e-b397-06a87d15013f","system_id":"levelo_inurba_marseille","lat":43.33742,"lon":5.37467,"is_reserved":false,"is_disabled":false,"rental_uris":{"android":"levelo://app?vid=b6daf4df-7c90-4c5e-b397-06a87d15013f","ios":"levelo://app?vid=b6daf4df-7c90-4c5e-b397-06a87d15013f"},"vehicle_type_id":"4","last_reported":1727359601,"current_range_meters":30400,"station_id":"","pricing_plan_id":"cebpf4jnsgd1na2vs0mg"},{"bike_id":"b0d493d3-5f67-4033-9fb3-f4bbc296d339","system_id":"levelo_inurba_marseille","lat":43.33767,"lon":5.37438,"is_reserved":false,"is_disabled":false,"rental_uris":{"android":"levelo://app?vid=b0d493d3-5f67-4033-9fb3-f4bbc296d339","ios":"levelo://app?vid=b0d493d3-5f67-4033-9fb3-f4bbc296d339"},"vehicle_type_id":"4","last_reported":1727359601,"current_range_meters":30000,"station_id":"","pricing_plan_id":"cebpf4jnsgd1na2vs0mg"},{"bike_id":"d664c533-3b2b-465b-80c6-b579b84c114a","system_id":"levelo_inurba_marseille","lat":43.28005,"lon":5.40005,"is_reserved":false,"is_disabled":false,"rental_uris":{"android":"levelo://app?vid=d664c533-3b2b-465b-80c6-b579b84c114a","ios":"levelo://app?vid=d664c533-3b2b-465b-80c6-b579b84c114a"},"vehicle_type_id":"4","last_reported":1727359601,"current_range_meters":39200,"station_id":"ce4bho92rcd13ifvqh4g","pricing_plan_id":"cebpf4jnsgd1na2vs0mg"},{"bike_id":"5a6b2510-3f6d-4b8a-b42c-99336d74108e","system_id":"levelo_inurba_marseille","lat":43.3254,"lon":5.41453,"is_reserved":false,"is_disabled":false,"rental_uris":{"android":"levelo://app?vid=5a6b2510-3f6d-4b8a-b42c-99336d74108e","ios":"levelo://app?vid=5a6b2510-3f6d-4b8a-b42c-99336d74108e"},"vehicle_type_id":"4","last_reported":1727359601,"current_range_meters":28000,"station_id":"ce4bhq12rcd13ifvqhhg","pricing_plan_id":"cebpf4jnsgd1na2vs0mg"},{"bike_id":"b8f91caa-158e-48d0-bfbc-034b1a2fb604","system_id":"levelo_inurba_marseille","lat":43.29915,"lon":5.37476,"is_reserved":false,"is_disabled":false,"rental_uris":{"android":"levelo://app?vid=b8f91caa-158e-48d0-bfbc-034b1a2fb604","ios":"levelo://app?vid=b8f91caa-158e-48d0-bfbc-034b1a2fb604"},"vehicle_type_id":"4","last_reported":1727359601,"current_range_meters":38000,"station_id":"ce4bgjh2rcd13ifvqbg0","pricing_plan_id":"cebpf4jnsgd1na2vs0mg"},{"bike_id":"e3c5fbbf-73cf-4f2d-b2d6-f67ffdb80c53","system_id":"levelo_inurba_marseille","lat":43.33025,"lon":5.39031,"is_reserved":false,"is_disabled":false,"rental_uris":{"android":"levelo://app?vid=e3c5fbbf-73cf-4f2d-b2d6-f67ffdb80c53","ios":"levelo://app?vid=e3c5fbbf-73cf-4f2d-b2d6-f67ffdb80c53"},"vehicle_type_id":"4","last_reported":1727359601,"current_range_meters":28800,"station_id":"ce4bhr92rcd13ifvqhrg","pricing_plan_id":"cebpf4jnsgd1na2vs0mg"},{"bike_id":"920a992c-b9bd-467d-8738-97c73c4e43f7","system_id":"levelo_inurba_marseille","lat":43.31224,"lon":5.36848,"is_reserved":false,"is_disabled":false,"rental_uris":{"android":"levelo://app?vid=920a992c-b9bd-467d-8738-97c73c4e43f7","ios":"levelo://app?vid=920a992c-b9bd-467d-8738-97c73c4e43f7"},"vehicle_type_id":"4","last_reported":1727359601,"current_range_meters":39200,"station_id":"ce4bgl92rcd13ifvqbq0","pricing_plan_id":"cebpf4jnsgd1na2vs0mg"},{"bike_id":"57bc1e84-e83e-4198-85b5-3e7f9c3f0b0b","system_id":"levelo_inurba_marseille","lat":43.24167,"lon":5.36392,"is_reserved":false,"is_disabled":false,"rental_uris":{"android":"levelo://app?vid=57bc1e84-e83e-4198-85b5-3e7f9c3f0b0b","ios":"levelo://app?vid=57bc1e84-e83e-4198-85b5-3e7f9c3f0b0b"},"vehicle_type_id":"4","last_reported":1727359601,"current_range_meters":27600,"station_id":"cpo36qri1sfpv3e86is0","pricing_plan_id":"cebpf4jnsgd1na2vs0mg"},{"bike_id":"7a8458d5-44ac-4f2e-abef-3f01eb31f7ca","system_id":"levelo_inurba_marseille","lat":43.337444,"lon":5.374475,"is_reserved":false,"is_disabled":false,"rental_uris":{"android":"levelo://app?vid=7a8458d5-44ac-4f2e-abef-3f01eb31f7ca","ios":"levelo://app?vid=7a8458d5-44ac-4f2e-abef-3f01eb31f7ca"},"vehicle_type_id":"4","last_reported":1727359601,"current_range_meters":20800,"station_id":"","pricing_plan_id":"cebpf4jnsgd1na2vs0mg"},{"bike_id":"245322ad-98ce-4a03-920e-f8861ea4255a","system_id":"levelo_inurba_marseille","lat":43.23067,"lon":5.35491,"is_reserved":false,"is_disabled":false,"rental_uris":{"android":"levelo://app?vid=245322ad-98ce-4a03-920e-f8861ea4255a","ios":"levelo://app?vid=245322ad-98ce-4a03-920e-f8861ea4255a"},"vehicle_type_id":"4","last_reported":1727359601,"current_range_meters":6000,"station_id":"cpo3342slgdg3j2ifvpg","pricing_plan_id":"cebpf4jnsgd1na2vs0mg"},{"bike_id":"388a507e-86c4-4df5-b075-d43d70469bdd","system_id":"levelo_inurba_marseille","lat":43.301861,"lon":5.3662,"is_reserved":false,"is_disabled":false,"rental_uris":{"android":"levelo://app?vid=388a507e-86c4-4df5-b075-d43d70469bdd","ios":"levelo://app?vid=388a507e-86c4-4df5-b075-d43d70469bdd"},"vehicle_type_id":"4","last_reported":1727359601,"current_range_meters":39200,"station_id":"ce4bgrh2rcd13ifvqc8g","pricing_plan_id":"cebpf4jnsgd1na2vs0mg"},{"bike_id":"0ff4805d-5eb0-413d-9fd8-adffbbf2ce16","system_id":"levelo_inurba_marseille","lat":43.29851,"lon":5.36277,"is_reserved":false,"is_disabled":false,"rental_uris":{"android":"levelo://app?vid=0ff4805d-5eb0-413d-9fd8-adffbbf2ce16","ios":"levelo://app?vid=0ff4805d-5eb0-413d-9fd8-adffbbf2ce16"},"vehicle_type_id":"4","last_reported":1727359601,"current_range_meters":39200,"station_id":"ce4bgpp2rcd13ifvqc3g","pricing_plan_id":"cebpf4jnsgd1na2vs0mg"},{"bike_id":"8ae5b6fb-e4fa-4b2c-af1f-0dd89bc64936","system_id":"levelo_inurba_marseille","lat":43.29613,"lon":5.37717,"is_reserved":false,"is_disabled":false,"rental_uris":{"android":"levelo://app?vid=8ae5b6fb-e4fa-4b2c-af1f-0dd89bc64936","ios":"levelo://app?vid=8ae5b6fb-e4fa-4b2c-af1f-0dd89bc64936"},"vehicle_type_id":"4","last_reported":1727359601,"current_range_meters":38800,"station_id":"ce4bgi92rcd13ifvqb90","pricing_plan_id":"cebpf4jnsgd1na2vs0mg"},{"bike_id":"fea8e9c3-fbb8-408a-87ef-e483df097edc","system_id":"levelo_inurba_marseille","lat":43.30531,"lon":5.36548,"is_reserved":false,"is_disabled":false,"rental_uris":{"android":"levelo://app?vid=fea8e9c3-fbb8-408a-87ef-e483df097edc","ios":"levelo://app?vid=fea8e9c3-fbb8-408a-87ef-e483df097edc"},"vehicle_type_id":"4","last_reported":1727359601,"current_range_meters":36000,"station_id":"ce4bgs12rcd13ifvqcag","pricing_plan_id":"cebpf4jnsgd1na2vs0mg"},{"bike_id":"4905ea4a-99c2-4591-8874-f5f42b9d2591","system_id":"levelo_inurba_marseille","lat":43.30531,"lon":5.36544,"is_reserved":false,"is_disabled":false,"rental_uris":{"android":"levelo://app?vid=4905ea4a-99c2-4591-8874-f5f42b9d2591","ios":"levelo://app?vid=4905ea4a-99c2-4591-8874-f5f42b9d2591"},"vehicle_type_id":"4","last_reported":1727359601,"current_range_meters":22000,"station_id":"ce4bgs12rcd13ifvqcag","pricing_plan_id":"cebpf4jnsgd1na2vs0mg"},{"bike_id":"ac4cfd42-7eec-4fef-a2d2-074701a49462","system_id":"levelo_inurba_marseille","lat":43.28718,"lon":5.37942,"is_reserved":false,"is_disabled":false,"rental_uris":{"android":"levelo://app?vid=ac4cfd42-7eec-4fef-a2d2-074701a49462","ios":"levelo://app?vid=ac4cfd42-7eec-4fef-a2d2-074701a49462"},"vehicle_type_id":"4","last_reported":1727359601,"current_range_meters":6400,"station_id":"ce4bh9p2rcd13ifvqec0","pricing_plan_id":"cebpf4jnsgd1na2vs0mg"},{"bike_id":"8a7e4b6e-dd2e-478a-9152-60614c38cea9","system_id":"levelo_inurba_marseille","lat":43.24076,"lon":5.37756,"is_reserved":false,"is_disabled":false,"rental_uris":{"android":"levelo://app?vid=8a7e4b6e-dd2e-478a-9152-60614c38cea9","ios":"levelo://app?vid=8a7e4b6e-dd2e-478a-9152-60614c38cea9"},"vehicle_type_id":"4","last_reported":1727359601,"current_range_meters":28400,"station_id":"ce4bhnp2rcd13ifvqgvg","pricing_plan_id":"cebpf4jnsgd1na2vs0mg"},{"bike_id":"8d17f10b-cb18-4a62-9a7c-043318106e2d","system_id":"levelo_inurba_marseille","lat":43.30221,"lon":5.36627,"is_reserved":false,"is_disabled":false,"rental_uris":{"android":"levelo://app?vid=8d17f10b-cb18-4a62-9a7c-043318106e2d","ios":"levelo://app?vid=8d17f10b-cb18-4a62-9a7c-043318106e2d"},"vehicle_type_id":"4","last_reported":1727359601,"current_range_meters":8000,"station_id":"ce4bgrh2rcd13ifvqc8g","pricing_plan_id":"cebpf4jnsgd1na2vs0mg"},{"bike_id":"246ce280-4dc5-4111-9a0a-827981169348","system_id":"levelo_inurba_marseille","lat":43.29878,"lon":5.39734,"is_reserved":false,"is_disabled":false,"rental_uris":{"android":"levelo://app?vid=246ce280-4dc5-4111-9a0a-827981169348","ios":"levelo://app?vid=246ce280-4dc5-4111-9a0a-827981169348"},"vehicle_type_id":"4","last_reported":1727359601,"current_range_meters":26800,"station_id":"ce4bh0h2rcd13ifvqd50","pricing_plan_id":"cebpf4jnsgd1na2vs0mg"},{"bike_id":"097c6598-9463-4969-9cb9-e6db1899af49","system_id":"levelo_inurba_marseille","lat":43.25873,"lon":5.39899,"is_reserved":false,"is_disabled":false,"rental_uris":{"android":"levelo://app?vid=097c6598-9463-4969-9cb9-e6db1899af49","ios":"levelo://app?vid=097c6598-9463-4969-9cb9-e6db1899af49"},"vehicle_type_id":"4","last_reported":1727359601,"current_range_meters":38800,"station_id":"ce4bhl92rcd13ifvqghg","pricing_plan_id":"cebpf4jnsgd1na2vs0mg"},{"bike_id":"ffcde158-e85c-4869-a280-ae8fb317fd39","system_id":"levelo_inurba_marseille","lat":43.24082,"lon":5.37754,"is_reserved":false,"is_disabled":false,"rental_uris":{"android":"levelo://app?vid=ffcde158-e85c-4869-a280-ae8fb317fd39","ios":"levelo://app?vid=ffcde158-e85c-4869-a280-ae8fb317fd39"},"vehicle_type_id":"4","last_reported":1727359601,"current_range_meters":30800,"station_id":"ce4bhnp2rcd13ifvqgvg","pricing_plan_id":"cebpf4jnsgd1na2vs0mg"},{"bike_id":"ba579c48-9b8a-414c-9f42-56254dbc5132","system_id":"levelo_inurba_marseille","lat":43.29079,"lon":5.3716,"is_reserved":false,"is_disabled":false,"rental_uris":{"android":"levelo://app?vid=ba579c48-9b8a-414c-9f42-56254dbc5132","ios":"levelo://app?vid=ba579c48-9b8a-414c-9f42-56254dbc5132"},"vehicle_type_id":"4","last_reported":1727359601,"current_range_meters":30400,"station_id":"ce4bh5p2rcd13ifvqe4g","pricing_plan_id":"cebpf4jnsgd1na2vs0mg"},{"bike_id":"2c7b29c2-9d7b-4b41-9984-9f52d66d2d6b","system_id":"levelo_inurba_marseille","lat":43.29871,"lon":5.39741,"is_reserved":false,"is_disabled":false,"rental_uris":{"android":"levelo://app?vid=2c7b29c2-9d7b-4b41-9984-9f52d66d2d6b","ios":"levelo://app?vid=2c7b29c2-9d7b-4b41-9984-9f52d66d2d6b"},"vehicle_type_id":"4","last_reported":1727359601,"current_range_meters":16800,"station_id":"ce4bh0h2rcd13ifvqd50","pricing_plan_id":"cebpf4jnsgd1na2vs0mg"},{"bike_id":"e0321300-37ad-4bce-a17c-4bf73cb9114f","system_id":"levelo_inurba_marseille","lat":43.29898,"lon":5.43658,"is_reserved":false,"is_disabled":false,"rental_uris":{"android":"levelo://app?vid=e0321300-37ad-4bce-a17c-4bf73cb9114f","ios":"levelo://app?vid=e0321300-37ad-4bce-a17c-4bf73cb9114f"},"vehicle_type_id":"4","last_reported":1727359601,"current_range_meters":35200,"station_id":"ce4bhpp2rcd13ifvqhfg","pricing_plan_id":"cebpf4jnsgd1na2vs0mg"},{"bike_id":"fb8dbcb4-f3ca-4dc2-8469-db6b421828f0","system_id":"levelo_inurba_marseille","lat":43.30551,"lon":5.36707,"is_reserved":false,"is_disabled":false,"rental_uris":{"android":"levelo://app?vid=fb8dbcb4-f3ca-4dc2-8469-db6b421828f0","ios":"levelo://app?vid=fb8dbcb4-f3ca-4dc2-8469-db6b421828f0"},"vehicle_type_id":"4","last_reported":1727359601,"current_range_meters":30400,"station_id":"ce4bgrp2rcd13ifvqc9g","pricing_plan_id":"cebpf4jnsgd1na2vs0mg"},{"bike_id":"8a66d306-b409-4697-a87b-511736d17e37","system_id":"levelo_inurba_marseille","lat":43.25813,"lon":5.39438,"is_reserved":false,"is_disabled":false,"rental_uris":{"android":"levelo://app?vid=8a66d306-b409-4697-a87b-511736d17e37","ios":"levelo://app?vid=8a66d306-b409-4697-a87b-511736d17e37"},"vehicle_type_id":"4","last_reported":1727359601,"current_range_meters":20400,"station_id":"ce4bhip2rcd13ifvqft0","pricing_plan_id":"cebpf4jnsgd1na2vs0mg"},{"bike_id":"f2d07ef4-80f0-44b7-94e2-04079f94c4c3","system_id":"levelo_inurba_marseille","lat":43.2857,"lon":5.39506,"is_reserved":false,"is_disabled":false,"rental_uris":{"android":"levelo://app?vid=f2d07ef4-80f0-44b7-94e2-04079f94c4c3","ios":"levelo://app?vid=f2d07ef4-80f0-44b7-94e2-04079f94c4c3"},"vehicle_type_id":"4","last_reported":1727359601,"current_range_meters":11600,"station_id":"ce4bh292rcd13ifvqdg0","pricing_plan_id":"cebpf4jnsgd1na2vs0mg"},{"bike_id":"6940c29a-00d5-485e-8acd-fd1f5c7be4e5","system_id":"levelo_inurba_marseille","lat":43.29783,"lon":5.37104,"is_reserved":false,"is_disabled":false,"rental_uris":{"android":"levelo://app?vid=6940c29a-00d5-485e-8acd-fd1f5c7be4e5","ios":"levelo://app?vid=6940c29a-00d5-485e-8acd-fd1f5c7be4e5"},"vehicle_type_id":"4","last_reported":1727359601,"current_range_meters":24800,"station_id":"ce4bgop2rcd13ifvqc1g","pricing_plan_id":"cebpf4jnsgd1na2vs0mg"},{"bike_id":"79a05bb1-ccec-47f0-8ebd-1f95854549f8","system_id":"levelo_inurba_marseille","lat":43.31282,"lon":5.380327,"is_reserved":false,"is_disabled":false,"rental_uris":{"android":"levelo://app?vid=79a05bb1-ccec-47f0-8ebd-1f95854549f8","ios":"levelo://app?vid=79a05bb1-ccec-47f0-8ebd-1f95854549f8"},"vehicle_type_id":"4","last_reported":1727359601,"current_range_meters":6800,"station_id":"","pricing_plan_id":"cebpf4jnsgd1na2vs0mg"},{"bike_id":"7240b019-a2b5-45d8-952b-ec148e7a3990","system_id":"levelo_inurba_marseille","lat":43.27054,"lon":5.40266,"is_reserved":false,"is_disabled":false,"rental_uris":{"android":"levelo://app?vid=7240b019-a2b5-45d8-952b-ec148e7a3990","ios":"levelo://app?vid=7240b019-a2b5-45d8-952b-ec148e7a3990"},"vehicle_type_id":"4","last_reported":1727359601,"current_range_meters":28400,"station_id":"ce4bhk92rcd13ifvqgc0","pricing_plan_id":"cebpf4jnsgd1na2vs0mg"},{"bike_id":"09e4f431-0752-4422-aad1-b17655a979cb","system_id":"levelo_inurba_marseille","lat":43.24388,"lon":5.37059,"is_reserved":false,"is_disabled":false,"rental_uris":{"android":"levelo://app?vid=09e4f431-0752-4422-aad1-b17655a979cb","ios":"levelo://app?vid=09e4f431-0752-4422-aad1-b17655a979cb"},"vehicle_type_id":"4","last_reported":1727359601,"current_range_meters":37600,"station_id":"ce4bhhh2rcd13ifvqfk0","pricing_plan_id":"cebpf4jnsgd1na2vs0mg"},{"bike_id":"4ca8f2df-d07d-4530-b77f-5472e4a1443e","system_id":"levelo_inurba_marseille","lat":43.32544,"lon":5.41441,"is_reserved":false,"is_disabled":false,"rental_uris":{"android":"levelo://app?vid=4ca8f2df-d07d-4530-b77f-5472e4a1443e","ios":"levelo://app?vid=4ca8f2df-d07d-4530-b77f-5472e4a1443e"},"vehicle_type_id":"4","last_reported":1727359601,"current_range_meters":30800,"station_id":"ce4bhq12rcd13ifvqhhg","pricing_plan_id":"cebpf4jnsgd1na2vs0mg"},{"bike_id":"ca773917-fd3d-491c-a782-60d4807ce677","system_id":"levelo_inurba_marseille","lat":43.25004,"lon":5.3891,"is_reserved":false,"is_disabled":false,"rental_uris":{"android":"levelo://app?vid=ca773917-fd3d-491c-a782-60d4807ce677","ios":"levelo://app?vid=ca773917-fd3d-491c-a782-60d4807ce677"},"vehicle_type_id":"4","last_reported":1727359601,"current_range_meters":19200,"station_id":"ce4bhgp2rcd13ifvqfd0","pricing_plan_id":"cebpf4jnsgd1na2vs0mg"},{"bike_id":"a0b61a5b-cbe9-4c83-899d-4c308a073a32","system_id":"levelo_inurba_marseille","lat":43.28704,"lon":5.39983,"is_reserved":false,"is_disabled":false,"rental_uris":{"android":"levelo://app?vid=a0b61a5b-cbe9-4c83-899d-4c308a073a32","ios":"levelo://app?vid=a0b61a5b-cbe9-4c83-899d-4c308a073a32"},"vehicle_type_id":"4","last_reported":1727359601,"current_range_meters":22800,"station_id":"ce4bho92rcd13ifvqh3g","pricing_plan_id":"cebpf4jnsgd1na2vs0mg"},{"bike_id":"a0b9666d-9f26-4903-bda4-d17e4ef07092","system_id":"levelo_inurba_marseille","lat":43.32492,"lon":5.36559,"is_reserved":false,"is_disabled":false,"rental_uris":{"android":"levelo://app?vid=a0b9666d-9f26-4903-bda4-d17e4ef07092","ios":"levelo://app?vid=a0b9666d-9f26-4903-bda4-d17e4ef07092"},"vehicle_type_id":"4","last_reported":1727359601,"current_range_meters":2800,"station_id":"ce4bhs12rcd13ifvqhvg","pricing_plan_id":"cebpf4jnsgd1na2vs0mg"},{"bike_id":"8fd159bf-5260-43e3-aaf3-81b93ff19380","system_id":"levelo_inurba_marseille","lat":43.25498,"lon":5.37646,"is_reserved":false,"is_disabled":false,"rental_uris":{"android":"levelo://app?vid=8fd159bf-5260-43e3-aaf3-81b93ff19380","ios":"levelo://app?vid=8fd159bf-5260-43e3-aaf3-81b93ff19380"},"vehicle_type_id":"4","last_reported":1727359601,"current_range_meters":12800,"station_id":"ce4bhh12rcd13ifvqff0","pricing_plan_id":"cebpf4jnsgd1na2vs0mg"},{"bike_id":"b3c3c5e8-aa8b-4465-a08d-a10ec2cf4ec4","system_id":"levelo_inurba_marseille","lat":43.29591,"lon":5.38088,"is_reserved":false,"is_disabled":false,"rental_uris":{"android":"levelo://app?vid=b3c3c5e8-aa8b-4465-a08d-a10ec2cf4ec4","ios":"levelo://app?vid=b3c3c5e8-aa8b-4465-a08d-a10ec2cf4ec4"},"vehicle_type_id":"4","last_reported":1727359601,"current_range_meters":12400,"station_id":"ce4bgl12rcd13ifvqbo0","pricing_plan_id":"cebpf4jnsgd1na2vs0mg"},{"bike_id":"1dcb5589-f6cf-4ec3-a639-a556452adcaa","system_id":"levelo_inurba_marseille","lat":43.29599,"lon":5.38104,"is_reserved":false,"is_disabled":false,"rental_uris":{"android":"levelo://app?vid=1dcb5589-f6cf-4ec3-a639-a556452adcaa","ios":"levelo://app?vid=1dcb5589-f6cf-4ec3-a639-a556452adcaa"},"vehicle_type_id":"4","last_reported":1727359601,"current_range_meters":30000,"station_id":"ce4bgl12rcd13ifvqbo0","pricing_plan_id":"cebpf4jnsgd1na2vs0mg"},{"bike_id":"eb1c20ee-bcc3-418c-83b1-6bc1bc3fbba7","system_id":"levelo_inurba_marseille","lat":43.26785,"lon":5.39409,"is_reserved":false,"is_disabled":false,"rental_uris":{"android":"levelo://app?vid=eb1c20ee-bcc3-418c-83b1-6bc1bc3fbba7","ios":"levelo://app?vid=eb1c20ee-bcc3-418c-83b1-6bc1bc3fbba7"},"vehicle_type_id":"4","last_reported":1727359601,"current_range_meters":8000,"station_id":"ce4bhh12rcd13ifvqfg0","pricing_plan_id":"cebpf4jnsgd1na2vs0mg"},{"bike_id":"7f7cfb71-e29e-44f8-9bcf-1cbb0dfe5d35","system_id":"levelo_inurba_marseille","lat":43.29857,"lon":5.36277,"is_reserved":false,"is_disabled":false,"rental_uris":{"android":"levelo://app?vid=7f7cfb71-e29e-44f8-9bcf-1cbb0dfe5d35","ios":"levelo://app?vid=7f7cfb71-e29e-44f8-9bcf-1cbb0dfe5d35"},"vehicle_type_id":"4","last_reported":1727359601,"current_range_meters":38400,"station_id":"ce4bgpp2rcd13ifvqc3g","pricing_plan_id":"cebpf4jnsgd1na2vs0mg"},{"bike_id":"1da2b159-ca19-4711-a4f8-45136580d975","system_id":"levelo_inurba_marseille","lat":43.301239,"lon":5.39858,"is_reserved":false,"is_disabled":false,"rental_uris":{"android":"levelo://app?vid=1da2b159-ca19-4711-a4f8-45136580d975","ios":"levelo://app?vid=1da2b159-ca19-4711-a4f8-45136580d975"},"vehicle_type_id":"4","last_reported":1727359601,"current_range_meters":28000,"station_id":"ce4bgj92rcd13ifvqbd0","pricing_plan_id":"cebpf4jnsgd1na2vs0mg"},{"bike_id":"39b40506-a421-4822-b7d2-3823f0faaeeb","system_id":"levelo_inurba_marseille","lat":43.2962,"lon":5.37161,"is_reserved":false,"is_disabled":false,"rental_uris":{"android":"levelo://app?vid=39b40506-a421-4822-b7d2-3823f0faaeeb","ios":"levelo://app?vid=39b40506-a421-4822-b7d2-3823f0faaeeb"},"vehicle_type_id":"4","last_reported":1727359601,"current_range_meters":38800,"station_id":"ce4bgnh2rcd13ifvqc0g","pricing_plan_id":"cebpf4jnsgd1na2vs0mg"},{"bike_id":"e6dbf61d-be1e-4373-b5f6-1f3a050f88ab","system_id":"levelo_inurba_marseille","lat":43.30957,"lon":5.39032,"is_reserved":false,"is_disabled":false,"rental_uris":{"android":"levelo://app?vid=e6dbf61d-be1e-4373-b5f6-1f3a050f88ab","ios":"levelo://app?vid=e6dbf61d-be1e-4373-b5f6-1f3a050f88ab"},"vehicle_type_id":"4","last_reported":1727359601,"current_range_meters":36800,"station_id":"ce4bgup2rcd13ifvqco0","pricing_plan_id":"cebpf4jnsgd1na2vs0mg"},{"bike_id":"778cf1da-b1f9-4770-9dd3-7f9f6f29c740","system_id":"levelo_inurba_marseille","lat":43.31221,"lon":5.36852,"is_reserved":false,"is_disabled":false,"rental_uris":{"android":"levelo://app?vid=778cf1da-b1f9-4770-9dd3-7f9f6f29c740","ios":"levelo://app?vid=778cf1da-b1f9-4770-9dd3-7f9f6f29c740"},"vehicle_type_id":"4","last_reported":1727359601,"current_range_meters":19600,"station_id":"ce4bgl92rcd13ifvqbq0","pricing_plan_id":"cebpf4jnsgd1na2vs0mg"},{"bike_id":"ba477672-d3a2-4048-accf-b9e924a53dec","system_id":"levelo_inurba_marseille","lat":43.24391,"lon":5.3705,"is_reserved":false,"is_disabled":false,"rental_uris":{"android":"levelo://app?vid=ba477672-d3a2-4048-accf-b9e924a53dec","ios":"levelo://app?vid=ba477672-d3a2-4048-accf-b9e924a53dec"},"vehicle_type_id":"4","last_reported":1727359601,"current_range_meters":39200,"station_id":"ce4bhhh2rcd13ifvqfk0","pricing_plan_id":"cebpf4jnsgd1na2vs0mg"},{"bike_id":"00c55a61-da74-4c36-8c8e-499983e3e52b","system_id":"levelo_inurba_marseille","lat":43.29843,"lon":5.36264,"is_reserved":false,"is_disabled":false,"rental_uris":{"android":"levelo://app?vid=00c55a61-da74-4c36-8c8e-499983e3e52b","ios":"levelo://app?vid=00c55a61-da74-4c36-8c8e-499983e3e52b"},"vehicle_type_id":"4","last_reported":1727359601,"current_range_meters":24400,"station_id":"ce4bgpp2rcd13ifvqc3g","pricing_plan_id":"cebpf4jnsgd1na2vs0mg"},{"bike_id":"aa01a65a-43da-414f-bfb6-04bfeda6b8b0","system_id":"levelo_inurba_marseille","lat":43.27996,"lon":5.40008,"is_reserved":false,"is_disabled":false,"rental_uris":{"android":"levelo://app?vid=aa01a65a-43da-414f-bfb6-04bfeda6b8b0","ios":"levelo://app?vid=aa01a65a-43da-414f-bfb6-04bfeda6b8b0"},"vehicle_type_id":"4","last_reported":1727359601,"current_range_meters":18000,"station_id":"ce4bho92rcd13ifvqh4g","pricing_plan_id":"cebpf4jnsgd1na2vs0mg"},{"bike_id":"ef27f5af-c947-46ec-8b3e-1cc911910293","system_id":"levelo_inurba_marseille","lat":43.28038,"lon":5.36949,"is_reserved":false,"is_disabled":false,"rental_uris":{"android":"levelo://app?vid=ef27f5af-c947-46ec-8b3e-1cc911910293","ios":"levelo://app?vid=ef27f5af-c947-46ec-8b3e-1cc911910293"},"vehicle_type_id":"4","last_reported":1727359601,"current_range_meters":28000,"station_id":"ce4bha12rcd13ifvqef0","pricing_plan_id":"cebpf4jnsgd1na2vs0mg"},{"bike_id":"b18bf2ab-b165-4858-9abf-09934f29d801","system_id":"levelo_inurba_marseille","lat":43.28475,"lon":5.38553,"is_reserved":false,"is_disabled":false,"rental_uris":{"android":"levelo://app?vid=b18bf2ab-b165-4858-9abf-09934f29d801","ios":"levelo://app?vid=b18bf2ab-b165-4858-9abf-09934f29d801"},"vehicle_type_id":"4","last_reported":1727359601,"current_range_meters":10000,"station_id":"ce4bh8p2rcd13ifvqeb0","pricing_plan_id":"cebpf4jnsgd1na2vs0mg"},{"bike_id":"3a88c8b4-de16-4bac-9b89-e235c7a84981","system_id":"levelo_inurba_marseille","lat":43.27178,"lon":5.40996,"is_reserved":false,"is_disabled":false,"rental_uris":{"android":"levelo://app?vid=3a88c8b4-de16-4bac-9b89-e235c7a84981","ios":"levelo://app?vid=3a88c8b4-de16-4bac-9b89-e235c7a84981"},"vehicle_type_id":"4","last_reported":1727359601,"current_range_meters":37600,"station_id":"ce4bhl12rcd13ifvqgf0","pricing_plan_id":"cebpf4jnsgd1na2vs0mg"},{"bike_id":"793f896e-ad54-433e-a879-1145c5aae290","system_id":"levelo_inurba_marseille","lat":43.29871,"lon":5.39734,"is_reserved":false,"is_disabled":false,"rental_uris":{"android":"levelo://app?vid=793f896e-ad54-433e-a879-1145c5aae290","ios":"levelo://app?vid=793f896e-ad54-433e-a879-1145c5aae290"},"vehicle_type_id":"4","last_reported":1727359601,"current_range_meters":28400,"station_id":"ce4bh0h2rcd13ifvqd50","pricing_plan_id":"cebpf4jnsgd1na2vs0mg"},{"bike_id":"5325b546-be8c-45ee-8bcb-8af51028126d","system_id":"levelo_inurba_marseille","lat":43.31229,"lon":5.36849,"is_reserved":false,"is_disabled":false,"rental_uris":{"android":"levelo://app?vid=5325b546-be8c-45ee-8bcb-8af51028126d","ios":"levelo://app?vid=5325b546-be8c-45ee-8bcb-8af51028126d"},"vehicle_type_id":"4","last_reported":1727359601,"current_range_meters":39200,"station_id":"ce4bgl92rcd13ifvqbq0","pricing_plan_id":"cebpf4jnsgd1na2vs0mg"},{"bike_id":"2ad7e519-0fd7-41e8-8a0e-8a418ef3dadf","system_id":"levelo_inurba_marseille","lat":43.2417,"lon":5.3639,"is_reserved":false,"is_disabled":false,"rental_uris":{"android":"levelo://app?vid=2ad7e519-0fd7-41e8-8a0e-8a418ef3dadf","ios":"levelo://app?vid=2ad7e519-0fd7-41e8-8a0e-8a418ef3dadf"},"vehicle_type_id":"4","last_reported":1727359601,"current_range_meters":28400,"station_id":"cpo36qri1sfpv3e86is0","pricing_plan_id":"cebpf4jnsgd1na2vs0mg"},{"bike_id":"b0a5c5c8-b96f-4d5c-ad0a-9a4c9139d21f","system_id":"levelo_inurba_marseille","lat":43.29785,"lon":5.37108,"is_reserved":false,"is_disabled":false,"rental_uris":{"android":"levelo://app?vid=b0a5c5c8-b96f-4d5c-ad0a-9a4c9139d21f","ios":"levelo://app?vid=b0a5c5c8-b96f-4d5c-ad0a-9a4c9139d21f"},"vehicle_type_id":"4","last_reported":1727359601,"current_range_meters":18800,"station_id":"ce4bgop2rcd13ifvqc1g","pricing_plan_id":"cebpf4jnsgd1na2vs0mg"},{"bike_id":"6c272204-1844-415e-a8b6-903d41b4084e","system_id":"levelo_inurba_marseille","lat":43.29929,"lon":5.36539,"is_reserved":false,"is_disabled":false,"rental_uris":{"android":"levelo://app?vid=6c272204-1844-415e-a8b6-903d41b4084e","ios":"levelo://app?vid=6c272204-1844-415e-a8b6-903d41b4084e"},"vehicle_type_id":"4","last_reported":1727359601,"current_range_meters":22800,"station_id":"ce4bgm92rcd13ifvqbr0","pricing_plan_id":"cebpf4jnsgd1na2vs0mg"},{"bike_id":"ae7c79b5-01d8-4219-b1b6-1cc4f40f709a","system_id":"levelo_inurba_marseille","lat":43.30543,"lon":5.36536,"is_reserved":false,"is_disabled":false,"rental_uris":{"android":"levelo://app?vid=ae7c79b5-01d8-4219-b1b6-1cc4f40f709a","ios":"levelo://app?vid=ae7c79b5-01d8-4219-b1b6-1cc4f40f709a"},"vehicle_type_id":"4","last_reported":1727359601,"current_range_meters":37600,"station_id":"ce4bgs12rcd13ifvqcag","pricing_plan_id":"cebpf4jnsgd1na2vs0mg"},{"bike_id":"58d9889b-79eb-4a39-a5de-9d24eaa9cf32","system_id":"levelo_inurba_marseille","lat":43.31484,"lon":5.37306,"is_reserved":false,"is_disabled":false,"rental_uris":{"android":"levelo://app?vid=58d9889b-79eb-4a39-a5de-9d24eaa9cf32","ios":"levelo://app?vid=58d9889b-79eb-4a39-a5de-9d24eaa9cf32"},"vehicle_type_id":"4","last_reported":1727359601,"current_range_meters":12000,"station_id":"ce4bgt12rcd13ifvqcd0","pricing_plan_id":"cebpf4jnsgd1na2vs0mg"},{"bike_id":"078c0f4b-c9ff-4931-8ddb-9bd5d513ae3f","system_id":"levelo_inurba_marseille","lat":43.26566,"lon":5.39005,"is_reserved":false,"is_disabled":false,"rental_uris":{"android":"levelo://app?vid=078c0f4b-c9ff-4931-8ddb-9bd5d513ae3f","ios":"levelo://app?vid=078c0f4b-c9ff-4931-8ddb-9bd5d513ae3f"},"vehicle_type_id":"4","last_reported":1727359601,"current_range_meters":33600,"station_id":"ce4bhe12rcd13ifvqf30","pricing_plan_id":"cebpf4jnsgd1na2vs0mg"},{"bike_id":"980a6e78-e57a-42f3-8e3b-e7ab987b675c","system_id":"levelo_inurba_marseille","lat":43.24074,"lon":5.37758,"is_reserved":false,"is_disabled":false,"rental_uris":{"android":"levelo://app?vid=980a6e78-e57a-42f3-8e3b-e7ab987b675c","ios":"levelo://app?vid=980a6e78-e57a-42f3-8e3b-e7ab987b675c"},"vehicle_type_id":"4","last_reported":1727359601,"current_range_meters":17200,"station_id":"ce4bhnp2rcd13ifvqgvg","pricing_plan_id":"cebpf4jnsgd1na2vs0mg"},{"bike_id":"0c002168-17cc-4dd1-a8b9-c448f3073a1b","system_id":"levelo_inurba_marseille","lat":43.27315,"lon":5.39078,"is_reserved":false,"is_disabled":false,"rental_uris":{"android":"levelo://app?vid=0c002168-17cc-4dd1-a8b9-c448f3073a1b","ios":"levelo://app?vid=0c002168-17cc-4dd1-a8b9-c448f3073a1b"},"vehicle_type_id":"4","last_reported":1727359601,"current_range_meters":22000,"station_id":"ce4bhgp2rcd13ifvqfe0","pricing_plan_id":"cebpf4jnsgd1na2vs0mg"},{"bike_id":"4390d030-8346-4251-b8b7-fd0c6233d793","system_id":"levelo_inurba_marseille","lat":43.31712,"lon":5.43709,"is_reserved":false,"is_disabled":false,"rental_uris":{"android":"levelo://app?vid=4390d030-8346-4251-b8b7-fd0c6233d793","ios":"levelo://app?vid=4390d030-8346-4251-b8b7-fd0c6233d793"},"vehicle_type_id":"4","last_reported":1727359601,"current_range_meters":8800,"station_id":"ce4bhph2rcd13ifvqhdg","pricing_plan_id":"cebpf4jnsgd1na2vs0mg"},{"bike_id":"f5d2eb6d-471e-40ee-9f94-9e77722bdbe7","system_id":"levelo_inurba_marseille","lat":43.31527,"lon":5.38035,"is_reserved":false,"is_disabled":false,"rental_uris":{"android":"levelo://app?vid=f5d2eb6d-471e-40ee-9f94-9e77722bdbe7","ios":"levelo://app?vid=f5d2eb6d-471e-40ee-9f94-9e77722bdbe7"},"vehicle_type_id":"4","last_reported":1727359601,"current_range_meters":36800,"station_id":"ce4bhsp2rcd13ifvqi50","pricing_plan_id":"cebpf4jnsgd1na2vs0mg"},{"bike_id":"2359b88e-3f7c-49ff-9f58-16fd2e3dcd68","system_id":"levelo_inurba_marseille","lat":43.29849,"lon":5.3628,"is_reserved":false,"is_disabled":false,"rental_uris":{"android":"levelo://app?vid=2359b88e-3f7c-49ff-9f58-16fd2e3dcd68","ios":"levelo://app?vid=2359b88e-3f7c-49ff-9f58-16fd2e3dcd68"},"vehicle_type_id":"4","last_reported":1727359601,"current_range_meters":38800,"station_id":"ce4bgpp2rcd13ifvqc3g","pricing_plan_id":"cebpf4jnsgd1na2vs0mg"},{"bike_id":"21882b6a-01b5-4f28-8b65-e968f2062415","system_id":"levelo_inurba_marseille","lat":43.28468,"lon":5.35888,"is_reserved":false,"is_disabled":false,"rental_uris":{"android":"levelo://app?vid=21882b6a-01b5-4f28-8b65-e968f2062415","ios":"levelo://app?vid=21882b6a-01b5-4f28-8b65-e968f2062415"},"vehicle_type_id":"4","last_reported":1727359601,"current_range_meters":26000,"station_id":"ce4bhah2rcd13ifvqei0","pricing_plan_id":"cebpf4jnsgd1na2vs0mg"},{"bike_id":"668d0fcc-0834-4061-8622-da320ddaa1f7","system_id":"levelo_inurba_marseille","lat":43.26562,"lon":5.39002,"is_reserved":false,"is_disabled":false,"rental_uris":{"android":"levelo://app?vid=668d0fcc-0834-4061-8622-da320ddaa1f7","ios":"levelo://app?vid=668d0fcc-0834-4061-8622-da320ddaa1f7"},"vehicle_type_id":"4","last_reported":1727359601,"current_range_meters":4000,"station_id":"ce4bhe12rcd13ifvqf30","pricing_plan_id":"cebpf4jnsgd1na2vs0mg"},{"bike_id":"eb7d8078-35d1-41be-aa48-1cdb0faba8bc","system_id":"levelo_inurba_marseille","lat":43.30891,"lon":5.37192,"is_reserved":false,"is_disabled":false,"rental_uris":{"android":"levelo://app?vid=eb7d8078-35d1-41be-aa48-1cdb0faba8bc","ios":"levelo://app?vid=eb7d8078-35d1-41be-aa48-1cdb0faba8bc"},"vehicle_type_id":"4","last_reported":1727359601,"current_range_meters":31200,"station_id":"ce4bguh2rcd13ifvqckg","pricing_plan_id":"cebpf4jnsgd1na2vs0mg"},{"bike_id":"68b1a0d2-6607-493e-9daa-6896da34531e","system_id":"levelo_inurba_marseille","lat":43.24542,"lon":5.39524,"is_reserved":false,"is_disabled":false,"rental_uris":{"android":"levelo://app?vid=68b1a0d2-6607-493e-9daa-6896da34531e","ios":"levelo://app?vid=68b1a0d2-6607-493e-9daa-6896da34531e"},"vehicle_type_id":"4","last_reported":1727359601,"current_range_meters":18800,"station_id":"ce4bhlp2rcd13ifvqgjg","pricing_plan_id":"cebpf4jnsgd1na2vs0mg"},{"bike_id":"91372296-66f0-4955-9ea7-af2aeb756cbd","system_id":"levelo_inurba_marseille","lat":43.29852,"lon":5.3627,"is_reserved":false,"is_disabled":false,"rental_uris":{"android":"levelo://app?vid=91372296-66f0-4955-9ea7-af2aeb756cbd","ios":"levelo://app?vid=91372296-66f0-4955-9ea7-af2aeb756cbd"},"vehicle_type_id":"4","last_reported":1727359601,"current_range_meters":38400,"station_id":"ce4bgpp2rcd13ifvqc3g","pricing_plan_id":"cebpf4jnsgd1na2vs0mg"},{"bike_id":"26a04b40-19b7-4281-b5d5-b683292f7600","system_id":"levelo_inurba_marseille","lat":43.32491,"lon":5.36566,"is_reserved":false,"is_disabled":false,"rental_uris":{"android":"levelo://app?vid=26a04b40-19b7-4281-b5d5-b683292f7600","ios":"levelo://app?vid=26a04b40-19b7-4281-b5d5-b683292f7600"},"vehicle_type_id":"4","last_reported":1727359601,"current_range_meters":3600,"station_id":"ce4bhs12rcd13ifvqhvg","pricing_plan_id":"cebpf4jnsgd1na2vs0mg"},{"bike_id":"b5cdcddb-a8b5-45ca-ab1b-f1ccec65f8ae","system_id":"levelo_inurba_marseille","lat":43.2994,"lon":5.36541,"is_reserved":false,"is_disabled":false,"rental_uris":{"android":"levelo://app?vid=b5cdcddb-a8b5-45ca-ab1b-f1ccec65f8ae","ios":"levelo://app?vid=b5cdcddb-a8b5-45ca-ab1b-f1ccec65f8ae"},"vehicle_type_id":"4","last_reported":1727359601,"current_range_meters":27200,"station_id":"ce4bgm92rcd13ifvqbr0","pricing_plan_id":"cebpf4jnsgd1na2vs0mg"},{"bike_id":"261ab93d-d1ac-43db-95e2-129d087513e0","system_id":"levelo_inurba_marseille","lat":43.33749,"lon":5.37438,"is_reserved":false,"is_disabled":false,"rental_uris":{"android":"levelo://app?vid=261ab93d-d1ac-43db-95e2-129d087513e0","ios":"levelo://app?vid=261ab93d-d1ac-43db-95e2-129d087513e0"},"vehicle_type_id":"4","last_reported":1727359601,"current_range_meters":33200,"station_id":"","pricing_plan_id":"cebpf4jnsgd1na2vs0mg"},{"bike_id":"d8898c38-d84b-4a32-81d5-f35fe017d87f","system_id":"levelo_inurba_marseille","lat":43.31216,"lon":5.36843,"is_reserved":false,"is_disabled":false,"rental_uris":{"android":"levelo://app?vid=d8898c38-d84b-4a32-81d5-f35fe017d87f","ios":"levelo://app?vid=d8898c38-d84b-4a32-81d5-f35fe017d87f"},"vehicle_type_id":"4","last_reported":1727359601,"current_range_meters":39200,"station_id":"ce4bgl92rcd13ifvqbq0","pricing_plan_id":"cebpf4jnsgd1na2vs0mg"},{"bike_id":"12bb2fa0-def4-44f9-9009-061dd94ed221","system_id":"levelo_inurba_marseille","lat":43.2417,"lon":5.36388,"is_reserved":false,"is_disabled":false,"rental_uris":{"android":"levelo://app?vid=12bb2fa0-def4-44f9-9009-061dd94ed221","ios":"levelo://app?vid=12bb2fa0-def4-44f9-9009-061dd94ed221"},"vehicle_type_id":"4","last_reported":1727359601,"current_range_meters":8400,"station_id":"cpo36qri1sfpv3e86is0","pricing_plan_id":"cebpf4jnsgd1na2vs0mg"},{"bike_id":"c5ad5b09-6188-4836-b6d9-0ae769be4976","system_id":"levelo_inurba_marseille","lat":43.28847,"lon":5.35853,"is_reserved":false,"is_disabled":false,"rental_uris":{"android":"levelo://app?vid=c5ad5b09-6188-4836-b6d9-0ae769be4976","ios":"levelo://app?vid=c5ad5b09-6188-4836-b6d9-0ae769be4976"},"vehicle_type_id":"4","last_reported":1727359601,"current_range_meters":25600,"station_id":"ce4bhb12rcd13ifvqem0","pricing_plan_id":"cebpf4jnsgd1na2vs0mg"},{"bike_id":"6ffa163c-a476-46d2-ad24-0c23cc9e38cf","system_id":"levelo_inurba_marseille","lat":43.27188,"lon":5.41001,"is_reserved":false,"is_disabled":false,"rental_uris":{"android":"levelo://app?vid=6ffa163c-a476-46d2-ad24-0c23cc9e38cf","ios":"levelo://app?vid=6ffa163c-a476-46d2-ad24-0c23cc9e38cf"},"vehicle_type_id":"4","last_reported":1727359601,"current_range_meters":12800,"station_id":"ce4bhl12rcd13ifvqgf0","pricing_plan_id":"cebpf4jnsgd1na2vs0mg"},{"bike_id":"6df8b1cd-0c8e-46ed-9660-f15fc2b96462","system_id":"levelo_inurba_marseille","lat":43.29197,"lon":5.39324,"is_reserved":false,"is_disabled":false,"rental_uris":{"android":"levelo://app?vid=6df8b1cd-0c8e-46ed-9660-f15fc2b96462","ios":"levelo://app?vid=6df8b1cd-0c8e-46ed-9660-f15fc2b96462"},"vehicle_type_id":"4","last_reported":1727359601,"current_range_meters":13600,"station_id":"ce4bh192rcd13ifvqdd0","pricing_plan_id":"cebpf4jnsgd1na2vs0mg"},{"bike_id":"34db31a1-6135-4a9c-a329-6c929ff94d2a","system_id":"levelo_inurba_marseille","lat":43.29417,"lon":5.38626,"is_reserved":false,"is_disabled":false,"rental_uris":{"android":"levelo://app?vid=34db31a1-6135-4a9c-a329-6c929ff94d2a","ios":"levelo://app?vid=34db31a1-6135-4a9c-a329-6c929ff94d2a"},"vehicle_type_id":"4","last_reported":1727359601,"current_range_meters":14800,"station_id":"ce4bh2h2rcd13ifvqdh0","pricing_plan_id":"cebpf4jnsgd1na2vs0mg"},{"bike_id":"ff03c4d7-7fb5-4a03-b1f0-1a5b85b2c697","system_id":"levelo_inurba_marseille","lat":43.26554,"lon":5.37283,"is_reserved":false,"is_disabled":false,"rental_uris":{"android":"levelo://app?vid=ff03c4d7-7fb5-4a03-b1f0-1a5b85b2c697","ios":"levelo://app?vid=ff03c4d7-7fb5-4a03-b1f0-1a5b85b2c697"},"vehicle_type_id":"4","last_reported":1727359601,"current_range_meters":1200,"station_id":"ce4bhg12rcd13ifvqf70","pricing_plan_id":"cebpf4jnsgd1na2vs0mg"},{"bike_id":"637beff3-55bd-4f15-99c0-4cb53d5dddb9","system_id":"levelo_inurba_marseille","lat":43.30651,"lon":5.39523,"is_reserved":false,"is_disabled":false,"rental_uris":{"android":"levelo://app?vid=637beff3-55bd-4f15-99c0-4cb53d5dddb9","ios":"levelo://app?vid=637beff3-55bd-4f15-99c0-4cb53d5dddb9"},"vehicle_type_id":"4","last_reported":1727359601,"current_range_meters":36800,"station_id":"","pricing_plan_id":"cebpf4jnsgd1na2vs0mg"},{"bike_id":"4312a66e-ddc9-4f71-95e6-672f46e819fd","system_id":"levelo_inurba_marseille","lat":43.26559,"lon":5.37284,"is_reserved":false,"is_disabled":false,"rental_uris":{"android":"levelo://app?vid=4312a66e-ddc9-4f71-95e6-672f46e819fd","ios":"levelo://app?vid=4312a66e-ddc9-4f71-95e6-672f46e819fd"},"vehicle_type_id":"4","last_reported":1727359601,"current_range_meters":32000,"station_id":"ce4bhg12rcd13ifvqf70","pricing_plan_id":"cebpf4jnsgd1na2vs0mg"},{"bike_id":"38e26329-bc51-4266-952a-cb66413b6704","system_id":"levelo_inurba_marseille","lat":43.323395,"lon":5.406263,"is_reserved":false,"is_disabled":false,"rental_uris":{"android":"levelo://app?vid=38e26329-bc51-4266-952a-cb66413b6704","ios":"levelo://app?vid=38e26329-bc51-4266-952a-cb66413b6704"},"vehicle_type_id":"4","last_reported":1727359601,"current_range_meters":10000,"station_id":"ce4bhq92rcd13ifvqhjg","pricing_plan_id":"cebpf4jnsgd1na2vs0mg"},{"bike_id":"7d9d0483-0003-45c7-93b3-6e0da2ae1236","system_id":"levelo_inurba_marseille","lat":43.273775,"lon":5.390307,"is_reserved":false,"is_disabled":false,"rental_uris":{"android":"levelo://app?vid=7d9d0483-0003-45c7-93b3-6e0da2ae1236","ios":"levelo://app?vid=7d9d0483-0003-45c7-93b3-6e0da2ae1236"},"vehicle_type_id":"4","last_reported":1727359601,"current_range_meters":11600,"station_id":"ce4bhgp2rcd13ifvqfe0","pricing_plan_id":"cebpf4jnsgd1na2vs0mg"},{"bike_id":"141ebdc2-0d8f-4d36-92ec-427b302d9f7e","system_id":"levelo_inurba_marseille","lat":43.30652,"lon":5.40075,"is_reserved":false,"is_disabled":false,"rental_uris":{"android":"levelo://app?vid=141ebdc2-0d8f-4d36-92ec-427b302d9f7e","ios":"levelo://app?vid=141ebdc2-0d8f-4d36-92ec-427b302d9f7e"},"vehicle_type_id":"4","last_reported":1727359601,"current_range_meters":2800,"station_id":"ce4bh112rcd13ifvqda0","pricing_plan_id":"cebpf4jnsgd1na2vs0mg"},{"bike_id":"d091a699-7dcf-4211-939c-e85e26ac157f","system_id":"levelo_inurba_marseille","lat":43.2956,"lon":5.4229,"is_reserved":false,"is_disabled":false,"rental_uris":{"android":"levelo://app?vid=d091a699-7dcf-4211-939c-e85e26ac157f","ios":"levelo://app?vid=d091a699-7dcf-4211-939c-e85e26ac157f"},"vehicle_type_id":"4","last_reported":1727359601,"current_range_meters":4000,"station_id":"ce4bhph2rcd13ifvqhdg","pricing_plan_id":"cebpf4jnsgd1na2vs0mg"},{"bike_id":"36c8e788-c711-4ae7-9ff8-f7f816e7f2fb","system_id":"levelo_inurba_marseille","lat":43.24073,"lon":5.37761,"is_reserved":false,"is_disabled":false,"rental_uris":{"android":"levelo://app?vid=36c8e788-c711-4ae7-9ff8-f7f816e7f2fb","ios":"levelo://app?vid=36c8e788-c711-4ae7-9ff8-f7f816e7f2fb"},"vehicle_type_id":"4","last_reported":1727359601,"current_range_meters":19200,"station_id":"ce4bhnp2rcd13ifvqgvg","pricing_plan_id":"cebpf4jnsgd1na2vs0mg"},{"bike_id":"b1fc92c2-de66-4676-a642-5ed12c29d12a","system_id":"levelo_inurba_marseille","lat":43.31758,"lon":5.39018,"is_reserved":false,"is_disabled":false,"rental_uris":{"android":"levelo://app?vid=b1fc92c2-de66-4676-a642-5ed12c29d12a","ios":"levelo://app?vid=b1fc92c2-de66-4676-a642-5ed12c29d12a"},"vehicle_type_id":"4","last_reported":1727359601,"current_range_meters":38400,"station_id":"ce4bhqp2rcd13ifvqhng","pricing_plan_id":"cebpf4jnsgd1na2vs0mg"},{"bike_id":"602cf4e8-18e2-4a4b-9f03-c009df18be65","system_id":"levelo_inurba_marseille","lat":43.293612,"lon":5.371896,"is_reserved":false,"is_disabled":false,"rental_uris":{"android":"levelo://app?vid=602cf4e8-18e2-4a4b-9f03-c009df18be65","ios":"levelo://app?vid=602cf4e8-18e2-4a4b-9f03-c009df18be65"},"vehicle_type_id":"4","last_reported":1727359601,"current_range_meters":10800,"station_id":"ce4bgh92rcd13ifvqb40","pricing_plan_id":"cebpf4jnsgd1na2vs0mg"},{"bike_id":"3cd97166-7cd7-4f28-9b86-8c60f4f663ad","system_id":"levelo_inurba_marseille","lat":43.29557,"lon":5.42292,"is_reserved":false,"is_disabled":false,"rental_uris":{"android":"levelo://app?vid=3cd97166-7cd7-4f28-9b86-8c60f4f663ad","ios":"levelo://app?vid=3cd97166-7cd7-4f28-9b86-8c60f4f663ad"},"vehicle_type_id":"4","last_reported":1727359601,"current_range_meters":22800,"station_id":"ce4bhph2rcd13ifvqhdg","pricing_plan_id":"cebpf4jnsgd1na2vs0mg"},{"bike_id":"a4fbcf70-ca14-413b-9225-785acac9ea87","system_id":"levelo_inurba_marseille","lat":43.26926,"lon":5.38918,"is_reserved":false,"is_disabled":false,"rental_uris":{"android":"levelo://app?vid=a4fbcf70-ca14-413b-9225-785acac9ea87","ios":"levelo://app?vid=a4fbcf70-ca14-413b-9225-785acac9ea87"},"vehicle_type_id":"4","last_reported":1727359601,"current_range_meters":8000,"station_id":"ce4bhhh2rcd13ifvqfl0","pricing_plan_id":"cebpf4jnsgd1na2vs0mg"},{"bike_id":"39e7ac03-f4c1-4599-a889-8072197db678","system_id":"levelo_inurba_marseille","lat":43.29269,"lon":5.38449,"is_reserved":false,"is_disabled":false,"rental_uris":{"android":"levelo://app?vid=39e7ac03-f4c1-4599-a889-8072197db678","ios":"levelo://app?vid=39e7ac03-f4c1-4599-a889-8072197db678"},"vehicle_type_id":"4","last_reported":1727359601,"current_range_meters":24800,"station_id":"ce4bh692rcd13ifvqea0","pricing_plan_id":"cebpf4jnsgd1na2vs0mg"},{"bike_id":"34df06e2-eabd-462d-9be2-01bfd2350264","system_id":"levelo_inurba_marseille","lat":43.29197,"lon":5.35796,"is_reserved":false,"is_disabled":false,"rental_uris":{"android":"levelo://app?vid=34df06e2-eabd-462d-9be2-01bfd2350264","ios":"levelo://app?vid=34df06e2-eabd-462d-9be2-01bfd2350264"},"vehicle_type_id":"4","last_reported":1727359601,"current_range_meters":3200,"station_id":"ce4bhb12rcd13ifvqel0","pricing_plan_id":"cebpf4jnsgd1na2vs0mg"},{"bike_id":"cdd4a971-88d1-4937-adf9-51649b8b80ee","system_id":"levelo_inurba_marseille","lat":43.309163,"lon":5.368514,"is_reserved":false,"is_disabled":false,"rental_uris":{"android":"levelo://app?vid=cdd4a971-88d1-4937-adf9-51649b8b80ee","ios":"levelo://app?vid=cdd4a971-88d1-4937-adf9-51649b8b80ee"},"vehicle_type_id":"4","last_reported":1727359601,"current_range_meters":38800,"station_id":"ce4bgn92rcd13ifvqbvg","pricing_plan_id":"cebpf4jnsgd1na2vs0mg"},{"bike_id":"a2c30071-cf26-4a67-a5bd-fe6db5795b59","system_id":"levelo_inurba_marseille","lat":43.24179,"lon":5.39733,"is_reserved":false,"is_disabled":false,"rental_uris":{"android":"levelo://app?vid=a2c30071-cf26-4a67-a5bd-fe6db5795b59","ios":"levelo://app?vid=a2c30071-cf26-4a67-a5bd-fe6db5795b59"},"vehicle_type_id":"4","last_reported":1727359601,"current_range_meters":38800,"station_id":"ce4bhn12rcd13ifvqgpg","pricing_plan_id":"cebpf4jnsgd1na2vs0mg"},{"bike_id":"2ed98b51-95b7-4b57-a44b-84e22c01b097","system_id":"levelo_inurba_marseille","lat":43.25938,"lon":5.409,"is_reserved":false,"is_disabled":false,"rental_uris":{"android":"levelo://app?vid=2ed98b51-95b7-4b57-a44b-84e22c01b097","ios":"levelo://app?vid=2ed98b51-95b7-4b57-a44b-84e22c01b097"},"vehicle_type_id":"4","last_reported":1727359601,"current_range_meters":25200,"station_id":"ce4bhm92rcd13ifvqglg","pricing_plan_id":"cebpf4jnsgd1na2vs0mg"},{"bike_id":"8425f761-d10d-4b52-ae7d-7d425418b0f7","system_id":"levelo_inurba_marseille","lat":43.28703,"lon":5.39989,"is_reserved":false,"is_disabled":false,"rental_uris":{"android":"levelo://app?vid=8425f761-d10d-4b52-ae7d-7d425418b0f7","ios":"levelo://app?vid=8425f761-d10d-4b52-ae7d-7d425418b0f7"},"vehicle_type_id":"4","last_reported":1727359601,"current_range_meters":9600,"station_id":"ce4bho92rcd13ifvqh3g","pricing_plan_id":"cebpf4jnsgd1na2vs0mg"},{"bike_id":"82c02d5e-669a-461f-b3eb-5b442ab68cf6","system_id":"levelo_inurba_marseille","lat":43.28858,"lon":5.35855,"is_reserved":false,"is_disabled":false,"rental_uris":{"android":"levelo://app?vid=82c02d5e-669a-461f-b3eb-5b442ab68cf6","ios":"levelo://app?vid=82c02d5e-669a-461f-b3eb-5b442ab68cf6"},"vehicle_type_id":"4","last_reported":1727359601,"current_range_meters":5600,"station_id":"ce4bhb12rcd13ifvqem0","pricing_plan_id":"cebpf4jnsgd1na2vs0mg"},{"bike_id":"c859838e-9668-46a6-9add-c65973b9865a","system_id":"levelo_inurba_marseille","lat":43.27075,"lon":5.42281,"is_reserved":false,"is_disabled":false,"rental_uris":{"android":"levelo://app?vid=c859838e-9668-46a6-9add-c65973b9865a","ios":"levelo://app?vid=c859838e-9668-46a6-9add-c65973b9865a"},"vehicle_type_id":"4","last_reported":1727359601,"current_range_meters":28400,"station_id":"ce4bhk92rcd13ifvqgb0","pricing_plan_id":"cebpf4jnsgd1na2vs0mg"},{"bike_id":"cee79834-b4c8-447d-a659-47e09a53a30d","system_id":"levelo_inurba_marseille","lat":43.30915,"lon":5.36845,"is_reserved":false,"is_disabled":false,"rental_uris":{"android":"levelo://app?vid=cee79834-b4c8-447d-a659-47e09a53a30d","ios":"levelo://app?vid=cee79834-b4c8-447d-a659-47e09a53a30d"},"vehicle_type_id":"4","last_reported":1727359601,"current_range_meters":30400,"station_id":"ce4bgn92rcd13ifvqbvg","pricing_plan_id":"cebpf4jnsgd1na2vs0mg"},{"bike_id":"4acbc726-4e5c-4dd9-a7a4-e8c6acbe902e","system_id":"levelo_inurba_marseille","lat":43.3065,"lon":5.40072,"is_reserved":false,"is_disabled":false,"rental_uris":{"android":"levelo://app?vid=4acbc726-4e5c-4dd9-a7a4-e8c6acbe902e","ios":"levelo://app?vid=4acbc726-4e5c-4dd9-a7a4-e8c6acbe902e"},"vehicle_type_id":"4","last_reported":1727359601,"current_range_meters":27600,"station_id":"ce4bh112rcd13ifvqda0","pricing_plan_id":"cebpf4jnsgd1na2vs0mg"},{"bike_id":"e9a8dbaf-57f8-49f9-b8b9-f8977d9d8a8f","system_id":"levelo_inurba_marseille","lat":43.32479,"lon":5.36561,"is_reserved":false,"is_disabled":false,"rental_uris":{"android":"levelo://app?vid=e9a8dbaf-57f8-49f9-b8b9-f8977d9d8a8f","ios":"levelo://app?vid=e9a8dbaf-57f8-49f9-b8b9-f8977d9d8a8f"},"vehicle_type_id":"4","last_reported":1727359601,"current_range_meters":8800,"station_id":"ce4bhs12rcd13ifvqhvg","pricing_plan_id":"cebpf4jnsgd1na2vs0mg"},{"bike_id":"4c8bd8a8-40fe-4a66-a6c3-24eff0ed8d85","system_id":"levelo_inurba_marseille","lat":43.29811,"lon":5.37682,"is_reserved":false,"is_disabled":false,"rental_uris":{"android":"levelo://app?vid=4c8bd8a8-40fe-4a66-a6c3-24eff0ed8d85","ios":"levelo://app?vid=4c8bd8a8-40fe-4a66-a6c3-24eff0ed8d85"},"vehicle_type_id":"4","last_reported":1727359601,"current_range_meters":38800,"station_id":"ce4bgkh2rcd13ifvqbl0","pricing_plan_id":"cebpf4jnsgd1na2vs0mg"},{"bike_id":"22e78102-e61a-40ce-aa23-528aa9929fe6","system_id":"levelo_inurba_marseille","lat":43.27072,"lon":5.42276,"is_reserved":false,"is_disabled":false,"rental_uris":{"android":"levelo://app?vid=22e78102-e61a-40ce-aa23-528aa9929fe6","ios":"levelo://app?vid=22e78102-e61a-40ce-aa23-528aa9929fe6"},"vehicle_type_id":"4","last_reported":1727359601,"current_range_meters":7200,"station_id":"ce4bhk92rcd13ifvqgb0","pricing_plan_id":"cebpf4jnsgd1na2vs0mg"},{"bike_id":"a0610759-c3de-4b79-b26f-e918039f4f8f","system_id":"levelo_inurba_marseille","lat":43.28275,"lon":5.35073,"is_reserved":false,"is_disabled":false,"rental_uris":{"android":"levelo://app?vid=a0610759-c3de-4b79-b26f-e918039f4f8f","ios":"levelo://app?vid=a0610759-c3de-4b79-b26f-e918039f4f8f"},"vehicle_type_id":"4","last_reported":1727359601,"current_range_meters":38800,"station_id":"ce4bhbp2rcd13ifvqerg","pricing_plan_id":"cebpf4jnsgd1na2vs0mg"},{"bike_id":"987f118a-0112-452c-b152-977789846acb","system_id":"levelo_inurba_marseille","lat":43.32656,"lon":5.40992,"is_reserved":false,"is_disabled":false,"rental_uris":{"android":"levelo://app?vid=987f118a-0112-452c-b152-977789846acb","ios":"levelo://app?vid=987f118a-0112-452c-b152-977789846acb"},"vehicle_type_id":"4","last_reported":1727359601,"current_range_meters":28400,"station_id":"ce4bhpp2rcd13ifvqhgg","pricing_plan_id":"cebpf4jnsgd1na2vs0mg"},{"bike_id":"ca99f5a9-bacd-4ae8-bd60-b5b4440e117a","system_id":"levelo_inurba_marseille","lat":43.28695,"lon":5.3998,"is_reserved":false,"is_disabled":false,"rental_uris":{"android":"levelo://app?vid=ca99f5a9-bacd-4ae8-bd60-b5b4440e117a","ios":"levelo://app?vid=ca99f5a9-bacd-4ae8-bd60-b5b4440e117a"},"vehicle_type_id":"4","last_reported":1727359601,"current_range_meters":9200,"station_id":"ce4bho92rcd13ifvqh3g","pricing_plan_id":"cebpf4jnsgd1na2vs0mg"},{"bike_id":"5324a727-d5bb-4d65-9620-50e6f4246357","system_id":"levelo_inurba_marseille","lat":43.28274,"lon":5.35065,"is_reserved":false,"is_disabled":false,"rental_uris":{"android":"levelo://app?vid=5324a727-d5bb-4d65-9620-50e6f4246357","ios":"levelo://app?vid=5324a727-d5bb-4d65-9620-50e6f4246357"},"vehicle_type_id":"4","last_reported":1727359601,"current_range_meters":38800,"station_id":"ce4bhbp2rcd13ifvqerg","pricing_plan_id":"cebpf4jnsgd1na2vs0mg"},{"bike_id":"4f3b6684-4ee6-41dc-95ac-4f207c9d2c18","system_id":"levelo_inurba_marseille","lat":43.32485,"lon":5.36561,"is_reserved":false,"is_disabled":false,"rental_uris":{"android":"levelo://app?vid=4f3b6684-4ee6-41dc-95ac-4f207c9d2c18","ios":"levelo://app?vid=4f3b6684-4ee6-41dc-95ac-4f207c9d2c18"},"vehicle_type_id":"4","last_reported":1727359601,"current_range_meters":16400,"station_id":"ce4bhs12rcd13ifvqhvg","pricing_plan_id":"cebpf4jnsgd1na2vs0mg"},{"bike_id":"52208d1c-3b66-4699-b09f-893b92d27708","system_id":"levelo_inurba_marseille","lat":43.288208,"lon":5.384449,"is_reserved":false,"is_disabled":false,"rental_uris":{"android":"levelo://app?vid=52208d1c-3b66-4699-b09f-893b92d27708","ios":"levelo://app?vid=52208d1c-3b66-4699-b09f-893b92d27708"},"vehicle_type_id":"4","last_reported":1727359601,"current_range_meters":8800,"station_id":"ce4bh612rcd13ifvqe6g","pricing_plan_id":"cebpf4jnsgd1na2vs0mg"},{"bike_id":"730a8251-d94a-4277-99a9-1c8f6d01216c","system_id":"levelo_inurba_marseille","lat":43.25937,"lon":5.40903,"is_reserved":false,"is_disabled":false,"rental_uris":{"android":"levelo://app?vid=730a8251-d94a-4277-99a9-1c8f6d01216c","ios":"levelo://app?vid=730a8251-d94a-4277-99a9-1c8f6d01216c"},"vehicle_type_id":"4","last_reported":1727359601,"current_range_meters":17200,"station_id":"ce4bhm92rcd13ifvqglg","pricing_plan_id":"cebpf4jnsgd1na2vs0mg"},{"bike_id":"054c38a3-0ad6-4ca0-91e2-f35597dbf2fe","system_id":"levelo_inurba_marseille","lat":43.26497,"lon":5.39539,"is_reserved":false,"is_disabled":false,"rental_uris":{"android":"levelo://app?vid=054c38a3-0ad6-4ca0-91e2-f35597dbf2fe","ios":"levelo://app?vid=054c38a3-0ad6-4ca0-91e2-f35597dbf2fe"},"vehicle_type_id":"4","last_reported":1727359601,"current_range_meters":25600,"station_id":"ce4bhi12rcd13ifvqfq0","pricing_plan_id":"cebpf4jnsgd1na2vs0mg"},{"bike_id":"5f6c79fc-4a32-4034-b731-a210b1c8c48d","system_id":"levelo_inurba_marseille","lat":43.3052,"lon":5.36697,"is_reserved":false,"is_disabled":false,"rental_uris":{"android":"levelo://app?vid=5f6c79fc-4a32-4034-b731-a210b1c8c48d","ios":"levelo://app?vid=5f6c79fc-4a32-4034-b731-a210b1c8c48d"},"vehicle_type_id":"4","last_reported":1727359601,"current_range_meters":8800,"station_id":"ce4bgrp2rcd13ifvqc9g","pricing_plan_id":"cebpf4jnsgd1na2vs0mg"},{"bike_id":"97c3cf56-4ae1-4ca9-870b-fc650c3a5866","system_id":"levelo_inurba_marseille","lat":43.28159,"lon":5.42642,"is_reserved":false,"is_disabled":false,"rental_uris":{"android":"levelo://app?vid=97c3cf56-4ae1-4ca9-870b-fc650c3a5866","ios":"levelo://app?vid=97c3cf56-4ae1-4ca9-870b-fc650c3a5866"},"vehicle_type_id":"4","last_reported":1727359601,"current_range_meters":18800,"station_id":"ce4bhnh2rcd13ifvqgug","pricing_plan_id":"cebpf4jnsgd1na2vs0mg"},{"bike_id":"1de41ee2-b859-4346-824d-ed394262bb03","system_id":"levelo_inurba_marseille","lat":43.33761,"lon":5.37449,"is_reserved":false,"is_disabled":false,"rental_uris":{"android":"levelo://app?vid=1de41ee2-b859-4346-824d-ed394262bb03","ios":"levelo://app?vid=1de41ee2-b859-4346-824d-ed394262bb03"},"vehicle_type_id":"4","last_reported":1727359601,"current_range_meters":11600,"station_id":"","pricing_plan_id":"cebpf4jnsgd1na2vs0mg"},{"bike_id":"26fd27b0-5a10-44d0-8cda-603fa15c595f","system_id":"levelo_inurba_marseille","lat":43.24068,"lon":5.37764,"is_reserved":false,"is_disabled":false,"rental_uris":{"android":"levelo://app?vid=26fd27b0-5a10-44d0-8cda-603fa15c595f","ios":"levelo://app?vid=26fd27b0-5a10-44d0-8cda-603fa15c595f"},"vehicle_type_id":"4","last_reported":1727359601,"current_range_meters":9200,"station_id":"ce4bhnp2rcd13ifvqgvg","pricing_plan_id":"cebpf4jnsgd1na2vs0mg"},{"bike_id":"751bff45-76c1-4c5f-b949-27cb0e9aacd7","system_id":"levelo_inurba_marseille","lat":43.33757,"lon":5.37444,"is_reserved":false,"is_disabled":false,"rental_uris":{"android":"levelo://app?vid=751bff45-76c1-4c5f-b949-27cb0e9aacd7","ios":"levelo://app?vid=751bff45-76c1-4c5f-b949-27cb0e9aacd7"},"vehicle_type_id":"4","last_reported":1727359601,"current_range_meters":36400,"station_id":"","pricing_plan_id":"cebpf4jnsgd1na2vs0mg"},{"bike_id":"c9e7ea5e-0e89-49d6-858c-1a5ae50c7ce9","system_id":"levelo_inurba_marseille","lat":43.29623,"lon":5.37164,"is_reserved":false,"is_disabled":false,"rental_uris":{"android":"levelo://app?vid=c9e7ea5e-0e89-49d6-858c-1a5ae50c7ce9","ios":"levelo://app?vid=c9e7ea5e-0e89-49d6-858c-1a5ae50c7ce9"},"vehicle_type_id":"4","last_reported":1727359601,"current_range_meters":22400,"station_id":"ce4bgnh2rcd13ifvqc0g","pricing_plan_id":"cebpf4jnsgd1na2vs0mg"},{"bike_id":"34ba6c2e-8cf4-4bf5-8441-4667cf05ac98","system_id":"levelo_inurba_marseille","lat":43.26497,"lon":5.39544,"is_reserved":false,"is_disabled":false,"rental_uris":{"android":"levelo://app?vid=34ba6c2e-8cf4-4bf5-8441-4667cf05ac98","ios":"levelo://app?vid=34ba6c2e-8cf4-4bf5-8441-4667cf05ac98"},"vehicle_type_id":"4","last_reported":1727359601,"current_range_meters":27600,"station_id":"ce4bhi12rcd13ifvqfq0","pricing_plan_id":"cebpf4jnsgd1na2vs0mg"},{"bike_id":"0cb8a0f6-b28c-4866-8171-5bc9be488232","system_id":"levelo_inurba_marseille","lat":43.25126,"lon":5.40321,"is_reserved":false,"is_disabled":false,"rental_uris":{"android":"levelo://app?vid=0cb8a0f6-b28c-4866-8171-5bc9be488232","ios":"levelo://app?vid=0cb8a0f6-b28c-4866-8171-5bc9be488232"},"vehicle_type_id":"4","last_reported":1727359601,"current_range_meters":10000,"station_id":"ce4bhlh2rcd13ifvqgig","pricing_plan_id":"cebpf4jnsgd1na2vs0mg"},{"bike_id":"b89f3c75-62ef-439a-891a-3e5717a4b61a","system_id":"levelo_inurba_marseille","lat":43.27931,"lon":5.37949,"is_reserved":false,"is_disabled":false,"rental_uris":{"android":"levelo://app?vid=b89f3c75-62ef-439a-891a-3e5717a4b61a","ios":"levelo://app?vid=b89f3c75-62ef-439a-891a-3e5717a4b61a"},"vehicle_type_id":"4","last_reported":1727359601,"current_range_meters":23200,"station_id":"","pricing_plan_id":"cebpf4jnsgd1na2vs0mg"},{"bike_id":"6fe0b626-bdd5-4255-9873-515ab0463010","system_id":"levelo_inurba_marseille","lat":43.2804,"lon":5.36943,"is_reserved":false,"is_disabled":false,"rental_uris":{"android":"levelo://app?vid=6fe0b626-bdd5-4255-9873-515ab0463010","ios":"levelo://app?vid=6fe0b626-bdd5-4255-9873-515ab0463010"},"vehicle_type_id":"4","last_reported":1727359601,"current_range_meters":38800,"station_id":"ce4bha12rcd13ifvqef0","pricing_plan_id":"cebpf4jnsgd1na2vs0mg"},{"bike_id":"12b282d0-bd82-4ce4-ba87-2f5371889ab5","system_id":"levelo_inurba_marseille","lat":43.26554,"lon":5.38998,"is_reserved":false,"is_disabled":false,"rental_uris":{"android":"levelo://app?vid=12b282d0-bd82-4ce4-ba87-2f5371889ab5","ios":"levelo://app?vid=12b282d0-bd82-4ce4-ba87-2f5371889ab5"},"vehicle_type_id":"4","last_reported":1727359601,"current_range_meters":17600,"station_id":"ce4bhe12rcd13ifvqf30","pricing_plan_id":"cebpf4jnsgd1na2vs0mg"},{"bike_id":"15091c48-fa1f-42b0-a263-2568d4978cd4","system_id":"levelo_inurba_marseille","lat":43.24081,"lon":5.37752,"is_reserved":false,"is_disabled":false,"rental_uris":{"android":"levelo://app?vid=15091c48-fa1f-42b0-a263-2568d4978cd4","ios":"levelo://app?vid=15091c48-fa1f-42b0-a263-2568d4978cd4"},"vehicle_type_id":"4","last_reported":1727359601,"current_range_meters":13600,"station_id":"ce4bhnp2rcd13ifvqgvg","pricing_plan_id":"cebpf4jnsgd1na2vs0mg"},{"bike_id":"9238ad14-e0d5-4c32-9a08-f97260c3768d","system_id":"levelo_inurba_marseille","lat":43.32482,"lon":5.36564,"is_reserved":false,"is_disabled":false,"rental_uris":{"android":"levelo://app?vid=9238ad14-e0d5-4c32-9a08-f97260c3768d","ios":"levelo://app?vid=9238ad14-e0d5-4c32-9a08-f97260c3768d"},"vehicle_type_id":"4","last_reported":1727359601,"current_range_meters":28000,"station_id":"ce4bhs12rcd13ifvqhvg","pricing_plan_id":"cebpf4jnsgd1na2vs0mg"},{"bike_id":"c2e5a81e-6912-4cb0-98ad-5f3df477fa43","system_id":"levelo_inurba_marseille","lat":43.29005,"lon":5.3758,"is_reserved":false,"is_disabled":false,"rental_uris":{"android":"levelo://app?vid=c2e5a81e-6912-4cb0-98ad-5f3df477fa43","ios":"levelo://app?vid=c2e5a81e-6912-4cb0-98ad-5f3df477fa43"},"vehicle_type_id":"4","last_reported":1727359601,"current_range_meters":37600,"station_id":"ce4bh692rcd13ifvqe90","pricing_plan_id":"cebpf4jnsgd1na2vs0mg"},{"bike_id":"1957f116-4e4b-4c9b-9bec-85d9afac2bf6","system_id":"levelo_inurba_marseille","lat":43.24803,"lon":5.37452,"is_reserved":false,"is_disabled":false,"rental_uris":{"android":"levelo://app?vid=1957f116-4e4b-4c9b-9bec-85d9afac2bf6","ios":"levelo://app?vid=1957f116-4e4b-4c9b-9bec-85d9afac2bf6"},"vehicle_type_id":"4","last_reported":1727359601,"current_range_meters":33200,"station_id":"ce4bhgh2rcd13ifvqfb0","pricing_plan_id":"cebpf4jnsgd1na2vs0mg"},{"bike_id":"e4d55da8-9a0e-4c4d-8c5f-3b668bd4aeae","system_id":"levelo_inurba_marseille","lat":43.23155,"lon":5.43699,"is_reserved":false,"is_disabled":false,"rental_uris":{"android":"levelo://app?vid=e4d55da8-9a0e-4c4d-8c5f-3b668bd4aeae","ios":"levelo://app?vid=e4d55da8-9a0e-4c4d-8c5f-3b668bd4aeae"},"vehicle_type_id":"4","last_reported":1727359601,"current_range_meters":14000,"station_id":"ce4bhmp2rcd13ifvqgog","pricing_plan_id":"cebpf4jnsgd1na2vs0mg"},{"bike_id":"8460a7e8-1a9d-4ecf-8e31-4e5a3fd8d5e0","system_id":"levelo_inurba_marseille","lat":43.29919,"lon":5.3653,"is_reserved":false,"is_disabled":false,"rental_uris":{"android":"levelo://app?vid=8460a7e8-1a9d-4ecf-8e31-4e5a3fd8d5e0","ios":"levelo://app?vid=8460a7e8-1a9d-4ecf-8e31-4e5a3fd8d5e0"},"vehicle_type_id":"4","last_reported":1727359601,"current_range_meters":16400,"station_id":"ce4bgm92rcd13ifvqbr0","pricing_plan_id":"cebpf4jnsgd1na2vs0mg"},{"bike_id":"f41f63ca-4400-483a-b198-c78d5282c487","system_id":"levelo_inurba_marseille","lat":43.29266,"lon":5.36839,"is_reserved":false,"is_disabled":false,"rental_uris":{"android":"levelo://app?vid=f41f63ca-4400-483a-b198-c78d5282c487","ios":"levelo://app?vid=f41f63ca-4400-483a-b198-c78d5282c487"},"vehicle_type_id":"4","last_reported":1727359601,"current_range_meters":25200,"station_id":"ce4bhbp2rcd13ifvqesg","pricing_plan_id":"cebpf4jnsgd1na2vs0mg"},{"bike_id":"710dabc6-a62c-4530-a37c-dad971c4fb07","system_id":"levelo_inurba_marseille","lat":43.30894,"lon":5.37181,"is_reserved":false,"is_disabled":false,"rental_uris":{"android":"levelo://app?vid=710dabc6-a62c-4530-a37c-dad971c4fb07","ios":"levelo://app?vid=710dabc6-a62c-4530-a37c-dad971c4fb07"},"vehicle_type_id":"4","last_reported":1727359601,"current_range_meters":36800,"station_id":"ce4bguh2rcd13ifvqckg","pricing_plan_id":"cebpf4jnsgd1na2vs0mg"},{"bike_id":"b6eac0f2-1d3d-4855-afe1-ce43ba22a286","system_id":"levelo_inurba_marseille","lat":43.2987,"lon":5.39724,"is_reserved":false,"is_disabled":false,"rental_uris":{"android":"levelo://app?vid=b6eac0f2-1d3d-4855-afe1-ce43ba22a286","ios":"levelo://app?vid=b6eac0f2-1d3d-4855-afe1-ce43ba22a286"},"vehicle_type_id":"4","last_reported":1727359601,"current_range_meters":24800,"station_id":"ce4bh0h2rcd13ifvqd50","pricing_plan_id":"cebpf4jnsgd1na2vs0mg"},{"bike_id":"3defc525-5721-4771-a576-d148c140f1dd","system_id":"levelo_inurba_marseille","lat":43.30605,"lon":5.37221,"is_reserved":false,"is_disabled":false,"rental_uris":{"android":"levelo://app?vid=3defc525-5721-4771-a576-d148c140f1dd","ios":"levelo://app?vid=3defc525-5721-4771-a576-d148c140f1dd"},"vehicle_type_id":"4","last_reported":1727359601,"current_range_meters":37600,"station_id":"ce4bgqh2rcd13ifvqc4g","pricing_plan_id":"cebpf4jnsgd1na2vs0mg"},{"bike_id":"f99a81cc-8d93-4c92-b570-cac6e425ad23","system_id":"levelo_inurba_marseille","lat":43.337444,"lon":5.374475,"is_reserved":false,"is_disabled":false,"rental_uris":{"android":"levelo://app?vid=f99a81cc-8d93-4c92-b570-cac6e425ad23","ios":"levelo://app?vid=f99a81cc-8d93-4c92-b570-cac6e425ad23"},"vehicle_type_id":"4","last_reported":1727359601,"current_range_meters":12800,"station_id":"ce4bgj92rcd13ifvqbd0","pricing_plan_id":"cebpf4jnsgd1na2vs0mg"},{"bike_id":"e5151513-a19b-4f32-b546-ee9562775cc7","system_id":"levelo_inurba_marseille","lat":43.29579,"lon":5.37497,"is_reserved":false,"is_disabled":false,"rental_uris":{"android":"levelo://app?vid=e5151513-a19b-4f32-b546-ee9562775cc7","ios":"levelo://app?vid=e5151513-a19b-4f32-b546-ee9562775cc7"},"vehicle_type_id":"4","last_reported":1727359601,"current_range_meters":38800,"station_id":"ce4bgh92rcd13ifvqb50","pricing_plan_id":"cebpf4jnsgd1na2vs0mg"},{"bike_id":"64577474-503b-47b8-ba02-db6057494fc8","system_id":"levelo_inurba_marseille","lat":43.25941,"lon":5.40906,"is_reserved":false,"is_disabled":false,"rental_uris":{"android":"levelo://app?vid=64577474-503b-47b8-ba02-db6057494fc8","ios":"levelo://app?vid=64577474-503b-47b8-ba02-db6057494fc8"},"vehicle_type_id":"4","last_reported":1727359601,"current_range_meters":34000,"station_id":"ce4bhm92rcd13ifvqglg","pricing_plan_id":"cebpf4jnsgd1na2vs0mg"},{"bike_id":"d0c1f557-12a5-442b-8144-bc1b5071cfbc","system_id":"levelo_inurba_marseille","lat":43.31689,"lon":5.37766,"is_reserved":false,"is_disabled":false,"rental_uris":{"android":"levelo://app?vid=d0c1f557-12a5-442b-8144-bc1b5071cfbc","ios":"levelo://app?vid=d0c1f557-12a5-442b-8144-bc1b5071cfbc"},"vehicle_type_id":"4","last_reported":1727359601,"current_range_meters":11200,"station_id":"ce4bgth2rcd13ifvqch0","pricing_plan_id":"cebpf4jnsgd1na2vs0mg"},{"bike_id":"88d757fa-11d9-492f-9e99-56a982b9b550","system_id":"levelo_inurba_marseille","lat":43.25574,"lon":5.38234,"is_reserved":false,"is_disabled":false,"rental_uris":{"android":"levelo://app?vid=88d757fa-11d9-492f-9e99-56a982b9b550","ios":"levelo://app?vid=88d757fa-11d9-492f-9e99-56a982b9b550"},"vehicle_type_id":"4","last_reported":1727359601,"current_range_meters":4000,"station_id":"ce4bhih2rcd13ifvqfs0","pricing_plan_id":"cebpf4jnsgd1na2vs0mg"},{"bike_id":"12eacd2f-3711-4050-a352-e59dd1b5717a","system_id":"levelo_inurba_marseille","lat":43.299744,"lon":5.397671,"is_reserved":false,"is_disabled":false,"rental_uris":{"android":"levelo://app?vid=12eacd2f-3711-4050-a352-e59dd1b5717a","ios":"levelo://app?vid=12eacd2f-3711-4050-a352-e59dd1b5717a"},"vehicle_type_id":"4","last_reported":1727359601,"current_range_meters":29600,"station_id":"ce4bh0h2rcd13ifvqd50","pricing_plan_id":"cebpf4jnsgd1na2vs0mg"},{"bike_id":"c6ebdc49-4729-4e81-a2ad-ad9c2b48e60f","system_id":"levelo_inurba_marseille","lat":43.29936,"lon":5.36543,"is_reserved":false,"is_disabled":false,"rental_uris":{"android":"levelo://app?vid=c6ebdc49-4729-4e81-a2ad-ad9c2b48e60f","ios":"levelo://app?vid=c6ebdc49-4729-4e81-a2ad-ad9c2b48e60f"},"vehicle_type_id":"4","last_reported":1727359601,"current_range_meters":30800,"station_id":"ce4bgm92rcd13ifvqbr0","pricing_plan_id":"cebpf4jnsgd1na2vs0mg"},{"bike_id":"7bd6d838-1382-4563-99e1-ae09ccc025d3","system_id":"levelo_inurba_marseille","lat":43.27842,"lon":5.39204,"is_reserved":false,"is_disabled":false,"rental_uris":{"android":"levelo://app?vid=7bd6d838-1382-4563-99e1-ae09ccc025d3","ios":"levelo://app?vid=7bd6d838-1382-4563-99e1-ae09ccc025d3"},"vehicle_type_id":"4","last_reported":1727359601,"current_range_meters":6000,"station_id":"ce4bhjp2rcd13ifvqga0","pricing_plan_id":"cebpf4jnsgd1na2vs0mg"},{"bike_id":"6b2d6110-047a-4374-b820-0abaa9613131","system_id":"levelo_inurba_marseille","lat":43.32478,"lon":5.36567,"is_reserved":false,"is_disabled":false,"rental_uris":{"android":"levelo://app?vid=6b2d6110-047a-4374-b820-0abaa9613131","ios":"levelo://app?vid=6b2d6110-047a-4374-b820-0abaa9613131"},"vehicle_type_id":"4","last_reported":1727359601,"current_range_meters":36400,"station_id":"ce4bhs12rcd13ifvqhvg","pricing_plan_id":"cebpf4jnsgd1na2vs0mg"},{"bike_id":"e1011166-328e-4f85-b030-2e058ea34f2c","system_id":"levelo_inurba_marseille","lat":43.23187,"lon":5.39977,"is_reserved":false,"is_disabled":false,"rental_uris":{"android":"levelo://app?vid=e1011166-328e-4f85-b030-2e058ea34f2c","ios":"levelo://app?vid=e1011166-328e-4f85-b030-2e058ea34f2c"},"vehicle_type_id":"4","last_reported":1727359601,"current_range_meters":16000,"station_id":"ce4bhn12rcd13ifvqgqg","pricing_plan_id":"cebpf4jnsgd1na2vs0mg"},{"bike_id":"a7bca3df-0344-4204-86d7-b742d4769839","system_id":"levelo_inurba_marseille","lat":43.30863,"lon":5.3685,"is_reserved":false,"is_disabled":false,"rental_uris":{"android":"levelo://app?vid=a7bca3df-0344-4204-86d7-b742d4769839","ios":"levelo://app?vid=a7bca3df-0344-4204-86d7-b742d4769839"},"vehicle_type_id":"4","last_reported":1727359601,"current_range_meters":22800,"station_id":"ce4bgn92rcd13ifvqbvg","pricing_plan_id":"cebpf4jnsgd1na2vs0mg"},{"bike_id":"6de0c6db-ad30-417a-94d4-b1f365779b0d","system_id":"levelo_inurba_marseille","lat":43.26789,"lon":5.39411,"is_reserved":false,"is_disabled":false,"rental_uris":{"android":"levelo://app?vid=6de0c6db-ad30-417a-94d4-b1f365779b0d","ios":"levelo://app?vid=6de0c6db-ad30-417a-94d4-b1f365779b0d"},"vehicle_type_id":"4","last_reported":1727359601,"current_range_meters":9200,"station_id":"ce4bhh12rcd13ifvqfg0","pricing_plan_id":"cebpf4jnsgd1na2vs0mg"},{"bike_id":"5c5d6480-15ef-41d1-819d-f6b78d27575d","system_id":"levelo_inurba_marseille","lat":43.29843,"lon":5.3626,"is_reserved":false,"is_disabled":false,"rental_uris":{"android":"levelo://app?vid=5c5d6480-15ef-41d1-819d-f6b78d27575d","ios":"levelo://app?vid=5c5d6480-15ef-41d1-819d-f6b78d27575d"},"vehicle_type_id":"4","last_reported":1727359601,"current_range_meters":24000,"station_id":"ce4bgpp2rcd13ifvqc3g","pricing_plan_id":"cebpf4jnsgd1na2vs0mg"},{"bike_id":"e25928dc-f65c-4625-950d-f34ddd1f7385","system_id":"levelo_inurba_marseille","lat":43.296215,"lon":5.371641,"is_reserved":false,"is_disabled":false,"rental_uris":{"android":"levelo://app?vid=e25928dc-f65c-4625-950d-f34ddd1f7385","ios":"levelo://app?vid=e25928dc-f65c-4625-950d-f34ddd1f7385"},"vehicle_type_id":"4","last_reported":1727359601,"current_range_meters":28400,"station_id":"ce4bgnh2rcd13ifvqc0g","pricing_plan_id":"cebpf4jnsgd1na2vs0mg"},{"bike_id":"e35edc70-4e16-46a6-b127-cc24f579bac5","system_id":"levelo_inurba_marseille","lat":43.24393,"lon":5.37063,"is_reserved":false,"is_disabled":false,"rental_uris":{"android":"levelo://app?vid=e35edc70-4e16-46a6-b127-cc24f579bac5","ios":"levelo://app?vid=e35edc70-4e16-46a6-b127-cc24f579bac5"},"vehicle_type_id":"4","last_reported":1727359601,"current_range_meters":36400,"station_id":"ce4bhhh2rcd13ifvqfk0","pricing_plan_id":"cebpf4jnsgd1na2vs0mg"},{"bike_id":"b2eaefb3-38a9-4f3e-a3d2-026dcff570ab","system_id":"levelo_inurba_marseille","lat":43.27995,"lon":5.40019,"is_reserved":false,"is_disabled":false,"rental_uris":{"android":"levelo://app?vid=b2eaefb3-38a9-4f3e-a3d2-026dcff570ab","ios":"levelo://app?vid=b2eaefb3-38a9-4f3e-a3d2-026dcff570ab"},"vehicle_type_id":"4","last_reported":1727359601,"current_range_meters":6400,"station_id":"ce4bho92rcd13ifvqh4g","pricing_plan_id":"cebpf4jnsgd1na2vs0mg"},{"bike_id":"0bbe7db0-a15b-4e61-9a79-e25b9412fb33","system_id":"levelo_inurba_marseille","lat":43.27209,"lon":5.39179,"is_reserved":false,"is_disabled":false,"rental_uris":{"android":"levelo://app?vid=0bbe7db0-a15b-4e61-9a79-e25b9412fb33","ios":"levelo://app?vid=0bbe7db0-a15b-4e61-9a79-e25b9412fb33"},"vehicle_type_id":"4","last_reported":1727359601,"current_range_meters":12000,"station_id":"ce4bhhp2rcd13ifvqfm0","pricing_plan_id":"cebpf4jnsgd1na2vs0mg"},{"bike_id":"80d1d5df-61ca-4f88-bada-c65e746a68df","system_id":"levelo_inurba_marseille","lat":43.2985,"lon":5.36271,"is_reserved":false,"is_disabled":false,"rental_uris":{"android":"levelo://app?vid=80d1d5df-61ca-4f88-bada-c65e746a68df","ios":"levelo://app?vid=80d1d5df-61ca-4f88-bada-c65e746a68df"},"vehicle_type_id":"4","last_reported":1727359601,"current_range_meters":39200,"station_id":"ce4bgpp2rcd13ifvqc3g","pricing_plan_id":"cebpf4jnsgd1na2vs0mg"},{"bike_id":"7827170f-fe53-4f76-acc5-1f9d10e67145","system_id":"levelo_inurba_marseille","lat":43.22928,"lon":5.35377,"is_reserved":false,"is_disabled":false,"rental_uris":{"android":"levelo://app?vid=7827170f-fe53-4f76-acc5-1f9d10e67145","ios":"levelo://app?vid=7827170f-fe53-4f76-acc5-1f9d10e67145"},"vehicle_type_id":"4","last_reported":1727359601,"current_range_meters":33200,"station_id":"cpo3532slgdg3j2ikp40","pricing_plan_id":"cebpf4jnsgd1na2vs0mg"},{"bike_id":"9af202ed-b468-4f71-a0b8-74184374d8df","system_id":"levelo_inurba_marseille","lat":43.29874,"lon":5.39738,"is_reserved":false,"is_disabled":false,"rental_uris":{"android":"levelo://app?vid=9af202ed-b468-4f71-a0b8-74184374d8df","ios":"levelo://app?vid=9af202ed-b468-4f71-a0b8-74184374d8df"},"vehicle_type_id":"4","last_reported":1727359601,"current_range_meters":10000,"station_id":"ce4bh0h2rcd13ifvqd50","pricing_plan_id":"cebpf4jnsgd1na2vs0mg"},{"bike_id":"78e79a53-8622-4921-af56-1de31f382f60","system_id":"levelo_inurba_marseille","lat":43.324768,"lon":5.365695,"is_reserved":false,"is_disabled":false,"rental_uris":{"android":"levelo://app?vid=78e79a53-8622-4921-af56-1de31f382f60","ios":"levelo://app?vid=78e79a53-8622-4921-af56-1de31f382f60"},"vehicle_type_id":"4","last_reported":1727359601,"current_range_meters":28800,"station_id":"ce4bgrh2rcd13ifvqc8g","pricing_plan_id":"cebpf4jnsgd1na2vs0mg"},{"bike_id":"ec284f70-023f-4d5d-a708-d495b9ffbbb7","system_id":"levelo_inurba_marseille","lat":43.26201,"lon":5.37929,"is_reserved":false,"is_disabled":false,"rental_uris":{"android":"levelo://app?vid=ec284f70-023f-4d5d-a708-d495b9ffbbb7","ios":"levelo://app?vid=ec284f70-023f-4d5d-a708-d495b9ffbbb7"},"vehicle_type_id":"4","last_reported":1727359601,"current_range_meters":24000,"station_id":"ce4bhjp2rcd13ifvqg90","pricing_plan_id":"cebpf4jnsgd1na2vs0mg"},{"bike_id":"1d31ded6-f31b-4920-a2dd-8a6d20b900af","system_id":"levelo_inurba_marseille","lat":43.29942,"lon":5.3653,"is_reserved":false,"is_disabled":false,"rental_uris":{"android":"levelo://app?vid=1d31ded6-f31b-4920-a2dd-8a6d20b900af","ios":"levelo://app?vid=1d31ded6-f31b-4920-a2dd-8a6d20b900af"},"vehicle_type_id":"4","last_reported":1727359601,"current_range_meters":28400,"station_id":"ce4bgm92rcd13ifvqbr0","pricing_plan_id":"cebpf4jnsgd1na2vs0mg"},{"bike_id":"f0b7805f-753b-4eba-b8f1-9732afa947b7","system_id":"levelo_inurba_marseille","lat":43.3083,"lon":5.3768,"is_reserved":false,"is_disabled":false,"rental_uris":{"android":"levelo://app?vid=f0b7805f-753b-4eba-b8f1-9732afa947b7","ios":"levelo://app?vid=f0b7805f-753b-4eba-b8f1-9732afa947b7"},"vehicle_type_id":"4","last_reported":1727359601,"current_range_meters":26000,"station_id":"ce4bgv92rcd13ifvqcq0","pricing_plan_id":"cebpf4jnsgd1na2vs0mg"},{"bike_id":"4507051e-dbe2-4197-98eb-12b963417d27","system_id":"levelo_inurba_marseille","lat":43.29875,"lon":5.39732,"is_reserved":false,"is_disabled":false,"rental_uris":{"android":"levelo://app?vid=4507051e-dbe2-4197-98eb-12b963417d27","ios":"levelo://app?vid=4507051e-dbe2-4197-98eb-12b963417d27"},"vehicle_type_id":"4","last_reported":1727359601,"current_range_meters":36000,"station_id":"ce4bh0h2rcd13ifvqd50","pricing_plan_id":"cebpf4jnsgd1na2vs0mg"},{"bike_id":"4a4bfd88-bdfc-4802-b3a8-e798e4274727","system_id":"levelo_inurba_marseille","lat":43.32286,"lon":5.3826,"is_reserved":false,"is_disabled":false,"rental_uris":{"android":"levelo://app?vid=4a4bfd88-bdfc-4802-b3a8-e798e4274727","ios":"levelo://app?vid=4a4bfd88-bdfc-4802-b3a8-e798e4274727"},"vehicle_type_id":"4","last_reported":1727359601,"current_range_meters":24400,"station_id":"ce4bhr12rcd13ifvqhqg","pricing_plan_id":"cebpf4jnsgd1na2vs0mg"},{"bike_id":"6062f3fc-7306-4f46-a3f2-af481b31376f","system_id":"levelo_inurba_marseille","lat":43.266876,"lon":5.394366,"is_reserved":false,"is_disabled":false,"rental_uris":{"android":"levelo://app?vid=6062f3fc-7306-4f46-a3f2-af481b31376f","ios":"levelo://app?vid=6062f3fc-7306-4f46-a3f2-af481b31376f"},"vehicle_type_id":"4","last_reported":1727359601,"current_range_meters":3600,"station_id":"","pricing_plan_id":"cebpf4jnsgd1na2vs0mg"},{"bike_id":"c728b0b1-d2de-461e-81ef-34878b8bccf1","system_id":"levelo_inurba_marseille","lat":43.29896,"lon":5.43665,"is_reserved":false,"is_disabled":false,"rental_uris":{"android":"levelo://app?vid=c728b0b1-d2de-461e-81ef-34878b8bccf1","ios":"levelo://app?vid=c728b0b1-d2de-461e-81ef-34878b8bccf1"},"vehicle_type_id":"4","last_reported":1727359601,"current_range_meters":18000,"station_id":"ce4bhpp2rcd13ifvqhfg","pricing_plan_id":"cebpf4jnsgd1na2vs0mg"},{"bike_id":"5109b96c-3add-47ca-89b6-b5297ec2a53a","system_id":"levelo_inurba_marseille","lat":43.262,"lon":5.37445,"is_reserved":false,"is_disabled":false,"rental_uris":{"android":"levelo://app?vid=5109b96c-3add-47ca-89b6-b5297ec2a53a","ios":"levelo://app?vid=5109b96c-3add-47ca-89b6-b5297ec2a53a"},"vehicle_type_id":"4","last_reported":1727359601,"current_range_meters":25600,"station_id":"ce4bhgp2rcd13ifvqfc0","pricing_plan_id":"cebpf4jnsgd1na2vs0mg"},{"bike_id":"81c79a5f-f1a7-4420-97f8-092caaa8c88e","system_id":"levelo_inurba_marseille","lat":43.30553,"lon":5.367044,"is_reserved":false,"is_disabled":false,"rental_uris":{"android":"levelo://app?vid=81c79a5f-f1a7-4420-97f8-092caaa8c88e","ios":"levelo://app?vid=81c79a5f-f1a7-4420-97f8-092caaa8c88e"},"vehicle_type_id":"4","last_reported":1727359601,"current_range_meters":16400,"station_id":"ce4bgrp2rcd13ifvqc9g","pricing_plan_id":"cebpf4jnsgd1na2vs0mg"},{"bike_id":"b8d4cfe5-fa00-4798-bb3b-a5cd96b0fee5","system_id":"levelo_inurba_marseille","lat":43.24216,"lon":5.38436,"is_reserved":false,"is_disabled":false,"rental_uris":{"android":"levelo://app?vid=b8d4cfe5-fa00-4798-bb3b-a5cd96b0fee5","ios":"levelo://app?vid=b8d4cfe5-fa00-4798-bb3b-a5cd96b0fee5"},"vehicle_type_id":"4","last_reported":1727359601,"current_range_meters":8000,"station_id":"","pricing_plan_id":"cebpf4jnsgd1na2vs0mg"},{"bike_id":"274dc1ce-967a-407b-88d4-f10d3a27d44e","system_id":"levelo_inurba_marseille","lat":43.29787,"lon":5.37098,"is_reserved":false,"is_disabled":false,"rental_uris":{"android":"levelo://app?vid=274dc1ce-967a-407b-88d4-f10d3a27d44e","ios":"levelo://app?vid=274dc1ce-967a-407b-88d4-f10d3a27d44e"},"vehicle_type_id":"4","last_reported":1727359601,"current_range_meters":22400,"station_id":"ce4bgop2rcd13ifvqc1g","pricing_plan_id":"cebpf4jnsgd1na2vs0mg"},{"bike_id":"27183317-2da9-4b3d-93f5-1deece1eebb7","system_id":"levelo_inurba_marseille","lat":43.29778,"lon":5.37109,"is_reserved":false,"is_disabled":false,"rental_uris":{"android":"levelo://app?vid=27183317-2da9-4b3d-93f5-1deece1eebb7","ios":"levelo://app?vid=27183317-2da9-4b3d-93f5-1deece1eebb7"},"vehicle_type_id":"4","last_reported":1727359601,"current_range_meters":9600,"station_id":"ce4bgop2rcd13ifvqc1g","pricing_plan_id":"cebpf4jnsgd1na2vs0mg"},{"bike_id":"ad817e8b-8559-4461-9005-c1fc1f56ec3e","system_id":"levelo_inurba_marseille","lat":43.30588,"lon":5.37254,"is_reserved":false,"is_disabled":false,"rental_uris":{"android":"levelo://app?vid=ad817e8b-8559-4461-9005-c1fc1f56ec3e","ios":"levelo://app?vid=ad817e8b-8559-4461-9005-c1fc1f56ec3e"},"vehicle_type_id":"4","last_reported":1727359601,"current_range_meters":38400,"station_id":"ce4bgkh2rcd13ifvqbl0","pricing_plan_id":"cebpf4jnsgd1na2vs0mg"},{"bike_id":"9f0beab9-d565-48c5-95a6-f48cd8fde550","system_id":"levelo_inurba_marseille","lat":43.27059,"lon":5.40257,"is_reserved":false,"is_disabled":false,"rental_uris":{"android":"levelo://app?vid=9f0beab9-d565-48c5-95a6-f48cd8fde550","ios":"levelo://app?vid=9f0beab9-d565-48c5-95a6-f48cd8fde550"},"vehicle_type_id":"4","last_reported":1727359601,"current_range_meters":21600,"station_id":"ce4bhk92rcd13ifvqgc0","pricing_plan_id":"cebpf4jnsgd1na2vs0mg"},{"bike_id":"c1d42387-df29-461d-9d89-44c111747671","system_id":"levelo_inurba_marseille","lat":43.26043,"lon":5.37537,"is_reserved":false,"is_disabled":false,"rental_uris":{"android":"levelo://app?vid=c1d42387-df29-461d-9d89-44c111747671","ios":"levelo://app?vid=c1d42387-df29-461d-9d89-44c111747671"},"vehicle_type_id":"4","last_reported":1727359601,"current_range_meters":27600,"station_id":"ce4bhgh2rcd13ifvqfa0","pricing_plan_id":"cebpf4jnsgd1na2vs0mg"},{"bike_id":"bc7cab11-b0dd-4a42-9999-31fe6a17dee2","system_id":"levelo_inurba_marseille","lat":43.29838,"lon":5.36261,"is_reserved":false,"is_disabled":false,"rental_uris":{"android":"levelo://app?vid=bc7cab11-b0dd-4a42-9999-31fe6a17dee2","ios":"levelo://app?vid=bc7cab11-b0dd-4a42-9999-31fe6a17dee2"},"vehicle_type_id":"4","last_reported":1727359601,"current_range_meters":36800,"station_id":"ce4bgpp2rcd13ifvqc3g","pricing_plan_id":"cebpf4jnsgd1na2vs0mg"},{"bike_id":"eda8bcde-5e1d-4538-802b-7a2e14d9f52d","system_id":"levelo_inurba_marseille","lat":43.22926,"lon":5.3537,"is_reserved":false,"is_disabled":false,"rental_uris":{"android":"levelo://app?vid=eda8bcde-5e1d-4538-802b-7a2e14d9f52d","ios":"levelo://app?vid=eda8bcde-5e1d-4538-802b-7a2e14d9f52d"},"vehicle_type_id":"4","last_reported":1727359601,"current_range_meters":22000,"station_id":"cpo3532slgdg3j2ikp40","pricing_plan_id":"cebpf4jnsgd1na2vs0mg"},{"bike_id":"1e6b0c16-c6ca-44c3-8633-a751ebbb6842","system_id":"levelo_inurba_marseille","lat":43.28613,"lon":5.37058,"is_reserved":false,"is_disabled":false,"rental_uris":{"android":"levelo://app?vid=1e6b0c16-c6ca-44c3-8633-a751ebbb6842","ios":"levelo://app?vid=1e6b0c16-c6ca-44c3-8633-a751ebbb6842"},"vehicle_type_id":"4","last_reported":1727359601,"current_range_meters":30800,"station_id":"ce4bht12rcd13ifvqi60","pricing_plan_id":"cebpf4jnsgd1na2vs0mg"},{"bike_id":"a9f4abc7-ff29-4ae4-b430-dc4ec5696dcd","system_id":"levelo_inurba_marseille","lat":43.27383,"lon":5.3625,"is_reserved":false,"is_disabled":false,"rental_uris":{"android":"levelo://app?vid=a9f4abc7-ff29-4ae4-b430-dc4ec5696dcd","ios":"levelo://app?vid=a9f4abc7-ff29-4ae4-b430-dc4ec5696dcd"},"vehicle_type_id":"4","last_reported":1727359601,"current_range_meters":36800,"station_id":"ce4bhbh2rcd13ifvqeo0","pricing_plan_id":"cebpf4jnsgd1na2vs0mg"},{"bike_id":"7e06aaaa-a3eb-45f3-b488-d847eb00575d","system_id":"levelo_inurba_marseille","lat":43.30528,"lon":5.36535,"is_reserved":false,"is_disabled":false,"rental_uris":{"android":"levelo://app?vid=7e06aaaa-a3eb-45f3-b488-d847eb00575d","ios":"levelo://app?vid=7e06aaaa-a3eb-45f3-b488-d847eb00575d"},"vehicle_type_id":"4","last_reported":1727359601,"current_range_meters":40000,"station_id":"ce4bgs12rcd13ifvqcag","pricing_plan_id":"cebpf4jnsgd1na2vs0mg"},{"bike_id":"80b47960-913f-41dd-92b6-b416a7ba96d1","system_id":"levelo_inurba_marseille","lat":43.30905,"lon":5.36853,"is_reserved":false,"is_disabled":false,"rental_uris":{"android":"levelo://app?vid=80b47960-913f-41dd-92b6-b416a7ba96d1","ios":"levelo://app?vid=80b47960-913f-41dd-92b6-b416a7ba96d1"},"vehicle_type_id":"4","last_reported":1727359601,"current_range_meters":36000,"station_id":"ce4bgn92rcd13ifvqbvg","pricing_plan_id":"cebpf4jnsgd1na2vs0mg"},{"bike_id":"5c3cb5c2-8e11-4b83-b6b1-5eca19c91d5a","system_id":"levelo_inurba_marseille","lat":43.27428,"lon":5.39423,"is_reserved":false,"is_disabled":false,"rental_uris":{"android":"levelo://app?vid=5c3cb5c2-8e11-4b83-b6b1-5eca19c91d5a","ios":"levelo://app?vid=5c3cb5c2-8e11-4b83-b6b1-5eca19c91d5a"},"vehicle_type_id":"4","last_reported":1727359601,"current_range_meters":27200,"station_id":"ce4bhdp2rcd13ifvqf20","pricing_plan_id":"cebpf4jnsgd1na2vs0mg"},{"bike_id":"b0edbbbb-ef0a-4a65-bb38-113ac03cbfc7","system_id":"levelo_inurba_marseille","lat":43.29796,"lon":5.38145,"is_reserved":false,"is_disabled":false,"rental_uris":{"android":"levelo://app?vid=b0edbbbb-ef0a-4a65-bb38-113ac03cbfc7","ios":"levelo://app?vid=b0edbbbb-ef0a-4a65-bb38-113ac03cbfc7"},"vehicle_type_id":"4","last_reported":1727359601,"current_range_meters":25200,"station_id":"ce4bgip2rcd13ifvqbb0","pricing_plan_id":"cebpf4jnsgd1na2vs0mg"},{"bike_id":"ce4aec21-58a7-4dcf-b51a-c58b50377e34","system_id":"levelo_inurba_marseille","lat":43.31223,"lon":5.36851,"is_reserved":false,"is_disabled":false,"rental_uris":{"android":"levelo://app?vid=ce4aec21-58a7-4dcf-b51a-c58b50377e34","ios":"levelo://app?vid=ce4aec21-58a7-4dcf-b51a-c58b50377e34"},"vehicle_type_id":"4","last_reported":1727359601,"current_range_meters":22400,"station_id":"ce4bgl92rcd13ifvqbq0","pricing_plan_id":"cebpf4jnsgd1na2vs0mg"},{"bike_id":"16d3bf1b-cf12-4501-adb9-064386d78a4b","system_id":"levelo_inurba_marseille","lat":43.24077,"lon":5.37737,"is_reserved":false,"is_disabled":false,"rental_uris":{"android":"levelo://app?vid=16d3bf1b-cf12-4501-adb9-064386d78a4b","ios":"levelo://app?vid=16d3bf1b-cf12-4501-adb9-064386d78a4b"},"vehicle_type_id":"4","last_reported":1727359601,"current_range_meters":4400,"station_id":"ce4bhnp2rcd13ifvqgvg","pricing_plan_id":"cebpf4jnsgd1na2vs0mg"},{"bike_id":"1fafca9e-1bf4-4b8b-a9f6-2ea0b5022f94","system_id":"levelo_inurba_marseille","lat":43.23195,"lon":5.35553,"is_reserved":false,"is_disabled":false,"rental_uris":{"android":"levelo://app?vid=1fafca9e-1bf4-4b8b-a9f6-2ea0b5022f94","ios":"levelo://app?vid=1fafca9e-1bf4-4b8b-a9f6-2ea0b5022f94"},"vehicle_type_id":"4","last_reported":1727359601,"current_range_meters":28400,"station_id":"ce4bhu92rcd13ifvqi70","pricing_plan_id":"cebpf4jnsgd1na2vs0mg"},{"bike_id":"84b7c5b4-b330-4324-a7f3-5180052b8b2e","system_id":"levelo_inurba_marseille","lat":43.26195,"lon":5.37445,"is_reserved":false,"is_disabled":false,"rental_uris":{"android":"levelo://app?vid=84b7c5b4-b330-4324-a7f3-5180052b8b2e","ios":"levelo://app?vid=84b7c5b4-b330-4324-a7f3-5180052b8b2e"},"vehicle_type_id":"4","last_reported":1727359601,"current_range_meters":26800,"station_id":"ce4bhgp2rcd13ifvqfc0","pricing_plan_id":"cebpf4jnsgd1na2vs0mg"},{"bike_id":"cccc3291-b348-4755-9eaa-5ef0639cd89f","system_id":"levelo_inurba_marseille","lat":43.25937,"lon":5.40913,"is_reserved":false,"is_disabled":false,"rental_uris":{"android":"levelo://app?vid=cccc3291-b348-4755-9eaa-5ef0639cd89f","ios":"levelo://app?vid=cccc3291-b348-4755-9eaa-5ef0639cd89f"},"vehicle_type_id":"4","last_reported":1727359601,"current_range_meters":14000,"station_id":"ce4bhm92rcd13ifvqglg","pricing_plan_id":"cebpf4jnsgd1na2vs0mg"},{"bike_id":"ba38bcd1-bd50-4efc-a818-42acb1c9bf75","system_id":"levelo_inurba_marseille","lat":43.31166,"lon":5.38719,"is_reserved":false,"is_disabled":false,"rental_uris":{"android":"levelo://app?vid=ba38bcd1-bd50-4efc-a818-42acb1c9bf75","ios":"levelo://app?vid=ba38bcd1-bd50-4efc-a818-42acb1c9bf75"},"vehicle_type_id":"4","last_reported":1727359601,"current_range_meters":16000,"station_id":"ce4bgv12rcd13ifvqcp0","pricing_plan_id":"cebpf4jnsgd1na2vs0mg"},{"bike_id":"26bd3a05-d57c-4b9a-8414-dd13781228a9","system_id":"levelo_inurba_marseille","lat":43.26555,"lon":5.37288,"is_reserved":false,"is_disabled":false,"rental_uris":{"android":"levelo://app?vid=26bd3a05-d57c-4b9a-8414-dd13781228a9","ios":"levelo://app?vid=26bd3a05-d57c-4b9a-8414-dd13781228a9"},"vehicle_type_id":"4","last_reported":1727359601,"current_range_meters":36400,"station_id":"ce4bhg12rcd13ifvqf70","pricing_plan_id":"cebpf4jnsgd1na2vs0mg"},{"bike_id":"1f4162d7-3cd5-4a3c-a557-f5d64a7bd417","system_id":"levelo_inurba_marseille","lat":43.32486,"lon":5.3656,"is_reserved":false,"is_disabled":false,"rental_uris":{"android":"levelo://app?vid=1f4162d7-3cd5-4a3c-a557-f5d64a7bd417","ios":"levelo://app?vid=1f4162d7-3cd5-4a3c-a557-f5d64a7bd417"},"vehicle_type_id":"4","last_reported":1727359601,"current_range_meters":24000,"station_id":"ce4bhs12rcd13ifvqhvg","pricing_plan_id":"cebpf4jnsgd1na2vs0mg"},{"bike_id":"e2485b72-cd25-4817-80d2-10b83d96ecff","system_id":"levelo_inurba_marseille","lat":43.29911,"lon":5.37463,"is_reserved":false,"is_disabled":false,"rental_uris":{"android":"levelo://app?vid=e2485b72-cd25-4817-80d2-10b83d96ecff","ios":"levelo://app?vid=e2485b72-cd25-4817-80d2-10b83d96ecff"},"vehicle_type_id":"4","last_reported":1727359601,"current_range_meters":38000,"station_id":"ce4bgjh2rcd13ifvqbg0","pricing_plan_id":"cebpf4jnsgd1na2vs0mg"},{"bike_id":"fc09ae45-1afc-4cd0-a841-ed2588645d04","system_id":"levelo_inurba_marseille","lat":43.27618,"lon":5.39476,"is_reserved":false,"is_disabled":false,"rental_uris":{"android":"levelo://app?vid=fc09ae45-1afc-4cd0-a841-ed2588645d04","ios":"levelo://app?vid=fc09ae45-1afc-4cd0-a841-ed2588645d04"},"vehicle_type_id":"4","last_reported":1727359601,"current_range_meters":25200,"station_id":"ce4bha92rcd13ifvqeg0","pricing_plan_id":"cebpf4jnsgd1na2vs0mg"},{"bike_id":"6c1fda78-a27a-41ea-9d99-03a440f5f874","system_id":"levelo_inurba_marseille","lat":43.230767,"lon":5.354996,"is_reserved":false,"is_disabled":false,"rental_uris":{"android":"levelo://app?vid=6c1fda78-a27a-41ea-9d99-03a440f5f874","ios":"levelo://app?vid=6c1fda78-a27a-41ea-9d99-03a440f5f874"},"vehicle_type_id":"4","last_reported":1727359601,"current_range_meters":2800,"station_id":"cpo3342slgdg3j2ifvpg","pricing_plan_id":"cebpf4jnsgd1na2vs0mg"},{"bike_id":"9560daa0-c4e3-4ff9-8735-b7bf5fec25a2","system_id":"levelo_inurba_marseille","lat":43.3377,"lon":5.37479,"is_reserved":false,"is_disabled":false,"rental_uris":{"android":"levelo://app?vid=9560daa0-c4e3-4ff9-8735-b7bf5fec25a2","ios":"levelo://app?vid=9560daa0-c4e3-4ff9-8735-b7bf5fec25a2"},"vehicle_type_id":"4","last_reported":1727359601,"current_range_meters":7200,"station_id":"ce4bhg12rcd13ifvqf80","pricing_plan_id":"cebpf4jnsgd1na2vs0mg"},{"bike_id":"50d7281d-7387-429d-9116-09dcb1a57333","system_id":"levelo_inurba_marseille","lat":43.33729,"lon":5.3744,"is_reserved":false,"is_disabled":false,"rental_uris":{"android":"levelo://app?vid=50d7281d-7387-429d-9116-09dcb1a57333","ios":"levelo://app?vid=50d7281d-7387-429d-9116-09dcb1a57333"},"vehicle_type_id":"4","last_reported":1727359601,"current_range_meters":32000,"station_id":"","pricing_plan_id":"cebpf4jnsgd1na2vs0mg"},{"bike_id":"a0ca5ccb-3588-488d-9fc5-9fa10f2f835e","system_id":"levelo_inurba_marseille","lat":43.29896,"lon":5.43657,"is_reserved":false,"is_disabled":false,"rental_uris":{"android":"levelo://app?vid=a0ca5ccb-3588-488d-9fc5-9fa10f2f835e","ios":"levelo://app?vid=a0ca5ccb-3588-488d-9fc5-9fa10f2f835e"},"vehicle_type_id":"4","last_reported":1727359601,"current_range_meters":27600,"station_id":"ce4bhpp2rcd13ifvqhfg","pricing_plan_id":"cebpf4jnsgd1na2vs0mg"},{"bike_id":"9959c944-9953-4493-a155-98d7443d1be6","system_id":"levelo_inurba_marseille","lat":43.32481,"lon":5.36569,"is_reserved":false,"is_disabled":false,"rental_uris":{"android":"levelo://app?vid=9959c944-9953-4493-a155-98d7443d1be6","ios":"levelo://app?vid=9959c944-9953-4493-a155-98d7443d1be6"},"vehicle_type_id":"4","last_reported":1727359601,"current_range_meters":11600,"station_id":"ce4bhs12rcd13ifvqhvg","pricing_plan_id":"cebpf4jnsgd1na2vs0mg"},{"bike_id":"0bee6b5c-006d-4798-9722-44dc0da47dea","system_id":"levelo_inurba_marseille","lat":43.2827,"lon":5.35077,"is_reserved":false,"is_disabled":false,"rental_uris":{"android":"levelo://app?vid=0bee6b5c-006d-4798-9722-44dc0da47dea","ios":"levelo://app?vid=0bee6b5c-006d-4798-9722-44dc0da47dea"},"vehicle_type_id":"4","last_reported":1727359601,"current_range_meters":16400,"station_id":"ce4bhbp2rcd13ifvqerg","pricing_plan_id":"cebpf4jnsgd1na2vs0mg"},{"bike_id":"f2cb862f-f97c-4ea4-bbb8-e16845a57bbd","system_id":"levelo_inurba_marseille","lat":43.32481,"lon":5.36563,"is_reserved":false,"is_disabled":false,"rental_uris":{"android":"levelo://app?vid=f2cb862f-f97c-4ea4-bbb8-e16845a57bbd","ios":"levelo://app?vid=f2cb862f-f97c-4ea4-bbb8-e16845a57bbd"},"vehicle_type_id":"4","last_reported":1727359601,"current_range_meters":37600,"station_id":"ce4bhs12rcd13ifvqhvg","pricing_plan_id":"cebpf4jnsgd1na2vs0mg"},{"bike_id":"b35a9017-0b6e-4759-a530-01a91d066ca9","system_id":"levelo_inurba_marseille","lat":43.26039,"lon":5.37541,"is_reserved":false,"is_disabled":false,"rental_uris":{"android":"levelo://app?vid=b35a9017-0b6e-4759-a530-01a91d066ca9","ios":"levelo://app?vid=b35a9017-0b6e-4759-a530-01a91d066ca9"},"vehicle_type_id":"4","last_reported":1727359601,"current_range_meters":9200,"station_id":"ce4bhgh2rcd13ifvqfa0","pricing_plan_id":"cebpf4jnsgd1na2vs0mg"},{"bike_id":"e434e1eb-f6f3-483c-ba1c-144de6a03324","system_id":"levelo_inurba_marseille","lat":43.30613,"lon":5.37232,"is_reserved":false,"is_disabled":false,"rental_uris":{"android":"levelo://app?vid=e434e1eb-f6f3-483c-ba1c-144de6a03324","ios":"levelo://app?vid=e434e1eb-f6f3-483c-ba1c-144de6a03324"},"vehicle_type_id":"4","last_reported":1727359601,"current_range_meters":38800,"station_id":"ce4bgqh2rcd13ifvqc4g","pricing_plan_id":"cebpf4jnsgd1na2vs0mg"},{"bike_id":"2892e1f9-2e28-4d00-9857-8b3388c09db5","system_id":"levelo_inurba_marseille","lat":43.33026,"lon":5.39035,"is_reserved":false,"is_disabled":false,"rental_uris":{"android":"levelo://app?vid=2892e1f9-2e28-4d00-9857-8b3388c09db5","ios":"levelo://app?vid=2892e1f9-2e28-4d00-9857-8b3388c09db5"},"vehicle_type_id":"4","last_reported":1727359601,"current_range_meters":14800,"station_id":"ce4bhr92rcd13ifvqhrg","pricing_plan_id":"cebpf4jnsgd1na2vs0mg"},{"bike_id":"571c23f9-84b8-4dea-b2bc-06f7588d01ff","system_id":"levelo_inurba_marseille","lat":43.26805,"lon":5.40265,"is_reserved":false,"is_disabled":false,"rental_uris":{"android":"levelo://app?vid=571c23f9-84b8-4dea-b2bc-06f7588d01ff","ios":"levelo://app?vid=571c23f9-84b8-4dea-b2bc-06f7588d01ff"},"vehicle_type_id":"4","last_reported":1727359601,"current_range_meters":18800,"station_id":"ce501612rcd8frsf0b60","pricing_plan_id":"cebpf4jnsgd1na2vs0mg"},{"bike_id":"6bb7ac4a-8eae-4dbf-9d31-4d38da99139e","system_id":"levelo_inurba_marseille","lat":43.26193,"lon":5.37449,"is_reserved":false,"is_disabled":false,"rental_uris":{"android":"levelo://app?vid=6bb7ac4a-8eae-4dbf-9d31-4d38da99139e","ios":"levelo://app?vid=6bb7ac4a-8eae-4dbf-9d31-4d38da99139e"},"vehicle_type_id":"4","last_reported":1727359601,"current_range_meters":12800,"station_id":"ce4bhgp2rcd13ifvqfc0","pricing_plan_id":"cebpf4jnsgd1na2vs0mg"},{"bike_id":"574fcece-6598-4460-bc07-1110205a4b10","system_id":"levelo_inurba_marseille","lat":43.26559,"lon":5.37283,"is_reserved":false,"is_disabled":false,"rental_uris":{"android":"levelo://app?vid=574fcece-6598-4460-bc07-1110205a4b10","ios":"levelo://app?vid=574fcece-6598-4460-bc07-1110205a4b10"},"vehicle_type_id":"4","last_reported":1727359601,"current_range_meters":24400,"station_id":"ce4bhg12rcd13ifvqf70","pricing_plan_id":"cebpf4jnsgd1na2vs0mg"},{"bike_id":"d6e0c4a3-9804-46b9-a295-0df9259f4e20","system_id":"levelo_inurba_marseille","lat":43.30808,"lon":5.37334,"is_reserved":false,"is_disabled":false,"rental_uris":{"android":"levelo://app?vid=d6e0c4a3-9804-46b9-a295-0df9259f4e20","ios":"levelo://app?vid=d6e0c4a3-9804-46b9-a295-0df9259f4e20"},"vehicle_type_id":"4","last_reported":1727359601,"current_range_meters":32000,"station_id":"","pricing_plan_id":"cebpf4jnsgd1na2vs0mg"},{"bike_id":"aae98c2b-e2df-46a7-aea8-ce7534f7f458","system_id":"levelo_inurba_marseille","lat":43.29787,"lon":5.37106,"is_reserved":false,"is_disabled":false,"rental_uris":{"android":"levelo://app?vid=aae98c2b-e2df-46a7-aea8-ce7534f7f458","ios":"levelo://app?vid=aae98c2b-e2df-46a7-aea8-ce7534f7f458"},"vehicle_type_id":"4","last_reported":1727359601,"current_range_meters":38800,"station_id":"ce4bgop2rcd13ifvqc1g","pricing_plan_id":"cebpf4jnsgd1na2vs0mg"},