{"last_updated":1730657541,"ttl":60,"version":"2.2","data":{"bikes":[{"bike_id":"daa5500f-6039-4d77-bf02-00710b3acec6","system_id":"levelo_inurba_marseille","lat":43.2593,"lon":5.40909,"is_reserved":false,"is_disabled":false,"rental_uris":{"android":"levelo://app?vid=daa5500f-6039-4d77-bf02-00710b3acec6","ios":"levelo://app?vid=daa5500f-6039-4d77-bf02-00710b3acec6"},"vehicle_type_id":"4","last_reported":1730657541,"current_range_meters":3600,"station_id":"ce4bhm92rcd13ifvqglg","pricing_plan_id":"cebpf4jnsgd1na2vs0mg"},{"bike_id":"18db7a38-fb1c-4f2b-a7d3-41ca5532cc0b","system_id":"levelo_inurba_marseille","lat":43.32333,"lon":5.40622,"is_reserved":false,"is_disabled":false,"rental_uris":{"android":"levelo://app?vid=18db7a38-fb1c-4f2b-a7d3-41ca5532cc0b","ios":"levelo://app?vid=18db7a38-fb1c-4f2b-a7d3-41ca5532cc0b"},"vehicle_type_id":"4","last_reported":1730657541,"current_range_meters":17200,"station_id":"ce4bhq92rcd13ifvqhjg","pricing_plan_id":"cebpf4jnsgd1na2vs0mg"},{"bike_id":"9a615e3b-e7c3-4a82-9ab2-1b5377f93530","system_id":"levelo_inurba_marseille","lat":43.30239,"lon":5.40063,"is_reserved":false,"is_disabled":false,"rental_uris":{"android":"levelo://app?vid=9a615e3b-e7c3-4a82-9ab2-1b5377f93530","ios":"levelo://app?vid=9a615e3b-e7c3-4a82-9ab2-1b5377f93530"},"vehicle_type_id":"4","last_reported":1730657541,"current_range_meters":5600,"station_id":"ce4bgvh2rcd13ifvqcs0","pricing_plan_id":"cebpf4jnsgd1na2vs0mg"},{"bike_id":"d00abb61-0e57-498d-9b2a-8beda63b6fef","system_id":"levelo_inurba_marseille","lat":43.30878,"lon":5.39637,"is_reserved":false,"is_disabled":false,"rental_uris":{"android":"levelo://app?vid=d00abb61-0e57-498d-9b2a-8beda63b6fef","ios":"levelo://app?vid=d00abb61-0e57-498d-9b2a-8beda63b6fef"},"vehicle_type_id":"4","last_reported":1730657541,"current_range_meters":7200,"station_id":"ce4bh012rcd13ifvqcv0","pricing_plan_id":"cebpf4jnsgd1na2vs0mg"},{"bike_id":"8c2cc48d-9ab8-4fc0-82ef-7cafd31d7aa7","system_id":"levelo_inurba_marseille","lat":43.32482,"lon":5.36563,"is_reserved":false,"is_disabled":false,"rental_uris":{"android":"levelo://app?vid=8c2cc48d-9ab8-4fc0-82ef-7cafd31d7aa7","ios":"levelo://app?vid=8c2cc48d-9ab8-4fc0-82ef-7cafd31d7aa7"},"vehicle_type_id":"4","last_reported":1730657541,"current_range_meters":17200,"station_id":"ce4bhs12rcd13ifvqhvg","pricing_plan_id":"cebpf4jnsgd1na2vs0mg"},{"bike_id":"d4f7932b-d761-4326-9cff-9c82279d5a46","system_id":"levelo_inurba_marseille","lat":43.27428,"lon":5.39413,"is_reserved":false,"is_disabled":false,"rental_uris":{"android":"levelo://app?vid=d4f7932b-d761-4326-9cff-9c82279d5a46","ios":"levelo://app?vid=d4f7932b-d761-4326-9cff-9c82279d5a46"},"vehicle_type_id":"4","last_reported":1730657541,"current_range_meters":3600,"station_id":"ce4bhdp2rcd13ifvqf20","pricing_plan_id":"cebpf4jnsgd1na2vs0mg"},{"bike_id":"05f17640-6436-445c-b92c-2c9098755b3c","system_id":"levelo_inurba_marseille","lat":43.29516,"lon":5.3941,"is_reserved":false,"is_disabled":false,"rental_uris":{"android":"levelo://app?vid=05f17640-6436-445c-b92c-2c9098755b3c","ios":"levelo://app?vid=05f17640-6436-445c-b92c-2c9098755b3c"},"vehicle_type_id":"4","last_reported":1730657541,"current_range_meters":38800,"station_id":"ce4bh292rcd13ifvqdf0","pricing_plan_id":"cebpf4jnsgd1na2vs0mg"},{"bike_id":"1400481a-d64a-45f2-94ac-6b422dab62e4","system_id":"levelo_inurba_marseille","lat":43.31327,"lon":5.39691,"is_reserved":false,"is_disabled":false,"rental_uris":{"android":"levelo://app?vid=1400481a-d64a-45f2-94ac-6b422dab62e4","ios":"levelo://app?vid=1400481a-d64a-45f2-94ac-6b422dab62e4"},"vehicle_type_id":"4","last_reported":1730657541,"current_range_meters":25600,"station_id":"ce4bgvp2rcd13ifvqcu0","pricing_plan_id":"cebpf4jnsgd1na2vs0mg"},{"bike_id":"32893162-caac-42e8-9415-c6fefc0ce66f","system_id":"levelo_inurba_marseille","lat":43.29098,"lon":5.3815,"is_reserved":false,"is_disabled":false,"rental_uris":{"android":"levelo://app?vid=32893162-caac-42e8-9415-c6fefc0ce66f","ios":"levelo://app?vid=32893162-caac-42e8-9415-c6fefc0ce66f"},"vehicle_type_id":"4","last_reported":1730657541,"current_range_meters":11200,"station_id":"ce4bh512rcd13ifvqe2g","pricing_plan_id":"cebpf4jnsgd1na2vs0mg"},{"bike_id":"fcd81767-2dc7-4408-b5a4-0eadcf4a175a","system_id":"levelo_inurba_marseille","lat":43.31752,"lon":5.39019,"is_reserved":false,"is_disabled":false,"rental_uris":{"android":"levelo://app?vid=fcd81767-2dc7-4408-b5a4-0eadcf4a175a","ios":"levelo://app?vid=fcd81767-2dc7-4408-b5a4-0eadcf4a175a"},"vehicle_type_id":"4","last_reported":1730657541,"current_range_meters":24400,"station_id":"ce4bhqp2rcd13ifvqhng","pricing_plan_id":"cebpf4jnsgd1na2vs0mg"},{"bike_id":"fedd5f85-de8d-4c86-b202-c74d324cf0ff","system_id":"levelo_inurba_marseille","lat":43.29024,"lon":5.38649,"is_reserved":false,"is_disabled":false,"rental_uris":{"android":"levelo://app?vid=fedd5f85-de8d-4c86-b202-c74d324cf0ff","ios":"levelo://app?vid=fedd5f85-de8d-4c86-b202-c74d324cf0ff"},"vehicle_type_id":"4","last_reported":1730657541,"current_range_meters":38800,"station_id":"ce4bh4p2rcd13ifvqe0g","pricing_plan_id":"cebpf4jnsgd1na2vs0mg"},{"bike_id":"73564a58-50d3-4fe7-bbd0-7a67bc1c49bc","system_id":"levelo_inurba_marseille","lat":43.305835,"lon":5.393525,"is_reserved":false,"is_disabled":false,"rental_uris":{"android":"levelo://app?vid=73564a58-50d3-4fe7-bbd0-7a67bc1c49bc","ios":"levelo://app?vid=73564a58-50d3-4fe7-bbd0-7a67bc1c49bc"},"vehicle_type_id":"4","last_reported":1730657541,"current_range_meters":30400,"station_id":"ce4bh0p2rcd13ifvqd80","pricing_plan_id":"cebpf4jnsgd1na2vs0mg"},{"bike_id":"f000d6ee-3311-4e0f-8f93-4332274a3604","system_id":"levelo_inurba_marseille","lat":43.25829,"lon":5.39435,"is_reserved":false,"is_disabled":false,"rental_uris":{"android":"levelo://app?vid=f000d6ee-3311-4e0f-8f93-4332274a3604","ios":"levelo://app?vid=f000d6ee-3311-4e0f-8f93-4332274a3604"},"vehicle_type_id":"4","last_reported":1730657541,"current_range_meters":38800,"station_id":"ce4bhip2rcd13ifvqft0","pricing_plan_id":"cebpf4jnsgd1na2vs0mg"},{"bike_id":"19886e9f-0ec1-498f-9056-d1c6cd79ceb0","system_id":"levelo_inurba_marseille","lat":43.26494,"lon":5.39545,"is_reserved":false,"is_disabled":false,"rental_uris":{"android":"levelo://app?vid=19886e9f-0ec1-498f-9056-d1c6cd79ceb0","ios":"levelo://app?vid=19886e9f-0ec1-498f-9056-d1c6cd79ceb0"},"vehicle_type_id":"4","last_reported":1730657541,"current_range_meters":22800,"station_id":"ce4bhi12rcd13ifvqfq0","pricing_plan_id":"cebpf4jnsgd1na2vs0mg"},{"bike_id":"1005ecc8-e01c-42a4-9d8c-5b48687db3e5","system_id":"levelo_inurba_marseille","lat":43.26575,"lon":5.39022,"is_reserved":false,"is_disabled":false,"rental_uris":{"android":"levelo://app?vid=1005ecc8-e01c-42a4-9d8c-5b48687db3e5","ios":"levelo://app?vid=1005ecc8-e01c-42a4-9d8c-5b48687db3e5"},"vehicle_type_id":"4","last_reported":1730657541,"current_range_meters":17200,"station_id":"ce4bhe12rcd13ifvqf30","pricing_plan_id":"cebpf4jnsgd1na2vs0mg"},{"bike_id":"e11f835a-b6da-49c1-b6d0-06c8fc88ca64","system_id":"levelo_inurba_marseille","lat":43.29976,"lon":5.38508,"is_reserved":false,"is_disabled":false,"rental_uris":{"android":"levelo://app?vid=e11f835a-b6da-49c1-b6d0-06c8fc88ca64","ios":"levelo://app?vid=e11f835a-b6da-49c1-b6d0-06c8fc88ca64"},"vehicle_type_id":"4","last_reported":1730657541,"current_range_meters":31200,"station_id":"ce4bgj92rcd13ifvqbd0","pricing_plan_id":"cebpf4jnsgd1na2vs0mg"},{"bike_id":"4147bbfb-4b14-4aca-b782-8ec6c0473609","system_id":"levelo_inurba_marseille","lat":43.23593,"lon":5.40354,"is_reserved":false,"is_disabled":false,"rental_uris":{"android":"levelo://app?vid=4147bbfb-4b14-4aca-b782-8ec6c0473609","ios":"levelo://app?vid=4147bbfb-4b14-4aca-b782-8ec6c0473609"},"vehicle_type_id":"4","last_reported":1730657541,"current_range_meters":20000,"station_id":"","pricing_plan_id":"cebpf4jnsgd1na2vs0mg"},{"bike_id":"fc7fcdf7-4a47-4ec8-aab9-a0ecec1b3db0","system_id":"levelo_inurba_marseille","lat":43.29032,"lon":5.39979,"is_reserved":false,"is_disabled":false,"rental_uris":{"android":"levelo://app?vid=fc7fcdf7-4a47-4ec8-aab9-a0ecec1b3db0","ios":"levelo://app?vid=fc7fcdf7-4a47-4ec8-aab9-a0ecec1b3db0"},"vehicle_type_id":"4","last_reported":1730657541,"current_range_meters":22000,"station_id":"ce4bh392rcd13ifvqdm0","pricing_plan_id":"cebpf4jnsgd1na2vs0mg"},{"bike_id":"83593258-0698-4401-a54c-06061fe9282d","system_id":"levelo_inurba_marseille","lat":43.28727,"lon":5.36087,"is_reserved":false,"is_disabled":false,"rental_uris":{"android":"levelo://app?vid=83593258-0698-4401-a54c-06061fe9282d","ios":"levelo://app?vid=83593258-0698-4401-a54c-06061fe9282d"},"vehicle_type_id":"4","last_reported":1730657541,"current_range_meters":6000,"station_id":"cki0cbj6b192h4jlfktg","pricing_plan_id":"cebpf4jnsgd1na2vs0mg"},{"bike_id":"7a58bdc6-5db2-4543-b33d-6202d289b688","system_id":"levelo_inurba_marseille","lat":43.33731,"lon":5.39186,"is_reserved":false,"is_disabled":false,"rental_uris":{"android":"levelo://app?vid=7a58bdc6-5db2-4543-b33d-6202d289b688","ios":"levelo://app?vid=7a58bdc6-5db2-4543-b33d-6202d289b688"},"vehicle_type_id":"4","last_reported":1730657541,"current_range_meters":28000,"station_id":"ce4bhr92rcd13ifvqhsg","pricing_plan_id":"cebpf4jnsgd1na2vs0mg"},{"bike_id":"d2396d23-6acb-4d38-bb9c-67e2c81b72a9","system_id":"levelo_inurba_marseille","lat":43.30884,"lon":5.39645,"is_reserved":false,"is_disabled":false,"rental_uris":{"android":"levelo://app?vid=d2396d23-6acb-4d38-bb9c-67e2c81b72a9","ios":"levelo://app?vid=d2396d23-6acb-4d38-bb9c-67e2c81b72a9"},"vehicle_type_id":"4","last_reported":1730657541,"current_range_meters":38000,"station_id":"ce4bh012rcd13ifvqcv0","pricing_plan_id":"cebpf4jnsgd1na2vs0mg"},{"bike_id":"8251c51a-a873-412a-8541-2adfabfbb287","system_id":"levelo_inurba_marseille","lat":43.28269,"lon":5.35065,"is_reserved":false,"is_disabled":false,"rental_uris":{"android":"levelo://app?vid=8251c51a-a873-412a-8541-2adfabfbb287","ios":"levelo://app?vid=8251c51a-a873-412a-8541-2adfabfbb287"},"vehicle_type_id":"4","last_reported":1730657541,"current_range_meters":13600,"station_id":"ce4bhbp2rcd13ifvqerg","pricing_plan_id":"cebpf4jnsgd1na2vs0mg"},{"bike_id":"67b99663-8f9a-4d52-9510-ffb57e10232e","system_id":"levelo_inurba_marseille","lat":43.25869,"lon":5.39899,"is_reserved":false,"is_disabled":false,"rental_uris":{"android":"levelo://app?vid=67b99663-8f9a-4d52-9510-ffb57e10232e","ios":"levelo://app?vid=67b99663-8f9a-4d52-9510-ffb57e10232e"},"vehicle_type_id":"4","last_reported":1730657541,"current_range_meters":12800,"station_id":"ce4bhl92rcd13ifvqghg","pricing_plan_id":"cebpf4jnsgd1na2vs0mg"},{"bike_id":"baea6945-ac3f-4195-a6a4-4b887db0844f","system_id":"levelo_inurba_marseille","lat":43.27074,"lon":5.42288,"is_reserved":false,"is_disabled":false,"rental_uris":{"android":"levelo://app?vid=baea6945-ac3f-4195-a6a4-4b887db0844f","ios":"levelo://app?vid=baea6945-ac3f-4195-a6a4-4b887db0844f"},"vehicle_type_id":"4","last_reported":1730657541,"current_range_meters":28000,"station_id":"ce4bhk92rcd13ifvqgb0","pricing_plan_id":"cebpf4jnsgd1na2vs0mg"},{"bike_id":"598535da-1e32-42e0-bd65-4ba25549dd70","system_id":"levelo_inurba_marseille","lat":43.31455,"lon":5.37375,"is_reserved":false,"is_disabled":false,"rental_uris":{"android":"levelo://app?vid=598535da-1e32-42e0-bd65-4ba25549dd70","ios":"levelo://app?vid=598535da-1e32-42e0-bd65-4ba25549dd70"},"vehicle_type_id":"4","last_reported":1730657541,"current_range_meters":29600,"station_id":"","pricing_plan_id":"cebpf4jnsgd1na2vs0mg"},{"bike_id":"2378f453-72a7-4eb2-ab3b-946285d406fd","system_id":"levelo_inurba_marseille","lat":43.292277,"lon":5.377287,"is_reserved":false,"is_disabled":false,"rental_uris":{"android":"levelo://app?vid=2378f453-72a7-4eb2-ab3b-946285d406fd","ios":"levelo://app?vid=2378f453-72a7-4eb2-ab3b-946285d406fd"},"vehicle_type_id":"4","last_reported":1730657541,"current_range_meters":12000,"station_id":"ce4bgi12rcd13ifvqb70","pricing_plan_id":"cebpf4jnsgd1na2vs0mg"},{"bike_id":"69c5828b-16b5-4e21-9a89-eb78828b437f","system_id":"levelo_inurba_marseille","lat":43.27074,"lon":5.42281,"is_reserved":false,"is_disabled":false,"rental_uris":{"android":"levelo://app?vid=69c5828b-16b5-4e21-9a89-eb78828b437f","ios":"levelo://app?vid=69c5828b-16b5-4e21-9a89-eb78828b437f"},"vehicle_type_id":"4","last_reported":1730657541,"current_range_meters":3600,"station_id":"ce4bhk92rcd13ifvqgb0","pricing_plan_id":"cebpf4jnsgd1na2vs0mg"},{"bike_id":"45e37847-060c-4fbe-958a-f63e7f57fa30","system_id":"levelo_inurba_marseille","lat":43.27069,"lon":5.42277,"is_reserved":false,"is_disabled":false,"rental_uris":{"android":"levelo://app?vid=45e37847-060c-4fbe-958a-f63e7f57fa30","ios":"levelo://app?vid=45e37847-060c-4fbe-958a-f63e7f57fa30"},"vehicle_type_id":"4","last_reported":1730657541,"current_range_meters":24000,"station_id":"ce4bhk92rcd13ifvqgb0","pricing_plan_id":"cebpf4jnsgd1na2vs0mg"},{"bike_id":"9f223478-460e-4c61-b4f2-20e23bd73f46","system_id":"levelo_inurba_marseille","lat":43.2951,"lon":5.39407,"is_reserved":false,"is_disabled":false,"rental_uris":{"android":"levelo://app?vid=9f223478-460e-4c61-b4f2-20e23bd73f46","ios":"levelo://app?vid=9f223478-460e-4c61-b4f2-20e23bd73f46"},"vehicle_type_id":"4","last_reported":1730657541,"current_range_meters":38800,"station_id":"ce4bh292rcd13ifvqdf0","pricing_plan_id":"cebpf4jnsgd1na2vs0mg"},{"bike_id":"008cd7e5-1257-4a85-ad0b-387621462559","system_id":"levelo_inurba_marseille","lat":43.28358,"lon":5.38101,"is_reserved":false,"is_disabled":false,"rental_uris":{"android":"levelo://app?vid=008cd7e5-1257-4a85-ad0b-387621462559","ios":"levelo://app?vid=008cd7e5-1257-4a85-ad0b-387621462559"},"vehicle_type_id":"4","last_reported":1730657541,"current_range_meters":38800,"station_id":"ce4bh412rcd13ifvqdr0","pricing_plan_id":"cebpf4jnsgd1na2vs0mg"},{"bike_id":"c89ab191-b07a-439c-a401-b85e67263211","system_id":"levelo_inurba_marseille","lat":43.28932,"lon":5.38396,"is_reserved":false,"is_disabled":false,"rental_uris":{"android":"levelo://app?vid=c89ab191-b07a-439c-a401-b85e67263211","ios":"levelo://app?vid=c89ab191-b07a-439c-a401-b85e67263211"},"vehicle_type_id":"4","last_reported":1730657541,"current_range_meters":12400,"station_id":"ce4bh612rcd13ifvqe6g","pricing_plan_id":"cebpf4jnsgd1na2vs0mg"},{"bike_id":"e63d72aa-51a3-498d-a39e-f0ad81d08c15","system_id":"levelo_inurba_marseille","lat":43.29515,"lon":5.3941,"is_reserved":false,"is_disabled":false,"rental_uris":{"android":"levelo://app?vid=e63d72aa-51a3-498d-a39e-f0ad81d08c15","ios":"levelo://app?vid=e63d72aa-51a3-498d-a39e-f0ad81d08c15"},"vehicle_type_id":"4","last_reported":1730657541,"current_range_meters":10000,"station_id":"ce4bh292rcd13ifvqdf0","pricing_plan_id":"cebpf4jnsgd1na2vs0mg"},{"bike_id":"4ee74343-9eb1-4b2d-9147-ba26d0f0ae29","system_id":"levelo_inurba_marseille","lat":43.29582,"lon":5.36738,"is_reserved":false,"is_disabled":false,"rental_uris":{"android":"levelo://app?vid=4ee74343-9eb1-4b2d-9147-ba26d0f0ae29","ios":"levelo://app?vid=4ee74343-9eb1-4b2d-9147-ba26d0f0ae29"},"vehicle_type_id":"4","last_reported":1730657541,"current_range_meters":31200,"station_id":"ce4bgph2rcd13ifvqc2g","pricing_plan_id":"cebpf4jnsgd1na2vs0mg"},{"bike_id":"a90da372-14a2-4c12-9544-f51bf7459731","system_id":"levelo_inurba_marseille","lat":43.30254,"lon":5.40069,"is_reserved":false,"is_disabled":false,"rental_uris":{"android":"levelo://app?vid=a90da372-14a2-4c12-9544-f51bf7459731","ios":"levelo://app?vid=a90da372-14a2-4c12-9544-f51bf7459731"},"vehicle_type_id":"4","last_reported":1730657541,"current_range_meters":6400,"station_id":"ce4bgvh2rcd13ifvqcs0","pricing_plan_id":"cebpf4jnsgd1na2vs0mg"},{"bike_id":"31e8f71b-a670-474a-a1c8-071c59dd8a5b","system_id":"levelo_inurba_marseille","lat":43.2953,"lon":5.3854,"is_reserved":false,"is_disabled":false,"rental_uris":{"android":"levelo://app?vid=31e8f71b-a670-474a-a1c8-071c59dd8a5b","ios":"levelo://app?vid=31e8f71b-a670-474a-a1c8-071c59dd8a5b"},"vehicle_type_id":"4","last_reported":1730657541,"current_range_meters":40000,"station_id":"ce4bgih2rcd13ifvqba0","pricing_plan_id":"cebpf4jnsgd1na2vs0mg"},{"bike_id":"34f52705-d050-4a27-9883-7bda5b9be2b1","system_id":"levelo_inurba_marseille","lat":43.29869,"lon":5.39741,"is_reserved":false,"is_disabled":false,"rental_uris":{"android":"levelo://app?vid=34f52705-d050-4a27-9883-7bda5b9be2b1","ios":"levelo://app?vid=34f52705-d050-4a27-9883-7bda5b9be2b1"},"vehicle_type_id":"4","last_reported":1730657541,"current_range_meters":30000,"station_id":"ce4bh0h2rcd13ifvqd50","pricing_plan_id":"cebpf4jnsgd1na2vs0mg"},{"bike_id":"f68d6ab6-0cbd-4906-8d60-90f638c68796","system_id":"levelo_inurba_marseille","lat":43.26799,"lon":5.39416,"is_reserved":false,"is_disabled":false,"rental_uris":{"android":"levelo://app?vid=f68d6ab6-0cbd-4906-8d60-90f638c68796","ios":"levelo://app?vid=f68d6ab6-0cbd-4906-8d60-90f638c68796"},"vehicle_type_id":"4","last_reported":1730657541,"current_range_meters":38000,"station_id":"ce4bhh12rcd13ifvqfg0","pricing_plan_id":"cebpf4jnsgd1na2vs0mg"},{"bike_id":"e9a8bfc0-6dfb-4354-a7f9-ceacffb93888","system_id":"levelo_inurba_marseille","lat":43.29405,"lon":5.38618,"is_reserved":false,"is_disabled":false,"rental_uris":{"android":"levelo://app?vid=e9a8bfc0-6dfb-4354-a7f9-ceacffb93888","ios":"levelo://app?vid=e9a8bfc0-6dfb-4354-a7f9-ceacffb93888"},"vehicle_type_id":"4","last_reported":1730657541,"current_range_meters":22800,"station_id":"ce4bh2h2rcd13ifvqdh0","pricing_plan_id":"cebpf4jnsgd1na2vs0mg"},{"bike_id":"75576e24-6890-4288-9aa5-db2804891d6f","system_id":"levelo_inurba_marseille","lat":43.26945,"lon":5.40251,"is_reserved":false,"is_disabled":false,"rental_uris":{"android":"levelo://app?vid=75576e24-6890-4288-9aa5-db2804891d6f","ios":"levelo://app?vid=75576e24-6890-4288-9aa5-db2804891d6f"},"vehicle_type_id":"4","last_reported":1730657541,"current_range_meters":37600,"station_id":"cjm6bp8fraef2m0cb0m0","pricing_plan_id":"cebpf4jnsgd1na2vs0mg"},{"bike_id":"54337fac-085e-4782-bad6-db9a84abd2e2","system_id":"levelo_inurba_marseille","lat":43.3171,"lon":5.3776,"is_reserved":false,"is_disabled":false,"rental_uris":{"android":"levelo://app?vid=54337fac-085e-4782-bad6-db9a84abd2e2","ios":"levelo://app?vid=54337fac-085e-4782-bad6-db9a84abd2e2"},"vehicle_type_id":"4","last_reported":1730657541,"current_range_meters":38800,"station_id":"ce4bgth2rcd13ifvqch0","pricing_plan_id":"cebpf4jnsgd1na2vs0mg"},{"bike_id":"b4ed762d-1217-45d0-88fa-028a16b0a9d4","system_id":"levelo_inurba_marseille","lat":43.30612,"lon":5.37215,"is_reserved":false,"is_disabled":false,"rental_uris":{"android":"levelo://app?vid=b4ed762d-1217-45d0-88fa-028a16b0a9d4","ios":"levelo://app?vid=b4ed762d-1217-45d0-88fa-028a16b0a9d4"},"vehicle_type_id":"4","last_reported":1730657541,"current_range_meters":36400,"station_id":"ce4bgqh2rcd13ifvqc4g","pricing_plan_id":"cebpf4jnsgd1na2vs0mg"},{"bike_id":"272c9abf-a133-4324-9208-08b126787068","system_id":"levelo_inurba_marseille","lat":43.27906,"lon":5.38019,"is_reserved":false,"is_disabled":false,"rental_uris":{"android":"levelo://app?vid=272c9abf-a133-4324-9208-08b126787068","ios":"levelo://app?vid=272c9abf-a133-4324-9208-08b126787068"},"vehicle_type_id":"4","last_reported":1730657541,"current_range_meters":38000,"station_id":"ce4bhf92rcd13ifvqf50","pricing_plan_id":"cebpf4jnsgd1na2vs0mg"},{"bike_id":"a9e32352-0ca8-4535-87fc-d3cfff86084b","system_id":"levelo_inurba_marseille","lat":43.32478,"lon":5.36568,"is_reserved":false,"is_disabled":false,"rental_uris":{"android":"levelo://app?vid=a9e32352-0ca8-4535-87fc-d3cfff86084b","ios":"levelo://app?vid=a9e32352-0ca8-4535-87fc-d3cfff86084b"},"vehicle_type_id":"4","last_reported":1730657541,"current_range_meters":32400,"station_id":"ce4bhs12rcd13ifvqhvg","pricing_plan_id":"cebpf4jnsgd1na2vs0mg"},{"bike_id":"7fa9e0db-d5db-4e00-9bab-71088473e9a3","system_id":"levelo_inurba_marseille","lat":43.28345,"lon":5.38106,"is_reserved":false,"is_disabled":false,"rental_uris":{"android":"levelo://app?vid=7fa9e0db-d5db-4e00-9bab-71088473e9a3","ios":"levelo://app?vid=7fa9e0db-d5db-4e00-9bab-71088473e9a3"},"vehicle_type_id":"4","last_reported":1730657541,"current_range_meters":33600,"station_id":"ce4bh412rcd13ifvqdr0","pricing_plan_id":"cebpf4jnsgd1na2vs0mg"},{"bike_id":"120af6d8-573e-4789-9f80-c72201eddb92","system_id":"levelo_inurba_marseille","lat":43.27423,"lon":5.39413,"is_reserved":false,"is_disabled":false,"rental_uris":{"android":"levelo://app?vid=120af6d8-573e-4789-9f80-c72201eddb92","ios":"levelo://app?vid=120af6d8-573e-4789-9f80-c72201eddb92"},"vehicle_type_id":"4","last_reported":1730657541,"current_range_meters":39200,"station_id":"ce4bhdp2rcd13ifvqf20","pricing_plan_id":"cebpf4jnsgd1na2vs0mg"},{"bike_id":"de729456-fb11-4dd9-82c5-9dab46a0f41d","system_id":"levelo_inurba_marseille","lat":43.30889,"lon":5.37197,"is_reserved":false,"is_disabled":false,"rental_uris":{"android":"levelo://app?vid=de729456-fb11-4dd9-82c5-9dab46a0f41d","ios":"levelo://app?vid=de729456-fb11-4dd9-82c5-9dab46a0f41d"},"vehicle_type_id":"4","last_reported":1730657541,"current_range_meters":6800,"station_id":"ce4bguh2rcd13ifvqckg","pricing_plan_id":"cebpf4jnsgd1na2vs0mg"},{"bike_id":"616b9aee-021c-4bb7-b5b5-16444fc838e4","system_id":"levelo_inurba_marseille","lat":43.29417,"lon":5.38614,"is_reserved":false,"is_disabled":false,"rental_uris":{"android":"levelo://app?vid=616b9aee-021c-4bb7-b5b5-16444fc838e4","ios":"levelo://app?vid=616b9aee-021c-4bb7-b5b5-16444fc838e4"},"vehicle_type_id":"4","last_reported":1730657541,"current_range_meters":38800,"station_id":"ce4bh2h2rcd13ifvqdh0","pricing_plan_id":"cebpf4jnsgd1na2vs0mg"},{"bike_id":"e3368b33-0af2-4840-ba71-a14df39e04a9","system_id":"levelo_inurba_marseille","lat":43.29533,"lon":5.38537,"is_reserved":false,"is_disabled":false,"rental_uris":{"android":"levelo://app?vid=e3368b33-0af2-4840-ba71-a14df39e04a9","ios":"levelo://app?vid=e3368b33-0af2-4840-ba71-a14df39e04a9"},"vehicle_type_id":"4","last_reported":1730657541,"current_range_meters":19600,"station_id":"ce4bgih2rcd13ifvqba0","pricing_plan_id":"cebpf4jnsgd1na2vs0mg"},{"bike_id":"25794d8a-05ea-426f-8e0c-ac90f97ec42c","system_id":"levelo_inurba_marseille","lat":43.29787,"lon":5.39337,"is_reserved":false,"is_disabled":false,"rental_uris":{"android":"levelo://app?vid=25794d8a-05ea-426f-8e0c-ac90f97ec42c","ios":"levelo://app?vid=25794d8a-05ea-426f-8e0c-ac90f97ec42c"},"vehicle_type_id":"4","last_reported":1730657541,"current_range_meters":25600,"station_id":"chh1huq6cuj3fo74tm60","pricing_plan_id":"cebpf4jnsgd1na2vs0mg"},{"bike_id":"f453d8a2-14e2-497a-a14a-49c40244a6ee","system_id":"levelo_inurba_marseille","lat":43.25865,"lon":5.39901,"is_reserved":false,"is_disabled":false,"rental_uris":{"android":"levelo://app?vid=f453d8a2-14e2-497a-a14a-49c40244a6ee","ios":"levelo://app?vid=f453d8a2-14e2-497a-a14a-49c40244a6ee"},"vehicle_type_id":"4","last_reported":1730657541,"current_range_meters":19600,"station_id":"ce4bhl92rcd13ifvqghg","pricing_plan_id":"cebpf4jnsgd1na2vs0mg"},{"bike_id":"1eeb5c5c-a3a6-4ef6-a852-f083a9363eab","system_id":"levelo_inurba_marseille","lat":43.27071,"lon":5.42284,"is_reserved":false,"is_disabled":false,"rental_uris":{"android":"levelo://app?vid=1eeb5c5c-a3a6-4ef6-a852-f083a9363eab","ios":"levelo://app?vid=1eeb5c5c-a3a6-4ef6-a852-f083a9363eab"},"vehicle_type_id":"4","last_reported":1730657541,"current_range_meters":9200,"station_id":"ce4bhk92rcd13ifvqgb0","pricing_plan_id":"cebpf4jnsgd1na2vs0mg"},{"bike_id":"7ce77be2-28e6-467f-9494-16f057502bba","system_id":"levelo_inurba_marseille","lat":43.28153,"lon":5.42637,"is_reserved":false,"is_disabled":false,"rental_uris":{"android":"levelo://app?vid=7ce77be2-28e6-467f-9494-16f057502bba","ios":"levelo://app?vid=7ce77be2-28e6-467f-9494-16f057502bba"},"vehicle_type_id":"4","last_reported":1730657541,"current_range_meters":4000,"station_id":"ce4bhnh2rcd13ifvqgug","pricing_plan_id":"cebpf4jnsgd1na2vs0mg"},{"bike_id":"e50fd69d-8268-4029-bf65-400af74520b3","system_id":"levelo_inurba_marseille","lat":43.28006,"lon":5.4166,"is_reserved":false,"is_disabled":false,"rental_uris":{"android":"levelo://app?vid=e50fd69d-8268-4029-bf65-400af74520b3","ios":"levelo://app?vid=e50fd69d-8268-4029-bf65-400af74520b3"},"vehicle_type_id":"4","last_reported":1730657541,"current_range_meters":13600,"station_id":"ce4bho12rcd13ifvqh1g","pricing_plan_id":"cebpf4jnsgd1na2vs0mg"},{"bike_id":"b535d7d2-7630-4884-8b57-c1d7e21ce967","system_id":"levelo_inurba_marseille","lat":43.29529,"lon":5.3854,"is_reserved":false,"is_disabled":false,"rental_uris":{"android":"levelo://app?vid=b535d7d2-7630-4884-8b57-c1d7e21ce967","ios":"levelo://app?vid=b535d7d2-7630-4884-8b57-c1d7e21ce967"},"vehicle_type_id":"4","last_reported":1730657541,"current_range_meters":38800,"station_id":"ce4bgih2rcd13ifvqba0","pricing_plan_id":"cebpf4jnsgd1na2vs0mg"},{"bike_id":"70b0e3f2-d3ff-4fd8-8213-b644c629bd9a","system_id":"levelo_inurba_marseille","lat":43.2846,"lon":5.35894,"is_reserved":false,"is_disabled":false,"rental_uris":{"android":"levelo://app?vid=70b0e3f2-d3ff-4fd8-8213-b644c629bd9a","ios":"levelo://app?vid=70b0e3f2-d3ff-4fd8-8213-b644c629bd9a"},"vehicle_type_id":"4","last_reported":1730657541,"current_range_meters":7200,"station_id":"ce4bhah2rcd13ifvqei0","pricing_plan_id":"cebpf4jnsgd1na2vs0mg"},{"bike_id":"bbe06fac-f386-423c-a221-3e2ab6ab784b","system_id":"levelo_inurba_marseille","lat":43.28848,"lon":5.392776,"is_reserved":false,"is_disabled":false,"rental_uris":{"android":"levelo://app?vid=bbe06fac-f386-423c-a221-3e2ab6ab784b","ios":"levelo://app?vid=bbe06fac-f386-423c-a221-3e2ab6ab784b"},"vehicle_type_id":"4","last_reported":1730657541,"current_range_meters":15200,"station_id":"ce4bh2p2rcd13ifvqdi0","pricing_plan_id":"cebpf4jnsgd1na2vs0mg"},{"bike_id":"ebbca866-f5af-416a-aa1d-7a52add271f0","system_id":"levelo_inurba_marseille","lat":43.290333,"lon":5.386534,"is_reserved":false,"is_disabled":false,"rental_uris":{"android":"levelo://app?vid=ebbca866-f5af-416a-aa1d-7a52add271f0","ios":"levelo://app?vid=ebbca866-f5af-416a-aa1d-7a52add271f0"},"vehicle_type_id":"4","last_reported":1730657541,"current_range_meters":2800,"station_id":"ce4bh4p2rcd13ifvqe0g","pricing_plan_id":"cebpf4jnsgd1na2vs0mg"},{"bike_id":"f98f84fd-f9fe-4c82-ba79-178f37502ab7","system_id":"levelo_inurba_marseille","lat":43.2408,"lon":5.37763,"is_reserved":false,"is_disabled":false,"rental_uris":{"android":"levelo://app?vid=f98f84fd-f9fe-4c82-ba79-178f37502ab7","ios":"levelo://app?vid=f98f84fd-f9fe-4c82-ba79-178f37502ab7"},"vehicle_type_id":"4","last_reported":1730657541,"current_range_meters":19600,"station_id":"ce4bhnp2rcd13ifvqgvg","pricing_plan_id":"cebpf4jnsgd1na2vs0mg"},{"bike_id":"33f6555c-2637-4d7c-9ff9-8a6e91a19910","system_id":"levelo_inurba_marseille","lat":43.27172,"lon":5.40997,"is_reserved":false,"is_disabled":false,"rental_uris":{"android":"levelo://app?vid=33f6555c-2637-4d7c-9ff9-8a6e91a19910","ios":"levelo://app?vid=33f6555c-2637-4d7c-9ff9-8a6e91a19910"},"vehicle_type_id":"4","last_reported":1730657541,"current_range_meters":16800,"station_id":"ce4bhl12rcd13ifvqgf0","pricing_plan_id":"cebpf4jnsgd1na2vs0mg"},{"bike_id":"0cd028e9-045d-4b8d-b66a-dbf43b6e3ba0","system_id":"levelo_inurba_marseille","lat":43.30607,"lon":5.38328,"is_reserved":false,"is_disabled":false,"rental_uris":{"android":"levelo://app?vid=0cd028e9-045d-4b8d-b66a-dbf43b6e3ba0","ios":"levelo://app?vid=0cd028e9-045d-4b8d-b66a-dbf43b6e3ba0"},"vehicle_type_id":"4","last_reported":1730657541,"current_range_meters":38800,"station_id":"ce4bgt12rcd13ifvqcd0","pricing_plan_id":"cebpf4jnsgd1na2vs0mg"},{"bike_id":"12e2a17d-b267-46ea-b046-7d399d7c3544","system_id":"levelo_inurba_marseille","lat":43.33737,"lon":5.3919,"is_reserved":false,"is_disabled":false,"rental_uris":{"android":"levelo://app?vid=12e2a17d-b267-46ea-b046-7d399d7c3544","ios":"levelo://app?vid=12e2a17d-b267-46ea-b046-7d399d7c3544"},"vehicle_type_id":"4","last_reported":1730657541,"current_range_meters":30800,"station_id":"ce4bhr92rcd13ifvqhsg","pricing_plan_id":"cebpf4jnsgd1na2vs0mg"},{"bike_id":"0bffcfb5-ffd4-4213-a282-83f8add00e34","system_id":"levelo_inurba_marseille","lat":43.29264,"lon":5.3844,"is_reserved":false,"is_disabled":false,"rental_uris":{"android":"levelo://app?vid=0bffcfb5-ffd4-4213-a282-83f8add00e34","ios":"levelo://app?vid=0bffcfb5-ffd4-4213-a282-83f8add00e34"},"vehicle_type_id":"4","last_reported":1730657541,"current_range_meters":35600,"station_id":"ce4bh692rcd13ifvqea0","pricing_plan_id":"cebpf4jnsgd1na2vs0mg"},{"bike_id":"222228b9-0087-4ad3-b06a-0cfa8481a5e9","system_id":"levelo_inurba_marseille","lat":43.29913,"lon":5.381535,"is_reserved":false,"is_disabled":false,"rental_uris":{"android":"levelo://app?vid=222228b9-0087-4ad3-b06a-0cfa8481a5e9","ios":"levelo://app?vid=222228b9-0087-4ad3-b06a-0cfa8481a5e9"},"vehicle_type_id":"4","last_reported":1730657541,"current_range_meters":18000,"station_id":"ce4bgj12rcd13ifvqbc0","pricing_plan_id":"cebpf4jnsgd1na2vs0mg"},{"bike_id":"b8a27d33-0523-4800-a895-12050a0aebb0","system_id":"levelo_inurba_marseille","lat":43.28915,"lon":5.38389,"is_reserved":false,"is_disabled":false,"rental_uris":{"android":"levelo://app?vid=b8a27d33-0523-4800-a895-12050a0aebb0","ios":"levelo://app?vid=b8a27d33-0523-4800-a895-12050a0aebb0"},"vehicle_type_id":"4","last_reported":1730657541,"current_range_meters":36800,"station_id":"ce4bh612rcd13ifvqe6g","pricing_plan_id":"cebpf4jnsgd1na2vs0mg"},{"bike_id":"d4472d20-9c4b-4c70-ad00-3a005519a429","system_id":"levelo_inurba_marseille","lat":43.3539,"lon":5.35726,"is_reserved":false,"is_disabled":false,"rental_uris":{"android":"levelo://app?vid=d4472d20-9c4b-4c70-ad00-3a005519a429","ios":"levelo://app?vid=d4472d20-9c4b-4c70-ad00-3a005519a429"},"vehicle_type_id":"4","last_reported":1730657541,"current_range_meters":13600,"station_id":"","pricing_plan_id":"cebpf4jnsgd1na2vs0mg"},{"bike_id":"6338020e-474a-4c99-b365-eea26fe54739","system_id":"levelo_inurba_marseille","lat":43.32294,"lon":5.38275,"is_reserved":false,"is_disabled":false,"rental_uris":{"android":"levelo://app?vid=6338020e-474a-4c99-b365-eea26fe54739","ios":"levelo://app?vid=6338020e-474a-4c99-b365-eea26fe54739"},"vehicle_type_id":"4","last_reported":1730657541,"current_range_meters":38800,"station_id":"ce4bhr12rcd13ifvqhqg","pricing_plan_id":"cebpf4jnsgd1na2vs0mg"},{"bike_id":"075e59f3-5d35-436b-b065-4100c124dca7","system_id":"levelo_inurba_marseille","lat":43.30636,"lon":5.39954,"is_reserved":false,"is_disabled":false,"rental_uris":{"android":"levelo://app?vid=075e59f3-5d35-436b-b065-4100c124dca7","ios":"levelo://app?vid=075e59f3-5d35-436b-b065-4100c124dca7"},"vehicle_type_id":"4","last_reported":1730657541,"current_range_meters":20800,"station_id":"ce4bh112rcd13ifvqda0","pricing_plan_id":"cebpf4jnsgd1na2vs0mg"},{"bike_id":"bfeb4a20-6440-4d07-8fb0-93bcaf1d8dce","system_id":"levelo_inurba_marseille","lat":43.29545,"lon":5.3855,"is_reserved":false,"is_disabled":false,"rental_uris":{"android":"levelo://app?vid=bfeb4a20-6440-4d07-8fb0-93bcaf1d8dce","ios":"levelo://app?vid=bfeb4a20-6440-4d07-8fb0-93bcaf1d8dce"},"vehicle_type_id":"4","last_reported":1730657541,"current_range_meters":8400,"station_id":"ce4bgih2rcd13ifvqba0","pricing_plan_id":"cebpf4jnsgd1na2vs0mg"},{"bike_id":"262b75cb-4cc5-4ff2-869a-f6570dba6a1f","system_id":"levelo_inurba_marseille","lat":43.30892,"lon":5.37187,"is_reserved":false,"is_disabled":false,"rental_uris":{"android":"levelo://app?vid=262b75cb-4cc5-4ff2-869a-f6570dba6a1f","ios":"levelo://app?vid=262b75cb-4cc5-4ff2-869a-f6570dba6a1f"},"vehicle_type_id":"4","last_reported":1730657541,"current_range_meters":28800,"station_id":"ce4bguh2rcd13ifvqckg","pricing_plan_id":"cebpf4jnsgd1na2vs0mg"},{"bike_id":"f8833f7b-49c8-440c-b671-beb72799bdec","system_id":"levelo_inurba_marseille","lat":43.24983,"lon":5.37509,"is_reserved":false,"is_disabled":false,"rental_uris":{"android":"levelo://app?vid=f8833f7b-49c8-440c-b671-beb72799bdec","ios":"levelo://app?vid=f8833f7b-49c8-440c-b671-beb72799bdec"},"vehicle_type_id":"4","last_reported":1730657541,"current_range_meters":30000,"station_id":"","pricing_plan_id":"cebpf4jnsgd1na2vs0mg"},{"bike_id":"98fa9b08-ccff-48eb-92a6-abd323c6b08a","system_id":"levelo_inurba_marseille","lat":43.28617,"lon":5.35102,"is_reserved":false,"is_disabled":false,"rental_uris":{"android":"levelo://app?vid=98fa9b08-ccff-48eb-92a6-abd323c6b08a","ios":"levelo://app?vid=98fa9b08-ccff-48eb-92a6-abd323c6b08a"},"vehicle_type_id":"4","last_reported":1730657541,"current_range_meters":9200,"station_id":"ce4bhch2rcd13ifvqeug","pricing_plan_id":"cebpf4jnsgd1na2vs0mg"},{"bike_id":"d1db76e4-1538-40a4-9488-cd1c6963f558","system_id":"levelo_inurba_marseille","lat":43.30801,"lon":5.38153,"is_reserved":false,"is_disabled":false,"rental_uris":{"android":"levelo://app?vid=d1db76e4-1538-40a4-9488-cd1c6963f558","ios":"levelo://app?vid=d1db76e4-1538-40a4-9488-cd1c6963f558"},"vehicle_type_id":"4","last_reported":1730657541,"current_range_meters":38800,"station_id":"ce4bgt12rcd13ifvqce0","pricing_plan_id":"cebpf4jnsgd1na2vs0mg"},{"bike_id":"2b4bbfed-255f-4cd0-bf8b-80e072c9cbe9","system_id":"levelo_inurba_marseille","lat":43.32105,"lon":5.3678,"is_reserved":false,"is_disabled":false,"rental_uris":{"android":"levelo://app?vid=2b4bbfed-255f-4cd0-bf8b-80e072c9cbe9","ios":"levelo://app?vid=2b4bbfed-255f-4cd0-bf8b-80e072c9cbe9"},"vehicle_type_id":"4","last_reported":1730657541,"current_range_meters":9200,"station_id":"ce4bhrh2rcd13ifvqhug","pricing_plan_id":"cebpf4jnsgd1na2vs0mg"},{"bike_id":"18402065-9e87-476b-95ad-30853de181a0","system_id":"levelo_inurba_marseille","lat":43.32455,"lon":5.45543,"is_reserved":false,"is_disabled":false,"rental_uris":{"android":"levelo://app?vid=18402065-9e87-476b-95ad-30853de181a0","ios":"levelo://app?vid=18402065-9e87-476b-95ad-30853de181a0"},"vehicle_type_id":"4","last_reported":1730657541,"current_range_meters":2800,"station_id":"","pricing_plan_id":"cebpf4jnsgd1na2vs0mg"},{"bike_id":"0b745c0a-7a8d-421d-8a33-7edf1623727c","system_id":"levelo_inurba_marseille","lat":43.286595,"lon":5.363429,"is_reserved":false,"is_disabled":false,"rental_uris":{"android":"levelo://app?vid=0b745c0a-7a8d-421d-8a33-7edf1623727c","ios":"levelo://app?vid=0b745c0a-7a8d-421d-8a33-7edf1623727c"},"vehicle_type_id":"4","last_reported":1730657541,"current_range_meters":20400,"station_id":"ce4bhah2rcd13ifvqej0","pricing_plan_id":"cebpf4jnsgd1na2vs0mg"},{"bike_id":"f2a499b9-7e11-47f2-9654-4bee66fdf52b","system_id":"levelo_inurba_marseille","lat":43.27999,"lon":5.40018,"is_reserved":false,"is_disabled":false,"rental_uris":{"android":"levelo://app?vid=f2a499b9-7e11-47f2-9654-4bee66fdf52b","ios":"levelo://app?vid=f2a499b9-7e11-47f2-9654-4bee66fdf52b"},"vehicle_type_id":"4","last_reported":1730657541,"current_range_meters":14000,"station_id":"ce4bho92rcd13ifvqh4g","pricing_plan_id":"cebpf4jnsgd1na2vs0mg"},{"bike_id":"4a6006f3-5cf6-43e8-967f-9899fa0e0ef7","system_id":"levelo_inurba_marseille","lat":43.31163,"lon":5.38719,"is_reserved":false,"is_disabled":false,"rental_uris":{"android":"levelo://app?vid=4a6006f3-5cf6-43e8-967f-9899fa0e0ef7","ios":"levelo://app?vid=4a6006f3-5cf6-43e8-967f-9899fa0e0ef7"},"vehicle_type_id":"4","last_reported":1730657541,"current_range_meters":3600,"station_id":"ce4bgv12rcd13ifvqcp0","pricing_plan_id":"cebpf4jnsgd1na2vs0mg"},{"bike_id":"c142c7d9-aebe-4dd2-8d9a-15e1bf89b071","system_id":"levelo_inurba_marseille","lat":43.28081,"lon":5.39649,"is_reserved":false,"is_disabled":false,"rental_uris":{"android":"levelo://app?vid=c142c7d9-aebe-4dd2-8d9a-15e1bf89b071","ios":"levelo://app?vid=c142c7d9-aebe-4dd2-8d9a-15e1bf89b071"},"vehicle_type_id":"4","last_reported":1730657541,"current_range_meters":38800,"station_id":"ce4bho12rcd13ifvqh2g","pricing_plan_id":"cebpf4jnsgd1na2vs0mg"},{"bike_id":"dc3fb750-c233-4288-a047-4e3b52e877f4","system_id":"levelo_inurba_marseille","lat":43.29537,"lon":5.38544,"is_reserved":false,"is_disabled":false,"rental_uris":{"android":"levelo://app?vid=dc3fb750-c233-4288-a047-4e3b52e877f4","ios":"levelo://app?vid=dc3fb750-c233-4288-a047-4e3b52e877f4"},"vehicle_type_id":"4","last_reported":1730657541,"current_range_meters":38800,"station_id":"ce4bgih2rcd13ifvqba0","pricing_plan_id":"cebpf4jnsgd1na2vs0mg"},{"bike_id":"4460ea40-5c57-4c46-bca4-f140434f79e3","system_id":"levelo_inurba_marseille","lat":43.24545,"lon":5.39524,"is_reserved":false,"is_disabled":false,"rental_uris":{"android":"levelo://app?vid=4460ea40-5c57-4c46-bca4-f140434f79e3","ios":"levelo://app?vid=4460ea40-5c57-4c46-bca4-f140434f79e3"},"vehicle_type_id":"4","last_reported":1730657541,"current_range_meters":10000,"station_id":"ce4bhlp2rcd13ifvqgjg","pricing_plan_id":"cebpf4jnsgd1na2vs0mg"},{"bike_id":"1cd46a54-6538-4c28-afd7-805d48536552","system_id":"levelo_inurba_marseille","lat":43.27903,"lon":5.3802,"is_reserved":false,"is_disabled":false,"rental_uris":{"android":"levelo://app?vid=1cd46a54-6538-4c28-afd7-805d48536552","ios":"levelo://app?vid=1cd46a54-6538-4c28-afd7-805d48536552"},"vehicle_type_id":"4","last_reported":1730657541,"current_range_meters":38800,"station_id":"ce4bhf92rcd13ifvqf50","pricing_plan_id":"cebpf4jnsgd1na2vs0mg"},{"bike_id":"2becaf5c-3681-4969-b18a-e407c8f08257","system_id":"levelo_inurba_marseille","lat":43.30598,"lon":5.37239,"is_reserved":false,"is_disabled":false,"rental_uris":{"android":"levelo://app?vid=2becaf5c-3681-4969-b18a-e407c8f08257","ios":"levelo://app?vid=2becaf5c-3681-4969-b18a-e407c8f08257"},"vehicle_type_id":"4","last_reported":1730657541,"current_range_meters":30000,"station_id":"ce4bgqh2rcd13ifvqc4g","pricing_plan_id":"cebpf4jnsgd1na2vs0mg"},{"bike_id":"c556f04d-a5be-4d49-ad15-6cb970cca7df","system_id":"levelo_inurba_marseille","lat":43.31722,"lon":5.42399,"is_reserved":false,"is_disabled":false,"rental_uris":{"android":"levelo://app?vid=c556f04d-a5be-4d49-ad15-6cb970cca7df","ios":"levelo://app?vid=c556f04d-a5be-4d49-ad15-6cb970cca7df"},"vehicle_type_id":"4","last_reported":1730657541,"current_range_meters":38000,"station_id":"ce4bhp92rcd13ifvqhbg","pricing_plan_id":"cebpf4jnsgd1na2vs0mg"},{"bike_id":"b7f7a827-05fb-44a9-a5e7-9f11625cf7df","system_id":"levelo_inurba_marseille","lat":43.29793,"lon":5.38124,"is_reserved":false,"is_disabled":false,"rental_uris":{"android":"levelo://app?vid=b7f7a827-05fb-44a9-a5e7-9f11625cf7df","ios":"levelo://app?vid=b7f7a827-05fb-44a9-a5e7-9f11625cf7df"},"vehicle_type_id":"4","last_reported":1730657541,"current_range_meters":22800,"station_id":"ce4bgip2rcd13ifvqbb0","pricing_plan_id":"cebpf4jnsgd1na2vs0mg"},{"bike_id":"89b5db9e-d734-4d56-8435-3c882b9b96c6","system_id":"levelo_inurba_marseille","lat":43.28915,"lon":5.38391,"is_reserved":false,"is_disabled":false,"rental_uris":{"android":"levelo://app?vid=89b5db9e-d734-4d56-8435-3c882b9b96c6","ios":"levelo://app?vid=89b5db9e-d734-4d56-8435-3c882b9b96c6"},"vehicle_type_id":"4","last_reported":1730657541,"current_range_meters":35200,"station_id":"ce4bh612rcd13ifvqe6g","pricing_plan_id":"cebpf4jnsgd1na2vs0mg"},{"bike_id":"96841145-a99c-4589-96b8-beaaab134d22","system_id":"levelo_inurba_marseille","lat":43.27985,"lon":5.40023,"is_reserved":false,"is_disabled":false,"rental_uris":{"android":"levelo://app?vid=96841145-a99c-4589-96b8-beaaab134d22","ios":"levelo://app?vid=96841145-a99c-4589-96b8-beaaab134d22"},"vehicle_type_id":"4","last_reported":1730657541,"current_range_meters":39200,"station_id":"ce4bho92rcd13ifvqh4g","pricing_plan_id":"cebpf4jnsgd1na2vs0mg"},{"bike_id":"6d8b2126-8a7b-4847-98a6-8ed12957383a","system_id":"levelo_inurba_marseille","lat":43.25823,"lon":5.3943,"is_reserved":false,"is_disabled":false,"rental_uris":{"android":"levelo://app?vid=6d8b2126-8a7b-4847-98a6-8ed12957383a","ios":"levelo://app?vid=6d8b2126-8a7b-4847-98a6-8ed12957383a"},"vehicle_type_id":"4","last_reported":1730657541,"current_range_meters":36800,"station_id":"ce4bhip2rcd13ifvqft0","pricing_plan_id":"cebpf4jnsgd1na2vs0mg"},{"bike_id":"8bacf964-f53c-4502-88a3-1bf7f2a82f34","system_id":"levelo_inurba_marseille","lat":43.2706,"lon":5.40264,"is_reserved":false,"is_disabled":false,"rental_uris":{"android":"levelo://app?vid=8bacf964-f53c-4502-88a3-1bf7f2a82f34","ios":"levelo://app?vid=8bacf964-f53c-4502-88a3-1bf7f2a82f34"},"vehicle_type_id":"4","last_reported":1730657541,"current_range_meters":7200,"station_id":"ce4bhk92rcd13ifvqgc0","pricing_plan_id":"cebpf4jnsgd1na2vs0mg"},{"bike_id":"b044f163-45e5-4237-a98f-a167eb1a78bd","system_id":"levelo_inurba_marseille","lat":43.23195,"lon":5.35554,"is_reserved":false,"is_disabled":false,"rental_uris":{"android":"levelo://app?vid=b044f163-45e5-4237-a98f-a167eb1a78bd","ios":"levelo://app?vid=b044f163-45e5-4237-a98f-a167eb1a78bd"},"vehicle_type_id":"4","last_reported":1730657541,"current_range_meters":38000,"station_id":"ce4bhu92rcd13ifvqi70","pricing_plan_id":"cebpf4jnsgd1na2vs0mg"},{"bike_id":"67ccc17e-bfed-4d2b-b491-3c727fe61bcc","system_id":"levelo_inurba_marseille","lat":43.31167,"lon":5.38715,"is_reserved":false,"is_disabled":false,"rental_uris":{"android":"levelo://app?vid=67ccc17e-bfed-4d2b-b491-3c727fe61bcc","ios":"levelo://app?vid=67ccc17e-bfed-4d2b-b491-3c727fe61bcc"},"vehicle_type_id":"4","last_reported":1730657541,"current_range_meters":38800,"station_id":"ce4bgv12rcd13ifvqcp0","pricing_plan_id":"cebpf4jnsgd1na2vs0mg"},{"bike_id":"cebda017-238c-4285-81eb-efa0d682b625","system_id":"levelo_inurba_marseille","lat":43.31069,"lon":5.38347,"is_reserved":false,"is_disabled":false,"rental_uris":{"android":"levelo://app?vid=cebda017-238c-4285-81eb-efa0d682b625","ios":"levelo://app?vid=cebda017-238c-4285-81eb-efa0d682b625"},"vehicle_type_id":"4","last_reported":1730657541,"current_range_meters":28000,"station_id":"ce4bgv92rcd13ifvqcr0","pricing_plan_id":"cebpf4jnsgd1na2vs0mg"},{"bike_id":"c5508922-58d4-43d7-9745-c698fbc6f8df","system_id":"levelo_inurba_marseille","lat":43.23963,"lon":5.36637,"is_reserved":false,"is_disabled":false,"rental_uris":{"android":"levelo://app?vid=c5508922-58d4-43d7-9745-c698fbc6f8df","ios":"levelo://app?vid=c5508922-58d4-43d7-9745-c698fbc6f8df"},"vehicle_type_id":"4","last_reported":1730657541,"current_range_meters":30400,"station_id":"ce4bhi12rcd13ifvqfp0","pricing_plan_id":"cebpf4jnsgd1na2vs0mg"},{"bike_id":"739c9dca-9415-4b03-859b-1606e5caa095","system_id":"levelo_inurba_marseille","lat":43.34142,"lon":5.40909,"is_reserved":false,"is_disabled":false,"rental_uris":{"android":"levelo://app?vid=739c9dca-9415-4b03-859b-1606e5caa095","ios":"levelo://app?vid=739c9dca-9415-4b03-859b-1606e5caa095"},"vehicle_type_id":"4","last_reported":1730657541,"current_range_meters":38800,"station_id":"ce4bhqh2rcd13ifvqhlg","pricing_plan_id":"cebpf4jnsgd1na2vs0mg"},{"bike_id":"3a60b9fd-e436-4406-9d79-0669e4e382de","system_id":"levelo_inurba_marseille","lat":43.29168,"lon":5.3716,"is_reserved":false,"is_disabled":false,"rental_uris":{"android":"levelo://app?vid=3a60b9fd-e436-4406-9d79-0669e4e382de","ios":"levelo://app?vid=3a60b9fd-e436-4406-9d79-0669e4e382de"},"vehicle_type_id":"4","last_reported":1730657541,"current_range_meters":12400,"station_id":"ce4bha92rcd13ifvqeh0","pricing_plan_id":"cebpf4jnsgd1na2vs0mg"},{"bike_id":"4fef7fec-2258-46ff-8723-d6ca06ce7417","system_id":"levelo_inurba_marseille","lat":43.29883,"lon":5.3975,"is_reserved":false,"is_disabled":false,"rental_uris":{"android":"levelo://app?vid=4fef7fec-2258-46ff-8723-d6ca06ce7417","ios":"levelo://app?vid=4fef7fec-2258-46ff-8723-d6ca06ce7417"},"vehicle_type_id":"4","last_reported":1730657541,"current_range_meters":39200,"station_id":"ce4bh0h2rcd13ifvqd50","pricing_plan_id":"cebpf4jnsgd1na2vs0mg"},{"bike_id":"1b80601b-8be3-4b0b-bcc4-eebb89de1629","system_id":"levelo_inurba_marseille","lat":43.25829,"lon":5.3944,"is_reserved":false,"is_disabled":false,"rental_uris":{"android":"levelo://app?vid=1b80601b-8be3-4b0b-bcc4-eebb89de1629","ios":"levelo://app?vid=1b80601b-8be3-4b0b-bcc4-eebb89de1629"},"vehicle_type_id":"4","last_reported":1730657541,"current_range_meters":34000,"station_id":"ce4bhip2rcd13ifvqft0","pricing_plan_id":"cebpf4jnsgd1na2vs0mg"},{"bike_id":"beb1b50b-af34-4ded-ad38-a75a8bf1589e","system_id":"levelo_inurba_marseille","lat":43.28571,"lon":5.39496,"is_reserved":false,"is_disabled":false,"rental_uris":{"android":"levelo://app?vid=beb1b50b-af34-4ded-ad38-a75a8bf1589e","ios":"levelo://app?vid=beb1b50b-af34-4ded-ad38-a75a8bf1589e"},"vehicle_type_id":"4","last_reported":1730657541,"current_range_meters":38800,"station_id":"ce4bh292rcd13ifvqdg0","pricing_plan_id":"cebpf4jnsgd1na2vs0mg"},{"bike_id":"fc01ac91-958f-424a-99ad-0c74a70e91dc","system_id":"levelo_inurba_marseille","lat":43.28403,"lon":5.37512,"is_reserved":false,"is_disabled":false,"rental_uris":{"android":"levelo://app?vid=fc01ac91-958f-424a-99ad-0c74a70e91dc","ios":"levelo://app?vid=fc01ac91-958f-424a-99ad-0c74a70e91dc"},"vehicle_type_id":"4","last_reported":1730657541,"current_range_meters":38800,"station_id":"ce4bh412rcd13ifvqds0","pricing_plan_id":"cebpf4jnsgd1na2vs0mg"},{"bike_id":"74e9bea3-e863-403e-a66e-0386cf896f78","system_id":"levelo_inurba_marseille","lat":43.27057,"lon":5.40259,"is_reserved":false,"is_disabled":false,"rental_uris":{"android":"levelo://app?vid=74e9bea3-e863-403e-a66e-0386cf896f78","ios":"levelo://app?vid=74e9bea3-e863-403e-a66e-0386cf896f78"},"vehicle_type_id":"4","last_reported":1730657541,"current_range_meters":6000,"station_id":"ce4bhk92rcd13ifvqgc0","pricing_plan_id":"cebpf4jnsgd1na2vs0mg"},{"bike_id":"8a69ef66-905f-40b1-ac03-c8ec314ebb84","system_id":"levelo_inurba_marseille","lat":43.2319,"lon":5.35552,"is_reserved":false,"is_disabled":false,"rental_uris":{"android":"levelo://app?vid=8a69ef66-905f-40b1-ac03-c8ec314ebb84","ios":"levelo://app?vid=8a69ef66-905f-40b1-ac03-c8ec314ebb84"},"vehicle_type_id":"4","last_reported":1730657541,"current_range_meters":8800,"station_id":"ce4bhu92rcd13ifvqi70","pricing_plan_id":"cebpf4jnsgd1na2vs0mg"},{"bike_id":"1c098382-52c7-4220-bb4f-f4586edc4ed1","system_id":"levelo_inurba_marseille","lat":43.23197,"lon":5.35555,"is_reserved":false,"is_disabled":false,"rental_uris":{"android":"levelo://app?vid=1c098382-52c7-4220-bb4f-f4586edc4ed1","ios":"levelo://app?vid=1c098382-52c7-4220-bb4f-f4586edc4ed1"},"vehicle_type_id":"4","last_reported":1730657541,"current_range_meters":28000,"station_id":"ce4bhu92rcd13ifvqi70","pricing_plan_id":"cebpf4jnsgd1na2vs0mg"},{"bike_id":"8c67d340-801d-46e5-b910-2f8aff3ff078","system_id":"levelo_inurba_marseille","lat":43.33318,"lon":5.37073,"is_reserved":false,"is_disabled":false,"rental_uris":{"android":"levelo://app?vid=8c67d340-801d-46e5-b910-2f8aff3ff078","ios":"levelo://app?vid=8c67d340-801d-46e5-b910-2f8aff3ff078"},"vehicle_type_id":"4","last_reported":1730657541,"current_range_meters":4800,"station_id":"","pricing_plan_id":"cebpf4jnsgd1na2vs0mg"},{"bike_id":"921aef8d-5b0d-49aa-8987-40e73cfa18be","system_id":"levelo_inurba_marseille","lat":43.29223,"lon":5.36057,"is_reserved":false,"is_disabled":false,"rental_uris":{"android":"levelo://app?vid=921aef8d-5b0d-49aa-8987-40e73cfa18be","ios":"levelo://app?vid=921aef8d-5b0d-49aa-8987-40e73cfa18be"},"vehicle_type_id":"4","last_reported":1730657541,"current_range_meters":3200,"station_id":"ce4bhbh2rcd13ifvqeqg","pricing_plan_id":"cebpf4jnsgd1na2vs0mg"},{"bike_id":"268fc5c9-38f1-4ba1-b0de-c770ac18e063","system_id":"levelo_inurba_marseille","lat":43.26057,"lon":5.39399,"is_reserved":false,"is_disabled":false,"rental_uris":{"android":"levelo://app?vid=268fc5c9-38f1-4ba1-b0de-c770ac18e063","ios":"levelo://app?vid=268fc5c9-38f1-4ba1-b0de-c770ac18e063"},"vehicle_type_id":"4","last_reported":1730657541,"current_range_meters":36000,"station_id":"ce4bhh92rcd13ifvqfj0","pricing_plan_id":"cebpf4jnsgd1na2vs0mg"},{"bike_id":"79f5032c-4427-40bb-bbad-7f35acb21ebc","system_id":"levelo_inurba_marseille","lat":43.3229,"lon":5.38286,"is_reserved":false,"is_disabled":false,"rental_uris":{"android":"levelo://app?vid=79f5032c-4427-40bb-bbad-7f35acb21ebc","ios":"levelo://app?vid=79f5032c-4427-40bb-bbad-7f35acb21ebc"},"vehicle_type_id":"4","last_reported":1730657541,"current_range_meters":16400,"station_id":"ce4bhr12rcd13ifvqhqg","pricing_plan_id":"cebpf4jnsgd1na2vs0mg"},{"bike_id":"6baea359-9bbc-422c-bb8c-23c1fa62fc8e","system_id":"levelo_inurba_marseille","lat":43.27997,"lon":5.40021,"is_reserved":false,"is_disabled":false,"rental_uris":{"android":"levelo://app?vid=6baea359-9bbc-422c-bb8c-23c1fa62fc8e","ios":"levelo://app?vid=6baea359-9bbc-422c-bb8c-23c1fa62fc8e"},"vehicle_type_id":"4","last_reported":1730657541,"current_range_meters":27600,"station_id":"ce4bho92rcd13ifvqh4g","pricing_plan_id":"cebpf4jnsgd1na2vs0mg"},{"bike_id":"90a37b83-1162-487e-bb74-0c7724111c5f","system_id":"levelo_inurba_marseille","lat":43.28446,"lon":5.39182,"is_reserved":false,"is_disabled":false,"rental_uris":{"android":"levelo://app?vid=90a37b83-1162-487e-bb74-0c7724111c5f","ios":"levelo://app?vid=90a37b83-1162-487e-bb74-0c7724111c5f"},"vehicle_type_id":"4","last_reported":1730657541,"current_range_meters":38800,"station_id":"ce4bhoh2rcd13ifvqh5g","pricing_plan_id":"cebpf4jnsgd1na2vs0mg"},{"bike_id":"a22693e4-0adf-4f9e-bba6-8cb69985560f","system_id":"levelo_inurba_marseille","lat":43.28452,"lon":5.35889,"is_reserved":false,"is_disabled":false,"rental_uris":{"android":"levelo://app?vid=a22693e4-0adf-4f9e-bba6-8cb69985560f","ios":"levelo://app?vid=a22693e4-0adf-4f9e-bba6-8cb69985560f"},"vehicle_type_id":"4","last_reported":1730657541,"current_range_meters":30400,"station_id":"ce4bhah2rcd13ifvqei0","pricing_plan_id":"cebpf4jnsgd1na2vs0mg"},{"bike_id":"55a5ca7c-6af1-429c-9c94-9fa3bccda2bb","system_id":"levelo_inurba_marseille","lat":43.28346,"lon":5.3811,"is_reserved":false,"is_disabled":false,"rental_uris":{"android":"levelo://app?vid=55a5ca7c-6af1-429c-9c94-9fa3bccda2bb","ios":"levelo://app?vid=55a5ca7c-6af1-429c-9c94-9fa3bccda2bb"},"vehicle_type_id":"4","last_reported":1730657541,"current_range_meters":30400,"station_id":"ce4bh412rcd13ifvqdr0","pricing_plan_id":"cebpf4jnsgd1na2vs0mg"},{"bike_id":"7a8975a1-c523-47ba-83a1-459b86ea01d9","system_id":"levelo_inurba_marseille","lat":43.27995,"lon":5.4001,"is_reserved":false,"is_disabled":false,"rental_uris":{"android":"levelo://app?vid=7a8975a1-c523-47ba-83a1-459b86ea01d9","ios":"levelo://app?vid=7a8975a1-c523-47ba-83a1-459b86ea01d9"},"vehicle_type_id":"4","last_reported":1730657541,"current_range_meters":16800,"station_id":"ce4bh192rcd13ifvqdd0","pricing_plan_id":"cebpf4jnsgd1na2vs0mg"},{"bike_id":"20e5bf3d-0a52-460f-8c58-b72fbf9d48d3","system_id":"levelo_inurba_marseille","lat":43.29864,"lon":5.39736,"is_reserved":false,"is_disabled":false,"rental_uris":{"android":"levelo://app?vid=20e5bf3d-0a52-460f-8c58-b72fbf9d48d3","ios":"levelo://app?vid=20e5bf3d-0a52-460f-8c58-b72fbf9d48d3"},"vehicle_type_id":"4","last_reported":1730657541,"current_range_meters":40000,"station_id":"ce4bh0h2rcd13ifvqd50","pricing_plan_id":"cebpf4jnsgd1na2vs0mg"},{"bike_id":"737e9747-c831-402d-a747-149225195082","system_id":"levelo_inurba_marseille","lat":43.31327,"lon":5.39696,"is_reserved":false,"is_disabled":false,"rental_uris":{"android":"levelo://app?vid=737e9747-c831-402d-a747-149225195082","ios":"levelo://app?vid=737e9747-c831-402d-a747-149225195082"},"vehicle_type_id":"4","last_reported":1730657541,"current_range_meters":30400,"station_id":"ce4bgvp2rcd13ifvqcu0","pricing_plan_id":"cebpf4jnsgd1na2vs0mg"},{"bike_id":"9497f975-da83-4267-9f48-e3a4623539d6","system_id":"levelo_inurba_marseille","lat":43.297821,"lon":5.370953,"is_reserved":false,"is_disabled":false,"rental_uris":{"android":"levelo://app?vid=9497f975-da83-4267-9f48-e3a4623539d6","ios":"levelo://app?vid=9497f975-da83-4267-9f48-e3a4623539d6"},"vehicle_type_id":"4","last_reported":1730657541,"current_range_meters":14000,"station_id":"ce4bgop2rcd13ifvqc1g","pricing_plan_id":"cebpf4jnsgd1na2vs0mg"},{"bike_id":"51e33fc0-83bd-44be-a080-61bc9446f595","system_id":"levelo_inurba_marseille","lat":43.24998,"lon":5.38929,"is_reserved":false,"is_disabled":false,"rental_uris":{"android":"levelo://app?vid=51e33fc0-83bd-44be-a080-61bc9446f595","ios":"levelo://app?vid=51e33fc0-83bd-44be-a080-61bc9446f595"},"vehicle_type_id":"4","last_reported":1730657541,"current_range_meters":3600,"station_id":"ce4bhgp2rcd13ifvqfd0","pricing_plan_id":"cebpf4jnsgd1na2vs0mg"},{"bike_id":"d5324ca5-5a3a-4892-bb8c-7dbf331e6ea6","system_id":"levelo_inurba_marseille","lat":43.32489,"lon":5.36573,"is_reserved":false,"is_disabled":false,"rental_uris":{"android":"levelo://app?vid=d5324ca5-5a3a-4892-bb8c-7dbf331e6ea6","ios":"levelo://app?vid=d5324ca5-5a3a-4892-bb8c-7dbf331e6ea6"},"vehicle_type_id":"4","last_reported":1730657541,"current_range_meters":38800,"station_id":"ce4bhs12rcd13ifvqhvg","pricing_plan_id":"cebpf4jnsgd1na2vs0mg"},{"bike_id":"2f2ea378-4ead-470b-9874-5283887e2ee2","system_id":"levelo_inurba_marseille","lat":43.26574,"lon":5.3902,"is_reserved":false,"is_disabled":false,"rental_uris":{"android":"levelo://app?vid=2f2ea378-4ead-470b-9874-5283887e2ee2","ios":"levelo://app?vid=2f2ea378-4ead-470b-9874-5283887e2ee2"},"vehicle_type_id":"4","last_reported":1730657541,"current_range_meters":7200,"station_id":"ce4bhe12rcd13ifvqf30","pricing_plan_id":"cebpf4jnsgd1na2vs0mg"},{"bike_id":"7b8934ab-1a6b-4c2d-b5fa-40771c000556","system_id":"levelo_inurba_marseille","lat":43.27073,"lon":5.42285,"is_reserved":false,"is_disabled":false,"rental_uris":{"android":"levelo://app?vid=7b8934ab-1a6b-4c2d-b5fa-40771c000556","ios":"levelo://app?vid=7b8934ab-1a6b-4c2d-b5fa-40771c000556"},"vehicle_type_id":"4","last_reported":1730657541,"current_range_meters":22000,"station_id":"ce4bhk92rcd13ifvqgb0","pricing_plan_id":"cebpf4jnsgd1na2vs0mg"},{"bike_id":"cb8cbe74-bf02-4189-810a-cbe7a5df91d3","system_id":"levelo_inurba_marseille","lat":43.26295,"lon":5.37672,"is_reserved":false,"is_disabled":false,"rental_uris":{"android":"levelo://app?vid=cb8cbe74-bf02-4189-810a-cbe7a5df91d3","ios":"levelo://app?vid=cb8cbe74-bf02-4189-810a-cbe7a5df91d3"},"vehicle_type_id":"4","last_reported":1730657541,"current_range_meters":4000,"station_id":"ce4bh492rcd13ifvqdvg","pricing_plan_id":"cebpf4jnsgd1na2vs0mg"},{"bike_id":"832b60bc-0d06-41a3-b29c-3ff7d0f476e1","system_id":"levelo_inurba_marseille","lat":43.23188,"lon":5.35562,"is_reserved":false,"is_disabled":false,"rental_uris":{"android":"levelo://app?vid=832b60bc-0d06-41a3-b29c-3ff7d0f476e1","ios":"levelo://app?vid=832b60bc-0d06-41a3-b29c-3ff7d0f476e1"},"vehicle_type_id":"4","last_reported":1730657541,"current_range_meters":38800,"station_id":"ce4bhu92rcd13ifvqi70","pricing_plan_id":"cebpf4jnsgd1na2vs0mg"},{"bike_id":"31920401-8c96-4e1d-8660-917d5c9c6a7d","system_id":"levelo_inurba_marseille","lat":43.2835,"lon":5.38117,"is_reserved":false,"is_disabled":false,"rental_uris":{"android":"levelo://app?vid=31920401-8c96-4e1d-8660-917d5c9c6a7d","ios":"levelo://app?vid=31920401-8c96-4e1d-8660-917d5c9c6a7d"},"vehicle_type_id":"4","last_reported":1730657541,"current_range_meters":38800,"station_id":"ce4bh412rcd13ifvqdr0","pricing_plan_id":"cebpf4jnsgd1na2vs0mg"},{"bike_id":"7580d83e-3d7c-46be-82b1-25f013a114af","system_id":"levelo_inurba_marseille","lat":43.31075,"lon":5.40096,"is_reserved":false,"is_disabled":false,"rental_uris":{"android":"levelo://app?vid=7580d83e-3d7c-46be-82b1-25f013a114af","ios":"levelo://app?vid=7580d83e-3d7c-46be-82b1-25f013a114af"},"vehicle_type_id":"4","last_reported":1730657541,"current_range_meters":24000,"station_id":"","pricing_plan_id":"cebpf4jnsgd1na2vs0mg"},{"bike_id":"d94f4d5f-eb42-4200-8f2a-3ac960c63dfd","system_id":"levelo_inurba_marseille","lat":43.2827,"lon":5.35064,"is_reserved":false,"is_disabled":false,"rental_uris":{"android":"levelo://app?vid=d94f4d5f-eb42-4200-8f2a-3ac960c63dfd","ios":"levelo://app?vid=d94f4d5f-eb42-4200-8f2a-3ac960c63dfd"},"vehicle_type_id":"4","last_reported":1730657541,"current_range_meters":10800,"station_id":"ce4bhbp2rcd13ifvqerg","pricing_plan_id":"cebpf4jnsgd1na2vs0mg"},{"bike_id":"95176e65-2057-4dd1-bdba-201dc08b6b3e","system_id":"levelo_inurba_marseille","lat":43.26807,"lon":5.40277,"is_reserved":false,"is_disabled":false,"rental_uris":{"android":"levelo://app?vid=95176e65-2057-4dd1-bdba-201dc08b6b3e","ios":"levelo://app?vid=95176e65-2057-4dd1-bdba-201dc08b6b3e"},"vehicle_type_id":"4","last_reported":1730657541,"current_range_meters":18800,"station_id":"ce501612rcd8frsf0b60","pricing_plan_id":"cebpf4jnsgd1na2vs0mg"},{"bike_id":"c36500d8-3c1b-40b4-b412-de69c457b9cb","system_id":"levelo_inurba_marseille","lat":43.28083,"lon":5.41042,"is_reserved":false,"is_disabled":false,"rental_uris":{"android":"levelo://app?vid=c36500d8-3c1b-40b4-b412-de69c457b9cb","ios":"levelo://app?vid=c36500d8-3c1b-40b4-b412-de69c457b9cb"},"vehicle_type_id":"4","last_reported":1730657541,"current_range_meters":9200,"station_id":"","pricing_plan_id":"cebpf4jnsgd1na2vs0mg"},{"bike_id":"95296791-a591-4ff0-afa8-95caf4a09725","system_id":"levelo_inurba_marseille","lat":43.3053,"lon":5.384442,"is_reserved":false,"is_disabled":false,"rental_uris":{"android":"levelo://app?vid=95296791-a591-4ff0-afa8-95caf4a09725","ios":"levelo://app?vid=95296791-a591-4ff0-afa8-95caf4a09725"},"vehicle_type_id":"4","last_reported":1730657541,"current_range_meters":3200,"station_id":"ce4bgup2rcd13ifvqco0","pricing_plan_id":"cebpf4jnsgd1na2vs0mg"},{"bike_id":"0625f411-9fb5-402a-bdb5-b79ab6a26318","system_id":"levelo_inurba_marseille","lat":43.30884,"lon":5.37188,"is_reserved":false,"is_disabled":false,"rental_uris":{"android":"levelo://app?vid=0625f411-9fb5-402a-bdb5-b79ab6a26318","ios":"levelo://app?vid=0625f411-9fb5-402a-bdb5-b79ab6a26318"},"vehicle_type_id":"4","last_reported":1730657541,"current_range_meters":38800,"station_id":"ce4bguh2rcd13ifvqckg","pricing_plan_id":"cebpf4jnsgd1na2vs0mg"},{"bike_id":"cd16674d-1d1c-46c6-8cfd-f6cdf0953b45","system_id":"levelo_inurba_marseille","lat":43.28003,"lon":5.40017,"is_reserved":false,"is_disabled":false,"rental_uris":{"android":"levelo://app?vid=cd16674d-1d1c-46c6-8cfd-f6cdf0953b45","ios":"levelo://app?vid=cd16674d-1d1c-46c6-8cfd-f6cdf0953b45"},"vehicle_type_id":"4","last_reported":1730657541,"current_range_meters":34800,"station_id":"ce4bho92rcd13ifvqh4g","pricing_plan_id":"cebpf4jnsgd1na2vs0mg"},{"bike_id":"cd97257c-3650-4035-a556-cdb83fb09c54","system_id":"levelo_inurba_marseille","lat":43.27995,"lon":5.40015,"is_reserved":false,"is_disabled":false,"rental_uris":{"android":"levelo://app?vid=cd97257c-3650-4035-a556-cdb83fb09c54","ios":"levelo://app?vid=cd97257c-3650-4035-a556-cdb83fb09c54"},"vehicle_type_id":"4","last_reported":1730657541,"current_range_meters":17200,"station_id":"ce4bho92rcd13ifvqh4g","pricing_plan_id":"cebpf4jnsgd1na2vs0mg"},{"bike_id":"ea087fef-133a-492c-82e0-d12f78c40f74","system_id":"levelo_inurba_marseille","lat":43.27052,"lon":5.40261,"is_reserved":false,"is_disabled":false,"rental_uris":{"android":"levelo://app?vid=ea087fef-133a-492c-82e0-d12f78c40f74","ios":"levelo://app?vid=ea087fef-133a-492c-82e0-d12f78c40f74"},"vehicle_type_id":"4","last_reported":1730657541,"current_range_meters":16400,"station_id":"ce4bhk92rcd13ifvqgc0","pricing_plan_id":"cebpf4jnsgd1na2vs0mg"},{"bike_id":"51b5ac9c-91d0-4d39-9095-ac1d59128eac","system_id":"levelo_inurba_marseille","lat":43.28598,"lon":5.37058,"is_reserved":false,"is_disabled":false,"rental_uris":{"android":"levelo://app?vid=51b5ac9c-91d0-4d39-9095-ac1d59128eac","ios":"levelo://app?vid=51b5ac9c-91d0-4d39-9095-ac1d59128eac"},"vehicle_type_id":"4","last_reported":1730657541,"current_range_meters":19200,"station_id":"ce4bht12rcd13ifvqi60","pricing_plan_id":"cebpf4jnsgd1na2vs0mg"},{"bike_id":"5f42907b-979d-409b-9fa8-c362734cdfa7","system_id":"levelo_inurba_marseille","lat":43.292651,"lon":5.376004,"is_reserved":false,"is_disabled":false,"rental_uris":{"android":"levelo://app?vid=5f42907b-979d-409b-9fa8-c362734cdfa7","ios":"levelo://app?vid=5f42907b-979d-409b-9fa8-c362734cdfa7"},"vehicle_type_id":"4","last_reported":1730657541,"current_range_meters":2000,"station_id":"ce4bgi12rcd13ifvqb70","pricing_plan_id":"cebpf4jnsgd1na2vs0mg"},{"bike_id":"78dfda9e-d949-4da5-a66c-9aee8c72393a","system_id":"levelo_inurba_marseille","lat":43.28702,"lon":5.39976,"is_reserved":false,"is_disabled":false,"rental_uris":{"android":"levelo://app?vid=78dfda9e-d949-4da5-a66c-9aee8c72393a","ios":"levelo://app?vid=78dfda9e-d949-4da5-a66c-9aee8c72393a"},"vehicle_type_id":"4","last_reported":1730657541,"current_range_meters":34000,"station_id":"ce4bho92rcd13ifvqh3g","pricing_plan_id":"cebpf4jnsgd1na2vs0mg"},{"bike_id":"4af66800-9c67-4c27-9dcf-50baeb1cb624","system_id":"levelo_inurba_marseille","lat":43.27992,"lon":5.40006,"is_reserved":false,"is_disabled":false,"rental_uris":{"android":"levelo://app?vid=4af66800-9c67-4c27-9dcf-50baeb1cb624","ios":"levelo://app?vid=4af66800-9c67-4c27-9dcf-50baeb1cb624"},"vehicle_type_id":"4","last_reported":1730657541,"current_range_meters":32800,"station_id":"ce4bho92rcd13ifvqh4g","pricing_plan_id":"cebpf4jnsgd1na2vs0mg"},{"bike_id":"53b5430c-8f3f-441f-884a-3fc5773e019a","system_id":"levelo_inurba_marseille","lat":43.28856,"lon":5.35857,"is_reserved":false,"is_disabled":false,"rental_uris":{"android":"levelo://app?vid=53b5430c-8f3f-441f-884a-3fc5773e019a","ios":"levelo://app?vid=53b5430c-8f3f-441f-884a-3fc5773e019a"},"vehicle_type_id":"4","last_reported":1730657541,"current_range_meters":39200,"station_id":"ce4bhb12rcd13ifvqem0","pricing_plan_id":"cebpf4jnsgd1na2vs0mg"},{"bike_id":"a9fbbb7d-1f56-44aa-b117-d72e2cab64d1","system_id":"levelo_inurba_marseille","lat":43.29262,"lon":5.38446,"is_reserved":false,"is_disabled":false,"rental_uris":{"android":"levelo://app?vid=a9fbbb7d-1f56-44aa-b117-d72e2cab64d1","ios":"levelo://app?vid=a9fbbb7d-1f56-44aa-b117-d72e2cab64d1"},"vehicle_type_id":"4","last_reported":1730657541,"current_range_meters":35200,"station_id":"ce4bh692rcd13ifvqea0","pricing_plan_id":"cebpf4jnsgd1na2vs0mg"},{"bike_id":"d49eab38-7ea8-46ec-9331-cc74e18ed3bd","system_id":"levelo_inurba_marseille","lat":43.24659,"lon":5.38161,"is_reserved":false,"is_disabled":false,"rental_uris":{"android":"levelo://app?vid=d49eab38-7ea8-46ec-9331-cc74e18ed3bd","ios":"levelo://app?vid=d49eab38-7ea8-46ec-9331-cc74e18ed3bd"},"vehicle_type_id":"4","last_reported":1730657541,"current_range_meters":2800,"station_id":"ce4bhih2rcd13ifvqfr0","pricing_plan_id":"cebpf4jnsgd1na2vs0mg"},{"bike_id":"d4501869-ea3e-4900-90fb-64180be91a0b","system_id":"levelo_inurba_marseille","lat":43.25577,"lon":5.38238,"is_reserved":false,"is_disabled":false,"rental_uris":{"android":"levelo://app?vid=d4501869-ea3e-4900-90fb-64180be91a0b","ios":"levelo://app?vid=d4501869-ea3e-4900-90fb-64180be91a0b"},"vehicle_type_id":"4","last_reported":1730657541,"current_range_meters":19200,"station_id":"ce4bhih2rcd13ifvqfs0","pricing_plan_id":"cebpf4jnsgd1na2vs0mg"},{"bike_id":"c737b99b-02e2-40a7-87c9-efedc70869d4","system_id":"levelo_inurba_marseille","lat":43.28403,"lon":5.37514,"is_reserved":false,"is_disabled":false,"rental_uris":{"android":"levelo://app?vid=c737b99b-02e2-40a7-87c9-efedc70869d4","ios":"levelo://app?vid=c737b99b-02e2-40a7-87c9-efedc70869d4"},"vehicle_type_id":"4","last_reported":1730657541,"current_range_meters":38800,"station_id":"ce4bh412rcd13ifvqds0","pricing_plan_id":"cebpf4jnsgd1na2vs0mg"},{"bike_id":"08b50212-a0b5-4e30-a0f8-b1838d6fba4f","system_id":"levelo_inurba_marseille","lat":43.28927,"lon":5.38391,"is_reserved":false,"is_disabled":false,"rental_uris":{"android":"levelo://app?vid=08b50212-a0b5-4e30-a0f8-b1838d6fba4f","ios":"levelo://app?vid=08b50212-a0b5-4e30-a0f8-b1838d6fba4f"},"vehicle_type_id":"4","last_reported":1730657541,"current_range_meters":38000,"station_id":"ce4bh612rcd13ifvqe6g","pricing_plan_id":"cebpf4jnsgd1na2vs0mg"},{"bike_id":"a56fea18-a696-4007-a12a-ed30bd374916","system_id":"levelo_inurba_marseille","lat":43.29273,"lon":5.38446,"is_reserved":false,"is_disabled":false,"rental_uris":{"android":"levelo://app?vid=a56fea18-a696-4007-a12a-ed30bd374916","ios":"levelo://app?vid=a56fea18-a696-4007-a12a-ed30bd374916"},"vehicle_type_id":"4","last_reported":1730657541,"current_range_meters":12400,"station_id":"ce4bh692rcd13ifvqea0","pricing_plan_id":"cebpf4jnsgd1na2vs0mg"},{"bike_id":"a35de6eb-6956-489f-a3b2-19819599fd73","system_id":"levelo_inurba_marseille","lat":43.29677,"lon":5.373,"is_reserved":false,"is_disabled":false,"rental_uris":{"android":"levelo://app?vid=a35de6eb-6956-489f-a3b2-19819599fd73","ios":"levelo://app?vid=a35de6eb-6956-489f-a3b2-19819599fd73"},"vehicle_type_id":"4","last_reported":1730657541,"current_range_meters":14000,"station_id":"ce4bgk12rcd13ifvqbj0","pricing_plan_id":"cebpf4jnsgd1na2vs0mg"},{"bike_id":"b6fedd1a-250c-46bc-8898-b78ca73c2072","system_id":"levelo_inurba_marseille","lat":43.29266,"lon":5.38444,"is_reserved":false,"is_disabled":false,"rental_uris":{"android":"levelo://app?vid=b6fedd1a-250c-46bc-8898-b78ca73c2072","ios":"levelo://app?vid=b6fedd1a-250c-46bc-8898-b78ca73c2072"},"vehicle_type_id":"4","last_reported":1730657541,"current_range_meters":27200,"station_id":"ce4bh692rcd13ifvqea0","pricing_plan_id":"cebpf4jnsgd1na2vs0mg"},{"bike_id":"0a9d42d9-5dd4-4213-8405-1d5d56a3d5e8","system_id":"levelo_inurba_marseille","lat":43.29063,"lon":5.37159,"is_reserved":false,"is_disabled":false,"rental_uris":{"android":"levelo://app?vid=0a9d42d9-5dd4-4213-8405-1d5d56a3d5e8","ios":"levelo://app?vid=0a9d42d9-5dd4-4213-8405-1d5d56a3d5e8"},"vehicle_type_id":"4","last_reported":1730657541,"current_range_meters":30000,"station_id":"ce4bh5p2rcd13ifvqe4g","pricing_plan_id":"cebpf4jnsgd1na2vs0mg"},{"bike_id":"e54a9e25-ac9f-47a2-b6ce-8e7088772790","system_id":"levelo_inurba_marseille","lat":43.33026,"lon":5.39039,"is_reserved":false,"is_disabled":false,"rental_uris":{"android":"levelo://app?vid=e54a9e25-ac9f-47a2-b6ce-8e7088772790","ios":"levelo://app?vid=e54a9e25-ac9f-47a2-b6ce-8e7088772790"},"vehicle_type_id":"4","last_reported":1730657541,"current_range_meters":14800,"station_id":"ce4bhr92rcd13ifvqhrg","pricing_plan_id":"cebpf4jnsgd1na2vs0mg"},{"bike_id":"4a216436-9b0a-4596-a0ce-ff925ae5a60b","system_id":"levelo_inurba_marseille","lat":43.2944,"lon":5.39757,"is_reserved":false,"is_disabled":false,"rental_uris":{"android":"levelo://app?vid=4a216436-9b0a-4596-a0ce-ff925ae5a60b","ios":"levelo://app?vid=4a216436-9b0a-4596-a0ce-ff925ae5a60b"},"vehicle_type_id":"4","last_reported":1730657541,"current_range_meters":27200,"station_id":"ce4bh3h2rcd13ifvqdo0","pricing_plan_id":"cebpf4jnsgd1na2vs0mg"},{"bike_id":"560bc009-1455-4318-930a-54ab880d0704","system_id":"levelo_inurba_marseille","lat":43.24068,"lon":5.37759,"is_reserved":false,"is_disabled":false,"rental_uris":{"android":"levelo://app?vid=560bc009-1455-4318-930a-54ab880d0704","ios":"levelo://app?vid=560bc009-1455-4318-930a-54ab880d0704"},"vehicle_type_id":"4","last_reported":1730657541,"current_range_meters":16000,"station_id":"ce4bhnp2rcd13ifvqgvg","pricing_plan_id":"cebpf4jnsgd1na2vs0mg"},{"bike_id":"edceb17c-714d-447d-8501-57474aa3afe5","system_id":"levelo_inurba_marseille","lat":43.28696,"lon":5.39985,"is_reserved":false,"is_disabled":false,"rental_uris":{"android":"levelo://app?vid=edceb17c-714d-447d-8501-57474aa3afe5","ios":"levelo://app?vid=edceb17c-714d-447d-8501-57474aa3afe5"},"vehicle_type_id":"4","last_reported":1730657541,"current_range_meters":36800,"station_id":"ce4bho92rcd13ifvqh3g","pricing_plan_id":"cebpf4jnsgd1na2vs0mg"},{"bike_id":"baaca522-7328-4b04-b58c-0e91d5caf45e","system_id":"levelo_inurba_marseille","lat":43.24198,"lon":5.36629,"is_reserved":false,"is_disabled":false,"rental_uris":{"android":"levelo://app?vid=baaca522-7328-4b04-b58c-0e91d5caf45e","ios":"levelo://app?vid=baaca522-7328-4b04-b58c-0e91d5caf45e"},"vehicle_type_id":"4","last_reported":1730657541,"current_range_meters":34800,"station_id":"","pricing_plan_id":"cebpf4jnsgd1na2vs0mg"},{"bike_id":"df7dd306-5315-4f73-9c7e-c704d38a1f7c","system_id":"levelo_inurba_marseille","lat":43.29105,"lon":5.38138,"is_reserved":false,"is_disabled":false,"rental_uris":{"android":"levelo://app?vid=df7dd306-5315-4f73-9c7e-c704d38a1f7c","ios":"levelo://app?vid=df7dd306-5315-4f73-9c7e-c704d38a1f7c"},"vehicle_type_id":"4","last_reported":1730657541,"current_range_meters":20000,"station_id":"ce4bh512rcd13ifvqe2g","pricing_plan_id":"cebpf4jnsgd1na2vs0mg"},{"bike_id":"e737ba05-54b8-4723-8b7d-f0bf5688ecfa","system_id":"levelo_inurba_marseille","lat":43.28681,"lon":5.38665,"is_reserved":false,"is_disabled":false,"rental_uris":{"android":"levelo://app?vid=e737ba05-54b8-4723-8b7d-f0bf5688ecfa","ios":"levelo://app?vid=e737ba05-54b8-4723-8b7d-f0bf5688ecfa"},"vehicle_type_id":"4","last_reported":1730657541,"current_range_meters":33200,"station_id":"ce4bh492rcd13ifvqdug","pricing_plan_id":"cebpf4jnsgd1na2vs0mg"},{"bike_id":"c45bdead-0b4b-4bc3-ae8d-a3a1eeb7c5ba","system_id":"levelo_inurba_marseille","lat":43.28454,"lon":5.35895,"is_reserved":false,"is_disabled":false,"rental_uris":{"android":"levelo://app?vid=c45bdead-0b4b-4bc3-ae8d-a3a1eeb7c5ba","ios":"levelo://app?vid=c45bdead-0b4b-4bc3-ae8d-a3a1eeb7c5ba"},"vehicle_type_id":"4","last_reported":1730657541,"current_range_meters":20800,"station_id":"ce4bhah2rcd13ifvqei0","pricing_plan_id":"cebpf4jnsgd1na2vs0mg"},{"bike_id":"bbc2b0c4-47e8-4a7a-9012-f278c215e98a","system_id":"levelo_inurba_marseille","lat":43.27995,"lon":5.40009,"is_reserved":false,"is_disabled":false,"rental_uris":{"android":"levelo://app?vid=bbc2b0c4-47e8-4a7a-9012-f278c215e98a","ios":"levelo://app?vid=bbc2b0c4-47e8-4a7a-9012-f278c215e98a"},"vehicle_type_id":"4","last_reported":1730657541,"current_range_meters":20800,"station_id":"ce4bho92rcd13ifvqh4g","pricing_plan_id":"cebpf4jnsgd1na2vs0mg"},{"bike_id":"16f23604-5f33-453a-98af-17af1c288b45","system_id":"levelo_inurba_marseille","lat":43.27994,"lon":5.40004,"is_reserved":false,"is_disabled":false,"rental_uris":{"android":"levelo://app?vid=16f23604-5f33-453a-98af-17af1c288b45","ios":"levelo://app?vid=16f23604-5f33-453a-98af-17af1c288b45"},"vehicle_type_id":"4","last_reported":1730657541,"current_range_meters":8000,"station_id":"ce4bho92rcd13ifvqh4g","pricing_plan_id":"cebpf4jnsgd1na2vs0mg"},{"bike_id":"ab9173ec-0645-441d-90af-326a5e948990","system_id":"levelo_inurba_marseille","lat":43.28349,"lon":5.38115,"is_reserved":false,"is_disabled":false,"rental_uris":{"android":"levelo://app?vid=ab9173ec-0645-441d-90af-326a5e948990","ios":"levelo://app?vid=ab9173ec-0645-441d-90af-326a5e948990"},"vehicle_type_id":"4","last_reported":1730657541,"current_range_meters":31200,"station_id":"ce4bh412rcd13ifvqdr0","pricing_plan_id":"cebpf4jnsgd1na2vs0mg"},{"bike_id":"db26f5ad-b2ef-45e2-bcad-4925a1d4e797","system_id":"levelo_inurba_marseille","lat":43.3013,"lon":5.39849,"is_reserved":false,"is_disabled":false,"rental_uris":{"android":"levelo://app?vid=db26f5ad-b2ef-45e2-bcad-4925a1d4e797","ios":"levelo://app?vid=db26f5ad-b2ef-45e2-bcad-4925a1d4e797"},"vehicle_type_id":"4","last_reported":1730657541,"current_range_meters":14800,"station_id":"ce4bh0h2rcd13ifvqd40","pricing_plan_id":"cebpf4jnsgd1na2vs0mg"},{"bike_id":"718d9ab7-5921-49b7-8148-169d6d564cef","system_id":"levelo_inurba_marseille","lat":43.28705,"lon":5.37404,"is_reserved":false,"is_disabled":false,"rental_uris":{"android":"levelo://app?vid=718d9ab7-5921-49b7-8148-169d6d564cef","ios":"levelo://app?vid=718d9ab7-5921-49b7-8148-169d6d564cef"},"vehicle_type_id":"4","last_reported":1730657541,"current_range_meters":6400,"station_id":"ce4bh3p2rcd13ifvqdq0","pricing_plan_id":"cebpf4jnsgd1na2vs0mg"},{"bike_id":"4987ec17-f407-4a16-8943-04b6ff68cf12","system_id":"levelo_inurba_marseille","lat":43.27989,"lon":5.4,"is_reserved":false,"is_disabled":false,"rental_uris":{"android":"levelo://app?vid=4987ec17-f407-4a16-8943-04b6ff68cf12","ios":"levelo://app?vid=4987ec17-f407-4a16-8943-04b6ff68cf12"},"vehicle_type_id":"4","last_reported":1730657541,"current_range_meters":8400,"station_id":"ce4bho92rcd13ifvqh4g","pricing_plan_id":"cebpf4jnsgd1na2vs0mg"},{"bike_id":"ad6b9979-2833-497c-ae59-5afeb88a87ce","system_id":"levelo_inurba_marseille","lat":43.32362,"lon":5.36768,"is_reserved":false,"is_disabled":false,"rental_uris":{"android":"levelo://app?vid=ad6b9979-2833-497c-ae59-5afeb88a87ce","ios":"levelo://app?vid=ad6b9979-2833-497c-ae59-5afeb88a87ce"},"vehicle_type_id":"4","last_reported":1730657541,"current_range_meters":4800,"station_id":"ce4bhsh2rcd13ifvqi2g","pricing_plan_id":"cebpf4jnsgd1na2vs0mg"},{"bike_id":"4c37402e-d84e-439b-8190-b6fa7aba4890","system_id":"levelo_inurba_marseille","lat":43.30591,"lon":5.3936,"is_reserved":false,"is_disabled":false,"rental_uris":{"android":"levelo://app?vid=4c37402e-d84e-439b-8190-b6fa7aba4890","ios":"levelo://app?vid=4c37402e-d84e-439b-8190-b6fa7aba4890"},"vehicle_type_id":"4","last_reported":1730657541,"current_range_meters":19200,"station_id":"ce4bh0p2rcd13ifvqd80","pricing_plan_id":"cebpf4jnsgd1na2vs0mg"},{"bike_id":"31008d72-eb96-4748-9480-4e3706ccf5b2","system_id":"levelo_inurba_marseille","lat":43.29336,"lon":5.38625,"is_reserved":false,"is_disabled":false,"rental_uris":{"android":"levelo://app?vid=31008d72-eb96-4748-9480-4e3706ccf5b2","ios":"levelo://app?vid=31008d72-eb96-4748-9480-4e3706ccf5b2"},"vehicle_type_id":"4","last_reported":1730657541,"current_range_meters":3200,"station_id":"","pricing_plan_id":"cebpf4jnsgd1na2vs0mg"},{"bike_id":"b44939f3-d8c5-4fe0-b15a-afc4e39e9275","system_id":"levelo_inurba_marseille","lat":43.27561,"lon":5.3843,"is_reserved":false,"is_disabled":false,"rental_uris":{"android":"levelo://app?vid=b44939f3-d8c5-4fe0-b15a-afc4e39e9275","ios":"levelo://app?vid=b44939f3-d8c5-4fe0-b15a-afc4e39e9275"},"vehicle_type_id":"4","last_reported":1730657541,"current_range_meters":37600,"station_id":"ce4bhh92rcd13ifvqfi0","pricing_plan_id":"cebpf4jnsgd1na2vs0mg"},{"bike_id":"e2cb4f32-8156-4ec8-a134-f852bf26a127","system_id":"levelo_inurba_marseille","lat":43.26495,"lon":5.39544,"is_reserved":false,"is_disabled":false,"rental_uris":{"android":"levelo://app?vid=e2cb4f32-8156-4ec8-a134-f852bf26a127","ios":"levelo://app?vid=e2cb4f32-8156-4ec8-a134-f852bf26a127"},"vehicle_type_id":"4","last_reported":1730657541,"current_range_meters":31200,"station_id":"ce4bhi12rcd13ifvqfq0","pricing_plan_id":"cebpf4jnsgd1na2vs0mg"},{"bike_id":"e8b3f8f2-f499-46a7-a160-1b140f296b59","system_id":"levelo_inurba_marseille","lat":43.30331,"lon":5.39247,"is_reserved":false,"is_disabled":false,"rental_uris":{"android":"levelo://app?vid=e8b3f8f2-f499-46a7-a160-1b140f296b59","ios":"levelo://app?vid=e8b3f8f2-f499-46a7-a160-1b140f296b59"},"vehicle_type_id":"4","last_reported":1730657541,"current_range_meters":38800,"station_id":"ce4bgkh2rcd13ifvqbk0","pricing_plan_id":"cebpf4jnsgd1na2vs0mg"},{"bike_id":"b2baa5fc-8c2f-4106-a46e-38acdf237d1e","system_id":"levelo_inurba_marseille","lat":43.27999,"lon":5.40011,"is_reserved":false,"is_disabled":false,"rental_uris":{"android":"levelo://app?vid=b2baa5fc-8c2f-4106-a46e-38acdf237d1e","ios":"levelo://app?vid=b2baa5fc-8c2f-4106-a46e-38acdf237d1e"},"vehicle_type_id":"4","last_reported":1730657541,"current_range_meters":2000,"station_id":"ce4bho92rcd13ifvqh4g","pricing_plan_id":"cebpf4jnsgd1na2vs0mg"},{"bike_id":"d82a0734-6a50-4380-b728-e06844fe66f8","system_id":"levelo_inurba_marseille","lat":43.28363,"lon":5.38641,"is_reserved":false,"is_disabled":false,"rental_uris":{"android":"levelo://app?vid=d82a0734-6a50-4380-b728-e06844fe66f8","ios":"levelo://app?vid=d82a0734-6a50-4380-b728-e06844fe66f8"},"vehicle_type_id":"4","last_reported":1730657541,"current_range_meters":18800,"station_id":"ce4bh492rcd13ifvqdvg","pricing_plan_id":"cebpf4jnsgd1na2vs0mg"},{"bike_id":"22277462-ea58-4946-ba2c-ef08f6cd7659","system_id":"levelo_inurba_marseille","lat":43.2797,"lon":5.4105,"is_reserved":false,"is_disabled":false,"rental_uris":{"android":"levelo://app?vid=22277462-ea58-4946-ba2c-ef08f6cd7659","ios":"levelo://app?vid=22277462-ea58-4946-ba2c-ef08f6cd7659"},"vehicle_type_id":"4","last_reported":1730657541,"current_range_meters":16000,"station_id":"","pricing_plan_id":"cebpf4jnsgd1na2vs0mg"},{"bike_id":"c07332d5-f871-4d7c-9894-5a99fdbe9ec1","system_id":"levelo_inurba_marseille","lat":43.25084,"lon":5.39528,"is_reserved":false,"is_disabled":false,"rental_uris":{"android":"levelo://app?vid=c07332d5-f871-4d7c-9894-5a99fdbe9ec1","ios":"levelo://app?vid=c07332d5-f871-4d7c-9894-5a99fdbe9ec1"},"vehicle_type_id":"4","last_reported":1730657541,"current_range_meters":28000,"station_id":"ce4bhm12rcd13ifvqgkg","pricing_plan_id":"cebpf4jnsgd1na2vs0mg"},{"bike_id":"3217169a-e6e8-4e4a-a644-c6af50c7883d","system_id":"levelo_inurba_marseille","lat":43.29066,"lon":5.37174,"is_reserved":false,"is_disabled":false,"rental_uris":{"android":"levelo://app?vid=3217169a-e6e8-4e4a-a644-c6af50c7883d","ios":"levelo://app?vid=3217169a-e6e8-4e4a-a644-c6af50c7883d"},"vehicle_type_id":"4","last_reported":1730657541,"current_range_meters":2000,"station_id":"ce4bh5p2rcd13ifvqe4g","pricing_plan_id":"cebpf4jnsgd1na2vs0mg"},{"bike_id":"e2cff782-0c3b-4bb8-99d5-0f2217531ae7","system_id":"levelo_inurba_marseille","lat":43.24546,"lon":5.39525,"is_reserved":false,"is_disabled":false,"rental_uris":{"android":"levelo://app?vid=e2cff782-0c3b-4bb8-99d5-0f2217531ae7","ios":"levelo://app?vid=e2cff782-0c3b-4bb8-99d5-0f2217531ae7"},"vehicle_type_id":"4","last_reported":1730657541,"current_range_meters":17600,"station_id":"ce4bhlp2rcd13ifvqgjg","pricing_plan_id":"cebpf4jnsgd1na2vs0mg"},{"bike_id":"c3fb2970-4dbf-495c-8cdf-abd1d91b1c53","system_id":"levelo_inurba_marseille","lat":43.27559,"lon":5.38422,"is_reserved":false,"is_disabled":false,"rental_uris":{"android":"levelo://app?vid=c3fb2970-4dbf-495c-8cdf-abd1d91b1c53","ios":"levelo://app?vid=c3fb2970-4dbf-495c-8cdf-abd1d91b1c53"},"vehicle_type_id":"4","last_reported":1730657541,"current_range_meters":17200,"station_id":"ce4bhh92rcd13ifvqfi0","pricing_plan_id":"cebpf4jnsgd1na2vs0mg"},{"bike_id":"307f8e5c-51c3-4161-8dbe-9cd41667dbdb","system_id":"levelo_inurba_marseille","lat":43.28703,"lon":5.37392,"is_reserved":false,"is_disabled":false,"rental_uris":{"android":"levelo://app?vid=307f8e5c-51c3-4161-8dbe-9cd41667dbdb","ios":"levelo://app?vid=307f8e5c-51c3-4161-8dbe-9cd41667dbdb"},"vehicle_type_id":"4","last_reported":1730657541,"current_range_meters":32400,"station_id":"ce4bh3p2rcd13ifvqdq0","pricing_plan_id":"cebpf4jnsgd1na2vs0mg"},{"bike_id":"f273adeb-dd6a-4473-8360-731ae9c1a4df","system_id":"levelo_inurba_marseille","lat":43.25111,"lon":5.40325,"is_reserved":false,"is_disabled":false,"rental_uris":{"android":"levelo://app?vid=f273adeb-dd6a-4473-8360-731ae9c1a4df","ios":"levelo://app?vid=f273adeb-dd6a-4473-8360-731ae9c1a4df"},"vehicle_type_id":"4","last_reported":1730657541,"current_range_meters":17600,"station_id":"ce4bhlh2rcd13ifvqgig","pricing_plan_id":"cebpf4jnsgd1na2vs0mg"},{"bike_id":"1bb25281-04e7-463d-95ba-d67adb79f1dd","system_id":"levelo_inurba_marseille","lat":43.30247,"lon":5.40074,"is_reserved":false,"is_disabled":false,"rental_uris":{"android":"levelo://app?vid=1bb25281-04e7-463d-95ba-d67adb79f1dd","ios":"levelo://app?vid=1bb25281-04e7-463d-95ba-d67adb79f1dd"},"vehicle_type_id":"4","last_reported":1730657541,"current_range_meters":38800,"station_id":"ce4bgvh2rcd13ifvqcs0","pricing_plan_id":"cebpf4jnsgd1na2vs0mg"},{"bike_id":"1cc3d8b3-3bfd-4e2b-b471-af4e7589c6f2","system_id":"levelo_inurba_marseille","lat":43.29289,"lon":5.3747,"is_reserved":false,"is_disabled":false,"rental_uris":{"android":"levelo://app?vid=1cc3d8b3-3bfd-4e2b-b471-af4e7589c6f2","ios":"levelo://app?vid=1cc3d8b3-3bfd-4e2b-b471-af4e7589c6f2"},"vehicle_type_id":"4","last_reported":1730657541,"current_range_meters":2800,"station_id":"ce4bgi12rcd13ifvqb70","pricing_plan_id":"cebpf4jnsgd1na2vs0mg"},{"bike_id":"47f5b940-7a16-426a-8751-2a4583315fd0","system_id":"levelo_inurba_marseille","lat":43.29973,"lon":5.37316,"is_reserved":false,"is_disabled":false,"rental_uris":{"android":"levelo://app?vid=47f5b940-7a16-426a-8751-2a4583315fd0","ios":"levelo://app?vid=47f5b940-7a16-426a-8751-2a4583315fd0"},"vehicle_type_id":"4","last_reported":1730657541,"current_range_meters":37600,"station_id":"","pricing_plan_id":"cebpf4jnsgd1na2vs0mg"},{"bike_id":"f4ade337-83c0-4a90-b94f-bfb779a7951b","system_id":"levelo_inurba_marseille","lat":43.29573,"lon":5.37511,"is_reserved":false,"is_disabled":false,"rental_uris":{"android":"levelo://app?vid=f4ade337-83c0-4a90-b94f-bfb779a7951b","ios":"levelo://app?vid=f4ade337-83c0-4a90-b94f-bfb779a7951b"},"vehicle_type_id":"4","last_reported":1730657541,"current_range_meters":39200,"station_id":"ce4bgh92rcd13ifvqb50","pricing_plan_id":"cebpf4jnsgd1na2vs0mg"},{"bike_id":"3a772e35-14c4-4b99-b307-36514407ba6f","system_id":"levelo_inurba_marseille","lat":43.31991,"lon":5.38171,"is_reserved":false,"is_disabled":false,"rental_uris":{"android":"levelo://app?vid=3a772e35-14c4-4b99-b307-36514407ba6f","ios":"levelo://app?vid=3a772e35-14c4-4b99-b307-36514407ba6f"},"vehicle_type_id":"4","last_reported":1730657541,"current_range_meters":36000,"station_id":"ce4bhr12rcd13ifvqhpg","pricing_plan_id":"cebpf4jnsgd1na2vs0mg"},{"bike_id":"ab1699e7-fd59-45c1-bb74-22f9eae7c326","system_id":"levelo_inurba_marseille","lat":43.25,"lon":5.38929,"is_reserved":false,"is_disabled":false,"rental_uris":{"android":"levelo://app?vid=ab1699e7-fd59-45c1-bb74-22f9eae7c326","ios":"levelo://app?vid=ab1699e7-fd59-45c1-bb74-22f9eae7c326"},"vehicle_type_id":"4","last_reported":1730657541,"current_range_meters":24000,"station_id":"ce4bhgp2rcd13ifvqfd0","pricing_plan_id":"cebpf4jnsgd1na2vs0mg"},{"bike_id":"be0c211c-0613-4667-97e4-89d9bd3b8034","system_id":"levelo_inurba_marseille","lat":43.29106,"lon":5.38152,"is_reserved":false,"is_disabled":false,"rental_uris":{"android":"levelo://app?vid=be0c211c-0613-4667-97e4-89d9bd3b8034","ios":"levelo://app?vid=be0c211c-0613-4667-97e4-89d9bd3b8034"},"vehicle_type_id":"4","last_reported":1730657541,"current_range_meters":37600,"station_id":"ce4bh512rcd13ifvqe2g","pricing_plan_id":"cebpf4jnsgd1na2vs0mg"},{"bike_id":"789fa571-4936-43ab-bd88-69dae56a6bee","system_id":"levelo_inurba_marseille","lat":43.30431,"lon":5.39755,"is_reserved":false,"is_disabled":false,"rental_uris":{"android":"levelo://app?vid=789fa571-4936-43ab-bd88-69dae56a6bee","ios":"levelo://app?vid=789fa571-4936-43ab-bd88-69dae56a6bee"},"vehicle_type_id":"4","last_reported":1730657541,"current_range_meters":24000,"station_id":"ce4bh092rcd13ifvqd20","pricing_plan_id":"cebpf4jnsgd1na2vs0mg"},{"bike_id":"45adaf51-6b91-4da0-9464-4cf56d1d17ac","system_id":"levelo_inurba_marseille","lat":43.29972,"lon":5.38491,"is_reserved":false,"is_disabled":false,"rental_uris":{"android":"levelo://app?vid=45adaf51-6b91-4da0-9464-4cf56d1d17ac","ios":"levelo://app?vid=45adaf51-6b91-4da0-9464-4cf56d1d17ac"},"vehicle_type_id":"4","last_reported":1730657541,"current_range_meters":36400,"station_id":"ce4bgj92rcd13ifvqbd0","pricing_plan_id":"cebpf4jnsgd1na2vs0mg"},{"bike_id":"fdcaf571-a524-40f9-900a-9dcd3c78f2c0","system_id":"levelo_inurba_marseille","lat":43.284767,"lon":5.384218,"is_reserved":false,"is_disabled":false,"rental_uris":{"android":"levelo://app?vid=fdcaf571-a524-40f9-900a-9dcd3c78f2c0","ios":"levelo://app?vid=fdcaf571-a524-40f9-900a-9dcd3c78f2c0"},"vehicle_type_id":"4","last_reported":1730657541,"current_range_meters":8400,"station_id":"ce4bh3p2rcd13ifvqdq0","pricing_plan_id":"cebpf4jnsgd1na2vs0mg"},{"bike_id":"a37f1ad1-7ed5-4049-909d-7d43d3b53fb5","system_id":"levelo_inurba_marseille","lat":43.30586,"lon":5.39366,"is_reserved":false,"is_disabled":false,"rental_uris":{"android":"levelo://app?vid=a37f1ad1-7ed5-4049-909d-7d43d3b53fb5","ios":"levelo://app?vid=a37f1ad1-7ed5-4049-909d-7d43d3b53fb5"},"vehicle_type_id":"4","last_reported":1730657541,"current_range_meters":30800,"station_id":"ce4bh0p2rcd13ifvqd80","pricing_plan_id":"cebpf4jnsgd1na2vs0mg"},{"bike_id":"24a24910-6987-4ad8-ae1f-25f5202c9fd5","system_id":"levelo_inurba_marseille","lat":43.27562,"lon":5.38413,"is_reserved":false,"is_disabled":false,"rental_uris":{"android":"levelo://app?vid=24a24910-6987-4ad8-ae1f-25f5202c9fd5","ios":"levelo://app?vid=24a24910-6987-4ad8-ae1f-25f5202c9fd5"},"vehicle_type_id":"4","last_reported":1730657541,"current_range_meters":38800,"station_id":"ce4bhh92rcd13ifvqfi0","pricing_plan_id":"cebpf4jnsgd1na2vs0mg"},{"bike_id":"7c12ffcf-0bbf-447d-a215-73b67c5675e6","system_id":"levelo_inurba_marseille","lat":43.24664,"lon":5.38166,"is_reserved":false,"is_disabled":false,"rental_uris":{"android":"levelo://app?vid=7c12ffcf-0bbf-447d-a215-73b67c5675e6","ios":"levelo://app?vid=7c12ffcf-0bbf-447d-a215-73b67c5675e6"},"vehicle_type_id":"4","last_reported":1730657541,"current_range_meters":3600,"station_id":"ce4bhih2rcd13ifvqfr0","pricing_plan_id":"cebpf4jnsgd1na2vs0mg"},{"bike_id":"b9b5cc4d-5ca3-480b-b298-8e1bcf891365","system_id":"levelo_inurba_marseille","lat":43.28714,"lon":5.37392,"is_reserved":false,"is_disabled":false,"rental_uris":{"android":"levelo://app?vid=b9b5cc4d-5ca3-480b-b298-8e1bcf891365","ios":"levelo://app?vid=b9b5cc4d-5ca3-480b-b298-8e1bcf891365"},"vehicle_type_id":"4","last_reported":1730657541,"current_range_meters":22400,"station_id":"ce4bh3p2rcd13ifvqdq0","pricing_plan_id":"cebpf4jnsgd1na2vs0mg"},{"bike_id":"034ad0cf-a91d-4050-a8e4-a1e2b7674014","system_id":"levelo_inurba_marseille","lat":43.29259,"lon":5.38431,"is_reserved":false,"is_disabled":false,"rental_uris":{"android":"levelo://app?vid=034ad0cf-a91d-4050-a8e4-a1e2b7674014","ios":"levelo://app?vid=034ad0cf-a91d-4050-a8e4-a1e2b7674014"},"vehicle_type_id":"4","last_reported":1730657541,"current_range_meters":36800,"station_id":"ce4bh692rcd13ifvqea0","pricing_plan_id":"cebpf4jnsgd1na2vs0mg"},{"bike_id":"a31f9efc-77eb-4341-b1e3-4b8866dc0c30","system_id":"levelo_inurba_marseille","lat":43.284749,"lon":5.384211,"is_reserved":false,"is_disabled":false,"rental_uris":{"android":"levelo://app?vid=a31f9efc-77eb-4341-b1e3-4b8866dc0c30","ios":"levelo://app?vid=a31f9efc-77eb-4341-b1e3-4b8866dc0c30"},"vehicle_type_id":"4","last_reported":1730657541,"current_range_meters":38400,"station_id":"ce4bh512rcd13ifvqe3g","pricing_plan_id":"cebpf4jnsgd1na2vs0mg"},{"bike_id":"e48ecbd0-47f1-4d8e-86c5-c647a9ec1b6b","system_id":"levelo_inurba_marseille","lat":43.31743,"lon":5.39013,"is_reserved":false,"is_disabled":false,"rental_uris":{"android":"levelo://app?vid=e48ecbd0-47f1-4d8e-86c5-c647a9ec1b6b","ios":"levelo://app?vid=e48ecbd0-47f1-4d8e-86c5-c647a9ec1b6b"},"vehicle_type_id":"4","last_reported":1730657541,"current_range_meters":11200,"station_id":"ce4bhqp2rcd13ifvqhng","pricing_plan_id":"cebpf4jnsgd1na2vs0mg"},{"bike_id":"be12279a-4168-46f8-8210-ce8ddc0ec5b9","system_id":"levelo_inurba_marseille","lat":43.28109,"lon":5.37841,"is_reserved":false,"is_disabled":false,"rental_uris":{"android":"levelo://app?vid=be12279a-4168-46f8-8210-ce8ddc0ec5b9","ios":"levelo://app?vid=be12279a-4168-46f8-8210-ce8ddc0ec5b9"},"vehicle_type_id":"4","last_reported":1730657541,"current_range_meters":16400,"station_id":"ce4bha12rcd13ifvqee0","pricing_plan_id":"cebpf4jnsgd1na2vs0mg"},{"bike_id":"cfa5fa1b-b403-4534-9d38-b5bbd3ae03d9","system_id":"levelo_inurba_marseille","lat":43.35562,"lon":5.35811,"is_reserved":false,"is_disabled":false,"rental_uris":{"android":"levelo://app?vid=cfa5fa1b-b403-4534-9d38-b5bbd3ae03d9","ios":"levelo://app?vid=cfa5fa1b-b403-4534-9d38-b5bbd3ae03d9"},"vehicle_type_id":"4","last_reported":1730657541,"current_range_meters":6400,"station_id":"","pricing_plan_id":"cebpf4jnsgd1na2vs0mg"},{"bike_id":"e5d71699-c648-4605-953f-88321837cd27","system_id":"levelo_inurba_marseille","lat":43.24997,"lon":5.38936,"is_reserved":false,"is_disabled":false,"rental_uris":{"android":"levelo://app?vid=e5d71699-c648-4605-953f-88321837cd27","ios":"levelo://app?vid=e5d71699-c648-4605-953f-88321837cd27"},"vehicle_type_id":"4","last_reported":1730657541,"current_range_meters":20000,"station_id":"ce4bhgp2rcd13ifvqfd0","pricing_plan_id":"cebpf4jnsgd1na2vs0mg"},{"bike_id":"582ccd2e-3ace-4b3e-88ab-f3bc411fce82","system_id":"levelo_inurba_marseille","lat":43.301904,"lon":5.374207,"is_reserved":false,"is_disabled":false,"rental_uris":{"android":"levelo://app?vid=582ccd2e-3ace-4b3e-88ab-f3bc411fce82","ios":"levelo://app?vid=582ccd2e-3ace-4b3e-88ab-f3bc411fce82"},"vehicle_type_id":"4","last_reported":1730657541,"current_range_meters":24400,"station_id":"ce4bgv92rcd13ifvqcq0","pricing_plan_id":"cebpf4jnsgd1na2vs0mg"},{"bike_id":"f55ae709-d006-4ef3-92ad-af54d1d21a3c","system_id":"levelo_inurba_marseille","lat":43.29503,"lon":5.39405,"is_reserved":false,"is_disabled":false,"rental_uris":{"android":"levelo://app?vid=f55ae709-d006-4ef3-92ad-af54d1d21a3c","ios":"levelo://app?vid=f55ae709-d006-4ef3-92ad-af54d1d21a3c"},"vehicle_type_id":"4","last_reported":1730657541,"current_range_meters":37600,"station_id":"ce4bh292rcd13ifvqdf0","pricing_plan_id":"cebpf4jnsgd1na2vs0mg"},{"bike_id":"3364c123-1be0-480a-a160-9216f8de9adb","system_id":"levelo_inurba_marseille","lat":43.31164,"lon":5.38724,"is_reserved":false,"is_disabled":false,"rental_uris":{"android":"levelo://app?vid=3364c123-1be0-480a-a160-9216f8de9adb","ios":"levelo://app?vid=3364c123-1be0-480a-a160-9216f8de9adb"},"vehicle_type_id":"4","last_reported":1730657541,"current_range_meters":19200,"station_id":"ce4bgv12rcd13ifvqcp0","pricing_plan_id":"cebpf4jnsgd1na2vs0mg"},{"bike_id":"b9a33553-3f6c-4201-9239-8e5cd9472697","system_id":"levelo_inurba_marseille","lat":43.32482,"lon":5.36571,"is_reserved":false,"is_disabled":false,"rental_uris":{"android":"levelo://app?vid=b9a33553-3f6c-4201-9239-8e5cd9472697","ios":"levelo://app?vid=b9a33553-3f6c-4201-9239-8e5cd9472697"},"vehicle_type_id":"4","last_reported":1730657541,"current_range_meters":38400,"station_id":"ce4bhs12rcd13ifvqhvg","pricing_plan_id":"cebpf4jnsgd1na2vs0mg"},{"bike_id":"1f8f3e64-acf0-45e7-9bb6-753a3d6d7676","system_id":"levelo_inurba_marseille","lat":43.2511,"lon":5.40324,"is_reserved":false,"is_disabled":false,"rental_uris":{"android":"levelo://app?vid=1f8f3e64-acf0-45e7-9bb6-753a3d6d7676","ios":"levelo://app?vid=1f8f3e64-acf0-45e7-9bb6-753a3d6d7676"},"vehicle_type_id":"4","last_reported":1730657541,"current_range_meters":36000,"station_id":"ce4bhlh2rcd13ifvqgig","pricing_plan_id":"cebpf4jnsgd1na2vs0mg"},{"bike_id":"7f6edbd9-3fee-40e7-abe8-56a7abb00bc2","system_id":"levelo_inurba_marseille","lat":43.26566,"lon":5.3901,"is_reserved":false,"is_disabled":false,"rental_uris":{"android":"levelo://app?vid=7f6edbd9-3fee-40e7-abe8-56a7abb00bc2","ios":"levelo://app?vid=7f6edbd9-3fee-40e7-abe8-56a7abb00bc2"},"vehicle_type_id":"4","last_reported":1730657541,"current_range_meters":8000,"station_id":"ce4bhe12rcd13ifvqf30","pricing_plan_id":"cebpf4jnsgd1na2vs0mg"},{"bike_id":"cf4c4fb2-ee12-45e0-8a09-872a8f2c8586","system_id":"levelo_inurba_marseille","lat":43.29012,"lon":5.37281,"is_reserved":false,"is_disabled":false,"rental_uris":{"android":"levelo://app?vid=cf4c4fb2-ee12-45e0-8a09-872a8f2c8586","ios":"levelo://app?vid=cf4c4fb2-ee12-45e0-8a09-872a8f2c8586"},"vehicle_type_id":"4","last_reported":1730657541,"current_range_meters":27600,"station_id":"ce4bh5p2rcd13ifvqe4g","pricing_plan_id":"cebpf4jnsgd1na2vs0mg"},{"bike_id":"829eb535-300e-48f7-adf4-b502d13ca525","system_id":"levelo_inurba_marseille","lat":43.27071,"lon":5.42278,"is_reserved":false,"is_disabled":false,"rental_uris":{"android":"levelo://app?vid=829eb535-300e-48f7-adf4-b502d13ca525","ios":"levelo://app?vid=829eb535-300e-48f7-adf4-b502d13ca525"},"vehicle_type_id":"4","last_reported":1730657541,"current_range_meters":20000,"station_id":"ce4bhk92rcd13ifvqgb0","pricing_plan_id":"cebpf4jnsgd1na2vs0mg"},{"bike_id":"b28d0421-da68-4824-b7cd-68d5fbf474c5","system_id":"levelo_inurba_marseille","lat":43.27178,"lon":5.40998,"is_reserved":false,"is_disabled":false,"rental_uris":{"android":"levelo://app?vid=b28d0421-da68-4824-b7cd-68d5fbf474c5","ios":"levelo://app?vid=b28d0421-da68-4824-b7cd-68d5fbf474c5"},"vehicle_type_id":"4","last_reported":1730657541,"current_range_meters":32400,"station_id":"ce4bhl12rcd13ifvqgf0","pricing_plan_id":"cebpf4jnsgd1na2vs0mg"},{"bike_id":"73a4777f-bbc3-4acc-8389-18fe01af8d9a","system_id":"levelo_inurba_marseille","lat":43.29168,"lon":5.37155,"is_reserved":false,"is_disabled":false,"rental_uris":{"android":"levelo://app?vid=73a4777f-bbc3-4acc-8389-18fe01af8d9a","ios":"levelo://app?vid=73a4777f-bbc3-4acc-8389-18fe01af8d9a"},"vehicle_type_id":"4","last_reported":1730657541,"current_range_meters":25600,"station_id":"ce4bha92rcd13ifvqeh0","pricing_plan_id":"cebpf4jnsgd1na2vs0mg"},{"bike_id":"fbc5fb14-249f-4b6b-8493-264deab2c9b2","system_id":"levelo_inurba_marseille","lat":43.27997,"lon":5.40009,"is_reserved":false,"is_disabled":false,"rental_uris":{"android":"levelo://app?vid=fbc5fb14-249f-4b6b-8493-264deab2c9b2","ios":"levelo://app?vid=fbc5fb14-249f-4b6b-8493-264deab2c9b2"},"vehicle_type_id":"4","last_reported":1730657541,"current_range_meters":36400,"station_id":"ce4bho92rcd13ifvqh4g","pricing_plan_id":"cebpf4jnsgd1na2vs0mg"},{"bike_id":"35252b48-1d90-4f90-a51a-96c9b4a4397e","system_id":"levelo_inurba_marseille","lat":43.29264,"lon":5.38428,"is_reserved":false,"is_disabled":false,"rental_uris":{"android":"levelo://app?vid=35252b48-1d90-4f90-a51a-96c9b4a4397e","ios":"levelo://app?vid=35252b48-1d90-4f90-a51a-96c9b4a4397e"},"vehicle_type_id":"4","last_reported":1730657541,"current_range_meters":22400,"station_id":"ce4bh692rcd13ifvqea0","pricing_plan_id":"cebpf4jnsgd1na2vs0mg"},{"bike_id":"c5e32542-47ce-4945-bcd9-ce9dc0346b54","system_id":"levelo_inurba_marseille","lat":43.2952,"lon":5.39034,"is_reserved":false,"is_disabled":false,"rental_uris":{"android":"levelo://app?vid=c5e32542-47ce-4945-bcd9-ce9dc0346b54","ios":"levelo://app?vid=c5e32542-47ce-4945-bcd9-ce9dc0346b54"},"vehicle_type_id":"4","last_reported":1730657541,"current_range_meters":38800,"station_id":"ce4bh3p2rcd13ifvqdp0","pricing_plan_id":"cebpf4jnsgd1na2vs0mg"},{"bike_id":"4ad7c7c2-8ff3-4ca5-9524-58a7633dd278","system_id":"levelo_inurba_marseille","lat":43.32487,"lon":5.36559,"is_reserved":false,"is_disabled":false,"rental_uris":{"android":"levelo://app?vid=4ad7c7c2-8ff3-4ca5-9524-58a7633dd278","ios":"levelo://app?vid=4ad7c7c2-8ff3-4ca5-9524-58a7633dd278"},"vehicle_type_id":"4","last_reported":1730657541,"current_range_meters":38800,"station_id":"ce4bhs12rcd13ifvqhvg","pricing_plan_id":"cebpf4jnsgd1na2vs0mg"},{"bike_id":"55bd5f04-02e9-4d5d-b358-1bd78c5e2afc","system_id":"levelo_inurba_marseille","lat":43.29101,"lon":5.38153,"is_reserved":false,"is_disabled":false,"rental_uris":{"android":"levelo://app?vid=55bd5f04-02e9-4d5d-b358-1bd78c5e2afc","ios":"levelo://app?vid=55bd5f04-02e9-4d5d-b358-1bd78c5e2afc"},"vehicle_type_id":"4","last_reported":1730657541,"current_range_meters":12000,"station_id":"ce4bh512rcd13ifvqe2g","pricing_plan_id":"cebpf4jnsgd1na2vs0mg"},{"bike_id":"658681b4-99e0-4718-8f1b-30a67e64b7c9","system_id":"levelo_inurba_marseille","lat":43.301361,"lon":5.398618,"is_reserved":false,"is_disabled":false,"rental_uris":{"android":"levelo://app?vid=658681b4-99e0-4718-8f1b-30a67e64b7c9","ios":"levelo://app?vid=658681b4-99e0-4718-8f1b-30a67e64b7c9"},"vehicle_type_id":"4","last_reported":1730657541,"current_range_meters":24800,"station_id":"ce4bh0h2rcd13ifvqd40","pricing_plan_id":"cebpf4jnsgd1na2vs0mg"},{"bike_id":"7fa71b97-c192-4755-89c5-ee8e80307d90","system_id":"levelo_inurba_marseille","lat":43.29254,"lon":5.3844,"is_reserved":false,"is_disabled":false,"rental_uris":{"android":"levelo://app?vid=7fa71b97-c192-4755-89c5-ee8e80307d90","ios":"levelo://app?vid=7fa71b97-c192-4755-89c5-ee8e80307d90"},"vehicle_type_id":"4","last_reported":1730657541,"current_range_meters":12400,"station_id":"ce4bh692rcd13ifvqea0","pricing_plan_id":"cebpf4jnsgd1na2vs0mg"},{"bike_id":"de5f1e82-b100-4ba4-854a-06e99f2ca5c6","system_id":"levelo_inurba_marseille","lat":43.30141,"lon":5.39848,"is_reserved":false,"is_disabled":false,"rental_uris":{"android":"levelo://app?vid=de5f1e82-b100-4ba4-854a-06e99f2ca5c6","ios":"levelo://app?vid=de5f1e82-b100-4ba4-854a-06e99f2ca5c6"},"vehicle_type_id":"4","last_reported":1730657541,"current_range_meters":29600,"station_id":"ce4bh0h2rcd13ifvqd40","pricing_plan_id":"cebpf4jnsgd1na2vs0mg"},{"bike_id":"8c620c9e-6a53-4f8e-8c0a-71d80d1e0d6f","system_id":"levelo_inurba_marseille","lat":43.25871,"lon":5.399,"is_reserved":false,"is_disabled":false,"rental_uris":{"android":"levelo://app?vid=8c620c9e-6a53-4f8e-8c0a-71d80d1e0d6f","ios":"levelo://app?vid=8c620c9e-6a53-4f8e-8c0a-71d80d1e0d6f"},"vehicle_type_id":"4","last_reported":1730657541,"current_range_meters":9200,"station_id":"ce4bhl92rcd13ifvqghg","pricing_plan_id":"cebpf4jnsgd1na2vs0mg"},{"bike_id":"979628b2-527a-4544-bb36-9c1d5a743ec3","system_id":"levelo_inurba_marseille","lat":43.30881,"lon":5.37196,"is_reserved":false,"is_disabled":false,"rental_uris":{"android":"levelo://app?vid=979628b2-527a-4544-bb36-9c1d5a743ec3","ios":"levelo://app?vid=979628b2-527a-4544-bb36-9c1d5a743ec3"},"vehicle_type_id":"4","last_reported":1730657541,"current_range_meters":34800,"station_id":"ce4bguh2rcd13ifvqckg","pricing_plan_id":"cebpf4jnsgd1na2vs0mg"},{"bike_id":"91f4eaf9-addb-4ec1-bd23-739329b48b9e","system_id":"levelo_inurba_marseille","lat":43.3088,"lon":5.39638,"is_reserved":false,"is_disabled":false,"rental_uris":{"android":"levelo://app?vid=91f4eaf9-addb-4ec1-bd23-739329b48b9e","ios":"levelo://app?vid=91f4eaf9-addb-4ec1-bd23-739329b48b9e"},"vehicle_type_id":"4","last_reported":1730657541,"current_range_meters":32800,"station_id":"ce4bh012rcd13ifvqcv0","pricing_plan_id":"cebpf4jnsgd1na2vs0mg"},{"bike_id":"17610d74-1ca3-4ccb-aaee-551465fc879f","system_id":"levelo_inurba_marseille","lat":43.28862,"lon":5.35906,"is_reserved":false,"is_disabled":false,"rental_uris":{"android":"levelo://app?vid=17610d74-1ca3-4ccb-aaee-551465fc879f","ios":"levelo://app?vid=17610d74-1ca3-4ccb-aaee-551465fc879f"},"vehicle_type_id":"4","last_reported":1730657541,"current_range_meters":38800,"station_id":"ce4bhah2rcd13ifvqej0","pricing_plan_id":"cebpf4jnsgd1na2vs0mg"},{"bike_id":"8016eb79-99b4-44bd-ac05-7846f44e83e0","system_id":"levelo_inurba_marseille","lat":43.33724,"lon":5.39179,"is_reserved":false,"is_disabled":false,"rental_uris":{"android":"levelo://app?vid=8016eb79-99b4-44bd-ac05-7846f44e83e0","ios":"levelo://app?vid=8016eb79-99b4-44bd-ac05-7846f44e83e0"},"vehicle_type_id":"4","last_reported":1730657541,"current_range_meters":17600,"station_id":"ce4bhr92rcd13ifvqhsg","pricing_plan_id":"cebpf4jnsgd1na2vs0mg"},{"bike_id":"0ed3edd9-c5cd-4a8b-9d97-e59222601059","system_id":"levelo_inurba_marseille","lat":43.29627,"lon":5.41918,"is_reserved":false,"is_disabled":false,"rental_uris":{"android":"levelo://app?vid=0ed3edd9-c5cd-4a8b-9d97-e59222601059","ios":"levelo://app?vid=0ed3edd9-c5cd-4a8b-9d97-e59222601059"},"vehicle_type_id":"4","last_reported":1730657541,"current_range_meters":24400,"station_id":"","pricing_plan_id":"cebpf4jnsgd1na2vs0mg"},{"bike_id":"c86c6075-4e75-4f0b-8f76-3dcb52c1bb7d","system_id":"levelo_inurba_marseille","lat":43.23965,"lon":5.36624,"is_reserved":false,"is_disabled":false,"rental_uris":{"android":"levelo://app?vid=c86c6075-4e75-4f0b-8f76-3dcb52c1bb7d","ios":"levelo://app?vid=c86c6075-4e75-4f0b-8f76-3dcb52c1bb7d"},"vehicle_type_id":"4","last_reported":1730657541,"current_range_meters":32800,"station_id":"ce4bhi12rcd13ifvqfp0","pricing_plan_id":"cebpf4jnsgd1na2vs0mg"},{"bike_id":"09c4e025-0035-4b02-9331-e4c6e4b55438","system_id":"levelo_inurba_marseille","lat":43.30361,"lon":5.39151,"is_reserved":false,"is_disabled":false,"rental_uris":{"android":"levelo://app?vid=09c4e025-0035-4b02-9331-e4c6e4b55438","ios":"levelo://app?vid=09c4e025-0035-4b02-9331-e4c6e4b55438"},"vehicle_type_id":"4","last_reported":1730657541,"current_range_meters":32400,"station_id":"","pricing_plan_id":"cebpf4jnsgd1na2vs0mg"},{"bike_id":"4c5363da-5c0b-454a-944d-a9889b59957e","system_id":"levelo_inurba_marseille","lat":43.24071,"lon":5.37759,"is_reserved":false,"is_disabled":false,"rental_uris":{"android":"levelo://app?vid=4c5363da-5c0b-454a-944d-a9889b59957e","ios":"levelo://app?vid=4c5363da-5c0b-454a-944d-a9889b59957e"},"vehicle_type_id":"4","last_reported":1730657541,"current_range_meters":38800,"station_id":"ce4bhnp2rcd13ifvqgvg","pricing_plan_id":"cebpf4jnsgd1na2vs0mg"},