{"last_updated":1733532620,"ttl":60,"version":"2.2","data":{"bikes":[{"bike_id":"c8756871-db35-4a3b-b691-d98d2619e332","system_id":"levelo_inurba_marseille","lat":43.23148,"lon":5.43721,"is_reserved":false,"is_disabled":false,"rental_uris":{"android":"levelo://app?vid=c8756871-db35-4a3b-b691-d98d2619e332","ios":"levelo://app?vid=c8756871-db35-4a3b-b691-d98d2619e332"},"vehicle_type_id":"4","last_reported":1733532621,"current_range_meters":38800,"station_id":"ce4bhmp2rcd13ifvqgog","pricing_plan_id":"cebpf4jnsgd1na2vs0mg"},{"bike_id":"df479c2c-35ac-44ad-b9d6-81c89ed769ce","system_id":"levelo_inurba_marseille","lat":43.29699,"lon":5.37054,"is_reserved":false,"is_disabled":true,"rental_uris":{"android":"levelo://app?vid=df479c2c-35ac-44ad-b9d6-81c89ed769ce","ios":"levelo://app?vid=df479c2c-35ac-44ad-b9d6-81c89ed769ce"},"vehicle_type_id":"4","last_reported":1733532621,"current_range_meters":0,"station_id":"","pricing_plan_id":"cebpf4jnsgd1na2vs0mg"},{"bike_id":"8e029eaf-e104-4c5d-858d-6cd39de73d09","system_id":"levelo_inurba_marseille","lat":43.24179,"lon":5.36374,"is_reserved":false,"is_disabled":false,"rental_uris":{"android":"levelo://app?vid=8e029eaf-e104-4c5d-858d-6cd39de73d09","ios":"levelo://app?vid=8e029eaf-e104-4c5d-858d-6cd39de73d09"},"vehicle_type_id":"4","last_reported":1733532621,"current_range_meters":34000,"station_id":"cpo36qri1sfpv3e86is0","pricing_plan_id":"cebpf4jnsgd1na2vs0mg"},{"bike_id":"38d7b96b-ea49-42ac-9547-ee57fecfb84c","system_id":"levelo_inurba_marseille","lat":43.28151,"lon":5.42638,"is_reserved":false,"is_disabled":false,"rental_uris":{"android":"levelo://app?vid=38d7b96b-ea49-42ac-9547-ee57fecfb84c","ios":"levelo://app?vid=38d7b96b-ea49-42ac-9547-ee57fecfb84c"},"vehicle_type_id":"4","last_reported":1733532621,"current_range_meters":28000,"station_id":"ce4bhnh2rcd13ifvqgug","pricing_plan_id":"cebpf4jnsgd1na2vs0mg"},{"bike_id":"b1b358a9-909a-41b5-9d50-574e97fa9ae5","system_id":"levelo_inurba_marseille","lat":43.33607,"lon":5.40991,"is_reserved":false,"is_disabled":false,"rental_uris":{"android":"levelo://app?vid=b1b358a9-909a-41b5-9d50-574e97fa9ae5","ios":"levelo://app?vid=b1b358a9-909a-41b5-9d50-574e97fa9ae5"},"vehicle_type_id":"4","last_reported":1733532621,"current_range_meters":38800,"station_id":"ce4bhqh2rcd13ifvqhmg","pricing_plan_id":"cebpf4jnsgd1na2vs0mg"},{"bike_id":"344f5c70-0f85-4aa1-9fae-600bb9b19059","system_id":"levelo_inurba_marseille","lat":43.30129,"lon":5.39856,"is_reserved":false,"is_disabled":true,"rental_uris":{"android":"levelo://app?vid=344f5c70-0f85-4aa1-9fae-600bb9b19059","ios":"levelo://app?vid=344f5c70-0f85-4aa1-9fae-600bb9b19059"},"vehicle_type_id":"4","last_reported":1733532621,"current_range_meters":0,"station_id":"ce4bh0h2rcd13ifvqd40","pricing_plan_id":"cebpf4jnsgd1na2vs0mg"},{"bike_id":"0351a6f5-fa2c-43f4-b93f-29fbb0943695","system_id":"levelo_inurba_marseille","lat":43.28664,"lon":5.36335,"is_reserved":false,"is_disabled":false,"rental_uris":{"android":"levelo://app?vid=0351a6f5-fa2c-43f4-b93f-29fbb0943695","ios":"levelo://app?vid=0351a6f5-fa2c-43f4-b93f-29fbb0943695"},"vehicle_type_id":"4","last_reported":1733532621,"current_range_meters":16800,"station_id":"ce4bhah2rcd13ifvqej0","pricing_plan_id":"cebpf4jnsgd1na2vs0mg"},{"bike_id":"be407bbe-d1ce-48de-8db2-09114af9efd7","system_id":"levelo_inurba_marseille","lat":43.32366,"lon":5.36758,"is_reserved":false,"is_disabled":false,"rental_uris":{"android":"levelo://app?vid=be407bbe-d1ce-48de-8db2-09114af9efd7","ios":"levelo://app?vid=be407bbe-d1ce-48de-8db2-09114af9efd7"},"vehicle_type_id":"4","last_reported":1733532621,"current_range_meters":21600,"station_id":"ce4bhsh2rcd13ifvqi2g","pricing_plan_id":"cebpf4jnsgd1na2vs0mg"},{"bike_id":"8b3071ab-5472-4b84-a0a6-04e190cd77f5","system_id":"levelo_inurba_marseille","lat":43.25118,"lon":5.40325,"is_reserved":false,"is_disabled":false,"rental_uris":{"android":"levelo://app?vid=8b3071ab-5472-4b84-a0a6-04e190cd77f5","ios":"levelo://app?vid=8b3071ab-5472-4b84-a0a6-04e190cd77f5"},"vehicle_type_id":"4","last_reported":1733532621,"current_range_meters":26000,"station_id":"ce4bhlh2rcd13ifvqgig","pricing_plan_id":"cebpf4jnsgd1na2vs0mg"},{"bike_id":"5fd8fda4-5ceb-4e39-b9f4-ea27acda2ce7","system_id":"levelo_inurba_marseille","lat":43.27187,"lon":5.40999,"is_reserved":false,"is_disabled":true,"rental_uris":{"android":"levelo://app?vid=5fd8fda4-5ceb-4e39-b9f4-ea27acda2ce7","ios":"levelo://app?vid=5fd8fda4-5ceb-4e39-b9f4-ea27acda2ce7"},"vehicle_type_id":"4","last_reported":1733532621,"current_range_meters":24800,"station_id":"ce4bhl12rcd13ifvqgf0","pricing_plan_id":"cebpf4jnsgd1na2vs0mg"},{"bike_id":"f863114f-6d76-4420-9866-09e69121e274","system_id":"levelo_inurba_marseille","lat":43.27943,"lon":5.41042,"is_reserved":false,"is_disabled":false,"rental_uris":{"android":"levelo://app?vid=f863114f-6d76-4420-9866-09e69121e274","ios":"levelo://app?vid=f863114f-6d76-4420-9866-09e69121e274"},"vehicle_type_id":"4","last_reported":1733532621,"current_range_meters":21600,"station_id":"ce4bhnp2rcd13ifvqh0g","pricing_plan_id":"cebpf4jnsgd1na2vs0mg"},{"bike_id":"239545fa-9791-4d6a-8944-4633fd27845c","system_id":"levelo_inurba_marseille","lat":43.33022,"lon":5.39036,"is_reserved":false,"is_disabled":false,"rental_uris":{"android":"levelo://app?vid=239545fa-9791-4d6a-8944-4633fd27845c","ios":"levelo://app?vid=239545fa-9791-4d6a-8944-4633fd27845c"},"vehicle_type_id":"4","last_reported":1733532621,"current_range_meters":37600,"station_id":"ce4bhr92rcd13ifvqhrg","pricing_plan_id":"cebpf4jnsgd1na2vs0mg"},{"bike_id":"8bd642b2-0279-44c7-9ee2-fc3b57332c83","system_id":"levelo_inurba_marseille","lat":43.27455,"lon":5.40073,"is_reserved":false,"is_disabled":true,"rental_uris":{"android":"levelo://app?vid=8bd642b2-0279-44c7-9ee2-fc3b57332c83","ios":"levelo://app?vid=8bd642b2-0279-44c7-9ee2-fc3b57332c83"},"vehicle_type_id":"4","last_reported":1733532621,"current_range_meters":0,"station_id":"","pricing_plan_id":"cebpf4jnsgd1na2vs0mg"},{"bike_id":"700e49bb-7ec7-48af-8135-9fdd09b1944f","system_id":"levelo_inurba_marseille","lat":43.29379,"lon":5.37845,"is_reserved":false,"is_disabled":false,"rental_uris":{"android":"levelo://app?vid=700e49bb-7ec7-48af-8135-9fdd09b1944f","ios":"levelo://app?vid=700e49bb-7ec7-48af-8135-9fdd09b1944f"},"vehicle_type_id":"4","last_reported":1733532621,"current_range_meters":30000,"station_id":"ce4bgjh2rcd13ifvqbf0","pricing_plan_id":"cebpf4jnsgd1na2vs0mg"},{"bike_id":"d74af636-6579-4ab4-b1fa-425c22675376","system_id":"levelo_inurba_marseille","lat":43.29909,"lon":5.37395,"is_reserved":false,"is_disabled":false,"rental_uris":{"android":"levelo://app?vid=d74af636-6579-4ab4-b1fa-425c22675376","ios":"levelo://app?vid=d74af636-6579-4ab4-b1fa-425c22675376"},"vehicle_type_id":"4","last_reported":1733532621,"current_range_meters":4400,"station_id":"","pricing_plan_id":"cebpf4jnsgd1na2vs0mg"},{"bike_id":"0c3abd45-1265-4c42-90c3-bc8768cea188","system_id":"levelo_inurba_marseille","lat":43.27961,"lon":5.38714,"is_reserved":false,"is_disabled":false,"rental_uris":{"android":"levelo://app?vid=0c3abd45-1265-4c42-90c3-bc8768cea188","ios":"levelo://app?vid=0c3abd45-1265-4c42-90c3-bc8768cea188"},"vehicle_type_id":"4","last_reported":1733532621,"current_range_meters":9600,"station_id":"ce4bhg12rcd13ifvqf80","pricing_plan_id":"cebpf4jnsgd1na2vs0mg"},{"bike_id":"2400544c-1704-4a94-9add-0ef061ffa101","system_id":"levelo_inurba_marseille","lat":43.28715,"lon":5.3792,"is_reserved":false,"is_disabled":false,"rental_uris":{"android":"levelo://app?vid=2400544c-1704-4a94-9add-0ef061ffa101","ios":"levelo://app?vid=2400544c-1704-4a94-9add-0ef061ffa101"},"vehicle_type_id":"4","last_reported":1733532621,"current_range_meters":38800,"station_id":"ce4bh9p2rcd13ifvqec0","pricing_plan_id":"cebpf4jnsgd1na2vs0mg"},{"bike_id":"997ca4c6-4b37-45b7-b4c8-d3246d03ecc3","system_id":"levelo_inurba_marseille","lat":43.23543,"lon":5.37979,"is_reserved":false,"is_disabled":true,"rental_uris":{"android":"levelo://app?vid=997ca4c6-4b37-45b7-b4c8-d3246d03ecc3","ios":"levelo://app?vid=997ca4c6-4b37-45b7-b4c8-d3246d03ecc3"},"vehicle_type_id":"4","last_reported":1733532621,"current_range_meters":0,"station_id":"","pricing_plan_id":"cebpf4jnsgd1na2vs0mg"},{"bike_id":"0375ee15-ac2e-4e09-bbe0-96d3e12f6421","system_id":"levelo_inurba_marseille","lat":43.27942,"lon":5.41026,"is_reserved":false,"is_disabled":false,"rental_uris":{"android":"levelo://app?vid=0375ee15-ac2e-4e09-bbe0-96d3e12f6421","ios":"levelo://app?vid=0375ee15-ac2e-4e09-bbe0-96d3e12f6421"},"vehicle_type_id":"4","last_reported":1733532621,"current_range_meters":28400,"station_id":"ce4bhnp2rcd13ifvqh0g","pricing_plan_id":"cebpf4jnsgd1na2vs0mg"},{"bike_id":"80532cb4-159b-4e7a-a712-21a3b6a1f459","system_id":"levelo_inurba_marseille","lat":43.3248,"lon":5.36562,"is_reserved":false,"is_disabled":false,"rental_uris":{"android":"levelo://app?vid=80532cb4-159b-4e7a-a712-21a3b6a1f459","ios":"levelo://app?vid=80532cb4-159b-4e7a-a712-21a3b6a1f459"},"vehicle_type_id":"4","last_reported":1733532621,"current_range_meters":17600,"station_id":"ce4bhs12rcd13ifvqhvg","pricing_plan_id":"cebpf4jnsgd1na2vs0mg"},{"bike_id":"650aedbd-7fe9-41b2-ab79-4b8450652642","system_id":"levelo_inurba_marseille","lat":43.2919,"lon":5.3579,"is_reserved":false,"is_disabled":true,"rental_uris":{"android":"levelo://app?vid=650aedbd-7fe9-41b2-ab79-4b8450652642","ios":"levelo://app?vid=650aedbd-7fe9-41b2-ab79-4b8450652642"},"vehicle_type_id":"4","last_reported":1733532621,"current_range_meters":13600,"station_id":"ce4bhb12rcd13ifvqel0","pricing_plan_id":"cebpf4jnsgd1na2vs0mg"},{"bike_id":"bf911c18-a7fc-4303-ac04-045a0018f234","system_id":"levelo_inurba_marseille","lat":43.27832,"lon":5.39199,"is_reserved":false,"is_disabled":false,"rental_uris":{"android":"levelo://app?vid=bf911c18-a7fc-4303-ac04-045a0018f234","ios":"levelo://app?vid=bf911c18-a7fc-4303-ac04-045a0018f234"},"vehicle_type_id":"4","last_reported":1733532621,"current_range_meters":16400,"station_id":"ce4bhjp2rcd13ifvqga0","pricing_plan_id":"cebpf4jnsgd1na2vs0mg"},{"bike_id":"479889bf-dbf3-4abb-926f-bf7556951acc","system_id":"levelo_inurba_marseille","lat":43.29896,"lon":5.43668,"is_reserved":false,"is_disabled":false,"rental_uris":{"android":"levelo://app?vid=479889bf-dbf3-4abb-926f-bf7556951acc","ios":"levelo://app?vid=479889bf-dbf3-4abb-926f-bf7556951acc"},"vehicle_type_id":"4","last_reported":1733532621,"current_range_meters":9200,"station_id":"ce4bhpp2rcd13ifvqhfg","pricing_plan_id":"cebpf4jnsgd1na2vs0mg"},{"bike_id":"b3f478ac-3b05-4edf-bdbf-76399090f8e9","system_id":"levelo_inurba_marseille","lat":43.29994,"lon":5.37639,"is_reserved":false,"is_disabled":true,"rental_uris":{"android":"levelo://app?vid=b3f478ac-3b05-4edf-bdbf-76399090f8e9","ios":"levelo://app?vid=b3f478ac-3b05-4edf-bdbf-76399090f8e9"},"vehicle_type_id":"4","last_reported":1733532621,"current_range_meters":0,"station_id":"","pricing_plan_id":"cebpf4jnsgd1na2vs0mg"},{"bike_id":"fdc62a63-5355-4bd1-a06c-e6106eb23903","system_id":"levelo_inurba_marseille","lat":43.23958,"lon":5.36634,"is_reserved":false,"is_disabled":false,"rental_uris":{"android":"levelo://app?vid=fdc62a63-5355-4bd1-a06c-e6106eb23903","ios":"levelo://app?vid=fdc62a63-5355-4bd1-a06c-e6106eb23903"},"vehicle_type_id":"4","last_reported":1733532621,"current_range_meters":6800,"station_id":"ce4bhi12rcd13ifvqfp0","pricing_plan_id":"cebpf4jnsgd1na2vs0mg"},{"bike_id":"e920e5e9-e216-46fe-b2aa-7692c43d1eb1","system_id":"levelo_inurba_marseille","lat":43.29715,"lon":5.36589,"is_reserved":false,"is_disabled":false,"rental_uris":{"android":"levelo://app?vid=e920e5e9-e216-46fe-b2aa-7692c43d1eb1","ios":"levelo://app?vid=e920e5e9-e216-46fe-b2aa-7692c43d1eb1"},"vehicle_type_id":"4","last_reported":1733532621,"current_range_meters":17200,"station_id":"ce4bgn12rcd13ifvqbt0","pricing_plan_id":"cebpf4jnsgd1na2vs0mg"},{"bike_id":"01a141d4-85c9-469d-9268-7429778b6eb4","system_id":"levelo_inurba_marseille","lat":43.308853,"lon":5.396285,"is_reserved":false,"is_disabled":false,"rental_uris":{"android":"levelo://app?vid=01a141d4-85c9-469d-9268-7429778b6eb4","ios":"levelo://app?vid=01a141d4-85c9-469d-9268-7429778b6eb4"},"vehicle_type_id":"4","last_reported":1733532621,"current_range_meters":10800,"station_id":"ce4bh012rcd13ifvqcv0","pricing_plan_id":"cebpf4jnsgd1na2vs0mg"},{"bike_id":"89ceac00-2c22-4cb1-b85d-583fccdb788b","system_id":"levelo_inurba_marseille","lat":43.32081,"lon":5.36818,"is_reserved":false,"is_disabled":false,"rental_uris":{"android":"levelo://app?vid=89ceac00-2c22-4cb1-b85d-583fccdb788b","ios":"levelo://app?vid=89ceac00-2c22-4cb1-b85d-583fccdb788b"},"vehicle_type_id":"4","last_reported":1733532621,"current_range_meters":20000,"station_id":"ce4bhrh2rcd13ifvqhug","pricing_plan_id":"cebpf4jnsgd1na2vs0mg"},{"bike_id":"01ea66f0-0408-48da-a1f2-c28d34e1072c","system_id":"levelo_inurba_marseille","lat":43.32337,"lon":5.40623,"is_reserved":false,"is_disabled":false,"rental_uris":{"android":"levelo://app?vid=01ea66f0-0408-48da-a1f2-c28d34e1072c","ios":"levelo://app?vid=01ea66f0-0408-48da-a1f2-c28d34e1072c"},"vehicle_type_id":"4","last_reported":1733532621,"current_range_meters":38800,"station_id":"ce4bhq92rcd13ifvqhjg","pricing_plan_id":"cebpf4jnsgd1na2vs0mg"},{"bike_id":"6e585e8d-eb79-4f23-aa31-57bc77960c8d","system_id":"levelo_inurba_marseille","lat":43.30133,"lon":5.39869,"is_reserved":false,"is_disabled":false,"rental_uris":{"android":"levelo://app?vid=6e585e8d-eb79-4f23-aa31-57bc77960c8d","ios":"levelo://app?vid=6e585e8d-eb79-4f23-aa31-57bc77960c8d"},"vehicle_type_id":"4","last_reported":1733532621,"current_range_meters":8400,"station_id":"ce4bh0h2rcd13ifvqd40","pricing_plan_id":"cebpf4jnsgd1na2vs0mg"},{"bike_id":"786b3983-4353-4c6b-b2a2-4c074e4b7adb","system_id":"levelo_inurba_marseille","lat":43.31708,"lon":5.43709,"is_reserved":false,"is_disabled":false,"rental_uris":{"android":"levelo://app?vid=786b3983-4353-4c6b-b2a2-4c074e4b7adb","ios":"levelo://app?vid=786b3983-4353-4c6b-b2a2-4c074e4b7adb"},"vehicle_type_id":"4","last_reported":1733532621,"current_range_meters":38800,"station_id":"ce4bhp92rcd13ifvqhcg","pricing_plan_id":"cebpf4jnsgd1na2vs0mg"},{"bike_id":"a8ca95e3-8f8d-4185-8f55-ea1248622191","system_id":"levelo_inurba_marseille","lat":43.2718,"lon":5.40991,"is_reserved":false,"is_disabled":false,"rental_uris":{"android":"levelo://app?vid=a8ca95e3-8f8d-4185-8f55-ea1248622191","ios":"levelo://app?vid=a8ca95e3-8f8d-4185-8f55-ea1248622191"},"vehicle_type_id":"4","last_reported":1733532621,"current_range_meters":37600,"station_id":"ce4bhl12rcd13ifvqgf0","pricing_plan_id":"cebpf4jnsgd1na2vs0mg"},{"bike_id":"e8623831-4b61-44ba-8900-05515b94c8b3","system_id":"levelo_inurba_marseille","lat":43.3042,"lon":5.41275,"is_reserved":false,"is_disabled":false,"rental_uris":{"android":"levelo://app?vid=e8623831-4b61-44ba-8900-05515b94c8b3","ios":"levelo://app?vid=e8623831-4b61-44ba-8900-05515b94c8b3"},"vehicle_type_id":"4","last_reported":1733532621,"current_range_meters":21600,"station_id":"ce4bhop2rcd13ifvqh8g","pricing_plan_id":"cebpf4jnsgd1na2vs0mg"},{"bike_id":"938640b4-f78c-4def-9b16-e6205edb88bc","system_id":"levelo_inurba_marseille","lat":43.28151,"lon":5.42642,"is_reserved":false,"is_disabled":true,"rental_uris":{"android":"levelo://app?vid=938640b4-f78c-4def-9b16-e6205edb88bc","ios":"levelo://app?vid=938640b4-f78c-4def-9b16-e6205edb88bc"},"vehicle_type_id":"4","last_reported":1733532621,"current_range_meters":18000,"station_id":"ce4bhnh2rcd13ifvqgug","pricing_plan_id":"cebpf4jnsgd1na2vs0mg"},{"bike_id":"6f9d32a5-9ec9-4309-9464-608c29d2fea1","system_id":"levelo_inurba_marseille","lat":43.31277,"lon":5.4017,"is_reserved":false,"is_disabled":false,"rental_uris":{"android":"levelo://app?vid=6f9d32a5-9ec9-4309-9464-608c29d2fea1","ios":"levelo://app?vid=6f9d32a5-9ec9-4309-9464-608c29d2fea1"},"vehicle_type_id":"4","last_reported":1733532621,"current_range_meters":38800,"station_id":"ce4bh092rcd13ifvqd30","pricing_plan_id":"cebpf4jnsgd1na2vs0mg"},{"bike_id":"c68093c4-dc1e-4628-81d0-f9e948ab3f75","system_id":"levelo_inurba_marseille","lat":43.275,"lon":5.42446,"is_reserved":false,"is_disabled":false,"rental_uris":{"android":"levelo://app?vid=c68093c4-dc1e-4628-81d0-f9e948ab3f75","ios":"levelo://app?vid=c68093c4-dc1e-4628-81d0-f9e948ab3f75"},"vehicle_type_id":"4","last_reported":1733532621,"current_range_meters":39200,"station_id":"ce4bhn92rcd13ifvqgrg","pricing_plan_id":"cebpf4jnsgd1na2vs0mg"},{"bike_id":"0d76dbf6-5e40-455b-a0e6-70fb0b70c5f9","system_id":"levelo_inurba_marseille","lat":43.32362,"lon":5.38884,"is_reserved":false,"is_disabled":false,"rental_uris":{"android":"levelo://app?vid=0d76dbf6-5e40-455b-a0e6-70fb0b70c5f9","ios":"levelo://app?vid=0d76dbf6-5e40-455b-a0e6-70fb0b70c5f9"},"vehicle_type_id":"4","last_reported":1733532621,"current_range_meters":34000,"station_id":"ce4bhqp2rcd13ifvqhog","pricing_plan_id":"cebpf4jnsgd1na2vs0mg"},{"bike_id":"ec64d144-9b2f-4f16-aa39-037e3f5e8e47","system_id":"levelo_inurba_marseille","lat":43.28705,"lon":5.39985,"is_reserved":false,"is_disabled":false,"rental_uris":{"android":"levelo://app?vid=ec64d144-9b2f-4f16-aa39-037e3f5e8e47","ios":"levelo://app?vid=ec64d144-9b2f-4f16-aa39-037e3f5e8e47"},"vehicle_type_id":"4","last_reported":1733532621,"current_range_meters":38800,"station_id":"ce4bho92rcd13ifvqh3g","pricing_plan_id":"cebpf4jnsgd1na2vs0mg"},{"bike_id":"2f3968e7-9336-4ee4-ba78-8e92c0a818cc","system_id":"levelo_inurba_marseille","lat":43.31322,"lon":5.36647,"is_reserved":false,"is_disabled":true,"rental_uris":{"android":"levelo://app?vid=2f3968e7-9336-4ee4-ba78-8e92c0a818cc","ios":"levelo://app?vid=2f3968e7-9336-4ee4-ba78-8e92c0a818cc"},"vehicle_type_id":"4","last_reported":1733532621,"current_range_meters":0,"station_id":"","pricing_plan_id":"cebpf4jnsgd1na2vs0mg"},{"bike_id":"5ebc19a5-4eab-4ea6-b558-b6d986ab3c2e","system_id":"levelo_inurba_marseille","lat":43.24651,"lon":5.38896,"is_reserved":false,"is_disabled":false,"rental_uris":{"android":"levelo://app?vid=5ebc19a5-4eab-4ea6-b558-b6d986ab3c2e","ios":"levelo://app?vid=5ebc19a5-4eab-4ea6-b558-b6d986ab3c2e"},"vehicle_type_id":"4","last_reported":1733532621,"current_range_meters":38800,"station_id":"ce4bhg12rcd13ifvqf60","pricing_plan_id":"cebpf4jnsgd1na2vs0mg"},{"bike_id":"1af73d12-007b-4323-a123-cb92ce26c75b","system_id":"levelo_inurba_marseille","lat":43.23189,"lon":5.3998,"is_reserved":false,"is_disabled":false,"rental_uris":{"android":"levelo://app?vid=1af73d12-007b-4323-a123-cb92ce26c75b","ios":"levelo://app?vid=1af73d12-007b-4323-a123-cb92ce26c75b"},"vehicle_type_id":"4","last_reported":1733532621,"current_range_meters":38800,"station_id":"ce4bhn12rcd13ifvqgqg","pricing_plan_id":"cebpf4jnsgd1na2vs0mg"},{"bike_id":"85950b3c-b6c0-4183-9663-0f1dd74b4577","system_id":"levelo_inurba_marseille","lat":43.27944,"lon":5.41038,"is_reserved":false,"is_disabled":false,"rental_uris":{"android":"levelo://app?vid=85950b3c-b6c0-4183-9663-0f1dd74b4577","ios":"levelo://app?vid=85950b3c-b6c0-4183-9663-0f1dd74b4577"},"vehicle_type_id":"4","last_reported":1733532621,"current_range_meters":20800,"station_id":"ce4bhnp2rcd13ifvqh0g","pricing_plan_id":"cebpf4jnsgd1na2vs0mg"},{"bike_id":"5ac6f8d7-e2c4-4a00-b789-9917e3ddc96d","system_id":"levelo_inurba_marseille","lat":43.29872,"lon":5.42072,"is_reserved":false,"is_disabled":false,"rental_uris":{"android":"levelo://app?vid=5ac6f8d7-e2c4-4a00-b789-9917e3ddc96d","ios":"levelo://app?vid=5ac6f8d7-e2c4-4a00-b789-9917e3ddc96d"},"vehicle_type_id":"4","last_reported":1733532621,"current_range_meters":25600,"station_id":"","pricing_plan_id":"cebpf4jnsgd1na2vs0mg"},{"bike_id":"b07a6fe6-5e2e-45e3-ba4f-24c9a68ae073","system_id":"levelo_inurba_marseille","lat":43.27993,"lon":5.41668,"is_reserved":false,"is_disabled":false,"rental_uris":{"android":"levelo://app?vid=b07a6fe6-5e2e-45e3-ba4f-24c9a68ae073","ios":"levelo://app?vid=b07a6fe6-5e2e-45e3-ba4f-24c9a68ae073"},"vehicle_type_id":"4","last_reported":1733532621,"current_range_meters":20400,"station_id":"ce4bho12rcd13ifvqh1g","pricing_plan_id":"cebpf4jnsgd1na2vs0mg"},{"bike_id":"636a717a-7652-4041-a603-85f39223fa4c","system_id":"levelo_inurba_marseille","lat":43.25092,"lon":5.39528,"is_reserved":false,"is_disabled":false,"rental_uris":{"android":"levelo://app?vid=636a717a-7652-4041-a603-85f39223fa4c","ios":"levelo://app?vid=636a717a-7652-4041-a603-85f39223fa4c"},"vehicle_type_id":"4","last_reported":1733532621,"current_range_meters":18800,"station_id":"ce4bhm12rcd13ifvqgkg","pricing_plan_id":"cebpf4jnsgd1na2vs0mg"},{"bike_id":"7736d0dc-1989-4505-a61b-7fdb0a6489c6","system_id":"levelo_inurba_marseille","lat":43.32369,"lon":5.38887,"is_reserved":false,"is_disabled":false,"rental_uris":{"android":"levelo://app?vid=7736d0dc-1989-4505-a61b-7fdb0a6489c6","ios":"levelo://app?vid=7736d0dc-1989-4505-a61b-7fdb0a6489c6"},"vehicle_type_id":"4","last_reported":1733532621,"current_range_meters":8800,"station_id":"ce4bhqp2rcd13ifvqhog","pricing_plan_id":"cebpf4jnsgd1na2vs0mg"},{"bike_id":"c9e3b204-b69b-4843-bc70-33b727cc1b20","system_id":"levelo_inurba_marseille","lat":43.29374,"lon":5.37845,"is_reserved":false,"is_disabled":false,"rental_uris":{"android":"levelo://app?vid=c9e3b204-b69b-4843-bc70-33b727cc1b20","ios":"levelo://app?vid=c9e3b204-b69b-4843-bc70-33b727cc1b20"},"vehicle_type_id":"4","last_reported":1733532621,"current_range_meters":38800,"station_id":"ce4bgjh2rcd13ifvqbf0","pricing_plan_id":"cebpf4jnsgd1na2vs0mg"},{"bike_id":"093e3fab-1d67-45bb-88e2-fad9ef67db2c","system_id":"levelo_inurba_marseille","lat":43.308,"lon":5.38142,"is_reserved":false,"is_disabled":false,"rental_uris":{"android":"levelo://app?vid=093e3fab-1d67-45bb-88e2-fad9ef67db2c","ios":"levelo://app?vid=093e3fab-1d67-45bb-88e2-fad9ef67db2c"},"vehicle_type_id":"4","last_reported":1733532621,"current_range_meters":38800,"station_id":"ce4bgt12rcd13ifvqce0","pricing_plan_id":"cebpf4jnsgd1na2vs0mg"},{"bike_id":"18c465ad-16a0-4d72-a337-11a15929aab8","system_id":"levelo_inurba_marseille","lat":43.239606,"lon":5.366203,"is_reserved":false,"is_disabled":false,"rental_uris":{"android":"levelo://app?vid=18c465ad-16a0-4d72-a337-11a15929aab8","ios":"levelo://app?vid=18c465ad-16a0-4d72-a337-11a15929aab8"},"vehicle_type_id":"4","last_reported":1733532621,"current_range_meters":8400,"station_id":"ce4bhi12rcd13ifvqfp0","pricing_plan_id":"cebpf4jnsgd1na2vs0mg"},{"bike_id":"920022d7-94ac-4187-85a6-06fec8b504c4","system_id":"levelo_inurba_marseille","lat":43.27813,"lon":5.40707,"is_reserved":false,"is_disabled":false,"rental_uris":{"android":"levelo://app?vid=920022d7-94ac-4187-85a6-06fec8b504c4","ios":"levelo://app?vid=920022d7-94ac-4187-85a6-06fec8b504c4"},"vehicle_type_id":"4","last_reported":1733532621,"current_range_meters":12000,"station_id":"ce4bhnh2rcd13ifvqgtg","pricing_plan_id":"cebpf4jnsgd1na2vs0mg"},{"bike_id":"f825a6e3-d202-4ddc-917b-5da49c4114c4","system_id":"levelo_inurba_marseille","lat":43.23196,"lon":5.35546,"is_reserved":false,"is_disabled":false,"rental_uris":{"android":"levelo://app?vid=f825a6e3-d202-4ddc-917b-5da49c4114c4","ios":"levelo://app?vid=f825a6e3-d202-4ddc-917b-5da49c4114c4"},"vehicle_type_id":"4","last_reported":1733532621,"current_range_meters":11600,"station_id":"ce4bhu92rcd13ifvqi70","pricing_plan_id":"cebpf4jnsgd1na2vs0mg"},{"bike_id":"9d0e271b-640f-4acc-ab2e-3094136e1c7e","system_id":"levelo_inurba_marseille","lat":43.25113,"lon":5.4032,"is_reserved":false,"is_disabled":false,"rental_uris":{"android":"levelo://app?vid=9d0e271b-640f-4acc-ab2e-3094136e1c7e","ios":"levelo://app?vid=9d0e271b-640f-4acc-ab2e-3094136e1c7e"},"vehicle_type_id":"4","last_reported":1733532621,"current_range_meters":36400,"station_id":"ce4bhlh2rcd13ifvqgig","pricing_plan_id":"cebpf4jnsgd1na2vs0mg"},{"bike_id":"99d81d28-387c-4fa8-9088-9181641b82bf","system_id":"levelo_inurba_marseille","lat":43.31999,"lon":5.38147,"is_reserved":false,"is_disabled":false,"rental_uris":{"android":"levelo://app?vid=99d81d28-387c-4fa8-9088-9181641b82bf","ios":"levelo://app?vid=99d81d28-387c-4fa8-9088-9181641b82bf"},"vehicle_type_id":"4","last_reported":1733532621,"current_range_meters":37600,"station_id":"ce4bhr12rcd13ifvqhpg","pricing_plan_id":"cebpf4jnsgd1na2vs0mg"},{"bike_id":"705ff5fb-e997-4717-8307-87ea163310b1","system_id":"levelo_inurba_marseille","lat":43.231944,"lon":5.399753,"is_reserved":false,"is_disabled":false,"rental_uris":{"android":"levelo://app?vid=705ff5fb-e997-4717-8307-87ea163310b1","ios":"levelo://app?vid=705ff5fb-e997-4717-8307-87ea163310b1"},"vehicle_type_id":"4","last_reported":1733532621,"current_range_meters":27600,"station_id":"ce4bhn12rcd13ifvqgqg","pricing_plan_id":"cebpf4jnsgd1na2vs0mg"},{"bike_id":"c373b192-d71b-486c-841b-20d052c8d099","system_id":"levelo_inurba_marseille","lat":43.31768,"lon":5.40447,"is_reserved":false,"is_disabled":false,"rental_uris":{"android":"levelo://app?vid=c373b192-d71b-486c-841b-20d052c8d099","ios":"levelo://app?vid=c373b192-d71b-486c-841b-20d052c8d099"},"vehicle_type_id":"4","last_reported":1733532621,"current_range_meters":38400,"station_id":"ce4bh012rcd13ifvqd00","pricing_plan_id":"cebpf4jnsgd1na2vs0mg"},{"bike_id":"dcb0c8fd-d11c-4953-ada6-9db09e3f4cec","system_id":"levelo_inurba_marseille","lat":43.26201,"lon":5.37911,"is_reserved":false,"is_disabled":false,"rental_uris":{"android":"levelo://app?vid=dcb0c8fd-d11c-4953-ada6-9db09e3f4cec","ios":"levelo://app?vid=dcb0c8fd-d11c-4953-ada6-9db09e3f4cec"},"vehicle_type_id":"4","last_reported":1733532621,"current_range_meters":24800,"station_id":"ce4bhjp2rcd13ifvqg90","pricing_plan_id":"cebpf4jnsgd1na2vs0mg"},{"bike_id":"3c3fc190-d7c5-4a81-8413-a0a07a88f08e","system_id":"levelo_inurba_marseille","lat":43.24803,"lon":5.37457,"is_reserved":false,"is_disabled":false,"rental_uris":{"android":"levelo://app?vid=3c3fc190-d7c5-4a81-8413-a0a07a88f08e","ios":"levelo://app?vid=3c3fc190-d7c5-4a81-8413-a0a07a88f08e"},"vehicle_type_id":"4","last_reported":1733532621,"current_range_meters":6800,"station_id":"ce4bhgh2rcd13ifvqfb0","pricing_plan_id":"cebpf4jnsgd1na2vs0mg"},{"bike_id":"c2cb2aa9-e8ee-4a0b-9c25-0e18b6cc57cf","system_id":"levelo_inurba_marseille","lat":43.27837,"lon":5.39205,"is_reserved":false,"is_disabled":false,"rental_uris":{"android":"levelo://app?vid=c2cb2aa9-e8ee-4a0b-9c25-0e18b6cc57cf","ios":"levelo://app?vid=c2cb2aa9-e8ee-4a0b-9c25-0e18b6cc57cf"},"vehicle_type_id":"4","last_reported":1733532621,"current_range_meters":20800,"station_id":"ce4bhjp2rcd13ifvqga0","pricing_plan_id":"cebpf4jnsgd1na2vs0mg"},{"bike_id":"f10c5e90-601b-4bd4-87e7-4cbb6a13a4fb","system_id":"levelo_inurba_marseille","lat":43.26128,"lon":5.39274,"is_reserved":false,"is_disabled":true,"rental_uris":{"android":"levelo://app?vid=f10c5e90-601b-4bd4-87e7-4cbb6a13a4fb","ios":"levelo://app?vid=f10c5e90-601b-4bd4-87e7-4cbb6a13a4fb"},"vehicle_type_id":"4","last_reported":1733532621,"current_range_meters":0,"station_id":"","pricing_plan_id":"cebpf4jnsgd1na2vs0mg"},{"bike_id":"8c4d45d2-9267-457d-b89f-898dc7d872b2","system_id":"levelo_inurba_marseille","lat":43.321482,"lon":5.384533,"is_reserved":false,"is_disabled":false,"rental_uris":{"android":"levelo://app?vid=8c4d45d2-9267-457d-b89f-898dc7d872b2","ios":"levelo://app?vid=8c4d45d2-9267-457d-b89f-898dc7d872b2"},"vehicle_type_id":"4","last_reported":1733532621,"current_range_meters":24400,"station_id":"","pricing_plan_id":"cebpf4jnsgd1na2vs0mg"},{"bike_id":"0eaeea19-86a4-49a4-9f3b-89b3560d280e","system_id":"levelo_inurba_marseille","lat":43.311642,"lon":5.387294,"is_reserved":false,"is_disabled":false,"rental_uris":{"android":"levelo://app?vid=0eaeea19-86a4-49a4-9f3b-89b3560d280e","ios":"levelo://app?vid=0eaeea19-86a4-49a4-9f3b-89b3560d280e"},"vehicle_type_id":"4","last_reported":1733532621,"current_range_meters":38800,"station_id":"ce4bgv12rcd13ifvqcp0","pricing_plan_id":"cebpf4jnsgd1na2vs0mg"},{"bike_id":"03bc2d23-234e-4521-97bd-0c3e2fe0a01d","system_id":"levelo_inurba_marseille","lat":43.31723,"lon":5.42404,"is_reserved":false,"is_disabled":false,"rental_uris":{"android":"levelo://app?vid=03bc2d23-234e-4521-97bd-0c3e2fe0a01d","ios":"levelo://app?vid=03bc2d23-234e-4521-97bd-0c3e2fe0a01d"},"vehicle_type_id":"4","last_reported":1733532621,"current_range_meters":37600,"station_id":"ce4bhp92rcd13ifvqhbg","pricing_plan_id":"cebpf4jnsgd1na2vs0mg"},{"bike_id":"7d1cfd90-3854-4815-820f-0be011234719","system_id":"levelo_inurba_marseille","lat":43.27569,"lon":5.38414,"is_reserved":false,"is_disabled":false,"rental_uris":{"android":"levelo://app?vid=7d1cfd90-3854-4815-820f-0be011234719","ios":"levelo://app?vid=7d1cfd90-3854-4815-820f-0be011234719"},"vehicle_type_id":"4","last_reported":1733532621,"current_range_meters":39200,"station_id":"ce4bhh92rcd13ifvqfi0","pricing_plan_id":"cebpf4jnsgd1na2vs0mg"},{"bike_id":"e172db4d-b1b1-43e7-851a-33a0d810e487","system_id":"levelo_inurba_marseille","lat":43.24809,"lon":5.37459,"is_reserved":false,"is_disabled":false,"rental_uris":{"android":"levelo://app?vid=e172db4d-b1b1-43e7-851a-33a0d810e487","ios":"levelo://app?vid=e172db4d-b1b1-43e7-851a-33a0d810e487"},"vehicle_type_id":"4","last_reported":1733532621,"current_range_meters":38800,"station_id":"ce4bhgh2rcd13ifvqfb0","pricing_plan_id":"cebpf4jnsgd1na2vs0mg"},{"bike_id":"39ee2c43-1a3a-4d3c-996b-f628c23212cd","system_id":"levelo_inurba_marseille","lat":43.3361,"lon":5.41024,"is_reserved":false,"is_disabled":false,"rental_uris":{"android":"levelo://app?vid=39ee2c43-1a3a-4d3c-996b-f628c23212cd","ios":"levelo://app?vid=39ee2c43-1a3a-4d3c-996b-f628c23212cd"},"vehicle_type_id":"4","last_reported":1733532621,"current_range_meters":39200,"station_id":"ce4bhqh2rcd13ifvqhmg","pricing_plan_id":"cebpf4jnsgd1na2vs0mg"},{"bike_id":"a368dae7-9369-4bac-8622-b0b8f7957831","system_id":"levelo_inurba_marseille","lat":43.28349,"lon":5.38103,"is_reserved":false,"is_disabled":false,"rental_uris":{"android":"levelo://app?vid=a368dae7-9369-4bac-8622-b0b8f7957831","ios":"levelo://app?vid=a368dae7-9369-4bac-8622-b0b8f7957831"},"vehicle_type_id":"4","last_reported":1733532621,"current_range_meters":36800,"station_id":"ce4bh412rcd13ifvqdr0","pricing_plan_id":"cebpf4jnsgd1na2vs0mg"},{"bike_id":"791fdd83-b6a4-4f30-a538-784e91860bb6","system_id":"levelo_inurba_marseille","lat":43.27995,"lon":5.41662,"is_reserved":false,"is_disabled":false,"rental_uris":{"android":"levelo://app?vid=791fdd83-b6a4-4f30-a538-784e91860bb6","ios":"levelo://app?vid=791fdd83-b6a4-4f30-a538-784e91860bb6"},"vehicle_type_id":"4","last_reported":1733532621,"current_range_meters":7200,"station_id":"ce4bho12rcd13ifvqh1g","pricing_plan_id":"cebpf4jnsgd1na2vs0mg"},{"bike_id":"f90f11ed-9729-4e45-8432-d32fecf1b6aa","system_id":"levelo_inurba_marseille","lat":43.23967,"lon":5.36626,"is_reserved":false,"is_disabled":false,"rental_uris":{"android":"levelo://app?vid=f90f11ed-9729-4e45-8432-d32fecf1b6aa","ios":"levelo://app?vid=f90f11ed-9729-4e45-8432-d32fecf1b6aa"},"vehicle_type_id":"4","last_reported":1733532621,"current_range_meters":29600,"station_id":"ce4bhi12rcd13ifvqfp0","pricing_plan_id":"cebpf4jnsgd1na2vs0mg"},{"bike_id":"deef5ee7-83de-42b8-84ba-cbc2ec811066","system_id":"levelo_inurba_marseille","lat":43.23187,"lon":5.39978,"is_reserved":false,"is_disabled":false,"rental_uris":{"android":"levelo://app?vid=deef5ee7-83de-42b8-84ba-cbc2ec811066","ios":"levelo://app?vid=deef5ee7-83de-42b8-84ba-cbc2ec811066"},"vehicle_type_id":"4","last_reported":1733532621,"current_range_meters":38800,"station_id":"ce4bhn12rcd13ifvqgqg","pricing_plan_id":"cebpf4jnsgd1na2vs0mg"},{"bike_id":"639ca965-5e6d-48d9-8263-0849ad25a852","system_id":"levelo_inurba_marseille","lat":43.31532,"lon":5.38024,"is_reserved":false,"is_disabled":false,"rental_uris":{"android":"levelo://app?vid=639ca965-5e6d-48d9-8263-0849ad25a852","ios":"levelo://app?vid=639ca965-5e6d-48d9-8263-0849ad25a852"},"vehicle_type_id":"4","last_reported":1733532621,"current_range_meters":38800,"station_id":"ce4bhsp2rcd13ifvqi50","pricing_plan_id":"cebpf4jnsgd1na2vs0mg"},{"bike_id":"25120cff-8460-4bca-ad28-62118929be1b","system_id":"levelo_inurba_marseille","lat":43.3266,"lon":5.40993,"is_reserved":false,"is_disabled":false,"rental_uris":{"android":"levelo://app?vid=25120cff-8460-4bca-ad28-62118929be1b","ios":"levelo://app?vid=25120cff-8460-4bca-ad28-62118929be1b"},"vehicle_type_id":"4","last_reported":1733532621,"current_range_meters":26800,"station_id":"ce4bhpp2rcd13ifvqhgg","pricing_plan_id":"cebpf4jnsgd1na2vs0mg"},{"bike_id":"beaaf9ba-1113-4934-8422-af2184a21740","system_id":"levelo_inurba_marseille","lat":43.28694,"lon":5.37357,"is_reserved":false,"is_disabled":false,"rental_uris":{"android":"levelo://app?vid=beaaf9ba-1113-4934-8422-af2184a21740","ios":"levelo://app?vid=beaaf9ba-1113-4934-8422-af2184a21740"},"vehicle_type_id":"4","last_reported":1733532621,"current_range_meters":18800,"station_id":"ce4bh3p2rcd13ifvqdq0","pricing_plan_id":"cebpf4jnsgd1na2vs0mg"},{"bike_id":"cdfe6590-4984-4014-86c8-6dd70747c27a","system_id":"levelo_inurba_marseille","lat":43.29737,"lon":5.37434,"is_reserved":false,"is_disabled":true,"rental_uris":{"android":"levelo://app?vid=cdfe6590-4984-4014-86c8-6dd70747c27a","ios":"levelo://app?vid=cdfe6590-4984-4014-86c8-6dd70747c27a"},"vehicle_type_id":"4","last_reported":1733532621,"current_range_meters":0,"station_id":"","pricing_plan_id":"cebpf4jnsgd1na2vs0mg"},{"bike_id":"2a022814-f741-4adf-a235-83d4941bf5e2","system_id":"levelo_inurba_marseille","lat":43.28421,"lon":5.34993,"is_reserved":false,"is_disabled":false,"rental_uris":{"android":"levelo://app?vid=2a022814-f741-4adf-a235-83d4941bf5e2","ios":"levelo://app?vid=2a022814-f741-4adf-a235-83d4941bf5e2"},"vehicle_type_id":"4","last_reported":1733532621,"current_range_meters":22000,"station_id":"ce4bhbh2rcd13ifvqepg","pricing_plan_id":"cebpf4jnsgd1na2vs0mg"},{"bike_id":"63a4d116-198c-4711-9df8-671bb41c0c3e","system_id":"levelo_inurba_marseille","lat":43.30782,"lon":5.37654,"is_reserved":false,"is_disabled":false,"rental_uris":{"android":"levelo://app?vid=63a4d116-198c-4711-9df8-671bb41c0c3e","ios":"levelo://app?vid=63a4d116-198c-4711-9df8-671bb41c0c3e"},"vehicle_type_id":"4","last_reported":1733532621,"current_range_meters":20800,"station_id":"ce4bgv92rcd13ifvqcq0","pricing_plan_id":"cebpf4jnsgd1na2vs0mg"},{"bike_id":"efbe426d-7953-4a1a-b14f-0712dbc9e0ce","system_id":"levelo_inurba_marseille","lat":43.2827,"lon":5.35064,"is_reserved":false,"is_disabled":false,"rental_uris":{"android":"levelo://app?vid=efbe426d-7953-4a1a-b14f-0712dbc9e0ce","ios":"levelo://app?vid=efbe426d-7953-4a1a-b14f-0712dbc9e0ce"},"vehicle_type_id":"4","last_reported":1733532621,"current_range_meters":38000,"station_id":"ce4bhbp2rcd13ifvqerg","pricing_plan_id":"cebpf4jnsgd1na2vs0mg"},{"bike_id":"feabf277-8b2e-42f6-8106-a3578a5b8f32","system_id":"levelo_inurba_marseille","lat":43.30134,"lon":5.39869,"is_reserved":false,"is_disabled":false,"rental_uris":{"android":"levelo://app?vid=feabf277-8b2e-42f6-8106-a3578a5b8f32","ios":"levelo://app?vid=feabf277-8b2e-42f6-8106-a3578a5b8f32"},"vehicle_type_id":"4","last_reported":1733532621,"current_range_meters":33200,"station_id":"ce4bh0h2rcd13ifvqd40","pricing_plan_id":"cebpf4jnsgd1na2vs0mg"},{"bike_id":"ce1ff3d6-7f30-4307-a218-b219e782ba96","system_id":"levelo_inurba_marseille","lat":43.26058,"lon":5.39395,"is_reserved":false,"is_disabled":false,"rental_uris":{"android":"levelo://app?vid=ce1ff3d6-7f30-4307-a218-b219e782ba96","ios":"levelo://app?vid=ce1ff3d6-7f30-4307-a218-b219e782ba96"},"vehicle_type_id":"4","last_reported":1733532621,"current_range_meters":15200,"station_id":"ce4bhh92rcd13ifvqfj0","pricing_plan_id":"cebpf4jnsgd1na2vs0mg"},{"bike_id":"9e02ca9a-2999-4700-acfa-285ba2c0a48c","system_id":"levelo_inurba_marseille","lat":43.32368,"lon":5.38886,"is_reserved":false,"is_disabled":false,"rental_uris":{"android":"levelo://app?vid=9e02ca9a-2999-4700-acfa-285ba2c0a48c","ios":"levelo://app?vid=9e02ca9a-2999-4700-acfa-285ba2c0a48c"},"vehicle_type_id":"4","last_reported":1733532621,"current_range_meters":38800,"station_id":"ce4bhqp2rcd13ifvqhog","pricing_plan_id":"cebpf4jnsgd1na2vs0mg"},{"bike_id":"51ebfac9-38cc-4e5a-a9f1-a10fc0abf730","system_id":"levelo_inurba_marseille","lat":43.28731,"lon":5.36088,"is_reserved":false,"is_disabled":false,"rental_uris":{"android":"levelo://app?vid=51ebfac9-38cc-4e5a-a9f1-a10fc0abf730","ios":"levelo://app?vid=51ebfac9-38cc-4e5a-a9f1-a10fc0abf730"},"vehicle_type_id":"4","last_reported":1733532621,"current_range_meters":38800,"station_id":"cki0cbj6b192h4jlfktg","pricing_plan_id":"cebpf4jnsgd1na2vs0mg"},{"bike_id":"987a5ab4-d60c-480c-94b6-7cab38975402","system_id":"levelo_inurba_marseille","lat":43.29748,"lon":5.37971,"is_reserved":false,"is_disabled":true,"rental_uris":{"android":"levelo://app?vid=987a5ab4-d60c-480c-94b6-7cab38975402","ios":"levelo://app?vid=987a5ab4-d60c-480c-94b6-7cab38975402"},"vehicle_type_id":"4","last_reported":1733532621,"current_range_meters":0,"station_id":"","pricing_plan_id":"cebpf4jnsgd1na2vs0mg"},{"bike_id":"2c4596ad-0ad9-4016-b92b-0093349de2b4","system_id":"levelo_inurba_marseille","lat":43.30755,"lon":5.38187,"is_reserved":false,"is_disabled":true,"rental_uris":{"android":"levelo://app?vid=2c4596ad-0ad9-4016-b92b-0093349de2b4","ios":"levelo://app?vid=2c4596ad-0ad9-4016-b92b-0093349de2b4"},"vehicle_type_id":"4","last_reported":1733532621,"current_range_meters":0,"station_id":"","pricing_plan_id":"cebpf4jnsgd1na2vs0mg"},{"bike_id":"d9631739-33fc-4f60-aa82-812676db0cc9","system_id":"levelo_inurba_marseille","lat":43.29573,"lon":5.37497,"is_reserved":false,"is_disabled":true,"rental_uris":{"android":"levelo://app?vid=d9631739-33fc-4f60-aa82-812676db0cc9","ios":"levelo://app?vid=d9631739-33fc-4f60-aa82-812676db0cc9"},"vehicle_type_id":"4","last_reported":1733532621,"current_range_meters":0,"station_id":"ce4bgh92rcd13ifvqb50","pricing_plan_id":"cebpf4jnsgd1na2vs0mg"},{"bike_id":"8a696230-0cd8-4e37-adec-e0ada77baafb","system_id":"levelo_inurba_marseille","lat":43.29536,"lon":5.38551,"is_reserved":false,"is_disabled":true,"rental_uris":{"android":"levelo://app?vid=8a696230-0cd8-4e37-adec-e0ada77baafb","ios":"levelo://app?vid=8a696230-0cd8-4e37-adec-e0ada77baafb"},"vehicle_type_id":"4","last_reported":1733532621,"current_range_meters":0,"station_id":"ce4bgih2rcd13ifvqba0","pricing_plan_id":"cebpf4jnsgd1na2vs0mg"},{"bike_id":"b7ab8c01-033f-4395-8276-23c850ad3d02","system_id":"levelo_inurba_marseille","lat":43.30348,"lon":5.36626,"is_reserved":false,"is_disabled":true,"rental_uris":{"android":"levelo://app?vid=b7ab8c01-033f-4395-8276-23c850ad3d02","ios":"levelo://app?vid=b7ab8c01-033f-4395-8276-23c850ad3d02"},"vehicle_type_id":"4","last_reported":1733532621,"current_range_meters":0,"station_id":"","pricing_plan_id":"cebpf4jnsgd1na2vs0mg"},{"bike_id":"b52ab50a-7aa8-484c-81c7-fead67df921c","system_id":"levelo_inurba_marseille","lat":43.31049,"lon":5.37676,"is_reserved":false,"is_disabled":true,"rental_uris":{"android":"levelo://app?vid=b52ab50a-7aa8-484c-81c7-fead67df921c","ios":"levelo://app?vid=b52ab50a-7aa8-484c-81c7-fead67df921c"},"vehicle_type_id":"4","last_reported":1733532621,"current_range_meters":3200,"station_id":"","pricing_plan_id":"cebpf4jnsgd1na2vs0mg"},{"bike_id":"18f1c2e5-c31e-4258-8449-36346e839e37","system_id":"levelo_inurba_marseille","lat":43.31365,"lon":5.3849,"is_reserved":false,"is_disabled":false,"rental_uris":{"android":"levelo://app?vid=18f1c2e5-c31e-4258-8449-36346e839e37","ios":"levelo://app?vid=18f1c2e5-c31e-4258-8449-36346e839e37"},"vehicle_type_id":"4","last_reported":1733532621,"current_range_meters":28800,"station_id":"ce4bgt92rcd13ifvqcf0","pricing_plan_id":"cebpf4jnsgd1na2vs0mg"},{"bike_id":"8d3f293b-9223-46bf-aeb5-c46e8790fd4f","system_id":"levelo_inurba_marseille","lat":43.28105,"lon":5.37841,"is_reserved":false,"is_disabled":false,"rental_uris":{"android":"levelo://app?vid=8d3f293b-9223-46bf-aeb5-c46e8790fd4f","ios":"levelo://app?vid=8d3f293b-9223-46bf-aeb5-c46e8790fd4f"},"vehicle_type_id":"4","last_reported":1733532621,"current_range_meters":12800,"station_id":"ce4bha12rcd13ifvqee0","pricing_plan_id":"cebpf4jnsgd1na2vs0mg"},{"bike_id":"d30bcd34-7231-447c-8ce1-13efc88cb2a7","system_id":"levelo_inurba_marseille","lat":43.2931,"lon":5.37193,"is_reserved":false,"is_disabled":true,"rental_uris":{"android":"levelo://app?vid=d30bcd34-7231-447c-8ce1-13efc88cb2a7","ios":"levelo://app?vid=d30bcd34-7231-447c-8ce1-13efc88cb2a7"},"vehicle_type_id":"4","last_reported":1733532621,"current_range_meters":36800,"station_id":"ce4bgh92rcd13ifvqb40","pricing_plan_id":"cebpf4jnsgd1na2vs0mg"},{"bike_id":"2e5d6bd2-ecb3-47ee-a29a-69076bed61ea","system_id":"levelo_inurba_marseille","lat":43.265,"lon":5.39545,"is_reserved":false,"is_disabled":true,"rental_uris":{"android":"levelo://app?vid=2e5d6bd2-ecb3-47ee-a29a-69076bed61ea","ios":"levelo://app?vid=2e5d6bd2-ecb3-47ee-a29a-69076bed61ea"},"vehicle_type_id":"4","last_reported":1733532621,"current_range_meters":39200,"station_id":"ce4bhi12rcd13ifvqfq0","pricing_plan_id":"cebpf4jnsgd1na2vs0mg"},{"bike_id":"11e86528-eb6b-4391-86a5-9b1822d069a4","system_id":"levelo_inurba_marseille","lat":43.278805,"lon":5.388003,"is_reserved":false,"is_disabled":true,"rental_uris":{"android":"levelo://app?vid=11e86528-eb6b-4391-86a5-9b1822d069a4","ios":"levelo://app?vid=11e86528-eb6b-4391-86a5-9b1822d069a4"},"vehicle_type_id":"4","last_reported":1733532621,"current_range_meters":3200,"station_id":"","pricing_plan_id":"cebpf4jnsgd1na2vs0mg"},{"bike_id":"6cc6805f-c0ca-4585-bdf1-b5a0339762b0","system_id":"levelo_inurba_marseille","lat":43.29027,"lon":5.42744,"is_reserved":false,"is_disabled":true,"rental_uris":{"android":"levelo://app?vid=6cc6805f-c0ca-4585-bdf1-b5a0339762b0","ios":"levelo://app?vid=6cc6805f-c0ca-4585-bdf1-b5a0339762b0"},"vehicle_type_id":"4","last_reported":1733532621,"current_range_meters":0,"station_id":"","pricing_plan_id":"cebpf4jnsgd1na2vs0mg"},{"bike_id":"cb2501a9-7f4f-403c-bb1f-8743e3b86bed","system_id":"levelo_inurba_marseille","lat":43.26576,"lon":5.39045,"is_reserved":false,"is_disabled":false,"rental_uris":{"android":"levelo://app?vid=cb2501a9-7f4f-403c-bb1f-8743e3b86bed","ios":"levelo://app?vid=cb2501a9-7f4f-403c-bb1f-8743e3b86bed"},"vehicle_type_id":"4","last_reported":1733532621,"current_range_meters":32000,"station_id":"ce4bhe12rcd13ifvqf30","pricing_plan_id":"cebpf4jnsgd1na2vs0mg"},{"bike_id":"4e6fc26f-c1d5-4d84-ac5b-7d384b8c30d5","system_id":"levelo_inurba_marseille","lat":43.32365,"lon":5.36725,"is_reserved":false,"is_disabled":false,"rental_uris":{"android":"levelo://app?vid=4e6fc26f-c1d5-4d84-ac5b-7d384b8c30d5","ios":"levelo://app?vid=4e6fc26f-c1d5-4d84-ac5b-7d384b8c30d5"},"vehicle_type_id":"4","last_reported":1733532621,"current_range_meters":36400,"station_id":"ce4bhsh2rcd13ifvqi2g","pricing_plan_id":"cebpf4jnsgd1na2vs0mg"},{"bike_id":"8d1c8b92-79bb-4181-b0d2-5e94db1a14d0","system_id":"levelo_inurba_marseille","lat":43.29972,"lon":5.3826,"is_reserved":false,"is_disabled":true,"rental_uris":{"android":"levelo://app?vid=8d1c8b92-79bb-4181-b0d2-5e94db1a14d0","ios":"levelo://app?vid=8d1c8b92-79bb-4181-b0d2-5e94db1a14d0"},"vehicle_type_id":"4","last_reported":1733532621,"current_range_meters":0,"station_id":"","pricing_plan_id":"cebpf4jnsgd1na2vs0mg"},{"bike_id":"7dc78839-0e32-4a30-a393-ccc469b72c20","system_id":"levelo_inurba_marseille","lat":43.33614,"lon":5.41033,"is_reserved":false,"is_disabled":false,"rental_uris":{"android":"levelo://app?vid=7dc78839-0e32-4a30-a393-ccc469b72c20","ios":"levelo://app?vid=7dc78839-0e32-4a30-a393-ccc469b72c20"},"vehicle_type_id":"4","last_reported":1733532621,"current_range_meters":29600,"station_id":"ce4bhqh2rcd13ifvqhmg","pricing_plan_id":"cebpf4jnsgd1na2vs0mg"},{"bike_id":"4800c1e1-43cc-4883-98ed-5142d043abad","system_id":"levelo_inurba_marseille","lat":43.31157,"lon":5.3947,"is_reserved":false,"is_disabled":false,"rental_uris":{"android":"levelo://app?vid=4800c1e1-43cc-4883-98ed-5142d043abad","ios":"levelo://app?vid=4800c1e1-43cc-4883-98ed-5142d043abad"},"vehicle_type_id":"4","last_reported":1733532621,"current_range_meters":33600,"station_id":"","pricing_plan_id":"cebpf4jnsgd1na2vs0mg"},{"bike_id":"907ae010-d4e9-4e7d-8a68-f6c7eae47728","system_id":"levelo_inurba_marseille","lat":43.2996,"lon":5.41322,"is_reserved":false,"is_disabled":false,"rental_uris":{"android":"levelo://app?vid=907ae010-d4e9-4e7d-8a68-f6c7eae47728","ios":"levelo://app?vid=907ae010-d4e9-4e7d-8a68-f6c7eae47728"},"vehicle_type_id":"4","last_reported":1733532621,"current_range_meters":29600,"station_id":"ce4bhp12rcd13ifvqh9g","pricing_plan_id":"cebpf4jnsgd1na2vs0mg"},{"bike_id":"ec24ea24-e93f-42b5-9ae5-09553c228e67","system_id":"levelo_inurba_marseille","lat":43.285668,"lon":5.394992,"is_reserved":false,"is_disabled":false,"rental_uris":{"android":"levelo://app?vid=ec24ea24-e93f-42b5-9ae5-09553c228e67","ios":"levelo://app?vid=ec24ea24-e93f-42b5-9ae5-09553c228e67"},"vehicle_type_id":"4","last_reported":1733532621,"current_range_meters":12000,"station_id":"ce4bh292rcd13ifvqdg0","pricing_plan_id":"cebpf4jnsgd1na2vs0mg"},{"bike_id":"b5a3947c-0134-4ec4-bf42-17cf12c3f0d3","system_id":"levelo_inurba_marseille","lat":43.23091,"lon":5.36415,"is_reserved":false,"is_disabled":true,"rental_uris":{"android":"levelo://app?vid=b5a3947c-0134-4ec4-bf42-17cf12c3f0d3","ios":"levelo://app?vid=b5a3947c-0134-4ec4-bf42-17cf12c3f0d3"},"vehicle_type_id":"4","last_reported":1733532621,"current_range_meters":1600,"station_id":"","pricing_plan_id":"cebpf4jnsgd1na2vs0mg"},{"bike_id":"a82a26a1-edfa-411a-9590-304dff877d23","system_id":"levelo_inurba_marseille","lat":43.29301,"lon":5.37497,"is_reserved":false,"is_disabled":true,"rental_uris":{"android":"levelo://app?vid=a82a26a1-edfa-411a-9590-304dff877d23","ios":"levelo://app?vid=a82a26a1-edfa-411a-9590-304dff877d23"},"vehicle_type_id":"4","last_reported":1733532621,"current_range_meters":36800,"station_id":"ce4bgi12rcd13ifvqb70","pricing_plan_id":"cebpf4jnsgd1na2vs0mg"},{"bike_id":"bec118ad-6054-4279-b7c0-4ae9f0db1132","system_id":"levelo_inurba_marseille","lat":43.28668,"lon":5.36349,"is_reserved":false,"is_disabled":false,"rental_uris":{"android":"levelo://app?vid=bec118ad-6054-4279-b7c0-4ae9f0db1132","ios":"levelo://app?vid=bec118ad-6054-4279-b7c0-4ae9f0db1132"},"vehicle_type_id":"4","last_reported":1733532621,"current_range_meters":17600,"station_id":"ce4bhah2rcd13ifvqej0","pricing_plan_id":"cebpf4jnsgd1na2vs0mg"},{"bike_id":"3a1cabfd-7ea0-40e5-ba2a-bc16f7acb1fa","system_id":"levelo_inurba_marseille","lat":43.343369,"lon":5.358135,"is_reserved":false,"is_disabled":true,"rental_uris":{"android":"levelo://app?vid=3a1cabfd-7ea0-40e5-ba2a-bc16f7acb1fa","ios":"levelo://app?vid=3a1cabfd-7ea0-40e5-ba2a-bc16f7acb1fa"},"vehicle_type_id":"4","last_reported":1733532621,"current_range_meters":17600,"station_id":"","pricing_plan_id":"cebpf4jnsgd1na2vs0mg"},{"bike_id":"13c92a0b-ed15-475b-be6b-20c451699fe8","system_id":"levelo_inurba_marseille","lat":43.31274,"lon":5.40163,"is_reserved":false,"is_disabled":false,"rental_uris":{"android":"levelo://app?vid=13c92a0b-ed15-475b-be6b-20c451699fe8","ios":"levelo://app?vid=13c92a0b-ed15-475b-be6b-20c451699fe8"},"vehicle_type_id":"4","last_reported":1733532621,"current_range_meters":38800,"station_id":"ce4bh092rcd13ifvqd30","pricing_plan_id":"cebpf4jnsgd1na2vs0mg"},{"bike_id":"1c1b9d50-0c5b-40c7-ab1f-3eddb8967a5e","system_id":"levelo_inurba_marseille","lat":43.31243,"lon":5.38135,"is_reserved":false,"is_disabled":false,"rental_uris":{"android":"levelo://app?vid=1c1b9d50-0c5b-40c7-ab1f-3eddb8967a5e","ios":"levelo://app?vid=1c1b9d50-0c5b-40c7-ab1f-3eddb8967a5e"},"vehicle_type_id":"4","last_reported":1733532621,"current_range_meters":32400,"station_id":"","pricing_plan_id":"cebpf4jnsgd1na2vs0mg"},{"bike_id":"d37abd32-cabf-441e-9655-11a4cf8daa6d","system_id":"levelo_inurba_marseille","lat":43.29704,"lon":5.36609,"is_reserved":false,"is_disabled":true,"rental_uris":{"android":"levelo://app?vid=d37abd32-cabf-441e-9655-11a4cf8daa6d","ios":"levelo://app?vid=d37abd32-cabf-441e-9655-11a4cf8daa6d"},"vehicle_type_id":"4","last_reported":1733532621,"current_range_meters":38000,"station_id":"ce4bgn12rcd13ifvqbt0","pricing_plan_id":"cebpf4jnsgd1na2vs0mg"},{"bike_id":"9da23f82-fe92-4a06-8376-fc49fc59f855","system_id":"levelo_inurba_marseille","lat":43.28457,"lon":5.35881,"is_reserved":false,"is_disabled":false,"rental_uris":{"android":"levelo://app?vid=9da23f82-fe92-4a06-8376-fc49fc59f855","ios":"levelo://app?vid=9da23f82-fe92-4a06-8376-fc49fc59f855"},"vehicle_type_id":"4","last_reported":1733532621,"current_range_meters":23200,"station_id":"ce4bhah2rcd13ifvqei0","pricing_plan_id":"cebpf4jnsgd1na2vs0mg"},{"bike_id":"9f9e8331-b7b2-4e7e-93ab-57d25fe2abfb","system_id":"levelo_inurba_marseille","lat":43.25497,"lon":5.3765,"is_reserved":false,"is_disabled":false,"rental_uris":{"android":"levelo://app?vid=9f9e8331-b7b2-4e7e-93ab-57d25fe2abfb","ios":"levelo://app?vid=9f9e8331-b7b2-4e7e-93ab-57d25fe2abfb"},"vehicle_type_id":"4","last_reported":1733532621,"current_range_meters":28000,"station_id":"ce4bhh12rcd13ifvqff0","pricing_plan_id":"cebpf4jnsgd1na2vs0mg"},{"bike_id":"cf315912-6fc6-4c2f-9885-dbef65eb8065","system_id":"levelo_inurba_marseille","lat":43.28797,"lon":5.38768,"is_reserved":false,"is_disabled":false,"rental_uris":{"android":"levelo://app?vid=cf315912-6fc6-4c2f-9885-dbef65eb8065","ios":"levelo://app?vid=cf315912-6fc6-4c2f-9885-dbef65eb8065"},"vehicle_type_id":"4","last_reported":1733532621,"current_range_meters":8800,"station_id":"","pricing_plan_id":"cebpf4jnsgd1na2vs0mg"},{"bike_id":"061254c5-de51-4e75-923a-fd9faeebb94d","system_id":"levelo_inurba_marseille","lat":43.31173,"lon":5.38706,"is_reserved":false,"is_disabled":false,"rental_uris":{"android":"levelo://app?vid=061254c5-de51-4e75-923a-fd9faeebb94d","ios":"levelo://app?vid=061254c5-de51-4e75-923a-fd9faeebb94d"},"vehicle_type_id":"4","last_reported":1733532621,"current_range_meters":32800,"station_id":"ce4bgv12rcd13ifvqcp0","pricing_plan_id":"cebpf4jnsgd1na2vs0mg"},{"bike_id":"54dbc5f0-de29-4331-a5e0-10d5f1d3fd0f","system_id":"levelo_inurba_marseille","lat":43.27917,"lon":5.39578,"is_reserved":false,"is_disabled":false,"rental_uris":{"android":"levelo://app?vid=54dbc5f0-de29-4331-a5e0-10d5f1d3fd0f","ios":"levelo://app?vid=54dbc5f0-de29-4331-a5e0-10d5f1d3fd0f"},"vehicle_type_id":"4","last_reported":1733532621,"current_range_meters":36400,"station_id":"ce4bhf92rcd13ifvqf40","pricing_plan_id":"cebpf4jnsgd1na2vs0mg"},{"bike_id":"c59f1c47-12a6-499e-b761-f98775514feb","system_id":"levelo_inurba_marseille","lat":43.311665,"lon":5.387097,"is_reserved":false,"is_disabled":false,"rental_uris":{"android":"levelo://app?vid=c59f1c47-12a6-499e-b761-f98775514feb","ios":"levelo://app?vid=c59f1c47-12a6-499e-b761-f98775514feb"},"vehicle_type_id":"4","last_reported":1733532621,"current_range_meters":32000,"station_id":"ce4bgv12rcd13ifvqcp0","pricing_plan_id":"cebpf4jnsgd1na2vs0mg"},{"bike_id":"bf9d64b3-c9ac-4313-955b-d8aee834fc71","system_id":"levelo_inurba_marseille","lat":43.29314,"lon":5.37178,"is_reserved":false,"is_disabled":false,"rental_uris":{"android":"levelo://app?vid=bf9d64b3-c9ac-4313-955b-d8aee834fc71","ios":"levelo://app?vid=bf9d64b3-c9ac-4313-955b-d8aee834fc71"},"vehicle_type_id":"4","last_reported":1733532621,"current_range_meters":28800,"station_id":"ce4bgh92rcd13ifvqb40","pricing_plan_id":"cebpf4jnsgd1na2vs0mg"},{"bike_id":"6778df27-59e5-4288-bb63-85598167936a","system_id":"levelo_inurba_marseille","lat":43.31374,"lon":5.3849,"is_reserved":false,"is_disabled":false,"rental_uris":{"android":"levelo://app?vid=6778df27-59e5-4288-bb63-85598167936a","ios":"levelo://app?vid=6778df27-59e5-4288-bb63-85598167936a"},"vehicle_type_id":"4","last_reported":1733532621,"current_range_meters":23200,"station_id":"ce4bgt92rcd13ifvqcf0","pricing_plan_id":"cebpf4jnsgd1na2vs0mg"},{"bike_id":"173fe14a-71a4-4190-8939-0d0016d762ce","system_id":"levelo_inurba_marseille","lat":43.30872,"lon":5.37786,"is_reserved":false,"is_disabled":false,"rental_uris":{"android":"levelo://app?vid=173fe14a-71a4-4190-8939-0d0016d762ce","ios":"levelo://app?vid=173fe14a-71a4-4190-8939-0d0016d762ce"},"vehicle_type_id":"4","last_reported":1733532621,"current_range_meters":38000,"station_id":"","pricing_plan_id":"cebpf4jnsgd1na2vs0mg"},{"bike_id":"9c77a68d-2e99-44e9-b903-950fb6644d35","system_id":"levelo_inurba_marseille","lat":43.25265,"lon":5.39465,"is_reserved":false,"is_disabled":true,"rental_uris":{"android":"levelo://app?vid=9c77a68d-2e99-44e9-b903-950fb6644d35","ios":"levelo://app?vid=9c77a68d-2e99-44e9-b903-950fb6644d35"},"vehicle_type_id":"4","last_reported":1733532621,"current_range_meters":0,"station_id":"","pricing_plan_id":"cebpf4jnsgd1na2vs0mg"},{"bike_id":"a739636b-b479-47f8-bf60-3955f6db4043","system_id":"levelo_inurba_marseille","lat":43.30307,"lon":5.39221,"is_reserved":false,"is_disabled":false,"rental_uris":{"android":"levelo://app?vid=a739636b-b479-47f8-bf60-3955f6db4043","ios":"levelo://app?vid=a739636b-b479-47f8-bf60-3955f6db4043"},"vehicle_type_id":"4","last_reported":1733532621,"current_range_meters":27600,"station_id":"ce4bgkh2rcd13ifvqbk0","pricing_plan_id":"cebpf4jnsgd1na2vs0mg"},{"bike_id":"e3179770-9b27-49cc-a728-667cf19070f2","system_id":"levelo_inurba_marseille","lat":43.29966,"lon":5.38495,"is_reserved":false,"is_disabled":false,"rental_uris":{"android":"levelo://app?vid=e3179770-9b27-49cc-a728-667cf19070f2","ios":"levelo://app?vid=e3179770-9b27-49cc-a728-667cf19070f2"},"vehicle_type_id":"4","last_reported":1733532621,"current_range_meters":22000,"station_id":"ce4bgj92rcd13ifvqbd0","pricing_plan_id":"cebpf4jnsgd1na2vs0mg"},{"bike_id":"c1059d8c-dfec-43e2-a99c-b18d07955745","system_id":"levelo_inurba_marseille","lat":43.32285,"lon":5.38273,"is_reserved":false,"is_disabled":false,"rental_uris":{"android":"levelo://app?vid=c1059d8c-dfec-43e2-a99c-b18d07955745","ios":"levelo://app?vid=c1059d8c-dfec-43e2-a99c-b18d07955745"},"vehicle_type_id":"4","last_reported":1733532621,"current_range_meters":28000,"station_id":"ce4bhr12rcd13ifvqhqg","pricing_plan_id":"cebpf4jnsgd1na2vs0mg"},{"bike_id":"45a99d3d-18c7-4943-8d60-ad1491c0fa82","system_id":"levelo_inurba_marseille","lat":43.275631,"lon":5.384241,"is_reserved":false,"is_disabled":true,"rental_uris":{"android":"levelo://app?vid=45a99d3d-18c7-4943-8d60-ad1491c0fa82","ios":"levelo://app?vid=45a99d3d-18c7-4943-8d60-ad1491c0fa82"},"vehicle_type_id":"4","last_reported":1733532621,"current_range_meters":36800,"station_id":"ce4bhh92rcd13ifvqfi0","pricing_plan_id":"cebpf4jnsgd1na2vs0mg"},{"bike_id":"efabe429-ba8e-4e85-99b6-e8757b8ff8c0","system_id":"levelo_inurba_marseille","lat":43.30331,"lon":5.40436,"is_reserved":false,"is_disabled":false,"rental_uris":{"android":"levelo://app?vid=efabe429-ba8e-4e85-99b6-e8757b8ff8c0","ios":"levelo://app?vid=efabe429-ba8e-4e85-99b6-e8757b8ff8c0"},"vehicle_type_id":"4","last_reported":1733532621,"current_range_meters":20800,"station_id":"ce4bh012rcd13ifvqd10","pricing_plan_id":"cebpf4jnsgd1na2vs0mg"},{"bike_id":"83985555-c848-4b28-808f-8a7e7cf8519e","system_id":"levelo_inurba_marseille","lat":43.28115,"lon":5.43955,"is_reserved":false,"is_disabled":true,"rental_uris":{"android":"levelo://app?vid=83985555-c848-4b28-808f-8a7e7cf8519e","ios":"levelo://app?vid=83985555-c848-4b28-808f-8a7e7cf8519e"},"vehicle_type_id":"4","last_reported":1733532621,"current_range_meters":0,"station_id":"","pricing_plan_id":"cebpf4jnsgd1na2vs0mg"},{"bike_id":"cc4c7bf9-6f04-43f9-ba56-1cc0f5a73f42","system_id":"levelo_inurba_marseille","lat":43.31361,"lon":5.36698,"is_reserved":false,"is_disabled":false,"rental_uris":{"android":"levelo://app?vid=cc4c7bf9-6f04-43f9-ba56-1cc0f5a73f42","ios":"levelo://app?vid=cc4c7bf9-6f04-43f9-ba56-1cc0f5a73f42"},"vehicle_type_id":"4","last_reported":1733532621,"current_range_meters":26800,"station_id":"ce4bgr92rcd13ifvqc6g","pricing_plan_id":"cebpf4jnsgd1na2vs0mg"},{"bike_id":"84eddd35-4076-462c-b0e4-9c17c748aeff","system_id":"levelo_inurba_marseille","lat":43.33771,"lon":5.37491,"is_reserved":false,"is_disabled":false,"rental_uris":{"android":"levelo://app?vid=84eddd35-4076-462c-b0e4-9c17c748aeff","ios":"levelo://app?vid=84eddd35-4076-462c-b0e4-9c17c748aeff"},"vehicle_type_id":"4","last_reported":1733532621,"current_range_meters":20800,"station_id":"","pricing_plan_id":"cebpf4jnsgd1na2vs0mg"},{"bike_id":"31cddf14-1369-4114-b8f9-989c80a82d66","system_id":"levelo_inurba_marseille","lat":43.31252,"lon":5.40179,"is_reserved":false,"is_disabled":false,"rental_uris":{"android":"levelo://app?vid=31cddf14-1369-4114-b8f9-989c80a82d66","ios":"levelo://app?vid=31cddf14-1369-4114-b8f9-989c80a82d66"},"vehicle_type_id":"4","last_reported":1733532621,"current_range_meters":25200,"station_id":"ce4bh092rcd13ifvqd30","pricing_plan_id":"cebpf4jnsgd1na2vs0mg"},{"bike_id":"22879c43-c2ed-466f-8c6d-20ce42d5b405","system_id":"levelo_inurba_marseille","lat":43.31275,"lon":5.40163,"is_reserved":false,"is_disabled":false,"rental_uris":{"android":"levelo://app?vid=22879c43-c2ed-466f-8c6d-20ce42d5b405","ios":"levelo://app?vid=22879c43-c2ed-466f-8c6d-20ce42d5b405"},"vehicle_type_id":"4","last_reported":1733532621,"current_range_meters":38800,"station_id":"ce4bh092rcd13ifvqd30","pricing_plan_id":"cebpf4jnsgd1na2vs0mg"},{"bike_id":"7590f4b2-6827-42a3-90e8-66664274ba71","system_id":"levelo_inurba_marseille","lat":43.3189,"lon":5.40726,"is_reserved":false,"is_disabled":false,"rental_uris":{"android":"levelo://app?vid=7590f4b2-6827-42a3-90e8-66664274ba71","ios":"levelo://app?vid=7590f4b2-6827-42a3-90e8-66664274ba71"},"vehicle_type_id":"4","last_reported":1733532621,"current_range_meters":24800,"station_id":"ce4bhq12rcd13ifvqhig","pricing_plan_id":"cebpf4jnsgd1na2vs0mg"},{"bike_id":"9ecf6cbe-b18e-4738-99ca-aefcfa53f4eb","system_id":"levelo_inurba_marseille","lat":43.24078,"lon":5.37751,"is_reserved":false,"is_disabled":false,"rental_uris":{"android":"levelo://app?vid=9ecf6cbe-b18e-4738-99ca-aefcfa53f4eb","ios":"levelo://app?vid=9ecf6cbe-b18e-4738-99ca-aefcfa53f4eb"},"vehicle_type_id":"4","last_reported":1733532621,"current_range_meters":16000,"station_id":"ce4bhnp2rcd13ifvqgvg","pricing_plan_id":"cebpf4jnsgd1na2vs0mg"},{"bike_id":"af16c486-577d-4834-af94-c7fd05706ade","system_id":"levelo_inurba_marseille","lat":43.27065,"lon":5.40251,"is_reserved":false,"is_disabled":false,"rental_uris":{"android":"levelo://app?vid=af16c486-577d-4834-af94-c7fd05706ade","ios":"levelo://app?vid=af16c486-577d-4834-af94-c7fd05706ade"},"vehicle_type_id":"4","last_reported":1733532621,"current_range_meters":11600,"station_id":"ce4bhk92rcd13ifvqgc0","pricing_plan_id":"cebpf4jnsgd1na2vs0mg"},{"bike_id":"5d5a7211-9319-4543-a887-e14f0d320e32","system_id":"levelo_inurba_marseille","lat":43.30938,"lon":5.40139,"is_reserved":false,"is_disabled":false,"rental_uris":{"android":"levelo://app?vid=5d5a7211-9319-4543-a887-e14f0d320e32","ios":"levelo://app?vid=5d5a7211-9319-4543-a887-e14f0d320e32"},"vehicle_type_id":"4","last_reported":1733532621,"current_range_meters":10800,"station_id":"ce4bgvp2rcd13ifvqct0","pricing_plan_id":"cebpf4jnsgd1na2vs0mg"},{"bike_id":"a8264fb2-dad4-4c52-9230-cf80b47302d6","system_id":"levelo_inurba_marseille","lat":43.32005,"lon":5.38151,"is_reserved":false,"is_disabled":false,"rental_uris":{"android":"levelo://app?vid=a8264fb2-dad4-4c52-9230-cf80b47302d6","ios":"levelo://app?vid=a8264fb2-dad4-4c52-9230-cf80b47302d6"},"vehicle_type_id":"4","last_reported":1733532621,"current_range_meters":10000,"station_id":"ce4bhr12rcd13ifvqhpg","pricing_plan_id":"cebpf4jnsgd1na2vs0mg"},{"bike_id":"5edf82fa-e9d0-4d1f-98f1-37c98092771a","system_id":"levelo_inurba_marseille","lat":43.23195,"lon":5.35547,"is_reserved":false,"is_disabled":false,"rental_uris":{"android":"levelo://app?vid=5edf82fa-e9d0-4d1f-98f1-37c98092771a","ios":"levelo://app?vid=5edf82fa-e9d0-4d1f-98f1-37c98092771a"},"vehicle_type_id":"4","last_reported":1733532621,"current_range_meters":39200,"station_id":"ce4bhu92rcd13ifvqi70","pricing_plan_id":"cebpf4jnsgd1na2vs0mg"},{"bike_id":"cb4a9db6-7563-4a33-a955-6eb0af1f7b34","system_id":"levelo_inurba_marseille","lat":43.28153,"lon":5.42639,"is_reserved":false,"is_disabled":false,"rental_uris":{"android":"levelo://app?vid=cb4a9db6-7563-4a33-a955-6eb0af1f7b34","ios":"levelo://app?vid=cb4a9db6-7563-4a33-a955-6eb0af1f7b34"},"vehicle_type_id":"4","last_reported":1733532621,"current_range_meters":38800,"station_id":"ce4bhnh2rcd13ifvqgug","pricing_plan_id":"cebpf4jnsgd1na2vs0mg"},{"bike_id":"114f6273-3c81-4bad-b48b-98dd8b928cc0","system_id":"levelo_inurba_marseille","lat":43.30539,"lon":5.3843,"is_reserved":false,"is_disabled":true,"rental_uris":{"android":"levelo://app?vid=114f6273-3c81-4bad-b48b-98dd8b928cc0","ios":"levelo://app?vid=114f6273-3c81-4bad-b48b-98dd8b928cc0"},"vehicle_type_id":"4","last_reported":1733532621,"current_range_meters":38000,"station_id":"ce4bgg92rcd13ifvqb30","pricing_plan_id":"cebpf4jnsgd1na2vs0mg"},{"bike_id":"4ff2b6a8-6e6f-4faa-869c-d90826565ca0","system_id":"levelo_inurba_marseille","lat":43.29958,"lon":5.41324,"is_reserved":false,"is_disabled":false,"rental_uris":{"android":"levelo://app?vid=4ff2b6a8-6e6f-4faa-869c-d90826565ca0","ios":"levelo://app?vid=4ff2b6a8-6e6f-4faa-869c-d90826565ca0"},"vehicle_type_id":"4","last_reported":1733532621,"current_range_meters":38800,"station_id":"ce4bhp12rcd13ifvqh9g","pricing_plan_id":"cebpf4jnsgd1na2vs0mg"},{"bike_id":"fb69003e-81a8-4636-abef-983d6620a6e9","system_id":"levelo_inurba_marseille","lat":43.30472,"lon":5.37907,"is_reserved":false,"is_disabled":false,"rental_uris":{"android":"levelo://app?vid=fb69003e-81a8-4636-abef-983d6620a6e9","ios":"levelo://app?vid=fb69003e-81a8-4636-abef-983d6620a6e9"},"vehicle_type_id":"4","last_reported":1733532621,"current_range_meters":20400,"station_id":"ce4bgup2rcd13ifvqcn0","pricing_plan_id":"cebpf4jnsgd1na2vs0mg"},{"bike_id":"75683291-5595-4d31-95ca-dee84c3a390c","system_id":"levelo_inurba_marseille","lat":43.25829,"lon":5.39432,"is_reserved":false,"is_disabled":false,"rental_uris":{"android":"levelo://app?vid=75683291-5595-4d31-95ca-dee84c3a390c","ios":"levelo://app?vid=75683291-5595-4d31-95ca-dee84c3a390c"},"vehicle_type_id":"4","last_reported":1733532621,"current_range_meters":37600,"station_id":"ce4bhip2rcd13ifvqft0","pricing_plan_id":"cebpf4jnsgd1na2vs0mg"},{"bike_id":"b1626de3-a9f7-4719-8836-53b821ac811d","system_id":"levelo_inurba_marseille","lat":43.2707,"lon":5.42277,"is_reserved":false,"is_disabled":false,"rental_uris":{"android":"levelo://app?vid=b1626de3-a9f7-4719-8836-53b821ac811d","ios":"levelo://app?vid=b1626de3-a9f7-4719-8836-53b821ac811d"},"vehicle_type_id":"4","last_reported":1733532621,"current_range_meters":15200,"station_id":"ce4bhk92rcd13ifvqgb0","pricing_plan_id":"cebpf4jnsgd1na2vs0mg"},{"bike_id":"d5d4ca1a-dd8a-4ced-b1e3-fa33b9c3e1e6","system_id":"levelo_inurba_marseille","lat":43.24671,"lon":5.38156,"is_reserved":false,"is_disabled":false,"rental_uris":{"android":"levelo://app?vid=d5d4ca1a-dd8a-4ced-b1e3-fa33b9c3e1e6","ios":"levelo://app?vid=d5d4ca1a-dd8a-4ced-b1e3-fa33b9c3e1e6"},"vehicle_type_id":"4","last_reported":1733532621,"current_range_meters":11200,"station_id":"ce4bhih2rcd13ifvqfr0","pricing_plan_id":"cebpf4jnsgd1na2vs0mg"},{"bike_id":"b5447cc0-5c51-4cfa-b0b2-6bf51c6438df","system_id":"levelo_inurba_marseille","lat":43.27939,"lon":5.41045,"is_reserved":false,"is_disabled":false,"rental_uris":{"android":"levelo://app?vid=b5447cc0-5c51-4cfa-b0b2-6bf51c6438df","ios":"levelo://app?vid=b5447cc0-5c51-4cfa-b0b2-6bf51c6438df"},"vehicle_type_id":"4","last_reported":1733532621,"current_range_meters":38800,"station_id":"ce4bhnp2rcd13ifvqh0g","pricing_plan_id":"cebpf4jnsgd1na2vs0mg"},{"bike_id":"9202c63e-372c-4469-a5c1-8e35757d1940","system_id":"levelo_inurba_marseille","lat":43.30053,"lon":5.38832,"is_reserved":false,"is_disabled":true,"rental_uris":{"android":"levelo://app?vid=9202c63e-372c-4469-a5c1-8e35757d1940","ios":"levelo://app?vid=9202c63e-372c-4469-a5c1-8e35757d1940"},"vehicle_type_id":"4","last_reported":1733532621,"current_range_meters":0,"station_id":"","pricing_plan_id":"cebpf4jnsgd1na2vs0mg"},{"bike_id":"ca283b66-130d-4415-b753-beba46e46f4c","system_id":"levelo_inurba_marseille","lat":43.31362,"lon":5.3849,"is_reserved":false,"is_disabled":false,"rental_uris":{"android":"levelo://app?vid=ca283b66-130d-4415-b753-beba46e46f4c","ios":"levelo://app?vid=ca283b66-130d-4415-b753-beba46e46f4c"},"vehicle_type_id":"4","last_reported":1733532621,"current_range_meters":26800,"station_id":"ce4bgt92rcd13ifvqcf0","pricing_plan_id":"cebpf4jnsgd1na2vs0mg"},{"bike_id":"46acab1c-b930-43bf-8bcc-35f631109a13","system_id":"levelo_inurba_marseille","lat":43.2675,"lon":5.39431,"is_reserved":false,"is_disabled":true,"rental_uris":{"android":"levelo://app?vid=46acab1c-b930-43bf-8bcc-35f631109a13","ios":"levelo://app?vid=46acab1c-b930-43bf-8bcc-35f631109a13"},"vehicle_type_id":"4","last_reported":1733532621,"current_range_meters":0,"station_id":"","pricing_plan_id":"cebpf4jnsgd1na2vs0mg"},{"bike_id":"e900acea-9eeb-4d78-b779-dfa54b036bc8","system_id":"levelo_inurba_marseille","lat":43.30782,"lon":5.37648,"is_reserved":false,"is_disabled":false,"rental_uris":{"android":"levelo://app?vid=e900acea-9eeb-4d78-b779-dfa54b036bc8","ios":"levelo://app?vid=e900acea-9eeb-4d78-b779-dfa54b036bc8"},"vehicle_type_id":"4","last_reported":1733532621,"current_range_meters":37600,"station_id":"ce4bgv92rcd13ifvqcq0","pricing_plan_id":"cebpf4jnsgd1na2vs0mg"},{"bike_id":"0dacdf37-be46-43ac-a984-0e71b851d77b","system_id":"levelo_inurba_marseille","lat":43.27171,"lon":5.41023,"is_reserved":false,"is_disabled":false,"rental_uris":{"android":"levelo://app?vid=0dacdf37-be46-43ac-a984-0e71b851d77b","ios":"levelo://app?vid=0dacdf37-be46-43ac-a984-0e71b851d77b"},"vehicle_type_id":"4","last_reported":1733532621,"current_range_meters":28800,"station_id":"ce4bhl12rcd13ifvqgf0","pricing_plan_id":"cebpf4jnsgd1na2vs0mg"},{"bike_id":"0deb7b46-3bee-4382-87b1-3984fb62457f","system_id":"levelo_inurba_marseille","lat":43.28746,"lon":5.38904,"is_reserved":false,"is_disabled":true,"rental_uris":{"android":"levelo://app?vid=0deb7b46-3bee-4382-87b1-3984fb62457f","ios":"levelo://app?vid=0deb7b46-3bee-4382-87b1-3984fb62457f"},"vehicle_type_id":"4","last_reported":1733532621,"current_range_meters":28800,"station_id":"","pricing_plan_id":"cebpf4jnsgd1na2vs0mg"},{"bike_id":"cf3e6ea0-09ff-406c-b357-28a6a6117f94","system_id":"levelo_inurba_marseille","lat":43.22932,"lon":5.35378,"is_reserved":false,"is_disabled":false,"rental_uris":{"android":"levelo://app?vid=cf3e6ea0-09ff-406c-b357-28a6a6117f94","ios":"levelo://app?vid=cf3e6ea0-09ff-406c-b357-28a6a6117f94"},"vehicle_type_id":"4","last_reported":1733532621,"current_range_meters":38800,"station_id":"cpo3532slgdg3j2ikp40","pricing_plan_id":"cebpf4jnsgd1na2vs0mg"},{"bike_id":"682610e2-d181-4140-8555-7ad09800036d","system_id":"levelo_inurba_marseille","lat":43.29439,"lon":5.39754,"is_reserved":false,"is_disabled":false,"rental_uris":{"android":"levelo://app?vid=682610e2-d181-4140-8555-7ad09800036d","ios":"levelo://app?vid=682610e2-d181-4140-8555-7ad09800036d"},"vehicle_type_id":"4","last_reported":1733532621,"current_range_meters":35600,"station_id":"ce4bh3h2rcd13ifvqdo0","pricing_plan_id":"cebpf4jnsgd1na2vs0mg"},{"bike_id":"07b8c281-3be1-46fd-bf35-bd455797c16c","system_id":"levelo_inurba_marseille","lat":43.23196,"lon":5.35547,"is_reserved":false,"is_disabled":false,"rental_uris":{"android":"levelo://app?vid=07b8c281-3be1-46fd-bf35-bd455797c16c","ios":"levelo://app?vid=07b8c281-3be1-46fd-bf35-bd455797c16c"},"vehicle_type_id":"4","last_reported":1733532621,"current_range_meters":38000,"station_id":"ce4bhu92rcd13ifvqi70","pricing_plan_id":"cebpf4jnsgd1na2vs0mg"},{"bike_id":"719e509a-25e4-4b1b-9830-f708d85d7593","system_id":"levelo_inurba_marseille","lat":43.29404,"lon":5.37451,"is_reserved":false,"is_disabled":true,"rental_uris":{"android":"levelo://app?vid=719e509a-25e4-4b1b-9830-f708d85d7593","ios":"levelo://app?vid=719e509a-25e4-4b1b-9830-f708d85d7593"},"vehicle_type_id":"4","last_reported":1733532621,"current_range_meters":0,"station_id":"","pricing_plan_id":"cebpf4jnsgd1na2vs0mg"},{"bike_id":"fe6f0739-441d-4ad0-b2e2-bdd86f826956","system_id":"levelo_inurba_marseille","lat":43.27916,"lon":5.39576,"is_reserved":false,"is_disabled":false,"rental_uris":{"android":"levelo://app?vid=fe6f0739-441d-4ad0-b2e2-bdd86f826956","ios":"levelo://app?vid=fe6f0739-441d-4ad0-b2e2-bdd86f826956"},"vehicle_type_id":"4","last_reported":1733532621,"current_range_meters":11200,"station_id":"ce4bhf92rcd13ifvqf40","pricing_plan_id":"cebpf4jnsgd1na2vs0mg"},{"bike_id":"02bdc395-5a5b-4ce7-b7a2-a991ffae725c","system_id":"levelo_inurba_marseille","lat":43.25578,"lon":5.38232,"is_reserved":false,"is_disabled":false,"rental_uris":{"android":"levelo://app?vid=02bdc395-5a5b-4ce7-b7a2-a991ffae725c","ios":"levelo://app?vid=02bdc395-5a5b-4ce7-b7a2-a991ffae725c"},"vehicle_type_id":"4","last_reported":1733532621,"current_range_meters":38800,"station_id":"ce4bhih2rcd13ifvqfs0","pricing_plan_id":"cebpf4jnsgd1na2vs0mg"},{"bike_id":"7a0a2714-105e-4622-8b3e-a7dd62dc6941","system_id":"levelo_inurba_marseille","lat":43.29266,"lon":5.384189,"is_reserved":false,"is_disabled":true,"rental_uris":{"android":"levelo://app?vid=7a0a2714-105e-4622-8b3e-a7dd62dc6941","ios":"levelo://app?vid=7a0a2714-105e-4622-8b3e-a7dd62dc6941"},"vehicle_type_id":"4","last_reported":1733532621,"current_range_meters":0,"station_id":"","pricing_plan_id":"cebpf4jnsgd1na2vs0mg"},{"bike_id":"9f53acdf-b2be-4b69-b01b-87cbf7343be4","system_id":"levelo_inurba_marseille","lat":43.26493,"lon":5.39537,"is_reserved":false,"is_disabled":true,"rental_uris":{"android":"levelo://app?vid=9f53acdf-b2be-4b69-b01b-87cbf7343be4","ios":"levelo://app?vid=9f53acdf-b2be-4b69-b01b-87cbf7343be4"},"vehicle_type_id":"4","last_reported":1733532621,"current_range_meters":24000,"station_id":"ce4bhi12rcd13ifvqfq0","pricing_plan_id":"cebpf4jnsgd1na2vs0mg"},{"bike_id":"0aacf6ac-bc47-414b-b7ce-09779cf0771b","system_id":"levelo_inurba_marseille","lat":43.31366,"lon":5.38495,"is_reserved":false,"is_disabled":false,"rental_uris":{"android":"levelo://app?vid=0aacf6ac-bc47-414b-b7ce-09779cf0771b","ios":"levelo://app?vid=0aacf6ac-bc47-414b-b7ce-09779cf0771b"},"vehicle_type_id":"4","last_reported":1733532621,"current_range_meters":24400,"station_id":"ce4bgt92rcd13ifvqcf0","pricing_plan_id":"cebpf4jnsgd1na2vs0mg"},{"bike_id":"a5f05a06-bff4-4f39-af01-91b3d19736b8","system_id":"levelo_inurba_marseille","lat":43.23198,"lon":5.35551,"is_reserved":false,"is_disabled":false,"rental_uris":{"android":"levelo://app?vid=a5f05a06-bff4-4f39-af01-91b3d19736b8","ios":"levelo://app?vid=a5f05a06-bff4-4f39-af01-91b3d19736b8"},"vehicle_type_id":"4","last_reported":1733532621,"current_range_meters":32800,"station_id":"ce4bhu92rcd13ifvqi70","pricing_plan_id":"cebpf4jnsgd1na2vs0mg"},{"bike_id":"d233fd77-47bd-4216-b3cf-df065551519e","system_id":"levelo_inurba_marseille","lat":43.30275,"lon":5.37711,"is_reserved":false,"is_disabled":false,"rental_uris":{"android":"levelo://app?vid=d233fd77-47bd-4216-b3cf-df065551519e","ios":"levelo://app?vid=d233fd77-47bd-4216-b3cf-df065551519e"},"vehicle_type_id":"4","last_reported":1733532621,"current_range_meters":8800,"station_id":"ce4bguh2rcd13ifvqcj0","pricing_plan_id":"cebpf4jnsgd1na2vs0mg"},{"bike_id":"33f1a526-a5a3-4261-b1e0-d90c46ff918d","system_id":"levelo_inurba_marseille","lat":43.28157,"lon":5.42643,"is_reserved":false,"is_disabled":true,"rental_uris":{"android":"levelo://app?vid=33f1a526-a5a3-4261-b1e0-d90c46ff918d","ios":"levelo://app?vid=33f1a526-a5a3-4261-b1e0-d90c46ff918d"},"vehicle_type_id":"4","last_reported":1733532621,"current_range_meters":34800,"station_id":"ce4bhnh2rcd13ifvqgug","pricing_plan_id":"cebpf4jnsgd1na2vs0mg"},{"bike_id":"28d5cc01-e4ec-43b9-ae15-5a57ca6eff12","system_id":"levelo_inurba_marseille","lat":43.29834,"lon":5.38285,"is_reserved":false,"is_disabled":false,"rental_uris":{"android":"levelo://app?vid=28d5cc01-e4ec-43b9-ae15-5a57ca6eff12","ios":"levelo://app?vid=28d5cc01-e4ec-43b9-ae15-5a57ca6eff12"},"vehicle_type_id":"4","last_reported":1733532621,"current_range_meters":36400,"station_id":"ce4bgl12rcd13ifvqbo0","pricing_plan_id":"cebpf4jnsgd1na2vs0mg"},{"bike_id":"7d60acff-cb6c-4a92-aca6-d0de3845edf6","system_id":"levelo_inurba_marseille","lat":43.29549,"lon":5.38554,"is_reserved":false,"is_disabled":true,"rental_uris":{"android":"levelo://app?vid=7d60acff-cb6c-4a92-aca6-d0de3845edf6","ios":"levelo://app?vid=7d60acff-cb6c-4a92-aca6-d0de3845edf6"},"vehicle_type_id":"4","last_reported":1733532621,"current_range_meters":27600,"station_id":"ce4bgih2rcd13ifvqba0","pricing_plan_id":"cebpf4jnsgd1na2vs0mg"},{"bike_id":"5b135f0b-55ae-4064-aacb-86482514ac4f","system_id":"levelo_inurba_marseille","lat":43.28569,"lon":5.39505,"is_reserved":false,"is_disabled":false,"rental_uris":{"android":"levelo://app?vid=5b135f0b-55ae-4064-aacb-86482514ac4f","ios":"levelo://app?vid=5b135f0b-55ae-4064-aacb-86482514ac4f"},"vehicle_type_id":"4","last_reported":1733532621,"current_range_meters":21600,"station_id":"ce4bh292rcd13ifvqdg0","pricing_plan_id":"cebpf4jnsgd1na2vs0mg"},{"bike_id":"7ac0a9db-2ca6-488d-ba70-f84d0c992956","system_id":"levelo_inurba_marseille","lat":43.24671,"lon":5.38158,"is_reserved":false,"is_disabled":false,"rental_uris":{"android":"levelo://app?vid=7ac0a9db-2ca6-488d-ba70-f84d0c992956","ios":"levelo://app?vid=7ac0a9db-2ca6-488d-ba70-f84d0c992956"},"vehicle_type_id":"4","last_reported":1733532621,"current_range_meters":6800,"station_id":"ce4bhih2rcd13ifvqfr0","pricing_plan_id":"cebpf4jnsgd1na2vs0mg"},{"bike_id":"b01ba929-1580-401b-973d-e4a15d746d4a","system_id":"levelo_inurba_marseille","lat":43.22928,"lon":5.35377,"is_reserved":false,"is_disabled":false,"rental_uris":{"android":"levelo://app?vid=b01ba929-1580-401b-973d-e4a15d746d4a","ios":"levelo://app?vid=b01ba929-1580-401b-973d-e4a15d746d4a"},"vehicle_type_id":"4","last_reported":1733532621,"current_range_meters":7200,"station_id":"cpo3532slgdg3j2ikp40","pricing_plan_id":"cebpf4jnsgd1na2vs0mg"},{"bike_id":"8c1e28b4-904f-48d7-ba6d-d3b5b5d05922","system_id":"levelo_inurba_marseille","lat":43.29387,"lon":5.40107,"is_reserved":false,"is_disabled":true,"rental_uris":{"android":"levelo://app?vid=8c1e28b4-904f-48d7-ba6d-d3b5b5d05922","ios":"levelo://app?vid=8c1e28b4-904f-48d7-ba6d-d3b5b5d05922"},"vehicle_type_id":"4","last_reported":1733532621,"current_range_meters":0,"station_id":"","pricing_plan_id":"cebpf4jnsgd1na2vs0mg"},{"bike_id":"0a43f817-3d21-4907-aab1-172705ef3170","system_id":"levelo_inurba_marseille","lat":43.27817,"lon":5.40721,"is_reserved":false,"is_disabled":false,"rental_uris":{"android":"levelo://app?vid=0a43f817-3d21-4907-aab1-172705ef3170","ios":"levelo://app?vid=0a43f817-3d21-4907-aab1-172705ef3170"},"vehicle_type_id":"4","last_reported":1733532621,"current_range_meters":26800,"station_id":"ce4bhnh2rcd13ifvqgtg","pricing_plan_id":"cebpf4jnsgd1na2vs0mg"},{"bike_id":"7b9b3679-8df0-485d-a17a-ac62ea96167a","system_id":"levelo_inurba_marseille","lat":43.27977,"lon":5.38695,"is_reserved":false,"is_disabled":true,"rental_uris":{"android":"levelo://app?vid=7b9b3679-8df0-485d-a17a-ac62ea96167a","ios":"levelo://app?vid=7b9b3679-8df0-485d-a17a-ac62ea96167a"},"vehicle_type_id":"4","last_reported":1733532621,"current_range_meters":12000,"station_id":"ce4bhg12rcd13ifvqf80","pricing_plan_id":"cebpf4jnsgd1na2vs0mg"},{"bike_id":"704b7f91-c44b-4253-9491-46c217e82307","system_id":"levelo_inurba_marseille","lat":43.29305,"lon":5.37501,"is_reserved":false,"is_disabled":true,"rental_uris":{"android":"levelo://app?vid=704b7f91-c44b-4253-9491-46c217e82307","ios":"levelo://app?vid=704b7f91-c44b-4253-9491-46c217e82307"},"vehicle_type_id":"4","last_reported":1733532621,"current_range_meters":27600,"station_id":"ce4bgi12rcd13ifvqb70","pricing_plan_id":"cebpf4jnsgd1na2vs0mg"},{"bike_id":"25f4ddb9-ba04-4cb2-a9fb-3248e0dc743c","system_id":"levelo_inurba_marseille","lat":43.27818,"lon":5.40708,"is_reserved":false,"is_disabled":false,"rental_uris":{"android":"levelo://app?vid=25f4ddb9-ba04-4cb2-a9fb-3248e0dc743c","ios":"levelo://app?vid=25f4ddb9-ba04-4cb2-a9fb-3248e0dc743c"},"vehicle_type_id":"4","last_reported":1733532621,"current_range_meters":26800,"station_id":"ce4bhnh2rcd13ifvqgtg","pricing_plan_id":"cebpf4jnsgd1na2vs0mg"},{"bike_id":"13971156-4367-4eca-b0ff-f755600b335c","system_id":"levelo_inurba_marseille","lat":43.29718,"lon":5.36603,"is_reserved":false,"is_disabled":false,"rental_uris":{"android":"levelo://app?vid=13971156-4367-4eca-b0ff-f755600b335c","ios":"levelo://app?vid=13971156-4367-4eca-b0ff-f755600b335c"},"vehicle_type_id":"4","last_reported":1733532621,"current_range_meters":37600,"station_id":"ce4bgn12rcd13ifvqbt0","pricing_plan_id":"cebpf4jnsgd1na2vs0mg"},{"bike_id":"5ca831f9-385b-4fdf-b45c-ebd952c23fc4","system_id":"levelo_inurba_marseille","lat":43.31493,"lon":5.373,"is_reserved":false,"is_disabled":false,"rental_uris":{"android":"levelo://app?vid=5ca831f9-385b-4fdf-b45c-ebd952c23fc4","ios":"levelo://app?vid=5ca831f9-385b-4fdf-b45c-ebd952c23fc4"},"vehicle_type_id":"4","last_reported":1733532621,"current_range_meters":38800,"station_id":"ce4bgt12rcd13ifvqcd0","pricing_plan_id":"cebpf4jnsgd1na2vs0mg"},{"bike_id":"71e12d8a-8240-4421-924b-a139a8139c6c","system_id":"levelo_inurba_marseille","lat":43.33616,"lon":5.41034,"is_reserved":false,"is_disabled":false,"rental_uris":{"android":"levelo://app?vid=71e12d8a-8240-4421-924b-a139a8139c6c","ios":"levelo://app?vid=71e12d8a-8240-4421-924b-a139a8139c6c"},"vehicle_type_id":"4","last_reported":1733532621,"current_range_meters":38800,"station_id":"ce4bhqh2rcd13ifvqhmg","pricing_plan_id":"cebpf4jnsgd1na2vs0mg"},{"bike_id":"347279e4-4f88-4dee-b3d6-e24a5ea66e46","system_id":"levelo_inurba_marseille","lat":43.308962,"lon":5.371996,"is_reserved":false,"is_disabled":false,"rental_uris":{"android":"levelo://app?vid=347279e4-4f88-4dee-b3d6-e24a5ea66e46","ios":"levelo://app?vid=347279e4-4f88-4dee-b3d6-e24a5ea66e46"},"vehicle_type_id":"4","last_reported":1733532621,"current_range_meters":36400,"station_id":"ce4bguh2rcd13ifvqckg","pricing_plan_id":"cebpf4jnsgd1na2vs0mg"},{"bike_id":"282caff4-02c7-46cf-a9dc-fa558154bfc1","system_id":"levelo_inurba_marseille","lat":43.28156,"lon":5.42643,"is_reserved":false,"is_disabled":false,"rental_uris":{"android":"levelo://app?vid=282caff4-02c7-46cf-a9dc-fa558154bfc1","ios":"levelo://app?vid=282caff4-02c7-46cf-a9dc-fa558154bfc1"},"vehicle_type_id":"4","last_reported":1733532621,"current_range_meters":37600,"station_id":"ce4bhnh2rcd13ifvqgug","pricing_plan_id":"cebpf4jnsgd1na2vs0mg"},{"bike_id":"b6bddb01-8dc5-40d6-a340-3a03c7a3dfbf","system_id":"levelo_inurba_marseille","lat":43.29278,"lon":5.40118,"is_reserved":false,"is_disabled":false,"rental_uris":{"android":"levelo://app?vid=b6bddb01-8dc5-40d6-a340-3a03c7a3dfbf","ios":"levelo://app?vid=b6bddb01-8dc5-40d6-a340-3a03c7a3dfbf"},"vehicle_type_id":"4","last_reported":1733532621,"current_range_meters":36400,"station_id":"ce4bh312rcd13ifvqdk0","pricing_plan_id":"cebpf4jnsgd1na2vs0mg"},{"bike_id":"6ad8fff5-6505-40fc-8922-2acdd3c82e7b","system_id":"levelo_inurba_marseille","lat":43.2979,"lon":5.38115,"is_reserved":false,"is_disabled":true,"rental_uris":{"android":"levelo://app?vid=6ad8fff5-6505-40fc-8922-2acdd3c82e7b","ios":"levelo://app?vid=6ad8fff5-6505-40fc-8922-2acdd3c82e7b"},"vehicle_type_id":"4","last_reported":1733532621,"current_range_meters":21600,"station_id":"ce4bgip2rcd13ifvqbb0","pricing_plan_id":"cebpf4jnsgd1na2vs0mg"},{"bike_id":"7cb82360-b9f2-47a0-b99d-46f4c6062d4d","system_id":"levelo_inurba_marseille","lat":43.27952,"lon":5.41042,"is_reserved":false,"is_disabled":false,"rental_uris":{"android":"levelo://app?vid=7cb82360-b9f2-47a0-b99d-46f4c6062d4d","ios":"levelo://app?vid=7cb82360-b9f2-47a0-b99d-46f4c6062d4d"},"vehicle_type_id":"4","last_reported":1733532621,"current_range_meters":24400,"station_id":"ce4bhnp2rcd13ifvqh0g","pricing_plan_id":"cebpf4jnsgd1na2vs0mg"},{"bike_id":"ba8ee62b-e1f8-4737-a62b-c2c4e1c22f92","system_id":"levelo_inurba_marseille","lat":43.260592,"lon":5.393963,"is_reserved":false,"is_disabled":false,"rental_uris":{"android":"levelo://app?vid=ba8ee62b-e1f8-4737-a62b-c2c4e1c22f92","ios":"levelo://app?vid=ba8ee62b-e1f8-4737-a62b-c2c4e1c22f92"},"vehicle_type_id":"4","last_reported":1733532621,"current_range_meters":32400,"station_id":"","pricing_plan_id":"cebpf4jnsgd1na2vs0mg"},{"bike_id":"bbecf83f-a31c-4eab-8c84-16c4f2fc6ae3","system_id":"levelo_inurba_marseille","lat":43.24669,"lon":5.38164,"is_reserved":false,"is_disabled":false,"rental_uris":{"android":"levelo://app?vid=bbecf83f-a31c-4eab-8c84-16c4f2fc6ae3","ios":"levelo://app?vid=bbecf83f-a31c-4eab-8c84-16c4f2fc6ae3"},"vehicle_type_id":"4","last_reported":1733532621,"current_range_meters":22000,"station_id":"ce4bhih2rcd13ifvqfr0","pricing_plan_id":"cebpf4jnsgd1na2vs0mg"},{"bike_id":"c4802827-68a1-4daf-a934-fc0e931fd8b8","system_id":"levelo_inurba_marseille","lat":43.27621,"lon":5.36117,"is_reserved":false,"is_disabled":false,"rental_uris":{"android":"levelo://app?vid=c4802827-68a1-4daf-a934-fc0e931fd8b8","ios":"levelo://app?vid=c4802827-68a1-4daf-a934-fc0e931fd8b8"},"vehicle_type_id":"4","last_reported":1733532621,"current_range_meters":38800,"station_id":"ce4bgj92rcd13ifvqbe0","pricing_plan_id":"cebpf4jnsgd1na2vs0mg"},{"bike_id":"c5e9787b-a134-4db3-b1f5-92d059557abc","system_id":"levelo_inurba_marseille","lat":43.27494,"lon":5.42452,"is_reserved":false,"is_disabled":false,"rental_uris":{"android":"levelo://app?vid=c5e9787b-a134-4db3-b1f5-92d059557abc","ios":"levelo://app?vid=c5e9787b-a134-4db3-b1f5-92d059557abc"},"vehicle_type_id":"4","last_reported":1733532621,"current_range_meters":23200,"station_id":"ce4bhn92rcd13ifvqgrg","pricing_plan_id":"cebpf4jnsgd1na2vs0mg"},{"bike_id":"f0fff726-5d30-4073-87af-34eb8ff5d326","system_id":"levelo_inurba_marseille","lat":43.28352,"lon":5.38099,"is_reserved":false,"is_disabled":false,"rental_uris":{"android":"levelo://app?vid=f0fff726-5d30-4073-87af-34eb8ff5d326","ios":"levelo://app?vid=f0fff726-5d30-4073-87af-34eb8ff5d326"},"vehicle_type_id":"4","last_reported":1733532621,"current_range_meters":38800,"station_id":"ce4bh412rcd13ifvqdr0","pricing_plan_id":"cebpf4jnsgd1na2vs0mg"},{"bike_id":"8f4046fa-2d20-4095-bfb6-52e921195021","system_id":"levelo_inurba_marseille","lat":43.23153,"lon":5.43711,"is_reserved":false,"is_disabled":false,"rental_uris":{"android":"levelo://app?vid=8f4046fa-2d20-4095-bfb6-52e921195021","ios":"levelo://app?vid=8f4046fa-2d20-4095-bfb6-52e921195021"},"vehicle_type_id":"4","last_reported":1733532621,"current_range_meters":32400,"station_id":"ce4bhmp2rcd13ifvqgog","pricing_plan_id":"cebpf4jnsgd1na2vs0mg"},{"bike_id":"cafcbbef-0019-43e9-9d49-2bc2bb102e36","system_id":"levelo_inurba_marseille","lat":43.28577,"lon":5.39495,"is_reserved":false,"is_disabled":false,"rental_uris":{"android":"levelo://app?vid=cafcbbef-0019-43e9-9d49-2bc2bb102e36","ios":"levelo://app?vid=cafcbbef-0019-43e9-9d49-2bc2bb102e36"},"vehicle_type_id":"4","last_reported":1733532621,"current_range_meters":27600,"station_id":"ce4bh292rcd13ifvqdg0","pricing_plan_id":"cebpf4jnsgd1na2vs0mg"},{"bike_id":"33fa1c3e-8b2f-4b4a-86ae-2f664a2cbfce","system_id":"levelo_inurba_marseille","lat":43.32476,"lon":5.36565,"is_reserved":false,"is_disabled":false,"rental_uris":{"android":"levelo://app?vid=33fa1c3e-8b2f-4b4a-86ae-2f664a2cbfce","ios":"levelo://app?vid=33fa1c3e-8b2f-4b4a-86ae-2f664a2cbfce"},"vehicle_type_id":"4","last_reported":1733532621,"current_range_meters":7200,"station_id":"ce4bhs12rcd13ifvqhvg","pricing_plan_id":"cebpf4jnsgd1na2vs0mg"},{"bike_id":"bb6e32a8-248d-48bc-a1a7-3b725cd6be43","system_id":"levelo_inurba_marseille","lat":43.2407,"lon":5.37766,"is_reserved":false,"is_disabled":false,"rental_uris":{"android":"levelo://app?vid=bb6e32a8-248d-48bc-a1a7-3b725cd6be43","ios":"levelo://app?vid=bb6e32a8-248d-48bc-a1a7-3b725cd6be43"},"vehicle_type_id":"4","last_reported":1733532621,"current_range_meters":8000,"station_id":"ce4bhnp2rcd13ifvqgvg","pricing_plan_id":"cebpf4jnsgd1na2vs0mg"},{"bike_id":"ca44e3c5-d633-4c30-876a-bccaca7f7f37","system_id":"levelo_inurba_marseille","lat":43.31118,"lon":5.37765,"is_reserved":false,"is_disabled":false,"rental_uris":{"android":"levelo://app?vid=ca44e3c5-d633-4c30-876a-bccaca7f7f37","ios":"levelo://app?vid=ca44e3c5-d633-4c30-876a-bccaca7f7f37"},"vehicle_type_id":"4","last_reported":1733532621,"current_range_meters":5600,"station_id":"ce4bgt92rcd13ifvqcg0","pricing_plan_id":"cebpf4jnsgd1na2vs0mg"},{"bike_id":"4013f548-bd7d-4226-b87c-0ebbe8ddee6c","system_id":"levelo_inurba_marseille","lat":43.31269,"lon":5.40165,"is_reserved":false,"is_disabled":false,"rental_uris":{"android":"levelo://app?vid=4013f548-bd7d-4226-b87c-0ebbe8ddee6c","ios":"levelo://app?vid=4013f548-bd7d-4226-b87c-0ebbe8ddee6c"},"vehicle_type_id":"4","last_reported":1733532621,"current_range_meters":27600,"station_id":"ce4bh092rcd13ifvqd30","pricing_plan_id":"cebpf4jnsgd1na2vs0mg"},{"bike_id":"c33a3681-6741-4209-9566-0b28a63b6525","system_id":"levelo_inurba_marseille","lat":43.31279,"lon":5.4016,"is_reserved":false,"is_disabled":false,"rental_uris":{"android":"levelo://app?vid=c33a3681-6741-4209-9566-0b28a63b6525","ios":"levelo://app?vid=c33a3681-6741-4209-9566-0b28a63b6525"},"vehicle_type_id":"4","last_reported":1733532621,"current_range_meters":19600,"station_id":"ce4bh092rcd13ifvqd30","pricing_plan_id":"cebpf4jnsgd1na2vs0mg"},{"bike_id":"fd98eaa9-4d55-4e7b-aa90-0d14707466d9","system_id":"levelo_inurba_marseille","lat":43.337444,"lon":5.374475,"is_reserved":false,"is_disabled":true,"rental_uris":{"android":"levelo://app?vid=fd98eaa9-4d55-4e7b-aa90-0d14707466d9","ios":"levelo://app?vid=fd98eaa9-4d55-4e7b-aa90-0d14707466d9"},"vehicle_type_id":"4","last_reported":1733532621,"current_range_meters":0,"station_id":"","pricing_plan_id":"cebpf4jnsgd1na2vs0mg"},{"bike_id":"b2bb7dcd-fcc3-454a-9506-7fc343389f30","system_id":"levelo_inurba_marseille","lat":43.28272,"lon":5.35062,"is_reserved":false,"is_disabled":false,"rental_uris":{"android":"levelo://app?vid=b2bb7dcd-fcc3-454a-9506-7fc343389f30","ios":"levelo://app?vid=b2bb7dcd-fcc3-454a-9506-7fc343389f30"},"vehicle_type_id":"4","last_reported":1733532621,"current_range_meters":38800,"station_id":"ce4bhbp2rcd13ifvqerg","pricing_plan_id":"cebpf4jnsgd1na2vs0mg"},{"bike_id":"8551f60c-0d87-4529-b006-d4b933890363","system_id":"levelo_inurba_marseille","lat":43.2418,"lon":5.39729,"is_reserved":false,"is_disabled":false,"rental_uris":{"android":"levelo://app?vid=8551f60c-0d87-4529-b006-d4b933890363","ios":"levelo://app?vid=8551f60c-0d87-4529-b006-d4b933890363"},"vehicle_type_id":"4","last_reported":1733532621,"current_range_meters":38400,"station_id":"ce4bhn12rcd13ifvqgpg","pricing_plan_id":"cebpf4jnsgd1na2vs0mg"},{"bike_id":"27747901-daa4-4699-83f2-9d3e8e7d86e6","system_id":"levelo_inurba_marseille","lat":43.25826,"lon":5.3943,"is_reserved":false,"is_disabled":false,"rental_uris":{"android":"levelo://app?vid=27747901-daa4-4699-83f2-9d3e8e7d86e6","ios":"levelo://app?vid=27747901-daa4-4699-83f2-9d3e8e7d86e6"},"vehicle_type_id":"4","last_reported":1733532621,"current_range_meters":34000,"station_id":"ce4bhip2rcd13ifvqft0","pricing_plan_id":"cebpf4jnsgd1na2vs0mg"},{"bike_id":"b1c4eb48-3657-4b66-b5ed-53507d84fe46","system_id":"levelo_inurba_marseille","lat":43.29794,"lon":5.39351,"is_reserved":false,"is_disabled":true,"rental_uris":{"android":"levelo://app?vid=b1c4eb48-3657-4b66-b5ed-53507d84fe46","ios":"levelo://app?vid=b1c4eb48-3657-4b66-b5ed-53507d84fe46"},"vehicle_type_id":"4","last_reported":1733532621,"current_range_meters":0,"station_id":"chh1huq6cuj3fo74tm60","pricing_plan_id":"cebpf4jnsgd1na2vs0mg"},{"bike_id":"a23ed081-f92b-4496-b256-77a531661e88","system_id":"levelo_inurba_marseille","lat":43.28274,"lon":5.35082,"is_reserved":false,"is_disabled":false,"rental_uris":{"android":"levelo://app?vid=a23ed081-f92b-4496-b256-77a531661e88","ios":"levelo://app?vid=a23ed081-f92b-4496-b256-77a531661e88"},"vehicle_type_id":"4","last_reported":1733532621,"current_range_meters":38800,"station_id":"ce4bhbp2rcd13ifvqerg","pricing_plan_id":"cebpf4jnsgd1na2vs0mg"},{"bike_id":"1505fbfb-8e3b-4f0f-a1cc-003e44beeacb","system_id":"levelo_inurba_marseille","lat":43.3266,"lon":5.40992,"is_reserved":false,"is_disabled":false,"rental_uris":{"android":"levelo://app?vid=1505fbfb-8e3b-4f0f-a1cc-003e44beeacb","ios":"levelo://app?vid=1505fbfb-8e3b-4f0f-a1cc-003e44beeacb"},"vehicle_type_id":"4","last_reported":1733532621,"current_range_meters":38800,"station_id":"ce4bhpp2rcd13ifvqhgg","pricing_plan_id":"cebpf4jnsgd1na2vs0mg"},{"bike_id":"4566eeb6-977d-42bf-87a0-cde54400907a","system_id":"levelo_inurba_marseille","lat":43.28009,"lon":5.41691,"is_reserved":false,"is_disabled":false,"rental_uris":{"android":"levelo://app?vid=4566eeb6-977d-42bf-87a0-cde54400907a","ios":"levelo://app?vid=4566eeb6-977d-42bf-87a0-cde54400907a"},"vehicle_type_id":"4","last_reported":1733532621,"current_range_meters":14400,"station_id":"ce4bho12rcd13ifvqh1g","pricing_plan_id":"cebpf4jnsgd1na2vs0mg"},{"bike_id":"c2d8a1c2-d166-4a36-b32f-beec95c93bd5","system_id":"levelo_inurba_marseille","lat":43.33756,"lon":5.37459,"is_reserved":false,"is_disabled":false,"rental_uris":{"android":"levelo://app?vid=c2d8a1c2-d166-4a36-b32f-beec95c93bd5","ios":"levelo://app?vid=c2d8a1c2-d166-4a36-b32f-beec95c93bd5"},"vehicle_type_id":"4","last_reported":1733532621,"current_range_meters":2800,"station_id":"","pricing_plan_id":"cebpf4jnsgd1na2vs0mg"},{"bike_id":"b31740ba-31e3-4310-858d-71d9c7b26f3a","system_id":"levelo_inurba_marseille","lat":43.29262,"lon":5.3843,"is_reserved":false,"is_disabled":true,"rental_uris":{"android":"levelo://app?vid=b31740ba-31e3-4310-858d-71d9c7b26f3a","ios":"levelo://app?vid=b31740ba-31e3-4310-858d-71d9c7b26f3a"},"vehicle_type_id":"4","last_reported":1733532621,"current_range_meters":38800,"station_id":"ce4bh692rcd13ifvqea0","pricing_plan_id":"cebpf4jnsgd1na2vs0mg"},{"bike_id":"7a7888d2-4b0b-4186-8376-568c3b2ce15a","system_id":"levelo_inurba_marseille","lat":43.2943,"lon":5.38615,"is_reserved":false,"is_disabled":true,"rental_uris":{"android":"levelo://app?vid=7a7888d2-4b0b-4186-8376-568c3b2ce15a","ios":"levelo://app?vid=7a7888d2-4b0b-4186-8376-568c3b2ce15a"},"vehicle_type_id":"4","last_reported":1733532621,"current_range_meters":2000,"station_id":"ce4bh2h2rcd13ifvqdh0","pricing_plan_id":"cebpf4jnsgd1na2vs0mg"},{"bike_id":"417618d8-db3f-4039-95f4-2f088c5f4155","system_id":"levelo_inurba_marseille","lat":43.27496,"lon":5.42447,"is_reserved":false,"is_disabled":false,"rental_uris":{"android":"levelo://app?vid=417618d8-db3f-4039-95f4-2f088c5f4155","ios":"levelo://app?vid=417618d8-db3f-4039-95f4-2f088c5f4155"},"vehicle_type_id":"4","last_reported":1733532621,"current_range_meters":38800,"station_id":"ce4bhn92rcd13ifvqgrg","pricing_plan_id":"cebpf4jnsgd1na2vs0mg"},{"bike_id":"f86ac28e-ca50-41ff-94b9-22727c68aecb","system_id":"levelo_inurba_marseille","lat":43.27175,"lon":5.409906,"is_reserved":false,"is_disabled":false,"rental_uris":{"android":"levelo://app?vid=f86ac28e-ca50-41ff-94b9-22727c68aecb","ios":"levelo://app?vid=f86ac28e-ca50-41ff-94b9-22727c68aecb"},"vehicle_type_id":"4","last_reported":1733532621,"current_range_meters":38000,"station_id":"ce4bhl12rcd13ifvqgf0","pricing_plan_id":"cebpf4jnsgd1na2vs0mg"},{"bike_id":"68dec61f-1eae-47de-bf10-4f1fb1597ed8","system_id":"levelo_inurba_marseille","lat":43.25505,"lon":5.37652,"is_reserved":false,"is_disabled":false,"rental_uris":{"android":"levelo://app?vid=68dec61f-1eae-47de-bf10-4f1fb1597ed8","ios":"levelo://app?vid=68dec61f-1eae-47de-bf10-4f1fb1597ed8"},"vehicle_type_id":"4","last_reported":1733532621,"current_range_meters":3600,"station_id":"ce4bhh12rcd13ifvqff0","pricing_plan_id":"cebpf4jnsgd1na2vs0mg"},{"bike_id":"70c1abac-b206-49c1-86ad-dc30a0cef4a7","system_id":"levelo_inurba_marseille","lat":43.29283,"lon":5.40117,"is_reserved":false,"is_disabled":false,"rental_uris":{"android":"levelo://app?vid=70c1abac-b206-49c1-86ad-dc30a0cef4a7","ios":"levelo://app?vid=70c1abac-b206-49c1-86ad-dc30a0cef4a7"},"vehicle_type_id":"4","last_reported":1733532621,"current_range_meters":35600,"station_id":"ce4bh312rcd13ifvqdk0","pricing_plan_id":"cebpf4jnsgd1na2vs0mg"},{"bike_id":"7bfa808f-e1e4-4ab1-b3fa-4ba7de9f3ecb","system_id":"levelo_inurba_marseille","lat":43.28923,"lon":5.40034,"is_reserved":false,"is_disabled":false,"rental_uris":{"android":"levelo://app?vid=7bfa808f-e1e4-4ab1-b3fa-4ba7de9f3ecb","ios":"levelo://app?vid=7bfa808f-e1e4-4ab1-b3fa-4ba7de9f3ecb"},"vehicle_type_id":"4","last_reported":1733532621,"current_range_meters":36800,"station_id":"","pricing_plan_id":"cebpf4jnsgd1na2vs0mg"},{"bike_id":"8a93cf1e-2130-4026-b79d-cc51b57f3f8d","system_id":"levelo_inurba_marseille","lat":43.29695,"lon":5.36587,"is_reserved":false,"is_disabled":false,"rental_uris":{"android":"levelo://app?vid=8a93cf1e-2130-4026-b79d-cc51b57f3f8d","ios":"levelo://app?vid=8a93cf1e-2130-4026-b79d-cc51b57f3f8d"},"vehicle_type_id":"4","last_reported":1733532621,"current_range_meters":30400,"station_id":"ce4bgn12rcd13ifvqbt0","pricing_plan_id":"cebpf4jnsgd1na2vs0mg"},{"bike_id":"4bbde7cd-beec-4986-9046-7e5b1a9c455c","system_id":"levelo_inurba_marseille","lat":43.29909,"lon":5.37468,"is_reserved":false,"is_disabled":false,"rental_uris":{"android":"levelo://app?vid=4bbde7cd-beec-4986-9046-7e5b1a9c455c","ios":"levelo://app?vid=4bbde7cd-beec-4986-9046-7e5b1a9c455c"},"vehicle_type_id":"4","last_reported":1733532621,"current_range_meters":35200,"station_id":"ce4bgjh2rcd13ifvqbg0","pricing_plan_id":"cebpf4jnsgd1na2vs0mg"},{"bike_id":"97884a7a-e895-4fd6-9da3-4992de1fbd62","system_id":"levelo_inurba_marseille","lat":43.31275,"lon":5.40158,"is_reserved":false,"is_disabled":false,"rental_uris":{"android":"levelo://app?vid=97884a7a-e895-4fd6-9da3-4992de1fbd62","ios":"levelo://app?vid=97884a7a-e895-4fd6-9da3-4992de1fbd62"},"vehicle_type_id":"4","last_reported":1733532621,"current_range_meters":38800,"station_id":"ce4bh092rcd13ifvqd30","pricing_plan_id":"cebpf4jnsgd1na2vs0mg"},{"bike_id":"f5561434-0740-4a3c-abc2-013f37687b8d","system_id":"levelo_inurba_marseille","lat":43.24804,"lon":5.37452,"is_reserved":false,"is_disabled":true,"rental_uris":{"android":"levelo://app?vid=f5561434-0740-4a3c-abc2-013f37687b8d","ios":"levelo://app?vid=f5561434-0740-4a3c-abc2-013f37687b8d"},"vehicle_type_id":"4","last_reported":1733532621,"current_range_meters":38800,"station_id":"ce4bhgh2rcd13ifvqfb0","pricing_plan_id":"cebpf4jnsgd1na2vs0mg"},{"bike_id":"11c072d2-3cb0-4cd6-963c-e572aa9c3d9b","system_id":"levelo_inurba_marseille","lat":43.30933,"lon":5.40146,"is_reserved":false,"is_disabled":false,"rental_uris":{"android":"levelo://app?vid=11c072d2-3cb0-4cd6-963c-e572aa9c3d9b","ios":"levelo://app?vid=11c072d2-3cb0-4cd6-963c-e572aa9c3d9b"},"vehicle_type_id":"4","last_reported":1733532621,"current_range_meters":29600,"station_id":"ce4bgvp2rcd13ifvqct0","pricing_plan_id":"cebpf4jnsgd1na2vs0mg"},{"bike_id":"2f58fc96-8b8a-4bf1-ba03-dc15dd9ec024","system_id":"levelo_inurba_marseille","lat":43.296076,"lon":5.370267,"is_reserved":false,"is_disabled":true,"rental_uris":{"android":"levelo://app?vid=2f58fc96-8b8a-4bf1-ba03-dc15dd9ec024","ios":"levelo://app?vid=2f58fc96-8b8a-4bf1-ba03-dc15dd9ec024"},"vehicle_type_id":"4","last_reported":1733532621,"current_range_meters":400,"station_id":"","pricing_plan_id":"cebpf4jnsgd1na2vs0mg"},{"bike_id":"c6e648ce-f706-4732-8ae1-92cfde4bc1c3","system_id":"levelo_inurba_marseille","lat":43.29468,"lon":5.37472,"is_reserved":false,"is_disabled":false,"rental_uris":{"android":"levelo://app?vid=c6e648ce-f706-4732-8ae1-92cfde4bc1c3","ios":"levelo://app?vid=c6e648ce-f706-4732-8ae1-92cfde4bc1c3"},"vehicle_type_id":"4","last_reported":1733532621,"current_range_meters":36800,"station_id":"","pricing_plan_id":"cebpf4jnsgd1na2vs0mg"},{"bike_id":"72e29cff-f685-43b0-a2f9-babaa1c44344","system_id":"levelo_inurba_marseille","lat":43.23961,"lon":5.36628,"is_reserved":false,"is_disabled":false,"rental_uris":{"android":"levelo://app?vid=72e29cff-f685-43b0-a2f9-babaa1c44344","ios":"levelo://app?vid=72e29cff-f685-43b0-a2f9-babaa1c44344"},"vehicle_type_id":"4","last_reported":1733532621,"current_range_meters":24000,"station_id":"ce4bhi12rcd13ifvqfp0","pricing_plan_id":"cebpf4jnsgd1na2vs0mg"},{"bike_id":"e16f66b0-9eb6-410e-bcf3-e58a2b40bbc1","system_id":"levelo_inurba_marseille","lat":43.29281,"lon":5.36844,"is_reserved":false,"is_disabled":false,"rental_uris":{"android":"levelo://app?vid=e16f66b0-9eb6-410e-bcf3-e58a2b40bbc1","ios":"levelo://app?vid=e16f66b0-9eb6-410e-bcf3-e58a2b40bbc1"},"vehicle_type_id":"4","last_reported":1733532621,"current_range_meters":19200,"station_id":"ce4bhbp2rcd13ifvqesg","pricing_plan_id":"cebpf4jnsgd1na2vs0mg"},{"bike_id":"62890cf1-cd4c-4fee-94e0-ff96bbf9cf47","system_id":"levelo_inurba_marseille","lat":43.28274,"lon":5.35074,"is_reserved":false,"is_disabled":false,"rental_uris":{"android":"levelo://app?vid=62890cf1-cd4c-4fee-94e0-ff96bbf9cf47","ios":"levelo://app?vid=62890cf1-cd4c-4fee-94e0-ff96bbf9cf47"},"vehicle_type_id":"4","last_reported":1733532621,"current_range_meters":36400,"station_id":"ce4bhbp2rcd13ifvqerg","pricing_plan_id":"cebpf4jnsgd1na2vs0mg"},{"bike_id":"ef2fc74e-d5d5-442a-9728-8c95cb21eb49","system_id":"levelo_inurba_marseille","lat":43.27817,"lon":5.40705,"is_reserved":false,"is_disabled":false,"rental_uris":{"android":"levelo://app?vid=ef2fc74e-d5d5-442a-9728-8c95cb21eb49","ios":"levelo://app?vid=ef2fc74e-d5d5-442a-9728-8c95cb21eb49"},"vehicle_type_id":"4","last_reported":1733532621,"current_range_meters":29600,"station_id":"ce4bhnh2rcd13ifvqgtg","pricing_plan_id":"cebpf4jnsgd1na2vs0mg"},{"bike_id":"28121aa3-7c19-4b1b-a44a-d17aed6b8d94","system_id":"levelo_inurba_marseille","lat":43.337444,"lon":5.374475,"is_reserved":false,"is_disabled":false,"rental_uris":{"android":"levelo://app?vid=28121aa3-7c19-4b1b-a44a-d17aed6b8d94","ios":"levelo://app?vid=28121aa3-7c19-4b1b-a44a-d17aed6b8d94"},"vehicle_type_id":"4","last_reported":1733532621,"current_range_meters":31200,"station_id":"","pricing_plan_id":"cebpf4jnsgd1na2vs0mg"},{"bike_id":"62dddee1-1100-4d8c-839c-64951e09afde","system_id":"levelo_inurba_marseille","lat":43.25256,"lon":5.40531,"is_reserved":false,"is_disabled":true,"rental_uris":{"android":"levelo://app?vid=62dddee1-1100-4d8c-839c-64951e09afde","ios":"levelo://app?vid=62dddee1-1100-4d8c-839c-64951e09afde"},"vehicle_type_id":"4","last_reported":1733532621,"current_range_meters":19200,"station_id":"","pricing_plan_id":"cebpf4jnsgd1na2vs0mg"},{"bike_id":"b57ac3ac-1cb9-4a0e-9880-d76a5f5fa301","system_id":"levelo_inurba_marseille","lat":43.26209,"lon":5.37926,"is_reserved":false,"is_disabled":false,"rental_uris":{"android":"levelo://app?vid=b57ac3ac-1cb9-4a0e-9880-d76a5f5fa301","ios":"levelo://app?vid=b57ac3ac-1cb9-4a0e-9880-d76a5f5fa301"},"vehicle_type_id":"4","last_reported":1733532621,"current_range_meters":38800,"station_id":"ce4bhjp2rcd13ifvqg90","pricing_plan_id":"cebpf4jnsgd1na2vs0mg"},{"bike_id":"f3f8a736-97f0-478a-bf1d-83917568f7df","system_id":"levelo_inurba_marseille","lat":43.30546,"lon":5.3664,"is_reserved":false,"is_disabled":true,"rental_uris":{"android":"levelo://app?vid=f3f8a736-97f0-478a-bf1d-83917568f7df","ios":"levelo://app?vid=f3f8a736-97f0-478a-bf1d-83917568f7df"},"vehicle_type_id":"4","last_reported":1733532621,"current_range_meters":38800,"station_id":"","pricing_plan_id":"cebpf4jnsgd1na2vs0mg"},{"bike_id":"66d282cd-c91b-426f-8fa1-8ecb86db9de0","system_id":"levelo_inurba_marseille","lat":43.28268,"lon":5.35072,"is_reserved":false,"is_disabled":false,"rental_uris":{"android":"levelo://app?vid=66d282cd-c91b-426f-8fa1-8ecb86db9de0","ios":"levelo://app?vid=66d282cd-c91b-426f-8fa1-8ecb86db9de0"},"vehicle_type_id":"4","last_reported":1733532621,"current_range_meters":38800,"station_id":"ce4bhbp2rcd13ifvqerg","pricing_plan_id":"cebpf4jnsgd1na2vs0mg"},{"bike_id":"080fcb1c-52b8-42d7-b477-4dbab7fa601d","system_id":"levelo_inurba_marseille","lat":43.33021,"lon":5.39041,"is_reserved":false,"is_disabled":false,"rental_uris":{"android":"levelo://app?vid=080fcb1c-52b8-42d7-b477-4dbab7fa601d","ios":"levelo://app?vid=080fcb1c-52b8-42d7-b477-4dbab7fa601d"},