{"last_updated":1752664183,"ttl":60,"version":"2.2","data":{"bikes":[{"bike_id":"53b742a7-31ae-4272-9bba-7740339e2a2f","system_id":"levelo_inurba_marseille","lat":43.33747,"lon":5.37463,"is_reserved":false,"is_disabled":false,"rental_uris":{"android":"levelo://app?vid=53b742a7-31ae-4272-9bba-7740339e2a2f","ios":"levelo://app?vid=53b742a7-31ae-4272-9bba-7740339e2a2f"},"vehicle_type_id":"1","last_reported":1752664183,"current_range_meters":29600,"station_id":"","pricing_plan_id":"cebpf4jnsgd1na2vs0mg"},{"bike_id":"81eb016e-2a08-4e61-9703-e47413e3c831","system_id":"levelo_inurba_marseille","lat":43.22507,"lon":5.34791,"is_reserved":false,"is_disabled":false,"rental_uris":{"android":"levelo://app?vid=81eb016e-2a08-4e61-9703-e47413e3c831","ios":"levelo://app?vid=81eb016e-2a08-4e61-9703-e47413e3c831"},"vehicle_type_id":"4","last_reported":1752664183,"current_range_meters":2800,"station_id":"st_cvj5dfep6f1abm77gieg","pricing_plan_id":"cebpf4jnsgd1na2vs0mg"},{"bike_id":"e61ba50e-27cb-44f6-8441-344e79989a82","system_id":"levelo_inurba_marseille","lat":43.29524,"lon":5.37532,"is_reserved":false,"is_disabled":false,"rental_uris":{"android":"levelo://app?vid=e61ba50e-27cb-44f6-8441-344e79989a82","ios":"levelo://app?vid=e61ba50e-27cb-44f6-8441-344e79989a82"},"vehicle_type_id":"4","last_reported":1752664183,"current_range_meters":3200,"station_id":"ce4bgkp2rcd13ifvqbmg","pricing_plan_id":"cebpf4jnsgd1na2vs0mg"},{"bike_id":"bebd60d1-65a1-476d-b953-8601ee8a1ae5","system_id":"levelo_inurba_marseille","lat":43.22933,"lon":5.3539,"is_reserved":false,"is_disabled":false,"rental_uris":{"android":"levelo://app?vid=bebd60d1-65a1-476d-b953-8601ee8a1ae5","ios":"levelo://app?vid=bebd60d1-65a1-476d-b953-8601ee8a1ae5"},"vehicle_type_id":"4","last_reported":1752664183,"current_range_meters":3200,"station_id":"cpo3532slgdg3j2ikp40","pricing_plan_id":"cebpf4jnsgd1na2vs0mg"},{"bike_id":"2ecc4f9e-2b47-47d9-8313-518cca8a5cd3","system_id":"levelo_inurba_marseille","lat":43.267449,"lon":5.397966,"is_reserved":false,"is_disabled":true,"rental_uris":{"android":"levelo://app?vid=2ecc4f9e-2b47-47d9-8313-518cca8a5cd3","ios":"levelo://app?vid=2ecc4f9e-2b47-47d9-8313-518cca8a5cd3"},"vehicle_type_id":"4","last_reported":1752664183,"current_range_meters":3200,"station_id":"","pricing_plan_id":"cebpf4jnsgd1na2vs0mg"},{"bike_id":"afb4a4da-8392-4e49-9997-16fc997f05e9","system_id":"levelo_inurba_marseille","lat":43.257176,"lon":5.41117,"is_reserved":false,"is_disabled":false,"rental_uris":{"android":"levelo://app?vid=afb4a4da-8392-4e49-9997-16fc997f05e9","ios":"levelo://app?vid=afb4a4da-8392-4e49-9997-16fc997f05e9"},"vehicle_type_id":"4","last_reported":1752664183,"current_range_meters":3600,"station_id":"ce4bhkp2rcd13ifvqgd0","pricing_plan_id":"cebpf4jnsgd1na2vs0mg"},{"bike_id":"0517f226-9c35-473e-b2c6-52179b326362","system_id":"levelo_inurba_marseille","lat":43.282639,"lon":5.350543,"is_reserved":false,"is_disabled":false,"rental_uris":{"android":"levelo://app?vid=0517f226-9c35-473e-b2c6-52179b326362","ios":"levelo://app?vid=0517f226-9c35-473e-b2c6-52179b326362"},"vehicle_type_id":"4","last_reported":1752664183,"current_range_meters":4000,"station_id":"","pricing_plan_id":"cebpf4jnsgd1na2vs0mg"},{"bike_id":"6368de16-d144-4f73-833e-ca19d2aeee12","system_id":"levelo_inurba_marseille","lat":43.22531,"lon":5.34767,"is_reserved":false,"is_disabled":false,"rental_uris":{"android":"levelo://app?vid=6368de16-d144-4f73-833e-ca19d2aeee12","ios":"levelo://app?vid=6368de16-d144-4f73-833e-ca19d2aeee12"},"vehicle_type_id":"4","last_reported":1752664183,"current_range_meters":4000,"station_id":"st_cvj5dfep6f1abm77gieg","pricing_plan_id":"cebpf4jnsgd1na2vs0mg"},{"bike_id":"17c934c0-f0d3-4eb2-aeff-ba8dd88e16b8","system_id":"levelo_inurba_marseille","lat":43.292534,"lon":5.376396,"is_reserved":false,"is_disabled":false,"rental_uris":{"android":"levelo://app?vid=17c934c0-f0d3-4eb2-aeff-ba8dd88e16b8","ios":"levelo://app?vid=17c934c0-f0d3-4eb2-aeff-ba8dd88e16b8"},"vehicle_type_id":"4","last_reported":1752664183,"current_range_meters":4800,"station_id":"","pricing_plan_id":"cebpf4jnsgd1na2vs0mg"},{"bike_id":"56fdb07c-396f-4a09-a265-bd87c6e1d174","system_id":"levelo_inurba_marseille","lat":43.33597,"lon":5.40982,"is_reserved":false,"is_disabled":false,"rental_uris":{"android":"levelo://app?vid=56fdb07c-396f-4a09-a265-bd87c6e1d174","ios":"levelo://app?vid=56fdb07c-396f-4a09-a265-bd87c6e1d174"},"vehicle_type_id":"4","last_reported":1752664183,"current_range_meters":5600,"station_id":"ce4bhqh2rcd13ifvqhmg","pricing_plan_id":"cebpf4jnsgd1na2vs0mg"},{"bike_id":"3942ebf4-310b-4507-aed1-413b9b780299","system_id":"levelo_inurba_marseille","lat":43.29279,"lon":5.3684,"is_reserved":false,"is_disabled":false,"rental_uris":{"android":"levelo://app?vid=3942ebf4-310b-4507-aed1-413b9b780299","ios":"levelo://app?vid=3942ebf4-310b-4507-aed1-413b9b780299"},"vehicle_type_id":"4","last_reported":1752664183,"current_range_meters":5600,"station_id":"ce4bhbp2rcd13ifvqesg","pricing_plan_id":"cebpf4jnsgd1na2vs0mg"},{"bike_id":"9b31d420-299c-43c8-9a40-7869a033c934","system_id":"levelo_inurba_marseille","lat":43.25113,"lon":5.40316,"is_reserved":false,"is_disabled":false,"rental_uris":{"android":"levelo://app?vid=9b31d420-299c-43c8-9a40-7869a033c934","ios":"levelo://app?vid=9b31d420-299c-43c8-9a40-7869a033c934"},"vehicle_type_id":"4","last_reported":1752664183,"current_range_meters":5600,"station_id":"ce4bhlh2rcd13ifvqgig","pricing_plan_id":"cebpf4jnsgd1na2vs0mg"},{"bike_id":"e1a76524-e56f-459a-8ae7-1b4f7571e617","system_id":"levelo_inurba_marseille","lat":43.21749,"lon":5.34605,"is_reserved":false,"is_disabled":false,"rental_uris":{"android":"levelo://app?vid=e1a76524-e56f-459a-8ae7-1b4f7571e617","ios":"levelo://app?vid=e1a76524-e56f-459a-8ae7-1b4f7571e617"},"vehicle_type_id":"4","last_reported":1752664183,"current_range_meters":5600,"station_id":"st_cvj6r9ubvosntc0bgbag","pricing_plan_id":"cebpf4jnsgd1na2vs0mg"},{"bike_id":"cab0f093-9e6d-4252-abc1-cecd712bcfdd","system_id":"levelo_inurba_marseille","lat":43.23192,"lon":5.35559,"is_reserved":false,"is_disabled":false,"rental_uris":{"android":"levelo://app?vid=cab0f093-9e6d-4252-abc1-cecd712bcfdd","ios":"levelo://app?vid=cab0f093-9e6d-4252-abc1-cecd712bcfdd"},"vehicle_type_id":"4","last_reported":1752664183,"current_range_meters":6800,"station_id":"ce4bhu92rcd13ifvqi70","pricing_plan_id":"cebpf4jnsgd1na2vs0mg"},{"bike_id":"5c45cf5e-22b0-4bf5-83b5-366fccb7856f","system_id":"levelo_inurba_marseille","lat":43.29599,"lon":5.36769,"is_reserved":false,"is_disabled":false,"rental_uris":{"android":"levelo://app?vid=5c45cf5e-22b0-4bf5-83b5-366fccb7856f","ios":"levelo://app?vid=5c45cf5e-22b0-4bf5-83b5-366fccb7856f"},"vehicle_type_id":"4","last_reported":1752664183,"current_range_meters":6800,"station_id":"ce4bgph2rcd13ifvqc2g","pricing_plan_id":"cebpf4jnsgd1na2vs0mg"},{"bike_id":"6c80601b-38ed-4ad9-b09b-408724cc78f3","system_id":"levelo_inurba_marseille","lat":43.30533,"lon":5.36538,"is_reserved":false,"is_disabled":false,"rental_uris":{"android":"levelo://app?vid=6c80601b-38ed-4ad9-b09b-408724cc78f3","ios":"levelo://app?vid=6c80601b-38ed-4ad9-b09b-408724cc78f3"},"vehicle_type_id":"4","last_reported":1752664183,"current_range_meters":6800,"station_id":"ce4bgs12rcd13ifvqcag","pricing_plan_id":"cebpf4jnsgd1na2vs0mg"},{"bike_id":"faf8f656-a8b0-42cf-905c-15c1afa690e7","system_id":"levelo_inurba_marseille","lat":43.262321,"lon":5.404543,"is_reserved":false,"is_disabled":false,"rental_uris":{"android":"levelo://app?vid=faf8f656-a8b0-42cf-905c-15c1afa690e7","ios":"levelo://app?vid=faf8f656-a8b0-42cf-905c-15c1afa690e7"},"vehicle_type_id":"4","last_reported":1752664183,"current_range_meters":6800,"station_id":"ce4bhmh2rcd13ifvqgmg","pricing_plan_id":"cebpf4jnsgd1na2vs0mg"},{"bike_id":"5d8c54b6-f935-4965-a2f7-8c1767a0c171","system_id":"levelo_inurba_marseille","lat":43.294193,"lon":5.386071,"is_reserved":false,"is_disabled":true,"rental_uris":{"android":"levelo://app?vid=5d8c54b6-f935-4965-a2f7-8c1767a0c171","ios":"levelo://app?vid=5d8c54b6-f935-4965-a2f7-8c1767a0c171"},"vehicle_type_id":"4","last_reported":1752664183,"current_range_meters":6800,"station_id":"ce4bh2h2rcd13ifvqdh0","pricing_plan_id":"cebpf4jnsgd1na2vs0mg"},{"bike_id":"967b380d-1f0e-4435-873e-763674670725","system_id":"levelo_inurba_marseille","lat":43.25115,"lon":5.40315,"is_reserved":false,"is_disabled":false,"rental_uris":{"android":"levelo://app?vid=967b380d-1f0e-4435-873e-763674670725","ios":"levelo://app?vid=967b380d-1f0e-4435-873e-763674670725"},"vehicle_type_id":"4","last_reported":1752664183,"current_range_meters":6800,"station_id":"ce4bhlh2rcd13ifvqgig","pricing_plan_id":"cebpf4jnsgd1na2vs0mg"},{"bike_id":"b731b493-bd47-4af5-b74f-84aaf532a7df","system_id":"levelo_inurba_marseille","lat":43.31394,"lon":5.36667,"is_reserved":false,"is_disabled":false,"rental_uris":{"android":"levelo://app?vid=b731b493-bd47-4af5-b74f-84aaf532a7df","ios":"levelo://app?vid=b731b493-bd47-4af5-b74f-84aaf532a7df"},"vehicle_type_id":"4","last_reported":1752664183,"current_range_meters":7200,"station_id":"","pricing_plan_id":"cebpf4jnsgd1na2vs0mg"},{"bike_id":"047759e6-22e1-4bd3-a4b9-9d3f2851d6c9","system_id":"levelo_inurba_marseille","lat":43.30309,"lon":5.36916,"is_reserved":false,"is_disabled":false,"rental_uris":{"android":"levelo://app?vid=047759e6-22e1-4bd3-a4b9-9d3f2851d6c9","ios":"levelo://app?vid=047759e6-22e1-4bd3-a4b9-9d3f2851d6c9"},"vehicle_type_id":"4","last_reported":1752664183,"current_range_meters":7200,"station_id":"ce4bgqh2rcd13ifvqc5g","pricing_plan_id":"cebpf4jnsgd1na2vs0mg"},{"bike_id":"19aa427c-af28-4982-9225-b28cf6a3f1a3","system_id":"levelo_inurba_marseille","lat":43.32669,"lon":5.39229,"is_reserved":false,"is_disabled":false,"rental_uris":{"android":"levelo://app?vid=19aa427c-af28-4982-9225-b28cf6a3f1a3","ios":"levelo://app?vid=19aa427c-af28-4982-9225-b28cf6a3f1a3"},"vehicle_type_id":"4","last_reported":1752664183,"current_range_meters":7200,"station_id":"","pricing_plan_id":"cebpf4jnsgd1na2vs0mg"},{"bike_id":"084eace8-045f-4012-9455-c501cad7ce10","system_id":"levelo_inurba_marseille","lat":43.2251,"lon":5.34782,"is_reserved":false,"is_disabled":false,"rental_uris":{"android":"levelo://app?vid=084eace8-045f-4012-9455-c501cad7ce10","ios":"levelo://app?vid=084eace8-045f-4012-9455-c501cad7ce10"},"vehicle_type_id":"4","last_reported":1752664183,"current_range_meters":7200,"station_id":"st_cvj5dfep6f1abm77gieg","pricing_plan_id":"cebpf4jnsgd1na2vs0mg"},{"bike_id":"de8dc9ab-c59f-4938-9d10-fb8c5d97ab5c","system_id":"levelo_inurba_marseille","lat":43.22927,"lon":5.35384,"is_reserved":false,"is_disabled":false,"rental_uris":{"android":"levelo://app?vid=de8dc9ab-c59f-4938-9d10-fb8c5d97ab5c","ios":"levelo://app?vid=de8dc9ab-c59f-4938-9d10-fb8c5d97ab5c"},"vehicle_type_id":"4","last_reported":1752664183,"current_range_meters":7200,"station_id":"cpo3532slgdg3j2ikp40","pricing_plan_id":"cebpf4jnsgd1na2vs0mg"},{"bike_id":"ec1129ea-dda2-4536-9a77-cd7d2cc95938","system_id":"levelo_inurba_marseille","lat":43.29265,"lon":5.38442,"is_reserved":false,"is_disabled":false,"rental_uris":{"android":"levelo://app?vid=ec1129ea-dda2-4536-9a77-cd7d2cc95938","ios":"levelo://app?vid=ec1129ea-dda2-4536-9a77-cd7d2cc95938"},"vehicle_type_id":"4","last_reported":1752664183,"current_range_meters":7200,"station_id":"ce4bh692rcd13ifvqea0","pricing_plan_id":"cebpf4jnsgd1na2vs0mg"},{"bike_id":"b070b57e-b7c1-44b8-b2bd-37a8c462034a","system_id":"levelo_inurba_marseille","lat":43.28694,"lon":5.37391,"is_reserved":false,"is_disabled":false,"rental_uris":{"android":"levelo://app?vid=b070b57e-b7c1-44b8-b2bd-37a8c462034a","ios":"levelo://app?vid=b070b57e-b7c1-44b8-b2bd-37a8c462034a"},"vehicle_type_id":"4","last_reported":1752664183,"current_range_meters":7200,"station_id":"ce4bh3p2rcd13ifvqdq0","pricing_plan_id":"cebpf4jnsgd1na2vs0mg"},{"bike_id":"e2f2f893-16c7-42e5-8c51-893940a1136e","system_id":"levelo_inurba_marseille","lat":43.3012,"lon":5.36854,"is_reserved":false,"is_disabled":false,"rental_uris":{"android":"levelo://app?vid=e2f2f893-16c7-42e5-8c51-893940a1136e","ios":"levelo://app?vid=e2f2f893-16c7-42e5-8c51-893940a1136e"},"vehicle_type_id":"4","last_reported":1752664183,"current_range_meters":8000,"station_id":"","pricing_plan_id":"cebpf4jnsgd1na2vs0mg"},{"bike_id":"892165f6-25a5-4f0a-a9a6-cf4efe50c3be","system_id":"levelo_inurba_marseille","lat":43.2485,"lon":5.42538,"is_reserved":false,"is_disabled":false,"rental_uris":{"android":"levelo://app?vid=892165f6-25a5-4f0a-a9a6-cf4efe50c3be","ios":"levelo://app?vid=892165f6-25a5-4f0a-a9a6-cf4efe50c3be"},"vehicle_type_id":"4","last_reported":1752664183,"current_range_meters":8000,"station_id":"","pricing_plan_id":"cebpf4jnsgd1na2vs0mg"},{"bike_id":"2425fd24-a9e5-455c-b3de-c715c70015ff","system_id":"levelo_inurba_marseille","lat":43.240777,"lon":5.377223,"is_reserved":false,"is_disabled":false,"rental_uris":{"android":"levelo://app?vid=2425fd24-a9e5-455c-b3de-c715c70015ff","ios":"levelo://app?vid=2425fd24-a9e5-455c-b3de-c715c70015ff"},"vehicle_type_id":"4","last_reported":1752664183,"current_range_meters":8000,"station_id":"ce4bhnp2rcd13ifvqgvg","pricing_plan_id":"cebpf4jnsgd1na2vs0mg"},{"bike_id":"9254184a-023c-4137-abe6-1779e3611a8f","system_id":"levelo_inurba_marseille","lat":43.2951,"lon":5.3751,"is_reserved":false,"is_disabled":false,"rental_uris":{"android":"levelo://app?vid=9254184a-023c-4137-abe6-1779e3611a8f","ios":"levelo://app?vid=9254184a-023c-4137-abe6-1779e3611a8f"},"vehicle_type_id":"4","last_reported":1752664183,"current_range_meters":8000,"station_id":"ce4bgkp2rcd13ifvqbmg","pricing_plan_id":"cebpf4jnsgd1na2vs0mg"},{"bike_id":"5ff06d2e-1fcb-4f7f-b26f-494ef01051e2","system_id":"levelo_inurba_marseille","lat":43.26587,"lon":5.39483,"is_reserved":false,"is_disabled":true,"rental_uris":{"android":"levelo://app?vid=5ff06d2e-1fcb-4f7f-b26f-494ef01051e2","ios":"levelo://app?vid=5ff06d2e-1fcb-4f7f-b26f-494ef01051e2"},"vehicle_type_id":"4","last_reported":1752664183,"current_range_meters":8000,"station_id":"","pricing_plan_id":"cebpf4jnsgd1na2vs0mg"},{"bike_id":"60ce03bb-3ef3-426b-96cb-be7eb8373a1b","system_id":"levelo_inurba_marseille","lat":43.29688,"lon":5.37284,"is_reserved":false,"is_disabled":false,"rental_uris":{"android":"levelo://app?vid=60ce03bb-3ef3-426b-96cb-be7eb8373a1b","ios":"levelo://app?vid=60ce03bb-3ef3-426b-96cb-be7eb8373a1b"},"vehicle_type_id":"4","last_reported":1752664183,"current_range_meters":8000,"station_id":"ce4bgk12rcd13ifvqbj0","pricing_plan_id":"cebpf4jnsgd1na2vs0mg"},{"bike_id":"45dd7a3f-bb5c-42a7-b86e-d49c17c5e1ab","system_id":"levelo_inurba_marseille","lat":43.32366,"lon":5.38902,"is_reserved":false,"is_disabled":false,"rental_uris":{"android":"levelo://app?vid=45dd7a3f-bb5c-42a7-b86e-d49c17c5e1ab","ios":"levelo://app?vid=45dd7a3f-bb5c-42a7-b86e-d49c17c5e1ab"},"vehicle_type_id":"4","last_reported":1752664183,"current_range_meters":8000,"station_id":"ce4bhqp2rcd13ifvqhog","pricing_plan_id":"cebpf4jnsgd1na2vs0mg"},{"bike_id":"5aa1d555-a8b5-48de-9366-2a4446d71308","system_id":"levelo_inurba_marseille","lat":43.31179,"lon":5.36773,"is_reserved":false,"is_disabled":false,"rental_uris":{"android":"levelo://app?vid=5aa1d555-a8b5-48de-9366-2a4446d71308","ios":"levelo://app?vid=5aa1d555-a8b5-48de-9366-2a4446d71308"},"vehicle_type_id":"4","last_reported":1752664183,"current_range_meters":8400,"station_id":"","pricing_plan_id":"cebpf4jnsgd1na2vs0mg"},{"bike_id":"3ec5ab5b-7745-494c-b1c1-98f3e89bc925","system_id":"levelo_inurba_marseille","lat":43.2897,"lon":5.37835,"is_reserved":false,"is_disabled":false,"rental_uris":{"android":"levelo://app?vid=3ec5ab5b-7745-494c-b1c1-98f3e89bc925","ios":"levelo://app?vid=3ec5ab5b-7745-494c-b1c1-98f3e89bc925"},"vehicle_type_id":"4","last_reported":1752664183,"current_range_meters":8400,"station_id":"ce4bh9p2rcd13ifvqed0","pricing_plan_id":"cebpf4jnsgd1na2vs0mg"},{"bike_id":"85b0b674-68d9-406e-ada9-bd4f3aa9c3b1","system_id":"levelo_inurba_marseille","lat":43.21752,"lon":5.34605,"is_reserved":false,"is_disabled":false,"rental_uris":{"android":"levelo://app?vid=85b0b674-68d9-406e-ada9-bd4f3aa9c3b1","ios":"levelo://app?vid=85b0b674-68d9-406e-ada9-bd4f3aa9c3b1"},"vehicle_type_id":"4","last_reported":1752664183,"current_range_meters":8400,"station_id":"st_cvj6r9ubvosntc0bgbag","pricing_plan_id":"cebpf4jnsgd1na2vs0mg"},{"bike_id":"5df2d5f3-b404-433f-af34-7d8db65b99bc","system_id":"levelo_inurba_marseille","lat":43.323319,"lon":5.406203,"is_reserved":false,"is_disabled":false,"rental_uris":{"android":"levelo://app?vid=5df2d5f3-b404-433f-af34-7d8db65b99bc","ios":"levelo://app?vid=5df2d5f3-b404-433f-af34-7d8db65b99bc"},"vehicle_type_id":"4","last_reported":1752664183,"current_range_meters":8400,"station_id":"ce4bhq92rcd13ifvqhjg","pricing_plan_id":"cebpf4jnsgd1na2vs0mg"},{"bike_id":"d06041a0-3617-4540-978c-8cb156ceb548","system_id":"levelo_inurba_marseille","lat":43.32149,"lon":5.36832,"is_reserved":false,"is_disabled":false,"rental_uris":{"android":"levelo://app?vid=d06041a0-3617-4540-978c-8cb156ceb548","ios":"levelo://app?vid=d06041a0-3617-4540-978c-8cb156ceb548"},"vehicle_type_id":"4","last_reported":1752664183,"current_range_meters":8800,"station_id":"","pricing_plan_id":"cebpf4jnsgd1na2vs0mg"},{"bike_id":"5ad1e302-58c4-4510-b636-c9d119a7f55a","system_id":"levelo_inurba_marseille","lat":43.30361,"lon":5.41881,"is_reserved":false,"is_disabled":false,"rental_uris":{"android":"levelo://app?vid=5ad1e302-58c4-4510-b636-c9d119a7f55a","ios":"levelo://app?vid=5ad1e302-58c4-4510-b636-c9d119a7f55a"},"vehicle_type_id":"4","last_reported":1752664183,"current_range_meters":8800,"station_id":"ce4bhop2rcd13ifvqh7g","pricing_plan_id":"cebpf4jnsgd1na2vs0mg"},{"bike_id":"1fc7ba43-795e-4d4d-b4b4-3da29eb47bcf","system_id":"levelo_inurba_marseille","lat":43.27548,"lon":5.38455,"is_reserved":false,"is_disabled":true,"rental_uris":{"android":"levelo://app?vid=1fc7ba43-795e-4d4d-b4b4-3da29eb47bcf","ios":"levelo://app?vid=1fc7ba43-795e-4d4d-b4b4-3da29eb47bcf"},"vehicle_type_id":"4","last_reported":1752664183,"current_range_meters":8800,"station_id":"ce4bhh92rcd13ifvqfi0","pricing_plan_id":"cebpf4jnsgd1na2vs0mg"},{"bike_id":"e5ec4b25-dbcc-42eb-bf86-2cca309a0b15","system_id":"levelo_inurba_marseille","lat":43.264945,"lon":5.395365,"is_reserved":false,"is_disabled":true,"rental_uris":{"android":"levelo://app?vid=e5ec4b25-dbcc-42eb-bf86-2cca309a0b15","ios":"levelo://app?vid=e5ec4b25-dbcc-42eb-bf86-2cca309a0b15"},"vehicle_type_id":"4","last_reported":1752664183,"current_range_meters":8800,"station_id":"","pricing_plan_id":"cebpf4jnsgd1na2vs0mg"},{"bike_id":"1539c758-810f-4960-bef2-61c980c07063","system_id":"levelo_inurba_marseille","lat":43.28618,"lon":5.35103,"is_reserved":false,"is_disabled":false,"rental_uris":{"android":"levelo://app?vid=1539c758-810f-4960-bef2-61c980c07063","ios":"levelo://app?vid=1539c758-810f-4960-bef2-61c980c07063"},"vehicle_type_id":"4","last_reported":1752664183,"current_range_meters":8800,"station_id":"ce4bhch2rcd13ifvqeug","pricing_plan_id":"cebpf4jnsgd1na2vs0mg"},{"bike_id":"e8e9399f-b2a2-42d6-a34c-45f6115ee7e0","system_id":"levelo_inurba_marseille","lat":43.270576,"lon":5.402581,"is_reserved":false,"is_disabled":false,"rental_uris":{"android":"levelo://app?vid=e8e9399f-b2a2-42d6-a34c-45f6115ee7e0","ios":"levelo://app?vid=e8e9399f-b2a2-42d6-a34c-45f6115ee7e0"},"vehicle_type_id":"4","last_reported":1752664183,"current_range_meters":8800,"station_id":"ce4bhk92rcd13ifvqgc0","pricing_plan_id":"cebpf4jnsgd1na2vs0mg"},{"bike_id":"0633e79f-fa6d-4969-8bfd-7e0bb2c5a7dd","system_id":"levelo_inurba_marseille","lat":43.25107,"lon":5.40337,"is_reserved":false,"is_disabled":false,"rental_uris":{"android":"levelo://app?vid=0633e79f-fa6d-4969-8bfd-7e0bb2c5a7dd","ios":"levelo://app?vid=0633e79f-fa6d-4969-8bfd-7e0bb2c5a7dd"},"vehicle_type_id":"4","last_reported":1752664183,"current_range_meters":9200,"station_id":"ce4bhlh2rcd13ifvqgig","pricing_plan_id":"cebpf4jnsgd1na2vs0mg"},{"bike_id":"4b6f554b-3f03-4b8d-9377-52b0d17097b1","system_id":"levelo_inurba_marseille","lat":43.27023,"lon":5.40272,"is_reserved":false,"is_disabled":false,"rental_uris":{"android":"levelo://app?vid=4b6f554b-3f03-4b8d-9377-52b0d17097b1","ios":"levelo://app?vid=4b6f554b-3f03-4b8d-9377-52b0d17097b1"},"vehicle_type_id":"4","last_reported":1752664183,"current_range_meters":9200,"station_id":"ce4bhk92rcd13ifvqgc0","pricing_plan_id":"cebpf4jnsgd1na2vs0mg"},{"bike_id":"a7a5c9eb-32ca-41c3-8be8-e76e91ce7342","system_id":"levelo_inurba_marseille","lat":43.290524,"lon":5.359031,"is_reserved":false,"is_disabled":false,"rental_uris":{"android":"levelo://app?vid=a7a5c9eb-32ca-41c3-8be8-e76e91ce7342","ios":"levelo://app?vid=a7a5c9eb-32ca-41c3-8be8-e76e91ce7342"},"vehicle_type_id":"4","last_reported":1752664183,"current_range_meters":9200,"station_id":"ce4bha92rcd13ifvqeg0","pricing_plan_id":"cebpf4jnsgd1na2vs0mg"},{"bike_id":"23172215-d7ef-4192-8a12-56eb8fd149c8","system_id":"levelo_inurba_marseille","lat":43.286106,"lon":5.351045,"is_reserved":false,"is_disabled":false,"rental_uris":{"android":"levelo://app?vid=23172215-d7ef-4192-8a12-56eb8fd149c8","ios":"levelo://app?vid=23172215-d7ef-4192-8a12-56eb8fd149c8"},"vehicle_type_id":"4","last_reported":1752664183,"current_range_meters":9200,"station_id":"ce4bhch2rcd13ifvqeug","pricing_plan_id":"cebpf4jnsgd1na2vs0mg"},{"bike_id":"080b0f22-14dd-4044-a18f-ee7f74366cea","system_id":"levelo_inurba_marseille","lat":43.31994,"lon":5.38151,"is_reserved":false,"is_disabled":true,"rental_uris":{"android":"levelo://app?vid=080b0f22-14dd-4044-a18f-ee7f74366cea","ios":"levelo://app?vid=080b0f22-14dd-4044-a18f-ee7f74366cea"},"vehicle_type_id":"4","last_reported":1752664183,"current_range_meters":9200,"station_id":"ce4bhr12rcd13ifvqhpg","pricing_plan_id":"cebpf4jnsgd1na2vs0mg"},{"bike_id":"4409158c-0e42-4505-b036-6f038dda32f6","system_id":"levelo_inurba_marseille","lat":43.3055,"lon":5.3654,"is_reserved":false,"is_disabled":false,"rental_uris":{"android":"levelo://app?vid=4409158c-0e42-4505-b036-6f038dda32f6","ios":"levelo://app?vid=4409158c-0e42-4505-b036-6f038dda32f6"},"vehicle_type_id":"4","last_reported":1752664183,"current_range_meters":9600,"station_id":"ce4bgs12rcd13ifvqcag","pricing_plan_id":"cebpf4jnsgd1na2vs0mg"},{"bike_id":"38193aff-d8cf-464e-98b9-b38895efd882","system_id":"levelo_inurba_marseille","lat":43.21755,"lon":5.34606,"is_reserved":false,"is_disabled":false,"rental_uris":{"android":"levelo://app?vid=38193aff-d8cf-464e-98b9-b38895efd882","ios":"levelo://app?vid=38193aff-d8cf-464e-98b9-b38895efd882"},"vehicle_type_id":"4","last_reported":1752664183,"current_range_meters":9600,"station_id":"","pricing_plan_id":"cebpf4jnsgd1na2vs0mg"},{"bike_id":"51396765-9ad0-4d1d-a813-68fff86b2907","system_id":"levelo_inurba_marseille","lat":43.30453,"lon":5.36717,"is_reserved":false,"is_disabled":false,"rental_uris":{"android":"levelo://app?vid=51396765-9ad0-4d1d-a813-68fff86b2907","ios":"levelo://app?vid=51396765-9ad0-4d1d-a813-68fff86b2907"},"vehicle_type_id":"4","last_reported":1752664183,"current_range_meters":9600,"station_id":"","pricing_plan_id":"cebpf4jnsgd1na2vs0mg"},{"bike_id":"b40d633f-b0a0-490e-8672-163c52fc4167","system_id":"levelo_inurba_marseille","lat":43.262083,"lon":5.374408,"is_reserved":false,"is_disabled":false,"rental_uris":{"android":"levelo://app?vid=b40d633f-b0a0-490e-8672-163c52fc4167","ios":"levelo://app?vid=b40d633f-b0a0-490e-8672-163c52fc4167"},"vehicle_type_id":"4","last_reported":1752664183,"current_range_meters":9600,"station_id":"ce4bhgp2rcd13ifvqfc0","pricing_plan_id":"cebpf4jnsgd1na2vs0mg"},{"bike_id":"63b1c08a-7537-48df-9bcc-e9f60b4dc727","system_id":"levelo_inurba_marseille","lat":43.25014,"lon":5.38949,"is_reserved":false,"is_disabled":false,"rental_uris":{"android":"levelo://app?vid=63b1c08a-7537-48df-9bcc-e9f60b4dc727","ios":"levelo://app?vid=63b1c08a-7537-48df-9bcc-e9f60b4dc727"},"vehicle_type_id":"4","last_reported":1752664183,"current_range_meters":9600,"station_id":"ce4bhgp2rcd13ifvqfd0","pricing_plan_id":"cebpf4jnsgd1na2vs0mg"},{"bike_id":"aa0f7bbc-d0bf-45d3-a8f4-2ba41837547a","system_id":"levelo_inurba_marseille","lat":43.225007,"lon":5.34784,"is_reserved":false,"is_disabled":false,"rental_uris":{"android":"levelo://app?vid=aa0f7bbc-d0bf-45d3-a8f4-2ba41837547a","ios":"levelo://app?vid=aa0f7bbc-d0bf-45d3-a8f4-2ba41837547a"},"vehicle_type_id":"4","last_reported":1752664183,"current_range_meters":10000,"station_id":"st_cvj5dfep6f1abm77gieg","pricing_plan_id":"cebpf4jnsgd1na2vs0mg"},{"bike_id":"89bf8736-0e4c-436e-8b7f-a90286b4886b","system_id":"levelo_inurba_marseille","lat":43.33143,"lon":5.38136,"is_reserved":false,"is_disabled":false,"rental_uris":{"android":"levelo://app?vid=89bf8736-0e4c-436e-8b7f-a90286b4886b","ios":"levelo://app?vid=89bf8736-0e4c-436e-8b7f-a90286b4886b"},"vehicle_type_id":"4","last_reported":1752664183,"current_range_meters":10000,"station_id":"","pricing_plan_id":"cebpf4jnsgd1na2vs0mg"},{"bike_id":"ebfbf557-fa7c-443f-93b7-71a856f308cb","system_id":"levelo_inurba_marseille","lat":43.297291,"lon":5.376841,"is_reserved":false,"is_disabled":false,"rental_uris":{"android":"levelo://app?vid=ebfbf557-fa7c-443f-93b7-71a856f308cb","ios":"levelo://app?vid=ebfbf557-fa7c-443f-93b7-71a856f308cb"},"vehicle_type_id":"4","last_reported":1752664183,"current_range_meters":10000,"station_id":"ce4bgkh2rcd13ifvqbl0","pricing_plan_id":"cebpf4jnsgd1na2vs0mg"},{"bike_id":"00ae60de-25a5-44c7-a9cf-200657364c83","system_id":"levelo_inurba_marseille","lat":43.30133,"lon":5.38082,"is_reserved":false,"is_disabled":false,"rental_uris":{"android":"levelo://app?vid=00ae60de-25a5-44c7-a9cf-200657364c83","ios":"levelo://app?vid=00ae60de-25a5-44c7-a9cf-200657364c83"},"vehicle_type_id":"4","last_reported":1752664183,"current_range_meters":10000,"station_id":"ce4bgjp2rcd13ifvqbh0","pricing_plan_id":"cebpf4jnsgd1na2vs0mg"},{"bike_id":"69a89f44-1b34-4fd0-a0e6-00294a8713e8","system_id":"levelo_inurba_marseille","lat":43.31369,"lon":5.36704,"is_reserved":false,"is_disabled":false,"rental_uris":{"android":"levelo://app?vid=69a89f44-1b34-4fd0-a0e6-00294a8713e8","ios":"levelo://app?vid=69a89f44-1b34-4fd0-a0e6-00294a8713e8"},"vehicle_type_id":"4","last_reported":1752664183,"current_range_meters":10000,"station_id":"ce4bgr92rcd13ifvqc6g","pricing_plan_id":"cebpf4jnsgd1na2vs0mg"},{"bike_id":"c7dae4b3-3c48-4c1f-b2bd-2b587be62e22","system_id":"levelo_inurba_marseille","lat":43.29301,"lon":5.37438,"is_reserved":false,"is_disabled":false,"rental_uris":{"android":"levelo://app?vid=c7dae4b3-3c48-4c1f-b2bd-2b587be62e22","ios":"levelo://app?vid=c7dae4b3-3c48-4c1f-b2bd-2b587be62e22"},"vehicle_type_id":"4","last_reported":1752664183,"current_range_meters":10000,"station_id":"ce4bgi12rcd13ifvqb70","pricing_plan_id":"cebpf4jnsgd1na2vs0mg"},{"bike_id":"6098123f-8b2a-415f-9d3c-f64ba195aa65","system_id":"levelo_inurba_marseille","lat":43.31717,"lon":5.37813,"is_reserved":false,"is_disabled":false,"rental_uris":{"android":"levelo://app?vid=6098123f-8b2a-415f-9d3c-f64ba195aa65","ios":"levelo://app?vid=6098123f-8b2a-415f-9d3c-f64ba195aa65"},"vehicle_type_id":"4","last_reported":1752664183,"current_range_meters":10000,"station_id":"","pricing_plan_id":"cebpf4jnsgd1na2vs0mg"},{"bike_id":"d98ef30e-38a0-41ef-a00a-304afa979a1e","system_id":"levelo_inurba_marseille","lat":43.29905,"lon":5.43653,"is_reserved":false,"is_disabled":true,"rental_uris":{"android":"levelo://app?vid=d98ef30e-38a0-41ef-a00a-304afa979a1e","ios":"levelo://app?vid=d98ef30e-38a0-41ef-a00a-304afa979a1e"},"vehicle_type_id":"4","last_reported":1752664183,"current_range_meters":10800,"station_id":"ce4bhpp2rcd13ifvqhfg","pricing_plan_id":"cebpf4jnsgd1na2vs0mg"},{"bike_id":"142431e9-83ac-4da7-85a4-053a10f3c74f","system_id":"levelo_inurba_marseille","lat":43.26948,"lon":5.40262,"is_reserved":false,"is_disabled":false,"rental_uris":{"android":"levelo://app?vid=142431e9-83ac-4da7-85a4-053a10f3c74f","ios":"levelo://app?vid=142431e9-83ac-4da7-85a4-053a10f3c74f"},"vehicle_type_id":"4","last_reported":1752664183,"current_range_meters":10800,"station_id":"cjm6bp8fraef2m0cb0m0","pricing_plan_id":"cebpf4jnsgd1na2vs0mg"},{"bike_id":"c976a6cc-f8e3-4593-b522-f233edc3013e","system_id":"levelo_inurba_marseille","lat":43.29259,"lon":5.37629,"is_reserved":false,"is_disabled":false,"rental_uris":{"android":"levelo://app?vid=c976a6cc-f8e3-4593-b522-f233edc3013e","ios":"levelo://app?vid=c976a6cc-f8e3-4593-b522-f233edc3013e"},"vehicle_type_id":"4","last_reported":1752664183,"current_range_meters":10800,"station_id":"ce4bgi12rcd13ifvqb80","pricing_plan_id":"cebpf4jnsgd1na2vs0mg"},{"bike_id":"adfe475e-4fad-42ce-985f-b88b312e5e64","system_id":"levelo_inurba_marseille","lat":43.29472,"lon":5.37543,"is_reserved":false,"is_disabled":false,"rental_uris":{"android":"levelo://app?vid=adfe475e-4fad-42ce-985f-b88b312e5e64","ios":"levelo://app?vid=adfe475e-4fad-42ce-985f-b88b312e5e64"},"vehicle_type_id":"4","last_reported":1752664183,"current_range_meters":10800,"station_id":"","pricing_plan_id":"cebpf4jnsgd1na2vs0mg"},{"bike_id":"b5886712-827e-4e42-ae0a-fd111ae9e64f","system_id":"levelo_inurba_marseille","lat":43.30409,"lon":5.41303,"is_reserved":false,"is_disabled":false,"rental_uris":{"android":"levelo://app?vid=b5886712-827e-4e42-ae0a-fd111ae9e64f","ios":"levelo://app?vid=b5886712-827e-4e42-ae0a-fd111ae9e64f"},"vehicle_type_id":"4","last_reported":1752664183,"current_range_meters":10800,"station_id":"ce4bhop2rcd13ifvqh8g","pricing_plan_id":"cebpf4jnsgd1na2vs0mg"},{"bike_id":"74b4390d-0242-429b-b32a-0523a3e24ef3","system_id":"levelo_inurba_marseille","lat":43.25448,"lon":5.37587,"is_reserved":false,"is_disabled":false,"rental_uris":{"android":"levelo://app?vid=74b4390d-0242-429b-b32a-0523a3e24ef3","ios":"levelo://app?vid=74b4390d-0242-429b-b32a-0523a3e24ef3"},"vehicle_type_id":"4","last_reported":1752664183,"current_range_meters":11200,"station_id":"","pricing_plan_id":"cebpf4jnsgd1na2vs0mg"},{"bike_id":"bc27a26e-b398-431b-881e-997fea45a2ad","system_id":"levelo_inurba_marseille","lat":43.27995,"lon":5.40012,"is_reserved":false,"is_disabled":false,"rental_uris":{"android":"levelo://app?vid=bc27a26e-b398-431b-881e-997fea45a2ad","ios":"levelo://app?vid=bc27a26e-b398-431b-881e-997fea45a2ad"},"vehicle_type_id":"4","last_reported":1752664183,"current_range_meters":11200,"station_id":"ce4bho92rcd13ifvqh4g","pricing_plan_id":"cebpf4jnsgd1na2vs0mg"},{"bike_id":"931ec3ed-9544-4921-9587-3d38f4f1f105","system_id":"levelo_inurba_marseille","lat":43.241786,"lon":5.397214,"is_reserved":false,"is_disabled":false,"rental_uris":{"android":"levelo://app?vid=931ec3ed-9544-4921-9587-3d38f4f1f105","ios":"levelo://app?vid=931ec3ed-9544-4921-9587-3d38f4f1f105"},"vehicle_type_id":"4","last_reported":1752664183,"current_range_meters":10800,"station_id":"","pricing_plan_id":"cebpf4jnsgd1na2vs0mg"},{"bike_id":"921b80ab-357a-438c-bd39-cb05b258d5e1","system_id":"levelo_inurba_marseille","lat":43.25085,"lon":5.39509,"is_reserved":false,"is_disabled":false,"rental_uris":{"android":"levelo://app?vid=921b80ab-357a-438c-bd39-cb05b258d5e1","ios":"levelo://app?vid=921b80ab-357a-438c-bd39-cb05b258d5e1"},"vehicle_type_id":"4","last_reported":1752664183,"current_range_meters":11200,"station_id":"ce4bhm12rcd13ifvqgkg","pricing_plan_id":"cebpf4jnsgd1na2vs0mg"},{"bike_id":"b733d901-5f75-4493-9960-b987b87cd8f7","system_id":"levelo_inurba_marseille","lat":43.22544,"lon":5.34833,"is_reserved":false,"is_disabled":false,"rental_uris":{"android":"levelo://app?vid=b733d901-5f75-4493-9960-b987b87cd8f7","ios":"levelo://app?vid=b733d901-5f75-4493-9960-b987b87cd8f7"},"vehicle_type_id":"4","last_reported":1752664183,"current_range_meters":11600,"station_id":"","pricing_plan_id":"cebpf4jnsgd1na2vs0mg"},{"bike_id":"44372a0e-a0c0-4956-acdb-89445f898101","system_id":"levelo_inurba_marseille","lat":43.293127,"lon":5.371766,"is_reserved":false,"is_disabled":false,"rental_uris":{"android":"levelo://app?vid=44372a0e-a0c0-4956-acdb-89445f898101","ios":"levelo://app?vid=44372a0e-a0c0-4956-acdb-89445f898101"},"vehicle_type_id":"4","last_reported":1752664183,"current_range_meters":11600,"station_id":"","pricing_plan_id":"cebpf4jnsgd1na2vs0mg"},{"bike_id":"a6d698b7-5121-4989-867f-fe72d33072b2","system_id":"levelo_inurba_marseille","lat":43.283649,"lon":5.38642,"is_reserved":false,"is_disabled":true,"rental_uris":{"android":"levelo://app?vid=a6d698b7-5121-4989-867f-fe72d33072b2","ios":"levelo://app?vid=a6d698b7-5121-4989-867f-fe72d33072b2"},"vehicle_type_id":"4","last_reported":1752664183,"current_range_meters":11600,"station_id":"ce4bh492rcd13ifvqdvg","pricing_plan_id":"cebpf4jnsgd1na2vs0mg"},{"bike_id":"2dea1e72-5f49-4f71-8334-0b7b1b4fb68f","system_id":"levelo_inurba_marseille","lat":43.30502,"lon":5.36518,"is_reserved":false,"is_disabled":false,"rental_uris":{"android":"levelo://app?vid=2dea1e72-5f49-4f71-8334-0b7b1b4fb68f","ios":"levelo://app?vid=2dea1e72-5f49-4f71-8334-0b7b1b4fb68f"},"vehicle_type_id":"4","last_reported":1752664183,"current_range_meters":11600,"station_id":"","pricing_plan_id":"cebpf4jnsgd1na2vs0mg"},{"bike_id":"ddb7a16f-5430-4fc5-90fa-a23ac02c91c5","system_id":"levelo_inurba_marseille","lat":43.29259,"lon":5.40909,"is_reserved":false,"is_disabled":false,"rental_uris":{"android":"levelo://app?vid=ddb7a16f-5430-4fc5-90fa-a23ac02c91c5","ios":"levelo://app?vid=ddb7a16f-5430-4fc5-90fa-a23ac02c91c5"},"vehicle_type_id":"4","last_reported":1752664183,"current_range_meters":11600,"station_id":"ce4bh192rcd13ifvqdc0","pricing_plan_id":"cebpf4jnsgd1na2vs0mg"},{"bike_id":"a7da5fc4-0736-45f2-9680-328e3329506d","system_id":"levelo_inurba_marseille","lat":43.29213,"lon":5.39328,"is_reserved":false,"is_disabled":false,"rental_uris":{"android":"levelo://app?vid=a7da5fc4-0736-45f2-9680-328e3329506d","ios":"levelo://app?vid=a7da5fc4-0736-45f2-9680-328e3329506d"},"vehicle_type_id":"4","last_reported":1752664183,"current_range_meters":12000,"station_id":"ce4bh192rcd13ifvqdd0","pricing_plan_id":"cebpf4jnsgd1na2vs0mg"},{"bike_id":"11953d4b-0909-479a-86c6-84ac4f5effe5","system_id":"levelo_inurba_marseille","lat":43.24386,"lon":5.37061,"is_reserved":false,"is_disabled":false,"rental_uris":{"android":"levelo://app?vid=11953d4b-0909-479a-86c6-84ac4f5effe5","ios":"levelo://app?vid=11953d4b-0909-479a-86c6-84ac4f5effe5"},"vehicle_type_id":"4","last_reported":1752664183,"current_range_meters":12000,"station_id":"ce4bhhh2rcd13ifvqfk0","pricing_plan_id":"cebpf4jnsgd1na2vs0mg"},{"bike_id":"f82ea022-17aa-4cf3-be55-20026fbc5038","system_id":"levelo_inurba_marseille","lat":43.3091,"lon":5.37192,"is_reserved":false,"is_disabled":false,"rental_uris":{"android":"levelo://app?vid=f82ea022-17aa-4cf3-be55-20026fbc5038","ios":"levelo://app?vid=f82ea022-17aa-4cf3-be55-20026fbc5038"},"vehicle_type_id":"4","last_reported":1752664183,"current_range_meters":12000,"station_id":"ce4bguh2rcd13ifvqckg","pricing_plan_id":"cebpf4jnsgd1na2vs0mg"},{"bike_id":"96f5985a-6cc8-4150-85c1-2a75704dba91","system_id":"levelo_inurba_marseille","lat":43.288513,"lon":5.358444,"is_reserved":false,"is_disabled":true,"rental_uris":{"android":"levelo://app?vid=96f5985a-6cc8-4150-85c1-2a75704dba91","ios":"levelo://app?vid=96f5985a-6cc8-4150-85c1-2a75704dba91"},"vehicle_type_id":"4","last_reported":1752664183,"current_range_meters":12000,"station_id":"ce4bhb12rcd13ifvqem0","pricing_plan_id":"cebpf4jnsgd1na2vs0mg"},{"bike_id":"34c0f44b-dfce-4bed-9f05-e91cc55114f1","system_id":"levelo_inurba_marseille","lat":43.29716,"lon":5.37704,"is_reserved":false,"is_disabled":false,"rental_uris":{"android":"levelo://app?vid=34c0f44b-dfce-4bed-9f05-e91cc55114f1","ios":"levelo://app?vid=34c0f44b-dfce-4bed-9f05-e91cc55114f1"},"vehicle_type_id":"4","last_reported":1752664183,"current_range_meters":12000,"station_id":"ce4bgkh2rcd13ifvqbl0","pricing_plan_id":"cebpf4jnsgd1na2vs0mg"},{"bike_id":"18e63307-2e2f-4b10-807e-7a8ed91df0e5","system_id":"levelo_inurba_marseille","lat":43.30572,"lon":5.36595,"is_reserved":false,"is_disabled":false,"rental_uris":{"android":"levelo://app?vid=18e63307-2e2f-4b10-807e-7a8ed91df0e5","ios":"levelo://app?vid=18e63307-2e2f-4b10-807e-7a8ed91df0e5"},"vehicle_type_id":"4","last_reported":1752664183,"current_range_meters":12400,"station_id":"ce4bgs12rcd13ifvqcag","pricing_plan_id":"cebpf4jnsgd1na2vs0mg"},{"bike_id":"9b165ea2-993e-4f54-99c8-b92f17a1f12b","system_id":"levelo_inurba_marseille","lat":43.24182,"lon":5.39733,"is_reserved":false,"is_disabled":false,"rental_uris":{"android":"levelo://app?vid=9b165ea2-993e-4f54-99c8-b92f17a1f12b","ios":"levelo://app?vid=9b165ea2-993e-4f54-99c8-b92f17a1f12b"},"vehicle_type_id":"4","last_reported":1752664183,"current_range_meters":12400,"station_id":"ce4bhn12rcd13ifvqgpg","pricing_plan_id":"cebpf4jnsgd1na2vs0mg"},{"bike_id":"a9889455-0beb-47b4-a61c-9eba8dc7cf31","system_id":"levelo_inurba_marseille","lat":43.27374,"lon":5.36257,"is_reserved":false,"is_disabled":false,"rental_uris":{"android":"levelo://app?vid=a9889455-0beb-47b4-a61c-9eba8dc7cf31","ios":"levelo://app?vid=a9889455-0beb-47b4-a61c-9eba8dc7cf31"},"vehicle_type_id":"4","last_reported":1752664183,"current_range_meters":12800,"station_id":"ce4bhbh2rcd13ifvqeo0","pricing_plan_id":"cebpf4jnsgd1na2vs0mg"},{"bike_id":"f6188d5e-f2af-446d-9606-b3e6b5798aaa","system_id":"levelo_inurba_marseille","lat":43.29913,"lon":5.38148,"is_reserved":false,"is_disabled":false,"rental_uris":{"android":"levelo://app?vid=f6188d5e-f2af-446d-9606-b3e6b5798aaa","ios":"levelo://app?vid=f6188d5e-f2af-446d-9606-b3e6b5798aaa"},"vehicle_type_id":"4","last_reported":1752664183,"current_range_meters":12800,"station_id":"ce4bgj12rcd13ifvqbc0","pricing_plan_id":"cebpf4jnsgd1na2vs0mg"},{"bike_id":"54b283c6-c314-444c-b492-3e78ed7f2d30","system_id":"levelo_inurba_marseille","lat":43.32928,"lon":5.39054,"is_reserved":false,"is_disabled":false,"rental_uris":{"android":"levelo://app?vid=54b283c6-c314-444c-b492-3e78ed7f2d30","ios":"levelo://app?vid=54b283c6-c314-444c-b492-3e78ed7f2d30"},"vehicle_type_id":"4","last_reported":1752664183,"current_range_meters":12800,"station_id":"","pricing_plan_id":"cebpf4jnsgd1na2vs0mg"},{"bike_id":"39662579-0de3-4e5e-897e-528f1ba04045","system_id":"levelo_inurba_marseille","lat":43.30413,"lon":5.41301,"is_reserved":false,"is_disabled":false,"rental_uris":{"android":"levelo://app?vid=39662579-0de3-4e5e-897e-528f1ba04045","ios":"levelo://app?vid=39662579-0de3-4e5e-897e-528f1ba04045"},"vehicle_type_id":"4","last_reported":1752664183,"current_range_meters":12800,"station_id":"ce4bhop2rcd13ifvqh8g","pricing_plan_id":"cebpf4jnsgd1na2vs0mg"},{"bike_id":"ebe1fc5d-f6d3-4a30-8023-de30c69f8932","system_id":"levelo_inurba_marseille","lat":43.24392,"lon":5.37066,"is_reserved":false,"is_disabled":false,"rental_uris":{"android":"levelo://app?vid=ebe1fc5d-f6d3-4a30-8023-de30c69f8932","ios":"levelo://app?vid=ebe1fc5d-f6d3-4a30-8023-de30c69f8932"},"vehicle_type_id":"4","last_reported":1752664183,"current_range_meters":12800,"station_id":"ce4bhhh2rcd13ifvqfk0","pricing_plan_id":"cebpf4jnsgd1na2vs0mg"},{"bike_id":"0f47a07f-39c5-4fea-a0ee-56d71688ebb3","system_id":"levelo_inurba_marseille","lat":43.24231,"lon":5.36951,"is_reserved":false,"is_disabled":false,"rental_uris":{"android":"levelo://app?vid=0f47a07f-39c5-4fea-a0ee-56d71688ebb3","ios":"levelo://app?vid=0f47a07f-39c5-4fea-a0ee-56d71688ebb3"},"vehicle_type_id":"4","last_reported":1752664183,"current_range_meters":13600,"station_id":"","pricing_plan_id":"cebpf4jnsgd1na2vs0mg"},{"bike_id":"91f3fff4-5c51-4587-a326-90435e9dc3b2","system_id":"levelo_inurba_marseille","lat":43.2962,"lon":5.37164,"is_reserved":false,"is_disabled":false,"rental_uris":{"android":"levelo://app?vid=91f3fff4-5c51-4587-a326-90435e9dc3b2","ios":"levelo://app?vid=91f3fff4-5c51-4587-a326-90435e9dc3b2"},"vehicle_type_id":"4","last_reported":1752664183,"current_range_meters":13600,"station_id":"ce4bgnh2rcd13ifvqc0g","pricing_plan_id":"cebpf4jnsgd1na2vs0mg"},{"bike_id":"fed5c2b5-4d52-4fbc-aa92-200d7583efe2","system_id":"levelo_inurba_marseille","lat":43.278286,"lon":5.407186,"is_reserved":false,"is_disabled":false,"rental_uris":{"android":"levelo://app?vid=fed5c2b5-4d52-4fbc-aa92-200d7583efe2","ios":"levelo://app?vid=fed5c2b5-4d52-4fbc-aa92-200d7583efe2"},"vehicle_type_id":"4","last_reported":1752664183,"current_range_meters":13600,"station_id":"ce4bhnh2rcd13ifvqgtg","pricing_plan_id":"cebpf4jnsgd1na2vs0mg"},{"bike_id":"794b998d-7e45-4d53-b270-ae51136a9420","system_id":"levelo_inurba_marseille","lat":43.31605,"lon":5.38182,"is_reserved":false,"is_disabled":false,"rental_uris":{"android":"levelo://app?vid=794b998d-7e45-4d53-b270-ae51136a9420","ios":"levelo://app?vid=794b998d-7e45-4d53-b270-ae51136a9420"},"vehicle_type_id":"4","last_reported":1752664183,"current_range_meters":13600,"station_id":"","pricing_plan_id":"cebpf4jnsgd1na2vs0mg"},{"bike_id":"41db6cda-06d3-465b-9f11-bf666ae0f6f1","system_id":"levelo_inurba_marseille","lat":43.30793,"lon":5.37637,"is_reserved":false,"is_disabled":false,"rental_uris":{"android":"levelo://app?vid=41db6cda-06d3-465b-9f11-bf666ae0f6f1","ios":"levelo://app?vid=41db6cda-06d3-465b-9f11-bf666ae0f6f1"},"vehicle_type_id":"4","last_reported":1752664183,"current_range_meters":12800,"station_id":"ce4bgv92rcd13ifvqcq0","pricing_plan_id":"cebpf4jnsgd1na2vs0mg"},{"bike_id":"0d14f441-7cc4-44b1-abf4-bbb5d100780b","system_id":"levelo_inurba_marseille","lat":43.32118,"lon":5.36794,"is_reserved":false,"is_disabled":false,"rental_uris":{"android":"levelo://app?vid=0d14f441-7cc4-44b1-abf4-bbb5d100780b","ios":"levelo://app?vid=0d14f441-7cc4-44b1-abf4-bbb5d100780b"},"vehicle_type_id":"4","last_reported":1752664183,"current_range_meters":14000,"station_id":"ce4bhrh2rcd13ifvqhug","pricing_plan_id":"cebpf4jnsgd1na2vs0mg"},{"bike_id":"f53ab926-2de1-4f3c-a7d9-6743ca1bfb1f","system_id":"levelo_inurba_marseille","lat":43.211859,"lon":5.350722,"is_reserved":false,"is_disabled":false,"rental_uris":{"android":"levelo://app?vid=f53ab926-2de1-4f3c-a7d9-6743ca1bfb1f","ios":"levelo://app?vid=f53ab926-2de1-4f3c-a7d9-6743ca1bfb1f"},"vehicle_type_id":"4","last_reported":1752664183,"current_range_meters":14000,"station_id":"st_cvj6sg6p6f1abm77japg","pricing_plan_id":"cebpf4jnsgd1na2vs0mg"},{"bike_id":"289eddfc-1ec1-428e-90c6-8ba0b9c2b0bf","system_id":"levelo_inurba_marseille","lat":43.28423,"lon":5.34976,"is_reserved":false,"is_disabled":false,"rental_uris":{"android":"levelo://app?vid=289eddfc-1ec1-428e-90c6-8ba0b9c2b0bf","ios":"levelo://app?vid=289eddfc-1ec1-428e-90c6-8ba0b9c2b0bf"},"vehicle_type_id":"4","last_reported":1752664183,"current_range_meters":14000,"station_id":"ce4bhbh2rcd13ifvqepg","pricing_plan_id":"cebpf4jnsgd1na2vs0mg"},{"bike_id":"f7aa9549-e961-4144-87ad-aa3cd3acf4f4","system_id":"levelo_inurba_marseille","lat":43.293059,"lon":5.371822,"is_reserved":false,"is_disabled":false,"rental_uris":{"android":"levelo://app?vid=f7aa9549-e961-4144-87ad-aa3cd3acf4f4","ios":"levelo://app?vid=f7aa9549-e961-4144-87ad-aa3cd3acf4f4"},"vehicle_type_id":"4","last_reported":1752664183,"current_range_meters":14000,"station_id":"ce4bgh92rcd13ifvqb40","pricing_plan_id":"cebpf4jnsgd1na2vs0mg"},{"bike_id":"7477bbe9-9f79-408a-874d-b93512f3fafb","system_id":"levelo_inurba_marseille","lat":43.29259,"lon":5.40913,"is_reserved":false,"is_disabled":false,"rental_uris":{"android":"levelo://app?vid=7477bbe9-9f79-408a-874d-b93512f3fafb","ios":"levelo://app?vid=7477bbe9-9f79-408a-874d-b93512f3fafb"},"vehicle_type_id":"4","last_reported":1752664183,"current_range_meters":14000,"station_id":"ce4bh192rcd13ifvqdc0","pricing_plan_id":"cebpf4jnsgd1na2vs0mg"},{"bike_id":"31163e06-9eb6-4167-9929-cc7d1dbb89d7","system_id":"levelo_inurba_marseille","lat":43.29518,"lon":5.37502,"is_reserved":false,"is_disabled":false,"rental_uris":{"android":"levelo://app?vid=31163e06-9eb6-4167-9929-cc7d1dbb89d7","ios":"levelo://app?vid=31163e06-9eb6-4167-9929-cc7d1dbb89d7"},"vehicle_type_id":"4","last_reported":1752664183,"current_range_meters":14400,"station_id":"ce4bgkp2rcd13ifvqbmg","pricing_plan_id":"cebpf4jnsgd1na2vs0mg"},{"bike_id":"4b4819bc-d02d-416f-917b-f9521294df7e","system_id":"levelo_inurba_marseille","lat":43.30554,"lon":5.36487,"is_reserved":false,"is_disabled":false,"rental_uris":{"android":"levelo://app?vid=4b4819bc-d02d-416f-917b-f9521294df7e","ios":"levelo://app?vid=4b4819bc-d02d-416f-917b-f9521294df7e"},"vehicle_type_id":"4","last_reported":1752664183,"current_range_meters":14800,"station_id":"","pricing_plan_id":"cebpf4jnsgd1na2vs0mg"},{"bike_id":"0a88e90f-79ea-4752-a523-c02b184ee919","system_id":"levelo_inurba_marseille","lat":43.28438,"lon":5.39198,"is_reserved":false,"is_disabled":false,"rental_uris":{"android":"levelo://app?vid=0a88e90f-79ea-4752-a523-c02b184ee919","ios":"levelo://app?vid=0a88e90f-79ea-4752-a523-c02b184ee919"},"vehicle_type_id":"4","last_reported":1752664183,"current_range_meters":14800,"station_id":"ce4bhoh2rcd13ifvqh5g","pricing_plan_id":"cebpf4jnsgd1na2vs0mg"},{"bike_id":"ebb9abe2-4f0f-4695-9a01-8c1fe2e6f5ed","system_id":"levelo_inurba_marseille","lat":43.295232,"lon":5.394075,"is_reserved":false,"is_disabled":false,"rental_uris":{"android":"levelo://app?vid=ebb9abe2-4f0f-4695-9a01-8c1fe2e6f5ed","ios":"levelo://app?vid=ebb9abe2-4f0f-4695-9a01-8c1fe2e6f5ed"},"vehicle_type_id":"4","last_reported":1752664183,"current_range_meters":14800,"station_id":"","pricing_plan_id":"cebpf4jnsgd1na2vs0mg"},{"bike_id":"3cd9fe4a-dded-4545-ae83-c86d6e53e9d1","system_id":"levelo_inurba_marseille","lat":43.2658,"lon":5.39024,"is_reserved":false,"is_disabled":false,"rental_uris":{"android":"levelo://app?vid=3cd9fe4a-dded-4545-ae83-c86d6e53e9d1","ios":"levelo://app?vid=3cd9fe4a-dded-4545-ae83-c86d6e53e9d1"},"vehicle_type_id":"4","last_reported":1752664183,"current_range_meters":14800,"station_id":"ce4bhe12rcd13ifvqf30","pricing_plan_id":"cebpf4jnsgd1na2vs0mg"},{"bike_id":"8179b31c-ce3a-4f1d-9f38-de069ea9ffb5","system_id":"levelo_inurba_marseille","lat":43.32094,"lon":5.36791,"is_reserved":false,"is_disabled":false,"rental_uris":{"android":"levelo://app?vid=8179b31c-ce3a-4f1d-9f38-de069ea9ffb5","ios":"levelo://app?vid=8179b31c-ce3a-4f1d-9f38-de069ea9ffb5"},"vehicle_type_id":"4","last_reported":1752664183,"current_range_meters":15200,"station_id":"ce4bhrh2rcd13ifvqhug","pricing_plan_id":"cebpf4jnsgd1na2vs0mg"},{"bike_id":"229a51b8-d35a-46ef-90d9-099d3d4f556b","system_id":"levelo_inurba_marseille","lat":43.29409,"lon":5.38681,"is_reserved":false,"is_disabled":true,"rental_uris":{"android":"levelo://app?vid=229a51b8-d35a-46ef-90d9-099d3d4f556b","ios":"levelo://app?vid=229a51b8-d35a-46ef-90d9-099d3d4f556b"},"vehicle_type_id":"4","last_reported":1752664183,"current_range_meters":15200,"station_id":"ce4bh2h2rcd13ifvqdh0","pricing_plan_id":"cebpf4jnsgd1na2vs0mg"},{"bike_id":"ef054b9c-9ef5-4456-9dda-87ddc15ef82a","system_id":"levelo_inurba_marseille","lat":43.24994,"lon":5.38936,"is_reserved":false,"is_disabled":false,"rental_uris":{"android":"levelo://app?vid=ef054b9c-9ef5-4456-9dda-87ddc15ef82a","ios":"levelo://app?vid=ef054b9c-9ef5-4456-9dda-87ddc15ef82a"},"vehicle_type_id":"4","last_reported":1752664183,"current_range_meters":15200,"station_id":"ce4bhgp2rcd13ifvqfd0","pricing_plan_id":"cebpf4jnsgd1na2vs0mg"},{"bike_id":"a37d9495-6556-4138-8ff8-e2ca82375175","system_id":"levelo_inurba_marseille","lat":43.2175,"lon":5.34612,"is_reserved":false,"is_disabled":false,"rental_uris":{"android":"levelo://app?vid=a37d9495-6556-4138-8ff8-e2ca82375175","ios":"levelo://app?vid=a37d9495-6556-4138-8ff8-e2ca82375175"},"vehicle_type_id":"4","last_reported":1752664183,"current_range_meters":15200,"station_id":"st_cvj6r9ubvosntc0bgbag","pricing_plan_id":"cebpf4jnsgd1na2vs0mg"},{"bike_id":"cabf9dae-b50a-4de5-b319-24a005a18270","system_id":"levelo_inurba_marseille","lat":43.299687,"lon":5.37175,"is_reserved":false,"is_disabled":false,"rental_uris":{"android":"levelo://app?vid=cabf9dae-b50a-4de5-b319-24a005a18270","ios":"levelo://app?vid=cabf9dae-b50a-4de5-b319-24a005a18270"},"vehicle_type_id":"4","last_reported":1752664183,"current_range_meters":15200,"station_id":"ce4bgr92rcd13ifvqc7g","pricing_plan_id":"cebpf4jnsgd1na2vs0mg"},{"bike_id":"e0b5d196-2f71-49fb-8402-6f9e1c0ab9fb","system_id":"levelo_inurba_marseille","lat":43.27377,"lon":5.36259,"is_reserved":false,"is_disabled":false,"rental_uris":{"android":"levelo://app?vid=e0b5d196-2f71-49fb-8402-6f9e1c0ab9fb","ios":"levelo://app?vid=e0b5d196-2f71-49fb-8402-6f9e1c0ab9fb"},"vehicle_type_id":"4","last_reported":1752664183,"current_range_meters":15200,"station_id":"ce4bhbh2rcd13ifvqeo0","pricing_plan_id":"cebpf4jnsgd1na2vs0mg"},{"bike_id":"0bab8eaa-166d-470a-8ea5-7972bb8994ce","system_id":"levelo_inurba_marseille","lat":43.29256,"lon":5.376254,"is_reserved":false,"is_disabled":false,"rental_uris":{"android":"levelo://app?vid=0bab8eaa-166d-470a-8ea5-7972bb8994ce","ios":"levelo://app?vid=0bab8eaa-166d-470a-8ea5-7972bb8994ce"},"vehicle_type_id":"4","last_reported":1752664183,"current_range_meters":16000,"station_id":"ce4bgi12rcd13ifvqb80","pricing_plan_id":"cebpf4jnsgd1na2vs0mg"},{"bike_id":"e5bec6b1-43e6-46f2-9810-affd93766dd8","system_id":"levelo_inurba_marseille","lat":43.21754,"lon":5.34605,"is_reserved":false,"is_disabled":true,"rental_uris":{"android":"levelo://app?vid=e5bec6b1-43e6-46f2-9810-affd93766dd8","ios":"levelo://app?vid=e5bec6b1-43e6-46f2-9810-affd93766dd8"},"vehicle_type_id":"4","last_reported":1752664183,"current_range_meters":16000,"station_id":"st_cvj6r9ubvosntc0bgbag","pricing_plan_id":"cebpf4jnsgd1na2vs0mg"},{"bike_id":"25d21dd5-50fb-4996-87d8-bbf287af2190","system_id":"levelo_inurba_marseille","lat":43.28733,"lon":5.40068,"is_reserved":false,"is_disabled":true,"rental_uris":{"android":"levelo://app?vid=25d21dd5-50fb-4996-87d8-bbf287af2190","ios":"levelo://app?vid=25d21dd5-50fb-4996-87d8-bbf287af2190"},"vehicle_type_id":"4","last_reported":1752664183,"current_range_meters":16000,"station_id":"ce4bho92rcd13ifvqh3g","pricing_plan_id":"cebpf4jnsgd1na2vs0mg"},{"bike_id":"2b35441d-be12-43e5-8f1c-c4924e3cdace","system_id":"levelo_inurba_marseille","lat":43.24802,"lon":5.37465,"is_reserved":false,"is_disabled":false,"rental_uris":{"android":"levelo://app?vid=2b35441d-be12-43e5-8f1c-c4924e3cdace","ios":"levelo://app?vid=2b35441d-be12-43e5-8f1c-c4924e3cdace"},"vehicle_type_id":"4","last_reported":1752664183,"current_range_meters":16000,"station_id":"ce4bhgh2rcd13ifvqfb0","pricing_plan_id":"cebpf4jnsgd1na2vs0mg"},{"bike_id":"e881459d-618c-4383-80d7-27cd5357787f","system_id":"levelo_inurba_marseille","lat":43.27055,"lon":5.40252,"is_reserved":false,"is_disabled":false,"rental_uris":{"android":"levelo://app?vid=e881459d-618c-4383-80d7-27cd5357787f","ios":"levelo://app?vid=e881459d-618c-4383-80d7-27cd5357787f"},"vehicle_type_id":"4","last_reported":1752664183,"current_range_meters":16000,"station_id":"ce4bhk92rcd13ifvqgc0","pricing_plan_id":"cebpf4jnsgd1na2vs0mg"},{"bike_id":"17ae3d6d-af53-4b87-a434-cc774af48b1a","system_id":"levelo_inurba_marseille","lat":43.29203,"lon":5.39323,"is_reserved":false,"is_disabled":false,"rental_uris":{"android":"levelo://app?vid=17ae3d6d-af53-4b87-a434-cc774af48b1a","ios":"levelo://app?vid=17ae3d6d-af53-4b87-a434-cc774af48b1a"},"vehicle_type_id":"4","last_reported":1752664183,"current_range_meters":16000,"station_id":"ce4bh192rcd13ifvqdd0","pricing_plan_id":"cebpf4jnsgd1na2vs0mg"},{"bike_id":"d64dc9ee-1136-4d15-9424-fc4b1ef2e649","system_id":"levelo_inurba_marseille","lat":43.25555,"lon":5.38259,"is_reserved":false,"is_disabled":false,"rental_uris":{"android":"levelo://app?vid=d64dc9ee-1136-4d15-9424-fc4b1ef2e649","ios":"levelo://app?vid=d64dc9ee-1136-4d15-9424-fc4b1ef2e649"},"vehicle_type_id":"4","last_reported":1752664183,"current_range_meters":16000,"station_id":"ce4bhih2rcd13ifvqfs0","pricing_plan_id":"cebpf4jnsgd1na2vs0mg"},{"bike_id":"bb91fdfd-e2e6-4861-a682-9985a5c5d97b","system_id":"levelo_inurba_marseille","lat":43.23191,"lon":5.39998,"is_reserved":false,"is_disabled":false,"rental_uris":{"android":"levelo://app?vid=bb91fdfd-e2e6-4861-a682-9985a5c5d97b","ios":"levelo://app?vid=bb91fdfd-e2e6-4861-a682-9985a5c5d97b"},"vehicle_type_id":"4","last_reported":1752664183,"current_range_meters":16000,"station_id":"ce4bhn12rcd13ifvqgqg","pricing_plan_id":"cebpf4jnsgd1na2vs0mg"},{"bike_id":"f2b5273e-88ec-4ec3-bf34-9d57642ad4a1","system_id":"levelo_inurba_marseille","lat":43.279977,"lon":5.400045,"is_reserved":false,"is_disabled":false,"rental_uris":{"android":"levelo://app?vid=f2b5273e-88ec-4ec3-bf34-9d57642ad4a1","ios":"levelo://app?vid=f2b5273e-88ec-4ec3-bf34-9d57642ad4a1"},"vehicle_type_id":"4","last_reported":1752664183,"current_range_meters":16400,"station_id":"ce4bho92rcd13ifvqh4g","pricing_plan_id":"cebpf4jnsgd1na2vs0mg"},{"bike_id":"16da2020-2cd1-432b-b989-ba7a9a747842","system_id":"levelo_inurba_marseille","lat":43.22502,"lon":5.34777,"is_reserved":false,"is_disabled":false,"rental_uris":{"android":"levelo://app?vid=16da2020-2cd1-432b-b989-ba7a9a747842","ios":"levelo://app?vid=16da2020-2cd1-432b-b989-ba7a9a747842"},"vehicle_type_id":"4","last_reported":1752664183,"current_range_meters":16400,"station_id":"st_cvj5dfep6f1abm77gieg","pricing_plan_id":"cebpf4jnsgd1na2vs0mg"},{"bike_id":"84536aa9-7a3a-4baf-ad03-b8e16bcbbd9c","system_id":"levelo_inurba_marseille","lat":43.25923,"lon":5.40884,"is_reserved":false,"is_disabled":false,"rental_uris":{"android":"levelo://app?vid=84536aa9-7a3a-4baf-ad03-b8e16bcbbd9c","ios":"levelo://app?vid=84536aa9-7a3a-4baf-ad03-b8e16bcbbd9c"},"vehicle_type_id":"4","last_reported":1752664183,"current_range_meters":16400,"station_id":"ce4bhm92rcd13ifvqglg","pricing_plan_id":"cebpf4jnsgd1na2vs0mg"},{"bike_id":"2034435b-3dc9-442b-8f82-3f3045aaff40","system_id":"levelo_inurba_marseille","lat":43.21746,"lon":5.34606,"is_reserved":false,"is_disabled":false,"rental_uris":{"android":"levelo://app?vid=2034435b-3dc9-442b-8f82-3f3045aaff40","ios":"levelo://app?vid=2034435b-3dc9-442b-8f82-3f3045aaff40"},"vehicle_type_id":"4","last_reported":1752664183,"current_range_meters":16400,"station_id":"st_cvj6r9ubvosntc0bgbag","pricing_plan_id":"cebpf4jnsgd1na2vs0mg"},{"bike_id":"ae8a48e3-8203-43b3-ba32-289f19628d26","system_id":"levelo_inurba_marseille","lat":43.29,"lon":5.35616,"is_reserved":false,"is_disabled":false,"rental_uris":{"android":"levelo://app?vid=ae8a48e3-8203-43b3-ba32-289f19628d26","ios":"levelo://app?vid=ae8a48e3-8203-43b3-ba32-289f19628d26"},"vehicle_type_id":"4","last_reported":1752664183,"current_range_meters":16400,"station_id":"ce4bhb92rcd13ifvqen0","pricing_plan_id":"cebpf4jnsgd1na2vs0mg"},{"bike_id":"4b6b8956-596d-490d-b91c-4b381dc87fcc","system_id":"levelo_inurba_marseille","lat":43.28371,"lon":5.38635,"is_reserved":false,"is_disabled":false,"rental_uris":{"android":"levelo://app?vid=4b6b8956-596d-490d-b91c-4b381dc87fcc","ios":"levelo://app?vid=4b6b8956-596d-490d-b91c-4b381dc87fcc"},"vehicle_type_id":"4","last_reported":1752664183,"current_range_meters":16400,"station_id":"ce4bh492rcd13ifvqdvg","pricing_plan_id":"cebpf4jnsgd1na2vs0mg"},{"bike_id":"a95debef-4b13-4c7a-84e8-3ec6ed75e1f7","system_id":"levelo_inurba_marseille","lat":43.30539,"lon":5.38427,"is_reserved":false,"is_disabled":false,"rental_uris":{"android":"levelo://app?vid=a95debef-4b13-4c7a-84e8-3ec6ed75e1f7","ios":"levelo://app?vid=a95debef-4b13-4c7a-84e8-3ec6ed75e1f7"},"vehicle_type_id":"4","last_reported":1752664183,"current_range_meters":16400,"station_id":"ce4bgg92rcd13ifvqb30","pricing_plan_id":"cebpf4jnsgd1na2vs0mg"},{"bike_id":"7dee92bf-5b07-4927-aa41-9e9493644eeb","system_id":"levelo_inurba_marseille","lat":43.21195,"lon":5.35082,"is_reserved":false,"is_disabled":false,"rental_uris":{"android":"levelo://app?vid=7dee92bf-5b07-4927-aa41-9e9493644eeb","ios":"levelo://app?vid=7dee92bf-5b07-4927-aa41-9e9493644eeb"},"vehicle_type_id":"4","last_reported":1752664183,"current_range_meters":16400,"station_id":"st_cvj6sg6p6f1abm77japg","pricing_plan_id":"cebpf4jnsgd1na2vs0mg"},{"bike_id":"eb86ccdf-eb08-4d83-8bb4-db7d3853281b","system_id":"levelo_inurba_marseille","lat":43.336123,"lon":5.410229,"is_reserved":false,"is_disabled":false,"rental_uris":{"android":"levelo://app?vid=eb86ccdf-eb08-4d83-8bb4-db7d3853281b","ios":"levelo://app?vid=eb86ccdf-eb08-4d83-8bb4-db7d3853281b"},"vehicle_type_id":"4","last_reported":1752664183,"current_range_meters":16800,"station_id":"ce4bhqh2rcd13ifvqhmg","pricing_plan_id":"cebpf4jnsgd1na2vs0mg"},{"bike_id":"b18c91ed-1137-464d-b9f6-22606474f7bb","system_id":"levelo_inurba_marseille","lat":43.31608,"lon":5.36816,"is_reserved":false,"is_disabled":false,"rental_uris":{"android":"levelo://app?vid=b18c91ed-1137-464d-b9f6-22606474f7bb","ios":"levelo://app?vid=b18c91ed-1137-464d-b9f6-22606474f7bb"},"vehicle_type_id":"4","last_reported":1752664183,"current_range_meters":16800,"station_id":"","pricing_plan_id":"cebpf4jnsgd1na2vs0mg"},{"bike_id":"d647170c-f548-45c4-bf20-d1db5fe65144","system_id":"levelo_inurba_marseille","lat":43.26246,"lon":5.37462,"is_reserved":false,"is_disabled":false,"rental_uris":{"android":"levelo://app?vid=d647170c-f548-45c4-bf20-d1db5fe65144","ios":"levelo://app?vid=d647170c-f548-45c4-bf20-d1db5fe65144"},"vehicle_type_id":"4","last_reported":1752664183,"current_range_meters":16800,"station_id":"ce4bhgp2rcd13ifvqfc0","pricing_plan_id":"cebpf4jnsgd1na2vs0mg"},{"bike_id":"45c94baa-0833-4e8a-a743-3806c6c72ada","system_id":"levelo_inurba_marseille","lat":43.32361,"lon":5.38883,"is_reserved":false,"is_disabled":false,"rental_uris":{"android":"levelo://app?vid=45c94baa-0833-4e8a-a743-3806c6c72ada","ios":"levelo://app?vid=45c94baa-0833-4e8a-a743-3806c6c72ada"},"vehicle_type_id":"4","last_reported":1752664183,"current_range_meters":16800,"station_id":"ce4bhqp2rcd13ifvqhog","pricing_plan_id":"cebpf4jnsgd1na2vs0mg"},{"bike_id":"0c71301d-6b1f-472f-adf1-52c09906df08","system_id":"levelo_inurba_marseille","lat":43.262086,"lon":5.374368,"is_reserved":false,"is_disabled":false,"rental_uris":{"android":"levelo://app?vid=0c71301d-6b1f-472f-adf1-52c09906df08","ios":"levelo://app?vid=0c71301d-6b1f-472f-adf1-52c09906df08"},"vehicle_type_id":"4","last_reported":1752664183,"current_range_meters":16800,"station_id":"ce4bhgp2rcd13ifvqfc0","pricing_plan_id":"cebpf4jnsgd1na2vs0mg"},{"bike_id":"c2437f44-59b1-4a11-be4c-45990fc66ea7","system_id":"levelo_inurba_marseille","lat":43.24167,"lon":5.36393,"is_reserved":false,"is_disabled":false,"rental_uris":{"android":"levelo://app?vid=c2437f44-59b1-4a11-be4c-45990fc66ea7","ios":"levelo://app?vid=c2437f44-59b1-4a11-be4c-45990fc66ea7"},"vehicle_type_id":"4","last_reported":1752664183,"current_range_meters":16800,"station_id":"cpo36qri1sfpv3e86is0","pricing_plan_id":"cebpf4jnsgd1na2vs0mg"},{"bike_id":"a8404626-6caf-4a1c-9da4-9adf6dff7887","system_id":"levelo_inurba_marseille","lat":43.30637,"lon":5.37263,"is_reserved":false,"is_disabled":false,"rental_uris":{"android":"levelo://app?vid=a8404626-6caf-4a1c-9da4-9adf6dff7887","ios":"levelo://app?vid=a8404626-6caf-4a1c-9da4-9adf6dff7887"},"vehicle_type_id":"4","last_reported":1752664183,"current_range_meters":17200,"station_id":"ce4bgqh2rcd13ifvqc4g","pricing_plan_id":"cebpf4jnsgd1na2vs0mg"},{"bike_id":"b6b10ba7-7c4b-42ee-a308-d7c064637433","system_id":"levelo_inurba_marseille","lat":43.29304,"lon":5.37191,"is_reserved":false,"is_disabled":false,"rental_uris":{"android":"levelo://app?vid=b6b10ba7-7c4b-42ee-a308-d7c064637433","ios":"levelo://app?vid=b6b10ba7-7c4b-42ee-a308-d7c064637433"},"vehicle_type_id":"4","last_reported":1752664183,"current_range_meters":17200,"station_id":"ce4bgh92rcd13ifvqb40","pricing_plan_id":"cebpf4jnsgd1na2vs0mg"},{"bike_id":"58199546-fd94-4397-af47-ad69c5451179","system_id":"levelo_inurba_marseille","lat":43.28846,"lon":5.39322,"is_reserved":false,"is_disabled":false,"rental_uris":{"android":"levelo://app?vid=58199546-fd94-4397-af47-ad69c5451179","ios":"levelo://app?vid=58199546-fd94-4397-af47-ad69c5451179"},"vehicle_type_id":"4","last_reported":1752664183,"current_range_meters":17200,"station_id":"ce4bh2p2rcd13ifvqdi0","pricing_plan_id":"cebpf4jnsgd1na2vs0mg"},{"bike_id":"742922c9-1b61-4753-a73c-0d5b4b131484","system_id":"levelo_inurba_marseille","lat":43.28278,"lon":5.35079,"is_reserved":false,"is_disabled":false,"rental_uris":{"android":"levelo://app?vid=742922c9-1b61-4753-a73c-0d5b4b131484","ios":"levelo://app?vid=742922c9-1b61-4753-a73c-0d5b4b131484"},"vehicle_type_id":"4","last_reported":1752664183,"current_range_meters":17200,"station_id":"ce4bhbp2rcd13ifvqerg","pricing_plan_id":"cebpf4jnsgd1na2vs0mg"},{"bike_id":"dea09627-80d9-45b6-a6da-f3e0a5993cf6","system_id":"levelo_inurba_marseille","lat":43.28407,"lon":5.37529,"is_reserved":false,"is_disabled":false,"rental_uris":{"android":"levelo://app?vid=dea09627-80d9-45b6-a6da-f3e0a5993cf6","ios":"levelo://app?vid=dea09627-80d9-45b6-a6da-f3e0a5993cf6"},"vehicle_type_id":"4","last_reported":1752664183,"current_range_meters":17200,"station_id":"ce4bh412rcd13ifvqds0","pricing_plan_id":"cebpf4jnsgd1na2vs0mg"},{"bike_id":"bad83075-a5cc-4780-8421-043d80fcc1bb","system_id":"levelo_inurba_marseille","lat":43.28458,"lon":5.35888,"is_reserved":false,"is_disabled":true,"rental_uris":{"android":"levelo://app?vid=bad83075-a5cc-4780-8421-043d80fcc1bb","ios":"levelo://app?vid=bad83075-a5cc-4780-8421-043d80fcc1bb"},"vehicle_type_id":"4","last_reported":1752664183,"current_range_meters":17200,"station_id":"ce4bhah2rcd13ifvqei0","pricing_plan_id":"cebpf4jnsgd1na2vs0mg"},{"bike_id":"285aaa26-07be-4c4a-9be9-3c0873597bc5","system_id":"levelo_inurba_marseille","lat":43.29579,"lon":5.36776,"is_reserved":false,"is_disabled":false,"rental_uris":{"android":"levelo://app?vid=285aaa26-07be-4c4a-9be9-3c0873597bc5","ios":"levelo://app?vid=285aaa26-07be-4c4a-9be9-3c0873597bc5"},"vehicle_type_id":"4","last_reported":1752664183,"current_range_meters":17200,"station_id":"ce4bgph2rcd13ifvqc2g","pricing_plan_id":"cebpf4jnsgd1na2vs0mg"},{"bike_id":"cc73b8a1-1e82-4b17-a6da-1c0f95e2b746","system_id":"levelo_inurba_marseille","lat":43.3062,"lon":5.372,"is_reserved":false,"is_disabled":false,"rental_uris":{"android":"levelo://app?vid=cc73b8a1-1e82-4b17-a6da-1c0f95e2b746","ios":"levelo://app?vid=cc73b8a1-1e82-4b17-a6da-1c0f95e2b746"},"vehicle_type_id":"4","last_reported":1752664183,"current_range_meters":17200,"station_id":"ce4bgqh2rcd13ifvqc4g","pricing_plan_id":"cebpf4jnsgd1na2vs0mg"},{"bike_id":"d697e4f3-cf7d-45e9-b67b-45ee6d3593f5","system_id":"levelo_inurba_marseille","lat":43.28611,"lon":5.35084,"is_reserved":false,"is_disabled":false,"rental_uris":{"android":"levelo://app?vid=d697e4f3-cf7d-45e9-b67b-45ee6d3593f5","ios":"levelo://app?vid=d697e4f3-cf7d-45e9-b67b-45ee6d3593f5"},"vehicle_type_id":"4","last_reported":1752664183,"current_range_meters":17200,"station_id":"ce4bhch2rcd13ifvqeug","pricing_plan_id":"cebpf4jnsgd1na2vs0mg"},{"bike_id":"db87ac76-dd30-400d-a8b4-a14cc6694459","system_id":"levelo_inurba_marseille","lat":43.292719,"lon":5.368377,"is_reserved":false,"is_disabled":false,"rental_uris":{"android":"levelo://app?vid=db87ac76-dd30-400d-a8b4-a14cc6694459","ios":"levelo://app?vid=db87ac76-dd30-400d-a8b4-a14cc6694459"},"vehicle_type_id":"4","last_reported":1752664183,"current_range_meters":17600,"station_id":"","pricing_plan_id":"cebpf4jnsgd1na2vs0mg"},{"bike_id":"34e62ee5-3131-428c-842a-9ad03de94ba5","system_id":"levelo_inurba_marseille","lat":43.22502,"lon":5.34785,"is_reserved":false,"is_disabled":false,"rental_uris":{"android":"levelo://app?vid=34e62ee5-3131-428c-842a-9ad03de94ba5","ios":"levelo://app?vid=34e62ee5-3131-428c-842a-9ad03de94ba5"},"vehicle_type_id":"4","last_reported":1752664183,"current_range_meters":17600,"station_id":"st_cvj5dfep6f1abm77gieg","pricing_plan_id":"cebpf4jnsgd1na2vs0mg"},{"bike_id":"f037781a-08bc-4746-8a4c-4bc939a127ba","system_id":"levelo_inurba_marseille","lat":43.26205,"lon":5.37452,"is_reserved":false,"is_disabled":false,"rental_uris":{"android":"levelo://app?vid=f037781a-08bc-4746-8a4c-4bc939a127ba","ios":"levelo://app?vid=f037781a-08bc-4746-8a4c-4bc939a127ba"},"vehicle_type_id":"4","last_reported":1752664183,"current_range_meters":17600,"station_id":"ce4bhgp2rcd13ifvqfc0","pricing_plan_id":"cebpf4jnsgd1na2vs0mg"},{"bike_id":"a7fa5af5-0136-47c4-a5bf-873bd2bd27b8","system_id":"levelo_inurba_marseille","lat":43.280723,"lon":5.396527,"is_reserved":false,"is_disabled":false,"rental_uris":{"android":"levelo://app?vid=a7fa5af5-0136-47c4-a5bf-873bd2bd27b8","ios":"levelo://app?vid=a7fa5af5-0136-47c4-a5bf-873bd2bd27b8"},"vehicle_type_id":"4","last_reported":1752664183,"current_range_meters":17600,"station_id":"ce4bho12rcd13ifvqh2g","pricing_plan_id":"cebpf4jnsgd1na2vs0mg"},{"bike_id":"de0a087d-81eb-4321-bc2c-b50b4485a8c5","system_id":"levelo_inurba_marseille","lat":43.28936,"lon":5.38398,"is_reserved":false,"is_disabled":false,"rental_uris":{"android":"levelo://app?vid=de0a087d-81eb-4321-bc2c-b50b4485a8c5","ios":"levelo://app?vid=de0a087d-81eb-4321-bc2c-b50b4485a8c5"},"vehicle_type_id":"4","last_reported":1752664183,"current_range_meters":17600,"station_id":"ce4bh612rcd13ifvqe6g","pricing_plan_id":"cebpf4jnsgd1na2vs0mg"},{"bike_id":"aa6ae9db-dee7-4a9a-bf97-14fd9cddacf5","system_id":"levelo_inurba_marseille","lat":43.30531,"lon":5.36652,"is_reserved":false,"is_disabled":false,"rental_uris":{"android":"levelo://app?vid=aa6ae9db-dee7-4a9a-bf97-14fd9cddacf5","ios":"levelo://app?vid=aa6ae9db-dee7-4a9a-bf97-14fd9cddacf5"},"vehicle_type_id":"4","last_reported":1752664183,"current_range_meters":17600,"station_id":"","pricing_plan_id":"cebpf4jnsgd1na2vs0mg"},{"bike_id":"b399da78-cf63-4de2-b505-0740a1d1e170","system_id":"levelo_inurba_marseille","lat":43.22506,"lon":5.34782,"is_reserved":false,"is_disabled":false,"rental_uris":{"android":"levelo://app?vid=b399da78-cf63-4de2-b505-0740a1d1e170","ios":"levelo://app?vid=b399da78-cf63-4de2-b505-0740a1d1e170"},"vehicle_type_id":"4","last_reported":1752664183,"current_range_meters":17600,"station_id":"st_cvj5dfep6f1abm77gieg","pricing_plan_id":"cebpf4jnsgd1na2vs0mg"},{"bike_id":"39c6203f-25ee-487c-9399-b36ef495fc6b","system_id":"levelo_inurba_marseille","lat":43.24083,"lon":5.37753,"is_reserved":false,"is_disabled":false,"rental_uris":{"android":"levelo://app?vid=39c6203f-25ee-487c-9399-b36ef495fc6b","ios":"levelo://app?vid=39c6203f-25ee-487c-9399-b36ef495fc6b"},"vehicle_type_id":"4","last_reported":1752664183,"current_range_meters":17600,"station_id":"ce4bhnp2rcd13ifvqgvg","pricing_plan_id":"cebpf4jnsgd1na2vs0mg"},{"bike_id":"243ff24d-c224-4f6c-8766-a9a443123038","system_id":"levelo_inurba_marseille","lat":43.23959,"lon":5.36627,"is_reserved":false,"is_disabled":false,"rental_uris":{"android":"levelo://app?vid=243ff24d-c224-4f6c-8766-a9a443123038","ios":"levelo://app?vid=243ff24d-c224-4f6c-8766-a9a443123038"},"vehicle_type_id":"4","last_reported":1752664183,"current_range_meters":17600,"station_id":"ce4bhi12rcd13ifvqfp0","pricing_plan_id":"cebpf4jnsgd1na2vs0mg"},{"bike_id":"0398468c-6c0f-49fd-b525-08c45b6a4cd9","system_id":"levelo_inurba_marseille","lat":43.22496,"lon":5.34776,"is_reserved":false,"is_disabled":false,"rental_uris":{"android":"levelo://app?vid=0398468c-6c0f-49fd-b525-08c45b6a4cd9","ios":"levelo://app?vid=0398468c-6c0f-49fd-b525-08c45b6a4cd9"},"vehicle_type_id":"4","last_reported":1752664183,"current_range_meters":18000,"station_id":"st_cvj5dfep6f1abm77gieg","pricing_plan_id":"cebpf4jnsgd1na2vs0mg"},{"bike_id":"0225df2e-bee4-445b-87d9-507b02fc0fcb","system_id":"levelo_inurba_marseille","lat":43.3237,"lon":5.36772,"is_reserved":false,"is_disabled":false,"rental_uris":{"android":"levelo://app?vid=0225df2e-bee4-445b-87d9-507b02fc0fcb","ios":"levelo://app?vid=0225df2e-bee4-445b-87d9-507b02fc0fcb"},"vehicle_type_id":"4","last_reported":1752664183,"current_range_meters":18000,"station_id":"ce4bhsh2rcd13ifvqi2g","pricing_plan_id":"cebpf4jnsgd1na2vs0mg"},{"bike_id":"3444bdc6-514a-4ba6-9650-f9073305e33d","system_id":"levelo_inurba_marseille","lat":43.29682,"lon":5.3698,"is_reserved":false,"is_disabled":false,"rental_uris":{"android":"levelo://app?vid=3444bdc6-514a-4ba6-9650-f9073305e33d","ios":"levelo://app?vid=3444bdc6-514a-4ba6-9650-f9073305e33d"},"vehicle_type_id":"4","last_reported":1752664183,"current_range_meters":18000,"station_id":"","pricing_plan_id":"cebpf4jnsgd1na2vs0mg"},{"bike_id":"12f40a0d-9397-4ab4-a467-4e4c97e54da9","system_id":"levelo_inurba_marseille","lat":43.29918,"lon":5.37468,"is_reserved":false,"is_disabled":false,"rental_uris":{"android":"levelo://app?vid=12f40a0d-9397-4ab4-a467-4e4c97e54da9","ios":"levelo://app?vid=12f40a0d-9397-4ab4-a467-4e4c97e54da9"},"vehicle_type_id":"4","last_reported":1752664183,"current_range_meters":17600,"station_id":"ce4bgjh2rcd13ifvqbg0","pricing_plan_id":"cebpf4jnsgd1na2vs0mg"},{"bike_id":"96011392-f348-4771-9fad-d43e460a9c38","system_id":"levelo_inurba_marseille","lat":43.24167,"lon":5.36392,"is_reserved":false,"is_disabled":false,"rental_uris":{"android":"levelo://app?vid=96011392-f348-4771-9fad-d43e460a9c38","ios":"levelo://app?vid=96011392-f348-4771-9fad-d43e460a9c38"},"vehicle_type_id":"4","last_reported":1752664183,"current_range_meters":18000,"station_id":"cpo36qri1sfpv3e86is0","pricing_plan_id":"cebpf4jnsgd1na2vs0mg"},{"bike_id":"81b131fd-0ff7-4abf-b33d-1d969e95f930","system_id":"levelo_inurba_marseille","lat":43.31496,"lon":5.37312,"is_reserved":false,"is_disabled":false,"rental_uris":{"android":"levelo://app?vid=81b131fd-0ff7-4abf-b33d-1d969e95f930","ios":"levelo://app?vid=81b131fd-0ff7-4abf-b33d-1d969e95f930"},"vehicle_type_id":"4","last_reported":1752664183,"current_range_meters":18000,"station_id":"ce4bgt12rcd13ifvqcd0","pricing_plan_id":"cebpf4jnsgd1na2vs0mg"},{"bike_id":"9fab3324-0e38-452a-b9c0-b8c91be3e410","system_id":"levelo_inurba_marseille","lat":43.25934,"lon":5.40899,"is_reserved":false,"is_disabled":false,"rental_uris":{"android":"levelo://app?vid=9fab3324-0e38-452a-b9c0-b8c91be3e410","ios":"levelo://app?vid=9fab3324-0e38-452a-b9c0-b8c91be3e410"},"vehicle_type_id":"4","last_reported":1752664183,"current_range_meters":18000,"station_id":"ce4bhm92rcd13ifvqglg","pricing_plan_id":"cebpf4jnsgd1na2vs0mg"},{"bike_id":"e9d2c0e8-74c1-4641-8f89-db79d4a6bef4","system_id":"levelo_inurba_marseille","lat":43.2863,"lon":5.35092,"is_reserved":false,"is_disabled":false,"rental_uris":{"android":"levelo://app?vid=e9d2c0e8-74c1-4641-8f89-db79d4a6bef4","ios":"levelo://app?vid=e9d2c0e8-74c1-4641-8f89-db79d4a6bef4"},"vehicle_type_id":"4","last_reported":1752664183,"current_range_meters":18000,"station_id":"ce4bhch2rcd13ifvqeug","pricing_plan_id":"cebpf4jnsgd1na2vs0mg"},{"bike_id":"270beed7-083f-4ab8-9a90-18b9e42c8b5e","system_id":"levelo_inurba_marseille","lat":43.2953,"lon":5.39029,"is_reserved":false,"is_disabled":false,"rental_uris":{"android":"levelo://app?vid=270beed7-083f-4ab8-9a90-18b9e42c8b5e","ios":"levelo://app?vid=270beed7-083f-4ab8-9a90-18b9e42c8b5e"},"vehicle_type_id":"4","last_reported":1752664183,"current_range_meters":18000,"station_id":"ce4bh3p2rcd13ifvqdp0","pricing_plan_id":"cebpf4jnsgd1na2vs0mg"},{"bike_id":"def589f8-1927-40c7-bbb8-81631032d093","system_id":"levelo_inurba_marseille","lat":43.22527,"lon":5.34792,"is_reserved":false,"is_disabled":false,"rental_uris":{"android":"levelo://app?vid=def589f8-1927-40c7-bbb8-81631032d093","ios":"levelo://app?vid=def589f8-1927-40c7-bbb8-81631032d093"},"vehicle_type_id":"4","last_reported":1752664183,"current_range_meters":18000,"station_id":"st_cvj5dfep6f1abm77gieg","pricing_plan_id":"cebpf4jnsgd1na2vs0mg"},{"bike_id":"07f5ae19-0925-43ef-aab4-48ec58bc62b9","system_id":"levelo_inurba_marseille","lat":43.31476,"lon":5.37452,"is_reserved":false,"is_disabled":false,"rental_uris":{"android":"levelo://app?vid=07f5ae19-0925-43ef-aab4-48ec58bc62b9","ios":"levelo://app?vid=07f5ae19-0925-43ef-aab4-48ec58bc62b9"},"vehicle_type_id":"4","last_reported":1752664183,"current_range_meters":18000,"station_id":"","pricing_plan_id":"cebpf4jnsgd1na2vs0mg"},{"bike_id":"dd43e045-6313-4536-a083-812e1484d634","system_id":"levelo_inurba_marseille","lat":43.21747,"lon":5.34608,"is_reserved":false,"is_disabled":false,"rental_uris":{"android":"levelo://app?vid=dd43e045-6313-4536-a083-812e1484d634","ios":"levelo://app?vid=dd43e045-6313-4536-a083-812e1484d634"},"vehicle_type_id":"4","last_reported":1752664183,"current_range_meters":18000,"station_id":"st_cvj6r9ubvosntc0bgbag","pricing_plan_id":"cebpf4jnsgd1na2vs0mg"},{"bike_id":"f5613936-10ea-46e9-89a1-55ca6d839f90","system_id":"levelo_inurba_marseille","lat":43.21191,"lon":5.35077,"is_reserved":false,"is_disabled":false,"rental_uris":{"android":"levelo://app?vid=f5613936-10ea-46e9-89a1-55ca6d839f90","ios":"levelo://app?vid=f5613936-10ea-46e9-89a1-55ca6d839f90"},"vehicle_type_id":"4","last_reported":1752664183,"current_range_meters":18800,"station_id":"st_cvj6sg6p6f1abm77japg","pricing_plan_id":"cebpf4jnsgd1na2vs0mg"},{"bike_id":"533c73ee-0056-4d82-9e5a-dd0ed3606bc8","system_id":"levelo_inurba_marseille","lat":43.27841,"lon":5.39217,"is_reserved":false,"is_disabled":false,"rental_uris":{"android":"levelo://app?vid=533c73ee-0056-4d82-9e5a-dd0ed3606bc8","ios":"levelo://app?vid=533c73ee-0056-4d82-9e5a-dd0ed3606bc8"},"vehicle_type_id":"4","last_reported":1752664183,"current_range_meters":18800,"station_id":"ce4bhjp2rcd13ifvqga0","pricing_plan_id":"cebpf4jnsgd1na2vs0mg"},{"bike_id":"d23dd79d-ccf0-44cd-891d-0dbef2de8ac9","system_id":"levelo_inurba_marseille","lat":43.30308,"lon":5.36915,"is_reserved":false,"is_disabled":false,"rental_uris":{"android":"levelo://app?vid=d23dd79d-ccf0-44cd-891d-0dbef2de8ac9","ios":"levelo://app?vid=d23dd79d-ccf0-44cd-891d-0dbef2de8ac9"},"vehicle_type_id":"4","last_reported":1752664183,"current_range_meters":18800,"station_id":"ce4bgqh2rcd13ifvqc5g","pricing_plan_id":"cebpf4jnsgd1na2vs0mg"},{"bike_id":"7b492ac8-833d-423e-80e6-17cacb7c6308","system_id":"levelo_inurba_marseille","lat":43.31505,"lon":5.37318,"is_reserved":false,"is_disabled":false,"rental_uris":{"android":"levelo://app?vid=7b492ac8-833d-423e-80e6-17cacb7c6308","ios":"levelo://app?vid=7b492ac8-833d-423e-80e6-17cacb7c6308"},"vehicle_type_id":"4","last_reported":1752664183,"current_range_meters":18800,"station_id":"ce4bgt12rcd13ifvqcd0","pricing_plan_id":"cebpf4jnsgd1na2vs0mg"},{"bike_id":"778ae812-e22e-43bc-b1b4-968b8dd08a84","system_id":"levelo_inurba_marseille","lat":43.268165,"lon":5.402725,"is_reserved":false,"is_disabled":false,"rental_uris":{"android":"levelo://app?vid=778ae812-e22e-43bc-b1b4-968b8dd08a84","ios":"levelo://app?vid=778ae812-e22e-43bc-b1b4-968b8dd08a84"},"vehicle_type_id":"4","last_reported":1752664183,"current_range_meters":18800,"station_id":"ce501612rcd8frsf0b60","pricing_plan_id":"cebpf4jnsgd1na2vs0mg"},{"bike_id":"51463e2c-09cf-4fa5-a440-4b95eeeb90ab","system_id":"levelo_inurba_marseille","lat":43.23743,"lon":5.3663,"is_reserved":false,"is_disabled":false,"rental_uris":{"android":"levelo://app?vid=51463e2c-09cf-4fa5-a440-4b95eeeb90ab","ios":"levelo://app?vid=51463e2c-09cf-4fa5-a440-4b95eeeb90ab"},"vehicle_type_id":"4","last_reported":1752664183,"current_range_meters":18800,"station_id":"","pricing_plan_id":"cebpf4jnsgd1na2vs0mg"},{"bike_id":"fb3787f6-25a1-40f9-a502-494b0c991224","system_id":"levelo_inurba_marseille","lat":43.29208,"lon":5.39323,"is_reserved":false,"is_disabled":false,"rental_uris":{"android":"levelo://app?vid=fb3787f6-25a1-40f9-a502-494b0c991224","ios":"levelo://app?vid=fb3787f6-25a1-40f9-a502-494b0c991224"},"vehicle_type_id":"4","last_reported":1752664183,"current_range_meters":18000,"station_id":"ce4bh192rcd13ifvqdd0","pricing_plan_id":"cebpf4jnsgd1na2vs0mg"},{"bike_id":"11e1fe48-fdff-4616-97ed-c556ff378edd","system_id":"levelo_inurba_marseille","lat":43.298519,"lon":5.362881,"is_reserved":false,"is_disabled":false,"rental_uris":{"android":"levelo://app?vid=11e1fe48-fdff-4616-97ed-c556ff378edd","ios":"levelo://app?vid=11e1fe48-fdff-4616-97ed-c556ff378edd"},"vehicle_type_id":"4","last_reported":1752664183,"current_range_meters":18800,"station_id":"ce4bgpp2rcd13ifvqc3g","pricing_plan_id":"cebpf4jnsgd1na2vs0mg"},{"bike_id":"1da7929e-d1d9-4147-a7cc-6a8b3faa7341","system_id":"levelo_inurba_marseille","lat":43.303717,"lon":5.424977,"is_reserved":false,"is_disabled":false,"rental_uris":{"android":"levelo://app?vid=1da7929e-d1d9-4147-a7cc-6a8b3faa7341","ios":"levelo://app?vid=1da7929e-d1d9-4147-a7cc-6a8b3faa7341"},"vehicle_type_id":"4","last_reported":1752664183,"current_range_meters":18800,"station_id":"ce4bhoh2rcd13ifvqh6g","pricing_plan_id":"cebpf4jnsgd1na2vs0mg"},{"bike_id":"03568c5d-aa64-4cbc-b7c7-dd33f8c4750d","system_id":"levelo_inurba_marseille","lat":43.30521,"lon":5.36687,"is_reserved":false,"is_disabled":true,"rental_uris":{"android":"levelo://app?vid=03568c5d-aa64-4cbc-b7c7-dd33f8c4750d","ios":"levelo://app?vid=03568c5d-aa64-4cbc-b7c7-dd33f8c4750d"},"vehicle_type_id":"4","last_reported":1752664183,"current_range_meters":18800,"station_id":"ce4bgrp2rcd13ifvqc9g","pricing_plan_id":"cebpf4jnsgd1na2vs0mg"},{"bike_id":"f7109f73-8af1-4c55-8fe2-ca12636b95b1","system_id":"levelo_inurba_marseille","lat":43.2931,"lon":5.37187,"is_reserved":false,"is_disabled":false,"rental_uris":{"android":"levelo://app?vid=f7109f73-8af1-4c55-8fe2-ca12636b95b1","ios":"levelo://app?vid=f7109f73-8af1-4c55-8fe2-ca12636b95b1"},"vehicle_type_id":"4","last_reported":1752664183,"current_range_meters":19200,"station_id":"ce4bgh92rcd13ifvqb40","pricing_plan_id":"cebpf4jnsgd1na2vs0mg"},{"bike_id":"8a279f60-3e24-428c-8165-c9a76bdb616c","system_id":"levelo_inurba_marseille","lat":43.276812,"lon":5.389116,"is_reserved":false,"is_disabled":false,"rental_uris":{"android":"levelo://app?vid=8a279f60-3e24-428c-8165-c9a76bdb616c","ios":"levelo://app?vid=8a279f60-3e24-428c-8165-c9a76bdb616c"},"vehicle_type_id":"4","last_reported":1752664183,"current_range_meters":19200,"station_id":"ce4bhi12rcd13ifvqfo0","pricing_plan_id":"cebpf4jnsgd1na2vs0mg"},{"bike_id":"f6e67167-3686-4cae-82da-4610049996dc","system_id":"levelo_inurba_marseille","lat":43.26932,"lon":5.38532,"is_reserved":false,"is_disabled":false,"rental_uris":{"android":"levelo://app?vid=f6e67167-3686-4cae-82da-4610049996dc","ios":"levelo://app?vid=f6e67167-3686-4cae-82da-4610049996dc"},"vehicle_type_id":"4","last_reported":1752664183,"current_range_meters":19200,"station_id":"","pricing_plan_id":"cebpf4jnsgd1na2vs0mg"},{"bike_id":"2dad0a76-ccba-4160-8650-eb68d47eaabb","system_id":"levelo_inurba_marseille","lat":43.28491,"lon":5.38422,"is_reserved":false,"is_disabled":false,"rental_uris":{"android":"levelo://app?vid=2dad0a76-ccba-4160-8650-eb68d47eaabb","ios":"levelo://app?vid=2dad0a76-ccba-4160-8650-eb68d47eaabb"},"vehicle_type_id":"4","last_reported":1752664183,"current_range_meters":19200,"station_id":"ce4bh512rcd13ifvqe3g","pricing_plan_id":"cebpf4jnsgd1na2vs0mg"},{"bike_id":"90493794-6f43-46af-b617-9b54832654db","system_id":"levelo_inurba_marseille","lat":43.31353,"lon":5.36733,"is_reserved":false,"is_disabled":false,"rental_uris":{"android":"levelo://app?vid=90493794-6f43-46af-b617-9b54832654db","ios":"levelo://app?vid=90493794-6f43-46af-b617-9b54832654db"},"vehicle_type_id":"4","last_reported":1752664183,"current_range_meters":19200,"station_id":"ce4bgr92rcd13ifvqc6g","pricing_plan_id":"cebpf4jnsgd1na2vs0mg"},{"bike_id":"b4bb7171-f333-436f-a4e5-0b5385e4b807","system_id":"levelo_inurba_marseille","lat":43.2294,"lon":5.35376,"is_reserved":false,"is_disabled":false,"rental_uris":{"android":"levelo://app?vid=b4bb7171-f333-436f-a4e5-0b5385e4b807","ios":"levelo://app?vid=b4bb7171-f333-436f-a4e5-0b5385e4b807"},"vehicle_type_id":"4","last_reported":1752664183,"current_range_meters":19200,"station_id":"cpo3532slgdg3j2ikp40","pricing_plan_id":"cebpf4jnsgd1na2vs0mg"},{"bike_id":"51cb7f52-ea2c-4561-8966-6dfbb5604126","system_id":"levelo_inurba_marseille","lat":43.29968,"lon":5.38493,"is_reserved":false,"is_disabled":false,"rental_uris":{"android":"levelo://app?vid=51cb7f52-ea2c-4561-8966-6dfbb5604126","ios":"levelo://app?vid=51cb7f52-ea2c-4561-8966-6dfbb5604126"},"vehicle_type_id":"4","last_reported":1752664183,"current_range_meters":19200,"station_id":"ce4bgj92rcd13ifvqbd0","pricing_plan_id":"cebpf4jnsgd1na2vs0mg"},{"bike_id":"01162d63-eee9-44aa-b940-853d9bbeb099","system_id":"levelo_inurba_marseille","lat":43.32085,"lon":5.36754,"is_reserved":false,"is_disabled":false,"rental_uris":{"android":"levelo://app?vid=01162d63-eee9-44aa-b940-853d9bbeb099","ios":"levelo://app?vid=01162d63-eee9-44aa-b940-853d9bbeb099"},"vehicle_type_id":"4","last_reported":1752664183,"current_range_meters":19200,"station_id":"ce4bhrh2rcd13ifvqhug","pricing_plan_id":"cebpf4jnsgd1na2vs0mg"},{"bike_id":"b4f0f905-7c7c-4d7b-91ba-391d052ca313","system_id":"levelo_inurba_marseille","lat":43.31502,"lon":5.37305,"is_reserved":false,"is_disabled":false,"rental_uris":{"android":"levelo://app?vid=b4f0f905-7c7c-4d7b-91ba-391d052ca313","ios":"levelo://app?vid=b4f0f905-7c7c-4d7b-91ba-391d052ca313"},"vehicle_type_id":"4","last_reported":1752664183,"current_range_meters":19200,"station_id":"ce4bgt12rcd13ifvqcd0","pricing_plan_id":"cebpf4jnsgd1na2vs0mg"},{"bike_id":"1a1de22c-864f-4087-990e-227151d55abc","system_id":"levelo_inurba_marseille","lat":43.21196,"lon":5.35088,"is_reserved":false,"is_disabled":false,"rental_uris":{"android":"levelo://app?vid=1a1de22c-864f-4087-990e-227151d55abc","ios":"levelo://app?vid=1a1de22c-864f-4087-990e-227151d55abc"},"vehicle_type_id":"4","last_reported":1752664183,"current_range_meters":19600,"station_id":"st_cvj6sg6p6f1abm77japg","pricing_plan_id":"cebpf4jnsgd1na2vs0mg"},{"bike_id":"a3484523-396d-4883-a73e-23c7e85e8eaf","system_id":"levelo_inurba_marseille","lat":43.3093,"lon":5.40146,"is_reserved":false,"is_disabled":false,"rental_uris":{"android":"levelo://app?vid=a3484523-396d-4883-a73e-23c7e85e8eaf","ios":"levelo://app?vid=a3484523-396d-4883-a73e-23c7e85e8eaf"},"vehicle_type_id":"4","last_reported":1752664183,"current_range_meters":19600,"station_id":"ce4bgvp2rcd13ifvqct0","pricing_plan_id":"cebpf4jnsgd1na2vs0mg"},{"bike_id":"7889b704-b301-4414-b00b-fe99422cbed4","system_id":"levelo_inurba_marseille","lat":43.32318,"lon":5.40609,"is_reserved":false,"is_disabled":false,"rental_uris":{"android":"levelo://app?vid=7889b704-b301-4414-b00b-fe99422cbed4","ios":"levelo://app?vid=7889b704-b301-4414-b00b-fe99422cbed4"},"vehicle_type_id":"4","last_reported":1752664183,"current_range_meters":19600,"station_id":"ce4bhq92rcd13ifvqhjg","pricing_plan_id":"cebpf4jnsgd1na2vs0mg"},{"bike_id":"cfe2a048-0122-41e1-a62c-76a30079239f","system_id":"levelo_inurba_marseille","lat":43.29633,"lon":5.40602,"is_reserved":false,"is_disabled":false,"rental_uris":{"android":"levelo://app?vid=cfe2a048-0122-41e1-a62c-76a30079239f","ios":"levelo://app?vid=cfe2a048-0122-41e1-a62c-76a30079239f"},"vehicle_type_id":"4","last_reported":1752664183,"current_range_meters":19600,"station_id":"ce4bh0h2rcd13ifvqd60","pricing_plan_id":"cebpf4jnsgd1na2vs0mg"},{"bike_id":"04c535c3-1433-4848-88c4-68cf5f956506","system_id":"levelo_inurba_marseille","lat":43.23194,"lon":5.35548,"is_reserved":false,"is_disabled":false,"rental_uris":{"android":"levelo://app?vid=04c535c3-1433-4848-88c4-68cf5f956506","ios":"levelo://app?vid=04c535c3-1433-4848-88c4-68cf5f956506"},"vehicle_type_id":"4","last_reported":1752664183,"current_range_meters":20000,"station_id":"ce4bhu92rcd13ifvqi70","pricing_plan_id":"cebpf4jnsgd1na2vs0mg"},{"bike_id":"601d63f5-45ba-444b-ae10-7d4ee6339f76","system_id":"levelo_inurba_marseille","lat":43.29896,"lon":5.43653,"is_reserved":false,"is_disabled":false,"rental_uris":{"android":"levelo://app?vid=601d63f5-45ba-444b-ae10-7d4ee6339f76","ios":"levelo://app?vid=601d63f5-45ba-444b-ae10-7d4ee6339f76"},"vehicle_type_id":"4","last_reported":1752664183,"current_range_meters":20000,"station_id":"ce4bhpp2rcd13ifvqhfg","pricing_plan_id":"cebpf4jnsgd1na2vs0mg"},{"bike_id":"855ff8f9-641c-41af-8e00-5d71e1a04e0f","system_id":"levelo_inurba_marseille","lat":43.225138,"lon":5.347792,"is_reserved":false,"is_disabled":false,"rental_uris":{"android":"levelo://app?vid=855ff8f9-641c-41af-8e00-5d71e1a04e0f","ios":"levelo://app?vid=855ff8f9-641c-41af-8e00-5d71e1a04e0f"},"vehicle_type_id":"4","last_reported":1752664183,"current_range_meters":20000,"station_id":"st_cvj5dfep6f1abm77gieg","pricing_plan_id":"cebpf4jnsgd1na2vs0mg"},{"bike_id":"1d396b60-14e2-4e1e-9d50-fff9f9653c53","system_id":"levelo_inurba_marseille","lat":43.26545,"lon":5.39016,"is_reserved":false,"is_disabled":false,"rental_uris":{"android":"levelo://app?vid=1d396b60-14e2-4e1e-9d50-fff9f9653c53","ios":"levelo://app?vid=1d396b60-14e2-4e1e-9d50-fff9f9653c53"},"vehicle_type_id":"4","last_reported":1752664183,"current_range_meters":20000,"station_id":"ce4bhe12rcd13ifvqf30","pricing_plan_id":"cebpf4jnsgd1na2vs0mg"},{"bike_id":"93bbeab2-f70e-405b-b5b8-afd6f1e39470","system_id":"levelo_inurba_marseille","lat":43.26219,"lon":5.40448,"is_reserved":false,"is_disabled":false,"rental_uris":{"android":"levelo://app?vid=93bbeab2-f70e-405b-b5b8-afd6f1e39470","ios":"levelo://app?vid=93bbeab2-f70e-405b-b5b8-afd6f1e39470"},"vehicle_type_id":"4","last_reported":1752664183,"current_range_meters":20000,"station_id":"ce4bhmh2rcd13ifvqgmg","pricing_plan_id":"cebpf4jnsgd1na2vs0mg"},{"bike_id":"63362215-e6b0-499c-9a27-42bef6c7836f","system_id":"levelo_inurba_marseille","lat":43.21751,"lon":5.34616,"is_reserved":false,"is_disabled":false,"rental_uris":{"android":"levelo://app?vid=63362215-e6b0-499c-9a27-42bef6c7836f","ios":"levelo://app?vid=63362215-e6b0-499c-9a27-42bef6c7836f"},"vehicle_type_id":"4","last_reported":1752664183,"current_range_meters":20000,"station_id":"st_cvj6r9ubvosntc0bgbag","pricing_plan_id":"cebpf4jnsgd1na2vs0mg"},{"bike_id":"ead20935-da35-4666-af7d-584ddb956779","system_id":"levelo_inurba_marseille","lat":43.29579,"lon":5.39973,"is_reserved":false,"is_disabled":false,"rental_uris":{"android":"levelo://app?vid=ead20935-da35-4666-af7d-584ddb956779","ios":"levelo://app?vid=ead20935-da35-4666-af7d-584ddb956779"},"vehicle_type_id":"4","last_reported":1752664183,"current_range_meters":20000,"station_id":"ce4bh312rcd13ifvqdj0","pricing_plan_id":"cebpf4jnsgd1na2vs0mg"},{"bike_id":"2ac93549-5c94-4228-8eea-782a21384d10","system_id":"levelo_inurba_marseille","lat":43.29634,"lon":5.37793,"is_reserved":false,"is_disabled":false,"rental_uris":{"android":"levelo://app?vid=2ac93549-5c94-4228-8eea-782a21384d10","ios":"levelo://app?vid=2ac93549-5c94-4228-8eea-782a21384d10"},"vehicle_type_id":"4","last_reported":1752664183,"current_range_meters":20000,"station_id":"","pricing_plan_id":"cebpf4jnsgd1na2vs0mg"},{"bike_id":"531dca68-8617-41b0-a6cd-abffc94e1d45","system_id":"levelo_inurba_marseille","lat":43.312101,"lon":5.373159,"is_reserved":false,"is_disabled":false,"rental_uris":{"android":"levelo://app?vid=531dca68-8617-41b0-a6cd-abffc94e1d45","ios":"levelo://app?vid=531dca68-8617-41b0-a6cd-abffc94e1d45"},"vehicle_type_id":"4","last_reported":1752664183,"current_range_meters":20000,"station_id":"","pricing_plan_id":"cebpf4jnsgd1na2vs0mg"},{"bike_id":"1d0e8fea-b1f6-4230-a2bb-fcc9f19a8b41","system_id":"levelo_inurba_marseille","lat":43.295548,"lon":5.375037,"is_reserved":false,"is_disabled":false,"rental_uris":{"android":"levelo://app?vid=1d0e8fea-b1f6-4230-a2bb-fcc9f19a8b41","ios":"levelo://app?vid=1d0e8fea-b1f6-4230-a2bb-fcc9f19a8b41"},"vehicle_type_id":"4","last_reported":1752664183,"current_range_meters":20000,"station_id":"ce4bgh92rcd13ifvqb50","pricing_plan_id":"cebpf4jnsgd1na2vs0mg"},{"bike_id":"7979f844-7066-4b2f-b3ae-8dc705c729b1","system_id":"levelo_inurba_marseille","lat":43.27992,"lon":5.40016,"is_reserved":false,"is_disabled":false,"rental_uris":{"android":"levelo://app?vid=7979f844-7066-4b2f-b3ae-8dc705c729b1","ios":"levelo://app?vid=7979f844-7066-4b2f-b3ae-8dc705c729b1"},"vehicle_type_id":"4","last_reported":1752664183,"current_range_meters":20000,"station_id":"ce4bho92rcd13ifvqh4g","pricing_plan_id":"cebpf4jnsgd1na2vs0mg"},{"bike_id":"79806c3a-6c29-4913-9ec9-93da135cc77d","system_id":"levelo_inurba_marseille","lat":43.33772,"lon":5.37434,"is_reserved":false,"is_disabled":false,"rental_uris":{"android":"levelo://app?vid=79806c3a-6c29-4913-9ec9-93da135cc77d","ios":"levelo://app?vid=79806c3a-6c29-4913-9ec9-93da135cc77d"},"vehicle_type_id":"4","last_reported":1752664183,"current_range_meters":20400,"station_id":"","pricing_plan_id":"cebpf4jnsgd1na2vs0mg"},{"bike_id":"da891840-0cec-4ccc-961c-48903736c6fa","system_id":"levelo_inurba_marseille","lat":43.31139,"lon":5.37692,"is_reserved":false,"is_disabled":false,"rental_uris":{"android":"levelo://app?vid=da891840-0cec-4ccc-961c-48903736c6fa","ios":"levelo://app?vid=da891840-0cec-4ccc-961c-48903736c6fa"},"vehicle_type_id":"4","last_reported":1752664183,"current_range_meters":20400,"station_id":"","pricing_plan_id":"cebpf4jnsgd1na2vs0mg"},{"bike_id":"da24c495-bf0f-494f-9521-4e687db6d329","system_id":"levelo_inurba_marseille","lat":43.22505,"lon":5.34797,"is_reserved":false,"is_disabled":false,"rental_uris":{"android":"levelo://app?vid=da24c495-bf0f-494f-9521-4e687db6d329","ios":"levelo://app?vid=da24c495-bf0f-494f-9521-4e687db6d329"},"vehicle_type_id":"4","last_reported":1752664183,"current_range_meters":20400,"station_id":"st_cvj5dfep6f1abm77gieg","pricing_plan_id":"cebpf4jnsgd1na2vs0mg"},{"bike_id":"5dd6ba39-4a83-4791-a933-1004b1fb810d","system_id":"levelo_inurba_marseille","lat":43.295723,"lon":5.375196,"is_reserved":false,"is_disabled":false,"rental_uris":{"android":"levelo://app?vid=5dd6ba39-4a83-4791-a933-1004b1fb810d","ios":"levelo://app?vid=5dd6ba39-4a83-4791-a933-1004b1fb810d"},"vehicle_type_id":"4","last_reported":1752664183,"current_range_meters":20400,"station_id":"","pricing_plan_id":"cebpf4jnsgd1na2vs0mg"},{"bike_id":"1af876d9-6e0a-45cc-bed9-deae0b87ca9c","system_id":"levelo_inurba_marseille","lat":43.211907,"lon":5.350703,"is_reserved":false,"is_disabled":false,"rental_uris":{"android":"levelo://app?vid=1af876d9-6e0a-45cc-bed9-deae0b87ca9c","ios":"levelo://app?vid=1af876d9-6e0a-45cc-bed9-deae0b87ca9c"},"vehicle_type_id":"4","last_reported":1752664183,"current_range_meters":20400,"station_id":"st_cvj6sg6p6f1abm77japg","pricing_plan_id":"cebpf4jnsgd1na2vs0mg"},{"bike_id":"e5f51449-327c-4a36-b1e4-9180e51f9b99","system_id":"levelo_inurba_marseille","lat":43.21747,"lon":5.34605,"is_reserved":false,"is_disabled":false,"rental_uris":{"android":"levelo://app?vid=e5f51449-327c-4a36-b1e4-9180e51f9b99","ios":"levelo://app?vid=e5f51449-327c-4a36-b1e4-9180e51f9b99"},"vehicle_type_id":"4","last_reported":1752664183,"current_range_meters":20400,"station_id":"st_cvj6r9ubvosntc0bgbag","pricing_plan_id":"cebpf4jnsgd1na2vs0mg"},{"bike_id":"430b5925-6893-4978-8cdd-e49b87c7bc0e","system_id":"levelo_inurba_marseille","lat":43.314866,"lon":5.37313,"is_reserved":false,"is_disabled":false,"rental_uris":{"android":"levelo://app?vid=430b5925-6893-4978-8cdd-e49b87c7bc0e","ios":"levelo://app?vid=430b5925-6893-4978-8cdd-e49b87c7bc0e"},"vehicle_type_id":"4","last_reported":1752664183,"current_range_meters":20800,"station_id":"ce4bgt12rcd13ifvqcd0","pricing_plan_id":"cebpf4jnsgd1na2vs0mg"},{"bike_id":"5fd7c8c7-6899-4e6d-bb73-f5ef08aef666","system_id":"levelo_inurba_marseille","lat":43.27685,"lon":5.38874,"is_reserved":false,"is_disabled":false,"rental_uris":{"android":"levelo://app?vid=5fd7c8c7-6899-4e6d-bb73-f5ef08aef666","ios":"levelo://app?vid=5fd7c8c7-6899-4e6d-bb73-f5ef08aef666"},"vehicle_type_id":"4","last_reported":1752664183,"current_range_meters":20800,"station_id":"ce4bhi12rcd13ifvqfo0","pricing_plan_id":"cebpf4jnsgd1na2vs0mg"},{"bike_id":"965dc3ac-3c42-4165-8243-61c6c0d91a23","system_id":"levelo_inurba_marseille","lat":43.287498,"lon":5.361678,"is_reserved":false,"is_disabled":false,"rental_uris":{"android":"levelo://app?vid=965dc3ac-3c42-4165-8243-61c6c0d91a23","ios":"levelo://app?vid=965dc3ac-3c42-4165-8243-61c6c0d91a23"},"vehicle_type_id":"4","last_reported":1752664183,"current_range_meters":20800,"station_id":"cki0cbj6b192h4jlfktg","pricing_plan_id":"cebpf4jnsgd1na2vs0mg"},{"bike_id":"02d12b60-d364-450d-99fd-133bfb79d7c8","system_id":"levelo_inurba_marseille","lat":43.30322,"lon":5.36909,"is_reserved":false,"is_disabled":true,"rental_uris":{"android":"levelo://app?vid=02d12b60-d364-450d-99fd-133bfb79d7c8","ios":"levelo://app?vid=02d12b60-d364-450d-99fd-133bfb79d7c8"},"vehicle_type_id":"4","last_reported":1752664183,"current_range_meters":20800,"station_id":"ce4bgqh2rcd13ifvqc5g","pricing_plan_id":"cebpf4jnsgd1na2vs0mg"},{"bike_id":"81ef362d-2607-4495-a4cc-41aaceb9066a","system_id":"levelo_inurba_marseille","lat":43.28975,"lon":5.37843,"is_reserved":false,"is_disabled":false,"rental_uris":{"android":"levelo://app?vid=81ef362d-2607-4495-a4cc-41aaceb9066a","ios":"levelo://app?vid=81ef362d-2607-4495-a4cc-41aaceb9066a"},"vehicle_type_id":"4","last_reported":1752664183,"current_range_meters":20800,"station_id":"ce4bh9p2rcd13ifvqed0","pricing_plan_id":"cebpf4jnsgd1na2vs0mg"},{"bike_id":"38264f39-519e-431d-a8e7-327e430cfc9f","system_id":"levelo_inurba_marseille","lat":43.255273,"lon":5.37276,"is_reserved":false,"is_disabled":false,"rental_uris":{"android":"levelo://app?vid=38264f39-519e-431d-a8e7-327e430cfc9f","ios":"levelo://app?vid=38264f39-519e-431d-a8e7-327e430cfc9f"},"vehicle_type_id":"4","last_reported":1752664183,"current_range_meters":20800,"station_id":"","pricing_plan_id":"cebpf4jnsgd1na2vs0mg"},{"bike_id":"7e5466eb-e538-4487-a9fc-27a4444ad3c1","system_id":"levelo_inurba_marseille","lat":43.21738,"lon":5.34621,"is_reserved":false,"is_disabled":false,"rental_uris":{"android":"levelo://app?vid=7e5466eb-e538-4487-a9fc-27a4444ad3c1","ios":"levelo://app?vid=7e5466eb-e538-4487-a9fc-27a4444ad3c1"},"vehicle_type_id":"4","last_reported":1752664183,"current_range_meters":20800,"station_id":"st_cvj6r9ubvosntc0bgbag","pricing_plan_id":"cebpf4jnsgd1na2vs0mg"},{"bike_id":"e706c0fb-54a0-4328-8e36-914401fd45e2","system_id":"levelo_inurba_marseille","lat":43.2175,"lon":5.34603,"is_reserved":false,"is_disabled":false,"rental_uris":{"android":"levelo://app?vid=e706c0fb-54a0-4328-8e36-914401fd45e2","ios":"levelo://app?vid=e706c0fb-54a0-4328-8e36-914401fd45e2"},"vehicle_type_id":"4","last_reported":1752664183,"current_range_meters":20800,"station_id":"st_cvj6r9ubvosntc0bgbag","pricing_plan_id":"cebpf4jnsgd1na2vs0mg"},{"bike_id":"d86e042e-56fd-487c-96a6-26a36739701a","system_id":"levelo_inurba_marseille","lat":43.29561,"lon":5.42302,"is_reserved":false,"is_disabled":false,"rental_uris":{"android":"levelo://app?vid=d86e042e-56fd-487c-96a6-26a36739701a","ios":"levelo://app?vid=d86e042e-56fd-487c-96a6-26a36739701a"},"vehicle_type_id":"4","last_reported":1752664183,"current_range_meters":20800,"station_id":"ce4bhph2rcd13ifvqhdg","pricing_plan_id":"cebpf4jnsgd1na2vs0mg"},{"bike_id":"81f88721-00d0-431c-83bf-446e11578408","system_id":"levelo_inurba_marseille","lat":43.22498,"lon":5.34777,"is_reserved":false,"is_disabled":false,"rental_uris":{"android":"levelo://app?vid=81f88721-00d0-431c-83bf-446e11578408","ios":"levelo://app?vid=81f88721-00d0-431c-83bf-446e11578408"},"vehicle_type_id":"4","last_reported":1752664183,"current_range_meters":20800,"station_id":"st_cvj5dfep6f1abm77gieg","pricing_plan_id":"cebpf4jnsgd1na2vs0mg"},{"bike_id":"dd2dc8a3-a276-4710-a199-3e90d5e5f60b","system_id":"levelo_inurba_marseille","lat":43.24752,"lon":5.41212,"is_reserved":false,"is_disabled":false,"rental_uris":{"android":"levelo://app?vid=dd2dc8a3-a276-4710-a199-3e90d5e5f60b","ios":"levelo://app?vid=dd2dc8a3-a276-4710-a199-3e90d5e5f60b"},"vehicle_type_id":"4","last_reported":1752664183,"current_range_meters":21600,"station_id":"","pricing_plan_id":"cebpf4jnsgd1na2vs0mg"},{"bike_id":"0abd5924-d270-4785-83b1-83c078342c19","system_id":"levelo_inurba_marseille","lat":43.269562,"lon":5.38628,"is_reserved":false,"is_disabled":false,"rental_uris":{"android":"levelo://app?vid=0abd5924-d270-4785-83b1-83c078342c19","ios":"levelo://app?vid=0abd5924-d270-4785-83b1-83c078342c19"},"vehicle_type_id":"4","last_reported":1752664183,"current_range_meters":20800,"station_id":"ce4bhh92rcd13ifvqfh0","pricing_plan_id":"cebpf4jnsgd1na2vs0mg"},{"bike_id":"a75d2eae-2284-4a25-8af0-ebc4b5fb32ca","system_id":"levelo_inurba_marseille","lat":43.21747,"lon":5.346,"is_reserved":false,"is_disabled":false,"rental_uris":{"android":"levelo://app?vid=a75d2eae-2284-4a25-8af0-ebc4b5fb32ca","ios":"levelo://app?vid=a75d2eae-2284-4a25-8af0-ebc4b5fb32ca"},"vehicle_type_id":"4","last_reported":1752664183,"current_range_meters":21600,"station_id":"st_cvj6r9ubvosntc0bgbag","pricing_plan_id":"cebpf4jnsgd1na2vs0mg"},{"bike_id":"8dc5c4ef-31df-4b7e-8a98-9c226d5ddbfe","system_id":"levelo_inurba_marseille","lat":43.26195,"lon":5.37449,"is_reserved":false,"is_disabled":false,"rental_uris":{"android":"levelo://app?vid=8dc5c4ef-31df-4b7e-8a98-9c226d5ddbfe","ios":"levelo://app?vid=8dc5c4ef-31df-4b7e-8a98-9c226d5ddbfe"},"vehicle_type_id":"4","last_reported":1752664183,"current_range_meters":21600,"station_id":"ce4bhgp2rcd13ifvqfc0","pricing_plan_id":"cebpf4jnsgd1na2vs0mg"},{"bike_id":"1c807684-63cc-4a73-81c2-4e7a1b1b87f8","system_id":"levelo_inurba_marseille","lat":43.30532,"lon":5.3656,"is_reserved":false,"is_disabled":false,"rental_uris":{"android":"levelo://app?vid=1c807684-63cc-4a73-81c2-4e7a1b1b87f8","ios":"levelo://app?vid=1c807684-63cc-4a73-81c2-4e7a1b1b87f8"},"vehicle_type_id":"4","last_reported":1752664183,"current_range_meters":21600,"station_id":"ce4bgs12rcd13ifvqcag","pricing_plan_id":"cebpf4jnsgd1na2vs0mg"},{"bike_id":"a092d05c-8017-44f5-ba8a-35792463d6a3","system_id":"levelo_inurba_marseille","lat":43.22505,"lon":5.34776,"is_reserved":false,"is_disabled":false,"rental_uris":{"android":"levelo://app?vid=a092d05c-8017-44f5-ba8a-35792463d6a3","ios":"levelo://app?vid=a092d05c-8017-44f5-ba8a-35792463d6a3"},"vehicle_type_id":"4","last_reported":1752664183,"current_range_meters":21600,"station_id":"st_cvj5dfep6f1abm77gieg","pricing_plan_id":"cebpf4jnsgd1na2vs0mg"},{"bike_id":"57c8b94e-b878-438a-b722-fd6a8c3aafce","system_id":"levelo_inurba_marseille","lat":43.30948,"lon":5.3903,"is_reserved":false,"is_disabled":false,"rental_uris":{"android":"levelo://app?vid=57c8b94e-b878-438a-b722-fd6a8c3aafce","ios":"levelo://app?vid=57c8b94e-b878-438a-b722-fd6a8c3aafce"},"vehicle_type_id":"4","last_reported":1752664183,"current_range_meters":22000,"station_id":"ce4bgup2rcd13ifvqco0","pricing_plan_id":"cebpf4jnsgd1na2vs0mg"},{"bike_id":"d488f4cf-7b44-4db3-8084-bb5a87b292fc","system_id":"levelo_inurba_marseille","lat":43.21743,"lon":5.34608,"is_reserved":false,"is_disabled":false,"rental_uris":{"android":"levelo://app?vid=d488f4cf-7b44-4db3-8084-bb5a87b292fc","ios":"levelo://app?vid=d488f4cf-7b44-4db3-8084-bb5a87b292fc"},"vehicle_type_id":"4","last_reported":1752664183,"current_range_meters":21600,"station_id":"st_cvj6r9ubvosntc0bgbag","pricing_plan_id":"cebpf4jnsgd1na2vs0mg"},{"bike_id":"eadfea8b-7f5e-490b-b2dd-cf86c986f4d0","system_id":"levelo_inurba_marseille","lat":43.27055,"lon":5.40259,"is_reserved":false,"is_disabled":false,"rental_uris":{"android":"levelo://app?vid=eadfea8b-7f5e-490b-b2dd-cf86c986f4d0","ios":"levelo://app?vid=eadfea8b-7f5e-490b-b2dd-cf86c986f4d0"},"vehicle_type_id":"4","last_reported":1752664183,"current_range_meters":21600,"station_id":"ce4bhk92rcd13ifvqgc0","pricing_plan_id":"cebpf4jnsgd1na2vs0mg"},{"bike_id":"b9c4696c-b85f-4b94-a99b-ec602e212c0d","system_id":"levelo_inurba_marseille","lat":43.29714,"lon":5.37699,"is_reserved":false,"is_disabled":false,"rental_uris":{"android":"levelo://app?vid=b9c4696c-b85f-4b94-a99b-ec602e212c0d","ios":"levelo://app?vid=b9c4696c-b85f-4b94-a99b-ec602e212c0d"},"vehicle_type_id":"4","last_reported":1752664183,"current_range_meters":21600,"station_id":"ce4bgkh2rcd13ifvqbl0","pricing_plan_id":"cebpf4jnsgd1na2vs0mg"},{"bike_id":"9b1df416-86b6-45b4-bbea-bad5fe92b6bb","system_id":"levelo_inurba_marseille","lat":43.29923,"lon":5.37495,"is_reserved":false,"is_disabled":false,"rental_uris":{"android":"levelo://app?vid=9b1df416-86b6-45b4-bbea-bad5fe92b6bb","ios":"levelo://app?vid=9b1df416-86b6-45b4-bbea-bad5fe92b6bb"},"vehicle_type_id":"4","last_reported":1752664183,"current_range_meters":21600,"station_id":"ce4bgjh2rcd13ifvqbg0","pricing_plan_id":"cebpf4jnsgd1na2vs0mg"},