{"last_updated":1744042281,"ttl":60,"version":"2.2","data":{"bikes":[{"bike_id":"e734f9e8-b140-46d2-b3bc-03b458413806","system_id":"levelo_inurba_marseille","lat":43.27052,"lon":5.40261,"is_reserved":false,"is_disabled":false,"rental_uris":{"android":"levelo://app?vid=e734f9e8-b140-46d2-b3bc-03b458413806","ios":"levelo://app?vid=e734f9e8-b140-46d2-b3bc-03b458413806"},"vehicle_type_id":"4","last_reported":1744042281,"current_range_meters":3200,"station_id":"ce4bhk92rcd13ifvqgc0","pricing_plan_id":"cebpf4jnsgd1na2vs0mg"},{"bike_id":"9cffca19-a1fc-49fa-b7f1-4fd87d3862e1","system_id":"levelo_inurba_marseille","lat":43.27951,"lon":5.41044,"is_reserved":false,"is_disabled":false,"rental_uris":{"android":"levelo://app?vid=9cffca19-a1fc-49fa-b7f1-4fd87d3862e1","ios":"levelo://app?vid=9cffca19-a1fc-49fa-b7f1-4fd87d3862e1"},"vehicle_type_id":"4","last_reported":1744042281,"current_range_meters":3200,"station_id":"ce4bhnp2rcd13ifvqh0g","pricing_plan_id":"cebpf4jnsgd1na2vs0mg"},{"bike_id":"1132a59f-5d35-4ec4-ac16-f3ad4131718c","system_id":"levelo_inurba_marseille","lat":43.274229,"lon":5.394207,"is_reserved":false,"is_disabled":false,"rental_uris":{"android":"levelo://app?vid=1132a59f-5d35-4ec4-ac16-f3ad4131718c","ios":"levelo://app?vid=1132a59f-5d35-4ec4-ac16-f3ad4131718c"},"vehicle_type_id":"4","last_reported":1744042281,"current_range_meters":3600,"station_id":"ce4bhdp2rcd13ifvqf20","pricing_plan_id":"cebpf4jnsgd1na2vs0mg"},{"bike_id":"603fa893-aefd-451f-8f9c-760cb9a8e23f","system_id":"levelo_inurba_marseille","lat":43.29264,"lon":5.36842,"is_reserved":false,"is_disabled":false,"rental_uris":{"android":"levelo://app?vid=603fa893-aefd-451f-8f9c-760cb9a8e23f","ios":"levelo://app?vid=603fa893-aefd-451f-8f9c-760cb9a8e23f"},"vehicle_type_id":"4","last_reported":1744042281,"current_range_meters":3200,"station_id":"ce4bhbp2rcd13ifvqesg","pricing_plan_id":"cebpf4jnsgd1na2vs0mg"},{"bike_id":"eb79d1f9-7c91-4ea2-b5f8-796189743e1a","system_id":"levelo_inurba_marseille","lat":43.34268,"lon":5.38114,"is_reserved":false,"is_disabled":false,"rental_uris":{"android":"levelo://app?vid=eb79d1f9-7c91-4ea2-b5f8-796189743e1a","ios":"levelo://app?vid=eb79d1f9-7c91-4ea2-b5f8-796189743e1a"},"vehicle_type_id":"4","last_reported":1744042281,"current_range_meters":3600,"station_id":"","pricing_plan_id":"cebpf4jnsgd1na2vs0mg"},{"bike_id":"46aaf249-f504-46ae-93ce-7245839b78b5","system_id":"levelo_inurba_marseille","lat":43.26216,"lon":5.37937,"is_reserved":false,"is_disabled":true,"rental_uris":{"android":"levelo://app?vid=46aaf249-f504-46ae-93ce-7245839b78b5","ios":"levelo://app?vid=46aaf249-f504-46ae-93ce-7245839b78b5"},"vehicle_type_id":"4","last_reported":1744042281,"current_range_meters":3600,"station_id":"ce4bhjp2rcd13ifvqg90","pricing_plan_id":"cebpf4jnsgd1na2vs0mg"},{"bike_id":"effb394a-6f6a-43a6-a303-7b4a3b50ef5c","system_id":"levelo_inurba_marseille","lat":43.30637,"lon":5.4009,"is_reserved":false,"is_disabled":false,"rental_uris":{"android":"levelo://app?vid=effb394a-6f6a-43a6-a303-7b4a3b50ef5c","ios":"levelo://app?vid=effb394a-6f6a-43a6-a303-7b4a3b50ef5c"},"vehicle_type_id":"4","last_reported":1744042281,"current_range_meters":3600,"station_id":"ce4bh112rcd13ifvqda0","pricing_plan_id":"cebpf4jnsgd1na2vs0mg"},{"bike_id":"4ff2e62f-518d-40ca-b03f-5ccd9808bb4f","system_id":"levelo_inurba_marseille","lat":43.2508,"lon":5.39502,"is_reserved":false,"is_disabled":false,"rental_uris":{"android":"levelo://app?vid=4ff2e62f-518d-40ca-b03f-5ccd9808bb4f","ios":"levelo://app?vid=4ff2e62f-518d-40ca-b03f-5ccd9808bb4f"},"vehicle_type_id":"4","last_reported":1744042281,"current_range_meters":4000,"station_id":"ce4bhm12rcd13ifvqgkg","pricing_plan_id":"cebpf4jnsgd1na2vs0mg"},{"bike_id":"77b73f6a-0a8c-4191-b2fb-66e9c2b5287a","system_id":"levelo_inurba_marseille","lat":43.29035,"lon":5.38647,"is_reserved":false,"is_disabled":false,"rental_uris":{"android":"levelo://app?vid=77b73f6a-0a8c-4191-b2fb-66e9c2b5287a","ios":"levelo://app?vid=77b73f6a-0a8c-4191-b2fb-66e9c2b5287a"},"vehicle_type_id":"4","last_reported":1744042281,"current_range_meters":4400,"station_id":"ce4bh4p2rcd13ifvqe0g","pricing_plan_id":"cebpf4jnsgd1na2vs0mg"},{"bike_id":"a386161c-a8cb-4e6d-bfff-4cc5b1c32fbb","system_id":"levelo_inurba_marseille","lat":43.29964,"lon":5.38485,"is_reserved":false,"is_disabled":false,"rental_uris":{"android":"levelo://app?vid=a386161c-a8cb-4e6d-bfff-4cc5b1c32fbb","ios":"levelo://app?vid=a386161c-a8cb-4e6d-bfff-4cc5b1c32fbb"},"vehicle_type_id":"4","last_reported":1744042281,"current_range_meters":4400,"station_id":"ce4bgj92rcd13ifvqbd0","pricing_plan_id":"cebpf4jnsgd1na2vs0mg"},{"bike_id":"d8f246d4-63b0-40ac-97f8-ab32d9b8478c","system_id":"levelo_inurba_marseille","lat":43.27371,"lon":5.36258,"is_reserved":false,"is_disabled":false,"rental_uris":{"android":"levelo://app?vid=d8f246d4-63b0-40ac-97f8-ab32d9b8478c","ios":"levelo://app?vid=d8f246d4-63b0-40ac-97f8-ab32d9b8478c"},"vehicle_type_id":"4","last_reported":1744042281,"current_range_meters":4400,"station_id":"ce4bhbh2rcd13ifvqeo0","pricing_plan_id":"cebpf4jnsgd1na2vs0mg"},{"bike_id":"7f1f7af9-65ba-4c97-9f3f-d44a07cc2ba4","system_id":"levelo_inurba_marseille","lat":43.26568,"lon":5.3901,"is_reserved":false,"is_disabled":false,"rental_uris":{"android":"levelo://app?vid=7f1f7af9-65ba-4c97-9f3f-d44a07cc2ba4","ios":"levelo://app?vid=7f1f7af9-65ba-4c97-9f3f-d44a07cc2ba4"},"vehicle_type_id":"4","last_reported":1744042281,"current_range_meters":4400,"station_id":"ce4bhe12rcd13ifvqf30","pricing_plan_id":"cebpf4jnsgd1na2vs0mg"},{"bike_id":"253aa6a1-7718-4643-8159-b715778c6a0e","system_id":"levelo_inurba_marseille","lat":43.29226,"lon":5.36073,"is_reserved":false,"is_disabled":false,"rental_uris":{"android":"levelo://app?vid=253aa6a1-7718-4643-8159-b715778c6a0e","ios":"levelo://app?vid=253aa6a1-7718-4643-8159-b715778c6a0e"},"vehicle_type_id":"4","last_reported":1744042281,"current_range_meters":4800,"station_id":"ce4bhbh2rcd13ifvqeqg","pricing_plan_id":"cebpf4jnsgd1na2vs0mg"},{"bike_id":"acdfee37-002f-4470-b167-8a4fd9c6108a","system_id":"levelo_inurba_marseille","lat":43.27817,"lon":5.40727,"is_reserved":false,"is_disabled":false,"rental_uris":{"android":"levelo://app?vid=acdfee37-002f-4470-b167-8a4fd9c6108a","ios":"levelo://app?vid=acdfee37-002f-4470-b167-8a4fd9c6108a"},"vehicle_type_id":"4","last_reported":1744042281,"current_range_meters":4400,"station_id":"ce4bhnh2rcd13ifvqgtg","pricing_plan_id":"cebpf4jnsgd1na2vs0mg"},{"bike_id":"35fc85b3-4156-4a14-844b-da1f5f82374a","system_id":"levelo_inurba_marseille","lat":43.27498,"lon":5.42453,"is_reserved":false,"is_disabled":false,"rental_uris":{"android":"levelo://app?vid=35fc85b3-4156-4a14-844b-da1f5f82374a","ios":"levelo://app?vid=35fc85b3-4156-4a14-844b-da1f5f82374a"},"vehicle_type_id":"4","last_reported":1744042281,"current_range_meters":4400,"station_id":"ce4bhn92rcd13ifvqgrg","pricing_plan_id":"cebpf4jnsgd1na2vs0mg"},{"bike_id":"85b683eb-595c-4dee-b52e-de3f65d2b351","system_id":"levelo_inurba_marseille","lat":43.286582,"lon":5.386643,"is_reserved":false,"is_disabled":false,"rental_uris":{"android":"levelo://app?vid=85b683eb-595c-4dee-b52e-de3f65d2b351","ios":"levelo://app?vid=85b683eb-595c-4dee-b52e-de3f65d2b351"},"vehicle_type_id":"4","last_reported":1744042281,"current_range_meters":4400,"station_id":"ce4bh492rcd13ifvqdug","pricing_plan_id":"cebpf4jnsgd1na2vs0mg"},{"bike_id":"41444f48-6000-4516-97b1-95c02db07fd3","system_id":"levelo_inurba_marseille","lat":43.28476,"lon":5.38409,"is_reserved":false,"is_disabled":false,"rental_uris":{"android":"levelo://app?vid=41444f48-6000-4516-97b1-95c02db07fd3","ios":"levelo://app?vid=41444f48-6000-4516-97b1-95c02db07fd3"},"vehicle_type_id":"4","last_reported":1744042281,"current_range_meters":4800,"station_id":"ce4bh512rcd13ifvqe3g","pricing_plan_id":"cebpf4jnsgd1na2vs0mg"},{"bike_id":"6e285dc1-b262-45b6-a07e-a7d46225b6bb","system_id":"levelo_inurba_marseille","lat":43.29531,"lon":5.38535,"is_reserved":false,"is_disabled":false,"rental_uris":{"android":"levelo://app?vid=6e285dc1-b262-45b6-a07e-a7d46225b6bb","ios":"levelo://app?vid=6e285dc1-b262-45b6-a07e-a7d46225b6bb"},"vehicle_type_id":"4","last_reported":1744042281,"current_range_meters":4800,"station_id":"ce4bgih2rcd13ifvqba0","pricing_plan_id":"cebpf4jnsgd1na2vs0mg"},{"bike_id":"6e3786a5-1cd1-4065-b487-bcd2b1af3b8e","system_id":"levelo_inurba_marseille","lat":43.29095,"lon":5.38139,"is_reserved":false,"is_disabled":false,"rental_uris":{"android":"levelo://app?vid=6e3786a5-1cd1-4065-b487-bcd2b1af3b8e","ios":"levelo://app?vid=6e3786a5-1cd1-4065-b487-bcd2b1af3b8e"},"vehicle_type_id":"4","last_reported":1744042281,"current_range_meters":4400,"station_id":"ce4bh512rcd13ifvqe2g","pricing_plan_id":"cebpf4jnsgd1na2vs0mg"},{"bike_id":"8f3620f2-26a0-4a2b-ac92-ecc0180c728d","system_id":"levelo_inurba_marseille","lat":43.241801,"lon":5.397355,"is_reserved":false,"is_disabled":false,"rental_uris":{"android":"levelo://app?vid=8f3620f2-26a0-4a2b-ac92-ecc0180c728d","ios":"levelo://app?vid=8f3620f2-26a0-4a2b-ac92-ecc0180c728d"},"vehicle_type_id":"4","last_reported":1744042281,"current_range_meters":4800,"station_id":"ce4bhn12rcd13ifvqgpg","pricing_plan_id":"cebpf4jnsgd1na2vs0mg"},{"bike_id":"c3c98c30-a2db-4f8c-b8ac-93bd647490ba","system_id":"levelo_inurba_marseille","lat":43.27077,"lon":5.40262,"is_reserved":false,"is_disabled":false,"rental_uris":{"android":"levelo://app?vid=c3c98c30-a2db-4f8c-b8ac-93bd647490ba","ios":"levelo://app?vid=c3c98c30-a2db-4f8c-b8ac-93bd647490ba"},"vehicle_type_id":"4","last_reported":1744042281,"current_range_meters":5600,"station_id":"ce4bhk92rcd13ifvqgc0","pricing_plan_id":"cebpf4jnsgd1na2vs0mg"},{"bike_id":"bd3e3154-c0bf-460d-93aa-85f4a3a795ca","system_id":"levelo_inurba_marseille","lat":43.26588,"lon":5.3902,"is_reserved":false,"is_disabled":false,"rental_uris":{"android":"levelo://app?vid=bd3e3154-c0bf-460d-93aa-85f4a3a795ca","ios":"levelo://app?vid=bd3e3154-c0bf-460d-93aa-85f4a3a795ca"},"vehicle_type_id":"4","last_reported":1744042281,"current_range_meters":5600,"station_id":"ce4bhe12rcd13ifvqf30","pricing_plan_id":"cebpf4jnsgd1na2vs0mg"},{"bike_id":"fbeacd83-4676-4795-9b3b-233a475c3d99","system_id":"levelo_inurba_marseille","lat":43.24083,"lon":5.37754,"is_reserved":false,"is_disabled":false,"rental_uris":{"android":"levelo://app?vid=fbeacd83-4676-4795-9b3b-233a475c3d99","ios":"levelo://app?vid=fbeacd83-4676-4795-9b3b-233a475c3d99"},"vehicle_type_id":"4","last_reported":1744042281,"current_range_meters":5600,"station_id":"ce4bhnp2rcd13ifvqgvg","pricing_plan_id":"cebpf4jnsgd1na2vs0mg"},{"bike_id":"fb6acf77-1e74-4888-b654-d015099aa74e","system_id":"levelo_inurba_marseille","lat":43.289368,"lon":5.366459,"is_reserved":false,"is_disabled":false,"rental_uris":{"android":"levelo://app?vid=fb6acf77-1e74-4888-b654-d015099aa74e","ios":"levelo://app?vid=fb6acf77-1e74-4888-b654-d015099aa74e"},"vehicle_type_id":"4","last_reported":1744042281,"current_range_meters":6000,"station_id":"ce4bhap2rcd13ifvqek0","pricing_plan_id":"cebpf4jnsgd1na2vs0mg"},{"bike_id":"d4912712-bf8f-407d-98ad-04b0b21f3bc0","system_id":"levelo_inurba_marseille","lat":43.25489,"lon":5.37655,"is_reserved":false,"is_disabled":false,"rental_uris":{"android":"levelo://app?vid=d4912712-bf8f-407d-98ad-04b0b21f3bc0","ios":"levelo://app?vid=d4912712-bf8f-407d-98ad-04b0b21f3bc0"},"vehicle_type_id":"4","last_reported":1744042281,"current_range_meters":6400,"station_id":"ce4bhh12rcd13ifvqff0","pricing_plan_id":"cebpf4jnsgd1na2vs0mg"},{"bike_id":"c2203637-bcb7-40e6-8fbc-f28333db97e5","system_id":"levelo_inurba_marseille","lat":43.297902,"lon":5.393589,"is_reserved":false,"is_disabled":false,"rental_uris":{"android":"levelo://app?vid=c2203637-bcb7-40e6-8fbc-f28333db97e5","ios":"levelo://app?vid=c2203637-bcb7-40e6-8fbc-f28333db97e5"},"vehicle_type_id":"4","last_reported":1744042281,"current_range_meters":6400,"station_id":"chh1huq6cuj3fo74tm60","pricing_plan_id":"cebpf4jnsgd1na2vs0mg"},{"bike_id":"f1593b43-203f-454d-a9e1-98d1ec2c7e67","system_id":"levelo_inurba_marseille","lat":43.265615,"lon":5.390101,"is_reserved":false,"is_disabled":false,"rental_uris":{"android":"levelo://app?vid=f1593b43-203f-454d-a9e1-98d1ec2c7e67","ios":"levelo://app?vid=f1593b43-203f-454d-a9e1-98d1ec2c7e67"},"vehicle_type_id":"4","last_reported":1744042281,"current_range_meters":6400,"station_id":"ce4bhe12rcd13ifvqf30","pricing_plan_id":"cebpf4jnsgd1na2vs0mg"},{"bike_id":"fc6f1787-ef17-4714-be86-e34cfef9ef76","system_id":"levelo_inurba_marseille","lat":43.27068,"lon":5.42283,"is_reserved":false,"is_disabled":false,"rental_uris":{"android":"levelo://app?vid=fc6f1787-ef17-4714-be86-e34cfef9ef76","ios":"levelo://app?vid=fc6f1787-ef17-4714-be86-e34cfef9ef76"},"vehicle_type_id":"4","last_reported":1744042281,"current_range_meters":6400,"station_id":"ce4bhk92rcd13ifvqgb0","pricing_plan_id":"cebpf4jnsgd1na2vs0mg"},{"bike_id":"3222b3d3-c66c-4976-83ba-f30a2aa37774","system_id":"levelo_inurba_marseille","lat":43.29975,"lon":5.38492,"is_reserved":false,"is_disabled":false,"rental_uris":{"android":"levelo://app?vid=3222b3d3-c66c-4976-83ba-f30a2aa37774","ios":"levelo://app?vid=3222b3d3-c66c-4976-83ba-f30a2aa37774"},"vehicle_type_id":"4","last_reported":1744042281,"current_range_meters":6400,"station_id":"ce4bgj92rcd13ifvqbd0","pricing_plan_id":"cebpf4jnsgd1na2vs0mg"},{"bike_id":"dd77f6f2-028c-4414-a76d-819f56cfa9b1","system_id":"levelo_inurba_marseille","lat":43.28933,"lon":5.36643,"is_reserved":false,"is_disabled":false,"rental_uris":{"android":"levelo://app?vid=dd77f6f2-028c-4414-a76d-819f56cfa9b1","ios":"levelo://app?vid=dd77f6f2-028c-4414-a76d-819f56cfa9b1"},"vehicle_type_id":"4","last_reported":1744042281,"current_range_meters":6400,"station_id":"ce4bhap2rcd13ifvqek0","pricing_plan_id":"cebpf4jnsgd1na2vs0mg"},{"bike_id":"b98f4f26-cc45-47eb-a557-13d3c458296a","system_id":"levelo_inurba_marseille","lat":43.27052,"lon":5.40258,"is_reserved":false,"is_disabled":false,"rental_uris":{"android":"levelo://app?vid=b98f4f26-cc45-47eb-a557-13d3c458296a","ios":"levelo://app?vid=b98f4f26-cc45-47eb-a557-13d3c458296a"},"vehicle_type_id":"4","last_reported":1744042281,"current_range_meters":6400,"station_id":"ce4bhk92rcd13ifvqgc0","pricing_plan_id":"cebpf4jnsgd1na2vs0mg"},{"bike_id":"0ba6f5f6-5905-4d82-8ecc-5dcc8f69c604","system_id":"levelo_inurba_marseille","lat":43.28565,"lon":5.39496,"is_reserved":false,"is_disabled":false,"rental_uris":{"android":"levelo://app?vid=0ba6f5f6-5905-4d82-8ecc-5dcc8f69c604","ios":"levelo://app?vid=0ba6f5f6-5905-4d82-8ecc-5dcc8f69c604"},"vehicle_type_id":"4","last_reported":1744042281,"current_range_meters":6800,"station_id":"ce4bh292rcd13ifvqdg0","pricing_plan_id":"cebpf4jnsgd1na2vs0mg"},{"bike_id":"00393ee2-317d-4e98-a30d-fd25773ef49f","system_id":"levelo_inurba_marseille","lat":43.35213,"lon":5.35797,"is_reserved":false,"is_disabled":false,"rental_uris":{"android":"levelo://app?vid=00393ee2-317d-4e98-a30d-fd25773ef49f","ios":"levelo://app?vid=00393ee2-317d-4e98-a30d-fd25773ef49f"},"vehicle_type_id":"4","last_reported":1744042281,"current_range_meters":6800,"station_id":"","pricing_plan_id":"cebpf4jnsgd1na2vs0mg"},{"bike_id":"fb952316-97a0-43ff-90ce-36496dae1dd5","system_id":"levelo_inurba_marseille","lat":43.27944,"lon":5.41048,"is_reserved":false,"is_disabled":false,"rental_uris":{"android":"levelo://app?vid=fb952316-97a0-43ff-90ce-36496dae1dd5","ios":"levelo://app?vid=fb952316-97a0-43ff-90ce-36496dae1dd5"},"vehicle_type_id":"4","last_reported":1744042281,"current_range_meters":6800,"station_id":"ce4bhnp2rcd13ifvqh0g","pricing_plan_id":"cebpf4jnsgd1na2vs0mg"},{"bike_id":"aba5e844-f429-4fca-8fbd-34616f5265a2","system_id":"levelo_inurba_marseille","lat":43.28167,"lon":5.42632,"is_reserved":false,"is_disabled":false,"rental_uris":{"android":"levelo://app?vid=aba5e844-f429-4fca-8fbd-34616f5265a2","ios":"levelo://app?vid=aba5e844-f429-4fca-8fbd-34616f5265a2"},"vehicle_type_id":"4","last_reported":1744042281,"current_range_meters":6800,"station_id":"ce4bhnh2rcd13ifvqgug","pricing_plan_id":"cebpf4jnsgd1na2vs0mg"},{"bike_id":"4a6ebe98-81a0-4208-980c-3d5fd9f1da2c","system_id":"levelo_inurba_marseille","lat":43.26195,"lon":5.37935,"is_reserved":false,"is_disabled":false,"rental_uris":{"android":"levelo://app?vid=4a6ebe98-81a0-4208-980c-3d5fd9f1da2c","ios":"levelo://app?vid=4a6ebe98-81a0-4208-980c-3d5fd9f1da2c"},"vehicle_type_id":"4","last_reported":1744042281,"current_range_meters":6800,"station_id":"ce4bhjp2rcd13ifvqg90","pricing_plan_id":"cebpf4jnsgd1na2vs0mg"},{"bike_id":"7c49e682-e77e-4b13-b7aa-05698060056c","system_id":"levelo_inurba_marseille","lat":43.28843,"lon":5.35847,"is_reserved":false,"is_disabled":false,"rental_uris":{"android":"levelo://app?vid=7c49e682-e77e-4b13-b7aa-05698060056c","ios":"levelo://app?vid=7c49e682-e77e-4b13-b7aa-05698060056c"},"vehicle_type_id":"4","last_reported":1744042281,"current_range_meters":6800,"station_id":"ce4bhb12rcd13ifvqem0","pricing_plan_id":"cebpf4jnsgd1na2vs0mg"},{"bike_id":"136b6e45-ee21-453e-aa22-e07947db9071","system_id":"levelo_inurba_marseille","lat":43.23154,"lon":5.436965,"is_reserved":false,"is_disabled":true,"rental_uris":{"android":"levelo://app?vid=136b6e45-ee21-453e-aa22-e07947db9071","ios":"levelo://app?vid=136b6e45-ee21-453e-aa22-e07947db9071"},"vehicle_type_id":"4","last_reported":1744042281,"current_range_meters":6800,"station_id":"ce4bhmp2rcd13ifvqgog","pricing_plan_id":"cebpf4jnsgd1na2vs0mg"},{"bike_id":"e8f2ce53-a3df-4254-848a-d0546cf4507b","system_id":"levelo_inurba_marseille","lat":43.28667,"lon":5.36354,"is_reserved":false,"is_disabled":false,"rental_uris":{"android":"levelo://app?vid=e8f2ce53-a3df-4254-848a-d0546cf4507b","ios":"levelo://app?vid=e8f2ce53-a3df-4254-848a-d0546cf4507b"},"vehicle_type_id":"4","last_reported":1744042281,"current_range_meters":7200,"station_id":"ce4bhah2rcd13ifvqej0","pricing_plan_id":"cebpf4jnsgd1na2vs0mg"},{"bike_id":"351b921a-1463-4cf6-859d-ca5bd51a6e76","system_id":"levelo_inurba_marseille","lat":43.317901,"lon":5.367991,"is_reserved":false,"is_disabled":false,"rental_uris":{"android":"levelo://app?vid=351b921a-1463-4cf6-859d-ca5bd51a6e76","ios":"levelo://app?vid=351b921a-1463-4cf6-859d-ca5bd51a6e76"},"vehicle_type_id":"4","last_reported":1744042281,"current_range_meters":7200,"station_id":"","pricing_plan_id":"cebpf4jnsgd1na2vs0mg"},{"bike_id":"d66890eb-a849-4361-8afb-8574c3836f73","system_id":"levelo_inurba_marseille","lat":43.26074,"lon":5.38711,"is_reserved":false,"is_disabled":false,"rental_uris":{"android":"levelo://app?vid=d66890eb-a849-4361-8afb-8574c3836f73","ios":"levelo://app?vid=d66890eb-a849-4361-8afb-8574c3836f73"},"vehicle_type_id":"4","last_reported":1744042281,"current_range_meters":7200,"station_id":"","pricing_plan_id":"cebpf4jnsgd1na2vs0mg"},{"bike_id":"4b5a7bee-dc3e-4f8e-851a-9d87e11b5675","system_id":"levelo_inurba_marseille","lat":43.28722,"lon":5.36089,"is_reserved":false,"is_disabled":false,"rental_uris":{"android":"levelo://app?vid=4b5a7bee-dc3e-4f8e-851a-9d87e11b5675","ios":"levelo://app?vid=4b5a7bee-dc3e-4f8e-851a-9d87e11b5675"},"vehicle_type_id":"4","last_reported":1744042281,"current_range_meters":8000,"station_id":"cki0cbj6b192h4jlfktg","pricing_plan_id":"cebpf4jnsgd1na2vs0mg"},{"bike_id":"945ca753-6c1a-455e-a338-458022d5f1a2","system_id":"levelo_inurba_marseille","lat":43.27943,"lon":5.41053,"is_reserved":false,"is_disabled":false,"rental_uris":{"android":"levelo://app?vid=945ca753-6c1a-455e-a338-458022d5f1a2","ios":"levelo://app?vid=945ca753-6c1a-455e-a338-458022d5f1a2"},"vehicle_type_id":"4","last_reported":1744042281,"current_range_meters":8000,"station_id":"ce4bhnp2rcd13ifvqh0g","pricing_plan_id":"cebpf4jnsgd1na2vs0mg"},{"bike_id":"2e8d1dd1-9f49-4bda-8a2f-654b7665bb8f","system_id":"levelo_inurba_marseille","lat":43.25073,"lon":5.39525,"is_reserved":false,"is_disabled":false,"rental_uris":{"android":"levelo://app?vid=2e8d1dd1-9f49-4bda-8a2f-654b7665bb8f","ios":"levelo://app?vid=2e8d1dd1-9f49-4bda-8a2f-654b7665bb8f"},"vehicle_type_id":"4","last_reported":1744042281,"current_range_meters":8000,"station_id":"ce4bhm12rcd13ifvqgkg","pricing_plan_id":"cebpf4jnsgd1na2vs0mg"},{"bike_id":"cd992012-14a3-48af-a952-8ca08fb97024","system_id":"levelo_inurba_marseille","lat":43.29795,"lon":5.3811,"is_reserved":false,"is_disabled":false,"rental_uris":{"android":"levelo://app?vid=cd992012-14a3-48af-a952-8ca08fb97024","ios":"levelo://app?vid=cd992012-14a3-48af-a952-8ca08fb97024"},"vehicle_type_id":"4","last_reported":1744042281,"current_range_meters":5600,"station_id":"ce4bgip2rcd13ifvqbb0","pricing_plan_id":"cebpf4jnsgd1na2vs0mg"},{"bike_id":"c7f769a0-9ae3-4891-a95a-079fb88a4ee7","system_id":"levelo_inurba_marseille","lat":43.25132,"lon":5.40333,"is_reserved":false,"is_disabled":false,"rental_uris":{"android":"levelo://app?vid=c7f769a0-9ae3-4891-a95a-079fb88a4ee7","ios":"levelo://app?vid=c7f769a0-9ae3-4891-a95a-079fb88a4ee7"},"vehicle_type_id":"4","last_reported":1744042281,"current_range_meters":8000,"station_id":"ce4bhlh2rcd13ifvqgig","pricing_plan_id":"cebpf4jnsgd1na2vs0mg"},{"bike_id":"606675f6-9cae-427a-83c9-8a064752327b","system_id":"levelo_inurba_marseille","lat":43.32363,"lon":5.36747,"is_reserved":false,"is_disabled":false,"rental_uris":{"android":"levelo://app?vid=606675f6-9cae-427a-83c9-8a064752327b","ios":"levelo://app?vid=606675f6-9cae-427a-83c9-8a064752327b"},"vehicle_type_id":"4","last_reported":1744042281,"current_range_meters":8000,"station_id":"ce4bhsh2rcd13ifvqi2g","pricing_plan_id":"cebpf4jnsgd1na2vs0mg"},{"bike_id":"760b85de-5509-453b-8eec-362280e5b3cd","system_id":"levelo_inurba_marseille","lat":43.27071,"lon":5.42282,"is_reserved":false,"is_disabled":false,"rental_uris":{"android":"levelo://app?vid=760b85de-5509-453b-8eec-362280e5b3cd","ios":"levelo://app?vid=760b85de-5509-453b-8eec-362280e5b3cd"},"vehicle_type_id":"4","last_reported":1744042281,"current_range_meters":8000,"station_id":"ce4bhk92rcd13ifvqgb0","pricing_plan_id":"cebpf4jnsgd1na2vs0mg"},{"bike_id":"8a38320c-a733-4cf5-8c8e-152497fe8f8f","system_id":"levelo_inurba_marseille","lat":43.281513,"lon":5.426333,"is_reserved":false,"is_disabled":false,"rental_uris":{"android":"levelo://app?vid=8a38320c-a733-4cf5-8c8e-152497fe8f8f","ios":"levelo://app?vid=8a38320c-a733-4cf5-8c8e-152497fe8f8f"},"vehicle_type_id":"4","last_reported":1744042281,"current_range_meters":8400,"station_id":"ce4bhnh2rcd13ifvqgug","pricing_plan_id":"cebpf4jnsgd1na2vs0mg"},{"bike_id":"60a1af44-e1ff-4b4b-aa60-003942616ff8","system_id":"levelo_inurba_marseille","lat":43.280411,"lon":5.369488,"is_reserved":false,"is_disabled":false,"rental_uris":{"android":"levelo://app?vid=60a1af44-e1ff-4b4b-aa60-003942616ff8","ios":"levelo://app?vid=60a1af44-e1ff-4b4b-aa60-003942616ff8"},"vehicle_type_id":"4","last_reported":1744042281,"current_range_meters":8400,"station_id":"ce4bha12rcd13ifvqef0","pricing_plan_id":"cebpf4jnsgd1na2vs0mg"},{"bike_id":"e4889bd7-7635-454c-b516-e22dc061f324","system_id":"levelo_inurba_marseille","lat":43.24811,"lon":5.37456,"is_reserved":false,"is_disabled":false,"rental_uris":{"android":"levelo://app?vid=e4889bd7-7635-454c-b516-e22dc061f324","ios":"levelo://app?vid=e4889bd7-7635-454c-b516-e22dc061f324"},"vehicle_type_id":"4","last_reported":1744042281,"current_range_meters":8400,"station_id":"ce4bhgh2rcd13ifvqfb0","pricing_plan_id":"cebpf4jnsgd1na2vs0mg"},{"bike_id":"49d42c37-2fdc-4f8d-9bf6-5d87fcac8d17","system_id":"levelo_inurba_marseille","lat":43.30317,"lon":5.36913,"is_reserved":false,"is_disabled":false,"rental_uris":{"android":"levelo://app?vid=49d42c37-2fdc-4f8d-9bf6-5d87fcac8d17","ios":"levelo://app?vid=49d42c37-2fdc-4f8d-9bf6-5d87fcac8d17"},"vehicle_type_id":"4","last_reported":1744042281,"current_range_meters":8400,"station_id":"ce4bgqh2rcd13ifvqc5g","pricing_plan_id":"cebpf4jnsgd1na2vs0mg"},{"bike_id":"c3e6d442-6282-4c88-9f90-93d85aff9e76","system_id":"levelo_inurba_marseille","lat":43.28164,"lon":5.42669,"is_reserved":false,"is_disabled":false,"rental_uris":{"android":"levelo://app?vid=c3e6d442-6282-4c88-9f90-93d85aff9e76","ios":"levelo://app?vid=c3e6d442-6282-4c88-9f90-93d85aff9e76"},"vehicle_type_id":"4","last_reported":1744042281,"current_range_meters":8400,"station_id":"ce4bhnh2rcd13ifvqgug","pricing_plan_id":"cebpf4jnsgd1na2vs0mg"},{"bike_id":"516d1131-8d22-4c00-9743-8f8296b9be79","system_id":"levelo_inurba_marseille","lat":43.25482,"lon":5.37649,"is_reserved":false,"is_disabled":true,"rental_uris":{"android":"levelo://app?vid=516d1131-8d22-4c00-9743-8f8296b9be79","ios":"levelo://app?vid=516d1131-8d22-4c00-9743-8f8296b9be79"},"vehicle_type_id":"4","last_reported":1744042281,"current_range_meters":8400,"station_id":"ce4bhh12rcd13ifvqff0","pricing_plan_id":"cebpf4jnsgd1na2vs0mg"},{"bike_id":"b38fb745-eb75-4786-94be-84705d0e4ec7","system_id":"levelo_inurba_marseille","lat":43.27371,"lon":5.36259,"is_reserved":false,"is_disabled":false,"rental_uris":{"android":"levelo://app?vid=b38fb745-eb75-4786-94be-84705d0e4ec7","ios":"levelo://app?vid=b38fb745-eb75-4786-94be-84705d0e4ec7"},"vehicle_type_id":"4","last_reported":1744042281,"current_range_meters":8400,"station_id":"ce4bhbh2rcd13ifvqeo0","pricing_plan_id":"cebpf4jnsgd1na2vs0mg"},{"bike_id":"9088d5e6-b73d-42e8-a162-926f97c6750b","system_id":"levelo_inurba_marseille","lat":43.27063,"lon":5.40254,"is_reserved":false,"is_disabled":false,"rental_uris":{"android":"levelo://app?vid=9088d5e6-b73d-42e8-a162-926f97c6750b","ios":"levelo://app?vid=9088d5e6-b73d-42e8-a162-926f97c6750b"},"vehicle_type_id":"4","last_reported":1744042281,"current_range_meters":8400,"station_id":"ce4bhk92rcd13ifvqgc0","pricing_plan_id":"cebpf4jnsgd1na2vs0mg"},{"bike_id":"55858c94-41a3-482d-978c-86344932de46","system_id":"levelo_inurba_marseille","lat":43.30561,"lon":5.36708,"is_reserved":false,"is_disabled":false,"rental_uris":{"android":"levelo://app?vid=55858c94-41a3-482d-978c-86344932de46","ios":"levelo://app?vid=55858c94-41a3-482d-978c-86344932de46"},"vehicle_type_id":"4","last_reported":1744042281,"current_range_meters":8400,"station_id":"ce4bgrp2rcd13ifvqc9g","pricing_plan_id":"cebpf4jnsgd1na2vs0mg"},{"bike_id":"8028a63d-f481-46ce-aa71-631fe8cc3298","system_id":"levelo_inurba_marseille","lat":43.292671,"lon":5.384471,"is_reserved":false,"is_disabled":false,"rental_uris":{"android":"levelo://app?vid=8028a63d-f481-46ce-aa71-631fe8cc3298","ios":"levelo://app?vid=8028a63d-f481-46ce-aa71-631fe8cc3298"},"vehicle_type_id":"4","last_reported":1744042281,"current_range_meters":8400,"station_id":"ce4bhmp2rcd13ifvqgog","pricing_plan_id":"cebpf4jnsgd1na2vs0mg"},{"bike_id":"3a6cf4dd-4a04-48a6-bbfb-6b1ea18759b5","system_id":"levelo_inurba_marseille","lat":43.32355,"lon":5.36776,"is_reserved":false,"is_disabled":false,"rental_uris":{"android":"levelo://app?vid=3a6cf4dd-4a04-48a6-bbfb-6b1ea18759b5","ios":"levelo://app?vid=3a6cf4dd-4a04-48a6-bbfb-6b1ea18759b5"},"vehicle_type_id":"4","last_reported":1744042281,"current_range_meters":8800,"station_id":"ce4bhsh2rcd13ifvqi2g","pricing_plan_id":"cebpf4jnsgd1na2vs0mg"},{"bike_id":"755acd57-59ea-49ed-ad6a-698107bd5c37","system_id":"levelo_inurba_marseille","lat":43.32346,"lon":5.36735,"is_reserved":false,"is_disabled":false,"rental_uris":{"android":"levelo://app?vid=755acd57-59ea-49ed-ad6a-698107bd5c37","ios":"levelo://app?vid=755acd57-59ea-49ed-ad6a-698107bd5c37"},"vehicle_type_id":"4","last_reported":1744042281,"current_range_meters":8800,"station_id":"ce4bhsh2rcd13ifvqi2g","pricing_plan_id":"cebpf4jnsgd1na2vs0mg"},{"bike_id":"84664750-914f-4773-92f0-ec08ad702917","system_id":"levelo_inurba_marseille","lat":43.26972,"lon":5.36615,"is_reserved":false,"is_disabled":false,"rental_uris":{"android":"levelo://app?vid=84664750-914f-4773-92f0-ec08ad702917","ios":"levelo://app?vid=84664750-914f-4773-92f0-ec08ad702917"},"vehicle_type_id":"4","last_reported":1744042281,"current_range_meters":8800,"station_id":"ce4bgvp2rcd13ifvqcu0","pricing_plan_id":"cebpf4jnsgd1na2vs0mg"},{"bike_id":"1e81c4d2-6637-42bf-8d6d-5d37c0fe2360","system_id":"levelo_inurba_marseille","lat":43.32112,"lon":5.36787,"is_reserved":false,"is_disabled":false,"rental_uris":{"android":"levelo://app?vid=1e81c4d2-6637-42bf-8d6d-5d37c0fe2360","ios":"levelo://app?vid=1e81c4d2-6637-42bf-8d6d-5d37c0fe2360"},"vehicle_type_id":"4","last_reported":1744042281,"current_range_meters":8800,"station_id":"ce4bhrh2rcd13ifvqhug","pricing_plan_id":"cebpf4jnsgd1na2vs0mg"},{"bike_id":"a959694d-18ce-4d80-917f-23c91ed81065","system_id":"levelo_inurba_marseille","lat":43.29902,"lon":5.43664,"is_reserved":false,"is_disabled":false,"rental_uris":{"android":"levelo://app?vid=a959694d-18ce-4d80-917f-23c91ed81065","ios":"levelo://app?vid=a959694d-18ce-4d80-917f-23c91ed81065"},"vehicle_type_id":"4","last_reported":1744042281,"current_range_meters":8800,"station_id":"ce4bhpp2rcd13ifvqhfg","pricing_plan_id":"cebpf4jnsgd1na2vs0mg"},{"bike_id":"1d81f809-f67f-4d29-810d-a25aea907e1a","system_id":"levelo_inurba_marseille","lat":43.27371,"lon":5.36245,"is_reserved":false,"is_disabled":true,"rental_uris":{"android":"levelo://app?vid=1d81f809-f67f-4d29-810d-a25aea907e1a","ios":"levelo://app?vid=1d81f809-f67f-4d29-810d-a25aea907e1a"},"vehicle_type_id":"4","last_reported":1744042281,"current_range_meters":8800,"station_id":"ce4bhbh2rcd13ifvqeo0","pricing_plan_id":"cebpf4jnsgd1na2vs0mg"},{"bike_id":"79537ffb-5232-4549-a0c1-44d0c11f25a2","system_id":"levelo_inurba_marseille","lat":43.31711,"lon":5.43704,"is_reserved":false,"is_disabled":false,"rental_uris":{"android":"levelo://app?vid=79537ffb-5232-4549-a0c1-44d0c11f25a2","ios":"levelo://app?vid=79537ffb-5232-4549-a0c1-44d0c11f25a2"},"vehicle_type_id":"4","last_reported":1744042281,"current_range_meters":8800,"station_id":"ce4bhp92rcd13ifvqhcg","pricing_plan_id":"cebpf4jnsgd1na2vs0mg"},{"bike_id":"7054bc2a-e1f4-43de-9732-824267fabddd","system_id":"levelo_inurba_marseille","lat":43.28934,"lon":5.38401,"is_reserved":false,"is_disabled":false,"rental_uris":{"android":"levelo://app?vid=7054bc2a-e1f4-43de-9732-824267fabddd","ios":"levelo://app?vid=7054bc2a-e1f4-43de-9732-824267fabddd"},"vehicle_type_id":"4","last_reported":1744042281,"current_range_meters":8800,"station_id":"ce4bh612rcd13ifvqe6g","pricing_plan_id":"cebpf4jnsgd1na2vs0mg"},{"bike_id":"dc13e99a-13f7-4cfa-8f17-76a64c08e10d","system_id":"levelo_inurba_marseille","lat":43.28703,"lon":5.37395,"is_reserved":false,"is_disabled":false,"rental_uris":{"android":"levelo://app?vid=dc13e99a-13f7-4cfa-8f17-76a64c08e10d","ios":"levelo://app?vid=dc13e99a-13f7-4cfa-8f17-76a64c08e10d"},"vehicle_type_id":"4","last_reported":1744042281,"current_range_meters":8800,"station_id":"ce4bh3p2rcd13ifvqdq0","pricing_plan_id":"cebpf4jnsgd1na2vs0mg"},{"bike_id":"87bda883-ac94-49fc-94c2-3a86e52b4f97","system_id":"levelo_inurba_marseille","lat":43.30727,"lon":5.38326,"is_reserved":false,"is_disabled":false,"rental_uris":{"android":"levelo://app?vid=87bda883-ac94-49fc-94c2-3a86e52b4f97","ios":"levelo://app?vid=87bda883-ac94-49fc-94c2-3a86e52b4f97"},"vehicle_type_id":"4","last_reported":1744042281,"current_range_meters":9200,"station_id":"","pricing_plan_id":"cebpf4jnsgd1na2vs0mg"},{"bike_id":"d893a78a-9318-483a-996e-9bec91fd98dc","system_id":"levelo_inurba_marseille","lat":43.31697,"lon":5.43721,"is_reserved":false,"is_disabled":false,"rental_uris":{"android":"levelo://app?vid=d893a78a-9318-483a-996e-9bec91fd98dc","ios":"levelo://app?vid=d893a78a-9318-483a-996e-9bec91fd98dc"},"vehicle_type_id":"4","last_reported":1744042281,"current_range_meters":9200,"station_id":"ce4bhp92rcd13ifvqhcg","pricing_plan_id":"cebpf4jnsgd1na2vs0mg"},{"bike_id":"345ebdc7-ebdc-43a6-8197-c81b522ecf3d","system_id":"levelo_inurba_marseille","lat":43.27057,"lon":5.40267,"is_reserved":false,"is_disabled":false,"rental_uris":{"android":"levelo://app?vid=345ebdc7-ebdc-43a6-8197-c81b522ecf3d","ios":"levelo://app?vid=345ebdc7-ebdc-43a6-8197-c81b522ecf3d"},"vehicle_type_id":"4","last_reported":1744042281,"current_range_meters":9200,"station_id":"ce4bhk92rcd13ifvqgc0","pricing_plan_id":"cebpf4jnsgd1na2vs0mg"},{"bike_id":"21ad2b20-e326-40c8-a3d6-b2092488dc26","system_id":"levelo_inurba_marseille","lat":43.24395,"lon":5.36999,"is_reserved":false,"is_disabled":false,"rental_uris":{"android":"levelo://app?vid=21ad2b20-e326-40c8-a3d6-b2092488dc26","ios":"levelo://app?vid=21ad2b20-e326-40c8-a3d6-b2092488dc26"},"vehicle_type_id":"4","last_reported":1744042281,"current_range_meters":9200,"station_id":"","pricing_plan_id":"cebpf4jnsgd1na2vs0mg"},{"bike_id":"4f9035ff-8f54-4f29-9066-ebc9ba8e1dd8","system_id":"levelo_inurba_marseille","lat":43.28412,"lon":5.37515,"is_reserved":false,"is_disabled":false,"rental_uris":{"android":"levelo://app?vid=4f9035ff-8f54-4f29-9066-ebc9ba8e1dd8","ios":"levelo://app?vid=4f9035ff-8f54-4f29-9066-ebc9ba8e1dd8"},"vehicle_type_id":"4","last_reported":1744042281,"current_range_meters":9600,"station_id":"ce4bh412rcd13ifvqds0","pricing_plan_id":"cebpf4jnsgd1na2vs0mg"},{"bike_id":"7b948bdc-90ae-44df-a104-c70f5b8b3564","system_id":"levelo_inurba_marseille","lat":43.25009,"lon":5.38919,"is_reserved":false,"is_disabled":false,"rental_uris":{"android":"levelo://app?vid=7b948bdc-90ae-44df-a104-c70f5b8b3564","ios":"levelo://app?vid=7b948bdc-90ae-44df-a104-c70f5b8b3564"},"vehicle_type_id":"4","last_reported":1744042281,"current_range_meters":9600,"station_id":"ce4bhgp2rcd13ifvqfd0","pricing_plan_id":"cebpf4jnsgd1na2vs0mg"},{"bike_id":"851656b6-023a-4dc4-ae1c-11330ab1794a","system_id":"levelo_inurba_marseille","lat":43.29607,"lon":5.38102,"is_reserved":false,"is_disabled":false,"rental_uris":{"android":"levelo://app?vid=851656b6-023a-4dc4-ae1c-11330ab1794a","ios":"levelo://app?vid=851656b6-023a-4dc4-ae1c-11330ab1794a"},"vehicle_type_id":"4","last_reported":1744042281,"current_range_meters":9600,"station_id":"ce4bgl12rcd13ifvqbo0","pricing_plan_id":"cebpf4jnsgd1na2vs0mg"},{"bike_id":"99740167-1d25-46a4-a145-226f9b821ee8","system_id":"levelo_inurba_marseille","lat":43.31725,"lon":5.43723,"is_reserved":false,"is_disabled":false,"rental_uris":{"android":"levelo://app?vid=99740167-1d25-46a4-a145-226f9b821ee8","ios":"levelo://app?vid=99740167-1d25-46a4-a145-226f9b821ee8"},"vehicle_type_id":"4","last_reported":1744042281,"current_range_meters":9600,"station_id":"ce4bhp92rcd13ifvqhcg","pricing_plan_id":"cebpf4jnsgd1na2vs0mg"},{"bike_id":"e8b89238-d97a-4ee5-b195-14548a845c75","system_id":"levelo_inurba_marseille","lat":43.2848,"lon":5.38402,"is_reserved":false,"is_disabled":false,"rental_uris":{"android":"levelo://app?vid=e8b89238-d97a-4ee5-b195-14548a845c75","ios":"levelo://app?vid=e8b89238-d97a-4ee5-b195-14548a845c75"},"vehicle_type_id":"4","last_reported":1744042281,"current_range_meters":9200,"station_id":"ce4bh512rcd13ifvqe3g","pricing_plan_id":"cebpf4jnsgd1na2vs0mg"},{"bike_id":"72991e24-187a-4d7b-bdf7-1b1fb229e531","system_id":"levelo_inurba_marseille","lat":43.26231,"lon":5.4045,"is_reserved":false,"is_disabled":false,"rental_uris":{"android":"levelo://app?vid=72991e24-187a-4d7b-bdf7-1b1fb229e531","ios":"levelo://app?vid=72991e24-187a-4d7b-bdf7-1b1fb229e531"},"vehicle_type_id":"4","last_reported":1744042281,"current_range_meters":10000,"station_id":"ce4bhmh2rcd13ifvqgmg","pricing_plan_id":"cebpf4jnsgd1na2vs0mg"},{"bike_id":"41ddaa13-ec14-4266-8624-9f0f8176a707","system_id":"levelo_inurba_marseille","lat":43.30339,"lon":5.404576,"is_reserved":false,"is_disabled":false,"rental_uris":{"android":"levelo://app?vid=41ddaa13-ec14-4266-8624-9f0f8176a707","ios":"levelo://app?vid=41ddaa13-ec14-4266-8624-9f0f8176a707"},"vehicle_type_id":"4","last_reported":1744042281,"current_range_meters":10000,"station_id":"ce4bh012rcd13ifvqd10","pricing_plan_id":"cebpf4jnsgd1na2vs0mg"},{"bike_id":"9389f907-78e2-4c8e-b008-de9739faa63f","system_id":"levelo_inurba_marseille","lat":43.33029,"lon":5.39431,"is_reserved":false,"is_disabled":false,"rental_uris":{"android":"levelo://app?vid=9389f907-78e2-4c8e-b008-de9739faa63f","ios":"levelo://app?vid=9389f907-78e2-4c8e-b008-de9739faa63f"},"vehicle_type_id":"4","last_reported":1744042281,"current_range_meters":10000,"station_id":"","pricing_plan_id":"cebpf4jnsgd1na2vs0mg"},{"bike_id":"89771962-fe60-4144-a8a6-39dd0f7b9fb3","system_id":"levelo_inurba_marseille","lat":43.21207,"lon":5.35087,"is_reserved":false,"is_disabled":false,"rental_uris":{"android":"levelo://app?vid=89771962-fe60-4144-a8a6-39dd0f7b9fb3","ios":"levelo://app?vid=89771962-fe60-4144-a8a6-39dd0f7b9fb3"},"vehicle_type_id":"4","last_reported":1744042281,"current_range_meters":10000,"station_id":"st_cvj6sg6p6f1abm77japg","pricing_plan_id":"cebpf4jnsgd1na2vs0mg"},{"bike_id":"8b497f79-9857-4c2e-ae6e-95b0d6ccbc52","system_id":"levelo_inurba_marseille","lat":43.32483,"lon":5.36586,"is_reserved":false,"is_disabled":true,"rental_uris":{"android":"levelo://app?vid=8b497f79-9857-4c2e-ae6e-95b0d6ccbc52","ios":"levelo://app?vid=8b497f79-9857-4c2e-ae6e-95b0d6ccbc52"},"vehicle_type_id":"4","last_reported":1744042281,"current_range_meters":10000,"station_id":"ce4bhs12rcd13ifvqhvg","pricing_plan_id":"cebpf4jnsgd1na2vs0mg"},{"bike_id":"804b1649-85c4-4b5a-9828-678386b14395","system_id":"levelo_inurba_marseille","lat":43.2606,"lon":5.39393,"is_reserved":false,"is_disabled":false,"rental_uris":{"android":"levelo://app?vid=804b1649-85c4-4b5a-9828-678386b14395","ios":"levelo://app?vid=804b1649-85c4-4b5a-9828-678386b14395"},"vehicle_type_id":"4","last_reported":1744042281,"current_range_meters":10000,"station_id":"ce4bhh92rcd13ifvqfj0","pricing_plan_id":"cebpf4jnsgd1na2vs0mg"},{"bike_id":"fab415be-6ce6-466a-b6d3-cf8665aa8e4a","system_id":"levelo_inurba_marseille","lat":43.2655,"lon":5.37284,"is_reserved":false,"is_disabled":false,"rental_uris":{"android":"levelo://app?vid=fab415be-6ce6-466a-b6d3-cf8665aa8e4a","ios":"levelo://app?vid=fab415be-6ce6-466a-b6d3-cf8665aa8e4a"},"vehicle_type_id":"4","last_reported":1744042281,"current_range_meters":10000,"station_id":"ce4bhg12rcd13ifvqf70","pricing_plan_id":"cebpf4jnsgd1na2vs0mg"},{"bike_id":"b74bf338-31c4-4d13-8fbe-5842ae29cfdd","system_id":"levelo_inurba_marseille","lat":43.27069,"lon":5.4228,"is_reserved":false,"is_disabled":false,"rental_uris":{"android":"levelo://app?vid=b74bf338-31c4-4d13-8fbe-5842ae29cfdd","ios":"levelo://app?vid=b74bf338-31c4-4d13-8fbe-5842ae29cfdd"},"vehicle_type_id":"4","last_reported":1744042281,"current_range_meters":10000,"station_id":"ce4bhk92rcd13ifvqgb0","pricing_plan_id":"cebpf4jnsgd1na2vs0mg"},{"bike_id":"cc057f14-b1e1-4dee-b107-8741c01c5964","system_id":"levelo_inurba_marseille","lat":43.32105,"lon":5.36785,"is_reserved":false,"is_disabled":true,"rental_uris":{"android":"levelo://app?vid=cc057f14-b1e1-4dee-b107-8741c01c5964","ios":"levelo://app?vid=cc057f14-b1e1-4dee-b107-8741c01c5964"},"vehicle_type_id":"4","last_reported":1744042281,"current_range_meters":10000,"station_id":"ce4bhrh2rcd13ifvqhug","pricing_plan_id":"cebpf4jnsgd1na2vs0mg"},{"bike_id":"3cbad1fb-d71d-4e4f-90fa-c1465f9f9b65","system_id":"levelo_inurba_marseille","lat":43.2119,"lon":5.35075,"is_reserved":false,"is_disabled":false,"rental_uris":{"android":"levelo://app?vid=3cbad1fb-d71d-4e4f-90fa-c1465f9f9b65","ios":"levelo://app?vid=3cbad1fb-d71d-4e4f-90fa-c1465f9f9b65"},"vehicle_type_id":"4","last_reported":1744042281,"current_range_meters":10000,"station_id":"st_cvj6sg6p6f1abm77japg","pricing_plan_id":"cebpf4jnsgd1na2vs0mg"},{"bike_id":"554d665b-e877-4e96-b927-1bd5549aba34","system_id":"levelo_inurba_marseille","lat":43.28722,"lon":5.36086,"is_reserved":false,"is_disabled":false,"rental_uris":{"android":"levelo://app?vid=554d665b-e877-4e96-b927-1bd5549aba34","ios":"levelo://app?vid=554d665b-e877-4e96-b927-1bd5549aba34"},"vehicle_type_id":"4","last_reported":1744042281,"current_range_meters":10000,"station_id":"cki0cbj6b192h4jlfktg","pricing_plan_id":"cebpf4jnsgd1na2vs0mg"},{"bike_id":"f0d398b3-0e99-4a60-9edf-0e289b418a47","system_id":"levelo_inurba_marseille","lat":43.3052,"lon":5.36529,"is_reserved":false,"is_disabled":false,"rental_uris":{"android":"levelo://app?vid=f0d398b3-0e99-4a60-9edf-0e289b418a47","ios":"levelo://app?vid=f0d398b3-0e99-4a60-9edf-0e289b418a47"},"vehicle_type_id":"4","last_reported":1744042281,"current_range_meters":10800,"station_id":"","pricing_plan_id":"cebpf4jnsgd1na2vs0mg"},{"bike_id":"2a6c70b7-3280-4c58-9c17-d39c1ef6b670","system_id":"levelo_inurba_marseille","lat":43.32354,"lon":5.36722,"is_reserved":false,"is_disabled":false,"rental_uris":{"android":"levelo://app?vid=2a6c70b7-3280-4c58-9c17-d39c1ef6b670","ios":"levelo://app?vid=2a6c70b7-3280-4c58-9c17-d39c1ef6b670"},"vehicle_type_id":"4","last_reported":1744042281,"current_range_meters":10800,"station_id":"ce4bhsh2rcd13ifvqi2g","pricing_plan_id":"cebpf4jnsgd1na2vs0mg"},{"bike_id":"750bc9c2-8244-4f27-a571-77c62d7d6b92","system_id":"levelo_inurba_marseille","lat":43.31257,"lon":5.37781,"is_reserved":false,"is_disabled":false,"rental_uris":{"android":"levelo://app?vid=750bc9c2-8244-4f27-a571-77c62d7d6b92","ios":"levelo://app?vid=750bc9c2-8244-4f27-a571-77c62d7d6b92"},"vehicle_type_id":"4","last_reported":1744042281,"current_range_meters":10800,"station_id":"","pricing_plan_id":"cebpf4jnsgd1na2vs0mg"},{"bike_id":"47cc9492-c848-42cc-be5e-491ced76b3cd","system_id":"levelo_inurba_marseille","lat":43.25086,"lon":5.39517,"is_reserved":false,"is_disabled":false,"rental_uris":{"android":"levelo://app?vid=47cc9492-c848-42cc-be5e-491ced76b3cd","ios":"levelo://app?vid=47cc9492-c848-42cc-be5e-491ced76b3cd"},"vehicle_type_id":"4","last_reported":1744042281,"current_range_meters":10800,"station_id":"ce4bhm12rcd13ifvqgkg","pricing_plan_id":"cebpf4jnsgd1na2vs0mg"},{"bike_id":"7b3646e0-cbf2-40de-92a8-c829ec618775","system_id":"levelo_inurba_marseille","lat":43.32002,"lon":5.38153,"is_reserved":false,"is_disabled":true,"rental_uris":{"android":"levelo://app?vid=7b3646e0-cbf2-40de-92a8-c829ec618775","ios":"levelo://app?vid=7b3646e0-cbf2-40de-92a8-c829ec618775"},"vehicle_type_id":"4","last_reported":1744042281,"current_range_meters":10800,"station_id":"ce4bhr12rcd13ifvqhpg","pricing_plan_id":"cebpf4jnsgd1na2vs0mg"},{"bike_id":"6494dfce-66e3-458a-b81d-4437d8ea7fce","system_id":"levelo_inurba_marseille","lat":43.28363,"lon":5.38623,"is_reserved":false,"is_disabled":false,"rental_uris":{"android":"levelo://app?vid=6494dfce-66e3-458a-b81d-4437d8ea7fce","ios":"levelo://app?vid=6494dfce-66e3-458a-b81d-4437d8ea7fce"},"vehicle_type_id":"4","last_reported":1744042281,"current_range_meters":10000,"station_id":"ce4bh492rcd13ifvqdvg","pricing_plan_id":"cebpf4jnsgd1na2vs0mg"},{"bike_id":"c37d37c2-c5ea-4264-a2de-0e6888efe8e6","system_id":"levelo_inurba_marseille","lat":43.24073,"lon":5.37762,"is_reserved":false,"is_disabled":false,"rental_uris":{"android":"levelo://app?vid=c37d37c2-c5ea-4264-a2de-0e6888efe8e6","ios":"levelo://app?vid=c37d37c2-c5ea-4264-a2de-0e6888efe8e6"},"vehicle_type_id":"4","last_reported":1744042281,"current_range_meters":10000,"station_id":"ce4bhnp2rcd13ifvqgvg","pricing_plan_id":"cebpf4jnsgd1na2vs0mg"},{"bike_id":"7e1b6a3d-58ec-44af-a745-ef3d905a50bb","system_id":"levelo_inurba_marseille","lat":43.26205,"lon":5.379368,"is_reserved":false,"is_disabled":false,"rental_uris":{"android":"levelo://app?vid=7e1b6a3d-58ec-44af-a745-ef3d905a50bb","ios":"levelo://app?vid=7e1b6a3d-58ec-44af-a745-ef3d905a50bb"},"vehicle_type_id":"4","last_reported":1744042281,"current_range_meters":11200,"station_id":"ce4bhjp2rcd13ifvqg90","pricing_plan_id":"cebpf4jnsgd1na2vs0mg"},{"bike_id":"e53b9e9b-ac51-4f70-ad60-ed3149b8c178","system_id":"levelo_inurba_marseille","lat":43.3132,"lon":5.37337,"is_reserved":false,"is_disabled":false,"rental_uris":{"android":"levelo://app?vid=e53b9e9b-ac51-4f70-ad60-ed3149b8c178","ios":"levelo://app?vid=e53b9e9b-ac51-4f70-ad60-ed3149b8c178"},"vehicle_type_id":"4","last_reported":1744042281,"current_range_meters":11200,"station_id":"","pricing_plan_id":"cebpf4jnsgd1na2vs0mg"},{"bike_id":"4e63bc7f-b907-45ea-bc67-f61c9be2b9d6","system_id":"levelo_inurba_marseille","lat":43.29966,"lon":5.385,"is_reserved":false,"is_disabled":true,"rental_uris":{"android":"levelo://app?vid=4e63bc7f-b907-45ea-bc67-f61c9be2b9d6","ios":"levelo://app?vid=4e63bc7f-b907-45ea-bc67-f61c9be2b9d6"},"vehicle_type_id":"4","last_reported":1744042281,"current_range_meters":11200,"station_id":"ce4bgj92rcd13ifvqbd0","pricing_plan_id":"cebpf4jnsgd1na2vs0mg"},{"bike_id":"2f4ceb4f-4366-4fa0-99d1-8f62db62792a","system_id":"levelo_inurba_marseille","lat":43.33726,"lon":5.39179,"is_reserved":false,"is_disabled":false,"rental_uris":{"android":"levelo://app?vid=2f4ceb4f-4366-4fa0-99d1-8f62db62792a","ios":"levelo://app?vid=2f4ceb4f-4366-4fa0-99d1-8f62db62792a"},"vehicle_type_id":"4","last_reported":1744042281,"current_range_meters":11200,"station_id":"ce4bhr92rcd13ifvqhsg","pricing_plan_id":"cebpf4jnsgd1na2vs0mg"},{"bike_id":"7162515d-d169-4b79-b01d-910499f55e42","system_id":"levelo_inurba_marseille","lat":43.29972,"lon":5.38502,"is_reserved":false,"is_disabled":false,"rental_uris":{"android":"levelo://app?vid=7162515d-d169-4b79-b01d-910499f55e42","ios":"levelo://app?vid=7162515d-d169-4b79-b01d-910499f55e42"},"vehicle_type_id":"4","last_reported":1744042281,"current_range_meters":11600,"station_id":"ce4bgj92rcd13ifvqbd0","pricing_plan_id":"cebpf4jnsgd1na2vs0mg"},{"bike_id":"e3ed0949-d4ea-48a0-8cd5-c8512b754579","system_id":"levelo_inurba_marseille","lat":43.29514,"lon":5.39038,"is_reserved":false,"is_disabled":false,"rental_uris":{"android":"levelo://app?vid=e3ed0949-d4ea-48a0-8cd5-c8512b754579","ios":"levelo://app?vid=e3ed0949-d4ea-48a0-8cd5-c8512b754579"},"vehicle_type_id":"4","last_reported":1744042281,"current_range_meters":11600,"station_id":"ce4bh3p2rcd13ifvqdp0","pricing_plan_id":"cebpf4jnsgd1na2vs0mg"},{"bike_id":"1937109a-b46e-4d9c-a95e-6b7d4259f764","system_id":"levelo_inurba_marseille","lat":43.28847,"lon":5.35868,"is_reserved":false,"is_disabled":false,"rental_uris":{"android":"levelo://app?vid=1937109a-b46e-4d9c-a95e-6b7d4259f764","ios":"levelo://app?vid=1937109a-b46e-4d9c-a95e-6b7d4259f764"},"vehicle_type_id":"4","last_reported":1744042281,"current_range_meters":11600,"station_id":"ce4bhb12rcd13ifvqem0","pricing_plan_id":"cebpf4jnsgd1na2vs0mg"},{"bike_id":"006cc00b-8a6e-4559-ad62-40acf7f5a40b","system_id":"levelo_inurba_marseille","lat":43.30555,"lon":5.38441,"is_reserved":false,"is_disabled":false,"rental_uris":{"android":"levelo://app?vid=006cc00b-8a6e-4559-ad62-40acf7f5a40b","ios":"levelo://app?vid=006cc00b-8a6e-4559-ad62-40acf7f5a40b"},"vehicle_type_id":"4","last_reported":1744042281,"current_range_meters":11600,"station_id":"ce4bgg92rcd13ifvqb30","pricing_plan_id":"cebpf4jnsgd1na2vs0mg"},{"bike_id":"e4f094f8-37f0-49a4-ac59-0b2e0a2189d3","system_id":"levelo_inurba_marseille","lat":43.29613,"lon":5.377279,"is_reserved":false,"is_disabled":false,"rental_uris":{"android":"levelo://app?vid=e4f094f8-37f0-49a4-ac59-0b2e0a2189d3","ios":"levelo://app?vid=e4f094f8-37f0-49a4-ac59-0b2e0a2189d3"},"vehicle_type_id":"4","last_reported":1744042281,"current_range_meters":11600,"station_id":"ce4bgi92rcd13ifvqb90","pricing_plan_id":"cebpf4jnsgd1na2vs0mg"},{"bike_id":"5323f0e4-f524-45d6-aec8-d454a5bb7c9f","system_id":"levelo_inurba_marseille","lat":43.29624,"lon":5.3774,"is_reserved":false,"is_disabled":false,"rental_uris":{"android":"levelo://app?vid=5323f0e4-f524-45d6-aec8-d454a5bb7c9f","ios":"levelo://app?vid=5323f0e4-f524-45d6-aec8-d454a5bb7c9f"},"vehicle_type_id":"4","last_reported":1744042281,"current_range_meters":11600,"station_id":"ce4bgi92rcd13ifvqb90","pricing_plan_id":"cebpf4jnsgd1na2vs0mg"},{"bike_id":"19224d95-e048-4cbb-8884-43e0e6b3db9b","system_id":"levelo_inurba_marseille","lat":43.29853,"lon":5.39739,"is_reserved":false,"is_disabled":true,"rental_uris":{"android":"levelo://app?vid=19224d95-e048-4cbb-8884-43e0e6b3db9b","ios":"levelo://app?vid=19224d95-e048-4cbb-8884-43e0e6b3db9b"},"vehicle_type_id":"4","last_reported":1744042281,"current_range_meters":11600,"station_id":"ce4bh0h2rcd13ifvqd50","pricing_plan_id":"cebpf4jnsgd1na2vs0mg"},{"bike_id":"f3e1697d-6322-4b7c-bcd9-bfaaba5adcfb","system_id":"levelo_inurba_marseille","lat":43.31999,"lon":5.38148,"is_reserved":false,"is_disabled":true,"rental_uris":{"android":"levelo://app?vid=f3e1697d-6322-4b7c-bcd9-bfaaba5adcfb","ios":"levelo://app?vid=f3e1697d-6322-4b7c-bcd9-bfaaba5adcfb"},"vehicle_type_id":"4","last_reported":1744042281,"current_range_meters":11600,"station_id":"ce4bhr12rcd13ifvqhpg","pricing_plan_id":"cebpf4jnsgd1na2vs0mg"},{"bike_id":"cc04bd1a-08e4-4179-96af-ec251ae135b2","system_id":"levelo_inurba_marseille","lat":43.2995,"lon":5.40138,"is_reserved":false,"is_disabled":false,"rental_uris":{"android":"levelo://app?vid=cc04bd1a-08e4-4179-96af-ec251ae135b2","ios":"levelo://app?vid=cc04bd1a-08e4-4179-96af-ec251ae135b2"},"vehicle_type_id":"4","last_reported":1744042281,"current_range_meters":12000,"station_id":"","pricing_plan_id":"cebpf4jnsgd1na2vs0mg"},{"bike_id":"f39be6f5-2f69-4c37-b021-559d20b299a4","system_id":"levelo_inurba_marseille","lat":43.29989,"lon":5.37645,"is_reserved":false,"is_disabled":false,"rental_uris":{"android":"levelo://app?vid=f39be6f5-2f69-4c37-b021-559d20b299a4","ios":"levelo://app?vid=f39be6f5-2f69-4c37-b021-559d20b299a4"},"vehicle_type_id":"4","last_reported":1744042281,"current_range_meters":12000,"station_id":"","pricing_plan_id":"cebpf4jnsgd1na2vs0mg"},{"bike_id":"55e9311e-9c18-49ea-a7b0-12a9c9860eba","system_id":"levelo_inurba_marseille","lat":43.292023,"lon":5.358054,"is_reserved":false,"is_disabled":false,"rental_uris":{"android":"levelo://app?vid=55e9311e-9c18-49ea-a7b0-12a9c9860eba","ios":"levelo://app?vid=55e9311e-9c18-49ea-a7b0-12a9c9860eba"},"vehicle_type_id":"4","last_reported":1744042281,"current_range_meters":11600,"station_id":"ce4bhb12rcd13ifvqel0","pricing_plan_id":"cebpf4jnsgd1na2vs0mg"},{"bike_id":"6bb42352-d3ad-4a2f-9f21-9eb6cc41e5ff","system_id":"levelo_inurba_marseille","lat":43.31266,"lon":5.36896,"is_reserved":false,"is_disabled":false,"rental_uris":{"android":"levelo://app?vid=6bb42352-d3ad-4a2f-9f21-9eb6cc41e5ff","ios":"levelo://app?vid=6bb42352-d3ad-4a2f-9f21-9eb6cc41e5ff"},"vehicle_type_id":"4","last_reported":1744042281,"current_range_meters":12400,"station_id":"","pricing_plan_id":"cebpf4jnsgd1na2vs0mg"},{"bike_id":"aff285a7-70a4-4478-b880-f529acfecfd9","system_id":"levelo_inurba_marseille","lat":43.302371,"lon":5.397095,"is_reserved":false,"is_disabled":false,"rental_uris":{"android":"levelo://app?vid=aff285a7-70a4-4478-b880-f529acfecfd9","ios":"levelo://app?vid=aff285a7-70a4-4478-b880-f529acfecfd9"},"vehicle_type_id":"4","last_reported":1744042281,"current_range_meters":12400,"station_id":"ce4bh012rcd13ifvqd10","pricing_plan_id":"cebpf4jnsgd1na2vs0mg"},{"bike_id":"d72f4318-5919-4faa-8df3-7a5ae8739cec","system_id":"levelo_inurba_marseille","lat":43.29023,"lon":5.38653,"is_reserved":false,"is_disabled":false,"rental_uris":{"android":"levelo://app?vid=d72f4318-5919-4faa-8df3-7a5ae8739cec","ios":"levelo://app?vid=d72f4318-5919-4faa-8df3-7a5ae8739cec"},"vehicle_type_id":"4","last_reported":1744042281,"current_range_meters":12400,"station_id":"ce4bh4p2rcd13ifvqe0g","pricing_plan_id":"cebpf4jnsgd1na2vs0mg"},{"bike_id":"257d1c02-5396-419e-a612-6a8a1704493e","system_id":"levelo_inurba_marseille","lat":43.29007,"lon":5.37546,"is_reserved":false,"is_disabled":true,"rental_uris":{"android":"levelo://app?vid=257d1c02-5396-419e-a612-6a8a1704493e","ios":"levelo://app?vid=257d1c02-5396-419e-a612-6a8a1704493e"},"vehicle_type_id":"4","last_reported":1744042281,"current_range_meters":12400,"station_id":"ce4bh692rcd13ifvqe90","pricing_plan_id":"cebpf4jnsgd1na2vs0mg"},{"bike_id":"aa175c23-2811-400b-be3d-2070a7428958","system_id":"levelo_inurba_marseille","lat":43.2893,"lon":5.38399,"is_reserved":false,"is_disabled":false,"rental_uris":{"android":"levelo://app?vid=aa175c23-2811-400b-be3d-2070a7428958","ios":"levelo://app?vid=aa175c23-2811-400b-be3d-2070a7428958"},"vehicle_type_id":"4","last_reported":1744042281,"current_range_meters":12400,"station_id":"ce4bh612rcd13ifvqe6g","pricing_plan_id":"cebpf4jnsgd1na2vs0mg"},{"bike_id":"dbcb5ad4-3d9c-4222-a540-5eef50fd150a","system_id":"levelo_inurba_marseille","lat":43.2871,"lon":5.37385,"is_reserved":false,"is_disabled":false,"rental_uris":{"android":"levelo://app?vid=dbcb5ad4-3d9c-4222-a540-5eef50fd150a","ios":"levelo://app?vid=dbcb5ad4-3d9c-4222-a540-5eef50fd150a"},"vehicle_type_id":"4","last_reported":1744042281,"current_range_meters":12400,"station_id":"ce4bh3p2rcd13ifvqdq0","pricing_plan_id":"cebpf4jnsgd1na2vs0mg"},{"bike_id":"447cacd2-d2bd-4bad-bdbb-56cf0559d47c","system_id":"levelo_inurba_marseille","lat":43.31705,"lon":5.37777,"is_reserved":false,"is_disabled":false,"rental_uris":{"android":"levelo://app?vid=447cacd2-d2bd-4bad-bdbb-56cf0559d47c","ios":"levelo://app?vid=447cacd2-d2bd-4bad-bdbb-56cf0559d47c"},"vehicle_type_id":"4","last_reported":1744042281,"current_range_meters":12400,"station_id":"ce4bgth2rcd13ifvqch0","pricing_plan_id":"cebpf4jnsgd1na2vs0mg"},{"bike_id":"3f3f4fd5-a405-4364-b114-6d3d993e5aa2","system_id":"levelo_inurba_marseille","lat":43.30536,"lon":5.36534,"is_reserved":false,"is_disabled":false,"rental_uris":{"android":"levelo://app?vid=3f3f4fd5-a405-4364-b114-6d3d993e5aa2","ios":"levelo://app?vid=3f3f4fd5-a405-4364-b114-6d3d993e5aa2"},"vehicle_type_id":"4","last_reported":1744042281,"current_range_meters":12800,"station_id":"ce4bgs12rcd13ifvqcag","pricing_plan_id":"cebpf4jnsgd1na2vs0mg"},{"bike_id":"82f28cf6-556c-431d-a12b-bd3ce5fc2f28","system_id":"levelo_inurba_marseille","lat":43.275054,"lon":5.37753,"is_reserved":false,"is_disabled":false,"rental_uris":{"android":"levelo://app?vid=82f28cf6-556c-431d-a12b-bd3ce5fc2f28","ios":"levelo://app?vid=82f28cf6-556c-431d-a12b-bd3ce5fc2f28"},"vehicle_type_id":"4","last_reported":1744042281,"current_range_meters":12800,"station_id":"","pricing_plan_id":"cebpf4jnsgd1na2vs0mg"},{"bike_id":"96e995b3-c14c-4b89-b619-0d31bb384501","system_id":"levelo_inurba_marseille","lat":43.26209,"lon":5.37442,"is_reserved":false,"is_disabled":false,"rental_uris":{"android":"levelo://app?vid=96e995b3-c14c-4b89-b619-0d31bb384501","ios":"levelo://app?vid=96e995b3-c14c-4b89-b619-0d31bb384501"},"vehicle_type_id":"4","last_reported":1744042281,"current_range_meters":12800,"station_id":"ce4bhgp2rcd13ifvqfc0","pricing_plan_id":"cebpf4jnsgd1na2vs0mg"},{"bike_id":"3576b946-70b3-456f-a60a-d98e227f015c","system_id":"levelo_inurba_marseille","lat":43.30094,"lon":5.38204,"is_reserved":false,"is_disabled":false,"rental_uris":{"android":"levelo://app?vid=3576b946-70b3-456f-a60a-d98e227f015c","ios":"levelo://app?vid=3576b946-70b3-456f-a60a-d98e227f015c"},"vehicle_type_id":"4","last_reported":1744042281,"current_range_meters":12800,"station_id":"ce4bgup2rcd13ifvqcn0","pricing_plan_id":"cebpf4jnsgd1na2vs0mg"},{"bike_id":"f3190e60-538b-4602-8f83-75c40ef23985","system_id":"levelo_inurba_marseille","lat":43.289337,"lon":5.366461,"is_reserved":false,"is_disabled":false,"rental_uris":{"android":"levelo://app?vid=f3190e60-538b-4602-8f83-75c40ef23985","ios":"levelo://app?vid=f3190e60-538b-4602-8f83-75c40ef23985"},"vehicle_type_id":"4","last_reported":1744042281,"current_range_meters":12800,"station_id":"ce4bhap2rcd13ifvqek0","pricing_plan_id":"cebpf4jnsgd1na2vs0mg"},{"bike_id":"a6c2b2df-d2a4-4525-881b-16258228367e","system_id":"levelo_inurba_marseille","lat":43.29537,"lon":5.38545,"is_reserved":false,"is_disabled":false,"rental_uris":{"android":"levelo://app?vid=a6c2b2df-d2a4-4525-881b-16258228367e","ios":"levelo://app?vid=a6c2b2df-d2a4-4525-881b-16258228367e"},"vehicle_type_id":"4","last_reported":1744042281,"current_range_meters":12800,"station_id":"ce4bgih2rcd13ifvqba0","pricing_plan_id":"cebpf4jnsgd1na2vs0mg"},{"bike_id":"6c1d93a4-799f-4360-ae22-75d4736d2fbe","system_id":"levelo_inurba_marseille","lat":43.29405,"lon":5.38597,"is_reserved":false,"is_disabled":false,"rental_uris":{"android":"levelo://app?vid=6c1d93a4-799f-4360-ae22-75d4736d2fbe","ios":"levelo://app?vid=6c1d93a4-799f-4360-ae22-75d4736d2fbe"},"vehicle_type_id":"4","last_reported":1744042281,"current_range_meters":13600,"station_id":"ce4bh2h2rcd13ifvqdh0","pricing_plan_id":"cebpf4jnsgd1na2vs0mg"},{"bike_id":"bfd8a37b-6221-482c-806b-65cea68a79e5","system_id":"levelo_inurba_marseille","lat":43.301923,"lon":5.366155,"is_reserved":false,"is_disabled":false,"rental_uris":{"android":"levelo://app?vid=bfd8a37b-6221-482c-806b-65cea68a79e5","ios":"levelo://app?vid=bfd8a37b-6221-482c-806b-65cea68a79e5"},"vehicle_type_id":"4","last_reported":1744042281,"current_range_meters":13600,"station_id":"ce4bgrh2rcd13ifvqc8g","pricing_plan_id":"cebpf4jnsgd1na2vs0mg"},{"bike_id":"8e83a831-ae8d-448d-8441-07dbaaced62d","system_id":"levelo_inurba_marseille","lat":43.25582,"lon":5.38235,"is_reserved":false,"is_disabled":false,"rental_uris":{"android":"levelo://app?vid=8e83a831-ae8d-448d-8441-07dbaaced62d","ios":"levelo://app?vid=8e83a831-ae8d-448d-8441-07dbaaced62d"},"vehicle_type_id":"4","last_reported":1744042281,"current_range_meters":13600,"station_id":"ce4bhih2rcd13ifvqfs0","pricing_plan_id":"cebpf4jnsgd1na2vs0mg"},{"bike_id":"0b9b5916-367a-4de6-9305-126fb357ab28","system_id":"levelo_inurba_marseille","lat":43.28935,"lon":5.38389,"is_reserved":false,"is_disabled":false,"rental_uris":{"android":"levelo://app?vid=0b9b5916-367a-4de6-9305-126fb357ab28","ios":"levelo://app?vid=0b9b5916-367a-4de6-9305-126fb357ab28"},"vehicle_type_id":"4","last_reported":1744042281,"current_range_meters":13600,"station_id":"ce4bh612rcd13ifvqe6g","pricing_plan_id":"cebpf4jnsgd1na2vs0mg"},{"bike_id":"8c7e1379-c6f8-4126-a450-64198a860390","system_id":"levelo_inurba_marseille","lat":43.29625,"lon":5.3715,"is_reserved":false,"is_disabled":false,"rental_uris":{"android":"levelo://app?vid=8c7e1379-c6f8-4126-a450-64198a860390","ios":"levelo://app?vid=8c7e1379-c6f8-4126-a450-64198a860390"},"vehicle_type_id":"4","last_reported":1744042281,"current_range_meters":13600,"station_id":"ce4bgnh2rcd13ifvqc0g","pricing_plan_id":"cebpf4jnsgd1na2vs0mg"},{"bike_id":"ea7c4563-3a64-4725-bee3-88cf7807dae0","system_id":"levelo_inurba_marseille","lat":43.248,"lon":5.37453,"is_reserved":false,"is_disabled":false,"rental_uris":{"android":"levelo://app?vid=ea7c4563-3a64-4725-bee3-88cf7807dae0","ios":"levelo://app?vid=ea7c4563-3a64-4725-bee3-88cf7807dae0"},"vehicle_type_id":"4","last_reported":1744042281,"current_range_meters":14000,"station_id":"ce4bhgh2rcd13ifvqfb0","pricing_plan_id":"cebpf4jnsgd1na2vs0mg"},{"bike_id":"f17ce36f-e80a-4732-89e2-7a7dfab19d87","system_id":"levelo_inurba_marseille","lat":43.29929,"lon":5.43661,"is_reserved":false,"is_disabled":false,"rental_uris":{"android":"levelo://app?vid=f17ce36f-e80a-4732-89e2-7a7dfab19d87","ios":"levelo://app?vid=f17ce36f-e80a-4732-89e2-7a7dfab19d87"},"vehicle_type_id":"4","last_reported":1744042281,"current_range_meters":14000,"station_id":"ce4bhpp2rcd13ifvqhfg","pricing_plan_id":"cebpf4jnsgd1na2vs0mg"},{"bike_id":"4b9dfe05-0e60-423c-af4b-3ef6e8cad4ce","system_id":"levelo_inurba_marseille","lat":43.2512,"lon":5.40354,"is_reserved":false,"is_disabled":true,"rental_uris":{"android":"levelo://app?vid=4b9dfe05-0e60-423c-af4b-3ef6e8cad4ce","ios":"levelo://app?vid=4b9dfe05-0e60-423c-af4b-3ef6e8cad4ce"},"vehicle_type_id":"4","last_reported":1744042281,"current_range_meters":14000,"station_id":"ce4bhlh2rcd13ifvqgig","pricing_plan_id":"cebpf4jnsgd1na2vs0mg"},{"bike_id":"eca6c12b-19ac-413d-9739-90ba6b9ae6f4","system_id":"levelo_inurba_marseille","lat":43.28451,"lon":5.35894,"is_reserved":false,"is_disabled":false,"rental_uris":{"android":"levelo://app?vid=eca6c12b-19ac-413d-9739-90ba6b9ae6f4","ios":"levelo://app?vid=eca6c12b-19ac-413d-9739-90ba6b9ae6f4"},"vehicle_type_id":"4","last_reported":1744042281,"current_range_meters":14000,"station_id":"ce4bhah2rcd13ifvqei0","pricing_plan_id":"cebpf4jnsgd1na2vs0mg"},{"bike_id":"17e0267e-040f-4629-ba56-454807f82fc2","system_id":"levelo_inurba_marseille","lat":43.30546,"lon":5.38425,"is_reserved":false,"is_disabled":false,"rental_uris":{"android":"levelo://app?vid=17e0267e-040f-4629-ba56-454807f82fc2","ios":"levelo://app?vid=17e0267e-040f-4629-ba56-454807f82fc2"},"vehicle_type_id":"4","last_reported":1744042281,"current_range_meters":14000,"station_id":"ce4bgg92rcd13ifvqb30","pricing_plan_id":"cebpf4jnsgd1na2vs0mg"},{"bike_id":"fb9f6b16-b64d-4eb9-b329-0548a57bc9c5","system_id":"levelo_inurba_marseille","lat":43.30094,"lon":5.3908,"is_reserved":false,"is_disabled":false,"rental_uris":{"android":"levelo://app?vid=fb9f6b16-b64d-4eb9-b329-0548a57bc9c5","ios":"levelo://app?vid=fb9f6b16-b64d-4eb9-b329-0548a57bc9c5"},"vehicle_type_id":"4","last_reported":1744042281,"current_range_meters":14400,"station_id":"ce4bh192rcd13ifvqdb0","pricing_plan_id":"cebpf4jnsgd1na2vs0mg"},{"bike_id":"ec7d3251-d53b-4874-b96d-6dae899b6aa1","system_id":"levelo_inurba_marseille","lat":43.27212,"lon":5.39183,"is_reserved":false,"is_disabled":true,"rental_uris":{"android":"levelo://app?vid=ec7d3251-d53b-4874-b96d-6dae899b6aa1","ios":"levelo://app?vid=ec7d3251-d53b-4874-b96d-6dae899b6aa1"},"vehicle_type_id":"4","last_reported":1744042281,"current_range_meters":14400,"station_id":"ce4bhhp2rcd13ifvqfm0","pricing_plan_id":"cebpf4jnsgd1na2vs0mg"},{"bike_id":"ff0e3fb4-a820-4596-9716-33225e50e3fc","system_id":"levelo_inurba_marseille","lat":43.29778,"lon":5.39349,"is_reserved":false,"is_disabled":false,"rental_uris":{"android":"levelo://app?vid=ff0e3fb4-a820-4596-9716-33225e50e3fc","ios":"levelo://app?vid=ff0e3fb4-a820-4596-9716-33225e50e3fc"},"vehicle_type_id":"4","last_reported":1744042281,"current_range_meters":14400,"station_id":"chh1huq6cuj3fo74tm60","pricing_plan_id":"cebpf4jnsgd1na2vs0mg"},{"bike_id":"0a87f2e7-c257-48a6-a5ea-ddf75cdf1d6e","system_id":"levelo_inurba_marseille","lat":43.29538,"lon":5.3854,"is_reserved":false,"is_disabled":false,"rental_uris":{"android":"levelo://app?vid=0a87f2e7-c257-48a6-a5ea-ddf75cdf1d6e","ios":"levelo://app?vid=0a87f2e7-c257-48a6-a5ea-ddf75cdf1d6e"},"vehicle_type_id":"4","last_reported":1744042281,"current_range_meters":14800,"station_id":"ce4bgih2rcd13ifvqba0","pricing_plan_id":"cebpf4jnsgd1na2vs0mg"},{"bike_id":"bcd81610-d847-4ed6-b988-0d5dfd152be4","system_id":"levelo_inurba_marseille","lat":43.2962,"lon":5.37154,"is_reserved":false,"is_disabled":false,"rental_uris":{"android":"levelo://app?vid=bcd81610-d847-4ed6-b988-0d5dfd152be4","ios":"levelo://app?vid=bcd81610-d847-4ed6-b988-0d5dfd152be4"},"vehicle_type_id":"4","last_reported":1744042281,"current_range_meters":14400,"station_id":"ce4bgnh2rcd13ifvqc0g","pricing_plan_id":"cebpf4jnsgd1na2vs0mg"},{"bike_id":"67f9198a-5c42-4888-8679-ed9fff871b15","system_id":"levelo_inurba_marseille","lat":43.25112,"lon":5.40324,"is_reserved":false,"is_disabled":false,"rental_uris":{"android":"levelo://app?vid=67f9198a-5c42-4888-8679-ed9fff871b15","ios":"levelo://app?vid=67f9198a-5c42-4888-8679-ed9fff871b15"},"vehicle_type_id":"4","last_reported":1744042281,"current_range_meters":14800,"station_id":"ce4bhlh2rcd13ifvqgig","pricing_plan_id":"cebpf4jnsgd1na2vs0mg"},{"bike_id":"9e0d5e47-a318-4ed7-a426-858a89af3e06","system_id":"levelo_inurba_marseille","lat":43.299545,"lon":5.384935,"is_reserved":false,"is_disabled":false,"rental_uris":{"android":"levelo://app?vid=9e0d5e47-a318-4ed7-a426-858a89af3e06","ios":"levelo://app?vid=9e0d5e47-a318-4ed7-a426-858a89af3e06"},"vehicle_type_id":"4","last_reported":1744042281,"current_range_meters":15200,"station_id":"","pricing_plan_id":"cebpf4jnsgd1na2vs0mg"},{"bike_id":"ced6d19a-6249-413f-99d1-b3cf71efb77a","system_id":"levelo_inurba_marseille","lat":43.27996,"lon":5.41662,"is_reserved":false,"is_disabled":false,"rental_uris":{"android":"levelo://app?vid=ced6d19a-6249-413f-99d1-b3cf71efb77a","ios":"levelo://app?vid=ced6d19a-6249-413f-99d1-b3cf71efb77a"},"vehicle_type_id":"4","last_reported":1744042281,"current_range_meters":15200,"station_id":"ce4bho12rcd13ifvqh1g","pricing_plan_id":"cebpf4jnsgd1na2vs0mg"},{"bike_id":"9418927e-7144-408d-bcb7-ab2db95f6f98","system_id":"levelo_inurba_marseille","lat":43.29199,"lon":5.35805,"is_reserved":false,"is_disabled":false,"rental_uris":{"android":"levelo://app?vid=9418927e-7144-408d-bcb7-ab2db95f6f98","ios":"levelo://app?vid=9418927e-7144-408d-bcb7-ab2db95f6f98"},"vehicle_type_id":"4","last_reported":1744042281,"current_range_meters":15200,"station_id":"ce4bhb12rcd13ifvqel0","pricing_plan_id":"cebpf4jnsgd1na2vs0mg"},{"bike_id":"970063df-8e98-4a59-9db8-4684f6a2cf8f","system_id":"levelo_inurba_marseille","lat":43.3033,"lon":5.36907,"is_reserved":false,"is_disabled":false,"rental_uris":{"android":"levelo://app?vid=970063df-8e98-4a59-9db8-4684f6a2cf8f","ios":"levelo://app?vid=970063df-8e98-4a59-9db8-4684f6a2cf8f"},"vehicle_type_id":"4","last_reported":1744042281,"current_range_meters":16000,"station_id":"ce4bgqh2rcd13ifvqc5g","pricing_plan_id":"cebpf4jnsgd1na2vs0mg"},{"bike_id":"93e3fd92-d65f-4f36-ba40-a3e5476ebc87","system_id":"levelo_inurba_marseille","lat":43.30677,"lon":5.36623,"is_reserved":false,"is_disabled":false,"rental_uris":{"android":"levelo://app?vid=93e3fd92-d65f-4f36-ba40-a3e5476ebc87","ios":"levelo://app?vid=93e3fd92-d65f-4f36-ba40-a3e5476ebc87"},"vehicle_type_id":"4","last_reported":1744042281,"current_range_meters":16000,"station_id":"","pricing_plan_id":"cebpf4jnsgd1na2vs0mg"},{"bike_id":"f4305726-8ff5-4a68-94c5-8ee95314b6a0","system_id":"levelo_inurba_marseille","lat":43.29882,"lon":5.38888,"is_reserved":false,"is_disabled":false,"rental_uris":{"android":"levelo://app?vid=f4305726-8ff5-4a68-94c5-8ee95314b6a0","ios":"levelo://app?vid=f4305726-8ff5-4a68-94c5-8ee95314b6a0"},"vehicle_type_id":"4","last_reported":1744042281,"current_range_meters":16000,"station_id":"ce4bh392rcd13ifvqdl0","pricing_plan_id":"cebpf4jnsgd1na2vs0mg"},{"bike_id":"0aa02c49-cbb3-4907-a588-f754056f3ba8","system_id":"levelo_inurba_marseille","lat":43.308066,"lon":5.381456,"is_reserved":false,"is_disabled":true,"rental_uris":{"android":"levelo://app?vid=0aa02c49-cbb3-4907-a588-f754056f3ba8","ios":"levelo://app?vid=0aa02c49-cbb3-4907-a588-f754056f3ba8"},"vehicle_type_id":"4","last_reported":1744042281,"current_range_meters":16000,"station_id":"ce4bgt12rcd13ifvqce0","pricing_plan_id":"cebpf4jnsgd1na2vs0mg"},{"bike_id":"e5d3ecdd-bcca-4a07-9d2b-38a2a490561e","system_id":"levelo_inurba_marseille","lat":43.27901,"lon":5.38007,"is_reserved":false,"is_disabled":false,"rental_uris":{"android":"levelo://app?vid=e5d3ecdd-bcca-4a07-9d2b-38a2a490561e","ios":"levelo://app?vid=e5d3ecdd-bcca-4a07-9d2b-38a2a490561e"},"vehicle_type_id":"4","last_reported":1744042281,"current_range_meters":16000,"station_id":"ce4bhf92rcd13ifvqf50","pricing_plan_id":"cebpf4jnsgd1na2vs0mg"},{"bike_id":"17e8eaac-1d12-4474-9074-3e9d1730a705","system_id":"levelo_inurba_marseille","lat":43.29215,"lon":5.36083,"is_reserved":false,"is_disabled":false,"rental_uris":{"android":"levelo://app?vid=17e8eaac-1d12-4474-9074-3e9d1730a705","ios":"levelo://app?vid=17e8eaac-1d12-4474-9074-3e9d1730a705"},"vehicle_type_id":"4","last_reported":1744042281,"current_range_meters":16000,"station_id":"ce4bhbh2rcd13ifvqeqg","pricing_plan_id":"cebpf4jnsgd1na2vs0mg"},{"bike_id":"61cd41de-07c4-4597-a74e-0c712a9e4d87","system_id":"levelo_inurba_marseille","lat":43.2294,"lon":5.35378,"is_reserved":false,"is_disabled":true,"rental_uris":{"android":"levelo://app?vid=61cd41de-07c4-4597-a74e-0c712a9e4d87","ios":"levelo://app?vid=61cd41de-07c4-4597-a74e-0c712a9e4d87"},"vehicle_type_id":"4","last_reported":1744042281,"current_range_meters":16000,"station_id":"cpo3532slgdg3j2ikp40","pricing_plan_id":"cebpf4jnsgd1na2vs0mg"},{"bike_id":"68d1cc33-0218-451e-8e10-d32225c21263","system_id":"levelo_inurba_marseille","lat":43.23169,"lon":5.43578,"is_reserved":false,"is_disabled":true,"rental_uris":{"android":"levelo://app?vid=68d1cc33-0218-451e-8e10-d32225c21263","ios":"levelo://app?vid=68d1cc33-0218-451e-8e10-d32225c21263"},"vehicle_type_id":"4","last_reported":1744042281,"current_range_meters":16000,"station_id":"ce4bhmp2rcd13ifvqgog","pricing_plan_id":"cebpf4jnsgd1na2vs0mg"},{"bike_id":"a1bcaac0-5377-4d8c-b3c5-3b8ec128a2c8","system_id":"levelo_inurba_marseille","lat":43.27177,"lon":5.40994,"is_reserved":false,"is_disabled":false,"rental_uris":{"android":"levelo://app?vid=a1bcaac0-5377-4d8c-b3c5-3b8ec128a2c8","ios":"levelo://app?vid=a1bcaac0-5377-4d8c-b3c5-3b8ec128a2c8"},"vehicle_type_id":"4","last_reported":1744042281,"current_range_meters":16400,"station_id":"ce4bhl12rcd13ifvqgf0","pricing_plan_id":"cebpf4jnsgd1na2vs0mg"},{"bike_id":"158df057-ca83-4895-ad1d-881f1e1b56e6","system_id":"levelo_inurba_marseille","lat":43.27208,"lon":5.3919,"is_reserved":false,"is_disabled":true,"rental_uris":{"android":"levelo://app?vid=158df057-ca83-4895-ad1d-881f1e1b56e6","ios":"levelo://app?vid=158df057-ca83-4895-ad1d-881f1e1b56e6"},"vehicle_type_id":"4","last_reported":1744042281,"current_range_meters":16400,"station_id":"ce4bhhp2rcd13ifvqfm0","pricing_plan_id":"cebpf4jnsgd1na2vs0mg"},{"bike_id":"b90edf9b-3be1-4e4f-be84-bc50e719ba3c","system_id":"levelo_inurba_marseille","lat":43.290416,"lon":5.369614,"is_reserved":false,"is_disabled":false,"rental_uris":{"android":"levelo://app?vid=b90edf9b-3be1-4e4f-be84-bc50e719ba3c","ios":"levelo://app?vid=b90edf9b-3be1-4e4f-be84-bc50e719ba3c"},"vehicle_type_id":"4","last_reported":1744042281,"current_range_meters":16400,"station_id":"ce4bh5p2rcd13ifvqe4g","pricing_plan_id":"cebpf4jnsgd1na2vs0mg"},{"bike_id":"a2b55975-55e4-4a3f-8af7-2c27ff45ed68","system_id":"levelo_inurba_marseille","lat":43.28147,"lon":5.42635,"is_reserved":false,"is_disabled":true,"rental_uris":{"android":"levelo://app?vid=a2b55975-55e4-4a3f-8af7-2c27ff45ed68","ios":"levelo://app?vid=a2b55975-55e4-4a3f-8af7-2c27ff45ed68"},"vehicle_type_id":"4","last_reported":1744042281,"current_range_meters":16800,"station_id":"ce4bhnh2rcd13ifvqgug","pricing_plan_id":"cebpf4jnsgd1na2vs0mg"},{"bike_id":"8d36f268-69d4-413e-a830-d0f121ad6c84","system_id":"levelo_inurba_marseille","lat":43.25106,"lon":5.39534,"is_reserved":false,"is_disabled":false,"rental_uris":{"android":"levelo://app?vid=8d36f268-69d4-413e-a830-d0f121ad6c84","ios":"levelo://app?vid=8d36f268-69d4-413e-a830-d0f121ad6c84"},"vehicle_type_id":"4","last_reported":1744042281,"current_range_meters":16800,"station_id":"ce4bhm12rcd13ifvqgkg","pricing_plan_id":"cebpf4jnsgd1na2vs0mg"},{"bike_id":"883800ee-1d6d-4852-878d-157125380d78","system_id":"levelo_inurba_marseille","lat":43.30881,"lon":5.39645,"is_reserved":false,"is_disabled":false,"rental_uris":{"android":"levelo://app?vid=883800ee-1d6d-4852-878d-157125380d78","ios":"levelo://app?vid=883800ee-1d6d-4852-878d-157125380d78"},"vehicle_type_id":"4","last_reported":1744042281,"current_range_meters":16400,"station_id":"ce4bh012rcd13ifvqcv0","pricing_plan_id":"cebpf4jnsgd1na2vs0mg"},{"bike_id":"d01814b3-39f1-4bf5-905f-07c6028f7394","system_id":"levelo_inurba_marseille","lat":43.321046,"lon":5.367889,"is_reserved":false,"is_disabled":false,"rental_uris":{"android":"levelo://app?vid=d01814b3-39f1-4bf5-905f-07c6028f7394","ios":"levelo://app?vid=d01814b3-39f1-4bf5-905f-07c6028f7394"},"vehicle_type_id":"4","last_reported":1744042281,"current_range_meters":16800,"station_id":"ce4bhrh2rcd13ifvqhug","pricing_plan_id":"cebpf4jnsgd1na2vs0mg"},{"bike_id":"bafdae85-0cc7-4e91-b5a1-84e68ba33e73","system_id":"levelo_inurba_marseille","lat":43.29631,"lon":5.37164,"is_reserved":false,"is_disabled":false,"rental_uris":{"android":"levelo://app?vid=bafdae85-0cc7-4e91-b5a1-84e68ba33e73","ios":"levelo://app?vid=bafdae85-0cc7-4e91-b5a1-84e68ba33e73"},"vehicle_type_id":"4","last_reported":1744042281,"current_range_meters":16800,"station_id":"ce4bgnh2rcd13ifvqc0g","pricing_plan_id":"cebpf4jnsgd1na2vs0mg"},{"bike_id":"14bf15dc-7e34-4ff1-b9b9-117e9d0d942d","system_id":"levelo_inurba_marseille","lat":43.29273,"lon":5.40902,"is_reserved":false,"is_disabled":false,"rental_uris":{"android":"levelo://app?vid=14bf15dc-7e34-4ff1-b9b9-117e9d0d942d","ios":"levelo://app?vid=14bf15dc-7e34-4ff1-b9b9-117e9d0d942d"},"vehicle_type_id":"4","last_reported":1744042281,"current_range_meters":16800,"station_id":"ce4bh192rcd13ifvqdc0","pricing_plan_id":"cebpf4jnsgd1na2vs0mg"},{"bike_id":"d356e59d-8118-48ae-aae4-c69d132bbbe9","system_id":"levelo_inurba_marseille","lat":43.29793,"lon":5.38107,"is_reserved":false,"is_disabled":false,"rental_uris":{"android":"levelo://app?vid=d356e59d-8118-48ae-aae4-c69d132bbbe9","ios":"levelo://app?vid=d356e59d-8118-48ae-aae4-c69d132bbbe9"},"vehicle_type_id":"4","last_reported":1744042281,"current_range_meters":16800,"station_id":"ce4bgip2rcd13ifvqbb0","pricing_plan_id":"cebpf4jnsgd1na2vs0mg"},{"bike_id":"45d83681-f2eb-4a39-a20c-4022ba893ea0","system_id":"levelo_inurba_marseille","lat":43.33934,"lon":5.3923,"is_reserved":false,"is_disabled":false,"rental_uris":{"android":"levelo://app?vid=45d83681-f2eb-4a39-a20c-4022ba893ea0","ios":"levelo://app?vid=45d83681-f2eb-4a39-a20c-4022ba893ea0"},"vehicle_type_id":"4","last_reported":1744042281,"current_range_meters":16800,"station_id":"","pricing_plan_id":"cebpf4jnsgd1na2vs0mg"},{"bike_id":"1d84c606-ef06-4375-8510-76eb6f62237f","system_id":"levelo_inurba_marseille","lat":43.32369,"lon":5.3889,"is_reserved":false,"is_disabled":false,"rental_uris":{"android":"levelo://app?vid=1d84c606-ef06-4375-8510-76eb6f62237f","ios":"levelo://app?vid=1d84c606-ef06-4375-8510-76eb6f62237f"},"vehicle_type_id":"4","last_reported":1744042281,"current_range_meters":17200,"station_id":"ce4bhqp2rcd13ifvqhog","pricing_plan_id":"cebpf4jnsgd1na2vs0mg"},{"bike_id":"a4cd70d8-1d72-48fa-91f5-25356097ab83","system_id":"levelo_inurba_marseille","lat":43.280334,"lon":5.369443,"is_reserved":false,"is_disabled":false,"rental_uris":{"android":"levelo://app?vid=a4cd70d8-1d72-48fa-91f5-25356097ab83","ios":"levelo://app?vid=a4cd70d8-1d72-48fa-91f5-25356097ab83"},"vehicle_type_id":"4","last_reported":1744042281,"current_range_meters":17600,"station_id":"ce4bha12rcd13ifvqef0","pricing_plan_id":"cebpf4jnsgd1na2vs0mg"},{"bike_id":"14652349-0df2-4b05-9138-9f52f4edad62","system_id":"levelo_inurba_marseille","lat":43.26564,"lon":5.39017,"is_reserved":false,"is_disabled":false,"rental_uris":{"android":"levelo://app?vid=14652349-0df2-4b05-9138-9f52f4edad62","ios":"levelo://app?vid=14652349-0df2-4b05-9138-9f52f4edad62"},"vehicle_type_id":"4","last_reported":1744042281,"current_range_meters":17600,"station_id":"ce4bhe12rcd13ifvqf30","pricing_plan_id":"cebpf4jnsgd1na2vs0mg"},{"bike_id":"5f9d16aa-61b1-4636-8345-61a4681dbeec","system_id":"levelo_inurba_marseille","lat":43.30552,"lon":5.36538,"is_reserved":false,"is_disabled":false,"rental_uris":{"android":"levelo://app?vid=5f9d16aa-61b1-4636-8345-61a4681dbeec","ios":"levelo://app?vid=5f9d16aa-61b1-4636-8345-61a4681dbeec"},"vehicle_type_id":"4","last_reported":1744042281,"current_range_meters":17600,"station_id":"ce4bgs12rcd13ifvqcag","pricing_plan_id":"cebpf4jnsgd1na2vs0mg"},{"bike_id":"1ca7d0c4-b7aa-4350-ad9f-4e24c2ba029a","system_id":"levelo_inurba_marseille","lat":43.3037,"lon":5.42511,"is_reserved":false,"is_disabled":true,"rental_uris":{"android":"levelo://app?vid=1ca7d0c4-b7aa-4350-ad9f-4e24c2ba029a","ios":"levelo://app?vid=1ca7d0c4-b7aa-4350-ad9f-4e24c2ba029a"},"vehicle_type_id":"4","last_reported":1744042281,"current_range_meters":17600,"station_id":"ce4bhoh2rcd13ifvqh6g","pricing_plan_id":"cebpf4jnsgd1na2vs0mg"},{"bike_id":"d752b5c1-fdcf-4864-9a6e-c3cb8dab3734","system_id":"levelo_inurba_marseille","lat":43.30586,"lon":5.36597,"is_reserved":false,"is_disabled":false,"rental_uris":{"android":"levelo://app?vid=d752b5c1-fdcf-4864-9a6e-c3cb8dab3734","ios":"levelo://app?vid=d752b5c1-fdcf-4864-9a6e-c3cb8dab3734"},"vehicle_type_id":"4","last_reported":1744042281,"current_range_meters":17600,"station_id":"ce4bgs12rcd13ifvqcag","pricing_plan_id":"cebpf4jnsgd1na2vs0mg"},{"bike_id":"26c7db6a-1e0f-4f03-b71d-4fee3630280f","system_id":"levelo_inurba_marseille","lat":43.27618,"lon":5.36112,"is_reserved":false,"is_disabled":false,"rental_uris":{"android":"levelo://app?vid=26c7db6a-1e0f-4f03-b71d-4fee3630280f","ios":"levelo://app?vid=26c7db6a-1e0f-4f03-b71d-4fee3630280f"},"vehicle_type_id":"4","last_reported":1744042281,"current_range_meters":17600,"station_id":"ce4bgj92rcd13ifvqbe0","pricing_plan_id":"cebpf4jnsgd1na2vs0mg"},{"bike_id":"97252b29-3e3b-4dc3-87c8-99440f689302","system_id":"levelo_inurba_marseille","lat":43.30791,"lon":5.38156,"is_reserved":false,"is_disabled":false,"rental_uris":{"android":"levelo://app?vid=97252b29-3e3b-4dc3-87c8-99440f689302","ios":"levelo://app?vid=97252b29-3e3b-4dc3-87c8-99440f689302"},"vehicle_type_id":"4","last_reported":1744042281,"current_range_meters":17600,"station_id":"ce4bgt12rcd13ifvqce0","pricing_plan_id":"cebpf4jnsgd1na2vs0mg"},{"bike_id":"3fdcef7f-82ac-4035-9a94-d3748a8f0516","system_id":"levelo_inurba_marseille","lat":43.29533,"lon":5.38544,"is_reserved":false,"is_disabled":false,"rental_uris":{"android":"levelo://app?vid=3fdcef7f-82ac-4035-9a94-d3748a8f0516","ios":"levelo://app?vid=3fdcef7f-82ac-4035-9a94-d3748a8f0516"},"vehicle_type_id":"4","last_reported":1744042281,"current_range_meters":17600,"station_id":"ce4bgih2rcd13ifvqba0","pricing_plan_id":"cebpf4jnsgd1na2vs0mg"},{"bike_id":"fbe27213-9351-4c47-8819-a8eeb6a2201b","system_id":"levelo_inurba_marseille","lat":43.28391,"lon":5.37525,"is_reserved":false,"is_disabled":false,"rental_uris":{"android":"levelo://app?vid=fbe27213-9351-4c47-8819-a8eeb6a2201b","ios":"levelo://app?vid=fbe27213-9351-4c47-8819-a8eeb6a2201b"},"vehicle_type_id":"4","last_reported":1744042281,"current_range_meters":17600,"station_id":"ce4bh412rcd13ifvqds0","pricing_plan_id":"cebpf4jnsgd1na2vs0mg"},{"bike_id":"3cd56747-46ba-4592-9bbb-1fc06a6dfa9a","system_id":"levelo_inurba_marseille","lat":43.25584,"lon":5.38231,"is_reserved":false,"is_disabled":false,"rental_uris":{"android":"levelo://app?vid=3cd56747-46ba-4592-9bbb-1fc06a6dfa9a","ios":"levelo://app?vid=3cd56747-46ba-4592-9bbb-1fc06a6dfa9a"},"vehicle_type_id":"4","last_reported":1744042281,"current_range_meters":17200,"station_id":"ce4bhih2rcd13ifvqfs0","pricing_plan_id":"cebpf4jnsgd1na2vs0mg"},{"bike_id":"1de6aaa0-dca2-4c72-8cfa-25bec4a527c7","system_id":"levelo_inurba_marseille","lat":43.28725,"lon":5.3609,"is_reserved":false,"is_disabled":false,"rental_uris":{"android":"levelo://app?vid=1de6aaa0-dca2-4c72-8cfa-25bec4a527c7","ios":"levelo://app?vid=1de6aaa0-dca2-4c72-8cfa-25bec4a527c7"},"vehicle_type_id":"4","last_reported":1744042281,"current_range_meters":17600,"station_id":"cki0cbj6b192h4jlfktg","pricing_plan_id":"cebpf4jnsgd1na2vs0mg"},{"bike_id":"c084d0c5-f997-4940-9d92-42595bfec540","system_id":"levelo_inurba_marseille","lat":43.284101,"lon":5.374817,"is_reserved":false,"is_disabled":false,"rental_uris":{"android":"levelo://app?vid=c084d0c5-f997-4940-9d92-42595bfec540","ios":"levelo://app?vid=c084d0c5-f997-4940-9d92-42595bfec540"},"vehicle_type_id":"4","last_reported":1744042281,"current_range_meters":17600,"station_id":"ce4bh412rcd13ifvqds0","pricing_plan_id":"cebpf4jnsgd1na2vs0mg"},{"bike_id":"19ddbed7-3435-4568-afda-6f4b5df76cb0","system_id":"levelo_inurba_marseille","lat":43.29967,"lon":5.38492,"is_reserved":false,"is_disabled":false,"rental_uris":{"android":"levelo://app?vid=19ddbed7-3435-4568-afda-6f4b5df76cb0","ios":"levelo://app?vid=19ddbed7-3435-4568-afda-6f4b5df76cb0"},"vehicle_type_id":"4","last_reported":1744042281,"current_range_meters":18000,"station_id":"ce4bgj92rcd13ifvqbd0","pricing_plan_id":"cebpf4jnsgd1na2vs0mg"},{"bike_id":"e054f688-e975-45ab-8945-bcc4f74953b0","system_id":"levelo_inurba_marseille","lat":43.29524,"lon":5.39038,"is_reserved":false,"is_disabled":false,"rental_uris":{"android":"levelo://app?vid=e054f688-e975-45ab-8945-bcc4f74953b0","ios":"levelo://app?vid=e054f688-e975-45ab-8945-bcc4f74953b0"},"vehicle_type_id":"4","last_reported":1744042281,"current_range_meters":18000,"station_id":"ce4bh3p2rcd13ifvqdp0","pricing_plan_id":"cebpf4jnsgd1na2vs0mg"},{"bike_id":"95cd3b4c-70dd-46b8-86a3-af37109c10c1","system_id":"levelo_inurba_marseille","lat":43.29524,"lon":5.38547,"is_reserved":false,"is_disabled":false,"rental_uris":{"android":"levelo://app?vid=95cd3b4c-70dd-46b8-86a3-af37109c10c1","ios":"levelo://app?vid=95cd3b4c-70dd-46b8-86a3-af37109c10c1"},"vehicle_type_id":"4","last_reported":1744042281,"current_range_meters":18000,"station_id":"ce4bgih2rcd13ifvqba0","pricing_plan_id":"cebpf4jnsgd1na2vs0mg"},{"bike_id":"67f5402e-84ba-4cca-bae1-1308d8bfce95","system_id":"levelo_inurba_marseille","lat":43.32355,"lon":5.36757,"is_reserved":false,"is_disabled":false,"rental_uris":{"android":"levelo://app?vid=67f5402e-84ba-4cca-bae1-1308d8bfce95","ios":"levelo://app?vid=67f5402e-84ba-4cca-bae1-1308d8bfce95"},"vehicle_type_id":"4","last_reported":1744042281,"current_range_meters":18000,"station_id":"ce4bhsh2rcd13ifvqi2g","pricing_plan_id":"cebpf4jnsgd1na2vs0mg"},{"bike_id":"d41a164c-6af8-4344-bffb-3b3c38a6d184","system_id":"levelo_inurba_marseille","lat":43.30548,"lon":5.3655,"is_reserved":false,"is_disabled":true,"rental_uris":{"android":"levelo://app?vid=d41a164c-6af8-4344-bffb-3b3c38a6d184","ios":"levelo://app?vid=d41a164c-6af8-4344-bffb-3b3c38a6d184"},"vehicle_type_id":"4","last_reported":1744042281,"current_range_meters":18000,"station_id":"ce4bgs12rcd13ifvqcag","pricing_plan_id":"cebpf4jnsgd1na2vs0mg"},{"bike_id":"5d3716dc-20b9-4b55-abfc-b770391233e1","system_id":"levelo_inurba_marseille","lat":43.24806,"lon":5.37453,"is_reserved":false,"is_disabled":false,"rental_uris":{"android":"levelo://app?vid=5d3716dc-20b9-4b55-abfc-b770391233e1","ios":"levelo://app?vid=5d3716dc-20b9-4b55-abfc-b770391233e1"},"vehicle_type_id":"4","last_reported":1744042281,"current_range_meters":18000,"station_id":"ce4bhgh2rcd13ifvqfb0","pricing_plan_id":"cebpf4jnsgd1na2vs0mg"},{"bike_id":"af24e20d-cd14-47b0-8e42-24aa1cee57db","system_id":"levelo_inurba_marseille","lat":43.27509,"lon":5.4248,"is_reserved":false,"is_disabled":false,"rental_uris":{"android":"levelo://app?vid=af24e20d-cd14-47b0-8e42-24aa1cee57db","ios":"levelo://app?vid=af24e20d-cd14-47b0-8e42-24aa1cee57db"},"vehicle_type_id":"4","last_reported":1744042281,"current_range_meters":18000,"station_id":"ce4bhn92rcd13ifvqgrg","pricing_plan_id":"cebpf4jnsgd1na2vs0mg"},{"bike_id":"77e312f7-9a55-4e5d-bffa-9abc4295767b","system_id":"levelo_inurba_marseille","lat":43.31756,"lon":5.39015,"is_reserved":false,"is_disabled":false,"rental_uris":{"android":"levelo://app?vid=77e312f7-9a55-4e5d-bffa-9abc4295767b","ios":"levelo://app?vid=77e312f7-9a55-4e5d-bffa-9abc4295767b"},"vehicle_type_id":"4","last_reported":1744042281,"current_range_meters":18800,"station_id":"ce4bhqp2rcd13ifvqhng","pricing_plan_id":"cebpf4jnsgd1na2vs0mg"},{"bike_id":"36399e24-88a2-4532-a597-07d09942d4dd","system_id":"levelo_inurba_marseille","lat":43.28455,"lon":5.35883,"is_reserved":false,"is_disabled":false,"rental_uris":{"android":"levelo://app?vid=36399e24-88a2-4532-a597-07d09942d4dd","ios":"levelo://app?vid=36399e24-88a2-4532-a597-07d09942d4dd"},"vehicle_type_id":"4","last_reported":1744042281,"current_range_meters":18800,"station_id":"ce4bhah2rcd13ifvqei0","pricing_plan_id":"cebpf4jnsgd1na2vs0mg"},{"bike_id":"7bf83029-c6bd-4662-9f2f-663083510292","system_id":"levelo_inurba_marseille","lat":43.21751,"lon":5.34597,"is_reserved":false,"is_disabled":false,"rental_uris":{"android":"levelo://app?vid=7bf83029-c6bd-4662-9f2f-663083510292","ios":"levelo://app?vid=7bf83029-c6bd-4662-9f2f-663083510292"},"vehicle_type_id":"4","last_reported":1744042281,"current_range_meters":18800,"station_id":"st_cvj6r9ubvosntc0bgbag","pricing_plan_id":"cebpf4jnsgd1na2vs0mg"},{"bike_id":"0d137e5e-4aa9-4d4c-b4ca-556b2a058b9d","system_id":"levelo_inurba_marseille","lat":43.24783,"lon":5.39409,"is_reserved":false,"is_disabled":false,"rental_uris":{"android":"levelo://app?vid=0d137e5e-4aa9-4d4c-b4ca-556b2a058b9d","ios":"levelo://app?vid=0d137e5e-4aa9-4d4c-b4ca-556b2a058b9d"},"vehicle_type_id":"4","last_reported":1744042281,"current_range_meters":18800,"station_id":"","pricing_plan_id":"cebpf4jnsgd1na2vs0mg"},{"bike_id":"3992552f-8665-4257-82ce-346cf4533fc2","system_id":"levelo_inurba_marseille","lat":43.27813,"lon":5.40711,"is_reserved":false,"is_disabled":false,"rental_uris":{"android":"levelo://app?vid=3992552f-8665-4257-82ce-346cf4533fc2","ios":"levelo://app?vid=3992552f-8665-4257-82ce-346cf4533fc2"},"vehicle_type_id":"4","last_reported":1744042281,"current_range_meters":18000,"station_id":"ce4bhnh2rcd13ifvqgtg","pricing_plan_id":"cebpf4jnsgd1na2vs0mg"},{"bike_id":"ffd23061-d90c-47a4-89fb-f1646bcdff1c","system_id":"levelo_inurba_marseille","lat":43.27069,"lon":5.42282,"is_reserved":false,"is_disabled":true,"rental_uris":{"android":"levelo://app?vid=ffd23061-d90c-47a4-89fb-f1646bcdff1c","ios":"levelo://app?vid=ffd23061-d90c-47a4-89fb-f1646bcdff1c"},"vehicle_type_id":"4","last_reported":1744042281,"current_range_meters":19200,"station_id":"ce4bhk92rcd13ifvqgb0","pricing_plan_id":"cebpf4jnsgd1na2vs0mg"},{"bike_id":"9fa327af-1d0b-421f-a244-507cb4eaafc4","system_id":"levelo_inurba_marseille","lat":43.29253,"lon":5.40905,"is_reserved":false,"is_disabled":false,"rental_uris":{"android":"levelo://app?vid=9fa327af-1d0b-421f-a244-507cb4eaafc4","ios":"levelo://app?vid=9fa327af-1d0b-421f-a244-507cb4eaafc4"},"vehicle_type_id":"4","last_reported":1744042281,"current_range_meters":19200,"station_id":"ce4bh192rcd13ifvqdc0","pricing_plan_id":"cebpf4jnsgd1na2vs0mg"},{"bike_id":"1e71b6de-6f0b-43a6-b3f0-9d00a7203dba","system_id":"levelo_inurba_marseille","lat":43.241684,"lon":5.363964,"is_reserved":false,"is_disabled":false,"rental_uris":{"android":"levelo://app?vid=1e71b6de-6f0b-43a6-b3f0-9d00a7203dba","ios":"levelo://app?vid=1e71b6de-6f0b-43a6-b3f0-9d00a7203dba"},"vehicle_type_id":"4","last_reported":1744042281,"current_range_meters":19200,"station_id":"cpo36qri1sfpv3e86is0","pricing_plan_id":"cebpf4jnsgd1na2vs0mg"},{"bike_id":"c767ac25-f4bb-4b50-b665-a33322b95b6b","system_id":"levelo_inurba_marseille","lat":43.29778,"lon":5.38115,"is_reserved":false,"is_disabled":false,"rental_uris":{"android":"levelo://app?vid=c767ac25-f4bb-4b50-b665-a33322b95b6b","ios":"levelo://app?vid=c767ac25-f4bb-4b50-b665-a33322b95b6b"},"vehicle_type_id":"4","last_reported":1744042281,"current_range_meters":19200,"station_id":"ce4bgip2rcd13ifvqbb0","pricing_plan_id":"cebpf4jnsgd1na2vs0mg"},{"bike_id":"af68e615-a358-41f5-8dd7-99e48a5cc046","system_id":"levelo_inurba_marseille","lat":43.293787,"lon":5.378488,"is_reserved":false,"is_disabled":false,"rental_uris":{"android":"levelo://app?vid=af68e615-a358-41f5-8dd7-99e48a5cc046","ios":"levelo://app?vid=af68e615-a358-41f5-8dd7-99e48a5cc046"},"vehicle_type_id":"4","last_reported":1744042281,"current_range_meters":19200,"station_id":"ce4bh292rcd13ifvqdg0","pricing_plan_id":"cebpf4jnsgd1na2vs0mg"},{"bike_id":"7999086f-3a1f-468f-8aca-c7e5d27999a6","system_id":"levelo_inurba_marseille","lat":43.32485,"lon":5.365679,"is_reserved":false,"is_disabled":false,"rental_uris":{"android":"levelo://app?vid=7999086f-3a1f-468f-8aca-c7e5d27999a6","ios":"levelo://app?vid=7999086f-3a1f-468f-8aca-c7e5d27999a6"},"vehicle_type_id":"4","last_reported":1744042281,"current_range_meters":19200,"station_id":"ce4bhnh2rcd13ifvqgtg","pricing_plan_id":"cebpf4jnsgd1na2vs0mg"},{"bike_id":"56c0b369-f360-4911-b820-2ed8b735a594","system_id":"levelo_inurba_marseille","lat":43.30139,"lon":5.3877,"is_reserved":false,"is_disabled":false,"rental_uris":{"android":"levelo://app?vid=56c0b369-f360-4911-b820-2ed8b735a594","ios":"levelo://app?vid=56c0b369-f360-4911-b820-2ed8b735a594"},"vehicle_type_id":"4","last_reported":1744042281,"current_range_meters":19600,"station_id":"ce4bghh2rcd13ifvqb60","pricing_plan_id":"cebpf4jnsgd1na2vs0mg"},{"bike_id":"97e4a1d4-d198-4744-b953-ad6a98125668","system_id":"levelo_inurba_marseille","lat":43.30121,"lon":5.39851,"is_reserved":false,"is_disabled":false,"rental_uris":{"android":"levelo://app?vid=97e4a1d4-d198-4744-b953-ad6a98125668","ios":"levelo://app?vid=97e4a1d4-d198-4744-b953-ad6a98125668"},"vehicle_type_id":"4","last_reported":1744042281,"current_range_meters":19600,"station_id":"ce4bh0h2rcd13ifvqd40","pricing_plan_id":"cebpf4jnsgd1na2vs0mg"},{"bike_id":"302b0c63-344c-4e0d-b6e7-6cb2af7663da","system_id":"levelo_inurba_marseille","lat":43.26946,"lon":5.38656,"is_reserved":false,"is_disabled":true,"rental_uris":{"android":"levelo://app?vid=302b0c63-344c-4e0d-b6e7-6cb2af7663da","ios":"levelo://app?vid=302b0c63-344c-4e0d-b6e7-6cb2af7663da"},"vehicle_type_id":"4","last_reported":1744042281,"current_range_meters":19600,"station_id":"ce4bhh92rcd13ifvqfh0","pricing_plan_id":"cebpf4jnsgd1na2vs0mg"},{"bike_id":"783f9a62-ebbf-4af8-8ed8-5c9ec8f23aeb","system_id":"levelo_inurba_marseille","lat":43.28615,"lon":5.351,"is_reserved":false,"is_disabled":false,"rental_uris":{"android":"levelo://app?vid=783f9a62-ebbf-4af8-8ed8-5c9ec8f23aeb","ios":"levelo://app?vid=783f9a62-ebbf-4af8-8ed8-5c9ec8f23aeb"},"vehicle_type_id":"4","last_reported":1744042281,"current_range_meters":19600,"station_id":"ce4bhch2rcd13ifvqeug","pricing_plan_id":"cebpf4jnsgd1na2vs0mg"},{"bike_id":"8cd4e28d-e72c-47b6-8d6c-623f064f79b6","system_id":"levelo_inurba_marseille","lat":43.30792,"lon":5.38158,"is_reserved":false,"is_disabled":false,"rental_uris":{"android":"levelo://app?vid=8cd4e28d-e72c-47b6-8d6c-623f064f79b6","ios":"levelo://app?vid=8cd4e28d-e72c-47b6-8d6c-623f064f79b6"},"vehicle_type_id":"4","last_reported":1744042281,"current_range_meters":19600,"station_id":"ce4bgt12rcd13ifvqce0","pricing_plan_id":"cebpf4jnsgd1na2vs0mg"},{"bike_id":"8e91459c-2b46-4e8e-a071-ebf06e8d4a5b","system_id":"levelo_inurba_marseille","lat":43.29005,"lon":5.35614,"is_reserved":false,"is_disabled":false,"rental_uris":{"android":"levelo://app?vid=8e91459c-2b46-4e8e-a071-ebf06e8d4a5b","ios":"levelo://app?vid=8e91459c-2b46-4e8e-a071-ebf06e8d4a5b"},"vehicle_type_id":"4","last_reported":1744042281,"current_range_meters":19600,"station_id":"ce4bhb92rcd13ifvqen0","pricing_plan_id":"cebpf4jnsgd1na2vs0mg"},{"bike_id":"ceb84081-1f7e-45f0-9dc2-e54fb2200013","system_id":"levelo_inurba_marseille","lat":43.29967,"lon":5.38495,"is_reserved":false,"is_disabled":false,"rental_uris":{"android":"levelo://app?vid=ceb84081-1f7e-45f0-9dc2-e54fb2200013","ios":"levelo://app?vid=ceb84081-1f7e-45f0-9dc2-e54fb2200013"},"vehicle_type_id":"4","last_reported":1744042281,"current_range_meters":19600,"station_id":"ce4bgj92rcd13ifvqbd0","pricing_plan_id":"cebpf4jnsgd1na2vs0mg"},{"bike_id":"230b73a5-e986-4f1f-933c-dca4f2cf61af","system_id":"levelo_inurba_marseille","lat":43.3473,"lon":5.34708,"is_reserved":false,"is_disabled":false,"rental_uris":{"android":"levelo://app?vid=230b73a5-e986-4f1f-933c-dca4f2cf61af","ios":"levelo://app?vid=230b73a5-e986-4f1f-933c-dca4f2cf61af"},"vehicle_type_id":"4","last_reported":1744042281,"current_range_meters":20000,"station_id":"","pricing_plan_id":"cebpf4jnsgd1na2vs0mg"},{"bike_id":"a5d742e8-0f0c-4c49-b54e-09c785a7a028","system_id":"levelo_inurba_marseille","lat":43.27067,"lon":5.4228,"is_reserved":false,"is_disabled":false,"rental_uris":{"android":"levelo://app?vid=a5d742e8-0f0c-4c49-b54e-09c785a7a028","ios":"levelo://app?vid=a5d742e8-0f0c-4c49-b54e-09c785a7a028"},"vehicle_type_id":"4","last_reported":1744042281,"current_range_meters":20000,"station_id":"ce4bhk92rcd13ifvqgb0","pricing_plan_id":"cebpf4jnsgd1na2vs0mg"},{"bike_id":"ee775a29-6cbe-4658-8a9d-8e0f28b9ca42","system_id":"levelo_inurba_marseille","lat":43.286237,"lon":5.351232,"is_reserved":false,"is_disabled":false,"rental_uris":{"android":"levelo://app?vid=ee775a29-6cbe-4658-8a9d-8e0f28b9ca42","ios":"levelo://app?vid=ee775a29-6cbe-4658-8a9d-8e0f28b9ca42"},"vehicle_type_id":"4","last_reported":1744042281,"current_range_meters":20000,"station_id":"ce4bhch2rcd13ifvqeug","pricing_plan_id":"cebpf4jnsgd1na2vs0mg"},{"bike_id":"76a1c6d7-1b31-4e00-9140-d614c83eeaeb","system_id":"levelo_inurba_marseille","lat":43.291665,"lon":5.371515,"is_reserved":false,"is_disabled":false,"rental_uris":{"android":"levelo://app?vid=76a1c6d7-1b31-4e00-9140-d614c83eeaeb","ios":"levelo://app?vid=76a1c6d7-1b31-4e00-9140-d614c83eeaeb"},"vehicle_type_id":"4","last_reported":1744042281,"current_range_meters":20000,"station_id":"ce4bha92rcd13ifvqeh0","pricing_plan_id":"cebpf4jnsgd1na2vs0mg"},{"bike_id":"107d7ec3-7961-4e6e-a4bf-d7fc57ab1620","system_id":"levelo_inurba_marseille","lat":43.25121,"lon":5.4035,"is_reserved":false,"is_disabled":false,"rental_uris":{"android":"levelo://app?vid=107d7ec3-7961-4e6e-a4bf-d7fc57ab1620","ios":"levelo://app?vid=107d7ec3-7961-4e6e-a4bf-d7fc57ab1620"},"vehicle_type_id":"4","last_reported":1744042281,"current_range_meters":20000,"station_id":"ce4bhlh2rcd13ifvqgig","pricing_plan_id":"cebpf4jnsgd1na2vs0mg"},{"bike_id":"28f57762-1fae-427b-978b-9978612beae6","system_id":"levelo_inurba_marseille","lat":43.29274,"lon":5.36843,"is_reserved":false,"is_disabled":false,"rental_uris":{"android":"levelo://app?vid=28f57762-1fae-427b-978b-9978612beae6","ios":"levelo://app?vid=28f57762-1fae-427b-978b-9978612beae6"},"vehicle_type_id":"4","last_reported":1744042281,"current_range_meters":20000,"station_id":"ce4bhbp2rcd13ifvqesg","pricing_plan_id":"cebpf4jnsgd1na2vs0mg"},{"bike_id":"5c315e5d-7df0-4594-a617-145ab59e2547","system_id":"levelo_inurba_marseille","lat":43.29419,"lon":5.38619,"is_reserved":false,"is_disabled":false,"rental_uris":{"android":"levelo://app?vid=5c315e5d-7df0-4594-a617-145ab59e2547","ios":"levelo://app?vid=5c315e5d-7df0-4594-a617-145ab59e2547"},"vehicle_type_id":"4","last_reported":1744042281,"current_range_meters":19600,"station_id":"ce4bh2h2rcd13ifvqdh0","pricing_plan_id":"cebpf4jnsgd1na2vs0mg"},{"bike_id":"724babbb-e4c8-4c4e-9a07-62ae6dca5eb0","system_id":"levelo_inurba_marseille","lat":43.29631,"lon":5.37147,"is_reserved":false,"is_disabled":false,"rental_uris":{"android":"levelo://app?vid=724babbb-e4c8-4c4e-9a07-62ae6dca5eb0","ios":"levelo://app?vid=724babbb-e4c8-4c4e-9a07-62ae6dca5eb0"},"vehicle_type_id":"4","last_reported":1744042281,"current_range_meters":20000,"station_id":"ce4bgnh2rcd13ifvqc0g","pricing_plan_id":"cebpf4jnsgd1na2vs0mg"},{"bike_id":"d87231b7-aff6-4409-be5c-a19bac0dbb76","system_id":"levelo_inurba_marseille","lat":43.28623,"lon":5.351,"is_reserved":false,"is_disabled":false,"rental_uris":{"android":"levelo://app?vid=d87231b7-aff6-4409-be5c-a19bac0dbb76","ios":"levelo://app?vid=d87231b7-aff6-4409-be5c-a19bac0dbb76"},"vehicle_type_id":"4","last_reported":1744042281,"current_range_meters":18000,"station_id":"ce4bhch2rcd13ifvqeug","pricing_plan_id":"cebpf4jnsgd1na2vs0mg"},{"bike_id":"cd2b8d07-8517-45fe-9fcc-ef273921cf42","system_id":"levelo_inurba_marseille","lat":43.26061,"lon":5.39394,"is_reserved":false,"is_disabled":false,"rental_uris":{"android":"levelo://app?vid=cd2b8d07-8517-45fe-9fcc-ef273921cf42","ios":"levelo://app?vid=cd2b8d07-8517-45fe-9fcc-ef273921cf42"},"vehicle_type_id":"4","last_reported":1744042281,"current_range_meters":20400,"station_id":"ce4bhh92rcd13ifvqfj0","pricing_plan_id":"cebpf4jnsgd1na2vs0mg"},{"bike_id":"3ddc8b85-2bb3-487e-9aff-53777749894b","system_id":"levelo_inurba_marseille","lat":43.28709,"lon":5.37391,"is_reserved":false,"is_disabled":false,"rental_uris":{"android":"levelo://app?vid=3ddc8b85-2bb3-487e-9aff-53777749894b","ios":"levelo://app?vid=3ddc8b85-2bb3-487e-9aff-53777749894b"},"vehicle_type_id":"4","last_reported":1744042281,"current_range_meters":20400,"station_id":"ce4bh3p2rcd13ifvqdq0","pricing_plan_id":"cebpf4jnsgd1na2vs0mg"},{"bike_id":"7712d13b-c7ba-414c-814e-02d99f45ace2","system_id":"levelo_inurba_marseille","lat":43.31328,"lon":5.39694,"is_reserved":false,"is_disabled":false,"rental_uris":{"android":"levelo://app?vid=7712d13b-c7ba-414c-814e-02d99f45ace2","ios":"levelo://app?vid=7712d13b-c7ba-414c-814e-02d99f45ace2"},"vehicle_type_id":"4","last_reported":1744042281,"current_range_meters":20400,"station_id":"ce4bgvp2rcd13ifvqcu0","pricing_plan_id":"cebpf4jnsgd1na2vs0mg"},{"bike_id":"07b29ea8-032a-4fd0-bfeb-d3ea69ca1db5","system_id":"levelo_inurba_marseille","lat":43.30545,"lon":5.36524,"is_reserved":false,"is_disabled":false,"rental_uris":{"android":"levelo://app?vid=07b29ea8-032a-4fd0-bfeb-d3ea69ca1db5","ios":"levelo://app?vid=07b29ea8-032a-4fd0-bfeb-d3ea69ca1db5"},"vehicle_type_id":"4","last_reported":1744042281,"current_range_meters":20400,"station_id":"ce4bgs12rcd13ifvqcag","pricing_plan_id":"cebpf4jnsgd1na2vs0mg"},{"bike_id":"18dc902e-6755-4e60-9d88-63206e228cea","system_id":"levelo_inurba_marseille","lat":43.29555,"lon":5.3855,"is_reserved":false,"is_disabled":false,"rental_uris":{"android":"levelo://app?vid=18dc902e-6755-4e60-9d88-63206e228cea","ios":"levelo://app?vid=18dc902e-6755-4e60-9d88-63206e228cea"},"vehicle_type_id":"4","last_reported":1744042281,"current_range_meters":20400,"station_id":"ce4bgih2rcd13ifvqba0","pricing_plan_id":"cebpf4jnsgd1na2vs0mg"},{"bike_id":"bb3f297e-519a-4b78-86e9-764a06c38a59","system_id":"levelo_inurba_marseille","lat":43.30222,"lon":5.39473,"is_reserved":false,"is_disabled":false,"rental_uris":{"android":"levelo://app?vid=bb3f297e-519a-4b78-86e9-764a06c38a59","ios":"levelo://app?vid=bb3f297e-519a-4b78-86e9-764a06c38a59"},"vehicle_type_id":"4","last_reported":1744042281,"current_range_meters":20000,"station_id":"ce4bh0p2rcd13ifvqd70","pricing_plan_id":"cebpf4jnsgd1na2vs0mg"},{"bike_id":"3cb55cc7-ccda-4599-bf14-4ead7353c4be","system_id":"levelo_inurba_marseille","lat":43.30954,"lon":5.39026,"is_reserved":false,"is_disabled":false,"rental_uris":{"android":"levelo://app?vid=3cb55cc7-ccda-4599-bf14-4ead7353c4be","ios":"levelo://app?vid=3cb55cc7-ccda-4599-bf14-4ead7353c4be"},"vehicle_type_id":"4","last_reported":1744042281,"current_range_meters":20400,"station_id":"ce4bgup2rcd13ifvqco0","pricing_plan_id":"cebpf4jnsgd1na2vs0mg"},{"bike_id":"3b6a3dbd-1ac7-40f2-a72d-b9b9af5f36d3","system_id":"levelo_inurba_marseille","lat":43.29779,"lon":5.39342,"is_reserved":false,"is_disabled":false,"rental_uris":{"android":"levelo://app?vid=3b6a3dbd-1ac7-40f2-a72d-b9b9af5f36d3","ios":"levelo://app?vid=3b6a3dbd-1ac7-40f2-a72d-b9b9af5f36d3"},"vehicle_type_id":"4","last_reported":1744042281,"current_range_meters":20000,"station_id":"chh1huq6cuj3fo74tm60","pricing_plan_id":"cebpf4jnsgd1na2vs0mg"},{"bike_id":"561fc01a-2ca6-4526-b310-a780b2699a12","system_id":"levelo_inurba_marseille","lat":43.29529,"lon":5.39044,"is_reserved":false,"is_disabled":false,"rental_uris":{"android":"levelo://app?vid=561fc01a-2ca6-4526-b310-a780b2699a12","ios":"levelo://app?vid=561fc01a-2ca6-4526-b310-a780b2699a12"},"vehicle_type_id":"4","last_reported":1744042281,"current_range_meters":20400,"station_id":"ce4bh3p2rcd13ifvqdp0","pricing_plan_id":"cebpf4jnsgd1na2vs0mg"},{"bike_id":"06cd2f9d-bedc-47ce-a5a3-69d916df1c30","system_id":"levelo_inurba_marseille","lat":43.29531,"lon":5.38537,"is_reserved":false,"is_disabled":false,"rental_uris":{"android":"levelo://app?vid=06cd2f9d-bedc-47ce-a5a3-69d916df1c30","ios":"levelo://app?vid=06cd2f9d-bedc-47ce-a5a3-69d916df1c30"},"vehicle_type_id":"4","last_reported":1744042281,"current_range_meters":20400,"station_id":"ce4bgih2rcd13ifvqba0","pricing_plan_id":"cebpf4jnsgd1na2vs0mg"},{"bike_id":"52dfef30-eef0-4dd6-a138-a48c8dcc2c3a","system_id":"levelo_inurba_marseille","lat":43.3041,"lon":5.42777,"is_reserved":false,"is_disabled":true,"rental_uris":{"android":"levelo://app?vid=52dfef30-eef0-4dd6-a138-a48c8dcc2c3a","ios":"levelo://app?vid=52dfef30-eef0-4dd6-a138-a48c8dcc2c3a"},"vehicle_type_id":"4","last_reported":1744042281,"current_range_meters":20800,"station_id":"","pricing_plan_id":"cebpf4jnsgd1na2vs0mg"},{"bike_id":"89ead0e1-ba9a-4eae-80bc-1a95315838ad","system_id":"levelo_inurba_marseille","lat":43.31757,"lon":5.39018,"is_reserved":false,"is_disabled":false,"rental_uris":{"android":"levelo://app?vid=89ead0e1-ba9a-4eae-80bc-1a95315838ad","ios":"levelo://app?vid=89ead0e1-ba9a-4eae-80bc-1a95315838ad"},"vehicle_type_id":"4","last_reported":1744042281,"current_range_meters":20800,"station_id":"ce4bhqp2rcd13ifvqhng","pricing_plan_id":"cebpf4jnsgd1na2vs0mg"},{"bike_id":"e2c63caa-ccb7-4f20-8fd3-5b7689653f49","system_id":"levelo_inurba_marseille","lat":43.2987,"lon":5.39732,"is_reserved":false,"is_disabled":false,"rental_uris":{"android":"levelo://app?vid=e2c63caa-ccb7-4f20-8fd3-5b7689653f49","ios":"levelo://app?vid=e2c63caa-ccb7-4f20-8fd3-5b7689653f49"},