{"last_updated":1739905668,"ttl":60,"version":"2.2","data":{"bikes":[{"bike_id":"4f26b0e4-49d5-4f19-a826-c74e60957318","system_id":"levelo_inurba_marseille","lat":43.27835,"lon":5.39216,"is_reserved":false,"is_disabled":false,"rental_uris":{"android":"levelo://app?vid=4f26b0e4-49d5-4f19-a826-c74e60957318","ios":"levelo://app?vid=4f26b0e4-49d5-4f19-a826-c74e60957318"},"vehicle_type_id":"4","last_reported":1739905668,"current_range_meters":2800,"station_id":"ce4bhjp2rcd13ifvqga0","pricing_plan_id":"cebpf4jnsgd1na2vs0mg"},{"bike_id":"57f4ca65-f7bb-49b3-a3fc-53623ec4a40a","system_id":"levelo_inurba_marseille","lat":43.29416,"lon":5.38626,"is_reserved":false,"is_disabled":false,"rental_uris":{"android":"levelo://app?vid=57f4ca65-f7bb-49b3-a3fc-53623ec4a40a","ios":"levelo://app?vid=57f4ca65-f7bb-49b3-a3fc-53623ec4a40a"},"vehicle_type_id":"4","last_reported":1739905668,"current_range_meters":2800,"station_id":"ce4bh2h2rcd13ifvqdh0","pricing_plan_id":"cebpf4jnsgd1na2vs0mg"},{"bike_id":"fefd6e86-4628-48bc-b0dd-5d2a72cda0f6","system_id":"levelo_inurba_marseille","lat":43.2928,"lon":5.3843,"is_reserved":false,"is_disabled":false,"rental_uris":{"android":"levelo://app?vid=fefd6e86-4628-48bc-b0dd-5d2a72cda0f6","ios":"levelo://app?vid=fefd6e86-4628-48bc-b0dd-5d2a72cda0f6"},"vehicle_type_id":"4","last_reported":1739905668,"current_range_meters":3200,"station_id":"","pricing_plan_id":"cebpf4jnsgd1na2vs0mg"},{"bike_id":"37b12570-e053-4fb7-87af-ba7c8058fbeb","system_id":"levelo_inurba_marseille","lat":43.2621,"lon":5.37427,"is_reserved":false,"is_disabled":false,"rental_uris":{"android":"levelo://app?vid=37b12570-e053-4fb7-87af-ba7c8058fbeb","ios":"levelo://app?vid=37b12570-e053-4fb7-87af-ba7c8058fbeb"},"vehicle_type_id":"4","last_reported":1739905668,"current_range_meters":3200,"station_id":"ce4bhgp2rcd13ifvqfc0","pricing_plan_id":"cebpf4jnsgd1na2vs0mg"},{"bike_id":"5c0ab466-3e63-4b3b-afb6-75035fa61dc7","system_id":"levelo_inurba_marseille","lat":43.30932,"lon":5.40145,"is_reserved":false,"is_disabled":false,"rental_uris":{"android":"levelo://app?vid=5c0ab466-3e63-4b3b-afb6-75035fa61dc7","ios":"levelo://app?vid=5c0ab466-3e63-4b3b-afb6-75035fa61dc7"},"vehicle_type_id":"4","last_reported":1739905668,"current_range_meters":3600,"station_id":"ce4bgvp2rcd13ifvqct0","pricing_plan_id":"cebpf4jnsgd1na2vs0mg"},{"bike_id":"603437b4-dbc4-4cee-a01c-391c16d56f98","system_id":"levelo_inurba_marseille","lat":43.27322,"lon":5.39074,"is_reserved":false,"is_disabled":false,"rental_uris":{"android":"levelo://app?vid=603437b4-dbc4-4cee-a01c-391c16d56f98","ios":"levelo://app?vid=603437b4-dbc4-4cee-a01c-391c16d56f98"},"vehicle_type_id":"4","last_reported":1739905668,"current_range_meters":3600,"station_id":"ce4bhbp2rcd13ifvqerg","pricing_plan_id":"cebpf4jnsgd1na2vs0mg"},{"bike_id":"2551601a-a4db-4018-86f1-dcc7267b2bee","system_id":"levelo_inurba_marseille","lat":43.29026,"lon":5.38629,"is_reserved":false,"is_disabled":false,"rental_uris":{"android":"levelo://app?vid=2551601a-a4db-4018-86f1-dcc7267b2bee","ios":"levelo://app?vid=2551601a-a4db-4018-86f1-dcc7267b2bee"},"vehicle_type_id":"4","last_reported":1739905668,"current_range_meters":4000,"station_id":"","pricing_plan_id":"cebpf4jnsgd1na2vs0mg"},{"bike_id":"e657cb7c-9c32-4a5c-ab3f-cf78ce10e8d3","system_id":"levelo_inurba_marseille","lat":43.26553,"lon":5.37283,"is_reserved":false,"is_disabled":false,"rental_uris":{"android":"levelo://app?vid=e657cb7c-9c32-4a5c-ab3f-cf78ce10e8d3","ios":"levelo://app?vid=e657cb7c-9c32-4a5c-ab3f-cf78ce10e8d3"},"vehicle_type_id":"4","last_reported":1739905668,"current_range_meters":4000,"station_id":"ce4bhg12rcd13ifvqf70","pricing_plan_id":"cebpf4jnsgd1na2vs0mg"},{"bike_id":"7bbbab80-5a5f-4971-8c81-0f63bddeb1fc","system_id":"levelo_inurba_marseille","lat":43.29003,"lon":5.35615,"is_reserved":false,"is_disabled":false,"rental_uris":{"android":"levelo://app?vid=7bbbab80-5a5f-4971-8c81-0f63bddeb1fc","ios":"levelo://app?vid=7bbbab80-5a5f-4971-8c81-0f63bddeb1fc"},"vehicle_type_id":"4","last_reported":1739905668,"current_range_meters":4000,"station_id":"ce4bhb92rcd13ifvqen0","pricing_plan_id":"cebpf4jnsgd1na2vs0mg"},{"bike_id":"d96d5e07-a975-4ab7-b501-5b5bd7c1cd28","system_id":"levelo_inurba_marseille","lat":43.29264,"lon":5.38442,"is_reserved":false,"is_disabled":false,"rental_uris":{"android":"levelo://app?vid=d96d5e07-a975-4ab7-b501-5b5bd7c1cd28","ios":"levelo://app?vid=d96d5e07-a975-4ab7-b501-5b5bd7c1cd28"},"vehicle_type_id":"4","last_reported":1739905668,"current_range_meters":4000,"station_id":"","pricing_plan_id":"cebpf4jnsgd1na2vs0mg"},{"bike_id":"9da1a49f-de30-40db-a859-2e76c053be5f","system_id":"levelo_inurba_marseille","lat":43.33012,"lon":5.39165,"is_reserved":false,"is_disabled":false,"rental_uris":{"android":"levelo://app?vid=9da1a49f-de30-40db-a859-2e76c053be5f","ios":"levelo://app?vid=9da1a49f-de30-40db-a859-2e76c053be5f"},"vehicle_type_id":"4","last_reported":1739905668,"current_range_meters":4400,"station_id":"ce4bhr92rcd13ifvqhrg","pricing_plan_id":"cebpf4jnsgd1na2vs0mg"},{"bike_id":"bd074d10-4174-4092-af62-afc50a97cd77","system_id":"levelo_inurba_marseille","lat":43.29409,"lon":5.38626,"is_reserved":false,"is_disabled":false,"rental_uris":{"android":"levelo://app?vid=bd074d10-4174-4092-af62-afc50a97cd77","ios":"levelo://app?vid=bd074d10-4174-4092-af62-afc50a97cd77"},"vehicle_type_id":"4","last_reported":1739905668,"current_range_meters":6400,"station_id":"","pricing_plan_id":"cebpf4jnsgd1na2vs0mg"},{"bike_id":"b0265b52-a5a3-4e34-ae5b-ca85d1729aa3","system_id":"levelo_inurba_marseille","lat":43.30174,"lon":5.36629,"is_reserved":false,"is_disabled":false,"rental_uris":{"android":"levelo://app?vid=b0265b52-a5a3-4e34-ae5b-ca85d1729aa3","ios":"levelo://app?vid=b0265b52-a5a3-4e34-ae5b-ca85d1729aa3"},"vehicle_type_id":"4","last_reported":1739905668,"current_range_meters":4800,"station_id":"ce4bgrh2rcd13ifvqc8g","pricing_plan_id":"cebpf4jnsgd1na2vs0mg"},{"bike_id":"a7f8b479-efb5-454d-8262-c96495774865","system_id":"levelo_inurba_marseille","lat":43.30485,"lon":5.37889,"is_reserved":false,"is_disabled":false,"rental_uris":{"android":"levelo://app?vid=a7f8b479-efb5-454d-8262-c96495774865","ios":"levelo://app?vid=a7f8b479-efb5-454d-8262-c96495774865"},"vehicle_type_id":"4","last_reported":1739905668,"current_range_meters":5600,"station_id":"ce4bgup2rcd13ifvqcn0","pricing_plan_id":"cebpf4jnsgd1na2vs0mg"},{"bike_id":"b6128f68-fd1d-48f3-95c3-7aa933ebb417","system_id":"levelo_inurba_marseille","lat":43.28406,"lon":5.37511,"is_reserved":false,"is_disabled":false,"rental_uris":{"android":"levelo://app?vid=b6128f68-fd1d-48f3-95c3-7aa933ebb417","ios":"levelo://app?vid=b6128f68-fd1d-48f3-95c3-7aa933ebb417"},"vehicle_type_id":"4","last_reported":1739905668,"current_range_meters":5600,"station_id":"ce4bh412rcd13ifvqds0","pricing_plan_id":"cebpf4jnsgd1na2vs0mg"},{"bike_id":"2e5e89c3-0e0e-4cca-b25a-7707cb6d7c5d","system_id":"levelo_inurba_marseille","lat":43.27649,"lon":5.40872,"is_reserved":false,"is_disabled":false,"rental_uris":{"android":"levelo://app?vid=2e5e89c3-0e0e-4cca-b25a-7707cb6d7c5d","ios":"levelo://app?vid=2e5e89c3-0e0e-4cca-b25a-7707cb6d7c5d"},"vehicle_type_id":"4","last_reported":1739905668,"current_range_meters":5600,"station_id":"","pricing_plan_id":"cebpf4jnsgd1na2vs0mg"},{"bike_id":"828f024f-3fa3-492e-b4f4-7bfb9d5e214d","system_id":"levelo_inurba_marseille","lat":43.27089,"lon":5.42304,"is_reserved":false,"is_disabled":true,"rental_uris":{"android":"levelo://app?vid=828f024f-3fa3-492e-b4f4-7bfb9d5e214d","ios":"levelo://app?vid=828f024f-3fa3-492e-b4f4-7bfb9d5e214d"},"vehicle_type_id":"4","last_reported":1739905668,"current_range_meters":5600,"station_id":"ce4bhk92rcd13ifvqgb0","pricing_plan_id":"cebpf4jnsgd1na2vs0mg"},{"bike_id":"15fd139a-47c1-44f4-8249-8d87a2311662","system_id":"levelo_inurba_marseille","lat":43.2957,"lon":5.39981,"is_reserved":false,"is_disabled":false,"rental_uris":{"android":"levelo://app?vid=15fd139a-47c1-44f4-8249-8d87a2311662","ios":"levelo://app?vid=15fd139a-47c1-44f4-8249-8d87a2311662"},"vehicle_type_id":"4","last_reported":1739905668,"current_range_meters":6000,"station_id":"ce4bh312rcd13ifvqdj0","pricing_plan_id":"cebpf4jnsgd1na2vs0mg"},{"bike_id":"7e8dd184-c878-45c4-b9eb-61dcc2280367","system_id":"levelo_inurba_marseille","lat":43.29539,"lon":5.38543,"is_reserved":false,"is_disabled":false,"rental_uris":{"android":"levelo://app?vid=7e8dd184-c878-45c4-b9eb-61dcc2280367","ios":"levelo://app?vid=7e8dd184-c878-45c4-b9eb-61dcc2280367"},"vehicle_type_id":"4","last_reported":1739905668,"current_range_meters":6000,"station_id":"","pricing_plan_id":"cebpf4jnsgd1na2vs0mg"},{"bike_id":"25dcf690-db42-4694-9c97-37e209bee538","system_id":"levelo_inurba_marseille","lat":43.2465,"lon":5.38896,"is_reserved":false,"is_disabled":false,"rental_uris":{"android":"levelo://app?vid=25dcf690-db42-4694-9c97-37e209bee538","ios":"levelo://app?vid=25dcf690-db42-4694-9c97-37e209bee538"},"vehicle_type_id":"4","last_reported":1739905668,"current_range_meters":6000,"station_id":"ce4bhg12rcd13ifvqf60","pricing_plan_id":"cebpf4jnsgd1na2vs0mg"},{"bike_id":"7b85ab77-b4da-49c0-828e-288db2e9b9ca","system_id":"levelo_inurba_marseille","lat":43.27841,"lon":5.392,"is_reserved":false,"is_disabled":false,"rental_uris":{"android":"levelo://app?vid=7b85ab77-b4da-49c0-828e-288db2e9b9ca","ios":"levelo://app?vid=7b85ab77-b4da-49c0-828e-288db2e9b9ca"},"vehicle_type_id":"4","last_reported":1739905668,"current_range_meters":6000,"station_id":"ce4bhjp2rcd13ifvqga0","pricing_plan_id":"cebpf4jnsgd1na2vs0mg"},{"bike_id":"b5c5bade-2778-4639-8617-6fd91395515e","system_id":"levelo_inurba_marseille","lat":43.30138,"lon":5.38765,"is_reserved":false,"is_disabled":false,"rental_uris":{"android":"levelo://app?vid=b5c5bade-2778-4639-8617-6fd91395515e","ios":"levelo://app?vid=b5c5bade-2778-4639-8617-6fd91395515e"},"vehicle_type_id":"4","last_reported":1739905668,"current_range_meters":5600,"station_id":"ce4bhoh2rcd13ifvqh6g","pricing_plan_id":"cebpf4jnsgd1na2vs0mg"},{"bike_id":"2fc51c18-93da-4c7a-ae54-30bc1bf5f64d","system_id":"levelo_inurba_marseille","lat":43.2951,"lon":5.38198,"is_reserved":false,"is_disabled":true,"rental_uris":{"android":"levelo://app?vid=2fc51c18-93da-4c7a-ae54-30bc1bf5f64d","ios":"levelo://app?vid=2fc51c18-93da-4c7a-ae54-30bc1bf5f64d"},"vehicle_type_id":"4","last_reported":1739905668,"current_range_meters":6000,"station_id":"","pricing_plan_id":"cebpf4jnsgd1na2vs0mg"},{"bike_id":"a4af178d-0384-434f-89b4-935f9bc2cb39","system_id":"levelo_inurba_marseille","lat":43.29586,"lon":5.42265,"is_reserved":false,"is_disabled":false,"rental_uris":{"android":"levelo://app?vid=a4af178d-0384-434f-89b4-935f9bc2cb39","ios":"levelo://app?vid=a4af178d-0384-434f-89b4-935f9bc2cb39"},"vehicle_type_id":"4","last_reported":1739905668,"current_range_meters":6000,"station_id":"","pricing_plan_id":"cebpf4jnsgd1na2vs0mg"},{"bike_id":"58497eef-acac-45be-ac38-097227157552","system_id":"levelo_inurba_marseille","lat":43.30253,"lon":5.40098,"is_reserved":false,"is_disabled":false,"rental_uris":{"android":"levelo://app?vid=58497eef-acac-45be-ac38-097227157552","ios":"levelo://app?vid=58497eef-acac-45be-ac38-097227157552"},"vehicle_type_id":"4","last_reported":1739905668,"current_range_meters":7200,"station_id":"ce4bgvh2rcd13ifvqcs0","pricing_plan_id":"cebpf4jnsgd1na2vs0mg"},{"bike_id":"beaeaa14-4214-4ca9-b129-16570ca382a4","system_id":"levelo_inurba_marseille","lat":43.29548,"lon":5.39062,"is_reserved":false,"is_disabled":false,"rental_uris":{"android":"levelo://app?vid=beaeaa14-4214-4ca9-b129-16570ca382a4","ios":"levelo://app?vid=beaeaa14-4214-4ca9-b129-16570ca382a4"},"vehicle_type_id":"4","last_reported":1739905668,"current_range_meters":3600,"station_id":"ce4bh3p2rcd13ifvqdp0","pricing_plan_id":"cebpf4jnsgd1na2vs0mg"},{"bike_id":"ef7773c1-abc3-4e5e-821f-4e4aeeba1301","system_id":"levelo_inurba_marseille","lat":43.27998,"lon":5.40017,"is_reserved":false,"is_disabled":false,"rental_uris":{"android":"levelo://app?vid=ef7773c1-abc3-4e5e-821f-4e4aeeba1301","ios":"levelo://app?vid=ef7773c1-abc3-4e5e-821f-4e4aeeba1301"},"vehicle_type_id":"4","last_reported":1739905668,"current_range_meters":6400,"station_id":"ce4bho92rcd13ifvqh4g","pricing_plan_id":"cebpf4jnsgd1na2vs0mg"},{"bike_id":"c0ce2474-ab96-4bf3-92ed-1dd898e6ebc1","system_id":"levelo_inurba_marseille","lat":43.27364,"lon":5.36248,"is_reserved":false,"is_disabled":false,"rental_uris":{"android":"levelo://app?vid=c0ce2474-ab96-4bf3-92ed-1dd898e6ebc1","ios":"levelo://app?vid=c0ce2474-ab96-4bf3-92ed-1dd898e6ebc1"},"vehicle_type_id":"4","last_reported":1739905668,"current_range_meters":6400,"station_id":"ce4bhbh2rcd13ifvqeo0","pricing_plan_id":"cebpf4jnsgd1na2vs0mg"},{"bike_id":"98dafedc-f25b-409d-b3e2-803b47ffb900","system_id":"levelo_inurba_marseille","lat":43.245,"lon":5.372373,"is_reserved":false,"is_disabled":false,"rental_uris":{"android":"levelo://app?vid=98dafedc-f25b-409d-b3e2-803b47ffb900","ios":"levelo://app?vid=98dafedc-f25b-409d-b3e2-803b47ffb900"},"vehicle_type_id":"4","last_reported":1739905668,"current_range_meters":6400,"station_id":"","pricing_plan_id":"cebpf4jnsgd1na2vs0mg"},{"bike_id":"d855430c-6af6-4afc-8621-8dac0152b130","system_id":"levelo_inurba_marseille","lat":43.29523,"lon":5.38529,"is_reserved":false,"is_disabled":false,"rental_uris":{"android":"levelo://app?vid=d855430c-6af6-4afc-8621-8dac0152b130","ios":"levelo://app?vid=d855430c-6af6-4afc-8621-8dac0152b130"},"vehicle_type_id":"4","last_reported":1739905668,"current_range_meters":6400,"station_id":"","pricing_plan_id":"cebpf4jnsgd1na2vs0mg"},{"bike_id":"861e420e-3d91-42c2-823c-7e4faad33d9b","system_id":"levelo_inurba_marseille","lat":43.29014,"lon":5.3562,"is_reserved":false,"is_disabled":false,"rental_uris":{"android":"levelo://app?vid=861e420e-3d91-42c2-823c-7e4faad33d9b","ios":"levelo://app?vid=861e420e-3d91-42c2-823c-7e4faad33d9b"},"vehicle_type_id":"4","last_reported":1739905668,"current_range_meters":6800,"station_id":"ce4bhb92rcd13ifvqen0","pricing_plan_id":"cebpf4jnsgd1na2vs0mg"},{"bike_id":"ce68245d-7d69-4dac-a4d3-54830bef2fed","system_id":"levelo_inurba_marseille","lat":43.2756,"lon":5.38424,"is_reserved":false,"is_disabled":false,"rental_uris":{"android":"levelo://app?vid=ce68245d-7d69-4dac-a4d3-54830bef2fed","ios":"levelo://app?vid=ce68245d-7d69-4dac-a4d3-54830bef2fed"},"vehicle_type_id":"4","last_reported":1739905668,"current_range_meters":6400,"station_id":"ce4bhh92rcd13ifvqfi0","pricing_plan_id":"cebpf4jnsgd1na2vs0mg"},{"bike_id":"374b664b-c2e1-4c10-afc7-5129f330f782","system_id":"levelo_inurba_marseille","lat":43.32367,"lon":5.38891,"is_reserved":false,"is_disabled":false,"rental_uris":{"android":"levelo://app?vid=374b664b-c2e1-4c10-afc7-5129f330f782","ios":"levelo://app?vid=374b664b-c2e1-4c10-afc7-5129f330f782"},"vehicle_type_id":"4","last_reported":1739905668,"current_range_meters":6800,"station_id":"ce4bhqp2rcd13ifvqhog","pricing_plan_id":"cebpf4jnsgd1na2vs0mg"},{"bike_id":"811901b7-6a39-4b98-9209-f363e05c2482","system_id":"levelo_inurba_marseille","lat":43.28181,"lon":5.42643,"is_reserved":false,"is_disabled":false,"rental_uris":{"android":"levelo://app?vid=811901b7-6a39-4b98-9209-f363e05c2482","ios":"levelo://app?vid=811901b7-6a39-4b98-9209-f363e05c2482"},"vehicle_type_id":"4","last_reported":1739905668,"current_range_meters":6800,"station_id":"ce4bhnh2rcd13ifvqgug","pricing_plan_id":"cebpf4jnsgd1na2vs0mg"},{"bike_id":"ca7282da-356b-44c9-b49b-3232236ba69c","system_id":"levelo_inurba_marseille","lat":43.31329,"lon":5.39692,"is_reserved":false,"is_disabled":false,"rental_uris":{"android":"levelo://app?vid=ca7282da-356b-44c9-b49b-3232236ba69c","ios":"levelo://app?vid=ca7282da-356b-44c9-b49b-3232236ba69c"},"vehicle_type_id":"4","last_reported":1739905668,"current_range_meters":2000,"station_id":"ce4bgvp2rcd13ifvqcu0","pricing_plan_id":"cebpf4jnsgd1na2vs0mg"},{"bike_id":"85609954-3544-4e67-b4ab-f540dcb150e2","system_id":"levelo_inurba_marseille","lat":43.27909,"lon":5.3802,"is_reserved":false,"is_disabled":false,"rental_uris":{"android":"levelo://app?vid=85609954-3544-4e67-b4ab-f540dcb150e2","ios":"levelo://app?vid=85609954-3544-4e67-b4ab-f540dcb150e2"},"vehicle_type_id":"4","last_reported":1739905668,"current_range_meters":6800,"station_id":"ce4bhf92rcd13ifvqf50","pricing_plan_id":"cebpf4jnsgd1na2vs0mg"},{"bike_id":"f4f02475-5e0b-4390-a91a-1da28d63fbd0","system_id":"levelo_inurba_marseille","lat":43.28703,"lon":5.37399,"is_reserved":false,"is_disabled":false,"rental_uris":{"android":"levelo://app?vid=f4f02475-5e0b-4390-a91a-1da28d63fbd0","ios":"levelo://app?vid=f4f02475-5e0b-4390-a91a-1da28d63fbd0"},"vehicle_type_id":"4","last_reported":1739905668,"current_range_meters":6400,"station_id":"ce4bh3p2rcd13ifvqdq0","pricing_plan_id":"cebpf4jnsgd1na2vs0mg"},{"bike_id":"f301f0ca-9a74-4b1b-95f5-7641143983d6","system_id":"levelo_inurba_marseille","lat":43.25083,"lon":5.39517,"is_reserved":false,"is_disabled":false,"rental_uris":{"android":"levelo://app?vid=f301f0ca-9a74-4b1b-95f5-7641143983d6","ios":"levelo://app?vid=f301f0ca-9a74-4b1b-95f5-7641143983d6"},"vehicle_type_id":"4","last_reported":1739905668,"current_range_meters":6800,"station_id":"ce4bhm12rcd13ifvqgkg","pricing_plan_id":"cebpf4jnsgd1na2vs0mg"},{"bike_id":"65d3ff26-c73c-4ccd-9dcf-d41099c79b0b","system_id":"levelo_inurba_marseille","lat":43.30127,"lon":5.38769,"is_reserved":false,"is_disabled":false,"rental_uris":{"android":"levelo://app?vid=65d3ff26-c73c-4ccd-9dcf-d41099c79b0b","ios":"levelo://app?vid=65d3ff26-c73c-4ccd-9dcf-d41099c79b0b"},"vehicle_type_id":"4","last_reported":1739905668,"current_range_meters":7200,"station_id":"ce4bhoh2rcd13ifvqh6g","pricing_plan_id":"cebpf4jnsgd1na2vs0mg"},{"bike_id":"4fc2f0a0-089a-413c-ba46-bce652988aea","system_id":"levelo_inurba_marseille","lat":43.30128,"lon":5.38778,"is_reserved":false,"is_disabled":false,"rental_uris":{"android":"levelo://app?vid=4fc2f0a0-089a-413c-ba46-bce652988aea","ios":"levelo://app?vid=4fc2f0a0-089a-413c-ba46-bce652988aea"},"vehicle_type_id":"4","last_reported":1739905668,"current_range_meters":7200,"station_id":"ce4bhoh2rcd13ifvqh6g","pricing_plan_id":"cebpf4jnsgd1na2vs0mg"},{"bike_id":"ddb8d2f7-b3f9-4ce9-8752-fe18069fb3f9","system_id":"levelo_inurba_marseille","lat":43.30529,"lon":5.38426,"is_reserved":false,"is_disabled":false,"rental_uris":{"android":"levelo://app?vid=ddb8d2f7-b3f9-4ce9-8752-fe18069fb3f9","ios":"levelo://app?vid=ddb8d2f7-b3f9-4ce9-8752-fe18069fb3f9"},"vehicle_type_id":"4","last_reported":1739905668,"current_range_meters":7200,"station_id":"ce4bgg92rcd13ifvqb30","pricing_plan_id":"cebpf4jnsgd1na2vs0mg"},{"bike_id":"7a681a1c-d689-4ffd-9446-d3c6f8add601","system_id":"levelo_inurba_marseille","lat":43.29526,"lon":5.38538,"is_reserved":false,"is_disabled":false,"rental_uris":{"android":"levelo://app?vid=7a681a1c-d689-4ffd-9446-d3c6f8add601","ios":"levelo://app?vid=7a681a1c-d689-4ffd-9446-d3c6f8add601"},"vehicle_type_id":"4","last_reported":1739905668,"current_range_meters":7200,"station_id":"","pricing_plan_id":"cebpf4jnsgd1na2vs0mg"},{"bike_id":"560dba7a-bea2-4d40-9c61-6eaa2331d348","system_id":"levelo_inurba_marseille","lat":43.29023,"lon":5.38125,"is_reserved":false,"is_disabled":false,"rental_uris":{"android":"levelo://app?vid=560dba7a-bea2-4d40-9c61-6eaa2331d348","ios":"levelo://app?vid=560dba7a-bea2-4d40-9c61-6eaa2331d348"},"vehicle_type_id":"4","last_reported":1739905668,"current_range_meters":6800,"station_id":"ce4bh4p2rcd13ifvqe1g","pricing_plan_id":"cebpf4jnsgd1na2vs0mg"},{"bike_id":"f8d63dcd-fc20-4dfd-86f2-51f0073cb79f","system_id":"levelo_inurba_marseille","lat":43.33026,"lon":5.39043,"is_reserved":false,"is_disabled":false,"rental_uris":{"android":"levelo://app?vid=f8d63dcd-fc20-4dfd-86f2-51f0073cb79f","ios":"levelo://app?vid=f8d63dcd-fc20-4dfd-86f2-51f0073cb79f"},"vehicle_type_id":"4","last_reported":1739905668,"current_range_meters":7200,"station_id":"ce4bhr92rcd13ifvqhrg","pricing_plan_id":"cebpf4jnsgd1na2vs0mg"},{"bike_id":"1fe96f1a-14c3-4457-a7c1-3f9fb3ae9c78","system_id":"levelo_inurba_marseille","lat":43.29224,"lon":5.36084,"is_reserved":false,"is_disabled":false,"rental_uris":{"android":"levelo://app?vid=1fe96f1a-14c3-4457-a7c1-3f9fb3ae9c78","ios":"levelo://app?vid=1fe96f1a-14c3-4457-a7c1-3f9fb3ae9c78"},"vehicle_type_id":"4","last_reported":1739905668,"current_range_meters":7200,"station_id":"ce4bhbh2rcd13ifvqeqg","pricing_plan_id":"cebpf4jnsgd1na2vs0mg"},{"bike_id":"d47541b1-e4a8-4971-b0ae-d252099b8afa","system_id":"levelo_inurba_marseille","lat":43.26048,"lon":5.37557,"is_reserved":false,"is_disabled":false,"rental_uris":{"android":"levelo://app?vid=d47541b1-e4a8-4971-b0ae-d252099b8afa","ios":"levelo://app?vid=d47541b1-e4a8-4971-b0ae-d252099b8afa"},"vehicle_type_id":"4","last_reported":1739905668,"current_range_meters":7200,"station_id":"ce4bhgh2rcd13ifvqfa0","pricing_plan_id":"cebpf4jnsgd1na2vs0mg"},{"bike_id":"020f9db3-6048-4a83-8c59-4acc533112c8","system_id":"levelo_inurba_marseille","lat":43.28204,"lon":5.42667,"is_reserved":false,"is_disabled":false,"rental_uris":{"android":"levelo://app?vid=020f9db3-6048-4a83-8c59-4acc533112c8","ios":"levelo://app?vid=020f9db3-6048-4a83-8c59-4acc533112c8"},"vehicle_type_id":"4","last_reported":1739905668,"current_range_meters":7200,"station_id":"ce4bhnh2rcd13ifvqgug","pricing_plan_id":"cebpf4jnsgd1na2vs0mg"},{"bike_id":"6528e792-6c2b-41ab-b102-37d30001a0e7","system_id":"levelo_inurba_marseille","lat":43.27248,"lon":5.40071,"is_reserved":false,"is_disabled":false,"rental_uris":{"android":"levelo://app?vid=6528e792-6c2b-41ab-b102-37d30001a0e7","ios":"levelo://app?vid=6528e792-6c2b-41ab-b102-37d30001a0e7"},"vehicle_type_id":"4","last_reported":1739905668,"current_range_meters":8000,"station_id":"","pricing_plan_id":"cebpf4jnsgd1na2vs0mg"},{"bike_id":"0d255aa4-5f8a-4fc3-917f-086f79412bae","system_id":"levelo_inurba_marseille","lat":43.3026,"lon":5.40068,"is_reserved":false,"is_disabled":false,"rental_uris":{"android":"levelo://app?vid=0d255aa4-5f8a-4fc3-917f-086f79412bae","ios":"levelo://app?vid=0d255aa4-5f8a-4fc3-917f-086f79412bae"},"vehicle_type_id":"4","last_reported":1739905668,"current_range_meters":8000,"station_id":"","pricing_plan_id":"cebpf4jnsgd1na2vs0mg"},{"bike_id":"31fa5d89-f83c-4e7c-8edf-30e2a3848eb8","system_id":"levelo_inurba_marseille","lat":43.31711,"lon":5.43704,"is_reserved":false,"is_disabled":false,"rental_uris":{"android":"levelo://app?vid=31fa5d89-f83c-4e7c-8edf-30e2a3848eb8","ios":"levelo://app?vid=31fa5d89-f83c-4e7c-8edf-30e2a3848eb8"},"vehicle_type_id":"4","last_reported":1739905668,"current_range_meters":8000,"station_id":"","pricing_plan_id":"cebpf4jnsgd1na2vs0mg"},{"bike_id":"01182441-7724-4ecc-a723-6d865f5cf255","system_id":"levelo_inurba_marseille","lat":43.29904,"lon":5.38142,"is_reserved":false,"is_disabled":false,"rental_uris":{"android":"levelo://app?vid=01182441-7724-4ecc-a723-6d865f5cf255","ios":"levelo://app?vid=01182441-7724-4ecc-a723-6d865f5cf255"},"vehicle_type_id":"4","last_reported":1739905668,"current_range_meters":8400,"station_id":"ce4bgj12rcd13ifvqbc0","pricing_plan_id":"cebpf4jnsgd1na2vs0mg"},{"bike_id":"f3cdce6a-578e-4cd2-a343-9f7de87ba980","system_id":"levelo_inurba_marseille","lat":43.30913,"lon":5.36898,"is_reserved":false,"is_disabled":false,"rental_uris":{"android":"levelo://app?vid=f3cdce6a-578e-4cd2-a343-9f7de87ba980","ios":"levelo://app?vid=f3cdce6a-578e-4cd2-a343-9f7de87ba980"},"vehicle_type_id":"4","last_reported":1739905668,"current_range_meters":8000,"station_id":"ce4bgn92rcd13ifvqbvg","pricing_plan_id":"cebpf4jnsgd1na2vs0mg"},{"bike_id":"4251c5ba-f333-4b85-8025-7681dfd1a2f2","system_id":"levelo_inurba_marseille","lat":43.29262,"lon":5.38437,"is_reserved":false,"is_disabled":false,"rental_uris":{"android":"levelo://app?vid=4251c5ba-f333-4b85-8025-7681dfd1a2f2","ios":"levelo://app?vid=4251c5ba-f333-4b85-8025-7681dfd1a2f2"},"vehicle_type_id":"4","last_reported":1739905668,"current_range_meters":8400,"station_id":"ce4bh692rcd13ifvqea0","pricing_plan_id":"cebpf4jnsgd1na2vs0mg"},{"bike_id":"d2764c0c-8445-477c-af0c-b73e780639b6","system_id":"levelo_inurba_marseille","lat":43.29023,"lon":5.3813,"is_reserved":false,"is_disabled":false,"rental_uris":{"android":"levelo://app?vid=d2764c0c-8445-477c-af0c-b73e780639b6","ios":"levelo://app?vid=d2764c0c-8445-477c-af0c-b73e780639b6"},"vehicle_type_id":"4","last_reported":1739905668,"current_range_meters":8400,"station_id":"ce4bh4p2rcd13ifvqe1g","pricing_plan_id":"cebpf4jnsgd1na2vs0mg"},{"bike_id":"66bdaba1-8ea6-4d2c-ad9c-6d213bc14ad8","system_id":"levelo_inurba_marseille","lat":43.26208,"lon":5.37924,"is_reserved":false,"is_disabled":false,"rental_uris":{"android":"levelo://app?vid=66bdaba1-8ea6-4d2c-ad9c-6d213bc14ad8","ios":"levelo://app?vid=66bdaba1-8ea6-4d2c-ad9c-6d213bc14ad8"},"vehicle_type_id":"4","last_reported":1739905668,"current_range_meters":8400,"station_id":"ce4bhjp2rcd13ifvqg90","pricing_plan_id":"cebpf4jnsgd1na2vs0mg"},{"bike_id":"6bb7ac37-d16c-4a25-b6eb-1bf8ca1b78d5","system_id":"levelo_inurba_marseille","lat":43.32541,"lon":5.4148,"is_reserved":false,"is_disabled":false,"rental_uris":{"android":"levelo://app?vid=6bb7ac37-d16c-4a25-b6eb-1bf8ca1b78d5","ios":"levelo://app?vid=6bb7ac37-d16c-4a25-b6eb-1bf8ca1b78d5"},"vehicle_type_id":"4","last_reported":1739905668,"current_range_meters":8400,"station_id":"ce4bhq12rcd13ifvqhhg","pricing_plan_id":"cebpf4jnsgd1na2vs0mg"},{"bike_id":"43ca1844-9d0c-48da-873f-4476a031d07e","system_id":"levelo_inurba_marseille","lat":43.27906,"lon":5.39574,"is_reserved":false,"is_disabled":false,"rental_uris":{"android":"levelo://app?vid=43ca1844-9d0c-48da-873f-4476a031d07e","ios":"levelo://app?vid=43ca1844-9d0c-48da-873f-4476a031d07e"},"vehicle_type_id":"4","last_reported":1739905668,"current_range_meters":8800,"station_id":"ce4bhf92rcd13ifvqf40","pricing_plan_id":"cebpf4jnsgd1na2vs0mg"},{"bike_id":"cf37804c-9172-4001-8bb0-46533d0d4bd5","system_id":"levelo_inurba_marseille","lat":43.29531,"lon":5.38529,"is_reserved":false,"is_disabled":false,"rental_uris":{"android":"levelo://app?vid=cf37804c-9172-4001-8bb0-46533d0d4bd5","ios":"levelo://app?vid=cf37804c-9172-4001-8bb0-46533d0d4bd5"},"vehicle_type_id":"4","last_reported":1739905668,"current_range_meters":8800,"station_id":"","pricing_plan_id":"cebpf4jnsgd1na2vs0mg"},{"bike_id":"70be2318-8824-49ed-b879-c2dadc191a3d","system_id":"levelo_inurba_marseille","lat":43.26056,"lon":5.39401,"is_reserved":false,"is_disabled":false,"rental_uris":{"android":"levelo://app?vid=70be2318-8824-49ed-b879-c2dadc191a3d","ios":"levelo://app?vid=70be2318-8824-49ed-b879-c2dadc191a3d"},"vehicle_type_id":"4","last_reported":1739905668,"current_range_meters":8800,"station_id":"ce4bhh92rcd13ifvqfj0","pricing_plan_id":"cebpf4jnsgd1na2vs0mg"},{"bike_id":"1232af9c-fa1a-42d0-b9b2-dd172f784464","system_id":"levelo_inurba_marseille","lat":43.25111,"lon":5.40336,"is_reserved":false,"is_disabled":false,"rental_uris":{"android":"levelo://app?vid=1232af9c-fa1a-42d0-b9b2-dd172f784464","ios":"levelo://app?vid=1232af9c-fa1a-42d0-b9b2-dd172f784464"},"vehicle_type_id":"4","last_reported":1739905668,"current_range_meters":9200,"station_id":"ce4bhlh2rcd13ifvqgig","pricing_plan_id":"cebpf4jnsgd1na2vs0mg"},{"bike_id":"40bc2798-54a9-4858-a134-52ffacf0378f","system_id":"levelo_inurba_marseille","lat":43.28155,"lon":5.42644,"is_reserved":false,"is_disabled":false,"rental_uris":{"android":"levelo://app?vid=40bc2798-54a9-4858-a134-52ffacf0378f","ios":"levelo://app?vid=40bc2798-54a9-4858-a134-52ffacf0378f"},"vehicle_type_id":"4","last_reported":1739905668,"current_range_meters":9200,"station_id":"ce4bhnh2rcd13ifvqgug","pricing_plan_id":"cebpf4jnsgd1na2vs0mg"},{"bike_id":"f5a7abcc-f6fb-4888-9484-dd0e57f220b4","system_id":"levelo_inurba_marseille","lat":43.29515,"lon":5.39405,"is_reserved":false,"is_disabled":false,"rental_uris":{"android":"levelo://app?vid=f5a7abcc-f6fb-4888-9484-dd0e57f220b4","ios":"levelo://app?vid=f5a7abcc-f6fb-4888-9484-dd0e57f220b4"},"vehicle_type_id":"4","last_reported":1739905668,"current_range_meters":9200,"station_id":"","pricing_plan_id":"cebpf4jnsgd1na2vs0mg"},{"bike_id":"90330b82-c731-4f59-aadc-5d582d1a9c5d","system_id":"levelo_inurba_marseille","lat":43.27944,"lon":5.41041,"is_reserved":false,"is_disabled":false,"rental_uris":{"android":"levelo://app?vid=90330b82-c731-4f59-aadc-5d582d1a9c5d","ios":"levelo://app?vid=90330b82-c731-4f59-aadc-5d582d1a9c5d"},"vehicle_type_id":"4","last_reported":1739905668,"current_range_meters":9200,"station_id":"ce4bhnp2rcd13ifvqh0g","pricing_plan_id":"cebpf4jnsgd1na2vs0mg"},{"bike_id":"7498add2-6306-4086-af08-cf290b4c7a05","system_id":"levelo_inurba_marseille","lat":43.29261,"lon":5.38448,"is_reserved":false,"is_disabled":false,"rental_uris":{"android":"levelo://app?vid=7498add2-6306-4086-af08-cf290b4c7a05","ios":"levelo://app?vid=7498add2-6306-4086-af08-cf290b4c7a05"},"vehicle_type_id":"4","last_reported":1739905668,"current_range_meters":9200,"station_id":"ce4bh692rcd13ifvqea0","pricing_plan_id":"cebpf4jnsgd1na2vs0mg"},{"bike_id":"be6760b1-c455-46ba-a929-08a61b98d93e","system_id":"levelo_inurba_marseille","lat":43.27101,"lon":5.39229,"is_reserved":false,"is_disabled":false,"rental_uris":{"android":"levelo://app?vid=be6760b1-c455-46ba-a929-08a61b98d93e","ios":"levelo://app?vid=be6760b1-c455-46ba-a929-08a61b98d93e"},"vehicle_type_id":"4","last_reported":1739905668,"current_range_meters":9200,"station_id":"","pricing_plan_id":"cebpf4jnsgd1na2vs0mg"},{"bike_id":"9fa5df0a-f830-43da-9451-c0d91bf9686b","system_id":"levelo_inurba_marseille","lat":43.28154,"lon":5.42642,"is_reserved":false,"is_disabled":false,"rental_uris":{"android":"levelo://app?vid=9fa5df0a-f830-43da-9451-c0d91bf9686b","ios":"levelo://app?vid=9fa5df0a-f830-43da-9451-c0d91bf9686b"},"vehicle_type_id":"4","last_reported":1739905668,"current_range_meters":9200,"station_id":"","pricing_plan_id":"cebpf4jnsgd1na2vs0mg"},{"bike_id":"75e7e022-64c4-4fbd-bf17-ac982f7d31ad","system_id":"levelo_inurba_marseille","lat":43.30118,"lon":5.39853,"is_reserved":false,"is_disabled":false,"rental_uris":{"android":"levelo://app?vid=75e7e022-64c4-4fbd-bf17-ac982f7d31ad","ios":"levelo://app?vid=75e7e022-64c4-4fbd-bf17-ac982f7d31ad"},"vehicle_type_id":"4","last_reported":1739905668,"current_range_meters":9200,"station_id":"ce4bh0h2rcd13ifvqd40","pricing_plan_id":"cebpf4jnsgd1na2vs0mg"},{"bike_id":"0ccbc7aa-b0ed-484f-a678-fa96c110d191","system_id":"levelo_inurba_marseille","lat":43.29936,"lon":5.36543,"is_reserved":false,"is_disabled":false,"rental_uris":{"android":"levelo://app?vid=0ccbc7aa-b0ed-484f-a678-fa96c110d191","ios":"levelo://app?vid=0ccbc7aa-b0ed-484f-a678-fa96c110d191"},"vehicle_type_id":"4","last_reported":1739905668,"current_range_meters":9600,"station_id":"ce4bgm92rcd13ifvqbr0","pricing_plan_id":"cebpf4jnsgd1na2vs0mg"},{"bike_id":"8072f034-69d4-48c5-b234-451357393f04","system_id":"levelo_inurba_marseille","lat":43.23955,"lon":5.36632,"is_reserved":false,"is_disabled":false,"rental_uris":{"android":"levelo://app?vid=8072f034-69d4-48c5-b234-451357393f04","ios":"levelo://app?vid=8072f034-69d4-48c5-b234-451357393f04"},"vehicle_type_id":"4","last_reported":1739905668,"current_range_meters":9600,"station_id":"ce4bhi12rcd13ifvqfp0","pricing_plan_id":"cebpf4jnsgd1na2vs0mg"},{"bike_id":"31a4b205-f662-45a9-8f4a-c0db4f0174a6","system_id":"levelo_inurba_marseille","lat":43.30891,"lon":5.39654,"is_reserved":false,"is_disabled":false,"rental_uris":{"android":"levelo://app?vid=31a4b205-f662-45a9-8f4a-c0db4f0174a6","ios":"levelo://app?vid=31a4b205-f662-45a9-8f4a-c0db4f0174a6"},"vehicle_type_id":"4","last_reported":1739905668,"current_range_meters":14400,"station_id":"ce4bh012rcd13ifvqcv0","pricing_plan_id":"cebpf4jnsgd1na2vs0mg"},{"bike_id":"0502591d-0081-4bf7-8b1f-6c8b7750b436","system_id":"levelo_inurba_marseille","lat":43.29617,"lon":5.37155,"is_reserved":false,"is_disabled":false,"rental_uris":{"android":"levelo://app?vid=0502591d-0081-4bf7-8b1f-6c8b7750b436","ios":"levelo://app?vid=0502591d-0081-4bf7-8b1f-6c8b7750b436"},"vehicle_type_id":"4","last_reported":1739905668,"current_range_meters":8800,"station_id":"ce4bgnh2rcd13ifvqc0g","pricing_plan_id":"cebpf4jnsgd1na2vs0mg"},{"bike_id":"c9071df5-5664-4a5e-b1b2-1df958a7db03","system_id":"levelo_inurba_marseille","lat":43.23972,"lon":5.3664,"is_reserved":false,"is_disabled":false,"rental_uris":{"android":"levelo://app?vid=c9071df5-5664-4a5e-b1b2-1df958a7db03","ios":"levelo://app?vid=c9071df5-5664-4a5e-b1b2-1df958a7db03"},"vehicle_type_id":"4","last_reported":1739905668,"current_range_meters":9600,"station_id":"ce4bhi12rcd13ifvqfp0","pricing_plan_id":"cebpf4jnsgd1na2vs0mg"},{"bike_id":"b284dde3-c2f2-4fda-b1f9-5b9ccde0579d","system_id":"levelo_inurba_marseille","lat":43.29573,"lon":5.39969,"is_reserved":false,"is_disabled":false,"rental_uris":{"android":"levelo://app?vid=b284dde3-c2f2-4fda-b1f9-5b9ccde0579d","ios":"levelo://app?vid=b284dde3-c2f2-4fda-b1f9-5b9ccde0579d"},"vehicle_type_id":"4","last_reported":1739905668,"current_range_meters":6000,"station_id":"ce4bh312rcd13ifvqdj0","pricing_plan_id":"cebpf4jnsgd1na2vs0mg"},{"bike_id":"4549780a-bd41-4776-b580-439be41aac05","system_id":"levelo_inurba_marseille","lat":43.29255,"lon":5.38445,"is_reserved":false,"is_disabled":false,"rental_uris":{"android":"levelo://app?vid=4549780a-bd41-4776-b580-439be41aac05","ios":"levelo://app?vid=4549780a-bd41-4776-b580-439be41aac05"},"vehicle_type_id":"4","last_reported":1739905668,"current_range_meters":9600,"station_id":"","pricing_plan_id":"cebpf4jnsgd1na2vs0mg"},{"bike_id":"fefa9bf9-197f-4351-bf2f-96769b26532d","system_id":"levelo_inurba_marseille","lat":43.2927,"lon":5.38428,"is_reserved":false,"is_disabled":false,"rental_uris":{"android":"levelo://app?vid=fefa9bf9-197f-4351-bf2f-96769b26532d","ios":"levelo://app?vid=fefa9bf9-197f-4351-bf2f-96769b26532d"},"vehicle_type_id":"4","last_reported":1739905668,"current_range_meters":9600,"station_id":"ce4bh692rcd13ifvqea0","pricing_plan_id":"cebpf4jnsgd1na2vs0mg"},{"bike_id":"5ae0012d-6179-440f-a02a-a607c9208eb9","system_id":"levelo_inurba_marseille","lat":43.24661,"lon":5.38158,"is_reserved":false,"is_disabled":false,"rental_uris":{"android":"levelo://app?vid=5ae0012d-6179-440f-a02a-a607c9208eb9","ios":"levelo://app?vid=5ae0012d-6179-440f-a02a-a607c9208eb9"},"vehicle_type_id":"4","last_reported":1739905668,"current_range_meters":9600,"station_id":"ce4bhih2rcd13ifvqfr0","pricing_plan_id":"cebpf4jnsgd1na2vs0mg"},{"bike_id":"603829f6-1bd6-420a-b866-4544fcbffbce","system_id":"levelo_inurba_marseille","lat":43.24804,"lon":5.37448,"is_reserved":false,"is_disabled":false,"rental_uris":{"android":"levelo://app?vid=603829f6-1bd6-420a-b866-4544fcbffbce","ios":"levelo://app?vid=603829f6-1bd6-420a-b866-4544fcbffbce"},"vehicle_type_id":"4","last_reported":1739905668,"current_range_meters":9600,"station_id":"","pricing_plan_id":"cebpf4jnsgd1na2vs0mg"},{"bike_id":"c21214b8-4e24-4e4f-a69f-672307e7c6ff","system_id":"levelo_inurba_marseille","lat":43.28152,"lon":5.42634,"is_reserved":false,"is_disabled":false,"rental_uris":{"android":"levelo://app?vid=c21214b8-4e24-4e4f-a69f-672307e7c6ff","ios":"levelo://app?vid=c21214b8-4e24-4e4f-a69f-672307e7c6ff"},"vehicle_type_id":"4","last_reported":1739905668,"current_range_meters":9600,"station_id":"","pricing_plan_id":"cebpf4jnsgd1na2vs0mg"},{"bike_id":"3ab4ecca-a7d0-4e14-9e63-eca0d3b35304","system_id":"levelo_inurba_marseille","lat":43.30532,"lon":5.38309,"is_reserved":false,"is_disabled":false,"rental_uris":{"android":"levelo://app?vid=3ab4ecca-a7d0-4e14-9e63-eca0d3b35304","ios":"levelo://app?vid=3ab4ecca-a7d0-4e14-9e63-eca0d3b35304"},"vehicle_type_id":"4","last_reported":1739905668,"current_range_meters":9600,"station_id":"","pricing_plan_id":"cebpf4jnsgd1na2vs0mg"},{"bike_id":"9e1854f7-24dd-4281-b3e9-7c13f49a4ab6","system_id":"levelo_inurba_marseille","lat":43.29869,"lon":5.436,"is_reserved":false,"is_disabled":false,"rental_uris":{"android":"levelo://app?vid=9e1854f7-24dd-4281-b3e9-7c13f49a4ab6","ios":"levelo://app?vid=9e1854f7-24dd-4281-b3e9-7c13f49a4ab6"},"vehicle_type_id":"4","last_reported":1739905668,"current_range_meters":9600,"station_id":"ce4bhpp2rcd13ifvqhfg","pricing_plan_id":"cebpf4jnsgd1na2vs0mg"},{"bike_id":"fc9896ce-1f52-403c-86a7-1678079c9523","system_id":"levelo_inurba_marseille","lat":43.28375,"lon":5.44284,"is_reserved":false,"is_disabled":false,"rental_uris":{"android":"levelo://app?vid=fc9896ce-1f52-403c-86a7-1678079c9523","ios":"levelo://app?vid=fc9896ce-1f52-403c-86a7-1678079c9523"},"vehicle_type_id":"4","last_reported":1739905668,"current_range_meters":9600,"station_id":"","pricing_plan_id":"cebpf4jnsgd1na2vs0mg"},{"bike_id":"07460ddc-72b2-47b9-ae7a-e7f9041dd312","system_id":"levelo_inurba_marseille","lat":43.23963,"lon":5.36629,"is_reserved":false,"is_disabled":false,"rental_uris":{"android":"levelo://app?vid=07460ddc-72b2-47b9-ae7a-e7f9041dd312","ios":"levelo://app?vid=07460ddc-72b2-47b9-ae7a-e7f9041dd312"},"vehicle_type_id":"4","last_reported":1739905668,"current_range_meters":10000,"station_id":"","pricing_plan_id":"cebpf4jnsgd1na2vs0mg"},{"bike_id":"0ddd8de4-1fa2-44a4-910e-01dbc6c0ee46","system_id":"levelo_inurba_marseille","lat":43.29609,"lon":5.37728,"is_reserved":false,"is_disabled":true,"rental_uris":{"android":"levelo://app?vid=0ddd8de4-1fa2-44a4-910e-01dbc6c0ee46","ios":"levelo://app?vid=0ddd8de4-1fa2-44a4-910e-01dbc6c0ee46"},"vehicle_type_id":"4","last_reported":1739905668,"current_range_meters":10000,"station_id":"","pricing_plan_id":"cebpf4jnsgd1na2vs0mg"},{"bike_id":"e605dea0-84a5-4395-b86a-134e39164b56","system_id":"levelo_inurba_marseille","lat":43.28614,"lon":5.35098,"is_reserved":false,"is_disabled":false,"rental_uris":{"android":"levelo://app?vid=e605dea0-84a5-4395-b86a-134e39164b56","ios":"levelo://app?vid=e605dea0-84a5-4395-b86a-134e39164b56"},"vehicle_type_id":"4","last_reported":1739905668,"current_range_meters":10000,"station_id":"ce4bhch2rcd13ifvqeug","pricing_plan_id":"cebpf4jnsgd1na2vs0mg"},{"bike_id":"4e3610d1-0252-4e97-9154-9678501ca5d7","system_id":"levelo_inurba_marseille","lat":43.24663,"lon":5.38168,"is_reserved":false,"is_disabled":false,"rental_uris":{"android":"levelo://app?vid=4e3610d1-0252-4e97-9154-9678501ca5d7","ios":"levelo://app?vid=4e3610d1-0252-4e97-9154-9678501ca5d7"},"vehicle_type_id":"4","last_reported":1739905668,"current_range_meters":10000,"station_id":"ce4bhih2rcd13ifvqfr0","pricing_plan_id":"cebpf4jnsgd1na2vs0mg"},{"bike_id":"70dee217-670e-40d7-b959-7dcdfca9f445","system_id":"levelo_inurba_marseille","lat":43.248,"lon":5.3746,"is_reserved":false,"is_disabled":false,"rental_uris":{"android":"levelo://app?vid=70dee217-670e-40d7-b959-7dcdfca9f445","ios":"levelo://app?vid=70dee217-670e-40d7-b959-7dcdfca9f445"},"vehicle_type_id":"4","last_reported":1739905668,"current_range_meters":10000,"station_id":"","pricing_plan_id":"cebpf4jnsgd1na2vs0mg"},{"bike_id":"13409428-d503-4f18-a752-db966ce4f74c","system_id":"levelo_inurba_marseille","lat":43.24802,"lon":5.37454,"is_reserved":false,"is_disabled":false,"rental_uris":{"android":"levelo://app?vid=13409428-d503-4f18-a752-db966ce4f74c","ios":"levelo://app?vid=13409428-d503-4f18-a752-db966ce4f74c"},"vehicle_type_id":"4","last_reported":1739905668,"current_range_meters":6000,"station_id":"ce4bhgh2rcd13ifvqfb0","pricing_plan_id":"cebpf4jnsgd1na2vs0mg"},{"bike_id":"150d470b-8649-4d00-b7ab-12e70df09d60","system_id":"levelo_inurba_marseille","lat":43.27942,"lon":5.41034,"is_reserved":false,"is_disabled":false,"rental_uris":{"android":"levelo://app?vid=150d470b-8649-4d00-b7ab-12e70df09d60","ios":"levelo://app?vid=150d470b-8649-4d00-b7ab-12e70df09d60"},"vehicle_type_id":"4","last_reported":1739905668,"current_range_meters":10000,"station_id":"ce4bhnp2rcd13ifvqh0g","pricing_plan_id":"cebpf4jnsgd1na2vs0mg"},{"bike_id":"0a3e75e4-afb4-45e7-a513-e9a1d6c7c849","system_id":"levelo_inurba_marseille","lat":43.27808,"lon":5.40708,"is_reserved":false,"is_disabled":false,"rental_uris":{"android":"levelo://app?vid=0a3e75e4-afb4-45e7-a513-e9a1d6c7c849","ios":"levelo://app?vid=0a3e75e4-afb4-45e7-a513-e9a1d6c7c849"},"vehicle_type_id":"4","last_reported":1739905668,"current_range_meters":9600,"station_id":"ce4bhnh2rcd13ifvqgtg","pricing_plan_id":"cebpf4jnsgd1na2vs0mg"},{"bike_id":"d5becc6e-9468-4bed-b6f9-44ac2f9f1c93","system_id":"levelo_inurba_marseille","lat":43.29417,"lon":5.38626,"is_reserved":false,"is_disabled":false,"rental_uris":{"android":"levelo://app?vid=d5becc6e-9468-4bed-b6f9-44ac2f9f1c93","ios":"levelo://app?vid=d5becc6e-9468-4bed-b6f9-44ac2f9f1c93"},"vehicle_type_id":"4","last_reported":1739905668,"current_range_meters":10000,"station_id":"ce4bh2h2rcd13ifvqdh0","pricing_plan_id":"cebpf4jnsgd1na2vs0mg"},{"bike_id":"b62a71c9-c153-4a70-bf13-c71155cbba97","system_id":"levelo_inurba_marseille","lat":43.25576,"lon":5.38231,"is_reserved":false,"is_disabled":false,"rental_uris":{"android":"levelo://app?vid=b62a71c9-c153-4a70-bf13-c71155cbba97","ios":"levelo://app?vid=b62a71c9-c153-4a70-bf13-c71155cbba97"},"vehicle_type_id":"4","last_reported":1739905668,"current_range_meters":10800,"station_id":"ce4bhih2rcd13ifvqfs0","pricing_plan_id":"cebpf4jnsgd1na2vs0mg"},{"bike_id":"f692dcaf-311f-401d-ba6d-5ddd40ff61f1","system_id":"levelo_inurba_marseille","lat":43.29434,"lon":5.39738,"is_reserved":false,"is_disabled":false,"rental_uris":{"android":"levelo://app?vid=f692dcaf-311f-401d-ba6d-5ddd40ff61f1","ios":"levelo://app?vid=f692dcaf-311f-401d-ba6d-5ddd40ff61f1"},"vehicle_type_id":"4","last_reported":1739905668,"current_range_meters":10800,"station_id":"ce4bh3h2rcd13ifvqdo0","pricing_plan_id":"cebpf4jnsgd1na2vs0mg"},{"bike_id":"0b1a65ba-0db3-4b01-918c-fc5c835fadb5","system_id":"levelo_inurba_marseille","lat":43.25006,"lon":5.38912,"is_reserved":false,"is_disabled":false,"rental_uris":{"android":"levelo://app?vid=0b1a65ba-0db3-4b01-918c-fc5c835fadb5","ios":"levelo://app?vid=0b1a65ba-0db3-4b01-918c-fc5c835fadb5"},"vehicle_type_id":"4","last_reported":1739905668,"current_range_meters":10800,"station_id":"ce4bhgp2rcd13ifvqfd0","pricing_plan_id":"cebpf4jnsgd1na2vs0mg"},{"bike_id":"a85165fb-7fdb-4cc1-ae98-ce974cfd16ca","system_id":"levelo_inurba_marseille","lat":43.2321,"lon":5.39978,"is_reserved":false,"is_disabled":false,"rental_uris":{"android":"levelo://app?vid=a85165fb-7fdb-4cc1-ae98-ce974cfd16ca","ios":"levelo://app?vid=a85165fb-7fdb-4cc1-ae98-ce974cfd16ca"},"vehicle_type_id":"4","last_reported":1739905668,"current_range_meters":10800,"station_id":"ce4bhn12rcd13ifvqgqg","pricing_plan_id":"cebpf4jnsgd1na2vs0mg"},{"bike_id":"ef296548-6234-4d2a-a4ab-67c6b078c084","system_id":"levelo_inurba_marseille","lat":43.28398,"lon":5.37511,"is_reserved":false,"is_disabled":false,"rental_uris":{"android":"levelo://app?vid=ef296548-6234-4d2a-a4ab-67c6b078c084","ios":"levelo://app?vid=ef296548-6234-4d2a-a4ab-67c6b078c084"},"vehicle_type_id":"4","last_reported":1739905668,"current_range_meters":10800,"station_id":"","pricing_plan_id":"cebpf4jnsgd1na2vs0mg"},{"bike_id":"cb8372d6-bad2-4555-89ad-5b495afb0b59","system_id":"levelo_inurba_marseille","lat":43.24822,"lon":5.37459,"is_reserved":false,"is_disabled":false,"rental_uris":{"android":"levelo://app?vid=cb8372d6-bad2-4555-89ad-5b495afb0b59","ios":"levelo://app?vid=cb8372d6-bad2-4555-89ad-5b495afb0b59"},"vehicle_type_id":"4","last_reported":1739905668,"current_range_meters":10800,"station_id":"ce4bhgh2rcd13ifvqfb0","pricing_plan_id":"cebpf4jnsgd1na2vs0mg"},{"bike_id":"10f8da56-b982-4af7-a78a-0fa9c8b1a438","system_id":"levelo_inurba_marseille","lat":43.31891,"lon":5.40727,"is_reserved":false,"is_disabled":false,"rental_uris":{"android":"levelo://app?vid=10f8da56-b982-4af7-a78a-0fa9c8b1a438","ios":"levelo://app?vid=10f8da56-b982-4af7-a78a-0fa9c8b1a438"},"vehicle_type_id":"4","last_reported":1739905668,"current_range_meters":10800,"station_id":"ce4bhq12rcd13ifvqhig","pricing_plan_id":"cebpf4jnsgd1na2vs0mg"},{"bike_id":"85c5f398-6889-4b62-8120-170ab14776c7","system_id":"levelo_inurba_marseille","lat":43.28824,"lon":5.35859,"is_reserved":false,"is_disabled":false,"rental_uris":{"android":"levelo://app?vid=85c5f398-6889-4b62-8120-170ab14776c7","ios":"levelo://app?vid=85c5f398-6889-4b62-8120-170ab14776c7"},"vehicle_type_id":"4","last_reported":1739905668,"current_range_meters":10800,"station_id":"ce4bhb12rcd13ifvqem0","pricing_plan_id":"cebpf4jnsgd1na2vs0mg"},{"bike_id":"f413335c-036f-4c32-b8eb-e49cdca31a5c","system_id":"levelo_inurba_marseille","lat":43.28322,"lon":5.38079,"is_reserved":false,"is_disabled":false,"rental_uris":{"android":"levelo://app?vid=f413335c-036f-4c32-b8eb-e49cdca31a5c","ios":"levelo://app?vid=f413335c-036f-4c32-b8eb-e49cdca31a5c"},"vehicle_type_id":"4","last_reported":1739905668,"current_range_meters":10800,"station_id":"ce4bh412rcd13ifvqdr0","pricing_plan_id":"cebpf4jnsgd1na2vs0mg"},{"bike_id":"0563389e-d2fb-4cf7-b867-f187226876ea","system_id":"levelo_inurba_marseille","lat":43.29028,"lon":5.38143,"is_reserved":false,"is_disabled":true,"rental_uris":{"android":"levelo://app?vid=0563389e-d2fb-4cf7-b867-f187226876ea","ios":"levelo://app?vid=0563389e-d2fb-4cf7-b867-f187226876ea"},"vehicle_type_id":"4","last_reported":1739905668,"current_range_meters":10800,"station_id":"ce4bh4p2rcd13ifvqe1g","pricing_plan_id":"cebpf4jnsgd1na2vs0mg"},{"bike_id":"28d29371-58ca-4507-ba2d-658dd91ae2d3","system_id":"levelo_inurba_marseille","lat":43.25584,"lon":5.38253,"is_reserved":false,"is_disabled":false,"rental_uris":{"android":"levelo://app?vid=28d29371-58ca-4507-ba2d-658dd91ae2d3","ios":"levelo://app?vid=28d29371-58ca-4507-ba2d-658dd91ae2d3"},"vehicle_type_id":"4","last_reported":1739905668,"current_range_meters":10800,"station_id":"ce4bhih2rcd13ifvqfs0","pricing_plan_id":"cebpf4jnsgd1na2vs0mg"},{"bike_id":"f734e773-17df-48e9-9fba-b65495e7d8cf","system_id":"levelo_inurba_marseille","lat":43.28421,"lon":5.34987,"is_reserved":false,"is_disabled":true,"rental_uris":{"android":"levelo://app?vid=f734e773-17df-48e9-9fba-b65495e7d8cf","ios":"levelo://app?vid=f734e773-17df-48e9-9fba-b65495e7d8cf"},"vehicle_type_id":"4","last_reported":1739905668,"current_range_meters":10800,"station_id":"","pricing_plan_id":"cebpf4jnsgd1na2vs0mg"},{"bike_id":"bd81e380-425b-4b0f-a2db-1eb6ea4e200f","system_id":"levelo_inurba_marseille","lat":43.29536,"lon":5.37499,"is_reserved":false,"is_disabled":false,"rental_uris":{"android":"levelo://app?vid=bd81e380-425b-4b0f-a2db-1eb6ea4e200f","ios":"levelo://app?vid=bd81e380-425b-4b0f-a2db-1eb6ea4e200f"},"vehicle_type_id":"4","last_reported":1739905668,"current_range_meters":10800,"station_id":"ce4bgkp2rcd13ifvqbmg","pricing_plan_id":"cebpf4jnsgd1na2vs0mg"},{"bike_id":"7342bfbd-9082-4169-8159-57866036272e","system_id":"levelo_inurba_marseille","lat":43.28465,"lon":5.35891,"is_reserved":false,"is_disabled":false,"rental_uris":{"android":"levelo://app?vid=7342bfbd-9082-4169-8159-57866036272e","ios":"levelo://app?vid=7342bfbd-9082-4169-8159-57866036272e"},"vehicle_type_id":"4","last_reported":1739905668,"current_range_meters":10800,"station_id":"ce4bhah2rcd13ifvqei0","pricing_plan_id":"cebpf4jnsgd1na2vs0mg"},{"bike_id":"18c25a20-fdf6-4a26-b64f-16eb13eda19d","system_id":"levelo_inurba_marseille","lat":43.29264,"lon":5.38442,"is_reserved":false,"is_disabled":false,"rental_uris":{"android":"levelo://app?vid=18c25a20-fdf6-4a26-b64f-16eb13eda19d","ios":"levelo://app?vid=18c25a20-fdf6-4a26-b64f-16eb13eda19d"},"vehicle_type_id":"4","last_reported":1739905668,"current_range_meters":10800,"station_id":"","pricing_plan_id":"cebpf4jnsgd1na2vs0mg"},{"bike_id":"91bf3218-0a05-4226-acc9-b3131b7d5a8d","system_id":"levelo_inurba_marseille","lat":43.23953,"lon":5.36626,"is_reserved":false,"is_disabled":false,"rental_uris":{"android":"levelo://app?vid=91bf3218-0a05-4226-acc9-b3131b7d5a8d","ios":"levelo://app?vid=91bf3218-0a05-4226-acc9-b3131b7d5a8d"},"vehicle_type_id":"4","last_reported":1739905668,"current_range_meters":11200,"station_id":"ce4bhi12rcd13ifvqfp0","pricing_plan_id":"cebpf4jnsgd1na2vs0mg"},{"bike_id":"60374178-f118-4837-8b8d-369a4f7e98f3","system_id":"levelo_inurba_marseille","lat":43.293,"lon":5.38433,"is_reserved":false,"is_disabled":false,"rental_uris":{"android":"levelo://app?vid=60374178-f118-4837-8b8d-369a4f7e98f3","ios":"levelo://app?vid=60374178-f118-4837-8b8d-369a4f7e98f3"},"vehicle_type_id":"4","last_reported":1739905668,"current_range_meters":11200,"station_id":"ce4bh692rcd13ifvqea0","pricing_plan_id":"cebpf4jnsgd1na2vs0mg"},{"bike_id":"27d281e4-ae2c-4d0a-b5af-b1a6c9a261f7","system_id":"levelo_inurba_marseille","lat":43.31714,"lon":5.37729,"is_reserved":false,"is_disabled":true,"rental_uris":{"android":"levelo://app?vid=27d281e4-ae2c-4d0a-b5af-b1a6c9a261f7","ios":"levelo://app?vid=27d281e4-ae2c-4d0a-b5af-b1a6c9a261f7"},"vehicle_type_id":"4","last_reported":1739905668,"current_range_meters":11200,"station_id":"ce4bgth2rcd13ifvqch0","pricing_plan_id":"cebpf4jnsgd1na2vs0mg"},{"bike_id":"8b02b176-f4c7-4d69-bac0-b8d0c9191941","system_id":"levelo_inurba_marseille","lat":43.29409,"lon":5.38632,"is_reserved":false,"is_disabled":false,"rental_uris":{"android":"levelo://app?vid=8b02b176-f4c7-4d69-bac0-b8d0c9191941","ios":"levelo://app?vid=8b02b176-f4c7-4d69-bac0-b8d0c9191941"},"vehicle_type_id":"4","last_reported":1739905668,"current_range_meters":11200,"station_id":"ce4bh2h2rcd13ifvqdh0","pricing_plan_id":"cebpf4jnsgd1na2vs0mg"},{"bike_id":"05947c78-103d-4169-ab23-a0ad5d1a39be","system_id":"levelo_inurba_marseille","lat":43.29086,"lon":5.38147,"is_reserved":false,"is_disabled":false,"rental_uris":{"android":"levelo://app?vid=05947c78-103d-4169-ab23-a0ad5d1a39be","ios":"levelo://app?vid=05947c78-103d-4169-ab23-a0ad5d1a39be"},"vehicle_type_id":"4","last_reported":1739905668,"current_range_meters":11200,"station_id":"ce4bh512rcd13ifvqe2g","pricing_plan_id":"cebpf4jnsgd1na2vs0mg"},{"bike_id":"6c96a73f-ff01-463f-bd8c-14885ee904b6","system_id":"levelo_inurba_marseille","lat":43.29085,"lon":5.3573,"is_reserved":false,"is_disabled":false,"rental_uris":{"android":"levelo://app?vid=6c96a73f-ff01-463f-bd8c-14885ee904b6","ios":"levelo://app?vid=6c96a73f-ff01-463f-bd8c-14885ee904b6"},"vehicle_type_id":"4","last_reported":1739905668,"current_range_meters":11200,"station_id":"ce4bhb92rcd13ifvqen0","pricing_plan_id":"cebpf4jnsgd1na2vs0mg"},{"bike_id":"9582ddc0-b6af-49e9-b173-94c0a9b6801a","system_id":"levelo_inurba_marseille","lat":43.28348,"lon":5.38106,"is_reserved":false,"is_disabled":false,"rental_uris":{"android":"levelo://app?vid=9582ddc0-b6af-49e9-b173-94c0a9b6801a","ios":"levelo://app?vid=9582ddc0-b6af-49e9-b173-94c0a9b6801a"},"vehicle_type_id":"4","last_reported":1739905668,"current_range_meters":11200,"station_id":"","pricing_plan_id":"cebpf4jnsgd1na2vs0mg"},{"bike_id":"10c134e7-7862-45ed-8103-0b6221fb4b66","system_id":"levelo_inurba_marseille","lat":43.24994,"lon":5.38921,"is_reserved":false,"is_disabled":false,"rental_uris":{"android":"levelo://app?vid=10c134e7-7862-45ed-8103-0b6221fb4b66","ios":"levelo://app?vid=10c134e7-7862-45ed-8103-0b6221fb4b66"},"vehicle_type_id":"4","last_reported":1739905668,"current_range_meters":11600,"station_id":"ce4bhgp2rcd13ifvqfd0","pricing_plan_id":"cebpf4jnsgd1na2vs0mg"},{"bike_id":"9b03b96d-2041-4d92-a949-290d7b50f943","system_id":"levelo_inurba_marseille","lat":43.27185,"lon":5.40995,"is_reserved":false,"is_disabled":false,"rental_uris":{"android":"levelo://app?vid=9b03b96d-2041-4d92-a949-290d7b50f943","ios":"levelo://app?vid=9b03b96d-2041-4d92-a949-290d7b50f943"},"vehicle_type_id":"4","last_reported":1739905668,"current_range_meters":11600,"station_id":"","pricing_plan_id":"cebpf4jnsgd1na2vs0mg"},{"bike_id":"60d314df-a667-495a-a59f-db49b86bae5a","system_id":"levelo_inurba_marseille","lat":43.30106,"lon":5.39074,"is_reserved":false,"is_disabled":false,"rental_uris":{"android":"levelo://app?vid=60d314df-a667-495a-a59f-db49b86bae5a","ios":"levelo://app?vid=60d314df-a667-495a-a59f-db49b86bae5a"},"vehicle_type_id":"4","last_reported":1739905668,"current_range_meters":11600,"station_id":"ce4bh192rcd13ifvqdb0","pricing_plan_id":"cebpf4jnsgd1na2vs0mg"},{"bike_id":"ecf653dc-4580-4f09-8ba8-aea9a036f542","system_id":"levelo_inurba_marseille","lat":43.2953,"lon":5.38533,"is_reserved":false,"is_disabled":false,"rental_uris":{"android":"levelo://app?vid=ecf653dc-4580-4f09-8ba8-aea9a036f542","ios":"levelo://app?vid=ecf653dc-4580-4f09-8ba8-aea9a036f542"},"vehicle_type_id":"4","last_reported":1739905668,"current_range_meters":11600,"station_id":"","pricing_plan_id":"cebpf4jnsgd1na2vs0mg"},{"bike_id":"4225eabe-d1a6-425a-9e39-75ae73436b48","system_id":"levelo_inurba_marseille","lat":43.30351,"lon":5.39762,"is_reserved":false,"is_disabled":false,"rental_uris":{"android":"levelo://app?vid=4225eabe-d1a6-425a-9e39-75ae73436b48","ios":"levelo://app?vid=4225eabe-d1a6-425a-9e39-75ae73436b48"},"vehicle_type_id":"4","last_reported":1739905668,"current_range_meters":12000,"station_id":"ce4bh092rcd13ifvqd30","pricing_plan_id":"cebpf4jnsgd1na2vs0mg"},{"bike_id":"b818d90c-a569-418f-8099-24665573a6b5","system_id":"levelo_inurba_marseille","lat":43.27915,"lon":5.39576,"is_reserved":false,"is_disabled":false,"rental_uris":{"android":"levelo://app?vid=b818d90c-a569-418f-8099-24665573a6b5","ios":"levelo://app?vid=b818d90c-a569-418f-8099-24665573a6b5"},"vehicle_type_id":"4","last_reported":1739905668,"current_range_meters":11600,"station_id":"ce4bhf92rcd13ifvqf40","pricing_plan_id":"cebpf4jnsgd1na2vs0mg"},{"bike_id":"3e636548-ab4d-47fd-88b5-c6dab14052aa","system_id":"levelo_inurba_marseille","lat":43.29792,"lon":5.38099,"is_reserved":false,"is_disabled":false,"rental_uris":{"android":"levelo://app?vid=3e636548-ab4d-47fd-88b5-c6dab14052aa","ios":"levelo://app?vid=3e636548-ab4d-47fd-88b5-c6dab14052aa"},"vehicle_type_id":"4","last_reported":1739905668,"current_range_meters":13600,"station_id":"ce4bgip2rcd13ifvqbb0","pricing_plan_id":"cebpf4jnsgd1na2vs0mg"},{"bike_id":"99277237-68bc-4801-b6f6-1f4ed7cd83f4","system_id":"levelo_inurba_marseille","lat":43.29532,"lon":5.38544,"is_reserved":false,"is_disabled":false,"rental_uris":{"android":"levelo://app?vid=99277237-68bc-4801-b6f6-1f4ed7cd83f4","ios":"levelo://app?vid=99277237-68bc-4801-b6f6-1f4ed7cd83f4"},"vehicle_type_id":"4","last_reported":1739905668,"current_range_meters":12000,"station_id":"","pricing_plan_id":"cebpf4jnsgd1na2vs0mg"},{"bike_id":"8fd5fd08-3015-46c6-9402-b1d2e8097eff","system_id":"levelo_inurba_marseille","lat":43.30135,"lon":5.39874,"is_reserved":false,"is_disabled":false,"rental_uris":{"android":"levelo://app?vid=8fd5fd08-3015-46c6-9402-b1d2e8097eff","ios":"levelo://app?vid=8fd5fd08-3015-46c6-9402-b1d2e8097eff"},"vehicle_type_id":"4","last_reported":1739905668,"current_range_meters":12400,"station_id":"ce4bh0h2rcd13ifvqd40","pricing_plan_id":"cebpf4jnsgd1na2vs0mg"},{"bike_id":"7beb0637-fdc1-4315-9de7-143b2e5fe258","system_id":"levelo_inurba_marseille","lat":43.28476,"lon":5.35894,"is_reserved":false,"is_disabled":false,"rental_uris":{"android":"levelo://app?vid=7beb0637-fdc1-4315-9de7-143b2e5fe258","ios":"levelo://app?vid=7beb0637-fdc1-4315-9de7-143b2e5fe258"},"vehicle_type_id":"4","last_reported":1739905668,"current_range_meters":12400,"station_id":"ce4bhah2rcd13ifvqei0","pricing_plan_id":"cebpf4jnsgd1na2vs0mg"},{"bike_id":"f1c4a55a-ecb4-4e19-9726-c1fa32e854b0","system_id":"levelo_inurba_marseille","lat":43.29537,"lon":5.38536,"is_reserved":false,"is_disabled":false,"rental_uris":{"android":"levelo://app?vid=f1c4a55a-ecb4-4e19-9726-c1fa32e854b0","ios":"levelo://app?vid=f1c4a55a-ecb4-4e19-9726-c1fa32e854b0"},"vehicle_type_id":"4","last_reported":1739905668,"current_range_meters":12400,"station_id":"","pricing_plan_id":"cebpf4jnsgd1na2vs0mg"},{"bike_id":"0e43aaf2-5553-4ce4-8a5f-0e2f15c2357c","system_id":"levelo_inurba_marseille","lat":43.25015,"lon":5.38913,"is_reserved":false,"is_disabled":false,"rental_uris":{"android":"levelo://app?vid=0e43aaf2-5553-4ce4-8a5f-0e2f15c2357c","ios":"levelo://app?vid=0e43aaf2-5553-4ce4-8a5f-0e2f15c2357c"},"vehicle_type_id":"4","last_reported":1739905668,"current_range_meters":12400,"station_id":"ce4bhgp2rcd13ifvqfd0","pricing_plan_id":"cebpf4jnsgd1na2vs0mg"},{"bike_id":"e461d57a-97a5-4bd4-9daf-ca6f32b20d07","system_id":"levelo_inurba_marseille","lat":43.30104,"lon":5.39076,"is_reserved":false,"is_disabled":false,"rental_uris":{"android":"levelo://app?vid=e461d57a-97a5-4bd4-9daf-ca6f32b20d07","ios":"levelo://app?vid=e461d57a-97a5-4bd4-9daf-ca6f32b20d07"},"vehicle_type_id":"4","last_reported":1739905668,"current_range_meters":12400,"station_id":"ce4bh192rcd13ifvqdb0","pricing_plan_id":"cebpf4jnsgd1na2vs0mg"},{"bike_id":"d65b1782-b2c2-4b49-9cbe-54fe4bd8bdf2","system_id":"levelo_inurba_marseille","lat":43.31345,"lon":5.40239,"is_reserved":false,"is_disabled":false,"rental_uris":{"android":"levelo://app?vid=d65b1782-b2c2-4b49-9cbe-54fe4bd8bdf2","ios":"levelo://app?vid=d65b1782-b2c2-4b49-9cbe-54fe4bd8bdf2"},"vehicle_type_id":"4","last_reported":1739905668,"current_range_meters":12400,"station_id":"ce4bh092rcd13ifvqd30","pricing_plan_id":"cebpf4jnsgd1na2vs0mg"},{"bike_id":"c30eb01a-98f2-42af-85e9-40478760160f","system_id":"levelo_inurba_marseille","lat":43.29077,"lon":5.35927,"is_reserved":false,"is_disabled":false,"rental_uris":{"android":"levelo://app?vid=c30eb01a-98f2-42af-85e9-40478760160f","ios":"levelo://app?vid=c30eb01a-98f2-42af-85e9-40478760160f"},"vehicle_type_id":"4","last_reported":1739905668,"current_range_meters":12400,"station_id":"ce4bha92rcd13ifvqeg0","pricing_plan_id":"cebpf4jnsgd1na2vs0mg"},{"bike_id":"5b8d4d16-c1ac-4cd2-aeb3-9718f4307d3e","system_id":"levelo_inurba_marseille","lat":43.26677,"lon":5.38269,"is_reserved":false,"is_disabled":false,"rental_uris":{"android":"levelo://app?vid=5b8d4d16-c1ac-4cd2-aeb3-9718f4307d3e","ios":"levelo://app?vid=5b8d4d16-c1ac-4cd2-aeb3-9718f4307d3e"},"vehicle_type_id":"4","last_reported":1739905668,"current_range_meters":12800,"station_id":"ce4bhg92rcd13ifvqf90","pricing_plan_id":"cebpf4jnsgd1na2vs0mg"},{"bike_id":"ee5ed675-bb03-4728-ab31-548b0122803c","system_id":"levelo_inurba_marseille","lat":43.28696,"lon":5.37382,"is_reserved":false,"is_disabled":false,"rental_uris":{"android":"levelo://app?vid=ee5ed675-bb03-4728-ab31-548b0122803c","ios":"levelo://app?vid=ee5ed675-bb03-4728-ab31-548b0122803c"},"vehicle_type_id":"4","last_reported":1739905668,"current_range_meters":12400,"station_id":"ce4bh3p2rcd13ifvqdq0","pricing_plan_id":"cebpf4jnsgd1na2vs0mg"},{"bike_id":"85e87220-f6a3-46be-8172-f6efecf3643e","system_id":"levelo_inurba_marseille","lat":43.28154,"lon":5.42643,"is_reserved":false,"is_disabled":false,"rental_uris":{"android":"levelo://app?vid=85e87220-f6a3-46be-8172-f6efecf3643e","ios":"levelo://app?vid=85e87220-f6a3-46be-8172-f6efecf3643e"},"vehicle_type_id":"4","last_reported":1739905668,"current_range_meters":12800,"station_id":"","pricing_plan_id":"cebpf4jnsgd1na2vs0mg"},{"bike_id":"7fa71611-fe7f-4031-81eb-6ce4cad62a6f","system_id":"levelo_inurba_marseille","lat":43.28928,"lon":5.38403,"is_reserved":false,"is_disabled":false,"rental_uris":{"android":"levelo://app?vid=7fa71611-fe7f-4031-81eb-6ce4cad62a6f","ios":"levelo://app?vid=7fa71611-fe7f-4031-81eb-6ce4cad62a6f"},"vehicle_type_id":"4","last_reported":1739905668,"current_range_meters":13600,"station_id":"ce4bh612rcd13ifvqe6g","pricing_plan_id":"cebpf4jnsgd1na2vs0mg"},{"bike_id":"66130ab3-09ba-4efc-991d-6fb29a7363a9","system_id":"levelo_inurba_marseille","lat":43.26552,"lon":5.39018,"is_reserved":false,"is_disabled":false,"rental_uris":{"android":"levelo://app?vid=66130ab3-09ba-4efc-991d-6fb29a7363a9","ios":"levelo://app?vid=66130ab3-09ba-4efc-991d-6fb29a7363a9"},"vehicle_type_id":"4","last_reported":1739905668,"current_range_meters":13600,"station_id":"ce4bhe12rcd13ifvqf30","pricing_plan_id":"cebpf4jnsgd1na2vs0mg"},{"bike_id":"6f92257a-0716-4bb2-a796-4f75de689283","system_id":"levelo_inurba_marseille","lat":43.26208,"lon":5.37441,"is_reserved":false,"is_disabled":false,"rental_uris":{"android":"levelo://app?vid=6f92257a-0716-4bb2-a796-4f75de689283","ios":"levelo://app?vid=6f92257a-0716-4bb2-a796-4f75de689283"},"vehicle_type_id":"4","last_reported":1739905668,"current_range_meters":13600,"station_id":"ce4bhgp2rcd13ifvqfc0","pricing_plan_id":"cebpf4jnsgd1na2vs0mg"},{"bike_id":"18b7a8a8-2a4b-4aac-85a4-071e45d830e4","system_id":"levelo_inurba_marseille","lat":43.29967,"lon":5.37183,"is_reserved":false,"is_disabled":false,"rental_uris":{"android":"levelo://app?vid=18b7a8a8-2a4b-4aac-85a4-071e45d830e4","ios":"levelo://app?vid=18b7a8a8-2a4b-4aac-85a4-071e45d830e4"},"vehicle_type_id":"4","last_reported":1739905668,"current_range_meters":13600,"station_id":"ce4bgr92rcd13ifvqc7g","pricing_plan_id":"cebpf4jnsgd1na2vs0mg"},{"bike_id":"ba405d9d-9ea5-47e6-9b6a-ffd4f6621edd","system_id":"levelo_inurba_marseille","lat":43.2507,"lon":5.39511,"is_reserved":false,"is_disabled":false,"rental_uris":{"android":"levelo://app?vid=ba405d9d-9ea5-47e6-9b6a-ffd4f6621edd","ios":"levelo://app?vid=ba405d9d-9ea5-47e6-9b6a-ffd4f6621edd"},"vehicle_type_id":"4","last_reported":1739905668,"current_range_meters":13600,"station_id":"","pricing_plan_id":"cebpf4jnsgd1na2vs0mg"},{"bike_id":"5ac779f2-1fb7-4568-b0fe-31c31466d82e","system_id":"levelo_inurba_marseille","lat":43.26557,"lon":5.38989,"is_reserved":false,"is_disabled":false,"rental_uris":{"android":"levelo://app?vid=5ac779f2-1fb7-4568-b0fe-31c31466d82e","ios":"levelo://app?vid=5ac779f2-1fb7-4568-b0fe-31c31466d82e"},"vehicle_type_id":"4","last_reported":1739905668,"current_range_meters":13600,"station_id":"ce4bhe12rcd13ifvqf30","pricing_plan_id":"cebpf4jnsgd1na2vs0mg"},{"bike_id":"4f5de7ad-5556-4b8e-8e8c-a7886db66280","system_id":"levelo_inurba_marseille","lat":43.24388,"lon":5.37062,"is_reserved":false,"is_disabled":false,"rental_uris":{"android":"levelo://app?vid=4f5de7ad-5556-4b8e-8e8c-a7886db66280","ios":"levelo://app?vid=4f5de7ad-5556-4b8e-8e8c-a7886db66280"},"vehicle_type_id":"4","last_reported":1739905668,"current_range_meters":12800,"station_id":"ce4bhhh2rcd13ifvqfk0","pricing_plan_id":"cebpf4jnsgd1na2vs0mg"},{"bike_id":"25a87e91-9c0d-4903-b869-115b64990ac3","system_id":"levelo_inurba_marseille","lat":43.28162,"lon":5.42644,"is_reserved":false,"is_disabled":false,"rental_uris":{"android":"levelo://app?vid=25a87e91-9c0d-4903-b869-115b64990ac3","ios":"levelo://app?vid=25a87e91-9c0d-4903-b869-115b64990ac3"},"vehicle_type_id":"4","last_reported":1739905668,"current_range_meters":13600,"station_id":"ce4bhnh2rcd13ifvqgug","pricing_plan_id":"cebpf4jnsgd1na2vs0mg"},{"bike_id":"6b61a15f-d255-41a0-8166-7f2b93e7d846","system_id":"levelo_inurba_marseille","lat":43.23972,"lon":5.36609,"is_reserved":false,"is_disabled":false,"rental_uris":{"android":"levelo://app?vid=6b61a15f-d255-41a0-8166-7f2b93e7d846","ios":"levelo://app?vid=6b61a15f-d255-41a0-8166-7f2b93e7d846"},"vehicle_type_id":"4","last_reported":1739905668,"current_range_meters":13600,"station_id":"ce4bhi12rcd13ifvqfp0","pricing_plan_id":"cebpf4jnsgd1na2vs0mg"},{"bike_id":"7530ae29-efaa-43ec-9e70-1f09923981a6","system_id":"levelo_inurba_marseille","lat":43.311392,"lon":5.388245,"is_reserved":false,"is_disabled":false,"rental_uris":{"android":"levelo://app?vid=7530ae29-efaa-43ec-9e70-1f09923981a6","ios":"levelo://app?vid=7530ae29-efaa-43ec-9e70-1f09923981a6"},"vehicle_type_id":"4","last_reported":1739905668,"current_range_meters":11600,"station_id":"ce4bh4p2rcd13ifvqe0g","pricing_plan_id":"cebpf4jnsgd1na2vs0mg"},{"bike_id":"f0f61fdf-e262-479f-a259-1997ef9b3f40","system_id":"levelo_inurba_marseille","lat":43.28152,"lon":5.42646,"is_reserved":false,"is_disabled":false,"rental_uris":{"android":"levelo://app?vid=f0f61fdf-e262-479f-a259-1997ef9b3f40","ios":"levelo://app?vid=f0f61fdf-e262-479f-a259-1997ef9b3f40"},"vehicle_type_id":"4","last_reported":1739905668,"current_range_meters":14000,"station_id":"","pricing_plan_id":"cebpf4jnsgd1na2vs0mg"},{"bike_id":"790e837a-6dde-4562-8730-50240a4341b3","system_id":"levelo_inurba_marseille","lat":43.28947,"lon":5.36639,"is_reserved":false,"is_disabled":false,"rental_uris":{"android":"levelo://app?vid=790e837a-6dde-4562-8730-50240a4341b3","ios":"levelo://app?vid=790e837a-6dde-4562-8730-50240a4341b3"},"vehicle_type_id":"4","last_reported":1739905668,"current_range_meters":11600,"station_id":"ce4bhap2rcd13ifvqek0","pricing_plan_id":"cebpf4jnsgd1na2vs0mg"},{"bike_id":"f027fe38-3f5d-42fa-b16a-68ca60104c09","system_id":"levelo_inurba_marseille","lat":43.2417,"lon":5.36407,"is_reserved":false,"is_disabled":false,"rental_uris":{"android":"levelo://app?vid=f027fe38-3f5d-42fa-b16a-68ca60104c09","ios":"levelo://app?vid=f027fe38-3f5d-42fa-b16a-68ca60104c09"},"vehicle_type_id":"4","last_reported":1739905668,"current_range_meters":14400,"station_id":"","pricing_plan_id":"cebpf4jnsgd1na2vs0mg"},{"bike_id":"53f606f2-ff40-4973-b3af-e27307659ae1","system_id":"levelo_inurba_marseille","lat":43.29301,"lon":5.37453,"is_reserved":false,"is_disabled":false,"rental_uris":{"android":"levelo://app?vid=53f606f2-ff40-4973-b3af-e27307659ae1","ios":"levelo://app?vid=53f606f2-ff40-4973-b3af-e27307659ae1"},"vehicle_type_id":"4","last_reported":1739905668,"current_range_meters":14800,"station_id":"ce4bgi12rcd13ifvqb70","pricing_plan_id":"cebpf4jnsgd1na2vs0mg"},{"bike_id":"90017611-e2b1-401c-bcbf-f9d526ffc823","system_id":"levelo_inurba_marseille","lat":43.2935,"lon":5.38308,"is_reserved":false,"is_disabled":false,"rental_uris":{"android":"levelo://app?vid=90017611-e2b1-401c-bcbf-f9d526ffc823","ios":"levelo://app?vid=90017611-e2b1-401c-bcbf-f9d526ffc823"},"vehicle_type_id":"4","last_reported":1739905668,"current_range_meters":14400,"station_id":"","pricing_plan_id":"cebpf4jnsgd1na2vs0mg"},{"bike_id":"29a80104-7c84-4882-96c6-67eb68777f92","system_id":"levelo_inurba_marseille","lat":43.24812,"lon":5.37458,"is_reserved":false,"is_disabled":false,"rental_uris":{"android":"levelo://app?vid=29a80104-7c84-4882-96c6-67eb68777f92","ios":"levelo://app?vid=29a80104-7c84-4882-96c6-67eb68777f92"},"vehicle_type_id":"4","last_reported":1739905668,"current_range_meters":14400,"station_id":"","pricing_plan_id":"cebpf4jnsgd1na2vs0mg"},{"bike_id":"9f754e5f-4550-455e-bd52-d8502ee6ef30","system_id":"levelo_inurba_marseille","lat":43.306036,"lon":5.400856,"is_reserved":false,"is_disabled":false,"rental_uris":{"android":"levelo://app?vid=9f754e5f-4550-455e-bd52-d8502ee6ef30","ios":"levelo://app?vid=9f754e5f-4550-455e-bd52-d8502ee6ef30"},"vehicle_type_id":"4","last_reported":1739905668,"current_range_meters":14800,"station_id":"ce4bgvh2rcd13ifvqcs0","pricing_plan_id":"cebpf4jnsgd1na2vs0mg"},{"bike_id":"ad6987c5-c9d8-409c-a1fb-abc688072d0c","system_id":"levelo_inurba_marseille","lat":43.28821,"lon":5.35844,"is_reserved":false,"is_disabled":false,"rental_uris":{"android":"levelo://app?vid=ad6987c5-c9d8-409c-a1fb-abc688072d0c","ios":"levelo://app?vid=ad6987c5-c9d8-409c-a1fb-abc688072d0c"},"vehicle_type_id":"4","last_reported":1739905668,"current_range_meters":14400,"station_id":"ce4bhb12rcd13ifvqem0","pricing_plan_id":"cebpf4jnsgd1na2vs0mg"},{"bike_id":"07da0bdc-8313-4de2-9058-fd8ecd01c88e","system_id":"levelo_inurba_marseille","lat":43.32635,"lon":5.40981,"is_reserved":false,"is_disabled":false,"rental_uris":{"android":"levelo://app?vid=07da0bdc-8313-4de2-9058-fd8ecd01c88e","ios":"levelo://app?vid=07da0bdc-8313-4de2-9058-fd8ecd01c88e"},"vehicle_type_id":"4","last_reported":1739905668,"current_range_meters":14800,"station_id":"ce4bhpp2rcd13ifvqhgg","pricing_plan_id":"cebpf4jnsgd1na2vs0mg"},{"bike_id":"ff35d651-9af0-487c-894e-65d0e7833694","system_id":"levelo_inurba_marseille","lat":43.25495,"lon":5.37647,"is_reserved":false,"is_disabled":false,"rental_uris":{"android":"levelo://app?vid=ff35d651-9af0-487c-894e-65d0e7833694","ios":"levelo://app?vid=ff35d651-9af0-487c-894e-65d0e7833694"},"vehicle_type_id":"4","last_reported":1739905668,"current_range_meters":14800,"station_id":"","pricing_plan_id":"cebpf4jnsgd1na2vs0mg"},{"bike_id":"b63e1c7d-3a32-4b0b-8dcd-44319e6bde92","system_id":"levelo_inurba_marseille","lat":43.29532,"lon":5.38534,"is_reserved":false,"is_disabled":false,"rental_uris":{"android":"levelo://app?vid=b63e1c7d-3a32-4b0b-8dcd-44319e6bde92","ios":"levelo://app?vid=b63e1c7d-3a32-4b0b-8dcd-44319e6bde92"},"vehicle_type_id":"4","last_reported":1739905668,"current_range_meters":14800,"station_id":"","pricing_plan_id":"cebpf4jnsgd1na2vs0mg"},{"bike_id":"d1dec037-ee4c-4db9-a655-1087d8ee1f4f","system_id":"levelo_inurba_marseille","lat":43.28444,"lon":5.39175,"is_reserved":false,"is_disabled":true,"rental_uris":{"android":"levelo://app?vid=d1dec037-ee4c-4db9-a655-1087d8ee1f4f","ios":"levelo://app?vid=d1dec037-ee4c-4db9-a655-1087d8ee1f4f"},"vehicle_type_id":"4","last_reported":1739905668,"current_range_meters":14800,"station_id":"","pricing_plan_id":"cebpf4jnsgd1na2vs0mg"},{"bike_id":"c6b4c1d4-7170-42e8-a495-57f7e8da8511","system_id":"levelo_inurba_marseille","lat":43.24646,"lon":5.38897,"is_reserved":false,"is_disabled":false,"rental_uris":{"android":"levelo://app?vid=c6b4c1d4-7170-42e8-a495-57f7e8da8511","ios":"levelo://app?vid=c6b4c1d4-7170-42e8-a495-57f7e8da8511"},"vehicle_type_id":"4","last_reported":1739905668,"current_range_meters":14800,"station_id":"ce4bhg12rcd13ifvqf60","pricing_plan_id":"cebpf4jnsgd1na2vs0mg"},{"bike_id":"bb81add2-2c90-482a-8c1d-9dc437949269","system_id":"levelo_inurba_marseille","lat":43.30127,"lon":5.38775,"is_reserved":false,"is_disabled":false,"rental_uris":{"android":"levelo://app?vid=bb81add2-2c90-482a-8c1d-9dc437949269","ios":"levelo://app?vid=bb81add2-2c90-482a-8c1d-9dc437949269"},"vehicle_type_id":"4","last_reported":1739905668,"current_range_meters":14800,"station_id":"ce4bghh2rcd13ifvqb60","pricing_plan_id":"cebpf4jnsgd1na2vs0mg"},{"bike_id":"3ba3aae7-8792-4d54-bd64-a0ea827a6cb8","system_id":"levelo_inurba_marseille","lat":43.29038,"lon":5.38638,"is_reserved":false,"is_disabled":false,"rental_uris":{"android":"levelo://app?vid=3ba3aae7-8792-4d54-bd64-a0ea827a6cb8","ios":"levelo://app?vid=3ba3aae7-8792-4d54-bd64-a0ea827a6cb8"},"vehicle_type_id":"4","last_reported":1739905668,"current_range_meters":14800,"station_id":"ce4bh4p2rcd13ifvqe0g","pricing_plan_id":"cebpf4jnsgd1na2vs0mg"},{"bike_id":"7a067ee4-37ba-4ba0-8489-80f05d5c35e8","system_id":"levelo_inurba_marseille","lat":43.3021,"lon":5.39458,"is_reserved":false,"is_disabled":false,"rental_uris":{"android":"levelo://app?vid=7a067ee4-37ba-4ba0-8489-80f05d5c35e8","ios":"levelo://app?vid=7a067ee4-37ba-4ba0-8489-80f05d5c35e8"},"vehicle_type_id":"4","last_reported":1739905668,"current_range_meters":14400,"station_id":"ce4bh0p2rcd13ifvqd70","pricing_plan_id":"cebpf4jnsgd1na2vs0mg"},{"bike_id":"98b1401a-7342-47bc-852f-3b0a705035c6","system_id":"levelo_inurba_marseille","lat":43.23963,"lon":5.36632,"is_reserved":false,"is_disabled":false,"rental_uris":{"android":"levelo://app?vid=98b1401a-7342-47bc-852f-3b0a705035c6","ios":"levelo://app?vid=98b1401a-7342-47bc-852f-3b0a705035c6"},"vehicle_type_id":"4","last_reported":1739905668,"current_range_meters":15200,"station_id":"ce4bhi12rcd13ifvqfp0","pricing_plan_id":"cebpf4jnsgd1na2vs0mg"},{"bike_id":"02e819f0-d6f3-424b-b698-1856211dbb1e","system_id":"levelo_inurba_marseille","lat":43.2925,"lon":5.3844,"is_reserved":false,"is_disabled":false,"rental_uris":{"android":"levelo://app?vid=02e819f0-d6f3-424b-b698-1856211dbb1e","ios":"levelo://app?vid=02e819f0-d6f3-424b-b698-1856211dbb1e"},"vehicle_type_id":"4","last_reported":1739905668,"current_range_meters":15200,"station_id":"","pricing_plan_id":"cebpf4jnsgd1na2vs0mg"},{"bike_id":"397b80cf-cbf3-4f7e-9d00-ad56509053a2","system_id":"levelo_inurba_marseille","lat":43.29171,"lon":5.39784,"is_reserved":false,"is_disabled":false,"rental_uris":{"android":"levelo://app?vid=397b80cf-cbf3-4f7e-9d00-ad56509053a2","ios":"levelo://app?vid=397b80cf-cbf3-4f7e-9d00-ad56509053a2"},"vehicle_type_id":"4","last_reported":1739905668,"current_range_meters":15200,"station_id":"","pricing_plan_id":"cebpf4jnsgd1na2vs0mg"},{"bike_id":"77532258-3474-4c73-b19f-3e5f9b2666cb","system_id":"levelo_inurba_marseille","lat":43.31716,"lon":5.43713,"is_reserved":false,"is_disabled":false,"rental_uris":{"android":"levelo://app?vid=77532258-3474-4c73-b19f-3e5f9b2666cb","ios":"levelo://app?vid=77532258-3474-4c73-b19f-3e5f9b2666cb"},"vehicle_type_id":"4","last_reported":1739905668,"current_range_meters":15200,"station_id":"","pricing_plan_id":"cebpf4jnsgd1na2vs0mg"},{"bike_id":"6c335b3b-f93c-450a-8403-36cd529bb099","system_id":"levelo_inurba_marseille","lat":43.29605,"lon":5.38099,"is_reserved":false,"is_disabled":false,"rental_uris":{"android":"levelo://app?vid=6c335b3b-f93c-450a-8403-36cd529bb099","ios":"levelo://app?vid=6c335b3b-f93c-450a-8403-36cd529bb099"},"vehicle_type_id":"4","last_reported":1739905668,"current_range_meters":16000,"station_id":"","pricing_plan_id":"cebpf4jnsgd1na2vs0mg"},{"bike_id":"e0890ac3-54c4-4e6a-a5d8-b038df540cf0","system_id":"levelo_inurba_marseille","lat":43.24666,"lon":5.38157,"is_reserved":false,"is_disabled":false,"rental_uris":{"android":"levelo://app?vid=e0890ac3-54c4-4e6a-a5d8-b038df540cf0","ios":"levelo://app?vid=e0890ac3-54c4-4e6a-a5d8-b038df540cf0"},"vehicle_type_id":"4","last_reported":1739905668,"current_range_meters":15200,"station_id":"ce4bhih2rcd13ifvqfr0","pricing_plan_id":"cebpf4jnsgd1na2vs0mg"},{"bike_id":"1d63a175-89ef-49ff-9ead-dfe9ed6c22cf","system_id":"levelo_inurba_marseille","lat":43.24687,"lon":5.39429,"is_reserved":false,"is_disabled":false,"rental_uris":{"android":"levelo://app?vid=1d63a175-89ef-49ff-9ead-dfe9ed6c22cf","ios":"levelo://app?vid=1d63a175-89ef-49ff-9ead-dfe9ed6c22cf"},"vehicle_type_id":"4","last_reported":1739905668,"current_range_meters":16000,"station_id":"","pricing_plan_id":"cebpf4jnsgd1na2vs0mg"},{"bike_id":"223a4152-f724-4030-8601-375ad1d2e8f0","system_id":"levelo_inurba_marseille","lat":43.27969,"lon":5.38727,"is_reserved":false,"is_disabled":false,"rental_uris":{"android":"levelo://app?vid=223a4152-f724-4030-8601-375ad1d2e8f0","ios":"levelo://app?vid=223a4152-f724-4030-8601-375ad1d2e8f0"},"vehicle_type_id":"4","last_reported":1739905668,"current_range_meters":16000,"station_id":"ce4bhg12rcd13ifvqf80","pricing_plan_id":"cebpf4jnsgd1na2vs0mg"},{"bike_id":"901a2024-1d80-4f79-a7fb-a0232ce6d23d","system_id":"levelo_inurba_marseille","lat":43.2757,"lon":5.38423,"is_reserved":false,"is_disabled":false,"rental_uris":{"android":"levelo://app?vid=901a2024-1d80-4f79-a7fb-a0232ce6d23d","ios":"levelo://app?vid=901a2024-1d80-4f79-a7fb-a0232ce6d23d"},"vehicle_type_id":"4","last_reported":1739905668,"current_range_meters":16000,"station_id":"ce4bhh92rcd13ifvqfi0","pricing_plan_id":"cebpf4jnsgd1na2vs0mg"},{"bike_id":"c122d514-6e90-402e-9220-a79090905bea","system_id":"levelo_inurba_marseille","lat":43.28934,"lon":5.36637,"is_reserved":false,"is_disabled":false,"rental_uris":{"android":"levelo://app?vid=c122d514-6e90-402e-9220-a79090905bea","ios":"levelo://app?vid=c122d514-6e90-402e-9220-a79090905bea"},"vehicle_type_id":"4","last_reported":1739905668,"current_range_meters":16000,"station_id":"","pricing_plan_id":"cebpf4jnsgd1na2vs0mg"},{"bike_id":"bfef4ce2-45d0-4602-b2e8-a89ae23df3d5","system_id":"levelo_inurba_marseille","lat":43.2694,"lon":5.38639,"is_reserved":false,"is_disabled":false,"rental_uris":{"android":"levelo://app?vid=bfef4ce2-45d0-4602-b2e8-a89ae23df3d5","ios":"levelo://app?vid=bfef4ce2-45d0-4602-b2e8-a89ae23df3d5"},"vehicle_type_id":"4","last_reported":1739905668,"current_range_meters":16000,"station_id":"ce4bhh92rcd13ifvqfh0","pricing_plan_id":"cebpf4jnsgd1na2vs0mg"},{"bike_id":"577eeb74-3354-462b-96ef-dd7a40233703","system_id":"levelo_inurba_marseille","lat":43.29523,"lon":5.39043,"is_reserved":false,"is_disabled":false,"rental_uris":{"android":"levelo://app?vid=577eeb74-3354-462b-96ef-dd7a40233703","ios":"levelo://app?vid=577eeb74-3354-462b-96ef-dd7a40233703"},"vehicle_type_id":"4","last_reported":1739905668,"current_range_meters":16800,"station_id":"ce4bh3p2rcd13ifvqdp0","pricing_plan_id":"cebpf4jnsgd1na2vs0mg"},{"bike_id":"b7ee7074-0ed1-413c-95bf-29ca1f13818b","system_id":"levelo_inurba_marseille","lat":43.25576,"lon":5.38247,"is_reserved":false,"is_disabled":false,"rental_uris":{"android":"levelo://app?vid=b7ee7074-0ed1-413c-95bf-29ca1f13818b","ios":"levelo://app?vid=b7ee7074-0ed1-413c-95bf-29ca1f13818b"},"vehicle_type_id":"4","last_reported":1739905668,"current_range_meters":16400,"station_id":"ce4bhih2rcd13ifvqfs0","pricing_plan_id":"cebpf4jnsgd1na2vs0mg"},{"bike_id":"c3a50302-35be-4085-9dae-1b4ddb75bfa8","system_id":"levelo_inurba_marseille","lat":43.29528,"lon":5.39394,"is_reserved":false,"is_disabled":false,"rental_uris":{"android":"levelo://app?vid=c3a50302-35be-4085-9dae-1b4ddb75bfa8","ios":"levelo://app?vid=c3a50302-35be-4085-9dae-1b4ddb75bfa8"},"vehicle_type_id":"4","last_reported":1739905668,"current_range_meters":16800,"station_id":"ce4bh292rcd13ifvqdf0","pricing_plan_id":"cebpf4jnsgd1na2vs0mg"},{"bike_id":"a00fb5cd-e0d2-4f96-befb-5275c0df0c87","system_id":"levelo_inurba_marseille","lat":43.27969,"lon":5.41661,"is_reserved":false,"is_disabled":false,"rental_uris":{"android":"levelo://app?vid=a00fb5cd-e0d2-4f96-befb-5275c0df0c87","ios":"levelo://app?vid=a00fb5cd-e0d2-4f96-befb-5275c0df0c87"},"vehicle_type_id":"4","last_reported":1739905668,"current_range_meters":16400,"station_id":"ce4bho12rcd13ifvqh1g","pricing_plan_id":"cebpf4jnsgd1na2vs0mg"},{"bike_id":"29c64147-3dd9-4094-924e-e8936791aa2c","system_id":"levelo_inurba_marseille","lat":43.29435,"lon":5.39749,"is_reserved":false,"is_disabled":false,"rental_uris":{"android":"levelo://app?vid=29c64147-3dd9-4094-924e-e8936791aa2c","ios":"levelo://app?vid=29c64147-3dd9-4094-924e-e8936791aa2c"},"vehicle_type_id":"4","last_reported":1739905668,"current_range_meters":16400,"station_id":"ce4bh3h2rcd13ifvqdo0","pricing_plan_id":"cebpf4jnsgd1na2vs0mg"},{"bike_id":"2496f28f-529d-4b86-a9ef-00d9565268b8","system_id":"levelo_inurba_marseille","lat":43.29557,"lon":5.38552,"is_reserved":false,"is_disabled":false,"rental_uris":{"android":"levelo://app?vid=2496f28f-529d-4b86-a9ef-00d9565268b8","ios":"levelo://app?vid=2496f28f-529d-4b86-a9ef-00d9565268b8"},"vehicle_type_id":"4","last_reported":1739905668,"current_range_meters":16400,"station_id":"","pricing_plan_id":"cebpf4jnsgd1na2vs0mg"},{"bike_id":"6a29d64c-59b3-4670-ab67-0513acac8ceb","system_id":"levelo_inurba_marseille","lat":43.29416,"lon":5.38626,"is_reserved":false,"is_disabled":false,"rental_uris":{"android":"levelo://app?vid=6a29d64c-59b3-4670-ab67-0513acac8ceb","ios":"levelo://app?vid=6a29d64c-59b3-4670-ab67-0513acac8ceb"},"vehicle_type_id":"4","last_reported":1739905668,"current_range_meters":16400,"station_id":"ce4bh2h2rcd13ifvqdh0","pricing_plan_id":"cebpf4jnsgd1na2vs0mg"},{"bike_id":"1d43e5d7-52d5-4194-83ef-c6c6aac59d16","system_id":"levelo_inurba_marseille","lat":43.31713,"lon":5.43706,"is_reserved":false,"is_disabled":false,"rental_uris":{"android":"levelo://app?vid=1d43e5d7-52d5-4194-83ef-c6c6aac59d16","ios":"levelo://app?vid=1d43e5d7-52d5-4194-83ef-c6c6aac59d16"},"vehicle_type_id":"4","last_reported":1739905668,"current_range_meters":16400,"station_id":"","pricing_plan_id":"cebpf4jnsgd1na2vs0mg"},{"bike_id":"be4b3125-596f-4cd9-816a-2b6ccd64ce92","system_id":"levelo_inurba_marseille","lat":43.31269,"lon":5.40165,"is_reserved":false,"is_disabled":false,"rental_uris":{"android":"levelo://app?vid=be4b3125-596f-4cd9-816a-2b6ccd64ce92","ios":"levelo://app?vid=be4b3125-596f-4cd9-816a-2b6ccd64ce92"},"vehicle_type_id":"4","last_reported":1739905668,"current_range_meters":16400,"station_id":"ce4bh092rcd13ifvqd30","pricing_plan_id":"cebpf4jnsgd1na2vs0mg"},{"bike_id":"d2bbc16b-17e1-4745-a415-b4cd89817190","system_id":"levelo_inurba_marseille","lat":43.24641,"lon":5.38918,"is_reserved":false,"is_disabled":false,"rental_uris":{"android":"levelo://app?vid=d2bbc16b-17e1-4745-a415-b4cd89817190","ios":"levelo://app?vid=d2bbc16b-17e1-4745-a415-b4cd89817190"},"vehicle_type_id":"4","last_reported":1739905668,"current_range_meters":16800,"station_id":"ce4bhg12rcd13ifvqf60","pricing_plan_id":"cebpf4jnsgd1na2vs0mg"},{"bike_id":"f42f0f2c-7c31-4997-8072-9ffe474680ae","system_id":"levelo_inurba_marseille","lat":43.304582,"lon":5.379062,"is_reserved":false,"is_disabled":false,"rental_uris":{"android":"levelo://app?vid=f42f0f2c-7c31-4997-8072-9ffe474680ae","ios":"levelo://app?vid=f42f0f2c-7c31-4997-8072-9ffe474680ae"},"vehicle_type_id":"4","last_reported":1739905668,"current_range_meters":16800,"station_id":"","pricing_plan_id":"cebpf4jnsgd1na2vs0mg"},{"bike_id":"c232f339-f33d-4c34-b33c-46fac8f3b968","system_id":"levelo_inurba_marseille","lat":43.2867,"lon":5.38683,"is_reserved":false,"is_disabled":false,"rental_uris":{"android":"levelo://app?vid=c232f339-f33d-4c34-b33c-46fac8f3b968","ios":"levelo://app?vid=c232f339-f33d-4c34-b33c-46fac8f3b968"},"vehicle_type_id":"4","last_reported":1739905668,"current_range_meters":16800,"station_id":"ce4bh492rcd13ifvqdug","pricing_plan_id":"cebpf4jnsgd1na2vs0mg"},{"bike_id":"420dd0b2-941a-457b-8b2c-af72eb3212cf","system_id":"levelo_inurba_marseille","lat":43.29264,"lon":5.38433,"is_reserved":false,"is_disabled":false,"rental_uris":{"android":"levelo://app?vid=420dd0b2-941a-457b-8b2c-af72eb3212cf","ios":"levelo://app?vid=420dd0b2-941a-457b-8b2c-af72eb3212cf"},"vehicle_type_id":"4","last_reported":1739905668,"current_range_meters":16800,"station_id":"","pricing_plan_id":"cebpf4jnsgd1na2vs0mg"},{"bike_id":"c67fb496-8441-458a-af2d-8f07c087bdd0","system_id":"levelo_inurba_marseille","lat":43.24172,"lon":5.36426,"is_reserved":false,"is_disabled":true,"rental_uris":{"android":"levelo://app?vid=c67fb496-8441-458a-af2d-8f07c087bdd0","ios":"levelo://app?vid=c67fb496-8441-458a-af2d-8f07c087bdd0"},"vehicle_type_id":"4","last_reported":1739905668,"current_range_meters":16800,"station_id":"","pricing_plan_id":"cebpf4jnsgd1na2vs0mg"},{"bike_id":"db7f2d58-492d-4297-aa78-ce0ad99a0a74","system_id":"levelo_inurba_marseille","lat":43.2744,"lon":5.41038,"is_reserved":false,"is_disabled":false,"rental_uris":{"android":"levelo://app?vid=db7f2d58-492d-4297-aa78-ce0ad99a0a74","ios":"levelo://app?vid=db7f2d58-492d-4297-aa78-ce0ad99a0a74"},"vehicle_type_id":"4","last_reported":1739905668,"current_range_meters":16800,"station_id":"ce4bhb92rcd13ifvqen0","pricing_plan_id":"cebpf4jnsgd1na2vs0mg"},{"bike_id":"5c26c52e-904f-45f3-b17d-fcd68d0887c3","system_id":"levelo_inurba_marseille","lat":43.30787,"lon":5.37642,"is_reserved":false,"is_disabled":false,"rental_uris":{"android":"levelo://app?vid=5c26c52e-904f-45f3-b17d-fcd68d0887c3","ios":"levelo://app?vid=5c26c52e-904f-45f3-b17d-fcd68d0887c3"},"vehicle_type_id":"4","last_reported":1739905668,"current_range_meters":14800,"station_id":"ce4bgv92rcd13ifvqcq0","pricing_plan_id":"cebpf4jnsgd1na2vs0mg"},{"bike_id":"9076ad40-4420-4f49-8938-abacfc15e913","system_id":"levelo_inurba_marseille","lat":43.30139,"lon":5.38782,"is_reserved":false,"is_disabled":false,"rental_uris":{"android":"levelo://app?vid=9076ad40-4420-4f49-8938-abacfc15e913","ios":"levelo://app?vid=9076ad40-4420-4f49-8938-abacfc15e913"},"vehicle_type_id":"4","last_reported":1739905668,"current_range_meters":16800,"station_id":"ce4bhoh2rcd13ifvqh6g","pricing_plan_id":"cebpf4jnsgd1na2vs0mg"},{"bike_id":"59c06e16-2c1f-4444-a3f6-6a7b6c9c893e","system_id":"levelo_inurba_marseille","lat":43.30318,"lon":5.39202,"is_reserved":false,"is_disabled":true,"rental_uris":{"android":"levelo://app?vid=59c06e16-2c1f-4444-a3f6-6a7b6c9c893e","ios":"levelo://app?vid=59c06e16-2c1f-4444-a3f6-6a7b6c9c893e"},"vehicle_type_id":"4","last_reported":1739905668,"current_range_meters":16800,"station_id":"ce4bgkh2rcd13ifvqbk0","pricing_plan_id":"cebpf4jnsgd1na2vs0mg"},{"bike_id":"baf6d894-ad10-49a9-b91a-24f60ad956f7","system_id":"levelo_inurba_marseille","lat":43.28976,"lon":5.4268,"is_reserved":false,"is_disabled":false,"rental_uris":{"android":"levelo://app?vid=baf6d894-ad10-49a9-b91a-24f60ad956f7","ios":"levelo://app?vid=baf6d894-ad10-49a9-b91a-24f60ad956f7"},"vehicle_type_id":"4","last_reported":1739905668,"current_range_meters":16800,"station_id":"","pricing_plan_id":"cebpf4jnsgd1na2vs0mg"},{"bike_id":"f107fd10-a21a-4129-b11c-ebed5d2373f0","system_id":"levelo_inurba_marseille","lat":43.29905,"lon":5.38151,"is_reserved":false,"is_disabled":false,"rental_uris":{"android":"levelo://app?vid=f107fd10-a21a-4129-b11c-ebed5d2373f0","ios":"levelo://app?vid=f107fd10-a21a-4129-b11c-ebed5d2373f0"},"vehicle_type_id":"4","last_reported":1739905668,"current_range_meters":16800,"station_id":"ce4bgj12rcd13ifvqbc0","pricing_plan_id":"cebpf4jnsgd1na2vs0mg"},{"bike_id":"fc971b16-bef3-4b6d-813c-ffc8ffa48842","system_id":"levelo_inurba_marseille","lat":43.2841,"lon":5.34986,"is_reserved":false,"is_disabled":true,"rental_uris":{"android":"levelo://app?vid=fc971b16-bef3-4b6d-813c-ffc8ffa48842","ios":"levelo://app?vid=fc971b16-bef3-4b6d-813c-ffc8ffa48842"},"vehicle_type_id":"4","last_reported":1739905668,"current_range_meters":16800,"station_id":"","pricing_plan_id":"cebpf4jnsgd1na2vs0mg"},{"bike_id":"077acc1b-c1b2-4d14-8209-0cc02229d534","system_id":"levelo_inurba_marseille","lat":43.301383,"lon":5.398727,"is_reserved":false,"is_disabled":false,"rental_uris":{"android":"levelo://app?vid=077acc1b-c1b2-4d14-8209-0cc02229d534","ios":"levelo://app?vid=077acc1b-c1b2-4d14-8209-0cc02229d534"},"vehicle_type_id":"4","last_reported":1739905668,"current_range_meters":16800,"station_id":"ce4bh0h2rcd13ifvqd40","pricing_plan_id":"cebpf4jnsgd1na2vs0mg"},{"bike_id":"34a9a6e8-1b73-45fa-93ff-c0f8e965cabf","system_id":"levelo_inurba_marseille","lat":43.32475,"lon":5.36568,"is_reserved":false,"is_disabled":false,"rental_uris":{"android":"levelo://app?vid=34a9a6e8-1b73-45fa-93ff-c0f8e965cabf","ios":"levelo://app?vid=34a9a6e8-1b73-45fa-93ff-c0f8e965cabf"},"vehicle_type_id":"4","last_reported":1739905668,"current_range_meters":16800,"station_id":"ce4bhs12rcd13ifvqhvg","pricing_plan_id":"cebpf4jnsgd1na2vs0mg"},{"bike_id":"b64778c2-2434-4409-b125-e965a1fd469a","system_id":"levelo_inurba_marseille","lat":43.30305,"lon":5.36668,"is_reserved":false,"is_disabled":false,"rental_uris":{"android":"levelo://app?vid=b64778c2-2434-4409-b125-e965a1fd469a","ios":"levelo://app?vid=b64778c2-2434-4409-b125-e965a1fd469a"},"vehicle_type_id":"4","last_reported":1739905668,"current_range_meters":16800,"station_id":"ce4bgs12rcd13ifvqcag","pricing_plan_id":"cebpf4jnsgd1na2vs0mg"},{"bike_id":"f77eb7d8-9434-4c05-861f-edd4244aaffc","system_id":"levelo_inurba_marseille","lat":43.25489,"lon":5.37634,"is_reserved":false,"is_disabled":false,"rental_uris":{"android":"levelo://app?vid=f77eb7d8-9434-4c05-861f-edd4244aaffc","ios":"levelo://app?vid=f77eb7d8-9434-4c05-861f-edd4244aaffc"},"vehicle_type_id":"4","last_reported":1739905668,"current_range_meters":17200,"station_id":"","pricing_plan_id":"cebpf4jnsgd1na2vs0mg"},{"bike_id":"1c43eb49-ea1b-41ce-946d-e5fe349433b9","system_id":"levelo_inurba_marseille","lat":43.27942,"lon":5.41031,"is_reserved":false,"is_disabled":false,"rental_uris":{"android":"levelo://app?vid=1c43eb49-ea1b-41ce-946d-e5fe349433b9","ios":"levelo://app?vid=1c43eb49-ea1b-41ce-946d-e5fe349433b9"},"vehicle_type_id":"4","last_reported":1739905668,"current_range_meters":17200,"station_id":"ce4bhnp2rcd13ifvqh0g","pricing_plan_id":"cebpf4jnsgd1na2vs0mg"},{"bike_id":"251e94b7-79f6-4aa4-ac6d-a0f2d6a05a18","system_id":"levelo_inurba_marseille","lat":43.29411,"lon":5.38619,"is_reserved":false,"is_disabled":false,"rental_uris":{"android":"levelo://app?vid=251e94b7-79f6-4aa4-ac6d-a0f2d6a05a18","ios":"levelo://app?vid=251e94b7-79f6-4aa4-ac6d-a0f2d6a05a18"},"vehicle_type_id":"4","last_reported":1739905668,"current_range_meters":17200,"station_id":"","pricing_plan_id":"cebpf4jnsgd1na2vs0mg"},{"bike_id":"090d254b-7e06-4322-b664-ffb12aca0039","system_id":"levelo_inurba_marseille","lat":43.28413,"lon":5.34982,"is_reserved":false,"is_disabled":false,"rental_uris":{"android":"levelo://app?vid=090d254b-7e06-4322-b664-ffb12aca0039","ios":"levelo://app?vid=090d254b-7e06-4322-b664-ffb12aca0039"},"vehicle_type_id":"4","last_reported":1739905668,"current_range_meters":17200,"station_id":"ce4bhbh2rcd13ifvqepg","pricing_plan_id":"cebpf4jnsgd1na2vs0mg"},{"bike_id":"24dd12c1-4d8a-40c0-b521-a98d2d462c41","system_id":"levelo_inurba_marseille","lat":43.24172,"lon":5.36395,"is_reserved":false,"is_disabled":false,"rental_uris":{"android":"levelo://app?vid=24dd12c1-4d8a-40c0-b521-a98d2d462c41","ios":"levelo://app?vid=24dd12c1-4d8a-40c0-b521-a98d2d462c41"},"vehicle_type_id":"4","last_reported":1739905668,"current_range_meters":17200,"station_id":"","pricing_plan_id":"cebpf4jnsgd1na2vs0mg"},{"bike_id":"5a53eb6b-200f-4ac0-8efb-be28f6b20f01","system_id":"levelo_inurba_marseille","lat":43.23967,"lon":5.36626,"is_reserved":false,"is_disabled":false,"rental_uris":{"android":"levelo://app?vid=5a53eb6b-200f-4ac0-8efb-be28f6b20f01","ios":"levelo://app?vid=5a53eb6b-200f-4ac0-8efb-be28f6b20f01"},"vehicle_type_id":"4","last_reported":1739905668,"current_range_meters":17200,"station_id":"","pricing_plan_id":"cebpf4jnsgd1na2vs0mg"},{"bike_id":"93682908-43c6-4032-8e45-6984dd069700","system_id":"levelo_inurba_marseille","lat":43.24648,"lon":5.38909,"is_reserved":false,"is_disabled":false,"rental_uris":{"android":"levelo://app?vid=93682908-43c6-4032-8e45-6984dd069700","ios":"levelo://app?vid=93682908-43c6-4032-8e45-6984dd069700"},"vehicle_type_id":"4","last_reported":1739905668,"current_range_meters":17200,"station_id":"ce4bhg12rcd13ifvqf60","pricing_plan_id":"cebpf4jnsgd1na2vs0mg"},{"bike_id":"bf2c94db-3a74-4740-84b9-f999d4fe81f0","system_id":"levelo_inurba_marseille","lat":43.28477,"lon":5.38425,"is_reserved":false,"is_disabled":false,"rental_uris":{"android":"levelo://app?vid=bf2c94db-3a74-4740-84b9-f999d4fe81f0","ios":"levelo://app?vid=bf2c94db-3a74-4740-84b9-f999d4fe81f0"},"vehicle_type_id":"4","last_reported":1739905668,"current_range_meters":17200,"station_id":"ce4bh512rcd13ifvqe3g","pricing_plan_id":"cebpf4jnsgd1na2vs0mg"},{"bike_id":"a0ac4995-fcc8-4640-bf5e-270af5a3dbe0","system_id":"levelo_inurba_marseille","lat":43.28671,"lon":5.38665,"is_reserved":false,"is_disabled":false,"rental_uris":{"android":"levelo://app?vid=a0ac4995-fcc8-4640-bf5e-270af5a3dbe0","ios":"levelo://app?vid=a0ac4995-fcc8-4640-bf5e-270af5a3dbe0"},"vehicle_type_id":"4","last_reported":1739905668,"current_range_meters":17200,"station_id":"ce4bh492rcd13ifvqdug","pricing_plan_id":"cebpf4jnsgd1na2vs0mg"},{"bike_id":"9935677e-0262-4894-974f-fec1281c49ef","system_id":"levelo_inurba_marseille","lat":43.29512,"lon":5.39405,"is_reserved":false,"is_disabled":false,"rental_uris":{"android":"levelo://app?vid=9935677e-0262-4894-974f-fec1281c49ef","ios":"levelo://app?vid=9935677e-0262-4894-974f-fec1281c49ef"},"vehicle_type_id":"4","last_reported":1739905668,"current_range_meters":17200,"station_id":"ce4bh292rcd13ifvqdf0","pricing_plan_id":"cebpf4jnsgd1na2vs0mg"},{"bike_id":"25bda52f-b168-49f3-ac3e-7536e8f168bd","system_id":"levelo_inurba_marseille","lat":43.31236,"lon":5.36885,"is_reserved":false,"is_disabled":false,"rental_uris":{"android":"levelo://app?vid=25bda52f-b168-49f3-ac3e-7536e8f168bd","ios":"levelo://app?vid=25bda52f-b168-49f3-ac3e-7536e8f168bd"},"vehicle_type_id":"4","last_reported":1739905668,"current_range_meters":16400,"station_id":"ce4bgl92rcd13ifvqbq0","pricing_plan_id":"cebpf4jnsgd1na2vs0mg"},{"bike_id":"c8b62428-2a01-4a42-bea4-349831b02473","system_id":"levelo_inurba_marseille","lat":43.2901,"lon":5.35611,"is_reserved":false,"is_disabled":false,"rental_uris":{"android":"levelo://app?vid=c8b62428-2a01-4a42-bea4-349831b02473","ios":"levelo://app?vid=c8b62428-2a01-4a42-bea4-349831b02473"},"vehicle_type_id":"4","last_reported":1739905668,"current_range_meters":17600,"station_id":"ce4bhb92rcd13ifvqen0","pricing_plan_id":"cebpf4jnsgd1na2vs0mg"},{"bike_id":"85883833-fe1f-4944-92ab-1e901aee3acb","system_id":"levelo_inurba_marseille","lat":43.306589,"lon":5.400539,"is_reserved":false,"is_disabled":false,"rental_uris":{"android":"levelo://app?vid=85883833-fe1f-4944-92ab-1e901aee3acb","ios":"levelo://app?vid=85883833-fe1f-4944-92ab-1e901aee3acb"},"vehicle_type_id":"4","last_reported":1739905668,"current_range_meters":17600,"station_id":"ce4bh112rcd13ifvqda0","pricing_plan_id":"cebpf4jnsgd1na2vs0mg"},{"bike_id":"57708fc5-2744-4763-a091-3036762d24bc","system_id":"levelo_inurba_marseille","lat":43.31699,"lon":5.43702,"is_reserved":false,"is_disabled":false,"rental_uris":{"android":"levelo://app?vid=57708fc5-2744-4763-a091-3036762d24bc","ios":"levelo://app?vid=57708fc5-2744-4763-a091-3036762d24bc"},"vehicle_type_id":"4","last_reported":1739905668,"current_range_meters":17600,"station_id":"ce4bhp92rcd13ifvqhcg","pricing_plan_id":"cebpf4jnsgd1na2vs0mg"},{"bike_id":"4c049e8c-dd47-4937-b343-0b8e81c04fa5","system_id":"levelo_inurba_marseille","lat":43.29537,"lon":5.3854,"is_reserved":false,"is_disabled":false,"rental_uris":{"android":"levelo://app?vid=4c049e8c-dd47-4937-b343-0b8e81c04fa5","ios":"levelo://app?vid=4c049e8c-dd47-4937-b343-0b8e81c04fa5"},"vehicle_type_id":"4","last_reported":1739905668,"current_range_meters":17600,"station_id":"ce4bgih2rcd13ifvqba0","pricing_plan_id":"cebpf4jnsgd1na2vs0mg"},{"bike_id":"7ab181f0-dab1-4a72-8357-3a1237f3768a","system_id":"levelo_inurba_marseille","lat":43.2781,"lon":5.40711,"is_reserved":false,"is_disabled":false,"rental_uris":{"android":"levelo://app?vid=7ab181f0-dab1-4a72-8357-3a1237f3768a","ios":"levelo://app?vid=7ab181f0-dab1-4a72-8357-3a1237f3768a"},"vehicle_type_id":"4","last_reported":1739905668,"current_range_meters":14800,"station_id":"ce4bhnh2rcd13ifvqgtg","pricing_plan_id":"cebpf4jnsgd1na2vs0mg"},{"bike_id":"9a20bf4a-2838-4260-9d28-debd745460c0","system_id":"levelo_inurba_marseille","lat":43.30874,"lon":5.37795,"is_reserved":false,"is_disabled":false,"rental_uris":{"android":"levelo://app?vid=9a20bf4a-2838-4260-9d28-debd745460c0","ios":"levelo://app?vid=9a20bf4a-2838-4260-9d28-debd745460c0"},"vehicle_type_id":"4","last_reported":1739905668,"current_range_meters":17600,"station_id":"ce4bgv92rcd13ifvqcq0","pricing_plan_id":"cebpf4jnsgd1na2vs0mg"},{"bike_id":"60f1c90a-05cc-4a31-a2bc-aec1f860908d","system_id":"levelo_inurba_marseille","lat":43.29256,"lon":5.38441,"is_reserved":false,"is_disabled":false,"rental_uris":{"android":"levelo://app?vid=60f1c90a-05cc-4a31-a2bc-aec1f860908d","ios":"levelo://app?vid=60f1c90a-05cc-4a31-a2bc-aec1f860908d"},"vehicle_type_id":"4","last_reported":1739905668,"current_range_meters":17600,"station_id":"ce4bh692rcd13ifvqea0","pricing_plan_id":"cebpf4jnsgd1na2vs0mg"},{"bike_id":"9d8388b9-0229-46d9-b0da-0a4242fec953","system_id":"levelo_inurba_marseille","lat":43.28853,"lon":5.35865,"is_reserved":false,"is_disabled":false,"rental_uris":{"android":"levelo://app?vid=9d8388b9-0229-46d9-b0da-0a4242fec953","ios":"levelo://app?vid=9d8388b9-0229-46d9-b0da-0a4242fec953"},"vehicle_type_id":"4","last_reported":1739905668,"current_range_meters":17600,"station_id":"ce4bhb12rcd13ifvqem0","pricing_plan_id":"cebpf4jnsgd1na2vs0mg"},{"bike_id":"f7bfe795-e0a1-4e34-8583-8c622b2bf2b9","system_id":"levelo_inurba_marseille","lat":43.29253,"lon":5.38435,"is_reserved":false,"is_disabled":false,"rental_uris":{"android":"levelo://app?vid=f7bfe795-e0a1-4e34-8583-8c622b2bf2b9","ios":"levelo://app?vid=f7bfe795-e0a1-4e34-8583-8c622b2bf2b9"},"vehicle_type_id":"4","last_reported":1739905668,"current_range_meters":17600,"station_id":"","pricing_plan_id":"cebpf4jnsgd1na2vs0mg"},{"bike_id":"5b80abf9-df02-44a7-b61b-dd0a85631c27","system_id":"levelo_inurba_marseille","lat":43.23963,"lon":5.36647,"is_reserved":false,"is_disabled":false,"rental_uris":{"android":"levelo://app?vid=5b80abf9-df02-44a7-b61b-dd0a85631c27","ios":"levelo://app?vid=5b80abf9-df02-44a7-b61b-dd0a85631c27"},"vehicle_type_id":"4","last_reported":1739905668,"current_range_meters":17600,"station_id":"","pricing_plan_id":"cebpf4jnsgd1na2vs0mg"},{"bike_id":"86684dae-e085-4b24-a31a-959dd895ab39","system_id":"levelo_inurba_marseille","lat":43.28155,"lon":5.42642,"is_reserved":false,"is_disabled":false,"rental_uris":{"android":"levelo://app?vid=86684dae-e085-4b24-a31a-959dd895ab39","ios":"levelo://app?vid=86684dae-e085-4b24-a31a-959dd895ab39"},"vehicle_type_id":"4","last_reported":1739905668,"current_range_meters":17600,"station_id":"ce4bhnh2rcd13ifvqgug","pricing_plan_id":"cebpf4jnsgd1na2vs0mg"},{"bike_id":"ee318ccd-c697-43a6-bafd-c758274e6962","system_id":"levelo_inurba_marseille","lat":43.30327,"lon":5.40089,"is_reserved":false,"is_disabled":false,"rental_uris":{"android":"levelo://app?vid=ee318ccd-c697-43a6-bafd-c758274e6962","ios":"levelo://app?vid=ee318ccd-c697-43a6-bafd-c758274e6962"},"vehicle_type_id":"4","last_reported":1739905668,"current_range_meters":17600,"station_id":"","pricing_plan_id":"cebpf4jnsgd1na2vs0mg"},{"bike_id":"5180f318-4948-4085-aaf1-5f3160b57dbe","system_id":"levelo_inurba_marseille","lat":43.2762,"lon":5.36101,"is_reserved":false,"is_disabled":true,"rental_uris":{"android":"levelo://app?vid=5180f318-4948-4085-aaf1-5f3160b57dbe","ios":"levelo://app?vid=5180f318-4948-4085-aaf1-5f3160b57dbe"},"vehicle_type_id":"4","last_reported":1739905668,"current_range_meters":17600,"station_id":"ce4bgj92rcd13ifvqbe0","pricing_plan_id":"cebpf4jnsgd1na2vs0mg"},{"bike_id":"5089bb88-a0cd-4434-a1a9-f3d5b67361c6","system_id":"levelo_inurba_marseille","lat":43.24385,"lon":5.38746,"is_reserved":false,"is_disabled":false,"rental_uris":{"android":"levelo://app?vid=5089bb88-a0cd-4434-a1a9-f3d5b67361c6","ios":"levelo://app?vid=5089bb88-a0cd-4434-a1a9-f3d5b67361c6"},"vehicle_type_id":"4","last_reported":1739905668,"current_range_meters":18000,"station_id":"","pricing_plan_id":"cebpf4jnsgd1na2vs0mg"},{"bike_id":"b768b1a6-dfb0-4283-bce3-5f90f2a7562b","system_id":"levelo_inurba_marseille","lat":43.32373,"lon":5.38884,"is_reserved":false,"is_disabled":false,"rental_uris":{"android":"levelo://app?vid=b768b1a6-dfb0-4283-bce3-5f90f2a7562b","ios":"levelo://app?vid=b768b1a6-dfb0-4283-bce3-5f90f2a7562b"},"vehicle_type_id":"4","last_reported":1739905668,"current_range_meters":18000,"station_id":"ce4bhqp2rcd13ifvqhog","pricing_plan_id":"cebpf4jnsgd1na2vs0mg"},{"bike_id":"659813f7-fc3e-49b2-b743-3ceee2ae3dd9","system_id":"levelo_inurba_marseille","lat":43.23193,"lon":5.39984,"is_reserved":false,"is_disabled":false,"rental_uris":{"android":"levelo://app?vid=659813f7-fc3e-49b2-b743-3ceee2ae3dd9","ios":"levelo://app?vid=659813f7-fc3e-49b2-b743-3ceee2ae3dd9"},"vehicle_type_id":"4","last_reported":1739905668,"current_range_meters":18000,"station_id":"ce4bhn12rcd13ifvqgqg","pricing_plan_id":"cebpf4jnsgd1na2vs0mg"},{"bike_id":"49e5bb28-0f47-4162-b6bd-5d7d9b5f02a3","system_id":"levelo_inurba_marseille","lat":43.28631,"lon":5.35107,"is_reserved":false,"is_disabled":false,"rental_uris":{"android":"levelo://app?vid=49e5bb28-0f47-4162-b6bd-5d7d9b5f02a3","ios":"levelo://app?vid=49e5bb28-0f47-4162-b6bd-5d7d9b5f02a3"},"vehicle_type_id":"4","last_reported":1739905668,"current_range_meters":18000,"station_id":"ce4bhch2rcd13ifvqeug","pricing_plan_id":"cebpf4jnsgd1na2vs0mg"},{"bike_id":"188b3c89-9a5e-4ddb-ba62-fdd5bcfd9b3d","system_id":"levelo_inurba_marseille","lat":43.32655,"lon":5.40995,"is_reserved":false,"is_disabled":false,"rental_uris":{"android":"levelo://app?vid=188b3c89-9a5e-4ddb-ba62-fdd5bcfd9b3d","ios":"levelo://app?vid=188b3c89-9a5e-4ddb-ba62-fdd5bcfd9b3d"},"vehicle_type_id":"4","last_reported":1739905668,"current_range_meters":17600,"station_id":"ce4bhpp2rcd13ifvqhgg","pricing_plan_id":"cebpf4jnsgd1na2vs0mg"},{"bike_id":"fbb5b7f4-9ece-4a26-b7e7-65620cdb8732","system_id":"levelo_inurba_marseille","lat":43.32487,"lon":5.36559,"is_reserved":false,"is_disabled":false,"rental_uris":{"android":"levelo://app?vid=fbb5b7f4-9ece-4a26-b7e7-65620cdb8732","ios":"levelo://app?vid=fbb5b7f4-9ece-4a26-b7e7-65620cdb8732"},"vehicle_type_id":"4","last_reported":1739905668,"current_range_meters":17600,"station_id":"ce4bgj92rcd13ifvqbd0","pricing_plan_id":"cebpf4jnsgd1na2vs0mg"},{"bike_id":"dd6418a2-7aaf-4292-9297-479489b3424a","system_id":"levelo_inurba_marseille","lat":43.29611,"lon":5.40595,"is_reserved":false,"is_disabled":false,"rental_uris":{"android":"levelo://app?vid=dd6418a2-7aaf-4292-9297-479489b3424a","ios":"levelo://app?vid=dd6418a2-7aaf-4292-9297-479489b3424a"},