{"last_updated":1702023001,"ttl":30,"version":"2.2","data":{"bikes":[{"bike_id":"216303f1-2108-4433-b278-360e89085f31","system_id":"levelo_inurba_marseille","lat":43.313391,"lon":5.36706,"is_reserved":false,"is_disabled":false,"rental_uris":{"android":"levelo://app?vid=216303f1-2108-4433-b278-360e89085f31","ios":"levelo://app?vid=216303f1-2108-4433-b278-360e89085f31"},"vehicle_type_id":"4","last_reported":1702023001,"current_range_meters":27600,"station_id":"ce4bgr92rcd13ifvqc6g","pricing_plan_id":"free"},{"bike_id":"cb1d61cc-7556-42fd-88f8-5c8c49d4d3db","system_id":"levelo_inurba_marseille","lat":43.31341,"lon":5.367098,"is_reserved":false,"is_disabled":false,"rental_uris":{"android":"levelo://app?vid=cb1d61cc-7556-42fd-88f8-5c8c49d4d3db","ios":"levelo://app?vid=cb1d61cc-7556-42fd-88f8-5c8c49d4d3db"},"vehicle_type_id":"4","last_reported":1702023001,"current_range_meters":26800,"station_id":"ce4bgr92rcd13ifvqc6g","pricing_plan_id":"free"},{"bike_id":"62fb5385-2c5d-4c9d-b743-187bb4fbb192","system_id":"levelo_inurba_marseille","lat":43.313391,"lon":5.36706,"is_reserved":false,"is_disabled":false,"rental_uris":{"android":"levelo://app?vid=62fb5385-2c5d-4c9d-b743-187bb4fbb192","ios":"levelo://app?vid=62fb5385-2c5d-4c9d-b743-187bb4fbb192"},"vehicle_type_id":"4","last_reported":1702023001,"current_range_meters":29600,"station_id":"ce4bgr92rcd13ifvqc6g","pricing_plan_id":"free"},{"bike_id":"c62abb18-2d16-40d8-ad0c-83d7d3660624","system_id":"levelo_inurba_marseille","lat":43.312239,"lon":5.368562,"is_reserved":false,"is_disabled":false,"rental_uris":{"android":"levelo://app?vid=c62abb18-2d16-40d8-ad0c-83d7d3660624","ios":"levelo://app?vid=c62abb18-2d16-40d8-ad0c-83d7d3660624"},"vehicle_type_id":"4","last_reported":1702023001,"current_range_meters":21600,"station_id":"ce4bgl92rcd13ifvqbq0","pricing_plan_id":"free"},{"bike_id":"c18eeac4-26f3-4d7f-a37a-dbf41160ad67","system_id":"levelo_inurba_marseille","lat":43.312239,"lon":5.368562,"is_reserved":false,"is_disabled":false,"rental_uris":{"android":"levelo://app?vid=c18eeac4-26f3-4d7f-a37a-dbf41160ad67","ios":"levelo://app?vid=c18eeac4-26f3-4d7f-a37a-dbf41160ad67"},"vehicle_type_id":"4","last_reported":1702023001,"current_range_meters":25200,"station_id":"ce4bgl92rcd13ifvqbq0","pricing_plan_id":"free"},{"bike_id":"3511facd-adac-48b2-a965-0f1eb4fb2158","system_id":"levelo_inurba_marseille","lat":43.305353,"lon":5.367013,"is_reserved":false,"is_disabled":false,"rental_uris":{"android":"levelo://app?vid=3511facd-adac-48b2-a965-0f1eb4fb2158","ios":"levelo://app?vid=3511facd-adac-48b2-a965-0f1eb4fb2158"},"vehicle_type_id":"4","last_reported":1702023001,"current_range_meters":21600,"station_id":"ce4bgrp2rcd13ifvqc9g","pricing_plan_id":"free"},{"bike_id":"09a9f57e-6ef6-4dfd-913f-be9d43135967","system_id":"levelo_inurba_marseille","lat":43.305368,"lon":5.367343,"is_reserved":false,"is_disabled":false,"rental_uris":{"android":"levelo://app?vid=09a9f57e-6ef6-4dfd-913f-be9d43135967","ios":"levelo://app?vid=09a9f57e-6ef6-4dfd-913f-be9d43135967"},"vehicle_type_id":"4","last_reported":1702023001,"current_range_meters":24000,"station_id":"ce4bgrp2rcd13ifvqc9g","pricing_plan_id":"free"},{"bike_id":"83fbf89c-062e-46be-ae77-900d06221fc3","system_id":"levelo_inurba_marseille","lat":43.305368,"lon":5.367343,"is_reserved":false,"is_disabled":false,"rental_uris":{"android":"levelo://app?vid=83fbf89c-062e-46be-ae77-900d06221fc3","ios":"levelo://app?vid=83fbf89c-062e-46be-ae77-900d06221fc3"},"vehicle_type_id":"4","last_reported":1702023001,"current_range_meters":23600,"station_id":"ce4bgrp2rcd13ifvqc9g","pricing_plan_id":"free"},{"bike_id":"f9146fd0-e73b-49a9-8e63-2fda003b5559","system_id":"levelo_inurba_marseille","lat":43.311131,"lon":5.377651,"is_reserved":false,"is_disabled":false,"rental_uris":{"android":"levelo://app?vid=f9146fd0-e73b-49a9-8e63-2fda003b5559","ios":"levelo://app?vid=f9146fd0-e73b-49a9-8e63-2fda003b5559"},"vehicle_type_id":"4","last_reported":1702023001,"current_range_meters":23200,"station_id":"ce4bgt92rcd13ifvqcg0","pricing_plan_id":"free"},{"bike_id":"2357938b-3fce-40e7-a668-39995bfdac9e","system_id":"levelo_inurba_marseille","lat":43.307945,"lon":5.376487,"is_reserved":false,"is_disabled":false,"rental_uris":{"android":"levelo://app?vid=2357938b-3fce-40e7-a668-39995bfdac9e","ios":"levelo://app?vid=2357938b-3fce-40e7-a668-39995bfdac9e"},"vehicle_type_id":"4","last_reported":1702023001,"current_range_meters":30000,"station_id":"ce4bgv92rcd13ifvqcq0","pricing_plan_id":"free"},{"bike_id":"adf146c5-e4e1-4668-9a33-042940925130","system_id":"levelo_inurba_marseille","lat":43.31351,"lon":5.37909,"is_reserved":false,"is_disabled":false,"rental_uris":{"android":"levelo://app?vid=adf146c5-e4e1-4668-9a33-042940925130","ios":"levelo://app?vid=adf146c5-e4e1-4668-9a33-042940925130"},"vehicle_type_id":"4","last_reported":1702023001,"current_range_meters":0,"station_id":"","pricing_plan_id":"free"},{"bike_id":"1c5bd8ad-09cd-46a6-a17b-15bc893af4b2","system_id":"levelo_inurba_marseille","lat":43.30304,"lon":5.368987,"is_reserved":false,"is_disabled":false,"rental_uris":{"android":"levelo://app?vid=1c5bd8ad-09cd-46a6-a17b-15bc893af4b2","ios":"levelo://app?vid=1c5bd8ad-09cd-46a6-a17b-15bc893af4b2"},"vehicle_type_id":"4","last_reported":1702023001,"current_range_meters":31200,"station_id":"ce4bgqh2rcd13ifvqc5g","pricing_plan_id":"free"},{"bike_id":"c1aafa6e-3079-4070-ac07-7e27d9431e9f","system_id":"levelo_inurba_marseille","lat":43.303046,"lon":5.368981,"is_reserved":false,"is_disabled":false,"rental_uris":{"android":"levelo://app?vid=c1aafa6e-3079-4070-ac07-7e27d9431e9f","ios":"levelo://app?vid=c1aafa6e-3079-4070-ac07-7e27d9431e9f"},"vehicle_type_id":"4","last_reported":1702023001,"current_range_meters":14400,"station_id":"ce4bgqh2rcd13ifvqc5g","pricing_plan_id":"free"},{"bike_id":"190d01ba-18aa-4e58-9520-6e7293f3f34d","system_id":"levelo_inurba_marseille","lat":43.30304,"lon":5.368987,"is_reserved":false,"is_disabled":false,"rental_uris":{"android":"levelo://app?vid=190d01ba-18aa-4e58-9520-6e7293f3f34d","ios":"levelo://app?vid=190d01ba-18aa-4e58-9520-6e7293f3f34d"},"vehicle_type_id":"4","last_reported":1702023001,"current_range_meters":23600,"station_id":"ce4bgqh2rcd13ifvqc5g","pricing_plan_id":"free"},{"bike_id":"72a9a3ba-7967-4f12-aab8-78378debf359","system_id":"levelo_inurba_marseille","lat":43.30304,"lon":5.368987,"is_reserved":false,"is_disabled":false,"rental_uris":{"android":"levelo://app?vid=72a9a3ba-7967-4f12-aab8-78378debf359","ios":"levelo://app?vid=72a9a3ba-7967-4f12-aab8-78378debf359"},"vehicle_type_id":"4","last_reported":1702023001,"current_range_meters":7200,"station_id":"ce4bgqh2rcd13ifvqc5g","pricing_plan_id":"free"},{"bike_id":"4953b2ff-8469-441f-9831-4f946b132d6c","system_id":"levelo_inurba_marseille","lat":43.303046,"lon":5.368981,"is_reserved":false,"is_disabled":false,"rental_uris":{"android":"levelo://app?vid=4953b2ff-8469-441f-9831-4f946b132d6c","ios":"levelo://app?vid=4953b2ff-8469-441f-9831-4f946b132d6c"},"vehicle_type_id":"4","last_reported":1702023001,"current_range_meters":30000,"station_id":"ce4bgqh2rcd13ifvqc5g","pricing_plan_id":"free"},{"bike_id":"7c35d63d-f967-495f-b9fe-b0094fb3b888","system_id":"levelo_inurba_marseille","lat":43.30304,"lon":5.368987,"is_reserved":false,"is_disabled":false,"rental_uris":{"android":"levelo://app?vid=7c35d63d-f967-495f-b9fe-b0094fb3b888","ios":"levelo://app?vid=7c35d63d-f967-495f-b9fe-b0094fb3b888"},"vehicle_type_id":"4","last_reported":1702023001,"current_range_meters":31200,"station_id":"ce4bgqh2rcd13ifvqc5g","pricing_plan_id":"free"},{"bike_id":"796977cc-15a4-414a-aa19-2709631b7836","system_id":"levelo_inurba_marseille","lat":43.303046,"lon":5.368981,"is_reserved":false,"is_disabled":false,"rental_uris":{"android":"levelo://app?vid=796977cc-15a4-414a-aa19-2709631b7836","ios":"levelo://app?vid=796977cc-15a4-414a-aa19-2709631b7836"},"vehicle_type_id":"4","last_reported":1702023001,"current_range_meters":30000,"station_id":"ce4bgqh2rcd13ifvqc5g","pricing_plan_id":"free"},{"bike_id":"1ea60f58-75f7-4484-b705-1156df4b02ad","system_id":"levelo_inurba_marseille","lat":43.302792,"lon":5.37333,"is_reserved":false,"is_disabled":false,"rental_uris":{"android":"levelo://app?vid=1ea60f58-75f7-4484-b705-1156df4b02ad","ios":"levelo://app?vid=1ea60f58-75f7-4484-b705-1156df4b02ad"},"vehicle_type_id":"4","last_reported":1702023001,"current_range_meters":2000,"station_id":"","pricing_plan_id":"free"},{"bike_id":"bdf7f841-1ac7-4eed-b40b-4ff3167f9b14","system_id":"levelo_inurba_marseille","lat":43.30465,"lon":5.37893,"is_reserved":false,"is_disabled":false,"rental_uris":{"android":"levelo://app?vid=bdf7f841-1ac7-4eed-b40b-4ff3167f9b14","ios":"levelo://app?vid=bdf7f841-1ac7-4eed-b40b-4ff3167f9b14"},"vehicle_type_id":"4","last_reported":1702023001,"current_range_meters":28000,"station_id":"ce4bgup2rcd13ifvqcn0","pricing_plan_id":"free"},{"bike_id":"12ec1c0e-6edf-4f66-b396-f940693f47a0","system_id":"levelo_inurba_marseille","lat":43.304606,"lon":5.379026,"is_reserved":false,"is_disabled":false,"rental_uris":{"android":"levelo://app?vid=12ec1c0e-6edf-4f66-b396-f940693f47a0","ios":"levelo://app?vid=12ec1c0e-6edf-4f66-b396-f940693f47a0"},"vehicle_type_id":"4","last_reported":1702023001,"current_range_meters":1600,"station_id":"ce4bgup2rcd13ifvqcn0","pricing_plan_id":"free"},{"bike_id":"60194367-25cf-4605-9085-ca82c7024451","system_id":"levelo_inurba_marseille","lat":43.302784,"lon":5.377158,"is_reserved":false,"is_disabled":false,"rental_uris":{"android":"levelo://app?vid=60194367-25cf-4605-9085-ca82c7024451","ios":"levelo://app?vid=60194367-25cf-4605-9085-ca82c7024451"},"vehicle_type_id":"4","last_reported":1702023001,"current_range_meters":24800,"station_id":"ce4bguh2rcd13ifvqcj0","pricing_plan_id":"free"},{"bike_id":"9262b8ae-93b9-4ce7-8599-df65b8e604a3","system_id":"levelo_inurba_marseille","lat":43.301429,"lon":5.37413,"is_reserved":false,"is_disabled":false,"rental_uris":{"android":"levelo://app?vid=9262b8ae-93b9-4ce7-8599-df65b8e604a3","ios":"levelo://app?vid=9262b8ae-93b9-4ce7-8599-df65b8e604a3"},"vehicle_type_id":"4","last_reported":1702023001,"current_range_meters":22000,"station_id":"ce4bgs92rcd13ifvqcc0","pricing_plan_id":"free"},{"bike_id":"c944b124-724c-47fa-b706-911617204270","system_id":"levelo_inurba_marseille","lat":43.301429,"lon":5.37413,"is_reserved":false,"is_disabled":false,"rental_uris":{"android":"levelo://app?vid=c944b124-724c-47fa-b706-911617204270","ios":"levelo://app?vid=c944b124-724c-47fa-b706-911617204270"},"vehicle_type_id":"4","last_reported":1702023001,"current_range_meters":29600,"station_id":"ce4bgs92rcd13ifvqcc0","pricing_plan_id":"free"},{"bike_id":"8394df41-349d-4d83-a3f9-03c1910c00d4","system_id":"levelo_inurba_marseille","lat":43.30143,"lon":5.37413,"is_reserved":false,"is_disabled":false,"rental_uris":{"android":"levelo://app?vid=8394df41-349d-4d83-a3f9-03c1910c00d4","ios":"levelo://app?vid=8394df41-349d-4d83-a3f9-03c1910c00d4"},"vehicle_type_id":"4","last_reported":1702023001,"current_range_meters":27600,"station_id":"ce4bgs92rcd13ifvqcc0","pricing_plan_id":"free"},{"bike_id":"a88cf5d7-0e4d-4efb-83ba-895743ae7648","system_id":"levelo_inurba_marseille","lat":43.319951,"lon":5.381455,"is_reserved":false,"is_disabled":false,"rental_uris":{"android":"levelo://app?vid=a88cf5d7-0e4d-4efb-83ba-895743ae7648","ios":"levelo://app?vid=a88cf5d7-0e4d-4efb-83ba-895743ae7648"},"vehicle_type_id":"4","last_reported":1702023001,"current_range_meters":16000,"station_id":"ce4bhr12rcd13ifvqhpg","pricing_plan_id":"free"},{"bike_id":"7e9b28ca-b290-4623-a504-88527bf521f0","system_id":"levelo_inurba_marseille","lat":43.319973,"lon":5.381511,"is_reserved":false,"is_disabled":false,"rental_uris":{"android":"levelo://app?vid=7e9b28ca-b290-4623-a504-88527bf521f0","ios":"levelo://app?vid=7e9b28ca-b290-4623-a504-88527bf521f0"},"vehicle_type_id":"4","last_reported":1702023001,"current_range_meters":24400,"station_id":"ce4bhr12rcd13ifvqhpg","pricing_plan_id":"free"},{"bike_id":"8e6bcc22-26a3-4f21-b99e-ec3014f3e345","system_id":"levelo_inurba_marseille","lat":43.319971,"lon":5.381514,"is_reserved":false,"is_disabled":false,"rental_uris":{"android":"levelo://app?vid=8e6bcc22-26a3-4f21-b99e-ec3014f3e345","ios":"levelo://app?vid=8e6bcc22-26a3-4f21-b99e-ec3014f3e345"},"vehicle_type_id":"4","last_reported":1702023001,"current_range_meters":14400,"station_id":"ce4bhr12rcd13ifvqhpg","pricing_plan_id":"free"},{"bike_id":"9ee0ef7a-8d9c-4d78-8ae5-64e12b708d26","system_id":"levelo_inurba_marseille","lat":43.319997,"lon":5.381594,"is_reserved":false,"is_disabled":false,"rental_uris":{"android":"levelo://app?vid=9ee0ef7a-8d9c-4d78-8ae5-64e12b708d26","ios":"levelo://app?vid=9ee0ef7a-8d9c-4d78-8ae5-64e12b708d26"},"vehicle_type_id":"4","last_reported":1702023001,"current_range_meters":0,"station_id":"ce4bhr12rcd13ifvqhpg","pricing_plan_id":"free"},{"bike_id":"a49b99ee-38eb-49b5-978d-00cf198fff08","system_id":"levelo_inurba_marseille","lat":43.299669,"lon":5.366329,"is_reserved":false,"is_disabled":false,"rental_uris":{"android":"levelo://app?vid=a49b99ee-38eb-49b5-978d-00cf198fff08","ios":"levelo://app?vid=a49b99ee-38eb-49b5-978d-00cf198fff08"},"vehicle_type_id":"4","last_reported":1702023001,"current_range_meters":20800,"station_id":"","pricing_plan_id":"free"},{"bike_id":"c999e785-1b39-4403-a9e2-27bf758464a1","system_id":"levelo_inurba_marseille","lat":43.313571,"lon":5.384829,"is_reserved":false,"is_disabled":false,"rental_uris":{"android":"levelo://app?vid=c999e785-1b39-4403-a9e2-27bf758464a1","ios":"levelo://app?vid=c999e785-1b39-4403-a9e2-27bf758464a1"},"vehicle_type_id":"4","last_reported":1702023001,"current_range_meters":17600,"station_id":"ce4bgt92rcd13ifvqcf0","pricing_plan_id":"free"},{"bike_id":"0bc7adfe-1b39-430c-ad55-9d9ffc641bce","system_id":"levelo_inurba_marseille","lat":43.299243,"lon":5.37481,"is_reserved":false,"is_disabled":false,"rental_uris":{"android":"levelo://app?vid=0bc7adfe-1b39-430c-ad55-9d9ffc641bce","ios":"levelo://app?vid=0bc7adfe-1b39-430c-ad55-9d9ffc641bce"},"vehicle_type_id":"4","last_reported":1702023001,"current_range_meters":3200,"station_id":"ce4bgjh2rcd13ifvqbg0","pricing_plan_id":"free"},{"bike_id":"6f1d020b-bf52-4b0d-ba5a-7d676bfd28f9","system_id":"levelo_inurba_marseille","lat":43.298433,"lon":5.362774,"is_reserved":false,"is_disabled":false,"rental_uris":{"android":"levelo://app?vid=6f1d020b-bf52-4b0d-ba5a-7d676bfd28f9","ios":"levelo://app?vid=6f1d020b-bf52-4b0d-ba5a-7d676bfd28f9"},"vehicle_type_id":"4","last_reported":1702023001,"current_range_meters":30400,"station_id":"ce4bgpp2rcd13ifvqc3g","pricing_plan_id":"free"},{"bike_id":"14972b17-ba17-4143-90bc-6668837d3d62","system_id":"levelo_inurba_marseille","lat":43.299243,"lon":5.37481,"is_reserved":false,"is_disabled":false,"rental_uris":{"android":"levelo://app?vid=14972b17-ba17-4143-90bc-6668837d3d62","ios":"levelo://app?vid=14972b17-ba17-4143-90bc-6668837d3d62"},"vehicle_type_id":"4","last_reported":1702023001,"current_range_meters":28800,"station_id":"ce4bgjh2rcd13ifvqbg0","pricing_plan_id":"free"},{"bike_id":"d95c47df-f6f8-49df-ba19-fe3649fe369d","system_id":"levelo_inurba_marseille","lat":43.311722,"lon":5.387247,"is_reserved":false,"is_disabled":false,"rental_uris":{"android":"levelo://app?vid=d95c47df-f6f8-49df-ba19-fe3649fe369d","ios":"levelo://app?vid=d95c47df-f6f8-49df-ba19-fe3649fe369d"},"vehicle_type_id":"4","last_reported":1702023001,"current_range_meters":11200,"station_id":"ce4bgv12rcd13ifvqcp0","pricing_plan_id":"free"},{"bike_id":"3dcd4a73-468d-493a-bf11-93ceddd109f8","system_id":"levelo_inurba_marseille","lat":43.322872,"lon":5.382756,"is_reserved":false,"is_disabled":false,"rental_uris":{"android":"levelo://app?vid=3dcd4a73-468d-493a-bf11-93ceddd109f8","ios":"levelo://app?vid=3dcd4a73-468d-493a-bf11-93ceddd109f8"},"vehicle_type_id":"4","last_reported":1702023001,"current_range_meters":30400,"station_id":"ce4bhr12rcd13ifvqhqg","pricing_plan_id":"free"},{"bike_id":"92dc65d6-6823-4de3-93d4-056f738f090c","system_id":"levelo_inurba_marseille","lat":43.316538,"lon":5.38954,"is_reserved":false,"is_disabled":false,"rental_uris":{"android":"levelo://app?vid=92dc65d6-6823-4de3-93d4-056f738f090c","ios":"levelo://app?vid=92dc65d6-6823-4de3-93d4-056f738f090c"},"vehicle_type_id":"4","last_reported":1702023001,"current_range_meters":2400,"station_id":"","pricing_plan_id":"free"},{"bike_id":"41ea995b-d8e3-4f8c-ba5b-d82af1d807d2","system_id":"levelo_inurba_marseille","lat":43.299028,"lon":5.381509,"is_reserved":false,"is_disabled":false,"rental_uris":{"android":"levelo://app?vid=41ea995b-d8e3-4f8c-ba5b-d82af1d807d2","ios":"levelo://app?vid=41ea995b-d8e3-4f8c-ba5b-d82af1d807d2"},"vehicle_type_id":"4","last_reported":1702023001,"current_range_meters":24000,"station_id":"ce4bgj12rcd13ifvqbc0","pricing_plan_id":"free"},{"bike_id":"2eccf32c-af8c-4d38-b729-0d82a57f0acd","system_id":"levelo_inurba_marseille","lat":43.309589,"lon":5.390258,"is_reserved":false,"is_disabled":false,"rental_uris":{"android":"levelo://app?vid=2eccf32c-af8c-4d38-b729-0d82a57f0acd","ios":"levelo://app?vid=2eccf32c-af8c-4d38-b729-0d82a57f0acd"},"vehicle_type_id":"4","last_reported":1702023001,"current_range_meters":26000,"station_id":"ce4bgup2rcd13ifvqco0","pricing_plan_id":"free"},{"bike_id":"c4a72437-c625-49b8-9de9-c98b0bb498a0","system_id":"levelo_inurba_marseille","lat":43.309589,"lon":5.390258,"is_reserved":false,"is_disabled":false,"rental_uris":{"android":"levelo://app?vid=c4a72437-c625-49b8-9de9-c98b0bb498a0","ios":"levelo://app?vid=c4a72437-c625-49b8-9de9-c98b0bb498a0"},"vehicle_type_id":"4","last_reported":1702023001,"current_range_meters":20800,"station_id":"ce4bgup2rcd13ifvqco0","pricing_plan_id":"free"},{"bike_id":"4f1f9203-25e2-47b9-9cd3-6d293fc895eb","system_id":"levelo_inurba_marseille","lat":43.298037,"lon":5.381066,"is_reserved":false,"is_disabled":false,"rental_uris":{"android":"levelo://app?vid=4f1f9203-25e2-47b9-9cd3-6d293fc895eb","ios":"levelo://app?vid=4f1f9203-25e2-47b9-9cd3-6d293fc895eb"},"vehicle_type_id":"4","last_reported":1702023001,"current_range_meters":16400,"station_id":"ce4bgip2rcd13ifvqbb0","pricing_plan_id":"free"},{"bike_id":"c772b35c-701f-415f-9c47-4aa781c3c724","system_id":"levelo_inurba_marseille","lat":43.298037,"lon":5.381066,"is_reserved":false,"is_disabled":false,"rental_uris":{"android":"levelo://app?vid=c772b35c-701f-415f-9c47-4aa781c3c724","ios":"levelo://app?vid=c772b35c-701f-415f-9c47-4aa781c3c724"},"vehicle_type_id":"4","last_reported":1702023001,"current_range_meters":26400,"station_id":"ce4bgip2rcd13ifvqbb0","pricing_plan_id":"free"},{"bike_id":"d7d95fe3-7b8f-4c59-aefa-2264c86389ad","system_id":"levelo_inurba_marseille","lat":43.298037,"lon":5.381066,"is_reserved":false,"is_disabled":false,"rental_uris":{"android":"levelo://app?vid=d7d95fe3-7b8f-4c59-aefa-2264c86389ad","ios":"levelo://app?vid=d7d95fe3-7b8f-4c59-aefa-2264c86389ad"},"vehicle_type_id":"4","last_reported":1702023001,"current_range_meters":26800,"station_id":"ce4bgip2rcd13ifvqbb0","pricing_plan_id":"free"},{"bike_id":"bc223649-9ed4-4f4b-ac9b-5e579151be93","system_id":"levelo_inurba_marseille","lat":43.295748,"lon":5.37522,"is_reserved":false,"is_disabled":false,"rental_uris":{"android":"levelo://app?vid=bc223649-9ed4-4f4b-ac9b-5e579151be93","ios":"levelo://app?vid=bc223649-9ed4-4f4b-ac9b-5e579151be93"},"vehicle_type_id":"4","last_reported":1702023001,"current_range_meters":11200,"station_id":"ce4bgh92rcd13ifvqb50","pricing_plan_id":"free"},{"bike_id":"539c4dce-c95e-4d30-aa60-9c047abcc1ee","system_id":"levelo_inurba_marseille","lat":43.295279,"lon":5.375048,"is_reserved":false,"is_disabled":false,"rental_uris":{"android":"levelo://app?vid=539c4dce-c95e-4d30-aa60-9c047abcc1ee","ios":"levelo://app?vid=539c4dce-c95e-4d30-aa60-9c047abcc1ee"},"vehicle_type_id":"4","last_reported":1702023001,"current_range_meters":28400,"station_id":"ce4bgkp2rcd13ifvqbmg","pricing_plan_id":"free"},{"bike_id":"8b90b6b7-374b-4920-be0c-b53fb4d8ac38","system_id":"levelo_inurba_marseille","lat":43.295279,"lon":5.375048,"is_reserved":false,"is_disabled":false,"rental_uris":{"android":"levelo://app?vid=8b90b6b7-374b-4920-be0c-b53fb4d8ac38","ios":"levelo://app?vid=8b90b6b7-374b-4920-be0c-b53fb4d8ac38"},"vehicle_type_id":"4","last_reported":1702023001,"current_range_meters":30000,"station_id":"ce4bgkp2rcd13ifvqbmg","pricing_plan_id":"free"},{"bike_id":"e37ac621-b119-47db-a4a0-b01f262c7bd9","system_id":"levelo_inurba_marseille","lat":43.32367,"lon":5.388836,"is_reserved":false,"is_disabled":false,"rental_uris":{"android":"levelo://app?vid=e37ac621-b119-47db-a4a0-b01f262c7bd9","ios":"levelo://app?vid=e37ac621-b119-47db-a4a0-b01f262c7bd9"},"vehicle_type_id":"4","last_reported":1702023001,"current_range_meters":22800,"station_id":"ce4bhqp2rcd13ifvqhog","pricing_plan_id":"free"},{"bike_id":"edb65791-72fd-4efe-a1f5-46dfb8da63e8","system_id":"levelo_inurba_marseille","lat":43.323683,"lon":5.38879,"is_reserved":false,"is_disabled":false,"rental_uris":{"android":"levelo://app?vid=edb65791-72fd-4efe-a1f5-46dfb8da63e8","ios":"levelo://app?vid=edb65791-72fd-4efe-a1f5-46dfb8da63e8"},"vehicle_type_id":"4","last_reported":1702023001,"current_range_meters":30800,"station_id":"ce4bhqp2rcd13ifvqhog","pricing_plan_id":"free"},{"bike_id":"e05d409f-8a42-4a96-89b1-41f3e1fca9df","system_id":"levelo_inurba_marseille","lat":43.32367,"lon":5.388836,"is_reserved":false,"is_disabled":false,"rental_uris":{"android":"levelo://app?vid=e05d409f-8a42-4a96-89b1-41f3e1fca9df","ios":"levelo://app?vid=e05d409f-8a42-4a96-89b1-41f3e1fca9df"},"vehicle_type_id":"4","last_reported":1702023001,"current_range_meters":12400,"station_id":"ce4bhqp2rcd13ifvqhog","pricing_plan_id":"free"},{"bike_id":"7579423d-f3b8-4e7f-be59-2ba9da91b549","system_id":"levelo_inurba_marseille","lat":43.31422,"lon":5.3939,"is_reserved":false,"is_disabled":false,"rental_uris":{"android":"levelo://app?vid=7579423d-f3b8-4e7f-be59-2ba9da91b549","ios":"levelo://app?vid=7579423d-f3b8-4e7f-be59-2ba9da91b549"},"vehicle_type_id":"4","last_reported":1702023001,"current_range_meters":5600,"station_id":"","pricing_plan_id":"free"},{"bike_id":"a75463d2-cc0a-42d6-8453-61674b23baee","system_id":"levelo_inurba_marseille","lat":43.293259,"lon":5.371586,"is_reserved":false,"is_disabled":false,"rental_uris":{"android":"levelo://app?vid=a75463d2-cc0a-42d6-8453-61674b23baee","ios":"levelo://app?vid=a75463d2-cc0a-42d6-8453-61674b23baee"},"vehicle_type_id":"4","last_reported":1702023001,"current_range_meters":26800,"station_id":"ce4bgh92rcd13ifvqb40","pricing_plan_id":"free"},{"bike_id":"10949937-e5bc-46b9-be0f-8da6829cb9b8","system_id":"levelo_inurba_marseille","lat":43.292749,"lon":5.368402,"is_reserved":false,"is_disabled":false,"rental_uris":{"android":"levelo://app?vid=10949937-e5bc-46b9-be0f-8da6829cb9b8","ios":"levelo://app?vid=10949937-e5bc-46b9-be0f-8da6829cb9b8"},"vehicle_type_id":"4","last_reported":1702023001,"current_range_meters":27600,"station_id":"ce4bhbp2rcd13ifvqesg","pricing_plan_id":"free"},{"bike_id":"35167050-f909-4250-a110-df5bedfb0a40","system_id":"levelo_inurba_marseille","lat":43.298983,"lon":5.387267,"is_reserved":false,"is_disabled":false,"rental_uris":{"android":"levelo://app?vid=35167050-f909-4250-a110-df5bedfb0a40","ios":"levelo://app?vid=35167050-f909-4250-a110-df5bedfb0a40"},"vehicle_type_id":"4","last_reported":1702023001,"current_range_meters":2400,"station_id":"","pricing_plan_id":"free"},{"bike_id":"0305d629-5aa4-4526-9cd1-66957b42af29","system_id":"levelo_inurba_marseille","lat":43.293009,"lon":5.374584,"is_reserved":false,"is_disabled":false,"rental_uris":{"android":"levelo://app?vid=0305d629-5aa4-4526-9cd1-66957b42af29","ios":"levelo://app?vid=0305d629-5aa4-4526-9cd1-66957b42af29"},"vehicle_type_id":"4","last_reported":1702023001,"current_range_meters":29600,"station_id":"ce4bgi12rcd13ifvqb70","pricing_plan_id":"free"},{"bike_id":"d23dcc0a-abfe-4795-b2df-643eabe8964a","system_id":"levelo_inurba_marseille","lat":43.33277,"lon":5.37527,"is_reserved":false,"is_disabled":false,"rental_uris":{"android":"levelo://app?vid=d23dcc0a-abfe-4795-b2df-643eabe8964a","ios":"levelo://app?vid=d23dcc0a-abfe-4795-b2df-643eabe8964a"},"vehicle_type_id":"4","last_reported":1702023001,"current_range_meters":0,"station_id":"","pricing_plan_id":"free"},{"bike_id":"95798b34-2038-46d8-9fd1-25956bcc1929","system_id":"levelo_inurba_marseille","lat":43.292311,"lon":5.360731,"is_reserved":false,"is_disabled":false,"rental_uris":{"android":"levelo://app?vid=95798b34-2038-46d8-9fd1-25956bcc1929","ios":"levelo://app?vid=95798b34-2038-46d8-9fd1-25956bcc1929"},"vehicle_type_id":"4","last_reported":1702023001,"current_range_meters":22400,"station_id":"ce4bhbh2rcd13ifvqeqg","pricing_plan_id":"free"},{"bike_id":"d013a706-f671-4005-97af-b26d4ded95a6","system_id":"levelo_inurba_marseille","lat":43.292311,"lon":5.360731,"is_reserved":false,"is_disabled":false,"rental_uris":{"android":"levelo://app?vid=d013a706-f671-4005-97af-b26d4ded95a6","ios":"levelo://app?vid=d013a706-f671-4005-97af-b26d4ded95a6"},"vehicle_type_id":"4","last_reported":1702023001,"current_range_meters":30000,"station_id":"ce4bhbh2rcd13ifvqeqg","pricing_plan_id":"free"},{"bike_id":"2c70486b-5265-4a93-b251-eea63c7ec650","system_id":"levelo_inurba_marseille","lat":43.29224,"lon":5.360674,"is_reserved":false,"is_disabled":false,"rental_uris":{"android":"levelo://app?vid=2c70486b-5265-4a93-b251-eea63c7ec650","ios":"levelo://app?vid=2c70486b-5265-4a93-b251-eea63c7ec650"},"vehicle_type_id":"4","last_reported":1702023001,"current_range_meters":7600,"station_id":"ce4bhbh2rcd13ifvqeqg","pricing_plan_id":"free"},{"bike_id":"495542d0-ba74-428b-8d01-a054bf544b00","system_id":"levelo_inurba_marseille","lat":43.292663,"lon":5.376389,"is_reserved":false,"is_disabled":false,"rental_uris":{"android":"levelo://app?vid=495542d0-ba74-428b-8d01-a054bf544b00","ios":"levelo://app?vid=495542d0-ba74-428b-8d01-a054bf544b00"},"vehicle_type_id":"4","last_reported":1702023001,"current_range_meters":20800,"station_id":"ce4bgi12rcd13ifvqb80","pricing_plan_id":"free"},{"bike_id":"d22c8789-6f49-4336-a595-404571f9e138","system_id":"levelo_inurba_marseille","lat":43.291675,"lon":5.371583,"is_reserved":false,"is_disabled":false,"rental_uris":{"android":"levelo://app?vid=d22c8789-6f49-4336-a595-404571f9e138","ios":"levelo://app?vid=d22c8789-6f49-4336-a595-404571f9e138"},"vehicle_type_id":"4","last_reported":1702023001,"current_range_meters":26400,"station_id":"ce4bha92rcd13ifvqeh0","pricing_plan_id":"free"},{"bike_id":"6e738fe4-c179-4088-b6df-b32aaaf7d5d4","system_id":"levelo_inurba_marseille","lat":43.313291,"lon":5.396838,"is_reserved":false,"is_disabled":false,"rental_uris":{"android":"levelo://app?vid=6e738fe4-c179-4088-b6df-b32aaaf7d5d4","ios":"levelo://app?vid=6e738fe4-c179-4088-b6df-b32aaaf7d5d4"},"vehicle_type_id":"4","last_reported":1702023001,"current_range_meters":0,"station_id":"ce4bgvp2rcd13ifvqcu0","pricing_plan_id":"free"},{"bike_id":"8bf01654-18b0-4085-bfb5-a363cf996236","system_id":"levelo_inurba_marseille","lat":43.302008,"lon":5.394694,"is_reserved":false,"is_disabled":false,"rental_uris":{"android":"levelo://app?vid=8bf01654-18b0-4085-bfb5-a363cf996236","ios":"levelo://app?vid=8bf01654-18b0-4085-bfb5-a363cf996236"},"vehicle_type_id":"4","last_reported":1702023001,"current_range_meters":17600,"station_id":"ce4bh0p2rcd13ifvqd70","pricing_plan_id":"free"},{"bike_id":"bb4af82b-29ef-44ca-baac-9099077e880f","system_id":"levelo_inurba_marseille","lat":43.290161,"lon":5.375651,"is_reserved":false,"is_disabled":false,"rental_uris":{"android":"levelo://app?vid=bb4af82b-29ef-44ca-baac-9099077e880f","ios":"levelo://app?vid=bb4af82b-29ef-44ca-baac-9099077e880f"},"vehicle_type_id":"4","last_reported":1702023001,"current_range_meters":18000,"station_id":"","pricing_plan_id":"free"},{"bike_id":"a02a1b20-1fb1-4951-988a-77389649024d","system_id":"levelo_inurba_marseille","lat":43.289259,"lon":5.366364,"is_reserved":false,"is_disabled":false,"rental_uris":{"android":"levelo://app?vid=a02a1b20-1fb1-4951-988a-77389649024d","ios":"levelo://app?vid=a02a1b20-1fb1-4951-988a-77389649024d"},"vehicle_type_id":"4","last_reported":1702023001,"current_range_meters":16800,"station_id":"","pricing_plan_id":"free"},{"bike_id":"60693214-cea7-42c5-acea-52201fbf6d69","system_id":"levelo_inurba_marseille","lat":43.290995,"lon":5.381361,"is_reserved":false,"is_disabled":false,"rental_uris":{"android":"levelo://app?vid=60693214-cea7-42c5-acea-52201fbf6d69","ios":"levelo://app?vid=60693214-cea7-42c5-acea-52201fbf6d69"},"vehicle_type_id":"4","last_reported":1702023001,"current_range_meters":18400,"station_id":"ce4bh512rcd13ifvqe2g","pricing_plan_id":"free"},{"bike_id":"4c5c6390-6cf8-4aa1-b897-9df691968182","system_id":"levelo_inurba_marseille","lat":43.290995,"lon":5.381361,"is_reserved":false,"is_disabled":false,"rental_uris":{"android":"levelo://app?vid=4c5c6390-6cf8-4aa1-b897-9df691968182","ios":"levelo://app?vid=4c5c6390-6cf8-4aa1-b897-9df691968182"},"vehicle_type_id":"4","last_reported":1702023001,"current_range_meters":28000,"station_id":"ce4bh512rcd13ifvqe2g","pricing_plan_id":"free"},{"bike_id":"a80a13be-0ae6-4521-b51f-3b617987d1a8","system_id":"levelo_inurba_marseille","lat":43.33757,"lon":5.37466,"is_reserved":false,"is_disabled":false,"rental_uris":{"android":"levelo://app?vid=a80a13be-0ae6-4521-b51f-3b617987d1a8","ios":"levelo://app?vid=a80a13be-0ae6-4521-b51f-3b617987d1a8"},"vehicle_type_id":"4","last_reported":1702023001,"current_range_meters":30400,"station_id":"","pricing_plan_id":"free"},{"bike_id":"b6f43335-a23b-4afd-b11a-955153a7864e","system_id":"levelo_inurba_marseille","lat":43.289307,"lon":5.38406,"is_reserved":false,"is_disabled":false,"rental_uris":{"android":"levelo://app?vid=b6f43335-a23b-4afd-b11a-955153a7864e","ios":"levelo://app?vid=b6f43335-a23b-4afd-b11a-955153a7864e"},"vehicle_type_id":"4","last_reported":1702023001,"current_range_meters":25600,"station_id":"ce4bh612rcd13ifvqe6g","pricing_plan_id":"free"},{"bike_id":"9771dfd8-017b-477e-9f38-39c8dec9c905","system_id":"levelo_inurba_marseille","lat":43.286039,"lon":5.370679,"is_reserved":false,"is_disabled":false,"rental_uris":{"android":"levelo://app?vid=9771dfd8-017b-477e-9f38-39c8dec9c905","ios":"levelo://app?vid=9771dfd8-017b-477e-9f38-39c8dec9c905"},"vehicle_type_id":"4","last_reported":1702023001,"current_range_meters":31600,"station_id":"ce4bht12rcd13ifvqi60","pricing_plan_id":"free"},{"bike_id":"557f27d4-4580-4278-b89b-6beff88eead5","system_id":"levelo_inurba_marseille","lat":43.284538,"lon":5.358657,"is_reserved":false,"is_disabled":false,"rental_uris":{"android":"levelo://app?vid=557f27d4-4580-4278-b89b-6beff88eead5","ios":"levelo://app?vid=557f27d4-4580-4278-b89b-6beff88eead5"},"vehicle_type_id":"4","last_reported":1702023001,"current_range_meters":31200,"station_id":"ce4bhah2rcd13ifvqei0","pricing_plan_id":"free"},{"bike_id":"fb8129b0-fe0a-4869-8c36-05e027179d11","system_id":"levelo_inurba_marseille","lat":43.284538,"lon":5.358657,"is_reserved":false,"is_disabled":false,"rental_uris":{"android":"levelo://app?vid=fb8129b0-fe0a-4869-8c36-05e027179d11","ios":"levelo://app?vid=fb8129b0-fe0a-4869-8c36-05e027179d11"},"vehicle_type_id":"4","last_reported":1702023001,"current_range_meters":19600,"station_id":"ce4bhah2rcd13ifvqei0","pricing_plan_id":"free"},{"bike_id":"843e9123-8b92-48d6-ac1d-949625709a6d","system_id":"levelo_inurba_marseille","lat":43.285856,"lon":5.350771,"is_reserved":false,"is_disabled":false,"rental_uris":{"android":"levelo://app?vid=843e9123-8b92-48d6-ac1d-949625709a6d","ios":"levelo://app?vid=843e9123-8b92-48d6-ac1d-949625709a6d"},"vehicle_type_id":"4","last_reported":1702023001,"current_range_meters":1600,"station_id":"ce4bhch2rcd13ifvqeug","pricing_plan_id":"free"},{"bike_id":"eab2bcbc-fcd2-4cff-818b-f5ece07ff4aa","system_id":"levelo_inurba_marseille","lat":43.295713,"lon":5.399639,"is_reserved":false,"is_disabled":false,"rental_uris":{"android":"levelo://app?vid=eab2bcbc-fcd2-4cff-818b-f5ece07ff4aa","ios":"levelo://app?vid=eab2bcbc-fcd2-4cff-818b-f5ece07ff4aa"},"vehicle_type_id":"4","last_reported":1702023001,"current_range_meters":27200,"station_id":"ce4bh312rcd13ifvqdj0","pricing_plan_id":"free"},{"bike_id":"959b2726-ebaa-4267-a00e-ac4459e2bd5b","system_id":"levelo_inurba_marseille","lat":43.319179,"lon":5.407725,"is_reserved":false,"is_disabled":false,"rental_uris":{"android":"levelo://app?vid=959b2726-ebaa-4267-a00e-ac4459e2bd5b","ios":"levelo://app?vid=959b2726-ebaa-4267-a00e-ac4459e2bd5b"},"vehicle_type_id":"4","last_reported":1702023001,"current_range_meters":30800,"station_id":"ce4bhq12rcd13ifvqhig","pricing_plan_id":"free"},{"bike_id":"a467677d-92df-4d97-9e52-e6780c760738","system_id":"levelo_inurba_marseille","lat":43.31885,"lon":5.40738,"is_reserved":false,"is_disabled":false,"rental_uris":{"android":"levelo://app?vid=a467677d-92df-4d97-9e52-e6780c760738","ios":"levelo://app?vid=a467677d-92df-4d97-9e52-e6780c760738"},"vehicle_type_id":"4","last_reported":1702023001,"current_range_meters":0,"station_id":"ce4bhq12rcd13ifvqhig","pricing_plan_id":"free"},{"bike_id":"06070a5a-4b04-4262-80e6-ef3153c54cac","system_id":"levelo_inurba_marseille","lat":43.319179,"lon":5.407725,"is_reserved":false,"is_disabled":false,"rental_uris":{"android":"levelo://app?vid=06070a5a-4b04-4262-80e6-ef3153c54cac","ios":"levelo://app?vid=06070a5a-4b04-4262-80e6-ef3153c54cac"},"vehicle_type_id":"4","last_reported":1702023001,"current_range_meters":26400,"station_id":"ce4bhq12rcd13ifvqhig","pricing_plan_id":"free"},{"bike_id":"35437a3b-546d-4804-a96b-f2464a7a3e3e","system_id":"levelo_inurba_marseille","lat":43.323464,"lon":5.406297,"is_reserved":false,"is_disabled":false,"rental_uris":{"android":"levelo://app?vid=35437a3b-546d-4804-a96b-f2464a7a3e3e","ios":"levelo://app?vid=35437a3b-546d-4804-a96b-f2464a7a3e3e"},"vehicle_type_id":"4","last_reported":1702023001,"current_range_meters":30800,"station_id":"ce4bhq92rcd13ifvqhjg","pricing_plan_id":"free"},{"bike_id":"6a3c4b4d-605d-42e5-8bff-fbe7793f19d5","system_id":"levelo_inurba_marseille","lat":43.323464,"lon":5.406297,"is_reserved":false,"is_disabled":false,"rental_uris":{"android":"levelo://app?vid=6a3c4b4d-605d-42e5-8bff-fbe7793f19d5","ios":"levelo://app?vid=6a3c4b4d-605d-42e5-8bff-fbe7793f19d5"},"vehicle_type_id":"4","last_reported":1702023001,"current_range_meters":30800,"station_id":"ce4bhq92rcd13ifvqhjg","pricing_plan_id":"free"},{"bike_id":"56ac9cc9-bb61-47d5-bb32-c23299a9fd93","system_id":"levelo_inurba_marseille","lat":43.32256,"lon":5.407,"is_reserved":false,"is_disabled":false,"rental_uris":{"android":"levelo://app?vid=56ac9cc9-bb61-47d5-bb32-c23299a9fd93","ios":"levelo://app?vid=56ac9cc9-bb61-47d5-bb32-c23299a9fd93"},"vehicle_type_id":"4","last_reported":1702023001,"current_range_meters":24800,"station_id":"","pricing_plan_id":"free"},{"bike_id":"b14202d5-353e-4d2d-9f1f-51e564c4f2c5","system_id":"levelo_inurba_marseille","lat":43.284219,"lon":5.3497,"is_reserved":false,"is_disabled":false,"rental_uris":{"android":"levelo://app?vid=b14202d5-353e-4d2d-9f1f-51e564c4f2c5","ios":"levelo://app?vid=b14202d5-353e-4d2d-9f1f-51e564c4f2c5"},"vehicle_type_id":"4","last_reported":1702023001,"current_range_meters":26800,"station_id":"ce4bhbh2rcd13ifvqepg","pricing_plan_id":"free"},{"bike_id":"6addc924-2638-4a70-be61-aefe25f0718f","system_id":"levelo_inurba_marseille","lat":43.289363,"lon":5.396322,"is_reserved":false,"is_disabled":false,"rental_uris":{"android":"levelo://app?vid=6addc924-2638-4a70-be61-aefe25f0718f","ios":"levelo://app?vid=6addc924-2638-4a70-be61-aefe25f0718f"},"vehicle_type_id":"4","last_reported":1702023001,"current_range_meters":27600,"station_id":"ce4bh3h2rcd13ifvqdn0","pricing_plan_id":"free"},{"bike_id":"89bd02e0-fe6f-41ca-aa55-6ba6436bf949","system_id":"levelo_inurba_marseille","lat":43.289363,"lon":5.396322,"is_reserved":false,"is_disabled":false,"rental_uris":{"android":"levelo://app?vid=89bd02e0-fe6f-41ca-aa55-6ba6436bf949","ios":"levelo://app?vid=89bd02e0-fe6f-41ca-aa55-6ba6436bf949"},"vehicle_type_id":"4","last_reported":1702023001,"current_range_meters":27200,"station_id":"ce4bh3h2rcd13ifvqdn0","pricing_plan_id":"free"},{"bike_id":"8d8a7945-77ed-4f96-9311-055ce36ee348","system_id":"levelo_inurba_marseille","lat":43.28375,"lon":5.38646,"is_reserved":false,"is_disabled":false,"rental_uris":{"android":"levelo://app?vid=8d8a7945-77ed-4f96-9311-055ce36ee348","ios":"levelo://app?vid=8d8a7945-77ed-4f96-9311-055ce36ee348"},"vehicle_type_id":"4","last_reported":1702023001,"current_range_meters":5200,"station_id":"ce4bh492rcd13ifvqdvg","pricing_plan_id":"free"},{"bike_id":"aae2ba7b-8999-4318-878b-a856b7c98bf2","system_id":"levelo_inurba_marseille","lat":43.282754,"lon":5.350519,"is_reserved":false,"is_disabled":false,"rental_uris":{"android":"levelo://app?vid=aae2ba7b-8999-4318-878b-a856b7c98bf2","ios":"levelo://app?vid=aae2ba7b-8999-4318-878b-a856b7c98bf2"},"vehicle_type_id":"4","last_reported":1702023001,"current_range_meters":13200,"station_id":"ce4bhbp2rcd13ifvqerg","pricing_plan_id":"free"},{"bike_id":"b5bc5c5b-a817-4c36-a2d5-48521739a01f","system_id":"levelo_inurba_marseille","lat":43.282744,"lon":5.350533,"is_reserved":false,"is_disabled":false,"rental_uris":{"android":"levelo://app?vid=b5bc5c5b-a817-4c36-a2d5-48521739a01f","ios":"levelo://app?vid=b5bc5c5b-a817-4c36-a2d5-48521739a01f"},"vehicle_type_id":"4","last_reported":1702023001,"current_range_meters":11600,"station_id":"ce4bhbp2rcd13ifvqerg","pricing_plan_id":"free"},{"bike_id":"d72b42be-074a-4015-99c5-79cd82b2d7ed","system_id":"levelo_inurba_marseille","lat":43.29061,"lon":5.39929,"is_reserved":false,"is_disabled":false,"rental_uris":{"android":"levelo://app?vid=d72b42be-074a-4015-99c5-79cd82b2d7ed","ios":"levelo://app?vid=d72b42be-074a-4015-99c5-79cd82b2d7ed"},"vehicle_type_id":"4","last_reported":1702023001,"current_range_meters":23200,"station_id":"ce4bh392rcd13ifvqdm0","pricing_plan_id":"free"},{"bike_id":"50cfdd7b-10cb-4333-beb5-71a466ec72d4","system_id":"levelo_inurba_marseille","lat":43.283502,"lon":5.386471,"is_reserved":false,"is_disabled":false,"rental_uris":{"android":"levelo://app?vid=50cfdd7b-10cb-4333-beb5-71a466ec72d4","ios":"levelo://app?vid=50cfdd7b-10cb-4333-beb5-71a466ec72d4"},"vehicle_type_id":"4","last_reported":1702023001,"current_range_meters":24800,"station_id":"ce4bh492rcd13ifvqdvg","pricing_plan_id":"free"},{"bike_id":"1e46739f-948a-4be4-a71d-799ad91f43af","system_id":"levelo_inurba_marseille","lat":43.29054,"lon":5.39937,"is_reserved":false,"is_disabled":false,"rental_uris":{"android":"levelo://app?vid=1e46739f-948a-4be4-a71d-799ad91f43af","ios":"levelo://app?vid=1e46739f-948a-4be4-a71d-799ad91f43af"},"vehicle_type_id":"4","last_reported":1702023001,"current_range_meters":400,"station_id":"ce4bh392rcd13ifvqdm0","pricing_plan_id":"free"},{"bike_id":"dd1f84a7-05b9-431b-bda2-c6fe7e296573","system_id":"levelo_inurba_marseille","lat":43.282754,"lon":5.350519,"is_reserved":false,"is_disabled":false,"rental_uris":{"android":"levelo://app?vid=dd1f84a7-05b9-431b-bda2-c6fe7e296573","ios":"levelo://app?vid=dd1f84a7-05b9-431b-bda2-c6fe7e296573"},"vehicle_type_id":"4","last_reported":1702023001,"current_range_meters":12800,"station_id":"ce4bhbp2rcd13ifvqerg","pricing_plan_id":"free"},{"bike_id":"e906a5c4-5d1f-49dd-8d04-8288dca2084c","system_id":"levelo_inurba_marseille","lat":43.290412,"lon":5.399633,"is_reserved":false,"is_disabled":false,"rental_uris":{"android":"levelo://app?vid=e906a5c4-5d1f-49dd-8d04-8288dca2084c","ios":"levelo://app?vid=e906a5c4-5d1f-49dd-8d04-8288dca2084c"},"vehicle_type_id":"4","last_reported":1702023001,"current_range_meters":31200,"station_id":"ce4bh392rcd13ifvqdm0","pricing_plan_id":"free"},{"bike_id":"aa334cb3-b77c-4a18-98ce-7dc17f166bc1","system_id":"levelo_inurba_marseille","lat":43.290423,"lon":5.399703,"is_reserved":false,"is_disabled":false,"rental_uris":{"android":"levelo://app?vid=aa334cb3-b77c-4a18-98ce-7dc17f166bc1","ios":"levelo://app?vid=aa334cb3-b77c-4a18-98ce-7dc17f166bc1"},"vehicle_type_id":"4","last_reported":1702023001,"current_range_meters":26400,"station_id":"ce4bh392rcd13ifvqdm0","pricing_plan_id":"free"},{"bike_id":"e85ec547-908d-465d-bda0-313e492bcb56","system_id":"levelo_inurba_marseille","lat":43.29032,"lon":5.39967,"is_reserved":false,"is_disabled":false,"rental_uris":{"android":"levelo://app?vid=e85ec547-908d-465d-bda0-313e492bcb56","ios":"levelo://app?vid=e85ec547-908d-465d-bda0-313e492bcb56"},"vehicle_type_id":"4","last_reported":1702023001,"current_range_meters":17600,"station_id":"ce4bh392rcd13ifvqdm0","pricing_plan_id":"free"},{"bike_id":"475b39ac-b9e9-41b5-86d6-94c969081b69","system_id":"levelo_inurba_marseille","lat":43.290412,"lon":5.399633,"is_reserved":false,"is_disabled":false,"rental_uris":{"android":"levelo://app?vid=475b39ac-b9e9-41b5-86d6-94c969081b69","ios":"levelo://app?vid=475b39ac-b9e9-41b5-86d6-94c969081b69"},"vehicle_type_id":"4","last_reported":1702023001,"current_range_meters":30000,"station_id":"ce4bh392rcd13ifvqdm0","pricing_plan_id":"free"},{"bike_id":"d7825adc-d5aa-44bb-bb80-aae80cc26ac0","system_id":"levelo_inurba_marseille","lat":43.296263,"lon":5.40601,"is_reserved":false,"is_disabled":false,"rental_uris":{"android":"levelo://app?vid=d7825adc-d5aa-44bb-bb80-aae80cc26ac0","ios":"levelo://app?vid=d7825adc-d5aa-44bb-bb80-aae80cc26ac0"},"vehicle_type_id":"4","last_reported":1702023001,"current_range_meters":20400,"station_id":"ce4bh0h2rcd13ifvqd60","pricing_plan_id":"free"},{"bike_id":"1f293392-9600-4887-bef1-b8f2f256ec66","system_id":"levelo_inurba_marseille","lat":43.284462,"lon":5.392121,"is_reserved":false,"is_disabled":false,"rental_uris":{"android":"levelo://app?vid=1f293392-9600-4887-bef1-b8f2f256ec66","ios":"levelo://app?vid=1f293392-9600-4887-bef1-b8f2f256ec66"},"vehicle_type_id":"4","last_reported":1702023001,"current_range_meters":23200,"station_id":"ce4bhoh2rcd13ifvqh5g","pricing_plan_id":"free"},{"bike_id":"ad990e7b-d7aa-4d42-b943-713cafe56df7","system_id":"levelo_inurba_marseille","lat":43.284462,"lon":5.392121,"is_reserved":false,"is_disabled":false,"rental_uris":{"android":"levelo://app?vid=ad990e7b-d7aa-4d42-b943-713cafe56df7","ios":"levelo://app?vid=ad990e7b-d7aa-4d42-b943-713cafe56df7"},"vehicle_type_id":"4","last_reported":1702023001,"current_range_meters":28400,"station_id":"ce4bhoh2rcd13ifvqh5g","pricing_plan_id":"free"},{"bike_id":"f14ead39-4f41-4599-9321-f960783c1e12","system_id":"levelo_inurba_marseille","lat":43.326605,"lon":5.409903,"is_reserved":false,"is_disabled":false,"rental_uris":{"android":"levelo://app?vid=f14ead39-4f41-4599-9321-f960783c1e12","ios":"levelo://app?vid=f14ead39-4f41-4599-9321-f960783c1e12"},"vehicle_type_id":"4","last_reported":1702023001,"current_range_meters":28400,"station_id":"ce4bhpp2rcd13ifvqhgg","pricing_plan_id":"free"},{"bike_id":"070a260d-ecc1-46d1-afab-6774750cd900","system_id":"levelo_inurba_marseille","lat":43.326605,"lon":5.409903,"is_reserved":false,"is_disabled":false,"rental_uris":{"android":"levelo://app?vid=070a260d-ecc1-46d1-afab-6774750cd900","ios":"levelo://app?vid=070a260d-ecc1-46d1-afab-6774750cd900"},"vehicle_type_id":"4","last_reported":1702023001,"current_range_meters":29200,"station_id":"ce4bhpp2rcd13ifvqhgg","pricing_plan_id":"free"},{"bike_id":"bf9c0286-54ca-458d-a58a-9d0d9c0353fb","system_id":"levelo_inurba_marseille","lat":43.279087,"lon":5.380114,"is_reserved":false,"is_disabled":false,"rental_uris":{"android":"levelo://app?vid=bf9c0286-54ca-458d-a58a-9d0d9c0353fb","ios":"levelo://app?vid=bf9c0286-54ca-458d-a58a-9d0d9c0353fb"},"vehicle_type_id":"4","last_reported":1702023001,"current_range_meters":31200,"station_id":"ce4bhf92rcd13ifvqf50","pricing_plan_id":"free"},{"bike_id":"5fefe554-fe99-4e7c-bf4d-9b8cb69d1b6a","system_id":"levelo_inurba_marseille","lat":43.279087,"lon":5.380114,"is_reserved":false,"is_disabled":false,"rental_uris":{"android":"levelo://app?vid=5fefe554-fe99-4e7c-bf4d-9b8cb69d1b6a","ios":"levelo://app?vid=5fefe554-fe99-4e7c-bf4d-9b8cb69d1b6a"},"vehicle_type_id":"4","last_reported":1702023001,"current_range_meters":4000,"station_id":"ce4bhf92rcd13ifvqf50","pricing_plan_id":"free"},{"bike_id":"0490807f-1e87-4c85-9df2-dc1bad9bfd86","system_id":"levelo_inurba_marseille","lat":43.320045,"lon":5.415048,"is_reserved":false,"is_disabled":false,"rental_uris":{"android":"levelo://app?vid=0490807f-1e87-4c85-9df2-dc1bad9bfd86","ios":"levelo://app?vid=0490807f-1e87-4c85-9df2-dc1bad9bfd86"},"vehicle_type_id":"4","last_reported":1702023001,"current_range_meters":31200,"station_id":"ce4bhq92rcd13ifvqhkg","pricing_plan_id":"free"},{"bike_id":"56deef37-a824-459f-af7d-653c8e7190e6","system_id":"levelo_inurba_marseille","lat":43.29258,"lon":5.409,"is_reserved":false,"is_disabled":false,"rental_uris":{"android":"levelo://app?vid=56deef37-a824-459f-af7d-653c8e7190e6","ios":"levelo://app?vid=56deef37-a824-459f-af7d-653c8e7190e6"},"vehicle_type_id":"4","last_reported":1702023001,"current_range_meters":14800,"station_id":"ce4bh192rcd13ifvqdc0","pricing_plan_id":"free"},{"bike_id":"cf28e55e-951a-4b0e-80ed-914fb42c100f","system_id":"levelo_inurba_marseille","lat":43.280784,"lon":5.396622,"is_reserved":false,"is_disabled":false,"rental_uris":{"android":"levelo://app?vid=cf28e55e-951a-4b0e-80ed-914fb42c100f","ios":"levelo://app?vid=cf28e55e-951a-4b0e-80ed-914fb42c100f"},"vehicle_type_id":"4","last_reported":1702023001,"current_range_meters":31200,"station_id":"ce4bho12rcd13ifvqh2g","pricing_plan_id":"free"},{"bike_id":"21353717-0ebc-4941-8111-34c7a0b5fb53","system_id":"levelo_inurba_marseille","lat":43.280732,"lon":5.396499,"is_reserved":false,"is_disabled":false,"rental_uris":{"android":"levelo://app?vid=21353717-0ebc-4941-8111-34c7a0b5fb53","ios":"levelo://app?vid=21353717-0ebc-4941-8111-34c7a0b5fb53"},"vehicle_type_id":"4","last_reported":1702023001,"current_range_meters":20400,"station_id":"ce4bho12rcd13ifvqh2g","pricing_plan_id":"free"},{"bike_id":"9b5528ec-c69e-4612-b0a8-fd28dcc894b4","system_id":"levelo_inurba_marseille","lat":43.280784,"lon":5.396622,"is_reserved":false,"is_disabled":false,"rental_uris":{"android":"levelo://app?vid=9b5528ec-c69e-4612-b0a8-fd28dcc894b4","ios":"levelo://app?vid=9b5528ec-c69e-4612-b0a8-fd28dcc894b4"},"vehicle_type_id":"4","last_reported":1702023001,"current_range_meters":14000,"station_id":"ce4bho12rcd13ifvqh2g","pricing_plan_id":"free"},{"bike_id":"6c07e982-b7bd-44e0-8bfd-6eba9dde01aa","system_id":"levelo_inurba_marseille","lat":43.33612,"lon":5.410321,"is_reserved":false,"is_disabled":false,"rental_uris":{"android":"levelo://app?vid=6c07e982-b7bd-44e0-8bfd-6eba9dde01aa","ios":"levelo://app?vid=6c07e982-b7bd-44e0-8bfd-6eba9dde01aa"},"vehicle_type_id":"4","last_reported":1702023001,"current_range_meters":6800,"station_id":"ce4bhqh2rcd13ifvqhmg","pricing_plan_id":"free"},{"bike_id":"e9a1afd1-7293-42f7-bc6e-fcfd3dcce85d","system_id":"levelo_inurba_marseille","lat":43.275625,"lon":5.384392,"is_reserved":false,"is_disabled":false,"rental_uris":{"android":"levelo://app?vid=e9a1afd1-7293-42f7-bc6e-fcfd3dcce85d","ios":"levelo://app?vid=e9a1afd1-7293-42f7-bc6e-fcfd3dcce85d"},"vehicle_type_id":"4","last_reported":1702023001,"current_range_meters":24000,"station_id":"ce4bhh92rcd13ifvqfi0","pricing_plan_id":"free"},{"bike_id":"d1fd45e3-fa9c-43b1-9552-ca74082880a7","system_id":"levelo_inurba_marseille","lat":43.33613,"lon":5.4102,"is_reserved":false,"is_disabled":false,"rental_uris":{"android":"levelo://app?vid=d1fd45e3-fa9c-43b1-9552-ca74082880a7","ios":"levelo://app?vid=d1fd45e3-fa9c-43b1-9552-ca74082880a7"},"vehicle_type_id":"4","last_reported":1702023001,"current_range_meters":0,"station_id":"ce4bhqh2rcd13ifvqhmg","pricing_plan_id":"free"},{"bike_id":"5cc7b054-7f74-4799-ba27-acd88dcc15ab","system_id":"levelo_inurba_marseille","lat":43.276296,"lon":5.391895,"is_reserved":false,"is_disabled":false,"rental_uris":{"android":"levelo://app?vid=5cc7b054-7f74-4799-ba27-acd88dcc15ab","ios":"levelo://app?vid=5cc7b054-7f74-4799-ba27-acd88dcc15ab"},"vehicle_type_id":"4","last_reported":1702023001,"current_range_meters":20400,"station_id":"","pricing_plan_id":"free"},{"bike_id":"200eafbf-d9f3-4a6e-935c-b56619044876","system_id":"levelo_inurba_marseille","lat":43.28761,"lon":5.41208,"is_reserved":false,"is_disabled":false,"rental_uris":{"android":"levelo://app?vid=200eafbf-d9f3-4a6e-935c-b56619044876","ios":"levelo://app?vid=200eafbf-d9f3-4a6e-935c-b56619044876"},"vehicle_type_id":"4","last_reported":1702023001,"current_range_meters":24800,"station_id":"","pricing_plan_id":"free"},{"bike_id":"ac48d04c-c813-4dcb-8013-15216c7aa7de","system_id":"levelo_inurba_marseille","lat":43.340804,"lon":5.410219,"is_reserved":false,"is_disabled":false,"rental_uris":{"android":"levelo://app?vid=ac48d04c-c813-4dcb-8013-15216c7aa7de","ios":"levelo://app?vid=ac48d04c-c813-4dcb-8013-15216c7aa7de"},"vehicle_type_id":"4","last_reported":1702023001,"current_range_meters":16800,"station_id":"ce4bhqh2rcd13ifvqhlg","pricing_plan_id":"free"},{"bike_id":"7e94c76e-e37d-41b3-9bda-1c58252221e0","system_id":"levelo_inurba_marseille","lat":43.31711,"lon":5.42398,"is_reserved":false,"is_disabled":false,"rental_uris":{"android":"levelo://app?vid=7e94c76e-e37d-41b3-9bda-1c58252221e0","ios":"levelo://app?vid=7e94c76e-e37d-41b3-9bda-1c58252221e0"},"vehicle_type_id":"4","last_reported":1702023001,"current_range_meters":19200,"station_id":"ce4bhp92rcd13ifvqhbg","pricing_plan_id":"free"},{"bike_id":"7777002e-5813-436f-aaf3-5560b01b82cf","system_id":"levelo_inurba_marseille","lat":43.310785,"lon":5.424305,"is_reserved":false,"is_disabled":false,"rental_uris":{"android":"levelo://app?vid=7777002e-5813-436f-aaf3-5560b01b82cf","ios":"levelo://app?vid=7777002e-5813-436f-aaf3-5560b01b82cf"},"vehicle_type_id":"4","last_reported":1702023001,"current_range_meters":20400,"station_id":"ce4bhp92rcd13ifvqhag","pricing_plan_id":"free"},{"bike_id":"98fd8ac5-d7f0-4eec-935b-9888a8c99cac","system_id":"levelo_inurba_marseille","lat":43.310785,"lon":5.424305,"is_reserved":false,"is_disabled":false,"rental_uris":{"android":"levelo://app?vid=98fd8ac5-d7f0-4eec-935b-9888a8c99cac","ios":"levelo://app?vid=98fd8ac5-d7f0-4eec-935b-9888a8c99cac"},"vehicle_type_id":"4","last_reported":1702023001,"current_range_meters":4800,"station_id":"ce4bhp92rcd13ifvqhag","pricing_plan_id":"free"},{"bike_id":"e7e35992-3a3d-448e-9a9c-48870975c082","system_id":"levelo_inurba_marseille","lat":43.340804,"lon":5.410219,"is_reserved":false,"is_disabled":false,"rental_uris":{"android":"levelo://app?vid=e7e35992-3a3d-448e-9a9c-48870975c082","ios":"levelo://app?vid=e7e35992-3a3d-448e-9a9c-48870975c082"},"vehicle_type_id":"4","last_reported":1702023001,"current_range_meters":27600,"station_id":"ce4bhqh2rcd13ifvqhlg","pricing_plan_id":"free"},{"bike_id":"63133364-316e-458e-b234-bbd4926c63fc","system_id":"levelo_inurba_marseille","lat":43.27583,"lon":5.39474,"is_reserved":false,"is_disabled":false,"rental_uris":{"android":"levelo://app?vid=63133364-316e-458e-b234-bbd4926c63fc","ios":"levelo://app?vid=63133364-316e-458e-b234-bbd4926c63fc"},"vehicle_type_id":"4","last_reported":1702023001,"current_range_meters":13600,"station_id":"","pricing_plan_id":"free"},{"bike_id":"09f71d2f-81ea-4644-8e24-dfea3454a076","system_id":"levelo_inurba_marseille","lat":43.274099,"lon":5.394019,"is_reserved":false,"is_disabled":false,"rental_uris":{"android":"levelo://app?vid=09f71d2f-81ea-4644-8e24-dfea3454a076","ios":"levelo://app?vid=09f71d2f-81ea-4644-8e24-dfea3454a076"},"vehicle_type_id":"4","last_reported":1702023001,"current_range_meters":27200,"station_id":"ce4bhdp2rcd13ifvqf20","pricing_plan_id":"free"},{"bike_id":"e804e9cb-54b6-4fa3-a7d2-287d963962e5","system_id":"levelo_inurba_marseille","lat":43.273125,"lon":5.390731,"is_reserved":false,"is_disabled":false,"rental_uris":{"android":"levelo://app?vid=e804e9cb-54b6-4fa3-a7d2-287d963962e5","ios":"levelo://app?vid=e804e9cb-54b6-4fa3-a7d2-287d963962e5"},"vehicle_type_id":"4","last_reported":1702023001,"current_range_meters":25600,"station_id":"ce4bhgp2rcd13ifvqfe0","pricing_plan_id":"free"},{"bike_id":"e2764ad7-2a83-4757-aee9-ec03ab5c3560","system_id":"levelo_inurba_marseille","lat":43.30411,"lon":5.42537,"is_reserved":false,"is_disabled":false,"rental_uris":{"android":"levelo://app?vid=e2764ad7-2a83-4757-aee9-ec03ab5c3560","ios":"levelo://app?vid=e2764ad7-2a83-4757-aee9-ec03ab5c3560"},"vehicle_type_id":"4","last_reported":1702023001,"current_range_meters":28400,"station_id":"ce4bhoh2rcd13ifvqh6g","pricing_plan_id":"free"},{"bike_id":"4ee84928-30de-467c-8215-de7b5558b7ed","system_id":"levelo_inurba_marseille","lat":43.295511,"lon":5.422926,"is_reserved":false,"is_disabled":false,"rental_uris":{"android":"levelo://app?vid=4ee84928-30de-467c-8215-de7b5558b7ed","ios":"levelo://app?vid=4ee84928-30de-467c-8215-de7b5558b7ed"},"vehicle_type_id":"4","last_reported":1702023001,"current_range_meters":26400,"station_id":"ce4bhph2rcd13ifvqhdg","pricing_plan_id":"free"},{"bike_id":"c9a354e1-cd47-4a73-9444-d6227e3bfab5","system_id":"levelo_inurba_marseille","lat":43.295511,"lon":5.422926,"is_reserved":false,"is_disabled":false,"rental_uris":{"android":"levelo://app?vid=c9a354e1-cd47-4a73-9444-d6227e3bfab5","ios":"levelo://app?vid=c9a354e1-cd47-4a73-9444-d6227e3bfab5"},"vehicle_type_id":"4","last_reported":1702023001,"current_range_meters":19600,"station_id":"ce4bhph2rcd13ifvqhdg","pricing_plan_id":"free"},{"bike_id":"77e2df1b-d75a-48fe-a6ad-744dfbe91f1d","system_id":"levelo_inurba_marseille","lat":43.27214,"lon":5.3925,"is_reserved":false,"is_disabled":false,"rental_uris":{"android":"levelo://app?vid=77e2df1b-d75a-48fe-a6ad-744dfbe91f1d","ios":"levelo://app?vid=77e2df1b-d75a-48fe-a6ad-744dfbe91f1d"},"vehicle_type_id":"4","last_reported":1702023001,"current_range_meters":6400,"station_id":"","pricing_plan_id":"free"},{"bike_id":"7b84562b-f023-458e-9f63-22f52b26a915","system_id":"levelo_inurba_marseille","lat":43.278128,"lon":5.407195,"is_reserved":false,"is_disabled":false,"rental_uris":{"android":"levelo://app?vid=7b84562b-f023-458e-9f63-22f52b26a915","ios":"levelo://app?vid=7b84562b-f023-458e-9f63-22f52b26a915"},"vehicle_type_id":"4","last_reported":1702023001,"current_range_meters":31200,"station_id":"ce4bhnh2rcd13ifvqgtg","pricing_plan_id":"free"},{"bike_id":"2eb7b164-467e-49b0-a554-29c177f95c2a","system_id":"levelo_inurba_marseille","lat":43.278107,"lon":5.407092,"is_reserved":false,"is_disabled":false,"rental_uris":{"android":"levelo://app?vid=2eb7b164-467e-49b0-a554-29c177f95c2a","ios":"levelo://app?vid=2eb7b164-467e-49b0-a554-29c177f95c2a"},"vehicle_type_id":"4","last_reported":1702023001,"current_range_meters":14400,"station_id":"ce4bhnh2rcd13ifvqgtg","pricing_plan_id":"free"},{"bike_id":"8e3ed466-32b5-40fb-9e63-efc51e8e36c0","system_id":"levelo_inurba_marseille","lat":43.278128,"lon":5.407195,"is_reserved":false,"is_disabled":false,"rental_uris":{"android":"levelo://app?vid=8e3ed466-32b5-40fb-9e63-efc51e8e36c0","ios":"levelo://app?vid=8e3ed466-32b5-40fb-9e63-efc51e8e36c0"},"vehicle_type_id":"4","last_reported":1702023001,"current_range_meters":29600,"station_id":"ce4bhnh2rcd13ifvqgtg","pricing_plan_id":"free"},{"bike_id":"dffd642e-6acf-43e9-84fd-33fa89f52c00","system_id":"levelo_inurba_marseille","lat":43.27905,"lon":5.41219,"is_reserved":false,"is_disabled":false,"rental_uris":{"android":"levelo://app?vid=dffd642e-6acf-43e9-84fd-33fa89f52c00","ios":"levelo://app?vid=dffd642e-6acf-43e9-84fd-33fa89f52c00"},"vehicle_type_id":"4","last_reported":1702023001,"current_range_meters":11600,"station_id":"","pricing_plan_id":"free"},{"bike_id":"1fda5528-ce12-4baf-b7ef-72d32bd3f500","system_id":"levelo_inurba_marseille","lat":43.26681,"lon":5.382694,"is_reserved":false,"is_disabled":false,"rental_uris":{"android":"levelo://app?vid=1fda5528-ce12-4baf-b7ef-72d32bd3f500","ios":"levelo://app?vid=1fda5528-ce12-4baf-b7ef-72d32bd3f500"},"vehicle_type_id":"4","last_reported":1702023001,"current_range_meters":6400,"station_id":"ce4bhg92rcd13ifvqf90","pricing_plan_id":"free"},{"bike_id":"69cf0675-0b26-4e62-9580-22f1eaf1e028","system_id":"levelo_inurba_marseille","lat":43.26681,"lon":5.382694,"is_reserved":false,"is_disabled":false,"rental_uris":{"android":"levelo://app?vid=69cf0675-0b26-4e62-9580-22f1eaf1e028","ios":"levelo://app?vid=69cf0675-0b26-4e62-9580-22f1eaf1e028"},"vehicle_type_id":"4","last_reported":1702023001,"current_range_meters":30400,"station_id":"ce4bhg92rcd13ifvqf90","pricing_plan_id":"free"},{"bike_id":"278d3881-2a72-4b9f-b073-2914ce67f608","system_id":"levelo_inurba_marseille","lat":43.26681,"lon":5.382694,"is_reserved":false,"is_disabled":false,"rental_uris":{"android":"levelo://app?vid=278d3881-2a72-4b9f-b073-2914ce67f608","ios":"levelo://app?vid=278d3881-2a72-4b9f-b073-2914ce67f608"},"vehicle_type_id":"4","last_reported":1702023001,"current_range_meters":26000,"station_id":"ce4bhg92rcd13ifvqf90","pricing_plan_id":"free"},{"bike_id":"13ec32c0-edc6-404e-9690-4ad2ca134b05","system_id":"levelo_inurba_marseille","lat":43.27996,"lon":5.416624,"is_reserved":false,"is_disabled":false,"rental_uris":{"android":"levelo://app?vid=13ec32c0-edc6-404e-9690-4ad2ca134b05","ios":"levelo://app?vid=13ec32c0-edc6-404e-9690-4ad2ca134b05"},"vehicle_type_id":"4","last_reported":1702023001,"current_range_meters":31200,"station_id":"ce4bho12rcd13ifvqh1g","pricing_plan_id":"free"},{"bike_id":"d1229013-f4fa-4838-b99c-7170643c99ca","system_id":"levelo_inurba_marseille","lat":43.27996,"lon":5.416624,"is_reserved":false,"is_disabled":false,"rental_uris":{"android":"levelo://app?vid=d1229013-f4fa-4838-b99c-7170643c99ca","ios":"levelo://app?vid=d1229013-f4fa-4838-b99c-7170643c99ca"},"vehicle_type_id":"4","last_reported":1702023001,"current_range_meters":0,"station_id":"ce4bho12rcd13ifvqh1g","pricing_plan_id":"free"},{"bike_id":"99cab206-deb5-4d69-95cd-78d9fad48997","system_id":"levelo_inurba_marseille","lat":43.27996,"lon":5.416624,"is_reserved":false,"is_disabled":false,"rental_uris":{"android":"levelo://app?vid=99cab206-deb5-4d69-95cd-78d9fad48997","ios":"levelo://app?vid=99cab206-deb5-4d69-95cd-78d9fad48997"},"vehicle_type_id":"4","last_reported":1702023001,"current_range_meters":20800,"station_id":"ce4bho12rcd13ifvqh1g","pricing_plan_id":"free"},{"bike_id":"3c5336e4-9b6f-4801-8185-1d45712609f9","system_id":"levelo_inurba_marseille","lat":43.265714,"lon":5.372891,"is_reserved":false,"is_disabled":false,"rental_uris":{"android":"levelo://app?vid=3c5336e4-9b6f-4801-8185-1d45712609f9","ios":"levelo://app?vid=3c5336e4-9b6f-4801-8185-1d45712609f9"},"vehicle_type_id":"4","last_reported":1702023001,"current_range_meters":1600,"station_id":"ce4bhg12rcd13ifvqf70","pricing_plan_id":"free"},{"bike_id":"1aaea90d-2b02-4f8f-85f4-d63de2ff6723","system_id":"levelo_inurba_marseille","lat":43.267966,"lon":5.393976,"is_reserved":false,"is_disabled":false,"rental_uris":{"android":"levelo://app?vid=1aaea90d-2b02-4f8f-85f4-d63de2ff6723","ios":"levelo://app?vid=1aaea90d-2b02-4f8f-85f4-d63de2ff6723"},"vehicle_type_id":"4","last_reported":1702023001,"current_range_meters":8800,"station_id":"ce4bhh12rcd13ifvqfg0","pricing_plan_id":"free"},{"bike_id":"5c62f0fe-2a68-4f0e-8c5e-1c3be35b64ff","system_id":"levelo_inurba_marseille","lat":43.29175,"lon":5.427986,"is_reserved":false,"is_disabled":false,"rental_uris":{"android":"levelo://app?vid=5c62f0fe-2a68-4f0e-8c5e-1c3be35b64ff","ios":"levelo://app?vid=5c62f0fe-2a68-4f0e-8c5e-1c3be35b64ff"},"vehicle_type_id":"4","last_reported":1702023001,"current_range_meters":12000,"station_id":"","pricing_plan_id":"free"},{"bike_id":"b118be1c-e720-4030-9880-028d335d31d2","system_id":"levelo_inurba_marseille","lat":43.265714,"lon":5.372891,"is_reserved":false,"is_disabled":false,"rental_uris":{"android":"levelo://app?vid=b118be1c-e720-4030-9880-028d335d31d2","ios":"levelo://app?vid=b118be1c-e720-4030-9880-028d335d31d2"},"vehicle_type_id":"4","last_reported":1702023001,"current_range_meters":27600,"station_id":"ce4bhg12rcd13ifvqf70","pricing_plan_id":"free"},{"bike_id":"b3ff566c-2dfd-4bc0-b69b-7984474cf26d","system_id":"levelo_inurba_marseille","lat":43.265569,"lon":5.390047,"is_reserved":false,"is_disabled":false,"rental_uris":{"android":"levelo://app?vid=b3ff566c-2dfd-4bc0-b69b-7984474cf26d","ios":"levelo://app?vid=b3ff566c-2dfd-4bc0-b69b-7984474cf26d"},"vehicle_type_id":"4","last_reported":1702023001,"current_range_meters":25600,"station_id":"ce4bhe12rcd13ifvqf30","pricing_plan_id":"free"},{"bike_id":"f076cecd-d7cf-41d2-831d-4d046a72d397","system_id":"levelo_inurba_marseille","lat":43.265569,"lon":5.390047,"is_reserved":false,"is_disabled":false,"rental_uris":{"android":"levelo://app?vid=f076cecd-d7cf-41d2-831d-4d046a72d397","ios":"levelo://app?vid=f076cecd-d7cf-41d2-831d-4d046a72d397"},"vehicle_type_id":"4","last_reported":1702023001,"current_range_meters":31200,"station_id":"ce4bhe12rcd13ifvqf30","pricing_plan_id":"free"},{"bike_id":"b93cd3dd-8deb-4ec8-a04f-62c2e108d8bd","system_id":"levelo_inurba_marseille","lat":43.26949,"lon":5.40262,"is_reserved":false,"is_disabled":false,"rental_uris":{"android":"levelo://app?vid=b93cd3dd-8deb-4ec8-a04f-62c2e108d8bd","ios":"levelo://app?vid=b93cd3dd-8deb-4ec8-a04f-62c2e108d8bd"},"vehicle_type_id":"4","last_reported":1702023001,"current_range_meters":27200,"station_id":"cjm6bp8fraef2m0cb0m0","pricing_plan_id":"free"},{"bike_id":"b2b103ac-0819-4d45-aab7-66487a241d22","system_id":"levelo_inurba_marseille","lat":43.26938,"lon":5.4026,"is_reserved":false,"is_disabled":false,"rental_uris":{"android":"levelo://app?vid=b2b103ac-0819-4d45-aab7-66487a241d22","ios":"levelo://app?vid=b2b103ac-0819-4d45-aab7-66487a241d22"},"vehicle_type_id":"4","last_reported":1702023001,"current_range_meters":0,"station_id":"cjm6bp8fraef2m0cb0m0","pricing_plan_id":"free"},{"bike_id":"f2e5d013-6edb-494d-8e09-78d711cf04a7","system_id":"levelo_inurba_marseille","lat":43.317104,"lon":5.436818,"is_reserved":false,"is_disabled":false,"rental_uris":{"android":"levelo://app?vid=f2e5d013-6edb-494d-8e09-78d711cf04a7","ios":"levelo://app?vid=f2e5d013-6edb-494d-8e09-78d711cf04a7"},"vehicle_type_id":"4","last_reported":1702023001,"current_range_meters":27600,"station_id":"ce4bhp92rcd13ifvqhcg","pricing_plan_id":"free"},{"bike_id":"ed3d39e3-16d0-4193-b5f3-7d15fa62181e","system_id":"levelo_inurba_marseille","lat":43.262012,"lon":5.379307,"is_reserved":false,"is_disabled":false,"rental_uris":{"android":"levelo://app?vid=ed3d39e3-16d0-4193-b5f3-7d15fa62181e","ios":"levelo://app?vid=ed3d39e3-16d0-4193-b5f3-7d15fa62181e"},"vehicle_type_id":"4","last_reported":1702023001,"current_range_meters":31200,"station_id":"ce4bhjp2rcd13ifvqg90","pricing_plan_id":"free"},{"bike_id":"50b57549-b3da-4393-86c8-d9ab04bd4183","system_id":"levelo_inurba_marseille","lat":43.26202,"lon":5.379299,"is_reserved":false,"is_disabled":false,"rental_uris":{"android":"levelo://app?vid=50b57549-b3da-4393-86c8-d9ab04bd4183","ios":"levelo://app?vid=50b57549-b3da-4393-86c8-d9ab04bd4183"},"vehicle_type_id":"4","last_reported":1702023001,"current_range_meters":29200,"station_id":"ce4bhjp2rcd13ifvqg90","pricing_plan_id":"free"},{"bike_id":"3304d659-2172-4c05-95b9-9ce22aa618b6","system_id":"levelo_inurba_marseille","lat":43.271388,"lon":5.409269,"is_reserved":false,"is_disabled":false,"rental_uris":{"android":"levelo://app?vid=3304d659-2172-4c05-95b9-9ce22aa618b6","ios":"levelo://app?vid=3304d659-2172-4c05-95b9-9ce22aa618b6"},"vehicle_type_id":"4","last_reported":1702023001,"current_range_meters":30400,"station_id":"ce4bhl12rcd13ifvqgf0","pricing_plan_id":"free"},{"bike_id":"c5bd1d69-a92d-4172-a7f3-6c88766eaa3a","system_id":"levelo_inurba_marseille","lat":43.271368,"lon":5.40928,"is_reserved":false,"is_disabled":false,"rental_uris":{"android":"levelo://app?vid=c5bd1d69-a92d-4172-a7f3-6c88766eaa3a","ios":"levelo://app?vid=c5bd1d69-a92d-4172-a7f3-6c88766eaa3a"},"vehicle_type_id":"4","last_reported":1702023001,"current_range_meters":9600,"station_id":"ce4bhl12rcd13ifvqgf0","pricing_plan_id":"free"},{"bike_id":"f99c4aef-541a-4352-a884-d4a46464ec6d","system_id":"levelo_inurba_marseille","lat":43.267959,"lon":5.402687,"is_reserved":false,"is_disabled":false,"rental_uris":{"android":"levelo://app?vid=f99c4aef-541a-4352-a884-d4a46464ec6d","ios":"levelo://app?vid=f99c4aef-541a-4352-a884-d4a46464ec6d"},"vehicle_type_id":"4","last_reported":1702023001,"current_range_meters":26400,"station_id":"ce501612rcd8frsf0b60","pricing_plan_id":"free"},{"bike_id":"8a8bc4d6-0029-4fbf-9728-a692a0316877","system_id":"levelo_inurba_marseille","lat":43.27557,"lon":5.41681,"is_reserved":false,"is_disabled":false,"rental_uris":{"android":"levelo://app?vid=8a8bc4d6-0029-4fbf-9728-a692a0316877","ios":"levelo://app?vid=8a8bc4d6-0029-4fbf-9728-a692a0316877"},"vehicle_type_id":"4","last_reported":1702023001,"current_range_meters":3200,"station_id":"","pricing_plan_id":"free"},{"bike_id":"ca4db8a8-5b98-4b78-bc3d-514f38028a3d","system_id":"levelo_inurba_marseille","lat":43.298768,"lon":5.43643,"is_reserved":false,"is_disabled":false,"rental_uris":{"android":"levelo://app?vid=ca4db8a8-5b98-4b78-bc3d-514f38028a3d","ios":"levelo://app?vid=ca4db8a8-5b98-4b78-bc3d-514f38028a3d"},"vehicle_type_id":"4","last_reported":1702023001,"current_range_meters":30000,"station_id":"ce4bhpp2rcd13ifvqhfg","pricing_plan_id":"free"},{"bike_id":"0a3af9fe-4495-4765-a364-07e789cdace4","system_id":"levelo_inurba_marseille","lat":43.298768,"lon":5.43643,"is_reserved":false,"is_disabled":false,"rental_uris":{"android":"levelo://app?vid=0a3af9fe-4495-4765-a364-07e789cdace4","ios":"levelo://app?vid=0a3af9fe-4495-4765-a364-07e789cdace4"},"vehicle_type_id":"4","last_reported":1702023001,"current_range_meters":27600,"station_id":"ce4bhpp2rcd13ifvqhfg","pricing_plan_id":"free"},{"bike_id":"4f68f183-a711-4386-a731-e8ea8e2f115e","system_id":"levelo_inurba_marseille","lat":43.298768,"lon":5.43643,"is_reserved":false,"is_disabled":false,"rental_uris":{"android":"levelo://app?vid=4f68f183-a711-4386-a731-e8ea8e2f115e","ios":"levelo://app?vid=4f68f183-a711-4386-a731-e8ea8e2f115e"},"vehicle_type_id":"4","last_reported":1702023001,"current_range_meters":25200,"station_id":"ce4bhpp2rcd13ifvqhfg","pricing_plan_id":"free"},{"bike_id":"83e2018e-7127-4415-8bbf-2e347a9c6750","system_id":"levelo_inurba_marseille","lat":43.29897,"lon":5.43669,"is_reserved":false,"is_disabled":false,"rental_uris":{"android":"levelo://app?vid=83e2018e-7127-4415-8bbf-2e347a9c6750","ios":"levelo://app?vid=83e2018e-7127-4415-8bbf-2e347a9c6750"},"vehicle_type_id":"4","last_reported":1702023001,"current_range_meters":4400,"station_id":"ce4bhpp2rcd13ifvqhfg","pricing_plan_id":"free"},{"bike_id":"b0b3850b-b073-47e6-aba6-e5a88e8602e2","system_id":"levelo_inurba_marseille","lat":43.281548,"lon":5.42643,"is_reserved":false,"is_disabled":false,"rental_uris":{"android":"levelo://app?vid=b0b3850b-b073-47e6-aba6-e5a88e8602e2","ios":"levelo://app?vid=b0b3850b-b073-47e6-aba6-e5a88e8602e2"},"vehicle_type_id":"4","last_reported":1702023001,"current_range_meters":27600,"station_id":"ce4bhnh2rcd13ifvqgug","pricing_plan_id":"free"},{"bike_id":"fee59bde-6126-4a98-a3e0-c862515d1a23","system_id":"levelo_inurba_marseille","lat":43.281548,"lon":5.42643,"is_reserved":false,"is_disabled":false,"rental_uris":{"android":"levelo://app?vid=fee59bde-6126-4a98-a3e0-c862515d1a23","ios":"levelo://app?vid=fee59bde-6126-4a98-a3e0-c862515d1a23"},"vehicle_type_id":"4","last_reported":1702023001,"current_range_meters":30400,"station_id":"ce4bhnh2rcd13ifvqgug","pricing_plan_id":"free"},{"bike_id":"6c4a4127-c4de-4571-99d2-c4e93580765c","system_id":"levelo_inurba_marseille","lat":43.281548,"lon":5.42643,"is_reserved":false,"is_disabled":false,"rental_uris":{"android":"levelo://app?vid=6c4a4127-c4de-4571-99d2-c4e93580765c","ios":"levelo://app?vid=6c4a4127-c4de-4571-99d2-c4e93580765c"},"vehicle_type_id":"4","last_reported":1702023001,"current_range_meters":23600,"station_id":"ce4bhnh2rcd13ifvqgug","pricing_plan_id":"free"},{"bike_id":"ba7ddf79-ff50-4f5c-8fc6-82d165f47152","system_id":"levelo_inurba_marseille","lat":43.28153,"lon":5.42651,"is_reserved":false,"is_disabled":false,"rental_uris":{"android":"levelo://app?vid=ba7ddf79-ff50-4f5c-8fc6-82d165f47152","ios":"levelo://app?vid=ba7ddf79-ff50-4f5c-8fc6-82d165f47152"},"vehicle_type_id":"4","last_reported":1702023001,"current_range_meters":4800,"station_id":"ce4bhnh2rcd13ifvqgug","pricing_plan_id":"free"},{"bike_id":"e258f31c-2777-4882-9bcb-295833e73b3b","system_id":"levelo_inurba_marseille","lat":43.2607,"lon":5.393983,"is_reserved":false,"is_disabled":false,"rental_uris":{"android":"levelo://app?vid=e258f31c-2777-4882-9bcb-295833e73b3b","ios":"levelo://app?vid=e258f31c-2777-4882-9bcb-295833e73b3b"},"vehicle_type_id":"4","last_reported":1702023001,"current_range_meters":0,"station_id":"ce4bhh92rcd13ifvqfj0","pricing_plan_id":"free"},{"bike_id":"c90d4f1f-c031-4bfa-9513-341cda3df957","system_id":"levelo_inurba_marseille","lat":43.2607,"lon":5.393983,"is_reserved":false,"is_disabled":false,"rental_uris":{"android":"levelo://app?vid=c90d4f1f-c031-4bfa-9513-341cda3df957","ios":"levelo://app?vid=c90d4f1f-c031-4bfa-9513-341cda3df957"},"vehicle_type_id":"4","last_reported":1702023001,"current_range_meters":29200,"station_id":"ce4bhh92rcd13ifvqfj0","pricing_plan_id":"free"},{"bike_id":"adb772d7-9f7f-4984-9bc5-89492c3f533a","system_id":"levelo_inurba_marseille","lat":43.275028,"lon":5.424534,"is_reserved":false,"is_disabled":false,"rental_uris":{"android":"levelo://app?vid=adb772d7-9f7f-4984-9bc5-89492c3f533a","ios":"levelo://app?vid=adb772d7-9f7f-4984-9bc5-89492c3f533a"},"vehicle_type_id":"4","last_reported":1702023001,"current_range_meters":1600,"station_id":"ce4bhn92rcd13ifvqgrg","pricing_plan_id":"free"},{"bike_id":"318a1441-abd3-4590-a371-e4f822f2476f","system_id":"levelo_inurba_marseille","lat":43.275028,"lon":5.424534,"is_reserved":false,"is_disabled":false,"rental_uris":{"android":"levelo://app?vid=318a1441-abd3-4590-a371-e4f822f2476f","ios":"levelo://app?vid=318a1441-abd3-4590-a371-e4f822f2476f"},"vehicle_type_id":"4","last_reported":1702023001,"current_range_meters":28400,"station_id":"ce4bhn92rcd13ifvqgrg","pricing_plan_id":"free"},{"bike_id":"06acffe1-0a55-4d51-b6e5-02e54dc0be98","system_id":"levelo_inurba_marseille","lat":43.275028,"lon":5.424534,"is_reserved":false,"is_disabled":false,"rental_uris":{"android":"levelo://app?vid=06acffe1-0a55-4d51-b6e5-02e54dc0be98","ios":"levelo://app?vid=06acffe1-0a55-4d51-b6e5-02e54dc0be98"},"vehicle_type_id":"4","last_reported":1702023001,"current_range_meters":16800,"station_id":"ce4bhn92rcd13ifvqgrg","pricing_plan_id":"free"},{"bike_id":"b699497e-07ae-4ed8-bd1d-3df084685950","system_id":"levelo_inurba_marseille","lat":43.275028,"lon":5.424534,"is_reserved":false,"is_disabled":false,"rental_uris":{"android":"levelo://app?vid=b699497e-07ae-4ed8-bd1d-3df084685950","ios":"levelo://app?vid=b699497e-07ae-4ed8-bd1d-3df084685950"},"vehicle_type_id":"4","last_reported":1702023001,"current_range_meters":24800,"station_id":"ce4bhn92rcd13ifvqgrg","pricing_plan_id":"free"},{"bike_id":"23e57031-8a49-495f-998c-c70085d9630f","system_id":"levelo_inurba_marseille","lat":43.275028,"lon":5.424534,"is_reserved":false,"is_disabled":false,"rental_uris":{"android":"levelo://app?vid=23e57031-8a49-495f-998c-c70085d9630f","ios":"levelo://app?vid=23e57031-8a49-495f-998c-c70085d9630f"},"vehicle_type_id":"4","last_reported":1702023001,"current_range_meters":31200,"station_id":"ce4bhn92rcd13ifvqgrg","pricing_plan_id":"free"},{"bike_id":"7aca7c15-d411-49ba-911d-530a8d3babec","system_id":"levelo_inurba_marseille","lat":43.275028,"lon":5.424534,"is_reserved":false,"is_disabled":false,"rental_uris":{"android":"levelo://app?vid=7aca7c15-d411-49ba-911d-530a8d3babec","ios":"levelo://app?vid=7aca7c15-d411-49ba-911d-530a8d3babec"},"vehicle_type_id":"4","last_reported":1702023001,"current_range_meters":11600,"station_id":"ce4bhn92rcd13ifvqgrg","pricing_plan_id":"free"},{"bike_id":"bc3cd7ca-a814-4505-84f2-763c60cf3c8a","system_id":"levelo_inurba_marseille","lat":43.275028,"lon":5.424534,"is_reserved":false,"is_disabled":false,"rental_uris":{"android":"levelo://app?vid=bc3cd7ca-a814-4505-84f2-763c60cf3c8a","ios":"levelo://app?vid=bc3cd7ca-a814-4505-84f2-763c60cf3c8a"},"vehicle_type_id":"4","last_reported":1702023001,"current_range_meters":31600,"station_id":"ce4bhn92rcd13ifvqgrg","pricing_plan_id":"free"},{"bike_id":"e9cb17b6-6e3c-4d72-b475-e89d068dd3d0","system_id":"levelo_inurba_marseille","lat":43.275028,"lon":5.424534,"is_reserved":false,"is_disabled":false,"rental_uris":{"android":"levelo://app?vid=e9cb17b6-6e3c-4d72-b475-e89d068dd3d0","ios":"levelo://app?vid=e9cb17b6-6e3c-4d72-b475-e89d068dd3d0"},"vehicle_type_id":"4","last_reported":1702023001,"current_range_meters":28000,"station_id":"ce4bhn92rcd13ifvqgrg","pricing_plan_id":"free"},{"bike_id":"a031c3ff-6dea-4029-b24a-3333710bb2e1","system_id":"levelo_inurba_marseille","lat":43.255841,"lon":5.382261,"is_reserved":false,"is_disabled":false,"rental_uris":{"android":"levelo://app?vid=a031c3ff-6dea-4029-b24a-3333710bb2e1","ios":"levelo://app?vid=a031c3ff-6dea-4029-b24a-3333710bb2e1"},"vehicle_type_id":"4","last_reported":1702023001,"current_range_meters":21200,"station_id":"","pricing_plan_id":"free"},{"bike_id":"6c375ee1-709c-47a6-b877-b3e435d63266","system_id":"levelo_inurba_marseille","lat":43.25583,"lon":5.38231,"is_reserved":false,"is_disabled":false,"rental_uris":{"android":"levelo://app?vid=6c375ee1-709c-47a6-b877-b3e435d63266","ios":"levelo://app?vid=6c375ee1-709c-47a6-b877-b3e435d63266"},"vehicle_type_id":"4","last_reported":1702023001,"current_range_meters":23600,"station_id":"ce4bhih2rcd13ifvqfs0","pricing_plan_id":"free"},{"bike_id":"3ad59db9-ba6e-4237-879d-9ad671817685","system_id":"levelo_inurba_marseille","lat":43.258224,"lon":5.394369,"is_reserved":false,"is_disabled":false,"rental_uris":{"android":"levelo://app?vid=3ad59db9-ba6e-4237-879d-9ad671817685","ios":"levelo://app?vid=3ad59db9-ba6e-4237-879d-9ad671817685"},"vehicle_type_id":"4","last_reported":1702023001,"current_range_meters":26400,"station_id":"ce4bhip2rcd13ifvqft0","pricing_plan_id":"free"},{"bike_id":"d3f8d42e-7148-47c9-80b9-54e0739fd8b2","system_id":"levelo_inurba_marseille","lat":43.254947,"lon":5.376454,"is_reserved":false,"is_disabled":false,"rental_uris":{"android":"levelo://app?vid=d3f8d42e-7148-47c9-80b9-54e0739fd8b2","ios":"levelo://app?vid=d3f8d42e-7148-47c9-80b9-54e0739fd8b2"},"vehicle_type_id":"4","last_reported":1702023001,"current_range_meters":24800,"station_id":"ce4bhh12rcd13ifvqff0","pricing_plan_id":"free"},{"bike_id":"aac95f5b-0765-41d8-bea8-2ae80ae80c7b","system_id":"levelo_inurba_marseille","lat":43.270721,"lon":5.422764,"is_reserved":false,"is_disabled":false,"rental_uris":{"android":"levelo://app?vid=aac95f5b-0765-41d8-bea8-2ae80ae80c7b","ios":"levelo://app?vid=aac95f5b-0765-41d8-bea8-2ae80ae80c7b"},"vehicle_type_id":"4","last_reported":1702023001,"current_range_meters":3600,"station_id":"ce4bhk92rcd13ifvqgb0","pricing_plan_id":"free"},{"bike_id":"7b3c5568-a81d-4b3e-a545-3e6cf8403cc7","system_id":"levelo_inurba_marseille","lat":43.270721,"lon":5.422764,"is_reserved":false,"is_disabled":false,"rental_uris":{"android":"levelo://app?vid=7b3c5568-a81d-4b3e-a545-3e6cf8403cc7","ios":"levelo://app?vid=7b3c5568-a81d-4b3e-a545-3e6cf8403cc7"},"vehicle_type_id":"4","last_reported":1702023001,"current_range_meters":28400,"station_id":"ce4bhk92rcd13ifvqgb0","pricing_plan_id":"free"},{"bike_id":"86c273ec-8ba5-46e9-8021-4aa98debfb6d","system_id":"levelo_inurba_marseille","lat":43.258658,"lon":5.398935,"is_reserved":false,"is_disabled":false,"rental_uris":{"android":"levelo://app?vid=86c273ec-8ba5-46e9-8021-4aa98debfb6d","ios":"levelo://app?vid=86c273ec-8ba5-46e9-8021-4aa98debfb6d"},"vehicle_type_id":"4","last_reported":1702023001,"current_range_meters":28400,"station_id":"ce4bhl92rcd13ifvqghg","pricing_plan_id":"free"},{"bike_id":"6ff46a94-5053-46dc-a5ab-d6855b60d424","system_id":"levelo_inurba_marseille","lat":43.258658,"lon":5.398935,"is_reserved":false,"is_disabled":false,"rental_uris":{"android":"levelo://app?vid=6ff46a94-5053-46dc-a5ab-d6855b60d424","ios":"levelo://app?vid=6ff46a94-5053-46dc-a5ab-d6855b60d424"},"vehicle_type_id":"4","last_reported":1702023001,"current_range_meters":31200,"station_id":"ce4bhl92rcd13ifvqghg","pricing_plan_id":"free"},{"bike_id":"292c952d-e4e1-4c4c-a37e-be6cd513fd85","system_id":"levelo_inurba_marseille","lat":43.259009,"lon":5.40929,"is_reserved":false,"is_disabled":false,"rental_uris":{"android":"levelo://app?vid=292c952d-e4e1-4c4c-a37e-be6cd513fd85","ios":"levelo://app?vid=292c952d-e4e1-4c4c-a37e-be6cd513fd85"},"vehicle_type_id":"4","last_reported":1702023001,"current_range_meters":20800,"station_id":"ce4bhm92rcd13ifvqglg","pricing_plan_id":"free"},{"bike_id":"49901b6d-c05a-48dc-887d-c25c76bed379","system_id":"levelo_inurba_marseille","lat":43.259013,"lon":5.409301,"is_reserved":false,"is_disabled":false,"rental_uris":{"android":"levelo://app?vid=49901b6d-c05a-48dc-887d-c25c76bed379","ios":"levelo://app?vid=49901b6d-c05a-48dc-887d-c25c76bed379"},"vehicle_type_id":"4","last_reported":1702023001,"current_range_meters":0,"station_id":"ce4bhm92rcd13ifvqglg","pricing_plan_id":"free"},{"bike_id":"6a8ffc1a-4fb4-433b-b5b5-deb3d28e14ec","system_id":"levelo_inurba_marseille","lat":43.259314,"lon":5.40907,"is_reserved":false,"is_disabled":false,"rental_uris":{"android":"levelo://app?vid=6a8ffc1a-4fb4-433b-b5b5-deb3d28e14ec","ios":"levelo://app?vid=6a8ffc1a-4fb4-433b-b5b5-deb3d28e14ec"},"vehicle_type_id":"4","last_reported":1702023001,"current_range_meters":24000,"station_id":"ce4bhm92rcd13ifvqglg","pricing_plan_id":"free"},{"bike_id":"bb0e23c2-9456-41ae-bf78-a182b3707531","system_id":"levelo_inurba_marseille","lat":43.25929,"lon":5.40902,"is_reserved":false,"is_disabled":false,"rental_uris":{"android":"levelo://app?vid=bb0e23c2-9456-41ae-bf78-a182b3707531","ios":"levelo://app?vid=bb0e23c2-9456-41ae-bf78-a182b3707531"},"vehicle_type_id":"4","last_reported":1702023001,"current_range_meters":24000,"station_id":"ce4bhm92rcd13ifvqglg","pricing_plan_id":"free"},{"bike_id":"282047d9-53d4-40d7-a00e-dc16f8f5c42f","system_id":"levelo_inurba_marseille","lat":43.25933,"lon":5.40914,"is_reserved":false,"is_disabled":false,"rental_uris":{"android":"levelo://app?vid=282047d9-53d4-40d7-a00e-dc16f8f5c42f","ios":"levelo://app?vid=282047d9-53d4-40d7-a00e-dc16f8f5c42f"},"vehicle_type_id":"4","last_reported":1702023001,"current_range_meters":18800,"station_id":"ce4bhm92rcd13ifvqglg","pricing_plan_id":"free"},{"bike_id":"b2b9ef76-8b76-4c79-9c39-382fe40bf774","system_id":"levelo_inurba_marseille","lat":43.259013,"lon":5.409301,"is_reserved":false,"is_disabled":false,"rental_uris":{"android":"levelo://app?vid=b2b9ef76-8b76-4c79-9c39-382fe40bf774","ios":"levelo://app?vid=b2b9ef76-8b76-4c79-9c39-382fe40bf774"},"vehicle_type_id":"4","last_reported":1702023001,"current_range_meters":9600,"station_id":"ce4bhm92rcd13ifvqglg","pricing_plan_id":"free"},{"bike_id":"5e28afdb-366a-4ee2-bf4c-72dd44305a45","system_id":"levelo_inurba_marseille","lat":43.257079,"lon":5.411051,"is_reserved":false,"is_disabled":false,"rental_uris":{"android":"levelo://app?vid=5e28afdb-366a-4ee2-bf4c-72dd44305a45","ios":"levelo://app?vid=5e28afdb-366a-4ee2-bf4c-72dd44305a45"},"vehicle_type_id":"4","last_reported":1702023001,"current_range_meters":31200,"station_id":"ce4bhkp2rcd13ifvqgd0","pricing_plan_id":"free"},{"bike_id":"ea6f15d6-03ac-476d-a535-2e7d3b9eaeef","system_id":"levelo_inurba_marseille","lat":43.257079,"lon":5.411051,"is_reserved":false,"is_disabled":false,"rental_uris":{"android":"levelo://app?vid=ea6f15d6-03ac-476d-a535-2e7d3b9eaeef","ios":"levelo://app?vid=ea6f15d6-03ac-476d-a535-2e7d3b9eaeef"},"vehicle_type_id":"4","last_reported":1702023001,"current_range_meters":0,"station_id":"ce4bhkp2rcd13ifvqgd0","pricing_plan_id":"free"},{"bike_id":"8e5094a8-a989-4dfb-a034-04575d308c4b","system_id":"levelo_inurba_marseille","lat":43.250009,"lon":5.389195,"is_reserved":false,"is_disabled":false,"rental_uris":{"android":"levelo://app?vid=8e5094a8-a989-4dfb-a034-04575d308c4b","ios":"levelo://app?vid=8e5094a8-a989-4dfb-a034-04575d308c4b"},"vehicle_type_id":"4","last_reported":1702023001,"current_range_meters":400,"station_id":"ce4bhgp2rcd13ifvqfd0","pricing_plan_id":"free"},{"bike_id":"ddf2951b-2b04-424f-9ef1-6d8217c9e48c","system_id":"levelo_inurba_marseille","lat":43.250009,"lon":5.389195,"is_reserved":false,"is_disabled":false,"rental_uris":{"android":"levelo://app?vid=ddf2951b-2b04-424f-9ef1-6d8217c9e48c","ios":"levelo://app?vid=ddf2951b-2b04-424f-9ef1-6d8217c9e48c"},"vehicle_type_id":"4","last_reported":1702023001,"current_range_meters":31200,"station_id":"ce4bhgp2rcd13ifvqfd0","pricing_plan_id":"free"},{"bike_id":"5df955c1-69ce-44bd-b0a5-f2dfd66c5dee","system_id":"levelo_inurba_marseille","lat":43.250009,"lon":5.389195,"is_reserved":false,"is_disabled":false,"rental_uris":{"android":"levelo://app?vid=5df955c1-69ce-44bd-b0a5-f2dfd66c5dee","ios":"levelo://app?vid=5df955c1-69ce-44bd-b0a5-f2dfd66c5dee"},"vehicle_type_id":"4","last_reported":1702023001,"current_range_meters":13200,"station_id":"ce4bhgp2rcd13ifvqfd0","pricing_plan_id":"free"},{"bike_id":"1910481b-21fb-47f4-83ed-74524824e591","system_id":"levelo_inurba_marseille","lat":43.25102,"lon":5.403214,"is_reserved":false,"is_disabled":false,"rental_uris":{"android":"levelo://app?vid=1910481b-21fb-47f4-83ed-74524824e591","ios":"levelo://app?vid=1910481b-21fb-47f4-83ed-74524824e591"},"vehicle_type_id":"4","last_reported":1702023001,"current_range_meters":11600,"station_id":"ce4bhlh2rcd13ifvqgig","pricing_plan_id":"free"},{"bike_id":"55d4cda2-7880-44c8-8815-1b2f87dd305f","system_id":"levelo_inurba_marseille","lat":43.251087,"lon":5.403287,"is_reserved":false,"is_disabled":false,"rental_uris":{"android":"levelo://app?vid=55d4cda2-7880-44c8-8815-1b2f87dd305f","ios":"levelo://app?vid=55d4cda2-7880-44c8-8815-1b2f87dd305f"},"vehicle_type_id":"4","last_reported":1702023001,"current_range_meters":22000,"station_id":"ce4bhlh2rcd13ifvqgig","pricing_plan_id":"free"},{"bike_id":"e33b5033-9a3a-44d2-b7a2-0be2a23a1972","system_id":"levelo_inurba_marseille","lat":43.25109,"lon":5.4033,"is_reserved":false,"is_disabled":false,"rental_uris":{"android":"levelo://app?vid=e33b5033-9a3a-44d2-b7a2-0be2a23a1972","ios":"levelo://app?vid=e33b5033-9a3a-44d2-b7a2-0be2a23a1972"},"vehicle_type_id":"4","last_reported":1702023001,"current_range_meters":800,"station_id":"ce4bhlh2rcd13ifvqgig","pricing_plan_id":"free"},{"bike_id":"dc34a95e-6c55-4d91-8718-224a5f1981ce","system_id":"levelo_inurba_marseille","lat":43.24552,"lon":5.37331,"is_reserved":false,"is_disabled":false,"rental_uris":{"android":"levelo://app?vid=dc34a95e-6c55-4d91-8718-224a5f1981ce","ios":"levelo://app?vid=dc34a95e-6c55-4d91-8718-224a5f1981ce"},"vehicle_type_id":"4","last_reported":1702023001,"current_range_meters":0,"station_id":"","pricing_plan_id":"free"},{"bike_id":"2ee3d9c4-4972-4e95-9aee-470fd68e876e","system_id":"levelo_inurba_marseille","lat":43.245581,"lon":5.395069,"is_reserved":false,"is_disabled":false,"rental_uris":{"android":"levelo://app?vid=2ee3d9c4-4972-4e95-9aee-470fd68e876e","ios":"levelo://app?vid=2ee3d9c4-4972-4e95-9aee-470fd68e876e"},"vehicle_type_id":"4","last_reported":1702023001,"current_range_meters":16400,"station_id":"ce4bhlp2rcd13ifvqgjg","pricing_plan_id":"free"},{"bike_id":"4bf693db-7932-44cc-9615-5863854c4460","system_id":"levelo_inurba_marseille","lat":43.24076,"lon":5.37756,"is_reserved":false,"is_disabled":false,"rental_uris":{"android":"levelo://app?vid=4bf693db-7932-44cc-9615-5863854c4460","ios":"levelo://app?vid=4bf693db-7932-44cc-9615-5863854c4460"},"vehicle_type_id":"4","last_reported":1702023001,"current_range_meters":4000,"station_id":"ce4bhnp2rcd13ifvqgvg","pricing_plan_id":"free"},{"bike_id":"3c753a71-9242-42de-80b2-6f0f91f55563","system_id":"levelo_inurba_marseille","lat":43.240623,"lon":5.377642,"is_reserved":false,"is_disabled":false,"rental_uris":{"android":"levelo://app?vid=3c753a71-9242-42de-80b2-6f0f91f55563","ios":"levelo://app?vid=3c753a71-9242-42de-80b2-6f0f91f55563"},"vehicle_type_id":"4","last_reported":1702023001,"current_range_meters":24800,"station_id":"ce4bhnp2rcd13ifvqgvg","pricing_plan_id":"free"},{"bike_id":"1a74409a-ecd9-4bc6-b4cf-cfbd4a95e194","system_id":"levelo_inurba_marseille","lat":43.24074,"lon":5.37761,"is_reserved":false,"is_disabled":false,"rental_uris":{"android":"levelo://app?vid=1a74409a-ecd9-4bc6-b4cf-cfbd4a95e194","ios":"levelo://app?vid=1a74409a-ecd9-4bc6-b4cf-cfbd4a95e194"},"vehicle_type_id":"4","last_reported":1702023001,"current_range_meters":27200,"station_id":"ce4bhnp2rcd13ifvqgvg","pricing_plan_id":"free"},{"bike_id":"47fb0bc3-89be-4234-8f83-5af8524c286a","system_id":"levelo_inurba_marseille","lat":43.240623,"lon":5.377642,"is_reserved":false,"is_disabled":false,"rental_uris":{"android":"levelo://app?vid=47fb0bc3-89be-4234-8f83-5af8524c286a","ios":"levelo://app?vid=47fb0bc3-89be-4234-8f83-5af8524c286a"},"vehicle_type_id":"4","last_reported":1702023001,"current_range_meters":10400,"station_id":"ce4bhnp2rcd13ifvqgvg","pricing_plan_id":"free"},{"bike_id":"559e7d2b-9de6-44bb-b416-b4eb37b059b8","system_id":"levelo_inurba_marseille","lat":43.240623,"lon":5.377642,"is_reserved":false,"is_disabled":false,"rental_uris":{"android":"levelo://app?vid=559e7d2b-9de6-44bb-b416-b4eb37b059b8","ios":"levelo://app?vid=559e7d2b-9de6-44bb-b416-b4eb37b059b8"},"vehicle_type_id":"4","last_reported":1702023001,"current_range_meters":9600,"station_id":"ce4bhnp2rcd13ifvqgvg","pricing_plan_id":"free"},{"bike_id":"19de1d90-0ef7-4697-bd3a-3e98bd2bf2e7","system_id":"levelo_inurba_marseille","lat":43.240623,"lon":5.377642,"is_reserved":false,"is_disabled":false,"rental_uris":{"android":"levelo://app?vid=19de1d90-0ef7-4697-bd3a-3e98bd2bf2e7","ios":"levelo://app?vid=19de1d90-0ef7-4697-bd3a-3e98bd2bf2e7"},"vehicle_type_id":"4","last_reported":1702023001,"current_range_meters":23200,"station_id":"ce4bhnp2rcd13ifvqgvg","pricing_plan_id":"free"},{"bike_id":"1736197e-d189-44ae-962b-c17bbaad9b62","system_id":"levelo_inurba_marseille","lat":43.24071,"lon":5.37768,"is_reserved":false,"is_disabled":false,"rental_uris":{"android":"levelo://app?vid=1736197e-d189-44ae-962b-c17bbaad9b62","ios":"levelo://app?vid=1736197e-d189-44ae-962b-c17bbaad9b62"},"vehicle_type_id":"4","last_reported":1702023001,"current_range_meters":14800,"station_id":"ce4bhnp2rcd13ifvqgvg","pricing_plan_id":"free"},{"bike_id":"2dafbae8-0bbc-4e71-af1a-94cb2906751e","system_id":"levelo_inurba_marseille","lat":43.240623,"lon":5.377642,"is_reserved":false,"is_disabled":false,"rental_uris":{"android":"levelo://app?vid=2dafbae8-0bbc-4e71-af1a-94cb2906751e","ios":"levelo://app?vid=2dafbae8-0bbc-4e71-af1a-94cb2906751e"},"vehicle_type_id":"4","last_reported":1702023001,"current_range_meters":27200,"station_id":"ce4bhnp2rcd13ifvqgvg","pricing_plan_id":"free"},{"bike_id":"d3f11772-4714-412b-8bd4-43d49e060b1a","system_id":"levelo_inurba_marseille","lat":43.240623,"lon":5.377642,"is_reserved":false,"is_disabled":false,"rental_uris":{"android":"levelo://app?vid=d3f11772-4714-412b-8bd4-43d49e060b1a","ios":"levelo://app?vid=d3f11772-4714-412b-8bd4-43d49e060b1a"},"vehicle_type_id":"4","last_reported":1702023001,"current_range_meters":31200,"station_id":"ce4bhnp2rcd13ifvqgvg","pricing_plan_id":"free"},{"bike_id":"52915b69-2b44-4a37-aee0-0cbdda8a56e8","system_id":"levelo_inurba_marseille","lat":43.240623,"lon":5.377642,"is_reserved":false,"is_disabled":false,"rental_uris":{"android":"levelo://app?vid=52915b69-2b44-4a37-aee0-0cbdda8a56e8","ios":"levelo://app?vid=52915b69-2b44-4a37-aee0-0cbdda8a56e8"},"vehicle_type_id":"4","last_reported":1702023001,"current_range_meters":24000,"station_id":"ce4bhnp2rcd13ifvqgvg","pricing_plan_id":"free"},{"bike_id":"1692a47e-c817-462d-93d2-64b93ec2a3db","system_id":"levelo_inurba_marseille","lat":43.240623,"lon":5.377642,"is_reserved":false,"is_disabled":false,"rental_uris":{"android":"levelo://app?vid=1692a47e-c817-462d-93d2-64b93ec2a3db","ios":"levelo://app?vid=1692a47e-c817-462d-93d2-64b93ec2a3db"},"vehicle_type_id":"4","last_reported":1702023001,"current_range_meters":2400,"station_id":"ce4bhnp2rcd13ifvqgvg","pricing_plan_id":"free"},{"bike_id":"6b90d5d5-d799-461f-bc09-d79d68152091","system_id":"levelo_inurba_marseille","lat":43.240623,"lon":5.377642,"is_reserved":false,"is_disabled":false,"rental_uris":{"android":"levelo://app?vid=6b90d5d5-d799-461f-bc09-d79d68152091","ios":"levelo://app?vid=6b90d5d5-d799-461f-bc09-d79d68152091"},"vehicle_type_id":"4","last_reported":1702023001,"current_range_meters":12400,"station_id":"ce4bhnp2rcd13ifvqgvg","pricing_plan_id":"free"},{"bike_id":"6756da97-db2c-4337-aa21-556950095f65","system_id":"levelo_inurba_marseille","lat":43.24178,"lon":5.3973,"is_reserved":false,"is_disabled":false,"rental_uris":{"android":"levelo://app?vid=6756da97-db2c-4337-aa21-556950095f65","ios":"levelo://app?vid=6756da97-db2c-4337-aa21-556950095f65"},"vehicle_type_id":"4","last_reported":1702023001,"current_range_meters":5200,"station_id":"ce4bhn12rcd13ifvqgpg","pricing_plan_id":"free"},{"bike_id":"febb7c6a-3a82-4621-b837-c53042603cf4","system_id":"levelo_inurba_marseille","lat":43.231919,"lon":5.355532,"is_reserved":false,"is_disabled":false,"rental_uris":{"android":"levelo://app?vid=febb7c6a-3a82-4621-b837-c53042603cf4","ios":"levelo://app?vid=febb7c6a-3a82-4621-b837-c53042603cf4"},"vehicle_type_id":"4","last_reported":1702023001,"current_range_meters":26400,"station_id":"ce4bhu92rcd13ifvqi70","pricing_plan_id":"free"},{"bike_id":"6c4620c0-0d4d-493f-9950-4fd3c4457696","system_id":"levelo_inurba_marseille","lat":43.231794,"lon":5.400052,"is_reserved":false,"is_disabled":false,"rental_uris":{"android":"levelo://app?vid=6c4620c0-0d4d-493f-9950-4fd3c4457696","ios":"levelo://app?vid=6c4620c0-0d4d-493f-9950-4fd3c4457696"},"vehicle_type_id":"4","last_reported":1702023001,"current_range_meters":31200,"station_id":"ce4bhn12rcd13ifvqgqg","pricing_plan_id":"free"},{"bike_id":"be845917-f52e-4a9f-83ff-909546a09332","system_id":"levelo_inurba_marseille","lat":43.231794,"lon":5.400052,"is_reserved":false,"is_disabled":false,"rental_uris":{"android":"levelo://app?vid=be845917-f52e-4a9f-83ff-909546a09332","ios":"levelo://app?vid=be845917-f52e-4a9f-83ff-909546a09332"},"vehicle_type_id":"4","last_reported":1702023001,"current_range_meters":31200,"station_id":"ce4bhn12rcd13ifvqgqg","pricing_plan_id":"free"},{"bike_id":"10da1a3b-e2ae-4935-9987-5ceaccc8f64a","system_id":"levelo_inurba_marseille","lat":43.231794,"lon":5.400052,"is_reserved":false,"is_disabled":false,"rental_uris":{"android":"levelo://app?vid=10da1a3b-e2ae-4935-9987-5ceaccc8f64a","ios":"levelo://app?vid=10da1a3b-e2ae-4935-9987-5ceaccc8f64a"},"vehicle_type_id":"4","last_reported":1702023001,"current_range_meters":800,"station_id":"ce4bhn12rcd13ifvqgqg","pricing_plan_id":"free"},{"bike_id":"6c3e3c9e-4b18-4000-ba39-0358b7d7d901","system_id":"levelo_inurba_marseille","lat":43.231562,"lon":5.436933,"is_reserved":false,"is_disabled":false,"rental_uris":{"android":"levelo://app?vid=6c3e3c9e-4b18-4000-ba39-0358b7d7d901","ios":"levelo://app?vid=6c3e3c9e-4b18-4000-ba39-0358b7d7d901"},"vehicle_type_id":"4","last_reported":1702023001,"current_range_meters":25600,"station_id":"ce4bhmp2rcd13ifvqgog","pricing_plan_id":"free"},{"bike_id":"52185dc8-f8c9-4df9-8092-bb2437fd062c","system_id":"levelo_inurba_marseille","lat":43.231562,"lon":5.436933,"is_reserved":false,"is_disabled":false,"rental_uris":{"android":"levelo://app?vid=52185dc8-f8c9-4df9-8092-bb2437fd062c","ios":"levelo://app?vid=52185dc8-f8c9-4df9-8092-bb2437fd062c"},"vehicle_type_id":"4","last_reported":1702023001,"current_range_meters":29200,"station_id":"ce4bhmp2rcd13ifvqgog","pricing_plan_id":"free"}]}}