{"last_updated":1683475653,"ttl":30,"version":"2.2","data":{"bikes":[{"bike_id":"037688a0-82d3-4ab5-b238-5df9a1a5abc4","system_id":"levelo_inurba_marseille","lat":43.31341,"lon":5.367098,"is_reserved":false,"is_disabled":false,"rental_uris":{"android":"levelo://app?vid=037688a0-82d3-4ab5-b238-5df9a1a5abc4","ios":"levelo://app?vid=037688a0-82d3-4ab5-b238-5df9a1a5abc4"},"vehicle_type_id":"4","last_reported":1683475654,"current_range_meters":13200,"station_id":"ce4bgr92rcd13ifvqc6g","pricing_plan_id":"free"},{"bike_id":"fe81e857-6468-403e-9277-ac2ccbd021f2","system_id":"levelo_inurba_marseille","lat":43.312239,"lon":5.368562,"is_reserved":false,"is_disabled":false,"rental_uris":{"android":"levelo://app?vid=fe81e857-6468-403e-9277-ac2ccbd021f2","ios":"levelo://app?vid=fe81e857-6468-403e-9277-ac2ccbd021f2"},"vehicle_type_id":"4","last_reported":1683475654,"current_range_meters":15600,"station_id":"ce4bgl92rcd13ifvqbq0","pricing_plan_id":"free"},{"bike_id":"aafd2f17-406d-4bf7-862e-0b85bbacec6a","system_id":"levelo_inurba_marseille","lat":43.312239,"lon":5.368562,"is_reserved":false,"is_disabled":false,"rental_uris":{"android":"levelo://app?vid=aafd2f17-406d-4bf7-862e-0b85bbacec6a","ios":"levelo://app?vid=aafd2f17-406d-4bf7-862e-0b85bbacec6a"},"vehicle_type_id":"4","last_reported":1683475654,"current_range_meters":400,"station_id":"ce4bgl92rcd13ifvqbq0","pricing_plan_id":"free"},{"bike_id":"afb368f3-3499-41f8-ab27-62adf6be6ba9","system_id":"levelo_inurba_marseille","lat":43.312239,"lon":5.368562,"is_reserved":false,"is_disabled":false,"rental_uris":{"android":"levelo://app?vid=afb368f3-3499-41f8-ab27-62adf6be6ba9","ios":"levelo://app?vid=afb368f3-3499-41f8-ab27-62adf6be6ba9"},"vehicle_type_id":"4","last_reported":1683475654,"current_range_meters":21200,"station_id":"ce4bgl92rcd13ifvqbq0","pricing_plan_id":"free"},{"bike_id":"2e6ed940-f02a-45fa-a5f6-fa599f5bb460","system_id":"levelo_inurba_marseille","lat":43.314811,"lon":5.373103,"is_reserved":false,"is_disabled":false,"rental_uris":{"android":"levelo://app?vid=2e6ed940-f02a-45fa-a5f6-fa599f5bb460","ios":"levelo://app?vid=2e6ed940-f02a-45fa-a5f6-fa599f5bb460"},"vehicle_type_id":"4","last_reported":1683475654,"current_range_meters":5200,"station_id":"ce4bgt12rcd13ifvqcd0","pricing_plan_id":"free"},{"bike_id":"c1dc7104-dc78-4fb6-a701-fddcb86e9549","system_id":"levelo_inurba_marseille","lat":43.314811,"lon":5.373103,"is_reserved":false,"is_disabled":false,"rental_uris":{"android":"levelo://app?vid=c1dc7104-dc78-4fb6-a701-fddcb86e9549","ios":"levelo://app?vid=c1dc7104-dc78-4fb6-a701-fddcb86e9549"},"vehicle_type_id":"4","last_reported":1683475654,"current_range_meters":14400,"station_id":"ce4bgt12rcd13ifvqcd0","pricing_plan_id":"free"},{"bike_id":"b26865df-cfb3-4717-b6d2-34de1182e49d","system_id":"levelo_inurba_marseille","lat":43.31499,"lon":5.37311,"is_reserved":false,"is_disabled":false,"rental_uris":{"android":"levelo://app?vid=b26865df-cfb3-4717-b6d2-34de1182e49d","ios":"levelo://app?vid=b26865df-cfb3-4717-b6d2-34de1182e49d"},"vehicle_type_id":"4","last_reported":1683475654,"current_range_meters":0,"station_id":"ce4bgt12rcd13ifvqcd0","pricing_plan_id":"free"},{"bike_id":"6aa70344-77d6-4f5d-afa4-7ed704a0eff3","system_id":"levelo_inurba_marseille","lat":43.30916,"lon":5.37207,"is_reserved":false,"is_disabled":false,"rental_uris":{"android":"levelo://app?vid=6aa70344-77d6-4f5d-afa4-7ed704a0eff3","ios":"levelo://app?vid=6aa70344-77d6-4f5d-afa4-7ed704a0eff3"},"vehicle_type_id":"4","last_reported":1683475654,"current_range_meters":27600,"station_id":"","pricing_plan_id":"free"},{"bike_id":"aeca9508-fd3c-42d2-a9cb-fa0cd7ae324c","system_id":"levelo_inurba_marseille","lat":43.30907,"lon":5.37435,"is_reserved":false,"is_disabled":false,"rental_uris":{"android":"levelo://app?vid=aeca9508-fd3c-42d2-a9cb-fa0cd7ae324c","ios":"levelo://app?vid=aeca9508-fd3c-42d2-a9cb-fa0cd7ae324c"},"vehicle_type_id":"4","last_reported":1683475654,"current_range_meters":24800,"station_id":"","pricing_plan_id":"free"},{"bike_id":"caea2489-5a5d-4f00-8e78-8c319f8ed68e","system_id":"levelo_inurba_marseille","lat":43.3057,"lon":5.36553,"is_reserved":false,"is_disabled":false,"rental_uris":{"android":"levelo://app?vid=caea2489-5a5d-4f00-8e78-8c319f8ed68e","ios":"levelo://app?vid=caea2489-5a5d-4f00-8e78-8c319f8ed68e"},"vehicle_type_id":"4","last_reported":1683475654,"current_range_meters":1600,"station_id":"","pricing_plan_id":"free"},{"bike_id":"e5b8b6c0-a498-4b2f-9533-591f412b9cbb","system_id":"levelo_inurba_marseille","lat":43.305714,"lon":5.365633,"is_reserved":false,"is_disabled":false,"rental_uris":{"android":"levelo://app?vid=e5b8b6c0-a498-4b2f-9533-591f412b9cbb","ios":"levelo://app?vid=e5b8b6c0-a498-4b2f-9533-591f412b9cbb"},"vehicle_type_id":"4","last_reported":1683475654,"current_range_meters":800,"station_id":"ce4bgs12rcd13ifvqcag","pricing_plan_id":"free"},{"bike_id":"92bb22a8-1114-4e04-9d71-5171dae5bb9d","system_id":"levelo_inurba_marseille","lat":43.305714,"lon":5.365633,"is_reserved":false,"is_disabled":false,"rental_uris":{"android":"levelo://app?vid=92bb22a8-1114-4e04-9d71-5171dae5bb9d","ios":"levelo://app?vid=92bb22a8-1114-4e04-9d71-5171dae5bb9d"},"vehicle_type_id":"4","last_reported":1683475654,"current_range_meters":9600,"station_id":"ce4bgs12rcd13ifvqcag","pricing_plan_id":"free"},{"bike_id":"a4df537d-67e4-41ec-8683-d2405956fdfc","system_id":"levelo_inurba_marseille","lat":43.31116,"lon":5.37782,"is_reserved":false,"is_disabled":false,"rental_uris":{"android":"levelo://app?vid=a4df537d-67e4-41ec-8683-d2405956fdfc","ios":"levelo://app?vid=a4df537d-67e4-41ec-8683-d2405956fdfc"},"vehicle_type_id":"4","last_reported":1683475654,"current_range_meters":6800,"station_id":"ce4bgt92rcd13ifvqcg0","pricing_plan_id":"free"},{"bike_id":"d6ebe701-7b76-4745-be6b-ae839b6e3533","system_id":"levelo_inurba_marseille","lat":43.317075,"lon":5.377367,"is_reserved":false,"is_disabled":false,"rental_uris":{"android":"levelo://app?vid=d6ebe701-7b76-4745-be6b-ae839b6e3533","ios":"levelo://app?vid=d6ebe701-7b76-4745-be6b-ae839b6e3533"},"vehicle_type_id":"4","last_reported":1683475654,"current_range_meters":2000,"station_id":"ce4bgth2rcd13ifvqch0","pricing_plan_id":"free"},{"bike_id":"8fe93a71-3044-4672-9c31-ed30f8faffb3","system_id":"levelo_inurba_marseille","lat":43.317075,"lon":5.377367,"is_reserved":false,"is_disabled":false,"rental_uris":{"android":"levelo://app?vid=8fe93a71-3044-4672-9c31-ed30f8faffb3","ios":"levelo://app?vid=8fe93a71-3044-4672-9c31-ed30f8faffb3"},"vehicle_type_id":"4","last_reported":1683475654,"current_range_meters":31200,"station_id":"ce4bgth2rcd13ifvqch0","pricing_plan_id":"free"},{"bike_id":"b610e678-ff4e-4a12-8069-94345bdb770a","system_id":"levelo_inurba_marseille","lat":43.317075,"lon":5.377367,"is_reserved":false,"is_disabled":false,"rental_uris":{"android":"levelo://app?vid=b610e678-ff4e-4a12-8069-94345bdb770a","ios":"levelo://app?vid=b610e678-ff4e-4a12-8069-94345bdb770a"},"vehicle_type_id":"4","last_reported":1683475654,"current_range_meters":24000,"station_id":"ce4bgth2rcd13ifvqch0","pricing_plan_id":"free"},{"bike_id":"243d58c6-677a-4ef5-ac10-1ca5621449fc","system_id":"levelo_inurba_marseille","lat":43.30316,"lon":5.36453,"is_reserved":false,"is_disabled":false,"rental_uris":{"android":"levelo://app?vid=243d58c6-677a-4ef5-ac10-1ca5621449fc","ios":"levelo://app?vid=243d58c6-677a-4ef5-ac10-1ca5621449fc"},"vehicle_type_id":"4","last_reported":1683475654,"current_range_meters":14000,"station_id":"","pricing_plan_id":"free"},{"bike_id":"035a2b0a-a8a2-4479-8d2e-5d9516213b51","system_id":"levelo_inurba_marseille","lat":43.31602,"lon":5.38188,"is_reserved":false,"is_disabled":false,"rental_uris":{"android":"levelo://app?vid=035a2b0a-a8a2-4479-8d2e-5d9516213b51","ios":"levelo://app?vid=035a2b0a-a8a2-4479-8d2e-5d9516213b51"},"vehicle_type_id":"4","last_reported":1683475654,"current_range_meters":9600,"station_id":"","pricing_plan_id":"free"},{"bike_id":"f30750e3-4072-4344-86a9-1ab2d265273e","system_id":"levelo_inurba_marseille","lat":43.308012,"lon":5.381511,"is_reserved":false,"is_disabled":false,"rental_uris":{"android":"levelo://app?vid=f30750e3-4072-4344-86a9-1ab2d265273e","ios":"levelo://app?vid=f30750e3-4072-4344-86a9-1ab2d265273e"},"vehicle_type_id":"4","last_reported":1683475654,"current_range_meters":16400,"station_id":"ce4bgt12rcd13ifvqce0","pricing_plan_id":"free"},{"bike_id":"dcf47771-1e20-4aa8-9564-c2946d0ea254","system_id":"levelo_inurba_marseille","lat":43.304606,"lon":5.379026,"is_reserved":false,"is_disabled":false,"rental_uris":{"android":"levelo://app?vid=dcf47771-1e20-4aa8-9564-c2946d0ea254","ios":"levelo://app?vid=dcf47771-1e20-4aa8-9564-c2946d0ea254"},"vehicle_type_id":"4","last_reported":1683475654,"current_range_meters":11600,"station_id":"ce4bgup2rcd13ifvqcn0","pricing_plan_id":"free"},{"bike_id":"4b8c6de4-29b7-42e0-b03f-06d2e02b8825","system_id":"levelo_inurba_marseille","lat":43.30143,"lon":5.37413,"is_reserved":false,"is_disabled":false,"rental_uris":{"android":"levelo://app?vid=4b8c6de4-29b7-42e0-b03f-06d2e02b8825","ios":"levelo://app?vid=4b8c6de4-29b7-42e0-b03f-06d2e02b8825"},"vehicle_type_id":"4","last_reported":1683475654,"current_range_meters":12000,"station_id":"ce4bgs92rcd13ifvqcc0","pricing_plan_id":"free"},{"bike_id":"d7bf14f4-dbf3-4c4e-99f9-b62e9ae98b8e","system_id":"levelo_inurba_marseille","lat":43.31352,"lon":5.38519,"is_reserved":false,"is_disabled":false,"rental_uris":{"android":"levelo://app?vid=d7bf14f4-dbf3-4c4e-99f9-b62e9ae98b8e","ios":"levelo://app?vid=d7bf14f4-dbf3-4c4e-99f9-b62e9ae98b8e"},"vehicle_type_id":"4","last_reported":1683475654,"current_range_meters":20800,"station_id":"","pricing_plan_id":"free"},{"bike_id":"8950e0af-f629-402b-8fbc-a2757bd6d4f8","system_id":"levelo_inurba_marseille","lat":43.311722,"lon":5.387247,"is_reserved":false,"is_disabled":false,"rental_uris":{"android":"levelo://app?vid=8950e0af-f629-402b-8fbc-a2757bd6d4f8","ios":"levelo://app?vid=8950e0af-f629-402b-8fbc-a2757bd6d4f8"},"vehicle_type_id":"4","last_reported":1683475654,"current_range_meters":7600,"station_id":"ce4bgv12rcd13ifvqcp0","pricing_plan_id":"free"},{"bike_id":"45b65e32-cab2-41dc-b0a6-c2bb7a183037","system_id":"levelo_inurba_marseille","lat":43.311722,"lon":5.387247,"is_reserved":false,"is_disabled":false,"rental_uris":{"android":"levelo://app?vid=45b65e32-cab2-41dc-b0a6-c2bb7a183037","ios":"levelo://app?vid=45b65e32-cab2-41dc-b0a6-c2bb7a183037"},"vehicle_type_id":"4","last_reported":1683475654,"current_range_meters":27200,"station_id":"ce4bgv12rcd13ifvqcp0","pricing_plan_id":"free"},{"bike_id":"aafcc005-5e38-4c52-a10d-6d0f89f0012b","system_id":"levelo_inurba_marseille","lat":43.302008,"lon":5.394694,"is_reserved":false,"is_disabled":false,"rental_uris":{"android":"levelo://app?vid=aafcc005-5e38-4c52-a10d-6d0f89f0012b","ios":"levelo://app?vid=aafcc005-5e38-4c52-a10d-6d0f89f0012b"},"vehicle_type_id":"4","last_reported":1683475654,"current_range_meters":0,"station_id":"ce4bh0p2rcd13ifvqd70","pricing_plan_id":"free"},{"bike_id":"c3153443-7dc7-4981-b147-7a3e7d04d6ba","system_id":"levelo_inurba_marseille","lat":43.29573,"lon":5.367355,"is_reserved":false,"is_disabled":false,"rental_uris":{"android":"levelo://app?vid=c3153443-7dc7-4981-b147-7a3e7d04d6ba","ios":"levelo://app?vid=c3153443-7dc7-4981-b147-7a3e7d04d6ba"},"vehicle_type_id":"4","last_reported":1683475654,"current_range_meters":18000,"station_id":"ce4bgph2rcd13ifvqc2g","pricing_plan_id":"free"},{"bike_id":"bd41a99e-d20e-44d0-a2ff-a23327d2bd9b","system_id":"levelo_inurba_marseille","lat":43.29624,"lon":5.37168,"is_reserved":false,"is_disabled":false,"rental_uris":{"android":"levelo://app?vid=bd41a99e-d20e-44d0-a2ff-a23327d2bd9b","ios":"levelo://app?vid=bd41a99e-d20e-44d0-a2ff-a23327d2bd9b"},"vehicle_type_id":"4","last_reported":1683475654,"current_range_meters":12400,"station_id":"","pricing_plan_id":"free"},{"bike_id":"050cb138-9827-45e0-af7d-2f42995e08c6","system_id":"levelo_inurba_marseille","lat":43.296921,"lon":5.376579,"is_reserved":false,"is_disabled":false,"rental_uris":{"android":"levelo://app?vid=050cb138-9827-45e0-af7d-2f42995e08c6","ios":"levelo://app?vid=050cb138-9827-45e0-af7d-2f42995e08c6"},"vehicle_type_id":"4","last_reported":1683475654,"current_range_meters":0,"station_id":"ce4bgkh2rcd13ifvqbl0","pricing_plan_id":"free"},{"bike_id":"f0ff0f10-51c2-4c9e-82c7-911451df3103","system_id":"levelo_inurba_marseille","lat":43.299028,"lon":5.381509,"is_reserved":false,"is_disabled":false,"rental_uris":{"android":"levelo://app?vid=f0ff0f10-51c2-4c9e-82c7-911451df3103","ios":"levelo://app?vid=f0ff0f10-51c2-4c9e-82c7-911451df3103"},"vehicle_type_id":"4","last_reported":1683475654,"current_range_meters":6000,"station_id":"ce4bgj12rcd13ifvqbc0","pricing_plan_id":"free"},{"bike_id":"0aa121fb-7f7f-44a3-ba47-8875d8a8d016","system_id":"levelo_inurba_marseille","lat":43.309589,"lon":5.390258,"is_reserved":false,"is_disabled":false,"rental_uris":{"android":"levelo://app?vid=0aa121fb-7f7f-44a3-ba47-8875d8a8d016","ios":"levelo://app?vid=0aa121fb-7f7f-44a3-ba47-8875d8a8d016"},"vehicle_type_id":"4","last_reported":1683475654,"current_range_meters":27200,"station_id":"ce4bgup2rcd13ifvqco0","pricing_plan_id":"free"},{"bike_id":"b9672ae2-9ec2-4c72-8813-ae22dbd1e0d7","system_id":"levelo_inurba_marseille","lat":43.309589,"lon":5.390258,"is_reserved":false,"is_disabled":false,"rental_uris":{"android":"levelo://app?vid=b9672ae2-9ec2-4c72-8813-ae22dbd1e0d7","ios":"levelo://app?vid=b9672ae2-9ec2-4c72-8813-ae22dbd1e0d7"},"vehicle_type_id":"4","last_reported":1683475654,"current_range_meters":23600,"station_id":"ce4bgup2rcd13ifvqco0","pricing_plan_id":"free"},{"bike_id":"d3e495e3-ae12-4c3d-bd88-31682144c563","system_id":"levelo_inurba_marseille","lat":43.317557,"lon":5.390173,"is_reserved":false,"is_disabled":false,"rental_uris":{"android":"levelo://app?vid=d3e495e3-ae12-4c3d-bd88-31682144c563","ios":"levelo://app?vid=d3e495e3-ae12-4c3d-bd88-31682144c563"},"vehicle_type_id":"4","last_reported":1683475654,"current_range_meters":30400,"station_id":"ce4bhqp2rcd13ifvqhng","pricing_plan_id":"free"},{"bike_id":"5e26388f-afcc-4ebc-9b1c-d20adac7f39a","system_id":"levelo_inurba_marseille","lat":43.317557,"lon":5.390173,"is_reserved":false,"is_disabled":false,"rental_uris":{"android":"levelo://app?vid=5e26388f-afcc-4ebc-9b1c-d20adac7f39a","ios":"levelo://app?vid=5e26388f-afcc-4ebc-9b1c-d20adac7f39a"},"vehicle_type_id":"4","last_reported":1683475654,"current_range_meters":29200,"station_id":"ce4bhqp2rcd13ifvqhng","pricing_plan_id":"free"},{"bike_id":"f08733ad-a319-4372-a7a6-c6249a61033f","system_id":"levelo_inurba_marseille","lat":43.317557,"lon":5.390173,"is_reserved":false,"is_disabled":false,"rental_uris":{"android":"levelo://app?vid=f08733ad-a319-4372-a7a6-c6249a61033f","ios":"levelo://app?vid=f08733ad-a319-4372-a7a6-c6249a61033f"},"vehicle_type_id":"4","last_reported":1683475654,"current_range_meters":29600,"station_id":"ce4bhqp2rcd13ifvqhng","pricing_plan_id":"free"},{"bike_id":"165cf4ec-ee3c-4a5c-929b-636fc1f79c2d","system_id":"levelo_inurba_marseille","lat":43.317557,"lon":5.390173,"is_reserved":false,"is_disabled":false,"rental_uris":{"android":"levelo://app?vid=165cf4ec-ee3c-4a5c-929b-636fc1f79c2d","ios":"levelo://app?vid=165cf4ec-ee3c-4a5c-929b-636fc1f79c2d"},"vehicle_type_id":"4","last_reported":1683475654,"current_range_meters":29600,"station_id":"ce4bhqp2rcd13ifvqhng","pricing_plan_id":"free"},{"bike_id":"52646a0d-3faf-4c05-85f5-f4b68c4c23b8","system_id":"levelo_inurba_marseille","lat":43.296277,"lon":5.377108,"is_reserved":false,"is_disabled":false,"rental_uris":{"android":"levelo://app?vid=52646a0d-3faf-4c05-85f5-f4b68c4c23b8","ios":"levelo://app?vid=52646a0d-3faf-4c05-85f5-f4b68c4c23b8"},"vehicle_type_id":"4","last_reported":1683475654,"current_range_meters":18400,"station_id":"ce4bgi92rcd13ifvqb90","pricing_plan_id":"free"},{"bike_id":"e72131dc-e77b-40db-9213-df16a5ef6a1e","system_id":"levelo_inurba_marseille","lat":43.29967,"lon":5.38493,"is_reserved":false,"is_disabled":false,"rental_uris":{"android":"levelo://app?vid=e72131dc-e77b-40db-9213-df16a5ef6a1e","ios":"levelo://app?vid=e72131dc-e77b-40db-9213-df16a5ef6a1e"},"vehicle_type_id":"4","last_reported":1683475654,"current_range_meters":0,"station_id":"ce4bgj92rcd13ifvqbd0","pricing_plan_id":"free"},{"bike_id":"57f4f0f1-4ec0-423d-a889-ffc8d71a7ab8","system_id":"levelo_inurba_marseille","lat":43.29642,"lon":5.37956,"is_reserved":false,"is_disabled":false,"rental_uris":{"android":"levelo://app?vid=57f4f0f1-4ec0-423d-a889-ffc8d71a7ab8","ios":"levelo://app?vid=57f4f0f1-4ec0-423d-a889-ffc8d71a7ab8"},"vehicle_type_id":"4","last_reported":1683475654,"current_range_meters":17200,"station_id":"","pricing_plan_id":"free"},{"bike_id":"f0dcfd84-4222-444a-b26d-9f99a892695b","system_id":"levelo_inurba_marseille","lat":43.31456,"lon":5.39267,"is_reserved":false,"is_disabled":false,"rental_uris":{"android":"levelo://app?vid=f0dcfd84-4222-444a-b26d-9f99a892695b","ios":"levelo://app?vid=f0dcfd84-4222-444a-b26d-9f99a892695b"},"vehicle_type_id":"4","last_reported":1683475654,"current_range_meters":2000,"station_id":"","pricing_plan_id":"free"},{"bike_id":"90e6cf9a-2d7c-49ff-bffb-cc442c6b75d4","system_id":"levelo_inurba_marseille","lat":43.29602,"lon":5.381084,"is_reserved":false,"is_disabled":false,"rental_uris":{"android":"levelo://app?vid=90e6cf9a-2d7c-49ff-bffb-cc442c6b75d4","ios":"levelo://app?vid=90e6cf9a-2d7c-49ff-bffb-cc442c6b75d4"},"vehicle_type_id":"4","last_reported":1683475654,"current_range_meters":23200,"station_id":"ce4bgl12rcd13ifvqbo0","pricing_plan_id":"free"},{"bike_id":"b65ddff9-382a-4df7-861a-1747ec4c51d7","system_id":"levelo_inurba_marseille","lat":43.30216,"lon":5.38987,"is_reserved":false,"is_disabled":false,"rental_uris":{"android":"levelo://app?vid=b65ddff9-382a-4df7-861a-1747ec4c51d7","ios":"levelo://app?vid=b65ddff9-382a-4df7-861a-1747ec4c51d7"},"vehicle_type_id":"4","last_reported":1683475654,"current_range_meters":25600,"station_id":"","pricing_plan_id":"free"},{"bike_id":"f0cdcd6f-afa9-48dc-af04-7ae6c287fb2f","system_id":"levelo_inurba_marseille","lat":43.292749,"lon":5.368402,"is_reserved":false,"is_disabled":false,"rental_uris":{"android":"levelo://app?vid=f0cdcd6f-afa9-48dc-af04-7ae6c287fb2f","ios":"levelo://app?vid=f0cdcd6f-afa9-48dc-af04-7ae6c287fb2f"},"vehicle_type_id":"4","last_reported":1683475654,"current_range_meters":0,"station_id":"ce4bhbp2rcd13ifvqesg","pricing_plan_id":"free"},{"bike_id":"9f986c2e-7c1c-4487-86a5-d4c9b8aee1e4","system_id":"levelo_inurba_marseille","lat":43.293009,"lon":5.374584,"is_reserved":false,"is_disabled":false,"rental_uris":{"android":"levelo://app?vid=9f986c2e-7c1c-4487-86a5-d4c9b8aee1e4","ios":"levelo://app?vid=9f986c2e-7c1c-4487-86a5-d4c9b8aee1e4"},"vehicle_type_id":"4","last_reported":1683475654,"current_range_meters":8400,"station_id":"ce4bgi12rcd13ifvqb70","pricing_plan_id":"free"},{"bike_id":"f6a5ddf3-39fd-43fc-bc7c-e86cf9efab67","system_id":"levelo_inurba_marseille","lat":43.305994,"lon":5.393687,"is_reserved":false,"is_disabled":false,"rental_uris":{"android":"levelo://app?vid=f6a5ddf3-39fd-43fc-bc7c-e86cf9efab67","ios":"levelo://app?vid=f6a5ddf3-39fd-43fc-bc7c-e86cf9efab67"},"vehicle_type_id":"4","last_reported":1683475654,"current_range_meters":17600,"station_id":"ce4bh0p2rcd13ifvqd80","pricing_plan_id":"free"},{"bike_id":"8836ed9b-33d3-4736-bbdf-329cd944e2d7","system_id":"levelo_inurba_marseille","lat":43.305994,"lon":5.393687,"is_reserved":false,"is_disabled":false,"rental_uris":{"android":"levelo://app?vid=8836ed9b-33d3-4736-bbdf-329cd944e2d7","ios":"levelo://app?vid=8836ed9b-33d3-4736-bbdf-329cd944e2d7"},"vehicle_type_id":"4","last_reported":1683475654,"current_range_meters":31600,"station_id":"ce4bh0p2rcd13ifvqd80","pricing_plan_id":"free"},{"bike_id":"09a1602e-4e7b-4293-a47d-67859e59c6be","system_id":"levelo_inurba_marseille","lat":43.30304,"lon":5.39206,"is_reserved":false,"is_disabled":false,"rental_uris":{"android":"levelo://app?vid=09a1602e-4e7b-4293-a47d-67859e59c6be","ios":"levelo://app?vid=09a1602e-4e7b-4293-a47d-67859e59c6be"},"vehicle_type_id":"4","last_reported":1683475654,"current_range_meters":8800,"station_id":"ce4bgkh2rcd13ifvqbk0","pricing_plan_id":"free"},{"bike_id":"436a30ed-67fe-4f67-b544-ea1930c0fdbb","system_id":"levelo_inurba_marseille","lat":43.302992,"lon":5.392136,"is_reserved":false,"is_disabled":false,"rental_uris":{"android":"levelo://app?vid=436a30ed-67fe-4f67-b544-ea1930c0fdbb","ios":"levelo://app?vid=436a30ed-67fe-4f67-b544-ea1930c0fdbb"},"vehicle_type_id":"4","last_reported":1683475654,"current_range_meters":1600,"station_id":"ce4bgkh2rcd13ifvqbk0","pricing_plan_id":"free"},{"bike_id":"be03eadd-6943-48bf-bb25-3e2ab6731976","system_id":"levelo_inurba_marseille","lat":43.295748,"lon":5.37522,"is_reserved":false,"is_disabled":false,"rental_uris":{"android":"levelo://app?vid=be03eadd-6943-48bf-bb25-3e2ab6731976","ios":"levelo://app?vid=be03eadd-6943-48bf-bb25-3e2ab6731976"},"vehicle_type_id":"4","last_reported":1683475654,"current_range_meters":0,"station_id":"ce4bgh92rcd13ifvqb50","pricing_plan_id":"free"},{"bike_id":"3f7423de-f956-4d82-a5b7-03695244722b","system_id":"levelo_inurba_marseille","lat":43.298764,"lon":5.388973,"is_reserved":false,"is_disabled":false,"rental_uris":{"android":"levelo://app?vid=3f7423de-f956-4d82-a5b7-03695244722b","ios":"levelo://app?vid=3f7423de-f956-4d82-a5b7-03695244722b"},"vehicle_type_id":"4","last_reported":1683475654,"current_range_meters":2000,"station_id":"ce4bh392rcd13ifvqdl0","pricing_plan_id":"free"},{"bike_id":"48bc7009-5566-4eff-83cb-c5909576bc33","system_id":"levelo_inurba_marseille","lat":43.292663,"lon":5.376394,"is_reserved":false,"is_disabled":false,"rental_uris":{"android":"levelo://app?vid=48bc7009-5566-4eff-83cb-c5909576bc33","ios":"levelo://app?vid=48bc7009-5566-4eff-83cb-c5909576bc33"},"vehicle_type_id":"4","last_reported":1683475654,"current_range_meters":4400,"station_id":"ce4bgi12rcd13ifvqb80","pricing_plan_id":"free"},{"bike_id":"9a95c4ec-d929-457b-8228-e4349b32f0a9","system_id":"levelo_inurba_marseille","lat":43.298764,"lon":5.388973,"is_reserved":false,"is_disabled":false,"rental_uris":{"android":"levelo://app?vid=9a95c4ec-d929-457b-8228-e4349b32f0a9","ios":"levelo://app?vid=9a95c4ec-d929-457b-8228-e4349b32f0a9"},"vehicle_type_id":"4","last_reported":1683475654,"current_range_meters":28000,"station_id":"ce4bh392rcd13ifvqdl0","pricing_plan_id":"free"},{"bike_id":"9de7fb5c-f0b8-44be-b981-69a1254bb922","system_id":"levelo_inurba_marseille","lat":43.309038,"lon":5.396546,"is_reserved":false,"is_disabled":false,"rental_uris":{"android":"levelo://app?vid=9de7fb5c-f0b8-44be-b981-69a1254bb922","ios":"levelo://app?vid=9de7fb5c-f0b8-44be-b981-69a1254bb922"},"vehicle_type_id":"4","last_reported":1683475654,"current_range_meters":6400,"station_id":"ce4bh012rcd13ifvqcv0","pricing_plan_id":"free"},{"bike_id":"53eef16f-201c-4fea-b6b9-ab6b8088ea06","system_id":"levelo_inurba_marseille","lat":43.30885,"lon":5.39633,"is_reserved":false,"is_disabled":false,"rental_uris":{"android":"levelo://app?vid=53eef16f-201c-4fea-b6b9-ab6b8088ea06","ios":"levelo://app?vid=53eef16f-201c-4fea-b6b9-ab6b8088ea06"},"vehicle_type_id":"4","last_reported":1683475654,"current_range_meters":400,"station_id":"","pricing_plan_id":"free"},{"bike_id":"b15919e0-8761-49aa-a3af-fd68564acb6a","system_id":"levelo_inurba_marseille","lat":43.309038,"lon":5.396546,"is_reserved":false,"is_disabled":false,"rental_uris":{"android":"levelo://app?vid=b15919e0-8761-49aa-a3af-fd68564acb6a","ios":"levelo://app?vid=b15919e0-8761-49aa-a3af-fd68564acb6a"},"vehicle_type_id":"4","last_reported":1683475654,"current_range_meters":29600,"station_id":"ce4bh012rcd13ifvqcv0","pricing_plan_id":"free"},{"bike_id":"b23799ae-80da-453a-b6d0-ea69ab0eb955","system_id":"levelo_inurba_marseille","lat":43.30883,"lon":5.39636,"is_reserved":false,"is_disabled":false,"rental_uris":{"android":"levelo://app?vid=b23799ae-80da-453a-b6d0-ea69ab0eb955","ios":"levelo://app?vid=b23799ae-80da-453a-b6d0-ea69ab0eb955"},"vehicle_type_id":"4","last_reported":1683475654,"current_range_meters":4400,"station_id":"","pricing_plan_id":"free"},{"bike_id":"873209ff-fb5e-4eb8-ab1e-a8ea5b587a0e","system_id":"levelo_inurba_marseille","lat":43.309038,"lon":5.396546,"is_reserved":false,"is_disabled":false,"rental_uris":{"android":"levelo://app?vid=873209ff-fb5e-4eb8-ab1e-a8ea5b587a0e","ios":"levelo://app?vid=873209ff-fb5e-4eb8-ab1e-a8ea5b587a0e"},"vehicle_type_id":"4","last_reported":1683475654,"current_range_meters":16400,"station_id":"ce4bh012rcd13ifvqcv0","pricing_plan_id":"free"},{"bike_id":"90cc782d-be20-41fa-9baa-2dfb851cd186","system_id":"levelo_inurba_marseille","lat":43.309038,"lon":5.396546,"is_reserved":false,"is_disabled":false,"rental_uris":{"android":"levelo://app?vid=90cc782d-be20-41fa-9baa-2dfb851cd186","ios":"levelo://app?vid=90cc782d-be20-41fa-9baa-2dfb851cd186"},"vehicle_type_id":"4","last_reported":1683475654,"current_range_meters":27600,"station_id":"ce4bh012rcd13ifvqcv0","pricing_plan_id":"free"},{"bike_id":"f284105d-7da3-4fd6-93ae-0c6926554032","system_id":"levelo_inurba_marseille","lat":43.30882,"lon":5.39647,"is_reserved":false,"is_disabled":false,"rental_uris":{"android":"levelo://app?vid=f284105d-7da3-4fd6-93ae-0c6926554032","ios":"levelo://app?vid=f284105d-7da3-4fd6-93ae-0c6926554032"},"vehicle_type_id":"4","last_reported":1683475654,"current_range_meters":13200,"station_id":"ce4bh012rcd13ifvqcv0","pricing_plan_id":"free"},{"bike_id":"4e1d0a0c-3a83-4600-8d34-ea4aa2786d73","system_id":"levelo_inurba_marseille","lat":43.313291,"lon":5.396838,"is_reserved":false,"is_disabled":false,"rental_uris":{"android":"levelo://app?vid=4e1d0a0c-3a83-4600-8d34-ea4aa2786d73","ios":"levelo://app?vid=4e1d0a0c-3a83-4600-8d34-ea4aa2786d73"},"vehicle_type_id":"4","last_reported":1683475654,"current_range_meters":9600,"station_id":"ce4bgvp2rcd13ifvqcu0","pricing_plan_id":"free"},{"bike_id":"fa8d454d-5fc3-48b8-8e6e-519cb57b3338","system_id":"levelo_inurba_marseille","lat":43.31326,"lon":5.39699,"is_reserved":false,"is_disabled":false,"rental_uris":{"android":"levelo://app?vid=fa8d454d-5fc3-48b8-8e6e-519cb57b3338","ios":"levelo://app?vid=fa8d454d-5fc3-48b8-8e6e-519cb57b3338"},"vehicle_type_id":"4","last_reported":1683475654,"current_range_meters":0,"station_id":"ce4bgvp2rcd13ifvqcu0","pricing_plan_id":"free"},{"bike_id":"fdec5ea6-0fe2-4cef-9b7b-4c8363207ffb","system_id":"levelo_inurba_marseille","lat":43.313291,"lon":5.396838,"is_reserved":false,"is_disabled":false,"rental_uris":{"android":"levelo://app?vid=fdec5ea6-0fe2-4cef-9b7b-4c8363207ffb","ios":"levelo://app?vid=fdec5ea6-0fe2-4cef-9b7b-4c8363207ffb"},"vehicle_type_id":"4","last_reported":1683475654,"current_range_meters":6800,"station_id":"ce4bgvp2rcd13ifvqcu0","pricing_plan_id":"free"},{"bike_id":"21e0811b-8698-42ef-8b66-c96f501f9de1","system_id":"levelo_inurba_marseille","lat":43.309038,"lon":5.396546,"is_reserved":false,"is_disabled":false,"rental_uris":{"android":"levelo://app?vid=21e0811b-8698-42ef-8b66-c96f501f9de1","ios":"levelo://app?vid=21e0811b-8698-42ef-8b66-c96f501f9de1"},"vehicle_type_id":"4","last_reported":1683475654,"current_range_meters":400,"station_id":"ce4bh012rcd13ifvqcv0","pricing_plan_id":"free"},{"bike_id":"2c2affb1-3fb9-4644-8bea-1b95a0e995da","system_id":"levelo_inurba_marseille","lat":43.29529,"lon":5.385581,"is_reserved":false,"is_disabled":false,"rental_uris":{"android":"levelo://app?vid=2c2affb1-3fb9-4644-8bea-1b95a0e995da","ios":"levelo://app?vid=2c2affb1-3fb9-4644-8bea-1b95a0e995da"},"vehicle_type_id":"4","last_reported":1683475654,"current_range_meters":9200,"station_id":"ce4bgih2rcd13ifvqba0","pricing_plan_id":"free"},{"bike_id":"158d0f8b-1594-4f06-b8d2-1a6b26e5025a","system_id":"levelo_inurba_marseille","lat":43.29529,"lon":5.385581,"is_reserved":false,"is_disabled":false,"rental_uris":{"android":"levelo://app?vid=158d0f8b-1594-4f06-b8d2-1a6b26e5025a","ios":"levelo://app?vid=158d0f8b-1594-4f06-b8d2-1a6b26e5025a"},"vehicle_type_id":"4","last_reported":1683475654,"current_range_meters":16400,"station_id":"ce4bgih2rcd13ifvqba0","pricing_plan_id":"free"},{"bike_id":"490fa70d-79b4-46a5-926d-c86d238467f9","system_id":"levelo_inurba_marseille","lat":43.290779,"lon":5.371482,"is_reserved":false,"is_disabled":false,"rental_uris":{"android":"levelo://app?vid=490fa70d-79b4-46a5-926d-c86d238467f9","ios":"levelo://app?vid=490fa70d-79b4-46a5-926d-c86d238467f9"},"vehicle_type_id":"4","last_reported":1683475654,"current_range_meters":28000,"station_id":"ce4bh5p2rcd13ifvqe4g","pricing_plan_id":"free"},{"bike_id":"e68d726d-fe29-4cc6-89e3-1589362df18f","system_id":"levelo_inurba_marseille","lat":43.290779,"lon":5.371482,"is_reserved":false,"is_disabled":false,"rental_uris":{"android":"levelo://app?vid=e68d726d-fe29-4cc6-89e3-1589362df18f","ios":"levelo://app?vid=e68d726d-fe29-4cc6-89e3-1589362df18f"},"vehicle_type_id":"4","last_reported":1683475654,"current_range_meters":5200,"station_id":"ce4bh5p2rcd13ifvqe4g","pricing_plan_id":"free"},{"bike_id":"0b15270a-d494-400f-9db6-22ae8d3a6389","system_id":"levelo_inurba_marseille","lat":43.290779,"lon":5.371482,"is_reserved":false,"is_disabled":false,"rental_uris":{"android":"levelo://app?vid=0b15270a-d494-400f-9db6-22ae8d3a6389","ios":"levelo://app?vid=0b15270a-d494-400f-9db6-22ae8d3a6389"},"vehicle_type_id":"4","last_reported":1683475654,"current_range_meters":19200,"station_id":"ce4bh5p2rcd13ifvqe4g","pricing_plan_id":"free"},{"bike_id":"451eedc0-96f3-4022-933e-42a546213e31","system_id":"levelo_inurba_marseille","lat":43.302008,"lon":5.394694,"is_reserved":false,"is_disabled":false,"rental_uris":{"android":"levelo://app?vid=451eedc0-96f3-4022-933e-42a546213e31","ios":"levelo://app?vid=451eedc0-96f3-4022-933e-42a546213e31"},"vehicle_type_id":"4","last_reported":1683475654,"current_range_meters":800,"station_id":"ce4bh0p2rcd13ifvqd70","pricing_plan_id":"free"},{"bike_id":"c9f5afa6-fcc4-42d6-91af-99b60f2b1532","system_id":"levelo_inurba_marseille","lat":43.290624,"lon":5.359245,"is_reserved":false,"is_disabled":false,"rental_uris":{"android":"levelo://app?vid=c9f5afa6-fcc4-42d6-91af-99b60f2b1532","ios":"levelo://app?vid=c9f5afa6-fcc4-42d6-91af-99b60f2b1532"},"vehicle_type_id":"4","last_reported":1683475654,"current_range_meters":0,"station_id":"ce4bha92rcd13ifvqeg0","pricing_plan_id":"free"},{"bike_id":"faa1a841-06b3-4078-ae15-3b6fd6588b70","system_id":"levelo_inurba_marseille","lat":43.294162,"lon":5.386292,"is_reserved":false,"is_disabled":false,"rental_uris":{"android":"levelo://app?vid=faa1a841-06b3-4078-ae15-3b6fd6588b70","ios":"levelo://app?vid=faa1a841-06b3-4078-ae15-3b6fd6588b70"},"vehicle_type_id":"4","last_reported":1683475654,"current_range_meters":18800,"station_id":"ce4bh2h2rcd13ifvqdh0","pricing_plan_id":"free"},{"bike_id":"cd7e7eb2-5535-448b-a881-f46ee582548e","system_id":"levelo_inurba_marseille","lat":43.289468,"lon":5.363719,"is_reserved":false,"is_disabled":false,"rental_uris":{"android":"levelo://app?vid=cd7e7eb2-5535-448b-a881-f46ee582548e","ios":"levelo://app?vid=cd7e7eb2-5535-448b-a881-f46ee582548e"},"vehicle_type_id":"4","last_reported":1683475654,"current_range_meters":9200,"station_id":"ce4bhc92rcd13ifvqetg","pricing_plan_id":"free"},{"bike_id":"d0a3a878-c378-4dad-9135-66f611b8281b","system_id":"levelo_inurba_marseille","lat":43.292642,"lon":5.384254,"is_reserved":false,"is_disabled":false,"rental_uris":{"android":"levelo://app?vid=d0a3a878-c378-4dad-9135-66f611b8281b","ios":"levelo://app?vid=d0a3a878-c378-4dad-9135-66f611b8281b"},"vehicle_type_id":"4","last_reported":1683475654,"current_range_meters":26800,"station_id":"ce4bh692rcd13ifvqea0","pricing_plan_id":"free"},{"bike_id":"3d660672-9d95-401c-9a56-677a0bec11c4","system_id":"levelo_inurba_marseille","lat":43.29273,"lon":5.38447,"is_reserved":false,"is_disabled":false,"rental_uris":{"android":"levelo://app?vid=3d660672-9d95-401c-9a56-677a0bec11c4","ios":"levelo://app?vid=3d660672-9d95-401c-9a56-677a0bec11c4"},"vehicle_type_id":"4","last_reported":1683475654,"current_range_meters":15600,"station_id":"ce4bh692rcd13ifvqea0","pricing_plan_id":"free"},{"bike_id":"f9f1755e-9a5b-4d7b-84e4-5c5d24e7ef77","system_id":"levelo_inurba_marseille","lat":43.292644,"lon":5.384257,"is_reserved":false,"is_disabled":false,"rental_uris":{"android":"levelo://app?vid=f9f1755e-9a5b-4d7b-84e4-5c5d24e7ef77","ios":"levelo://app?vid=f9f1755e-9a5b-4d7b-84e4-5c5d24e7ef77"},"vehicle_type_id":"4","last_reported":1683475654,"current_range_meters":1600,"station_id":"ce4bh692rcd13ifvqea0","pricing_plan_id":"free"},{"bike_id":"84a7cc1c-262b-4fbd-9f4c-7eeb117454b9","system_id":"levelo_inurba_marseille","lat":43.292644,"lon":5.384257,"is_reserved":false,"is_disabled":false,"rental_uris":{"android":"levelo://app?vid=84a7cc1c-262b-4fbd-9f4c-7eeb117454b9","ios":"levelo://app?vid=84a7cc1c-262b-4fbd-9f4c-7eeb117454b9"},"vehicle_type_id":"4","last_reported":1683475654,"current_range_meters":9200,"station_id":"ce4bh692rcd13ifvqea0","pricing_plan_id":"free"},{"bike_id":"d6233f8b-531d-433b-b8e9-589e3920c098","system_id":"levelo_inurba_marseille","lat":43.33042,"lon":5.38913,"is_reserved":false,"is_disabled":false,"rental_uris":{"android":"levelo://app?vid=d6233f8b-531d-433b-b8e9-589e3920c098","ios":"levelo://app?vid=d6233f8b-531d-433b-b8e9-589e3920c098"},"vehicle_type_id":"4","last_reported":1683475654,"current_range_meters":29600,"station_id":"ce4bhr92rcd13ifvqhrg","pricing_plan_id":"free"},{"bike_id":"10a8eeb7-4f93-4e8d-81bd-f27d3d4ef515","system_id":"levelo_inurba_marseille","lat":43.33041,"lon":5.3892,"is_reserved":false,"is_disabled":false,"rental_uris":{"android":"levelo://app?vid=10a8eeb7-4f93-4e8d-81bd-f27d3d4ef515","ios":"levelo://app?vid=10a8eeb7-4f93-4e8d-81bd-f27d3d4ef515"},"vehicle_type_id":"4","last_reported":1683475654,"current_range_meters":21200,"station_id":"ce4bhr92rcd13ifvqhrg","pricing_plan_id":"free"},{"bike_id":"8e24d252-6d81-4148-981c-26d943e39f11","system_id":"levelo_inurba_marseille","lat":43.290104,"lon":5.356111,"is_reserved":false,"is_disabled":false,"rental_uris":{"android":"levelo://app?vid=8e24d252-6d81-4148-981c-26d943e39f11","ios":"levelo://app?vid=8e24d252-6d81-4148-981c-26d943e39f11"},"vehicle_type_id":"4","last_reported":1683475654,"current_range_meters":10400,"station_id":"ce4bhb92rcd13ifvqen0","pricing_plan_id":"free"},{"bike_id":"b9f98d38-3e1f-495d-82fe-eb30312a0f4b","system_id":"levelo_inurba_marseille","lat":43.289743,"lon":5.378304,"is_reserved":false,"is_disabled":false,"rental_uris":{"android":"levelo://app?vid=b9f98d38-3e1f-495d-82fe-eb30312a0f4b","ios":"levelo://app?vid=b9f98d38-3e1f-495d-82fe-eb30312a0f4b"},"vehicle_type_id":"4","last_reported":1683475654,"current_range_meters":8400,"station_id":"ce4bh9p2rcd13ifvqed0","pricing_plan_id":"free"},{"bike_id":"45c98497-5184-458d-8e5a-5e59b6f13baa","system_id":"levelo_inurba_marseille","lat":43.289743,"lon":5.378304,"is_reserved":false,"is_disabled":false,"rental_uris":{"android":"levelo://app?vid=45c98497-5184-458d-8e5a-5e59b6f13baa","ios":"levelo://app?vid=45c98497-5184-458d-8e5a-5e59b6f13baa"},"vehicle_type_id":"4","last_reported":1683475654,"current_range_meters":4800,"station_id":"ce4bh9p2rcd13ifvqed0","pricing_plan_id":"free"},{"bike_id":"4fce70c8-d2c8-470c-86db-34d9be1867fc","system_id":"levelo_inurba_marseille","lat":43.2901,"lon":5.381269,"is_reserved":false,"is_disabled":false,"rental_uris":{"android":"levelo://app?vid=4fce70c8-d2c8-470c-86db-34d9be1867fc","ios":"levelo://app?vid=4fce70c8-d2c8-470c-86db-34d9be1867fc"},"vehicle_type_id":"4","last_reported":1683475654,"current_range_meters":4000,"station_id":"ce4bh4p2rcd13ifvqe1g","pricing_plan_id":"free"},{"bike_id":"4e8e9621-6d67-47f8-ad53-391fb533df67","system_id":"levelo_inurba_marseille","lat":43.290094,"lon":5.381264,"is_reserved":false,"is_disabled":false,"rental_uris":{"android":"levelo://app?vid=4e8e9621-6d67-47f8-ad53-391fb533df67","ios":"levelo://app?vid=4e8e9621-6d67-47f8-ad53-391fb533df67"},"vehicle_type_id":"4","last_reported":1683475654,"current_range_meters":2400,"station_id":"ce4bh4p2rcd13ifvqe1g","pricing_plan_id":"free"},{"bike_id":"40f14954-1fd2-4c7a-ac2a-e2fd32e982a9","system_id":"levelo_inurba_marseille","lat":43.2901,"lon":5.381269,"is_reserved":false,"is_disabled":false,"rental_uris":{"android":"levelo://app?vid=40f14954-1fd2-4c7a-ac2a-e2fd32e982a9","ios":"levelo://app?vid=40f14954-1fd2-4c7a-ac2a-e2fd32e982a9"},"vehicle_type_id":"4","last_reported":1683475654,"current_range_meters":18800,"station_id":"ce4bh4p2rcd13ifvqe1g","pricing_plan_id":"free"},{"bike_id":"20083ae5-f09f-4d10-9758-3cdd331d6a45","system_id":"levelo_inurba_marseille","lat":43.3374,"lon":5.37448,"is_reserved":false,"is_disabled":false,"rental_uris":{"android":"levelo://app?vid=20083ae5-f09f-4d10-9758-3cdd331d6a45","ios":"levelo://app?vid=20083ae5-f09f-4d10-9758-3cdd331d6a45"},"vehicle_type_id":"4","last_reported":1683475654,"current_range_meters":10800,"station_id":"","pricing_plan_id":"free"},{"bike_id":"34320fce-24bb-4291-be42-2c361aed67f0","system_id":"levelo_inurba_marseille","lat":43.33748,"lon":5.37438,"is_reserved":false,"is_disabled":false,"rental_uris":{"android":"levelo://app?vid=34320fce-24bb-4291-be42-2c361aed67f0","ios":"levelo://app?vid=34320fce-24bb-4291-be42-2c361aed67f0"},"vehicle_type_id":"4","last_reported":1683475654,"current_range_meters":19200,"station_id":"ce4rr2p2rcd13i802rgg","pricing_plan_id":"free"},{"bike_id":"610f4cf2-2ffb-4136-95ed-3579f336a8ea","system_id":"levelo_inurba_marseille","lat":43.3375,"lon":5.3743,"is_reserved":false,"is_disabled":false,"rental_uris":{"android":"levelo://app?vid=610f4cf2-2ffb-4136-95ed-3579f336a8ea","ios":"levelo://app?vid=610f4cf2-2ffb-4136-95ed-3579f336a8ea"},"vehicle_type_id":"4","last_reported":1683475654,"current_range_meters":22800,"station_id":"","pricing_plan_id":"free"},{"bike_id":"9070207c-ce23-4a97-b89f-da673252f922","system_id":"levelo_inurba_marseille","lat":43.33752,"lon":5.37486,"is_reserved":false,"is_disabled":false,"rental_uris":{"android":"levelo://app?vid=9070207c-ce23-4a97-b89f-da673252f922","ios":"levelo://app?vid=9070207c-ce23-4a97-b89f-da673252f922"},"vehicle_type_id":"4","last_reported":1683475654,"current_range_meters":22000,"station_id":"","pricing_plan_id":"free"},{"bike_id":"629636c7-2184-4e2c-9306-5c96089af365","system_id":"levelo_inurba_marseille","lat":43.30642,"lon":5.401031,"is_reserved":false,"is_disabled":false,"rental_uris":{"android":"levelo://app?vid=629636c7-2184-4e2c-9306-5c96089af365","ios":"levelo://app?vid=629636c7-2184-4e2c-9306-5c96089af365"},"vehicle_type_id":"4","last_reported":1683475654,"current_range_meters":25600,"station_id":"ce4bh112rcd13ifvqda0","pricing_plan_id":"free"},{"bike_id":"86b28340-532d-4ab8-ac19-19ffd45b0568","system_id":"levelo_inurba_marseille","lat":43.33753,"lon":5.37488,"is_reserved":false,"is_disabled":false,"rental_uris":{"android":"levelo://app?vid=86b28340-532d-4ab8-ac19-19ffd45b0568","ios":"levelo://app?vid=86b28340-532d-4ab8-ac19-19ffd45b0568"},"vehicle_type_id":"4","last_reported":1683475654,"current_range_meters":30400,"station_id":"","pricing_plan_id":"free"},{"bike_id":"63f07628-7dee-43e1-b7f7-9043fd7cfae9","system_id":"levelo_inurba_marseille","lat":43.30642,"lon":5.401031,"is_reserved":false,"is_disabled":false,"rental_uris":{"android":"levelo://app?vid=63f07628-7dee-43e1-b7f7-9043fd7cfae9","ios":"levelo://app?vid=63f07628-7dee-43e1-b7f7-9043fd7cfae9"},"vehicle_type_id":"4","last_reported":1683475654,"current_range_meters":3600,"station_id":"ce4bh112rcd13ifvqda0","pricing_plan_id":"free"},{"bike_id":"db84b57a-c242-4d31-93f3-e9f12005c4b3","system_id":"levelo_inurba_marseille","lat":43.33762,"lon":5.37494,"is_reserved":false,"is_disabled":false,"rental_uris":{"android":"levelo://app?vid=db84b57a-c242-4d31-93f3-e9f12005c4b3","ios":"levelo://app?vid=db84b57a-c242-4d31-93f3-e9f12005c4b3"},"vehicle_type_id":"4","last_reported":1683475654,"current_range_meters":22800,"station_id":"","pricing_plan_id":"free"},{"bike_id":"c452a78d-8a25-4dac-a034-b406e8dd2a51","system_id":"levelo_inurba_marseille","lat":43.28775,"lon":5.35937,"is_reserved":false,"is_disabled":false,"rental_uris":{"android":"levelo://app?vid=c452a78d-8a25-4dac-a034-b406e8dd2a51","ios":"levelo://app?vid=c452a78d-8a25-4dac-a034-b406e8dd2a51"},"vehicle_type_id":"4","last_reported":1683475654,"current_range_meters":0,"station_id":"","pricing_plan_id":"free"},{"bike_id":"0f447416-b1f5-4357-b538-2850c83cc8bb","system_id":"levelo_inurba_marseille","lat":43.30642,"lon":5.401031,"is_reserved":false,"is_disabled":false,"rental_uris":{"android":"levelo://app?vid=0f447416-b1f5-4357-b538-2850c83cc8bb","ios":"levelo://app?vid=0f447416-b1f5-4357-b538-2850c83cc8bb"},"vehicle_type_id":"4","last_reported":1683475654,"current_range_meters":10800,"station_id":"ce4bh112rcd13ifvqda0","pricing_plan_id":"free"},{"bike_id":"3ab707b0-b92a-4b39-97cb-7d2f05ecf248","system_id":"levelo_inurba_marseille","lat":43.301117,"lon":5.398795,"is_reserved":false,"is_disabled":false,"rental_uris":{"android":"levelo://app?vid=3ab707b0-b92a-4b39-97cb-7d2f05ecf248","ios":"levelo://app?vid=3ab707b0-b92a-4b39-97cb-7d2f05ecf248"},"vehicle_type_id":"4","last_reported":1683475654,"current_range_meters":4000,"station_id":"ce4bh0h2rcd13ifvqd40","pricing_plan_id":"free"},{"bike_id":"dc3b0964-bf6c-4d2e-82a8-fa72b72edfe9","system_id":"levelo_inurba_marseille","lat":43.286591,"lon":5.363346,"is_reserved":false,"is_disabled":false,"rental_uris":{"android":"levelo://app?vid=dc3b0964-bf6c-4d2e-82a8-fa72b72edfe9","ios":"levelo://app?vid=dc3b0964-bf6c-4d2e-82a8-fa72b72edfe9"},"vehicle_type_id":"4","last_reported":1683475654,"current_range_meters":19600,"station_id":"ce4bhah2rcd13ifvqej0","pricing_plan_id":"free"},{"bike_id":"eddc5a51-1544-4f0a-a088-aa1bb89a613c","system_id":"levelo_inurba_marseille","lat":43.295196,"lon":5.39397,"is_reserved":false,"is_disabled":false,"rental_uris":{"android":"levelo://app?vid=eddc5a51-1544-4f0a-a088-aa1bb89a613c","ios":"levelo://app?vid=eddc5a51-1544-4f0a-a088-aa1bb89a613c"},"vehicle_type_id":"4","last_reported":1683475654,"current_range_meters":18400,"station_id":"ce4bh292rcd13ifvqdf0","pricing_plan_id":"free"},{"bike_id":"e55b905d-4ceb-4988-af22-dd1717e29ece","system_id":"levelo_inurba_marseille","lat":43.295196,"lon":5.39397,"is_reserved":false,"is_disabled":false,"rental_uris":{"android":"levelo://app?vid=e55b905d-4ceb-4988-af22-dd1717e29ece","ios":"levelo://app?vid=e55b905d-4ceb-4988-af22-dd1717e29ece"},"vehicle_type_id":"4","last_reported":1683475654,"current_range_meters":8800,"station_id":"ce4bh292rcd13ifvqdf0","pricing_plan_id":"free"},{"bike_id":"9c1df898-ff51-4227-ba2e-92a04d457393","system_id":"levelo_inurba_marseille","lat":43.290345,"lon":5.38646,"is_reserved":false,"is_disabled":false,"rental_uris":{"android":"levelo://app?vid=9c1df898-ff51-4227-ba2e-92a04d457393","ios":"levelo://app?vid=9c1df898-ff51-4227-ba2e-92a04d457393"},"vehicle_type_id":"4","last_reported":1683475654,"current_range_meters":400,"station_id":"ce4bh4p2rcd13ifvqe0g","pricing_plan_id":"free"},{"bike_id":"9c52d56c-4f73-444c-bb80-fc0747e2cedd","system_id":"levelo_inurba_marseille","lat":43.302759,"lon":5.400793,"is_reserved":false,"is_disabled":false,"rental_uris":{"android":"levelo://app?vid=9c52d56c-4f73-444c-bb80-fc0747e2cedd","ios":"levelo://app?vid=9c52d56c-4f73-444c-bb80-fc0747e2cedd"},"vehicle_type_id":"4","last_reported":1683475654,"current_range_meters":3200,"station_id":"ce4bgvh2rcd13ifvqcs0","pricing_plan_id":"free"},{"bike_id":"bf078e1e-77f6-4f59-8de3-83f2fd3d65f6","system_id":"levelo_inurba_marseille","lat":43.286039,"lon":5.370681,"is_reserved":false,"is_disabled":false,"rental_uris":{"android":"levelo://app?vid=bf078e1e-77f6-4f59-8de3-83f2fd3d65f6","ios":"levelo://app?vid=bf078e1e-77f6-4f59-8de3-83f2fd3d65f6"},"vehicle_type_id":"4","last_reported":1683475654,"current_range_meters":4000,"station_id":"ce4bht12rcd13ifvqi60","pricing_plan_id":"free"},{"bike_id":"06455dd4-2553-447b-9f54-7f87240d22eb","system_id":"levelo_inurba_marseille","lat":43.286039,"lon":5.370681,"is_reserved":false,"is_disabled":false,"rental_uris":{"android":"levelo://app?vid=06455dd4-2553-447b-9f54-7f87240d22eb","ios":"levelo://app?vid=06455dd4-2553-447b-9f54-7f87240d22eb"},"vehicle_type_id":"4","last_reported":1683475654,"current_range_meters":10800,"station_id":"ce4bht12rcd13ifvqi60","pricing_plan_id":"free"},{"bike_id":"d60219f7-9496-48e3-a6f1-03aa744b3116","system_id":"levelo_inurba_marseille","lat":43.287184,"lon":5.37937,"is_reserved":false,"is_disabled":false,"rental_uris":{"android":"levelo://app?vid=d60219f7-9496-48e3-a6f1-03aa744b3116","ios":"levelo://app?vid=d60219f7-9496-48e3-a6f1-03aa744b3116"},"vehicle_type_id":"4","last_reported":1683475654,"current_range_meters":16400,"station_id":"ce4bh9p2rcd13ifvqec0","pricing_plan_id":"free"},{"bike_id":"374548f0-d5ed-4cf7-900b-6ece46d9d0f5","system_id":"levelo_inurba_marseille","lat":43.287185,"lon":5.379373,"is_reserved":false,"is_disabled":false,"rental_uris":{"android":"levelo://app?vid=374548f0-d5ed-4cf7-900b-6ece46d9d0f5","ios":"levelo://app?vid=374548f0-d5ed-4cf7-900b-6ece46d9d0f5"},"vehicle_type_id":"4","last_reported":1683475654,"current_range_meters":8800,"station_id":"ce4bh9p2rcd13ifvqec0","pricing_plan_id":"free"},{"bike_id":"5ccba9ec-1285-4ac6-b3dd-2568e2ea58ce","system_id":"levelo_inurba_marseille","lat":43.287185,"lon":5.379373,"is_reserved":false,"is_disabled":false,"rental_uris":{"android":"levelo://app?vid=5ccba9ec-1285-4ac6-b3dd-2568e2ea58ce","ios":"levelo://app?vid=5ccba9ec-1285-4ac6-b3dd-2568e2ea58ce"},"vehicle_type_id":"4","last_reported":1683475654,"current_range_meters":30400,"station_id":"ce4bh9p2rcd13ifvqec0","pricing_plan_id":"free"},{"bike_id":"9830565a-387f-470a-af28-9d4825046937","system_id":"levelo_inurba_marseille","lat":43.287184,"lon":5.37937,"is_reserved":false,"is_disabled":false,"rental_uris":{"android":"levelo://app?vid=9830565a-387f-470a-af28-9d4825046937","ios":"levelo://app?vid=9830565a-387f-470a-af28-9d4825046937"},"vehicle_type_id":"4","last_reported":1683475654,"current_range_meters":14400,"station_id":"ce4bh9p2rcd13ifvqec0","pricing_plan_id":"free"},{"bike_id":"c1800b28-afa5-4f81-8a24-e570f1e3daed","system_id":"levelo_inurba_marseille","lat":43.287185,"lon":5.379373,"is_reserved":false,"is_disabled":false,"rental_uris":{"android":"levelo://app?vid=c1800b28-afa5-4f81-8a24-e570f1e3daed","ios":"levelo://app?vid=c1800b28-afa5-4f81-8a24-e570f1e3daed"},"vehicle_type_id":"4","last_reported":1683475654,"current_range_meters":19600,"station_id":"ce4bh9p2rcd13ifvqec0","pricing_plan_id":"free"},{"bike_id":"9f89f0e4-748b-41d8-a6fe-e0ce8e89303d","system_id":"levelo_inurba_marseille","lat":43.287185,"lon":5.379373,"is_reserved":false,"is_disabled":false,"rental_uris":{"android":"levelo://app?vid=9f89f0e4-748b-41d8-a6fe-e0ce8e89303d","ios":"levelo://app?vid=9f89f0e4-748b-41d8-a6fe-e0ce8e89303d"},"vehicle_type_id":"4","last_reported":1683475654,"current_range_meters":12000,"station_id":"ce4bh9p2rcd13ifvqec0","pricing_plan_id":"free"},{"bike_id":"18898f7a-ba0a-4a75-84b0-0d92856f7e1f","system_id":"levelo_inurba_marseille","lat":43.287185,"lon":5.379373,"is_reserved":false,"is_disabled":false,"rental_uris":{"android":"levelo://app?vid=18898f7a-ba0a-4a75-84b0-0d92856f7e1f","ios":"levelo://app?vid=18898f7a-ba0a-4a75-84b0-0d92856f7e1f"},"vehicle_type_id":"4","last_reported":1683475654,"current_range_meters":0,"station_id":"ce4bh9p2rcd13ifvqec0","pricing_plan_id":"free"},{"bike_id":"07cb478a-b550-4d08-a1db-5d62703fa587","system_id":"levelo_inurba_marseille","lat":43.316523,"lon":5.404367,"is_reserved":false,"is_disabled":false,"rental_uris":{"android":"levelo://app?vid=07cb478a-b550-4d08-a1db-5d62703fa587","ios":"levelo://app?vid=07cb478a-b550-4d08-a1db-5d62703fa587"},"vehicle_type_id":"4","last_reported":1683475654,"current_range_meters":6400,"station_id":"ce4bh012rcd13ifvqd00","pricing_plan_id":"free"},{"bike_id":"cb118e05-fc17-41bd-9234-cb6feb90a49b","system_id":"levelo_inurba_marseille","lat":43.316523,"lon":5.404367,"is_reserved":false,"is_disabled":false,"rental_uris":{"android":"levelo://app?vid=cb118e05-fc17-41bd-9234-cb6feb90a49b","ios":"levelo://app?vid=cb118e05-fc17-41bd-9234-cb6feb90a49b"},"vehicle_type_id":"4","last_reported":1683475654,"current_range_meters":30000,"station_id":"ce4bh012rcd13ifvqd00","pricing_plan_id":"free"},{"bike_id":"2292d11c-a017-45b3-9474-8062e934473d","system_id":"levelo_inurba_marseille","lat":43.316523,"lon":5.404367,"is_reserved":false,"is_disabled":false,"rental_uris":{"android":"levelo://app?vid=2292d11c-a017-45b3-9474-8062e934473d","ios":"levelo://app?vid=2292d11c-a017-45b3-9474-8062e934473d"},"vehicle_type_id":"4","last_reported":1683475654,"current_range_meters":11200,"station_id":"ce4bh012rcd13ifvqd00","pricing_plan_id":"free"},{"bike_id":"5ae51d13-f202-4942-b73e-b55a9eec5e6e","system_id":"levelo_inurba_marseille","lat":43.316523,"lon":5.404367,"is_reserved":false,"is_disabled":false,"rental_uris":{"android":"levelo://app?vid=5ae51d13-f202-4942-b73e-b55a9eec5e6e","ios":"levelo://app?vid=5ae51d13-f202-4942-b73e-b55a9eec5e6e"},"vehicle_type_id":"4","last_reported":1683475654,"current_range_meters":13600,"station_id":"ce4bh012rcd13ifvqd00","pricing_plan_id":"free"},{"bike_id":"9b58c03a-e056-4d5d-9897-00689f1be5e2","system_id":"levelo_inurba_marseille","lat":43.33473,"lon":5.38999,"is_reserved":false,"is_disabled":false,"rental_uris":{"android":"levelo://app?vid=9b58c03a-e056-4d5d-9897-00689f1be5e2","ios":"levelo://app?vid=9b58c03a-e056-4d5d-9897-00689f1be5e2"},"vehicle_type_id":"4","last_reported":1683475654,"current_range_meters":3200,"station_id":"","pricing_plan_id":"free"},{"bike_id":"27865f6e-c046-4416-9233-48156b6bae2c","system_id":"levelo_inurba_marseille","lat":43.33482,"lon":5.38984,"is_reserved":false,"is_disabled":false,"rental_uris":{"android":"levelo://app?vid=27865f6e-c046-4416-9233-48156b6bae2c","ios":"levelo://app?vid=27865f6e-c046-4416-9233-48156b6bae2c"},"vehicle_type_id":"4","last_reported":1683475654,"current_range_meters":25200,"station_id":"","pricing_plan_id":"free"},{"bike_id":"d15b418e-a567-4ffc-b842-bee6bc7cf861","system_id":"levelo_inurba_marseille","lat":43.295713,"lon":5.399639,"is_reserved":false,"is_disabled":false,"rental_uris":{"android":"levelo://app?vid=d15b418e-a567-4ffc-b842-bee6bc7cf861","ios":"levelo://app?vid=d15b418e-a567-4ffc-b842-bee6bc7cf861"},"vehicle_type_id":"4","last_reported":1683475654,"current_range_meters":1200,"station_id":"ce4bh312rcd13ifvqdj0","pricing_plan_id":"free"},{"bike_id":"213650da-fe63-414d-a41c-0a79a34dc217","system_id":"levelo_inurba_marseille","lat":43.2862,"lon":5.35107,"is_reserved":false,"is_disabled":false,"rental_uris":{"android":"levelo://app?vid=213650da-fe63-414d-a41c-0a79a34dc217","ios":"levelo://app?vid=213650da-fe63-414d-a41c-0a79a34dc217"},"vehicle_type_id":"4","last_reported":1683475654,"current_range_meters":19200,"station_id":"","pricing_plan_id":"free"},{"bike_id":"c26d5605-1f1f-468b-b6ec-85dc3ecfe834","system_id":"levelo_inurba_marseille","lat":43.28614,"lon":5.35102,"is_reserved":false,"is_disabled":false,"rental_uris":{"android":"levelo://app?vid=c26d5605-1f1f-468b-b6ec-85dc3ecfe834","ios":"levelo://app?vid=c26d5605-1f1f-468b-b6ec-85dc3ecfe834"},"vehicle_type_id":"4","last_reported":1683475654,"current_range_meters":17200,"station_id":"","pricing_plan_id":"free"},{"bike_id":"1392ce2f-d930-4efc-832f-119a87f9d5d5","system_id":"levelo_inurba_marseille","lat":43.28611,"lon":5.35106,"is_reserved":false,"is_disabled":false,"rental_uris":{"android":"levelo://app?vid=1392ce2f-d930-4efc-832f-119a87f9d5d5","ios":"levelo://app?vid=1392ce2f-d930-4efc-832f-119a87f9d5d5"},"vehicle_type_id":"4","last_reported":1683475654,"current_range_meters":12800,"station_id":"","pricing_plan_id":"free"},{"bike_id":"30bcb7ce-68ed-44bc-a0d5-2355bad0bf71","system_id":"levelo_inurba_marseille","lat":43.28612,"lon":5.35102,"is_reserved":false,"is_disabled":false,"rental_uris":{"android":"levelo://app?vid=30bcb7ce-68ed-44bc-a0d5-2355bad0bf71","ios":"levelo://app?vid=30bcb7ce-68ed-44bc-a0d5-2355bad0bf71"},"vehicle_type_id":"4","last_reported":1683475654,"current_range_meters":0,"station_id":"","pricing_plan_id":"free"},{"bike_id":"774d0eea-c1c8-47e0-9179-f8224a981560","system_id":"levelo_inurba_marseille","lat":43.286595,"lon":5.386795,"is_reserved":false,"is_disabled":false,"rental_uris":{"android":"levelo://app?vid=774d0eea-c1c8-47e0-9179-f8224a981560","ios":"levelo://app?vid=774d0eea-c1c8-47e0-9179-f8224a981560"},"vehicle_type_id":"4","last_reported":1683475654,"current_range_meters":6000,"station_id":"ce4bh492rcd13ifvqdug","pricing_plan_id":"free"},{"bike_id":"7cdb1143-1df3-41fc-a179-c2f32ca67ebe","system_id":"levelo_inurba_marseille","lat":43.28506,"lon":5.3513,"is_reserved":false,"is_disabled":false,"rental_uris":{"android":"levelo://app?vid=7cdb1143-1df3-41fc-a179-c2f32ca67ebe","ios":"levelo://app?vid=7cdb1143-1df3-41fc-a179-c2f32ca67ebe"},"vehicle_type_id":"4","last_reported":1683475654,"current_range_meters":4000,"station_id":"","pricing_plan_id":"free"},{"bike_id":"90fefa4d-bf6c-4e62-8594-ec1e43ae7025","system_id":"levelo_inurba_marseille","lat":43.337168,"lon":5.391825,"is_reserved":false,"is_disabled":false,"rental_uris":{"android":"levelo://app?vid=90fefa4d-bf6c-4e62-8594-ec1e43ae7025","ios":"levelo://app?vid=90fefa4d-bf6c-4e62-8594-ec1e43ae7025"},"vehicle_type_id":"4","last_reported":1683475654,"current_range_meters":27600,"station_id":"ce4bhr92rcd13ifvqhsg","pricing_plan_id":"free"},{"bike_id":"50dff529-a461-4cdd-81cc-0b7b7916de6e","system_id":"levelo_inurba_marseille","lat":43.337168,"lon":5.391825,"is_reserved":false,"is_disabled":false,"rental_uris":{"android":"levelo://app?vid=50dff529-a461-4cdd-81cc-0b7b7916de6e","ios":"levelo://app?vid=50dff529-a461-4cdd-81cc-0b7b7916de6e"},"vehicle_type_id":"4","last_reported":1683475654,"current_range_meters":29600,"station_id":"ce4bhr92rcd13ifvqhsg","pricing_plan_id":"free"},{"bike_id":"1e8b05a7-42f2-4dbc-b778-2844f62043cc","system_id":"levelo_inurba_marseille","lat":43.337168,"lon":5.391825,"is_reserved":false,"is_disabled":false,"rental_uris":{"android":"levelo://app?vid=1e8b05a7-42f2-4dbc-b778-2844f62043cc","ios":"levelo://app?vid=1e8b05a7-42f2-4dbc-b778-2844f62043cc"},"vehicle_type_id":"4","last_reported":1683475654,"current_range_meters":29600,"station_id":"ce4bhr92rcd13ifvqhsg","pricing_plan_id":"free"},{"bike_id":"137dea30-c75c-4cfd-aacf-511e25baeb57","system_id":"levelo_inurba_marseille","lat":43.3373,"lon":5.39179,"is_reserved":false,"is_disabled":false,"rental_uris":{"android":"levelo://app?vid=137dea30-c75c-4cfd-aacf-511e25baeb57","ios":"levelo://app?vid=137dea30-c75c-4cfd-aacf-511e25baeb57"},"vehicle_type_id":"4","last_reported":1683475654,"current_range_meters":31200,"station_id":"ce4bhr92rcd13ifvqhsg","pricing_plan_id":"free"},{"bike_id":"69d83d05-dd7a-4552-9445-80fef6c5a8e5","system_id":"levelo_inurba_marseille","lat":43.337168,"lon":5.391825,"is_reserved":false,"is_disabled":false,"rental_uris":{"android":"levelo://app?vid=69d83d05-dd7a-4552-9445-80fef6c5a8e5","ios":"levelo://app?vid=69d83d05-dd7a-4552-9445-80fef6c5a8e5"},"vehicle_type_id":"4","last_reported":1683475654,"current_range_meters":30800,"station_id":"ce4bhr92rcd13ifvqhsg","pricing_plan_id":"free"},{"bike_id":"4e55f1c5-c4c9-4793-a682-b6956065420a","system_id":"levelo_inurba_marseille","lat":43.28486,"lon":5.38417,"is_reserved":false,"is_disabled":false,"rental_uris":{"android":"levelo://app?vid=4e55f1c5-c4c9-4793-a682-b6956065420a","ios":"levelo://app?vid=4e55f1c5-c4c9-4793-a682-b6956065420a"},"vehicle_type_id":"4","last_reported":1683475654,"current_range_meters":0,"station_id":"ce4bh512rcd13ifvqe3g","pricing_plan_id":"free"},{"bike_id":"4e216b4e-1450-4376-856e-c589615a8b4e","system_id":"levelo_inurba_marseille","lat":43.28484,"lon":5.38417,"is_reserved":false,"is_disabled":false,"rental_uris":{"android":"levelo://app?vid=4e216b4e-1450-4376-856e-c589615a8b4e","ios":"levelo://app?vid=4e216b4e-1450-4376-856e-c589615a8b4e"},"vehicle_type_id":"4","last_reported":1683475654,"current_range_meters":11200,"station_id":"ce4bh512rcd13ifvqe3g","pricing_plan_id":"free"},{"bike_id":"ad3cdfdb-0864-4cce-8a5d-05a05de94244","system_id":"levelo_inurba_marseille","lat":43.30083,"lon":5.40566,"is_reserved":false,"is_disabled":false,"rental_uris":{"android":"levelo://app?vid=ad3cdfdb-0864-4cce-8a5d-05a05de94244","ios":"levelo://app?vid=ad3cdfdb-0864-4cce-8a5d-05a05de94244"},"vehicle_type_id":"4","last_reported":1683475654,"current_range_meters":15200,"station_id":"","pricing_plan_id":"free"},{"bike_id":"c440ae2c-fa56-40db-bf79-b39e3e0fe691","system_id":"levelo_inurba_marseille","lat":43.2847,"lon":5.38418,"is_reserved":false,"is_disabled":false,"rental_uris":{"android":"levelo://app?vid=c440ae2c-fa56-40db-bf79-b39e3e0fe691","ios":"levelo://app?vid=c440ae2c-fa56-40db-bf79-b39e3e0fe691"},"vehicle_type_id":"4","last_reported":1683475654,"current_range_meters":16800,"station_id":"ce4bh512rcd13ifvqe3g","pricing_plan_id":"free"},{"bike_id":"af83eef6-eb56-4faa-97ca-68a424b86f29","system_id":"levelo_inurba_marseille","lat":43.28468,"lon":5.38413,"is_reserved":false,"is_disabled":false,"rental_uris":{"android":"levelo://app?vid=af83eef6-eb56-4faa-97ca-68a424b86f29","ios":"levelo://app?vid=af83eef6-eb56-4faa-97ca-68a424b86f29"},"vehicle_type_id":"4","last_reported":1683475654,"current_range_meters":0,"station_id":"ce4bh512rcd13ifvqe3g","pricing_plan_id":"free"},{"bike_id":"6c0ba448-1fa6-403b-adc7-0feb450b4ab4","system_id":"levelo_inurba_marseille","lat":43.28471,"lon":5.38429,"is_reserved":false,"is_disabled":false,"rental_uris":{"android":"levelo://app?vid=6c0ba448-1fa6-403b-adc7-0feb450b4ab4","ios":"levelo://app?vid=6c0ba448-1fa6-403b-adc7-0feb450b4ab4"},"vehicle_type_id":"4","last_reported":1683475654,"current_range_meters":2800,"station_id":"ce4bh512rcd13ifvqe3g","pricing_plan_id":"free"},{"bike_id":"064bba4c-3e2a-4629-ab5d-bc6d642c7776","system_id":"levelo_inurba_marseille","lat":43.288497,"lon":5.393089,"is_reserved":false,"is_disabled":false,"rental_uris":{"android":"levelo://app?vid=064bba4c-3e2a-4629-ab5d-bc6d642c7776","ios":"levelo://app?vid=064bba4c-3e2a-4629-ab5d-bc6d642c7776"},"vehicle_type_id":"4","last_reported":1683475654,"current_range_meters":12000,"station_id":"ce4bh2p2rcd13ifvqdi0","pricing_plan_id":"free"},{"bike_id":"c58deb5a-604b-463f-a667-dcdb72a71ae7","system_id":"levelo_inurba_marseille","lat":43.284793,"lon":5.384119,"is_reserved":false,"is_disabled":false,"rental_uris":{"android":"levelo://app?vid=c58deb5a-604b-463f-a667-dcdb72a71ae7","ios":"levelo://app?vid=c58deb5a-604b-463f-a667-dcdb72a71ae7"},"vehicle_type_id":"4","last_reported":1683475654,"current_range_meters":0,"station_id":"ce4bh512rcd13ifvqe3g","pricing_plan_id":"free"},{"bike_id":"831ffae7-514a-43b6-898d-d10833010861","system_id":"levelo_inurba_marseille","lat":43.284219,"lon":5.3497,"is_reserved":false,"is_disabled":false,"rental_uris":{"android":"levelo://app?vid=831ffae7-514a-43b6-898d-d10833010861","ios":"levelo://app?vid=831ffae7-514a-43b6-898d-d10833010861"},"vehicle_type_id":"4","last_reported":1683475654,"current_range_meters":28400,"station_id":"ce4bhbh2rcd13ifvqepg","pricing_plan_id":"free"},{"bike_id":"d1c80154-7ea7-4769-adb2-186de7807026","system_id":"levelo_inurba_marseille","lat":43.28424,"lon":5.34993,"is_reserved":false,"is_disabled":false,"rental_uris":{"android":"levelo://app?vid=d1c80154-7ea7-4769-adb2-186de7807026","ios":"levelo://app?vid=d1c80154-7ea7-4769-adb2-186de7807026"},"vehicle_type_id":"4","last_reported":1683475654,"current_range_meters":26000,"station_id":"ce4bhbh2rcd13ifvqepg","pricing_plan_id":"free"},{"bike_id":"79808b68-c25e-483f-b899-63372b4a1e02","system_id":"levelo_inurba_marseille","lat":43.284219,"lon":5.3497,"is_reserved":false,"is_disabled":false,"rental_uris":{"android":"levelo://app?vid=79808b68-c25e-483f-b899-63372b4a1e02","ios":"levelo://app?vid=79808b68-c25e-483f-b899-63372b4a1e02"},"vehicle_type_id":"4","last_reported":1683475654,"current_range_meters":24800,"station_id":"ce4bhbh2rcd13ifvqepg","pricing_plan_id":"free"},{"bike_id":"c58137ff-dcd2-4f38-8ef2-93187d5542e0","system_id":"levelo_inurba_marseille","lat":43.28417,"lon":5.34992,"is_reserved":false,"is_disabled":false,"rental_uris":{"android":"levelo://app?vid=c58137ff-dcd2-4f38-8ef2-93187d5542e0","ios":"levelo://app?vid=c58137ff-dcd2-4f38-8ef2-93187d5542e0"},"vehicle_type_id":"4","last_reported":1683475654,"current_range_meters":13200,"station_id":"ce4bhbh2rcd13ifvqepg","pricing_plan_id":"free"},{"bike_id":"ad8bd725-3cf8-4cc1-9c1f-27acd8e80db9","system_id":"levelo_inurba_marseille","lat":43.284217,"lon":5.349697,"is_reserved":false,"is_disabled":false,"rental_uris":{"android":"levelo://app?vid=ad8bd725-3cf8-4cc1-9c1f-27acd8e80db9","ios":"levelo://app?vid=ad8bd725-3cf8-4cc1-9c1f-27acd8e80db9"},"vehicle_type_id":"4","last_reported":1683475654,"current_range_meters":27600,"station_id":"ce4bhbh2rcd13ifvqepg","pricing_plan_id":"free"},{"bike_id":"63103703-f557-43d5-82be-2b56eef97b98","system_id":"levelo_inurba_marseille","lat":43.28416,"lon":5.34994,"is_reserved":false,"is_disabled":false,"rental_uris":{"android":"levelo://app?vid=63103703-f557-43d5-82be-2b56eef97b98","ios":"levelo://app?vid=63103703-f557-43d5-82be-2b56eef97b98"},"vehicle_type_id":"4","last_reported":1683475654,"current_range_meters":6800,"station_id":"ce4bhbh2rcd13ifvqepg","pricing_plan_id":"free"},{"bike_id":"8e58c07d-2fce-4b43-b7a1-88954d6f6498","system_id":"levelo_inurba_marseille","lat":43.28416,"lon":5.34994,"is_reserved":false,"is_disabled":false,"rental_uris":{"android":"levelo://app?vid=8e58c07d-2fce-4b43-b7a1-88954d6f6498","ios":"levelo://app?vid=8e58c07d-2fce-4b43-b7a1-88954d6f6498"},"vehicle_type_id":"4","last_reported":1683475654,"current_range_meters":14000,"station_id":"ce4bhbh2rcd13ifvqepg","pricing_plan_id":"free"},{"bike_id":"013b6f21-4e28-49d5-a4a8-48d4e047abc8","system_id":"levelo_inurba_marseille","lat":43.284219,"lon":5.3497,"is_reserved":false,"is_disabled":false,"rental_uris":{"android":"levelo://app?vid=013b6f21-4e28-49d5-a4a8-48d4e047abc8","ios":"levelo://app?vid=013b6f21-4e28-49d5-a4a8-48d4e047abc8"},"vehicle_type_id":"4","last_reported":1683475654,"current_range_meters":15600,"station_id":"ce4bhbh2rcd13ifvqepg","pricing_plan_id":"free"},{"bike_id":"b98f518f-ed44-4a09-9c2a-a3ab5ca6ba6e","system_id":"levelo_inurba_marseille","lat":43.28418,"lon":5.34984,"is_reserved":false,"is_disabled":false,"rental_uris":{"android":"levelo://app?vid=b98f518f-ed44-4a09-9c2a-a3ab5ca6ba6e","ios":"levelo://app?vid=b98f518f-ed44-4a09-9c2a-a3ab5ca6ba6e"},"vehicle_type_id":"4","last_reported":1683475654,"current_range_meters":22400,"station_id":"ce4bhbh2rcd13ifvqepg","pricing_plan_id":"free"},{"bike_id":"d6731286-341d-4d52-a979-ba4fb471c519","system_id":"levelo_inurba_marseille","lat":43.28416,"lon":5.34989,"is_reserved":false,"is_disabled":false,"rental_uris":{"android":"levelo://app?vid=d6731286-341d-4d52-a979-ba4fb471c519","ios":"levelo://app?vid=d6731286-341d-4d52-a979-ba4fb471c519"},"vehicle_type_id":"4","last_reported":1683475654,"current_range_meters":18000,"station_id":"ce4bhbh2rcd13ifvqepg","pricing_plan_id":"free"},{"bike_id":"1e3d621e-76cf-4461-a0b1-60437393e4f0","system_id":"levelo_inurba_marseille","lat":43.28416,"lon":5.34988,"is_reserved":false,"is_disabled":false,"rental_uris":{"android":"levelo://app?vid=1e3d621e-76cf-4461-a0b1-60437393e4f0","ios":"levelo://app?vid=1e3d621e-76cf-4461-a0b1-60437393e4f0"},"vehicle_type_id":"4","last_reported":1683475654,"current_range_meters":26000,"station_id":"ce4bhbh2rcd13ifvqepg","pricing_plan_id":"free"},{"bike_id":"49032da2-f9e4-478b-a29d-e06095c583ec","system_id":"levelo_inurba_marseille","lat":43.28412,"lon":5.34992,"is_reserved":false,"is_disabled":false,"rental_uris":{"android":"levelo://app?vid=49032da2-f9e4-478b-a29d-e06095c583ec","ios":"levelo://app?vid=49032da2-f9e4-478b-a29d-e06095c583ec"},"vehicle_type_id":"4","last_reported":1683475654,"current_range_meters":16800,"station_id":"ce4bhbh2rcd13ifvqepg","pricing_plan_id":"free"},{"bike_id":"b91e9b7b-dfc3-4a9b-9e44-4fcab0887d9e","system_id":"levelo_inurba_marseille","lat":43.28412,"lon":5.34989,"is_reserved":false,"is_disabled":false,"rental_uris":{"android":"levelo://app?vid=b91e9b7b-dfc3-4a9b-9e44-4fcab0887d9e","ios":"levelo://app?vid=b91e9b7b-dfc3-4a9b-9e44-4fcab0887d9e"},"vehicle_type_id":"4","last_reported":1683475654,"current_range_meters":19200,"station_id":"ce4bhbh2rcd13ifvqepg","pricing_plan_id":"free"},{"bike_id":"b5170f80-50c2-4c2c-8cfa-4fbaf76c86a8","system_id":"levelo_inurba_marseille","lat":43.28416,"lon":5.349653,"is_reserved":false,"is_disabled":false,"rental_uris":{"android":"levelo://app?vid=b5170f80-50c2-4c2c-8cfa-4fbaf76c86a8","ios":"levelo://app?vid=b5170f80-50c2-4c2c-8cfa-4fbaf76c86a8"},"vehicle_type_id":"4","last_reported":1683475654,"current_range_meters":3200,"station_id":"","pricing_plan_id":"free"},{"bike_id":"c1d8abba-3463-47eb-af03-5714bacd6f63","system_id":"levelo_inurba_marseille","lat":43.28408,"lon":5.34989,"is_reserved":false,"is_disabled":false,"rental_uris":{"android":"levelo://app?vid=c1d8abba-3463-47eb-af03-5714bacd6f63","ios":"levelo://app?vid=c1d8abba-3463-47eb-af03-5714bacd6f63"},"vehicle_type_id":"4","last_reported":1683475654,"current_range_meters":24800,"station_id":"ce4bhbh2rcd13ifvqepg","pricing_plan_id":"free"},{"bike_id":"46ff224f-bd42-48b4-9550-1ed85b37a96d","system_id":"levelo_inurba_marseille","lat":43.28939,"lon":5.39639,"is_reserved":false,"is_disabled":false,"rental_uris":{"android":"levelo://app?vid=46ff224f-bd42-48b4-9550-1ed85b37a96d","ios":"levelo://app?vid=46ff224f-bd42-48b4-9550-1ed85b37a96d"},"vehicle_type_id":"4","last_reported":1683475654,"current_range_meters":8800,"station_id":"ce4bh3h2rcd13ifvqdn0","pricing_plan_id":"free"},{"bike_id":"141070fa-4451-456d-bef8-7313f771a415","system_id":"levelo_inurba_marseille","lat":43.292724,"lon":5.401131,"is_reserved":false,"is_disabled":false,"rental_uris":{"android":"levelo://app?vid=141070fa-4451-456d-bef8-7313f771a415","ios":"levelo://app?vid=141070fa-4451-456d-bef8-7313f771a415"},"vehicle_type_id":"4","last_reported":1683475654,"current_range_meters":23600,"station_id":"ce4bh312rcd13ifvqdk0","pricing_plan_id":"free"},{"bike_id":"ac6359ed-878f-4765-bc7d-b587e2154ff6","system_id":"levelo_inurba_marseille","lat":43.28293,"lon":5.35054,"is_reserved":false,"is_disabled":false,"rental_uris":{"android":"levelo://app?vid=ac6359ed-878f-4765-bc7d-b587e2154ff6","ios":"levelo://app?vid=ac6359ed-878f-4765-bc7d-b587e2154ff6"},"vehicle_type_id":"4","last_reported":1683475654,"current_range_meters":2400,"station_id":"ce4bhbp2rcd13ifvqerg","pricing_plan_id":"free"},{"bike_id":"76242f32-c407-44d4-84d7-fa1d50b0f9dc","system_id":"levelo_inurba_marseille","lat":43.32444,"lon":5.40831,"is_reserved":false,"is_disabled":false,"rental_uris":{"android":"levelo://app?vid=76242f32-c407-44d4-84d7-fa1d50b0f9dc","ios":"levelo://app?vid=76242f32-c407-44d4-84d7-fa1d50b0f9dc"},"vehicle_type_id":"4","last_reported":1683475654,"current_range_meters":0,"station_id":"","pricing_plan_id":"free"},{"bike_id":"181c654d-09d5-4fd1-bb38-db0c3e2f41ba","system_id":"levelo_inurba_marseille","lat":43.28266,"lon":5.35068,"is_reserved":false,"is_disabled":false,"rental_uris":{"android":"levelo://app?vid=181c654d-09d5-4fd1-bb38-db0c3e2f41ba","ios":"levelo://app?vid=181c654d-09d5-4fd1-bb38-db0c3e2f41ba"},"vehicle_type_id":"4","last_reported":1683475654,"current_range_meters":8400,"station_id":"ce4bhbp2rcd13ifvqerg","pricing_plan_id":"free"},{"bike_id":"9906fb31-ddef-41b5-9a70-296de0fb8094","system_id":"levelo_inurba_marseille","lat":43.282744,"lon":5.350533,"is_reserved":false,"is_disabled":false,"rental_uris":{"android":"levelo://app?vid=9906fb31-ddef-41b5-9a70-296de0fb8094","ios":"levelo://app?vid=9906fb31-ddef-41b5-9a70-296de0fb8094"},"vehicle_type_id":"4","last_reported":1683475654,"current_range_meters":7600,"station_id":"ce4bhbp2rcd13ifvqerg","pricing_plan_id":"free"},{"bike_id":"9d042151-1e1a-4b9a-a244-13ff2d323c6d","system_id":"levelo_inurba_marseille","lat":43.282744,"lon":5.350533,"is_reserved":false,"is_disabled":false,"rental_uris":{"android":"levelo://app?vid=9d042151-1e1a-4b9a-a244-13ff2d323c6d","ios":"levelo://app?vid=9d042151-1e1a-4b9a-a244-13ff2d323c6d"},"vehicle_type_id":"4","last_reported":1683475654,"current_range_meters":0,"station_id":"ce4bhbp2rcd13ifvqerg","pricing_plan_id":"free"},{"bike_id":"4712f36e-5f1b-4f8c-8ab5-1923607cfc44","system_id":"levelo_inurba_marseille","lat":43.28039,"lon":5.36954,"is_reserved":false,"is_disabled":false,"rental_uris":{"android":"levelo://app?vid=4712f36e-5f1b-4f8c-8ab5-1923607cfc44","ios":"levelo://app?vid=4712f36e-5f1b-4f8c-8ab5-1923607cfc44"},"vehicle_type_id":"4","last_reported":1683475654,"current_range_meters":15600,"station_id":"ce4bha12rcd13ifvqef0","pricing_plan_id":"free"},{"bike_id":"6035d4ff-d157-470e-b23d-3f01345b1f66","system_id":"levelo_inurba_marseille","lat":43.282744,"lon":5.350533,"is_reserved":false,"is_disabled":false,"rental_uris":{"android":"levelo://app?vid=6035d4ff-d157-470e-b23d-3f01345b1f66","ios":"levelo://app?vid=6035d4ff-d157-470e-b23d-3f01345b1f66"},"vehicle_type_id":"4","last_reported":1683475654,"current_range_meters":6400,"station_id":"ce4bhbp2rcd13ifvqerg","pricing_plan_id":"free"},{"bike_id":"e880eb53-854a-4d20-b6dd-807cb7177fe2","system_id":"levelo_inurba_marseille","lat":43.28039,"lon":5.369297,"is_reserved":false,"is_disabled":false,"rental_uris":{"android":"levelo://app?vid=e880eb53-854a-4d20-b6dd-807cb7177fe2","ios":"levelo://app?vid=e880eb53-854a-4d20-b6dd-807cb7177fe2"},"vehicle_type_id":"4","last_reported":1683475654,"current_range_meters":30400,"station_id":"ce4bha12rcd13ifvqef0","pricing_plan_id":"free"},{"bike_id":"7bef419d-9a77-4681-b86d-0ffcad6eb95f","system_id":"levelo_inurba_marseille","lat":43.282744,"lon":5.350533,"is_reserved":false,"is_disabled":false,"rental_uris":{"android":"levelo://app?vid=7bef419d-9a77-4681-b86d-0ffcad6eb95f","ios":"levelo://app?vid=7bef419d-9a77-4681-b86d-0ffcad6eb95f"},"vehicle_type_id":"4","last_reported":1683475654,"current_range_meters":25200,"station_id":"ce4bhbp2rcd13ifvqerg","pricing_plan_id":"free"},{"bike_id":"a2762637-75c1-43bb-ab7e-fa5fbe7dcbb8","system_id":"levelo_inurba_marseille","lat":43.280382,"lon":5.369291,"is_reserved":false,"is_disabled":false,"rental_uris":{"android":"levelo://app?vid=a2762637-75c1-43bb-ab7e-fa5fbe7dcbb8","ios":"levelo://app?vid=a2762637-75c1-43bb-ab7e-fa5fbe7dcbb8"},"vehicle_type_id":"4","last_reported":1683475654,"current_range_meters":18000,"station_id":"ce4bha12rcd13ifvqef0","pricing_plan_id":"free"},{"bike_id":"67323d78-a180-4e78-a099-65c0cc232cb1","system_id":"levelo_inurba_marseille","lat":43.29041,"lon":5.399634,"is_reserved":false,"is_disabled":false,"rental_uris":{"android":"levelo://app?vid=67323d78-a180-4e78-a099-65c0cc232cb1","ios":"levelo://app?vid=67323d78-a180-4e78-a099-65c0cc232cb1"},"vehicle_type_id":"4","last_reported":1683475654,"current_range_meters":13200,"station_id":"ce4bh392rcd13ifvqdm0","pricing_plan_id":"free"},{"bike_id":"5dbcf587-4e51-454a-abc0-c25eec9380e2","system_id":"levelo_inurba_marseille","lat":43.29041,"lon":5.399634,"is_reserved":false,"is_disabled":false,"rental_uris":{"android":"levelo://app?vid=5dbcf587-4e51-454a-abc0-c25eec9380e2","ios":"levelo://app?vid=5dbcf587-4e51-454a-abc0-c25eec9380e2"},"vehicle_type_id":"4","last_reported":1683475654,"current_range_meters":8000,"station_id":"ce4bh392rcd13ifvqdm0","pricing_plan_id":"free"},{"bike_id":"4aeed4aa-a90f-489c-be2b-f97ec786646c","system_id":"levelo_inurba_marseille","lat":43.29041,"lon":5.399634,"is_reserved":false,"is_disabled":false,"rental_uris":{"android":"levelo://app?vid=4aeed4aa-a90f-489c-be2b-f97ec786646c","ios":"levelo://app?vid=4aeed4aa-a90f-489c-be2b-f97ec786646c"},"vehicle_type_id":"4","last_reported":1683475654,"current_range_meters":11200,"station_id":"ce4bh392rcd13ifvqdm0","pricing_plan_id":"free"},{"bike_id":"5338539b-d7ca-4640-8105-252dbf835c53","system_id":"levelo_inurba_marseille","lat":43.281044,"lon":5.378308,"is_reserved":false,"is_disabled":false,"rental_uris":{"android":"levelo://app?vid=5338539b-d7ca-4640-8105-252dbf835c53","ios":"levelo://app?vid=5338539b-d7ca-4640-8105-252dbf835c53"},"vehicle_type_id":"4","last_reported":1683475654,"current_range_meters":9600,"station_id":"ce4bha12rcd13ifvqee0","pricing_plan_id":"free"},{"bike_id":"04d6df67-060a-4657-8e2c-cc43a95d2e4d","system_id":"levelo_inurba_marseille","lat":43.281044,"lon":5.378308,"is_reserved":false,"is_disabled":false,"rental_uris":{"android":"levelo://app?vid=04d6df67-060a-4657-8e2c-cc43a95d2e4d","ios":"levelo://app?vid=04d6df67-060a-4657-8e2c-cc43a95d2e4d"},"vehicle_type_id":"4","last_reported":1683475654,"current_range_meters":17600,"station_id":"ce4bha12rcd13ifvqee0","pricing_plan_id":"free"},{"bike_id":"41be7395-521f-4f9b-9ca1-f7537e3dd4b8","system_id":"levelo_inurba_marseille","lat":43.28107,"lon":5.37835,"is_reserved":false,"is_disabled":false,"rental_uris":{"android":"levelo://app?vid=41be7395-521f-4f9b-9ca1-f7537e3dd4b8","ios":"levelo://app?vid=41be7395-521f-4f9b-9ca1-f7537e3dd4b8"},"vehicle_type_id":"4","last_reported":1683475654,"current_range_meters":23200,"station_id":"ce4bha12rcd13ifvqee0","pricing_plan_id":"free"},{"bike_id":"7c67eacc-9bd6-4d23-9b23-d6f4e86dbe1f","system_id":"levelo_inurba_marseille","lat":43.29632,"lon":5.40602,"is_reserved":false,"is_disabled":false,"rental_uris":{"android":"levelo://app?vid=7c67eacc-9bd6-4d23-9b23-d6f4e86dbe1f","ios":"levelo://app?vid=7c67eacc-9bd6-4d23-9b23-d6f4e86dbe1f"},"vehicle_type_id":"4","last_reported":1683475654,"current_range_meters":6000,"station_id":"ce4bh0h2rcd13ifvqd60","pricing_plan_id":"free"},{"bike_id":"88756ab6-0ad2-4577-a1a5-faaa64d07d16","system_id":"levelo_inurba_marseille","lat":43.284462,"lon":5.392121,"is_reserved":false,"is_disabled":false,"rental_uris":{"android":"levelo://app?vid=88756ab6-0ad2-4577-a1a5-faaa64d07d16","ios":"levelo://app?vid=88756ab6-0ad2-4577-a1a5-faaa64d07d16"},"vehicle_type_id":"4","last_reported":1683475654,"current_range_meters":12000,"station_id":"ce4bhoh2rcd13ifvqh5g","pricing_plan_id":"free"},{"bike_id":"cf76bec5-dcdc-4576-93d2-ebe46fdea92d","system_id":"levelo_inurba_marseille","lat":43.284462,"lon":5.392121,"is_reserved":false,"is_disabled":false,"rental_uris":{"android":"levelo://app?vid=cf76bec5-dcdc-4576-93d2-ebe46fdea92d","ios":"levelo://app?vid=cf76bec5-dcdc-4576-93d2-ebe46fdea92d"},"vehicle_type_id":"4","last_reported":1683475654,"current_range_meters":17600,"station_id":"ce4bhoh2rcd13ifvqh5g","pricing_plan_id":"free"},{"bike_id":"fd5cf00b-ce9c-4a13-9230-a3ded1ad823b","system_id":"levelo_inurba_marseille","lat":43.284462,"lon":5.392121,"is_reserved":false,"is_disabled":false,"rental_uris":{"android":"levelo://app?vid=fd5cf00b-ce9c-4a13-9230-a3ded1ad823b","ios":"levelo://app?vid=fd5cf00b-ce9c-4a13-9230-a3ded1ad823b"},"vehicle_type_id":"4","last_reported":1683475654,"current_range_meters":25200,"station_id":"ce4bhoh2rcd13ifvqh5g","pricing_plan_id":"free"},{"bike_id":"62df805f-51ea-4fb7-b6a7-057db2f889f9","system_id":"levelo_inurba_marseille","lat":43.284462,"lon":5.392121,"is_reserved":false,"is_disabled":false,"rental_uris":{"android":"levelo://app?vid=62df805f-51ea-4fb7-b6a7-057db2f889f9","ios":"levelo://app?vid=62df805f-51ea-4fb7-b6a7-057db2f889f9"},"vehicle_type_id":"4","last_reported":1683475654,"current_range_meters":20400,"station_id":"ce4bhoh2rcd13ifvqh5g","pricing_plan_id":"free"},{"bike_id":"7114ff44-9be4-4d51-9307-f81c6be0d488","system_id":"levelo_inurba_marseille","lat":43.28573,"lon":5.39498,"is_reserved":false,"is_disabled":false,"rental_uris":{"android":"levelo://app?vid=7114ff44-9be4-4d51-9307-f81c6be0d488","ios":"levelo://app?vid=7114ff44-9be4-4d51-9307-f81c6be0d488"},"vehicle_type_id":"4","last_reported":1683475654,"current_range_meters":22400,"station_id":"ce4bh292rcd13ifvqdg0","pricing_plan_id":"free"},{"bike_id":"bc5b6fdc-374a-4cac-9f90-da80ca788f37","system_id":"levelo_inurba_marseille","lat":43.32058,"lon":5.41541,"is_reserved":false,"is_disabled":false,"rental_uris":{"android":"levelo://app?vid=bc5b6fdc-374a-4cac-9f90-da80ca788f37","ios":"levelo://app?vid=bc5b6fdc-374a-4cac-9f90-da80ca788f37"},"vehicle_type_id":"4","last_reported":1683475654,"current_range_meters":23200,"station_id":"","pricing_plan_id":"free"},{"bike_id":"e154fb1c-3b2c-4093-88c0-6c65bc0c63ac","system_id":"levelo_inurba_marseille","lat":43.27979,"lon":5.38739,"is_reserved":false,"is_disabled":false,"rental_uris":{"android":"levelo://app?vid=e154fb1c-3b2c-4093-88c0-6c65bc0c63ac","ios":"levelo://app?vid=e154fb1c-3b2c-4093-88c0-6c65bc0c63ac"},"vehicle_type_id":"4","last_reported":1683475654,"current_range_meters":0,"station_id":"ce4bhg12rcd13ifvqf80","pricing_plan_id":"free"},{"bike_id":"8915c322-f0f3-4dad-860c-803dd44ee2bd","system_id":"levelo_inurba_marseille","lat":43.320045,"lon":5.415048,"is_reserved":false,"is_disabled":false,"rental_uris":{"android":"levelo://app?vid=8915c322-f0f3-4dad-860c-803dd44ee2bd","ios":"levelo://app?vid=8915c322-f0f3-4dad-860c-803dd44ee2bd"},"vehicle_type_id":"4","last_reported":1683475654,"current_range_meters":20400,"station_id":"ce4bhq92rcd13ifvqhkg","pricing_plan_id":"free"},{"bike_id":"02a63ac2-bc1c-4d64-b42f-f2e53f893af4","system_id":"levelo_inurba_marseille","lat":43.32062,"lon":5.41548,"is_reserved":false,"is_disabled":false,"rental_uris":{"android":"levelo://app?vid=02a63ac2-bc1c-4d64-b42f-f2e53f893af4","ios":"levelo://app?vid=02a63ac2-bc1c-4d64-b42f-f2e53f893af4"},"vehicle_type_id":"4","last_reported":1683475654,"current_range_meters":21200,"station_id":"","pricing_plan_id":"free"},{"bike_id":"b7dcd9ad-8282-48bc-8a7b-ddd675402dff","system_id":"levelo_inurba_marseille","lat":43.32035,"lon":5.41561,"is_reserved":false,"is_disabled":false,"rental_uris":{"android":"levelo://app?vid=b7dcd9ad-8282-48bc-8a7b-ddd675402dff","ios":"levelo://app?vid=b7dcd9ad-8282-48bc-8a7b-ddd675402dff"},"vehicle_type_id":"4","last_reported":1683475654,"current_range_meters":23200,"station_id":"","pricing_plan_id":"free"},{"bike_id":"ea2b486e-d8d3-4d22-9500-97afd0f24fd6","system_id":"levelo_inurba_marseille","lat":43.27966,"lon":5.38725,"is_reserved":false,"is_disabled":false,"rental_uris":{"android":"levelo://app?vid=ea2b486e-d8d3-4d22-9500-97afd0f24fd6","ios":"levelo://app?vid=ea2b486e-d8d3-4d22-9500-97afd0f24fd6"},"vehicle_type_id":"4","last_reported":1683475654,"current_range_meters":0,"station_id":"ce4bhg12rcd13ifvqf80","pricing_plan_id":"free"},{"bike_id":"92282632-ceb6-4f93-ba7b-89e0a5557be3","system_id":"levelo_inurba_marseille","lat":43.279742,"lon":5.38744,"is_reserved":false,"is_disabled":false,"rental_uris":{"android":"levelo://app?vid=92282632-ceb6-4f93-ba7b-89e0a5557be3","ios":"levelo://app?vid=92282632-ceb6-4f93-ba7b-89e0a5557be3"},"vehicle_type_id":"4","last_reported":1683475654,"current_range_meters":14400,"station_id":"ce4bhg12rcd13ifvqf80","pricing_plan_id":"free"},{"bike_id":"b24da798-0b89-41ac-9bca-fce0f1dd01dd","system_id":"levelo_inurba_marseille","lat":43.32074,"lon":5.41565,"is_reserved":false,"is_disabled":false,"rental_uris":{"android":"levelo://app?vid=b24da798-0b89-41ac-9bca-fce0f1dd01dd","ios":"levelo://app?vid=b24da798-0b89-41ac-9bca-fce0f1dd01dd"},"vehicle_type_id":"4","last_reported":1683475654,"current_range_meters":22000,"station_id":"","pricing_plan_id":"free"},{"bike_id":"b1ecb257-fbb4-44f0-a870-b3a1dfe1fe09","system_id":"levelo_inurba_marseille","lat":43.325233,"lon":5.414318,"is_reserved":false,"is_disabled":false,"rental_uris":{"android":"levelo://app?vid=b1ecb257-fbb4-44f0-a870-b3a1dfe1fe09","ios":"levelo://app?vid=b1ecb257-fbb4-44f0-a870-b3a1dfe1fe09"},"vehicle_type_id":"4","last_reported":1683475654,"current_range_meters":19600,"station_id":"ce4bhq12rcd13ifvqhhg","pricing_plan_id":"free"},{"bike_id":"eb4f510a-b4f2-4513-9e9f-c4b14f0b0170","system_id":"levelo_inurba_marseille","lat":43.325233,"lon":5.414318,"is_reserved":false,"is_disabled":false,"rental_uris":{"android":"levelo://app?vid=eb4f510a-b4f2-4513-9e9f-c4b14f0b0170","ios":"levelo://app?vid=eb4f510a-b4f2-4513-9e9f-c4b14f0b0170"},"vehicle_type_id":"4","last_reported":1683475654,"current_range_meters":32000,"station_id":"ce4bhq12rcd13ifvqhhg","pricing_plan_id":"free"},{"bike_id":"ba016776-39b2-4c35-8665-5cfbb2818d40","system_id":"levelo_inurba_marseille","lat":43.32539,"lon":5.41445,"is_reserved":false,"is_disabled":false,"rental_uris":{"android":"levelo://app?vid=ba016776-39b2-4c35-8665-5cfbb2818d40","ios":"levelo://app?vid=ba016776-39b2-4c35-8665-5cfbb2818d40"},"vehicle_type_id":"4","last_reported":1683475654,"current_range_meters":31200,"station_id":"ce4bhq12rcd13ifvqhhg","pricing_plan_id":"free"},{"bike_id":"d527fbd8-fbc7-47be-b441-9c2469662b92","system_id":"levelo_inurba_marseille","lat":43.32546,"lon":5.41451,"is_reserved":false,"is_disabled":false,"rental_uris":{"android":"levelo://app?vid=d527fbd8-fbc7-47be-b441-9c2469662b92","ios":"levelo://app?vid=d527fbd8-fbc7-47be-b441-9c2469662b92"},"vehicle_type_id":"4","last_reported":1683475654,"current_range_meters":31200,"station_id":"ce4bhq12rcd13ifvqhhg","pricing_plan_id":"free"},{"bike_id":"55c89222-8251-4c48-a9e5-42cc22773dad","system_id":"levelo_inurba_marseille","lat":43.325233,"lon":5.414318,"is_reserved":false,"is_disabled":false,"rental_uris":{"android":"levelo://app?vid=55c89222-8251-4c48-a9e5-42cc22773dad","ios":"levelo://app?vid=55c89222-8251-4c48-a9e5-42cc22773dad"},"vehicle_type_id":"4","last_reported":1683475654,"current_range_meters":25600,"station_id":"ce4bhq12rcd13ifvqhhg","pricing_plan_id":"free"},{"bike_id":"f927b1c6-fd23-4d5f-825e-643aa71d5d73","system_id":"levelo_inurba_marseille","lat":43.325233,"lon":5.414318,"is_reserved":false,"is_disabled":false,"rental_uris":{"android":"levelo://app?vid=f927b1c6-fd23-4d5f-825e-643aa71d5d73","ios":"levelo://app?vid=f927b1c6-fd23-4d5f-825e-643aa71d5d73"},"vehicle_type_id":"4","last_reported":1683475654,"current_range_meters":31200,"station_id":"ce4bhq12rcd13ifvqhhg","pricing_plan_id":"free"},{"bike_id":"7ed34ba3-aabc-4ec1-bb6e-fdd3261b8348","system_id":"levelo_inurba_marseille","lat":43.27586,"lon":5.38286,"is_reserved":false,"is_disabled":false,"rental_uris":{"android":"levelo://app?vid=7ed34ba3-aabc-4ec1-bb6e-fdd3261b8348","ios":"levelo://app?vid=7ed34ba3-aabc-4ec1-bb6e-fdd3261b8348"},"vehicle_type_id":"4","last_reported":1683475654,"current_range_meters":24800,"station_id":"","pricing_plan_id":"free"},{"bike_id":"98dac511-397c-4ed9-be06-dfa31363b551","system_id":"levelo_inurba_marseille","lat":43.273613,"lon":5.362705,"is_reserved":false,"is_disabled":false,"rental_uris":{"android":"levelo://app?vid=98dac511-397c-4ed9-be06-dfa31363b551","ios":"levelo://app?vid=98dac511-397c-4ed9-be06-dfa31363b551"},"vehicle_type_id":"4","last_reported":1683475654,"current_range_meters":0,"station_id":"ce4bhbh2rcd13ifvqeo0","pricing_plan_id":"free"},{"bike_id":"8b3879ea-935d-41a6-84e7-94e588738782","system_id":"levelo_inurba_marseille","lat":43.273613,"lon":5.362705,"is_reserved":false,"is_disabled":false,"rental_uris":{"android":"levelo://app?vid=8b3879ea-935d-41a6-84e7-94e588738782","ios":"levelo://app?vid=8b3879ea-935d-41a6-84e7-94e588738782"},"vehicle_type_id":"4","last_reported":1683475654,"current_range_meters":14400,"station_id":"ce4bhbh2rcd13ifvqeo0","pricing_plan_id":"free"},{"bike_id":"144ac981-4cce-4fd7-8862-7be54b2f9591","system_id":"levelo_inurba_marseille","lat":43.273613,"lon":5.362705,"is_reserved":false,"is_disabled":false,"rental_uris":{"android":"levelo://app?vid=144ac981-4cce-4fd7-8862-7be54b2f9591","ios":"levelo://app?vid=144ac981-4cce-4fd7-8862-7be54b2f9591"},"vehicle_type_id":"4","last_reported":1683475654,"current_range_meters":10800,"station_id":"ce4bhbh2rcd13ifvqeo0","pricing_plan_id":"free"},{"bike_id":"3ef9f15a-8489-4721-99f3-0909d9421800","system_id":"levelo_inurba_marseille","lat":43.33612,"lon":5.410321,"is_reserved":false,"is_disabled":false,"rental_uris":{"android":"levelo://app?vid=3ef9f15a-8489-4721-99f3-0909d9421800","ios":"levelo://app?vid=3ef9f15a-8489-4721-99f3-0909d9421800"},"vehicle_type_id":"4","last_reported":1683475654,"current_range_meters":31600,"station_id":"ce4bhqh2rcd13ifvqhmg","pricing_plan_id":"free"},{"bike_id":"6ce19521-fda2-4f00-a045-c7b635824c36","system_id":"levelo_inurba_marseille","lat":43.27367,"lon":5.36261,"is_reserved":false,"is_disabled":false,"rental_uris":{"android":"levelo://app?vid=6ce19521-fda2-4f00-a045-c7b635824c36","ios":"levelo://app?vid=6ce19521-fda2-4f00-a045-c7b635824c36"},"vehicle_type_id":"4","last_reported":1683475654,"current_range_meters":19200,"station_id":"ce4bhbh2rcd13ifvqeo0","pricing_plan_id":"free"},{"bike_id":"236e9b27-a1b6-4d9e-8d71-549c2ba15203","system_id":"levelo_inurba_marseille","lat":43.33604,"lon":5.41029,"is_reserved":false,"is_disabled":false,"rental_uris":{"android":"levelo://app?vid=236e9b27-a1b6-4d9e-8d71-549c2ba15203","ios":"levelo://app?vid=236e9b27-a1b6-4d9e-8d71-549c2ba15203"},"vehicle_type_id":"4","last_reported":1683475654,"current_range_meters":31200,"station_id":"ce4bhqh2rcd13ifvqhmg","pricing_plan_id":"free"},{"bike_id":"38e5bbe4-62b7-4d42-a919-f3aaf9466dd7","system_id":"levelo_inurba_marseille","lat":43.33612,"lon":5.410321,"is_reserved":false,"is_disabled":false,"rental_uris":{"android":"levelo://app?vid=38e5bbe4-62b7-4d42-a919-f3aaf9466dd7","ios":"levelo://app?vid=38e5bbe4-62b7-4d42-a919-f3aaf9466dd7"},"vehicle_type_id":"4","last_reported":1683475654,"current_range_meters":5600,"station_id":"ce4bhqh2rcd13ifvqhmg","pricing_plan_id":"free"},{"bike_id":"51634296-4863-4c7a-a2af-b85296b90d3e","system_id":"levelo_inurba_marseille","lat":43.33612,"lon":5.410321,"is_reserved":false,"is_disabled":false,"rental_uris":{"android":"levelo://app?vid=51634296-4863-4c7a-a2af-b85296b90d3e","ios":"levelo://app?vid=51634296-4863-4c7a-a2af-b85296b90d3e"},"vehicle_type_id":"4","last_reported":1683475654,"current_range_meters":4800,"station_id":"ce4bhqh2rcd13ifvqhmg","pricing_plan_id":"free"},{"bike_id":"3e9478e6-8251-48e1-8c69-dd5b9b346d83","system_id":"levelo_inurba_marseille","lat":43.33612,"lon":5.410321,"is_reserved":false,"is_disabled":false,"rental_uris":{"android":"levelo://app?vid=3e9478e6-8251-48e1-8c69-dd5b9b346d83","ios":"levelo://app?vid=3e9478e6-8251-48e1-8c69-dd5b9b346d83"},"vehicle_type_id":"4","last_reported":1683475654,"current_range_meters":31600,"station_id":"ce4bhqh2rcd13ifvqhmg","pricing_plan_id":"free"},{"bike_id":"cf9b8d32-8de3-4fbf-a6a2-7946f713b3fc","system_id":"levelo_inurba_marseille","lat":43.336134,"lon":5.410341,"is_reserved":false,"is_disabled":false,"rental_uris":{"android":"levelo://app?vid=cf9b8d32-8de3-4fbf-a6a2-7946f713b3fc","ios":"levelo://app?vid=cf9b8d32-8de3-4fbf-a6a2-7946f713b3fc"},"vehicle_type_id":"4","last_reported":1683475654,"current_range_meters":30000,"station_id":"ce4bhqh2rcd13ifvqhmg","pricing_plan_id":"free"},{"bike_id":"85deca11-d0e8-4e3d-a346-e4aa3cec3a4e","system_id":"levelo_inurba_marseille","lat":43.33608,"lon":5.41034,"is_reserved":false,"is_disabled":false,"rental_uris":{"android":"levelo://app?vid=85deca11-d0e8-4e3d-a346-e4aa3cec3a4e","ios":"levelo://app?vid=85deca11-d0e8-4e3d-a346-e4aa3cec3a4e"},"vehicle_type_id":"4","last_reported":1683475654,"current_range_meters":21200,"station_id":"ce4bhqh2rcd13ifvqhmg","pricing_plan_id":"free"},{"bike_id":"44b37b4a-46f4-4855-aa5d-43ccc935e374","system_id":"levelo_inurba_marseille","lat":43.33609,"lon":5.41036,"is_reserved":false,"is_disabled":false,"rental_uris":{"android":"levelo://app?vid=44b37b4a-46f4-4855-aa5d-43ccc935e374","ios":"levelo://app?vid=44b37b4a-46f4-4855-aa5d-43ccc935e374"},"vehicle_type_id":"4","last_reported":1683475654,"current_range_meters":30400,"station_id":"ce4bhqh2rcd13ifvqhmg","pricing_plan_id":"free"},{"bike_id":"965dbbad-d3c6-4491-b5e0-6a379e022ccc","system_id":"levelo_inurba_marseille","lat":43.336134,"lon":5.410341,"is_reserved":false,"is_disabled":false,"rental_uris":{"android":"levelo://app?vid=965dbbad-d3c6-4491-b5e0-6a379e022ccc","ios":"levelo://app?vid=965dbbad-d3c6-4491-b5e0-6a379e022ccc"},"vehicle_type_id":"4","last_reported":1683475654,"current_range_meters":31200,"station_id":"ce4bhqh2rcd13ifvqhmg","pricing_plan_id":"free"},{"bike_id":"3cacd4a7-6b12-4dbd-857a-2700dddc3c24","system_id":"levelo_inurba_marseille","lat":43.276754,"lon":5.388807,"is_reserved":false,"is_disabled":false,"rental_uris":{"android":"levelo://app?vid=3cacd4a7-6b12-4dbd-857a-2700dddc3c24","ios":"levelo://app?vid=3cacd4a7-6b12-4dbd-857a-2700dddc3c24"},"vehicle_type_id":"4","last_reported":1683475654,"current_range_meters":0,"station_id":"","pricing_plan_id":"free"},{"bike_id":"beb0e120-bdb3-463a-b98c-6bd145d6ea19","system_id":"levelo_inurba_marseille","lat":43.27675,"lon":5.38909,"is_reserved":false,"is_disabled":false,"rental_uris":{"android":"levelo://app?vid=beb0e120-bdb3-463a-b98c-6bd145d6ea19","ios":"levelo://app?vid=beb0e120-bdb3-463a-b98c-6bd145d6ea19"},"vehicle_type_id":"4","last_reported":1683475654,"current_range_meters":29600,"station_id":"ce4bhi12rcd13ifvqfo0","pricing_plan_id":"free"},{"bike_id":"3c74701a-f6a0-435d-9b34-35e94fed7183","system_id":"levelo_inurba_marseille","lat":43.32783,"lon":5.4179,"is_reserved":false,"is_disabled":false,"rental_uris":{"android":"levelo://app?vid=3c74701a-f6a0-435d-9b34-35e94fed7183","ios":"levelo://app?vid=3c74701a-f6a0-435d-9b34-35e94fed7183"},"vehicle_type_id":"4","last_reported":1683475654,"current_range_meters":18000,"station_id":"","pricing_plan_id":"free"},{"bike_id":"930a0cb0-f9ea-45a5-8d96-ff51ec878cf6","system_id":"levelo_inurba_marseille","lat":43.317121,"lon":5.423936,"is_reserved":false,"is_disabled":false,"rental_uris":{"android":"levelo://app?vid=930a0cb0-f9ea-45a5-8d96-ff51ec878cf6","ios":"levelo://app?vid=930a0cb0-f9ea-45a5-8d96-ff51ec878cf6"},"vehicle_type_id":"4","last_reported":1683475654,"current_range_meters":27600,"station_id":"ce4bhp92rcd13ifvqhbg","pricing_plan_id":"free"},{"bike_id":"1bfe6557-9dbb-4053-bed5-05ac572cb0cf","system_id":"levelo_inurba_marseille","lat":43.317121,"lon":5.423936,"is_reserved":false,"is_disabled":false,"rental_uris":{"android":"levelo://app?vid=1bfe6557-9dbb-4053-bed5-05ac572cb0cf","ios":"levelo://app?vid=1bfe6557-9dbb-4053-bed5-05ac572cb0cf"},"vehicle_type_id":"4","last_reported":1683475654,"current_range_meters":30400,"station_id":"ce4bhp92rcd13ifvqhbg","pricing_plan_id":"free"},{"bike_id":"687ac03d-a5c0-4259-9591-cb0a98ee6881","system_id":"levelo_inurba_marseille","lat":43.3172,"lon":5.42402,"is_reserved":false,"is_disabled":false,"rental_uris":{"android":"levelo://app?vid=687ac03d-a5c0-4259-9591-cb0a98ee6881","ios":"levelo://app?vid=687ac03d-a5c0-4259-9591-cb0a98ee6881"},"vehicle_type_id":"4","last_reported":1683475654,"current_range_meters":23600,"station_id":"ce4bhp92rcd13ifvqhbg","pricing_plan_id":"free"},{"bike_id":"cc608f9e-285e-427f-a50a-53de84a8743a","system_id":"levelo_inurba_marseille","lat":43.310785,"lon":5.424305,"is_reserved":false,"is_disabled":false,"rental_uris":{"android":"levelo://app?vid=cc608f9e-285e-427f-a50a-53de84a8743a","ios":"levelo://app?vid=cc608f9e-285e-427f-a50a-53de84a8743a"},"vehicle_type_id":"4","last_reported":1683475654,"current_range_meters":31200,"station_id":"ce4bhp92rcd13ifvqhag","pricing_plan_id":"free"},{"bike_id":"ba24f958-b346-4f24-9392-62bea66ed64e","system_id":"levelo_inurba_marseille","lat":43.317121,"lon":5.423936,"is_reserved":false,"is_disabled":false,"rental_uris":{"android":"levelo://app?vid=ba24f958-b346-4f24-9392-62bea66ed64e","ios":"levelo://app?vid=ba24f958-b346-4f24-9392-62bea66ed64e"},"vehicle_type_id":"4","last_reported":1683475654,"current_range_meters":30800,"station_id":"ce4bhp92rcd13ifvqhbg","pricing_plan_id":"free"},{"bike_id":"9f4068d5-0f8d-45ff-b73e-5175a92f78a2","system_id":"levelo_inurba_marseille","lat":43.31728,"lon":5.42403,"is_reserved":false,"is_disabled":false,"rental_uris":{"android":"levelo://app?vid=9f4068d5-0f8d-45ff-b73e-5175a92f78a2","ios":"levelo://app?vid=9f4068d5-0f8d-45ff-b73e-5175a92f78a2"},"vehicle_type_id":"4","last_reported":1683475654,"current_range_meters":3600,"station_id":"ce4bhp92rcd13ifvqhbg","pricing_plan_id":"free"},{"bike_id":"0d7a173a-1607-4cea-ac66-3eb06a6844b1","system_id":"levelo_inurba_marseille","lat":43.317121,"lon":5.423936,"is_reserved":false,"is_disabled":false,"rental_uris":{"android":"levelo://app?vid=0d7a173a-1607-4cea-ac66-3eb06a6844b1","ios":"levelo://app?vid=0d7a173a-1607-4cea-ac66-3eb06a6844b1"},"vehicle_type_id":"4","last_reported":1683475654,"current_range_meters":31200,"station_id":"ce4bhp92rcd13ifvqhbg","pricing_plan_id":"free"},{"bike_id":"6f4b11f9-130c-44f5-8163-b47645102e4c","system_id":"levelo_inurba_marseille","lat":43.317121,"lon":5.423936,"is_reserved":false,"is_disabled":false,"rental_uris":{"android":"levelo://app?vid=6f4b11f9-130c-44f5-8163-b47645102e4c","ios":"levelo://app?vid=6f4b11f9-130c-44f5-8163-b47645102e4c"},"vehicle_type_id":"4","last_reported":1683475654,"current_range_meters":31200,"station_id":"ce4bhp92rcd13ifvqhbg","pricing_plan_id":"free"},{"bike_id":"b57d2491-36a4-4c9b-a3cd-6c2028062ff8","system_id":"levelo_inurba_marseille","lat":43.317121,"lon":5.423936,"is_reserved":false,"is_disabled":false,"rental_uris":{"android":"levelo://app?vid=b57d2491-36a4-4c9b-a3cd-6c2028062ff8","ios":"levelo://app?vid=b57d2491-36a4-4c9b-a3cd-6c2028062ff8"},"vehicle_type_id":"4","last_reported":1683475654,"current_range_meters":3600,"station_id":"ce4bhp92rcd13ifvqhbg","pricing_plan_id":"free"},{"bike_id":"e221c5c3-8a6c-440f-8d09-341560288f45","system_id":"levelo_inurba_marseille","lat":43.273125,"lon":5.390731,"is_reserved":false,"is_disabled":false,"rental_uris":{"android":"levelo://app?vid=e221c5c3-8a6c-440f-8d09-341560288f45","ios":"levelo://app?vid=e221c5c3-8a6c-440f-8d09-341560288f45"},"vehicle_type_id":"4","last_reported":1683475654,"current_range_meters":0,"station_id":"ce4bhgp2rcd13ifvqfe0","pricing_plan_id":"free"},{"bike_id":"ac733dff-0e8c-4dda-a232-a6bea3d3f1c7","system_id":"levelo_inurba_marseille","lat":43.304096,"lon":5.425385,"is_reserved":false,"is_disabled":false,"rental_uris":{"android":"levelo://app?vid=ac733dff-0e8c-4dda-a232-a6bea3d3f1c7","ios":"levelo://app?vid=ac733dff-0e8c-4dda-a232-a6bea3d3f1c7"},"vehicle_type_id":"4","last_reported":1683475654,"current_range_meters":8000,"station_id":"ce4bhoh2rcd13ifvqh6g","pricing_plan_id":"free"},{"bike_id":"1f574373-7dba-478c-800e-5e4be2787f32","system_id":"levelo_inurba_marseille","lat":43.304096,"lon":5.425385,"is_reserved":false,"is_disabled":false,"rental_uris":{"android":"levelo://app?vid=1f574373-7dba-478c-800e-5e4be2787f32","ios":"levelo://app?vid=1f574373-7dba-478c-800e-5e4be2787f32"},"vehicle_type_id":"4","last_reported":1683475654,"current_range_meters":0,"station_id":"ce4bhoh2rcd13ifvqh6g","pricing_plan_id":"free"},{"bike_id":"4437aa2f-a91e-40ce-a692-898d1b134aa2","system_id":"levelo_inurba_marseille","lat":43.304096,"lon":5.425385,"is_reserved":false,"is_disabled":false,"rental_uris":{"android":"levelo://app?vid=4437aa2f-a91e-40ce-a692-898d1b134aa2","ios":"levelo://app?vid=4437aa2f-a91e-40ce-a692-898d1b134aa2"},"vehicle_type_id":"4","last_reported":1683475654,"current_range_meters":13200,"station_id":"ce4bhoh2rcd13ifvqh6g","pricing_plan_id":"free"},{"bike_id":"d19ef7f2-8112-4f95-9b18-217487ac8ad7","system_id":"levelo_inurba_marseille","lat":43.304096,"lon":5.425385,"is_reserved":false,"is_disabled":false,"rental_uris":{"android":"levelo://app?vid=d19ef7f2-8112-4f95-9b18-217487ac8ad7","ios":"levelo://app?vid=d19ef7f2-8112-4f95-9b18-217487ac8ad7"},"vehicle_type_id":"4","last_reported":1683475654,"current_range_meters":2400,"station_id":"ce4bhoh2rcd13ifvqh6g","pricing_plan_id":"free"},{"bike_id":"d8c8047c-60a3-4c1f-98e1-68897e0cd2f4","system_id":"levelo_inurba_marseille","lat":43.26764,"lon":5.372573,"is_reserved":false,"is_disabled":false,"rental_uris":{"android":"levelo://app?vid=d8c8047c-60a3-4c1f-98e1-68897e0cd2f4","ios":"levelo://app?vid=d8c8047c-60a3-4c1f-98e1-68897e0cd2f4"},"vehicle_type_id":"4","last_reported":1683475654,"current_range_meters":16800,"station_id":"","pricing_plan_id":"free"},{"bike_id":"05cea910-9d32-42f7-aa24-5359c873a4f4","system_id":"levelo_inurba_marseille","lat":43.269467,"lon":5.386439,"is_reserved":false,"is_disabled":false,"rental_uris":{"android":"levelo://app?vid=05cea910-9d32-42f7-aa24-5359c873a4f4","ios":"levelo://app?vid=05cea910-9d32-42f7-aa24-5359c873a4f4"},"vehicle_type_id":"4","last_reported":1683475654,"current_range_meters":5600,"station_id":"ce4bhh92rcd13ifvqfh0","pricing_plan_id":"free"},{"bike_id":"860e74c5-5eb6-41c3-a12d-8b2bf6703541","system_id":"levelo_inurba_marseille","lat":43.269467,"lon":5.386439,"is_reserved":false,"is_disabled":false,"rental_uris":{"android":"levelo://app?vid=860e74c5-5eb6-41c3-a12d-8b2bf6703541","ios":"levelo://app?vid=860e74c5-5eb6-41c3-a12d-8b2bf6703541"},"vehicle_type_id":"4","last_reported":1683475654,"current_range_meters":12000,"station_id":"ce4bhh92rcd13ifvqfh0","pricing_plan_id":"free"},{"bike_id":"3a9a114b-c608-4a5c-b337-aeae47ab2106","system_id":"levelo_inurba_marseille","lat":43.26681,"lon":5.382694,"is_reserved":false,"is_disabled":false,"rental_uris":{"android":"levelo://app?vid=3a9a114b-c608-4a5c-b337-aeae47ab2106","ios":"levelo://app?vid=3a9a114b-c608-4a5c-b337-aeae47ab2106"},"vehicle_type_id":"4","last_reported":1683475654,"current_range_meters":4000,"station_id":"ce4bhg92rcd13ifvqf90","pricing_plan_id":"free"},{"bike_id":"71ab99e8-4721-4c41-84da-938d2eb4140f","system_id":"levelo_inurba_marseille","lat":43.265714,"lon":5.372891,"is_reserved":false,"is_disabled":false,"rental_uris":{"android":"levelo://app?vid=71ab99e8-4721-4c41-84da-938d2eb4140f","ios":"levelo://app?vid=71ab99e8-4721-4c41-84da-938d2eb4140f"},"vehicle_type_id":"4","last_reported":1683475654,"current_range_meters":13200,"station_id":"ce4bhg12rcd13ifvqf70","pricing_plan_id":"free"},{"bike_id":"2e7b26aa-1723-45cd-98fc-99ba6250ca65","system_id":"levelo_inurba_marseille","lat":43.26556,"lon":5.37289,"is_reserved":false,"is_disabled":false,"rental_uris":{"android":"levelo://app?vid=2e7b26aa-1723-45cd-98fc-99ba6250ca65","ios":"levelo://app?vid=2e7b26aa-1723-45cd-98fc-99ba6250ca65"},"vehicle_type_id":"4","last_reported":1683475654,"current_range_meters":26800,"station_id":"ce4bhg12rcd13ifvqf70","pricing_plan_id":"free"},{"bike_id":"09ff417f-21ce-4602-b85d-34d22396878a","system_id":"levelo_inurba_marseille","lat":43.265569,"lon":5.390047,"is_reserved":false,"is_disabled":false,"rental_uris":{"android":"levelo://app?vid=09ff417f-21ce-4602-b85d-34d22396878a","ios":"levelo://app?vid=09ff417f-21ce-4602-b85d-34d22396878a"},"vehicle_type_id":"4","last_reported":1683475654,"current_range_meters":2000,"station_id":"ce4bhe12rcd13ifvqf30","pricing_plan_id":"free"},{"bike_id":"59016939-a89d-4346-b5ba-56585705e046","system_id":"levelo_inurba_marseille","lat":43.26207,"lon":5.37049,"is_reserved":false,"is_disabled":false,"rental_uris":{"android":"levelo://app?vid=59016939-a89d-4346-b5ba-56585705e046","ios":"levelo://app?vid=59016939-a89d-4346-b5ba-56585705e046"},"vehicle_type_id":"4","last_reported":1683475654,"current_range_meters":0,"station_id":"","pricing_plan_id":"free"},{"bike_id":"5e27ff88-f073-43d7-8fce-4ea801a683bd","system_id":"levelo_inurba_marseille","lat":43.261782,"lon":5.374515,"is_reserved":false,"is_disabled":false,"rental_uris":{"android":"levelo://app?vid=5e27ff88-f073-43d7-8fce-4ea801a683bd","ios":"levelo://app?vid=5e27ff88-f073-43d7-8fce-4ea801a683bd"},"vehicle_type_id":"4","last_reported":1683475654,"current_range_meters":8800,"station_id":"ce4bhgp2rcd13ifvqfc0","pricing_plan_id":"free"},{"bike_id":"a11bcd87-c0f5-49b4-a212-b410315776b8","system_id":"levelo_inurba_marseille","lat":43.261782,"lon":5.374515,"is_reserved":false,"is_disabled":false,"rental_uris":{"android":"levelo://app?vid=a11bcd87-c0f5-49b4-a212-b410315776b8","ios":"levelo://app?vid=a11bcd87-c0f5-49b4-a212-b410315776b8"},"vehicle_type_id":"4","last_reported":1683475654,"current_range_meters":12000,"station_id":"ce4bhgp2rcd13ifvqfc0","pricing_plan_id":"free"},