{"last_updated":1721084929,"ttl":30,"version":"2.2","data":{"bikes":[{"bike_id":"1d660ccb-3968-4df1-af60-913c1d8667c7","system_id":"levelo_inurba_marseille","lat":43.312239,"lon":5.368562,"is_reserved":false,"is_disabled":false,"rental_uris":{"android":"levelo://app?vid=1d660ccb-3968-4df1-af60-913c1d8667c7","ios":"levelo://app?vid=1d660ccb-3968-4df1-af60-913c1d8667c7"},"vehicle_type_id":"4","last_reported":1721084929,"current_range_meters":3200,"station_id":"ce4bgl92rcd13ifvqbq0","pricing_plan_id":"cebpf4jnsgd1na2vs0mg"},{"bike_id":"9e2c1f27-a71c-4aa1-9f86-c4872a8f673c","system_id":"levelo_inurba_marseille","lat":43.314777,"lon":5.37272,"is_reserved":false,"is_disabled":false,"rental_uris":{"android":"levelo://app?vid=9e2c1f27-a71c-4aa1-9f86-c4872a8f673c","ios":"levelo://app?vid=9e2c1f27-a71c-4aa1-9f86-c4872a8f673c"},"vehicle_type_id":"4","last_reported":1721084929,"current_range_meters":11600,"station_id":"ce4bgt12rcd13ifvqcd0","pricing_plan_id":"cebpf4jnsgd1na2vs0mg"},{"bike_id":"f42a502c-933b-458f-839f-349c35b01b40","system_id":"levelo_inurba_marseille","lat":43.314811,"lon":5.373104,"is_reserved":false,"is_disabled":false,"rental_uris":{"android":"levelo://app?vid=f42a502c-933b-458f-839f-349c35b01b40","ios":"levelo://app?vid=f42a502c-933b-458f-839f-349c35b01b40"},"vehicle_type_id":"4","last_reported":1721084929,"current_range_meters":1600,"station_id":"ce4bgt12rcd13ifvqcd0","pricing_plan_id":"cebpf4jnsgd1na2vs0mg"},{"bike_id":"3b3cbb6e-5f17-4bc7-91c3-32e35c1f90c9","system_id":"levelo_inurba_marseille","lat":43.314811,"lon":5.373103,"is_reserved":false,"is_disabled":false,"rental_uris":{"android":"levelo://app?vid=3b3cbb6e-5f17-4bc7-91c3-32e35c1f90c9","ios":"levelo://app?vid=3b3cbb6e-5f17-4bc7-91c3-32e35c1f90c9"},"vehicle_type_id":"4","last_reported":1721084929,"current_range_meters":21600,"station_id":"ce4bgt12rcd13ifvqcd0","pricing_plan_id":"cebpf4jnsgd1na2vs0mg"},{"bike_id":"72bd24e5-94dc-4da6-96f7-0c625dfe57cb","system_id":"levelo_inurba_marseille","lat":43.314811,"lon":5.373103,"is_reserved":false,"is_disabled":false,"rental_uris":{"android":"levelo://app?vid=72bd24e5-94dc-4da6-96f7-0c625dfe57cb","ios":"levelo://app?vid=72bd24e5-94dc-4da6-96f7-0c625dfe57cb"},"vehicle_type_id":"4","last_reported":1721084929,"current_range_meters":8000,"station_id":"ce4bgt12rcd13ifvqcd0","pricing_plan_id":"cebpf4jnsgd1na2vs0mg"},{"bike_id":"722e5447-786f-4a73-9c5a-288641fb0f70","system_id":"levelo_inurba_marseille","lat":43.314811,"lon":5.373103,"is_reserved":false,"is_disabled":false,"rental_uris":{"android":"levelo://app?vid=722e5447-786f-4a73-9c5a-288641fb0f70","ios":"levelo://app?vid=722e5447-786f-4a73-9c5a-288641fb0f70"},"vehicle_type_id":"4","last_reported":1721084929,"current_range_meters":23600,"station_id":"ce4bgt12rcd13ifvqcd0","pricing_plan_id":"cebpf4jnsgd1na2vs0mg"},{"bike_id":"bb960901-dba4-46ca-8f99-97d17d541fa1","system_id":"levelo_inurba_marseille","lat":43.314811,"lon":5.373103,"is_reserved":false,"is_disabled":false,"rental_uris":{"android":"levelo://app?vid=bb960901-dba4-46ca-8f99-97d17d541fa1","ios":"levelo://app?vid=bb960901-dba4-46ca-8f99-97d17d541fa1"},"vehicle_type_id":"4","last_reported":1721084929,"current_range_meters":31200,"station_id":"ce4bgt12rcd13ifvqcd0","pricing_plan_id":"cebpf4jnsgd1na2vs0mg"},{"bike_id":"893d4110-b81e-4f57-bd73-cbd5f22c4472","system_id":"levelo_inurba_marseille","lat":43.314811,"lon":5.373103,"is_reserved":false,"is_disabled":false,"rental_uris":{"android":"levelo://app?vid=893d4110-b81e-4f57-bd73-cbd5f22c4472","ios":"levelo://app?vid=893d4110-b81e-4f57-bd73-cbd5f22c4472"},"vehicle_type_id":"4","last_reported":1721084929,"current_range_meters":14400,"station_id":"ce4bgt12rcd13ifvqcd0","pricing_plan_id":"cebpf4jnsgd1na2vs0mg"},{"bike_id":"39f3a8ec-9956-461d-b2db-39cfcec2f726","system_id":"levelo_inurba_marseille","lat":43.314811,"lon":5.373103,"is_reserved":false,"is_disabled":false,"rental_uris":{"android":"levelo://app?vid=39f3a8ec-9956-461d-b2db-39cfcec2f726","ios":"levelo://app?vid=39f3a8ec-9956-461d-b2db-39cfcec2f726"},"vehicle_type_id":"4","last_reported":1721084929,"current_range_meters":10000,"station_id":"ce4bgt12rcd13ifvqcd0","pricing_plan_id":"cebpf4jnsgd1na2vs0mg"},{"bike_id":"cc92a96c-9a0b-4b19-a5de-1bc9a49c560c","system_id":"levelo_inurba_marseille","lat":43.314811,"lon":5.373103,"is_reserved":false,"is_disabled":false,"rental_uris":{"android":"levelo://app?vid=cc92a96c-9a0b-4b19-a5de-1bc9a49c560c","ios":"levelo://app?vid=cc92a96c-9a0b-4b19-a5de-1bc9a49c560c"},"vehicle_type_id":"4","last_reported":1721084929,"current_range_meters":23600,"station_id":"ce4bgt12rcd13ifvqcd0","pricing_plan_id":"cebpf4jnsgd1na2vs0mg"},{"bike_id":"3f3b8307-fd36-43f2-b7c3-e1a23474a523","system_id":"levelo_inurba_marseille","lat":43.309039,"lon":5.371797,"is_reserved":false,"is_disabled":false,"rental_uris":{"android":"levelo://app?vid=3f3b8307-fd36-43f2-b7c3-e1a23474a523","ios":"levelo://app?vid=3f3b8307-fd36-43f2-b7c3-e1a23474a523"},"vehicle_type_id":"4","last_reported":1721084929,"current_range_meters":6000,"station_id":"ce4bguh2rcd13ifvqckg","pricing_plan_id":"cebpf4jnsgd1na2vs0mg"},{"bike_id":"209c1c75-c57e-4a0a-9b9c-a7a353326003","system_id":"levelo_inurba_marseille","lat":43.305368,"lon":5.367343,"is_reserved":false,"is_disabled":false,"rental_uris":{"android":"levelo://app?vid=209c1c75-c57e-4a0a-9b9c-a7a353326003","ios":"levelo://app?vid=209c1c75-c57e-4a0a-9b9c-a7a353326003"},"vehicle_type_id":"4","last_reported":1721084929,"current_range_meters":11600,"station_id":"ce4bgrp2rcd13ifvqc9g","pricing_plan_id":"cebpf4jnsgd1na2vs0mg"},{"bike_id":"8c111b8b-8891-4e6e-96be-15cf74d016c3","system_id":"levelo_inurba_marseille","lat":43.311131,"lon":5.377651,"is_reserved":false,"is_disabled":false,"rental_uris":{"android":"levelo://app?vid=8c111b8b-8891-4e6e-96be-15cf74d016c3","ios":"levelo://app?vid=8c111b8b-8891-4e6e-96be-15cf74d016c3"},"vehicle_type_id":"4","last_reported":1721084929,"current_range_meters":14000,"station_id":"ce4bgt92rcd13ifvqcg0","pricing_plan_id":"cebpf4jnsgd1na2vs0mg"},{"bike_id":"0fba44be-bd3c-440f-bb49-d6b887db16fb","system_id":"levelo_inurba_marseille","lat":43.31136,"lon":5.37766,"is_reserved":false,"is_disabled":false,"rental_uris":{"android":"levelo://app?vid=0fba44be-bd3c-440f-bb49-d6b887db16fb","ios":"levelo://app?vid=0fba44be-bd3c-440f-bb49-d6b887db16fb"},"vehicle_type_id":"4","last_reported":1721084929,"current_range_meters":0,"station_id":"ce4bgt92rcd13ifvqcg0","pricing_plan_id":"cebpf4jnsgd1na2vs0mg"},{"bike_id":"19e7646e-a112-4006-9e2a-1e4843f6cdec","system_id":"levelo_inurba_marseille","lat":43.311131,"lon":5.377651,"is_reserved":false,"is_disabled":false,"rental_uris":{"android":"levelo://app?vid=19e7646e-a112-4006-9e2a-1e4843f6cdec","ios":"levelo://app?vid=19e7646e-a112-4006-9e2a-1e4843f6cdec"},"vehicle_type_id":"4","last_reported":1721084929,"current_range_meters":14800,"station_id":"ce4bgt92rcd13ifvqcg0","pricing_plan_id":"cebpf4jnsgd1na2vs0mg"},{"bike_id":"79db0950-1107-4c61-a12c-bf46fe13687e","system_id":"levelo_inurba_marseille","lat":43.311131,"lon":5.377651,"is_reserved":false,"is_disabled":false,"rental_uris":{"android":"levelo://app?vid=79db0950-1107-4c61-a12c-bf46fe13687e","ios":"levelo://app?vid=79db0950-1107-4c61-a12c-bf46fe13687e"},"vehicle_type_id":"4","last_reported":1721084929,"current_range_meters":11600,"station_id":"ce4bgt92rcd13ifvqcg0","pricing_plan_id":"cebpf4jnsgd1na2vs0mg"},{"bike_id":"374b417a-6512-423f-8ef9-94d9cfd0e8b4","system_id":"levelo_inurba_marseille","lat":43.311131,"lon":5.377651,"is_reserved":false,"is_disabled":false,"rental_uris":{"android":"levelo://app?vid=374b417a-6512-423f-8ef9-94d9cfd0e8b4","ios":"levelo://app?vid=374b417a-6512-423f-8ef9-94d9cfd0e8b4"},"vehicle_type_id":"4","last_reported":1721084929,"current_range_meters":24400,"station_id":"ce4bgt92rcd13ifvqcg0","pricing_plan_id":"cebpf4jnsgd1na2vs0mg"},{"bike_id":"25e5d9ec-7701-444c-9fdb-9dd66fd354e3","system_id":"levelo_inurba_marseille","lat":43.311117,"lon":5.377783,"is_reserved":false,"is_disabled":false,"rental_uris":{"android":"levelo://app?vid=25e5d9ec-7701-444c-9fdb-9dd66fd354e3","ios":"levelo://app?vid=25e5d9ec-7701-444c-9fdb-9dd66fd354e3"},"vehicle_type_id":"4","last_reported":1721084929,"current_range_meters":30800,"station_id":"ce4bgt92rcd13ifvqcg0","pricing_plan_id":"cebpf4jnsgd1na2vs0mg"},{"bike_id":"1d07da05-e912-4dc0-a7ec-a4d19f6b2502","system_id":"levelo_inurba_marseille","lat":43.307945,"lon":5.376487,"is_reserved":false,"is_disabled":false,"rental_uris":{"android":"levelo://app?vid=1d07da05-e912-4dc0-a7ec-a4d19f6b2502","ios":"levelo://app?vid=1d07da05-e912-4dc0-a7ec-a4d19f6b2502"},"vehicle_type_id":"4","last_reported":1721084929,"current_range_meters":25200,"station_id":"ce4bgv92rcd13ifvqcq0","pricing_plan_id":"cebpf4jnsgd1na2vs0mg"},{"bike_id":"73c298a8-f887-48fc-ae13-194b89f955b2","system_id":"levelo_inurba_marseille","lat":43.307945,"lon":5.376487,"is_reserved":false,"is_disabled":false,"rental_uris":{"android":"levelo://app?vid=73c298a8-f887-48fc-ae13-194b89f955b2","ios":"levelo://app?vid=73c298a8-f887-48fc-ae13-194b89f955b2"},"vehicle_type_id":"4","last_reported":1721084929,"current_range_meters":12400,"station_id":"ce4bgv92rcd13ifvqcq0","pricing_plan_id":"cebpf4jnsgd1na2vs0mg"},{"bike_id":"dd1d9c2d-8988-4e8b-82ca-da711a04c968","system_id":"levelo_inurba_marseille","lat":43.307883,"lon":5.376427,"is_reserved":false,"is_disabled":false,"rental_uris":{"android":"levelo://app?vid=dd1d9c2d-8988-4e8b-82ca-da711a04c968","ios":"levelo://app?vid=dd1d9c2d-8988-4e8b-82ca-da711a04c968"},"vehicle_type_id":"4","last_reported":1721084929,"current_range_meters":16400,"station_id":"ce4bgv92rcd13ifvqcq0","pricing_plan_id":"cebpf4jnsgd1na2vs0mg"},{"bike_id":"d3e784d8-2492-4d3d-bf60-2b4326dd2a43","system_id":"levelo_inurba_marseille","lat":43.307945,"lon":5.376487,"is_reserved":false,"is_disabled":false,"rental_uris":{"android":"levelo://app?vid=d3e784d8-2492-4d3d-bf60-2b4326dd2a43","ios":"levelo://app?vid=d3e784d8-2492-4d3d-bf60-2b4326dd2a43"},"vehicle_type_id":"4","last_reported":1721084929,"current_range_meters":9600,"station_id":"ce4bgv92rcd13ifvqcq0","pricing_plan_id":"cebpf4jnsgd1na2vs0mg"},{"bike_id":"decbe911-7d9d-4e2b-97d7-5fe5b51811e7","system_id":"levelo_inurba_marseille","lat":43.307945,"lon":5.376487,"is_reserved":false,"is_disabled":false,"rental_uris":{"android":"levelo://app?vid=decbe911-7d9d-4e2b-97d7-5fe5b51811e7","ios":"levelo://app?vid=decbe911-7d9d-4e2b-97d7-5fe5b51811e7"},"vehicle_type_id":"4","last_reported":1721084929,"current_range_meters":1600,"station_id":"ce4bgv92rcd13ifvqcq0","pricing_plan_id":"cebpf4jnsgd1na2vs0mg"},{"bike_id":"20edaf75-751a-4ec3-97f3-e2c435980499","system_id":"levelo_inurba_marseille","lat":43.307945,"lon":5.376487,"is_reserved":false,"is_disabled":false,"rental_uris":{"android":"levelo://app?vid=20edaf75-751a-4ec3-97f3-e2c435980499","ios":"levelo://app?vid=20edaf75-751a-4ec3-97f3-e2c435980499"},"vehicle_type_id":"4","last_reported":1721084929,"current_range_meters":13200,"station_id":"ce4bgv92rcd13ifvqcq0","pricing_plan_id":"cebpf4jnsgd1na2vs0mg"},{"bike_id":"8b2d5d30-b20b-46b9-b8da-9d6e270c823d","system_id":"levelo_inurba_marseille","lat":43.307945,"lon":5.376487,"is_reserved":false,"is_disabled":false,"rental_uris":{"android":"levelo://app?vid=8b2d5d30-b20b-46b9-b8da-9d6e270c823d","ios":"levelo://app?vid=8b2d5d30-b20b-46b9-b8da-9d6e270c823d"},"vehicle_type_id":"4","last_reported":1721084929,"current_range_meters":10400,"station_id":"ce4bgv92rcd13ifvqcq0","pricing_plan_id":"cebpf4jnsgd1na2vs0mg"},{"bike_id":"8bf317be-905c-43d5-bad1-3f79fa2fb5d4","system_id":"levelo_inurba_marseille","lat":43.30784,"lon":5.3765,"is_reserved":false,"is_disabled":false,"rental_uris":{"android":"levelo://app?vid=8bf317be-905c-43d5-bad1-3f79fa2fb5d4","ios":"levelo://app?vid=8bf317be-905c-43d5-bad1-3f79fa2fb5d4"},"vehicle_type_id":"4","last_reported":1721084929,"current_range_meters":3200,"station_id":"ce4bgv92rcd13ifvqcq0","pricing_plan_id":"cebpf4jnsgd1na2vs0mg"},{"bike_id":"82f127cf-4634-4bb2-a04a-a6c01bc969b1","system_id":"levelo_inurba_marseille","lat":43.307945,"lon":5.376487,"is_reserved":false,"is_disabled":false,"rental_uris":{"android":"levelo://app?vid=82f127cf-4634-4bb2-a04a-a6c01bc969b1","ios":"levelo://app?vid=82f127cf-4634-4bb2-a04a-a6c01bc969b1"},"vehicle_type_id":"4","last_reported":1721084929,"current_range_meters":25200,"station_id":"ce4bgv92rcd13ifvqcq0","pricing_plan_id":"cebpf4jnsgd1na2vs0mg"},{"bike_id":"d9cf28cf-e51a-41df-8e1c-3e4b3fdbc366","system_id":"levelo_inurba_marseille","lat":43.307945,"lon":5.376487,"is_reserved":false,"is_disabled":false,"rental_uris":{"android":"levelo://app?vid=d9cf28cf-e51a-41df-8e1c-3e4b3fdbc366","ios":"levelo://app?vid=d9cf28cf-e51a-41df-8e1c-3e4b3fdbc366"},"vehicle_type_id":"4","last_reported":1721084929,"current_range_meters":19200,"station_id":"ce4bgv92rcd13ifvqcq0","pricing_plan_id":"cebpf4jnsgd1na2vs0mg"},{"bike_id":"f026ac1c-980d-4b16-9535-67f549b66b73","system_id":"levelo_inurba_marseille","lat":43.307945,"lon":5.376487,"is_reserved":false,"is_disabled":false,"rental_uris":{"android":"levelo://app?vid=f026ac1c-980d-4b16-9535-67f549b66b73","ios":"levelo://app?vid=f026ac1c-980d-4b16-9535-67f549b66b73"},"vehicle_type_id":"4","last_reported":1721084929,"current_range_meters":18400,"station_id":"ce4bgv92rcd13ifvqcq0","pricing_plan_id":"cebpf4jnsgd1na2vs0mg"},{"bike_id":"8fd79771-36f7-49ac-95eb-9d8a7ff54fe1","system_id":"levelo_inurba_marseille","lat":43.307945,"lon":5.376487,"is_reserved":false,"is_disabled":false,"rental_uris":{"android":"levelo://app?vid=8fd79771-36f7-49ac-95eb-9d8a7ff54fe1","ios":"levelo://app?vid=8fd79771-36f7-49ac-95eb-9d8a7ff54fe1"},"vehicle_type_id":"4","last_reported":1721084929,"current_range_meters":13200,"station_id":"ce4bgv92rcd13ifvqcq0","pricing_plan_id":"cebpf4jnsgd1na2vs0mg"},{"bike_id":"b452d273-b6cc-4d42-8716-7997002e87eb","system_id":"levelo_inurba_marseille","lat":43.317075,"lon":5.377367,"is_reserved":false,"is_disabled":false,"rental_uris":{"android":"levelo://app?vid=b452d273-b6cc-4d42-8716-7997002e87eb","ios":"levelo://app?vid=b452d273-b6cc-4d42-8716-7997002e87eb"},"vehicle_type_id":"4","last_reported":1721084929,"current_range_meters":26800,"station_id":"ce4bgth2rcd13ifvqch0","pricing_plan_id":"cebpf4jnsgd1na2vs0mg"},{"bike_id":"72aa4645-c93c-41ea-8239-793a21f75069","system_id":"levelo_inurba_marseille","lat":43.317075,"lon":5.377367,"is_reserved":false,"is_disabled":false,"rental_uris":{"android":"levelo://app?vid=72aa4645-c93c-41ea-8239-793a21f75069","ios":"levelo://app?vid=72aa4645-c93c-41ea-8239-793a21f75069"},"vehicle_type_id":"4","last_reported":1721084929,"current_range_meters":18800,"station_id":"ce4bgth2rcd13ifvqch0","pricing_plan_id":"cebpf4jnsgd1na2vs0mg"},{"bike_id":"effb86e8-e836-4fa7-97f1-2107b8b310fd","system_id":"levelo_inurba_marseille","lat":43.30304,"lon":5.368987,"is_reserved":false,"is_disabled":false,"rental_uris":{"android":"levelo://app?vid=effb86e8-e836-4fa7-97f1-2107b8b310fd","ios":"levelo://app?vid=effb86e8-e836-4fa7-97f1-2107b8b310fd"},"vehicle_type_id":"4","last_reported":1721084929,"current_range_meters":28800,"station_id":"ce4bgqh2rcd13ifvqc5g","pricing_plan_id":"cebpf4jnsgd1na2vs0mg"},{"bike_id":"6bdb53c8-e94c-43d8-a135-ae62ec296e92","system_id":"levelo_inurba_marseille","lat":43.3153,"lon":5.380234,"is_reserved":false,"is_disabled":false,"rental_uris":{"android":"levelo://app?vid=6bdb53c8-e94c-43d8-a135-ae62ec296e92","ios":"levelo://app?vid=6bdb53c8-e94c-43d8-a135-ae62ec296e92"},"vehicle_type_id":"4","last_reported":1721084929,"current_range_meters":6000,"station_id":"ce4bhsp2rcd13ifvqi50","pricing_plan_id":"cebpf4jnsgd1na2vs0mg"},{"bike_id":"cfa0175f-8623-4822-97ef-b2e90841dc77","system_id":"levelo_inurba_marseille","lat":43.31531,"lon":5.38026,"is_reserved":false,"is_disabled":false,"rental_uris":{"android":"levelo://app?vid=cfa0175f-8623-4822-97ef-b2e90841dc77","ios":"levelo://app?vid=cfa0175f-8623-4822-97ef-b2e90841dc77"},"vehicle_type_id":"4","last_reported":1721084929,"current_range_meters":20000,"station_id":"ce4bhsp2rcd13ifvqi50","pricing_plan_id":"cebpf4jnsgd1na2vs0mg"},{"bike_id":"418e82b2-b3b4-4a92-a087-b0ed70ccd482","system_id":"levelo_inurba_marseille","lat":43.315202,"lon":5.380321,"is_reserved":false,"is_disabled":false,"rental_uris":{"android":"levelo://app?vid=418e82b2-b3b4-4a92-a087-b0ed70ccd482","ios":"levelo://app?vid=418e82b2-b3b4-4a92-a087-b0ed70ccd482"},"vehicle_type_id":"4","last_reported":1721084929,"current_range_meters":17200,"station_id":"ce4bhsp2rcd13ifvqi50","pricing_plan_id":"cebpf4jnsgd1na2vs0mg"},{"bike_id":"4cf66bbe-286e-4b6a-ab1d-990eac9587f7","system_id":"levelo_inurba_marseille","lat":43.31528,"lon":5.38035,"is_reserved":false,"is_disabled":false,"rental_uris":{"android":"levelo://app?vid=4cf66bbe-286e-4b6a-ab1d-990eac9587f7","ios":"levelo://app?vid=4cf66bbe-286e-4b6a-ab1d-990eac9587f7"},"vehicle_type_id":"4","last_reported":1721084929,"current_range_meters":7200,"station_id":"ce4bhsp2rcd13ifvqi50","pricing_plan_id":"cebpf4jnsgd1na2vs0mg"},{"bike_id":"b4b2583b-fe96-4992-b151-9c65df8a0f22","system_id":"levelo_inurba_marseille","lat":43.308067,"lon":5.381483,"is_reserved":false,"is_disabled":false,"rental_uris":{"android":"levelo://app?vid=b4b2583b-fe96-4992-b151-9c65df8a0f22","ios":"levelo://app?vid=b4b2583b-fe96-4992-b151-9c65df8a0f22"},"vehicle_type_id":"4","last_reported":1721084929,"current_range_meters":30000,"station_id":"ce4bgt12rcd13ifvqce0","pricing_plan_id":"cebpf4jnsgd1na2vs0mg"},{"bike_id":"a1fc0e0e-21c1-454e-bf38-9c34ac26d467","system_id":"levelo_inurba_marseille","lat":43.308012,"lon":5.381511,"is_reserved":false,"is_disabled":false,"rental_uris":{"android":"levelo://app?vid=a1fc0e0e-21c1-454e-bf38-9c34ac26d467","ios":"levelo://app?vid=a1fc0e0e-21c1-454e-bf38-9c34ac26d467"},"vehicle_type_id":"4","last_reported":1721084929,"current_range_meters":22800,"station_id":"ce4bgt12rcd13ifvqce0","pricing_plan_id":"cebpf4jnsgd1na2vs0mg"},{"bike_id":"f31b19bc-23ae-413f-8df5-95aa1d48ec26","system_id":"levelo_inurba_marseille","lat":43.308012,"lon":5.381511,"is_reserved":false,"is_disabled":false,"rental_uris":{"android":"levelo://app?vid=f31b19bc-23ae-413f-8df5-95aa1d48ec26","ios":"levelo://app?vid=f31b19bc-23ae-413f-8df5-95aa1d48ec26"},"vehicle_type_id":"4","last_reported":1721084929,"current_range_meters":28000,"station_id":"ce4bgt12rcd13ifvqce0","pricing_plan_id":"cebpf4jnsgd1na2vs0mg"},{"bike_id":"78763668-9861-4f99-90da-c985e69c86e5","system_id":"levelo_inurba_marseille","lat":43.308012,"lon":5.381511,"is_reserved":false,"is_disabled":false,"rental_uris":{"android":"levelo://app?vid=78763668-9861-4f99-90da-c985e69c86e5","ios":"levelo://app?vid=78763668-9861-4f99-90da-c985e69c86e5"},"vehicle_type_id":"4","last_reported":1721084929,"current_range_meters":18000,"station_id":"ce4bgt12rcd13ifvqce0","pricing_plan_id":"cebpf4jnsgd1na2vs0mg"},{"bike_id":"195e04b7-a3b2-46bb-9a6d-b49c5081e0aa","system_id":"levelo_inurba_marseille","lat":43.308012,"lon":5.381511,"is_reserved":false,"is_disabled":false,"rental_uris":{"android":"levelo://app?vid=195e04b7-a3b2-46bb-9a6d-b49c5081e0aa","ios":"levelo://app?vid=195e04b7-a3b2-46bb-9a6d-b49c5081e0aa"},"vehicle_type_id":"4","last_reported":1721084929,"current_range_meters":19600,"station_id":"ce4bgt12rcd13ifvqce0","pricing_plan_id":"cebpf4jnsgd1na2vs0mg"},{"bike_id":"e3b48580-6462-436e-ba49-dd056c9ed181","system_id":"levelo_inurba_marseille","lat":43.308012,"lon":5.381511,"is_reserved":false,"is_disabled":false,"rental_uris":{"android":"levelo://app?vid=e3b48580-6462-436e-ba49-dd056c9ed181","ios":"levelo://app?vid=e3b48580-6462-436e-ba49-dd056c9ed181"},"vehicle_type_id":"4","last_reported":1721084929,"current_range_meters":29600,"station_id":"ce4bgt12rcd13ifvqce0","pricing_plan_id":"cebpf4jnsgd1na2vs0mg"},{"bike_id":"cac7336c-ab1e-4289-bdd4-e9476c1730f9","system_id":"levelo_inurba_marseille","lat":43.308012,"lon":5.381511,"is_reserved":false,"is_disabled":false,"rental_uris":{"android":"levelo://app?vid=cac7336c-ab1e-4289-bdd4-e9476c1730f9","ios":"levelo://app?vid=cac7336c-ab1e-4289-bdd4-e9476c1730f9"},"vehicle_type_id":"4","last_reported":1721084929,"current_range_meters":31200,"station_id":"ce4bgt12rcd13ifvqce0","pricing_plan_id":"cebpf4jnsgd1na2vs0mg"},{"bike_id":"b4a56087-62a6-4e73-8a25-a2be934d1af6","system_id":"levelo_inurba_marseille","lat":43.308012,"lon":5.381511,"is_reserved":false,"is_disabled":false,"rental_uris":{"android":"levelo://app?vid=b4a56087-62a6-4e73-8a25-a2be934d1af6","ios":"levelo://app?vid=b4a56087-62a6-4e73-8a25-a2be934d1af6"},"vehicle_type_id":"4","last_reported":1721084929,"current_range_meters":400,"station_id":"ce4bgt12rcd13ifvqce0","pricing_plan_id":"cebpf4jnsgd1na2vs0mg"},{"bike_id":"0c231e2e-81c6-4321-bb14-12915551a1c3","system_id":"levelo_inurba_marseille","lat":43.308012,"lon":5.381511,"is_reserved":false,"is_disabled":false,"rental_uris":{"android":"levelo://app?vid=0c231e2e-81c6-4321-bb14-12915551a1c3","ios":"levelo://app?vid=0c231e2e-81c6-4321-bb14-12915551a1c3"},"vehicle_type_id":"4","last_reported":1721084929,"current_range_meters":22400,"station_id":"ce4bgt12rcd13ifvqce0","pricing_plan_id":"cebpf4jnsgd1na2vs0mg"},{"bike_id":"c402fcf1-ac33-4b4c-8f88-62ca33921c2c","system_id":"levelo_inurba_marseille","lat":43.308012,"lon":5.381511,"is_reserved":false,"is_disabled":false,"rental_uris":{"android":"levelo://app?vid=c402fcf1-ac33-4b4c-8f88-62ca33921c2c","ios":"levelo://app?vid=c402fcf1-ac33-4b4c-8f88-62ca33921c2c"},"vehicle_type_id":"4","last_reported":1721084929,"current_range_meters":14000,"station_id":"ce4bgt12rcd13ifvqce0","pricing_plan_id":"cebpf4jnsgd1na2vs0mg"},{"bike_id":"e22d3f2c-f657-4a1d-82d1-b13609b27c50","system_id":"levelo_inurba_marseille","lat":43.308012,"lon":5.381511,"is_reserved":false,"is_disabled":false,"rental_uris":{"android":"levelo://app?vid=e22d3f2c-f657-4a1d-82d1-b13609b27c50","ios":"levelo://app?vid=e22d3f2c-f657-4a1d-82d1-b13609b27c50"},"vehicle_type_id":"4","last_reported":1721084929,"current_range_meters":6800,"station_id":"ce4bgt12rcd13ifvqce0","pricing_plan_id":"cebpf4jnsgd1na2vs0mg"},{"bike_id":"4713aeb0-2874-4f39-9807-76e1b3454e50","system_id":"levelo_inurba_marseille","lat":43.308012,"lon":5.381511,"is_reserved":false,"is_disabled":false,"rental_uris":{"android":"levelo://app?vid=4713aeb0-2874-4f39-9807-76e1b3454e50","ios":"levelo://app?vid=4713aeb0-2874-4f39-9807-76e1b3454e50"},"vehicle_type_id":"4","last_reported":1721084929,"current_range_meters":19200,"station_id":"ce4bgt12rcd13ifvqce0","pricing_plan_id":"cebpf4jnsgd1na2vs0mg"},{"bike_id":"aa9c4fad-f1f3-46cc-8f7c-ffba3a3e8a1f","system_id":"levelo_inurba_marseille","lat":43.304606,"lon":5.379026,"is_reserved":false,"is_disabled":false,"rental_uris":{"android":"levelo://app?vid=aa9c4fad-f1f3-46cc-8f7c-ffba3a3e8a1f","ios":"levelo://app?vid=aa9c4fad-f1f3-46cc-8f7c-ffba3a3e8a1f"},"vehicle_type_id":"4","last_reported":1721084929,"current_range_meters":4000,"station_id":"ce4bgup2rcd13ifvqcn0","pricing_plan_id":"cebpf4jnsgd1na2vs0mg"},{"bike_id":"4e536106-2515-44be-9a9d-73bd86026574","system_id":"levelo_inurba_marseille","lat":43.304606,"lon":5.379026,"is_reserved":false,"is_disabled":false,"rental_uris":{"android":"levelo://app?vid=4e536106-2515-44be-9a9d-73bd86026574","ios":"levelo://app?vid=4e536106-2515-44be-9a9d-73bd86026574"},"vehicle_type_id":"4","last_reported":1721084929,"current_range_meters":8400,"station_id":"ce4bgup2rcd13ifvqcn0","pricing_plan_id":"cebpf4jnsgd1na2vs0mg"},{"bike_id":"cc53c1e2-fd55-4630-8cdf-205fbb2dea8f","system_id":"levelo_inurba_marseille","lat":43.304606,"lon":5.379026,"is_reserved":false,"is_disabled":false,"rental_uris":{"android":"levelo://app?vid=cc53c1e2-fd55-4630-8cdf-205fbb2dea8f","ios":"levelo://app?vid=cc53c1e2-fd55-4630-8cdf-205fbb2dea8f"},"vehicle_type_id":"4","last_reported":1721084929,"current_range_meters":20800,"station_id":"ce4bgup2rcd13ifvqcn0","pricing_plan_id":"cebpf4jnsgd1na2vs0mg"},{"bike_id":"5870aa94-ff5e-486c-b082-8f3af5f7df10","system_id":"levelo_inurba_marseille","lat":43.304606,"lon":5.379026,"is_reserved":false,"is_disabled":false,"rental_uris":{"android":"levelo://app?vid=5870aa94-ff5e-486c-b082-8f3af5f7df10","ios":"levelo://app?vid=5870aa94-ff5e-486c-b082-8f3af5f7df10"},"vehicle_type_id":"4","last_reported":1721084929,"current_range_meters":3200,"station_id":"ce4bgup2rcd13ifvqcn0","pricing_plan_id":"cebpf4jnsgd1na2vs0mg"},{"bike_id":"5bf8e5bf-bc72-4aa4-93a4-ef0941cae1a2","system_id":"levelo_inurba_marseille","lat":43.324771,"lon":5.36557,"is_reserved":false,"is_disabled":false,"rental_uris":{"android":"levelo://app?vid=5bf8e5bf-bc72-4aa4-93a4-ef0941cae1a2","ios":"levelo://app?vid=5bf8e5bf-bc72-4aa4-93a4-ef0941cae1a2"},"vehicle_type_id":"4","last_reported":1721084929,"current_range_meters":24000,"station_id":"ce4bhs12rcd13ifvqhvg","pricing_plan_id":"cebpf4jnsgd1na2vs0mg"},{"bike_id":"324766f3-9c48-4e5c-a236-e4e0c114d248","system_id":"levelo_inurba_marseille","lat":43.324771,"lon":5.36557,"is_reserved":false,"is_disabled":false,"rental_uris":{"android":"levelo://app?vid=324766f3-9c48-4e5c-a236-e4e0c114d248","ios":"levelo://app?vid=324766f3-9c48-4e5c-a236-e4e0c114d248"},"vehicle_type_id":"4","last_reported":1721084929,"current_range_meters":16000,"station_id":"ce4bhs12rcd13ifvqhvg","pricing_plan_id":"cebpf4jnsgd1na2vs0mg"},{"bike_id":"88c493e8-6d91-4c76-806e-ea0d5298f638","system_id":"levelo_inurba_marseille","lat":43.324797,"lon":5.365603,"is_reserved":false,"is_disabled":false,"rental_uris":{"android":"levelo://app?vid=88c493e8-6d91-4c76-806e-ea0d5298f638","ios":"levelo://app?vid=88c493e8-6d91-4c76-806e-ea0d5298f638"},"vehicle_type_id":"4","last_reported":1721084929,"current_range_meters":26000,"station_id":"ce4bhs12rcd13ifvqhvg","pricing_plan_id":"cebpf4jnsgd1na2vs0mg"},{"bike_id":"5d635596-97ac-42e0-99d4-5cc2c06bf0ba","system_id":"levelo_inurba_marseille","lat":43.324771,"lon":5.36557,"is_reserved":false,"is_disabled":false,"rental_uris":{"android":"levelo://app?vid=5d635596-97ac-42e0-99d4-5cc2c06bf0ba","ios":"levelo://app?vid=5d635596-97ac-42e0-99d4-5cc2c06bf0ba"},"vehicle_type_id":"4","last_reported":1721084929,"current_range_meters":31200,"station_id":"ce4bhs12rcd13ifvqhvg","pricing_plan_id":"cebpf4jnsgd1na2vs0mg"},{"bike_id":"0b033a9a-ba65-4abc-b007-594a854ee66f","system_id":"levelo_inurba_marseille","lat":43.32482,"lon":5.36567,"is_reserved":false,"is_disabled":false,"rental_uris":{"android":"levelo://app?vid=0b033a9a-ba65-4abc-b007-594a854ee66f","ios":"levelo://app?vid=0b033a9a-ba65-4abc-b007-594a854ee66f"},"vehicle_type_id":"4","last_reported":1721084929,"current_range_meters":31200,"station_id":"ce4bhs12rcd13ifvqhvg","pricing_plan_id":"cebpf4jnsgd1na2vs0mg"},{"bike_id":"7245a261-5039-4baf-a8d0-5dfe0f39e0ff","system_id":"levelo_inurba_marseille","lat":43.310637,"lon":5.38346,"is_reserved":false,"is_disabled":false,"rental_uris":{"android":"levelo://app?vid=7245a261-5039-4baf-a8d0-5dfe0f39e0ff","ios":"levelo://app?vid=7245a261-5039-4baf-a8d0-5dfe0f39e0ff"},"vehicle_type_id":"4","last_reported":1721084929,"current_range_meters":8800,"station_id":"ce4bgv92rcd13ifvqcr0","pricing_plan_id":"cebpf4jnsgd1na2vs0mg"},{"bike_id":"4062547e-d87e-47f9-9b91-218d9c735ac5","system_id":"levelo_inurba_marseille","lat":43.310804,"lon":5.38359,"is_reserved":false,"is_disabled":false,"rental_uris":{"android":"levelo://app?vid=4062547e-d87e-47f9-9b91-218d9c735ac5","ios":"levelo://app?vid=4062547e-d87e-47f9-9b91-218d9c735ac5"},"vehicle_type_id":"4","last_reported":1721084929,"current_range_meters":22400,"station_id":"ce4bgv92rcd13ifvqcr0","pricing_plan_id":"cebpf4jnsgd1na2vs0mg"},{"bike_id":"aca447c8-b091-40a0-b211-25f2376e9741","system_id":"levelo_inurba_marseille","lat":43.302784,"lon":5.377158,"is_reserved":false,"is_disabled":false,"rental_uris":{"android":"levelo://app?vid=aca447c8-b091-40a0-b211-25f2376e9741","ios":"levelo://app?vid=aca447c8-b091-40a0-b211-25f2376e9741"},"vehicle_type_id":"4","last_reported":1721084929,"current_range_meters":4400,"station_id":"ce4bguh2rcd13ifvqcj0","pricing_plan_id":"cebpf4jnsgd1na2vs0mg"},{"bike_id":"97be4092-66c1-4ea2-96e8-072c01b13aaa","system_id":"levelo_inurba_marseille","lat":43.310804,"lon":5.38359,"is_reserved":false,"is_disabled":false,"rental_uris":{"android":"levelo://app?vid=97be4092-66c1-4ea2-96e8-072c01b13aaa","ios":"levelo://app?vid=97be4092-66c1-4ea2-96e8-072c01b13aaa"},"vehicle_type_id":"4","last_reported":1721084929,"current_range_meters":4000,"station_id":"ce4bgv92rcd13ifvqcr0","pricing_plan_id":"cebpf4jnsgd1na2vs0mg"},{"bike_id":"f08bce90-bb2c-45ba-9942-3101a5b62fbd","system_id":"levelo_inurba_marseille","lat":43.310804,"lon":5.38359,"is_reserved":false,"is_disabled":false,"rental_uris":{"android":"levelo://app?vid=f08bce90-bb2c-45ba-9942-3101a5b62fbd","ios":"levelo://app?vid=f08bce90-bb2c-45ba-9942-3101a5b62fbd"},"vehicle_type_id":"4","last_reported":1721084929,"current_range_meters":14000,"station_id":"ce4bgv92rcd13ifvqcr0","pricing_plan_id":"cebpf4jnsgd1na2vs0mg"},{"bike_id":"1e79afbb-6de0-4b4e-beec-889f043ca6aa","system_id":"levelo_inurba_marseille","lat":43.30143,"lon":5.37413,"is_reserved":false,"is_disabled":false,"rental_uris":{"android":"levelo://app?vid=1e79afbb-6de0-4b4e-beec-889f043ca6aa","ios":"levelo://app?vid=1e79afbb-6de0-4b4e-beec-889f043ca6aa"},"vehicle_type_id":"4","last_reported":1721084929,"current_range_meters":18800,"station_id":"ce4bgs92rcd13ifvqcc0","pricing_plan_id":"cebpf4jnsgd1na2vs0mg"},{"bike_id":"c064cd0b-ff1c-40de-8b9d-eefd3435dcf1","system_id":"levelo_inurba_marseille","lat":43.305859,"lon":5.381836,"is_reserved":false,"is_disabled":false,"rental_uris":{"android":"levelo://app?vid=c064cd0b-ff1c-40de-8b9d-eefd3435dcf1","ios":"levelo://app?vid=c064cd0b-ff1c-40de-8b9d-eefd3435dcf1"},"vehicle_type_id":"4","last_reported":1721084929,"current_range_meters":18400,"station_id":"","pricing_plan_id":"cebpf4jnsgd1na2vs0mg"},{"bike_id":"50c06e78-9e31-4bc1-a4ec-b02ec2d195eb","system_id":"levelo_inurba_marseille","lat":43.319935,"lon":5.381699,"is_reserved":false,"is_disabled":false,"rental_uris":{"android":"levelo://app?vid=50c06e78-9e31-4bc1-a4ec-b02ec2d195eb","ios":"levelo://app?vid=50c06e78-9e31-4bc1-a4ec-b02ec2d195eb"},"vehicle_type_id":"4","last_reported":1721084929,"current_range_meters":28800,"station_id":"ce4bhr12rcd13ifvqhpg","pricing_plan_id":"cebpf4jnsgd1na2vs0mg"},{"bike_id":"42481903-b071-425f-84b6-931f78ac2128","system_id":"levelo_inurba_marseille","lat":43.313571,"lon":5.384829,"is_reserved":false,"is_disabled":false,"rental_uris":{"android":"levelo://app?vid=42481903-b071-425f-84b6-931f78ac2128","ios":"levelo://app?vid=42481903-b071-425f-84b6-931f78ac2128"},"vehicle_type_id":"4","last_reported":1721084929,"current_range_meters":28000,"station_id":"ce4bgt92rcd13ifvqcf0","pricing_plan_id":"cebpf4jnsgd1na2vs0mg"},{"bike_id":"1f7bbd90-80b7-4864-8f33-7013a801c86f","system_id":"levelo_inurba_marseille","lat":43.313571,"lon":5.384829,"is_reserved":false,"is_disabled":false,"rental_uris":{"android":"levelo://app?vid=1f7bbd90-80b7-4864-8f33-7013a801c86f","ios":"levelo://app?vid=1f7bbd90-80b7-4864-8f33-7013a801c86f"},"vehicle_type_id":"4","last_reported":1721084929,"current_range_meters":26800,"station_id":"ce4bgt92rcd13ifvqcf0","pricing_plan_id":"cebpf4jnsgd1na2vs0mg"},{"bike_id":"131e1527-3d15-4b97-8a89-a8e89cd1b43c","system_id":"levelo_inurba_marseille","lat":43.31362,"lon":5.38492,"is_reserved":false,"is_disabled":false,"rental_uris":{"android":"levelo://app?vid=131e1527-3d15-4b97-8a89-a8e89cd1b43c","ios":"levelo://app?vid=131e1527-3d15-4b97-8a89-a8e89cd1b43c"},"vehicle_type_id":"4","last_reported":1721084929,"current_range_meters":18400,"station_id":"ce4bgt92rcd13ifvqcf0","pricing_plan_id":"cebpf4jnsgd1na2vs0mg"},{"bike_id":"75d83904-94ee-4c41-a9b3-440e1c4379f5","system_id":"levelo_inurba_marseille","lat":43.313571,"lon":5.384829,"is_reserved":false,"is_disabled":false,"rental_uris":{"android":"levelo://app?vid=75d83904-94ee-4c41-a9b3-440e1c4379f5","ios":"levelo://app?vid=75d83904-94ee-4c41-a9b3-440e1c4379f5"},"vehicle_type_id":"4","last_reported":1721084929,"current_range_meters":2000,"station_id":"ce4bgt92rcd13ifvqcf0","pricing_plan_id":"cebpf4jnsgd1na2vs0mg"},{"bike_id":"4f0a0056-bd49-420a-b9df-f419d93a1707","system_id":"levelo_inurba_marseille","lat":43.31356,"lon":5.38496,"is_reserved":false,"is_disabled":false,"rental_uris":{"android":"levelo://app?vid=4f0a0056-bd49-420a-b9df-f419d93a1707","ios":"levelo://app?vid=4f0a0056-bd49-420a-b9df-f419d93a1707"},"vehicle_type_id":"4","last_reported":1721084929,"current_range_meters":30400,"station_id":"ce4bgt92rcd13ifvqcf0","pricing_plan_id":"cebpf4jnsgd1na2vs0mg"},{"bike_id":"891a3d81-9ca9-4fc9-9cfd-ba133cf5bd8c","system_id":"levelo_inurba_marseille","lat":43.313612,"lon":5.385008,"is_reserved":false,"is_disabled":false,"rental_uris":{"android":"levelo://app?vid=891a3d81-9ca9-4fc9-9cfd-ba133cf5bd8c","ios":"levelo://app?vid=891a3d81-9ca9-4fc9-9cfd-ba133cf5bd8c"},"vehicle_type_id":"4","last_reported":1721084929,"current_range_meters":5600,"station_id":"ce4bgt92rcd13ifvqcf0","pricing_plan_id":"cebpf4jnsgd1na2vs0mg"},{"bike_id":"4db63350-4e4b-413d-9a50-5fc3a0f837bb","system_id":"levelo_inurba_marseille","lat":43.313595,"lon":5.385063,"is_reserved":false,"is_disabled":false,"rental_uris":{"android":"levelo://app?vid=4db63350-4e4b-413d-9a50-5fc3a0f837bb","ios":"levelo://app?vid=4db63350-4e4b-413d-9a50-5fc3a0f837bb"},"vehicle_type_id":"4","last_reported":1721084929,"current_range_meters":30800,"station_id":"ce4bgt92rcd13ifvqcf0","pricing_plan_id":"cebpf4jnsgd1na2vs0mg"},{"bike_id":"9c73eeb7-07ab-4f7f-90b6-16a8780a0b09","system_id":"levelo_inurba_marseille","lat":43.31359,"lon":5.38513,"is_reserved":false,"is_disabled":false,"rental_uris":{"android":"levelo://app?vid=9c73eeb7-07ab-4f7f-90b6-16a8780a0b09","ios":"levelo://app?vid=9c73eeb7-07ab-4f7f-90b6-16a8780a0b09"},"vehicle_type_id":"4","last_reported":1721084929,"current_range_meters":22400,"station_id":"ce4bgj92rcd13ifvqbd0","pricing_plan_id":"cebpf4jnsgd1na2vs0mg"},{"bike_id":"8fd1c49e-573b-4527-9b7f-3ea8c143c0a3","system_id":"levelo_inurba_marseille","lat":43.30547,"lon":5.38426,"is_reserved":false,"is_disabled":false,"rental_uris":{"android":"levelo://app?vid=8fd1c49e-573b-4527-9b7f-3ea8c143c0a3","ios":"levelo://app?vid=8fd1c49e-573b-4527-9b7f-3ea8c143c0a3"},"vehicle_type_id":"4","last_reported":1721084929,"current_range_meters":5600,"station_id":"ce4bgg92rcd13ifvqb30","pricing_plan_id":"cebpf4jnsgd1na2vs0mg"},{"bike_id":"da15501f-097b-42ce-8c55-ee65999f4d62","system_id":"levelo_inurba_marseille","lat":43.299243,"lon":5.374807,"is_reserved":false,"is_disabled":false,"rental_uris":{"android":"levelo://app?vid=da15501f-097b-42ce-8c55-ee65999f4d62","ios":"levelo://app?vid=da15501f-097b-42ce-8c55-ee65999f4d62"},"vehicle_type_id":"4","last_reported":1721084929,"current_range_meters":5600,"station_id":"ce4bgjh2rcd13ifvqbg0","pricing_plan_id":"cebpf4jnsgd1na2vs0mg"},{"bike_id":"7daf475d-94c2-4053-b62e-ce302fb66bc1","system_id":"levelo_inurba_marseille","lat":43.305364,"lon":5.384119,"is_reserved":false,"is_disabled":false,"rental_uris":{"android":"levelo://app?vid=7daf475d-94c2-4053-b62e-ce302fb66bc1","ios":"levelo://app?vid=7daf475d-94c2-4053-b62e-ce302fb66bc1"},"vehicle_type_id":"4","last_reported":1721084929,"current_range_meters":31200,"station_id":"ce4bgg92rcd13ifvqb30","pricing_plan_id":"cebpf4jnsgd1na2vs0mg"},{"bike_id":"d5477af1-126a-4305-be86-99188eeef724","system_id":"levelo_inurba_marseille","lat":43.305364,"lon":5.384119,"is_reserved":false,"is_disabled":false,"rental_uris":{"android":"levelo://app?vid=d5477af1-126a-4305-be86-99188eeef724","ios":"levelo://app?vid=d5477af1-126a-4305-be86-99188eeef724"},"vehicle_type_id":"4","last_reported":1721084929,"current_range_meters":25600,"station_id":"ce4bgg92rcd13ifvqb30","pricing_plan_id":"cebpf4jnsgd1na2vs0mg"},{"bike_id":"c3cc9b4f-14c7-4c15-8efb-f69b018017c3","system_id":"levelo_inurba_marseille","lat":43.311722,"lon":5.387247,"is_reserved":false,"is_disabled":false,"rental_uris":{"android":"levelo://app?vid=c3cc9b4f-14c7-4c15-8efb-f69b018017c3","ios":"levelo://app?vid=c3cc9b4f-14c7-4c15-8efb-f69b018017c3"},"vehicle_type_id":"4","last_reported":1721084929,"current_range_meters":19600,"station_id":"ce4bgv12rcd13ifvqcp0","pricing_plan_id":"cebpf4jnsgd1na2vs0mg"},{"bike_id":"ff3c736a-343f-4e55-8cba-7dc30aa9afae","system_id":"levelo_inurba_marseille","lat":43.311722,"lon":5.387247,"is_reserved":false,"is_disabled":false,"rental_uris":{"android":"levelo://app?vid=ff3c736a-343f-4e55-8cba-7dc30aa9afae","ios":"levelo://app?vid=ff3c736a-343f-4e55-8cba-7dc30aa9afae"},"vehicle_type_id":"4","last_reported":1721084929,"current_range_meters":8800,"station_id":"ce4bgv12rcd13ifvqcp0","pricing_plan_id":"cebpf4jnsgd1na2vs0mg"},{"bike_id":"b4feb958-0c25-450b-8d45-937f57d52758","system_id":"levelo_inurba_marseille","lat":43.311722,"lon":5.387247,"is_reserved":false,"is_disabled":false,"rental_uris":{"android":"levelo://app?vid=b4feb958-0c25-450b-8d45-937f57d52758","ios":"levelo://app?vid=b4feb958-0c25-450b-8d45-937f57d52758"},"vehicle_type_id":"4","last_reported":1721084929,"current_range_meters":24000,"station_id":"ce4bgv12rcd13ifvqcp0","pricing_plan_id":"cebpf4jnsgd1na2vs0mg"},{"bike_id":"d56066bc-5717-44c8-b004-bb75d6307e71","system_id":"levelo_inurba_marseille","lat":43.311722,"lon":5.387247,"is_reserved":false,"is_disabled":false,"rental_uris":{"android":"levelo://app?vid=d56066bc-5717-44c8-b004-bb75d6307e71","ios":"levelo://app?vid=d56066bc-5717-44c8-b004-bb75d6307e71"},"vehicle_type_id":"4","last_reported":1721084929,"current_range_meters":8800,"station_id":"ce4bgv12rcd13ifvqcp0","pricing_plan_id":"cebpf4jnsgd1na2vs0mg"},{"bike_id":"530f80c8-1f2a-487e-8a1c-82e848e7f28e","system_id":"levelo_inurba_marseille","lat":43.322872,"lon":5.382756,"is_reserved":false,"is_disabled":false,"rental_uris":{"android":"levelo://app?vid=530f80c8-1f2a-487e-8a1c-82e848e7f28e","ios":"levelo://app?vid=530f80c8-1f2a-487e-8a1c-82e848e7f28e"},"vehicle_type_id":"4","last_reported":1721084929,"current_range_meters":29200,"station_id":"ce4bhr12rcd13ifvqhqg","pricing_plan_id":"cebpf4jnsgd1na2vs0mg"},{"bike_id":"d270f9a5-07f1-4b2c-baf6-6fb04a081afc","system_id":"levelo_inurba_marseille","lat":43.322872,"lon":5.382756,"is_reserved":false,"is_disabled":false,"rental_uris":{"android":"levelo://app?vid=d270f9a5-07f1-4b2c-baf6-6fb04a081afc","ios":"levelo://app?vid=d270f9a5-07f1-4b2c-baf6-6fb04a081afc"},"vehicle_type_id":"4","last_reported":1721084929,"current_range_meters":32000,"station_id":"ce4bhr12rcd13ifvqhqg","pricing_plan_id":"cebpf4jnsgd1na2vs0mg"},{"bike_id":"d8d87370-43f5-4bcc-a293-b6d2a59bd372","system_id":"levelo_inurba_marseille","lat":43.322872,"lon":5.382756,"is_reserved":false,"is_disabled":false,"rental_uris":{"android":"levelo://app?vid=d8d87370-43f5-4bcc-a293-b6d2a59bd372","ios":"levelo://app?vid=d8d87370-43f5-4bcc-a293-b6d2a59bd372"},"vehicle_type_id":"4","last_reported":1721084929,"current_range_meters":21200,"station_id":"ce4bhr12rcd13ifvqhqg","pricing_plan_id":"cebpf4jnsgd1na2vs0mg"},{"bike_id":"5fe18430-f94a-4d0a-8899-cd884db5c80f","system_id":"levelo_inurba_marseille","lat":43.322872,"lon":5.382756,"is_reserved":false,"is_disabled":false,"rental_uris":{"android":"levelo://app?vid=5fe18430-f94a-4d0a-8899-cd884db5c80f","ios":"levelo://app?vid=5fe18430-f94a-4d0a-8899-cd884db5c80f"},"vehicle_type_id":"4","last_reported":1721084929,"current_range_meters":26000,"station_id":"ce4bhr12rcd13ifvqhqg","pricing_plan_id":"cebpf4jnsgd1na2vs0mg"},{"bike_id":"41ed59aa-98c0-4a56-a8af-81906a09064a","system_id":"levelo_inurba_marseille","lat":43.297163,"lon":5.365866,"is_reserved":false,"is_disabled":false,"rental_uris":{"android":"levelo://app?vid=41ed59aa-98c0-4a56-a8af-81906a09064a","ios":"levelo://app?vid=41ed59aa-98c0-4a56-a8af-81906a09064a"},"vehicle_type_id":"4","last_reported":1721084929,"current_range_meters":23600,"station_id":"ce4bgn12rcd13ifvqbt0","pricing_plan_id":"cebpf4jnsgd1na2vs0mg"},{"bike_id":"dd5b374a-9253-46b0-905b-a39b3a7c8d9b","system_id":"levelo_inurba_marseille","lat":43.2968,"lon":5.37291,"is_reserved":false,"is_disabled":false,"rental_uris":{"android":"levelo://app?vid=dd5b374a-9253-46b0-905b-a39b3a7c8d9b","ios":"levelo://app?vid=dd5b374a-9253-46b0-905b-a39b3a7c8d9b"},"vehicle_type_id":"4","last_reported":1721084929,"current_range_meters":26400,"station_id":"ce4bgk12rcd13ifvqbj0","pricing_plan_id":"cebpf4jnsgd1na2vs0mg"},{"bike_id":"216a2ef4-1197-40ef-96f2-5f5c1d5be7bd","system_id":"levelo_inurba_marseille","lat":43.29573,"lon":5.367355,"is_reserved":false,"is_disabled":false,"rental_uris":{"android":"levelo://app?vid=216a2ef4-1197-40ef-96f2-5f5c1d5be7bd","ios":"levelo://app?vid=216a2ef4-1197-40ef-96f2-5f5c1d5be7bd"},"vehicle_type_id":"4","last_reported":1721084929,"current_range_meters":24800,"station_id":"ce4bgph2rcd13ifvqc2g","pricing_plan_id":"cebpf4jnsgd1na2vs0mg"},{"bike_id":"ef5b9a08-de70-43f6-93bc-73fd8a393851","system_id":"levelo_inurba_marseille","lat":43.309589,"lon":5.390258,"is_reserved":false,"is_disabled":false,"rental_uris":{"android":"levelo://app?vid=ef5b9a08-de70-43f6-93bc-73fd8a393851","ios":"levelo://app?vid=ef5b9a08-de70-43f6-93bc-73fd8a393851"},"vehicle_type_id":"4","last_reported":1721084929,"current_range_meters":2000,"station_id":"ce4bgup2rcd13ifvqco0","pricing_plan_id":"cebpf4jnsgd1na2vs0mg"},{"bike_id":"f23af8b5-197a-4199-b587-b49cd95551a2","system_id":"levelo_inurba_marseille","lat":43.309589,"lon":5.390258,"is_reserved":false,"is_disabled":false,"rental_uris":{"android":"levelo://app?vid=f23af8b5-197a-4199-b587-b49cd95551a2","ios":"levelo://app?vid=f23af8b5-197a-4199-b587-b49cd95551a2"},"vehicle_type_id":"4","last_reported":1721084929,"current_range_meters":7600,"station_id":"ce4bgup2rcd13ifvqco0","pricing_plan_id":"cebpf4jnsgd1na2vs0mg"},{"bike_id":"8add3d49-eb9d-4357-9b6f-5c0420bcce5e","system_id":"levelo_inurba_marseille","lat":43.31759,"lon":5.39012,"is_reserved":false,"is_disabled":false,"rental_uris":{"android":"levelo://app?vid=8add3d49-eb9d-4357-9b6f-5c0420bcce5e","ios":"levelo://app?vid=8add3d49-eb9d-4357-9b6f-5c0420bcce5e"},"vehicle_type_id":"4","last_reported":1721084929,"current_range_meters":6800,"station_id":"ce4bhqp2rcd13ifvqhng","pricing_plan_id":"cebpf4jnsgd1na2vs0mg"},{"bike_id":"b1134af3-9322-44b2-8bf3-d4bd59ef2f4c","system_id":"levelo_inurba_marseille","lat":43.31761,"lon":5.39015,"is_reserved":false,"is_disabled":false,"rental_uris":{"android":"levelo://app?vid=b1134af3-9322-44b2-8bf3-d4bd59ef2f4c","ios":"levelo://app?vid=b1134af3-9322-44b2-8bf3-d4bd59ef2f4c"},"vehicle_type_id":"4","last_reported":1721084929,"current_range_meters":22800,"station_id":"ce4bhqp2rcd13ifvqhng","pricing_plan_id":"cebpf4jnsgd1na2vs0mg"},{"bike_id":"3829e722-981d-4be5-9eba-ad76adb6eca0","system_id":"levelo_inurba_marseille","lat":43.317557,"lon":5.390173,"is_reserved":false,"is_disabled":false,"rental_uris":{"android":"levelo://app?vid=3829e722-981d-4be5-9eba-ad76adb6eca0","ios":"levelo://app?vid=3829e722-981d-4be5-9eba-ad76adb6eca0"},"vehicle_type_id":"4","last_reported":1721084929,"current_range_meters":26400,"station_id":"ce4bhqp2rcd13ifvqhng","pricing_plan_id":"cebpf4jnsgd1na2vs0mg"},{"bike_id":"4663f8c1-5898-4a2e-a0e4-ab131bcc2440","system_id":"levelo_inurba_marseille","lat":43.3176,"lon":5.39022,"is_reserved":false,"is_disabled":false,"rental_uris":{"android":"levelo://app?vid=4663f8c1-5898-4a2e-a0e4-ab131bcc2440","ios":"levelo://app?vid=4663f8c1-5898-4a2e-a0e4-ab131bcc2440"},"vehicle_type_id":"4","last_reported":1721084929,"current_range_meters":30000,"station_id":"ce4bhqp2rcd13ifvqhng","pricing_plan_id":"cebpf4jnsgd1na2vs0mg"},{"bike_id":"7879091d-6990-4fbc-8ace-35cdcb42c77c","system_id":"levelo_inurba_marseille","lat":43.298037,"lon":5.381066,"is_reserved":false,"is_disabled":false,"rental_uris":{"android":"levelo://app?vid=7879091d-6990-4fbc-8ace-35cdcb42c77c","ios":"levelo://app?vid=7879091d-6990-4fbc-8ace-35cdcb42c77c"},"vehicle_type_id":"4","last_reported":1721084929,"current_range_meters":12400,"station_id":"ce4bgip2rcd13ifvqbb0","pricing_plan_id":"cebpf4jnsgd1na2vs0mg"},{"bike_id":"d600f613-c810-4a82-b767-832934c0fe4a","system_id":"levelo_inurba_marseille","lat":43.304274,"lon":5.388873,"is_reserved":false,"is_disabled":false,"rental_uris":{"android":"levelo://app?vid=d600f613-c810-4a82-b767-832934c0fe4a","ios":"levelo://app?vid=d600f613-c810-4a82-b767-832934c0fe4a"},"vehicle_type_id":"4","last_reported":1721084929,"current_range_meters":21600,"station_id":"ce4bgk12rcd13ifvqbi0","pricing_plan_id":"cebpf4jnsgd1na2vs0mg"},{"bike_id":"761f7303-259c-432d-beb3-ecd8ee51ed9d","system_id":"levelo_inurba_marseille","lat":43.304274,"lon":5.388873,"is_reserved":false,"is_disabled":false,"rental_uris":{"android":"levelo://app?vid=761f7303-259c-432d-beb3-ecd8ee51ed9d","ios":"levelo://app?vid=761f7303-259c-432d-beb3-ecd8ee51ed9d"},"vehicle_type_id":"4","last_reported":1721084929,"current_range_meters":6000,"station_id":"ce4bgk12rcd13ifvqbi0","pricing_plan_id":"cebpf4jnsgd1na2vs0mg"},{"bike_id":"8d958db8-172e-4471-b04b-74cd121b2b4d","system_id":"levelo_inurba_marseille","lat":43.304274,"lon":5.388873,"is_reserved":false,"is_disabled":false,"rental_uris":{"android":"levelo://app?vid=8d958db8-172e-4471-b04b-74cd121b2b4d","ios":"levelo://app?vid=8d958db8-172e-4471-b04b-74cd121b2b4d"},"vehicle_type_id":"4","last_reported":1721084929,"current_range_meters":14400,"station_id":"ce4bgk12rcd13ifvqbi0","pricing_plan_id":"cebpf4jnsgd1na2vs0mg"},{"bike_id":"285a4959-2787-424e-9db1-fe24277cb41a","system_id":"levelo_inurba_marseille","lat":43.304274,"lon":5.388873,"is_reserved":false,"is_disabled":false,"rental_uris":{"android":"levelo://app?vid=285a4959-2787-424e-9db1-fe24277cb41a","ios":"levelo://app?vid=285a4959-2787-424e-9db1-fe24277cb41a"},"vehicle_type_id":"4","last_reported":1721084929,"current_range_meters":12800,"station_id":"ce4bgk12rcd13ifvqbi0","pricing_plan_id":"cebpf4jnsgd1na2vs0mg"},{"bike_id":"cc856544-63d2-456d-8d04-7216effc2ce8","system_id":"levelo_inurba_marseille","lat":43.304278,"lon":5.388868,"is_reserved":false,"is_disabled":false,"rental_uris":{"android":"levelo://app?vid=cc856544-63d2-456d-8d04-7216effc2ce8","ios":"levelo://app?vid=cc856544-63d2-456d-8d04-7216effc2ce8"},"vehicle_type_id":"4","last_reported":1721084929,"current_range_meters":30000,"station_id":"ce4bgk12rcd13ifvqbi0","pricing_plan_id":"cebpf4jnsgd1na2vs0mg"},{"bike_id":"96dfa67a-75b3-4e40-a7cf-ce2020f4addc","system_id":"levelo_inurba_marseille","lat":43.304274,"lon":5.388873,"is_reserved":false,"is_disabled":false,"rental_uris":{"android":"levelo://app?vid=96dfa67a-75b3-4e40-a7cf-ce2020f4addc","ios":"levelo://app?vid=96dfa67a-75b3-4e40-a7cf-ce2020f4addc"},"vehicle_type_id":"4","last_reported":1721084929,"current_range_meters":24800,"station_id":"ce4bgk12rcd13ifvqbi0","pricing_plan_id":"cebpf4jnsgd1na2vs0mg"},{"bike_id":"212faba3-05d9-43a2-b49b-ecd0e1f7b27a","system_id":"levelo_inurba_marseille","lat":43.304278,"lon":5.388868,"is_reserved":false,"is_disabled":false,"rental_uris":{"android":"levelo://app?vid=212faba3-05d9-43a2-b49b-ecd0e1f7b27a","ios":"levelo://app?vid=212faba3-05d9-43a2-b49b-ecd0e1f7b27a"},"vehicle_type_id":"4","last_reported":1721084929,"current_range_meters":31200,"station_id":"ce4bgk12rcd13ifvqbi0","pricing_plan_id":"cebpf4jnsgd1na2vs0mg"},{"bike_id":"b75f0379-5ad2-49ae-8d90-add5d5609c08","system_id":"levelo_inurba_marseille","lat":43.299717,"lon":5.384845,"is_reserved":false,"is_disabled":false,"rental_uris":{"android":"levelo://app?vid=b75f0379-5ad2-49ae-8d90-add5d5609c08","ios":"levelo://app?vid=b75f0379-5ad2-49ae-8d90-add5d5609c08"},"vehicle_type_id":"4","last_reported":1721084929,"current_range_meters":3600,"station_id":"ce4bgj92rcd13ifvqbd0","pricing_plan_id":"cebpf4jnsgd1na2vs0mg"},{"bike_id":"239e0100-b84f-4d5b-85c7-945abfb4d8fa","system_id":"levelo_inurba_marseille","lat":43.29553,"lon":5.37723,"is_reserved":false,"is_disabled":false,"rental_uris":{"android":"levelo://app?vid=239e0100-b84f-4d5b-85c7-945abfb4d8fa","ios":"levelo://app?vid=239e0100-b84f-4d5b-85c7-945abfb4d8fa"},"vehicle_type_id":"4","last_reported":1721084929,"current_range_meters":8400,"station_id":"","pricing_plan_id":"cebpf4jnsgd1na2vs0mg"},{"bike_id":"5d0a5adc-13c7-404c-9e73-3eb328f51f62","system_id":"levelo_inurba_marseille","lat":43.301396,"lon":5.387812,"is_reserved":false,"is_disabled":false,"rental_uris":{"android":"levelo://app?vid=5d0a5adc-13c7-404c-9e73-3eb328f51f62","ios":"levelo://app?vid=5d0a5adc-13c7-404c-9e73-3eb328f51f62"},"vehicle_type_id":"4","last_reported":1721084929,"current_range_meters":20400,"station_id":"ce4bghh2rcd13ifvqb60","pricing_plan_id":"cebpf4jnsgd1na2vs0mg"},{"bike_id":"7df6c00c-a701-40b1-9d28-fcdf635a8ac3","system_id":"levelo_inurba_marseille","lat":43.32367,"lon":5.388836,"is_reserved":false,"is_disabled":false,"rental_uris":{"android":"levelo://app?vid=7df6c00c-a701-40b1-9d28-fcdf635a8ac3","ios":"levelo://app?vid=7df6c00c-a701-40b1-9d28-fcdf635a8ac3"},"vehicle_type_id":"4","last_reported":1721084929,"current_range_meters":31200,"station_id":"ce4bhqp2rcd13ifvqhog","pricing_plan_id":"cebpf4jnsgd1na2vs0mg"},{"bike_id":"e548bb99-2451-4ed6-a8a2-2bd139b86511","system_id":"levelo_inurba_marseille","lat":43.32367,"lon":5.388836,"is_reserved":false,"is_disabled":false,"rental_uris":{"android":"levelo://app?vid=e548bb99-2451-4ed6-a8a2-2bd139b86511","ios":"levelo://app?vid=e548bb99-2451-4ed6-a8a2-2bd139b86511"},"vehicle_type_id":"4","last_reported":1721084929,"current_range_meters":31200,"station_id":"ce4bhqp2rcd13ifvqhog","pricing_plan_id":"cebpf4jnsgd1na2vs0mg"},{"bike_id":"550af3a8-d87c-4a30-83c8-7de2b6ceb888","system_id":"levelo_inurba_marseille","lat":43.32367,"lon":5.388836,"is_reserved":false,"is_disabled":false,"rental_uris":{"android":"levelo://app?vid=550af3a8-d87c-4a30-83c8-7de2b6ceb888","ios":"levelo://app?vid=550af3a8-d87c-4a30-83c8-7de2b6ceb888"},"vehicle_type_id":"4","last_reported":1721084929,"current_range_meters":31200,"station_id":"ce4bhqp2rcd13ifvqhog","pricing_plan_id":"cebpf4jnsgd1na2vs0mg"},{"bike_id":"bd8335ce-ce7a-4f7f-8c35-9fd817f3eb6a","system_id":"levelo_inurba_marseille","lat":43.32367,"lon":5.388836,"is_reserved":false,"is_disabled":false,"rental_uris":{"android":"levelo://app?vid=bd8335ce-ce7a-4f7f-8c35-9fd817f3eb6a","ios":"levelo://app?vid=bd8335ce-ce7a-4f7f-8c35-9fd817f3eb6a"},"vehicle_type_id":"4","last_reported":1721084929,"current_range_meters":30800,"station_id":"ce4bhqp2rcd13ifvqhog","pricing_plan_id":"cebpf4jnsgd1na2vs0mg"},{"bike_id":"e971135c-c4ad-4d15-a60d-ce9efc23f60c","system_id":"levelo_inurba_marseille","lat":43.32367,"lon":5.388836,"is_reserved":false,"is_disabled":false,"rental_uris":{"android":"levelo://app?vid=e971135c-c4ad-4d15-a60d-ce9efc23f60c","ios":"levelo://app?vid=e971135c-c4ad-4d15-a60d-ce9efc23f60c"},"vehicle_type_id":"4","last_reported":1721084929,"current_range_meters":31200,"station_id":"ce4bhqp2rcd13ifvqhog","pricing_plan_id":"cebpf4jnsgd1na2vs0mg"},{"bike_id":"e5c51118-4c20-4552-935a-798e0405bcb3","system_id":"levelo_inurba_marseille","lat":43.29602,"lon":5.381084,"is_reserved":false,"is_disabled":false,"rental_uris":{"android":"levelo://app?vid=e5c51118-4c20-4552-935a-798e0405bcb3","ios":"levelo://app?vid=e5c51118-4c20-4552-935a-798e0405bcb3"},"vehicle_type_id":"4","last_reported":1721084929,"current_range_meters":31200,"station_id":"ce4bgl12rcd13ifvqbo0","pricing_plan_id":"cebpf4jnsgd1na2vs0mg"},{"bike_id":"85aecc78-4150-445a-be4b-0ba22eaa04cd","system_id":"levelo_inurba_marseille","lat":43.305994,"lon":5.393687,"is_reserved":false,"is_disabled":false,"rental_uris":{"android":"levelo://app?vid=85aecc78-4150-445a-be4b-0ba22eaa04cd","ios":"levelo://app?vid=85aecc78-4150-445a-be4b-0ba22eaa04cd"},"vehicle_type_id":"4","last_reported":1721084929,"current_range_meters":17600,"station_id":"ce4bh0p2rcd13ifvqd80","pricing_plan_id":"cebpf4jnsgd1na2vs0mg"},{"bike_id":"dc551221-c237-4a1b-9c4e-ec6f0b5c8fa4","system_id":"levelo_inurba_marseille","lat":43.30596,"lon":5.39357,"is_reserved":false,"is_disabled":false,"rental_uris":{"android":"levelo://app?vid=dc551221-c237-4a1b-9c4e-ec6f0b5c8fa4","ios":"levelo://app?vid=dc551221-c237-4a1b-9c4e-ec6f0b5c8fa4"},"vehicle_type_id":"4","last_reported":1721084929,"current_range_meters":17200,"station_id":"ce4bh0p2rcd13ifvqd80","pricing_plan_id":"cebpf4jnsgd1na2vs0mg"},{"bike_id":"d28b1918-e34b-4ff9-bae8-77ffd4af424d","system_id":"levelo_inurba_marseille","lat":43.305994,"lon":5.393687,"is_reserved":false,"is_disabled":false,"rental_uris":{"android":"levelo://app?vid=d28b1918-e34b-4ff9-bae8-77ffd4af424d","ios":"levelo://app?vid=d28b1918-e34b-4ff9-bae8-77ffd4af424d"},"vehicle_type_id":"4","last_reported":1721084929,"current_range_meters":11600,"station_id":"ce4bh0p2rcd13ifvqd80","pricing_plan_id":"cebpf4jnsgd1na2vs0mg"},{"bike_id":"aebcce7b-99c2-45eb-af9a-eb98d6411af0","system_id":"levelo_inurba_marseille","lat":43.305994,"lon":5.393687,"is_reserved":false,"is_disabled":false,"rental_uris":{"android":"levelo://app?vid=aebcce7b-99c2-45eb-af9a-eb98d6411af0","ios":"levelo://app?vid=aebcce7b-99c2-45eb-af9a-eb98d6411af0"},"vehicle_type_id":"4","last_reported":1721084929,"current_range_meters":21200,"station_id":"ce4bh0p2rcd13ifvqd80","pricing_plan_id":"cebpf4jnsgd1na2vs0mg"},{"bike_id":"bf28189f-04ce-4891-a928-f60ffbcdb246","system_id":"levelo_inurba_marseille","lat":43.305994,"lon":5.393687,"is_reserved":false,"is_disabled":false,"rental_uris":{"android":"levelo://app?vid=bf28189f-04ce-4891-a928-f60ffbcdb246","ios":"levelo://app?vid=bf28189f-04ce-4891-a928-f60ffbcdb246"},"vehicle_type_id":"4","last_reported":1721084929,"current_range_meters":10400,"station_id":"ce4bh0p2rcd13ifvqd80","pricing_plan_id":"cebpf4jnsgd1na2vs0mg"},{"bike_id":"8893ce19-37b0-4e1f-99ff-b00b247526f9","system_id":"levelo_inurba_marseille","lat":43.303002,"lon":5.392142,"is_reserved":false,"is_disabled":false,"rental_uris":{"android":"levelo://app?vid=8893ce19-37b0-4e1f-99ff-b00b247526f9","ios":"levelo://app?vid=8893ce19-37b0-4e1f-99ff-b00b247526f9"},"vehicle_type_id":"4","last_reported":1721084929,"current_range_meters":18400,"station_id":"ce4bgkh2rcd13ifvqbk0","pricing_plan_id":"cebpf4jnsgd1na2vs0mg"},{"bike_id":"124c20f8-4a9d-46bd-9aad-6753a4dbb826","system_id":"levelo_inurba_marseille","lat":43.30085,"lon":5.390856,"is_reserved":false,"is_disabled":false,"rental_uris":{"android":"levelo://app?vid=124c20f8-4a9d-46bd-9aad-6753a4dbb826","ios":"levelo://app?vid=124c20f8-4a9d-46bd-9aad-6753a4dbb826"},"vehicle_type_id":"4","last_reported":1721084929,"current_range_meters":24800,"station_id":"ce4bh192rcd13ifvqdb0","pricing_plan_id":"cebpf4jnsgd1na2vs0mg"},{"bike_id":"085f9c36-1ac9-4a06-affb-d65bc38a8659","system_id":"levelo_inurba_marseille","lat":43.300852,"lon":5.390859,"is_reserved":false,"is_disabled":false,"rental_uris":{"android":"levelo://app?vid=085f9c36-1ac9-4a06-affb-d65bc38a8659","ios":"levelo://app?vid=085f9c36-1ac9-4a06-affb-d65bc38a8659"},"vehicle_type_id":"4","last_reported":1721084929,"current_range_meters":22000,"station_id":"ce4bh192rcd13ifvqdb0","pricing_plan_id":"cebpf4jnsgd1na2vs0mg"},{"bike_id":"1f580630-281f-4934-88e6-2a0d48fa364f","system_id":"levelo_inurba_marseille","lat":43.30085,"lon":5.390856,"is_reserved":false,"is_disabled":false,"rental_uris":{"android":"levelo://app?vid=1f580630-281f-4934-88e6-2a0d48fa364f","ios":"levelo://app?vid=1f580630-281f-4934-88e6-2a0d48fa364f"},"vehicle_type_id":"4","last_reported":1721084929,"current_range_meters":11200,"station_id":"ce4bh192rcd13ifvqdb0","pricing_plan_id":"cebpf4jnsgd1na2vs0mg"},{"bike_id":"61165eb7-e6a1-49e8-8238-85691aa3b791","system_id":"levelo_inurba_marseille","lat":43.30085,"lon":5.390856,"is_reserved":false,"is_disabled":false,"rental_uris":{"android":"levelo://app?vid=61165eb7-e6a1-49e8-8238-85691aa3b791","ios":"levelo://app?vid=61165eb7-e6a1-49e8-8238-85691aa3b791"},"vehicle_type_id":"4","last_reported":1721084929,"current_range_meters":27600,"station_id":"ce4bh192rcd13ifvqdb0","pricing_plan_id":"cebpf4jnsgd1na2vs0mg"},{"bike_id":"dc964bc3-d494-4bb6-8389-38698170586d","system_id":"levelo_inurba_marseille","lat":43.290779,"lon":5.371482,"is_reserved":false,"is_disabled":false,"rental_uris":{"android":"levelo://app?vid=dc964bc3-d494-4bb6-8389-38698170586d","ios":"levelo://app?vid=dc964bc3-d494-4bb6-8389-38698170586d"},"vehicle_type_id":"4","last_reported":1721084929,"current_range_meters":13200,"station_id":"ce4bh5p2rcd13ifvqe4g","pricing_plan_id":"cebpf4jnsgd1na2vs0mg"},{"bike_id":"171ce34d-d21a-4c5a-8003-a90a6d1dbdb9","system_id":"levelo_inurba_marseille","lat":43.30085,"lon":5.390856,"is_reserved":false,"is_disabled":false,"rental_uris":{"android":"levelo://app?vid=171ce34d-d21a-4c5a-8003-a90a6d1dbdb9","ios":"levelo://app?vid=171ce34d-d21a-4c5a-8003-a90a6d1dbdb9"},"vehicle_type_id":"4","last_reported":1721084929,"current_range_meters":17200,"station_id":"ce4bh192rcd13ifvqdb0","pricing_plan_id":"cebpf4jnsgd1na2vs0mg"},{"bike_id":"2274ce3d-5383-482a-a76e-da9b3663b7d2","system_id":"levelo_inurba_marseille","lat":43.30085,"lon":5.390856,"is_reserved":false,"is_disabled":false,"rental_uris":{"android":"levelo://app?vid=2274ce3d-5383-482a-a76e-da9b3663b7d2","ios":"levelo://app?vid=2274ce3d-5383-482a-a76e-da9b3663b7d2"},"vehicle_type_id":"4","last_reported":1721084929,"current_range_meters":30800,"station_id":"ce4bh192rcd13ifvqdb0","pricing_plan_id":"cebpf4jnsgd1na2vs0mg"},{"bike_id":"004462bb-f5fb-442b-9b82-26f6093c53fd","system_id":"levelo_inurba_marseille","lat":43.29264,"lon":5.37626,"is_reserved":false,"is_disabled":false,"rental_uris":{"android":"levelo://app?vid=004462bb-f5fb-442b-9b82-26f6093c53fd","ios":"levelo://app?vid=004462bb-f5fb-442b-9b82-26f6093c53fd"},"vehicle_type_id":"4","last_reported":1721084929,"current_range_meters":1200,"station_id":"ce4bgi12rcd13ifvqb80","pricing_plan_id":"cebpf4jnsgd1na2vs0mg"},{"bike_id":"ee80424d-b40c-41ee-a8f5-f1ffdcdc04ae","system_id":"levelo_inurba_marseille","lat":43.298764,"lon":5.388973,"is_reserved":false,"is_disabled":false,"rental_uris":{"android":"levelo://app?vid=ee80424d-b40c-41ee-a8f5-f1ffdcdc04ae","ios":"levelo://app?vid=ee80424d-b40c-41ee-a8f5-f1ffdcdc04ae"},"vehicle_type_id":"4","last_reported":1721084929,"current_range_meters":31600,"station_id":"ce4bh392rcd13ifvqdl0","pricing_plan_id":"cebpf4jnsgd1na2vs0mg"},{"bike_id":"3d3b3f2f-f2a3-4c97-bd6c-398d4099043e","system_id":"levelo_inurba_marseille","lat":43.291675,"lon":5.371583,"is_reserved":false,"is_disabled":false,"rental_uris":{"android":"levelo://app?vid=3d3b3f2f-f2a3-4c97-bd6c-398d4099043e","ios":"levelo://app?vid=3d3b3f2f-f2a3-4c97-bd6c-398d4099043e"},"vehicle_type_id":"4","last_reported":1721084929,"current_range_meters":6800,"station_id":"ce4bha92rcd13ifvqeh0","pricing_plan_id":"cebpf4jnsgd1na2vs0mg"},{"bike_id":"a0b488c2-f971-4005-a530-89995babc176","system_id":"levelo_inurba_marseille","lat":43.298764,"lon":5.388973,"is_reserved":false,"is_disabled":false,"rental_uris":{"android":"levelo://app?vid=a0b488c2-f971-4005-a530-89995babc176","ios":"levelo://app?vid=a0b488c2-f971-4005-a530-89995babc176"},"vehicle_type_id":"4","last_reported":1721084929,"current_range_meters":15600,"station_id":"ce4bh392rcd13ifvqdl0","pricing_plan_id":"cebpf4jnsgd1na2vs0mg"},{"bike_id":"6a43d500-5805-4c4d-a71a-aba69d423610","system_id":"levelo_inurba_marseille","lat":43.298687,"lon":5.389063,"is_reserved":false,"is_disabled":false,"rental_uris":{"android":"levelo://app?vid=6a43d500-5805-4c4d-a71a-aba69d423610","ios":"levelo://app?vid=6a43d500-5805-4c4d-a71a-aba69d423610"},"vehicle_type_id":"4","last_reported":1721084929,"current_range_meters":28800,"station_id":"ce4bh392rcd13ifvqdl0","pricing_plan_id":"cebpf4jnsgd1na2vs0mg"},{"bike_id":"46c519c9-2059-40c6-a6ad-183b0ab60fba","system_id":"levelo_inurba_marseille","lat":43.298764,"lon":5.388973,"is_reserved":false,"is_disabled":false,"rental_uris":{"android":"levelo://app?vid=46c519c9-2059-40c6-a6ad-183b0ab60fba","ios":"levelo://app?vid=46c519c9-2059-40c6-a6ad-183b0ab60fba"},"vehicle_type_id":"4","last_reported":1721084929,"current_range_meters":26400,"station_id":"ce4bh392rcd13ifvqdl0","pricing_plan_id":"cebpf4jnsgd1na2vs0mg"},{"bike_id":"46e103bb-0820-40d7-b14b-9ca0f1c83c3d","system_id":"levelo_inurba_marseille","lat":43.298764,"lon":5.388973,"is_reserved":false,"is_disabled":false,"rental_uris":{"android":"levelo://app?vid=46e103bb-0820-40d7-b14b-9ca0f1c83c3d","ios":"levelo://app?vid=46e103bb-0820-40d7-b14b-9ca0f1c83c3d"},"vehicle_type_id":"4","last_reported":1721084929,"current_range_meters":31200,"station_id":"ce4bh392rcd13ifvqdl0","pricing_plan_id":"cebpf4jnsgd1na2vs0mg"},{"bike_id":"4fb44b51-6f77-49bf-9b99-45a5414ee471","system_id":"levelo_inurba_marseille","lat":43.30885,"lon":5.39636,"is_reserved":false,"is_disabled":false,"rental_uris":{"android":"levelo://app?vid=4fb44b51-6f77-49bf-9b99-45a5414ee471","ios":"levelo://app?vid=4fb44b51-6f77-49bf-9b99-45a5414ee471"},"vehicle_type_id":"4","last_reported":1721084929,"current_range_meters":21600,"station_id":"ce4bh012rcd13ifvqcv0","pricing_plan_id":"cebpf4jnsgd1na2vs0mg"},{"bike_id":"104a4ac4-6c08-4caf-816d-3c4e1693364b","system_id":"levelo_inurba_marseille","lat":43.30868,"lon":5.39632,"is_reserved":false,"is_disabled":false,"rental_uris":{"android":"levelo://app?vid=104a4ac4-6c08-4caf-816d-3c4e1693364b","ios":"levelo://app?vid=104a4ac4-6c08-4caf-816d-3c4e1693364b"},"vehicle_type_id":"4","last_reported":1721084929,"current_range_meters":29600,"station_id":"ce4bh012rcd13ifvqcv0","pricing_plan_id":"cebpf4jnsgd1na2vs0mg"},{"bike_id":"d1834e08-a01a-404e-8d3a-05f5c48c1598","system_id":"levelo_inurba_marseille","lat":43.309038,"lon":5.396546,"is_reserved":false,"is_disabled":false,"rental_uris":{"android":"levelo://app?vid=d1834e08-a01a-404e-8d3a-05f5c48c1598","ios":"levelo://app?vid=d1834e08-a01a-404e-8d3a-05f5c48c1598"},"vehicle_type_id":"4","last_reported":1721084929,"current_range_meters":17600,"station_id":"ce4bh012rcd13ifvqcv0","pricing_plan_id":"cebpf4jnsgd1na2vs0mg"},{"bike_id":"f4cb58ef-b92c-4b77-9265-d854d1ac1c15","system_id":"levelo_inurba_marseille","lat":43.309047,"lon":5.396551,"is_reserved":false,"is_disabled":false,"rental_uris":{"android":"levelo://app?vid=f4cb58ef-b92c-4b77-9265-d854d1ac1c15","ios":"levelo://app?vid=f4cb58ef-b92c-4b77-9265-d854d1ac1c15"},"vehicle_type_id":"4","last_reported":1721084929,"current_range_meters":31200,"station_id":"ce4bh012rcd13ifvqcv0","pricing_plan_id":"cebpf4jnsgd1na2vs0mg"},{"bike_id":"698cb30f-9942-48cc-b19b-90bf2537b4e6","system_id":"levelo_inurba_marseille","lat":43.30882,"lon":5.39639,"is_reserved":false,"is_disabled":false,"rental_uris":{"android":"levelo://app?vid=698cb30f-9942-48cc-b19b-90bf2537b4e6","ios":"levelo://app?vid=698cb30f-9942-48cc-b19b-90bf2537b4e6"},"vehicle_type_id":"4","last_reported":1721084929,"current_range_meters":8800,"station_id":"ce4bh012rcd13ifvqcv0","pricing_plan_id":"cebpf4jnsgd1na2vs0mg"},{"bike_id":"37a7e664-5481-4f93-9945-d1961a02ea43","system_id":"levelo_inurba_marseille","lat":43.31329,"lon":5.39689,"is_reserved":false,"is_disabled":false,"rental_uris":{"android":"levelo://app?vid=37a7e664-5481-4f93-9945-d1961a02ea43","ios":"levelo://app?vid=37a7e664-5481-4f93-9945-d1961a02ea43"},"vehicle_type_id":"4","last_reported":1721084929,"current_range_meters":7200,"station_id":"ce4bgvp2rcd13ifvqcu0","pricing_plan_id":"cebpf4jnsgd1na2vs0mg"},{"bike_id":"bccef985-28e6-4ca3-ab2b-1446deea4b78","system_id":"levelo_inurba_marseille","lat":43.308837,"lon":5.396423,"is_reserved":false,"is_disabled":false,"rental_uris":{"android":"levelo://app?vid=bccef985-28e6-4ca3-ab2b-1446deea4b78","ios":"levelo://app?vid=bccef985-28e6-4ca3-ab2b-1446deea4b78"},"vehicle_type_id":"4","last_reported":1721084929,"current_range_meters":25600,"station_id":"ce4bh012rcd13ifvqcv0","pricing_plan_id":"cebpf4jnsgd1na2vs0mg"},{"bike_id":"23a5c049-faf7-41a3-a1b2-cf0773576bbb","system_id":"levelo_inurba_marseille","lat":43.30884,"lon":5.39643,"is_reserved":false,"is_disabled":false,"rental_uris":{"android":"levelo://app?vid=23a5c049-faf7-41a3-a1b2-cf0773576bbb","ios":"levelo://app?vid=23a5c049-faf7-41a3-a1b2-cf0773576bbb"},"vehicle_type_id":"4","last_reported":1721084929,"current_range_meters":2400,"station_id":"ce4bh012rcd13ifvqcv0","pricing_plan_id":"cebpf4jnsgd1na2vs0mg"},{"bike_id":"57b7f5e7-7c2d-40ba-a688-4624d77c7bed","system_id":"levelo_inurba_marseille","lat":43.31323,"lon":5.39691,"is_reserved":false,"is_disabled":false,"rental_uris":{"android":"levelo://app?vid=57b7f5e7-7c2d-40ba-a688-4624d77c7bed","ios":"levelo://app?vid=57b7f5e7-7c2d-40ba-a688-4624d77c7bed"},"vehicle_type_id":"4","last_reported":1721084929,"current_range_meters":0,"station_id":"ce4bgvp2rcd13ifvqcu0","pricing_plan_id":"cebpf4jnsgd1na2vs0mg"},{"bike_id":"fd7e9e54-86d1-4c0e-9eb6-37c6edb6045f","system_id":"levelo_inurba_marseille","lat":43.31329,"lon":5.39691,"is_reserved":false,"is_disabled":false,"rental_uris":{"android":"levelo://app?vid=fd7e9e54-86d1-4c0e-9eb6-37c6edb6045f","ios":"levelo://app?vid=fd7e9e54-86d1-4c0e-9eb6-37c6edb6045f"},"vehicle_type_id":"4","last_reported":1721084929,"current_range_meters":5600,"station_id":"ce4bgvp2rcd13ifvqcu0","pricing_plan_id":"cebpf4jnsgd1na2vs0mg"},{"bike_id":"1b991b1a-888c-4fcf-bb18-ddca30d642e7","system_id":"levelo_inurba_marseille","lat":43.31331,"lon":5.39691,"is_reserved":false,"is_disabled":false,"rental_uris":{"android":"levelo://app?vid=1b991b1a-888c-4fcf-bb18-ddca30d642e7","ios":"levelo://app?vid=1b991b1a-888c-4fcf-bb18-ddca30d642e7"},"vehicle_type_id":"4","last_reported":1721084929,"current_range_meters":2400,"station_id":"ce4bgvp2rcd13ifvqcu0","pricing_plan_id":"cebpf4jnsgd1na2vs0mg"},{"bike_id":"02eb45c4-e1b5-4763-b465-e856ca7464b5","system_id":"levelo_inurba_marseille","lat":43.309038,"lon":5.396546,"is_reserved":false,"is_disabled":false,"rental_uris":{"android":"levelo://app?vid=02eb45c4-e1b5-4763-b465-e856ca7464b5","ios":"levelo://app?vid=02eb45c4-e1b5-4763-b465-e856ca7464b5"},"vehicle_type_id":"4","last_reported":1721084929,"current_range_meters":0,"station_id":"ce4bh012rcd13ifvqcv0","pricing_plan_id":"cebpf4jnsgd1na2vs0mg"},{"bike_id":"f4356f1e-c080-49cb-b37f-5e15a4b1e6fd","system_id":"levelo_inurba_marseille","lat":43.31332,"lon":5.396915,"is_reserved":false,"is_disabled":false,"rental_uris":{"android":"levelo://app?vid=f4356f1e-c080-49cb-b37f-5e15a4b1e6fd","ios":"levelo://app?vid=f4356f1e-c080-49cb-b37f-5e15a4b1e6fd"},"vehicle_type_id":"4","last_reported":1721084929,"current_range_meters":16000,"station_id":"ce4bgvp2rcd13ifvqcu0","pricing_plan_id":"cebpf4jnsgd1na2vs0mg"},{"bike_id":"c72cecce-c1bc-4a37-ab5d-57911cde1d07","system_id":"levelo_inurba_marseille","lat":43.31327,"lon":5.39692,"is_reserved":false,"is_disabled":false,"rental_uris":{"android":"levelo://app?vid=c72cecce-c1bc-4a37-ab5d-57911cde1d07","ios":"levelo://app?vid=c72cecce-c1bc-4a37-ab5d-57911cde1d07"},"vehicle_type_id":"4","last_reported":1721084929,"current_range_meters":9600,"station_id":"ce4bgvp2rcd13ifvqcu0","pricing_plan_id":"cebpf4jnsgd1na2vs0mg"},{"bike_id":"8c1f648c-b7e4-485c-8dc4-a6a969bd0951","system_id":"levelo_inurba_marseille","lat":43.309038,"lon":5.396546,"is_reserved":false,"is_disabled":false,"rental_uris":{"android":"levelo://app?vid=8c1f648c-b7e4-485c-8dc4-a6a969bd0951","ios":"levelo://app?vid=8c1f648c-b7e4-485c-8dc4-a6a969bd0951"},"vehicle_type_id":"4","last_reported":1721084929,"current_range_meters":32000,"station_id":"ce4bh012rcd13ifvqcv0","pricing_plan_id":"cebpf4jnsgd1na2vs0mg"},{"bike_id":"4b9f4f0a-2448-46ac-87fa-a89aeb3e7690","system_id":"levelo_inurba_marseille","lat":43.31327,"lon":5.39695,"is_reserved":false,"is_disabled":false,"rental_uris":{"android":"levelo://app?vid=4b9f4f0a-2448-46ac-87fa-a89aeb3e7690","ios":"levelo://app?vid=4b9f4f0a-2448-46ac-87fa-a89aeb3e7690"},"vehicle_type_id":"4","last_reported":1721084929,"current_range_meters":26800,"station_id":"ce4bgvp2rcd13ifvqcu0","pricing_plan_id":"cebpf4jnsgd1na2vs0mg"},{"bike_id":"4ede3fd9-0f8c-4d92-a65d-a0102a05398c","system_id":"levelo_inurba_marseille","lat":43.31332,"lon":5.39695,"is_reserved":false,"is_disabled":false,"rental_uris":{"android":"levelo://app?vid=4ede3fd9-0f8c-4d92-a65d-a0102a05398c","ios":"levelo://app?vid=4ede3fd9-0f8c-4d92-a65d-a0102a05398c"},"vehicle_type_id":"4","last_reported":1721084929,"current_range_meters":24000,"station_id":"ce4bgvp2rcd13ifvqcu0","pricing_plan_id":"cebpf4jnsgd1na2vs0mg"},{"bike_id":"d33af72b-54cf-41f7-a26c-1977ef9e41e4","system_id":"levelo_inurba_marseille","lat":43.31334,"lon":5.39695,"is_reserved":false,"is_disabled":false,"rental_uris":{"android":"levelo://app?vid=d33af72b-54cf-41f7-a26c-1977ef9e41e4","ios":"levelo://app?vid=d33af72b-54cf-41f7-a26c-1977ef9e41e4"},"vehicle_type_id":"4","last_reported":1721084929,"current_range_meters":12800,"station_id":"ce4bgvp2rcd13ifvqcu0","pricing_plan_id":"cebpf4jnsgd1na2vs0mg"},{"bike_id":"e123f535-8ee2-4389-9e42-aedb46dcba55","system_id":"levelo_inurba_marseille","lat":43.308877,"lon":5.396487,"is_reserved":false,"is_disabled":false,"rental_uris":{"android":"levelo://app?vid=e123f535-8ee2-4389-9e42-aedb46dcba55","ios":"levelo://app?vid=e123f535-8ee2-4389-9e42-aedb46dcba55"},"vehicle_type_id":"4","last_reported":1721084929,"current_range_meters":30000,"station_id":"ce4bh012rcd13ifvqcv0","pricing_plan_id":"cebpf4jnsgd1na2vs0mg"},{"bike_id":"b7fbeaaf-2a09-4e43-825f-c705aafab3e8","system_id":"levelo_inurba_marseille","lat":43.309038,"lon":5.396546,"is_reserved":false,"is_disabled":false,"rental_uris":{"android":"levelo://app?vid=b7fbeaaf-2a09-4e43-825f-c705aafab3e8","ios":"levelo://app?vid=b7fbeaaf-2a09-4e43-825f-c705aafab3e8"},"vehicle_type_id":"4","last_reported":1721084929,"current_range_meters":12000,"station_id":"ce4bh012rcd13ifvqcv0","pricing_plan_id":"cebpf4jnsgd1na2vs0mg"},{"bike_id":"cedf6c75-92c5-4e29-add3-f4f1f6faa02c","system_id":"levelo_inurba_marseille","lat":43.31329,"lon":5.39697,"is_reserved":false,"is_disabled":false,"rental_uris":{"android":"levelo://app?vid=cedf6c75-92c5-4e29-add3-f4f1f6faa02c","ios":"levelo://app?vid=cedf6c75-92c5-4e29-add3-f4f1f6faa02c"},"vehicle_type_id":"4","last_reported":1721084929,"current_range_meters":16800,"station_id":"ce4bgvp2rcd13ifvqcu0","pricing_plan_id":"cebpf4jnsgd1na2vs0mg"},{"bike_id":"6f62c608-3bae-4623-aa5f-5e3d8b12d101","system_id":"levelo_inurba_marseille","lat":43.313291,"lon":5.396838,"is_reserved":false,"is_disabled":false,"rental_uris":{"android":"levelo://app?vid=6f62c608-3bae-4623-aa5f-5e3d8b12d101","ios":"levelo://app?vid=6f62c608-3bae-4623-aa5f-5e3d8b12d101"},"vehicle_type_id":"4","last_reported":1721084929,"current_range_meters":6800,"station_id":"ce4bgvp2rcd13ifvqcu0","pricing_plan_id":"cebpf4jnsgd1na2vs0mg"},{"bike_id":"7d58c90f-18e8-431e-a20b-2c0fa203c41a","system_id":"levelo_inurba_marseille","lat":43.31326,"lon":5.39698,"is_reserved":false,"is_disabled":false,"rental_uris":{"android":"levelo://app?vid=7d58c90f-18e8-431e-a20b-2c0fa203c41a","ios":"levelo://app?vid=7d58c90f-18e8-431e-a20b-2c0fa203c41a"},"vehicle_type_id":"4","last_reported":1721084929,"current_range_meters":10400,"station_id":"ce4bgvp2rcd13ifvqcu0","pricing_plan_id":"cebpf4jnsgd1na2vs0mg"},{"bike_id":"9c207268-727b-4232-b428-bffbad0f30ef","system_id":"levelo_inurba_marseille","lat":43.309038,"lon":5.396546,"is_reserved":false,"is_disabled":false,"rental_uris":{"android":"levelo://app?vid=9c207268-727b-4232-b428-bffbad0f30ef","ios":"levelo://app?vid=9c207268-727b-4232-b428-bffbad0f30ef"},"vehicle_type_id":"4","last_reported":1721084929,"current_range_meters":31200,"station_id":"ce4bh012rcd13ifvqcv0","pricing_plan_id":"cebpf4jnsgd1na2vs0mg"},{"bike_id":"65030d18-15b3-48e1-b1ee-821af4016a92","system_id":"levelo_inurba_marseille","lat":43.309038,"lon":5.396546,"is_reserved":false,"is_disabled":false,"rental_uris":{"android":"levelo://app?vid=65030d18-15b3-48e1-b1ee-821af4016a92","ios":"levelo://app?vid=65030d18-15b3-48e1-b1ee-821af4016a92"},"vehicle_type_id":"4","last_reported":1721084929,"current_range_meters":15200,"station_id":"ce4bh012rcd13ifvqcv0","pricing_plan_id":"cebpf4jnsgd1na2vs0mg"},{"bike_id":"0143d4f8-8534-4317-9eb7-b31e6c7ee6b5","system_id":"levelo_inurba_marseille","lat":43.309038,"lon":5.396546,"is_reserved":false,"is_disabled":false,"rental_uris":{"android":"levelo://app?vid=0143d4f8-8534-4317-9eb7-b31e6c7ee6b5","ios":"levelo://app?vid=0143d4f8-8534-4317-9eb7-b31e6c7ee6b5"},"vehicle_type_id":"4","last_reported":1721084929,"current_range_meters":14800,"station_id":"ce4bh012rcd13ifvqcv0","pricing_plan_id":"cebpf4jnsgd1na2vs0mg"},{"bike_id":"bfabd9d4-9dbf-49f1-b31d-143a21fd61d7","system_id":"levelo_inurba_marseille","lat":43.30882,"lon":5.39655,"is_reserved":false,"is_disabled":false,"rental_uris":{"android":"levelo://app?vid=bfabd9d4-9dbf-49f1-b31d-143a21fd61d7","ios":"levelo://app?vid=bfabd9d4-9dbf-49f1-b31d-143a21fd61d7"},"vehicle_type_id":"4","last_reported":1721084929,"current_range_meters":31200,"station_id":"ce4bh012rcd13ifvqcv0","pricing_plan_id":"cebpf4jnsgd1na2vs0mg"},{"bike_id":"2154a989-cc0d-4d85-80a5-b9bb25934103","system_id":"levelo_inurba_marseille","lat":43.309038,"lon":5.396546,"is_reserved":false,"is_disabled":false,"rental_uris":{"android":"levelo://app?vid=2154a989-cc0d-4d85-80a5-b9bb25934103","ios":"levelo://app?vid=2154a989-cc0d-4d85-80a5-b9bb25934103"},"vehicle_type_id":"4","last_reported":1721084929,"current_range_meters":31200,"station_id":"ce4bh012rcd13ifvqcv0","pricing_plan_id":"cebpf4jnsgd1na2vs0mg"},{"bike_id":"12432770-09d0-4745-a675-1a6b4c1344e2","system_id":"levelo_inurba_marseille","lat":43.309038,"lon":5.396546,"is_reserved":false,"is_disabled":false,"rental_uris":{"android":"levelo://app?vid=12432770-09d0-4745-a675-1a6b4c1344e2","ios":"levelo://app?vid=12432770-09d0-4745-a675-1a6b4c1344e2"},"vehicle_type_id":"4","last_reported":1721084929,"current_range_meters":21600,"station_id":"ce4bh012rcd13ifvqcv0","pricing_plan_id":"cebpf4jnsgd1na2vs0mg"},{"bike_id":"967ce508-55dc-4ac2-92bc-68b244007e65","system_id":"levelo_inurba_marseille","lat":43.308927,"lon":5.396587,"is_reserved":false,"is_disabled":false,"rental_uris":{"android":"levelo://app?vid=967ce508-55dc-4ac2-92bc-68b244007e65","ios":"levelo://app?vid=967ce508-55dc-4ac2-92bc-68b244007e65"},"vehicle_type_id":"4","last_reported":1721084929,"current_range_meters":27200,"station_id":"ce4bh012rcd13ifvqcv0","pricing_plan_id":"cebpf4jnsgd1na2vs0mg"},{"bike_id":"a4a2aad7-942e-4e81-b5d0-685b4014624c","system_id":"levelo_inurba_marseille","lat":43.30888,"lon":5.39658,"is_reserved":false,"is_disabled":false,"rental_uris":{"android":"levelo://app?vid=a4a2aad7-942e-4e81-b5d0-685b4014624c","ios":"levelo://app?vid=a4a2aad7-942e-4e81-b5d0-685b4014624c"},"vehicle_type_id":"4","last_reported":1721084929,"current_range_meters":3600,"station_id":"ce4bh012rcd13ifvqcv0","pricing_plan_id":"cebpf4jnsgd1na2vs0mg"},{"bike_id":"ab72602b-27cc-4f00-b0fd-ec6dad9e6451","system_id":"levelo_inurba_marseille","lat":43.309038,"lon":5.396546,"is_reserved":false,"is_disabled":false,"rental_uris":{"android":"levelo://app?vid=ab72602b-27cc-4f00-b0fd-ec6dad9e6451","ios":"levelo://app?vid=ab72602b-27cc-4f00-b0fd-ec6dad9e6451"},"vehicle_type_id":"4","last_reported":1721084929,"current_range_meters":31200,"station_id":"ce4bh012rcd13ifvqcv0","pricing_plan_id":"cebpf4jnsgd1na2vs0mg"},{"bike_id":"ce9fa89b-0808-4d8b-b14f-9135efcfa466","system_id":"levelo_inurba_marseille","lat":43.309038,"lon":5.396546,"is_reserved":false,"is_disabled":false,"rental_uris":{"android":"levelo://app?vid=ce9fa89b-0808-4d8b-b14f-9135efcfa466","ios":"levelo://app?vid=ce9fa89b-0808-4d8b-b14f-9135efcfa466"},"vehicle_type_id":"4","last_reported":1721084929,"current_range_meters":24000,"station_id":"ce4bh012rcd13ifvqcv0","pricing_plan_id":"cebpf4jnsgd1na2vs0mg"},{"bike_id":"9e044024-a86d-4562-bb93-af70ad94c999","system_id":"levelo_inurba_marseille","lat":43.29529,"lon":5.385581,"is_reserved":false,"is_disabled":false,"rental_uris":{"android":"levelo://app?vid=9e044024-a86d-4562-bb93-af70ad94c999","ios":"levelo://app?vid=9e044024-a86d-4562-bb93-af70ad94c999"},"vehicle_type_id":"4","last_reported":1721084929,"current_range_meters":8800,"station_id":"ce4bgih2rcd13ifvqba0","pricing_plan_id":"cebpf4jnsgd1na2vs0mg"},{"bike_id":"6301304b-f847-48a8-8de7-1c06e0455a41","system_id":"levelo_inurba_marseille","lat":43.29529,"lon":5.385581,"is_reserved":false,"is_disabled":false,"rental_uris":{"android":"levelo://app?vid=6301304b-f847-48a8-8de7-1c06e0455a41","ios":"levelo://app?vid=6301304b-f847-48a8-8de7-1c06e0455a41"},"vehicle_type_id":"4","last_reported":1721084929,"current_range_meters":16800,"station_id":"ce4bgih2rcd13ifvqba0","pricing_plan_id":"cebpf4jnsgd1na2vs0mg"},{"bike_id":"feeed9a0-810e-4903-8537-c069eb064158","system_id":"levelo_inurba_marseille","lat":43.31677,"lon":5.39694,"is_reserved":false,"is_disabled":false,"rental_uris":{"android":"levelo://app?vid=feeed9a0-810e-4903-8537-c069eb064158","ios":"levelo://app?vid=feeed9a0-810e-4903-8537-c069eb064158"},"vehicle_type_id":"4","last_reported":1721084929,"current_range_meters":2000,"station_id":"","pricing_plan_id":"cebpf4jnsgd1na2vs0mg"},{"bike_id":"0cab2444-36ab-4a76-9076-83553ab17ab7","system_id":"levelo_inurba_marseille","lat":43.302008,"lon":5.394694,"is_reserved":false,"is_disabled":false,"rental_uris":{"android":"levelo://app?vid=0cab2444-36ab-4a76-9076-83553ab17ab7","ios":"levelo://app?vid=0cab2444-36ab-4a76-9076-83553ab17ab7"},"vehicle_type_id":"4","last_reported":1721084929,"current_range_meters":4400,"station_id":"ce4bh0p2rcd13ifvqd70","pricing_plan_id":"cebpf4jnsgd1na2vs0mg"},{"bike_id":"30c450fa-3a7a-43de-8814-24d9e4c4188c","system_id":"levelo_inurba_marseille","lat":43.302008,"lon":5.394694,"is_reserved":false,"is_disabled":false,"rental_uris":{"android":"levelo://app?vid=30c450fa-3a7a-43de-8814-24d9e4c4188c","ios":"levelo://app?vid=30c450fa-3a7a-43de-8814-24d9e4c4188c"},"vehicle_type_id":"4","last_reported":1721084929,"current_range_meters":25600,"station_id":"ce4bh0p2rcd13ifvqd70","pricing_plan_id":"cebpf4jnsgd1na2vs0mg"},{"bike_id":"41bdbd73-2520-4ae5-9821-e72448619644","system_id":"levelo_inurba_marseille","lat":43.302008,"lon":5.394694,"is_reserved":false,"is_disabled":false,"rental_uris":{"android":"levelo://app?vid=41bdbd73-2520-4ae5-9821-e72448619644","ios":"levelo://app?vid=41bdbd73-2520-4ae5-9821-e72448619644"},"vehicle_type_id":"4","last_reported":1721084929,"current_range_meters":16800,"station_id":"ce4bh0p2rcd13ifvqd70","pricing_plan_id":"cebpf4jnsgd1na2vs0mg"},{"bike_id":"1e5a8cfa-f1be-4967-a3ae-264aa90bebc9","system_id":"levelo_inurba_marseille","lat":43.302008,"lon":5.394694,"is_reserved":false,"is_disabled":false,"rental_uris":{"android":"levelo://app?vid=1e5a8cfa-f1be-4967-a3ae-264aa90bebc9","ios":"levelo://app?vid=1e5a8cfa-f1be-4967-a3ae-264aa90bebc9"},"vehicle_type_id":"4","last_reported":1721084929,"current_range_meters":23600,"station_id":"ce4bh0p2rcd13ifvqd70","pricing_plan_id":"cebpf4jnsgd1na2vs0mg"},{"bike_id":"eb47435b-853b-4bcd-b06d-5f619410fbb8","system_id":"levelo_inurba_marseille","lat":43.284538,"lon":5.358657,"is_reserved":false,"is_disabled":false,"rental_uris":{"android":"levelo://app?vid=eb47435b-853b-4bcd-b06d-5f619410fbb8","ios":"levelo://app?vid=eb47435b-853b-4bcd-b06d-5f619410fbb8"},"vehicle_type_id":"4","last_reported":1721084929,"current_range_meters":800,"station_id":"ce4bhah2rcd13ifvqei0","pricing_plan_id":"cebpf4jnsgd1na2vs0mg"},{"bike_id":"02d06f4b-0989-4733-bd49-24c14b583ba0","system_id":"levelo_inurba_marseille","lat":43.290624,"lon":5.359245,"is_reserved":false,"is_disabled":false,"rental_uris":{"android":"levelo://app?vid=02d06f4b-0989-4733-bd49-24c14b583ba0","ios":"levelo://app?vid=02d06f4b-0989-4733-bd49-24c14b583ba0"},"vehicle_type_id":"4","last_reported":1721084929,"current_range_meters":1200,"station_id":"ce4bha92rcd13ifvqeg0","pricing_plan_id":"cebpf4jnsgd1na2vs0mg"},{"bike_id":"c6ee745b-2fac-4eec-96a4-00f9cf9cf49a","system_id":"levelo_inurba_marseille","lat":43.294153,"lon":5.386305,"is_reserved":false,"is_disabled":false,"rental_uris":{"android":"levelo://app?vid=c6ee745b-2fac-4eec-96a4-00f9cf9cf49a","ios":"levelo://app?vid=c6ee745b-2fac-4eec-96a4-00f9cf9cf49a"},"vehicle_type_id":"4","last_reported":1721084929,"current_range_meters":0,"station_id":"ce4bh2h2rcd13ifvqdh0","pricing_plan_id":"cebpf4jnsgd1na2vs0mg"},{"bike_id":"7886acfa-9f90-464b-bb29-b8223abf870e","system_id":"levelo_inurba_marseille","lat":43.290319,"lon":5.375732,"is_reserved":false,"is_disabled":false,"rental_uris":{"android":"levelo://app?vid=7886acfa-9f90-464b-bb29-b8223abf870e","ios":"levelo://app?vid=7886acfa-9f90-464b-bb29-b8223abf870e"},"vehicle_type_id":"4","last_reported":1721084929,"current_range_meters":19600,"station_id":"ce4bh692rcd13ifvqe90","pricing_plan_id":"cebpf4jnsgd1na2vs0mg"},{"bike_id":"bacab4d4-8c73-4287-8768-0f9ccb5fa855","system_id":"levelo_inurba_marseille","lat":43.294162,"lon":5.386292,"is_reserved":false,"is_disabled":false,"rental_uris":{"android":"levelo://app?vid=bacab4d4-8c73-4287-8768-0f9ccb5fa855","ios":"levelo://app?vid=bacab4d4-8c73-4287-8768-0f9ccb5fa855"},"vehicle_type_id":"4","last_reported":1721084929,"current_range_meters":8800,"station_id":"ce4bh2h2rcd13ifvqdh0","pricing_plan_id":"cebpf4jnsgd1na2vs0mg"},{"bike_id":"b303b898-fabd-4f3b-b044-263a47dbd31e","system_id":"levelo_inurba_marseille","lat":43.294162,"lon":5.386292,"is_reserved":false,"is_disabled":false,"rental_uris":{"android":"levelo://app?vid=b303b898-fabd-4f3b-b044-263a47dbd31e","ios":"levelo://app?vid=b303b898-fabd-4f3b-b044-263a47dbd31e"},"vehicle_type_id":"4","last_reported":1721084929,"current_range_meters":4800,"station_id":"ce4bh2h2rcd13ifvqdh0","pricing_plan_id":"cebpf4jnsgd1na2vs0mg"},{"bike_id":"b68b2a0e-5cb7-4970-be41-a89c288edfc5","system_id":"levelo_inurba_marseille","lat":43.29413,"lon":5.3863,"is_reserved":false,"is_disabled":false,"rental_uris":{"android":"levelo://app?vid=b68b2a0e-5cb7-4970-be41-a89c288edfc5","ios":"levelo://app?vid=b68b2a0e-5cb7-4970-be41-a89c288edfc5"},"vehicle_type_id":"4","last_reported":1721084929,"current_range_meters":0,"station_id":"ce4bh2h2rcd13ifvqdh0","pricing_plan_id":"cebpf4jnsgd1na2vs0mg"},{"bike_id":"8f98edc4-4b2c-48c2-a531-fb541f6cf00e","system_id":"levelo_inurba_marseille","lat":43.304274,"lon":5.397513,"is_reserved":false,"is_disabled":false,"rental_uris":{"android":"levelo://app?vid=8f98edc4-4b2c-48c2-a531-fb541f6cf00e","ios":"levelo://app?vid=8f98edc4-4b2c-48c2-a531-fb541f6cf00e"},"vehicle_type_id":"4","last_reported":1721084929,"current_range_meters":9200,"station_id":"ce4bh092rcd13ifvqd20","pricing_plan_id":"cebpf4jnsgd1na2vs0mg"},{"bike_id":"c0aa3e2b-ff55-4fa8-a700-74cd348e6fb2","system_id":"levelo_inurba_marseille","lat":43.304176,"lon":5.397399,"is_reserved":false,"is_disabled":false,"rental_uris":{"android":"levelo://app?vid=c0aa3e2b-ff55-4fa8-a700-74cd348e6fb2","ios":"levelo://app?vid=c0aa3e2b-ff55-4fa8-a700-74cd348e6fb2"},"vehicle_type_id":"4","last_reported":1721084929,"current_range_meters":16000,"station_id":"","pricing_plan_id":"cebpf4jnsgd1na2vs0mg"},{"bike_id":"df900cae-5033-4dd6-90cd-1914658ee34e","system_id":"levelo_inurba_marseille","lat":43.29269,"lon":5.38448,"is_reserved":false,"is_disabled":false,"rental_uris":{"android":"levelo://app?vid=df900cae-5033-4dd6-90cd-1914658ee34e","ios":"levelo://app?vid=df900cae-5033-4dd6-90cd-1914658ee34e"},"vehicle_type_id":"4","last_reported":1721084929,"current_range_meters":0,"station_id":"ce4bh692rcd13ifvqea0","pricing_plan_id":"cebpf4jnsgd1na2vs0mg"},{"bike_id":"99538429-8d85-4b62-9b3b-8e1527d4c675","system_id":"levelo_inurba_marseille","lat":43.304296,"lon":5.397513,"is_reserved":false,"is_disabled":false,"rental_uris":{"android":"levelo://app?vid=99538429-8d85-4b62-9b3b-8e1527d4c675","ios":"levelo://app?vid=99538429-8d85-4b62-9b3b-8e1527d4c675"},"vehicle_type_id":"4","last_reported":1721084929,"current_range_meters":22000,"station_id":"ce4bh092rcd13ifvqd20","pricing_plan_id":"cebpf4jnsgd1na2vs0mg"},{"bike_id":"005579ee-36e4-4cc5-b7d7-f26e6f35308f","system_id":"levelo_inurba_marseille","lat":43.292644,"lon":5.384257,"is_reserved":false,"is_disabled":false,"rental_uris":{"android":"levelo://app?vid=005579ee-36e4-4cc5-b7d7-f26e6f35308f","ios":"levelo://app?vid=005579ee-36e4-4cc5-b7d7-f26e6f35308f"},"vehicle_type_id":"4","last_reported":1721084929,"current_range_meters":0,"station_id":"ce4bh692rcd13ifvqea0","pricing_plan_id":"cebpf4jnsgd1na2vs0mg"},{"bike_id":"89e4aaef-1261-4db3-aaa6-b792b401497d","system_id":"levelo_inurba_marseille","lat":43.304296,"lon":5.397513,"is_reserved":false,"is_disabled":false,"rental_uris":{"android":"levelo://app?vid=89e4aaef-1261-4db3-aaa6-b792b401497d","ios":"levelo://app?vid=89e4aaef-1261-4db3-aaa6-b792b401497d"},"vehicle_type_id":"4","last_reported":1721084929,"current_range_meters":27600,"station_id":"ce4bh092rcd13ifvqd20","pricing_plan_id":"cebpf4jnsgd1na2vs0mg"},{"bike_id":"ccdf1162-c19c-474a-98a2-05bbc5980572","system_id":"levelo_inurba_marseille","lat":43.28996,"lon":5.35616,"is_reserved":false,"is_disabled":false,"rental_uris":{"android":"levelo://app?vid=ccdf1162-c19c-474a-98a2-05bbc5980572","ios":"levelo://app?vid=ccdf1162-c19c-474a-98a2-05bbc5980572"},"vehicle_type_id":"4","last_reported":1721084929,"current_range_meters":31200,"station_id":"ce4bhb92rcd13ifvqen0","pricing_plan_id":"cebpf4jnsgd1na2vs0mg"},{"bike_id":"4a1ddfc1-5991-448b-a9df-fc9925818f58","system_id":"levelo_inurba_marseille","lat":43.330442,"lon":5.389148,"is_reserved":false,"is_disabled":false,"rental_uris":{"android":"levelo://app?vid=4a1ddfc1-5991-448b-a9df-fc9925818f58","ios":"levelo://app?vid=4a1ddfc1-5991-448b-a9df-fc9925818f58"},"vehicle_type_id":"4","last_reported":1721084929,"current_range_meters":22400,"station_id":"ce4bhr92rcd13ifvqhrg","pricing_plan_id":"cebpf4jnsgd1na2vs0mg"},{"bike_id":"695f421f-a0bb-48f3-bd52-b2bd7d9d5c83","system_id":"levelo_inurba_marseille","lat":43.290995,"lon":5.381361,"is_reserved":false,"is_disabled":false,"rental_uris":{"android":"levelo://app?vid=695f421f-a0bb-48f3-bd52-b2bd7d9d5c83","ios":"levelo://app?vid=695f421f-a0bb-48f3-bd52-b2bd7d9d5c83"},"vehicle_type_id":"4","last_reported":1721084929,"current_range_meters":1600,"station_id":"ce4bh512rcd13ifvqe2g","pricing_plan_id":"cebpf4jnsgd1na2vs0mg"},{"bike_id":"fda1bbf4-e488-42c8-81ee-758c03f2d178","system_id":"levelo_inurba_marseille","lat":43.29792,"lon":5.39341,"is_reserved":false,"is_disabled":false,"rental_uris":{"android":"levelo://app?vid=fda1bbf4-e488-42c8-81ee-758c03f2d178","ios":"levelo://app?vid=fda1bbf4-e488-42c8-81ee-758c03f2d178"},"vehicle_type_id":"4","last_reported":1721084929,"current_range_meters":10400,"station_id":"chh1huq6cuj3fo74tm60","pricing_plan_id":"cebpf4jnsgd1na2vs0mg"},{"bike_id":"c86dd763-7903-41ab-a25f-aac2ca72daf7","system_id":"levelo_inurba_marseille","lat":43.29791,"lon":5.3934,"is_reserved":false,"is_disabled":false,"rental_uris":{"android":"levelo://app?vid=c86dd763-7903-41ab-a25f-aac2ca72daf7","ios":"levelo://app?vid=c86dd763-7903-41ab-a25f-aac2ca72daf7"},"vehicle_type_id":"4","last_reported":1721084929,"current_range_meters":4800,"station_id":"chh1huq6cuj3fo74tm60","pricing_plan_id":"cebpf4jnsgd1na2vs0mg"},{"bike_id":"79d8185e-571f-4c5e-abac-50f25db4a30d","system_id":"levelo_inurba_marseille","lat":43.297815,"lon":5.393548,"is_reserved":false,"is_disabled":false,"rental_uris":{"android":"levelo://app?vid=79d8185e-571f-4c5e-abac-50f25db4a30d","ios":"levelo://app?vid=79d8185e-571f-4c5e-abac-50f25db4a30d"},"vehicle_type_id":"4","last_reported":1721084929,"current_range_meters":22000,"station_id":"chh1huq6cuj3fo74tm60","pricing_plan_id":"cebpf4jnsgd1na2vs0mg"},{"bike_id":"012b96f7-cfc4-4f5e-a45c-1bd0060450a6","system_id":"levelo_inurba_marseille","lat":43.297791,"lon":5.393386,"is_reserved":false,"is_disabled":false,"rental_uris":{"android":"levelo://app?vid=012b96f7-cfc4-4f5e-a45c-1bd0060450a6","ios":"levelo://app?vid=012b96f7-cfc4-4f5e-a45c-1bd0060450a6"},"vehicle_type_id":"4","last_reported":1721084929,"current_range_meters":3600,"station_id":"chh1huq6cuj3fo74tm60","pricing_plan_id":"cebpf4jnsgd1na2vs0mg"},{"bike_id":"8a51abed-89e8-4f7c-9f5d-fa32b31ff087","system_id":"levelo_inurba_marseille","lat":43.330442,"lon":5.389148,"is_reserved":false,"is_disabled":false,"rental_uris":{"android":"levelo://app?vid=8a51abed-89e8-4f7c-9f5d-fa32b31ff087","ios":"levelo://app?vid=8a51abed-89e8-4f7c-9f5d-fa32b31ff087"},"vehicle_type_id":"4","last_reported":1721084929,"current_range_meters":23200,"station_id":"ce4bhr92rcd13ifvqhrg","pricing_plan_id":"cebpf4jnsgd1na2vs0mg"},{"bike_id":"7c87dbcf-b92e-41c5-ad5e-ee449606e970","system_id":"levelo_inurba_marseille","lat":43.330442,"lon":5.389148,"is_reserved":false,"is_disabled":false,"rental_uris":{"android":"levelo://app?vid=7c87dbcf-b92e-41c5-ad5e-ee449606e970","ios":"levelo://app?vid=7c87dbcf-b92e-41c5-ad5e-ee449606e970"},"vehicle_type_id":"4","last_reported":1721084929,"current_range_meters":25200,"station_id":"ce4bhr92rcd13ifvqhrg","pricing_plan_id":"cebpf4jnsgd1na2vs0mg"},{"bike_id":"760c1abd-c5b9-4ae2-983a-d42546fe985a","system_id":"levelo_inurba_marseille","lat":43.297847,"lon":5.393507,"is_reserved":false,"is_disabled":false,"rental_uris":{"android":"levelo://app?vid=760c1abd-c5b9-4ae2-983a-d42546fe985a","ios":"levelo://app?vid=760c1abd-c5b9-4ae2-983a-d42546fe985a"},"vehicle_type_id":"4","last_reported":1721084929,"current_range_meters":26800,"station_id":"chh1huq6cuj3fo74tm60","pricing_plan_id":"cebpf4jnsgd1na2vs0mg"},{"bike_id":"691b2052-2dd9-4cfb-99f6-1687e8fda5c0","system_id":"levelo_inurba_marseille","lat":43.295169,"lon":5.390426,"is_reserved":false,"is_disabled":false,"rental_uris":{"android":"levelo://app?vid=691b2052-2dd9-4cfb-99f6-1687e8fda5c0","ios":"levelo://app?vid=691b2052-2dd9-4cfb-99f6-1687e8fda5c0"},"vehicle_type_id":"4","last_reported":1721084929,"current_range_meters":20400,"station_id":"ce4bh3p2rcd13ifvqdp0","pricing_plan_id":"cebpf4jnsgd1na2vs0mg"},{"bike_id":"9d9b10d8-97c0-4018-91b8-196c817326b6","system_id":"levelo_inurba_marseille","lat":43.330442,"lon":5.389148,"is_reserved":false,"is_disabled":false,"rental_uris":{"android":"levelo://app?vid=9d9b10d8-97c0-4018-91b8-196c817326b6","ios":"levelo://app?vid=9d9b10d8-97c0-4018-91b8-196c817326b6"},"vehicle_type_id":"4","last_reported":1721084929,"current_range_meters":18000,"station_id":"ce4bhr92rcd13ifvqhrg","pricing_plan_id":"cebpf4jnsgd1na2vs0mg"},{"bike_id":"3510d8ae-8683-4d34-bd68-e4b2655a9aa8","system_id":"levelo_inurba_marseille","lat":43.330442,"lon":5.389148,"is_reserved":false,"is_disabled":false,"rental_uris":{"android":"levelo://app?vid=3510d8ae-8683-4d34-bd68-e4b2655a9aa8","ios":"levelo://app?vid=3510d8ae-8683-4d34-bd68-e4b2655a9aa8"},"vehicle_type_id":"4","last_reported":1721084929,"current_range_meters":21200,"station_id":"ce4bhr92rcd13ifvqhrg","pricing_plan_id":"cebpf4jnsgd1na2vs0mg"},{"bike_id":"6fbb33f3-f293-41d9-bcdc-96bae87e773c","system_id":"levelo_inurba_marseille","lat":43.33027,"lon":5.39034,"is_reserved":false,"is_disabled":false,"rental_uris":{"android":"levelo://app?vid=6fbb33f3-f293-41d9-bcdc-96bae87e773c","ios":"levelo://app?vid=6fbb33f3-f293-41d9-bcdc-96bae87e773c"},"vehicle_type_id":"4","last_reported":1721084929,"current_range_meters":2000,"station_id":"ce4bhr92rcd13ifvqhrg","pricing_plan_id":"cebpf4jnsgd1na2vs0mg"},{"bike_id":"77745482-097c-477b-83dd-be5b03c3617a","system_id":"levelo_inurba_marseille","lat":43.330442,"lon":5.389148,"is_reserved":false,"is_disabled":false,"rental_uris":{"android":"levelo://app?vid=77745482-097c-477b-83dd-be5b03c3617a","ios":"levelo://app?vid=77745482-097c-477b-83dd-be5b03c3617a"},"vehicle_type_id":"4","last_reported":1721084929,"current_range_meters":26400,"station_id":"ce4bhr92rcd13ifvqhrg","pricing_plan_id":"cebpf4jnsgd1na2vs0mg"},{"bike_id":"9aa1a294-5c36-4f52-839a-cfc4f8d8f9c1","system_id":"levelo_inurba_marseille","lat":43.289741,"lon":5.378306,"is_reserved":false,"is_disabled":false,"rental_uris":{"android":"levelo://app?vid=9aa1a294-5c36-4f52-839a-cfc4f8d8f9c1","ios":"levelo://app?vid=9aa1a294-5c36-4f52-839a-cfc4f8d8f9c1"},"vehicle_type_id":"4","last_reported":1721084929,"current_range_meters":12400,"station_id":"ce4bh9p2rcd13ifvqed0","pricing_plan_id":"cebpf4jnsgd1na2vs0mg"},{"bike_id":"18158b97-82c9-4355-addd-8fcf7e3afe0d","system_id":"levelo_inurba_marseille","lat":43.295169,"lon":5.390426,"is_reserved":false,"is_disabled":false,"rental_uris":{"android":"levelo://app?vid=18158b97-82c9-4355-addd-8fcf7e3afe0d","ios":"levelo://app?vid=18158b97-82c9-4355-addd-8fcf7e3afe0d"},"vehicle_type_id":"4","last_reported":1721084929,"current_range_meters":16400,"station_id":"ce4bh3p2rcd13ifvqdp0","pricing_plan_id":"cebpf4jnsgd1na2vs0mg"},{"bike_id":"e6ce4f82-890f-498b-bc5e-6dfd94dd6f5e","system_id":"levelo_inurba_marseille","lat":43.330442,"lon":5.389148,"is_reserved":false,"is_disabled":false,"rental_uris":{"android":"levelo://app?vid=e6ce4f82-890f-498b-bc5e-6dfd94dd6f5e","ios":"levelo://app?vid=e6ce4f82-890f-498b-bc5e-6dfd94dd6f5e"},"vehicle_type_id":"4","last_reported":1721084929,"current_range_meters":28000,"station_id":"ce4bhr92rcd13ifvqhrg","pricing_plan_id":"cebpf4jnsgd1na2vs0mg"},{"bike_id":"21130598-87a4-41e1-aed4-deeb6f4f8ac0","system_id":"levelo_inurba_marseille","lat":43.28972,"lon":5.35486,"is_reserved":false,"is_disabled":false,"rental_uris":{"android":"levelo://app?vid=21130598-87a4-41e1-aed4-deeb6f4f8ac0","ios":"levelo://app?vid=21130598-87a4-41e1-aed4-deeb6f4f8ac0"},"vehicle_type_id":"4","last_reported":1721084929,"current_range_meters":4400,"station_id":"","pricing_plan_id":"cebpf4jnsgd1na2vs0mg"},{"bike_id":"e5f9b488-7ae3-4362-9941-63ecfec68cf1","system_id":"levelo_inurba_marseille","lat":43.2895,"lon":5.35475,"is_reserved":false,"is_disabled":false,"rental_uris":{"android":"levelo://app?vid=e5f9b488-7ae3-4362-9941-63ecfec68cf1","ios":"levelo://app?vid=e5f9b488-7ae3-4362-9941-63ecfec68cf1"},"vehicle_type_id":"4","last_reported":1721084929,"current_range_meters":400,"station_id":"","pricing_plan_id":"cebpf4jnsgd1na2vs0mg"},{"bike_id":"eaa18409-1196-4b9f-9b71-5ff955b75953","system_id":"levelo_inurba_marseille","lat":43.28856,"lon":5.358371,"is_reserved":false,"is_disabled":false,"rental_uris":{"android":"levelo://app?vid=eaa18409-1196-4b9f-9b71-5ff955b75953","ios":"levelo://app?vid=eaa18409-1196-4b9f-9b71-5ff955b75953"},"vehicle_type_id":"4","last_reported":1721084929,"current_range_meters":26800,"station_id":"ce4bhb12rcd13ifvqem0","pricing_plan_id":"cebpf4jnsgd1na2vs0mg"},{"bike_id":"5cdbcf7f-02aa-4510-be5e-cb8c30bc5c5b","system_id":"levelo_inurba_marseille","lat":43.2902,"lon":5.38153,"is_reserved":false,"is_disabled":false,"rental_uris":{"android":"levelo://app?vid=5cdbcf7f-02aa-4510-be5e-cb8c30bc5c5b","ios":"levelo://app?vid=5cdbcf7f-02aa-4510-be5e-cb8c30bc5c5b"},"vehicle_type_id":"4","last_reported":1721084929,"current_range_meters":4800,"station_id":"ce4bh4p2rcd13ifvqe1g","pricing_plan_id":"cebpf4jnsgd1na2vs0mg"},{"bike_id":"ee97c7f9-1674-4740-b657-e9583f729830","system_id":"levelo_inurba_marseille","lat":43.28856,"lon":5.358371,"is_reserved":false,"is_disabled":false,"rental_uris":{"android":"levelo://app?vid=ee97c7f9-1674-4740-b657-e9583f729830","ios":"levelo://app?vid=ee97c7f9-1674-4740-b657-e9583f729830"},"vehicle_type_id":"4","last_reported":1721084929,"current_range_meters":31200,"station_id":"ce4bhb12rcd13ifvqem0","pricing_plan_id":"cebpf4jnsgd1na2vs0mg"},{"bike_id":"d2c6b23b-ba12-4ba1-987f-1da2d0303c91","system_id":"levelo_inurba_marseille","lat":43.28856,"lon":5.358371,"is_reserved":false,"is_disabled":false,"rental_uris":{"android":"levelo://app?vid=d2c6b23b-ba12-4ba1-987f-1da2d0303c91","ios":"levelo://app?vid=d2c6b23b-ba12-4ba1-987f-1da2d0303c91"},"vehicle_type_id":"4","last_reported":1721084929,"current_range_meters":18800,"station_id":"ce4bhb12rcd13ifvqem0","pricing_plan_id":"cebpf4jnsgd1na2vs0mg"},{"bike_id":"74b9b132-5bb6-498b-b596-9037e3e4f13a","system_id":"levelo_inurba_marseille","lat":43.312609,"lon":5.401662,"is_reserved":false,"is_disabled":false,"rental_uris":{"android":"levelo://app?vid=74b9b132-5bb6-498b-b596-9037e3e4f13a","ios":"levelo://app?vid=74b9b132-5bb6-498b-b596-9037e3e4f13a"},"vehicle_type_id":"4","last_reported":1721084929,"current_range_meters":9600,"station_id":"ce4bh092rcd13ifvqd30","pricing_plan_id":"cebpf4jnsgd1na2vs0mg"},{"bike_id":"dc3cacb3-e56d-48cc-ac73-2735fb3b3f55","system_id":"levelo_inurba_marseille","lat":43.309371,"lon":5.401449,"is_reserved":false,"is_disabled":false,"rental_uris":{"android":"levelo://app?vid=dc3cacb3-e56d-48cc-ac73-2735fb3b3f55","ios":"levelo://app?vid=dc3cacb3-e56d-48cc-ac73-2735fb3b3f55"},"vehicle_type_id":"4","last_reported":1721084929,"current_range_meters":32000,"station_id":"ce4bgvp2rcd13ifvqct0","pricing_plan_id":"cebpf4jnsgd1na2vs0mg"},{"bike_id":"dfc6b606-67d7-4563-b879-e42c1bfbc0df","system_id":"levelo_inurba_marseille","lat":43.312609,"lon":5.401662,"is_reserved":false,"is_disabled":false,"rental_uris":{"android":"levelo://app?vid=dfc6b606-67d7-4563-b879-e42c1bfbc0df","ios":"levelo://app?vid=dfc6b606-67d7-4563-b879-e42c1bfbc0df"},"vehicle_type_id":"4","last_reported":1721084929,"current_range_meters":31200,"station_id":"ce4bh092rcd13ifvqd30","pricing_plan_id":"cebpf4jnsgd1na2vs0mg"},{"bike_id":"6b5bfdd0-2360-45d4-a367-c4be7dd8cc0b","system_id":"levelo_inurba_marseille","lat":43.312609,"lon":5.401662,"is_reserved":false,"is_disabled":false,"rental_uris":{"android":"levelo://app?vid=6b5bfdd0-2360-45d4-a367-c4be7dd8cc0b","ios":"levelo://app?vid=6b5bfdd0-2360-45d4-a367-c4be7dd8cc0b"},"vehicle_type_id":"4","last_reported":1721084929,"current_range_meters":25600,"station_id":"ce4bh092rcd13ifvqd30","pricing_plan_id":"cebpf4jnsgd1na2vs0mg"},{"bike_id":"134f312f-5f1a-43bc-be50-e5cb734ce93b","system_id":"levelo_inurba_marseille","lat":43.309371,"lon":5.401449,"is_reserved":false,"is_disabled":false,"rental_uris":{"android":"levelo://app?vid=134f312f-5f1a-43bc-be50-e5cb734ce93b","ios":"levelo://app?vid=134f312f-5f1a-43bc-be50-e5cb734ce93b"},"vehicle_type_id":"4","last_reported":1721084929,"current_range_meters":28800,"station_id":"ce4bgvp2rcd13ifvqct0","pricing_plan_id":"cebpf4jnsgd1na2vs0mg"},{"bike_id":"294f0a2b-cb27-4184-abb5-a08e21ec6184","system_id":"levelo_inurba_marseille","lat":43.309371,"lon":5.401449,"is_reserved":false,"is_disabled":false,"rental_uris":{"android":"levelo://app?vid=294f0a2b-cb27-4184-abb5-a08e21ec6184","ios":"levelo://app?vid=294f0a2b-cb27-4184-abb5-a08e21ec6184"},"vehicle_type_id":"4","last_reported":1721084929,"current_range_meters":6000,"station_id":"ce4bgvp2rcd13ifvqct0","pricing_plan_id":"cebpf4jnsgd1na2vs0mg"},{"bike_id":"14a2ccd3-51a3-44d4-8a38-da66449fe25f","system_id":"levelo_inurba_marseille","lat":43.287887,"lon":5.373733,"is_reserved":false,"is_disabled":false,"rental_uris":{"android":"levelo://app?vid=14a2ccd3-51a3-44d4-8a38-da66449fe25f","ios":"levelo://app?vid=14a2ccd3-51a3-44d4-8a38-da66449fe25f"},"vehicle_type_id":"4","last_reported":1721084929,"current_range_meters":23600,"station_id":"","pricing_plan_id":"cebpf4jnsgd1na2vs0mg"},{"bike_id":"11e2a0c5-dab4-4134-ad65-c03b9bccd0e0","system_id":"levelo_inurba_marseille","lat":43.33749,"lon":5.37445,"is_reserved":false,"is_disabled":false,"rental_uris":{"android":"levelo://app?vid=11e2a0c5-dab4-4134-ad65-c03b9bccd0e0","ios":"levelo://app?vid=11e2a0c5-dab4-4134-ad65-c03b9bccd0e0"},"vehicle_type_id":"4","last_reported":1721084929,"current_range_meters":27600,"station_id":"","pricing_plan_id":"cebpf4jnsgd1na2vs0mg"},{"bike_id":"59ab18e4-3baa-4db0-9718-f7c859d7c837","system_id":"levelo_inurba_marseille","lat":43.309371,"lon":5.401449,"is_reserved":false,"is_disabled":false,"rental_uris":{"android":"levelo://app?vid=59ab18e4-3baa-4db0-9718-f7c859d7c837","ios":"levelo://app?vid=59ab18e4-3baa-4db0-9718-f7c859d7c837"},"vehicle_type_id":"4","last_reported":1721084929,"current_range_meters":26400,"station_id":"ce4bgvp2rcd13ifvqct0","pricing_plan_id":"cebpf4jnsgd1na2vs0mg"},