{"last_updated":1735067215,"ttl":60,"version":"2.2","data":{"bikes":[{"bike_id":"53d743ad-6e14-432c-b9a5-14482b280b54","system_id":"levelo_inurba_marseille","lat":43.281064,"lon":5.37842,"is_reserved":false,"is_disabled":false,"rental_uris":{"android":"levelo://app?vid=53d743ad-6e14-432c-b9a5-14482b280b54","ios":"levelo://app?vid=53d743ad-6e14-432c-b9a5-14482b280b54"},"vehicle_type_id":"4","last_reported":1735067215,"current_range_meters":11600,"station_id":"ce4bha12rcd13ifvqee0","pricing_plan_id":"cebpf4jnsgd1na2vs0mg"},{"bike_id":"68d17572-df3d-4ddd-84db-eac6a7db8f60","system_id":"levelo_inurba_marseille","lat":43.29025,"lon":5.38625,"is_reserved":false,"is_disabled":false,"rental_uris":{"android":"levelo://app?vid=68d17572-df3d-4ddd-84db-eac6a7db8f60","ios":"levelo://app?vid=68d17572-df3d-4ddd-84db-eac6a7db8f60"},"vehicle_type_id":"4","last_reported":1735067215,"current_range_meters":38800,"station_id":"ce4bh4p2rcd13ifvqe0g","pricing_plan_id":"cebpf4jnsgd1na2vs0mg"},{"bike_id":"7c110a8b-097f-43aa-9eb5-b36685ee5243","system_id":"levelo_inurba_marseille","lat":43.28268,"lon":5.35074,"is_reserved":false,"is_disabled":false,"rental_uris":{"android":"levelo://app?vid=7c110a8b-097f-43aa-9eb5-b36685ee5243","ios":"levelo://app?vid=7c110a8b-097f-43aa-9eb5-b36685ee5243"},"vehicle_type_id":"4","last_reported":1735067215,"current_range_meters":38400,"station_id":"ce4bhbp2rcd13ifvqerg","pricing_plan_id":"cebpf4jnsgd1na2vs0mg"},{"bike_id":"f5a321f6-c838-4879-9e84-b78550753d71","system_id":"levelo_inurba_marseille","lat":43.28847,"lon":5.39313,"is_reserved":false,"is_disabled":false,"rental_uris":{"android":"levelo://app?vid=f5a321f6-c838-4879-9e84-b78550753d71","ios":"levelo://app?vid=f5a321f6-c838-4879-9e84-b78550753d71"},"vehicle_type_id":"4","last_reported":1735067215,"current_range_meters":33200,"station_id":"ce4bh2p2rcd13ifvqdi0","pricing_plan_id":"cebpf4jnsgd1na2vs0mg"},{"bike_id":"7160b1eb-33a0-4924-ba09-0166c2686280","system_id":"levelo_inurba_marseille","lat":43.32365,"lon":5.38886,"is_reserved":false,"is_disabled":false,"rental_uris":{"android":"levelo://app?vid=7160b1eb-33a0-4924-ba09-0166c2686280","ios":"levelo://app?vid=7160b1eb-33a0-4924-ba09-0166c2686280"},"vehicle_type_id":"4","last_reported":1735067215,"current_range_meters":32400,"station_id":"ce4bhqp2rcd13ifvqhog","pricing_plan_id":"cebpf4jnsgd1na2vs0mg"},{"bike_id":"236a19d8-9526-433b-88a7-86d1da690f14","system_id":"levelo_inurba_marseille","lat":43.31111,"lon":5.3777,"is_reserved":false,"is_disabled":false,"rental_uris":{"android":"levelo://app?vid=236a19d8-9526-433b-88a7-86d1da690f14","ios":"levelo://app?vid=236a19d8-9526-433b-88a7-86d1da690f14"},"vehicle_type_id":"4","last_reported":1735067215,"current_range_meters":36000,"station_id":"ce4bgt92rcd13ifvqcg0","pricing_plan_id":"cebpf4jnsgd1na2vs0mg"},{"bike_id":"7bc7229d-6357-401a-bdf2-266d948e482e","system_id":"levelo_inurba_marseille","lat":43.28847,"lon":5.39328,"is_reserved":false,"is_disabled":true,"rental_uris":{"android":"levelo://app?vid=7bc7229d-6357-401a-bdf2-266d948e482e","ios":"levelo://app?vid=7bc7229d-6357-401a-bdf2-266d948e482e"},"vehicle_type_id":"4","last_reported":1735067215,"current_range_meters":35200,"station_id":"ce4bh2p2rcd13ifvqdi0","pricing_plan_id":"cebpf4jnsgd1na2vs0mg"},{"bike_id":"b74f3be8-f592-4627-aa66-3b768db349aa","system_id":"levelo_inurba_marseille","lat":43.28721,"lon":5.36093,"is_reserved":false,"is_disabled":false,"rental_uris":{"android":"levelo://app?vid=b74f3be8-f592-4627-aa66-3b768db349aa","ios":"levelo://app?vid=b74f3be8-f592-4627-aa66-3b768db349aa"},"vehicle_type_id":"4","last_reported":1735067215,"current_range_meters":33600,"station_id":"cki0cbj6b192h4jlfktg","pricing_plan_id":"cebpf4jnsgd1na2vs0mg"},{"bike_id":"1d490be7-b796-4f29-b7d4-66a1ee2a8e0f","system_id":"levelo_inurba_marseille","lat":43.32051,"lon":5.41529,"is_reserved":false,"is_disabled":false,"rental_uris":{"android":"levelo://app?vid=1d490be7-b796-4f29-b7d4-66a1ee2a8e0f","ios":"levelo://app?vid=1d490be7-b796-4f29-b7d4-66a1ee2a8e0f"},"vehicle_type_id":"4","last_reported":1735067215,"current_range_meters":34800,"station_id":"ce4bhq92rcd13ifvqhkg","pricing_plan_id":"cebpf4jnsgd1na2vs0mg"},{"bike_id":"33e33699-20a9-48fe-bfd9-190b603aa789","system_id":"levelo_inurba_marseille","lat":43.29528,"lon":5.37504,"is_reserved":false,"is_disabled":false,"rental_uris":{"android":"levelo://app?vid=33e33699-20a9-48fe-bfd9-190b603aa789","ios":"levelo://app?vid=33e33699-20a9-48fe-bfd9-190b603aa789"},"vehicle_type_id":"4","last_reported":1735067215,"current_range_meters":18000,"station_id":"ce4bgkp2rcd13ifvqbmg","pricing_plan_id":"cebpf4jnsgd1na2vs0mg"},{"bike_id":"8ec0bd45-ed99-4688-96a0-dbe93ffe2c4d","system_id":"levelo_inurba_marseille","lat":43.29699,"lon":5.37685,"is_reserved":false,"is_disabled":false,"rental_uris":{"android":"levelo://app?vid=8ec0bd45-ed99-4688-96a0-dbe93ffe2c4d","ios":"levelo://app?vid=8ec0bd45-ed99-4688-96a0-dbe93ffe2c4d"},"vehicle_type_id":"4","last_reported":1735067215,"current_range_meters":10800,"station_id":"ce4bgkh2rcd13ifvqbl0","pricing_plan_id":"cebpf4jnsgd1na2vs0mg"},{"bike_id":"89a639d4-ff1f-4ff6-8b8c-a4df41cf2c0e","system_id":"levelo_inurba_marseille","lat":43.23966,"lon":5.36618,"is_reserved":false,"is_disabled":false,"rental_uris":{"android":"levelo://app?vid=89a639d4-ff1f-4ff6-8b8c-a4df41cf2c0e","ios":"levelo://app?vid=89a639d4-ff1f-4ff6-8b8c-a4df41cf2c0e"},"vehicle_type_id":"4","last_reported":1735067215,"current_range_meters":38800,"station_id":"ce4bhi12rcd13ifvqfp0","pricing_plan_id":"cebpf4jnsgd1na2vs0mg"},{"bike_id":"0428a998-04ff-44cf-a9c9-fc56df8c13b7","system_id":"levelo_inurba_marseille","lat":43.28841,"lon":5.39314,"is_reserved":false,"is_disabled":false,"rental_uris":{"android":"levelo://app?vid=0428a998-04ff-44cf-a9c9-fc56df8c13b7","ios":"levelo://app?vid=0428a998-04ff-44cf-a9c9-fc56df8c13b7"},"vehicle_type_id":"4","last_reported":1735067215,"current_range_meters":37600,"station_id":"ce4bh2p2rcd13ifvqdi0","pricing_plan_id":"cebpf4jnsgd1na2vs0mg"},{"bike_id":"96f67906-c94f-4a78-ae6e-fdff28a17019","system_id":"levelo_inurba_marseille","lat":43.33833,"lon":5.37432,"is_reserved":false,"is_disabled":false,"rental_uris":{"android":"levelo://app?vid=96f67906-c94f-4a78-ae6e-fdff28a17019","ios":"levelo://app?vid=96f67906-c94f-4a78-ae6e-fdff28a17019"},"vehicle_type_id":"4","last_reported":1735067215,"current_range_meters":8800,"station_id":"","pricing_plan_id":"cebpf4jnsgd1na2vs0mg"},{"bike_id":"b411a283-e781-467a-9dd8-9e52e59fbfa5","system_id":"levelo_inurba_marseille","lat":43.28726,"lon":5.36083,"is_reserved":false,"is_disabled":false,"rental_uris":{"android":"levelo://app?vid=b411a283-e781-467a-9dd8-9e52e59fbfa5","ios":"levelo://app?vid=b411a283-e781-467a-9dd8-9e52e59fbfa5"},"vehicle_type_id":"4","last_reported":1735067215,"current_range_meters":39200,"station_id":"cki0cbj6b192h4jlfktg","pricing_plan_id":"cebpf4jnsgd1na2vs0mg"},{"bike_id":"b9c83c83-cf96-4e57-b709-6459d0acaf9f","system_id":"levelo_inurba_marseille","lat":43.26799,"lon":5.40255,"is_reserved":false,"is_disabled":false,"rental_uris":{"android":"levelo://app?vid=b9c83c83-cf96-4e57-b709-6459d0acaf9f","ios":"levelo://app?vid=b9c83c83-cf96-4e57-b709-6459d0acaf9f"},"vehicle_type_id":"4","last_reported":1735067215,"current_range_meters":38800,"station_id":"ce501612rcd8frsf0b60","pricing_plan_id":"cebpf4jnsgd1na2vs0mg"},{"bike_id":"c4a602aa-8a8d-433e-9ace-469babb818bf","system_id":"levelo_inurba_marseille","lat":43.30426,"lon":5.39752,"is_reserved":false,"is_disabled":false,"rental_uris":{"android":"levelo://app?vid=c4a602aa-8a8d-433e-9ace-469babb818bf","ios":"levelo://app?vid=c4a602aa-8a8d-433e-9ace-469babb818bf"},"vehicle_type_id":"4","last_reported":1735067215,"current_range_meters":32400,"station_id":"ce4bh092rcd13ifvqd20","pricing_plan_id":"cebpf4jnsgd1na2vs0mg"},{"bike_id":"6c0d88cf-2303-4fc6-bdb3-776a9d505235","system_id":"levelo_inurba_marseille","lat":43.29731,"lon":5.37691,"is_reserved":false,"is_disabled":false,"rental_uris":{"android":"levelo://app?vid=6c0d88cf-2303-4fc6-bdb3-776a9d505235","ios":"levelo://app?vid=6c0d88cf-2303-4fc6-bdb3-776a9d505235"},"vehicle_type_id":"4","last_reported":1735067215,"current_range_meters":16000,"station_id":"ce4bgkh2rcd13ifvqbl0","pricing_plan_id":"cebpf4jnsgd1na2vs0mg"},{"bike_id":"fa3ed25e-9f65-4960-b3cb-77f0d1c71ed6","system_id":"levelo_inurba_marseille","lat":43.28115,"lon":5.3784,"is_reserved":false,"is_disabled":false,"rental_uris":{"android":"levelo://app?vid=fa3ed25e-9f65-4960-b3cb-77f0d1c71ed6","ios":"levelo://app?vid=fa3ed25e-9f65-4960-b3cb-77f0d1c71ed6"},"vehicle_type_id":"4","last_reported":1735067215,"current_range_meters":31200,"station_id":"ce4bha12rcd13ifvqee0","pricing_plan_id":"cebpf4jnsgd1na2vs0mg"},{"bike_id":"4337139c-b826-439f-889f-abe484bd80e4","system_id":"levelo_inurba_marseille","lat":43.27965,"lon":5.38703,"is_reserved":false,"is_disabled":false,"rental_uris":{"android":"levelo://app?vid=4337139c-b826-439f-889f-abe484bd80e4","ios":"levelo://app?vid=4337139c-b826-439f-889f-abe484bd80e4"},"vehicle_type_id":"4","last_reported":1735067215,"current_range_meters":31200,"station_id":"ce4bhg12rcd13ifvqf80","pricing_plan_id":"cebpf4jnsgd1na2vs0mg"},{"bike_id":"c545c064-810c-4b88-8ce1-2f5a358c01ce","system_id":"levelo_inurba_marseille","lat":43.29551,"lon":5.4226,"is_reserved":false,"is_disabled":false,"rental_uris":{"android":"levelo://app?vid=c545c064-810c-4b88-8ce1-2f5a358c01ce","ios":"levelo://app?vid=c545c064-810c-4b88-8ce1-2f5a358c01ce"},"vehicle_type_id":"4","last_reported":1735067215,"current_range_meters":17200,"station_id":"ce4bhph2rcd13ifvqhdg","pricing_plan_id":"cebpf4jnsgd1na2vs0mg"},{"bike_id":"b6174f09-affc-48de-b964-987935efedda","system_id":"levelo_inurba_marseille","lat":43.31079,"lon":5.38361,"is_reserved":false,"is_disabled":false,"rental_uris":{"android":"levelo://app?vid=b6174f09-affc-48de-b964-987935efedda","ios":"levelo://app?vid=b6174f09-affc-48de-b964-987935efedda"},"vehicle_type_id":"4","last_reported":1735067215,"current_range_meters":30400,"station_id":"ce4bgv92rcd13ifvqcr0","pricing_plan_id":"cebpf4jnsgd1na2vs0mg"},{"bike_id":"0c53249b-f8b0-49b1-a6ff-f0450399dcf4","system_id":"levelo_inurba_marseille","lat":43.30198,"lon":5.36585,"is_reserved":false,"is_disabled":false,"rental_uris":{"android":"levelo://app?vid=0c53249b-f8b0-49b1-a6ff-f0450399dcf4","ios":"levelo://app?vid=0c53249b-f8b0-49b1-a6ff-f0450399dcf4"},"vehicle_type_id":"4","last_reported":1735067215,"current_range_meters":39200,"station_id":"ce4bgrh2rcd13ifvqc8g","pricing_plan_id":"cebpf4jnsgd1na2vs0mg"},{"bike_id":"6e2ce516-9a65-4382-930b-c9c67ce2ce1a","system_id":"levelo_inurba_marseille","lat":43.31275,"lon":5.40161,"is_reserved":false,"is_disabled":false,"rental_uris":{"android":"levelo://app?vid=6e2ce516-9a65-4382-930b-c9c67ce2ce1a","ios":"levelo://app?vid=6e2ce516-9a65-4382-930b-c9c67ce2ce1a"},"vehicle_type_id":"4","last_reported":1735067215,"current_range_meters":33200,"station_id":"ce4bh092rcd13ifvqd30","pricing_plan_id":"cebpf4jnsgd1na2vs0mg"},{"bike_id":"64b20260-e7f6-4ac7-b975-563f0b53f614","system_id":"levelo_inurba_marseille","lat":43.33606,"lon":5.41027,"is_reserved":false,"is_disabled":false,"rental_uris":{"android":"levelo://app?vid=64b20260-e7f6-4ac7-b975-563f0b53f614","ios":"levelo://app?vid=64b20260-e7f6-4ac7-b975-563f0b53f614"},"vehicle_type_id":"4","last_reported":1735067215,"current_range_meters":24400,"station_id":"ce4bhqh2rcd13ifvqhmg","pricing_plan_id":"cebpf4jnsgd1na2vs0mg"},{"bike_id":"d5d3d2c2-5b18-4b1e-a14e-2a877450ed25","system_id":"levelo_inurba_marseille","lat":43.32334,"lon":5.40623,"is_reserved":false,"is_disabled":false,"rental_uris":{"android":"levelo://app?vid=d5d3d2c2-5b18-4b1e-a14e-2a877450ed25","ios":"levelo://app?vid=d5d3d2c2-5b18-4b1e-a14e-2a877450ed25"},"vehicle_type_id":"4","last_reported":1735067215,"current_range_meters":19200,"station_id":"ce4bhq92rcd13ifvqhjg","pricing_plan_id":"cebpf4jnsgd1na2vs0mg"},{"bike_id":"fba7b61d-832a-4843-a6b6-7aeaf903afb3","system_id":"levelo_inurba_marseille","lat":43.27421,"lon":5.39414,"is_reserved":false,"is_disabled":false,"rental_uris":{"android":"levelo://app?vid=fba7b61d-832a-4843-a6b6-7aeaf903afb3","ios":"levelo://app?vid=fba7b61d-832a-4843-a6b6-7aeaf903afb3"},"vehicle_type_id":"4","last_reported":1735067215,"current_range_meters":26800,"station_id":"ce4bhdp2rcd13ifvqf20","pricing_plan_id":"cebpf4jnsgd1na2vs0mg"},{"bike_id":"70d91ea8-bcf1-4b2a-80bf-9c28caf13ec7","system_id":"levelo_inurba_marseille","lat":43.286918,"lon":5.399827,"is_reserved":false,"is_disabled":false,"rental_uris":{"android":"levelo://app?vid=70d91ea8-bcf1-4b2a-80bf-9c28caf13ec7","ios":"levelo://app?vid=70d91ea8-bcf1-4b2a-80bf-9c28caf13ec7"},"vehicle_type_id":"4","last_reported":1735067215,"current_range_meters":16800,"station_id":"ce4bho92rcd13ifvqh3g","pricing_plan_id":"cebpf4jnsgd1na2vs0mg"},{"bike_id":"13a29cfb-4ca0-4903-96b1-b192a8a42624","system_id":"levelo_inurba_marseille","lat":43.23071,"lon":5.35492,"is_reserved":false,"is_disabled":false,"rental_uris":{"android":"levelo://app?vid=13a29cfb-4ca0-4903-96b1-b192a8a42624","ios":"levelo://app?vid=13a29cfb-4ca0-4903-96b1-b192a8a42624"},"vehicle_type_id":"4","last_reported":1735067215,"current_range_meters":36800,"station_id":"cpo3342slgdg3j2ifvpg","pricing_plan_id":"cebpf4jnsgd1na2vs0mg"},{"bike_id":"80db3b66-a5e8-44aa-b38d-701943d511de","system_id":"levelo_inurba_marseille","lat":43.25494,"lon":5.37652,"is_reserved":false,"is_disabled":false,"rental_uris":{"android":"levelo://app?vid=80db3b66-a5e8-44aa-b38d-701943d511de","ios":"levelo://app?vid=80db3b66-a5e8-44aa-b38d-701943d511de"},"vehicle_type_id":"4","last_reported":1735067215,"current_range_meters":13600,"station_id":"ce4bhh12rcd13ifvqff0","pricing_plan_id":"cebpf4jnsgd1na2vs0mg"},{"bike_id":"b76cea7e-5025-4e14-a8c7-eebf31292c4c","system_id":"levelo_inurba_marseille","lat":43.26063,"lon":5.39397,"is_reserved":false,"is_disabled":true,"rental_uris":{"android":"levelo://app?vid=b76cea7e-5025-4e14-a8c7-eebf31292c4c","ios":"levelo://app?vid=b76cea7e-5025-4e14-a8c7-eebf31292c4c"},"vehicle_type_id":"4","last_reported":1735067215,"current_range_meters":24000,"station_id":"ce4bhh92rcd13ifvqfj0","pricing_plan_id":"cebpf4jnsgd1na2vs0mg"},{"bike_id":"64bd181e-daca-4b41-84bd-e6d84057fcdc","system_id":"levelo_inurba_marseille","lat":43.29031,"lon":5.37564,"is_reserved":false,"is_disabled":false,"rental_uris":{"android":"levelo://app?vid=64bd181e-daca-4b41-84bd-e6d84057fcdc","ios":"levelo://app?vid=64bd181e-daca-4b41-84bd-e6d84057fcdc"},"vehicle_type_id":"4","last_reported":1735067215,"current_range_meters":38800,"station_id":"ce4bh692rcd13ifvqe90","pricing_plan_id":"cebpf4jnsgd1na2vs0mg"},{"bike_id":"24346bc7-f1dc-4975-9a51-bb54ce38a842","system_id":"levelo_inurba_marseille","lat":43.2985,"lon":5.36287,"is_reserved":false,"is_disabled":false,"rental_uris":{"android":"levelo://app?vid=24346bc7-f1dc-4975-9a51-bb54ce38a842","ios":"levelo://app?vid=24346bc7-f1dc-4975-9a51-bb54ce38a842"},"vehicle_type_id":"4","last_reported":1735067215,"current_range_meters":10800,"station_id":"ce4bgpp2rcd13ifvqc3g","pricing_plan_id":"cebpf4jnsgd1na2vs0mg"},{"bike_id":"d0533ccb-11ce-46dc-9cca-daa9f7a4985a","system_id":"levelo_inurba_marseille","lat":43.29532,"lon":5.42252,"is_reserved":false,"is_disabled":false,"rental_uris":{"android":"levelo://app?vid=d0533ccb-11ce-46dc-9cca-daa9f7a4985a","ios":"levelo://app?vid=d0533ccb-11ce-46dc-9cca-daa9f7a4985a"},"vehicle_type_id":"4","last_reported":1735067215,"current_range_meters":38800,"station_id":"ce4bhph2rcd13ifvqhdg","pricing_plan_id":"cebpf4jnsgd1na2vs0mg"},{"bike_id":"0263f9db-6576-4d4b-8ae8-f2cb86bdc7ef","system_id":"levelo_inurba_marseille","lat":43.29511,"lon":5.37469,"is_reserved":false,"is_disabled":false,"rental_uris":{"android":"levelo://app?vid=0263f9db-6576-4d4b-8ae8-f2cb86bdc7ef","ios":"levelo://app?vid=0263f9db-6576-4d4b-8ae8-f2cb86bdc7ef"},"vehicle_type_id":"4","last_reported":1735067215,"current_range_meters":37600,"station_id":"ce4bgkp2rcd13ifvqbmg","pricing_plan_id":"cebpf4jnsgd1na2vs0mg"},{"bike_id":"5d29fc56-dbb2-4006-96bc-27e181f8d4f5","system_id":"levelo_inurba_marseille","lat":43.29845,"lon":5.36283,"is_reserved":false,"is_disabled":false,"rental_uris":{"android":"levelo://app?vid=5d29fc56-dbb2-4006-96bc-27e181f8d4f5","ios":"levelo://app?vid=5d29fc56-dbb2-4006-96bc-27e181f8d4f5"},"vehicle_type_id":"4","last_reported":1735067215,"current_range_meters":35600,"station_id":"ce4bgpp2rcd13ifvqc3g","pricing_plan_id":"cebpf4jnsgd1na2vs0mg"},{"bike_id":"0f5d30e2-1f4e-48b4-bc2f-d3bf034d30ee","system_id":"levelo_inurba_marseille","lat":43.30456,"lon":5.379,"is_reserved":false,"is_disabled":false,"rental_uris":{"android":"levelo://app?vid=0f5d30e2-1f4e-48b4-bc2f-d3bf034d30ee","ios":"levelo://app?vid=0f5d30e2-1f4e-48b4-bc2f-d3bf034d30ee"},"vehicle_type_id":"4","last_reported":1735067215,"current_range_meters":19200,"station_id":"ce4bgup2rcd13ifvqcn0","pricing_plan_id":"cebpf4jnsgd1na2vs0mg"},{"bike_id":"0f1005c6-f727-43f7-a7c2-8c6d36b98a63","system_id":"levelo_inurba_marseille","lat":43.29428,"lon":5.38618,"is_reserved":false,"is_disabled":false,"rental_uris":{"android":"levelo://app?vid=0f1005c6-f727-43f7-a7c2-8c6d36b98a63","ios":"levelo://app?vid=0f1005c6-f727-43f7-a7c2-8c6d36b98a63"},"vehicle_type_id":"4","last_reported":1735067215,"current_range_meters":36400,"station_id":"ce4bh2h2rcd13ifvqdh0","pricing_plan_id":"cebpf4jnsgd1na2vs0mg"},{"bike_id":"12cf721d-cf48-40fa-a6cb-e48a42b4d86d","system_id":"levelo_inurba_marseille","lat":43.27053,"lon":5.40276,"is_reserved":false,"is_disabled":false,"rental_uris":{"android":"levelo://app?vid=12cf721d-cf48-40fa-a6cb-e48a42b4d86d","ios":"levelo://app?vid=12cf721d-cf48-40fa-a6cb-e48a42b4d86d"},"vehicle_type_id":"4","last_reported":1735067215,"current_range_meters":30400,"station_id":"ce4bhk92rcd13ifvqgc0","pricing_plan_id":"cebpf4jnsgd1na2vs0mg"},{"bike_id":"339ddeb4-ebfd-4dc3-99a8-5e444160ed17","system_id":"levelo_inurba_marseille","lat":43.28687,"lon":5.37402,"is_reserved":false,"is_disabled":false,"rental_uris":{"android":"levelo://app?vid=339ddeb4-ebfd-4dc3-99a8-5e444160ed17","ios":"levelo://app?vid=339ddeb4-ebfd-4dc3-99a8-5e444160ed17"},"vehicle_type_id":"4","last_reported":1735067215,"current_range_meters":34000,"station_id":"ce4bh3p2rcd13ifvqdq0","pricing_plan_id":"cebpf4jnsgd1na2vs0mg"},{"bike_id":"b81c5f54-c2ac-40f8-8c60-0928bb6b00f0","system_id":"levelo_inurba_marseille","lat":43.25716,"lon":5.41121,"is_reserved":false,"is_disabled":false,"rental_uris":{"android":"levelo://app?vid=b81c5f54-c2ac-40f8-8c60-0928bb6b00f0","ios":"levelo://app?vid=b81c5f54-c2ac-40f8-8c60-0928bb6b00f0"},"vehicle_type_id":"4","last_reported":1735067215,"current_range_meters":28400,"station_id":"ce4bhkp2rcd13ifvqgd0","pricing_plan_id":"cebpf4jnsgd1na2vs0mg"},{"bike_id":"b0d2da8d-783f-4311-a84b-6d0fbf696a7c","system_id":"levelo_inurba_marseille","lat":43.29568,"lon":5.37517,"is_reserved":false,"is_disabled":false,"rental_uris":{"android":"levelo://app?vid=b0d2da8d-783f-4311-a84b-6d0fbf696a7c","ios":"levelo://app?vid=b0d2da8d-783f-4311-a84b-6d0fbf696a7c"},"vehicle_type_id":"4","last_reported":1735067215,"current_range_meters":23200,"station_id":"ce4bgh92rcd13ifvqb50","pricing_plan_id":"cebpf4jnsgd1na2vs0mg"},{"bike_id":"6025e78d-688d-479d-8265-20e74aeb1e4e","system_id":"levelo_inurba_marseille","lat":43.28408,"lon":5.37512,"is_reserved":false,"is_disabled":false,"rental_uris":{"android":"levelo://app?vid=6025e78d-688d-479d-8265-20e74aeb1e4e","ios":"levelo://app?vid=6025e78d-688d-479d-8265-20e74aeb1e4e"},"vehicle_type_id":"4","last_reported":1735067215,"current_range_meters":12000,"station_id":"ce4bh412rcd13ifvqds0","pricing_plan_id":"cebpf4jnsgd1na2vs0mg"},{"bike_id":"273956bb-97ab-46a9-b451-cb1b9b413f10","system_id":"levelo_inurba_marseille","lat":43.311715,"lon":5.387203,"is_reserved":false,"is_disabled":false,"rental_uris":{"android":"levelo://app?vid=273956bb-97ab-46a9-b451-cb1b9b413f10","ios":"levelo://app?vid=273956bb-97ab-46a9-b451-cb1b9b413f10"},"vehicle_type_id":"4","last_reported":1735067215,"current_range_meters":38800,"station_id":"ce4bgv12rcd13ifvqcp0","pricing_plan_id":"cebpf4jnsgd1na2vs0mg"},{"bike_id":"4a084c7e-6359-4acb-8f25-f015df249fc2","system_id":"levelo_inurba_marseille","lat":43.26528,"lon":5.39513,"is_reserved":false,"is_disabled":false,"rental_uris":{"android":"levelo://app?vid=4a084c7e-6359-4acb-8f25-f015df249fc2","ios":"levelo://app?vid=4a084c7e-6359-4acb-8f25-f015df249fc2"},"vehicle_type_id":"4","last_reported":1735067215,"current_range_meters":36400,"station_id":"ce4bhi12rcd13ifvqfq0","pricing_plan_id":"cebpf4jnsgd1na2vs0mg"},{"bike_id":"be0556b2-1a3c-470e-9156-3c6b24db64d7","system_id":"levelo_inurba_marseille","lat":43.29581,"lon":5.39958,"is_reserved":false,"is_disabled":false,"rental_uris":{"android":"levelo://app?vid=be0556b2-1a3c-470e-9156-3c6b24db64d7","ios":"levelo://app?vid=be0556b2-1a3c-470e-9156-3c6b24db64d7"},"vehicle_type_id":"4","last_reported":1735067215,"current_range_meters":36800,"station_id":"ce4bh312rcd13ifvqdj0","pricing_plan_id":"cebpf4jnsgd1na2vs0mg"},{"bike_id":"eaa93ee8-361b-4bd6-bc3c-a3486958f70d","system_id":"levelo_inurba_marseille","lat":43.297936,"lon":5.371046,"is_reserved":false,"is_disabled":false,"rental_uris":{"android":"levelo://app?vid=eaa93ee8-361b-4bd6-bc3c-a3486958f70d","ios":"levelo://app?vid=eaa93ee8-361b-4bd6-bc3c-a3486958f70d"},"vehicle_type_id":"4","last_reported":1735067215,"current_range_meters":38800,"station_id":"ce4bgop2rcd13ifvqc1g","pricing_plan_id":"cebpf4jnsgd1na2vs0mg"},{"bike_id":"40c0bad0-8626-4c9b-b59b-9fad04a61df9","system_id":"levelo_inurba_marseille","lat":43.2836,"lon":5.38625,"is_reserved":false,"is_disabled":false,"rental_uris":{"android":"levelo://app?vid=40c0bad0-8626-4c9b-b59b-9fad04a61df9","ios":"levelo://app?vid=40c0bad0-8626-4c9b-b59b-9fad04a61df9"},"vehicle_type_id":"4","last_reported":1735067215,"current_range_meters":39200,"station_id":"ce4bh492rcd13ifvqdvg","pricing_plan_id":"cebpf4jnsgd1na2vs0mg"},{"bike_id":"e724f4e5-0922-4e36-91f4-8a4c9d514ff5","system_id":"levelo_inurba_marseille","lat":43.29848,"lon":5.36268,"is_reserved":false,"is_disabled":false,"rental_uris":{"android":"levelo://app?vid=e724f4e5-0922-4e36-91f4-8a4c9d514ff5","ios":"levelo://app?vid=e724f4e5-0922-4e36-91f4-8a4c9d514ff5"},"vehicle_type_id":"4","last_reported":1735067215,"current_range_meters":37600,"station_id":"ce4bgpp2rcd13ifvqc3g","pricing_plan_id":"cebpf4jnsgd1na2vs0mg"},{"bike_id":"b392a593-72dd-421f-8809-b96d8a7b6a48","system_id":"levelo_inurba_marseille","lat":43.30145,"lon":5.38758,"is_reserved":false,"is_disabled":false,"rental_uris":{"android":"levelo://app?vid=b392a593-72dd-421f-8809-b96d8a7b6a48","ios":"levelo://app?vid=b392a593-72dd-421f-8809-b96d8a7b6a48"},"vehicle_type_id":"4","last_reported":1735067215,"current_range_meters":38000,"station_id":"ce4bghh2rcd13ifvqb60","pricing_plan_id":"cebpf4jnsgd1na2vs0mg"},{"bike_id":"3a27b30d-c3f9-412d-bbb7-90b32a3ec120","system_id":"levelo_inurba_marseille","lat":43.28008,"lon":5.39994,"is_reserved":false,"is_disabled":false,"rental_uris":{"android":"levelo://app?vid=3a27b30d-c3f9-412d-bbb7-90b32a3ec120","ios":"levelo://app?vid=3a27b30d-c3f9-412d-bbb7-90b32a3ec120"},"vehicle_type_id":"4","last_reported":1735067215,"current_range_meters":38000,"station_id":"ce4bho92rcd13ifvqh4g","pricing_plan_id":"cebpf4jnsgd1na2vs0mg"},{"bike_id":"19c0a0c0-9857-43fa-bca0-8d8e9d966de8","system_id":"levelo_inurba_marseille","lat":43.31888,"lon":5.40762,"is_reserved":false,"is_disabled":false,"rental_uris":{"android":"levelo://app?vid=19c0a0c0-9857-43fa-bca0-8d8e9d966de8","ios":"levelo://app?vid=19c0a0c0-9857-43fa-bca0-8d8e9d966de8"},"vehicle_type_id":"4","last_reported":1735067215,"current_range_meters":39200,"station_id":"ce4bhq12rcd13ifvqhig","pricing_plan_id":"cebpf4jnsgd1na2vs0mg"},{"bike_id":"fa7b6f51-07ff-4e1f-ba75-2880fb9ee1b2","system_id":"levelo_inurba_marseille","lat":43.24236,"lon":5.36336,"is_reserved":false,"is_disabled":false,"rental_uris":{"android":"levelo://app?vid=fa7b6f51-07ff-4e1f-ba75-2880fb9ee1b2","ios":"levelo://app?vid=fa7b6f51-07ff-4e1f-ba75-2880fb9ee1b2"},"vehicle_type_id":"4","last_reported":1735067215,"current_range_meters":35600,"station_id":"cpo36qri1sfpv3e86is0","pricing_plan_id":"cebpf4jnsgd1na2vs0mg"},{"bike_id":"9ff763ff-e414-4d0e-8bb9-b34d48217a3e","system_id":"levelo_inurba_marseille","lat":43.23179,"lon":5.39985,"is_reserved":false,"is_disabled":false,"rental_uris":{"android":"levelo://app?vid=9ff763ff-e414-4d0e-8bb9-b34d48217a3e","ios":"levelo://app?vid=9ff763ff-e414-4d0e-8bb9-b34d48217a3e"},"vehicle_type_id":"4","last_reported":1735067215,"current_range_meters":24000,"station_id":"ce4bhn12rcd13ifvqgqg","pricing_plan_id":"cebpf4jnsgd1na2vs0mg"},{"bike_id":"b2f86a97-af08-41b2-8296-7e91d5858232","system_id":"levelo_inurba_marseille","lat":43.28992,"lon":5.35616,"is_reserved":false,"is_disabled":false,"rental_uris":{"android":"levelo://app?vid=b2f86a97-af08-41b2-8296-7e91d5858232","ios":"levelo://app?vid=b2f86a97-af08-41b2-8296-7e91d5858232"},"vehicle_type_id":"4","last_reported":1735067215,"current_range_meters":38800,"station_id":"ce4bhb92rcd13ifvqen0","pricing_plan_id":"cebpf4jnsgd1na2vs0mg"},{"bike_id":"1734f962-f1aa-49b8-8121-d25bac6f1ae7","system_id":"levelo_inurba_marseille","lat":43.29818,"lon":5.37127,"is_reserved":false,"is_disabled":false,"rental_uris":{"android":"levelo://app?vid=1734f962-f1aa-49b8-8121-d25bac6f1ae7","ios":"levelo://app?vid=1734f962-f1aa-49b8-8121-d25bac6f1ae7"},"vehicle_type_id":"4","last_reported":1735067215,"current_range_meters":30400,"station_id":"ce4bgop2rcd13ifvqc1g","pricing_plan_id":"cebpf4jnsgd1na2vs0mg"},{"bike_id":"d260eabd-d7e1-4f31-a251-3a682c05eccf","system_id":"levelo_inurba_marseille","lat":43.23193,"lon":5.3998,"is_reserved":false,"is_disabled":true,"rental_uris":{"android":"levelo://app?vid=d260eabd-d7e1-4f31-a251-3a682c05eccf","ios":"levelo://app?vid=d260eabd-d7e1-4f31-a251-3a682c05eccf"},"vehicle_type_id":"4","last_reported":1735067215,"current_range_meters":33600,"station_id":"ce4bhn12rcd13ifvqgqg","pricing_plan_id":"cebpf4jnsgd1na2vs0mg"},{"bike_id":"c7f2e706-b530-453a-987e-9b3f1de4a999","system_id":"levelo_inurba_marseille","lat":43.30808,"lon":5.38163,"is_reserved":false,"is_disabled":false,"rental_uris":{"android":"levelo://app?vid=c7f2e706-b530-453a-987e-9b3f1de4a999","ios":"levelo://app?vid=c7f2e706-b530-453a-987e-9b3f1de4a999"},"vehicle_type_id":"4","last_reported":1735067215,"current_range_meters":38000,"station_id":"ce4bgt12rcd13ifvqce0","pricing_plan_id":"cebpf4jnsgd1na2vs0mg"},{"bike_id":"b81e8144-3fa1-44dd-804b-b934f9862d1d","system_id":"levelo_inurba_marseille","lat":43.299041,"lon":5.381496,"is_reserved":false,"is_disabled":false,"rental_uris":{"android":"levelo://app?vid=b81e8144-3fa1-44dd-804b-b934f9862d1d","ios":"levelo://app?vid=b81e8144-3fa1-44dd-804b-b934f9862d1d"},"vehicle_type_id":"4","last_reported":1735067215,"current_range_meters":38800,"station_id":"ce4bgj12rcd13ifvqbc0","pricing_plan_id":"cebpf4jnsgd1na2vs0mg"},{"bike_id":"ba746732-e71a-4f84-b019-48330b84614a","system_id":"levelo_inurba_marseille","lat":43.26933,"lon":5.38912,"is_reserved":false,"is_disabled":false,"rental_uris":{"android":"levelo://app?vid=ba746732-e71a-4f84-b019-48330b84614a","ios":"levelo://app?vid=ba746732-e71a-4f84-b019-48330b84614a"},"vehicle_type_id":"4","last_reported":1735067215,"current_range_meters":38800,"station_id":"ce4bhhh2rcd13ifvqfl0","pricing_plan_id":"cebpf4jnsgd1na2vs0mg"},{"bike_id":"f68d00f0-3148-454c-ba66-1d06594aedb3","system_id":"levelo_inurba_marseille","lat":43.29914,"lon":5.38161,"is_reserved":false,"is_disabled":false,"rental_uris":{"android":"levelo://app?vid=f68d00f0-3148-454c-ba66-1d06594aedb3","ios":"levelo://app?vid=f68d00f0-3148-454c-ba66-1d06594aedb3"},"vehicle_type_id":"4","last_reported":1735067215,"current_range_meters":38800,"station_id":"ce4bgj12rcd13ifvqbc0","pricing_plan_id":"cebpf4jnsgd1na2vs0mg"},{"bike_id":"a87760bb-860a-41ff-af6f-797f55d9f68d","system_id":"levelo_inurba_marseille","lat":43.29797,"lon":5.39363,"is_reserved":false,"is_disabled":false,"rental_uris":{"android":"levelo://app?vid=a87760bb-860a-41ff-af6f-797f55d9f68d","ios":"levelo://app?vid=a87760bb-860a-41ff-af6f-797f55d9f68d"},"vehicle_type_id":"4","last_reported":1735067215,"current_range_meters":30800,"station_id":"chh1huq6cuj3fo74tm60","pricing_plan_id":"cebpf4jnsgd1na2vs0mg"},{"bike_id":"f904cf27-fd05-44ef-a637-c9e8b34a85c2","system_id":"levelo_inurba_marseille","lat":43.30606,"lon":5.37218,"is_reserved":false,"is_disabled":false,"rental_uris":{"android":"levelo://app?vid=f904cf27-fd05-44ef-a637-c9e8b34a85c2","ios":"levelo://app?vid=f904cf27-fd05-44ef-a637-c9e8b34a85c2"},"vehicle_type_id":"4","last_reported":1735067215,"current_range_meters":24000,"station_id":"ce4bgqh2rcd13ifvqc4g","pricing_plan_id":"cebpf4jnsgd1na2vs0mg"},{"bike_id":"fcaf1022-b8ca-4e5c-a198-375c8e01b7f0","system_id":"levelo_inurba_marseille","lat":43.29171,"lon":5.37151,"is_reserved":false,"is_disabled":false,"rental_uris":{"android":"levelo://app?vid=fcaf1022-b8ca-4e5c-a198-375c8e01b7f0","ios":"levelo://app?vid=fcaf1022-b8ca-4e5c-a198-375c8e01b7f0"},"vehicle_type_id":"4","last_reported":1735067215,"current_range_meters":38800,"station_id":"ce4bha92rcd13ifvqeh0","pricing_plan_id":"cebpf4jnsgd1na2vs0mg"},{"bike_id":"d584d26a-e0dc-4c67-b65d-1772f63f3cde","system_id":"levelo_inurba_marseille","lat":43.27619,"lon":5.36103,"is_reserved":false,"is_disabled":false,"rental_uris":{"android":"levelo://app?vid=d584d26a-e0dc-4c67-b65d-1772f63f3cde","ios":"levelo://app?vid=d584d26a-e0dc-4c67-b65d-1772f63f3cde"},"vehicle_type_id":"4","last_reported":1735067215,"current_range_meters":38400,"station_id":"ce4bgj92rcd13ifvqbe0","pricing_plan_id":"cebpf4jnsgd1na2vs0mg"},{"bike_id":"3c079412-698a-4ad7-872c-5c56e449290c","system_id":"levelo_inurba_marseille","lat":43.2315,"lon":5.43715,"is_reserved":false,"is_disabled":false,"rental_uris":{"android":"levelo://app?vid=3c079412-698a-4ad7-872c-5c56e449290c","ios":"levelo://app?vid=3c079412-698a-4ad7-872c-5c56e449290c"},"vehicle_type_id":"4","last_reported":1735067215,"current_range_meters":36000,"station_id":"ce4bhmp2rcd13ifvqgog","pricing_plan_id":"cebpf4jnsgd1na2vs0mg"},{"bike_id":"67762d54-053d-473b-84ab-533f9aa4bb0e","system_id":"levelo_inurba_marseille","lat":43.29798,"lon":5.39345,"is_reserved":false,"is_disabled":false,"rental_uris":{"android":"levelo://app?vid=67762d54-053d-473b-84ab-533f9aa4bb0e","ios":"levelo://app?vid=67762d54-053d-473b-84ab-533f9aa4bb0e"},"vehicle_type_id":"4","last_reported":1735067215,"current_range_meters":38800,"station_id":"chh1huq6cuj3fo74tm60","pricing_plan_id":"cebpf4jnsgd1na2vs0mg"},{"bike_id":"eb493c73-faad-4c01-b4aa-27ac99a1af59","system_id":"levelo_inurba_marseille","lat":43.29624,"lon":5.37162,"is_reserved":false,"is_disabled":false,"rental_uris":{"android":"levelo://app?vid=eb493c73-faad-4c01-b4aa-27ac99a1af59","ios":"levelo://app?vid=eb493c73-faad-4c01-b4aa-27ac99a1af59"},"vehicle_type_id":"4","last_reported":1735067215,"current_range_meters":38800,"station_id":"ce4bgnh2rcd13ifvqc0g","pricing_plan_id":"cebpf4jnsgd1na2vs0mg"},{"bike_id":"745b61e3-138e-43ed-a4d3-3d3125465bde","system_id":"levelo_inurba_marseille","lat":43.26574,"lon":5.39018,"is_reserved":false,"is_disabled":false,"rental_uris":{"android":"levelo://app?vid=745b61e3-138e-43ed-a4d3-3d3125465bde","ios":"levelo://app?vid=745b61e3-138e-43ed-a4d3-3d3125465bde"},"vehicle_type_id":"4","last_reported":1735067215,"current_range_meters":27200,"station_id":"ce4bhe12rcd13ifvqf30","pricing_plan_id":"cebpf4jnsgd1na2vs0mg"},{"bike_id":"4c4ae910-6a1c-4535-b027-ebf3f7594109","system_id":"levelo_inurba_marseille","lat":43.306432,"lon":5.400726,"is_reserved":false,"is_disabled":false,"rental_uris":{"android":"levelo://app?vid=4c4ae910-6a1c-4535-b027-ebf3f7594109","ios":"levelo://app?vid=4c4ae910-6a1c-4535-b027-ebf3f7594109"},"vehicle_type_id":"4","last_reported":1735067215,"current_range_meters":32000,"station_id":"ce4bh112rcd13ifvqda0","pricing_plan_id":"cebpf4jnsgd1na2vs0mg"},{"bike_id":"7608f1ad-6069-4760-9820-c5af492fd707","system_id":"levelo_inurba_marseille","lat":43.29612,"lon":5.36754,"is_reserved":false,"is_disabled":false,"rental_uris":{"android":"levelo://app?vid=7608f1ad-6069-4760-9820-c5af492fd707","ios":"levelo://app?vid=7608f1ad-6069-4760-9820-c5af492fd707"},"vehicle_type_id":"4","last_reported":1735067215,"current_range_meters":38800,"station_id":"ce4bgph2rcd13ifvqc2g","pricing_plan_id":"cebpf4jnsgd1na2vs0mg"},{"bike_id":"4844e9a3-3e0e-46b3-97e0-b21c829303d3","system_id":"levelo_inurba_marseille","lat":43.31887,"lon":5.40723,"is_reserved":false,"is_disabled":false,"rental_uris":{"android":"levelo://app?vid=4844e9a3-3e0e-46b3-97e0-b21c829303d3","ios":"levelo://app?vid=4844e9a3-3e0e-46b3-97e0-b21c829303d3"},"vehicle_type_id":"4","last_reported":1735067215,"current_range_meters":38800,"station_id":"ce4bhq12rcd13ifvqhig","pricing_plan_id":"cebpf4jnsgd1na2vs0mg"},{"bike_id":"2531a841-d2ae-4f82-b31e-c792b7d866bd","system_id":"levelo_inurba_marseille","lat":43.3064,"lon":5.40082,"is_reserved":false,"is_disabled":false,"rental_uris":{"android":"levelo://app?vid=2531a841-d2ae-4f82-b31e-c792b7d866bd","ios":"levelo://app?vid=2531a841-d2ae-4f82-b31e-c792b7d866bd"},"vehicle_type_id":"4","last_reported":1735067215,"current_range_meters":38400,"station_id":"ce4bh112rcd13ifvqda0","pricing_plan_id":"cebpf4jnsgd1na2vs0mg"},{"bike_id":"63aac863-d7ea-4344-81fa-3153d9ba0f58","system_id":"levelo_inurba_marseille","lat":43.29914,"lon":5.38155,"is_reserved":false,"is_disabled":false,"rental_uris":{"android":"levelo://app?vid=63aac863-d7ea-4344-81fa-3153d9ba0f58","ios":"levelo://app?vid=63aac863-d7ea-4344-81fa-3153d9ba0f58"},"vehicle_type_id":"4","last_reported":1735067215,"current_range_meters":36400,"station_id":"ce4bgj12rcd13ifvqbc0","pricing_plan_id":"cebpf4jnsgd1na2vs0mg"},{"bike_id":"6fc39219-982d-4feb-9b3b-e1ba4db40afe","system_id":"levelo_inurba_marseille","lat":43.29593,"lon":5.38079,"is_reserved":false,"is_disabled":false,"rental_uris":{"android":"levelo://app?vid=6fc39219-982d-4feb-9b3b-e1ba4db40afe","ios":"levelo://app?vid=6fc39219-982d-4feb-9b3b-e1ba4db40afe"},"vehicle_type_id":"4","last_reported":1735067215,"current_range_meters":39200,"station_id":"ce4bgl12rcd13ifvqbo0","pricing_plan_id":"cebpf4jnsgd1na2vs0mg"},{"bike_id":"e73e6057-e6e9-407b-a17e-f4e119a96aba","system_id":"levelo_inurba_marseille","lat":43.3211,"lon":5.36772,"is_reserved":false,"is_disabled":false,"rental_uris":{"android":"levelo://app?vid=e73e6057-e6e9-407b-a17e-f4e119a96aba","ios":"levelo://app?vid=e73e6057-e6e9-407b-a17e-f4e119a96aba"},"vehicle_type_id":"4","last_reported":1735067215,"current_range_meters":36000,"station_id":"ce4bhrh2rcd13ifvqhug","pricing_plan_id":"cebpf4jnsgd1na2vs0mg"},{"bike_id":"d3d57b3b-13bc-4c2a-ab0b-2ef5d4c4b8d5","system_id":"levelo_inurba_marseille","lat":43.27668,"lon":5.38898,"is_reserved":false,"is_disabled":false,"rental_uris":{"android":"levelo://app?vid=d3d57b3b-13bc-4c2a-ab0b-2ef5d4c4b8d5","ios":"levelo://app?vid=d3d57b3b-13bc-4c2a-ab0b-2ef5d4c4b8d5"},"vehicle_type_id":"4","last_reported":1735067215,"current_range_meters":21600,"station_id":"ce4bhi12rcd13ifvqfo0","pricing_plan_id":"cebpf4jnsgd1na2vs0mg"},{"bike_id":"ff19ce84-10b6-4ffc-b9fc-1625914b166c","system_id":"levelo_inurba_marseille","lat":43.29712,"lon":5.36611,"is_reserved":false,"is_disabled":false,"rental_uris":{"android":"levelo://app?vid=ff19ce84-10b6-4ffc-b9fc-1625914b166c","ios":"levelo://app?vid=ff19ce84-10b6-4ffc-b9fc-1625914b166c"},"vehicle_type_id":"4","last_reported":1735067215,"current_range_meters":24400,"station_id":"ce4bgn12rcd13ifvqbt0","pricing_plan_id":"cebpf4jnsgd1na2vs0mg"},{"bike_id":"c4f1e158-e8cf-4bd8-98c6-52ed0ee45959","system_id":"levelo_inurba_marseille","lat":43.30265,"lon":5.39269,"is_reserved":false,"is_disabled":false,"rental_uris":{"android":"levelo://app?vid=c4f1e158-e8cf-4bd8-98c6-52ed0ee45959","ios":"levelo://app?vid=c4f1e158-e8cf-4bd8-98c6-52ed0ee45959"},"vehicle_type_id":"4","last_reported":1735067215,"current_range_meters":36800,"station_id":"","pricing_plan_id":"cebpf4jnsgd1na2vs0mg"},{"bike_id":"7229805d-820e-4381-aa07-8ea31958c18a","system_id":"levelo_inurba_marseille","lat":43.30884,"lon":5.39639,"is_reserved":false,"is_disabled":false,"rental_uris":{"android":"levelo://app?vid=7229805d-820e-4381-aa07-8ea31958c18a","ios":"levelo://app?vid=7229805d-820e-4381-aa07-8ea31958c18a"},"vehicle_type_id":"4","last_reported":1735067215,"current_range_meters":30000,"station_id":"ce4bh012rcd13ifvqcv0","pricing_plan_id":"cebpf4jnsgd1na2vs0mg"},{"bike_id":"4bcb37c0-9249-499d-890c-0bbf93d29f8b","system_id":"levelo_inurba_marseille","lat":43.23188,"lon":5.35557,"is_reserved":false,"is_disabled":true,"rental_uris":{"android":"levelo://app?vid=4bcb37c0-9249-499d-890c-0bbf93d29f8b","ios":"levelo://app?vid=4bcb37c0-9249-499d-890c-0bbf93d29f8b"},"vehicle_type_id":"4","last_reported":1735067215,"current_range_meters":14800,"station_id":"ce4bhu92rcd13ifvqi70","pricing_plan_id":"cebpf4jnsgd1na2vs0mg"},{"bike_id":"2a3b7d32-cff7-495b-b04e-14004fa824a0","system_id":"levelo_inurba_marseille","lat":43.31353,"lon":5.38497,"is_reserved":false,"is_disabled":false,"rental_uris":{"android":"levelo://app?vid=2a3b7d32-cff7-495b-b04e-14004fa824a0","ios":"levelo://app?vid=2a3b7d32-cff7-495b-b04e-14004fa824a0"},"vehicle_type_id":"4","last_reported":1735067215,"current_range_meters":30800,"station_id":"ce4bgt92rcd13ifvqcf0","pricing_plan_id":"cebpf4jnsgd1na2vs0mg"},{"bike_id":"2133dc3b-71f3-49c7-931f-93dc7b490d11","system_id":"levelo_inurba_marseille","lat":43.26033,"lon":5.37546,"is_reserved":false,"is_disabled":false,"rental_uris":{"android":"levelo://app?vid=2133dc3b-71f3-49c7-931f-93dc7b490d11","ios":"levelo://app?vid=2133dc3b-71f3-49c7-931f-93dc7b490d11"},"vehicle_type_id":"4","last_reported":1735067215,"current_range_meters":38800,"station_id":"ce4bhgh2rcd13ifvqfa0","pricing_plan_id":"cebpf4jnsgd1na2vs0mg"},{"bike_id":"e3055757-4e5c-471b-bc49-10de19223f16","system_id":"levelo_inurba_marseille","lat":43.320396,"lon":5.415673,"is_reserved":false,"is_disabled":false,"rental_uris":{"android":"levelo://app?vid=e3055757-4e5c-471b-bc49-10de19223f16","ios":"levelo://app?vid=e3055757-4e5c-471b-bc49-10de19223f16"},"vehicle_type_id":"4","last_reported":1735067215,"current_range_meters":33200,"station_id":"ce4bhq92rcd13ifvqhkg","pricing_plan_id":"cebpf4jnsgd1na2vs0mg"},{"bike_id":"cd557ca8-748b-4022-87fb-b196f5f5086d","system_id":"levelo_inurba_marseille","lat":43.29786,"lon":5.37091,"is_reserved":false,"is_disabled":false,"rental_uris":{"android":"levelo://app?vid=cd557ca8-748b-4022-87fb-b196f5f5086d","ios":"levelo://app?vid=cd557ca8-748b-4022-87fb-b196f5f5086d"},"vehicle_type_id":"4","last_reported":1735067215,"current_range_meters":38400,"station_id":"ce4bgop2rcd13ifvqc1g","pricing_plan_id":"cebpf4jnsgd1na2vs0mg"},{"bike_id":"208be6ab-a99a-4aa4-afe7-ad23a20f3580","system_id":"levelo_inurba_marseille","lat":43.30136,"lon":5.38783,"is_reserved":false,"is_disabled":false,"rental_uris":{"android":"levelo://app?vid=208be6ab-a99a-4aa4-afe7-ad23a20f3580","ios":"levelo://app?vid=208be6ab-a99a-4aa4-afe7-ad23a20f3580"},"vehicle_type_id":"4","last_reported":1735067215,"current_range_meters":38800,"station_id":"ce4bghh2rcd13ifvqb60","pricing_plan_id":"cebpf4jnsgd1na2vs0mg"},{"bike_id":"3e0dffd7-74ff-4814-97ea-253d3881d122","system_id":"levelo_inurba_marseille","lat":43.29614,"lon":5.37704,"is_reserved":false,"is_disabled":false,"rental_uris":{"android":"levelo://app?vid=3e0dffd7-74ff-4814-97ea-253d3881d122","ios":"levelo://app?vid=3e0dffd7-74ff-4814-97ea-253d3881d122"},"vehicle_type_id":"4","last_reported":1735067215,"current_range_meters":33600,"station_id":"ce4bgi92rcd13ifvqb90","pricing_plan_id":"cebpf4jnsgd1na2vs0mg"},{"bike_id":"0d8e7050-5f36-4ff1-bb95-5ba4b8dd65b6","system_id":"levelo_inurba_marseille","lat":43.26053,"lon":5.39382,"is_reserved":false,"is_disabled":false,"rental_uris":{"android":"levelo://app?vid=0d8e7050-5f36-4ff1-bb95-5ba4b8dd65b6","ios":"levelo://app?vid=0d8e7050-5f36-4ff1-bb95-5ba4b8dd65b6"},"vehicle_type_id":"4","last_reported":1735067215,"current_range_meters":38800,"station_id":"ce4bhh92rcd13ifvqfj0","pricing_plan_id":"cebpf4jnsgd1na2vs0mg"},{"bike_id":"1401d782-4c42-4502-9233-ae0e4dbfcaa2","system_id":"levelo_inurba_marseille","lat":43.27425,"lon":5.39393,"is_reserved":false,"is_disabled":false,"rental_uris":{"android":"levelo://app?vid=1401d782-4c42-4502-9233-ae0e4dbfcaa2","ios":"levelo://app?vid=1401d782-4c42-4502-9233-ae0e4dbfcaa2"},"vehicle_type_id":"4","last_reported":1735067215,"current_range_meters":32400,"station_id":"ce4bhdp2rcd13ifvqf20","pricing_plan_id":"cebpf4jnsgd1na2vs0mg"},{"bike_id":"99d58419-7fd2-4ee3-85af-8e206f15bae9","system_id":"levelo_inurba_marseille","lat":43.30794,"lon":5.4353,"is_reserved":false,"is_disabled":false,"rental_uris":{"android":"levelo://app?vid=99d58419-7fd2-4ee3-85af-8e206f15bae9","ios":"levelo://app?vid=99d58419-7fd2-4ee3-85af-8e206f15bae9"},"vehicle_type_id":"4","last_reported":1735067215,"current_range_meters":11200,"station_id":"ce4bhph2rcd13ifvqheg","pricing_plan_id":"cebpf4jnsgd1na2vs0mg"},{"bike_id":"f1a05271-deb6-45df-a57b-c8df010d99a6","system_id":"levelo_inurba_marseille","lat":43.2985,"lon":5.36284,"is_reserved":false,"is_disabled":false,"rental_uris":{"android":"levelo://app?vid=f1a05271-deb6-45df-a57b-c8df010d99a6","ios":"levelo://app?vid=f1a05271-deb6-45df-a57b-c8df010d99a6"},"vehicle_type_id":"4","last_reported":1735067215,"current_range_meters":38800,"station_id":"ce4bgpp2rcd13ifvqc3g","pricing_plan_id":"cebpf4jnsgd1na2vs0mg"},{"bike_id":"11d33253-567f-4297-b262-bbef3d864b26","system_id":"levelo_inurba_marseille","lat":43.30149,"lon":5.38095,"is_reserved":false,"is_disabled":false,"rental_uris":{"android":"levelo://app?vid=11d33253-567f-4297-b262-bbef3d864b26","ios":"levelo://app?vid=11d33253-567f-4297-b262-bbef3d864b26"},"vehicle_type_id":"4","last_reported":1735067215,"current_range_meters":38800,"station_id":"ce4bgjp2rcd13ifvqbh0","pricing_plan_id":"cebpf4jnsgd1na2vs0mg"},{"bike_id":"dad6db58-f5bc-4da2-b0b4-3d5d1002166b","system_id":"levelo_inurba_marseille","lat":43.32109,"lon":5.36768,"is_reserved":false,"is_disabled":false,"rental_uris":{"android":"levelo://app?vid=dad6db58-f5bc-4da2-b0b4-3d5d1002166b","ios":"levelo://app?vid=dad6db58-f5bc-4da2-b0b4-3d5d1002166b"},"vehicle_type_id":"4","last_reported":1735067215,"current_range_meters":30400,"station_id":"ce4bhrh2rcd13ifvqhug","pricing_plan_id":"cebpf4jnsgd1na2vs0mg"},{"bike_id":"d215e6a3-2dbb-4240-82c4-dbdd5ce5595f","system_id":"levelo_inurba_marseille","lat":43.2991,"lon":5.38154,"is_reserved":false,"is_disabled":false,"rental_uris":{"android":"levelo://app?vid=d215e6a3-2dbb-4240-82c4-dbdd5ce5595f","ios":"levelo://app?vid=d215e6a3-2dbb-4240-82c4-dbdd5ce5595f"},"vehicle_type_id":"4","last_reported":1735067215,"current_range_meters":39200,"station_id":"ce4bgj12rcd13ifvqbc0","pricing_plan_id":"cebpf4jnsgd1na2vs0mg"},{"bike_id":"dd7d4a3c-5899-4c44-8ca2-91d460496d28","system_id":"levelo_inurba_marseille","lat":43.24179,"lon":5.39725,"is_reserved":false,"is_disabled":false,"rental_uris":{"android":"levelo://app?vid=dd7d4a3c-5899-4c44-8ca2-91d460496d28","ios":"levelo://app?vid=dd7d4a3c-5899-4c44-8ca2-91d460496d28"},"vehicle_type_id":"4","last_reported":1735067215,"current_range_meters":39200,"station_id":"ce4bhn12rcd13ifvqgpg","pricing_plan_id":"cebpf4jnsgd1na2vs0mg"},{"bike_id":"7f8e539a-2241-4364-812f-32be0d6427b6","system_id":"levelo_inurba_marseille","lat":43.32126,"lon":5.36777,"is_reserved":false,"is_disabled":false,"rental_uris":{"android":"levelo://app?vid=7f8e539a-2241-4364-812f-32be0d6427b6","ios":"levelo://app?vid=7f8e539a-2241-4364-812f-32be0d6427b6"},"vehicle_type_id":"4","last_reported":1735067215,"current_range_meters":27600,"station_id":"ce4bhrh2rcd13ifvqhug","pricing_plan_id":"cebpf4jnsgd1na2vs0mg"},{"bike_id":"bb9b563a-45f8-4329-8f3c-a50a095982e4","system_id":"levelo_inurba_marseille","lat":43.2991,"lon":5.38161,"is_reserved":false,"is_disabled":false,"rental_uris":{"android":"levelo://app?vid=bb9b563a-45f8-4329-8f3c-a50a095982e4","ios":"levelo://app?vid=bb9b563a-45f8-4329-8f3c-a50a095982e4"},"vehicle_type_id":"4","last_reported":1735067215,"current_range_meters":38800,"station_id":"ce4bgj12rcd13ifvqbc0","pricing_plan_id":"cebpf4jnsgd1na2vs0mg"},{"bike_id":"a550f341-6e04-4989-b32f-77b133c98903","system_id":"levelo_inurba_marseille","lat":43.29609,"lon":5.37742,"is_reserved":false,"is_disabled":false,"rental_uris":{"android":"levelo://app?vid=a550f341-6e04-4989-b32f-77b133c98903","ios":"levelo://app?vid=a550f341-6e04-4989-b32f-77b133c98903"},"vehicle_type_id":"4","last_reported":1735067215,"current_range_meters":36000,"station_id":"ce4bgi92rcd13ifvqb90","pricing_plan_id":"cebpf4jnsgd1na2vs0mg"},{"bike_id":"1f60e3a9-5bdb-49c1-9912-d728d8f40aa3","system_id":"levelo_inurba_marseille","lat":43.23154,"lon":5.43712,"is_reserved":false,"is_disabled":false,"rental_uris":{"android":"levelo://app?vid=1f60e3a9-5bdb-49c1-9912-d728d8f40aa3","ios":"levelo://app?vid=1f60e3a9-5bdb-49c1-9912-d728d8f40aa3"},"vehicle_type_id":"4","last_reported":1735067215,"current_range_meters":37600,"station_id":"ce4bhmp2rcd13ifvqgog","pricing_plan_id":"cebpf4jnsgd1na2vs0mg"},{"bike_id":"61efb49e-53ce-4cd1-afef-a5daebcd0fcd","system_id":"levelo_inurba_marseille","lat":43.28418,"lon":5.37515,"is_reserved":false,"is_disabled":false,"rental_uris":{"android":"levelo://app?vid=61efb49e-53ce-4cd1-afef-a5daebcd0fcd","ios":"levelo://app?vid=61efb49e-53ce-4cd1-afef-a5daebcd0fcd"},"vehicle_type_id":"4","last_reported":1735067215,"current_range_meters":16400,"station_id":"ce4bh412rcd13ifvqds0","pricing_plan_id":"cebpf4jnsgd1na2vs0mg"},{"bike_id":"52e68332-07f1-4d50-be34-ff8900a1c988","system_id":"levelo_inurba_marseille","lat":43.29608,"lon":5.37755,"is_reserved":false,"is_disabled":false,"rental_uris":{"android":"levelo://app?vid=52e68332-07f1-4d50-be34-ff8900a1c988","ios":"levelo://app?vid=52e68332-07f1-4d50-be34-ff8900a1c988"},"vehicle_type_id":"4","last_reported":1735067215,"current_range_meters":38400,"station_id":"ce4bgi92rcd13ifvqb90","pricing_plan_id":"cebpf4jnsgd1na2vs0mg"},{"bike_id":"cf12c232-c3a3-4785-8fed-9cea9aa4f082","system_id":"levelo_inurba_marseille","lat":43.27661,"lon":5.38828,"is_reserved":false,"is_disabled":false,"rental_uris":{"android":"levelo://app?vid=cf12c232-c3a3-4785-8fed-9cea9aa4f082","ios":"levelo://app?vid=cf12c232-c3a3-4785-8fed-9cea9aa4f082"},"vehicle_type_id":"4","last_reported":1735067215,"current_range_meters":11200,"station_id":"ce4bhi12rcd13ifvqfo0","pricing_plan_id":"cebpf4jnsgd1na2vs0mg"},{"bike_id":"7d51f556-7ada-4233-9b93-03f8f492aa76","system_id":"levelo_inurba_marseille","lat":43.24532,"lon":5.39509,"is_reserved":false,"is_disabled":true,"rental_uris":{"android":"levelo://app?vid=7d51f556-7ada-4233-9b93-03f8f492aa76","ios":"levelo://app?vid=7d51f556-7ada-4233-9b93-03f8f492aa76"},"vehicle_type_id":"4","last_reported":1735067215,"current_range_meters":6400,"station_id":"ce4bhlp2rcd13ifvqgjg","pricing_plan_id":"cebpf4jnsgd1na2vs0mg"},{"bike_id":"1866340a-45b4-4bd2-ac73-392a4ecb2e72","system_id":"levelo_inurba_marseille","lat":43.29835,"lon":5.36271,"is_reserved":false,"is_disabled":false,"rental_uris":{"android":"levelo://app?vid=1866340a-45b4-4bd2-ac73-392a4ecb2e72","ios":"levelo://app?vid=1866340a-45b4-4bd2-ac73-392a4ecb2e72"},"vehicle_type_id":"4","last_reported":1735067215,"current_range_meters":38800,"station_id":"ce4bgpp2rcd13ifvqc3g","pricing_plan_id":"cebpf4jnsgd1na2vs0mg"},{"bike_id":"5b5e383b-efa1-4eb1-84b6-4e597d310e17","system_id":"levelo_inurba_marseille","lat":43.24808,"lon":5.37458,"is_reserved":false,"is_disabled":false,"rental_uris":{"android":"levelo://app?vid=5b5e383b-efa1-4eb1-84b6-4e597d310e17","ios":"levelo://app?vid=5b5e383b-efa1-4eb1-84b6-4e597d310e17"},"vehicle_type_id":"4","last_reported":1735067215,"current_range_meters":39200,"station_id":"ce4bhgh2rcd13ifvqfb0","pricing_plan_id":"cebpf4jnsgd1na2vs0mg"},{"bike_id":"7d8c4ca7-1b12-41b9-b26d-978bc55c24c0","system_id":"levelo_inurba_marseille","lat":43.26227,"lon":5.37418,"is_reserved":false,"is_disabled":false,"rental_uris":{"android":"levelo://app?vid=7d8c4ca7-1b12-41b9-b26d-978bc55c24c0","ios":"levelo://app?vid=7d8c4ca7-1b12-41b9-b26d-978bc55c24c0"},"vehicle_type_id":"4","last_reported":1735067215,"current_range_meters":32400,"station_id":"ce4bhgp2rcd13ifvqfc0","pricing_plan_id":"cebpf4jnsgd1na2vs0mg"},{"bike_id":"4ed0cabe-875c-4ebe-ad34-74644f479788","system_id":"levelo_inurba_marseille","lat":43.27681,"lon":5.38894,"is_reserved":false,"is_disabled":false,"rental_uris":{"android":"levelo://app?vid=4ed0cabe-875c-4ebe-ad34-74644f479788","ios":"levelo://app?vid=4ed0cabe-875c-4ebe-ad34-74644f479788"},"vehicle_type_id":"4","last_reported":1735067215,"current_range_meters":24400,"station_id":"ce4bhi12rcd13ifvqfo0","pricing_plan_id":"cebpf4jnsgd1na2vs0mg"},{"bike_id":"c2b13e1f-27c5-4ff9-b780-21ce47c387ee","system_id":"levelo_inurba_marseille","lat":43.23191,"lon":5.39984,"is_reserved":false,"is_disabled":false,"rental_uris":{"android":"levelo://app?vid=c2b13e1f-27c5-4ff9-b780-21ce47c387ee","ios":"levelo://app?vid=c2b13e1f-27c5-4ff9-b780-21ce47c387ee"},"vehicle_type_id":"4","last_reported":1735067215,"current_range_meters":38800,"station_id":"ce4bhn12rcd13ifvqgqg","pricing_plan_id":"cebpf4jnsgd1na2vs0mg"},{"bike_id":"836d944f-6d75-4c17-b70a-d071158594dd","system_id":"levelo_inurba_marseille","lat":43.27421,"lon":5.39433,"is_reserved":false,"is_disabled":false,"rental_uris":{"android":"levelo://app?vid=836d944f-6d75-4c17-b70a-d071158594dd","ios":"levelo://app?vid=836d944f-6d75-4c17-b70a-d071158594dd"},"vehicle_type_id":"4","last_reported":1735067215,"current_range_meters":32800,"station_id":"ce4bhdp2rcd13ifvqf20","pricing_plan_id":"cebpf4jnsgd1na2vs0mg"},{"bike_id":"83266379-37de-4908-b393-db3ef6bd1008","system_id":"levelo_inurba_marseille","lat":43.28847,"lon":5.35871,"is_reserved":false,"is_disabled":false,"rental_uris":{"android":"levelo://app?vid=83266379-37de-4908-b393-db3ef6bd1008","ios":"levelo://app?vid=83266379-37de-4908-b393-db3ef6bd1008"},"vehicle_type_id":"4","last_reported":1735067215,"current_range_meters":38800,"station_id":"ce4bhb12rcd13ifvqem0","pricing_plan_id":"cebpf4jnsgd1na2vs0mg"},{"bike_id":"13c39096-92de-47dd-a9ee-5b5cda0c5bbc","system_id":"levelo_inurba_marseille","lat":43.24651,"lon":5.38906,"is_reserved":false,"is_disabled":false,"rental_uris":{"android":"levelo://app?vid=13c39096-92de-47dd-a9ee-5b5cda0c5bbc","ios":"levelo://app?vid=13c39096-92de-47dd-a9ee-5b5cda0c5bbc"},"vehicle_type_id":"4","last_reported":1735067215,"current_range_meters":30000,"station_id":"ce4bhg12rcd13ifvqf60","pricing_plan_id":"cebpf4jnsgd1na2vs0mg"},{"bike_id":"1107b56a-98a5-4a01-8449-9eba086fee5a","system_id":"levelo_inurba_marseille","lat":43.2907,"lon":5.39932,"is_reserved":false,"is_disabled":false,"rental_uris":{"android":"levelo://app?vid=1107b56a-98a5-4a01-8449-9eba086fee5a","ios":"levelo://app?vid=1107b56a-98a5-4a01-8449-9eba086fee5a"},"vehicle_type_id":"4","last_reported":1735067215,"current_range_meters":23200,"station_id":"ce4bh392rcd13ifvqdm0","pricing_plan_id":"cebpf4jnsgd1na2vs0mg"},{"bike_id":"21834ec0-2f02-45b5-b3ef-1dcac3adfa8f","system_id":"levelo_inurba_marseille","lat":43.311121,"lon":5.377676,"is_reserved":false,"is_disabled":false,"rental_uris":{"android":"levelo://app?vid=21834ec0-2f02-45b5-b3ef-1dcac3adfa8f","ios":"levelo://app?vid=21834ec0-2f02-45b5-b3ef-1dcac3adfa8f"},"vehicle_type_id":"4","last_reported":1735067215,"current_range_meters":33600,"station_id":"ce4bgt92rcd13ifvqcg0","pricing_plan_id":"cebpf4jnsgd1na2vs0mg"},{"bike_id":"29a0f1a8-1d67-4931-af5c-2e3a54c058e2","system_id":"levelo_inurba_marseille","lat":43.30134,"lon":5.39879,"is_reserved":false,"is_disabled":false,"rental_uris":{"android":"levelo://app?vid=29a0f1a8-1d67-4931-af5c-2e3a54c058e2","ios":"levelo://app?vid=29a0f1a8-1d67-4931-af5c-2e3a54c058e2"},"vehicle_type_id":"4","last_reported":1735067215,"current_range_meters":38800,"station_id":"ce4bh0h2rcd13ifvqd40","pricing_plan_id":"cebpf4jnsgd1na2vs0mg"},{"bike_id":"ac2aee16-50b3-41ee-a57d-f3da25ff9a0f","system_id":"levelo_inurba_marseille","lat":43.286876,"lon":5.386541,"is_reserved":false,"is_disabled":false,"rental_uris":{"android":"levelo://app?vid=ac2aee16-50b3-41ee-a57d-f3da25ff9a0f","ios":"levelo://app?vid=ac2aee16-50b3-41ee-a57d-f3da25ff9a0f"},"vehicle_type_id":"4","last_reported":1735067215,"current_range_meters":38800,"station_id":"ce4bh492rcd13ifvqdug","pricing_plan_id":"cebpf4jnsgd1na2vs0mg"},{"bike_id":"6f68edfd-fb24-4919-b968-971a44d10505","system_id":"levelo_inurba_marseille","lat":43.3376,"lon":5.39135,"is_reserved":false,"is_disabled":false,"rental_uris":{"android":"levelo://app?vid=6f68edfd-fb24-4919-b968-971a44d10505","ios":"levelo://app?vid=6f68edfd-fb24-4919-b968-971a44d10505"},"vehicle_type_id":"4","last_reported":1735067215,"current_range_meters":37600,"station_id":"ce4bhr92rcd13ifvqhsg","pricing_plan_id":"cebpf4jnsgd1na2vs0mg"},{"bike_id":"701a41ae-cc9c-4355-9ab3-3df20dac2c0e","system_id":"levelo_inurba_marseille","lat":43.2957,"lon":5.37488,"is_reserved":false,"is_disabled":false,"rental_uris":{"android":"levelo://app?vid=701a41ae-cc9c-4355-9ab3-3df20dac2c0e","ios":"levelo://app?vid=701a41ae-cc9c-4355-9ab3-3df20dac2c0e"},"vehicle_type_id":"4","last_reported":1735067215,"current_range_meters":36400,"station_id":"ce4bgh92rcd13ifvqb50","pricing_plan_id":"cebpf4jnsgd1na2vs0mg"},{"bike_id":"0a12f8eb-66bd-4951-8c87-6397f265a7c7","system_id":"levelo_inurba_marseille","lat":43.29711,"lon":5.36597,"is_reserved":false,"is_disabled":false,"rental_uris":{"android":"levelo://app?vid=0a12f8eb-66bd-4951-8c87-6397f265a7c7","ios":"levelo://app?vid=0a12f8eb-66bd-4951-8c87-6397f265a7c7"},"vehicle_type_id":"4","last_reported":1735067215,"current_range_meters":38800,"station_id":"ce4bgn12rcd13ifvqbt0","pricing_plan_id":"cebpf4jnsgd1na2vs0mg"},{"bike_id":"081617f2-352d-433d-abf2-e1c0c70491b7","system_id":"levelo_inurba_marseille","lat":43.27319,"lon":5.39095,"is_reserved":false,"is_disabled":false,"rental_uris":{"android":"levelo://app?vid=081617f2-352d-433d-abf2-e1c0c70491b7","ios":"levelo://app?vid=081617f2-352d-433d-abf2-e1c0c70491b7"},"vehicle_type_id":"4","last_reported":1735067215,"current_range_meters":38800,"station_id":"ce4bhgp2rcd13ifvqfe0","pricing_plan_id":"cebpf4jnsgd1na2vs0mg"},{"bike_id":"13623285-4693-4c5e-8e3e-06c2aa71398c","system_id":"levelo_inurba_marseille","lat":43.29606,"lon":5.38106,"is_reserved":false,"is_disabled":false,"rental_uris":{"android":"levelo://app?vid=13623285-4693-4c5e-8e3e-06c2aa71398c","ios":"levelo://app?vid=13623285-4693-4c5e-8e3e-06c2aa71398c"},"vehicle_type_id":"4","last_reported":1735067215,"current_range_meters":28000,"station_id":"ce4bgl12rcd13ifvqbo0","pricing_plan_id":"cebpf4jnsgd1na2vs0mg"},{"bike_id":"4e6d0ca2-6374-490a-b48e-6cba90785a4f","system_id":"levelo_inurba_marseille","lat":43.24648,"lon":5.38914,"is_reserved":false,"is_disabled":false,"rental_uris":{"android":"levelo://app?vid=4e6d0ca2-6374-490a-b48e-6cba90785a4f","ios":"levelo://app?vid=4e6d0ca2-6374-490a-b48e-6cba90785a4f"},"vehicle_type_id":"4","last_reported":1735067215,"current_range_meters":20400,"station_id":"ce4bhg12rcd13ifvqf60","pricing_plan_id":"cebpf4jnsgd1na2vs0mg"},{"bike_id":"63761338-88e3-440c-a413-768c5776fe64","system_id":"levelo_inurba_marseille","lat":43.30894,"lon":5.37203,"is_reserved":false,"is_disabled":false,"rental_uris":{"android":"levelo://app?vid=63761338-88e3-440c-a413-768c5776fe64","ios":"levelo://app?vid=63761338-88e3-440c-a413-768c5776fe64"},"vehicle_type_id":"4","last_reported":1735067215,"current_range_meters":22000,"station_id":"ce4bguh2rcd13ifvqckg","pricing_plan_id":"cebpf4jnsgd1na2vs0mg"},{"bike_id":"a2da62ed-c4ca-4443-a1a1-134c277a106e","system_id":"levelo_inurba_marseille","lat":43.26933,"lon":5.40242,"is_reserved":false,"is_disabled":false,"rental_uris":{"android":"levelo://app?vid=a2da62ed-c4ca-4443-a1a1-134c277a106e","ios":"levelo://app?vid=a2da62ed-c4ca-4443-a1a1-134c277a106e"},"vehicle_type_id":"4","last_reported":1735067215,"current_range_meters":33600,"station_id":"cjm6bp8fraef2m0cb0m0","pricing_plan_id":"cebpf4jnsgd1na2vs0mg"},{"bike_id":"040d7202-545d-4ddc-bad5-7a7c609c6259","system_id":"levelo_inurba_marseille","lat":43.29034,"lon":5.37557,"is_reserved":false,"is_disabled":false,"rental_uris":{"android":"levelo://app?vid=040d7202-545d-4ddc-bad5-7a7c609c6259","ios":"levelo://app?vid=040d7202-545d-4ddc-bad5-7a7c609c6259"},"vehicle_type_id":"4","last_reported":1735067215,"current_range_meters":38800,"station_id":"ce4bh692rcd13ifvqe90","pricing_plan_id":"cebpf4jnsgd1na2vs0mg"},{"bike_id":"b60afeb8-f744-4162-9ce6-9a0121ae1831","system_id":"levelo_inurba_marseille","lat":43.3089,"lon":5.39642,"is_reserved":false,"is_disabled":false,"rental_uris":{"android":"levelo://app?vid=b60afeb8-f744-4162-9ce6-9a0121ae1831","ios":"levelo://app?vid=b60afeb8-f744-4162-9ce6-9a0121ae1831"},"vehicle_type_id":"4","last_reported":1735067215,"current_range_meters":9200,"station_id":"ce4bh012rcd13ifvqcv0","pricing_plan_id":"cebpf4jnsgd1na2vs0mg"},{"bike_id":"d74a540a-4d93-448c-ace1-d7796f43408b","system_id":"levelo_inurba_marseille","lat":43.27193,"lon":5.39166,"is_reserved":false,"is_disabled":false,"rental_uris":{"android":"levelo://app?vid=d74a540a-4d93-448c-ace1-d7796f43408b","ios":"levelo://app?vid=d74a540a-4d93-448c-ace1-d7796f43408b"},"vehicle_type_id":"4","last_reported":1735067215,"current_range_meters":32800,"station_id":"ce4bhhp2rcd13ifvqfm0","pricing_plan_id":"cebpf4jnsgd1na2vs0mg"},{"bike_id":"ba65d07a-204d-4be9-96e0-b91b2ca6d251","system_id":"levelo_inurba_marseille","lat":43.26931,"lon":5.40254,"is_reserved":false,"is_disabled":false,"rental_uris":{"android":"levelo://app?vid=ba65d07a-204d-4be9-96e0-b91b2ca6d251","ios":"levelo://app?vid=ba65d07a-204d-4be9-96e0-b91b2ca6d251"},"vehicle_type_id":"4","last_reported":1735067215,"current_range_meters":38800,"station_id":"cjm6bp8fraef2m0cb0m0","pricing_plan_id":"cebpf4jnsgd1na2vs0mg"},{"bike_id":"c06e99a9-30d5-4050-b5f9-0d930aa086a1","system_id":"levelo_inurba_marseille","lat":43.25866,"lon":5.39905,"is_reserved":false,"is_disabled":false,"rental_uris":{"android":"levelo://app?vid=c06e99a9-30d5-4050-b5f9-0d930aa086a1","ios":"levelo://app?vid=c06e99a9-30d5-4050-b5f9-0d930aa086a1"},"vehicle_type_id":"4","last_reported":1735067215,"current_range_meters":13600,"station_id":"ce4bhl92rcd13ifvqghg","pricing_plan_id":"cebpf4jnsgd1na2vs0mg"},{"bike_id":"43472636-57cd-411f-b3bd-d2bda7647d04","system_id":"levelo_inurba_marseille","lat":43.26931,"lon":5.40256,"is_reserved":false,"is_disabled":false,"rental_uris":{"android":"levelo://app?vid=43472636-57cd-411f-b3bd-d2bda7647d04","ios":"levelo://app?vid=43472636-57cd-411f-b3bd-d2bda7647d04"},"vehicle_type_id":"4","last_reported":1735067215,"current_range_meters":38800,"station_id":"cjm6bp8fraef2m0cb0m0","pricing_plan_id":"cebpf4jnsgd1na2vs0mg"},{"bike_id":"e9ba0a83-93bd-4576-9168-5cc6cd4c54ad","system_id":"levelo_inurba_marseille","lat":43.24817,"lon":5.37427,"is_reserved":false,"is_disabled":false,"rental_uris":{"android":"levelo://app?vid=e9ba0a83-93bd-4576-9168-5cc6cd4c54ad","ios":"levelo://app?vid=e9ba0a83-93bd-4576-9168-5cc6cd4c54ad"},"vehicle_type_id":"4","last_reported":1735067215,"current_range_meters":9600,"station_id":"ce4bhgh2rcd13ifvqfb0","pricing_plan_id":"cebpf4jnsgd1na2vs0mg"},{"bike_id":"070819ac-e257-4989-a8c7-15e25aa6a5f7","system_id":"levelo_inurba_marseille","lat":43.28469,"lon":5.38415,"is_reserved":false,"is_disabled":false,"rental_uris":{"android":"levelo://app?vid=070819ac-e257-4989-a8c7-15e25aa6a5f7","ios":"levelo://app?vid=070819ac-e257-4989-a8c7-15e25aa6a5f7"},"vehicle_type_id":"4","last_reported":1735067215,"current_range_meters":35200,"station_id":"ce4bh512rcd13ifvqe3g","pricing_plan_id":"cebpf4jnsgd1na2vs0mg"},{"bike_id":"d1e8c74f-18d3-4ed4-8ec3-fe97d699857f","system_id":"levelo_inurba_marseille","lat":43.30352,"lon":5.41879,"is_reserved":false,"is_disabled":false,"rental_uris":{"android":"levelo://app?vid=d1e8c74f-18d3-4ed4-8ec3-fe97d699857f","ios":"levelo://app?vid=d1e8c74f-18d3-4ed4-8ec3-fe97d699857f"},"vehicle_type_id":"4","last_reported":1735067215,"current_range_meters":8000,"station_id":"ce4bhop2rcd13ifvqh7g","pricing_plan_id":"cebpf4jnsgd1na2vs0mg"},{"bike_id":"58975c95-cbcc-4de2-ac6a-2c5c03741a00","system_id":"levelo_inurba_marseille","lat":43.27075,"lon":5.42267,"is_reserved":false,"is_disabled":false,"rental_uris":{"android":"levelo://app?vid=58975c95-cbcc-4de2-ac6a-2c5c03741a00","ios":"levelo://app?vid=58975c95-cbcc-4de2-ac6a-2c5c03741a00"},"vehicle_type_id":"4","last_reported":1735067215,"current_range_meters":38800,"station_id":"ce4bhk92rcd13ifvqgb0","pricing_plan_id":"cebpf4jnsgd1na2vs0mg"},{"bike_id":"efc7c228-42f5-4f3b-8ce8-2805c6b97d17","system_id":"levelo_inurba_marseille","lat":43.33812,"lon":5.40737,"is_reserved":false,"is_disabled":false,"rental_uris":{"android":"levelo://app?vid=efc7c228-42f5-4f3b-8ce8-2805c6b97d17","ios":"levelo://app?vid=efc7c228-42f5-4f3b-8ce8-2805c6b97d17"},"vehicle_type_id":"4","last_reported":1735067215,"current_range_meters":29600,"station_id":"","pricing_plan_id":"cebpf4jnsgd1na2vs0mg"},{"bike_id":"ebddb4d5-c9c6-4495-b655-a0cf132a3527","system_id":"levelo_inurba_marseille","lat":43.29538,"lon":5.38544,"is_reserved":false,"is_disabled":false,"rental_uris":{"android":"levelo://app?vid=ebddb4d5-c9c6-4495-b655-a0cf132a3527","ios":"levelo://app?vid=ebddb4d5-c9c6-4495-b655-a0cf132a3527"},"vehicle_type_id":"4","last_reported":1735067215,"current_range_meters":39200,"station_id":"ce4bgih2rcd13ifvqba0","pricing_plan_id":"cebpf4jnsgd1na2vs0mg"},{"bike_id":"3dd6c7cd-1d2e-40e9-bfba-c51246e6f048","system_id":"levelo_inurba_marseille","lat":43.27671,"lon":5.38914,"is_reserved":false,"is_disabled":false,"rental_uris":{"android":"levelo://app?vid=3dd6c7cd-1d2e-40e9-bfba-c51246e6f048","ios":"levelo://app?vid=3dd6c7cd-1d2e-40e9-bfba-c51246e6f048"},"vehicle_type_id":"4","last_reported":1735067215,"current_range_meters":4000,"station_id":"ce4bhi12rcd13ifvqfo0","pricing_plan_id":"cebpf4jnsgd1na2vs0mg"},{"bike_id":"fb0e6359-3fe6-4009-9014-99d06d5c7222","system_id":"levelo_inurba_marseille","lat":43.2962,"lon":5.37156,"is_reserved":false,"is_disabled":false,"rental_uris":{"android":"levelo://app?vid=fb0e6359-3fe6-4009-9014-99d06d5c7222","ios":"levelo://app?vid=fb0e6359-3fe6-4009-9014-99d06d5c7222"},"vehicle_type_id":"4","last_reported":1735067215,"current_range_meters":38800,"station_id":"ce4bgnh2rcd13ifvqc0g","pricing_plan_id":"cebpf4jnsgd1na2vs0mg"},{"bike_id":"22670bc0-d463-47c1-9e30-bf9e31731b85","system_id":"levelo_inurba_marseille","lat":43.29212,"lon":5.36057,"is_reserved":false,"is_disabled":false,"rental_uris":{"android":"levelo://app?vid=22670bc0-d463-47c1-9e30-bf9e31731b85","ios":"levelo://app?vid=22670bc0-d463-47c1-9e30-bf9e31731b85"},"vehicle_type_id":"4","last_reported":1735067215,"current_range_meters":28000,"station_id":"ce4bhbh2rcd13ifvqeqg","pricing_plan_id":"cebpf4jnsgd1na2vs0mg"},{"bike_id":"d93032f6-8f4e-4faf-9212-d96bb4bca970","system_id":"levelo_inurba_marseille","lat":43.28727,"lon":5.36083,"is_reserved":false,"is_disabled":false,"rental_uris":{"android":"levelo://app?vid=d93032f6-8f4e-4faf-9212-d96bb4bca970","ios":"levelo://app?vid=d93032f6-8f4e-4faf-9212-d96bb4bca970"},"vehicle_type_id":"4","last_reported":1735067215,"current_range_meters":38800,"station_id":"cki0cbj6b192h4jlfktg","pricing_plan_id":"cebpf4jnsgd1na2vs0mg"},{"bike_id":"40ae8cb8-e49e-4a0f-a442-f25bcd7620a2","system_id":"levelo_inurba_marseille","lat":43.30415,"lon":5.39752,"is_reserved":false,"is_disabled":false,"rental_uris":{"android":"levelo://app?vid=40ae8cb8-e49e-4a0f-a442-f25bcd7620a2","ios":"levelo://app?vid=40ae8cb8-e49e-4a0f-a442-f25bcd7620a2"},"vehicle_type_id":"4","last_reported":1735067215,"current_range_meters":38800,"station_id":"ce4bh092rcd13ifvqd20","pricing_plan_id":"cebpf4jnsgd1na2vs0mg"},{"bike_id":"c53e66df-8257-4398-a60b-2cac86243673","system_id":"levelo_inurba_marseille","lat":43.32659,"lon":5.40989,"is_reserved":false,"is_disabled":false,"rental_uris":{"android":"levelo://app?vid=c53e66df-8257-4398-a60b-2cac86243673","ios":"levelo://app?vid=c53e66df-8257-4398-a60b-2cac86243673"},"vehicle_type_id":"4","last_reported":1735067215,"current_range_meters":38000,"station_id":"ce4bhpp2rcd13ifvqhgg","pricing_plan_id":"cebpf4jnsgd1na2vs0mg"},{"bike_id":"1601cb4d-c6b7-4894-b7f8-eeab49590138","system_id":"levelo_inurba_marseille","lat":43.26562,"lon":5.37271,"is_reserved":false,"is_disabled":false,"rental_uris":{"android":"levelo://app?vid=1601cb4d-c6b7-4894-b7f8-eeab49590138","ios":"levelo://app?vid=1601cb4d-c6b7-4894-b7f8-eeab49590138"},"vehicle_type_id":"4","last_reported":1735067215,"current_range_meters":36800,"station_id":"ce4bhg12rcd13ifvqf70","pricing_plan_id":"cebpf4jnsgd1na2vs0mg"},{"bike_id":"1f51b21d-3179-4324-a3f5-a296554cea4d","system_id":"levelo_inurba_marseille","lat":43.27808,"lon":5.40715,"is_reserved":false,"is_disabled":false,"rental_uris":{"android":"levelo://app?vid=1f51b21d-3179-4324-a3f5-a296554cea4d","ios":"levelo://app?vid=1f51b21d-3179-4324-a3f5-a296554cea4d"},"vehicle_type_id":"4","last_reported":1735067215,"current_range_meters":39200,"station_id":"ce4bhnh2rcd13ifvqgtg","pricing_plan_id":"cebpf4jnsgd1na2vs0mg"},{"bike_id":"aa5d5d16-a2f6-4c81-8cd4-c9ee96949ae4","system_id":"levelo_inurba_marseille","lat":43.2319,"lon":5.39996,"is_reserved":false,"is_disabled":false,"rental_uris":{"android":"levelo://app?vid=aa5d5d16-a2f6-4c81-8cd4-c9ee96949ae4","ios":"levelo://app?vid=aa5d5d16-a2f6-4c81-8cd4-c9ee96949ae4"},"vehicle_type_id":"4","last_reported":1735067215,"current_range_meters":38800,"station_id":"ce4bhn12rcd13ifvqgqg","pricing_plan_id":"cebpf4jnsgd1na2vs0mg"},{"bike_id":"13721f9d-26f3-4f48-9c74-f57a74e3951e","system_id":"levelo_inurba_marseille","lat":43.26026,"lon":5.37549,"is_reserved":false,"is_disabled":false,"rental_uris":{"android":"levelo://app?vid=13721f9d-26f3-4f48-9c74-f57a74e3951e","ios":"levelo://app?vid=13721f9d-26f3-4f48-9c74-f57a74e3951e"},"vehicle_type_id":"4","last_reported":1735067215,"current_range_meters":38000,"station_id":"ce4bhgh2rcd13ifvqfa0","pricing_plan_id":"cebpf4jnsgd1na2vs0mg"},{"bike_id":"8a820efc-7584-4e57-bc6f-471c5345d18f","system_id":"levelo_inurba_marseille","lat":43.28475,"lon":5.38415,"is_reserved":false,"is_disabled":false,"rental_uris":{"android":"levelo://app?vid=8a820efc-7584-4e57-bc6f-471c5345d18f","ios":"levelo://app?vid=8a820efc-7584-4e57-bc6f-471c5345d18f"},"vehicle_type_id":"4","last_reported":1735067215,"current_range_meters":38800,"station_id":"ce4bh512rcd13ifvqe3g","pricing_plan_id":"cebpf4jnsgd1na2vs0mg"},{"bike_id":"00056a93-07fd-486f-80f4-3016f59a9c57","system_id":"levelo_inurba_marseille","lat":43.29568,"lon":5.37513,"is_reserved":false,"is_disabled":false,"rental_uris":{"android":"levelo://app?vid=00056a93-07fd-486f-80f4-3016f59a9c57","ios":"levelo://app?vid=00056a93-07fd-486f-80f4-3016f59a9c57"},"vehicle_type_id":"4","last_reported":1735067215,"current_range_meters":26000,"station_id":"ce4bgh92rcd13ifvqb50","pricing_plan_id":"cebpf4jnsgd1na2vs0mg"},{"bike_id":"bea19fdb-8eb3-4f91-a4cd-d59bd8812761","system_id":"levelo_inurba_marseille","lat":43.23149,"lon":5.43717,"is_reserved":false,"is_disabled":false,"rental_uris":{"android":"levelo://app?vid=bea19fdb-8eb3-4f91-a4cd-d59bd8812761","ios":"levelo://app?vid=bea19fdb-8eb3-4f91-a4cd-d59bd8812761"},"vehicle_type_id":"4","last_reported":1735067215,"current_range_meters":38400,"station_id":"ce4bhmp2rcd13ifvqgog","pricing_plan_id":"cebpf4jnsgd1na2vs0mg"},{"bike_id":"d7083b66-8af0-4c6b-8299-5b0c4e022bd2","system_id":"levelo_inurba_marseille","lat":43.28,"lon":5.40002,"is_reserved":false,"is_disabled":false,"rental_uris":{"android":"levelo://app?vid=d7083b66-8af0-4c6b-8299-5b0c4e022bd2","ios":"levelo://app?vid=d7083b66-8af0-4c6b-8299-5b0c4e022bd2"},"vehicle_type_id":"4","last_reported":1735067215,"current_range_meters":32400,"station_id":"ce4bho92rcd13ifvqh4g","pricing_plan_id":"cebpf4jnsgd1na2vs0mg"},{"bike_id":"673ed0fe-3027-4e1f-9efc-2804b0e32190","system_id":"levelo_inurba_marseille","lat":43.2668,"lon":5.38271,"is_reserved":false,"is_disabled":false,"rental_uris":{"android":"levelo://app?vid=673ed0fe-3027-4e1f-9efc-2804b0e32190","ios":"levelo://app?vid=673ed0fe-3027-4e1f-9efc-2804b0e32190"},"vehicle_type_id":"4","last_reported":1735067215,"current_range_meters":32400,"station_id":"ce4bhg92rcd13ifvqf90","pricing_plan_id":"cebpf4jnsgd1na2vs0mg"},{"bike_id":"6301200f-0a21-434a-9aaa-37a5ff71b851","system_id":"levelo_inurba_marseille","lat":43.26218,"lon":5.37442,"is_reserved":false,"is_disabled":false,"rental_uris":{"android":"levelo://app?vid=6301200f-0a21-434a-9aaa-37a5ff71b851","ios":"levelo://app?vid=6301200f-0a21-434a-9aaa-37a5ff71b851"},"vehicle_type_id":"4","last_reported":1735067215,"current_range_meters":22000,"station_id":"ce4bhgp2rcd13ifvqfc0","pricing_plan_id":"cebpf4jnsgd1na2vs0mg"},{"bike_id":"149a930f-0d56-4a1b-a6ca-31f1c91695ae","system_id":"levelo_inurba_marseille","lat":43.30205,"lon":5.39457,"is_reserved":false,"is_disabled":false,"rental_uris":{"android":"levelo://app?vid=149a930f-0d56-4a1b-a6ca-31f1c91695ae","ios":"levelo://app?vid=149a930f-0d56-4a1b-a6ca-31f1c91695ae"},"vehicle_type_id":"4","last_reported":1735067215,"current_range_meters":38400,"station_id":"ce4bh0p2rcd13ifvqd70","pricing_plan_id":"cebpf4jnsgd1na2vs0mg"},{"bike_id":"18bae43d-db69-4109-bad1-67a273db86d7","system_id":"levelo_inurba_marseille","lat":43.3015,"lon":5.38783,"is_reserved":false,"is_disabled":false,"rental_uris":{"android":"levelo://app?vid=18bae43d-db69-4109-bad1-67a273db86d7","ios":"levelo://app?vid=18bae43d-db69-4109-bad1-67a273db86d7"},"vehicle_type_id":"4","last_reported":1735067215,"current_range_meters":6400,"station_id":"ce4bhoh2rcd13ifvqh6g","pricing_plan_id":"cebpf4jnsgd1na2vs0mg"},{"bike_id":"00f48cc5-7b09-46ec-b9ca-2e1aaf8ec412","system_id":"levelo_inurba_marseille","lat":43.30428,"lon":5.38889,"is_reserved":false,"is_disabled":false,"rental_uris":{"android":"levelo://app?vid=00f48cc5-7b09-46ec-b9ca-2e1aaf8ec412","ios":"levelo://app?vid=00f48cc5-7b09-46ec-b9ca-2e1aaf8ec412"},"vehicle_type_id":"4","last_reported":1735067215,"current_range_meters":36800,"station_id":"ce4bgk12rcd13ifvqbi0","pricing_plan_id":"cebpf4jnsgd1na2vs0mg"},{"bike_id":"8aa29a25-71b0-47b4-8794-3774a275bf08","system_id":"levelo_inurba_marseille","lat":43.271716,"lon":5.409888,"is_reserved":false,"is_disabled":false,"rental_uris":{"android":"levelo://app?vid=8aa29a25-71b0-47b4-8794-3774a275bf08","ios":"levelo://app?vid=8aa29a25-71b0-47b4-8794-3774a275bf08"},"vehicle_type_id":"4","last_reported":1735067215,"current_range_meters":12800,"station_id":"ce4bhl12rcd13ifvqgf0","pricing_plan_id":"cebpf4jnsgd1na2vs0mg"},{"bike_id":"50771762-6294-492b-bae5-db8bd88e73ed","system_id":"levelo_inurba_marseille","lat":43.27424,"lon":5.39411,"is_reserved":false,"is_disabled":false,"rental_uris":{"android":"levelo://app?vid=50771762-6294-492b-bae5-db8bd88e73ed","ios":"levelo://app?vid=50771762-6294-492b-bae5-db8bd88e73ed"},"vehicle_type_id":"4","last_reported":1735067215,"current_range_meters":38800,"station_id":"ce4bhdp2rcd13ifvqf20","pricing_plan_id":"cebpf4jnsgd1na2vs0mg"},{"bike_id":"1cb557c4-545b-4c35-b703-e01791582cd6","system_id":"levelo_inurba_marseille","lat":43.28071,"lon":5.39651,"is_reserved":false,"is_disabled":false,"rental_uris":{"android":"levelo://app?vid=1cb557c4-545b-4c35-b703-e01791582cd6","ios":"levelo://app?vid=1cb557c4-545b-4c35-b703-e01791582cd6"},"vehicle_type_id":"4","last_reported":1735067215,"current_range_meters":29600,"station_id":"ce4bho12rcd13ifvqh2g","pricing_plan_id":"cebpf4jnsgd1na2vs0mg"},{"bike_id":"79daacaf-40c6-41bf-8b74-c5c9a9bb7597","system_id":"levelo_inurba_marseille","lat":43.2886,"lon":5.39322,"is_reserved":false,"is_disabled":true,"rental_uris":{"android":"levelo://app?vid=79daacaf-40c6-41bf-8b74-c5c9a9bb7597","ios":"levelo://app?vid=79daacaf-40c6-41bf-8b74-c5c9a9bb7597"},"vehicle_type_id":"4","last_reported":1735067215,"current_range_meters":22000,"station_id":"ce4bh2p2rcd13ifvqdi0","pricing_plan_id":"cebpf4jnsgd1na2vs0mg"},{"bike_id":"82719b16-0394-44a1-963a-3161d6b762b8","system_id":"levelo_inurba_marseille","lat":43.29625,"lon":5.37156,"is_reserved":false,"is_disabled":false,"rental_uris":{"android":"levelo://app?vid=82719b16-0394-44a1-963a-3161d6b762b8","ios":"levelo://app?vid=82719b16-0394-44a1-963a-3161d6b762b8"},"vehicle_type_id":"4","last_reported":1735067215,"current_range_meters":38400,"station_id":"ce4bgnh2rcd13ifvqc0g","pricing_plan_id":"cebpf4jnsgd1na2vs0mg"},{"bike_id":"e17a11e0-b3c6-47c1-be20-5643d7d7457e","system_id":"levelo_inurba_marseille","lat":43.31285,"lon":5.40151,"is_reserved":false,"is_disabled":false,"rental_uris":{"android":"levelo://app?vid=e17a11e0-b3c6-47c1-be20-5643d7d7457e","ios":"levelo://app?vid=e17a11e0-b3c6-47c1-be20-5643d7d7457e"},"vehicle_type_id":"4","last_reported":1735067215,"current_range_meters":38800,"station_id":"ce4bh092rcd13ifvqd30","pricing_plan_id":"cebpf4jnsgd1na2vs0mg"},{"bike_id":"c5315344-fd5d-41fb-a9a2-9d011cd33821","system_id":"levelo_inurba_marseille","lat":43.3147,"lon":5.37274,"is_reserved":false,"is_disabled":false,"rental_uris":{"android":"levelo://app?vid=c5315344-fd5d-41fb-a9a2-9d011cd33821","ios":"levelo://app?vid=c5315344-fd5d-41fb-a9a2-9d011cd33821"},"vehicle_type_id":"4","last_reported":1735067215,"current_range_meters":12400,"station_id":"ce4bgt12rcd13ifvqcd0","pricing_plan_id":"cebpf4jnsgd1na2vs0mg"},{"bike_id":"af0b1ef8-a807-4b05-8aca-f6c986c6d4b6","system_id":"levelo_inurba_marseille","lat":43.33606,"lon":5.41012,"is_reserved":false,"is_disabled":false,"rental_uris":{"android":"levelo://app?vid=af0b1ef8-a807-4b05-8aca-f6c986c6d4b6","ios":"levelo://app?vid=af0b1ef8-a807-4b05-8aca-f6c986c6d4b6"},"vehicle_type_id":"4","last_reported":1735067215,"current_range_meters":28000,"station_id":"ce4bhqh2rcd13ifvqhmg","pricing_plan_id":"cebpf4jnsgd1na2vs0mg"},{"bike_id":"4a35463d-6286-4212-a2c7-04e728adcd62","system_id":"levelo_inurba_marseille","lat":43.28112,"lon":5.37854,"is_reserved":false,"is_disabled":false,"rental_uris":{"android":"levelo://app?vid=4a35463d-6286-4212-a2c7-04e728adcd62","ios":"levelo://app?vid=4a35463d-6286-4212-a2c7-04e728adcd62"},"vehicle_type_id":"4","last_reported":1735067215,"current_range_meters":38800,"station_id":"ce4bha12rcd13ifvqee0","pricing_plan_id":"cebpf4jnsgd1na2vs0mg"},{"bike_id":"9e57916c-72d8-4475-97bc-a8057a01ff62","system_id":"levelo_inurba_marseille","lat":43.29309,"lon":5.37155,"is_reserved":false,"is_disabled":false,"rental_uris":{"android":"levelo://app?vid=9e57916c-72d8-4475-97bc-a8057a01ff62","ios":"levelo://app?vid=9e57916c-72d8-4475-97bc-a8057a01ff62"},"vehicle_type_id":"4","last_reported":1735067215,"current_range_meters":38800,"station_id":"ce4bgh92rcd13ifvqb40","pricing_plan_id":"cebpf4jnsgd1na2vs0mg"},{"bike_id":"ec443fa1-27d4-4aa3-81fc-791ebc135535","system_id":"levelo_inurba_marseille","lat":43.29404,"lon":5.38701,"is_reserved":false,"is_disabled":false,"rental_uris":{"android":"levelo://app?vid=ec443fa1-27d4-4aa3-81fc-791ebc135535","ios":"levelo://app?vid=ec443fa1-27d4-4aa3-81fc-791ebc135535"},"vehicle_type_id":"4","last_reported":1735067215,"current_range_meters":38800,"station_id":"ce4bh2h2rcd13ifvqdh0","pricing_plan_id":"cebpf4jnsgd1na2vs0mg"},{"bike_id":"4f5db02c-99f9-460e-a880-3ca7100df048","system_id":"levelo_inurba_marseille","lat":43.27415,"lon":5.39384,"is_reserved":false,"is_disabled":false,"rental_uris":{"android":"levelo://app?vid=4f5db02c-99f9-460e-a880-3ca7100df048","ios":"levelo://app?vid=4f5db02c-99f9-460e-a880-3ca7100df048"},"vehicle_type_id":"4","last_reported":1735067215,"current_range_meters":39200,"station_id":"ce4bhdp2rcd13ifvqf20","pricing_plan_id":"cebpf4jnsgd1na2vs0mg"},{"bike_id":"fb0e9af5-7d6b-441c-998e-0381a1fe31bb","system_id":"levelo_inurba_marseille","lat":43.257193,"lon":5.41107,"is_reserved":false,"is_disabled":false,"rental_uris":{"android":"levelo://app?vid=fb0e9af5-7d6b-441c-998e-0381a1fe31bb","ios":"levelo://app?vid=fb0e9af5-7d6b-441c-998e-0381a1fe31bb"},"vehicle_type_id":"4","last_reported":1735067215,"current_range_meters":32400,"station_id":"ce4bhkp2rcd13ifvqgd0","pricing_plan_id":"cebpf4jnsgd1na2vs0mg"},{"bike_id":"5d35556a-77eb-471a-9074-b9042a3815ab","system_id":"levelo_inurba_marseille","lat":43.296069,"lon":5.381013,"is_reserved":false,"is_disabled":false,"rental_uris":{"android":"levelo://app?vid=5d35556a-77eb-471a-9074-b9042a3815ab","ios":"levelo://app?vid=5d35556a-77eb-471a-9074-b9042a3815ab"},"vehicle_type_id":"4","last_reported":1735067215,"current_range_meters":28000,"station_id":"ce4bgl12rcd13ifvqbo0","pricing_plan_id":"cebpf4jnsgd1na2vs0mg"},{"bike_id":"537ef1bf-3a78-45af-b334-3a2c52a599a8","system_id":"levelo_inurba_marseille","lat":43.3414,"lon":5.40901,"is_reserved":false,"is_disabled":false,"rental_uris":{"android":"levelo://app?vid=537ef1bf-3a78-45af-b334-3a2c52a599a8","ios":"levelo://app?vid=537ef1bf-3a78-45af-b334-3a2c52a599a8"},"vehicle_type_id":"4","last_reported":1735067215,"current_range_meters":30800,"station_id":"ce4bhqh2rcd13ifvqhlg","pricing_plan_id":"cebpf4jnsgd1na2vs0mg"},{"bike_id":"e5ec77c8-648b-4bda-921a-2babefb619a7","system_id":"levelo_inurba_marseille","lat":43.30145,"lon":5.39857,"is_reserved":false,"is_disabled":false,"rental_uris":{"android":"levelo://app?vid=e5ec77c8-648b-4bda-921a-2babefb619a7","ios":"levelo://app?vid=e5ec77c8-648b-4bda-921a-2babefb619a7"},"vehicle_type_id":"4","last_reported":1735067215,"current_range_meters":39200,"station_id":"ce4bh0h2rcd13ifvqd40","pricing_plan_id":"cebpf4jnsgd1na2vs0mg"},{"bike_id":"756839ee-07df-4d53-919d-83401b3e3d8e","system_id":"levelo_inurba_marseille","lat":43.25577,"lon":5.38223,"is_reserved":false,"is_disabled":false,"rental_uris":{"android":"levelo://app?vid=756839ee-07df-4d53-919d-83401b3e3d8e","ios":"levelo://app?vid=756839ee-07df-4d53-919d-83401b3e3d8e"},"vehicle_type_id":"4","last_reported":1735067215,"current_range_meters":27600,"station_id":"ce4bhih2rcd13ifvqfs0","pricing_plan_id":"cebpf4jnsgd1na2vs0mg"},{"bike_id":"75c21f1d-fb28-4032-9891-3a5c2003ce40","system_id":"levelo_inurba_marseille","lat":43.30937,"lon":5.40148,"is_reserved":false,"is_disabled":false,"rental_uris":{"android":"levelo://app?vid=75c21f1d-fb28-4032-9891-3a5c2003ce40","ios":"levelo://app?vid=75c21f1d-fb28-4032-9891-3a5c2003ce40"},"vehicle_type_id":"4","last_reported":1735067215,"current_range_meters":38800,"station_id":"ce4bgvp2rcd13ifvqct0","pricing_plan_id":"cebpf4jnsgd1na2vs0mg"},{"bike_id":"b07e0204-2c57-49d1-a1f7-320de8610e25","system_id":"levelo_inurba_marseille","lat":43.29402,"lon":5.37344,"is_reserved":false,"is_disabled":true,"rental_uris":{"android":"levelo://app?vid=b07e0204-2c57-49d1-a1f7-320de8610e25","ios":"levelo://app?vid=b07e0204-2c57-49d1-a1f7-320de8610e25"},"vehicle_type_id":"4","last_reported":1735067215,"current_range_meters":18800,"station_id":"","pricing_plan_id":"cebpf4jnsgd1na2vs0mg"},{"bike_id":"12b78625-66c1-44c5-95ef-d65f51cfefcd","system_id":"levelo_inurba_marseille","lat":43.30897,"lon":5.36842,"is_reserved":false,"is_disabled":false,"rental_uris":{"android":"levelo://app?vid=12b78625-66c1-44c5-95ef-d65f51cfefcd","ios":"levelo://app?vid=12b78625-66c1-44c5-95ef-d65f51cfefcd"},"vehicle_type_id":"4","last_reported":1735067215,"current_range_meters":36800,"station_id":"ce4bgn92rcd13ifvqbvg","pricing_plan_id":"cebpf4jnsgd1na2vs0mg"},{"bike_id":"85fabded-8370-4be7-8fdc-f12d6abf8f67","system_id":"levelo_inurba_marseille","lat":43.27559,"lon":5.38432,"is_reserved":false,"is_disabled":false,"rental_uris":{"android":"levelo://app?vid=85fabded-8370-4be7-8fdc-f12d6abf8f67","ios":"levelo://app?vid=85fabded-8370-4be7-8fdc-f12d6abf8f67"},"vehicle_type_id":"4","last_reported":1735067215,"current_range_meters":34000,"station_id":"ce4bhh92rcd13ifvqfi0","pricing_plan_id":"cebpf4jnsgd1na2vs0mg"},{"bike_id":"41632095-6d88-40a7-b2e7-bb5f6e7b1393","system_id":"levelo_inurba_marseille","lat":43.26558,"lon":5.37282,"is_reserved":false,"is_disabled":false,"rental_uris":{"android":"levelo://app?vid=41632095-6d88-40a7-b2e7-bb5f6e7b1393","ios":"levelo://app?vid=41632095-6d88-40a7-b2e7-bb5f6e7b1393"},"vehicle_type_id":"4","last_reported":1735067215,"current_range_meters":20000,"station_id":"ce4bhg12rcd13ifvqf70","pricing_plan_id":"cebpf4jnsgd1na2vs0mg"},{"bike_id":"6dd041ef-a1ba-4337-8648-b463ddf038b5","system_id":"levelo_inurba_marseille","lat":43.24806,"lon":5.37458,"is_reserved":false,"is_disabled":false,"rental_uris":{"android":"levelo://app?vid=6dd041ef-a1ba-4337-8648-b463ddf038b5","ios":"levelo://app?vid=6dd041ef-a1ba-4337-8648-b463ddf038b5"},"vehicle_type_id":"4","last_reported":1735067215,"current_range_meters":25200,"station_id":"ce4bhgh2rcd13ifvqfb0","pricing_plan_id":"cebpf4jnsgd1na2vs0mg"},{"bike_id":"178d2327-1d17-48d4-92fe-75ce7ae99db3","system_id":"levelo_inurba_marseille","lat":43.2953,"lon":5.37498,"is_reserved":false,"is_disabled":false,"rental_uris":{"android":"levelo://app?vid=178d2327-1d17-48d4-92fe-75ce7ae99db3","ios":"levelo://app?vid=178d2327-1d17-48d4-92fe-75ce7ae99db3"},"vehicle_type_id":"4","last_reported":1735067215,"current_range_meters":38800,"station_id":"ce4bgkp2rcd13ifvqbmg","pricing_plan_id":"cebpf4jnsgd1na2vs0mg"},{"bike_id":"19034a80-3397-432f-b4d4-58a89246bb4e","system_id":"levelo_inurba_marseille","lat":43.30424,"lon":5.39753,"is_reserved":false,"is_disabled":false,"rental_uris":{"android":"levelo://app?vid=19034a80-3397-432f-b4d4-58a89246bb4e","ios":"levelo://app?vid=19034a80-3397-432f-b4d4-58a89246bb4e"},"vehicle_type_id":"4","last_reported":1735067215,"current_range_meters":35200,"station_id":"ce4bh092rcd13ifvqd20","pricing_plan_id":"cebpf4jnsgd1na2vs0mg"},{"bike_id":"d0928a2e-5cea-450a-a669-d6ca6d307f7d","system_id":"levelo_inurba_marseille","lat":43.31724,"lon":5.42411,"is_reserved":false,"is_disabled":false,"rental_uris":{"android":"levelo://app?vid=d0928a2e-5cea-450a-a669-d6ca6d307f7d","ios":"levelo://app?vid=d0928a2e-5cea-450a-a669-d6ca6d307f7d"},"vehicle_type_id":"4","last_reported":1735067215,"current_range_meters":38800,"station_id":"ce4bhp92rcd13ifvqhbg","pricing_plan_id":"cebpf4jnsgd1na2vs0mg"},{"bike_id":"a52b6a95-03b2-4a39-91a2-596fa5130c55","system_id":"levelo_inurba_marseille","lat":43.26927,"lon":5.38908,"is_reserved":false,"is_disabled":false,"rental_uris":{"android":"levelo://app?vid=a52b6a95-03b2-4a39-91a2-596fa5130c55","ios":"levelo://app?vid=a52b6a95-03b2-4a39-91a2-596fa5130c55"},"vehicle_type_id":"4","last_reported":1735067215,"current_range_meters":38800,"station_id":"ce4bhhh2rcd13ifvqfl0","pricing_plan_id":"cebpf4jnsgd1na2vs0mg"},{"bike_id":"4c414f1b-f40e-4a37-8051-77fc6cbc936d","system_id":"levelo_inurba_marseille","lat":43.23972,"lon":5.36611,"is_reserved":false,"is_disabled":false,"rental_uris":{"android":"levelo://app?vid=4c414f1b-f40e-4a37-8051-77fc6cbc936d","ios":"levelo://app?vid=4c414f1b-f40e-4a37-8051-77fc6cbc936d"},"vehicle_type_id":"4","last_reported":1735067215,"current_range_meters":9600,"station_id":"ce4bhi12rcd13ifvqfp0","pricing_plan_id":"cebpf4jnsgd1na2vs0mg"},{"bike_id":"1ca6e35e-4519-4a08-8f12-cc97c32227ac","system_id":"levelo_inurba_marseille","lat":43.2978,"lon":5.37092,"is_reserved":false,"is_disabled":false,"rental_uris":{"android":"levelo://app?vid=1ca6e35e-4519-4a08-8f12-cc97c32227ac","ios":"levelo://app?vid=1ca6e35e-4519-4a08-8f12-cc97c32227ac"},"vehicle_type_id":"4","last_reported":1735067215,"current_range_meters":38800,"station_id":"ce4bgop2rcd13ifvqc1g","pricing_plan_id":"cebpf4jnsgd1na2vs0mg"},{"bike_id":"5956c99d-10e6-4dc2-8784-a2701a9e178a","system_id":"levelo_inurba_marseille","lat":43.24665,"lon":5.38163,"is_reserved":false,"is_disabled":false,"rental_uris":{"android":"levelo://app?vid=5956c99d-10e6-4dc2-8784-a2701a9e178a","ios":"levelo://app?vid=5956c99d-10e6-4dc2-8784-a2701a9e178a"},"vehicle_type_id":"4","last_reported":1735067215,"current_range_meters":36000,"station_id":"ce4bhih2rcd13ifvqfr0","pricing_plan_id":"cebpf4jnsgd1na2vs0mg"},{"bike_id":"db4eb3f1-a618-4c48-a0e8-20afbaef5fd1","system_id":"levelo_inurba_marseille","lat":43.309001,"lon":5.368513,"is_reserved":false,"is_disabled":false,"rental_uris":{"android":"levelo://app?vid=db4eb3f1-a618-4c48-a0e8-20afbaef5fd1","ios":"levelo://app?vid=db4eb3f1-a618-4c48-a0e8-20afbaef5fd1"},"vehicle_type_id":"4","last_reported":1735067215,"current_range_meters":16000,"station_id":"ce4bgn92rcd13ifvqbvg","pricing_plan_id":"cebpf4jnsgd1na2vs0mg"},{"bike_id":"7bb30ece-0af1-4c43-a603-5d1612bde6de","system_id":"levelo_inurba_marseille","lat":43.29033,"lon":5.37567,"is_reserved":false,"is_disabled":false,"rental_uris":{"android":"levelo://app?vid=7bb30ece-0af1-4c43-a603-5d1612bde6de","ios":"levelo://app?vid=7bb30ece-0af1-4c43-a603-5d1612bde6de"},"vehicle_type_id":"4","last_reported":1735067215,"current_range_meters":36800,"station_id":"ce4bh692rcd13ifvqe90","pricing_plan_id":"cebpf4jnsgd1na2vs0mg"},{"bike_id":"c9751a8a-79d3-40c3-84a6-e2e10badf950","system_id":"levelo_inurba_marseille","lat":43.29925,"lon":5.3814,"is_reserved":false,"is_disabled":false,"rental_uris":{"android":"levelo://app?vid=c9751a8a-79d3-40c3-84a6-e2e10badf950","ios":"levelo://app?vid=c9751a8a-79d3-40c3-84a6-e2e10badf950"},"vehicle_type_id":"4","last_reported":1735067215,"current_range_meters":39200,"station_id":"ce4bgj12rcd13ifvqbc0","pricing_plan_id":"cebpf4jnsgd1na2vs0mg"},{"bike_id":"838230b7-e7c6-4ed2-908e-60cfb2c48ed7","system_id":"levelo_inurba_marseille","lat":43.2846,"lon":5.35888,"is_reserved":false,"is_disabled":false,"rental_uris":{"android":"levelo://app?vid=838230b7-e7c6-4ed2-908e-60cfb2c48ed7","ios":"levelo://app?vid=838230b7-e7c6-4ed2-908e-60cfb2c48ed7"},"vehicle_type_id":"4","last_reported":1735067215,"current_range_meters":10800,"station_id":"ce4bhah2rcd13ifvqei0","pricing_plan_id":"cebpf4jnsgd1na2vs0mg"},{"bike_id":"00f2299e-6e78-4b67-898f-d05e3c74d6f8","system_id":"levelo_inurba_marseille","lat":43.27406,"lon":5.39355,"is_reserved":false,"is_disabled":false,"rental_uris":{"android":"levelo://app?vid=00f2299e-6e78-4b67-898f-d05e3c74d6f8","ios":"levelo://app?vid=00f2299e-6e78-4b67-898f-d05e3c74d6f8"},"vehicle_type_id":"4","last_reported":1735067215,"current_range_meters":16800,"station_id":"ce4bhdp2rcd13ifvqf20","pricing_plan_id":"cebpf4jnsgd1na2vs0mg"},{"bike_id":"2783a564-5266-4683-89e7-8e2557f19dd5","system_id":"levelo_inurba_marseille","lat":43.29647,"lon":5.37158,"is_reserved":false,"is_disabled":false,"rental_uris":{"android":"levelo://app?vid=2783a564-5266-4683-89e7-8e2557f19dd5","ios":"levelo://app?vid=2783a564-5266-4683-89e7-8e2557f19dd5"},"vehicle_type_id":"4","last_reported":1735067215,"current_range_meters":8800,"station_id":"ce4bgnh2rcd13ifvqc0g","pricing_plan_id":"cebpf4jnsgd1na2vs0mg"},{"bike_id":"6bca16b1-3eb4-4299-91bc-9740eea99592","system_id":"levelo_inurba_marseille","lat":43.29835,"lon":5.36271,"is_reserved":false,"is_disabled":false,"rental_uris":{"android":"levelo://app?vid=6bca16b1-3eb4-4299-91bc-9740eea99592","ios":"levelo://app?vid=6bca16b1-3eb4-4299-91bc-9740eea99592"},"vehicle_type_id":"4","last_reported":1735067215,"current_range_meters":38800,"station_id":"ce4bgpp2rcd13ifvqc3g","pricing_plan_id":"cebpf4jnsgd1na2vs0mg"},{"bike_id":"3dcfbc8b-e73d-4cb6-b242-a024a7453bed","system_id":"levelo_inurba_marseille","lat":43.31124,"lon":5.37757,"is_reserved":false,"is_disabled":false,"rental_uris":{"android":"levelo://app?vid=3dcfbc8b-e73d-4cb6-b242-a024a7453bed","ios":"levelo://app?vid=3dcfbc8b-e73d-4cb6-b242-a024a7453bed"},"vehicle_type_id":"4","last_reported":1735067215,"current_range_meters":30000,"station_id":"ce4bgt92rcd13ifvqcg0","pricing_plan_id":"cebpf4jnsgd1na2vs0mg"},{"bike_id":"76645d08-9114-4a5f-a5f1-858abed3e325","system_id":"levelo_inurba_marseille","lat":43.29709,"lon":5.36603,"is_reserved":false,"is_disabled":false,"rental_uris":{"android":"levelo://app?vid=76645d08-9114-4a5f-a5f1-858abed3e325","ios":"levelo://app?vid=76645d08-9114-4a5f-a5f1-858abed3e325"},"vehicle_type_id":"4","last_reported":1735067215,"current_range_meters":38800,"station_id":"ce4bgn12rcd13ifvqbt0","pricing_plan_id":"cebpf4jnsgd1na2vs0mg"},{"bike_id":"e05bf4ea-d74d-49ed-a7dc-94fa3a3cc350","system_id":"levelo_inurba_marseille","lat":43.32356,"lon":5.36747,"is_reserved":false,"is_disabled":false,"rental_uris":{"android":"levelo://app?vid=e05bf4ea-d74d-49ed-a7dc-94fa3a3cc350","ios":"levelo://app?vid=e05bf4ea-d74d-49ed-a7dc-94fa3a3cc350"},"vehicle_type_id":"4","last_reported":1735067215,"current_range_meters":37600,"station_id":"ce4bhsh2rcd13ifvqi2g","pricing_plan_id":"cebpf4jnsgd1na2vs0mg"},{"bike_id":"ebf68b28-9dbf-4ed8-a016-868e63c0edc1","system_id":"levelo_inurba_marseille","lat":43.29779,"lon":5.37092,"is_reserved":false,"is_disabled":false,"rental_uris":{"android":"levelo://app?vid=ebf68b28-9dbf-4ed8-a016-868e63c0edc1","ios":"levelo://app?vid=ebf68b28-9dbf-4ed8-a016-868e63c0edc1"},"vehicle_type_id":"4","last_reported":1735067215,"current_range_meters":36400,"station_id":"ce4bgop2rcd13ifvqc1g","pricing_plan_id":"cebpf4jnsgd1na2vs0mg"},{"bike_id":"2217e265-1c11-4717-a1be-e1d88a9cb56d","system_id":"levelo_inurba_marseille","lat":43.31122,"lon":5.37768,"is_reserved":false,"is_disabled":false,"rental_uris":{"android":"levelo://app?vid=2217e265-1c11-4717-a1be-e1d88a9cb56d","ios":"levelo://app?vid=2217e265-1c11-4717-a1be-e1d88a9cb56d"},"vehicle_type_id":"4","last_reported":1735067215,"current_range_meters":22800,"station_id":"ce4bgt92rcd13ifvqcg0","pricing_plan_id":"cebpf4jnsgd1na2vs0mg"},{"bike_id":"7a7b8261-f987-4749-9d9d-0acb49170ae0","system_id":"levelo_inurba_marseille","lat":43.25494,"lon":5.37651,"is_reserved":false,"is_disabled":false,"rental_uris":{"android":"levelo://app?vid=7a7b8261-f987-4749-9d9d-0acb49170ae0","ios":"levelo://app?vid=7a7b8261-f987-4749-9d9d-0acb49170ae0"},"vehicle_type_id":"4","last_reported":1735067215,"current_range_meters":36800,"station_id":"ce4bhh12rcd13ifvqff0","pricing_plan_id":"cebpf4jnsgd1na2vs0mg"},{"bike_id":"25d2bc58-f6d3-4508-aa97-5261c6aa48a4","system_id":"levelo_inurba_marseille","lat":43.30094,"lon":5.39093,"is_reserved":false,"is_disabled":false,"rental_uris":{"android":"levelo://app?vid=25d2bc58-f6d3-4508-aa97-5261c6aa48a4","ios":"levelo://app?vid=25d2bc58-f6d3-4508-aa97-5261c6aa48a4"},"vehicle_type_id":"4","last_reported":1735067215,"current_range_meters":32400,"station_id":"ce4bh192rcd13ifvqdb0","pricing_plan_id":"cebpf4jnsgd1na2vs0mg"},{"bike_id":"842888b9-0281-4137-8179-95fdfc851120","system_id":"levelo_inurba_marseille","lat":43.269433,"lon":5.402437,"is_reserved":false,"is_disabled":false,"rental_uris":{"android":"levelo://app?vid=842888b9-0281-4137-8179-95fdfc851120","ios":"levelo://app?vid=842888b9-0281-4137-8179-95fdfc851120"},"vehicle_type_id":"4","last_reported":1735067215,"current_range_meters":35200,"station_id":"cjm6bp8fraef2m0cb0m0","pricing_plan_id":"cebpf4jnsgd1na2vs0mg"},{"bike_id":"40f34812-b47f-455a-ad69-314dd260ca01","system_id":"levelo_inurba_marseille","lat":43.31099,"lon":5.37794,"is_reserved":false,"is_disabled":false,"rental_uris":{"android":"levelo://app?vid=40f34812-b47f-455a-ad69-314dd260ca01","ios":"levelo://app?vid=40f34812-b47f-455a-ad69-314dd260ca01"},"vehicle_type_id":"4","last_reported":1735067215,"current_range_meters":35200,"station_id":"ce4bgt92rcd13ifvqcg0","pricing_plan_id":"cebpf4jnsgd1na2vs0mg"},{"bike_id":"d58e81d5-d7d2-47e1-bfa6-8384c12c6d38","system_id":"levelo_inurba_marseille","lat":43.2897,"lon":5.37855,"is_reserved":false,"is_disabled":false,"rental_uris":{"android":"levelo://app?vid=d58e81d5-d7d2-47e1-bfa6-8384c12c6d38","ios":"levelo://app?vid=d58e81d5-d7d2-47e1-bfa6-8384c12c6d38"},"vehicle_type_id":"4","last_reported":1735067215,"current_range_meters":8800,"station_id":"ce4bh9p2rcd13ifvqed0","pricing_plan_id":"cebpf4jnsgd1na2vs0mg"},{"bike_id":"584301e6-2901-4c73-97f8-5c258dacc73a","system_id":"levelo_inurba_marseille","lat":43.29973,"lon":5.38497,"is_reserved":false,"is_disabled":false,"rental_uris":{"android":"levelo://app?vid=584301e6-2901-4c73-97f8-5c258dacc73a","ios":"levelo://app?vid=584301e6-2901-4c73-97f8-5c258dacc73a"},"vehicle_type_id":"4","last_reported":1735067215,"current_range_meters":38800,"station_id":"ce4bgj92rcd13ifvqbd0","pricing_plan_id":"cebpf4jnsgd1na2vs0mg"},{"bike_id":"12931312-67fc-419b-8731-e3cf720732bc","system_id":"levelo_inurba_marseille","lat":43.30207,"lon":5.3947,"is_reserved":false,"is_disabled":false,"rental_uris":{"android":"levelo://app?vid=12931312-67fc-419b-8731-e3cf720732bc","ios":"levelo://app?vid=12931312-67fc-419b-8731-e3cf720732bc"},"vehicle_type_id":"4","last_reported":1735067215,"current_range_meters":38800,"station_id":"ce4bh0p2rcd13ifvqd70","pricing_plan_id":"cebpf4jnsgd1na2vs0mg"},{"bike_id":"f6b53831-a509-423f-92ef-cd957a87e01c","system_id":"levelo_inurba_marseille","lat":43.29007,"lon":5.35613,"is_reserved":false,"is_disabled":false,"rental_uris":{"android":"levelo://app?vid=f6b53831-a509-423f-92ef-cd957a87e01c","ios":"levelo://app?vid=f6b53831-a509-423f-92ef-cd957a87e01c"},"vehicle_type_id":"4","last_reported":1735067215,"current_range_meters":38000,"station_id":"ce4bhb92rcd13ifvqen0","pricing_plan_id":"cebpf4jnsgd1na2vs0mg"},{"bike_id":"04d3f0c7-a5a2-4301-9d35-89c0dd2bc4f8","system_id":"levelo_inurba_marseille","lat":43.27572,"lon":5.38419,"is_reserved":false,"is_disabled":false,"rental_uris":{"android":"levelo://app?vid=04d3f0c7-a5a2-4301-9d35-89c0dd2bc4f8","ios":"levelo://app?vid=04d3f0c7-a5a2-4301-9d35-89c0dd2bc4f8"},"vehicle_type_id":"4","last_reported":1735067215,"current_range_meters":39200,"station_id":"ce4bhh92rcd13ifvqfi0","pricing_plan_id":"cebpf4jnsgd1na2vs0mg"},{"bike_id":"427bc867-789e-4b23-8420-6d4d646a7d72","system_id":"levelo_inurba_marseille","lat":43.30816,"lon":5.38164,"is_reserved":false,"is_disabled":false,"rental_uris":{"android":"levelo://app?vid=427bc867-789e-4b23-8420-6d4d646a7d72","ios":"levelo://app?vid=427bc867-789e-4b23-8420-6d4d646a7d72"},"vehicle_type_id":"4","last_reported":1735067215,"current_range_meters":38800,"station_id":"ce4bgt12rcd13ifvqce0","pricing_plan_id":"cebpf4jnsgd1na2vs0mg"},{"bike_id":"bcb51fee-0272-4a71-b9bd-d89ff73c0efe","system_id":"levelo_inurba_marseille","lat":43.29714,"lon":5.36615,"is_reserved":false,"is_disabled":false,"rental_uris":{"android":"levelo://app?vid=bcb51fee-0272-4a71-b9bd-d89ff73c0efe","ios":"levelo://app?vid=bcb51fee-0272-4a71-b9bd-d89ff73c0efe"},"vehicle_type_id":"4","last_reported":1735067215,"current_range_meters":39200,"station_id":"ce4bgn12rcd13ifvqbt0","pricing_plan_id":"cebpf4jnsgd1na2vs0mg"},{"bike_id":"8470d75c-1a4b-4272-b9c5-cce9edcaac69","system_id":"levelo_inurba_marseille","lat":43.26488,"lon":5.39544,"is_reserved":false,"is_disabled":false,"rental_uris":{"android":"levelo://app?vid=8470d75c-1a4b-4272-b9c5-cce9edcaac69","ios":"levelo://app?vid=8470d75c-1a4b-4272-b9c5-cce9edcaac69"},"vehicle_type_id":"4","last_reported":1735067215,"current_range_meters":28800,"station_id":"ce4bhi12rcd13ifvqfq0","pricing_plan_id":"cebpf4jnsgd1na2vs0mg"},{"bike_id":"72ad95bc-fa74-4b73-a8ce-6fdfe56679aa","system_id":"levelo_inurba_marseille","lat":43.30883,"lon":5.37205,"is_reserved":false,"is_disabled":false,"rental_uris":{"android":"levelo://app?vid=72ad95bc-fa74-4b73-a8ce-6fdfe56679aa","ios":"levelo://app?vid=72ad95bc-fa74-4b73-a8ce-6fdfe56679aa"},"vehicle_type_id":"4","last_reported":1735067215,"current_range_meters":28000,"station_id":"ce4bguh2rcd13ifvqckg","pricing_plan_id":"cebpf4jnsgd1na2vs0mg"},{"bike_id":"0f1e0fa6-5237-4f67-b177-ce610325d4bb","system_id":"levelo_inurba_marseille","lat":43.30215,"lon":5.39468,"is_reserved":false,"is_disabled":false,"rental_uris":{"android":"levelo://app?vid=0f1e0fa6-5237-4f67-b177-ce610325d4bb","ios":"levelo://app?vid=0f1e0fa6-5237-4f67-b177-ce610325d4bb"},"vehicle_type_id":"4","last_reported":1735067215,"current_range_meters":38400,"station_id":"ce4bh0p2rcd13ifvqd70","pricing_plan_id":"cebpf4jnsgd1na2vs0mg"},{"bike_id":"dd55c862-7efa-48b0-9eaa-28fa09652d9e","system_id":"levelo_inurba_marseille","lat":43.29251,"lon":5.40906,"is_reserved":false,"is_disabled":true,"rental_uris":{"android":"levelo://app?vid=dd55c862-7efa-48b0-9eaa-28fa09652d9e","ios":"levelo://app?vid=dd55c862-7efa-48b0-9eaa-28fa09652d9e"},"vehicle_type_id":"4","last_reported":1735067215,"current_range_meters":0,"station_id":"ce4bh192rcd13ifvqdc0","pricing_plan_id":"cebpf4jnsgd1na2vs0mg"},{"bike_id":"89c31185-79e8-41ba-aeec-7ee23fd07219","system_id":"levelo_inurba_marseille","lat":43.26943,"lon":5.38654,"is_reserved":false,"is_disabled":false,"rental_uris":{"android":"levelo://app?vid=89c31185-79e8-41ba-aeec-7ee23fd07219","ios":"levelo://app?vid=89c31185-79e8-41ba-aeec-7ee23fd07219"},"vehicle_type_id":"4","last_reported":1735067215,"current_range_meters":38800,"station_id":"ce4bhh92rcd13ifvqfh0","pricing_plan_id":"cebpf4jnsgd1na2vs0mg"},{"bike_id":"416ccd23-b5d7-41d8-8d7e-5d2e6c47904e","system_id":"levelo_inurba_marseille","lat":43.31487,"lon":5.37282,"is_reserved":false,"is_disabled":false,"rental_uris":{"android":"levelo://app?vid=416ccd23-b5d7-41d8-8d7e-5d2e6c47904e","ios":"levelo://app?vid=416ccd23-b5d7-41d8-8d7e-5d2e6c47904e"},"vehicle_type_id":"4","last_reported":1735067215,"current_range_meters":19200,"station_id":"ce4bgt12rcd13ifvqcd0","pricing_plan_id":"cebpf4jnsgd1na2vs0mg"},{"bike_id":"dad2569f-c6f1-49c8-b60e-8c397489fca6","system_id":"levelo_inurba_marseille","lat":43.30883,"lon":5.39624,"is_reserved":false,"is_disabled":false,"rental_uris":{"android":"levelo://app?vid=dad2569f-c6f1-49c8-b60e-8c397489fca6","ios":"levelo://app?vid=dad2569f-c6f1-49c8-b60e-8c397489fca6"},"vehicle_type_id":"4","last_reported":1735067215,"current_range_meters":38800,"station_id":"ce4bh012rcd13ifvqcv0","pricing_plan_id":"cebpf4jnsgd1na2vs0mg"},{"bike_id":"eaa4434b-02d6-42f8-bad0-0039e128c298","system_id":"levelo_inurba_marseille","lat":43.27978,"lon":5.38732,"is_reserved":false,"is_disabled":false,"rental_uris":{"android":"levelo://app?vid=eaa4434b-02d6-42f8-bad0-0039e128c298","ios":"levelo://app?vid=eaa4434b-02d6-42f8-bad0-0039e128c298"},"vehicle_type_id":"4","last_reported":1735067215,"current_range_meters":36000,"station_id":"ce4bhg12rcd13ifvqf80","pricing_plan_id":"cebpf4jnsgd1na2vs0mg"},{"bike_id":"2bcdb3fc-f6a1-45f4-9016-4c8285931ba2","system_id":"levelo_inurba_marseille","lat":43.2834,"lon":5.38103,"is_reserved":false,"is_disabled":false,"rental_uris":{"android":"levelo://app?vid=2bcdb3fc-f6a1-45f4-9016-4c8285931ba2","ios":"levelo://app?vid=2bcdb3fc-f6a1-45f4-9016-4c8285931ba2"},"vehicle_type_id":"4","last_reported":1735067215,"current_range_meters":38800,"station_id":"ce4bh412rcd13ifvqdr0","pricing_plan_id":"cebpf4jnsgd1na2vs0mg"},{"bike_id":"fd8af518-a916-43d4-93ef-1e418869e114","system_id":"levelo_inurba_marseille","lat":43.26496,"lon":5.39539,"is_reserved":false,"is_disabled":false,"rental_uris":{"android":"levelo://app?vid=fd8af518-a916-43d4-93ef-1e418869e114","ios":"levelo://app?vid=fd8af518-a916-43d4-93ef-1e418869e114"},"vehicle_type_id":"4","last_reported":1735067215,"current_range_meters":36400,"station_id":"ce4bhi12rcd13ifvqfq0","pricing_plan_id":"cebpf4jnsgd1na2vs0mg"},{"bike_id":"5d814436-4463-40fa-a5d6-db045f053cfd","system_id":"levelo_inurba_marseille","lat":43.29168,"lon":5.37152,"is_reserved":false,"is_disabled":false,"rental_uris":{"android":"levelo://app?vid=5d814436-4463-40fa-a5d6-db045f053cfd","ios":"levelo://app?vid=5d814436-4463-40fa-a5d6-db045f053cfd"},"vehicle_type_id":"4","last_reported":1735067215,"current_range_meters":38800,"station_id":"ce4bha92rcd13ifvqeh0","pricing_plan_id":"cebpf4jnsgd1na2vs0mg"},{"bike_id":"a27fe138-8c26-435f-b99b-3a1b6947b8ea","system_id":"levelo_inurba_marseille","lat":43.28464,"lon":5.38408,"is_reserved":false,"is_disabled":false,"rental_uris":{"android":"levelo://app?vid=a27fe138-8c26-435f-b99b-3a1b6947b8ea","ios":"levelo://app?vid=a27fe138-8c26-435f-b99b-3a1b6947b8ea"},