{"last_updated":1701432804,"ttl":30,"version":"2.2","data":{"bikes":[{"bike_id":"aebb5f1f-3a1e-4323-a4f0-ae83e0b78d14","system_id":"levelo_inurba_marseille","lat":43.313521,"lon":5.367538,"is_reserved":false,"is_disabled":false,"rental_uris":{"android":"levelo://app?vid=aebb5f1f-3a1e-4323-a4f0-ae83e0b78d14","ios":"levelo://app?vid=aebb5f1f-3a1e-4323-a4f0-ae83e0b78d14"},"vehicle_type_id":"4","last_reported":1701432804,"current_range_meters":20800,"station_id":"","pricing_plan_id":"free"},{"bike_id":"181ef21e-081e-431c-93b6-1926705e7c62","system_id":"levelo_inurba_marseille","lat":43.312239,"lon":5.368562,"is_reserved":false,"is_disabled":false,"rental_uris":{"android":"levelo://app?vid=181ef21e-081e-431c-93b6-1926705e7c62","ios":"levelo://app?vid=181ef21e-081e-431c-93b6-1926705e7c62"},"vehicle_type_id":"4","last_reported":1701432804,"current_range_meters":16800,"station_id":"ce4bgl92rcd13ifvqbq0","pricing_plan_id":"free"},{"bike_id":"8a189006-f1a6-4fef-871f-d2f0b68dfdc1","system_id":"levelo_inurba_marseille","lat":43.312239,"lon":5.368562,"is_reserved":false,"is_disabled":false,"rental_uris":{"android":"levelo://app?vid=8a189006-f1a6-4fef-871f-d2f0b68dfdc1","ios":"levelo://app?vid=8a189006-f1a6-4fef-871f-d2f0b68dfdc1"},"vehicle_type_id":"4","last_reported":1701432804,"current_range_meters":12800,"station_id":"ce4bgl92rcd13ifvqbq0","pricing_plan_id":"free"},{"bike_id":"85ebfaaa-3017-45f3-906e-a6c2319c069c","system_id":"levelo_inurba_marseille","lat":43.30872,"lon":5.36859,"is_reserved":false,"is_disabled":false,"rental_uris":{"android":"levelo://app?vid=85ebfaaa-3017-45f3-906e-a6c2319c069c","ios":"levelo://app?vid=85ebfaaa-3017-45f3-906e-a6c2319c069c"},"vehicle_type_id":"4","last_reported":1701432804,"current_range_meters":10800,"station_id":"ce4bgn92rcd13ifvqbvg","pricing_plan_id":"free"},{"bike_id":"a862597d-b0f5-4301-b216-b230a8f6482b","system_id":"levelo_inurba_marseille","lat":43.305712,"lon":5.365641,"is_reserved":false,"is_disabled":false,"rental_uris":{"android":"levelo://app?vid=a862597d-b0f5-4301-b216-b230a8f6482b","ios":"levelo://app?vid=a862597d-b0f5-4301-b216-b230a8f6482b"},"vehicle_type_id":"4","last_reported":1701432804,"current_range_meters":6800,"station_id":"ce4bgs12rcd13ifvqcag","pricing_plan_id":"free"},{"bike_id":"043ca96d-6cca-48e6-aa0d-2ceb2dca8ed4","system_id":"levelo_inurba_marseille","lat":43.305714,"lon":5.365633,"is_reserved":false,"is_disabled":false,"rental_uris":{"android":"levelo://app?vid=043ca96d-6cca-48e6-aa0d-2ceb2dca8ed4","ios":"levelo://app?vid=043ca96d-6cca-48e6-aa0d-2ceb2dca8ed4"},"vehicle_type_id":"4","last_reported":1701432804,"current_range_meters":14000,"station_id":"ce4bgs12rcd13ifvqcag","pricing_plan_id":"free"},{"bike_id":"98051cee-76d9-4b96-abb1-8074c787762b","system_id":"levelo_inurba_marseille","lat":43.305714,"lon":5.365633,"is_reserved":false,"is_disabled":false,"rental_uris":{"android":"levelo://app?vid=98051cee-76d9-4b96-abb1-8074c787762b","ios":"levelo://app?vid=98051cee-76d9-4b96-abb1-8074c787762b"},"vehicle_type_id":"4","last_reported":1701432804,"current_range_meters":12800,"station_id":"ce4bgs12rcd13ifvqcag","pricing_plan_id":"free"},{"bike_id":"83b0f9c9-989f-46d3-ac8f-f473fb60c7fc","system_id":"levelo_inurba_marseille","lat":43.30596,"lon":5.37221,"is_reserved":false,"is_disabled":false,"rental_uris":{"android":"levelo://app?vid=83b0f9c9-989f-46d3-ac8f-f473fb60c7fc","ios":"levelo://app?vid=83b0f9c9-989f-46d3-ac8f-f473fb60c7fc"},"vehicle_type_id":"4","last_reported":1701432804,"current_range_meters":4000,"station_id":"ce4bgqh2rcd13ifvqc4g","pricing_plan_id":"free"},{"bike_id":"7bdbcfe9-924e-49e5-849f-fb7276f261aa","system_id":"levelo_inurba_marseille","lat":43.310556,"lon":5.377462,"is_reserved":false,"is_disabled":false,"rental_uris":{"android":"levelo://app?vid=7bdbcfe9-924e-49e5-849f-fb7276f261aa","ios":"levelo://app?vid=7bdbcfe9-924e-49e5-849f-fb7276f261aa"},"vehicle_type_id":"4","last_reported":1701432804,"current_range_meters":11200,"station_id":"","pricing_plan_id":"free"},{"bike_id":"727d231a-d425-4d8f-ad3f-99b5a47572e8","system_id":"levelo_inurba_marseille","lat":43.30439,"lon":5.36753,"is_reserved":false,"is_disabled":false,"rental_uris":{"android":"levelo://app?vid=727d231a-d425-4d8f-ad3f-99b5a47572e8","ios":"levelo://app?vid=727d231a-d425-4d8f-ad3f-99b5a47572e8"},"vehicle_type_id":"4","last_reported":1701432804,"current_range_meters":28400,"station_id":"","pricing_plan_id":"free"},{"bike_id":"f427a2c3-6e4a-446b-ae2f-9be8aa7f4122","system_id":"levelo_inurba_marseille","lat":43.31719,"lon":5.376813,"is_reserved":false,"is_disabled":false,"rental_uris":{"android":"levelo://app?vid=f427a2c3-6e4a-446b-ae2f-9be8aa7f4122","ios":"levelo://app?vid=f427a2c3-6e4a-446b-ae2f-9be8aa7f4122"},"vehicle_type_id":"4","last_reported":1701432804,"current_range_meters":2000,"station_id":"","pricing_plan_id":"free"},{"bike_id":"e913f328-1e31-4c22-bd87-f809ea246de4","system_id":"levelo_inurba_marseille","lat":43.317168,"lon":5.376883,"is_reserved":false,"is_disabled":false,"rental_uris":{"android":"levelo://app?vid=e913f328-1e31-4c22-bd87-f809ea246de4","ios":"levelo://app?vid=e913f328-1e31-4c22-bd87-f809ea246de4"},"vehicle_type_id":"4","last_reported":1701432804,"current_range_meters":4400,"station_id":"","pricing_plan_id":"free"},{"bike_id":"1fa11e18-56bb-41a1-ab19-2f1df73f63b0","system_id":"levelo_inurba_marseille","lat":43.315277,"lon":5.38028,"is_reserved":false,"is_disabled":false,"rental_uris":{"android":"levelo://app?vid=1fa11e18-56bb-41a1-ab19-2f1df73f63b0","ios":"levelo://app?vid=1fa11e18-56bb-41a1-ab19-2f1df73f63b0"},"vehicle_type_id":"4","last_reported":1701432804,"current_range_meters":25600,"station_id":"ce4bhsp2rcd13ifvqi50","pricing_plan_id":"free"},{"bike_id":"692c1478-6aa1-4664-8d53-b483498b72bd","system_id":"levelo_inurba_marseille","lat":43.31537,"lon":5.38042,"is_reserved":false,"is_disabled":false,"rental_uris":{"android":"levelo://app?vid=692c1478-6aa1-4664-8d53-b483498b72bd","ios":"levelo://app?vid=692c1478-6aa1-4664-8d53-b483498b72bd"},"vehicle_type_id":"4","last_reported":1701432804,"current_range_meters":19600,"station_id":"ce4bhsp2rcd13ifvqi50","pricing_plan_id":"free"},{"bike_id":"31403651-79e9-44e7-be8f-01db53f070f8","system_id":"levelo_inurba_marseille","lat":43.301939,"lon":5.366286,"is_reserved":false,"is_disabled":false,"rental_uris":{"android":"levelo://app?vid=31403651-79e9-44e7-be8f-01db53f070f8","ios":"levelo://app?vid=31403651-79e9-44e7-be8f-01db53f070f8"},"vehicle_type_id":"4","last_reported":1701432804,"current_range_meters":21600,"station_id":"ce4bgrh2rcd13ifvqc8g","pricing_plan_id":"free"},{"bike_id":"60e68e38-dd85-41ef-bffe-b31e99def34e","system_id":"levelo_inurba_marseille","lat":43.301939,"lon":5.366286,"is_reserved":false,"is_disabled":false,"rental_uris":{"android":"levelo://app?vid=60e68e38-dd85-41ef-bffe-b31e99def34e","ios":"levelo://app?vid=60e68e38-dd85-41ef-bffe-b31e99def34e"},"vehicle_type_id":"4","last_reported":1701432804,"current_range_meters":16400,"station_id":"ce4bgrh2rcd13ifvqc8g","pricing_plan_id":"free"},{"bike_id":"b6800104-4ebf-4c39-9b19-a2043be772fb","system_id":"levelo_inurba_marseille","lat":43.301939,"lon":5.366286,"is_reserved":false,"is_disabled":false,"rental_uris":{"android":"levelo://app?vid=b6800104-4ebf-4c39-9b19-a2043be772fb","ios":"levelo://app?vid=b6800104-4ebf-4c39-9b19-a2043be772fb"},"vehicle_type_id":"4","last_reported":1701432804,"current_range_meters":15200,"station_id":"ce4bgrh2rcd13ifvqc8g","pricing_plan_id":"free"},{"bike_id":"12cdb42e-11c1-42ee-9344-c54e83e178fd","system_id":"levelo_inurba_marseille","lat":43.301939,"lon":5.366286,"is_reserved":false,"is_disabled":false,"rental_uris":{"android":"levelo://app?vid=12cdb42e-11c1-42ee-9344-c54e83e178fd","ios":"levelo://app?vid=12cdb42e-11c1-42ee-9344-c54e83e178fd"},"vehicle_type_id":"4","last_reported":1701432804,"current_range_meters":29600,"station_id":"ce4bgrh2rcd13ifvqc8g","pricing_plan_id":"free"},{"bike_id":"bc7af4c2-94ae-4e8c-ac02-8732eff41201","system_id":"levelo_inurba_marseille","lat":43.304606,"lon":5.379026,"is_reserved":false,"is_disabled":false,"rental_uris":{"android":"levelo://app?vid=bc7af4c2-94ae-4e8c-ac02-8732eff41201","ios":"levelo://app?vid=bc7af4c2-94ae-4e8c-ac02-8732eff41201"},"vehicle_type_id":"4","last_reported":1701432804,"current_range_meters":13600,"station_id":"ce4bgup2rcd13ifvqcn0","pricing_plan_id":"free"},{"bike_id":"17435223-71dd-4793-9480-9e991ec36b53","system_id":"levelo_inurba_marseille","lat":43.301429,"lon":5.37413,"is_reserved":false,"is_disabled":false,"rental_uris":{"android":"levelo://app?vid=17435223-71dd-4793-9480-9e991ec36b53","ios":"levelo://app?vid=17435223-71dd-4793-9480-9e991ec36b53"},"vehicle_type_id":"4","last_reported":1701432804,"current_range_meters":18800,"station_id":"ce4bgs92rcd13ifvqcc0","pricing_plan_id":"free"},{"bike_id":"c013e5d5-0714-4389-aeba-60412752ef0e","system_id":"levelo_inurba_marseille","lat":43.301429,"lon":5.37413,"is_reserved":false,"is_disabled":false,"rental_uris":{"android":"levelo://app?vid=c013e5d5-0714-4389-aeba-60412752ef0e","ios":"levelo://app?vid=c013e5d5-0714-4389-aeba-60412752ef0e"},"vehicle_type_id":"4","last_reported":1701432804,"current_range_meters":14400,"station_id":"ce4bgs92rcd13ifvqcc0","pricing_plan_id":"free"},{"bike_id":"cf9a70ef-e212-460b-a212-dbc30aa8c878","system_id":"levelo_inurba_marseille","lat":43.319893,"lon":5.381633,"is_reserved":false,"is_disabled":false,"rental_uris":{"android":"levelo://app?vid=cf9a70ef-e212-460b-a212-dbc30aa8c878","ios":"levelo://app?vid=cf9a70ef-e212-460b-a212-dbc30aa8c878"},"vehicle_type_id":"4","last_reported":1701432804,"current_range_meters":24400,"station_id":"ce4bhr12rcd13ifvqhpg","pricing_plan_id":"free"},{"bike_id":"2275aca5-3158-4c2c-8022-ca5d2714bc86","system_id":"levelo_inurba_marseille","lat":43.319997,"lon":5.381594,"is_reserved":false,"is_disabled":false,"rental_uris":{"android":"levelo://app?vid=2275aca5-3158-4c2c-8022-ca5d2714bc86","ios":"levelo://app?vid=2275aca5-3158-4c2c-8022-ca5d2714bc86"},"vehicle_type_id":"4","last_reported":1701432804,"current_range_meters":19200,"station_id":"ce4bhr12rcd13ifvqhpg","pricing_plan_id":"free"},{"bike_id":"e785b381-2dae-4db7-a1d8-6d3dbf5d3f8d","system_id":"levelo_inurba_marseille","lat":43.299724,"lon":5.371829,"is_reserved":false,"is_disabled":false,"rental_uris":{"android":"levelo://app?vid=e785b381-2dae-4db7-a1d8-6d3dbf5d3f8d","ios":"levelo://app?vid=e785b381-2dae-4db7-a1d8-6d3dbf5d3f8d"},"vehicle_type_id":"4","last_reported":1701432804,"current_range_meters":24400,"station_id":"ce4bgr92rcd13ifvqc7g","pricing_plan_id":"free"},{"bike_id":"f1d67ef2-62a9-4cf7-9ef0-591f721d298a","system_id":"levelo_inurba_marseille","lat":43.299724,"lon":5.371829,"is_reserved":false,"is_disabled":false,"rental_uris":{"android":"levelo://app?vid=f1d67ef2-62a9-4cf7-9ef0-591f721d298a","ios":"levelo://app?vid=f1d67ef2-62a9-4cf7-9ef0-591f721d298a"},"vehicle_type_id":"4","last_reported":1701432804,"current_range_meters":24000,"station_id":"ce4bgr92rcd13ifvqc7g","pricing_plan_id":"free"},{"bike_id":"748d12ab-8e09-4ecd-b2d2-cbe0ea9624f6","system_id":"levelo_inurba_marseille","lat":43.298477,"lon":5.367598,"is_reserved":false,"is_disabled":false,"rental_uris":{"android":"levelo://app?vid=748d12ab-8e09-4ecd-b2d2-cbe0ea9624f6","ios":"levelo://app?vid=748d12ab-8e09-4ecd-b2d2-cbe0ea9624f6"},"vehicle_type_id":"4","last_reported":1701432804,"current_range_meters":10800,"station_id":"","pricing_plan_id":"free"},{"bike_id":"7891f7cb-f2b5-432f-8ea1-0fda6cad38f3","system_id":"levelo_inurba_marseille","lat":43.305364,"lon":5.384119,"is_reserved":false,"is_disabled":false,"rental_uris":{"android":"levelo://app?vid=7891f7cb-f2b5-432f-8ea1-0fda6cad38f3","ios":"levelo://app?vid=7891f7cb-f2b5-432f-8ea1-0fda6cad38f3"},"vehicle_type_id":"4","last_reported":1701432804,"current_range_meters":5200,"station_id":"ce4bgg92rcd13ifvqb30","pricing_plan_id":"free"},{"bike_id":"312f89c7-e64a-465b-ad01-9561013a464f","system_id":"levelo_inurba_marseille","lat":43.305364,"lon":5.384119,"is_reserved":false,"is_disabled":false,"rental_uris":{"android":"levelo://app?vid=312f89c7-e64a-465b-ad01-9561013a464f","ios":"levelo://app?vid=312f89c7-e64a-465b-ad01-9561013a464f"},"vehicle_type_id":"4","last_reported":1701432804,"current_range_meters":15200,"station_id":"ce4bgg92rcd13ifvqb30","pricing_plan_id":"free"},{"bike_id":"87841ea5-3431-4695-98a4-f1c826b1bbe7","system_id":"levelo_inurba_marseille","lat":43.2991,"lon":5.37471,"is_reserved":false,"is_disabled":false,"rental_uris":{"android":"levelo://app?vid=87841ea5-3431-4695-98a4-f1c826b1bbe7","ios":"levelo://app?vid=87841ea5-3431-4695-98a4-f1c826b1bbe7"},"vehicle_type_id":"4","last_reported":1701432804,"current_range_meters":0,"station_id":"ce4bgjh2rcd13ifvqbg0","pricing_plan_id":"free"},{"bike_id":"65073be3-64d5-4947-9113-fd11101b78dd","system_id":"levelo_inurba_marseille","lat":43.322872,"lon":5.382756,"is_reserved":false,"is_disabled":false,"rental_uris":{"android":"levelo://app?vid=65073be3-64d5-4947-9113-fd11101b78dd","ios":"levelo://app?vid=65073be3-64d5-4947-9113-fd11101b78dd"},"vehicle_type_id":"4","last_reported":1701432804,"current_range_meters":12800,"station_id":"ce4bhr12rcd13ifvqhqg","pricing_plan_id":"free"},{"bike_id":"044199e5-3443-4984-b151-477a87db8a3e","system_id":"levelo_inurba_marseille","lat":43.32812,"lon":5.36668,"is_reserved":false,"is_disabled":false,"rental_uris":{"android":"levelo://app?vid=044199e5-3443-4984-b151-477a87db8a3e","ios":"levelo://app?vid=044199e5-3443-4984-b151-477a87db8a3e"},"vehicle_type_id":"4","last_reported":1701432804,"current_range_meters":29200,"station_id":"ce4bhs92rcd13ifvqi0g","pricing_plan_id":"free"},{"bike_id":"b79c00e9-2e26-4f63-a6b2-e6d49a437cf5","system_id":"levelo_inurba_marseille","lat":43.32831,"lon":5.36686,"is_reserved":false,"is_disabled":false,"rental_uris":{"android":"levelo://app?vid=b79c00e9-2e26-4f63-a6b2-e6d49a437cf5","ios":"levelo://app?vid=b79c00e9-2e26-4f63-a6b2-e6d49a437cf5"},"vehicle_type_id":"4","last_reported":1701432804,"current_range_meters":10800,"station_id":"ce4bhs92rcd13ifvqi0g","pricing_plan_id":"free"},{"bike_id":"f945d9d0-2f7b-494f-b7c7-a35b691c1891","system_id":"levelo_inurba_marseille","lat":43.328371,"lon":5.366912,"is_reserved":false,"is_disabled":false,"rental_uris":{"android":"levelo://app?vid=f945d9d0-2f7b-494f-b7c7-a35b691c1891","ios":"levelo://app?vid=f945d9d0-2f7b-494f-b7c7-a35b691c1891"},"vehicle_type_id":"4","last_reported":1701432804,"current_range_meters":18000,"station_id":"ce4bhs92rcd13ifvqi0g","pricing_plan_id":"free"},{"bike_id":"07888275-36c5-45f1-b842-fc521ca19014","system_id":"levelo_inurba_marseille","lat":43.29703,"lon":5.36613,"is_reserved":false,"is_disabled":false,"rental_uris":{"android":"levelo://app?vid=07888275-36c5-45f1-b842-fc521ca19014","ios":"levelo://app?vid=07888275-36c5-45f1-b842-fc521ca19014"},"vehicle_type_id":"4","last_reported":1701432804,"current_range_meters":17200,"station_id":"ce4bgn12rcd13ifvqbt0","pricing_plan_id":"free"},{"bike_id":"5983625d-69f5-485f-a399-daec2999c965","system_id":"levelo_inurba_marseille","lat":43.32152,"lon":5.385743,"is_reserved":false,"is_disabled":false,"rental_uris":{"android":"levelo://app?vid=5983625d-69f5-485f-a399-daec2999c965","ios":"levelo://app?vid=5983625d-69f5-485f-a399-daec2999c965"},"vehicle_type_id":"4","last_reported":1701432804,"current_range_meters":6400,"station_id":"","pricing_plan_id":"free"},{"bike_id":"d068864e-3768-4cb7-8f2c-e01febcf4d60","system_id":"levelo_inurba_marseille","lat":43.296237,"lon":5.36516,"is_reserved":false,"is_disabled":false,"rental_uris":{"android":"levelo://app?vid=d068864e-3768-4cb7-8f2c-e01febcf4d60","ios":"levelo://app?vid=d068864e-3768-4cb7-8f2c-e01febcf4d60"},"vehicle_type_id":"4","last_reported":1701432804,"current_range_meters":8000,"station_id":"","pricing_plan_id":"free"},{"bike_id":"ae419cc3-74db-4a0c-8133-974418e72919","system_id":"levelo_inurba_marseille","lat":43.296129,"lon":5.370777,"is_reserved":false,"is_disabled":false,"rental_uris":{"android":"levelo://app?vid=ae419cc3-74db-4a0c-8133-974418e72919","ios":"levelo://app?vid=ae419cc3-74db-4a0c-8133-974418e72919"},"vehicle_type_id":"4","last_reported":1701432804,"current_range_meters":28000,"station_id":"ce4bgnh2rcd13ifvqc0g","pricing_plan_id":"free"},{"bike_id":"54e4d40b-e133-4994-9f14-6bb2b70f0fd4","system_id":"levelo_inurba_marseille","lat":43.296921,"lon":5.376579,"is_reserved":false,"is_disabled":false,"rental_uris":{"android":"levelo://app?vid=54e4d40b-e133-4994-9f14-6bb2b70f0fd4","ios":"levelo://app?vid=54e4d40b-e133-4994-9f14-6bb2b70f0fd4"},"vehicle_type_id":"4","last_reported":1701432804,"current_range_meters":21600,"station_id":"ce4bgkh2rcd13ifvqbl0","pricing_plan_id":"free"},{"bike_id":"c9805546-447a-47a9-915d-932b46fd8718","system_id":"levelo_inurba_marseille","lat":43.304274,"lon":5.388873,"is_reserved":false,"is_disabled":false,"rental_uris":{"android":"levelo://app?vid=c9805546-447a-47a9-915d-932b46fd8718","ios":"levelo://app?vid=c9805546-447a-47a9-915d-932b46fd8718"},"vehicle_type_id":"4","last_reported":1701432804,"current_range_meters":28800,"station_id":"ce4bgk12rcd13ifvqbi0","pricing_plan_id":"free"},{"bike_id":"d1c849e8-34cb-40e4-bc84-411173a76ebf","system_id":"levelo_inurba_marseille","lat":43.304278,"lon":5.388868,"is_reserved":false,"is_disabled":false,"rental_uris":{"android":"levelo://app?vid=d1c849e8-34cb-40e4-bc84-411173a76ebf","ios":"levelo://app?vid=d1c849e8-34cb-40e4-bc84-411173a76ebf"},"vehicle_type_id":"4","last_reported":1701432804,"current_range_meters":4000,"station_id":"ce4bgk12rcd13ifvqbi0","pricing_plan_id":"free"},{"bike_id":"4ecbd154-661d-43e9-bab5-2bdb4b01aabd","system_id":"levelo_inurba_marseille","lat":43.296263,"lon":5.377094,"is_reserved":false,"is_disabled":false,"rental_uris":{"android":"levelo://app?vid=4ecbd154-661d-43e9-bab5-2bdb4b01aabd","ios":"levelo://app?vid=4ecbd154-661d-43e9-bab5-2bdb4b01aabd"},"vehicle_type_id":"4","last_reported":1701432804,"current_range_meters":18400,"station_id":"ce4bgi92rcd13ifvqb90","pricing_plan_id":"free"},{"bike_id":"ab08a76e-889f-4650-9e5c-eb7eef12cd39","system_id":"levelo_inurba_marseille","lat":43.295279,"lon":5.375048,"is_reserved":false,"is_disabled":false,"rental_uris":{"android":"levelo://app?vid=ab08a76e-889f-4650-9e5c-eb7eef12cd39","ios":"levelo://app?vid=ab08a76e-889f-4650-9e5c-eb7eef12cd39"},"vehicle_type_id":"4","last_reported":1701432804,"current_range_meters":30400,"station_id":"ce4bgkp2rcd13ifvqbmg","pricing_plan_id":"free"},{"bike_id":"e4a1a30c-122d-4204-8280-236b197048ae","system_id":"levelo_inurba_marseille","lat":43.299707,"lon":5.384859,"is_reserved":false,"is_disabled":false,"rental_uris":{"android":"levelo://app?vid=e4a1a30c-122d-4204-8280-236b197048ae","ios":"levelo://app?vid=e4a1a30c-122d-4204-8280-236b197048ae"},"vehicle_type_id":"4","last_reported":1701432804,"current_range_meters":7200,"station_id":"ce4bgj92rcd13ifvqbd0","pricing_plan_id":"free"},{"bike_id":"c2746b28-23a3-4529-8735-ffa2f47ca364","system_id":"levelo_inurba_marseille","lat":43.295279,"lon":5.375048,"is_reserved":false,"is_disabled":false,"rental_uris":{"android":"levelo://app?vid=c2746b28-23a3-4529-8735-ffa2f47ca364","ios":"levelo://app?vid=c2746b28-23a3-4529-8735-ffa2f47ca364"},"vehicle_type_id":"4","last_reported":1701432804,"current_range_meters":13200,"station_id":"ce4bgkp2rcd13ifvqbmg","pricing_plan_id":"free"},{"bike_id":"cab66a75-126b-4319-8909-34fbdf673deb","system_id":"levelo_inurba_marseille","lat":43.295279,"lon":5.375048,"is_reserved":false,"is_disabled":false,"rental_uris":{"android":"levelo://app?vid=cab66a75-126b-4319-8909-34fbdf673deb","ios":"levelo://app?vid=cab66a75-126b-4319-8909-34fbdf673deb"},"vehicle_type_id":"4","last_reported":1701432804,"current_range_meters":21200,"station_id":"ce4bgkp2rcd13ifvqbmg","pricing_plan_id":"free"},{"bike_id":"81c81765-686e-4ef8-8ba0-60d7276501a3","system_id":"levelo_inurba_marseille","lat":43.32367,"lon":5.388836,"is_reserved":false,"is_disabled":false,"rental_uris":{"android":"levelo://app?vid=81c81765-686e-4ef8-8ba0-60d7276501a3","ios":"levelo://app?vid=81c81765-686e-4ef8-8ba0-60d7276501a3"},"vehicle_type_id":"4","last_reported":1701432804,"current_range_meters":26400,"station_id":"ce4bhqp2rcd13ifvqhog","pricing_plan_id":"free"},{"bike_id":"3c0270a6-35fb-45c1-9416-77ab60825095","system_id":"levelo_inurba_marseille","lat":43.32367,"lon":5.388836,"is_reserved":false,"is_disabled":false,"rental_uris":{"android":"levelo://app?vid=3c0270a6-35fb-45c1-9416-77ab60825095","ios":"levelo://app?vid=3c0270a6-35fb-45c1-9416-77ab60825095"},"vehicle_type_id":"4","last_reported":1701432804,"current_range_meters":16800,"station_id":"ce4bhqp2rcd13ifvqhog","pricing_plan_id":"free"},{"bike_id":"e496554f-819b-40bb-8d57-1e113054c1a0","system_id":"levelo_inurba_marseille","lat":43.29602,"lon":5.381084,"is_reserved":false,"is_disabled":false,"rental_uris":{"android":"levelo://app?vid=e496554f-819b-40bb-8d57-1e113054c1a0","ios":"levelo://app?vid=e496554f-819b-40bb-8d57-1e113054c1a0"},"vehicle_type_id":"4","last_reported":1701432804,"current_range_meters":27600,"station_id":"ce4bgl12rcd13ifvqbo0","pricing_plan_id":"free"},{"bike_id":"954f6718-91ed-44bc-968e-881663f18e87","system_id":"levelo_inurba_marseille","lat":43.29602,"lon":5.381084,"is_reserved":false,"is_disabled":false,"rental_uris":{"android":"levelo://app?vid=954f6718-91ed-44bc-968e-881663f18e87","ios":"levelo://app?vid=954f6718-91ed-44bc-968e-881663f18e87"},"vehicle_type_id":"4","last_reported":1701432804,"current_range_meters":25200,"station_id":"ce4bgl12rcd13ifvqbo0","pricing_plan_id":"free"},{"bike_id":"8981322e-fea5-4814-af3e-24664b171111","system_id":"levelo_inurba_marseille","lat":43.29601,"lon":5.381084,"is_reserved":false,"is_disabled":false,"rental_uris":{"android":"levelo://app?vid=8981322e-fea5-4814-af3e-24664b171111","ios":"levelo://app?vid=8981322e-fea5-4814-af3e-24664b171111"},"vehicle_type_id":"4","last_reported":1701432804,"current_range_meters":20400,"station_id":"ce4bgl12rcd13ifvqbo0","pricing_plan_id":"free"},{"bike_id":"10092f09-27ba-4d49-bf9f-b3e320a97ce9","system_id":"levelo_inurba_marseille","lat":43.29601,"lon":5.381084,"is_reserved":false,"is_disabled":false,"rental_uris":{"android":"levelo://app?vid=10092f09-27ba-4d49-bf9f-b3e320a97ce9","ios":"levelo://app?vid=10092f09-27ba-4d49-bf9f-b3e320a97ce9"},"vehicle_type_id":"4","last_reported":1701432804,"current_range_meters":9200,"station_id":"ce4bgl12rcd13ifvqbo0","pricing_plan_id":"free"},{"bike_id":"dd03efbf-235b-4e13-869e-8afd9f8c4e8c","system_id":"levelo_inurba_marseille","lat":43.305994,"lon":5.393687,"is_reserved":false,"is_disabled":false,"rental_uris":{"android":"levelo://app?vid=dd03efbf-235b-4e13-869e-8afd9f8c4e8c","ios":"levelo://app?vid=dd03efbf-235b-4e13-869e-8afd9f8c4e8c"},"vehicle_type_id":"4","last_reported":1701432804,"current_range_meters":17200,"station_id":"ce4bh0p2rcd13ifvqd80","pricing_plan_id":"free"},{"bike_id":"4a6e5844-59a3-41c6-a793-d218c58c7a2c","system_id":"levelo_inurba_marseille","lat":43.293009,"lon":5.374584,"is_reserved":false,"is_disabled":false,"rental_uris":{"android":"levelo://app?vid=4a6e5844-59a3-41c6-a793-d218c58c7a2c","ios":"levelo://app?vid=4a6e5844-59a3-41c6-a793-d218c58c7a2c"},"vehicle_type_id":"4","last_reported":1701432804,"current_range_meters":0,"station_id":"ce4bgi12rcd13ifvqb70","pricing_plan_id":"free"},{"bike_id":"0ea64256-1880-4129-b8b7-401853c224e5","system_id":"levelo_inurba_marseille","lat":43.303002,"lon":5.392142,"is_reserved":false,"is_disabled":false,"rental_uris":{"android":"levelo://app?vid=0ea64256-1880-4129-b8b7-401853c224e5","ios":"levelo://app?vid=0ea64256-1880-4129-b8b7-401853c224e5"},"vehicle_type_id":"4","last_reported":1701432804,"current_range_meters":400,"station_id":"ce4bgkh2rcd13ifvqbk0","pricing_plan_id":"free"},{"bike_id":"e8a00d19-753e-4c89-8537-6db653c6f1a3","system_id":"levelo_inurba_marseille","lat":43.303002,"lon":5.392142,"is_reserved":false,"is_disabled":false,"rental_uris":{"android":"levelo://app?vid=e8a00d19-753e-4c89-8537-6db653c6f1a3","ios":"levelo://app?vid=e8a00d19-753e-4c89-8537-6db653c6f1a3"},"vehicle_type_id":"4","last_reported":1701432804,"current_range_meters":400,"station_id":"ce4bgkh2rcd13ifvqbk0","pricing_plan_id":"free"},{"bike_id":"19412e46-db97-4bd0-93fc-bf92a402b190","system_id":"levelo_inurba_marseille","lat":43.296935,"lon":5.376544,"is_reserved":false,"is_disabled":false,"rental_uris":{"android":"levelo://app?vid=19412e46-db97-4bd0-93fc-bf92a402b190","ios":"levelo://app?vid=19412e46-db97-4bd0-93fc-bf92a402b190"},"vehicle_type_id":"4","last_reported":1701432804,"current_range_meters":24400,"station_id":"ce4bgkh2rcd13ifvqbl0","pricing_plan_id":"free"},{"bike_id":"167d73a7-aef9-4f1d-942f-a174b7e30f89","system_id":"levelo_inurba_marseille","lat":43.292311,"lon":5.360731,"is_reserved":false,"is_disabled":false,"rental_uris":{"android":"levelo://app?vid=167d73a7-aef9-4f1d-942f-a174b7e30f89","ios":"levelo://app?vid=167d73a7-aef9-4f1d-942f-a174b7e30f89"},"vehicle_type_id":"4","last_reported":1701432804,"current_range_meters":20000,"station_id":"ce4bhbh2rcd13ifvqeqg","pricing_plan_id":"free"},{"bike_id":"caf755f7-0d2b-4a03-89b0-d74d349d3975","system_id":"levelo_inurba_marseille","lat":43.2936,"lon":5.37835,"is_reserved":false,"is_disabled":false,"rental_uris":{"android":"levelo://app?vid=caf755f7-0d2b-4a03-89b0-d74d349d3975","ios":"levelo://app?vid=caf755f7-0d2b-4a03-89b0-d74d349d3975"},"vehicle_type_id":"4","last_reported":1701432804,"current_range_meters":22800,"station_id":"ce4bgjh2rcd13ifvqbf0","pricing_plan_id":"free"},{"bike_id":"f1211049-25e3-4548-8484-06d6fcb1ede5","system_id":"levelo_inurba_marseille","lat":43.31328,"lon":5.39686,"is_reserved":false,"is_disabled":false,"rental_uris":{"android":"levelo://app?vid=f1211049-25e3-4548-8484-06d6fcb1ede5","ios":"levelo://app?vid=f1211049-25e3-4548-8484-06d6fcb1ede5"},"vehicle_type_id":"4","last_reported":1701432804,"current_range_meters":4800,"station_id":"ce4bgvp2rcd13ifvqcu0","pricing_plan_id":"free"},{"bike_id":"f4db7b99-29ac-4efc-8276-f57765784258","system_id":"levelo_inurba_marseille","lat":43.29529,"lon":5.385581,"is_reserved":false,"is_disabled":false,"rental_uris":{"android":"levelo://app?vid=f4db7b99-29ac-4efc-8276-f57765784258","ios":"levelo://app?vid=f4db7b99-29ac-4efc-8276-f57765784258"},"vehicle_type_id":"4","last_reported":1701432804,"current_range_meters":7200,"station_id":"ce4bgih2rcd13ifvqba0","pricing_plan_id":"free"},{"bike_id":"59906020-02ca-400c-9e37-2bcbdd22db5d","system_id":"levelo_inurba_marseille","lat":43.29529,"lon":5.385581,"is_reserved":false,"is_disabled":false,"rental_uris":{"android":"levelo://app?vid=59906020-02ca-400c-9e37-2bcbdd22db5d","ios":"levelo://app?vid=59906020-02ca-400c-9e37-2bcbdd22db5d"},"vehicle_type_id":"4","last_reported":1701432804,"current_range_meters":14400,"station_id":"ce4bgih2rcd13ifvqba0","pricing_plan_id":"free"},{"bike_id":"eaa0e7e7-2390-47fa-909b-7b240952cbef","system_id":"levelo_inurba_marseille","lat":43.320563,"lon":5.39595,"is_reserved":false,"is_disabled":false,"rental_uris":{"android":"levelo://app?vid=eaa0e7e7-2390-47fa-909b-7b240952cbef","ios":"levelo://app?vid=eaa0e7e7-2390-47fa-909b-7b240952cbef"},"vehicle_type_id":"4","last_reported":1701432804,"current_range_meters":18800,"station_id":"","pricing_plan_id":"free"},{"bike_id":"013a5f98-e348-4721-b6cf-f56bbf391131","system_id":"levelo_inurba_marseille","lat":43.302008,"lon":5.394694,"is_reserved":false,"is_disabled":false,"rental_uris":{"android":"levelo://app?vid=013a5f98-e348-4721-b6cf-f56bbf391131","ios":"levelo://app?vid=013a5f98-e348-4721-b6cf-f56bbf391131"},"vehicle_type_id":"4","last_reported":1701432804,"current_range_meters":20400,"station_id":"ce4bh0p2rcd13ifvqd70","pricing_plan_id":"free"},{"bike_id":"2e5fa65e-0a86-4e29-bbd9-cb7a8a1e4312","system_id":"levelo_inurba_marseille","lat":43.290327,"lon":5.375711,"is_reserved":false,"is_disabled":false,"rental_uris":{"android":"levelo://app?vid=2e5fa65e-0a86-4e29-bbd9-cb7a8a1e4312","ios":"levelo://app?vid=2e5fa65e-0a86-4e29-bbd9-cb7a8a1e4312"},"vehicle_type_id":"4","last_reported":1701432804,"current_range_meters":15600,"station_id":"ce4bh692rcd13ifvqe90","pricing_plan_id":"free"},{"bike_id":"3ae39e67-a55d-4fcf-a339-287ef7901132","system_id":"levelo_inurba_marseille","lat":43.294114,"lon":5.386185,"is_reserved":false,"is_disabled":false,"rental_uris":{"android":"levelo://app?vid=3ae39e67-a55d-4fcf-a339-287ef7901132","ios":"levelo://app?vid=3ae39e67-a55d-4fcf-a339-287ef7901132"},"vehicle_type_id":"4","last_reported":1701432804,"current_range_meters":17600,"station_id":"","pricing_plan_id":"free"},{"bike_id":"4751bb8d-5bc0-47c5-80d1-f2586a2817cf","system_id":"levelo_inurba_marseille","lat":43.304296,"lon":5.397513,"is_reserved":false,"is_disabled":false,"rental_uris":{"android":"levelo://app?vid=4751bb8d-5bc0-47c5-80d1-f2586a2817cf","ios":"levelo://app?vid=4751bb8d-5bc0-47c5-80d1-f2586a2817cf"},"vehicle_type_id":"4","last_reported":1701432804,"current_range_meters":24800,"station_id":"ce4bh092rcd13ifvqd20","pricing_plan_id":"free"},{"bike_id":"1d3aa726-62a6-422f-899b-822b8e909d1d","system_id":"levelo_inurba_marseille","lat":43.304296,"lon":5.397513,"is_reserved":false,"is_disabled":false,"rental_uris":{"android":"levelo://app?vid=1d3aa726-62a6-422f-899b-822b8e909d1d","ios":"levelo://app?vid=1d3aa726-62a6-422f-899b-822b8e909d1d"},"vehicle_type_id":"4","last_reported":1701432804,"current_range_meters":22000,"station_id":"ce4bh092rcd13ifvqd20","pricing_plan_id":"free"},{"bike_id":"c2db28a7-91b8-4993-aee6-09776b1c7b5a","system_id":"levelo_inurba_marseille","lat":43.304296,"lon":5.397513,"is_reserved":false,"is_disabled":false,"rental_uris":{"android":"levelo://app?vid=c2db28a7-91b8-4993-aee6-09776b1c7b5a","ios":"levelo://app?vid=c2db28a7-91b8-4993-aee6-09776b1c7b5a"},"vehicle_type_id":"4","last_reported":1701432804,"current_range_meters":12400,"station_id":"ce4bh092rcd13ifvqd20","pricing_plan_id":"free"},{"bike_id":"c82f59dd-4f25-4abf-9474-8594fcf558fd","system_id":"levelo_inurba_marseille","lat":43.290103,"lon":5.356114,"is_reserved":false,"is_disabled":false,"rental_uris":{"android":"levelo://app?vid=c82f59dd-4f25-4abf-9474-8594fcf558fd","ios":"levelo://app?vid=c82f59dd-4f25-4abf-9474-8594fcf558fd"},"vehicle_type_id":"4","last_reported":1701432804,"current_range_meters":28800,"station_id":"ce4bhb92rcd13ifvqen0","pricing_plan_id":"free"},{"bike_id":"433c11ae-8306-4bbf-850d-086e9b9b8b2e","system_id":"levelo_inurba_marseille","lat":43.2909,"lon":5.381212,"is_reserved":false,"is_disabled":false,"rental_uris":{"android":"levelo://app?vid=433c11ae-8306-4bbf-850d-086e9b9b8b2e","ios":"levelo://app?vid=433c11ae-8306-4bbf-850d-086e9b9b8b2e"},"vehicle_type_id":"4","last_reported":1701432804,"current_range_meters":14400,"station_id":"ce4bh512rcd13ifvqe2g","pricing_plan_id":"free"},{"bike_id":"eed4778b-5cae-4355-a98b-12aad06a4c87","system_id":"levelo_inurba_marseille","lat":43.29781,"lon":5.39338,"is_reserved":false,"is_disabled":false,"rental_uris":{"android":"levelo://app?vid=eed4778b-5cae-4355-a98b-12aad06a4c87","ios":"levelo://app?vid=eed4778b-5cae-4355-a98b-12aad06a4c87"},"vehicle_type_id":"4","last_reported":1701432804,"current_range_meters":10000,"station_id":"chh1huq6cuj3fo74tm60","pricing_plan_id":"free"},{"bike_id":"fdc2fc9e-2f29-4c49-bcea-7a560d4446be","system_id":"levelo_inurba_marseille","lat":43.330547,"lon":5.390547,"is_reserved":false,"is_disabled":false,"rental_uris":{"android":"levelo://app?vid=fdc2fc9e-2f29-4c49-bcea-7a560d4446be","ios":"levelo://app?vid=fdc2fc9e-2f29-4c49-bcea-7a560d4446be"},"vehicle_type_id":"4","last_reported":1701432804,"current_range_meters":13200,"station_id":"","pricing_plan_id":"free"},{"bike_id":"f71bec80-1512-44cd-95d2-3d7fdee5df30","system_id":"levelo_inurba_marseille","lat":43.33051,"lon":5.3906,"is_reserved":false,"is_disabled":false,"rental_uris":{"android":"levelo://app?vid=f71bec80-1512-44cd-95d2-3d7fdee5df30","ios":"levelo://app?vid=f71bec80-1512-44cd-95d2-3d7fdee5df30"},"vehicle_type_id":"4","last_reported":1701432804,"current_range_meters":16400,"station_id":"","pricing_plan_id":"free"},{"bike_id":"a2c112a6-58e1-4e8b-8be8-80d2c9d8d3d7","system_id":"levelo_inurba_marseille","lat":43.31265,"lon":5.401699,"is_reserved":false,"is_disabled":false,"rental_uris":{"android":"levelo://app?vid=a2c112a6-58e1-4e8b-8be8-80d2c9d8d3d7","ios":"levelo://app?vid=a2c112a6-58e1-4e8b-8be8-80d2c9d8d3d7"},"vehicle_type_id":"4","last_reported":1701432804,"current_range_meters":14800,"station_id":"","pricing_plan_id":"free"},{"bike_id":"58375e4c-df58-4ad5-ae14-67ec121815a0","system_id":"levelo_inurba_marseille","lat":43.305712,"lon":5.365641,"is_reserved":false,"is_disabled":false,"rental_uris":{"android":"levelo://app?vid=58375e4c-df58-4ad5-ae14-67ec121815a0","ios":"levelo://app?vid=58375e4c-df58-4ad5-ae14-67ec121815a0"},"vehicle_type_id":"4","last_reported":1701432804,"current_range_meters":22800,"station_id":"ce4bgs12rcd13ifvqcag","pricing_plan_id":"free"},{"bike_id":"6a361999-99cf-4558-b62d-e0f984c603ec","system_id":"levelo_inurba_marseille","lat":43.306412,"lon":5.401035,"is_reserved":false,"is_disabled":false,"rental_uris":{"android":"levelo://app?vid=6a361999-99cf-4558-b62d-e0f984c603ec","ios":"levelo://app?vid=6a361999-99cf-4558-b62d-e0f984c603ec"},"vehicle_type_id":"4","last_reported":1701432804,"current_range_meters":24400,"station_id":"ce4bh112rcd13ifvqda0","pricing_plan_id":"free"},{"bike_id":"5a45896b-e573-4a6f-938b-eab66cd610ae","system_id":"levelo_inurba_marseille","lat":43.301117,"lon":5.398795,"is_reserved":false,"is_disabled":false,"rental_uris":{"android":"levelo://app?vid=5a45896b-e573-4a6f-938b-eab66cd610ae","ios":"levelo://app?vid=5a45896b-e573-4a6f-938b-eab66cd610ae"},"vehicle_type_id":"4","last_reported":1701432804,"current_range_meters":0,"station_id":"ce4bh0h2rcd13ifvqd40","pricing_plan_id":"free"},{"bike_id":"2b7e6c2f-1f73-4044-8b41-4b032c2f42ed","system_id":"levelo_inurba_marseille","lat":43.286961,"lon":5.373785,"is_reserved":false,"is_disabled":false,"rental_uris":{"android":"levelo://app?vid=2b7e6c2f-1f73-4044-8b41-4b032c2f42ed","ios":"levelo://app?vid=2b7e6c2f-1f73-4044-8b41-4b032c2f42ed"},"vehicle_type_id":"4","last_reported":1701432804,"current_range_meters":15200,"station_id":"ce4bh3p2rcd13ifvqdq0","pricing_plan_id":"free"},{"bike_id":"010012b5-bd98-4b6d-9c58-0908c338ecc7","system_id":"levelo_inurba_marseille","lat":43.286961,"lon":5.373785,"is_reserved":false,"is_disabled":false,"rental_uris":{"android":"levelo://app?vid=010012b5-bd98-4b6d-9c58-0908c338ecc7","ios":"levelo://app?vid=010012b5-bd98-4b6d-9c58-0908c338ecc7"},"vehicle_type_id":"4","last_reported":1701432804,"current_range_meters":18800,"station_id":"ce4bh3p2rcd13ifvqdq0","pricing_plan_id":"free"},{"bike_id":"fa6a74c9-b254-495d-92f9-4a16cabe89eb","system_id":"levelo_inurba_marseille","lat":43.298681,"lon":5.397225,"is_reserved":false,"is_disabled":false,"rental_uris":{"android":"levelo://app?vid=fa6a74c9-b254-495d-92f9-4a16cabe89eb","ios":"levelo://app?vid=fa6a74c9-b254-495d-92f9-4a16cabe89eb"},"vehicle_type_id":"4","last_reported":1701432804,"current_range_meters":2400,"station_id":"ce4bh0h2rcd13ifvqd50","pricing_plan_id":"free"},{"bike_id":"d0436be0-fdd6-417a-af47-1257ce2d531d","system_id":"levelo_inurba_marseille","lat":43.286961,"lon":5.373785,"is_reserved":false,"is_disabled":false,"rental_uris":{"android":"levelo://app?vid=d0436be0-fdd6-417a-af47-1257ce2d531d","ios":"levelo://app?vid=d0436be0-fdd6-417a-af47-1257ce2d531d"},"vehicle_type_id":"4","last_reported":1701432804,"current_range_meters":16000,"station_id":"ce4bh3p2rcd13ifvqdq0","pricing_plan_id":"free"},{"bike_id":"accc5198-7ba5-4109-a2e3-8509665c970c","system_id":"levelo_inurba_marseille","lat":43.289307,"lon":5.38406,"is_reserved":false,"is_disabled":false,"rental_uris":{"android":"levelo://app?vid=accc5198-7ba5-4109-a2e3-8509665c970c","ios":"levelo://app?vid=accc5198-7ba5-4109-a2e3-8509665c970c"},"vehicle_type_id":"4","last_reported":1701432804,"current_range_meters":24800,"station_id":"ce4bh612rcd13ifvqe6g","pricing_plan_id":"free"},{"bike_id":"b85a49fe-7207-4028-b122-cc38136ab6d7","system_id":"levelo_inurba_marseille","lat":43.290345,"lon":5.38646,"is_reserved":false,"is_disabled":false,"rental_uris":{"android":"levelo://app?vid=b85a49fe-7207-4028-b122-cc38136ab6d7","ios":"levelo://app?vid=b85a49fe-7207-4028-b122-cc38136ab6d7"},"vehicle_type_id":"4","last_reported":1701432804,"current_range_meters":30000,"station_id":"ce4bh4p2rcd13ifvqe0g","pricing_plan_id":"free"},{"bike_id":"51e80092-f709-463a-96a2-8b25587b914d","system_id":"levelo_inurba_marseille","lat":43.286039,"lon":5.370681,"is_reserved":false,"is_disabled":false,"rental_uris":{"android":"levelo://app?vid=51e80092-f709-463a-96a2-8b25587b914d","ios":"levelo://app?vid=51e80092-f709-463a-96a2-8b25587b914d"},"vehicle_type_id":"4","last_reported":1701432804,"current_range_meters":28800,"station_id":"ce4bht12rcd13ifvqi60","pricing_plan_id":"free"},{"bike_id":"336d8d3f-b2e5-4fde-b6b5-0dfd41cc3e21","system_id":"levelo_inurba_marseille","lat":43.287184,"lon":5.37937,"is_reserved":false,"is_disabled":false,"rental_uris":{"android":"levelo://app?vid=336d8d3f-b2e5-4fde-b6b5-0dfd41cc3e21","ios":"levelo://app?vid=336d8d3f-b2e5-4fde-b6b5-0dfd41cc3e21"},"vehicle_type_id":"4","last_reported":1701432804,"current_range_meters":16400,"station_id":"ce4bh9p2rcd13ifvqec0","pricing_plan_id":"free"},{"bike_id":"6cf3c3a0-a659-4906-8ebb-e42e3a565e78","system_id":"levelo_inurba_marseille","lat":43.287184,"lon":5.37937,"is_reserved":false,"is_disabled":false,"rental_uris":{"android":"levelo://app?vid=6cf3c3a0-a659-4906-8ebb-e42e3a565e78","ios":"levelo://app?vid=6cf3c3a0-a659-4906-8ebb-e42e3a565e78"},"vehicle_type_id":"4","last_reported":1701432804,"current_range_meters":5600,"station_id":"ce4bh9p2rcd13ifvqec0","pricing_plan_id":"free"},{"bike_id":"83462da5-80c1-4677-b154-bc57831a93ec","system_id":"levelo_inurba_marseille","lat":43.31645,"lon":5.40436,"is_reserved":false,"is_disabled":false,"rental_uris":{"android":"levelo://app?vid=83462da5-80c1-4677-b154-bc57831a93ec","ios":"levelo://app?vid=83462da5-80c1-4677-b154-bc57831a93ec"},"vehicle_type_id":"4","last_reported":1701432804,"current_range_meters":16800,"station_id":"ce4bh012rcd13ifvqd00","pricing_plan_id":"free"},{"bike_id":"58eefcec-2ed8-4d71-b27c-51a02c5baf8f","system_id":"levelo_inurba_marseille","lat":43.29205,"lon":5.39323,"is_reserved":false,"is_disabled":false,"rental_uris":{"android":"levelo://app?vid=58eefcec-2ed8-4d71-b27c-51a02c5baf8f","ios":"levelo://app?vid=58eefcec-2ed8-4d71-b27c-51a02c5baf8f"},"vehicle_type_id":"4","last_reported":1701432804,"current_range_meters":400,"station_id":"ce4bh192rcd13ifvqdd0","pricing_plan_id":"free"},{"bike_id":"356d058b-3a6a-4040-a6a2-e92c67d7db85","system_id":"levelo_inurba_marseille","lat":43.284538,"lon":5.358657,"is_reserved":false,"is_disabled":false,"rental_uris":{"android":"levelo://app?vid=356d058b-3a6a-4040-a6a2-e92c67d7db85","ios":"levelo://app?vid=356d058b-3a6a-4040-a6a2-e92c67d7db85"},"vehicle_type_id":"4","last_reported":1701432804,"current_range_meters":21600,"station_id":"ce4bhah2rcd13ifvqei0","pricing_plan_id":"free"},{"bike_id":"96b1964b-3a98-44ec-b79a-f5a6619272a8","system_id":"levelo_inurba_marseille","lat":43.284238,"lon":5.375121,"is_reserved":false,"is_disabled":false,"rental_uris":{"android":"levelo://app?vid=96b1964b-3a98-44ec-b79a-f5a6619272a8","ios":"levelo://app?vid=96b1964b-3a98-44ec-b79a-f5a6619272a8"},"vehicle_type_id":"4","last_reported":1701432804,"current_range_meters":24800,"station_id":"","pricing_plan_id":"free"},{"bike_id":"11d25991-4e02-4cd5-af98-b74a360492d1","system_id":"levelo_inurba_marseille","lat":43.319179,"lon":5.407725,"is_reserved":false,"is_disabled":false,"rental_uris":{"android":"levelo://app?vid=11d25991-4e02-4cd5-af98-b74a360492d1","ios":"levelo://app?vid=11d25991-4e02-4cd5-af98-b74a360492d1"},"vehicle_type_id":"4","last_reported":1701432804,"current_range_meters":25200,"station_id":"ce4bhq12rcd13ifvqhig","pricing_plan_id":"free"},{"bike_id":"37296203-36a8-4c96-b7a4-fd5554954a72","system_id":"levelo_inurba_marseille","lat":43.33717,"lon":5.391857,"is_reserved":false,"is_disabled":false,"rental_uris":{"android":"levelo://app?vid=37296203-36a8-4c96-b7a4-fd5554954a72","ios":"levelo://app?vid=37296203-36a8-4c96-b7a4-fd5554954a72"},"vehicle_type_id":"4","last_reported":1701432804,"current_range_meters":31600,"station_id":"ce4bhr92rcd13ifvqhsg","pricing_plan_id":"free"},{"bike_id":"88405529-8498-4987-a8f5-86a2ffd7a185","system_id":"levelo_inurba_marseille","lat":43.283494,"lon":5.380945,"is_reserved":false,"is_disabled":false,"rental_uris":{"android":"levelo://app?vid=88405529-8498-4987-a8f5-86a2ffd7a185","ios":"levelo://app?vid=88405529-8498-4987-a8f5-86a2ffd7a185"},"vehicle_type_id":"4","last_reported":1701432804,"current_range_meters":22800,"station_id":"ce4bh412rcd13ifvqdr0","pricing_plan_id":"free"},{"bike_id":"32b1602e-bcfa-4da8-ba45-8117bcd685ef","system_id":"levelo_inurba_marseille","lat":43.283498,"lon":5.380948,"is_reserved":false,"is_disabled":false,"rental_uris":{"android":"levelo://app?vid=32b1602e-bcfa-4da8-ba45-8117bcd685ef","ios":"levelo://app?vid=32b1602e-bcfa-4da8-ba45-8117bcd685ef"},"vehicle_type_id":"4","last_reported":1701432804,"current_range_meters":26800,"station_id":"ce4bh412rcd13ifvqdr0","pricing_plan_id":"free"},{"bike_id":"6f1a2a99-12b9-4800-bd16-1e7e3636cb58","system_id":"levelo_inurba_marseille","lat":43.288568,"lon":5.39391,"is_reserved":false,"is_disabled":false,"rental_uris":{"android":"levelo://app?vid=6f1a2a99-12b9-4800-bd16-1e7e3636cb58","ios":"levelo://app?vid=6f1a2a99-12b9-4800-bd16-1e7e3636cb58"},"vehicle_type_id":"4","last_reported":1701432804,"current_range_meters":21600,"station_id":"","pricing_plan_id":"free"},{"bike_id":"654d0d84-1ab5-4b04-9dba-292dcf93ab63","system_id":"levelo_inurba_marseille","lat":43.28408,"lon":5.34985,"is_reserved":false,"is_disabled":false,"rental_uris":{"android":"levelo://app?vid=654d0d84-1ab5-4b04-9dba-292dcf93ab63","ios":"levelo://app?vid=654d0d84-1ab5-4b04-9dba-292dcf93ab63"},"vehicle_type_id":"4","last_reported":1701432804,"current_range_meters":0,"station_id":"ce4bhbh2rcd13ifvqepg","pricing_plan_id":"free"},{"bike_id":"1487957c-8471-4f08-99b2-1c197b7fe856","system_id":"levelo_inurba_marseille","lat":43.289363,"lon":5.396322,"is_reserved":false,"is_disabled":false,"rental_uris":{"android":"levelo://app?vid=1487957c-8471-4f08-99b2-1c197b7fe856","ios":"levelo://app?vid=1487957c-8471-4f08-99b2-1c197b7fe856"},"vehicle_type_id":"4","last_reported":1701432804,"current_range_meters":14000,"station_id":"ce4bh3h2rcd13ifvqdn0","pricing_plan_id":"free"},{"bike_id":"d522c41c-0a08-4391-908d-4f5cf3c2c2c2","system_id":"levelo_inurba_marseille","lat":43.283502,"lon":5.386471,"is_reserved":false,"is_disabled":false,"rental_uris":{"android":"levelo://app?vid=d522c41c-0a08-4391-908d-4f5cf3c2c2c2","ios":"levelo://app?vid=d522c41c-0a08-4391-908d-4f5cf3c2c2c2"},"vehicle_type_id":"4","last_reported":1701432804,"current_range_meters":7600,"station_id":"ce4bh492rcd13ifvqdvg","pricing_plan_id":"free"},{"bike_id":"eb4318d9-a77a-4a26-b56e-b46854c75b6b","system_id":"levelo_inurba_marseille","lat":43.283502,"lon":5.386471,"is_reserved":false,"is_disabled":false,"rental_uris":{"android":"levelo://app?vid=eb4318d9-a77a-4a26-b56e-b46854c75b6b","ios":"levelo://app?vid=eb4318d9-a77a-4a26-b56e-b46854c75b6b"},"vehicle_type_id":"4","last_reported":1701432804,"current_range_meters":30000,"station_id":"ce4bh492rcd13ifvqdvg","pricing_plan_id":"free"},{"bike_id":"a61f9949-e31f-4447-9136-eee42a400807","system_id":"levelo_inurba_marseille","lat":43.280444,"lon":5.369082,"is_reserved":false,"is_disabled":false,"rental_uris":{"android":"levelo://app?vid=a61f9949-e31f-4447-9136-eee42a400807","ios":"levelo://app?vid=a61f9949-e31f-4447-9136-eee42a400807"},"vehicle_type_id":"4","last_reported":1701432804,"current_range_meters":13600,"station_id":"","pricing_plan_id":"free"},{"bike_id":"0435c72c-99c1-4b79-9272-a29da422113c","system_id":"levelo_inurba_marseille","lat":43.280382,"lon":5.369291,"is_reserved":false,"is_disabled":false,"rental_uris":{"android":"levelo://app?vid=0435c72c-99c1-4b79-9272-a29da422113c","ios":"levelo://app?vid=0435c72c-99c1-4b79-9272-a29da422113c"},"vehicle_type_id":"4","last_reported":1701432804,"current_range_meters":9600,"station_id":"ce4bha12rcd13ifvqef0","pricing_plan_id":"free"},{"bike_id":"b34cc0fc-3655-4d36-b4e5-ea3b61c5dbc5","system_id":"levelo_inurba_marseille","lat":43.281044,"lon":5.378308,"is_reserved":false,"is_disabled":false,"rental_uris":{"android":"levelo://app?vid=b34cc0fc-3655-4d36-b4e5-ea3b61c5dbc5","ios":"levelo://app?vid=b34cc0fc-3655-4d36-b4e5-ea3b61c5dbc5"},"vehicle_type_id":"4","last_reported":1701432804,"current_range_meters":30000,"station_id":"ce4bha12rcd13ifvqee0","pricing_plan_id":"free"},{"bike_id":"c6521118-6648-4d31-825b-6ae5feaf3981","system_id":"levelo_inurba_marseille","lat":43.281044,"lon":5.378308,"is_reserved":false,"is_disabled":false,"rental_uris":{"android":"levelo://app?vid=c6521118-6648-4d31-825b-6ae5feaf3981","ios":"levelo://app?vid=c6521118-6648-4d31-825b-6ae5feaf3981"},"vehicle_type_id":"4","last_reported":1701432804,"current_range_meters":16400,"station_id":"ce4bha12rcd13ifvqee0","pricing_plan_id":"free"},{"bike_id":"9fdb7f97-586d-42d2-befd-15216ba2e422","system_id":"levelo_inurba_marseille","lat":43.284317,"lon":5.391844,"is_reserved":false,"is_disabled":false,"rental_uris":{"android":"levelo://app?vid=9fdb7f97-586d-42d2-befd-15216ba2e422","ios":"levelo://app?vid=9fdb7f97-586d-42d2-befd-15216ba2e422"},"vehicle_type_id":"4","last_reported":1701432804,"current_range_meters":0,"station_id":"ce4bhoh2rcd13ifvqh5g","pricing_plan_id":"free"},{"bike_id":"f1f0fc4c-3714-4b31-805a-19fd5c8c69c2","system_id":"levelo_inurba_marseille","lat":43.28573,"lon":5.394992,"is_reserved":false,"is_disabled":false,"rental_uris":{"android":"levelo://app?vid=f1f0fc4c-3714-4b31-805a-19fd5c8c69c2","ios":"levelo://app?vid=f1f0fc4c-3714-4b31-805a-19fd5c8c69c2"},"vehicle_type_id":"4","last_reported":1701432804,"current_range_meters":0,"station_id":"ce4bh292rcd13ifvqdg0","pricing_plan_id":"free"},{"bike_id":"edccd163-f6e1-4e7d-bc68-768d7ebe881c","system_id":"levelo_inurba_marseille","lat":43.32537,"lon":5.41088,"is_reserved":false,"is_disabled":false,"rental_uris":{"android":"levelo://app?vid=edccd163-f6e1-4e7d-bc68-768d7ebe881c","ios":"levelo://app?vid=edccd163-f6e1-4e7d-bc68-768d7ebe881c"},"vehicle_type_id":"4","last_reported":1701432804,"current_range_meters":26000,"station_id":"","pricing_plan_id":"free"},{"bike_id":"fb81a295-83d6-4a83-a8e5-8eba109ae431","system_id":"levelo_inurba_marseille","lat":43.304188,"lon":5.412904,"is_reserved":false,"is_disabled":false,"rental_uris":{"android":"levelo://app?vid=fb81a295-83d6-4a83-a8e5-8eba109ae431","ios":"levelo://app?vid=fb81a295-83d6-4a83-a8e5-8eba109ae431"},"vehicle_type_id":"4","last_reported":1701432804,"current_range_meters":19600,"station_id":"ce4bhop2rcd13ifvqh8g","pricing_plan_id":"free"},{"bike_id":"14ba6108-3094-4c36-8512-5be4d31acfd3","system_id":"levelo_inurba_marseille","lat":43.304188,"lon":5.412904,"is_reserved":false,"is_disabled":false,"rental_uris":{"android":"levelo://app?vid=14ba6108-3094-4c36-8512-5be4d31acfd3","ios":"levelo://app?vid=14ba6108-3094-4c36-8512-5be4d31acfd3"},"vehicle_type_id":"4","last_reported":1701432804,"current_range_meters":25600,"station_id":"ce4bhop2rcd13ifvqh8g","pricing_plan_id":"free"},{"bike_id":"991dd8f3-65e5-4357-b04d-043f3c67fa59","system_id":"levelo_inurba_marseille","lat":43.325243,"lon":5.414326,"is_reserved":false,"is_disabled":false,"rental_uris":{"android":"levelo://app?vid=991dd8f3-65e5-4357-b04d-043f3c67fa59","ios":"levelo://app?vid=991dd8f3-65e5-4357-b04d-043f3c67fa59"},"vehicle_type_id":"4","last_reported":1701432804,"current_range_meters":24800,"station_id":"ce4bhq12rcd13ifvqhhg","pricing_plan_id":"free"},{"bike_id":"4cc83c2a-5694-4140-adfa-932108362197","system_id":"levelo_inurba_marseille","lat":43.292569,"lon":5.409107,"is_reserved":false,"is_disabled":false,"rental_uris":{"android":"levelo://app?vid=4cc83c2a-5694-4140-adfa-932108362197","ios":"levelo://app?vid=4cc83c2a-5694-4140-adfa-932108362197"},"vehicle_type_id":"4","last_reported":1701432804,"current_range_meters":20400,"station_id":"ce4bh192rcd13ifvqdc0","pricing_plan_id":"free"},{"bike_id":"1e9ad550-fc59-446f-8867-22f46c82a517","system_id":"levelo_inurba_marseille","lat":43.27621,"lon":5.361068,"is_reserved":false,"is_disabled":false,"rental_uris":{"android":"levelo://app?vid=1e9ad550-fc59-446f-8867-22f46c82a517","ios":"levelo://app?vid=1e9ad550-fc59-446f-8867-22f46c82a517"},"vehicle_type_id":"4","last_reported":1701432804,"current_range_meters":20800,"station_id":"","pricing_plan_id":"free"},{"bike_id":"22fd65f7-f94c-42ed-9f22-756dac99466f","system_id":"levelo_inurba_marseille","lat":43.2762,"lon":5.36104,"is_reserved":false,"is_disabled":false,"rental_uris":{"android":"levelo://app?vid=22fd65f7-f94c-42ed-9f22-756dac99466f","ios":"levelo://app?vid=22fd65f7-f94c-42ed-9f22-756dac99466f"},"vehicle_type_id":"4","last_reported":1701432804,"current_range_meters":20400,"station_id":"ce4bgj92rcd13ifvqbe0","pricing_plan_id":"free"},{"bike_id":"22abe6fb-4de7-41e4-aead-f443e9bc4fc6","system_id":"levelo_inurba_marseille","lat":43.27617,"lon":5.36109,"is_reserved":false,"is_disabled":false,"rental_uris":{"android":"levelo://app?vid=22abe6fb-4de7-41e4-aead-f443e9bc4fc6","ios":"levelo://app?vid=22abe6fb-4de7-41e4-aead-f443e9bc4fc6"},"vehicle_type_id":"4","last_reported":1701432804,"current_range_meters":14000,"station_id":"ce4bgj92rcd13ifvqbe0","pricing_plan_id":"free"},{"bike_id":"e1b11d8c-6f68-46d1-b763-3cb5deacfcdb","system_id":"levelo_inurba_marseille","lat":43.27611,"lon":5.36105,"is_reserved":false,"is_disabled":false,"rental_uris":{"android":"levelo://app?vid=e1b11d8c-6f68-46d1-b763-3cb5deacfcdb","ios":"levelo://app?vid=e1b11d8c-6f68-46d1-b763-3cb5deacfcdb"},"vehicle_type_id":"4","last_reported":1701432804,"current_range_meters":6800,"station_id":"ce4bgj92rcd13ifvqbe0","pricing_plan_id":"free"},{"bike_id":"d431635f-5bb4-4c2b-9bb6-1513e1030d35","system_id":"levelo_inurba_marseille","lat":43.275913,"lon":5.360923,"is_reserved":false,"is_disabled":false,"rental_uris":{"android":"levelo://app?vid=d431635f-5bb4-4c2b-9bb6-1513e1030d35","ios":"levelo://app?vid=d431635f-5bb4-4c2b-9bb6-1513e1030d35"},"vehicle_type_id":"4","last_reported":1701432804,"current_range_meters":16800,"station_id":"ce4bgj92rcd13ifvqbe0","pricing_plan_id":"free"},{"bike_id":"0c93fdbc-37d9-4dc9-bcc4-244d2dec78ee","system_id":"levelo_inurba_marseille","lat":43.320045,"lon":5.415046,"is_reserved":false,"is_disabled":false,"rental_uris":{"android":"levelo://app?vid=0c93fdbc-37d9-4dc9-bcc4-244d2dec78ee","ios":"levelo://app?vid=0c93fdbc-37d9-4dc9-bcc4-244d2dec78ee"},"vehicle_type_id":"4","last_reported":1701432804,"current_range_meters":26400,"station_id":"ce4bhq92rcd13ifvqhkg","pricing_plan_id":"free"},{"bike_id":"0f2ffed4-f777-46c6-9794-3a8eb32acdbc","system_id":"levelo_inurba_marseille","lat":43.280784,"lon":5.396622,"is_reserved":false,"is_disabled":false,"rental_uris":{"android":"levelo://app?vid=0f2ffed4-f777-46c6-9794-3a8eb32acdbc","ios":"levelo://app?vid=0f2ffed4-f777-46c6-9794-3a8eb32acdbc"},"vehicle_type_id":"4","last_reported":1701432804,"current_range_meters":28400,"station_id":"ce4bho12rcd13ifvqh2g","pricing_plan_id":"free"},{"bike_id":"2f3b6d5b-424f-436e-b6d1-a69be8b7d965","system_id":"levelo_inurba_marseille","lat":43.336148,"lon":5.410349,"is_reserved":false,"is_disabled":false,"rental_uris":{"android":"levelo://app?vid=2f3b6d5b-424f-436e-b6d1-a69be8b7d965","ios":"levelo://app?vid=2f3b6d5b-424f-436e-b6d1-a69be8b7d965"},"vehicle_type_id":"4","last_reported":1701432804,"current_range_meters":22800,"station_id":"ce4bhqh2rcd13ifvqhmg","pricing_plan_id":"free"},{"bike_id":"75d0f960-80ea-40d1-a755-552035939c7a","system_id":"levelo_inurba_marseille","lat":43.273613,"lon":5.362705,"is_reserved":false,"is_disabled":false,"rental_uris":{"android":"levelo://app?vid=75d0f960-80ea-40d1-a755-552035939c7a","ios":"levelo://app?vid=75d0f960-80ea-40d1-a755-552035939c7a"},"vehicle_type_id":"4","last_reported":1701432804,"current_range_meters":27200,"station_id":"ce4bhbh2rcd13ifvqeo0","pricing_plan_id":"free"},{"bike_id":"c9501d22-b887-4cf8-a7c2-55711a0654d6","system_id":"levelo_inurba_marseille","lat":43.33612,"lon":5.410321,"is_reserved":false,"is_disabled":false,"rental_uris":{"android":"levelo://app?vid=c9501d22-b887-4cf8-a7c2-55711a0654d6","ios":"levelo://app?vid=c9501d22-b887-4cf8-a7c2-55711a0654d6"},"vehicle_type_id":"4","last_reported":1701432804,"current_range_meters":7200,"station_id":"ce4bhqh2rcd13ifvqhmg","pricing_plan_id":"free"},{"bike_id":"e87b923d-18f9-4508-8bef-e743842ea6fc","system_id":"levelo_inurba_marseille","lat":43.317121,"lon":5.423936,"is_reserved":false,"is_disabled":false,"rental_uris":{"android":"levelo://app?vid=e87b923d-18f9-4508-8bef-e743842ea6fc","ios":"levelo://app?vid=e87b923d-18f9-4508-8bef-e743842ea6fc"},"vehicle_type_id":"4","last_reported":1701432804,"current_range_meters":18400,"station_id":"ce4bhp92rcd13ifvqhbg","pricing_plan_id":"free"},{"bike_id":"2f711f01-b9ab-4fa4-b7ee-42fd5a353234","system_id":"levelo_inurba_marseille","lat":43.310785,"lon":5.424305,"is_reserved":false,"is_disabled":false,"rental_uris":{"android":"levelo://app?vid=2f711f01-b9ab-4fa4-b7ee-42fd5a353234","ios":"levelo://app?vid=2f711f01-b9ab-4fa4-b7ee-42fd5a353234"},"vehicle_type_id":"4","last_reported":1701432804,"current_range_meters":31200,"station_id":"ce4bhp92rcd13ifvqhag","pricing_plan_id":"free"},{"bike_id":"d6cd08ef-c934-44a0-a330-510b886d15f8","system_id":"levelo_inurba_marseille","lat":43.310785,"lon":5.424305,"is_reserved":false,"is_disabled":false,"rental_uris":{"android":"levelo://app?vid=d6cd08ef-c934-44a0-a330-510b886d15f8","ios":"levelo://app?vid=d6cd08ef-c934-44a0-a330-510b886d15f8"},"vehicle_type_id":"4","last_reported":1701432804,"current_range_meters":31200,"station_id":"ce4bhp92rcd13ifvqhag","pricing_plan_id":"free"},{"bike_id":"27cd22d2-4dd6-4219-ada6-84d0bf6a97f2","system_id":"levelo_inurba_marseille","lat":43.340804,"lon":5.410219,"is_reserved":false,"is_disabled":false,"rental_uris":{"android":"levelo://app?vid=27cd22d2-4dd6-4219-ada6-84d0bf6a97f2","ios":"levelo://app?vid=27cd22d2-4dd6-4219-ada6-84d0bf6a97f2"},"vehicle_type_id":"4","last_reported":1701432804,"current_range_meters":16800,"station_id":"ce4bhqh2rcd13ifvqhlg","pricing_plan_id":"free"},{"bike_id":"3fc4f67f-c287-4fc9-894f-0a0e70fa276a","system_id":"levelo_inurba_marseille","lat":43.30411,"lon":5.42541,"is_reserved":false,"is_disabled":false,"rental_uris":{"android":"levelo://app?vid=3fc4f67f-c287-4fc9-894f-0a0e70fa276a","ios":"levelo://app?vid=3fc4f67f-c287-4fc9-894f-0a0e70fa276a"},"vehicle_type_id":"4","last_reported":1701432804,"current_range_meters":12000,"station_id":"ce4bhoh2rcd13ifvqh6g","pricing_plan_id":"free"},{"bike_id":"24ea50b7-1a79-4708-b774-184aeb36cb7c","system_id":"levelo_inurba_marseille","lat":43.30408,"lon":5.42546,"is_reserved":false,"is_disabled":false,"rental_uris":{"android":"levelo://app?vid=24ea50b7-1a79-4708-b774-184aeb36cb7c","ios":"levelo://app?vid=24ea50b7-1a79-4708-b774-184aeb36cb7c"},"vehicle_type_id":"4","last_reported":1701432804,"current_range_meters":30400,"station_id":"","pricing_plan_id":"free"},{"bike_id":"417c69e6-6a4f-4bdd-963e-5db439dc6333","system_id":"levelo_inurba_marseille","lat":43.295523,"lon":5.422926,"is_reserved":false,"is_disabled":false,"rental_uris":{"android":"levelo://app?vid=417c69e6-6a4f-4bdd-963e-5db439dc6333","ios":"levelo://app?vid=417c69e6-6a4f-4bdd-963e-5db439dc6333"},"vehicle_type_id":"4","last_reported":1701432804,"current_range_meters":27200,"station_id":"ce4bhph2rcd13ifvqhdg","pricing_plan_id":"free"},{"bike_id":"ad319ad3-5072-496b-979f-e5645940bdaf","system_id":"levelo_inurba_marseille","lat":43.29548,"lon":5.42285,"is_reserved":false,"is_disabled":false,"rental_uris":{"android":"levelo://app?vid=ad319ad3-5072-496b-979f-e5645940bdaf","ios":"levelo://app?vid=ad319ad3-5072-496b-979f-e5645940bdaf"},"vehicle_type_id":"4","last_reported":1701432804,"current_range_meters":22000,"station_id":"ce4bhph2rcd13ifvqhdg","pricing_plan_id":"free"},{"bike_id":"074d7c53-c267-4753-aa33-3da5891509f9","system_id":"levelo_inurba_marseille","lat":43.295523,"lon":5.422926,"is_reserved":false,"is_disabled":false,"rental_uris":{"android":"levelo://app?vid=074d7c53-c267-4753-aa33-3da5891509f9","ios":"levelo://app?vid=074d7c53-c267-4753-aa33-3da5891509f9"},"vehicle_type_id":"4","last_reported":1701432804,"current_range_meters":8800,"station_id":"ce4bhph2rcd13ifvqhdg","pricing_plan_id":"free"},{"bike_id":"9c4b4afd-0374-4a0f-9dca-5da15a58b754","system_id":"levelo_inurba_marseille","lat":43.295511,"lon":5.422926,"is_reserved":false,"is_disabled":false,"rental_uris":{"android":"levelo://app?vid=9c4b4afd-0374-4a0f-9dca-5da15a58b754","ios":"levelo://app?vid=9c4b4afd-0374-4a0f-9dca-5da15a58b754"},"vehicle_type_id":"4","last_reported":1701432804,"current_range_meters":28000,"station_id":"ce4bhph2rcd13ifvqhdg","pricing_plan_id":"free"},{"bike_id":"e9a71b81-d143-4c96-afb0-4df275e18c25","system_id":"levelo_inurba_marseille","lat":43.272118,"lon":5.391758,"is_reserved":false,"is_disabled":false,"rental_uris":{"android":"levelo://app?vid=e9a71b81-d143-4c96-afb0-4df275e18c25","ios":"levelo://app?vid=e9a71b81-d143-4c96-afb0-4df275e18c25"},"vehicle_type_id":"4","last_reported":1701432804,"current_range_meters":2800,"station_id":"ce4bhhp2rcd13ifvqfm0","pricing_plan_id":"free"},{"bike_id":"d3e86ee0-25cc-46da-9490-2861495a5777","system_id":"levelo_inurba_marseille","lat":43.272044,"lon":5.392708,"is_reserved":false,"is_disabled":false,"rental_uris":{"android":"levelo://app?vid=d3e86ee0-25cc-46da-9490-2861495a5777","ios":"levelo://app?vid=d3e86ee0-25cc-46da-9490-2861495a5777"},"vehicle_type_id":"4","last_reported":1701432804,"current_range_meters":24000,"station_id":"","pricing_plan_id":"free"},{"bike_id":"2fdabe26-82e9-41a3-a8b0-c1dee03e15bf","system_id":"levelo_inurba_marseille","lat":43.278128,"lon":5.407195,"is_reserved":false,"is_disabled":false,"rental_uris":{"android":"levelo://app?vid=2fdabe26-82e9-41a3-a8b0-c1dee03e15bf","ios":"levelo://app?vid=2fdabe26-82e9-41a3-a8b0-c1dee03e15bf"},"vehicle_type_id":"4","last_reported":1701432804,"current_range_meters":25600,"station_id":"ce4bhnh2rcd13ifvqgtg","pricing_plan_id":"free"},{"bike_id":"c7d71b5c-ca6c-4f11-88b4-4c71e561c27b","system_id":"levelo_inurba_marseille","lat":43.278128,"lon":5.407195,"is_reserved":false,"is_disabled":false,"rental_uris":{"android":"levelo://app?vid=c7d71b5c-ca6c-4f11-88b4-4c71e561c27b","ios":"levelo://app?vid=c7d71b5c-ca6c-4f11-88b4-4c71e561c27b"},"vehicle_type_id":"4","last_reported":1701432804,"current_range_meters":20000,"station_id":"ce4bhnh2rcd13ifvqgtg","pricing_plan_id":"free"},{"bike_id":"b4cff22a-4900-4ed8-9b4b-8aca3234aee3","system_id":"levelo_inurba_marseille","lat":43.278138,"lon":5.407215,"is_reserved":false,"is_disabled":false,"rental_uris":{"android":"levelo://app?vid=b4cff22a-4900-4ed8-9b4b-8aca3234aee3","ios":"levelo://app?vid=b4cff22a-4900-4ed8-9b4b-8aca3234aee3"},"vehicle_type_id":"4","last_reported":1701432804,"current_range_meters":11600,"station_id":"ce4bhnh2rcd13ifvqgtg","pricing_plan_id":"free"},{"bike_id":"1a524272-1bec-46b9-a702-72b444b02a47","system_id":"levelo_inurba_marseille","lat":43.278128,"lon":5.407195,"is_reserved":false,"is_disabled":false,"rental_uris":{"android":"levelo://app?vid=1a524272-1bec-46b9-a702-72b444b02a47","ios":"levelo://app?vid=1a524272-1bec-46b9-a702-72b444b02a47"},"vehicle_type_id":"4","last_reported":1701432804,"current_range_meters":6400,"station_id":"ce4bhnh2rcd13ifvqgtg","pricing_plan_id":"free"},{"bike_id":"48b9b261-2676-484b-bdf7-793ec1f03de7","system_id":"levelo_inurba_marseille","lat":43.278128,"lon":5.407195,"is_reserved":false,"is_disabled":false,"rental_uris":{"android":"levelo://app?vid=48b9b261-2676-484b-bdf7-793ec1f03de7","ios":"levelo://app?vid=48b9b261-2676-484b-bdf7-793ec1f03de7"},"vehicle_type_id":"4","last_reported":1701432804,"current_range_meters":5200,"station_id":"ce4bhnh2rcd13ifvqgtg","pricing_plan_id":"free"},{"bike_id":"b9eb8be7-7bda-48a7-86b9-0631fb094831","system_id":"levelo_inurba_marseille","lat":43.278128,"lon":5.407195,"is_reserved":false,"is_disabled":false,"rental_uris":{"android":"levelo://app?vid=b9eb8be7-7bda-48a7-86b9-0631fb094831","ios":"levelo://app?vid=b9eb8be7-7bda-48a7-86b9-0631fb094831"},"vehicle_type_id":"4","last_reported":1701432804,"current_range_meters":32000,"station_id":"ce4bhnh2rcd13ifvqgtg","pricing_plan_id":"free"},{"bike_id":"f95bfde0-d430-48ec-b649-d37a9ff1957d","system_id":"levelo_inurba_marseille","lat":43.269319,"lon":5.389397,"is_reserved":false,"is_disabled":false,"rental_uris":{"android":"levelo://app?vid=f95bfde0-d430-48ec-b649-d37a9ff1957d","ios":"levelo://app?vid=f95bfde0-d430-48ec-b649-d37a9ff1957d"},"vehicle_type_id":"4","last_reported":1701432804,"current_range_meters":9200,"station_id":"ce4bhhh2rcd13ifvqfl0","pricing_plan_id":"free"},{"bike_id":"3fdabccc-9366-442c-866d-685c36da6b9d","system_id":"levelo_inurba_marseille","lat":43.265714,"lon":5.372891,"is_reserved":false,"is_disabled":false,"rental_uris":{"android":"levelo://app?vid=3fdabccc-9366-442c-866d-685c36da6b9d","ios":"levelo://app?vid=3fdabccc-9366-442c-866d-685c36da6b9d"},"vehicle_type_id":"4","last_reported":1701432804,"current_range_meters":26800,"station_id":"ce4bhg12rcd13ifvqf70","pricing_plan_id":"free"},{"bike_id":"3aeb5b5a-6249-4aaf-a054-eb5507726855","system_id":"levelo_inurba_marseille","lat":43.265531,"lon":5.372845,"is_reserved":false,"is_disabled":false,"rental_uris":{"android":"levelo://app?vid=3aeb5b5a-6249-4aaf-a054-eb5507726855","ios":"levelo://app?vid=3aeb5b5a-6249-4aaf-a054-eb5507726855"},"vehicle_type_id":"4","last_reported":1701432804,"current_range_meters":22400,"station_id":"ce4bhg12rcd13ifvqf70","pricing_plan_id":"free"},{"bike_id":"936646d9-e3ad-4d15-9f94-0fe90d21293e","system_id":"levelo_inurba_marseille","lat":43.26681,"lon":5.382694,"is_reserved":false,"is_disabled":false,"rental_uris":{"android":"levelo://app?vid=936646d9-e3ad-4d15-9f94-0fe90d21293e","ios":"levelo://app?vid=936646d9-e3ad-4d15-9f94-0fe90d21293e"},"vehicle_type_id":"4","last_reported":1701432804,"current_range_meters":22000,"station_id":"ce4bhg92rcd13ifvqf90","pricing_plan_id":"free"},{"bike_id":"bc0bf0ac-ab02-43a5-add1-5a50b7dffb98","system_id":"levelo_inurba_marseille","lat":43.265714,"lon":5.372891,"is_reserved":false,"is_disabled":false,"rental_uris":{"android":"levelo://app?vid=bc0bf0ac-ab02-43a5-add1-5a50b7dffb98","ios":"levelo://app?vid=bc0bf0ac-ab02-43a5-add1-5a50b7dffb98"},"vehicle_type_id":"4","last_reported":1701432804,"current_range_meters":29200,"station_id":"ce4bhg12rcd13ifvqf70","pricing_plan_id":"free"},{"bike_id":"cfff7a30-2625-4daf-9d36-7d745e9019b1","system_id":"levelo_inurba_marseille","lat":43.275028,"lon":5.424534,"is_reserved":false,"is_disabled":false,"rental_uris":{"android":"levelo://app?vid=cfff7a30-2625-4daf-9d36-7d745e9019b1","ios":"levelo://app?vid=cfff7a30-2625-4daf-9d36-7d745e9019b1"},"vehicle_type_id":"4","last_reported":1701432804,"current_range_meters":13200,"station_id":"ce4bhn92rcd13ifvqgrg","pricing_plan_id":"free"},{"bike_id":"c70b4dae-f679-4d1b-8d1f-d4169f13217f","system_id":"levelo_inurba_marseille","lat":43.267966,"lon":5.393976,"is_reserved":false,"is_disabled":false,"rental_uris":{"android":"levelo://app?vid=c70b4dae-f679-4d1b-8d1f-d4169f13217f","ios":"levelo://app?vid=c70b4dae-f679-4d1b-8d1f-d4169f13217f"},"vehicle_type_id":"4","last_reported":1701432804,"current_range_meters":9200,"station_id":"ce4bhh12rcd13ifvqfg0","pricing_plan_id":"free"},{"bike_id":"70d9562c-6f71-49b4-b8d1-e85ded830516","system_id":"levelo_inurba_marseille","lat":43.26568,"lon":5.38999,"is_reserved":false,"is_disabled":false,"rental_uris":{"android":"levelo://app?vid=70d9562c-6f71-49b4-b8d1-e85ded830516","ios":"levelo://app?vid=70d9562c-6f71-49b4-b8d1-e85ded830516"},"vehicle_type_id":"4","last_reported":1701432804,"current_range_meters":0,"station_id":"ce4bhe12rcd13ifvqf30","pricing_plan_id":"free"},{"bike_id":"66c828e2-efb7-477b-9a20-69cd7e41c539","system_id":"levelo_inurba_marseille","lat":43.26937,"lon":5.40252,"is_reserved":false,"is_disabled":false,"rental_uris":{"android":"levelo://app?vid=66c828e2-efb7-477b-9a20-69cd7e41c539","ios":"levelo://app?vid=66c828e2-efb7-477b-9a20-69cd7e41c539"},"vehicle_type_id":"4","last_reported":1701432804,"current_range_meters":26400,"station_id":"cjm6bp8fraef2m0cb0m0","pricing_plan_id":"free"},{"bike_id":"226ed5d5-14ab-4a32-8059-657e034f5dee","system_id":"levelo_inurba_marseille","lat":43.261782,"lon":5.374515,"is_reserved":false,"is_disabled":false,"rental_uris":{"android":"levelo://app?vid=226ed5d5-14ab-4a32-8059-657e034f5dee","ios":"levelo://app?vid=226ed5d5-14ab-4a32-8059-657e034f5dee"},"vehicle_type_id":"4","last_reported":1701432804,"current_range_meters":27600,"station_id":"ce4bhgp2rcd13ifvqfc0","pricing_plan_id":"free"},{"bike_id":"6394474e-85a8-4fc5-ba69-bca97359fd9e","system_id":"levelo_inurba_marseille","lat":43.317104,"lon":5.436818,"is_reserved":false,"is_disabled":false,"rental_uris":{"android":"levelo://app?vid=6394474e-85a8-4fc5-ba69-bca97359fd9e","ios":"levelo://app?vid=6394474e-85a8-4fc5-ba69-bca97359fd9e"},"vehicle_type_id":"4","last_reported":1701432804,"current_range_meters":26400,"station_id":"ce4bhp92rcd13ifvqhcg","pricing_plan_id":"free"},{"bike_id":"f034ef14-36cd-4aca-ba0d-4a84bd730784","system_id":"levelo_inurba_marseille","lat":43.261782,"lon":5.374515,"is_reserved":false,"is_disabled":false,"rental_uris":{"android":"levelo://app?vid=f034ef14-36cd-4aca-ba0d-4a84bd730784","ios":"levelo://app?vid=f034ef14-36cd-4aca-ba0d-4a84bd730784"},"vehicle_type_id":"4","last_reported":1701432804,"current_range_meters":31200,"station_id":"ce4bhgp2rcd13ifvqfc0","pricing_plan_id":"free"},{"bike_id":"381cc335-c515-42b0-bd7b-f479816ba860","system_id":"levelo_inurba_marseille","lat":43.260219,"lon":5.37546,"is_reserved":false,"is_disabled":false,"rental_uris":{"android":"levelo://app?vid=381cc335-c515-42b0-bd7b-f479816ba860","ios":"levelo://app?vid=381cc335-c515-42b0-bd7b-f479816ba860"},"vehicle_type_id":"4","last_reported":1701432804,"current_range_meters":4800,"station_id":"ce4bhgh2rcd13ifvqfa0","pricing_plan_id":"free"},{"bike_id":"3e4fb47e-33e8-4ee2-bfc1-1bd948cfa529","system_id":"levelo_inurba_marseille","lat":43.281548,"lon":5.42643,"is_reserved":false,"is_disabled":false,"rental_uris":{"android":"levelo://app?vid=3e4fb47e-33e8-4ee2-bfc1-1bd948cfa529","ios":"levelo://app?vid=3e4fb47e-33e8-4ee2-bfc1-1bd948cfa529"},"vehicle_type_id":"4","last_reported":1701432804,"current_range_meters":31200,"station_id":"ce4bhnh2rcd13ifvqgug","pricing_plan_id":"free"},{"bike_id":"a265f57d-2203-4406-8278-bc194922c399","system_id":"levelo_inurba_marseille","lat":43.28151,"lon":5.42639,"is_reserved":false,"is_disabled":false,"rental_uris":{"android":"levelo://app?vid=a265f57d-2203-4406-8278-bc194922c399","ios":"levelo://app?vid=a265f57d-2203-4406-8278-bc194922c399"},"vehicle_type_id":"4","last_reported":1701432804,"current_range_meters":31200,"station_id":"ce4bhnh2rcd13ifvqgug","pricing_plan_id":"free"},{"bike_id":"d3df04f1-aa36-401c-b9f0-16ea3bba87de","system_id":"levelo_inurba_marseille","lat":43.281548,"lon":5.42643,"is_reserved":false,"is_disabled":false,"rental_uris":{"android":"levelo://app?vid=d3df04f1-aa36-401c-b9f0-16ea3bba87de","ios":"levelo://app?vid=d3df04f1-aa36-401c-b9f0-16ea3bba87de"},"vehicle_type_id":"4","last_reported":1701432804,"current_range_meters":18000,"station_id":"ce4bhnh2rcd13ifvqgug","pricing_plan_id":"free"},{"bike_id":"b802834e-51f4-41a4-96cb-c31681473515","system_id":"levelo_inurba_marseille","lat":43.281548,"lon":5.42643,"is_reserved":false,"is_disabled":false,"rental_uris":{"android":"levelo://app?vid=b802834e-51f4-41a4-96cb-c31681473515","ios":"levelo://app?vid=b802834e-51f4-41a4-96cb-c31681473515"},"vehicle_type_id":"4","last_reported":1701432804,"current_range_meters":23200,"station_id":"ce4bhnh2rcd13ifvqgug","pricing_plan_id":"free"},{"bike_id":"16e3cf12-314c-4e26-8315-bcc6e17dd084","system_id":"levelo_inurba_marseille","lat":43.281548,"lon":5.42643,"is_reserved":false,"is_disabled":false,"rental_uris":{"android":"levelo://app?vid=16e3cf12-314c-4e26-8315-bcc6e17dd084","ios":"levelo://app?vid=16e3cf12-314c-4e26-8315-bcc6e17dd084"},"vehicle_type_id":"4","last_reported":1701432804,"current_range_meters":7600,"station_id":"ce4bhnh2rcd13ifvqgug","pricing_plan_id":"free"},{"bike_id":"3532a786-7312-4db1-88be-2e5e8a274941","system_id":"levelo_inurba_marseille","lat":43.281548,"lon":5.42643,"is_reserved":false,"is_disabled":false,"rental_uris":{"android":"levelo://app?vid=3532a786-7312-4db1-88be-2e5e8a274941","ios":"levelo://app?vid=3532a786-7312-4db1-88be-2e5e8a274941"},"vehicle_type_id":"4","last_reported":1701432804,"current_range_meters":27200,"station_id":"ce4bhnh2rcd13ifvqgug","pricing_plan_id":"free"},{"bike_id":"1f8c0dcc-3680-4270-b5ae-540dc9d469d9","system_id":"levelo_inurba_marseille","lat":43.260225,"lon":5.375455,"is_reserved":false,"is_disabled":false,"rental_uris":{"android":"levelo://app?vid=1f8c0dcc-3680-4270-b5ae-540dc9d469d9","ios":"levelo://app?vid=1f8c0dcc-3680-4270-b5ae-540dc9d469d9"},"vehicle_type_id":"4","last_reported":1701432804,"current_range_meters":14800,"station_id":"ce4bhgh2rcd13ifvqfa0","pricing_plan_id":"free"},{"bike_id":"5413db45-ba61-40d6-8fc3-eb32b4bfecd6","system_id":"levelo_inurba_marseille","lat":43.2607,"lon":5.393983,"is_reserved":false,"is_disabled":false,"rental_uris":{"android":"levelo://app?vid=5413db45-ba61-40d6-8fc3-eb32b4bfecd6","ios":"levelo://app?vid=5413db45-ba61-40d6-8fc3-eb32b4bfecd6"},"vehicle_type_id":"4","last_reported":1701432804,"current_range_meters":17600,"station_id":"ce4bhh92rcd13ifvqfj0","pricing_plan_id":"free"},{"bike_id":"f25a3e6d-26dc-4871-8c8b-77c1c5780a36","system_id":"levelo_inurba_marseille","lat":43.25582,"lon":5.38222,"is_reserved":false,"is_disabled":false,"rental_uris":{"android":"levelo://app?vid=f25a3e6d-26dc-4871-8c8b-77c1c5780a36","ios":"levelo://app?vid=f25a3e6d-26dc-4871-8c8b-77c1c5780a36"},"vehicle_type_id":"4","last_reported":1701432804,"current_range_meters":8000,"station_id":"ce4bhih2rcd13ifvqfs0","pricing_plan_id":"free"},{"bike_id":"7b5a692f-8620-4269-b938-b35847cae01d","system_id":"levelo_inurba_marseille","lat":43.258224,"lon":5.394369,"is_reserved":false,"is_disabled":false,"rental_uris":{"android":"levelo://app?vid=7b5a692f-8620-4269-b938-b35847cae01d","ios":"levelo://app?vid=7b5a692f-8620-4269-b938-b35847cae01d"},"vehicle_type_id":"4","last_reported":1701432804,"current_range_meters":31200,"station_id":"ce4bhip2rcd13ifvqft0","pricing_plan_id":"free"},{"bike_id":"5f4a12fb-8cef-44a9-a9ed-665598fe5744","system_id":"levelo_inurba_marseille","lat":43.25499,"lon":5.3765,"is_reserved":false,"is_disabled":false,"rental_uris":{"android":"levelo://app?vid=5f4a12fb-8cef-44a9-a9ed-665598fe5744","ios":"levelo://app?vid=5f4a12fb-8cef-44a9-a9ed-665598fe5744"},"vehicle_type_id":"4","last_reported":1701432804,"current_range_meters":10800,"station_id":"ce4bhh12rcd13ifvqff0","pricing_plan_id":"free"},{"bike_id":"5b3badd9-67c2-42fa-8434-dec572e87c20","system_id":"levelo_inurba_marseille","lat":43.254947,"lon":5.376454,"is_reserved":false,"is_disabled":false,"rental_uris":{"android":"levelo://app?vid=5b3badd9-67c2-42fa-8434-dec572e87c20","ios":"levelo://app?vid=5b3badd9-67c2-42fa-8434-dec572e87c20"},"vehicle_type_id":"4","last_reported":1701432804,"current_range_meters":4400,"station_id":"ce4bhh12rcd13ifvqff0","pricing_plan_id":"free"},{"bike_id":"c8a1625c-0c0a-4f3b-9326-8f88f43fb1c6","system_id":"levelo_inurba_marseille","lat":43.254947,"lon":5.376454,"is_reserved":false,"is_disabled":false,"rental_uris":{"android":"levelo://app?vid=c8a1625c-0c0a-4f3b-9326-8f88f43fb1c6","ios":"levelo://app?vid=c8a1625c-0c0a-4f3b-9326-8f88f43fb1c6"},"vehicle_type_id":"4","last_reported":1701432804,"current_range_meters":19200,"station_id":"ce4bhh12rcd13ifvqff0","pricing_plan_id":"free"},{"bike_id":"3480dbc9-a158-4570-98c6-7ad69e1c4b0b","system_id":"levelo_inurba_marseille","lat":43.270721,"lon":5.422764,"is_reserved":false,"is_disabled":false,"rental_uris":{"android":"levelo://app?vid=3480dbc9-a158-4570-98c6-7ad69e1c4b0b","ios":"levelo://app?vid=3480dbc9-a158-4570-98c6-7ad69e1c4b0b"},"vehicle_type_id":"4","last_reported":1701432804,"current_range_meters":12800,"station_id":"ce4bhk92rcd13ifvqgb0","pricing_plan_id":"free"},{"bike_id":"e7c297ee-7be0-477a-9a13-e63a82c1e58d","system_id":"levelo_inurba_marseille","lat":43.258658,"lon":5.398935,"is_reserved":false,"is_disabled":false,"rental_uris":{"android":"levelo://app?vid=e7c297ee-7be0-477a-9a13-e63a82c1e58d","ios":"levelo://app?vid=e7c297ee-7be0-477a-9a13-e63a82c1e58d"},"vehicle_type_id":"4","last_reported":1701432804,"current_range_meters":1200,"station_id":"ce4bhl92rcd13ifvqghg","pricing_plan_id":"free"},{"bike_id":"e1b2856b-8099-4a54-94d5-c122114db280","system_id":"levelo_inurba_marseille","lat":43.258658,"lon":5.398935,"is_reserved":false,"is_disabled":false,"rental_uris":{"android":"levelo://app?vid=e1b2856b-8099-4a54-94d5-c122114db280","ios":"levelo://app?vid=e1b2856b-8099-4a54-94d5-c122114db280"},"vehicle_type_id":"4","last_reported":1701432804,"current_range_meters":27200,"station_id":"ce4bhl92rcd13ifvqghg","pricing_plan_id":"free"},{"bike_id":"a5ce62a4-0578-4bcb-aae8-75dfa37a84d3","system_id":"levelo_inurba_marseille","lat":43.258658,"lon":5.398935,"is_reserved":false,"is_disabled":false,"rental_uris":{"android":"levelo://app?vid=a5ce62a4-0578-4bcb-aae8-75dfa37a84d3","ios":"levelo://app?vid=a5ce62a4-0578-4bcb-aae8-75dfa37a84d3"},"vehicle_type_id":"4","last_reported":1701432804,"current_range_meters":15200,"station_id":"ce4bhl92rcd13ifvqghg","pricing_plan_id":"free"},{"bike_id":"dc650cf6-963c-46bd-9ecf-ef4e317c235a","system_id":"levelo_inurba_marseille","lat":43.258658,"lon":5.398935,"is_reserved":false,"is_disabled":false,"rental_uris":{"android":"levelo://app?vid=dc650cf6-963c-46bd-9ecf-ef4e317c235a","ios":"levelo://app?vid=dc650cf6-963c-46bd-9ecf-ef4e317c235a"},"vehicle_type_id":"4","last_reported":1701432804,"current_range_meters":22800,"station_id":"ce4bhl92rcd13ifvqghg","pricing_plan_id":"free"},{"bike_id":"e78e8cd3-6b4b-45f2-8330-c80ce0324655","system_id":"levelo_inurba_marseille","lat":43.250023,"lon":5.38919,"is_reserved":false,"is_disabled":false,"rental_uris":{"android":"levelo://app?vid=e78e8cd3-6b4b-45f2-8330-c80ce0324655","ios":"levelo://app?vid=e78e8cd3-6b4b-45f2-8330-c80ce0324655"},"vehicle_type_id":"4","last_reported":1701432804,"current_range_meters":25200,"station_id":"ce4bhgp2rcd13ifvqfd0","pricing_plan_id":"free"},{"bike_id":"ee8db93b-5a3c-4076-ba19-5165b8a4fa85","system_id":"levelo_inurba_marseille","lat":43.2479,"lon":5.374457,"is_reserved":false,"is_disabled":false,"rental_uris":{"android":"levelo://app?vid=ee8db93b-5a3c-4076-ba19-5165b8a4fa85","ios":"levelo://app?vid=ee8db93b-5a3c-4076-ba19-5165b8a4fa85"},"vehicle_type_id":"4","last_reported":1701432804,"current_range_meters":19600,"station_id":"ce4bhgh2rcd13ifvqfb0","pricing_plan_id":"free"},{"bike_id":"998c1174-99ab-4094-9df0-d6eb3f8f43c1","system_id":"levelo_inurba_marseille","lat":43.250966,"lon":5.395186,"is_reserved":false,"is_disabled":false,"rental_uris":{"android":"levelo://app?vid=998c1174-99ab-4094-9df0-d6eb3f8f43c1","ios":"levelo://app?vid=998c1174-99ab-4094-9df0-d6eb3f8f43c1"},"vehicle_type_id":"4","last_reported":1701432804,"current_range_meters":31200,"station_id":"ce4bhm12rcd13ifvqgkg","pricing_plan_id":"free"},{"bike_id":"4ad8402d-d2b7-4b5f-a1c3-14b9dfd024cf","system_id":"levelo_inurba_marseille","lat":43.250966,"lon":5.395186,"is_reserved":false,"is_disabled":false,"rental_uris":{"android":"levelo://app?vid=4ad8402d-d2b7-4b5f-a1c3-14b9dfd024cf","ios":"levelo://app?vid=4ad8402d-d2b7-4b5f-a1c3-14b9dfd024cf"},"vehicle_type_id":"4","last_reported":1701432804,"current_range_meters":23200,"station_id":"ce4bhm12rcd13ifvqgkg","pricing_plan_id":"free"},{"bike_id":"cb938066-d8a6-4d83-9100-1429f7ddc323","system_id":"levelo_inurba_marseille","lat":43.24693,"lon":5.382096,"is_reserved":false,"is_disabled":false,"rental_uris":{"android":"levelo://app?vid=cb938066-d8a6-4d83-9100-1429f7ddc323","ios":"levelo://app?vid=cb938066-d8a6-4d83-9100-1429f7ddc323"},"vehicle_type_id":"4","last_reported":1701432804,"current_range_meters":27600,"station_id":"ce4bhih2rcd13ifvqfr0","pricing_plan_id":"free"},{"bike_id":"59cf6d6b-d7f0-4625-8cd9-7b7a3fc5ea32","system_id":"levelo_inurba_marseille","lat":43.25102,"lon":5.403214,"is_reserved":false,"is_disabled":false,"rental_uris":{"android":"levelo://app?vid=59cf6d6b-d7f0-4625-8cd9-7b7a3fc5ea32","ios":"levelo://app?vid=59cf6d6b-d7f0-4625-8cd9-7b7a3fc5ea32"},"vehicle_type_id":"4","last_reported":1701432804,"current_range_meters":27600,"station_id":"ce4bhlh2rcd13ifvqgig","pricing_plan_id":"free"},{"bike_id":"3fc4df38-d0ef-4a13-8ddb-8e9663903a32","system_id":"levelo_inurba_marseille","lat":43.24693,"lon":5.382096,"is_reserved":false,"is_disabled":false,"rental_uris":{"android":"levelo://app?vid=3fc4df38-d0ef-4a13-8ddb-8e9663903a32","ios":"levelo://app?vid=3fc4df38-d0ef-4a13-8ddb-8e9663903a32"},"vehicle_type_id":"4","last_reported":1701432804,"current_range_meters":28000,"station_id":"ce4bhih2rcd13ifvqfr0","pricing_plan_id":"free"},{"bike_id":"a6fb93bb-27c3-4cc3-95bf-e4dbd1c05b01","system_id":"levelo_inurba_marseille","lat":43.25102,"lon":5.403214,"is_reserved":false,"is_disabled":false,"rental_uris":{"android":"levelo://app?vid=a6fb93bb-27c3-4cc3-95bf-e4dbd1c05b01","ios":"levelo://app?vid=a6fb93bb-27c3-4cc3-95bf-e4dbd1c05b01"},"vehicle_type_id":"4","last_reported":1701432804,"current_range_meters":31200,"station_id":"ce4bhlh2rcd13ifvqgig","pricing_plan_id":"free"},{"bike_id":"edc0e680-2548-4339-8fb5-1532d40e4393","system_id":"levelo_inurba_marseille","lat":43.25102,"lon":5.403214,"is_reserved":false,"is_disabled":false,"rental_uris":{"android":"levelo://app?vid=edc0e680-2548-4339-8fb5-1532d40e4393","ios":"levelo://app?vid=edc0e680-2548-4339-8fb5-1532d40e4393"},"vehicle_type_id":"4","last_reported":1701432804,"current_range_meters":29200,"station_id":"ce4bhlh2rcd13ifvqgig","pricing_plan_id":"free"},{"bike_id":"e791f8d3-8957-42b4-8101-aea576b91388","system_id":"levelo_inurba_marseille","lat":43.25102,"lon":5.403214,"is_reserved":false,"is_disabled":false,"rental_uris":{"android":"levelo://app?vid=e791f8d3-8957-42b4-8101-aea576b91388","ios":"levelo://app?vid=e791f8d3-8957-42b4-8101-aea576b91388"},"vehicle_type_id":"4","last_reported":1701432804,"current_range_meters":30800,"station_id":"ce4bhlh2rcd13ifvqgig","pricing_plan_id":"free"},{"bike_id":"fd3461e4-1744-459a-9a63-ffaaba8fe639","system_id":"levelo_inurba_marseille","lat":43.25102,"lon":5.403214,"is_reserved":false,"is_disabled":false,"rental_uris":{"android":"levelo://app?vid=fd3461e4-1744-459a-9a63-ffaaba8fe639","ios":"levelo://app?vid=fd3461e4-1744-459a-9a63-ffaaba8fe639"},"vehicle_type_id":"4","last_reported":1701432804,"current_range_meters":5200,"station_id":"ce4bhlh2rcd13ifvqgig","pricing_plan_id":"free"},{"bike_id":"a6da36e1-1352-4311-9101-d4370f9b2fef","system_id":"levelo_inurba_marseille","lat":43.25102,"lon":5.403214,"is_reserved":false,"is_disabled":false,"rental_uris":{"android":"levelo://app?vid=a6da36e1-1352-4311-9101-d4370f9b2fef","ios":"levelo://app?vid=a6da36e1-1352-4311-9101-d4370f9b2fef"},"vehicle_type_id":"4","last_reported":1701432804,"current_range_meters":19200,"station_id":"ce4bhlh2rcd13ifvqgig","pricing_plan_id":"free"},{"bike_id":"c2f1e999-97d1-4144-8d54-51ab8659f27c","system_id":"levelo_inurba_marseille","lat":43.25102,"lon":5.403214,"is_reserved":false,"is_disabled":false,"rental_uris":{"android":"levelo://app?vid=c2f1e999-97d1-4144-8d54-51ab8659f27c","ios":"levelo://app?vid=c2f1e999-97d1-4144-8d54-51ab8659f27c"},"vehicle_type_id":"4","last_reported":1701432804,"current_range_meters":22000,"station_id":"ce4bhlh2rcd13ifvqgig","pricing_plan_id":"free"},{"bike_id":"e01bf6df-6de6-43ed-8a5f-d0889acbdcfc","system_id":"levelo_inurba_marseille","lat":43.25102,"lon":5.403214,"is_reserved":false,"is_disabled":false,"rental_uris":{"android":"levelo://app?vid=e01bf6df-6de6-43ed-8a5f-d0889acbdcfc","ios":"levelo://app?vid=e01bf6df-6de6-43ed-8a5f-d0889acbdcfc"},"vehicle_type_id":"4","last_reported":1701432804,"current_range_meters":15200,"station_id":"ce4bhlh2rcd13ifvqgig","pricing_plan_id":"free"},{"bike_id":"c0e62aaa-5463-40b9-b530-ba2c8260d22b","system_id":"levelo_inurba_marseille","lat":43.25102,"lon":5.403214,"is_reserved":false,"is_disabled":false,"rental_uris":{"android":"levelo://app?vid=c0e62aaa-5463-40b9-b530-ba2c8260d22b","ios":"levelo://app?vid=c0e62aaa-5463-40b9-b530-ba2c8260d22b"},"vehicle_type_id":"4","last_reported":1701432804,"current_range_meters":28000,"station_id":"ce4bhlh2rcd13ifvqgig","pricing_plan_id":"free"},{"bike_id":"ab5941e3-358d-47b1-95f7-f502dec4ea3f","system_id":"levelo_inurba_marseille","lat":43.25102,"lon":5.403214,"is_reserved":false,"is_disabled":false,"rental_uris":{"android":"levelo://app?vid=ab5941e3-358d-47b1-95f7-f502dec4ea3f","ios":"levelo://app?vid=ab5941e3-358d-47b1-95f7-f502dec4ea3f"},"vehicle_type_id":"4","last_reported":1701432804,"current_range_meters":10400,"station_id":"ce4bhlh2rcd13ifvqgig","pricing_plan_id":"free"},{"bike_id":"f1db8391-f04b-4363-8199-d54b9615e8af","system_id":"levelo_inurba_marseille","lat":43.25102,"lon":5.403214,"is_reserved":false,"is_disabled":false,"rental_uris":{"android":"levelo://app?vid=f1db8391-f04b-4363-8199-d54b9615e8af","ios":"levelo://app?vid=f1db8391-f04b-4363-8199-d54b9615e8af"},"vehicle_type_id":"4","last_reported":1701432804,"current_range_meters":20000,"station_id":"ce4bhlh2rcd13ifvqgig","pricing_plan_id":"free"},{"bike_id":"e7aad632-367b-4496-9cef-bcfeaf0ec9a0","system_id":"levelo_inurba_marseille","lat":43.246461,"lon":5.389014,"is_reserved":false,"is_disabled":false,"rental_uris":{"android":"levelo://app?vid=e7aad632-367b-4496-9cef-bcfeaf0ec9a0","ios":"levelo://app?vid=e7aad632-367b-4496-9cef-bcfeaf0ec9a0"},"vehicle_type_id":"4","last_reported":1701432804,"current_range_meters":27200,"station_id":"ce4bhg12rcd13ifvqf60","pricing_plan_id":"free"},{"bike_id":"20ade4d2-ff6b-405b-889b-9490703c7f46","system_id":"levelo_inurba_marseille","lat":43.243883,"lon":5.370578,"is_reserved":false,"is_disabled":false,"rental_uris":{"android":"levelo://app?vid=20ade4d2-ff6b-405b-889b-9490703c7f46","ios":"levelo://app?vid=20ade4d2-ff6b-405b-889b-9490703c7f46"},"vehicle_type_id":"4","last_reported":1701432804,"current_range_meters":26800,"station_id":"ce4bhnp2rcd13ifvqgvg","pricing_plan_id":"free"},{"bike_id":"3f40b8d6-6aad-4c0c-bfb2-cb669e0e37ab","system_id":"levelo_inurba_marseille","lat":43.245581,"lon":5.395069,"is_reserved":false,"is_disabled":false,"rental_uris":{"android":"levelo://app?vid=3f40b8d6-6aad-4c0c-bfb2-cb669e0e37ab","ios":"levelo://app?vid=3f40b8d6-6aad-4c0c-bfb2-cb669e0e37ab"},"vehicle_type_id":"4","last_reported":1701432804,"current_range_meters":22400,"station_id":"ce4bhlp2rcd13ifvqgjg","pricing_plan_id":"free"},{"bike_id":"489645aa-b661-4e96-97a5-5741bba912cf","system_id":"levelo_inurba_marseille","lat":43.245581,"lon":5.395069,"is_reserved":false,"is_disabled":false,"rental_uris":{"android":"levelo://app?vid=489645aa-b661-4e96-97a5-5741bba912cf","ios":"levelo://app?vid=489645aa-b661-4e96-97a5-5741bba912cf"},"vehicle_type_id":"4","last_reported":1701432804,"current_range_meters":21600,"station_id":"ce4bhlp2rcd13ifvqgjg","pricing_plan_id":"free"},{"bike_id":"89e89ae1-561a-417d-b0a8-5583f5994ce5","system_id":"levelo_inurba_marseille","lat":43.239588,"lon":5.366238,"is_reserved":false,"is_disabled":false,"rental_uris":{"android":"levelo://app?vid=89e89ae1-561a-417d-b0a8-5583f5994ce5","ios":"levelo://app?vid=89e89ae1-561a-417d-b0a8-5583f5994ce5"},"vehicle_type_id":"4","last_reported":1701432804,"current_range_meters":7200,"station_id":"ce4bhi12rcd13ifvqfp0","pricing_plan_id":"free"},{"bike_id":"81c09cca-d601-4e28-a05e-741e7272df3b","system_id":"levelo_inurba_marseille","lat":43.239588,"lon":5.366238,"is_reserved":false,"is_disabled":false,"rental_uris":{"android":"levelo://app?vid=81c09cca-d601-4e28-a05e-741e7272df3b","ios":"levelo://app?vid=81c09cca-d601-4e28-a05e-741e7272df3b"},"vehicle_type_id":"4","last_reported":1701432804,"current_range_meters":19200,"station_id":"ce4bhi12rcd13ifvqfp0","pricing_plan_id":"free"},{"bike_id":"583a53df-134f-45ee-b3c1-20529afc21e4","system_id":"levelo_inurba_marseille","lat":43.239588,"lon":5.366238,"is_reserved":false,"is_disabled":false,"rental_uris":{"android":"levelo://app?vid=583a53df-134f-45ee-b3c1-20529afc21e4","ios":"levelo://app?vid=583a53df-134f-45ee-b3c1-20529afc21e4"},"vehicle_type_id":"4","last_reported":1701432804,"current_range_meters":31200,"station_id":"ce4bhi12rcd13ifvqfp0","pricing_plan_id":"free"},{"bike_id":"da3ec03a-dc77-4808-a39f-0b8aa15e0ea4","system_id":"levelo_inurba_marseille","lat":43.239588,"lon":5.366238,"is_reserved":false,"is_disabled":false,"rental_uris":{"android":"levelo://app?vid=da3ec03a-dc77-4808-a39f-0b8aa15e0ea4","ios":"levelo://app?vid=da3ec03a-dc77-4808-a39f-0b8aa15e0ea4"},"vehicle_type_id":"4","last_reported":1701432804,"current_range_meters":15200,"station_id":"ce4bhi12rcd13ifvqfp0","pricing_plan_id":"free"},{"bike_id":"844fd67d-b4a5-407c-ab5c-a2388b69a29e","system_id":"levelo_inurba_marseille","lat":43.239588,"lon":5.366238,"is_reserved":false,"is_disabled":false,"rental_uris":{"android":"levelo://app?vid=844fd67d-b4a5-407c-ab5c-a2388b69a29e","ios":"levelo://app?vid=844fd67d-b4a5-407c-ab5c-a2388b69a29e"},"vehicle_type_id":"4","last_reported":1701432804,"current_range_meters":19600,"station_id":"ce4bhi12rcd13ifvqfp0","pricing_plan_id":"free"},{"bike_id":"b1c07ad8-bedb-4d01-9f72-22a27e6c4c39","system_id":"levelo_inurba_marseille","lat":43.239588,"lon":5.366238,"is_reserved":false,"is_disabled":false,"rental_uris":{"android":"levelo://app?vid=b1c07ad8-bedb-4d01-9f72-22a27e6c4c39","ios":"levelo://app?vid=b1c07ad8-bedb-4d01-9f72-22a27e6c4c39"},"vehicle_type_id":"4","last_reported":1701432804,"current_range_meters":21600,"station_id":"ce4bhi12rcd13ifvqfp0","pricing_plan_id":"free"},{"bike_id":"d0c9cb41-27a9-4ef4-8576-d6d4e0718f10","system_id":"levelo_inurba_marseille","lat":43.2418,"lon":5.39734,"is_reserved":false,"is_disabled":false,"rental_uris":{"android":"levelo://app?vid=d0c9cb41-27a9-4ef4-8576-d6d4e0718f10","ios":"levelo://app?vid=d0c9cb41-27a9-4ef4-8576-d6d4e0718f10"},"vehicle_type_id":"4","last_reported":1701432804,"current_range_meters":20000,"station_id":"ce4bhn12rcd13ifvqgpg","pricing_plan_id":"free"},{"bike_id":"2b87974a-d432-4d0d-9e2e-39ef327a82c9","system_id":"levelo_inurba_marseille","lat":43.241782,"lon":5.397261,"is_reserved":false,"is_disabled":false,"rental_uris":{"android":"levelo://app?vid=2b87974a-d432-4d0d-9e2e-39ef327a82c9","ios":"levelo://app?vid=2b87974a-d432-4d0d-9e2e-39ef327a82c9"},"vehicle_type_id":"4","last_reported":1701432804,"current_range_meters":3200,"station_id":"ce4bhn12rcd13ifvqgpg","pricing_plan_id":"free"},{"bike_id":"460ff11d-43d6-4fa0-9381-c598ad26d49a","system_id":"levelo_inurba_marseille","lat":43.241782,"lon":5.397261,"is_reserved":false,"is_disabled":false,"rental_uris":{"android":"levelo://app?vid=460ff11d-43d6-4fa0-9381-c598ad26d49a","ios":"levelo://app?vid=460ff11d-43d6-4fa0-9381-c598ad26d49a"},"vehicle_type_id":"4","last_reported":1701432804,"current_range_meters":26000,"station_id":"ce4bhn12rcd13ifvqgpg","pricing_plan_id":"free"},{"bike_id":"3ed8aab0-8075-4621-8453-065c420c9ecf","system_id":"levelo_inurba_marseille","lat":43.231923,"lon":5.355545,"is_reserved":false,"is_disabled":false,"rental_uris":{"android":"levelo://app?vid=3ed8aab0-8075-4621-8453-065c420c9ecf","ios":"levelo://app?vid=3ed8aab0-8075-4621-8453-065c420c9ecf"},"vehicle_type_id":"4","last_reported":1701432804,"current_range_meters":9200,"station_id":"ce4bhu92rcd13ifvqi70","pricing_plan_id":"free"},{"bike_id":"6382809b-45d0-4ad2-8be7-697249f82077","system_id":"levelo_inurba_marseille","lat":43.231919,"lon":5.355532,"is_reserved":false,"is_disabled":false,"rental_uris":{"android":"levelo://app?vid=6382809b-45d0-4ad2-8be7-697249f82077","ios":"levelo://app?vid=6382809b-45d0-4ad2-8be7-697249f82077"},"vehicle_type_id":"4","last_reported":1701432804,"current_range_meters":32000,"station_id":"ce4bhu92rcd13ifvqi70","pricing_plan_id":"free"},{"bike_id":"d1703505-b125-4a98-a807-11024241bc04","system_id":"levelo_inurba_marseille","lat":43.231923,"lon":5.355545,"is_reserved":false,"is_disabled":false,"rental_uris":{"android":"levelo://app?vid=d1703505-b125-4a98-a807-11024241bc04","ios":"levelo://app?vid=d1703505-b125-4a98-a807-11024241bc04"},"vehicle_type_id":"4","last_reported":1701432804,"current_range_meters":31600,"station_id":"ce4bhu92rcd13ifvqi70","pricing_plan_id":"free"},{"bike_id":"cf3102c4-88e0-4a41-86b7-69a76932d3e6","system_id":"levelo_inurba_marseille","lat":43.231923,"lon":5.355545,"is_reserved":false,"is_disabled":false,"rental_uris":{"android":"levelo://app?vid=cf3102c4-88e0-4a41-86b7-69a76932d3e6","ios":"levelo://app?vid=cf3102c4-88e0-4a41-86b7-69a76932d3e6"},"vehicle_type_id":"4","last_reported":1701432804,"current_range_meters":32000,"station_id":"ce4bhu92rcd13ifvqi70","pricing_plan_id":"free"},{"bike_id":"7f5af501-e128-4f28-933c-8a3eca0e52cd","system_id":"levelo_inurba_marseille","lat":43.231919,"lon":5.355532,"is_reserved":false,"is_disabled":false,"rental_uris":{"android":"levelo://app?vid=7f5af501-e128-4f28-933c-8a3eca0e52cd","ios":"levelo://app?vid=7f5af501-e128-4f28-933c-8a3eca0e52cd"},"vehicle_type_id":"4","last_reported":1701432804,"current_range_meters":20000,"station_id":"ce4bhu92rcd13ifvqi70","pricing_plan_id":"free"},{"bike_id":"cdfcf9d8-5b42-40a1-9c86-605bac4b94e5","system_id":"levelo_inurba_marseille","lat":43.23186,"lon":5.3999,"is_reserved":false,"is_disabled":false,"rental_uris":{"android":"levelo://app?vid=cdfcf9d8-5b42-40a1-9c86-605bac4b94e5","ios":"levelo://app?vid=cdfcf9d8-5b42-40a1-9c86-605bac4b94e5"},"vehicle_type_id":"4","last_reported":1701432804,"current_range_meters":22400,"station_id":"ce4bhn12rcd13ifvqgqg","pricing_plan_id":"free"},{"bike_id":"c7c2550a-b1a8-47c5-84f9-e24deae05cc5","system_id":"levelo_inurba_marseille","lat":43.231794,"lon":5.400052,"is_reserved":false,"is_disabled":false,"rental_uris":{"android":"levelo://app?vid=c7c2550a-b1a8-47c5-84f9-e24deae05cc5","ios":"levelo://app?vid=c7c2550a-b1a8-47c5-84f9-e24deae05cc5"},"vehicle_type_id":"4","last_reported":1701432804,"current_range_meters":13600,"station_id":"ce4bhn12rcd13ifvqgqg","pricing_plan_id":"free"},{"bike_id":"1eeab9a5-d341-4bc8-8d21-ee151ff9d9b2","system_id":"levelo_inurba_marseille","lat":43.23183,"lon":5.3999,"is_reserved":false,"is_disabled":false,"rental_uris":{"android":"levelo://app?vid=1eeab9a5-d341-4bc8-8d21-ee151ff9d9b2","ios":"levelo://app?vid=1eeab9a5-d341-4bc8-8d21-ee151ff9d9b2"},"vehicle_type_id":"4","last_reported":1701432804,"current_range_meters":23600,"station_id":"ce4bhn12rcd13ifvqgqg","pricing_plan_id":"free"},{"bike_id":"bfbf86f9-eb6d-40ac-bccf-c5bca120a52b","system_id":"levelo_inurba_marseille","lat":43.231798,"lon":5.399883,"is_reserved":false,"is_disabled":false,"rental_uris":{"android":"levelo://app?vid=bfbf86f9-eb6d-40ac-bccf-c5bca120a52b","ios":"levelo://app?vid=bfbf86f9-eb6d-40ac-bccf-c5bca120a52b"},"vehicle_type_id":"4","last_reported":1701432804,"current_range_meters":11200,"station_id":"ce4bhn12rcd13ifvqgqg","pricing_plan_id":"free"},{"bike_id":"8e447efe-183b-4ace-aca0-2471e53b63cd","system_id":"levelo_inurba_marseille","lat":43.231793,"lon":5.399927,"is_reserved":false,"is_disabled":false,"rental_uris":{"android":"levelo://app?vid=8e447efe-183b-4ace-aca0-2471e53b63cd","ios":"levelo://app?vid=8e447efe-183b-4ace-aca0-2471e53b63cd"},"vehicle_type_id":"4","last_reported":1701432804,"current_range_meters":14800,"station_id":"ce4bhn12rcd13ifvqgqg","pricing_plan_id":"free"},{"bike_id":"6e7aed17-598c-401c-9356-1f9995bbf8eb","system_id":"levelo_inurba_marseille","lat":43.231794,"lon":5.400052,"is_reserved":false,"is_disabled":false,"rental_uris":{"android":"levelo://app?vid=6e7aed17-598c-401c-9356-1f9995bbf8eb","ios":"levelo://app?vid=6e7aed17-598c-401c-9356-1f9995bbf8eb"},"vehicle_type_id":"4","last_reported":1701432804,"current_range_meters":27600,"station_id":"ce4bhn12rcd13ifvqgqg","pricing_plan_id":"free"},{"bike_id":"9ec4d738-ea9f-4c61-a322-9ccca67f5ebd","system_id":"levelo_inurba_marseille","lat":43.231794,"lon":5.400052,"is_reserved":false,"is_disabled":false,"rental_uris":{"android":"levelo://app?vid=9ec4d738-ea9f-4c61-a322-9ccca67f5ebd","ios":"levelo://app?vid=9ec4d738-ea9f-4c61-a322-9ccca67f5ebd"},"vehicle_type_id":"4","last_reported":1701432804,"current_range_meters":28400,"station_id":"ce4bhn12rcd13ifvqgqg","pricing_plan_id":"free"},{"bike_id":"5e0b9ac3-7ef5-4943-a734-acac320e6c40","system_id":"levelo_inurba_marseille","lat":43.23178,"lon":5.39993,"is_reserved":false,"is_disabled":false,"rental_uris":{"android":"levelo://app?vid=5e0b9ac3-7ef5-4943-a734-acac320e6c40","ios":"levelo://app?vid=5e0b9ac3-7ef5-4943-a734-acac320e6c40"},"vehicle_type_id":"4","last_reported":1701432804,"current_range_meters":5600,"station_id":"ce4bhn12rcd13ifvqgqg","pricing_plan_id":"free"},{"bike_id":"d337a43c-2d4b-48f0-991f-0d794abfbfce","system_id":"levelo_inurba_marseille","lat":43.231794,"lon":5.400052,"is_reserved":false,"is_disabled":false,"rental_uris":{"android":"levelo://app?vid=d337a43c-2d4b-48f0-991f-0d794abfbfce","ios":"levelo://app?vid=d337a43c-2d4b-48f0-991f-0d794abfbfce"},"vehicle_type_id":"4","last_reported":1701432804,"current_range_meters":7200,"station_id":"ce4bhn12rcd13ifvqgqg","pricing_plan_id":"free"},{"bike_id":"56fd9b88-08ea-46d9-ab49-cebc1a4dc57f","system_id":"levelo_inurba_marseille","lat":43.231794,"lon":5.400052,"is_reserved":false,"is_disabled":false,"rental_uris":{"android":"levelo://app?vid=56fd9b88-08ea-46d9-ab49-cebc1a4dc57f","ios":"levelo://app?vid=56fd9b88-08ea-46d9-ab49-cebc1a4dc57f"},"vehicle_type_id":"4","last_reported":1701432804,"current_range_meters":23200,"station_id":"ce4bhn12rcd13ifvqgqg","pricing_plan_id":"free"},{"bike_id":"3c3a205c-1d71-49e8-bb20-8b30a82c0e3e","system_id":"levelo_inurba_marseille","lat":43.231794,"lon":5.400052,"is_reserved":false,"is_disabled":false,"rental_uris":{"android":"levelo://app?vid=3c3a205c-1d71-49e8-bb20-8b30a82c0e3e","ios":"levelo://app?vid=3c3a205c-1d71-49e8-bb20-8b30a82c0e3e"},"vehicle_type_id":"4","last_reported":1701432804,"current_range_meters":0,"station_id":"ce4bhn12rcd13ifvqgqg","pricing_plan_id":"free"},{"bike_id":"a16c4306-025a-4fd8-97c3-2b13abc3d7b4","system_id":"levelo_inurba_marseille","lat":43.231562,"lon":5.436933,"is_reserved":false,"is_disabled":false,"rental_uris":{"android":"levelo://app?vid=a16c4306-025a-4fd8-97c3-2b13abc3d7b4","ios":"levelo://app?vid=a16c4306-025a-4fd8-97c3-2b13abc3d7b4"},"vehicle_type_id":"4","last_reported":1701432804,"current_range_meters":12800,"station_id":"ce4bhmp2rcd13ifvqgog","pricing_plan_id":"free"},{"bike_id":"7161324f-2e2a-42a6-8086-e831f0830dc4","system_id":"levelo_inurba_marseille","lat":43.231562,"lon":5.436933,"is_reserved":false,"is_disabled":false,"rental_uris":{"android":"levelo://app?vid=7161324f-2e2a-42a6-8086-e831f0830dc4","ios":"levelo://app?vid=7161324f-2e2a-42a6-8086-e831f0830dc4"},"vehicle_type_id":"4","last_reported":1701432804,"current_range_meters":5600,"station_id":"ce4bhmp2rcd13ifvqgog","pricing_plan_id":"free"},{"bike_id":"16142c69-3ea7-4628-8f42-f75831211f2c","system_id":"levelo_inurba_marseille","lat":43.231562,"lon":5.436933,"is_reserved":false,"is_disabled":false,"rental_uris":{"android":"levelo://app?vid=16142c69-3ea7-4628-8f42-f75831211f2c","ios":"levelo://app?vid=16142c69-3ea7-4628-8f42-f75831211f2c"},"vehicle_type_id":"4","last_reported":1701432804,"current_range_meters":10800,"station_id":"ce4bhmp2rcd13ifvqgog","pricing_plan_id":"free"},{"bike_id":"e860733d-32b2-4530-9269-159d78c73731","system_id":"levelo_inurba_marseille","lat":43.23148,"lon":5.43715,"is_reserved":false,"is_disabled":false,"rental_uris":{"android":"levelo://app?vid=e860733d-32b2-4530-9269-159d78c73731","ios":"levelo://app?vid=e860733d-32b2-4530-9269-159d78c73731"},"vehicle_type_id":"4","last_reported":1701432804,"current_range_meters":28000,"station_id":"ce4bhmp2rcd13ifvqgog","pricing_plan_id":"free"},{"bike_id":"3981a8fd-24c6-4214-aeb3-6399f0bdb1e3","system_id":"levelo_inurba_marseille","lat":43.231562,"lon":5.436933,"is_reserved":false,"is_disabled":false,"rental_uris":{"android":"levelo://app?vid=3981a8fd-24c6-4214-aeb3-6399f0bdb1e3","ios":"levelo://app?vid=3981a8fd-24c6-4214-aeb3-6399f0bdb1e3"},"vehicle_type_id":"4","last_reported":1701432804,"current_range_meters":31600,"station_id":"ce4bhmp2rcd13ifvqgog","pricing_plan_id":"free"},{"bike_id":"1b49a464-cf33-4093-a58f-a6ea95f6dcf1","system_id":"levelo_inurba_marseille","lat":43.23148,"lon":5.43722,"is_reserved":false,"is_disabled":false,"rental_uris":{"android":"levelo://app?vid=1b49a464-cf33-4093-a58f-a6ea95f6dcf1","ios":"levelo://app?vid=1b49a464-cf33-4093-a58f-a6ea95f6dcf1"},"vehicle_type_id":"4","last_reported":1701432804,"current_range_meters":11600,"station_id":"ce4bhmp2rcd13ifvqgog","pricing_plan_id":"free"},{"bike_id":"8f7bf4bc-06c1-4fe0-9dd1-fbfece98a6a0","system_id":"levelo_inurba_marseille","lat":43.231562,"lon":5.436933,"is_reserved":false,"is_disabled":false,"rental_uris":{"android":"levelo://app?vid=8f7bf4bc-06c1-4fe0-9dd1-fbfece98a6a0","ios":"levelo://app?vid=8f7bf4bc-06c1-4fe0-9dd1-fbfece98a6a0"},"vehicle_type_id":"4","last_reported":1701432804,"current_range_meters":18400,"station_id":"ce4bhmp2rcd13ifvqgog","pricing_plan_id":"free"},{"bike_id":"9b2f92f0-7b31-452f-80c7-f6e0e9fd621d","system_id":"levelo_inurba_marseille","lat":43.231562,"lon":5.436933,"is_reserved":false,"is_disabled":false,"rental_uris":{"android":"levelo://app?vid=9b2f92f0-7b31-452f-80c7-f6e0e9fd621d","ios":"levelo://app?vid=9b2f92f0-7b31-452f-80c7-f6e0e9fd621d"},"vehicle_type_id":"4","last_reported":1701432804,"current_range_meters":18000,"station_id":"ce4bhmp2rcd13ifvqgog","pricing_plan_id":"free"}]}}