{"last_updated":1774088177,"ttl":60,"version":"2.2","data":{"bikes":[{"bike_id":"cc2b2e8b-fb1d-4616-8447-851c70af165a","system_id":"levelo_inurba_marseille","lat":43.29435,"lon":5.39752,"is_reserved":false,"is_disabled":false,"rental_uris":{"android":"levelo://app?vid=cc2b2e8b-fb1d-4616-8447-851c70af165a","ios":"levelo://app?vid=cc2b2e8b-fb1d-4616-8447-851c70af165a"},"vehicle_type_id":"4","last_reported":1774088177,"current_range_meters":800,"station_id":"ce4bh3h2rcd13ifvqdo0","pricing_plan_id":"cebpf4jnsgd1na2vs0mg"},{"bike_id":"9c49ed4a-3e09-4efe-bfbd-b8dbbe63b339","system_id":"levelo_inurba_marseille","lat":43.26588,"lon":5.39001,"is_reserved":false,"is_disabled":false,"rental_uris":{"android":"levelo://app?vid=9c49ed4a-3e09-4efe-bfbd-b8dbbe63b339","ios":"levelo://app?vid=9c49ed4a-3e09-4efe-bfbd-b8dbbe63b339"},"vehicle_type_id":"4","last_reported":1774088177,"current_range_meters":800,"station_id":"ce4bhe12rcd13ifvqf30","pricing_plan_id":"cebpf4jnsgd1na2vs0mg"},{"bike_id":"14e04f51-6012-47f2-a15a-594508b26271","system_id":"levelo_inurba_marseille","lat":43.27448,"lon":5.4361,"is_reserved":false,"is_disabled":false,"rental_uris":{"android":"levelo://app?vid=14e04f51-6012-47f2-a15a-594508b26271","ios":"levelo://app?vid=14e04f51-6012-47f2-a15a-594508b26271"},"vehicle_type_id":"4","last_reported":1774088177,"current_range_meters":800,"station_id":"ce4bhk92rcd13ifvqgb0","pricing_plan_id":"cebpf4jnsgd1na2vs0mg"},{"bike_id":"3bcd3f37-7909-4e8a-be03-a9562a2c0e45","system_id":"levelo_inurba_marseille","lat":43.28482,"lon":5.48395,"is_reserved":false,"is_disabled":false,"rental_uris":{"android":"levelo://app?vid=3bcd3f37-7909-4e8a-be03-a9562a2c0e45","ios":"levelo://app?vid=3bcd3f37-7909-4e8a-be03-a9562a2c0e45"},"vehicle_type_id":"4","last_reported":1774088177,"current_range_meters":2800,"station_id":"","pricing_plan_id":"cebpf4jnsgd1na2vs0mg"},{"bike_id":"2a17477f-7ad3-440b-a32a-6ec6a1b88e4d","system_id":"levelo_inurba_marseille","lat":43.2395,"lon":5.36628,"is_reserved":false,"is_disabled":false,"rental_uris":{"android":"levelo://app?vid=2a17477f-7ad3-440b-a32a-6ec6a1b88e4d","ios":"levelo://app?vid=2a17477f-7ad3-440b-a32a-6ec6a1b88e4d"},"vehicle_type_id":"4","last_reported":1774088177,"current_range_meters":2800,"station_id":"ce4bhi12rcd13ifvqfp0","pricing_plan_id":"cebpf4jnsgd1na2vs0mg"},{"bike_id":"449bba4d-60d9-480f-bd35-6032d96f5712","system_id":"levelo_inurba_marseille","lat":43.29732,"lon":5.37687,"is_reserved":false,"is_disabled":false,"rental_uris":{"android":"levelo://app?vid=449bba4d-60d9-480f-bd35-6032d96f5712","ios":"levelo://app?vid=449bba4d-60d9-480f-bd35-6032d96f5712"},"vehicle_type_id":"4","last_reported":1774088177,"current_range_meters":2800,"station_id":"ce4bgkh2rcd13ifvqbl0","pricing_plan_id":"cebpf4jnsgd1na2vs0mg"},{"bike_id":"9af1a280-5540-4349-bfd9-a67a69c6d951","system_id":"levelo_inurba_marseille","lat":43.26054,"lon":5.39394,"is_reserved":false,"is_disabled":false,"rental_uris":{"android":"levelo://app?vid=9af1a280-5540-4349-bfd9-a67a69c6d951","ios":"levelo://app?vid=9af1a280-5540-4349-bfd9-a67a69c6d951"},"vehicle_type_id":"4","last_reported":1774088177,"current_range_meters":2800,"station_id":"ce4bhh92rcd13ifvqfj0","pricing_plan_id":"cebpf4jnsgd1na2vs0mg"},{"bike_id":"e08d225b-8f4a-4ce0-895d-d9f7f842408c","system_id":"levelo_inurba_marseille","lat":43.2417,"lon":5.36397,"is_reserved":false,"is_disabled":false,"rental_uris":{"android":"levelo://app?vid=e08d225b-8f4a-4ce0-895d-d9f7f842408c","ios":"levelo://app?vid=e08d225b-8f4a-4ce0-895d-d9f7f842408c"},"vehicle_type_id":"4","last_reported":1774088177,"current_range_meters":2800,"station_id":"cpo36qri1sfpv3e86is0","pricing_plan_id":"cebpf4jnsgd1na2vs0mg"},{"bike_id":"01336356-e80e-417b-b560-1299fb2b23e4","system_id":"levelo_inurba_marseille","lat":43.2482,"lon":5.37437,"is_reserved":false,"is_disabled":false,"rental_uris":{"android":"levelo://app?vid=01336356-e80e-417b-b560-1299fb2b23e4","ios":"levelo://app?vid=01336356-e80e-417b-b560-1299fb2b23e4"},"vehicle_type_id":"4","last_reported":1774088177,"current_range_meters":2800,"station_id":"ce4bhgh2rcd13ifvqfb0","pricing_plan_id":"cebpf4jnsgd1na2vs0mg"},{"bike_id":"3c76fb79-92b3-4803-a35d-7a9a81d21794","system_id":"levelo_inurba_marseille","lat":43.22939,"lon":5.35377,"is_reserved":false,"is_disabled":false,"rental_uris":{"android":"levelo://app?vid=3c76fb79-92b3-4803-a35d-7a9a81d21794","ios":"levelo://app?vid=3c76fb79-92b3-4803-a35d-7a9a81d21794"},"vehicle_type_id":"4","last_reported":1774088177,"current_range_meters":2800,"station_id":"cpo3532slgdg3j2ikp40","pricing_plan_id":"cebpf4jnsgd1na2vs0mg"},{"bike_id":"e6efd3f7-63f1-464c-b2f5-01e465ed7711","system_id":"levelo_inurba_marseille","lat":43.337444,"lon":5.374475,"is_reserved":false,"is_disabled":false,"rental_uris":{"android":"levelo://app?vid=e6efd3f7-63f1-464c-b2f5-01e465ed7711","ios":"levelo://app?vid=e6efd3f7-63f1-464c-b2f5-01e465ed7711"},"vehicle_type_id":"4","last_reported":1774088177,"current_range_meters":2800,"station_id":"","pricing_plan_id":"cebpf4jnsgd1na2vs0mg"},{"bike_id":"b00c6bfd-75d8-46db-aa8f-8af496d315a1","system_id":"levelo_inurba_marseille","lat":43.21181,"lon":5.35065,"is_reserved":false,"is_disabled":false,"rental_uris":{"android":"levelo://app?vid=b00c6bfd-75d8-46db-aa8f-8af496d315a1","ios":"levelo://app?vid=b00c6bfd-75d8-46db-aa8f-8af496d315a1"},"vehicle_type_id":"4","last_reported":1774088177,"current_range_meters":2800,"station_id":"st_cvj6sg6p6f1abm77japg","pricing_plan_id":"cebpf4jnsgd1na2vs0mg"},{"bike_id":"fef87f38-eb76-4e21-af65-48b38937984e","system_id":"levelo_inurba_marseille","lat":43.28625,"lon":5.35092,"is_reserved":false,"is_disabled":false,"rental_uris":{"android":"levelo://app?vid=fef87f38-eb76-4e21-af65-48b38937984e","ios":"levelo://app?vid=fef87f38-eb76-4e21-af65-48b38937984e"},"vehicle_type_id":"4","last_reported":1774088177,"current_range_meters":2800,"station_id":"ce4bhch2rcd13ifvqeug","pricing_plan_id":"cebpf4jnsgd1na2vs0mg"},{"bike_id":"c48440d7-f4d5-4be3-a842-7dc1a317748e","system_id":"levelo_inurba_marseille","lat":43.33946,"lon":5.3571,"is_reserved":false,"is_disabled":false,"rental_uris":{"android":"levelo://app?vid=c48440d7-f4d5-4be3-a842-7dc1a317748e","ios":"levelo://app?vid=c48440d7-f4d5-4be3-a842-7dc1a317748e"},"vehicle_type_id":"4","last_reported":1774088177,"current_range_meters":2800,"station_id":"","pricing_plan_id":"cebpf4jnsgd1na2vs0mg"},{"bike_id":"fa1165b7-abb8-4e3e-a68f-92a93f5f8088","system_id":"levelo_inurba_marseille","lat":43.24648,"lon":5.38176,"is_reserved":false,"is_disabled":false,"rental_uris":{"android":"levelo://app?vid=fa1165b7-abb8-4e3e-a68f-92a93f5f8088","ios":"levelo://app?vid=fa1165b7-abb8-4e3e-a68f-92a93f5f8088"},"vehicle_type_id":"4","last_reported":1774088177,"current_range_meters":2800,"station_id":"ce4bhih2rcd13ifvqfr0","pricing_plan_id":"cebpf4jnsgd1na2vs0mg"},{"bike_id":"10d8533b-5997-474a-87ee-4e1776f0f0c6","system_id":"levelo_inurba_marseille","lat":43.29628,"lon":5.37899,"is_reserved":false,"is_disabled":false,"rental_uris":{"android":"levelo://app?vid=10d8533b-5997-474a-87ee-4e1776f0f0c6","ios":"levelo://app?vid=10d8533b-5997-474a-87ee-4e1776f0f0c6"},"vehicle_type_id":"4","last_reported":1774088177,"current_range_meters":3200,"station_id":"","pricing_plan_id":"cebpf4jnsgd1na2vs0mg"},{"bike_id":"e2294861-878d-472d-b1cd-4e6e3c2cd197","system_id":"levelo_inurba_marseille","lat":43.28,"lon":5.39986,"is_reserved":false,"is_disabled":false,"rental_uris":{"android":"levelo://app?vid=e2294861-878d-472d-b1cd-4e6e3c2cd197","ios":"levelo://app?vid=e2294861-878d-472d-b1cd-4e6e3c2cd197"},"vehicle_type_id":"4","last_reported":1774088177,"current_range_meters":3200,"station_id":"ce4bho92rcd13ifvqh4g","pricing_plan_id":"cebpf4jnsgd1na2vs0mg"},{"bike_id":"86497ed2-28cd-480c-84e8-6fd0ec8d668f","system_id":"levelo_inurba_marseille","lat":43.2718,"lon":5.39131,"is_reserved":false,"is_disabled":false,"rental_uris":{"android":"levelo://app?vid=86497ed2-28cd-480c-84e8-6fd0ec8d668f","ios":"levelo://app?vid=86497ed2-28cd-480c-84e8-6fd0ec8d668f"},"vehicle_type_id":"4","last_reported":1774088177,"current_range_meters":3200,"station_id":"","pricing_plan_id":"cebpf4jnsgd1na2vs0mg"},{"bike_id":"119d24bc-e3dd-4e47-a0b9-64bbbcc5b1ee","system_id":"levelo_inurba_marseille","lat":43.21747,"lon":5.34592,"is_reserved":false,"is_disabled":true,"rental_uris":{"android":"levelo://app?vid=119d24bc-e3dd-4e47-a0b9-64bbbcc5b1ee","ios":"levelo://app?vid=119d24bc-e3dd-4e47-a0b9-64bbbcc5b1ee"},"vehicle_type_id":"4","last_reported":1774088177,"current_range_meters":3200,"station_id":"st_cvj6r9ubvosntc0bgbag","pricing_plan_id":"cebpf4jnsgd1na2vs0mg"},{"bike_id":"c58c4f2c-4e2f-4e84-a401-557cc2ed4dbc","system_id":"levelo_inurba_marseille","lat":43.29604,"lon":5.38095,"is_reserved":false,"is_disabled":false,"rental_uris":{"android":"levelo://app?vid=c58c4f2c-4e2f-4e84-a401-557cc2ed4dbc","ios":"levelo://app?vid=c58c4f2c-4e2f-4e84-a401-557cc2ed4dbc"},"vehicle_type_id":"4","last_reported":1774088177,"current_range_meters":3200,"station_id":"ce4bgl12rcd13ifvqbo0","pricing_plan_id":"cebpf4jnsgd1na2vs0mg"},{"bike_id":"dd3eb7d4-20c0-4f2b-b36e-4875d23d7e4e","system_id":"levelo_inurba_marseille","lat":43.2438,"lon":5.3707,"is_reserved":false,"is_disabled":false,"rental_uris":{"android":"levelo://app?vid=dd3eb7d4-20c0-4f2b-b36e-4875d23d7e4e","ios":"levelo://app?vid=dd3eb7d4-20c0-4f2b-b36e-4875d23d7e4e"},"vehicle_type_id":"4","last_reported":1774088177,"current_range_meters":3200,"station_id":"ce4bhhh2rcd13ifvqfk0","pricing_plan_id":"cebpf4jnsgd1na2vs0mg"},{"bike_id":"0842d7ad-3d79-4df3-9d4c-4764878198a5","system_id":"levelo_inurba_marseille","lat":43.26368,"lon":5.41087,"is_reserved":false,"is_disabled":false,"rental_uris":{"android":"levelo://app?vid=0842d7ad-3d79-4df3-9d4c-4764878198a5","ios":"levelo://app?vid=0842d7ad-3d79-4df3-9d4c-4764878198a5"},"vehicle_type_id":"4","last_reported":1774088177,"current_range_meters":3200,"station_id":"st_d4e5ca6na9uc73bfl5fg","pricing_plan_id":"cebpf4jnsgd1na2vs0mg"},{"bike_id":"f510aab5-c125-407f-aeb0-e610c0cdfef8","system_id":"levelo_inurba_marseille","lat":43.23778,"lon":5.3663,"is_reserved":false,"is_disabled":false,"rental_uris":{"android":"levelo://app?vid=f510aab5-c125-407f-aeb0-e610c0cdfef8","ios":"levelo://app?vid=f510aab5-c125-407f-aeb0-e610c0cdfef8"},"vehicle_type_id":"4","last_reported":1774088177,"current_range_meters":3200,"station_id":"st_d3nk18o9ro0c73en2l3g","pricing_plan_id":"cebpf4jnsgd1na2vs0mg"},{"bike_id":"23c209c6-7d3c-4387-b04a-03a2b9a72d01","system_id":"levelo_inurba_marseille","lat":43.28386,"lon":5.43228,"is_reserved":false,"is_disabled":false,"rental_uris":{"android":"levelo://app?vid=23c209c6-7d3c-4387-b04a-03a2b9a72d01","ios":"levelo://app?vid=23c209c6-7d3c-4387-b04a-03a2b9a72d01"},"vehicle_type_id":"4","last_reported":1774088177,"current_range_meters":3200,"station_id":"","pricing_plan_id":"cebpf4jnsgd1na2vs0mg"},{"bike_id":"7c116ddb-23e6-4ad6-a991-5b70137d0cd0","system_id":"levelo_inurba_marseille","lat":43.25576,"lon":5.38223,"is_reserved":false,"is_disabled":false,"rental_uris":{"android":"levelo://app?vid=7c116ddb-23e6-4ad6-a991-5b70137d0cd0","ios":"levelo://app?vid=7c116ddb-23e6-4ad6-a991-5b70137d0cd0"},"vehicle_type_id":"4","last_reported":1774088177,"current_range_meters":3200,"station_id":"ce4bhih2rcd13ifvqfs0","pricing_plan_id":"cebpf4jnsgd1na2vs0mg"},{"bike_id":"ec327ac2-9680-48a1-8584-22f43bc41c50","system_id":"levelo_inurba_marseille","lat":43.29268,"lon":5.37608,"is_reserved":false,"is_disabled":true,"rental_uris":{"android":"levelo://app?vid=ec327ac2-9680-48a1-8584-22f43bc41c50","ios":"levelo://app?vid=ec327ac2-9680-48a1-8584-22f43bc41c50"},"vehicle_type_id":"4","last_reported":1774088177,"current_range_meters":3200,"station_id":"","pricing_plan_id":"cebpf4jnsgd1na2vs0mg"},{"bike_id":"dedd8c8b-2019-4d4e-8bb8-d4d21996d4c8","system_id":"levelo_inurba_marseille","lat":43.30882,"lon":5.39639,"is_reserved":false,"is_disabled":false,"rental_uris":{"android":"levelo://app?vid=dedd8c8b-2019-4d4e-8bb8-d4d21996d4c8","ios":"levelo://app?vid=dedd8c8b-2019-4d4e-8bb8-d4d21996d4c8"},"vehicle_type_id":"4","last_reported":1774088177,"current_range_meters":3600,"station_id":"ce4bh012rcd13ifvqcv0","pricing_plan_id":"cebpf4jnsgd1na2vs0mg"},{"bike_id":"3e5c7bdb-60ee-4795-a793-9681791a8e87","system_id":"levelo_inurba_marseille","lat":43.29755,"lon":5.42793,"is_reserved":false,"is_disabled":false,"rental_uris":{"android":"levelo://app?vid=3e5c7bdb-60ee-4795-a793-9681791a8e87","ios":"levelo://app?vid=3e5c7bdb-60ee-4795-a793-9681791a8e87"},"vehicle_type_id":"4","last_reported":1774088177,"current_range_meters":3600,"station_id":"st_d3md5207bmas73dh9klg","pricing_plan_id":"cebpf4jnsgd1na2vs0mg"},{"bike_id":"c142af26-b83c-4aa3-ab8b-699576493d34","system_id":"levelo_inurba_marseille","lat":43.212,"lon":5.35055,"is_reserved":false,"is_disabled":true,"rental_uris":{"android":"levelo://app?vid=c142af26-b83c-4aa3-ab8b-699576493d34","ios":"levelo://app?vid=c142af26-b83c-4aa3-ab8b-699576493d34"},"vehicle_type_id":"4","last_reported":1774088177,"current_range_meters":3600,"station_id":"st_cvj6sg6p6f1abm77japg","pricing_plan_id":"cebpf4jnsgd1na2vs0mg"},{"bike_id":"29705345-7a8e-4bdd-8b65-5ba8856c877f","system_id":"levelo_inurba_marseille","lat":43.30303,"lon":5.44949,"is_reserved":false,"is_disabled":false,"rental_uris":{"android":"levelo://app?vid=29705345-7a8e-4bdd-8b65-5ba8856c877f","ios":"levelo://app?vid=29705345-7a8e-4bdd-8b65-5ba8856c877f"},"vehicle_type_id":"4","last_reported":1774088177,"current_range_meters":3600,"station_id":"","pricing_plan_id":"cebpf4jnsgd1na2vs0mg"},{"bike_id":"a5fa76af-4615-4d5d-9b58-ea337703eff8","system_id":"levelo_inurba_marseille","lat":43.29995,"lon":5.38609,"is_reserved":false,"is_disabled":false,"rental_uris":{"android":"levelo://app?vid=a5fa76af-4615-4d5d-9b58-ea337703eff8","ios":"levelo://app?vid=a5fa76af-4615-4d5d-9b58-ea337703eff8"},"vehicle_type_id":"4","last_reported":1774088177,"current_range_meters":3600,"station_id":"","pricing_plan_id":"cebpf4jnsgd1na2vs0mg"},{"bike_id":"74ebb480-171b-43e5-b0fc-ba46b71dee8d","system_id":"levelo_inurba_marseille","lat":43.25336,"lon":5.42156,"is_reserved":false,"is_disabled":true,"rental_uris":{"android":"levelo://app?vid=74ebb480-171b-43e5-b0fc-ba46b71dee8d","ios":"levelo://app?vid=74ebb480-171b-43e5-b0fc-ba46b71dee8d"},"vehicle_type_id":"4","last_reported":1774088177,"current_range_meters":3600,"station_id":"st_d2m65c5bi1j21697t3ng","pricing_plan_id":"cebpf4jnsgd1na2vs0mg"},{"bike_id":"3d8b9441-846b-4bc6-a99f-7538b53156c2","system_id":"levelo_inurba_marseille","lat":43.29796,"lon":5.38078,"is_reserved":false,"is_disabled":true,"rental_uris":{"android":"levelo://app?vid=3d8b9441-846b-4bc6-a99f-7538b53156c2","ios":"levelo://app?vid=3d8b9441-846b-4bc6-a99f-7538b53156c2"},"vehicle_type_id":"4","last_reported":1774088177,"current_range_meters":4000,"station_id":"ce4bgip2rcd13ifvqbb0","pricing_plan_id":"cebpf4jnsgd1na2vs0mg"},{"bike_id":"c94e0638-c9c9-450d-b669-efdba8c722e1","system_id":"levelo_inurba_marseille","lat":43.29276,"lon":5.36835,"is_reserved":false,"is_disabled":false,"rental_uris":{"android":"levelo://app?vid=c94e0638-c9c9-450d-b669-efdba8c722e1","ios":"levelo://app?vid=c94e0638-c9c9-450d-b669-efdba8c722e1"},"vehicle_type_id":"4","last_reported":1774088177,"current_range_meters":4000,"station_id":"ce4bhbp2rcd13ifvqesg","pricing_plan_id":"cebpf4jnsgd1na2vs0mg"},{"bike_id":"a775511c-9985-4a58-8c4c-775aad7f3e36","system_id":"levelo_inurba_marseille","lat":43.29896,"lon":5.43675,"is_reserved":false,"is_disabled":false,"rental_uris":{"android":"levelo://app?vid=a775511c-9985-4a58-8c4c-775aad7f3e36","ios":"levelo://app?vid=a775511c-9985-4a58-8c4c-775aad7f3e36"},"vehicle_type_id":"4","last_reported":1774088177,"current_range_meters":4000,"station_id":"ce4bhpp2rcd13ifvqhfg","pricing_plan_id":"cebpf4jnsgd1na2vs0mg"},{"bike_id":"5c37a49c-ab60-4c11-8a61-6592ff444186","system_id":"levelo_inurba_marseille","lat":43.27908,"lon":5.39175,"is_reserved":false,"is_disabled":false,"rental_uris":{"android":"levelo://app?vid=5c37a49c-ab60-4c11-8a61-6592ff444186","ios":"levelo://app?vid=5c37a49c-ab60-4c11-8a61-6592ff444186"},"vehicle_type_id":"4","last_reported":1774088177,"current_range_meters":4000,"station_id":"","pricing_plan_id":"cebpf4jnsgd1na2vs0mg"},{"bike_id":"c7cc5081-8a90-4664-8378-0ac0db8d74fb","system_id":"levelo_inurba_marseille","lat":43.29823,"lon":5.36739,"is_reserved":false,"is_disabled":false,"rental_uris":{"android":"levelo://app?vid=c7cc5081-8a90-4664-8378-0ac0db8d74fb","ios":"levelo://app?vid=c7cc5081-8a90-4664-8378-0ac0db8d74fb"},"vehicle_type_id":"4","last_reported":1774088177,"current_range_meters":4000,"station_id":"","pricing_plan_id":"cebpf4jnsgd1na2vs0mg"},{"bike_id":"ec805567-1bc2-4aa0-9a36-661edaf8b31c","system_id":"levelo_inurba_marseille","lat":43.29256,"lon":5.39239,"is_reserved":false,"is_disabled":false,"rental_uris":{"android":"levelo://app?vid=ec805567-1bc2-4aa0-9a36-661edaf8b31c","ios":"levelo://app?vid=ec805567-1bc2-4aa0-9a36-661edaf8b31c"},"vehicle_type_id":"4","last_reported":1774088177,"current_range_meters":4000,"station_id":"","pricing_plan_id":"cebpf4jnsgd1na2vs0mg"},{"bike_id":"7a8d49f7-71a0-4ac9-afe8-12137176fb0e","system_id":"levelo_inurba_marseille","lat":43.30391,"lon":5.43003,"is_reserved":false,"is_disabled":false,"rental_uris":{"android":"levelo://app?vid=7a8d49f7-71a0-4ac9-afe8-12137176fb0e","ios":"levelo://app?vid=7a8d49f7-71a0-4ac9-afe8-12137176fb0e"},"vehicle_type_id":"4","last_reported":1774088177,"current_range_meters":4000,"station_id":"","pricing_plan_id":"cebpf4jnsgd1na2vs0mg"},{"bike_id":"29ceb06a-4df8-4e2a-9dd9-b070e185b37f","system_id":"levelo_inurba_marseille","lat":43.2849,"lon":5.48446,"is_reserved":false,"is_disabled":false,"rental_uris":{"android":"levelo://app?vid=29ceb06a-4df8-4e2a-9dd9-b070e185b37f","ios":"levelo://app?vid=29ceb06a-4df8-4e2a-9dd9-b070e185b37f"},"vehicle_type_id":"4","last_reported":1774088177,"current_range_meters":4000,"station_id":"st_d3svhcjqgbts73a3dn0g","pricing_plan_id":"cebpf4jnsgd1na2vs0mg"},{"bike_id":"fff24691-7d17-4967-a663-29b7664e6b52","system_id":"levelo_inurba_marseille","lat":43.28005,"lon":5.4,"is_reserved":false,"is_disabled":false,"rental_uris":{"android":"levelo://app?vid=fff24691-7d17-4967-a663-29b7664e6b52","ios":"levelo://app?vid=fff24691-7d17-4967-a663-29b7664e6b52"},"vehicle_type_id":"4","last_reported":1774088177,"current_range_meters":4000,"station_id":"ce4bho92rcd13ifvqh4g","pricing_plan_id":"cebpf4jnsgd1na2vs0mg"},{"bike_id":"e5eba928-e3a4-441b-9540-937747ee47b9","system_id":"levelo_inurba_marseille","lat":43.22573,"lon":5.41616,"is_reserved":false,"is_disabled":false,"rental_uris":{"android":"levelo://app?vid=e5eba928-e3a4-441b-9540-937747ee47b9","ios":"levelo://app?vid=e5eba928-e3a4-441b-9540-937747ee47b9"},"vehicle_type_id":"4","last_reported":1774088177,"current_range_meters":4000,"station_id":"st_d2o4gvlbi1j2169b742g","pricing_plan_id":"cebpf4jnsgd1na2vs0mg"},{"bike_id":"7a07ff46-eae3-40ed-bbc5-3678712bd529","system_id":"levelo_inurba_marseille","lat":43.21749,"lon":5.34603,"is_reserved":false,"is_disabled":false,"rental_uris":{"android":"levelo://app?vid=7a07ff46-eae3-40ed-bbc5-3678712bd529","ios":"levelo://app?vid=7a07ff46-eae3-40ed-bbc5-3678712bd529"},"vehicle_type_id":"4","last_reported":1774088177,"current_range_meters":4000,"station_id":"st_cvj6r9ubvosntc0bgbag","pricing_plan_id":"cebpf4jnsgd1na2vs0mg"},{"bike_id":"8273dccc-e6d5-4b39-a8f8-cc6685202d2b","system_id":"levelo_inurba_marseille","lat":43.2447,"lon":5.42547,"is_reserved":false,"is_disabled":false,"rental_uris":{"android":"levelo://app?vid=8273dccc-e6d5-4b39-a8f8-cc6685202d2b","ios":"levelo://app?vid=8273dccc-e6d5-4b39-a8f8-cc6685202d2b"},"vehicle_type_id":"4","last_reported":1774088177,"current_range_meters":4000,"station_id":"st_d4a3vfp97mjs738cd8kg","pricing_plan_id":"cebpf4jnsgd1na2vs0mg"},{"bike_id":"b14bb5e1-7882-4380-b389-98bb380dac81","system_id":"levelo_inurba_marseille","lat":43.23961,"lon":5.36624,"is_reserved":false,"is_disabled":false,"rental_uris":{"android":"levelo://app?vid=b14bb5e1-7882-4380-b389-98bb380dac81","ios":"levelo://app?vid=b14bb5e1-7882-4380-b389-98bb380dac81"},"vehicle_type_id":"4","last_reported":1774088177,"current_range_meters":4000,"station_id":"ce4bhi12rcd13ifvqfp0","pricing_plan_id":"cebpf4jnsgd1na2vs0mg"},{"bike_id":"f328e3b6-a38c-49fe-80e0-c552630893a5","system_id":"levelo_inurba_marseille","lat":43.2293,"lon":5.35383,"is_reserved":false,"is_disabled":false,"rental_uris":{"android":"levelo://app?vid=f328e3b6-a38c-49fe-80e0-c552630893a5","ios":"levelo://app?vid=f328e3b6-a38c-49fe-80e0-c552630893a5"},"vehicle_type_id":"4","last_reported":1774088177,"current_range_meters":4400,"station_id":"cpo3532slgdg3j2ikp40","pricing_plan_id":"cebpf4jnsgd1na2vs0mg"},{"bike_id":"9f27347e-d26d-424c-a122-fe691b6da8e1","system_id":"levelo_inurba_marseille","lat":43.24808,"lon":5.37454,"is_reserved":false,"is_disabled":false,"rental_uris":{"android":"levelo://app?vid=9f27347e-d26d-424c-a122-fe691b6da8e1","ios":"levelo://app?vid=9f27347e-d26d-424c-a122-fe691b6da8e1"},"vehicle_type_id":"4","last_reported":1774088177,"current_range_meters":4400,"station_id":"ce4bhgh2rcd13ifvqfb0","pricing_plan_id":"cebpf4jnsgd1na2vs0mg"},{"bike_id":"9654dd25-9012-4815-be48-421f37e2aaaa","system_id":"levelo_inurba_marseille","lat":43.28602,"lon":5.351,"is_reserved":false,"is_disabled":false,"rental_uris":{"android":"levelo://app?vid=9654dd25-9012-4815-be48-421f37e2aaaa","ios":"levelo://app?vid=9654dd25-9012-4815-be48-421f37e2aaaa"},"vehicle_type_id":"4","last_reported":1774088177,"current_range_meters":4400,"station_id":"ce4bhch2rcd13ifvqeug","pricing_plan_id":"cebpf4jnsgd1na2vs0mg"},{"bike_id":"ad9ed56a-add5-484f-82f8-d15a74d04484","system_id":"levelo_inurba_marseille","lat":43.31851,"lon":5.38374,"is_reserved":false,"is_disabled":false,"rental_uris":{"android":"levelo://app?vid=ad9ed56a-add5-484f-82f8-d15a74d04484","ios":"levelo://app?vid=ad9ed56a-add5-484f-82f8-d15a74d04484"},"vehicle_type_id":"4","last_reported":1774088177,"current_range_meters":4400,"station_id":"","pricing_plan_id":"cebpf4jnsgd1na2vs0mg"},{"bike_id":"c003f011-8d3c-44a8-8aa1-b12f6898603e","system_id":"levelo_inurba_marseille","lat":43.28278,"lon":5.35081,"is_reserved":false,"is_disabled":false,"rental_uris":{"android":"levelo://app?vid=c003f011-8d3c-44a8-8aa1-b12f6898603e","ios":"levelo://app?vid=c003f011-8d3c-44a8-8aa1-b12f6898603e"},"vehicle_type_id":"4","last_reported":1774088177,"current_range_meters":4400,"station_id":"ce4bhbp2rcd13ifvqerg","pricing_plan_id":"cebpf4jnsgd1na2vs0mg"},{"bike_id":"89ad46cf-ad84-4e5e-be57-87ac2cebe69c","system_id":"levelo_inurba_marseille","lat":43.28484,"lon":5.48385,"is_reserved":false,"is_disabled":false,"rental_uris":{"android":"levelo://app?vid=89ad46cf-ad84-4e5e-be57-87ac2cebe69c","ios":"levelo://app?vid=89ad46cf-ad84-4e5e-be57-87ac2cebe69c"},"vehicle_type_id":"4","last_reported":1774088177,"current_range_meters":4400,"station_id":"st_d3svhcjqgbts73a3dn0g","pricing_plan_id":"cebpf4jnsgd1na2vs0mg"},{"bike_id":"e6d205a4-a7a0-4fa1-ad2a-e48ac8a7b420","system_id":"levelo_inurba_marseille","lat":43.28609,"lon":5.3509,"is_reserved":false,"is_disabled":false,"rental_uris":{"android":"levelo://app?vid=e6d205a4-a7a0-4fa1-ad2a-e48ac8a7b420","ios":"levelo://app?vid=e6d205a4-a7a0-4fa1-ad2a-e48ac8a7b420"},"vehicle_type_id":"4","last_reported":1774088177,"current_range_meters":4400,"station_id":"ce4bhch2rcd13ifvqeug","pricing_plan_id":"cebpf4jnsgd1na2vs0mg"},{"bike_id":"83675f3e-fe90-4bf0-8b69-f095eac9e73c","system_id":"levelo_inurba_marseille","lat":43.27054,"lon":5.42272,"is_reserved":false,"is_disabled":false,"rental_uris":{"android":"levelo://app?vid=83675f3e-fe90-4bf0-8b69-f095eac9e73c","ios":"levelo://app?vid=83675f3e-fe90-4bf0-8b69-f095eac9e73c"},"vehicle_type_id":"4","last_reported":1774088177,"current_range_meters":4400,"station_id":"ce4bhk92rcd13ifvqgb0","pricing_plan_id":"cebpf4jnsgd1na2vs0mg"},{"bike_id":"543e5320-298e-4cc8-963c-8de6614109f2","system_id":"levelo_inurba_marseille","lat":43.31731,"lon":5.43701,"is_reserved":false,"is_disabled":false,"rental_uris":{"android":"levelo://app?vid=543e5320-298e-4cc8-963c-8de6614109f2","ios":"levelo://app?vid=543e5320-298e-4cc8-963c-8de6614109f2"},"vehicle_type_id":"4","last_reported":1774088177,"current_range_meters":4400,"station_id":"ce4bhp92rcd13ifvqhcg","pricing_plan_id":"cebpf4jnsgd1na2vs0mg"},{"bike_id":"53f48266-4564-420b-96ab-d243233055dc","system_id":"levelo_inurba_marseille","lat":43.28477,"lon":5.484,"is_reserved":false,"is_disabled":false,"rental_uris":{"android":"levelo://app?vid=53f48266-4564-420b-96ab-d243233055dc","ios":"levelo://app?vid=53f48266-4564-420b-96ab-d243233055dc"},"vehicle_type_id":"4","last_reported":1774088177,"current_range_meters":4800,"station_id":"","pricing_plan_id":"cebpf4jnsgd1na2vs0mg"},{"bike_id":"3eab8e3c-e5f9-4ac5-b63c-c067b0f569b5","system_id":"levelo_inurba_marseille","lat":43.26224,"lon":5.37437,"is_reserved":false,"is_disabled":false,"rental_uris":{"android":"levelo://app?vid=3eab8e3c-e5f9-4ac5-b63c-c067b0f569b5","ios":"levelo://app?vid=3eab8e3c-e5f9-4ac5-b63c-c067b0f569b5"},"vehicle_type_id":"4","last_reported":1774088177,"current_range_meters":4800,"station_id":"ce4bhgp2rcd13ifvqfc0","pricing_plan_id":"cebpf4jnsgd1na2vs0mg"},{"bike_id":"1e25c0b8-6773-47e0-a4fc-a10ed2fb203b","system_id":"levelo_inurba_marseille","lat":43.25503,"lon":5.37654,"is_reserved":false,"is_disabled":false,"rental_uris":{"android":"levelo://app?vid=1e25c0b8-6773-47e0-a4fc-a10ed2fb203b","ios":"levelo://app?vid=1e25c0b8-6773-47e0-a4fc-a10ed2fb203b"},"vehicle_type_id":"4","last_reported":1774088177,"current_range_meters":4800,"station_id":"ce4bhh12rcd13ifvqff0","pricing_plan_id":"cebpf4jnsgd1na2vs0mg"},{"bike_id":"83364187-7655-46e5-89be-711d9a4788a0","system_id":"levelo_inurba_marseille","lat":43.28962,"lon":5.36386,"is_reserved":false,"is_disabled":false,"rental_uris":{"android":"levelo://app?vid=83364187-7655-46e5-89be-711d9a4788a0","ios":"levelo://app?vid=83364187-7655-46e5-89be-711d9a4788a0"},"vehicle_type_id":"4","last_reported":1774088177,"current_range_meters":4800,"station_id":"ce4bhc92rcd13ifvqetg","pricing_plan_id":"cebpf4jnsgd1na2vs0mg"},{"bike_id":"0f699794-8202-4161-a052-1d39a341c5fa","system_id":"levelo_inurba_marseille","lat":43.31197,"lon":5.38713,"is_reserved":false,"is_disabled":true,"rental_uris":{"android":"levelo://app?vid=0f699794-8202-4161-a052-1d39a341c5fa","ios":"levelo://app?vid=0f699794-8202-4161-a052-1d39a341c5fa"},"vehicle_type_id":"4","last_reported":1774088177,"current_range_meters":5600,"station_id":"ce4bgv12rcd13ifvqcp0","pricing_plan_id":"cebpf4jnsgd1na2vs0mg"},{"bike_id":"ac4ca0f2-f5c2-4c9c-81db-9f7b20e89d0c","system_id":"levelo_inurba_marseille","lat":43.28539,"lon":5.44094,"is_reserved":false,"is_disabled":true,"rental_uris":{"android":"levelo://app?vid=ac4ca0f2-f5c2-4c9c-81db-9f7b20e89d0c","ios":"levelo://app?vid=ac4ca0f2-f5c2-4c9c-81db-9f7b20e89d0c"},"vehicle_type_id":"4","last_reported":1774088177,"current_range_meters":5600,"station_id":"st_d3j3df2ikq2c7380ej80","pricing_plan_id":"cebpf4jnsgd1na2vs0mg"},{"bike_id":"c5da0e85-e9d9-4c83-a6bb-02c16d4ded62","system_id":"levelo_inurba_marseille","lat":43.29625,"lon":5.37712,"is_reserved":false,"is_disabled":false,"rental_uris":{"android":"levelo://app?vid=c5da0e85-e9d9-4c83-a6bb-02c16d4ded62","ios":"levelo://app?vid=c5da0e85-e9d9-4c83-a6bb-02c16d4ded62"},"vehicle_type_id":"4","last_reported":1774088177,"current_range_meters":5600,"station_id":"ce4bgi92rcd13ifvqb90","pricing_plan_id":"cebpf4jnsgd1na2vs0mg"},{"bike_id":"7fa64d84-cd92-4f02-a79d-c348b129b15f","system_id":"levelo_inurba_marseille","lat":43.24184,"lon":5.36384,"is_reserved":false,"is_disabled":false,"rental_uris":{"android":"levelo://app?vid=7fa64d84-cd92-4f02-a79d-c348b129b15f","ios":"levelo://app?vid=7fa64d84-cd92-4f02-a79d-c348b129b15f"},"vehicle_type_id":"4","last_reported":1774088177,"current_range_meters":5600,"station_id":"cpo36qri1sfpv3e86is0","pricing_plan_id":"cebpf4jnsgd1na2vs0mg"},{"bike_id":"f26ac621-5a6f-43a1-a89a-e31e2f8e0745","system_id":"levelo_inurba_marseille","lat":43.28002,"lon":5.40015,"is_reserved":false,"is_disabled":false,"rental_uris":{"android":"levelo://app?vid=f26ac621-5a6f-43a1-a89a-e31e2f8e0745","ios":"levelo://app?vid=f26ac621-5a6f-43a1-a89a-e31e2f8e0745"},"vehicle_type_id":"4","last_reported":1774088177,"current_range_meters":5600,"station_id":"ce4bho92rcd13ifvqh4g","pricing_plan_id":"cebpf4jnsgd1na2vs0mg"},{"bike_id":"0e5c16f5-b6f9-4df6-a2c1-544be02de605","system_id":"levelo_inurba_marseille","lat":43.24396,"lon":5.37089,"is_reserved":false,"is_disabled":false,"rental_uris":{"android":"levelo://app?vid=0e5c16f5-b6f9-4df6-a2c1-544be02de605","ios":"levelo://app?vid=0e5c16f5-b6f9-4df6-a2c1-544be02de605"},"vehicle_type_id":"4","last_reported":1774088177,"current_range_meters":5600,"station_id":"","pricing_plan_id":"cebpf4jnsgd1na2vs0mg"},{"bike_id":"50c097e7-39eb-40a2-a3e8-c2df2400276a","system_id":"levelo_inurba_marseille","lat":43.28857,"lon":5.35854,"is_reserved":false,"is_disabled":false,"rental_uris":{"android":"levelo://app?vid=50c097e7-39eb-40a2-a3e8-c2df2400276a","ios":"levelo://app?vid=50c097e7-39eb-40a2-a3e8-c2df2400276a"},"vehicle_type_id":"4","last_reported":1774088177,"current_range_meters":5600,"station_id":"ce4bhb12rcd13ifvqem0","pricing_plan_id":"cebpf4jnsgd1na2vs0mg"},{"bike_id":"912e5f30-2e0b-48a9-85db-a984611241c9","system_id":"levelo_inurba_marseille","lat":43.29826,"lon":5.44074,"is_reserved":false,"is_disabled":false,"rental_uris":{"android":"levelo://app?vid=912e5f30-2e0b-48a9-85db-a984611241c9","ios":"levelo://app?vid=912e5f30-2e0b-48a9-85db-a984611241c9"},"vehicle_type_id":"4","last_reported":1774088177,"current_range_meters":6000,"station_id":"st_d3jp68qikq2c7381ktn0","pricing_plan_id":"cebpf4jnsgd1na2vs0mg"},{"bike_id":"0229835b-c6fa-4fab-a5ec-1f44b1066777","system_id":"levelo_inurba_marseille","lat":43.2963,"lon":5.40606,"is_reserved":false,"is_disabled":false,"rental_uris":{"android":"levelo://app?vid=0229835b-c6fa-4fab-a5ec-1f44b1066777","ios":"levelo://app?vid=0229835b-c6fa-4fab-a5ec-1f44b1066777"},"vehicle_type_id":"4","last_reported":1774088177,"current_range_meters":6000,"station_id":"ce4bh0h2rcd13ifvqd60","pricing_plan_id":"cebpf4jnsgd1na2vs0mg"},{"bike_id":"a8c8307b-e1e9-4950-a785-578e1a82f805","system_id":"levelo_inurba_marseille","lat":43.31282,"lon":5.37848,"is_reserved":false,"is_disabled":false,"rental_uris":{"android":"levelo://app?vid=a8c8307b-e1e9-4950-a785-578e1a82f805","ios":"levelo://app?vid=a8c8307b-e1e9-4950-a785-578e1a82f805"},"vehicle_type_id":"4","last_reported":1774088177,"current_range_meters":6000,"station_id":"","pricing_plan_id":"cebpf4jnsgd1na2vs0mg"},{"bike_id":"9bedb971-6887-4d43-88c8-1762430f453d","system_id":"levelo_inurba_marseille","lat":43.24684,"lon":5.38157,"is_reserved":false,"is_disabled":true,"rental_uris":{"android":"levelo://app?vid=9bedb971-6887-4d43-88c8-1762430f453d","ios":"levelo://app?vid=9bedb971-6887-4d43-88c8-1762430f453d"},"vehicle_type_id":"4","last_reported":1774088177,"current_range_meters":6000,"station_id":"ce4bhih2rcd13ifvqfr0","pricing_plan_id":"cebpf4jnsgd1na2vs0mg"},{"bike_id":"c7ca3395-61a6-424a-8b4e-14bb7ddfa33a","system_id":"levelo_inurba_marseille","lat":43.30157,"lon":5.38736,"is_reserved":false,"is_disabled":true,"rental_uris":{"android":"levelo://app?vid=c7ca3395-61a6-424a-8b4e-14bb7ddfa33a","ios":"levelo://app?vid=c7ca3395-61a6-424a-8b4e-14bb7ddfa33a"},"vehicle_type_id":"4","last_reported":1774088177,"current_range_meters":6000,"station_id":"ce4bghh2rcd13ifvqb60","pricing_plan_id":"cebpf4jnsgd1na2vs0mg"},{"bike_id":"68b92d7b-4808-4d57-8678-0784e39c95dd","system_id":"levelo_inurba_marseille","lat":43.297221,"lon":5.376842,"is_reserved":false,"is_disabled":false,"rental_uris":{"android":"levelo://app?vid=68b92d7b-4808-4d57-8678-0784e39c95dd","ios":"levelo://app?vid=68b92d7b-4808-4d57-8678-0784e39c95dd"},"vehicle_type_id":"4","last_reported":1774088177,"current_range_meters":6000,"station_id":"ce4bgkh2rcd13ifvqbl0","pricing_plan_id":"cebpf4jnsgd1na2vs0mg"},{"bike_id":"74e39939-39d8-42d2-a522-0fbb91581566","system_id":"levelo_inurba_marseille","lat":43.24485,"lon":5.39682,"is_reserved":false,"is_disabled":false,"rental_uris":{"android":"levelo://app?vid=74e39939-39d8-42d2-a522-0fbb91581566","ios":"levelo://app?vid=74e39939-39d8-42d2-a522-0fbb91581566"},"vehicle_type_id":"4","last_reported":1774088177,"current_range_meters":6000,"station_id":"","pricing_plan_id":"cebpf4jnsgd1na2vs0mg"},{"bike_id":"e2420c11-4646-4145-aa2e-baedb91a43dc","system_id":"levelo_inurba_marseille","lat":43.32377,"lon":5.36708,"is_reserved":false,"is_disabled":false,"rental_uris":{"android":"levelo://app?vid=e2420c11-4646-4145-aa2e-baedb91a43dc","ios":"levelo://app?vid=e2420c11-4646-4145-aa2e-baedb91a43dc"},"vehicle_type_id":"4","last_reported":1774088177,"current_range_meters":6400,"station_id":"","pricing_plan_id":"cebpf4jnsgd1na2vs0mg"},{"bike_id":"286fba00-1c70-49c5-9491-0b3044de24cb","system_id":"levelo_inurba_marseille","lat":43.26218,"lon":5.40454,"is_reserved":false,"is_disabled":true,"rental_uris":{"android":"levelo://app?vid=286fba00-1c70-49c5-9491-0b3044de24cb","ios":"levelo://app?vid=286fba00-1c70-49c5-9491-0b3044de24cb"},"vehicle_type_id":"4","last_reported":1774088177,"current_range_meters":6400,"station_id":"ce4bhmh2rcd13ifvqgmg","pricing_plan_id":"cebpf4jnsgd1na2vs0mg"},{"bike_id":"f3414e99-2d7c-4b03-96db-df8c1c6d3f2b","system_id":"levelo_inurba_marseille","lat":43.28477,"lon":5.48406,"is_reserved":false,"is_disabled":false,"rental_uris":{"android":"levelo://app?vid=f3414e99-2d7c-4b03-96db-df8c1c6d3f2b","ios":"levelo://app?vid=f3414e99-2d7c-4b03-96db-df8c1c6d3f2b"},"vehicle_type_id":"4","last_reported":1774088177,"current_range_meters":6400,"station_id":"","pricing_plan_id":"cebpf4jnsgd1na2vs0mg"},{"bike_id":"8648ff3d-a49d-4491-be6c-bab3f9812603","system_id":"levelo_inurba_marseille","lat":43.28267,"lon":5.43837,"is_reserved":false,"is_disabled":false,"rental_uris":{"android":"levelo://app?vid=8648ff3d-a49d-4491-be6c-bab3f9812603","ios":"levelo://app?vid=8648ff3d-a49d-4491-be6c-bab3f9812603"},"vehicle_type_id":"4","last_reported":1774088177,"current_range_meters":6400,"station_id":"","pricing_plan_id":"cebpf4jnsgd1na2vs0mg"},{"bike_id":"59ac2860-f212-4eaa-b52b-0cfdcfd8401c","system_id":"levelo_inurba_marseille","lat":43.28946,"lon":5.36632,"is_reserved":false,"is_disabled":false,"rental_uris":{"android":"levelo://app?vid=59ac2860-f212-4eaa-b52b-0cfdcfd8401c","ios":"levelo://app?vid=59ac2860-f212-4eaa-b52b-0cfdcfd8401c"},"vehicle_type_id":"4","last_reported":1774088177,"current_range_meters":6400,"station_id":"ce4bhap2rcd13ifvqek0","pricing_plan_id":"cebpf4jnsgd1na2vs0mg"},{"bike_id":"e55970c4-5869-4dcc-b8f6-79ebadd76b90","system_id":"levelo_inurba_marseille","lat":43.33753,"lon":5.37442,"is_reserved":false,"is_disabled":false,"rental_uris":{"android":"levelo://app?vid=e55970c4-5869-4dcc-b8f6-79ebadd76b90","ios":"levelo://app?vid=e55970c4-5869-4dcc-b8f6-79ebadd76b90"},"vehicle_type_id":"4","last_reported":1774088177,"current_range_meters":6400,"station_id":"","pricing_plan_id":"cebpf4jnsgd1na2vs0mg"},{"bike_id":"a52ba6dc-1b15-4a85-8d00-b41ad0623a75","system_id":"levelo_inurba_marseille","lat":43.32353,"lon":5.36716,"is_reserved":false,"is_disabled":false,"rental_uris":{"android":"levelo://app?vid=a52ba6dc-1b15-4a85-8d00-b41ad0623a75","ios":"levelo://app?vid=a52ba6dc-1b15-4a85-8d00-b41ad0623a75"},"vehicle_type_id":"4","last_reported":1774088177,"current_range_meters":6400,"station_id":"ce4bhsh2rcd13ifvqi2g","pricing_plan_id":"cebpf4jnsgd1na2vs0mg"},{"bike_id":"962e3e51-db50-4f61-a079-9b1c6a103eb5","system_id":"levelo_inurba_marseille","lat":43.30963,"lon":5.36814,"is_reserved":false,"is_disabled":false,"rental_uris":{"android":"levelo://app?vid=962e3e51-db50-4f61-a079-9b1c6a103eb5","ios":"levelo://app?vid=962e3e51-db50-4f61-a079-9b1c6a103eb5"},"vehicle_type_id":"4","last_reported":1774088177,"current_range_meters":6400,"station_id":"","pricing_plan_id":"cebpf4jnsgd1na2vs0mg"},{"bike_id":"0e1c3c17-e073-49e6-935b-f834247dd7ef","system_id":"levelo_inurba_marseille","lat":43.29803,"lon":5.38104,"is_reserved":false,"is_disabled":false,"rental_uris":{"android":"levelo://app?vid=0e1c3c17-e073-49e6-935b-f834247dd7ef","ios":"levelo://app?vid=0e1c3c17-e073-49e6-935b-f834247dd7ef"},"vehicle_type_id":"4","last_reported":1774088177,"current_range_meters":6400,"station_id":"ce4bgip2rcd13ifvqbb0","pricing_plan_id":"cebpf4jnsgd1na2vs0mg"},{"bike_id":"2cea9d46-c32a-4a24-9abe-5dc099975957","system_id":"levelo_inurba_marseille","lat":43.28486,"lon":5.48401,"is_reserved":false,"is_disabled":false,"rental_uris":{"android":"levelo://app?vid=2cea9d46-c32a-4a24-9abe-5dc099975957","ios":"levelo://app?vid=2cea9d46-c32a-4a24-9abe-5dc099975957"},"vehicle_type_id":"4","last_reported":1774088177,"current_range_meters":6400,"station_id":"","pricing_plan_id":"cebpf4jnsgd1na2vs0mg"},{"bike_id":"2d9e4754-9b17-40b5-bbeb-5b1c9c5bbe64","system_id":"levelo_inurba_marseille","lat":43.30131,"lon":5.38782,"is_reserved":false,"is_disabled":true,"rental_uris":{"android":"levelo://app?vid=2d9e4754-9b17-40b5-bbeb-5b1c9c5bbe64","ios":"levelo://app?vid=2d9e4754-9b17-40b5-bbeb-5b1c9c5bbe64"},"vehicle_type_id":"4","last_reported":1774088177,"current_range_meters":6400,"station_id":"ce4bghh2rcd13ifvqb60","pricing_plan_id":"cebpf4jnsgd1na2vs0mg"},{"bike_id":"02bf4e22-4a59-4416-ba1c-3c09acf8d761","system_id":"levelo_inurba_marseille","lat":43.270692,"lon":5.422856,"is_reserved":false,"is_disabled":true,"rental_uris":{"android":"levelo://app?vid=02bf4e22-4a59-4416-ba1c-3c09acf8d761","ios":"levelo://app?vid=02bf4e22-4a59-4416-ba1c-3c09acf8d761"},"vehicle_type_id":"4","last_reported":1774088177,"current_range_meters":6400,"station_id":"ce4bhk92rcd13ifvqgb0","pricing_plan_id":"cebpf4jnsgd1na2vs0mg"},{"bike_id":"b02d6229-3b36-48a3-8959-dd92550a1e78","system_id":"levelo_inurba_marseille","lat":43.23152,"lon":5.43708,"is_reserved":false,"is_disabled":false,"rental_uris":{"android":"levelo://app?vid=b02d6229-3b36-48a3-8959-dd92550a1e78","ios":"levelo://app?vid=b02d6229-3b36-48a3-8959-dd92550a1e78"},"vehicle_type_id":"4","last_reported":1774088177,"current_range_meters":6400,"station_id":"ce4bhmp2rcd13ifvqgog","pricing_plan_id":"cebpf4jnsgd1na2vs0mg"},{"bike_id":"d00ce6b1-d263-4644-9ac8-801c3d34ac19","system_id":"levelo_inurba_marseille","lat":43.22566,"lon":5.41624,"is_reserved":false,"is_disabled":false,"rental_uris":{"android":"levelo://app?vid=d00ce6b1-d263-4644-9ac8-801c3d34ac19","ios":"levelo://app?vid=d00ce6b1-d263-4644-9ac8-801c3d34ac19"},"vehicle_type_id":"4","last_reported":1774088177,"current_range_meters":6800,"station_id":"st_d2o4gvlbi1j2169b742g","pricing_plan_id":"cebpf4jnsgd1na2vs0mg"},{"bike_id":"ab77a418-345e-453b-bca3-3815a5ee3842","system_id":"levelo_inurba_marseille","lat":43.23188,"lon":5.35543,"is_reserved":false,"is_disabled":false,"rental_uris":{"android":"levelo://app?vid=ab77a418-345e-453b-bca3-3815a5ee3842","ios":"levelo://app?vid=ab77a418-345e-453b-bca3-3815a5ee3842"},"vehicle_type_id":"4","last_reported":1774088177,"current_range_meters":6800,"station_id":"ce4bhu92rcd13ifvqi70","pricing_plan_id":"cebpf4jnsgd1na2vs0mg"},{"bike_id":"6fd810c1-48c4-48e6-8b97-58f8a114168f","system_id":"levelo_inurba_marseille","lat":43.29436,"lon":5.39743,"is_reserved":false,"is_disabled":false,"rental_uris":{"android":"levelo://app?vid=6fd810c1-48c4-48e6-8b97-58f8a114168f","ios":"levelo://app?vid=6fd810c1-48c4-48e6-8b97-58f8a114168f"},"vehicle_type_id":"4","last_reported":1774088177,"current_range_meters":6800,"station_id":"ce4bh3h2rcd13ifvqdo0","pricing_plan_id":"cebpf4jnsgd1na2vs0mg"},{"bike_id":"14168f6c-1c98-4b79-9136-727ba75766a2","system_id":"levelo_inurba_marseille","lat":43.27218,"lon":5.39182,"is_reserved":false,"is_disabled":false,"rental_uris":{"android":"levelo://app?vid=14168f6c-1c98-4b79-9136-727ba75766a2","ios":"levelo://app?vid=14168f6c-1c98-4b79-9136-727ba75766a2"},"vehicle_type_id":"4","last_reported":1774088177,"current_range_meters":6800,"station_id":"ce4bhhp2rcd13ifvqfm0","pricing_plan_id":"cebpf4jnsgd1na2vs0mg"},{"bike_id":"21dcff95-3114-402a-9713-10e340a8f8dd","system_id":"levelo_inurba_marseille","lat":43.29293,"lon":5.37158,"is_reserved":false,"is_disabled":false,"rental_uris":{"android":"levelo://app?vid=21dcff95-3114-402a-9713-10e340a8f8dd","ios":"levelo://app?vid=21dcff95-3114-402a-9713-10e340a8f8dd"},"vehicle_type_id":"4","last_reported":1774088177,"current_range_meters":6800,"station_id":"ce4bgh92rcd13ifvqb40","pricing_plan_id":"cebpf4jnsgd1na2vs0mg"},{"bike_id":"ec9790cd-0b5f-4c9e-9562-7e72771de6e8","system_id":"levelo_inurba_marseille","lat":43.23897,"lon":5.36517,"is_reserved":false,"is_disabled":false,"rental_uris":{"android":"levelo://app?vid=ec9790cd-0b5f-4c9e-9562-7e72771de6e8","ios":"levelo://app?vid=ec9790cd-0b5f-4c9e-9562-7e72771de6e8"},"vehicle_type_id":"4","last_reported":1774088177,"current_range_meters":6800,"station_id":"","pricing_plan_id":"cebpf4jnsgd1na2vs0mg"},{"bike_id":"0c744d67-74b3-4bed-8fa1-274d8c3afbea","system_id":"levelo_inurba_marseille","lat":43.23782,"lon":5.36623,"is_reserved":false,"is_disabled":false,"rental_uris":{"android":"levelo://app?vid=0c744d67-74b3-4bed-8fa1-274d8c3afbea","ios":"levelo://app?vid=0c744d67-74b3-4bed-8fa1-274d8c3afbea"},"vehicle_type_id":"4","last_reported":1774088177,"current_range_meters":6800,"station_id":"st_d3nk18o9ro0c73en2l3g","pricing_plan_id":"cebpf4jnsgd1na2vs0mg"},{"bike_id":"8d04aee5-7f14-49a1-8ed8-071c83a78c39","system_id":"levelo_inurba_marseille","lat":43.26955,"lon":5.38926,"is_reserved":false,"is_disabled":false,"rental_uris":{"android":"levelo://app?vid=8d04aee5-7f14-49a1-8ed8-071c83a78c39","ios":"levelo://app?vid=8d04aee5-7f14-49a1-8ed8-071c83a78c39"},"vehicle_type_id":"4","last_reported":1774088177,"current_range_meters":6800,"station_id":"ce4bhhh2rcd13ifvqfl0","pricing_plan_id":"cebpf4jnsgd1na2vs0mg"},{"bike_id":"5672f140-f178-4766-bb60-5301b26a0e4e","system_id":"levelo_inurba_marseille","lat":43.28492,"lon":5.48392,"is_reserved":false,"is_disabled":false,"rental_uris":{"android":"levelo://app?vid=5672f140-f178-4766-bb60-5301b26a0e4e","ios":"levelo://app?vid=5672f140-f178-4766-bb60-5301b26a0e4e"},"vehicle_type_id":"4","last_reported":1774088177,"current_range_meters":7200,"station_id":"","pricing_plan_id":"cebpf4jnsgd1na2vs0mg"},{"bike_id":"27c692e2-42fb-4ad2-94d5-0e77f55a607a","system_id":"levelo_inurba_marseille","lat":43.29277,"lon":5.36836,"is_reserved":false,"is_disabled":false,"rental_uris":{"android":"levelo://app?vid=27c692e2-42fb-4ad2-94d5-0e77f55a607a","ios":"levelo://app?vid=27c692e2-42fb-4ad2-94d5-0e77f55a607a"},"vehicle_type_id":"4","last_reported":1774088177,"current_range_meters":7200,"station_id":"ce4bhbp2rcd13ifvqesg","pricing_plan_id":"cebpf4jnsgd1na2vs0mg"},{"bike_id":"71389fc3-a4c3-46c5-a0f9-4330fcbb165b","system_id":"levelo_inurba_marseille","lat":43.27966,"lon":5.41041,"is_reserved":false,"is_disabled":true,"rental_uris":{"android":"levelo://app?vid=71389fc3-a4c3-46c5-a0f9-4330fcbb165b","ios":"levelo://app?vid=71389fc3-a4c3-46c5-a0f9-4330fcbb165b"},"vehicle_type_id":"4","last_reported":1774088177,"current_range_meters":7200,"station_id":"ce4bhnp2rcd13ifvqh0g","pricing_plan_id":"cebpf4jnsgd1na2vs0mg"},{"bike_id":"72e035d0-dcc2-4dcf-8660-2e348be6861e","system_id":"levelo_inurba_marseille","lat":43.31457,"lon":5.45388,"is_reserved":false,"is_disabled":false,"rental_uris":{"android":"levelo://app?vid=72e035d0-dcc2-4dcf-8660-2e348be6861e","ios":"levelo://app?vid=72e035d0-dcc2-4dcf-8660-2e348be6861e"},"vehicle_type_id":"4","last_reported":1774088177,"current_range_meters":7200,"station_id":"","pricing_plan_id":"cebpf4jnsgd1na2vs0mg"},{"bike_id":"5053a012-d646-439d-b591-468fdeaa8c67","system_id":"levelo_inurba_marseille","lat":43.25342,"lon":5.42193,"is_reserved":false,"is_disabled":false,"rental_uris":{"android":"levelo://app?vid=5053a012-d646-439d-b591-468fdeaa8c67","ios":"levelo://app?vid=5053a012-d646-439d-b591-468fdeaa8c67"},"vehicle_type_id":"4","last_reported":1774088177,"current_range_meters":7200,"station_id":"st_d2m65c5bi1j21697t3ng","pricing_plan_id":"cebpf4jnsgd1na2vs0mg"},{"bike_id":"92f32112-8a58-4a2d-8380-c50aa46da344","system_id":"levelo_inurba_marseille","lat":43.24109,"lon":5.36386,"is_reserved":false,"is_disabled":false,"rental_uris":{"android":"levelo://app?vid=92f32112-8a58-4a2d-8380-c50aa46da344","ios":"levelo://app?vid=92f32112-8a58-4a2d-8380-c50aa46da344"},"vehicle_type_id":"4","last_reported":1774088177,"current_range_meters":7200,"station_id":"","pricing_plan_id":"cebpf4jnsgd1na2vs0mg"},{"bike_id":"63d87b0c-080a-4958-9fa6-c3f1a168b299","system_id":"levelo_inurba_marseille","lat":43.24806,"lon":5.37449,"is_reserved":false,"is_disabled":false,"rental_uris":{"android":"levelo://app?vid=63d87b0c-080a-4958-9fa6-c3f1a168b299","ios":"levelo://app?vid=63d87b0c-080a-4958-9fa6-c3f1a168b299"},"vehicle_type_id":"4","last_reported":1774088177,"current_range_meters":7200,"station_id":"ce4bhgh2rcd13ifvqfb0","pricing_plan_id":"cebpf4jnsgd1na2vs0mg"},{"bike_id":"1466758c-2c3d-4cc4-860b-d3d146ceb5ca","system_id":"levelo_inurba_marseille","lat":43.32669,"lon":5.40984,"is_reserved":false,"is_disabled":true,"rental_uris":{"android":"levelo://app?vid=1466758c-2c3d-4cc4-860b-d3d146ceb5ca","ios":"levelo://app?vid=1466758c-2c3d-4cc4-860b-d3d146ceb5ca"},"vehicle_type_id":"4","last_reported":1774088177,"current_range_meters":7200,"station_id":"ce4bhpp2rcd13ifvqhgg","pricing_plan_id":"cebpf4jnsgd1na2vs0mg"},{"bike_id":"bfa999de-7a32-454a-b31e-f99ace51a3fc","system_id":"levelo_inurba_marseille","lat":43.28477,"lon":5.48399,"is_reserved":false,"is_disabled":false,"rental_uris":{"android":"levelo://app?vid=bfa999de-7a32-454a-b31e-f99ace51a3fc","ios":"levelo://app?vid=bfa999de-7a32-454a-b31e-f99ace51a3fc"},"vehicle_type_id":"4","last_reported":1774088177,"current_range_meters":7200,"station_id":"","pricing_plan_id":"cebpf4jnsgd1na2vs0mg"},{"bike_id":"b79edf21-0164-4a0c-b31c-d86dd5687815","system_id":"levelo_inurba_marseille","lat":43.337572,"lon":5.37466,"is_reserved":false,"is_disabled":false,"rental_uris":{"android":"levelo://app?vid=b79edf21-0164-4a0c-b31c-d86dd5687815","ios":"levelo://app?vid=b79edf21-0164-4a0c-b31c-d86dd5687815"},"vehicle_type_id":"4","last_reported":1774088177,"current_range_meters":7200,"station_id":"","pricing_plan_id":"cebpf4jnsgd1na2vs0mg"},{"bike_id":"233dbf6d-4647-43f1-b294-b437351b9958","system_id":"levelo_inurba_marseille","lat":43.24671,"lon":5.38139,"is_reserved":false,"is_disabled":false,"rental_uris":{"android":"levelo://app?vid=233dbf6d-4647-43f1-b294-b437351b9958","ios":"levelo://app?vid=233dbf6d-4647-43f1-b294-b437351b9958"},"vehicle_type_id":"4","last_reported":1774088177,"current_range_meters":7200,"station_id":"ce4bhih2rcd13ifvqfr0","pricing_plan_id":"cebpf4jnsgd1na2vs0mg"},{"bike_id":"16fe25c4-6472-47d6-882b-5ff94101fa7d","system_id":"levelo_inurba_marseille","lat":43.21191,"lon":5.35052,"is_reserved":false,"is_disabled":false,"rental_uris":{"android":"levelo://app?vid=16fe25c4-6472-47d6-882b-5ff94101fa7d","ios":"levelo://app?vid=16fe25c4-6472-47d6-882b-5ff94101fa7d"},"vehicle_type_id":"4","last_reported":1774088177,"current_range_meters":7200,"station_id":"st_cvj6sg6p6f1abm77japg","pricing_plan_id":"cebpf4jnsgd1na2vs0mg"},{"bike_id":"3a69dd93-fcb0-4356-afaf-6f3063b4d56e","system_id":"levelo_inurba_marseille","lat":43.30166,"lon":5.38078,"is_reserved":false,"is_disabled":false,"rental_uris":{"android":"levelo://app?vid=3a69dd93-fcb0-4356-afaf-6f3063b4d56e","ios":"levelo://app?vid=3a69dd93-fcb0-4356-afaf-6f3063b4d56e"},"vehicle_type_id":"4","last_reported":1774088177,"current_range_meters":7200,"station_id":"ce4bgjp2rcd13ifvqbh0","pricing_plan_id":"cebpf4jnsgd1na2vs0mg"},{"bike_id":"943530c9-5846-43e0-aead-ab3ef335914f","system_id":"levelo_inurba_marseille","lat":43.29526,"lon":5.3939,"is_reserved":false,"is_disabled":false,"rental_uris":{"android":"levelo://app?vid=943530c9-5846-43e0-aead-ab3ef335914f","ios":"levelo://app?vid=943530c9-5846-43e0-aead-ab3ef335914f"},"vehicle_type_id":"4","last_reported":1774088177,"current_range_meters":7200,"station_id":"ce4bh292rcd13ifvqdf0","pricing_plan_id":"cebpf4jnsgd1na2vs0mg"},{"bike_id":"8384f279-4c48-4dc4-a681-cc4e6da61fb6","system_id":"levelo_inurba_marseille","lat":43.30788,"lon":5.37637,"is_reserved":false,"is_disabled":false,"rental_uris":{"android":"levelo://app?vid=8384f279-4c48-4dc4-a681-cc4e6da61fb6","ios":"levelo://app?vid=8384f279-4c48-4dc4-a681-cc4e6da61fb6"},"vehicle_type_id":"4","last_reported":1774088177,"current_range_meters":7200,"station_id":"ce4bgv92rcd13ifvqcq0","pricing_plan_id":"cebpf4jnsgd1na2vs0mg"},{"bike_id":"e1c6fe75-f12a-4575-8617-856edcef0ee0","system_id":"levelo_inurba_marseille","lat":43.24653,"lon":5.38888,"is_reserved":false,"is_disabled":false,"rental_uris":{"android":"levelo://app?vid=e1c6fe75-f12a-4575-8617-856edcef0ee0","ios":"levelo://app?vid=e1c6fe75-f12a-4575-8617-856edcef0ee0"},"vehicle_type_id":"4","last_reported":1774088177,"current_range_meters":7200,"station_id":"ce4bhg12rcd13ifvqf60","pricing_plan_id":"cebpf4jnsgd1na2vs0mg"},{"bike_id":"b55a15b5-780b-4c64-ba3a-138204b44562","system_id":"levelo_inurba_marseille","lat":43.27566,"lon":5.38394,"is_reserved":false,"is_disabled":false,"rental_uris":{"android":"levelo://app?vid=b55a15b5-780b-4c64-ba3a-138204b44562","ios":"levelo://app?vid=b55a15b5-780b-4c64-ba3a-138204b44562"},"vehicle_type_id":"4","last_reported":1774088177,"current_range_meters":8000,"station_id":"ce4bhh92rcd13ifvqfi0","pricing_plan_id":"cebpf4jnsgd1na2vs0mg"},{"bike_id":"63cda11a-b52e-45b3-9876-91b0e59b9a05","system_id":"levelo_inurba_marseille","lat":43.25822,"lon":5.39428,"is_reserved":false,"is_disabled":false,"rental_uris":{"android":"levelo://app?vid=63cda11a-b52e-45b3-9876-91b0e59b9a05","ios":"levelo://app?vid=63cda11a-b52e-45b3-9876-91b0e59b9a05"},"vehicle_type_id":"4","last_reported":1774088177,"current_range_meters":8000,"station_id":"ce4bhip2rcd13ifvqft0","pricing_plan_id":"cebpf4jnsgd1na2vs0mg"},{"bike_id":"9fc3100e-4d82-48d6-89bc-f6f291702956","system_id":"levelo_inurba_marseille","lat":43.31765,"lon":5.39,"is_reserved":false,"is_disabled":false,"rental_uris":{"android":"levelo://app?vid=9fc3100e-4d82-48d6-89bc-f6f291702956","ios":"levelo://app?vid=9fc3100e-4d82-48d6-89bc-f6f291702956"},"vehicle_type_id":"4","last_reported":1774088177,"current_range_meters":8000,"station_id":"ce4bhqp2rcd13ifvqhng","pricing_plan_id":"cebpf4jnsgd1na2vs0mg"},{"bike_id":"24019635-ea1a-4480-86f2-0e1d1bfa1d44","system_id":"levelo_inurba_marseille","lat":43.31057,"lon":5.37153,"is_reserved":false,"is_disabled":false,"rental_uris":{"android":"levelo://app?vid=24019635-ea1a-4480-86f2-0e1d1bfa1d44","ios":"levelo://app?vid=24019635-ea1a-4480-86f2-0e1d1bfa1d44"},"vehicle_type_id":"4","last_reported":1774088177,"current_range_meters":8000,"station_id":"st_d4kl2rp97mjs73e7tdfg","pricing_plan_id":"cebpf4jnsgd1na2vs0mg"},{"bike_id":"bbdddb31-e2a4-4269-aa30-a071bab4d5ac","system_id":"levelo_inurba_marseille","lat":43.25801,"lon":5.3858,"is_reserved":false,"is_disabled":false,"rental_uris":{"android":"levelo://app?vid=bbdddb31-e2a4-4269-aa30-a071bab4d5ac","ios":"levelo://app?vid=bbdddb31-e2a4-4269-aa30-a071bab4d5ac"},"vehicle_type_id":"4","last_reported":1774088177,"current_range_meters":8000,"station_id":"","pricing_plan_id":"cebpf4jnsgd1na2vs0mg"},{"bike_id":"afb19150-c761-4005-b74f-fc14737fc6b6","system_id":"levelo_inurba_marseille","lat":43.30147,"lon":5.38082,"is_reserved":false,"is_disabled":false,"rental_uris":{"android":"levelo://app?vid=afb19150-c761-4005-b74f-fc14737fc6b6","ios":"levelo://app?vid=afb19150-c761-4005-b74f-fc14737fc6b6"},"vehicle_type_id":"4","last_reported":1774088177,"current_range_meters":8000,"station_id":"ce4bgjp2rcd13ifvqbh0","pricing_plan_id":"cebpf4jnsgd1na2vs0mg"},{"bike_id":"3727d6e3-4577-49ea-959e-93a5e09450a3","system_id":"levelo_inurba_marseille","lat":43.3142,"lon":5.40086,"is_reserved":false,"is_disabled":false,"rental_uris":{"android":"levelo://app?vid=3727d6e3-4577-49ea-959e-93a5e09450a3","ios":"levelo://app?vid=3727d6e3-4577-49ea-959e-93a5e09450a3"},"vehicle_type_id":"4","last_reported":1774088177,"current_range_meters":8000,"station_id":"","pricing_plan_id":"cebpf4jnsgd1na2vs0mg"},{"bike_id":"37fd8b91-bebb-483f-9ede-850904204da2","system_id":"levelo_inurba_marseille","lat":43.3343,"lon":5.3568,"is_reserved":false,"is_disabled":false,"rental_uris":{"android":"levelo://app?vid=37fd8b91-bebb-483f-9ede-850904204da2","ios":"levelo://app?vid=37fd8b91-bebb-483f-9ede-850904204da2"},"vehicle_type_id":"4","last_reported":1774088177,"current_range_meters":8000,"station_id":"","pricing_plan_id":"cebpf4jnsgd1na2vs0mg"},{"bike_id":"55ec694a-4d13-442c-981f-40b12a44db63","system_id":"levelo_inurba_marseille","lat":43.28162,"lon":5.42629,"is_reserved":false,"is_disabled":false,"rental_uris":{"android":"levelo://app?vid=55ec694a-4d13-442c-981f-40b12a44db63","ios":"levelo://app?vid=55ec694a-4d13-442c-981f-40b12a44db63"},"vehicle_type_id":"4","last_reported":1774088177,"current_range_meters":8000,"station_id":"ce4bhnh2rcd13ifvqgug","pricing_plan_id":"cebpf4jnsgd1na2vs0mg"},{"bike_id":"ed8502d2-5248-44b9-8493-d669e884c4f2","system_id":"levelo_inurba_marseille","lat":43.21189,"lon":5.3507,"is_reserved":false,"is_disabled":false,"rental_uris":{"android":"levelo://app?vid=ed8502d2-5248-44b9-8493-d669e884c4f2","ios":"levelo://app?vid=ed8502d2-5248-44b9-8493-d669e884c4f2"},"vehicle_type_id":"4","last_reported":1774088177,"current_range_meters":8000,"station_id":"st_cvj6sg6p6f1abm77japg","pricing_plan_id":"cebpf4jnsgd1na2vs0mg"},{"bike_id":"d9a2340f-4dc0-456b-89f0-454af4d93a65","system_id":"levelo_inurba_marseille","lat":43.28497,"lon":5.3513,"is_reserved":false,"is_disabled":false,"rental_uris":{"android":"levelo://app?vid=d9a2340f-4dc0-456b-89f0-454af4d93a65","ios":"levelo://app?vid=d9a2340f-4dc0-456b-89f0-454af4d93a65"},"vehicle_type_id":"4","last_reported":1774088177,"current_range_meters":8000,"station_id":"","pricing_plan_id":"cebpf4jnsgd1na2vs0mg"},{"bike_id":"78848c6c-bee2-4e42-8cc7-2917b662c3d0","system_id":"levelo_inurba_marseille","lat":43.27918,"lon":5.39576,"is_reserved":false,"is_disabled":false,"rental_uris":{"android":"levelo://app?vid=78848c6c-bee2-4e42-8cc7-2917b662c3d0","ios":"levelo://app?vid=78848c6c-bee2-4e42-8cc7-2917b662c3d0"},"vehicle_type_id":"4","last_reported":1774088177,"current_range_meters":8000,"station_id":"ce4bhf92rcd13ifvqf40","pricing_plan_id":"cebpf4jnsgd1na2vs0mg"},{"bike_id":"fdd2e384-ed3c-4de4-a253-6ee51b044b15","system_id":"levelo_inurba_marseille","lat":43.29015,"lon":5.3561,"is_reserved":false,"is_disabled":false,"rental_uris":{"android":"levelo://app?vid=fdd2e384-ed3c-4de4-a253-6ee51b044b15","ios":"levelo://app?vid=fdd2e384-ed3c-4de4-a253-6ee51b044b15"},"vehicle_type_id":"4","last_reported":1774088177,"current_range_meters":8000,"station_id":"ce4bhb92rcd13ifvqen0","pricing_plan_id":"cebpf4jnsgd1na2vs0mg"},{"bike_id":"b41295d4-f91d-409d-a4fc-3ec541f47d15","system_id":"levelo_inurba_marseille","lat":43.24414,"lon":5.3712,"is_reserved":false,"is_disabled":false,"rental_uris":{"android":"levelo://app?vid=b41295d4-f91d-409d-a4fc-3ec541f47d15","ios":"levelo://app?vid=b41295d4-f91d-409d-a4fc-3ec541f47d15"},"vehicle_type_id":"4","last_reported":1774088177,"current_range_meters":8000,"station_id":"","pricing_plan_id":"cebpf4jnsgd1na2vs0mg"},{"bike_id":"b87d7938-28e4-46e7-994e-fdebd5392225","system_id":"levelo_inurba_marseille","lat":43.32106,"lon":5.36785,"is_reserved":false,"is_disabled":false,"rental_uris":{"android":"levelo://app?vid=b87d7938-28e4-46e7-994e-fdebd5392225","ios":"levelo://app?vid=b87d7938-28e4-46e7-994e-fdebd5392225"},"vehicle_type_id":"4","last_reported":1774088177,"current_range_meters":8000,"station_id":"ce4bhrh2rcd13ifvqhug","pricing_plan_id":"cebpf4jnsgd1na2vs0mg"},{"bike_id":"36750a5a-e715-404b-ab4e-4dfa557014c3","system_id":"levelo_inurba_marseille","lat":43.24461,"lon":5.4254,"is_reserved":false,"is_disabled":false,"rental_uris":{"android":"levelo://app?vid=36750a5a-e715-404b-ab4e-4dfa557014c3","ios":"levelo://app?vid=36750a5a-e715-404b-ab4e-4dfa557014c3"},"vehicle_type_id":"4","last_reported":1774088177,"current_range_meters":8400,"station_id":"st_d4a3vfp97mjs738cd8kg","pricing_plan_id":"cebpf4jnsgd1na2vs0mg"},{"bike_id":"2c8d5c30-577d-4925-9767-a3e8a27bf5b4","system_id":"levelo_inurba_marseille","lat":43.24093,"lon":5.38949,"is_reserved":false,"is_disabled":false,"rental_uris":{"android":"levelo://app?vid=2c8d5c30-577d-4925-9767-a3e8a27bf5b4","ios":"levelo://app?vid=2c8d5c30-577d-4925-9767-a3e8a27bf5b4"},"vehicle_type_id":"4","last_reported":1774088177,"current_range_meters":8400,"station_id":"","pricing_plan_id":"cebpf4jnsgd1na2vs0mg"},{"bike_id":"4a501649-1ae3-4f13-916a-d9d0102c5c57","system_id":"levelo_inurba_marseille","lat":43.22939,"lon":5.35385,"is_reserved":false,"is_disabled":false,"rental_uris":{"android":"levelo://app?vid=4a501649-1ae3-4f13-916a-d9d0102c5c57","ios":"levelo://app?vid=4a501649-1ae3-4f13-916a-d9d0102c5c57"},"vehicle_type_id":"4","last_reported":1774088177,"current_range_meters":8400,"station_id":"cpo3532slgdg3j2ikp40","pricing_plan_id":"cebpf4jnsgd1na2vs0mg"},{"bike_id":"df5ad533-8354-43dd-b4db-d4118becde63","system_id":"levelo_inurba_marseille","lat":43.2856,"lon":5.48333,"is_reserved":false,"is_disabled":false,"rental_uris":{"android":"levelo://app?vid=df5ad533-8354-43dd-b4db-d4118becde63","ios":"levelo://app?vid=df5ad533-8354-43dd-b4db-d4118becde63"},"vehicle_type_id":"4","last_reported":1774088177,"current_range_meters":8400,"station_id":"","pricing_plan_id":"cebpf4jnsgd1na2vs0mg"},{"bike_id":"15fb4bb8-4c0f-4ee3-a727-89e0f28d0a52","system_id":"levelo_inurba_marseille","lat":43.2385,"lon":5.36655,"is_reserved":false,"is_disabled":false,"rental_uris":{"android":"levelo://app?vid=15fb4bb8-4c0f-4ee3-a727-89e0f28d0a52","ios":"levelo://app?vid=15fb4bb8-4c0f-4ee3-a727-89e0f28d0a52"},"vehicle_type_id":"4","last_reported":1774088177,"current_range_meters":8400,"station_id":"","pricing_plan_id":"cebpf4jnsgd1na2vs0mg"},{"bike_id":"5b1c035b-7861-4232-8522-9ed56f3b7768","system_id":"levelo_inurba_marseille","lat":43.29629,"lon":5.37208,"is_reserved":false,"is_disabled":false,"rental_uris":{"android":"levelo://app?vid=5b1c035b-7861-4232-8522-9ed56f3b7768","ios":"levelo://app?vid=5b1c035b-7861-4232-8522-9ed56f3b7768"},"vehicle_type_id":"4","last_reported":1774088177,"current_range_meters":8400,"station_id":"ce4bgnh2rcd13ifvqc0g","pricing_plan_id":"cebpf4jnsgd1na2vs0mg"},{"bike_id":"e364e006-c951-444e-8997-7aaaa2299d9d","system_id":"levelo_inurba_marseille","lat":43.23155,"lon":5.43702,"is_reserved":false,"is_disabled":false,"rental_uris":{"android":"levelo://app?vid=e364e006-c951-444e-8997-7aaaa2299d9d","ios":"levelo://app?vid=e364e006-c951-444e-8997-7aaaa2299d9d"},"vehicle_type_id":"4","last_reported":1774088177,"current_range_meters":8400,"station_id":"ce4bhmp2rcd13ifvqgog","pricing_plan_id":"cebpf4jnsgd1na2vs0mg"},{"bike_id":"ba2f8fd0-11ac-4347-b470-23519177c832","system_id":"levelo_inurba_marseille","lat":43.29802,"lon":5.44048,"is_reserved":false,"is_disabled":false,"rental_uris":{"android":"levelo://app?vid=ba2f8fd0-11ac-4347-b470-23519177c832","ios":"levelo://app?vid=ba2f8fd0-11ac-4347-b470-23519177c832"},"vehicle_type_id":"4","last_reported":1774088177,"current_range_meters":8400,"station_id":"st_d3jp68qikq2c7381ktn0","pricing_plan_id":"cebpf4jnsgd1na2vs0mg"},{"bike_id":"bb64248e-0e5d-4ee1-9d8f-d48a0dd77d66","system_id":"levelo_inurba_marseille","lat":43.21609,"lon":5.34493,"is_reserved":false,"is_disabled":false,"rental_uris":{"android":"levelo://app?vid=bb64248e-0e5d-4ee1-9d8f-d48a0dd77d66","ios":"levelo://app?vid=bb64248e-0e5d-4ee1-9d8f-d48a0dd77d66"},"vehicle_type_id":"4","last_reported":1774088177,"current_range_meters":8400,"station_id":"","pricing_plan_id":"cebpf4jnsgd1na2vs0mg"},{"bike_id":"42756e7d-c4cb-4732-87c5-fa47a18edca4","system_id":"levelo_inurba_marseille","lat":43.26567,"lon":5.38993,"is_reserved":false,"is_disabled":false,"rental_uris":{"android":"levelo://app?vid=42756e7d-c4cb-4732-87c5-fa47a18edca4","ios":"levelo://app?vid=42756e7d-c4cb-4732-87c5-fa47a18edca4"},"vehicle_type_id":"4","last_reported":1774088177,"current_range_meters":8400,"station_id":"ce4bhe12rcd13ifvqf30","pricing_plan_id":"cebpf4jnsgd1na2vs0mg"},{"bike_id":"94fffad1-2fce-418d-8e84-dc141bfa239b","system_id":"levelo_inurba_marseille","lat":43.29729,"lon":5.37667,"is_reserved":false,"is_disabled":false,"rental_uris":{"android":"levelo://app?vid=94fffad1-2fce-418d-8e84-dc141bfa239b","ios":"levelo://app?vid=94fffad1-2fce-418d-8e84-dc141bfa239b"},"vehicle_type_id":"4","last_reported":1774088177,"current_range_meters":8800,"station_id":"ce4bgkh2rcd13ifvqbl0","pricing_plan_id":"cebpf4jnsgd1na2vs0mg"},{"bike_id":"501c19c3-5489-4a40-8e67-b67eb6dae83e","system_id":"levelo_inurba_marseille","lat":43.2958,"lon":5.37491,"is_reserved":false,"is_disabled":false,"rental_uris":{"android":"levelo://app?vid=501c19c3-5489-4a40-8e67-b67eb6dae83e","ios":"levelo://app?vid=501c19c3-5489-4a40-8e67-b67eb6dae83e"},"vehicle_type_id":"4","last_reported":1774088177,"current_range_meters":8800,"station_id":"ce4bgh92rcd13ifvqb50","pricing_plan_id":"cebpf4jnsgd1na2vs0mg"},{"bike_id":"4e6a76e8-f98f-4ca5-824f-6d76c81578f6","system_id":"levelo_inurba_marseille","lat":43.29222,"lon":5.36067,"is_reserved":false,"is_disabled":false,"rental_uris":{"android":"levelo://app?vid=4e6a76e8-f98f-4ca5-824f-6d76c81578f6","ios":"levelo://app?vid=4e6a76e8-f98f-4ca5-824f-6d76c81578f6"},"vehicle_type_id":"4","last_reported":1774088177,"current_range_meters":8800,"station_id":"ce4bhbh2rcd13ifvqeqg","pricing_plan_id":"cebpf4jnsgd1na2vs0mg"},{"bike_id":"881552ad-57ca-4484-9a05-f159c58f50d9","system_id":"levelo_inurba_marseille","lat":43.31698,"lon":5.38686,"is_reserved":false,"is_disabled":false,"rental_uris":{"android":"levelo://app?vid=881552ad-57ca-4484-9a05-f159c58f50d9","ios":"levelo://app?vid=881552ad-57ca-4484-9a05-f159c58f50d9"},"vehicle_type_id":"4","last_reported":1774088177,"current_range_meters":8800,"station_id":"","pricing_plan_id":"cebpf4jnsgd1na2vs0mg"},{"bike_id":"703efbe1-feef-417d-a9e3-0fca1a7eab74","system_id":"levelo_inurba_marseille","lat":43.34967,"lon":5.37935,"is_reserved":false,"is_disabled":false,"rental_uris":{"android":"levelo://app?vid=703efbe1-feef-417d-a9e3-0fca1a7eab74","ios":"levelo://app?vid=703efbe1-feef-417d-a9e3-0fca1a7eab74"},"vehicle_type_id":"4","last_reported":1774088177,"current_range_meters":8800,"station_id":"","pricing_plan_id":"cebpf4jnsgd1na2vs0mg"},{"bike_id":"efe4b101-a4c2-4a36-bd51-36393273087f","system_id":"levelo_inurba_marseille","lat":43.28482,"lon":5.48413,"is_reserved":false,"is_disabled":false,"rental_uris":{"android":"levelo://app?vid=efe4b101-a4c2-4a36-bd51-36393273087f","ios":"levelo://app?vid=efe4b101-a4c2-4a36-bd51-36393273087f"},"vehicle_type_id":"4","last_reported":1774088177,"current_range_meters":8800,"station_id":"","pricing_plan_id":"cebpf4jnsgd1na2vs0mg"},{"bike_id":"d0b715f5-b410-4542-aa2d-7caf4bb72688","system_id":"levelo_inurba_marseille","lat":43.27165,"lon":5.42232,"is_reserved":false,"is_disabled":false,"rental_uris":{"android":"levelo://app?vid=d0b715f5-b410-4542-aa2d-7caf4bb72688","ios":"levelo://app?vid=d0b715f5-b410-4542-aa2d-7caf4bb72688"},"vehicle_type_id":"4","last_reported":1774088177,"current_range_meters":8800,"station_id":"","pricing_plan_id":"cebpf4jnsgd1na2vs0mg"},{"bike_id":"c1eb0fb5-0c2a-427e-b51e-619b9f6d1faf","system_id":"levelo_inurba_marseille","lat":43.29526,"lon":5.38543,"is_reserved":false,"is_disabled":false,"rental_uris":{"android":"levelo://app?vid=c1eb0fb5-0c2a-427e-b51e-619b9f6d1faf","ios":"levelo://app?vid=c1eb0fb5-0c2a-427e-b51e-619b9f6d1faf"},"vehicle_type_id":"4","last_reported":1774088177,"current_range_meters":8800,"station_id":"ce4bgih2rcd13ifvqba0","pricing_plan_id":"cebpf4jnsgd1na2vs0mg"},{"bike_id":"7755de4e-b7dd-4e22-acde-1bbb25001c61","system_id":"levelo_inurba_marseille","lat":43.30374,"lon":5.42472,"is_reserved":false,"is_disabled":false,"rental_uris":{"android":"levelo://app?vid=7755de4e-b7dd-4e22-acde-1bbb25001c61","ios":"levelo://app?vid=7755de4e-b7dd-4e22-acde-1bbb25001c61"},"vehicle_type_id":"4","last_reported":1774088177,"current_range_meters":9200,"station_id":"ce4bhoh2rcd13ifvqh6g","pricing_plan_id":"cebpf4jnsgd1na2vs0mg"},{"bike_id":"62ccf4a8-0426-42c8-92c7-60b92e2221c9","system_id":"levelo_inurba_marseille","lat":43.28476,"lon":5.4839,"is_reserved":false,"is_disabled":false,"rental_uris":{"android":"levelo://app?vid=62ccf4a8-0426-42c8-92c7-60b92e2221c9","ios":"levelo://app?vid=62ccf4a8-0426-42c8-92c7-60b92e2221c9"},"vehicle_type_id":"4","last_reported":1774088177,"current_range_meters":9200,"station_id":"","pricing_plan_id":"cebpf4jnsgd1na2vs0mg"},{"bike_id":"34c091fc-8184-4773-bd2e-dd88d75d3a2c","system_id":"levelo_inurba_marseille","lat":43.25761,"lon":5.37641,"is_reserved":false,"is_disabled":false,"rental_uris":{"android":"levelo://app?vid=34c091fc-8184-4773-bd2e-dd88d75d3a2c","ios":"levelo://app?vid=34c091fc-8184-4773-bd2e-dd88d75d3a2c"},"vehicle_type_id":"4","last_reported":1774088177,"current_range_meters":9200,"station_id":"","pricing_plan_id":"cebpf4jnsgd1na2vs0mg"},{"bike_id":"6a0e5f42-628b-49f9-be58-7186fc3dc8d5","system_id":"levelo_inurba_marseille","lat":43.23058,"lon":5.35485,"is_reserved":false,"is_disabled":false,"rental_uris":{"android":"levelo://app?vid=6a0e5f42-628b-49f9-be58-7186fc3dc8d5","ios":"levelo://app?vid=6a0e5f42-628b-49f9-be58-7186fc3dc8d5"},"vehicle_type_id":"4","last_reported":1774088177,"current_range_meters":9200,"station_id":"cpo3342slgdg3j2ifvpg","pricing_plan_id":"cebpf4jnsgd1na2vs0mg"},{"bike_id":"284467db-bca6-43e8-b3ed-20d35ef00b3e","system_id":"levelo_inurba_marseille","lat":43.28287,"lon":5.35064,"is_reserved":false,"is_disabled":false,"rental_uris":{"android":"levelo://app?vid=284467db-bca6-43e8-b3ed-20d35ef00b3e","ios":"levelo://app?vid=284467db-bca6-43e8-b3ed-20d35ef00b3e"},"vehicle_type_id":"4","last_reported":1774088177,"current_range_meters":9200,"station_id":"ce4bhbp2rcd13ifvqerg","pricing_plan_id":"cebpf4jnsgd1na2vs0mg"},{"bike_id":"f4ab0de3-dc79-4a98-80e3-f7a89f7628b3","system_id":"levelo_inurba_marseille","lat":43.29163,"lon":5.37194,"is_reserved":false,"is_disabled":false,"rental_uris":{"android":"levelo://app?vid=f4ab0de3-dc79-4a98-80e3-f7a89f7628b3","ios":"levelo://app?vid=f4ab0de3-dc79-4a98-80e3-f7a89f7628b3"},"vehicle_type_id":"4","last_reported":1774088177,"current_range_meters":9200,"station_id":"ce4bha92rcd13ifvqeh0","pricing_plan_id":"cebpf4jnsgd1na2vs0mg"},{"bike_id":"f84df946-1fe9-4d68-b54f-3a23cc20fde7","system_id":"levelo_inurba_marseille","lat":43.29858,"lon":5.42104,"is_reserved":false,"is_disabled":false,"rental_uris":{"android":"levelo://app?vid=f84df946-1fe9-4d68-b54f-3a23cc20fde7","ios":"levelo://app?vid=f84df946-1fe9-4d68-b54f-3a23cc20fde7"},"vehicle_type_id":"4","last_reported":1774088177,"current_range_meters":9200,"station_id":"st_d6tc004otcvc738tfe70","pricing_plan_id":"cebpf4jnsgd1na2vs0mg"},{"bike_id":"79f442fd-5235-475f-8755-05bf15c31f5d","system_id":"levelo_inurba_marseille","lat":43.30393,"lon":5.42486,"is_reserved":false,"is_disabled":false,"rental_uris":{"android":"levelo://app?vid=79f442fd-5235-475f-8755-05bf15c31f5d","ios":"levelo://app?vid=79f442fd-5235-475f-8755-05bf15c31f5d"},"vehicle_type_id":"4","last_reported":1774088177,"current_range_meters":9200,"station_id":"ce4bhoh2rcd13ifvqh6g","pricing_plan_id":"cebpf4jnsgd1na2vs0mg"},{"bike_id":"87c1f828-d648-4202-ac97-84b6bc128730","system_id":"levelo_inurba_marseille","lat":43.23958,"lon":5.36648,"is_reserved":false,"is_disabled":false,"rental_uris":{"android":"levelo://app?vid=87c1f828-d648-4202-ac97-84b6bc128730","ios":"levelo://app?vid=87c1f828-d648-4202-ac97-84b6bc128730"},"vehicle_type_id":"4","last_reported":1774088177,"current_range_meters":9200,"station_id":"ce4bhi12rcd13ifvqfp0","pricing_plan_id":"cebpf4jnsgd1na2vs0mg"},{"bike_id":"b19a626a-93cd-41bf-8d4f-8b63d7aeec08","system_id":"levelo_inurba_marseille","lat":43.30121,"lon":5.43894,"is_reserved":false,"is_disabled":false,"rental_uris":{"android":"levelo://app?vid=b19a626a-93cd-41bf-8d4f-8b63d7aeec08","ios":"levelo://app?vid=b19a626a-93cd-41bf-8d4f-8b63d7aeec08"},"vehicle_type_id":"4","last_reported":1774088177,"current_range_meters":9200,"station_id":"","pricing_plan_id":"cebpf4jnsgd1na2vs0mg"},{"bike_id":"5eb08730-d125-4184-9659-c9dbb4a26033","system_id":"levelo_inurba_marseille","lat":43.26553,"lon":5.37289,"is_reserved":false,"is_disabled":false,"rental_uris":{"android":"levelo://app?vid=5eb08730-d125-4184-9659-c9dbb4a26033","ios":"levelo://app?vid=5eb08730-d125-4184-9659-c9dbb4a26033"},"vehicle_type_id":"4","last_reported":1774088177,"current_range_meters":9200,"station_id":"ce4bhg12rcd13ifvqf70","pricing_plan_id":"cebpf4jnsgd1na2vs0mg"},{"bike_id":"594997b9-c919-401f-90fd-e5e032fbec23","system_id":"levelo_inurba_marseille","lat":43.296659,"lon":5.377765,"is_reserved":false,"is_disabled":false,"rental_uris":{"android":"levelo://app?vid=594997b9-c919-401f-90fd-e5e032fbec23","ios":"levelo://app?vid=594997b9-c919-401f-90fd-e5e032fbec23"},"vehicle_type_id":"4","last_reported":1774088177,"current_range_meters":9200,"station_id":"ce4bgkh2rcd13ifvqbl0","pricing_plan_id":"cebpf4jnsgd1na2vs0mg"},{"bike_id":"e9216789-2da6-4ca9-9883-2c1c48487abb","system_id":"levelo_inurba_marseille","lat":43.29242,"lon":5.36896,"is_reserved":false,"is_disabled":false,"rental_uris":{"android":"levelo://app?vid=e9216789-2da6-4ca9-9883-2c1c48487abb","ios":"levelo://app?vid=e9216789-2da6-4ca9-9883-2c1c48487abb"},"vehicle_type_id":"4","last_reported":1774088177,"current_range_meters":9200,"station_id":"","pricing_plan_id":"cebpf4jnsgd1na2vs0mg"},{"bike_id":"5369d941-756a-4a39-ae59-10b7c47d2be3","system_id":"levelo_inurba_marseille","lat":43.31052,"lon":5.37161,"is_reserved":false,"is_disabled":false,"rental_uris":{"android":"levelo://app?vid=5369d941-756a-4a39-ae59-10b7c47d2be3","ios":"levelo://app?vid=5369d941-756a-4a39-ae59-10b7c47d2be3"},"vehicle_type_id":"4","last_reported":1774088177,"current_range_meters":9200,"station_id":"st_d4kl2rp97mjs73e7tdfg","pricing_plan_id":"cebpf4jnsgd1na2vs0mg"},{"bike_id":"6a0aca4e-04d0-4c00-a6ae-bd130629c89e","system_id":"levelo_inurba_marseille","lat":43.26222,"lon":5.37429,"is_reserved":false,"is_disabled":false,"rental_uris":{"android":"levelo://app?vid=6a0aca4e-04d0-4c00-a6ae-bd130629c89e","ios":"levelo://app?vid=6a0aca4e-04d0-4c00-a6ae-bd130629c89e"},"vehicle_type_id":"4","last_reported":1774088177,"current_range_meters":9200,"station_id":"ce4bhgp2rcd13ifvqfc0","pricing_plan_id":"cebpf4jnsgd1na2vs0mg"},{"bike_id":"5086d9ad-e1a0-4b79-a7f2-c02e47240165","system_id":"levelo_inurba_marseille","lat":43.28869,"lon":5.42516,"is_reserved":false,"is_disabled":false,"rental_uris":{"android":"levelo://app?vid=5086d9ad-e1a0-4b79-a7f2-c02e47240165","ios":"levelo://app?vid=5086d9ad-e1a0-4b79-a7f2-c02e47240165"},"vehicle_type_id":"4","last_reported":1774088177,"current_range_meters":9200,"station_id":"","pricing_plan_id":"cebpf4jnsgd1na2vs0mg"},{"bike_id":"6c1ac590-511b-4ef3-b19a-055f363bbc14","system_id":"levelo_inurba_marseille","lat":43.29901,"lon":5.43657,"is_reserved":false,"is_disabled":false,"rental_uris":{"android":"levelo://app?vid=6c1ac590-511b-4ef3-b19a-055f363bbc14","ios":"levelo://app?vid=6c1ac590-511b-4ef3-b19a-055f363bbc14"},"vehicle_type_id":"4","last_reported":1774088177,"current_range_meters":9200,"station_id":"ce4bhpp2rcd13ifvqhfg","pricing_plan_id":"cebpf4jnsgd1na2vs0mg"},{"bike_id":"718f9d6d-764e-4e13-bc65-ad368fbc290e","system_id":"levelo_inurba_marseille","lat":43.24457,"lon":5.42541,"is_reserved":false,"is_disabled":false,"rental_uris":{"android":"levelo://app?vid=718f9d6d-764e-4e13-bc65-ad368fbc290e","ios":"levelo://app?vid=718f9d6d-764e-4e13-bc65-ad368fbc290e"},"vehicle_type_id":"4","last_reported":1774088177,"current_range_meters":9600,"station_id":"","pricing_plan_id":"cebpf4jnsgd1na2vs0mg"},{"bike_id":"90a1ffc0-ede1-43be-8f41-0a916733bc1e","system_id":"levelo_inurba_marseille","lat":43.29372,"lon":5.37833,"is_reserved":false,"is_disabled":false,"rental_uris":{"android":"levelo://app?vid=90a1ffc0-ede1-43be-8f41-0a916733bc1e","ios":"levelo://app?vid=90a1ffc0-ede1-43be-8f41-0a916733bc1e"},"vehicle_type_id":"4","last_reported":1774088177,"current_range_meters":9600,"station_id":"ce4bgjh2rcd13ifvqbf0","pricing_plan_id":"cebpf4jnsgd1na2vs0mg"},{"bike_id":"39b51a5b-9fc2-4507-aaa1-ad49e92b6ec2","system_id":"levelo_inurba_marseille","lat":43.25107,"lon":5.40325,"is_reserved":false,"is_disabled":false,"rental_uris":{"android":"levelo://app?vid=39b51a5b-9fc2-4507-aaa1-ad49e92b6ec2","ios":"levelo://app?vid=39b51a5b-9fc2-4507-aaa1-ad49e92b6ec2"},"vehicle_type_id":"4","last_reported":1774088177,"current_range_meters":9600,"station_id":"ce4bhlh2rcd13ifvqgig","pricing_plan_id":"cebpf4jnsgd1na2vs0mg"},{"bike_id":"503df8da-9118-4827-9af8-3aebdb519853","system_id":"levelo_inurba_marseille","lat":43.22563,"lon":5.41618,"is_reserved":false,"is_disabled":false,"rental_uris":{"android":"levelo://app?vid=503df8da-9118-4827-9af8-3aebdb519853","ios":"levelo://app?vid=503df8da-9118-4827-9af8-3aebdb519853"},"vehicle_type_id":"4","last_reported":1774088177,"current_range_meters":9600,"station_id":"st_d2o4gvlbi1j2169b742g","pricing_plan_id":"cebpf4jnsgd1na2vs0mg"},{"bike_id":"e8b56232-1983-42de-ba26-315dcb7120c4","system_id":"levelo_inurba_marseille","lat":43.2971,"lon":5.37693,"is_reserved":false,"is_disabled":false,"rental_uris":{"android":"levelo://app?vid=e8b56232-1983-42de-ba26-315dcb7120c4","ios":"levelo://app?vid=e8b56232-1983-42de-ba26-315dcb7120c4"},"vehicle_type_id":"4","last_reported":1774088177,"current_range_meters":9600,"station_id":"ce4bgkh2rcd13ifvqbl0","pricing_plan_id":"cebpf4jnsgd1na2vs0mg"},{"bike_id":"d65bd890-bd76-40b1-a464-add252f480e6","system_id":"levelo_inurba_marseille","lat":43.31736,"lon":5.38999,"is_reserved":false,"is_disabled":false,"rental_uris":{"android":"levelo://app?vid=d65bd890-bd76-40b1-a464-add252f480e6","ios":"levelo://app?vid=d65bd890-bd76-40b1-a464-add252f480e6"},"vehicle_type_id":"4","last_reported":1774088177,"current_range_meters":9600,"station_id":"ce4bhqp2rcd13ifvqhng","pricing_plan_id":"cebpf4jnsgd1na2vs0mg"},{"bike_id":"974c9c8b-8ec7-4aa9-a577-a2644e5e8afd","system_id":"levelo_inurba_marseille","lat":43.29304,"lon":5.37449,"is_reserved":false,"is_disabled":false,"rental_uris":{"android":"levelo://app?vid=974c9c8b-8ec7-4aa9-a577-a2644e5e8afd","ios":"levelo://app?vid=974c9c8b-8ec7-4aa9-a577-a2644e5e8afd"},"vehicle_type_id":"4","last_reported":1774088177,"current_range_meters":9600,"station_id":"ce4bgi12rcd13ifvqb70","pricing_plan_id":"cebpf4jnsgd1na2vs0mg"},{"bike_id":"a01071b8-3f33-4ffe-9e39-c92f5c147b32","system_id":"levelo_inurba_marseille","lat":43.24676,"lon":5.38158,"is_reserved":false,"is_disabled":false,"rental_uris":{"android":"levelo://app?vid=a01071b8-3f33-4ffe-9e39-c92f5c147b32","ios":"levelo://app?vid=a01071b8-3f33-4ffe-9e39-c92f5c147b32"},"vehicle_type_id":"4","last_reported":1774088177,"current_range_meters":9600,"station_id":"ce4bhih2rcd13ifvqfr0","pricing_plan_id":"cebpf4jnsgd1na2vs0mg"},{"bike_id":"0fdefc19-be59-4576-9bfd-bfd4b0dec401","system_id":"levelo_inurba_marseille","lat":43.29708,"lon":5.37694,"is_reserved":false,"is_disabled":false,"rental_uris":{"android":"levelo://app?vid=0fdefc19-be59-4576-9bfd-bfd4b0dec401","ios":"levelo://app?vid=0fdefc19-be59-4576-9bfd-bfd4b0dec401"},"vehicle_type_id":"4","last_reported":1774088177,"current_range_meters":9600,"station_id":"ce4bgkh2rcd13ifvqbl0","pricing_plan_id":"cebpf4jnsgd1na2vs0mg"},{"bike_id":"c740e20c-eca7-406c-92dd-2b448718a645","system_id":"levelo_inurba_marseille","lat":43.28482,"lon":5.48385,"is_reserved":false,"is_disabled":false,"rental_uris":{"android":"levelo://app?vid=c740e20c-eca7-406c-92dd-2b448718a645","ios":"levelo://app?vid=c740e20c-eca7-406c-92dd-2b448718a645"},"vehicle_type_id":"4","last_reported":1774088177,"current_range_meters":9600,"station_id":"st_d3svhcjqgbts73a3dn0g","pricing_plan_id":"cebpf4jnsgd1na2vs0mg"},{"bike_id":"2198dd5a-8a9c-43a1-8743-28b676f91ab1","system_id":"levelo_inurba_marseille","lat":43.29005,"lon":5.36629,"is_reserved":false,"is_disabled":false,"rental_uris":{"android":"levelo://app?vid=2198dd5a-8a9c-43a1-8743-28b676f91ab1","ios":"levelo://app?vid=2198dd5a-8a9c-43a1-8743-28b676f91ab1"},"vehicle_type_id":"4","last_reported":1774088177,"current_range_meters":9600,"station_id":"","pricing_plan_id":"cebpf4jnsgd1na2vs0mg"},{"bike_id":"35939b35-432f-4730-9a4d-bca4477a51c8","system_id":"levelo_inurba_marseille","lat":43.32158,"lon":5.3677,"is_reserved":false,"is_disabled":false,"rental_uris":{"android":"levelo://app?vid=35939b35-432f-4730-9a4d-bca4477a51c8","ios":"levelo://app?vid=35939b35-432f-4730-9a4d-bca4477a51c8"},"vehicle_type_id":"4","last_reported":1774088177,"current_range_meters":9600,"station_id":"ce4bhrh2rcd13ifvqhug","pricing_plan_id":"cebpf4jnsgd1na2vs0mg"},{"bike_id":"ef8cd562-295e-4308-aa28-51ee95bd4f8d","system_id":"levelo_inurba_marseille","lat":43.2815,"lon":5.42641,"is_reserved":false,"is_disabled":false,"rental_uris":{"android":"levelo://app?vid=ef8cd562-295e-4308-aa28-51ee95bd4f8d","ios":"levelo://app?vid=ef8cd562-295e-4308-aa28-51ee95bd4f8d"},"vehicle_type_id":"4","last_reported":1774088177,"current_range_meters":10000,"station_id":"ce4bhnh2rcd13ifvqgug","pricing_plan_id":"cebpf4jnsgd1na2vs0mg"},{"bike_id":"d4da46a1-3b9d-4dec-958a-07224dfcb10c","system_id":"levelo_inurba_marseille","lat":43.27241,"lon":5.39175,"is_reserved":false,"is_disabled":true,"rental_uris":{"android":"levelo://app?vid=d4da46a1-3b9d-4dec-958a-07224dfcb10c","ios":"levelo://app?vid=d4da46a1-3b9d-4dec-958a-07224dfcb10c"},"vehicle_type_id":"4","last_reported":1774088177,"current_range_meters":10000,"station_id":"ce4bhhp2rcd13ifvqfm0","pricing_plan_id":"cebpf4jnsgd1na2vs0mg"},{"bike_id":"88982f63-66e6-4089-8b7d-3322684bc37c","system_id":"levelo_inurba_marseille","lat":43.23153,"lon":5.43703,"is_reserved":false,"is_disabled":false,"rental_uris":{"android":"levelo://app?vid=88982f63-66e6-4089-8b7d-3322684bc37c","ios":"levelo://app?vid=88982f63-66e6-4089-8b7d-3322684bc37c"},"vehicle_type_id":"4","last_reported":1774088177,"current_range_meters":10000,"station_id":"ce4bhmp2rcd13ifvqgog","pricing_plan_id":"cebpf4jnsgd1na2vs0mg"},{"bike_id":"348b028b-7113-4df9-8c29-432c15b7b280","system_id":"levelo_inurba_marseille","lat":43.23981,"lon":5.36598,"is_reserved":false,"is_disabled":true,"rental_uris":{"android":"levelo://app?vid=348b028b-7113-4df9-8c29-432c15b7b280","ios":"levelo://app?vid=348b028b-7113-4df9-8c29-432c15b7b280"},"vehicle_type_id":"4","last_reported":1774088177,"current_range_meters":10000,"station_id":"ce4bhi12rcd13ifvqfp0","pricing_plan_id":"cebpf4jnsgd1na2vs0mg"},{"bike_id":"2d6d7c2d-62c0-410b-9072-ede78196496b","system_id":"levelo_inurba_marseille","lat":43.29819,"lon":5.44021,"is_reserved":false,"is_disabled":false,"rental_uris":{"android":"levelo://app?vid=2d6d7c2d-62c0-410b-9072-ede78196496b","ios":"levelo://app?vid=2d6d7c2d-62c0-410b-9072-ede78196496b"},"vehicle_type_id":"4","last_reported":1774088177,"current_range_meters":10000,"station_id":"st_d3jp68qikq2c7381ktn0","pricing_plan_id":"cebpf4jnsgd1na2vs0mg"},{"bike_id":"8294aced-9d8f-401e-9e74-4555a1438aad","system_id":"levelo_inurba_marseille","lat":43.31564,"lon":5.44531,"is_reserved":false,"is_disabled":false,"rental_uris":{"android":"levelo://app?vid=8294aced-9d8f-401e-9e74-4555a1438aad","ios":"levelo://app?vid=8294aced-9d8f-401e-9e74-4555a1438aad"},"vehicle_type_id":"4","last_reported":1774088177,"current_range_meters":10000,"station_id":"","pricing_plan_id":"cebpf4jnsgd1na2vs0mg"},{"bike_id":"dbdc8a3b-953c-4362-a754-41ca420bf842","system_id":"levelo_inurba_marseille","lat":43.26207,"lon":5.3745,"is_reserved":false,"is_disabled":false,"rental_uris":{"android":"levelo://app?vid=dbdc8a3b-953c-4362-a754-41ca420bf842","ios":"levelo://app?vid=dbdc8a3b-953c-4362-a754-41ca420bf842"},"vehicle_type_id":"4","last_reported":1774088177,"current_range_meters":10000,"station_id":"ce4bhgp2rcd13ifvqfc0","pricing_plan_id":"cebpf4jnsgd1na2vs0mg"},{"bike_id":"6adce65c-5569-49c8-9914-3626291387f0","system_id":"levelo_inurba_marseille","lat":43.25713,"lon":5.41104,"is_reserved":false,"is_disabled":false,"rental_uris":{"android":"levelo://app?vid=6adce65c-5569-49c8-9914-3626291387f0","ios":"levelo://app?vid=6adce65c-5569-49c8-9914-3626291387f0"},"vehicle_type_id":"4","last_reported":1774088177,"current_range_meters":10000,"station_id":"ce4bhkp2rcd13ifvqgd0","pricing_plan_id":"cebpf4jnsgd1na2vs0mg"},{"bike_id":"8d187965-b176-4a8c-896a-e876793256e9","system_id":"levelo_inurba_marseille","lat":43.29549,"lon":5.42292,"is_reserved":false,"is_disabled":false,"rental_uris":{"android":"levelo://app?vid=8d187965-b176-4a8c-896a-e876793256e9","ios":"levelo://app?vid=8d187965-b176-4a8c-896a-e876793256e9"},"vehicle_type_id":"4","last_reported":1774088177,"current_range_meters":10000,"station_id":"ce4bhph2rcd13ifvqhdg","pricing_plan_id":"cebpf4jnsgd1na2vs0mg"},{"bike_id":"b41ba9fd-1286-49b2-bb79-3ecc772ffeae","system_id":"levelo_inurba_marseille","lat":43.32116,"lon":5.36745,"is_reserved":false,"is_disabled":false,"rental_uris":{"android":"levelo://app?vid=b41ba9fd-1286-49b2-bb79-3ecc772ffeae","ios":"levelo://app?vid=b41ba9fd-1286-49b2-bb79-3ecc772ffeae"},"vehicle_type_id":"4","last_reported":1774088177,"current_range_meters":10000,"station_id":"ce4bhrh2rcd13ifvqhug","pricing_plan_id":"cebpf4jnsgd1na2vs0mg"},{"bike_id":"43896f5d-389e-42a0-8bc7-60817a7f1527","system_id":"levelo_inurba_marseille","lat":43.31729,"lon":5.37869,"is_reserved":false,"is_disabled":false,"rental_uris":{"android":"levelo://app?vid=43896f5d-389e-42a0-8bc7-60817a7f1527","ios":"levelo://app?vid=43896f5d-389e-42a0-8bc7-60817a7f1527"},"vehicle_type_id":"4","last_reported":1774088177,"current_range_meters":10000,"station_id":"","pricing_plan_id":"cebpf4jnsgd1na2vs0mg"},{"bike_id":"3b53a8f1-f9cf-4c1a-8438-214141079f24","system_id":"levelo_inurba_marseille","lat":43.25118,"lon":5.40317,"is_reserved":false,"is_disabled":false,"rental_uris":{"android":"levelo://app?vid=3b53a8f1-f9cf-4c1a-8438-214141079f24","ios":"levelo://app?vid=3b53a8f1-f9cf-4c1a-8438-214141079f24"},"vehicle_type_id":"4","last_reported":1774088177,"current_range_meters":10000,"station_id":"ce4bhlh2rcd13ifvqgig","pricing_plan_id":"cebpf4jnsgd1na2vs0mg"},{"bike_id":"82918ebf-db0b-441c-be2e-745dd8531c0c","system_id":"levelo_inurba_marseille","lat":43.22561,"lon":5.41634,"is_reserved":false,"is_disabled":false,"rental_uris":{"android":"levelo://app?vid=82918ebf-db0b-441c-be2e-745dd8531c0c","ios":"levelo://app?vid=82918ebf-db0b-441c-be2e-745dd8531c0c"},"vehicle_type_id":"4","last_reported":1774088177,"current_range_meters":10000,"station_id":"st_d2o4gvlbi1j2169b742g","pricing_plan_id":"cebpf4jnsgd1na2vs0mg"},{"bike_id":"b8dca0a8-f15c-44ac-9bec-56df53cd8c15","system_id":"levelo_inurba_marseille","lat":43.30306,"lon":5.39333,"is_reserved":false,"is_disabled":false,"rental_uris":{"android":"levelo://app?vid=b8dca0a8-f15c-44ac-9bec-56df53cd8c15","ios":"levelo://app?vid=b8dca0a8-f15c-44ac-9bec-56df53cd8c15"},"vehicle_type_id":"4","last_reported":1774088177,"current_range_meters":10000,"station_id":"","pricing_plan_id":"cebpf4jnsgd1na2vs0mg"},{"bike_id":"3f9853cb-7ac3-4577-86ae-42b95d716d08","system_id":"levelo_inurba_marseille","lat":43.29043,"lon":5.3756,"is_reserved":false,"is_disabled":false,"rental_uris":{"android":"levelo://app?vid=3f9853cb-7ac3-4577-86ae-42b95d716d08","ios":"levelo://app?vid=3f9853cb-7ac3-4577-86ae-42b95d716d08"},"vehicle_type_id":"4","last_reported":1774088177,"current_range_meters":10000,"station_id":"ce4bh692rcd13ifvqe90","pricing_plan_id":"cebpf4jnsgd1na2vs0mg"},{"bike_id":"56670c9c-2f4e-4e1f-a1bc-e808558008b7","system_id":"levelo_inurba_marseille","lat":43.29795,"lon":5.3709,"is_reserved":false,"is_disabled":false,"rental_uris":{"android":"levelo://app?vid=56670c9c-2f4e-4e1f-a1bc-e808558008b7","ios":"levelo://app?vid=56670c9c-2f4e-4e1f-a1bc-e808558008b7"},"vehicle_type_id":"4","last_reported":1774088177,"current_range_meters":10800,"station_id":"ce4bgop2rcd13ifvqc1g","pricing_plan_id":"cebpf4jnsgd1na2vs0mg"},{"bike_id":"cc777a7e-f3d4-4026-819d-66c6f1a5d2b6","system_id":"levelo_inurba_marseille","lat":43.29183,"lon":5.42584,"is_reserved":false,"is_disabled":false,"rental_uris":{"android":"levelo://app?vid=cc777a7e-f3d4-4026-819d-66c6f1a5d2b6","ios":"levelo://app?vid=cc777a7e-f3d4-4026-819d-66c6f1a5d2b6"},"vehicle_type_id":"4","last_reported":1774088177,"current_range_meters":10800,"station_id":"","pricing_plan_id":"cebpf4jnsgd1na2vs0mg"},{"bike_id":"48e73ee0-aa2b-4aff-b547-d29782d1ead9","system_id":"levelo_inurba_marseille","lat":43.24164,"lon":5.36422,"is_reserved":false,"is_disabled":false,"rental_uris":{"android":"levelo://app?vid=48e73ee0-aa2b-4aff-b547-d29782d1ead9","ios":"levelo://app?vid=48e73ee0-aa2b-4aff-b547-d29782d1ead9"},"vehicle_type_id":"4","last_reported":1774088177,"current_range_meters":10800,"station_id":"cpo36qri1sfpv3e86is0","pricing_plan_id":"cebpf4jnsgd1na2vs0mg"},{"bike_id":"89ba2023-6fff-4dff-abc8-fbf442cbd137","system_id":"levelo_inurba_marseille","lat":43.30433,"lon":5.36509,"is_reserved":false,"is_disabled":false,"rental_uris":{"android":"levelo://app?vid=89ba2023-6fff-4dff-abc8-fbf442cbd137","ios":"levelo://app?vid=89ba2023-6fff-4dff-abc8-fbf442cbd137"},"vehicle_type_id":"4","last_reported":1774088177,"current_range_meters":10800,"station_id":"","pricing_plan_id":"cebpf4jnsgd1na2vs0mg"},{"bike_id":"1ebcf1d4-ad54-4c02-9922-6c8e824776d7","system_id":"levelo_inurba_marseille","lat":43.337509,"lon":5.374559,"is_reserved":false,"is_disabled":false,"rental_uris":{"android":"levelo://app?vid=1ebcf1d4-ad54-4c02-9922-6c8e824776d7","ios":"levelo://app?vid=1ebcf1d4-ad54-4c02-9922-6c8e824776d7"},"vehicle_type_id":"4","last_reported":1774088177,"current_range_meters":10800,"station_id":"","pricing_plan_id":"cebpf4jnsgd1na2vs0mg"},{"bike_id":"b48db811-f2cf-46ea-aa62-4aa4fcd788b4","system_id":"levelo_inurba_marseille","lat":43.29896,"lon":5.43672,"is_reserved":false,"is_disabled":false,"rental_uris":{"android":"levelo://app?vid=b48db811-f2cf-46ea-aa62-4aa4fcd788b4","ios":"levelo://app?vid=b48db811-f2cf-46ea-aa62-4aa4fcd788b4"},"vehicle_type_id":"4","last_reported":1774088177,"current_range_meters":10800,"station_id":"ce4bhpp2rcd13ifvqhfg","pricing_plan_id":"cebpf4jnsgd1na2vs0mg"},{"bike_id":"268ffe33-8934-4735-9656-517059b49f96","system_id":"levelo_inurba_marseille","lat":43.255185,"lon":5.376515,"is_reserved":false,"is_disabled":false,"rental_uris":{"android":"levelo://app?vid=268ffe33-8934-4735-9656-517059b49f96","ios":"levelo://app?vid=268ffe33-8934-4735-9656-517059b49f96"},"vehicle_type_id":"4","last_reported":1774088177,"current_range_meters":10800,"station_id":"ce4bhh12rcd13ifvqff0","pricing_plan_id":"cebpf4jnsgd1na2vs0mg"},{"bike_id":"ad0ded3e-f30a-4286-9bf5-c0e7af42988b","system_id":"levelo_inurba_marseille","lat":43.26556,"lon":5.37276,"is_reserved":false,"is_disabled":false,"rental_uris":{"android":"levelo://app?vid=ad0ded3e-f30a-4286-9bf5-c0e7af42988b","ios":"levelo://app?vid=ad0ded3e-f30a-4286-9bf5-c0e7af42988b"},"vehicle_type_id":"4","last_reported":1774088177,"current_range_meters":10800,"station_id":"ce4bhg12rcd13ifvqf70","pricing_plan_id":"cebpf4jnsgd1na2vs0mg"},{"bike_id":"6e2ca02c-e7c9-483b-a0e1-70499ff42a06","system_id":"levelo_inurba_marseille","lat":43.33148,"lon":5.37707,"is_reserved":false,"is_disabled":false,"rental_uris":{"android":"levelo://app?vid=6e2ca02c-e7c9-483b-a0e1-70499ff42a06","ios":"levelo://app?vid=6e2ca02c-e7c9-483b-a0e1-70499ff42a06"},"vehicle_type_id":"4","last_reported":1774088177,"current_range_meters":10800,"station_id":"st_d46cu089ee8s73dldbu0","pricing_plan_id":"cebpf4jnsgd1na2vs0mg"},{"bike_id":"5cc8e008-a755-466d-8baa-e74085c439c8","system_id":"levelo_inurba_marseille","lat":43.33762,"lon":5.37446,"is_reserved":false,"is_disabled":false,"rental_uris":{"android":"levelo://app?vid=5cc8e008-a755-466d-8baa-e74085c439c8","ios":"levelo://app?vid=5cc8e008-a755-466d-8baa-e74085c439c8"},"vehicle_type_id":"4","last_reported":1774088177,"current_range_meters":10800,"station_id":"","pricing_plan_id":"cebpf4jnsgd1na2vs0mg"},{"bike_id":"ef756845-5e51-4884-8fd9-8be941a4fa51","system_id":"levelo_inurba_marseille","lat":43.30341,"lon":5.42979,"is_reserved":false,"is_disabled":false,"rental_uris":{"android":"levelo://app?vid=ef756845-5e51-4884-8fd9-8be941a4fa51","ios":"levelo://app?vid=ef756845-5e51-4884-8fd9-8be941a4fa51"},"vehicle_type_id":"4","last_reported":1774088177,"current_range_meters":10800,"station_id":"","pricing_plan_id":"cebpf4jnsgd1na2vs0mg"},{"bike_id":"59a35c57-b25f-4b58-8f45-b92d66bc7ccd","system_id":"levelo_inurba_marseille","lat":43.3021,"lon":5.36618,"is_reserved":false,"is_disabled":false,"rental_uris":{"android":"levelo://app?vid=59a35c57-b25f-4b58-8f45-b92d66bc7ccd","ios":"levelo://app?vid=59a35c57-b25f-4b58-8f45-b92d66bc7ccd"},"vehicle_type_id":"4","last_reported":1774088177,"current_range_meters":11200,"station_id":"ce4bgrh2rcd13ifvqc8g","pricing_plan_id":"cebpf4jnsgd1na2vs0mg"},{"bike_id":"978b04b5-300a-4cca-83cf-36cbae11385f","system_id":"levelo_inurba_marseille","lat":43.27364,"lon":5.39266,"is_reserved":false,"is_disabled":false,"rental_uris":{"android":"levelo://app?vid=978b04b5-300a-4cca-83cf-36cbae11385f","ios":"levelo://app?vid=978b04b5-300a-4cca-83cf-36cbae11385f"},"vehicle_type_id":"4","last_reported":1774088177,"current_range_meters":11200,"station_id":"","pricing_plan_id":"cebpf4jnsgd1na2vs0mg"},{"bike_id":"e55206dd-1f15-4e82-a5bd-d0c9070b5469","system_id":"levelo_inurba_marseille","lat":43.30416,"lon":5.41271,"is_reserved":false,"is_disabled":false,"rental_uris":{"android":"levelo://app?vid=e55206dd-1f15-4e82-a5bd-d0c9070b5469","ios":"levelo://app?vid=e55206dd-1f15-4e82-a5bd-d0c9070b5469"},"vehicle_type_id":"4","last_reported":1774088177,"current_range_meters":11200,"station_id":"ce4bhop2rcd13ifvqh8g","pricing_plan_id":"cebpf4jnsgd1na2vs0mg"},{"bike_id":"ad287529-48ff-4b5a-8220-3e44a8e61f0f","system_id":"levelo_inurba_marseille","lat":43.23968,"lon":5.36629,"is_reserved":false,"is_disabled":false,"rental_uris":{"android":"levelo://app?vid=ad287529-48ff-4b5a-8220-3e44a8e61f0f","ios":"levelo://app?vid=ad287529-48ff-4b5a-8220-3e44a8e61f0f"},"vehicle_type_id":"4","last_reported":1774088177,"current_range_meters":11200,"station_id":"ce4bhi12rcd13ifvqfp0","pricing_plan_id":"cebpf4jnsgd1na2vs0mg"},{"bike_id":"b8282293-9e5d-44c0-961a-c4ad312c5b39","system_id":"levelo_inurba_marseille","lat":43.28472,"lon":5.48372,"is_reserved":false,"is_disabled":false,"rental_uris":{"android":"levelo://app?vid=b8282293-9e5d-44c0-961a-c4ad312c5b39","ios":"levelo://app?vid=b8282293-9e5d-44c0-961a-c4ad312c5b39"},"vehicle_type_id":"4","last_reported":1774088177,"current_range_meters":11200,"station_id":"st_d3svhcjqgbts73a3dn0g","pricing_plan_id":"cebpf4jnsgd1na2vs0mg"},{"bike_id":"dd59220a-6bb2-4845-8016-d3c471a33c90","system_id":"levelo_inurba_marseille","lat":43.32364,"lon":5.36758,"is_reserved":false,"is_disabled":false,"rental_uris":{"android":"levelo://app?vid=dd59220a-6bb2-4845-8016-d3c471a33c90","ios":"levelo://app?vid=dd59220a-6bb2-4845-8016-d3c471a33c90"},"vehicle_type_id":"4","last_reported":1774088177,"current_range_meters":11200,"station_id":"ce4bhsh2rcd13ifvqi2g","pricing_plan_id":"cebpf4jnsgd1na2vs0mg"},{"bike_id":"a0d5d352-c127-4a4c-86ba-ffa3161f3193","system_id":"levelo_inurba_marseille","lat":43.22568,"lon":5.41619,"is_reserved":false,"is_disabled":false,"rental_uris":{"android":"levelo://app?vid=a0d5d352-c127-4a4c-86ba-ffa3161f3193","ios":"levelo://app?vid=a0d5d352-c127-4a4c-86ba-ffa3161f3193"},"vehicle_type_id":"4","last_reported":1774088177,"current_range_meters":11200,"station_id":"st_d2o4gvlbi1j2169b742g","pricing_plan_id":"cebpf4jnsgd1na2vs0mg"},{"bike_id":"8ca05006-c523-447f-9f81-cea1b90ff679","system_id":"levelo_inurba_marseille","lat":43.28269,"lon":5.35069,"is_reserved":false,"is_disabled":false,"rental_uris":{"android":"levelo://app?vid=8ca05006-c523-447f-9f81-cea1b90ff679","ios":"levelo://app?vid=8ca05006-c523-447f-9f81-cea1b90ff679"},"vehicle_type_id":"4","last_reported":1774088177,"current_range_meters":11200,"station_id":"ce4bhbp2rcd13ifvqerg","pricing_plan_id":"cebpf4jnsgd1na2vs0mg"},{"bike_id":"a06b86fd-d8d4-4c9f-97e8-2bc520d79cc7","system_id":"levelo_inurba_marseille","lat":43.24985,"lon":5.38911,"is_reserved":false,"is_disabled":false,"rental_uris":{"android":"levelo://app?vid=a06b86fd-d8d4-4c9f-97e8-2bc520d79cc7","ios":"levelo://app?vid=a06b86fd-d8d4-4c9f-97e8-2bc520d79cc7"},"vehicle_type_id":"4","last_reported":1774088177,"current_range_meters":11200,"station_id":"ce4bhgp2rcd13ifvqfd0","pricing_plan_id":"cebpf4jnsgd1na2vs0mg"},{"bike_id":"a1614e97-0fde-4b88-a19f-d517decb1f27","system_id":"levelo_inurba_marseille","lat":43.32104,"lon":5.36763,"is_reserved":false,"is_disabled":false,"rental_uris":{"android":"levelo://app?vid=a1614e97-0fde-4b88-a19f-d517decb1f27","ios":"levelo://app?vid=a1614e97-0fde-4b88-a19f-d517decb1f27"},"vehicle_type_id":"4","last_reported":1774088177,"current_range_meters":11200,"station_id":"ce4bhrh2rcd13ifvqhug","pricing_plan_id":"cebpf4jnsgd1na2vs0mg"},{"bike_id":"1d94c527-f837-4624-9760-ebe9d7c7e821","system_id":"levelo_inurba_marseille","lat":43.29214,"lon":5.36098,"is_reserved":false,"is_disabled":false,"rental_uris":{"android":"levelo://app?vid=1d94c527-f837-4624-9760-ebe9d7c7e821","ios":"levelo://app?vid=1d94c527-f837-4624-9760-ebe9d7c7e821"},"vehicle_type_id":"4","last_reported":1774088177,"current_range_meters":11200,"station_id":"ce4bhbh2rcd13ifvqeqg","pricing_plan_id":"cebpf4jnsgd1na2vs0mg"},{"bike_id":"71cf1ca6-8dff-47d2-ae4c-50102cdac8b2","system_id":"levelo_inurba_marseille","lat":43.31055,"lon":5.39373,"is_reserved":false,"is_disabled":false,"rental_uris":{"android":"levelo://app?vid=71cf1ca6-8dff-47d2-ae4c-50102cdac8b2","ios":"levelo://app?vid=71cf1ca6-8dff-47d2-ae4c-50102cdac8b2"},"vehicle_type_id":"4","last_reported":1774088177,"current_range_meters":11200,"station_id":"","pricing_plan_id":"cebpf4jnsgd1na2vs0mg"},{"bike_id":"bb2bb087-057b-42f3-9513-f048d27083cc","system_id":"levelo_inurba_marseille","lat":43.28174,"lon":5.42808,"is_reserved":false,"is_disabled":false,"rental_uris":{"android":"levelo://app?vid=bb2bb087-057b-42f3-9513-f048d27083cc","ios":"levelo://app?vid=bb2bb087-057b-42f3-9513-f048d27083cc"},"vehicle_type_id":"4","last_reported":1774088177,"current_range_meters":11200,"station_id":"","pricing_plan_id":"cebpf4jnsgd1na2vs0mg"},{"bike_id":"a4c6471c-38f0-49a4-9bf1-efb9cd402e55","system_id":"levelo_inurba_marseille","lat":43.30351,"lon":5.41875,"is_reserved":false,"is_disabled":false,"rental_uris":{"android":"levelo://app?vid=a4c6471c-38f0-49a4-9bf1-efb9cd402e55","ios":"levelo://app?vid=a4c6471c-38f0-49a4-9bf1-efb9cd402e55"},"vehicle_type_id":"4","last_reported":1774088177,"current_range_meters":11200,"station_id":"ce4bhop2rcd13ifvqh7g","pricing_plan_id":"cebpf4jnsgd1na2vs0mg"},{"bike_id":"86f298fc-62f9-4f35-972e-43eaf550ccde","system_id":"levelo_inurba_marseille","lat":43.29223,"lon":5.36062,"is_reserved":false,"is_disabled":false,"rental_uris":{"android":"levelo://app?vid=86f298fc-62f9-4f35-972e-43eaf550ccde","ios":"levelo://app?vid=86f298fc-62f9-4f35-972e-43eaf550ccde"},"vehicle_type_id":"4","last_reported":1774088177,"current_range_meters":11200,"station_id":"ce4bhbh2rcd13ifvqeqg","pricing_plan_id":"cebpf4jnsgd1na2vs0mg"},{"bike_id":"9bd3f79a-0719-4c3f-b3c7-8051544625c1","system_id":"levelo_inurba_marseille","lat":43.2657,"lon":5.39019,"is_reserved":false,"is_disabled":true,"rental_uris":{"android":"levelo://app?vid=9bd3f79a-0719-4c3f-b3c7-8051544625c1","ios":"levelo://app?vid=9bd3f79a-0719-4c3f-b3c7-8051544625c1"},"vehicle_type_id":"4","last_reported":1774088177,"current_range_meters":11600,"station_id":"ce4bhe12rcd13ifvqf30","pricing_plan_id":"cebpf4jnsgd1na2vs0mg"},{"bike_id":"33eec570-8fa9-4c21-81ac-8ce8da46ca39","system_id":"levelo_inurba_marseille","lat":43.23067,"lon":5.35494,"is_reserved":false,"is_disabled":false,"rental_uris":{"android":"levelo://app?vid=33eec570-8fa9-4c21-81ac-8ce8da46ca39","ios":"levelo://app?vid=33eec570-8fa9-4c21-81ac-8ce8da46ca39"},"vehicle_type_id":"4","last_reported":1774088177,"current_range_meters":11600,"station_id":"cpo3342slgdg3j2ifvpg","pricing_plan_id":"cebpf4jnsgd1na2vs0mg"},{"bike_id":"c17aa84d-9cd6-40e7-a87c-d0697d4a94da","system_id":"levelo_inurba_marseille","lat":43.29008,"lon":5.35606,"is_reserved":false,"is_disabled":false,"rental_uris":{"android":"levelo://app?vid=c17aa84d-9cd6-40e7-a87c-d0697d4a94da","ios":"levelo://app?vid=c17aa84d-9cd6-40e7-a87c-d0697d4a94da"},"vehicle_type_id":"4","last_reported":1774088177,"current_range_meters":11600,"station_id":"ce4bhb92rcd13ifvqen0","pricing_plan_id":"cebpf4jnsgd1na2vs0mg"},{"bike_id":"f31af7da-bcce-4b34-9ba7-f01b9da1af25","system_id":"levelo_inurba_marseille","lat":43.24635,"lon":5.43482,"is_reserved":false,"is_disabled":true,"rental_uris":{"android":"levelo://app?vid=f31af7da-bcce-4b34-9ba7-f01b9da1af25","ios":"levelo://app?vid=f31af7da-bcce-4b34-9ba7-f01b9da1af25"},"vehicle_type_id":"4","last_reported":1774088177,"current_range_meters":11600,"station_id":"","pricing_plan_id":"cebpf4jnsgd1na2vs0mg"},{"bike_id":"7dfdfc85-966e-45be-9dbc-d7bccd3639a8","system_id":"levelo_inurba_marseille","lat":43.24804,"lon":5.37442,"is_reserved":false,"is_disabled":false,"rental_uris":{"android":"levelo://app?vid=7dfdfc85-966e-45be-9dbc-d7bccd3639a8","ios":"levelo://app?vid=7dfdfc85-966e-45be-9dbc-d7bccd3639a8"},"vehicle_type_id":"4","last_reported":1774088177,"current_range_meters":11600,"station_id":"ce4bhgh2rcd13ifvqfb0","pricing_plan_id":"cebpf4jnsgd1na2vs0mg"},{"bike_id":"069a31e1-8491-47f6-acb3-52f081dfc8d1","system_id":"levelo_inurba_marseille","lat":43.30302,"lon":5.36914,"is_reserved":false,"is_disabled":false,"rental_uris":{"android":"levelo://app?vid=069a31e1-8491-47f6-acb3-52f081dfc8d1","ios":"levelo://app?vid=069a31e1-8491-47f6-acb3-52f081dfc8d1"},"vehicle_type_id":"4","last_reported":1774088177,"current_range_meters":11600,"station_id":"ce4bgqh2rcd13ifvqc5g","pricing_plan_id":"cebpf4jnsgd1na2vs0mg"},{"bike_id":"33aaaea6-da5f-4b1f-8224-cb0605e84282","system_id":"levelo_inurba_marseille","lat":43.29242,"lon":5.36084,"is_reserved":false,"is_disabled":false,"rental_uris":{"android":"levelo://app?vid=33aaaea6-da5f-4b1f-8224-cb0605e84282","ios":"levelo://app?vid=33aaaea6-da5f-4b1f-8224-cb0605e84282"},"vehicle_type_id":"4","last_reported":1774088177,"current_range_meters":11600,"station_id":"ce4bhbh2rcd13ifvqeqg","pricing_plan_id":"cebpf4jnsgd1na2vs0mg"},{"bike_id":"18ad6417-44f6-443a-9f82-d20df80f617b","system_id":"levelo_inurba_marseille","lat":43.29787,"lon":5.37102,"is_reserved":false,"is_disabled":true,"rental_uris":{"android":"levelo://app?vid=18ad6417-44f6-443a-9f82-d20df80f617b","ios":"levelo://app?vid=18ad6417-44f6-443a-9f82-d20df80f617b"},"vehicle_type_id":"4","last_reported":1774088177,"current_range_meters":11600,"station_id":"ce4bgop2rcd13ifvqc1g","pricing_plan_id":"cebpf4jnsgd1na2vs0mg"},{"bike_id":"c27cb8c8-355e-4db1-b15e-e855e0e04dd2","system_id":"levelo_inurba_marseille","lat":43.2737,"lon":5.36263,"is_reserved":false,"is_disabled":false,"rental_uris":{"android":"levelo://app?vid=c27cb8c8-355e-4db1-b15e-e855e0e04dd2","ios":"levelo://app?vid=c27cb8c8-355e-4db1-b15e-e855e0e04dd2"},"vehicle_type_id":"4","last_reported":1774088177,"current_range_meters":11600,"station_id":"ce4bhbh2rcd13ifvqeo0","pricing_plan_id":"cebpf4jnsgd1na2vs0mg"},{"bike_id":"53e4ed02-ce84-4fb1-b007-ef91243e832a","system_id":"levelo_inurba_marseille","lat":43.30281,"lon":5.38575,"is_reserved":false,"is_disabled":false,"rental_uris":{"android":"levelo://app?vid=53e4ed02-ce84-4fb1-b007-ef91243e832a","ios":"levelo://app?vid=53e4ed02-ce84-4fb1-b007-ef91243e832a"},